type,name,lat,lon,total,total_per_100k_inhabitants
1,Abadia de Goiás/GO,-16.7572644,-49.4412205,33,376.15411
1,Abadia dos Dourados/MG,-18.4911191,-47.4063589,5,71.54099
1,Abadiânia/GO,-16.1940946,-48.7067767,40,199.58088
D1,Abadiânia/GO,-16.1940946,-48.7067767,1,4.98952
1,Abaetetuba/PA,-1.721828,-48.878843,2309,1464.19105
D1,Abaetetuba/PA,-1.721828,-48.878843,99,62.77822
1,Abaeté/MG,-19.1566833,-45.4481213,10,43.03482
1,Abaiara/CE,-7.3607808,-39.0487878,18,153.36117
D1,Abaiara/CE,-7.3607808,-39.0487878,1,8.52006
1,Abaré/BA,-8.7239913,-39.1139689,2,9.95718
1,Abatiá/PR,-23.3052967,-50.3102532,38,509.58831
1,Abaíra/BA,-13.2503296,-41.6640342,7,80.10070
1,Abdon Batista/SC,-27.612419,-51.022992,26,1014.43621
1,Abel Figueiredo/PA,-4.953001,-48.3958485,69,928.16788
D1,Abel Figueiredo/PA,-4.953001,-48.3958485,1,13.45171
1,Abelardo Luz/SC,-26.5705893,-52.3280339,38,212.24307
D1,Abelardo Luz/SC,-26.5705893,-52.3280339,1,5.58534
1,Abre Campo/MG,-20.2976097,-42.4764741,7,52.02914
1,Abreu e Lima/PE,-7.900719,-34.898389,478,478.04780
D1,Abreu e Lima/PE,-7.900719,-34.898389,56,56.00560
1,Abreulândia/TO,-9.6221526,-49.1558343,4,155.09888
D1,Abreulândia/TO,-9.6221526,-49.1558343,1,38.77472
1,Acaiaca/MG,-20.3621646,-43.1444162,11,275.41312
D1,Acaiaca/MG,-20.3621646,-43.1444162,1,25.03756
1,Acajutiba/BA,-11.6609659,-38.0186381,23,151.72505
D1,Acajutiba/BA,-11.6609659,-38.0186381,1,6.59674
1,Acarape/CE,-4.2237866,-38.7071663,475,3181.72684
D1,Acarape/CE,-4.2237866,-38.7071663,11,73.68210
1,Acaraú/CE,-2.8869514,-40.1194713,1649,2632.46117
D1,Acaraú/CE,-2.8869514,-40.1194713,43,68.64514
1,Acari/RN,-6.4364689,-36.6394777,10,89.79885
1,Acará/PA,-1.961388,-48.1987043,451,811.28240
D1,Acará/PA,-1.961388,-48.1987043,9,16.18967
1,Acauã/PI,-8.219542,-41.083059,5,70.58159
1,Acopiara/CE,-6.0936464,-39.4543204,242,445.91856
D1,Acopiara/CE,-6.0936464,-39.4543204,17,31.32486
1,Acorizal/MT,-15.2001544,-56.3668953,33,611.22430
D1,Acorizal/MT,-15.2001544,-56.3668953,1,18.52195
1,Acrelândia/AC,-10.0759167,-67.0526898,192,1258.52124
D1,Acrelândia/AC,-10.0759167,-67.0526898,3,19.66439
1,Acreúna/GO,-17.3959899,-50.3749031,9,40.23965
D1,Acreúna/GO,-17.3959899,-50.3749031,1,4.47107
1,Adamantina/SP,-21.6866517,-51.0762975,51,145.43173
D1,Adamantina/SP,-21.6866517,-51.0762975,5,14.25801
1,Adelândia/GO,-16.4155077,-50.1665834,12,476.94754
1,Adolfo/SP,-21.2356597,-49.6441918,21,589.55643
D1,Adolfo/SP,-21.2356597,-49.6441918,2,56.14823
1,Adrianópolis/PR,-24.6557863,-48.9912769,29,489.94763
D1,Adrianópolis/PR,-24.6557863,-48.9912769,1,16.89475
1,Adustina/BA,-10.5358875,-38.114479,25,146.71362
D1,Adustina/BA,-10.5358875,-38.114479,1,5.86854
1,Afogados da Ingazeira/PE,-7.750429,-37.6356375,76,203.97756
D1,Afogados da Ingazeira/PE,-7.750429,-37.6356375,4,10.73566
1,Afonso Bezerra/RN,-5.4745,-36.57625071327935,37,335.29678
D1,Afonso Bezerra/RN,-5.4745,-36.57625071327935,4,36.24830
1,Afonso Cláudio/ES,-20.077841,-41.12606,286,935.06833
D1,Afonso Cláudio/ES,-20.077841,-41.12606,8,26.15576
1,Afonso Cunha/MA,-4.1326105,-43.3230026,77,1180.25751
1,Afrânio/PE,-8.5198919,-41.0070197,65,331.04151
D1,Afrânio/PE,-8.5198919,-41.0070197,1,5.09295
1,Afuá/PA,-0.1535664,-50.3879223,658,1677.80101
D1,Afuá/PA,-0.1535664,-50.3879223,5,12.74925
1,Agrestina/PE,-8.4558021,-35.9442663,169,679.12397
D1,Agrestina/PE,-8.4558021,-35.9442663,13,52.24031
1,Agricolândia/PI,-5.7967843,-42.6605131,11,214.04943
1,Agrolândia/SC,-27.4122212,-49.8295774,12,110.45655
D1,Agrolândia/SC,-27.4122212,-49.8295774,2,18.40943
1,Agronômica/SC,-27.2660744,-49.7104753,15,275.33040
D1,Agronômica/SC,-27.2660744,-49.7104753,2,36.71072
1,Aguanil/MG,-20.9424533,-45.3927152,5,111.45787
1,Aguaí/SP,-22.0592036,-46.979384,72,198.31979
D1,Aguaí/SP,-22.0592036,-46.979384,4,11.01777
1,Agudo/RS,-29.6423259,-53.2494005,2,12.14993
1,Agudos do Sul/PR,-25.9890808,-49.3328175,20,213.42439
1,Agudos/SP,-22.471162,-48.987822,104,279.46472
D1,Agudos/SP,-22.471162,-48.987822,3,8.06148
1,Aguiar/PB,-7.0928404,-38.1727215,16,283.68794
1,Aguiarnópolis/TO,-6.5600452,-47.4721189,123,1826.82311
D1,Aguiarnópolis/TO,-6.5600452,-47.4721189,4,59.40888
1,Aimorés/MG,-19.4917754,-41.0615603,81,321.85004
1,Aiquara/BA,-14.126918,-39.8887574,10,224.92128
D1,Aiquara/BA,-14.126918,-39.8887574,1,22.49213
1,Aiuaba/CE,-6.5710836,-40.1212278,9,51.72711
D1,Aiuaba/CE,-6.5710836,-40.1212278,1,5.74746
1,Ajuricaba/RS,-28.239654,-53.7693013,2,28.47380
1,Alagoa Grande/PB,-7.0415212,-35.6285322,382,1340.53902
D1,Alagoa Grande/PB,-7.0415212,-35.6285322,6,21.05559
1,Alagoa Nova/PB,-7.0653703,-35.76695977336711,158,757.83011
D1,Alagoa Nova/PB,-7.0653703,-35.76695977336711,3,14.38918
1,Alagoinha do Piauí/PI,-7.0090952,-40.939675,19,248.33355
1,Alagoinha/PB,-6.97063215,-35.51490901897793,399,2753.81324
D1,Alagoinha/PB,-6.97063215,-35.51490901897793,1,6.90179
1,Alagoinha/PE,-8.50355635,-36.77701174370496,48,327.95846
D1,Alagoinha/PE,-8.50355635,-36.77701174370496,1,6.83247
1,Alagoinhas/BA,-12.133526,-38.420772,435,286.94689
D1,Alagoinhas/BA,-12.133526,-38.420772,6,3.95789
1,Alambari/SP,-23.550338,-47.897971,14,232.36515
1,Alcantil/PB,-7.7425491,-36.0609604,20,364.16606
1,Alcinópolis/MS,-18.3264121,-53.7094463,1,18.71608
1,Alcobaça/BA,-17.5215875,-39.1965474,54,240.32043
D1,Alcobaça/BA,-17.5215875,-39.1965474,1,4.45038
1,Alcântara/MA,-2.4038956,-44.4154241,30,135.76504
D1,Alcântara/MA,-2.4038956,-44.4154241,5,22.62751
1,Alcântaras/CE,-3.586247,-40.5457641,253,2159.80878
D1,Alcântaras/CE,-3.586247,-40.5457641,2,17.07359
1,Aldeias Altas/MA,-4.6291957,-43.4708622,64,241.21815
1,Alecrim/RS,-27.6566142,-54.7653195,2,33.61345
1,Alegre/ES,-20.7625787,-41.5318886,101,335.72663
D1,Alegre/ES,-20.7625787,-41.5318886,6,19.94416
1,Alegrete do Piauí/PI,-7.2440138,-40.8602296,1,20.34588
1,Alegrete/RS,-29.790166,-55.794862,50,67.94494
D1,Alegrete/RS,-29.790166,-55.794862,5,6.79449
1,Alegria/RS,-27.8332103,-54.0574959,1,28.86836
1,Alenquer/PA,-1.946229,-54.738355,490,862.84316
D1,Alenquer/PA,-1.946229,-54.738355,18,31.69628
1,Alexandria/RN,-6.414779,-38.0135516,10,73.65397
D1,Alexandria/RN,-6.414779,-38.0135516,1,7.36540
1,Alexânia/GO,-16.0834049,-48.5077803,41,148.26601
D1,Alexânia/GO,-16.0834049,-48.5077803,1,3.61624
1,Alfenas/MG,-21.4297405,-45.9479419,42,52.50263
1,Alfredo Chaves/ES,-20.624970400000002,-40.75006690147988,130,890.34998
D1,Alfredo Chaves/ES,-20.624970400000002,-40.75006690147988,3,20.54654
1,Alfredo Marcondes/SP,-21.9527,-51.413956,5,120.01920
D1,Alfredo Marcondes/SP,-21.9527,-51.413956,2,48.00768
1,Alfredo Vasconcelos/MG,-21.145833,-43.776389,3,43.43420
D1,Alfredo Vasconcelos/MG,-21.145833,-43.776389,1,14.47807
1,Alfredo Wagner/SC,-27.6961513,-49.3326734,4,39.85652
1,Algodão de Jandaíra/PB,-6.9040175,-36.0089879,3,116.86794
1,Alhandra/PB,-7.4304246,-34.9106103,310,1582.60159
D1,Alhandra/PB,-7.4304246,-34.9106103,8,40.84133
1,Aliança do Tocantins/TO,-11.3055927,-48.9409096,6,111.31725
1,Aliança/PE,-7.60398,-35.222696,176,458.50049
D1,Aliança/PE,-7.60398,-35.222696,17,44.28698
1,Almadina/BA,-14.70466,-39.6381994,17,311.12738
D1,Almadina/BA,-14.70466,-39.6381994,1,18.30161
1,Almas/TO,-11.5681309,-47.1702803,2,28.34869
1,Almeirim/PA,-1.5290377,-52.5788111,125,366.47219
D1,Almeirim/PA,-1.5290377,-52.5788111,10,29.31778
1,Almenara/MG,-16.1740678,-40.6904907,46,109.79568
1,Almino Afonso/RN,-6.1544208,-37.7649018,7,147.83527
1,Almirante Tamandaré/PR,-25.3133048,-49.2997838,136,114.64893
D1,Almirante Tamandaré/PR,-25.3133048,-49.2997838,2,1.68601
1,Aloândia/GO,-17.7277983,-49.4809338,1,50.12531
1,Alpercata/MG,-18.9803616,-41.9827637,67,902.47845
1,Alpestre/RS,-27.2512339,-53.0349646,15,239.69319
1,Alpinópolis/MG,-20.863611,-46.387777,1,5.03702
1,Alta Floresta D'Oeste/RO,-11.9296917,-61.9961284,104,453.25779
1,Alta Floresta/MT,-9.8715018,-56.0839881,152,293.53830
D1,Alta Floresta/MT,-9.8715018,-56.0839881,3,5.79352
1,Altair/SP,-20.5238955,-49.0606135,2,48.07692
1,Altamira do Maranhão/MA,-4.1643006,-45.4674574,51,627.46063
D1,Altamira do Maranhão/MA,-4.1643006,-45.4674574,4,49.21260
1,Altamira do Paraná/PR,-24.799114,-52.7128633,1,51.49331
1,Altamira/PA,-3.204065,-52.209961,1542,1345.62019
D1,Altamira/PA,-3.204065,-52.209961,55,47.99553
1,Altaneira/CE,-6.9980933,-39.7385742,2,26.36436
1,Alterosa/MG,-21.249166,-46.143055,2,13.82552
1,Altinho/PE,-8.4904095,-36.0607494,135,587.67195
D1,Altinho/PE,-8.4904095,-36.0607494,3,13.05938
1,Altinópolis/SP,-21.021364,-47.3712,16,98.86307
1,Alto Alegre do Maranhão/MA,-4.2055693,-44.4525287,294,1086.75563
D1,Alto Alegre do Maranhão/MA,-4.2055693,-44.4525287,8,29.57158
1,Alto Alegre do Pindaré/MA,-3.6698186,-45.8462153,419,1312.69777
D1,Alto Alegre do Pindaré/MA,-3.6698186,-45.8462153,1,3.13293
1,Alto Alegre dos Parecis/RO,-12.1314515,-61.856265,37,279.43509
D1,Alto Alegre dos Parecis/RO,-12.1314515,-61.856265,1,7.55230
1,Alto Alegre/RR,2.98858,-61.307167,219,1411.99226
D1,Alto Alegre/RR,2.98858,-61.307167,5,32.23727
1,Alto Alegre/SP,-21.5820592,-50.1661976,3,73.18858
D1,Alto Alegre/SP,-21.5820592,-50.1661976,1,24.39619
1,Alto Araguaia/MT,-17.3156528,-53.2169365,33,173.28292
D1,Alto Araguaia/MT,-17.3156528,-53.2169365,3,15.75299
1,Alto Bela Vista/SC,-27.4320737,-51.905771,6,309.75736
1,Alto Boa Vista/MT,-11.6723985,-51.3744431,27,395.77836
D1,Alto Boa Vista/MT,-11.6723985,-51.3744431,2,29.31692
1,Alto Caparaó/MG,-20.4405661,-41.8683799,3,51.30836
1,Alto Feliz/RS,-29.3785943,-51.3123751,5,165.12550
1,Alto Garças/MT,-16.9469683,-53.529427,33,274.31421
1,Alto Horizonte/GO,-14.1954948,-49.3366993,1,15.59089
1,Alto Jequitibá/MG,-20.423611,-41.966111,17,204.40063
D1,Alto Jequitibá/MG,-20.423611,-41.966111,1,12.02357
1,Alto Longá/PI,-5.2549051,-42.2072388,28,195.74944
D1,Alto Longá/PI,-5.2549051,-42.2072388,1,6.99105
1,Alto Paraguai/MT,-14.513712,-56.4936374,9,79.25326
1,Alto Paraná/PR,-23.131247,-52.318893,13,88.01625
1,Alto Paraíso de Goiás/GO,-14.1304779,-47.5100161,6,78.69885
1,Alto Paraíso/PR,-23.508137,-53.728537,1,36.48304
1,Alto Paraíso/RO,-9.7240103,-63.3188123,61,284.67426
D1,Alto Paraíso/RO,-9.7240103,-63.3188123,3,14.00037
1,Alto Parnaíba/MA,-9.112506,-45.9310154,67,598.74888
1,Alto Piquiri/PR,-24.0239021,-53.4417448,10,101.66734
1,Alto Rio Doce/MG,-21.0239537,-43.4133507,54,490.90909
D1,Alto Rio Doce/MG,-21.0239537,-43.4133507,1,9.09091
1,Alto Rio Novo/ES,-19.0577208,-41.0171518,17,216.94742
D1,Alto Rio Novo/ES,-19.0577208,-41.0171518,2,25.52323
1,Alto Santo/CE,-5.5190371,-38.2719351,80,466.58113
D1,Alto Santo/CE,-5.5190371,-38.2719351,4,23.32906
1,Alto Taquari/MT,-17.8269099,-53.2831736,5,46.09569
D1,Alto Taquari/MT,-17.8269099,-53.2831736,1,9.21914
1,Alto do Rodrigues/RN,-5.290868,-36.7616726,124,853.46548
D1,Alto do Rodrigues/RN,-5.290868,-36.7616726,6,41.29672
1,Altos/PI,-5.0393915,-42.4611694,357,880.95943
D1,Altos/PI,-5.0393915,-42.4611694,5,12.33837
1,Altônia/PR,-23.8722004,-53.894037,6,27.20348
1,Alumínio/SP,-23.5203479,-47.2575256,47,252.30835
D1,Alumínio/SP,-23.5203479,-47.2575256,2,10.73653
1,Alvarenga/MG,-19.4175,-41.728334,94,2405.93806
1,Alvarães/AM,-3.214786,-64.8143124,926,5772.70744
D1,Alvarães/AM,-3.214786,-64.8143124,13,81.04233
1,Alvinlândia/SP,-22.4431852,-49.7643596,1,31.03662
1,Alvinópolis/MG,-20.1105199,-43.0601805,9,59.19884
1,Alvorada D'Oeste/RO,-11.346271,-62.284697,18,124.90459
D1,Alvorada D'Oeste/RO,-11.346271,-62.284697,1,6.93914
1,Alvorada de Minas/MG,-18.7318587,-43.3641479,10,277.31559
1,Alvorada do Gurguéia/PI,-8.4465288,-43.8655915,6,110.72154
1,Alvorada do Norte/GO,-14.483911,-46.4959897,2,23.09469
1,Alvorada do Sul/PR,-22.7807269,-51.2307721,9,78.90584
D1,Alvorada do Sul/PR,-22.7807269,-51.2307721,2,17.53463
1,Alvorada/RS,-29.9981184,-51.0772509,362,172.13095
D1,Alvorada/RS,-29.9981184,-51.0772509,9,4.27950
1,Alvorada/TO,-12.478465,-49.124926,16,190.20447
1,Além Paraíba/MG,-21.8760576,-42.6810473,154,435.49573
D1,Além Paraíba/MG,-21.8760576,-42.6810473,2,5.65579
1,Amajari/RR,3.6523869,-61.4194315,137,1070.64708
D1,Amajari/RR,3.6523869,-61.4194315,4,31.25977
1,Amambai/MS,-23.1082701,-55.2284854,16,40.61326
D1,Amambai/MS,-23.1082701,-55.2284854,1,2.53833
1,Amaporã/PR,-23.094272,-52.786597,19,303.65990
1,Amapá do Maranhão/MA,-1.6762114,-46.0109669,3,43.09107
1,Amapá/AP,2.0529997,-50.7930003,322,3534.96542
D1,Amapá/AP,2.0529997,-50.7930003,4,43.91261
1,Amaraji/PE,-8.373925,-35.4536527,99,433.65894
D1,Amaraji/PE,-8.373925,-35.4536527,15,65.70590
1,Amaralina/GO,-13.9236199,-49.2962411,3,78.69885
1,Amarante do Maranhão/MA,-5.56913,-46.747284,455,1098.10547
D1,Amarante do Maranhão/MA,-5.56913,-46.747284,11,26.54760
1,Amarante/PI,-6.2459374,-42.8476238,10,56.82464
1,Amargosa/BA,-13.03793715,-39.60796443875596,33,88.61201
D1,Amargosa/BA,-13.03793715,-39.60796443875596,1,2.68521
1,Amaturá/AM,-3.3640509,-68.1994689,409,3545.42302
D1,Amaturá/AM,-3.3640509,-68.1994689,8,69.34813
1,Americana/SP,-22.7392463,-47.3306032,527,219.95267
D1,Americana/SP,-22.7392463,-47.3306032,23,9.59945
1,Americano do Brasil/GO,-16.2515808,-49.9806104,28,458.19015
D1,Americano do Brasil/GO,-16.2515808,-49.9806104,1,16.36393
1,Ametista do Sul/RS,-27.3617341,-53.1826575,11,148.46808
1,Amontada/CE,-3.3634586,-39.8284791,605,1392.34097
D1,Amontada/CE,-3.3634586,-39.8284791,14,32.21946
1,Amorinópolis/GO,-16.6211308,-51.0949921,2,63.97953
1,Amparo de São Francisco/SE,-10.1299754,-36.9269099,8,336.98399
1,Amparo do Serra/MG,-20.5070255,-42.8028462,2,42.43582
1,Amparo/PB,-7.56394725,-37.04652873235175,12,536.19303
1,Amparo/SP,-22.70111,-46.76444,142,196.68952
D1,Amparo/SP,-22.70111,-46.76444,7,9.69596
1,Ampére/PR,-25.9168712,-53.4742414,6,31.32832
D1,Ampére/PR,-25.9168712,-53.4742414,1,5.22139
1,Amélia Rodrigues/BA,-12.4015388,-38.7516971,82,326.66720
1,América Dourada/BA,-11.4515262,-41.4357517,13,80.77544
1,Américo Brasiliense/SP,-21.7297099,-48.1052092,120,296.26704
D1,Américo Brasiliense/SP,-21.7297099,-48.1052092,2,4.93778
1,Américo de Campos/SP,-20.298476,-49.735904,28,469.09030
1,Anadia/AL,-9.6830208,-36.3052699,177,1008.83443
D1,Anadia/AL,-9.6830208,-36.3052699,1,5.69963
1,Anagé/BA,-14.6134669,-41.1376308,9,40.89980
D1,Anagé/BA,-14.6134669,-41.1376308,1,4.54442
1,Anahy/PR,-24.6450861,-53.1337957,9,321.31382
1,Anajatuba/MA,-3.26441,-44.6179916,151,563.36977
D1,Anajatuba/MA,-3.26441,-44.6179916,6,22.38555
1,Anajás/PA,-0.9878802,-49.9390114,270,922.22564
D1,Anajás/PA,-0.9878802,-49.9390114,10,34.15651
1,Analândia/SP,-22.128917,-47.661939,4,80.08008
1,Anamã/AM,-3.5797356,-61.4049996,284,2086.08785
1,Ananindeua/PA,-1.374035,-48.4016623,4261,803.05617
D1,Ananindeua/PA,-1.374035,-48.4016623,330,62.19398
1,Ananás/TO,-6.3663053,-48.080238,31,324.64132
1,Anapu/PA,-3.4668292,-51.2057035,443,1588.38293
D1,Anapu/PA,-3.4668292,-51.2057035,6,21.51309
1,Anapurus/MA,-3.6751298,-43.1046001,515,3273.58251
D1,Anapurus/MA,-3.6751298,-43.1046001,4,25.42588
1,Anastácio/MS,-20.4832458,-55.8048448,3,11.93555
D1,Anastácio/MS,-20.4832458,-55.8048448,1,3.97852
1,Anchieta/ES,-20.8057672,-40.6454564,289,987.59526
D1,Anchieta/ES,-20.8057672,-40.6454564,6,20.50371
1,Anchieta/SC,-26.5350527,-53.3293938,9,159.63107
1,Andaraí/BA,-12.8059674,-41.3322919,7,53.26029
1,Andirá/PR,-23.0494761,-50.2310027,44,219.65953
D1,Andirá/PR,-23.0494761,-50.2310027,1,4.99226
1,Andorinha/BA,-10.3445708,-39.8334411,5,34.25831
1,Andradas/MG,-22.0680484,-46.5688976,21,51.12350
D1,Andradas/MG,-22.0680484,-46.5688976,1,2.43445
1,Andradina/SP,-20.896505,-51.3742765,63,110.22272
D1,Andradina/SP,-20.896505,-51.3742765,4,6.99827
1,Andrelândia/MG,-21.739722,-44.308889,17,139.07068
1,André da Rocha/RS,-28.6309124,-51.5733328,1,75.01875
1,Angatuba/SP,-23.4938938,-48.4110675,56,221.97558
D1,Angatuba/SP,-23.4938938,-48.4110675,2,7.92770
1,Angelim/PE,-8.8902038,-36.2872987,14,125.56054
1,Angelina/SC,-27.5805287,-48.9838759,1,20.82899
1,Angical do Piauí/PI,-6.0872666,-42.7366138,20,294.63760
D1,Angical do Piauí/PI,-6.0872666,-42.7366138,1,14.73188
1,Angical/BA,-12.005623,-44.7000236,1,7.15461
1,Angico/TO,-6.3893733,-47.8656722,10,291.29042
1,Angicos/RN,-5.6666344,-36.6009064,25,213.41984
D1,Angicos/RN,-5.6666344,-36.6009064,2,17.07359
1,Angra dos Reis/RJ,-23.0063966,-44.316326,2185,1072.20845
D1,Angra dos Reis/RJ,-23.0063966,-44.316326,79,38.76635
1,Anguera/BA,-12.1509425,-39.2452469,27,240.62027
1,Angélica/MS,-22.1588196,-53.7728504,4,37.10575
1,Anhanguera/GO,-18.3338749,-48.220363,1,87.03220
1,Anhembi/SP,-22.7891096,-48.1316776,2,29.74420
1,Anhumas/SP,-22.2956478,-51.3873401,4,97.20535
1,Anicuns/GO,-16.4606451,-49.9572265,62,283.75286
1,Anita Garibaldi/SC,-27.6855032,-51.1293873,4,56.07739
1,Anitápolis/SC,-27.9041185,-49.1287395,1,30.94059
1,Anori/AM,-3.7435254,-61.6605203,566,2693.95526
D1,Anori/AM,-3.7435254,-61.6605203,10,47.59638
1,Anta Gorda/RS,-28.9718745,-52.0069187,10,167.19612
1,Antas/BA,-10.4114649,-38.3308815,4,20.73506
1,Antonina do Norte/CE,-6.7754187,-39.9879345,11,149.59880
1,Antonina/PR,-25.4298854,-48.7125431,16,84.29926
1,Antônio Almeida/PI,-7.2186016,-44.1950248,3,94.81669
1,Antônio Cardoso/BA,-12.4363122,-39.1200307,9,77.03501
1,Antônio Carlos/MG,-21.318334,-43.746666,12,104.84928
1,Antônio Carlos/SC,-27.5168462,-48.7684715,41,481.61635
D1,Antônio Carlos/SC,-27.5168462,-48.7684715,4,46.98696
1,Antônio Dias/MG,-19.6525,-42.872778,29,311.22558
1,Antônio Gonçalves/BA,-10.5715409,-40.2748824,12,101.71215
1,Antônio Martins/RN,-6.2155812,-37.8890129,3,41.98740
1,Antônio Olinto/PR,-25.9849006,-50.1974516,6,80.71025
1,Antônio Prado/RS,-28.8567806,-51.2801355,11,84.29119
1,Anápolis/GO,-16.3332828,-48.9525756,815,210.63622
D1,Anápolis/GO,-16.3332828,-48.9525756,5,1.29225
1,Anísio de Abreu/PI,-9.185643,-43.04941,18,182.18623
1,Aparecida d'Oeste/SP,-20.4498109,-50.8808706,5,119.16111
1,Aparecida de Goiânia/GO,-16.8226769,-49.2452546,2581,446.40155
D1,Aparecida de Goiânia/GO,-16.8226769,-49.2452546,49,8.47488
1,Aparecida do Rio Doce/GO,-18.2980167,-51.1491312,23,929.66855
D1,Aparecida do Rio Doce/GO,-18.2980167,-51.1491312,1,40.42037
1,Aparecida do Taboado/MS,-20.0840304,-51.1013943,12,46.61099
1,Aparecida/PB,-6.7859598, -38.0831353,24,287.52845
1,Aparecida/SP,-22.851552,-45.2340924,19,52.54861
1,Aperibé/RJ,-21.6211928,-42.1028167,81,688.83408
D1,Aperibé/RJ,-21.6211928,-42.1028167,1,8.50412
1,Apiacá/ES,-21.152272,-41.569297,34,449.31941
D1,Apiacá/ES,-21.152272,-41.569297,1,13.21528
1,Apiacás/MT,-9.5678422,-57.394852,3,29.60624
1,Apiaí/SP,-24.5076527,-48.8461582,28,114.87651
D1,Apiaí/SP,-24.5076527,-48.8461582,1,4.10273
1,Apicum-Açu/MA,-1.5279295,-45.082278,196,1136.95690
D1,Apicum-Açu/MA,-1.5279295,-45.082278,2,11.60160
1,Apiúna/SC,-27.0374658,-49.3885037,11,102.39226
1,Apodi/RN,-5.6631109,-37.796927,713,1989.11982
D1,Apodi/RN,-5.6631109,-37.796927,9,25.10810
1,Aporá/BA,-11.6599747,-38.0794757,37,208.67407
D1,Aporá/BA,-11.6599747,-38.0794757,1,5.63984
1,Apuarema/BA,-13.8517897,-39.7457126,37,504.77490
1,Apucarana/PR,-23.5525327,-51.4610764,108,80.00237
D1,Apucarana/PR,-23.5525327,-51.4610764,8,5.92610
1,Apuiarés/CE,-3.9460303,-39.4313298,122,835.61644
D1,Apuiarés/CE,-3.9460303,-39.4313298,10,68.49315
1,Apuí/AM,-7.1940195,-59.8830192,42,191.14368
1,Aquidabã/SE,-10.2837579,-37.0188687,84,389.55618
D1,Aquidabã/SE,-10.2837579,-37.0188687,5,23.18787
1,Aquidauana/MS,-20.473969,-55.7821375,1,2.08895
1,Aquiraz/CE,-3.9063117,-38.387504,649,808.51117
D1,Aquiraz/CE,-3.9063117,-38.387504,23,28.65294
1,Arabutã/SC,-27.1587028,-52.1438142,33,773.37708
1,Aracaju/SE,-10.9162061,-37.0774655,14251,2169.05906
D1,Aracaju/SE,-10.9162061,-37.0774655,261,39.72524
1,Aracati/CE,-4.558259,-37.767894,737,988.63804
D1,Aracati/CE,-4.558259,-37.767894,36,48.29168
1,Aracatu/BA,-14.4274236,-41.4604105,15,114.19871
1,Araci/BA,-11.3356065,-38.9573261,207,380.66165
D1,Araci/BA,-11.3356065,-38.9573261,1,1.83895
1,Aracoiaba/CE,-4.3702577,-38.8084313,414,1564.09385
D1,Aracoiaba/CE,-4.3702577,-38.8084313,8,30.22404
1,Aracruz/ES,-19.8245218,-40.2735025,656,648.09326
D1,Aracruz/ES,-19.8245218,-40.2735025,29,28.65046
1,Aragarças/GO,-15.8957166,-52.2514538,40,198.82692
D1,Aragarças/GO,-15.8957166,-52.2514538,1,4.97067
1,Aragoiânia/GO,-16.9146388,-49.4499148,17,164.92045
1,Aragominas/TO,-7.1654101,-48.525488,39,677.31851
1,Araguacema/TO,-8.8067391,-49.5560969,1,14.11233
1,Araguaiana/MT,-15.729144,-51.834112,5,161.29032
1,Araguanã/MA,-2.9508403,-45.6651986,388,2515.23402
D1,Araguanã/MA,-2.9508403,-45.6651986,2,12.96512
1,Araguanã/TO,-6.5799107,-48.6428482,31,541.10665
D1,Araguanã/TO,-6.5799107,-48.6428482,1,17.45505
1,Araguapaz/GO,-15.0937927,-50.626417,2,25.74003
D1,Araguapaz/GO,-15.0937927,-50.626417,1,12.87001
1,Araguari/MG,-18.6511256,-48.1933764,434,370.09559
D1,Araguari/MG,-18.6511256,-48.1933764,5,4.26377
1,Araguatins/TO,-5.6522925,-48.1158973,198,553.67579
D1,Araguatins/TO,-5.6522925,-48.1158973,16,44.74148
1,Araguaçu/TO,-12.928934,-49.823134,41,481.39016
D1,Araguaçu/TO,-12.928934,-49.823134,1,11.74122
1,Araguaína/TO,-7.193241,-48.2018597,3792,2101.18025
D1,Araguaína/TO,-7.193241,-48.2018597,55,30.47598
1,Araioses/MA,-2.890914,-41.904993,358,770.88717
D1,Araioses/MA,-2.890914,-41.904993,5,10.76658
1,Aral Moreira/MS,-22.951141,-55.6268421,9,74.08017
1,Aramari/BA,-12.0907897,-38.4985065,6,52.64543
1,Arame/MA,-4.8858769,-46.0102484,149,455.64356
D1,Arame/MA,-4.8858769,-46.0102484,4,12.23204
1,Aramina/SP,-20.0876144,-47.789201,10,177.93594
D1,Aramina/SP,-20.0876144,-47.789201,1,17.79359
1,Arandu/SP,-23.1345103,-49.0545651,13,204.49898
D1,Arandu/SP,-23.1345103,-49.0545651,2,31.46138
1,Arantina/MG,-21.911667,-44.255833,4,143.11270
D1,Arantina/MG,-21.911667,-44.255833,1,35.77818
1,Arapeí/SP,-22.6738889,-44.4477778,1,40.50223
D1,Arapeí/SP,-22.6738889,-44.4477778,1,40.50223
1,Arapiraca/AL,-9.754866,-36.661471,2747,1185.34436
D1,Arapiraca/AL,-9.754866,-36.661471,34,14.67117
1,Arapoema/TO,-7.6575001,-49.0641484,7,105.37408
D1,Arapoema/TO,-7.6575001,-49.0641484,1,15.05344
1,Arapongas/PR,-23.415296,-51.42592,129,104.85503
D1,Arapongas/PR,-23.415296,-51.42592,5,4.06415
1,Araporã/MG,-18.4318188,-49.188313,41,596.88455
D1,Araporã/MG,-18.4318188,-49.188313,1,14.55816
1,Arapoti/PR,-24.1457957,-49.8224605,59,209.85239
1,Araputanga/MT,-15.4710868,-58.346796,17,101.05814
1,Arapuá/MG,-19.034444,-46.155556,17,599.85886
1,Araquari/SC,-26.3703324,-48.7210994,67,175.71927
D1,Araquari/SC,-26.3703324,-48.7210994,1,2.62268
1,Arara/PB,-6.8271895,-35.7605703,79,586.48849
1,Araranguá/SC,-28.9348832,-49.4858389,105,153.89576
D1,Araranguá/SC,-28.9348832,-49.4858389,3,4.39702
1,Araraquara/SP,-21.7886713,-48.1773096,942,399.03080
D1,Araraquara/SP,-21.7886713,-48.1773096,11,4.65960
1,Araras/SP,-22.3569477,-47.3838889,386,287.55326
D1,Araras/SP,-22.3569477,-47.3838889,9,6.70461
1,Ararendá/CE,-4.7504395,-40.8303611,10,91.44947
D1,Ararendá/CE,-4.7504395,-40.8303611,1,9.14495
1,Arari/MA,-3.4547602,-44.7772723,149,499.19593
D1,Arari/MA,-3.4547602,-44.7772723,3,10.05092
1,Araricá/RS,-29.6168543,-50.929121,8,140.40014
D1,Araricá/RS,-29.6168543,-50.929121,1,17.55002
1,Araripe/CE,-7.212861,-40.1359222,72,333.33333
1,Araripina/PE,-7.5768582,-40.5038509,210,248.76211
D1,Araripina/PE,-7.5768582,-40.5038509,5,5.92291
1,Araruama/RJ,-22.8733203,-42.3428897,337,254.53172
D1,Araruama/RJ,-22.8733203,-42.3428897,35,26.43505
1,Araruna/PB,-6.5321155,-35.7397595,69,339.70067
D1,Araruna/PB,-6.5321155,-35.7397595,3,14.76959
1,Araruna/PR,-23.9320308,-52.4976047,29,207.58769
D1,Araruna/PR,-23.9320308,-52.4976047,3,21.47459
1,Arataca/BA,-15.2617424,-39.4122943,2,18.15047
1,Aratiba/RS,-27.3955734,-52.3024325,8,128.30794
1,Aratuba/CE,-4.4195958,-39.0463737,101,852.53651
D1,Aratuba/CE,-4.4195958,-39.0463737,1,8.44096
1,Aratuípe/BA,-13.077137,-39.0010786,1,11.33144
D1,Aratuípe/BA,-13.077137,-39.0010786,1,11.33144
1,Araucária/PR,-25.5861107,-49.4051209,341,237.06402
D1,Araucária/PR,-25.5861107,-49.4051209,4,2.78081
1,Arauá/SE,-11.2644014,-37.6181058,45,447.49403
D1,Arauá/SE,-11.2644014,-37.6181058,4,39.77725
1,Araxá/MG,-19.5928536,-46.940241,241,226.86837
D1,Araxá/MG,-19.5928536,-46.940241,5,4.70681
1,Araçagi/PB,-6.8519969,-35.3835602,242,1424.61883
D1,Araçagi/PB,-6.8519969,-35.3835602,2,11.77371
1,Araçariguama/SP,-23.438611,-47.061389,67,299.58862
D1,Araçariguama/SP,-23.438611,-47.061389,2,8.94294
1,Araças/BA,-12.2139176,-38.2026159,5,41.06102
1,Araçatuba/SP,-21.207992,-50.4390225,688,349.21022
D1,Araçatuba/SP,-21.207992,-50.4390225,18,9.13631
1,Araçaí/MG,-19.200833,-44.2475,1,42.60758
1,Araçoiaba da Serra/SP,-23.5045367,-47.6168158,88,257.71686
D1,Araçoiaba da Serra/SP,-23.5045367,-47.6168158,3,8.78580
1,Araçoiaba/PE,-7.7856903,-35.0898881,59,287.46833
D1,Araçoiaba/PE,-7.7856903,-35.0898881,8,38.97876
1,Araçu/GO,-16.3561579,-49.6815269,3,85.17888
1,Araçuaí/MG,-16.8484451,-42.0661868,8,21.79361
1,Arceburgo/MG,-21.364444,-46.939722,7,64.98329
1,Arcos/MG,-20.282223,-45.539444,38,94.78200
D1,Arcos/MG,-20.282223,-45.539444,1,2.49426
1,Arcoverde/PE,-8.415192,-37.057748,280,376.65797
D1,Arcoverde/PE,-8.415192,-37.057748,21,28.24935
1,Areal/RJ,-22.2314922,-43.1056264,94,747.69329
D1,Areal/RJ,-22.2314922,-43.1056264,1,7.95418
1,Arealva/SP,-22.0301906,-48.9111936,5,58.41121
1,Areia Branca/RN,-4.9506652,-37.1263312,450,1620.22035
D1,Areia Branca/RN,-4.9506652,-37.1263312,37,133.21812
1,Areia Branca/SE,-10.7591455,-37.3148072,150,808.97422
D1,Areia Branca/SE,-10.7591455,-37.3148072,7,37.75213
1,Areia de Baraúnas/PB,-7.1233949,-36.9446216,1,46.99248
1,Areia/PB,-6.9680243,-35.6994783,150,657.34695
D1,Areia/PB,-6.9680243,-35.6994783,1,4.38231
1,Areial/PB,-7.0501306,-35.9245244,28,400.11432
D1,Areial/PB,-7.0501306,-35.9245244,1,14.28980
1,Areias/SP,-22.5800929,-44.6975127,1,25.73340
1,Areiópolis/SP,-22.6758064,-48.6673653,21,188.69620
D1,Areiópolis/SP,-22.6758064,-48.6673653,3,26.95660
1,Arenápolis/MT,-14.4610369,-56.8432806,33,343.49953
D1,Arenápolis/MT,-14.4610369,-56.8432806,1,10.40908
1,Argirita/MG,-21.612761,-42.8371922,1,36.67033
1,Arinos/MG,-15.917223,-46.106111,14,78.32168
1,Aripuanã/MT,-10.175806,-59.4439663,62,277.35528
D1,Aripuanã/MT,-10.175806,-59.4439663,2,8.94694
1,Ariquemes/RO,-9.9076522,-63.033069,1236,1145.89804
D1,Ariquemes/RO,-9.9076522,-63.033069,20,18.54204
1,Ariranha/SP,-21.18716,-48.790418,44,455.10964
1,Armazém/SC,-28.2624996,-49.0190126,30,345.86119
1,Armação dos Búzios/RJ,-22.7597805,-41.8875267,162,478.29938
D1,Armação dos Búzios/RJ,-22.7597805,-41.8875267,5,14.76233
1,Arneiroz/CE,-6.3235099,-40.1603859,28,357.14286
D1,Arneiroz/CE,-6.3235099,-40.1603859,1,12.75510
1,Aroazes/PI,-6.1108814,-41.7886137,10,171.37961
D1,Aroazes/PI,-6.1108814,-41.7886137,1,17.13796
1,Aroeiras/PB,-7.5462904,-35.7080002,76,396.80468
1,Arraial do Cabo/RJ,-22.9662839,-42.024427,77,253.71511
D1,Arraial do Cabo/RJ,-22.9662839,-42.024427,4,13.18001
1,Arraias/TO,-12.9287788,-46.9437231,4,37.85370
1,Arroio Grande/RS,-32.2384246,-53.0866661,5,27.33286
1,Arroio Trinta/SC,-26.9301976,-51.334928,23,647.88732
1,Arroio do Meio/RS,-29.4020392,-51.9444993,144,692.14131
1,Arroio do Sal/RS,-29.549852,-49.8874395,12,119.22504
D1,Arroio do Sal/RS,-29.549852,-49.8874395,1,9.93542
1,Arroio dos Ratos/RS,-30.0894524,-51.7265541,13,91.86630
D1,Arroio dos Ratos/RS,-30.0894524,-51.7265541,1,7.06664
1,Artur Nogueira/SP,-22.572737,-47.172679,64,117.62976
D1,Artur Nogueira/SP,-22.572737,-47.172679,2,3.67593
1,Aruanã/GO,-14.9162439,-51.0715692,5,50.63291
1,Arujá/SP,-23.396266,-46.3175449,527,586.70289
D1,Arujá/SP,-23.396266,-46.3175449,37,41.19166
1,Arvoredo/SC,-27.0752908,-52.4571847,20,892.85714
D1,Arvoredo/SC,-27.0752908,-52.4571847,1,44.64286
1,Arvorezinha/RS,-28.87369,-52.17808,6,57.55948
1,Arês/RN,-6.1969216,-35.1642968,54,377.46400
1,Ascurra/SC,-26.9569975,-49.3767752,15,189.05974
1,Aspásia/SP,-20.160028,-50.728046,19,1042.81010
1,Assaré/CE,-6.8746791,-39.8741385,111,474.01460
D1,Assaré/CE,-6.8746791,-39.8741385,2,8.54080
1,Assaí/PR,-23.3736041,-50.8454929,19,125.66969
D1,Assaí/PR,-23.3736041,-50.8454929,4,26.45678
1,Assis Brasil/AC,-10.9409203,-69.5672108,174,2345.96198
D1,Assis Brasil/AC,-10.9409203,-69.5672108,5,67.41270
1,Assis Chateaubriand/PR,-24.4054826,-53.5120468,75,224.80667
D1,Assis Chateaubriand/PR,-24.4054826,-53.5120468,2,5.99484
1,Assis/SP,-22.6620892,-50.420623,173,165.73104
D1,Assis/SP,-22.6620892,-50.420623,8,7.66386
1,Assunção do Piauí/PI,-5.8610212,-41.0485091,5,63.72674
1,Assunção/PB,-7.073396,-36.7274003,26,651.62907
1,Astolfo Dutra/MG,-21.3132636,-42.8624102,22,155.15904
D1,Astolfo Dutra/MG,-21.3132636,-42.8624102,1,7.05268
1,Astorga/PR,-23.2350184,-51.6647074,2,7.65961
1,Atalaia do Norte/AM,-4.3658547,-70.1908742,485,2434.61674
D1,Atalaia do Norte/AM,-4.3658547,-70.1908742,2,10.03966
1,Atalaia/AL,-9.5029595,-36.0219316,419,887.99407
D1,Atalaia/AL,-9.5029595,-36.0219316,7,14.83522
1,Atalaia/PR,-23.1513833,-52.0529697,2,51.38746
1,Atalanta/SC,-27.421916,-49.778863,5,155.76324
1,Ataléia/MG,-18.04432,-41.1110524,22,170.96674
1,Atibaia/SP,-23.1177393,-46.5547861,202,141.49523
D1,Atibaia/SP,-23.1177393,-46.5547861,11,7.70519
1,Atilio Vivacqua/ES,-20.9139369,-41.1947519,57,477.54692
D1,Atilio Vivacqua/ES,-20.9139369,-41.1947519,2,16.75603
1,Augustinópolis/TO,-5.4662267,-47.8897519,190,1031.93569
D1,Augustinópolis/TO,-5.4662267,-47.8897519,4,21.72496
1,Augusto Corrêa/PA,-1.0229335,-46.6404029,604,1313.10057
D1,Augusto Corrêa/PA,-1.0229335,-46.6404029,15,32.61011
1,Augusto de Lima/MG,-18.1092963,-44.2651945,7,143.76669
1,Aurelino Leal/BA,-14.3167137,-39.3256107,88,763.16018
D1,Aurelino Leal/BA,-14.3167137,-39.3256107,1,8.67227
1,Auriflama/SP,-20.6840418,-50.5554616,37,243.59734
D1,Auriflama/SP,-20.6840418,-50.5554616,1,6.58371
1,Aurilândia/GO,-16.6772599,-50.4641231,15,480.76923
1,Aurora do Pará/PA,-2.1323199,-47.558436,278,887.10192
D1,Aurora do Pará/PA,-2.1323199,-47.558436,6,19.14608
1,Aurora do Tocantins/TO,-12.71045,-46.407604,9,239.55283
1,Aurora/CE,-6.9426019,-38.9693765,32,129.79638
D1,Aurora/CE,-6.9426019,-38.9693765,3,12.16841
1,Aurora/SC,-27.3166417,-49.6368502,10,176.08734
1,Autazes/AM,-3.5833283,-59.1301518,958,2421.33199
D1,Autazes/AM,-3.5833283,-59.1301518,27,68.24213
1,Avanhandava/SP,-21.4603331,-49.9465156,5,36.63272
1,Avaré/SP,-23.1045215,-48.9259103,121,133.47306
D1,Avaré/SP,-23.1045215,-48.9259103,10,11.03083
1,Avaí/SP,-22.1564662,-49.3316395,6,111.04942
1,Aveiro/PA,-3.6049239,-55.3310742,118,720.03905
D1,Aveiro/PA,-3.6049239,-55.3310742,3,18.30608
1,Avelino Lopes/PI,-10.1346855,-43.9489525,3,26.57454
1,Avelinópolis/GO,-16.4672409,-49.7578661,1,41.37360
1,Axixá do Tocantins/TO,-5.612747,-47.77007,86,881.50882
D1,Axixá do Tocantins/TO,-5.612747,-47.77007,2,20.50021
1,Axixá/MA,-2.8379465,-44.0561053,60,494.64138
D1,Axixá/MA,-2.8379465,-44.0561053,2,16.48805
1,Açailândia/MA,-4.9514278,-47.4844564,2501,2224.19850
D1,Açailândia/MA,-4.9514278,-47.4844564,51,45.35551
1,Açu/RN,-5.5836157,-36.9139541,321,553.28611
D1,Açu/RN,-5.5836157,-36.9139541,14,24.13086
1,Açucena/MG,-19.073056,-42.546666,11,116.15628
D1,Açucena/MG,-19.073056,-42.546666,1,10.55966
1,Babaçulândia/TO,-7.2034355,-47.761613,19,178.16954
1,Bacabal/MA,-4.2318132,-44.781167,1643,1565.52230
D1,Bacabal/MA,-4.2318132,-44.781167,17,16.19834
1,Bacabeira/MA,-2.9775747,-44.3155943,123,721.19613
D1,Bacabeira/MA,-2.9775747,-44.3155943,1,5.86338
1,Bacuri/MA,-1.728894,-45.1417148,338,1818.96459
D1,Bacuri/MA,-1.728894,-45.1417148,2,10.76310
1,Bacurituba/MA,-2.7082587,-44.7381309,18,318.92275
1,Bady Bassitt/SP,-20.9178969,-49.4517911,83,474.23152
D1,Bady Bassitt/SP,-20.9178969,-49.4517911,5,28.56816
1,Baependi/MG,-21.959162,-44.8899249,4,20.88991
1,Bagre/PA,-1.8994498,-50.2103844,184,599.87611
D1,Bagre/PA,-1.8994498,-50.2103844,7,22.82137
1,Bagé/RS,-31.3314264,-54.1062808,111,91.62725
1,Baianópolis/BA,-12.3067564,-44.5383591,3,21.61851
1,Baixa Grande do Ribeiro/PI,-7.862861,-45.2113289,50,431.55533
D1,Baixa Grande do Ribeiro/PI,-7.862861,-45.2113289,2,17.26221
1,Baixa Grande/BA,-11.9630941,-40.1657537,2,9.77135
1,Baixio/CE,-6.7303544,-38.7170095,10,159.03308
1,Baixo Guandu/ES,-19.5138322,-41.0182089,181,583.90864
D1,Baixo Guandu/ES,-19.5138322,-41.0182089,7,22.58210
1,Baião/PA,-2.7903479,-49.6702845,215,453.14674
D1,Baião/PA,-2.7903479,-49.6702845,9,18.96893
1,Balneário Arroio do Silva/SC,-28.9815269,-49.4189932,61,466.68197
D1,Balneário Arroio do Silva/SC,-28.9815269,-49.4189932,1,7.65052
1,Balneário Barra do Sul/SC,-26.459842,-48.6061471,27,250.11579
1,Balneário Camboriú/SC,-26.9924395,-48.6339782,1459,1025.33469
D1,Balneário Camboriú/SC,-26.9924395,-48.6339782,12,8.43318
1,Balneário Gaivota/SC,-29.1553098,-49.5808712,14,127.51617
D1,Balneário Gaivota/SC,-29.1553098,-49.5808712,2,18.21660
1,Balneário Pinhal/RS,-30.2482978,-50.234585,11,78.19164
1,Balneário Piçarras/SC,-26.7638889,-48.6716667,104,449.30229
D1,Balneário Piçarras/SC,-26.7638889,-48.6716667,1,4.32021
1,Balneário Rincão/SC,-28.8235718,-49.2241642,9,70.53292
1,Balsa Nova/PR,-25.5842234,-49.6312741,41,316.82250
D1,Balsa Nova/PR,-25.5842234,-49.6312741,1,7.72738
1,Balsas/MA,-7.53214,-46.037163,600,632.33109
D1,Balsas/MA,-7.53214,-46.037163,2,2.10777
1,Banabuiú/CE,-5.3046404,-38.919766,186,1022.14651
D1,Banabuiú/CE,-5.3046404,-38.919766,1,5.49541
1,Bananal/SP,-22.6828195,-44.3221095,7,63.95614
1,Bananeiras/PB,-6.7537682,-35.6338343,74,347.12450
D1,Bananeiras/PB,-6.7537682,-35.6338343,1,4.69087
1,Bandeira/MG,-15.884444,-40.559167,50,1042.75287
1,Bandeirantes do Tocantins/TO,-7.7635698,-48.579148,12,337.74275
1,Bandeirantes/MS,-19.9179623,-54.3646768,3,44.19564
1,Bandeirantes/PR,-23.107788,-50.370407,22,70.13741
D1,Bandeirantes/PR,-23.107788,-50.370407,1,3.18806
1,Bannach/PA,-7.3508505,-50.4064531,41,1247.71759
D1,Bannach/PA,-7.3508505,-50.4064531,3,91.29641
1,Banzaê/BA,-10.5827616,-38.6122305,18,136.06471
1,Baraúna/PB,-6.643394,-36.2531932,108,2207.68602
1,Baraúna/RN,-5.0775002,-37.61752,189,666.10277
D1,Baraúna/RN,-5.0775002,-37.61752,9,31.71918
1,Barbacena/MG,-21.2254524,-43.7735087,347,252.70732
D1,Barbacena/MG,-21.2254524,-43.7735087,5,3.64132
1,Barbalha/CE,-7.3121067,-39.3036427,293,482.05854
D1,Barbalha/CE,-7.3121067,-39.3036427,6,9.87151
1,Barbosa Ferraz/PR,-24.0287182,-52.00811,9,77.80083
1,Barbosa/SP,-21.265661,-49.951816,3,40.52959
1,Barcarena/PA,-1.5107945,-48.6190679,1634,1310.55502
D1,Barcarena/PA,-1.5107945,-48.6190679,98,78.60122
1,Barcelona/RN,-5.9514918,-35.9260284,12,300.15008
1,Barcelos/AM,-0.9729214,-62.925635,907,3297.94197
D1,Barcelos/AM,-0.9729214,-62.925635,22,79.99418
1,Bariri/SP,-22.0746355,-48.7394852,70,198.50272
D1,Bariri/SP,-22.0746355,-48.7394852,1,2.83575
1,Barra Bonita/SP,-22.490859,-48.558349,123,340.47500
D1,Barra Bonita/SP,-22.490859,-48.558349,3,8.30427
1,Barra D'Alcântara/PI,-6.5209258,-42.1071089,1,25.31005
1,Barra Funda/RS,-27.9230048,-53.0401045,1,39.38558
1,Barra Longa/MG,-20.2833541,-43.0423516,54,1052.42643
1,Barra Mansa/RJ,-22.5394843,-44.1735129,465,252.15279
D1,Barra Mansa/RJ,-22.5394843,-44.1735129,32,17.35245
1,Barra Velha/SC,-26.6338203,-48.6835001,65,222.84696
1,Barra da Estiva/BA,-13.6269662,-41.3278287,4,19.41936
1,Barra de Guabiraba/PE,-8.4173522,-35.6626669,84,583.94161
D1,Barra de Guabiraba/PE,-8.4173522,-35.6626669,2,13.90337
1,Barra de Santa Rosa/PB,-6.7218007,-36.0564638,18,117.00468
1,Barra de Santana/PB,-7.5230865,-35.9988518,49,586.19452
1,Barra de Santo Antônio/AL,-9.4038098,-35.5117693,93,583.73086
D1,Barra de Santo Antônio/AL,-9.4038098,-35.5117693,6,37.66006
1,Barra de São Francisco/ES,-18.7570902,-40.8916119,183,409.85442
D1,Barra de São Francisco/ES,-18.7570902,-40.8916119,6,13.43785
1,Barra de São Miguel/AL,-9.8261357,-35.8837777,89,1069.45446
D1,Barra de São Miguel/AL,-9.8261357,-35.8837777,3,36.04903
1,Barra de São Miguel/PB,-7.7528088,-36.3170996,6,99.40358
D1,Barra de São Miguel/PB,-7.7528088,-36.3170996,1,16.56726
1,Barra do Bugres/MT,-15.0683712,-57.1853688,28,80.07779
D1,Barra do Bugres/MT,-15.0683712,-57.1853688,1,2.85992
1,Barra do Chapéu/SP,-24.472203,-49.023784,2,34.94060
1,Barra do Choça/BA,-14.8638173,-40.5761637,31,98.09195
D1,Barra do Choça/BA,-14.8638173,-40.5761637,1,3.16426
1,Barra do Corda/MA,-5.496823,-45.248496,1322,1498.66231
D1,Barra do Corda/MA,-5.496823,-45.248496,14,15.87086
1,Barra do Garças/MT,-15.8916033,-52.2615413,208,340.91654
D1,Barra do Garças/MT,-15.8916033,-52.2615413,18,29.50239
1,Barra do Mendes/BA,-11.8053298,-42.057037,3,21.63722
1,Barra do Ouro/TO,-7.7113784,-47.6743925,9,196.03572
D1,Barra do Ouro/TO,-7.7113784,-47.6743925,2,43.56349
1,Barra do Piraí/RJ,-22.4703403,-43.8263256,378,376.59155
D1,Barra do Piraí/RJ,-22.4703403,-43.8263256,25,24.90685
1,Barra do Ribeiro/RS,-30.2930206,-51.301437,15,111.18523
1,Barra do Rio Azul/RS,-27.4101581,-52.4117471,2,118.34320
1,Barra do Rocha/BA,-14.2090974,-39.6004395,6,105.00525
1,Barra do Turvo/SP,-24.756421,-48.5056942,13,169.73495
D1,Barra do Turvo/SP,-24.756421,-48.5056942,1,13.05653
1,Barra dos Coqueiros/SE,-10.9075694,-37.0386249,485,1595.02746
D1,Barra dos Coqueiros/SE,-10.9075694,-37.0386249,6,19.73230
1,Barra/BA,-11.0892702,-43.1420453,21,39.19519
1,Barracão/PR,-26.252395,-53.6349576,12,116.78832
1,Barracão/RS,-27.6728964,-51.4582928,7,132.70142
1,Barras/PI,-4.2446153,-42.2920241,555,1179.19517
D1,Barras/PI,-4.2446153,-42.2920241,16,33.99482
1,Barreira/CE,-4.2883361,-38.641094,228,1016.72241
D1,Barreira/CE,-4.2883361,-38.641094,16,71.34894
1,Barreiras do Piauí/PI,-9.9224524,-45.4763776,2,59.73716
1,Barreiras/BA,-12.1440031,-44.9967406,329,211.65859
D1,Barreiras/BA,-12.1440031,-44.9967406,5,3.21670
1,Barreirinha/AM,-2.798863,-57.067897,604,1885.08474
D1,Barreirinha/AM,-2.798863,-57.067897,7,21.84701
1,Barreirinhas/MA,-2.7541271,-42.8259693,272,435.00512
D1,Barreirinhas/MA,-2.7541271,-42.8259693,16,25.58854
1,Barreiros/PE,-8.8159644,-35.1831905,219,513.37350
D1,Barreiros/PE,-8.8159644,-35.1831905,21,49.22760
1,Barretos/SP,-20.5531437,-48.5697509,936,766.59732
D1,Barretos/SP,-20.5531437,-48.5697509,33,27.02747
1,Barrinha/SP,-21.1898849,-48.1550642,88,268.19456
D1,Barrinha/SP,-21.1898849,-48.1550642,5,15.23833
1,Barro Alto/GO,-14.9696025,-48.9190985,25,223.87391
1,Barro Duro/PI,-5.8180139,-42.5106589,45,639.93174
D1,Barro Duro/PI,-5.8180139,-42.5106589,1,14.22071
1,Barro Preto/BA,-14.8068289,-39.4727588,27,482.91898
1,Barro/CE,-7.1713587,-38.7742136,30,132.27513
D1,Barro/CE,-7.1713587,-38.7742136,6,26.45503
1,Barrocas/BA,-11.5165,-39.099282894736845,35,219.05120
1,Barrolândia/TO,-9.837246,-48.7264346,27,479.40341
D1,Barrolândia/TO,-9.837246,-48.7264346,1,17.75568
1,Barroquinha/CE,-3.0200371,-41.1339229,466,3103.14976
D1,Barroquinha/CE,-3.0200371,-41.1339229,10,66.59120
1,Barros Cassal/RS,-29.094938,-52.5832366,2,17.85874
D1,Barros Cassal/RS,-29.094938,-52.5832366,1,8.92937
1,Barroso/MG,-21.187222,-43.976111,13,62.46997
1,Barueri/SP,-23.5112184,-46.8764612,2060,751.32576
D1,Barueri/SP,-23.5112184,-46.8764612,203,74.03841
1,Barão de Antonina/SP,-23.6295651,-49.5632104,9,259.44076
1,Barão de Cocais/MG,-19.9452437,-43.4870298,134,412.49808
1,Barão de Cotegipe/RS,-27.6214694,-52.3765316,60,905.93387
D1,Barão de Cotegipe/RS,-27.6214694,-52.3765316,1,15.09890
1,Barão de Grajaú/MA,-6.7542591,-43.0263477,13,69.07545
1,Barão de Melgaço/MT,-16.195776,-55.9668049,6,70.06072
1,Barão de Monte Alto/MG,-21.244722,-42.2375,7,129.70169
1,Barão/RS,-29.372474,-51.494908,8,129.63863
1,Bastos/SP,-21.9222474,-50.7317727,5,23.86293
1,Bataguassu/MS,-21.715899,-52.422058,32,138.98541
1,Batalha/AL,-9.6733809,-37.1265481,173,948.88109
D1,Batalha/AL,-9.6733809,-37.1265481,3,16.45459
1,Batalha/PI,-4.022391,-42.0780926,130,484.04513
D1,Batalha/PI,-4.022391,-42.0780926,4,14.89370
1,Batatais/SP,-20.892867,-47.592149,62,99.18730
D1,Batatais/SP,-20.892867,-47.592149,1,1.59980
1,Batayporã/MS,-22.2976466,-53.2685608,27,238.32642
D1,Batayporã/MS,-22.2976466,-53.2685608,2,17.65381
1,Baturité/CE,-4.3290203,-38.8821055,437,1222.37762
D1,Baturité/CE,-4.3290203,-38.8821055,23,64.33566
1,Bauru/SP,-22.3218102,-49.0705863,1282,340.21729
D1,Bauru/SP,-22.3218102,-49.0705863,26,6.89988
1,Bayeux/PB,-7.1301631,-34.936532,838,864.98761
D1,Bayeux/PB,-7.1301631,-34.936532,53,54.70685
1,Baía Formosa/RN,-6.3691885,-35.0063741,19,204.94014
D1,Baía Formosa/RN,-6.3691885,-35.0063741,1,10.78632
1,Baía da Traição/PB,-6.691258,-34.9371244,161,1790.28133
D1,Baía da Traição/PB,-6.691258,-34.9371244,3,33.35928
1,Bebedouro/SP,-20.949077,-48.479083,81,104.52152
D1,Bebedouro/SP,-20.949077,-48.479083,6,7.74234
1,Beberibe/CE,-4.1810469,-38.1298101,384,716.77897
D1,Beberibe/CE,-4.1810469,-38.1298101,21,39.19885
1,Bela Cruz/CE,-3.0529129,-40.167582,864,2651.03863
D1,Bela Cruz/CE,-3.0529129,-40.167582,13,39.88831
1,Bela Vista de Goiás/GO,-16.9692949,-48.9513071,105,350.29191
D1,Bela Vista de Goiás/GO,-16.9692949,-48.9513071,2,6.67223
1,Bela Vista de Minas/MG,-19.8289721,-43.0973688,7,68.25939
1,Bela Vista do Maranhão/MA,-3.7416367,-45.2514192,100,892.14024
D1,Bela Vista do Maranhão/MA,-3.7416367,-45.2514192,1,8.92140
1,Bela Vista do Paraíso/PR,-22.9948493,-51.1907996,19,123.40066
D1,Bela Vista do Paraíso/PR,-22.9948493,-51.1907996,2,12.98954
1,Bela Vista do Piauí/PI,-7.9716353,-41.8715061,1,24.90660
1,Bela Vista do Toldo/SC,-26.274625,-50.466354,2,31.56068
1,Bela Vista/MS,-22.107327,-56.5317344,2,8.12051
1,Belford Roxo/RJ,-22.7667284,-43.4033603,1423,278.52482
D1,Belford Roxo/RJ,-22.7667284,-43.4033603,175,34.25288
1,Belmiro Braga/MG,-21.9486291,-43.413564,7,204.14115
D1,Belmiro Braga/MG,-21.9486291,-43.413564,1,29.16302
1,Belmonte/BA,-15.8630837,-38.8792845,83,355.79561
D1,Belmonte/BA,-15.8630837,-38.8792845,1,4.28669
1,Belo Horizonte/MG,-19.9227318,-43.9450948,5440,216.55447
D1,Belo Horizonte/MG,-19.9227318,-43.9450948,130,5.17502
1,Belo Jardim/PE,-8.3338293,-36.4176419,105,137.36443
D1,Belo Jardim/PE,-8.3338293,-36.4176419,7,9.15763
1,Belo Monte/AL,-9.8269944,-37.2787165,13,193.91408
1,Belo Oriente/MG,-19.2232523,-42.4807033,86,322.09738
D1,Belo Oriente/MG,-19.2232523,-42.4807033,4,14.98127
1,Belo Vale/MG,-20.407778,-44.024167,5,64.80881
D1,Belo Vale/MG,-20.407778,-44.024167,1,12.96176
1,Belterra/PA,-2.636091,-54.937392,32,180.46470
D1,Belterra/PA,-2.636091,-54.937392,5,28.19761
1,Belágua/MA,-3.1604031,-43.5085052,158,2115.41036
D1,Belágua/MA,-3.1604031,-43.5085052,1,13.38867
1,Belém de Maria/PE,-8.6242497,-35.8388934,29,240.20542
1,Belém do Brejo do Cruz/PB,-6.1880727,-37.5332267,7,95.34187
1,Belém do Piauí/PI,-7.3767305,-40.9712156,8,224.34100
D1,Belém do Piauí/PI,-7.3767305,-40.9712156,1,28.04262
1,Belém do São Francisco/PE,-8.7517707,-38.9625715,10,48.24159
1,Belém/AL,-9.5715351,-36.492841,23,529.46593
D1,Belém/AL,-9.5715351,-36.492841,1,23.02026
1,Belém/PA,-1.45056,-48.4682453,19364,1297.20749
D1,Belém/PA,-1.45056,-48.4682453,1897,127.08132
1,Belém/PB,-6.6967586,-35.5369626,248,1403.03236
D1,Belém/PB,-6.6967586,-35.5369626,2,11.31478
1,Beneditinos/PI,-5.4565671,-42.3605061,13,124.19987
D1,Beneditinos/PI,-5.4565671,-42.3605061,3,28.66151
1,Benedito Leite/MA,-7.2173453,-44.5523331,19,337.35795
1,Benedito Novo/SC,-26.7840657,-49.3629511,14,120.15105
1,Benevides/PA,-1.3555577,-48.252235,1275,2032.29354
D1,Benevides/PA,-1.3555577,-48.252235,49,78.10383
1,Benjamin Constant do Sul/RS,-27.5105555,-52.6007689,20,1003.00903
1,Benjamin Constant/AM,-4.3782748,-70.0290603,1458,3391.95980
D1,Benjamin Constant/AM,-4.3782748,-70.0290603,27,62.81407
1,Bento Fernandes/RN,-5.6926846,-35.8207423,11,200.10915
D1,Bento Fernandes/RN,-5.6926846,-35.8207423,2,36.38348
1,Bento Gonçalves/RS,-29.1654014,-51.5197627,1086,901.58899
D1,Bento Gonçalves/RS,-29.1654014,-51.5197627,31,25.73597
1,Bento de Abreu/SP,-21.2707225,-50.8120444,3,100.67114
1,Bequimão/MA,-2.4495376,-44.7884889,168,789.47368
D1,Bequimão/MA,-2.4495376,-44.7884889,9,42.29323
1,Berilo/MG,-16.9515764,-42.4643732,3,25.14247
1,Bernardino Batista/PB,-6.4532173,-38.5495418,3,85.68980
1,Bernardino de Campos/SP,-23.0140216,-49.4760724,22,197.34482
1,Bernardo do Mearim/MA,-4.6315929,-44.7617508,45,744.66325
D1,Bernardo do Mearim/MA,-4.6315929,-44.7617508,2,33.09614
1,Bertioga/SP,-23.848568,-46.139586,419,662.46107
D1,Bertioga/SP,-23.848568,-46.139586,14,22.13474
1,Bertolínia/PI,-7.6372159,-43.9540611,16,290.85621
1,Beruri/AM,-3.9007135,-61.3717319,396,2012.29737
D1,Beruri/AM,-3.9007135,-61.3717319,6,30.48935
1,Betim/MG,-19.968056,-44.198333,735,167.29640
D1,Betim/MG,-19.968056,-44.198333,31,7.05604
1,Betânia do Piauí/PI,-8.1460635,-40.7961387,3,48.34811
1,Betânia/PE,-8.2742779,-38.0351767,14,110.07155
D1,Betânia/PE,-8.2742779,-38.0351767,1,7.86225
1,Bezerros/PE,-8.2372132,-35.7558262,219,360.20922
D1,Bezerros/PE,-8.2372132,-35.7558262,12,19.73749
1,Bias Fortes/MG,-21.605833,-43.756944,1,29.59455
1,Bicas/MG,-21.7213723,-43.0604327,15,103.49110
1,Biguaçu/SC,-27.4961277,-48.6542432,213,311.03518
D1,Biguaçu/SC,-27.4961277,-48.6542432,3,4.38078
1,Bilac/SP,-21.403962,-50.47464,6,74.68260
1,Biquinhas/MG,-18.783611,-45.502222,2,79.52286
1,Birigui/SP,-21.2908491,-50.34144,242,195.73270
D1,Birigui/SP,-21.2908491,-50.34144,8,6.47050
1,Biritiba-Mirim/SP,-23.5697765,-46.0407456,72,220.87245
D1,Biritiba-Mirim/SP,-23.5697765,-46.0407456,7,21.47371
1,Biritinga/BA,-11.6227908,-38.8066738,1,6.25821
1,Bituruna/PR,-26.161281,-51.5533319,16,97.62646
1,Blumenau/SC,-26.9195567,-49.0658025,1551,434.21174
D1,Blumenau/SC,-26.9195567,-49.0658025,8,2.23965
1,Boa Esperança do Sul/SP,-21.9930206,-48.3917372,22,147.42344
D1,Boa Esperança do Sul/SP,-21.9930206,-48.3917372,1,6.70107
1,Boa Esperança/ES,-18.5395472,-40.2904088,120,798.03152
D1,Boa Esperança/ES,-18.5395472,-40.2904088,4,26.60105
1,Boa Esperança/MG,-21.0901253,-45.5660195,55,137.06482
D1,Boa Esperança/MG,-21.0901253,-45.5660195,5,12.46044
1,Boa Esperança/PR,-24.2411024,-52.7860277,7,170.52375
1,Boa Hora/PI,-4.4094627,-42.1255341,32,471.90680
1,Boa Nova/BA,-14.365907,-40.2063056,2,15.83155
1,Boa Ventura/PB,-7.4202462,-38.2156782,2,37.27171
1,Boa Viagem/CE,-5.1261877,-39.7300055,132,242.33523
D1,Boa Viagem/CE,-5.1261877,-39.7300055,12,22.03048
1,Boa Vista da Aparecida/PR,-25.4357216,-53.4067721,28,368.85786
1,Boa Vista das Missões/RS,-27.6677983,-53.3127622,2,95.32888
1,Boa Vista do Gurupi/MA,-1.7981168,-46.3071882,12,129.21288
D1,Boa Vista do Gurupi/MA,-1.7981168,-46.3071882,2,21.53548
1,Boa Vista do Ramos/AM,-2.9716927,-57.5869819,193,1004.84198
D1,Boa Vista do Ramos/AM,-2.9716927,-57.5869819,2,10.41287
1,Boa Vista do Sul/RS,-29.3510488,-51.6779679,13,467.12181
D1,Boa Vista do Sul/RS,-29.3510488,-51.6779679,1,35.93245
1,Boa Vista do Tupim/BA,-12.6605988,-40.6083594,6,32.29974
1,Boa Vista/PB,-7.2620711,-36.2415161,48,680.75450
1,Boa Vista/RR,2.8208478,-60.6719582,10942,2740.89271
D1,Boa Vista/RR,2.8208478,-60.6719582,225,56.36089
1,Boca da Mata/AL,-9.6452054,-36.2116658,452,1656.83076
D1,Boca da Mata/AL,-9.6452054,-36.2116658,9,32.98999
1,Boca do Acre/AM,-8.7553487,-67.3930873,625,1821.73254
D1,Boca do Acre/AM,-8.7553487,-67.3930873,10,29.14772
1,Bocaina de Minas/MG,-22.167778,-44.394722,2,39.29273
1,Bocaina do Sul/SC,-27.745494,-49.942279,1,28.78526
1,Bocaina/PI,-6.9445939,-41.3224599,15,333.33333
1,Bocaina/SP,-22.1421831,-48.522276,46,373.10406
D1,Bocaina/SP,-22.1421831,-48.522276,2,16.22192
1,Bocaiúva do Sul/PR,-25.206591,-49.114131,14,108.15822
D1,Bocaiúva do Sul/PR,-25.206591,-49.114131,1,7.72559
1,Bocaiúva/MG,-17.1160208,-43.8122678,56,112.04706
D1,Bocaiúva/MG,-17.1160208,-43.8122678,1,2.00084
1,Bodocó/PE,-7.777592,-39.933797,28,73.40219
D1,Bodocó/PE,-7.777592,-39.933797,1,2.62151
1,Bodoquena/MS,-20.5508775,-56.6769653,2,25.39683
1,Bodó/RN,-5.9866104,-36.4134824,2,89.96851
1,Bofete/SP,-23.1019554,-48.2610535,48,409.20716
D1,Bofete/SP,-23.1019554,-48.2610535,3,25.57545
1,Boituva/SP,-23.2838893,-47.6738231,225,368.87060
D1,Boituva/SP,-23.2838893,-47.6738231,7,11.47597
1,Bom Conselho/PE,-9.169191,-36.685683,150,308.93438
D1,Bom Conselho/PE,-9.169191,-36.685683,5,10.29781
1,Bom Despacho/MG,-19.7375242,-45.2517288,64,126.46972
D1,Bom Despacho/MG,-19.7375242,-45.2517288,1,1.97609
1,Bom Jardim da Serra/SC,-28.3380324,-49.625588,1,21.08370
1,Bom Jardim de Goiás/GO,-16.2062659,-52.172793,5,56.55469
1,Bom Jardim de Minas/MG,-21.9476466,-44.1906033,3,46.33920
1,Bom Jardim/MA,-3.54129,-45.606004,440,1056.93010
D1,Bom Jardim/MA,-3.54129,-45.606004,3,7.20634
1,Bom Jardim/PE,-7.7961572,-35.5871696,107,273.07064
D1,Bom Jardim/PE,-7.7961572,-35.5871696,12,30.62474
1,Bom Jardim/RJ,-22.1515328,-42.4186683,50,182.17591
D1,Bom Jardim/RJ,-22.1515328,-42.4186683,3,10.93055
1,Bom Jesus da Lapa/BA,-13.250571,-43.410754,60,86.77041
1,Bom Jesus da Serra/BA,-14.3724084,-40.5047119,11,111.33603
1,Bom Jesus das Selvas/MA,-4.4878075,-46.8526639,576,1692.72364
D1,Bom Jesus das Selvas/MA,-4.4878075,-46.8526639,1,2.93876
1,Bom Jesus de Goiás/GO,-18.2174587,-49.739721,35,138.80076
1,Bom Jesus do Amparo/MG,-19.7045132,-43.4752911,4,65.75703
1,Bom Jesus do Araguaia/MT,-12.1725897,-51.5074425,26,395.13678
1,Bom Jesus do Galho/MG,-19.8283191,-42.3162256,6,40.17409
D1,Bom Jesus do Galho/MG,-19.8283191,-42.3162256,2,13.39136
1,Bom Jesus do Itabapoana/RJ,-21.1341025,-41.680095,126,339.65926
D1,Bom Jesus do Itabapoana/RJ,-21.1341025,-41.680095,2,5.39142
1,Bom Jesus do Norte/ES,-21.1254776,-41.6711646,50,503.22061
1,Bom Jesus do Sul/PR,-26.1922507,-53.6002033,3,84.72183
D1,Bom Jesus do Sul/PR,-26.1922507,-53.6002033,1,28.24061
1,Bom Jesus do Tocantins/PA,-5.0471796,-48.5978362,86,506.44838
1,Bom Jesus do Tocantins/TO,-8.96306,-48.165043,3,61.29955
1,Bom Jesus dos Perdões/SP,-23.1353864,-46.4648052,29,113.95787
1,Bom Jesus/PB,-6.8156725,-38.6551841,3,117.14174
1,Bom Jesus/PI,-9.0711644,-44.3583926,267,1060.40748
D1,Bom Jesus/PI,-9.0711644,-44.3583926,2,7.94313
1,Bom Jesus/RN,-5.9887544,-35.5821149,46,450.53869
D1,Bom Jesus/RN,-5.9887544,-35.5821149,2,19.58864
1,Bom Jesus/RS,-28.6692723,-50.4346894,48,422.94475
1,Bom Jesus/SC,-26.7350604,-52.3916519,33,1096.34551
1,Bom Lugar/MA,-4.3728019,-45.0366054,120,736.46741
1,Bom Princípio do Piauí/PI,-3.1912777,-41.6430185,12,213.14387
D1,Bom Princípio do Piauí/PI,-3.1912777,-41.6430185,1,17.76199
1,Bom Princípio/RS,-29.489788,-51.3566782,61,434.00925
1,Bom Progresso/RS,-27.5490948,-53.8655601,6,308.95984
1,Bom Repouso/MG,-22.4657069,-46.1485376,9,85.33232
1,Bom Retiro do Sul/RS,-29.6000007,-51.9359243,78,632.70604
D1,Bom Retiro do Sul/RS,-29.6000007,-51.9359243,1,8.11162
1,Bom Retiro/SC,-27.798993,-49.486994,2,20.06823
1,Bom Sucesso/MG,-21.0323516,-44.7598082,6,34.08510
1,Bom Sucesso/PB,-6.4458948,-37.9297662,6,120.60302
1,Bom Sucesso/PR,-23.7088019,-51.7651297,2,28.44141
1,Bombinhas/SC,-27.1519159,-48.4875691,165,834.64009
1,Bonfim do Piauí/PI,-9.1648678,-42.8734415,1,17.63668
1,Bonfim/MG,-20.3266626, -44.2386157,8,116.48224
D1,Bonfim/MG,-20.3266626, -44.2386157,1,14.56028
1,Bonfim/RR,3.3613818,-59.8427241,146,1176.56540
D1,Bonfim/RR,3.3613818,-59.8427241,4,32.23467
1,Bonfinópolis de Minas/MG,-16.5660011,-45.98645,1,18.20499
1,Bonfinópolis/GO,-16.6172709,-48.9615701,16,164.84649
D1,Bonfinópolis/GO,-16.6172709,-48.9615701,2,20.60581
1,Boninal/BA,-12.7095183,-41.8299984,6,41.75947
1,Bonito de Minas/MG,-15.3191266,-44.7544,2,17.80944
1,Bonito de Santa Fé/PB,-7.3143332,-38.5146677,2,16.78275
1,Bonito/MS,-21.1264766,-56.4902208,79,359.48307
1,Bonito/PA,-1.3605722,-47.3049907,179,1099.10352
D1,Bonito/PA,-1.3605722,-47.3049907,6,36.84146
1,Bonito/PE,-8.4721161,-35.7314591,103,270.10017
D1,Bonito/PE,-8.4721161,-35.7314591,11,28.84565
1,Boqueirão do Piauí/PI,-4.4850148,-42.1095161,32,499.45372
1,Boqueirão/PB,-7.487004,-36.130887,114,640.30555
D1,Boqueirão/PB,-7.487004,-36.130887,1,5.61672
1,Boquim/SE,-11.1450175,-37.6204228,80,298.32936
D1,Boquim/SE,-11.1450175,-37.6204228,7,26.10382
1,Boquira/BA,-12.8184859,-42.7270883,14,65.09206
1,Boracéia/SP,-22.195355,-48.7801925,17,352.47771
1,Borba/AM,-4.3934778,-59.5947721,434,1054.39615
D1,Borba/AM,-4.3934778,-59.5947721,17,41.30123
1,Borborema/PB,-6.8066718,-35.5990191,6,114.00342
1,Borborema/SP,-21.6212706,-49.074135,29,180.73040
1,Borda da Mata/MG,-22.274167,-46.165278,10,51.51453
1,Borebi/SP,-22.5700178,-48.9714871,11,414.62495
D1,Borebi/SP,-22.5700178,-48.9714871,1,37.69318
1,Borá/SP,-22.2701088,-50.544407,1,119.47431
1,Bossoroca/RS,-28.7278885,-54.9120278,3,47.77831
1,Botelhos/MG,-21.65,-46.394722,13,86.83455
D1,Botelhos/MG,-21.65,-46.394722,1,6.67958
1,Botucatu/SP,-22.8879628,-48.4410712,625,426.62990
D1,Botucatu/SP,-22.8879628,-48.4410712,15,10.23912
1,Botuverá/SC,-27.200749,-49.068892,7,133.43500
1,Braga/RS,-27.617348,-53.740514,2,59.64808
1,Braganey/PR,-24.8179919,-53.118506,25,460.65966
D1,Braganey/PR,-24.8179919,-53.118506,1,18.42639
1,Bragança Paulista/SP,-22.9520235,-46.5418586,509,301.77627
D1,Bragança Paulista/SP,-22.9520235,-46.5418586,13,7.70745
1,Bragança/PA,-1.0573967,-46.7635406,1714,1342.35547
D1,Bragança/PA,-1.0573967,-46.7635406,76,59.52101
1,Branquinha/AL,-9.2478057,-36.0152009,69,657.51858
D1,Branquinha/AL,-9.2478057,-36.0152009,1,9.52925
1,Brasil Novo/PA,-3.3055853,-52.539198,212,1405.27642
D1,Brasil Novo/PA,-3.3055853,-52.539198,2,13.25732
1,Brasileira/PI,-4.131182,-41.7824969,33,396.20603
1,Brasilândia de Minas/MG,-17.0096469,-46.0087183,7,42.32676
1,Brasilândia do Sul/PR,-24.1975793,-53.527551,2,75.44323
1,Brasilândia do Tocantins/TO,-8.3886619,-48.4842729,2,90.86779
1,Brasilândia/MS,-21.255575,-52.0365617,22,185.30997
D1,Brasilândia/MS,-21.255575,-52.0365617,2,16.84636
1,Brasiléia/AC,-11.0010413,-68.7487894,344,1309.07984
D1,Brasiléia/AC,-11.0010413,-68.7487894,6,22.83279
1,Brasnorte/MT,-12.1227151,-58.0050109,5,25.38715
1,Brasília de Minas/MG,-16.2075114,-44.430559,8,24.73181
1,Brasília/DF,-15.7934036,-47.8823172,47643,1580.05856
D1,Brasília/DF,-15.7934036,-47.8823172,578,19.16911
1,Brazabrantes/GO,-16.4291635,-49.3858216,3,81.01539
1,Brazópolis/MG,-22.4742842,-45.6165577,8,55.32886
1,Braço do Norte/SC,-28.2728633,-49.1622712,212,633.78176
D1,Braço do Norte/SC,-28.2728633,-49.1622712,3,8.96861
1,Braço do Trombudo/SC,-27.358578,-49.882145,5,133.58269
1,Braúna/SP,-21.5015319,-50.3175246,17,298.97995
D1,Braúna/SP,-21.5015319,-50.3175246,1,17.58706
1,Braúnas/MG,-19.055556,-42.716111,1,20.82899
1,Brejetuba/ES,-20.1465817,-41.2902303,90,725.57240
1,Brejinho de Nazaré/TO,-11.0205883,-48.5722906,6,109.15045
1,Brejinho/PE,-7.3482153,-37.28538,28,373.98157
1,Brejinho/RN,-6.1957907,-35.3583019,43,338.60934
1,Brejo Alegre/SP,-21.1671191,-50.1850393,5,174.52007
1,Brejo Grande do Araguaia/PA,-5.7011449,-48.4037308,37,501.35501
1,Brejo Grande/SE,-10.4287358,-36.4667918,7,84.24600
1,Brejo Santo/CE,-7.4909841,-38.9859152,192,388.05910
D1,Brejo Santo/CE,-7.4909841,-38.9859152,5,10.10571
1,Brejo da Madre de Deus/PE,-8.1409718,-36.3712527,294,579.40168
D1,Brejo da Madre de Deus/PE,-8.1409718,-36.3712527,5,9.85377
1,Brejo de Areia/MA,-4.3316785,-45.5833334,76,827.16587
1,Brejo do Cruz/PB,-6.32926065,-37.48746163303929,84,594.81660
D1,Brejo do Cruz/PB,-6.32926065,-37.48746163303929,1,7.08115
1,Brejo dos Santos/PB,-6.3769367,-37.8243125,5,77.53140
1,Brejo/MA,-3.6804397,-42.7529313,203,557.73828
D1,Brejo/MA,-3.6804397,-42.7529313,9,24.72731
1,Brejão/PE,-9.029146,-36.566034,1,11.11976
1,Brejões/BA,-13.1033754,-39.7909837,11,76.94998
1,Breu Branco/PA,-3.7785073,-49.5684795,183,277.07961
D1,Breu Branco/PA,-3.7785073,-49.5684795,14,21.19735
1,Breves/PA,-1.68036,-50.479085,1114,1084.70219
D1,Breves/PA,-1.68036,-50.479085,74,72.05383
1,Britânia/GO,-15.2427599,-51.1602061,6,103.82419
1,Brochier/RS,-29.556766,-51.5963047,13,256.20812
1,Brodowski/SP,-20.984532,-47.657217,80,320.78271
D1,Brodowski/SP,-20.984532,-47.657217,2,8.01957
1,Brotas de Macaúbas/BA,-12.0019007,-42.6257506,1,9.77422
1,Brotas/SP,-22.2840884,-48.1267265,12,49.17428
1,Brumadinho/MG,-20.143611,-44.2,196,488.74149
1,Brumado/BA,-14.29507325,-41.659307508575985,172,255.97143
D1,Brumado/BA,-14.29507325,-41.659307508575985,2,2.97641
1,Brunópolis/SC,-27.310953,-50.837585,10,413.22314
1,Brusque/SC,-27.0964628,-48.9136323,405,300.61682
D1,Brusque/SC,-27.0964628,-48.9136323,3,2.22679
1,Brás Pires/MG,-20.8483109,-43.2430524,2,46.15740
1,Bueno Brandão/MG,-22.441976,-46.3517971,7,63.63058
D1,Bueno Brandão/MG,-22.441976,-46.3517971,2,18.18017
1,Buenos Aires/PE,-7.7218931,-35.326587,31,235.65184
D1,Buenos Aires/PE,-7.7218931,-35.326587,3,22.80502
1,Buenópolis/MG,-17.8756607,-44.1749365,63,607.81476
1,Buerarema/BA,-14.9571177,-39.3008035,69,376.04229
D1,Buerarema/BA,-14.9571177,-39.3008035,5,27.24944
1,Bugre/MG,-19.4257687,-42.2556,8,200.90407
1,Bujari/AC,-9.8309656,-67.9520886,178,1733.87882
D1,Bujari/AC,-9.8309656,-67.9520886,3,29.22268
1,Bujaru/PA,-1.5169239,-48.0410699,194,665.93437
D1,Bujaru/PA,-1.5169239,-48.0410699,19,65.22038
1,Buri/SP,-23.79849,-48.598924,35,176.07405
D1,Buri/SP,-23.79849,-48.598924,1,5.03069
1,Buritama/SP,-21.0664017,-50.1448077,35,204.15306
D1,Buritama/SP,-21.0664017,-50.1448077,1,5.83294
1,Buriti Alegre/GO,-18.1377879,-49.0404411,37,391.16186
1,Buriti Bravo/MA,-5.8391884,-43.8367876,25,104.67258
1,Buriti de Goiás/GO,-16.180644,-50.4287479,8,321.54341
1,Buriti do Tocantins/TO,-5.3187439,-48.2256609,79,696.15791
1,Buriti dos Lopes/PI,-3.1776723,-41.8707444,244,1233.50690
D1,Buriti dos Lopes/PI,-3.1776723,-41.8707444,4,20.22142
1,Buriti dos Montes/PI,-5.3136171,-41.0971256,4,48.52014
D1,Buriti dos Montes/PI,-5.3136171,-41.0971256,1,12.13003
1,Buriti/MA,-3.9430944,-42.9244281,229,798.52151
1,Buriticupu/MA,-4.3227472,-46.4516989,1084,1498.10664
D1,Buriticupu/MA,-4.3227472,-46.4516989,4,5.52807
1,Buritinópolis/GO,-14.4589282,-46.4293104,1,30.37667
1,Buritirama/BA,-10.7148421,-43.6362327,28,132.23765
1,Buritirana/MA,-5.5897455,-47.0148915,202,1309.13804
D1,Buritirana/MA,-5.5897455,-47.0148915,4,25.92353
1,Buritis/MG,-15.621389,-46.423889,28,112.71688
1,Buritis/RO,-10.2054937,-63.8281954,127,320.27034
D1,Buritis/RO,-10.2054937,-63.8281954,2,5.04363
1,Buritizal/SP,-20.1933264,-47.7097165,6,133.89868
1,Buritizeiro/MG,-17.3667765,-44.9647781,40,142.57200
1,Butiá/RS,-30.1256795,-51.9692224,22,105.05707
D1,Butiá/RS,-30.1256795,-51.9692224,1,4.77532
1,Buíque/PE,-8.6239732,-37.157296,52,89.07465
D1,Buíque/PE,-8.6239732,-37.157296,1,1.71297
1,Bálsamo/SP,-20.7343722,-49.5807484,23,253.63917
0,CASO SEM LOCALIZAÇÃO DEFINIDA/AC,-9.884083190922777,-67.85119819780795,107,12.13241
D0,CASO SEM LOCALIZAÇÃO DEFINIDA/AC,-9.884083190922777,-67.85119819780795,4,0.45355
0,CASO SEM LOCALIZAÇÃO DEFINIDA/AL,-9.931093434363673,-35.609611600637464,99,2.96642
D0,CASO SEM LOCALIZAÇÃO DEFINIDA/AL,-9.931093434363673,-35.609611600637464,7,0.20975
0,CASO SEM LOCALIZAÇÃO DEFINIDA/BA,-13.415069300066518,-38.14174656569957,1912,12.85545
D0,CASO SEM LOCALIZAÇÃO DEFINIDA/BA,-13.415069300066518,-38.14174656569957,5,0.03362
0,CASO SEM LOCALIZAÇÃO DEFINIDA/CE,-3.3445126297392798,-38.624961942434304,4070,44.56817
D0,CASO SEM LOCALIZAÇÃO DEFINIDA/CE,-3.3445126297392798,-38.624961942434304,70,0.76653
0,CASO SEM LOCALIZAÇÃO DEFINIDA/ES,-20.30989267097039,-39.81745156645774,3896,96.94798
D0,CASO SEM LOCALIZAÇÃO DEFINIDA/ES,-20.30989267097039,-39.81745156645774,119,2.96119
0,CASO SEM LOCALIZAÇÃO DEFINIDA/GO,-16.701590966270153,-49.164524059025034,1287,18.33763
D0,CASO SEM LOCALIZAÇÃO DEFINIDA/GO,-16.701590966270153,-49.164524059025034,8,0.11399
0,CASO SEM LOCALIZAÇÃO DEFINIDA/MG,-19.97049116501593,-43.8852149072783,1525,7.20400
D0,CASO SEM LOCALIZAÇÃO DEFINIDA/MG,-19.97049116501593,-43.8852149072783,46,0.21730
0,CASO SEM LOCALIZAÇÃO DEFINIDA/MS,-20.391549234908513,-54.645156949758444,289,10.39948
D0,CASO SEM LOCALIZAÇÃO DEFINIDA/MS,-20.391549234908513,-54.645156949758444,6,0.21591
0,CASO SEM LOCALIZAÇÃO DEFINIDA/MT,-15.54791153961863,-56.17143998972475,111,3.18557
D0,CASO SEM LOCALIZAÇÃO DEFINIDA/MT,-15.54791153961863,-56.17143998972475,11,0.31569
0,CASO SEM LOCALIZAÇÃO DEFINIDA/PE,-8.121628543819208,-34.57313921302556,518,5.42007
D0,CASO SEM LOCALIZAÇÃO DEFINIDA/PE,-8.121628543819208,-34.57313921302556,77,0.80569
0,CASO SEM LOCALIZAÇÃO DEFINIDA/PR,-25.69415946385943,-48.10141676336737,237,2.07277
D0,CASO SEM LOCALIZAÇÃO DEFINIDA/PR,-25.69415946385943,-48.10141676336737,13,0.11370
0,CASO SEM LOCALIZAÇÃO DEFINIDA/RJ,-23.210238986465157,-43.12864305824042,728,4.21664
D0,CASO SEM LOCALIZAÇÃO DEFINIDA/RJ,-23.210238986465157,-43.12864305824042,232,1.34376
0,CASO SEM LOCALIZAÇÃO DEFINIDA/RN,-5.749310788669161,-34.95302586257457,6285,179.22051
D0,CASO SEM LOCALIZAÇÃO DEFINIDA/RN,-5.749310788669161,-34.95302586257457,145,4.13476
D0,CASO SEM LOCALIZAÇÃO DEFINIDA/RO,-8.681174926655274,-63.9216949899276,1,0.05627
0,CASO SEM LOCALIZAÇÃO DEFINIDA/RR,2.813328208465927,-60.663338675861986,419,69.16919
D0,CASO SEM LOCALIZAÇÃO DEFINIDA/RR,2.813328208465927,-60.663338675861986,3,0.49524
0,CASO SEM LOCALIZAÇÃO DEFINIDA/RS,-30.50647488532064,-49.906261466443524,1282,11.26811
D0,CASO SEM LOCALIZAÇÃO DEFINIDA/RS,-30.50647488532064,-49.906261466443524,30,0.26368
0,CASO SEM LOCALIZAÇÃO DEFINIDA/SC,-27.675643660562308,-48.18313219398259,450,6.28072
0,CASO SEM LOCALIZAÇÃO DEFINIDA/SE,-11.03002091978736,-36.89283180376513,396,17.22716
D0,CASO SEM LOCALIZAÇÃO DEFINIDA/SE,-11.03002091978736,-36.89283180376513,33,1.43560
0,CASO SEM LOCALIZAÇÃO DEFINIDA/SP,-24.30968974555485,-46.21366504207253,6285,13.68713
D0,CASO SEM LOCALIZAÇÃO DEFINIDA/SP,-24.30968974555485,-46.21366504207253,365,0.79488
0,CASO SEM LOCALIZAÇÃO DEFINIDA/TO,-10.213012114749148,-48.40023803990334,405,25.74917
D0,CASO SEM LOCALIZAÇÃO DEFINIDA/TO,-10.213012114749148,-48.40023803990334,5,0.31789
1,Caapiranga/AM,-3.3188884,-61.2096404,146,1116.12262
D1,Caapiranga/AM,-3.3188884,-61.2096404,4,30.57870
1,Caaporã/PB,-7.510234,-34.9154114,746,3417.62873
D1,Caaporã/PB,-7.510234,-34.9154114,9,41.23145
1,Caarapó/MS,-22.6349267,-54.8240903,22,72.91045
1,Caatiba/BA,-14.9782759,-40.4092325,41,606.68837
1,Cabaceiras do Paraguaçu/BA,-12.5377868,-39.1901339,14,74.44037
1,Cabaceiras/PB,-7.4899156,-36.2860501,11,196.04349
1,Cabeceira Grande/MG,-16.0297,-47.0906,3,43.17168
1,Cabeceiras do Piauí/PI,-4.4733665,-42.3098716,23,217.26809
1,Cabeceiras/GO,-15.7995459,-46.9264991,3,37.53284
D1,Cabeceiras/GO,-15.7995459,-46.9264991,1,12.51095
1,Cabedelo/PB,-6.97324,-34.8351609,1771,2614.56242
D1,Cabedelo/PB,-6.97324,-34.8351609,14,20.66848
1,Cabixi/RO,-13.4956065,-60.5424442,3,56.47590
1,Cabo Frio/RJ,-22.8804369,-42.0189227,860,379.64905
D1,Cabo Frio/RJ,-22.8804369,-42.0189227,38,16.77519
1,Cabo Verde/MG,-21.4743338,-46.3964995,3,21.31439
1,Cabo de Santo Agostinho/PE,-8.2838945,-35.0320984,919,443.85843
D1,Cabo de Santo Agostinho/PE,-8.2838945,-35.0320984,161,77.75975
1,Cabreúva/SP,-23.3075813,-47.1324417,271,545.19484
D1,Cabreúva/SP,-23.3075813,-47.1324417,16,32.18863
1,Cabrobó/PE,-8.5083701,-39.3106961,48,140.26475
D1,Cabrobó/PE,-8.5083701,-39.3106961,1,2.92218
1,Cabrália Paulista/SP,-22.4562909,-49.3385645,10,234.52158
1,Cacaulândia/RO,-10.3380043,-62.9007231,15,240.77047
1,Cacequi/RS,-29.8838059,-54.8273443,2,15.92230
1,Cachoeira Alta/GO,-18.7618269,-50.9432431,21,168.21532
1,Cachoeira Dourada/GO,-18.4934204,-49.481062,6,74.37709
1,Cachoeira Dourada/MG,-18.517136,-49.5002062,2,74.29421
1,Cachoeira Grande/MA,-2.9290492,-44.0573223,61,646.80310
D1,Cachoeira Grande/MA,-2.9290492,-44.0573223,3,31.80999
1,Cachoeira Paulista/SP,-22.666498,-45.015384,41,123.02337
D1,Cachoeira Paulista/SP,-22.666498,-45.015384,1,3.00057
1,Cachoeira da Prata/MG,-19.524723,-44.453056,1,27.75465
1,Cachoeira de Minas/MG,-22.3554043,-45.7796324,9,77.94232
1,Cachoeira de Pajeú/MG,-15.965833,-41.496666,2,21.24947
1,Cachoeira do Arari/PA,-1.0143572,-48.9621089,124,521.73181
D1,Cachoeira do Arari/PA,-1.0143572,-48.9621089,9,37.86763
1,Cachoeira do Piriá/PA,-1.7599443,-46.5446954,221,651.91740
1,Cachoeira do Sul/RS,-30.0474778,-52.8905413,102,124.08608
1,Cachoeira dos Índios/PB,-6.9259193,-38.6742159,42,409.99610
D1,Cachoeira dos Índios/PB,-6.9259193,-38.6742159,3,29.28544
1,Cachoeira/BA,-12.5998256,-38.9665918,61,182.25276
D1,Cachoeira/BA,-12.5998256,-38.9665918,1,2.98775
1,Cachoeiras de Macacu/RJ,-22.4626861,-42.6534414,328,556.52646
D1,Cachoeiras de Macacu/RJ,-22.4626861,-42.6534414,18,30.54109
1,Cachoeirinha/PE,-8.4906364,-36.2338963,103,505.39745
D1,Cachoeirinha/PE,-8.4906364,-36.2338963,6,29.44063
1,Cachoeirinha/RS,-29.9493353,-51.0898927,310,237.92529
D1,Cachoeirinha/RS,-29.9493353,-51.0898927,4,3.07000
1,Cachoeirinha/TO,-6.118647,-47.9208885,9,395.60440
1,Cachoeiro de Itapemirim/ES,-20.848084,-41.11129,1471,703.92206
D1,Cachoeiro de Itapemirim/ES,-20.848084,-41.11129,57,27.27638
1,Cacimba de Areia/PB,-7.1288513,-37.1575194,7,190.11407
1,Cacimba de Dentro/PB,-6.6425101,-35.7929304,45,261.82580
1,Cacimbas/PB,-7.2125451,-37.0593398,31,432.17622
D1,Cacimbas/PB,-7.2125451,-37.0593398,1,13.94117
1,Cacimbinhas/AL,-9.401212,-36.991082,38,349.97237
D1,Cacimbinhas/AL,-9.401212,-36.991082,2,18.41960
1,Cacique Doble/RS,-27.7700117,-51.6616409,14,276.40671
1,Cacoal/RO,-11.4333,-61.4420502,275,322.16872
D1,Cacoal/RO,-11.4333,-61.4420502,4,4.68609
1,Caconde/SP,-21.527995,-46.643659,3,15.80195
1,Caculé/BA,-14.4990734,-42.2233006,1,4.31593
D1,Caculé/BA,-14.4990734,-42.2233006,1,4.31593
1,Caetanos/BA,-14.3387456,-40.9085971,2,13.75327
1,Caetanópolis/MG,-19.2947496,-44.4138386,9,77.42602
1,Caetité/BA,-14.0691776,-42.4852428,41,80.43158
1,Caeté/MG,-19.897777,-43.670278,47,105.10309
1,Caetés/PE,-8.7728788,-36.6255835,76,264.44901
D1,Caetés/PE,-8.7728788,-36.6255835,3,10.43878
1,Cafarnaum/BA,-11.691399,-41.468823,3,16.27163
1,Cafeara/PR,-22.78905,-51.714195,1,34.08316
1,Cafelândia/PR,-24.6176963,-53.3218057,26,143.48786
D1,Cafelândia/PR,-24.6176963,-53.3218057,1,5.51876
1,Cafelândia/SP,-21.8054355,-49.6030627,20,112.56824
D1,Cafelândia/SP,-21.8054355,-49.6030627,2,11.25682
1,Cafezal do Sul/PR,-23.900508,-53.512418,3,74.18398
1,Caiabu/SP,-22.0143038,-51.2356597,8,190.88523
D1,Caiabu/SP,-22.0143038,-51.2356597,1,23.86065
1,Caiana/MG,-20.695555,-41.924723,4,72.78020
1,Caiapônia/GO,-16.9538779,-51.8090761,3,15.86211
1,Caibi/SC,-27.0751925,-53.2502133,15,243.98178
D1,Caibi/SC,-27.0751925,-53.2502133,1,16.26545
1,Caicó/RN,-6.4594544,-37.0971911,273,401.75418
D1,Caicó/RN,-6.4594544,-37.0971911,4,5.88651
1,Caieiras/SP,-23.3644621,-46.7484765,627,617.91663
D1,Caieiras/SP,-23.3644621,-46.7484765,52,51.24667
1,Cairu/BA,-13.4860505,-39.0455744,47,258.58275
D1,Cairu/BA,-13.4860505,-39.0455744,1,5.50176
1,Caiuá/SP,-21.8319357,-51.9887179,3,51.07252
1,Caiçara do Norte/RN,-5.0645017,-36.0561226,30,458.08520
D1,Caiçara do Norte/RN,-5.0645017,-36.0561226,1,15.26951
1,Caiçara do Rio do Vento/RN,-5.757968,-36.00089,39,1058.63192
D1,Caiçara do Rio do Vento/RN,-5.757968,-36.00089,1,27.14441
1,Caiçara/PB,-6.6146866,-35.4681434,178,2471.87891
D1,Caiçara/PB,-6.6146866,-35.4681434,2,27.77392
1,Caiçara/RS,-27.2750478,-53.4310053,6,126.50221
1,Cajamar/SP,-23.3561111,-46.8769444,627,816.39562
D1,Cajamar/SP,-23.3561111,-46.8769444,40,52.08266
1,Cajapió/MA,-2.8778715,-44.6746871,5,44.73472
D1,Cajapió/MA,-2.8778715,-44.6746871,2,17.89389
1,Cajari/MA,-3.3213076,-45.0118757,119,614.06677
D1,Cajari/MA,-3.3213076,-45.0118757,1,5.16022
1,Cajati/SP,-24.7272376,-48.1077914,79,276.71722
D1,Cajati/SP,-24.7272376,-48.1077914,2,7.00550
1,Cajazeiras do Piauí/PI,-6.794271,-42.3935024,4,112.39112
1,Cajazeiras/PB,-6.8897849,-38.5570389,489,788.79874
D1,Cajazeiras/PB,-6.8897849,-38.5570389,15,24.19628
1,Cajazeirinhas/PB,-6.961442,-37.7993733,1,31.31851
1,Cajobi/SP,-20.8776238,-48.8106972,19,180.23146
D1,Cajobi/SP,-20.8776238,-48.8106972,1,9.48587
1,Cajueiro da Praia/PI,-2.931114,-41.340801,75,981.41848
D1,Cajueiro da Praia/PI,-2.931114,-41.340801,2,26.17116
1,Cajueiro/AL,-9.399589,-36.1524309,123,578.44244
D1,Cajueiro/AL,-9.399589,-36.1524309,6,28.21670
1,Cajuri/MG,-20.7901414,-42.7954489,15,376.22272
1,Cajuru/SP,-21.2759978,-47.3046035,24,91.71858
D1,Cajuru/SP,-21.2759978,-47.3046035,2,7.64321
1,Caldas Brandão/PB,-7.1027959,-35.3254676,73,1213.83439
D1,Caldas Brandão/PB,-7.1027959,-35.3254676,2,33.25574
1,Caldas Novas/GO,-17.745,-48.625,64,70.20469
D1,Caldas Novas/GO,-17.745,-48.625,3,3.29084
1,Caldas/MG,-21.923611,-46.386111,17,117.40331
1,Caldazinha/GO,-16.7116649,-49.0012601,3,78.86435
1,Caldeirão Grande do Piauí/PI,-7.3310393,-40.6374433,16,277.00831
1,Caldeirão Grande/BA,-11.0208483,-40.3041387,33,247.61762
D1,Caldeirão Grande/BA,-11.0208483,-40.3041387,1,7.50356
1,Califórnia/PR,-23.6672543,-51.3554556,5,58.34306
1,Calmon/SC,-26.6023644,-51.0992893,1,29.88643
1,Calumbi/PE,-7.9389746,-38.1516871,25,434.78261
D1,Calumbi/PE,-7.9389746,-38.1516871,1,17.39130
1,Calçado/PE,-8.7413446,-36.3351787,20,180.94635
1,Calçoene/AP,2.4981757,-50.9539503,499,4488.62103
D1,Calçoene/AP,2.4981757,-50.9539503,2,17.99047
1,Camacan/BA,-15.4166631,-39.4930088,292,912.84232
D1,Camacan/BA,-15.4166631,-39.4930088,7,21.88321
1,Camalaú/PB,-7.885031,-36.824191,1,16.63063
1,Camamu/BA,-13.9438142,-39.1060917,65,184.05255
D1,Camamu/BA,-13.9438142,-39.1060917,2,5.66316
1,Camanducaia/MG,-22.755278,-46.144444,82,376.66514
D1,Camanducaia/MG,-22.755278,-46.144444,2,9.18695
1,Camapuã/MS,-19.5291747,-54.0434641,3,21.88024
1,Camaquã/RS,-30.8524752,-51.8075619,67,101.11529
D1,Camaquã/RS,-30.8524752,-51.8075619,4,6.03673
1,Camaragibe/PE,-8.0213832,-34.9810768,1255,795.16942
D1,Camaragibe/PE,-8.0213832,-34.9810768,97,61.45931
1,Camargo/RS,-28.5865661,-52.2031474,19,695.20673
1,Camaçari/BA,-12.6998188,-38.3260762,1337,446.95987
D1,Camaçari/BA,-12.6998188,-38.3260762,23,7.68891
1,Cambará do Sul/RS,-29.0489517,-50.145412,3,46.64904
1,Cambará/PR,-23.042273,-50.075281,33,130.12618
1,Camboriú/SC,-27.0273601,-48.6535657,422,508.50113
D1,Camboriú/SC,-27.0273601,-48.6535657,7,8.43485
1,Cambuci/RJ,-21.5749919,-41.9107833,53,341.82522
D1,Cambuci/RJ,-21.5749919,-41.9107833,1,6.44953
1,Cambuquira/MG,-21.853056,-45.2953619,3,23.41189
1,Cambuí/MG,-22.6122501,-46.0572137,49,165.81503
D1,Cambuí/MG,-22.6122501,-46.0572137,1,3.38398
1,Cambé/PR,-23.2782035,-51.2779583,130,122.02792
D1,Cambé/PR,-23.2782035,-51.2779583,5,4.69338
1,Cametá/PA,-2.242949,-49.497885,3471,2517.22387
D1,Cametá/PA,-2.242949,-49.497885,75,54.39118
1,Camocim de São Félix/PE,-8.3616757,-35.7638903,69,367.70584
D1,Camocim de São Félix/PE,-8.3616757,-35.7638903,2,10.65814
1,Camocim/CE,-2.9009918,-40.8427389,1606,2522.73763
D1,Camocim/CE,-2.9009918,-40.8427389,59,92.67841
1,Campanha/MG,-21.8361108,-45.401986,8,48.00480
D1,Campanha/MG,-21.8361108,-45.401986,1,6.00060
1,Campanário/MG,-18.2398144,-41.7271768,1,26.87450
1,Campestre da Serra/RS,-28.7966535,-51.0958149,11,324.67532
1,Campestre de Goiás/GO,-16.7624179,-49.69497,2,55.09642
1,Campestre do Maranhão/MA,-6.1729113,-47.3640512,158,1099.20690
D1,Campestre do Maranhão/MA,-6.1729113,-47.3640512,1,6.95701
1,Campestre/AL,-8.8481634,-35.5660033,38,547.86621
D1,Campestre/AL,-8.8481634,-35.5660033,3,43.25260
1,Campestre/MG,-19.6142116,-43.219378,5,23.74733
1,Campina Grande do Sul/PR,-25.3046032,-49.0545355,148,341.89614
D1,Campina Grande do Sul/PR,-25.3046032,-49.0545355,6,13.86065
1,Campina Grande/PB,-7.2246743,-35.8771292,6505,1587.62700
D1,Campina Grande/PB,-7.2246743,-35.8771292,103,25.13844
1,Campina Verde/MG,-19.535277,-49.486389,18,91.16232
D1,Campina Verde/MG,-19.535277,-49.486389,1,5.06457
1,Campina da Lagoa/PR,-24.5937926,-52.8038965,4,28.16505
D1,Campina da Lagoa/PR,-24.5937926,-52.8038965,1,7.04126
1,Campina do Monte Alegre/SP,-23.5935653,-48.4801876,39,647.41036
1,Campinas do Piauí/PI,-7.6593687,-41.8814875,5,89.07892
1,Campinas do Sul/RS,-27.7167968,-52.6257885,9,165.01650
1,Campinas/SP,-22.90556,-47.06083,7743,643.06732
D1,Campinas/SP,-22.90556,-47.06083,297,24.66628
1,Campinorte/GO,-14.3136699,-49.1510931,17,134.64280
1,Campinápolis/MT,-14.5403731,-52.7970626,15,93.86733
D1,Campinápolis/MT,-14.5403731,-52.7970626,3,18.77347
1,Campo Alegre de Goiás/GO,-17.6337896,-47.779291,2,26.35393
1,Campo Alegre de Lourdes/BA,-9.5160326,-43.0101338,35,121.53622
D1,Campo Alegre de Lourdes/BA,-9.5160326,-43.0101338,1,3.47246
1,Campo Alegre do Fidalgo/PI,-8.3753852,-41.8364191,1,19.82161
1,Campo Alegre/AL,-9.7798607,-36.3575793,515,902.51126
D1,Campo Alegre/AL,-9.7798607,-36.3575793,4,7.00980
1,Campo Alegre/SC,-26.1941684,-49.2657484,2,16.69728
1,Campo Belo/MG,-20.8975,-45.277223,129,238.76067
D1,Campo Belo/MG,-20.8975,-45.277223,2,3.70172
1,Campo Bom/RS,-29.674694,-51.060601,177,265.31958
D1,Campo Bom/RS,-29.674694,-51.060601,7,10.49286
1,Campo Bonito/PR,-25.0328004,-52.992976,28,730.49830
1,Campo Erê/SC,-26.3947432,-53.0790495,5,58.64415
1,Campo Florido/MG,-19.760833,-48.572223,9,110.41590
1,Campo Formoso/BA,-10.51055,-40.320031,86,120.77634
1,Campo Grande do Piauí/PI,-7.1327559,-41.0381164,36,605.75467
D1,Campo Grande do Piauí/PI,-7.1327559,-41.0381164,1,16.82652
1,Campo Grande/AL,-9.9725,-36.74791447368421,71,742.83323
D1,Campo Grande/AL,-9.9725,-36.74791447368421,1,10.46244
1,Campo Grande/MS,-20.4640173,-54.6162947,2028,226.34383
D1,Campo Grande/MS,-20.4640173,-54.6162947,8,0.89288
1,Campo Largo do Piauí/PI,-3.8104731,-42.6288333,21,288.50117
D1,Campo Largo do Piauí/PI,-3.8104731,-42.6288333,2,27.47630
1,Campo Largo/PR,-25.4597726,-49.5270851,326,246.96596
D1,Campo Largo/PR,-25.4597726,-49.5270851,7,5.30295
1,Campo Limpo Paulista/SP,-23.207791,-46.788919,244,288.24572
D1,Campo Limpo Paulista/SP,-23.207791,-46.788919,30,35.44005
1,Campo Limpo de Goiás/GO,-16.297101,-49.0894994,9,115.54757
1,Campo Magro/PR,-25.3691533,-49.4496921,35,119.38059
D1,Campo Magro/PR,-25.3691533,-49.4496921,1,3.41087
1,Campo Maior/PI,-4.8339574,-42.1739786,709,1513.88978
D1,Campo Maior/PI,-4.8339574,-42.1739786,11,23.48771
1,Campo Mourão/PR,-24.046329,-52.37802,159,167.61720
D1,Campo Mourão/PR,-24.046329,-52.37802,4,4.21678
1,Campo Novo de Rondônia/RO,-10.5704235,-63.6199511,45,318.26862
D1,Campo Novo de Rondônia/RO,-10.5704235,-63.6199511,2,14.14527
1,Campo Novo do Parecis/MT,-13.658735,-57.890723,200,565.61086
D1,Campo Novo do Parecis/MT,-13.658735,-57.890723,2,5.65611
1,Campo Novo/RS,-28.91500235,-52.331375687737626,4,89.20607
1,Campo Redondo/RN,-6.2420373,-36.1830606,25,222.87599
1,Campo Verde/MT,-15.5430787,-55.1590511,332,753.84301
D1,Campo Verde/MT,-15.5430787,-55.1590511,2,4.54122
1,Campo do Brito/SE,-10.7496246,-37.4942276,40,220.88464
D1,Campo do Brito/SE,-10.7496246,-37.4942276,2,11.04423
1,Campo do Meio/MG,-21.1072006,-45.8301735,1,8.58001
1,Campo do Tenente/PR,-25.9814143,-49.684518,2,25.09095
D1,Campo do Tenente/PR,-25.9814143,-49.684518,1,12.54548
1,Campos Altos/MG,-19.696389,-46.171389,31,200.50450
D1,Campos Altos/MG,-19.696389,-46.171389,1,6.46789
1,Campos Belos/GO,-13.0349839,-46.768112,30,150.85232
D1,Campos Belos/GO,-13.0349839,-46.768112,1,5.02841
1,Campos Gerais/MG,-21.2333342,-45.7584127,48,166.81727
D1,Campos Gerais/MG,-21.2333342,-45.7584127,1,3.47536
1,Campos Lindos/TO,-7.9740597,-46.8023881,2,19.77066
1,Campos Novos Paulista/SP,-22.601952,-49.998726,2,40.28197
1,Campos Novos/SC,-27.3962904,-51.2224397,93,256.59419
D1,Campos Novos/SC,-27.3962904,-51.2224397,1,2.75908
1,Campos Sales/CE,-7.0742675,-40.3740367,139,506.81835
D1,Campos Sales/CE,-7.0742675,-40.3740367,2,7.29235
1,Campos de Júlio/MT,-13.7223646,-59.2645296,94,1364.09810
D1,Campos de Júlio/MT,-13.7223646,-59.2645296,2,29.02336
1,Campos do Jordão/SP,-22.7395263,-45.5912829,130,249.57764
D1,Campos do Jordão/SP,-22.7395263,-45.5912829,1,1.91983
1,Campos dos Goytacazes/RJ,-21.7558619,-41.3326895,1793,353.26708
D1,Campos dos Goytacazes/RJ,-21.7558619,-41.3326895,91,17.92934
1,Camutanga/PE,-7.4092965,-35.2738166,73,853.70132
D1,Camutanga/PE,-7.4092965,-35.2738166,3,35.08362
1,Cana Verde/MG,-21.021308,-45.1817881,37,660.36052
1,Canabrava do Norte/MT,-11.0516481,-51.8301897,23,484.92515
1,Cananéia/SP,-25.0104609,-47.9315628,39,311.00478
D1,Cananéia/SP,-25.0104609,-47.9315628,3,23.92344
1,Canapi/AL,-9.1173572,-37.6011704,10,56.42704
D1,Canapi/AL,-9.1173572,-37.6011704,1,5.64270
1,Canarana/BA,-11.6870151,-41.7683675,22,84.04645
1,Canarana/MT,-13.5564602,-52.2691167,68,315.12118
D1,Canarana/MT,-13.5564602,-52.2691167,2,9.26827
1,Canas/SP,-22.7029347,-45.0526508,1,19.46283
1,Canavieiras/BA,-15.61621745,-39.08485321304444,33,106.11274
D1,Canavieiras/BA,-15.61621745,-39.08485321304444,2,6.43107
1,Canaã dos Carajás/PA,-6.5296837,-49.8516592,2127,5735.47256
D1,Canaã dos Carajás/PA,-6.5296837,-49.8516592,26,70.10921
1,Candeal/BA,-11.8053441,-39.1206515,17,205.86098
1,Candeias do Jamari/RO,-8.7949939,-63.7018851,450,1685.83524
D1,Candeias do Jamari/RO,-8.7949939,-63.7018851,11,41.20931
1,Candeias/BA,-12.6693806,-38.5406462,637,731.54486
D1,Candeias/BA,-12.6693806,-38.5406462,16,18.37475
1,Candeias/MG,-20.7676161,-45.2763777,24,161.22531
1,Candelária/RS,-29.668391,-52.789495,11,35.07094
1,Candiba/BA,-14.4125032,-42.8714102,12,83.80473
1,Candiota/RS,-31.5451894,-53.719538,4,41.73623
1,Candói/PR,-25.5711951,-52.051107,7,43.80750
1,Canela/RS,-29.3624657,-50.8134204,25,55.55802
D1,Canela/RS,-29.3624657,-50.8134204,1,2.22232
1,Canelinha/SC,-27.2660341,-48.7666708,98,800.65359
1,Canguaretama/RN,-6.3751942,-35.137463,83,242.15194
D1,Canguaretama/RN,-6.3751942,-35.137463,9,26.25744
1,Canguçu/RS,-31.398276,-52.6773522,36,64.23410
D1,Canguçu/RS,-31.398276,-52.6773522,2,3.56856
1,Canhoba/SE,-10.1373681,-36.9710796,6,149.70060
1,Canhotinho/PE,-8.876519,-36.197935,59,237.86486
D1,Canhotinho/PE,-8.876519,-36.197935,3,12.09482
1,Canindé de São Francisco/SE,-9.6597475,-37.7904456,66,220.73579
D1,Canindé de São Francisco/SE,-9.6597475,-37.7904456,3,10.03344
1,Canindé/CE,-4.3547946,-39.3108516,1279,1661.10368
D1,Canindé/CE,-4.3547946,-39.3108516,37,48.05382
1,Canoas/RS,-29.9216045,-51.1799525,514,148.29090
D1,Canoas/RS,-29.9216045,-51.1799525,19,5.48157
1,Canoinhas/SC,-26.176591,-50.395001,129,237.12799
1,Cansanção/BA,-10.6671448,-39.498199,36,103.34730
D1,Cansanção/BA,-10.6671448,-39.498199,2,5.74152
1,Cantagalo/PR,-25.3735238,-52.1238114,20,150.18398
D1,Cantagalo/PR,-25.3735238,-52.1238114,1,7.50920
1,Cantagalo/RJ,-21.9811325,-42.3682522,22,109.06207
D1,Cantagalo/RJ,-21.9811325,-42.3682522,1,4.95737
1,Cantanhede/MA,-3.6355005,-44.3778738,302,1373.03933
D1,Cantanhede/MA,-3.6355005,-44.3778738,1,4.54649
1,Canto do Buriti/PI,-8.1112473,-42.944844,18,84.95776
D1,Canto do Buriti/PI,-8.1112473,-42.944844,1,4.71988
1,Cantá/RR,2.60994,-60.605827,354,1930.73357
D1,Cantá/RR,2.60994,-60.605827,6,32.72430
1,Canudos do Vale/RS,-29.3240418,-52.2348494,4,233.10023
1,Canudos/BA,-9.8948692,-39.0266244,14,83.99328
D1,Canudos/BA,-9.8948692,-39.0266244,1,5.99952
1,Canutama/AM,-6.5330019,-64.3834966,89,569.45422
1,Canápolis/MG,-18.7228793,-49.2016329,13,106.99588
1,Capanema/PA,-1.1933054,-47.1828679,833,1206.77416
D1,Capanema/PA,-1.1933054,-47.1828679,55,79.67897
1,Capanema/PR,-25.6704878,-53.8083036,9,47.06128
1,Caparaó/MG,-20.5232726,-41.9049984,9,165.50202
D1,Caparaó/MG,-20.5232726,-41.9049984,1,18.38911
1,Capela Nova/MG,-20.9236773,-43.6179487,1,21.49151
1,Capela de Santana/RS,-29.6926603,-51.3206659,3,25.12563
1,Capela do Alto Alegre/BA,-11.6703944,-39.8362745,11,94.52608
1,Capela do Alto/SP,-23.4704798,-47.7352309,87,420.16807
1,Capela/AL,-9.415041,-36.082583,352,2064.15293
D1,Capela/AL,-9.415041,-36.082583,2,11.72814
1,Capela/SE,-10.50494,-37.0552566,211,616.72464
D1,Capela/SE,-10.50494,-37.0552566,6,17.53719
1,Capelinha/MG,-17.693889,-42.518611,4,10.58649
1,Capetinga/MG,-20.6193382,-47.0577418,2,28.90173
1,Capim Branco/MG,-19.548333,-44.133056,6,61.51323
1,Capim Grosso/BA,-11.3793228,-40.0112095,94,306.56839
D1,Capim Grosso/BA,-11.3793228,-40.0112095,3,9.78410
1,Capim/PB,-6.9174091,-35.1720326,100,1533.03695
D1,Capim/PB,-6.9174091,-35.1720326,2,30.66074
1,Capinzal do Norte/MA,-4.7304006,-44.3249063,222,2030.36400
1,Capinzal/SC,-27.3440651,-51.6110403,15,65.65126
1,Capinópolis/MG,-18.682778,-49.569723,58,358.62240
1,Capistrano/CE,-4.4644692,-38.8956734,365,2057.72917
D1,Capistrano/CE,-4.4644692,-38.8956734,7,39.46330
1,Capitão Andrade/MG,-19.0675,-41.859722,2,36.57644
1,Capitão Enéas/MG,-16.3236018,-43.7154584,18,118.15675
D1,Capitão Enéas/MG,-16.3236018,-43.7154584,3,19.69279
1,Capitão Gervásio Oliveira/PI,-8.4954657,-41.8169342,5,121.95122
1,Capitão Leônidas Marques/PR,-25.481645,-53.611238,17,107.73131
1,Capitão Poço/PA,-1.7447162,-47.0638495,471,867.35539
D1,Capitão Poço/PA,-1.7447162,-47.0638495,23,42.35493
1,Capitão de Campos/PI,-4.4584198,-41.9415301,27,236.48945
1,Capitão/RS,-29.2718294,-51.9869716,16,580.34095
1,Capitólio/MG,-20.6142437,-46.0487652,2,23.16960
D1,Capitólio/MG,-20.6142437,-46.0487652,2,23.16960
1,Capivari de Baixo/SC,-28.449773,-48.963144,97,390.01246
1,Capivari/SP,-22.995144,-47.50715,229,410.62975
1,Capixaba/AC,-10.5741345,-67.6759719,142,1210.26166
D1,Capixaba/AC,-10.5741345,-67.6759719,5,42.61485
1,Capoeiras/PE,-8.7386788,-36.6268109,34,169.59298
D1,Capoeiras/PE,-8.7386788,-36.6268109,3,14.96409
1,Capão Bonito/SP,-24.0048759,-48.3489848,93,197.29305
D1,Capão Bonito/SP,-24.0048759,-48.3489848,8,16.97145
1,Capão da Canoa/RS,-29.7542937,-50.0215684,60,113.10298
D1,Capão da Canoa/RS,-29.7542937,-50.0215684,3,5.65515
1,Capão do Cipó/RS,-28.9317296,-54.5555783,3,82.16927
1,Capão do Leão/RS,-31.766133,-52.5013148,4,15.77660
1,Caracaraí/RR,1.827598,-61.125389,136,620.26817
D1,Caracaraí/RR,1.827598,-61.125389,1,4.56080
1,Caracol/MS,-22.0169949,-57.0298349,14,228.90778
1,Caracol/PI,-9.2804898,-43.3284924,12,109.93038
1,Caraguatatuba/SP,-23.62028,-45.41306,391,321.72597
D1,Caraguatatuba/SP,-23.62028,-45.41306,22,18.10223
1,Carambeí/PR,-24.9513298,-50.1171293,64,273.32906
D1,Carambeí/PR,-24.9513298,-50.1171293,3,12.81230
1,Caranaíba/MG,-20.8736914,-43.7379458,3,94.25071
1,Carandaí/MG,-20.9523934,-43.8043903,34,133.32810
D1,Carandaí/MG,-20.9523934,-43.8043903,3,11.76424
1,Carangola/MG,-20.733056,-42.029445,135,409.09091
D1,Carangola/MG,-20.733056,-42.029445,4,12.12121
1,Carapebus/RJ,-22.1869969,-41.6633764,136,834.30464
D1,Carapebus/RJ,-22.1869969,-41.6633764,2,12.26919
1,Carapicuíba/SP,-23.5234673,-46.8406808,2466,615.07456
D1,Carapicuíba/SP,-23.5234673,-46.8406808,144,35.91676
1,Caratinga/MG,-19.7900887,-42.140533,233,253.09031
D1,Caratinga/MG,-19.7900887,-42.140533,6,6.51735
1,Carauari/AM,-4.8766426,-66.8961433,506,1788.36502
D1,Carauari/AM,-4.8766426,-66.8961433,6,21.20591
1,Caravelas/BA,-17.7296514,-39.2660082,35,158.97529
1,Carazinho/RS,-28.2981634,-52.7942363,101,162.61472
D1,Carazinho/RS,-28.2981634,-52.7942363,2,3.22009
1,Caraá/RS,-29.7900698,-50.4302307,15,181.37848
1,Caraí/MG,-17.1884104,-41.6976554,4,16.88833
D1,Caraí/MG,-17.1884104,-41.6976554,1,4.22208
1,Caraíbas/BA,-14.72496,-41.2566163,3,33.51581
1,Caraúbas do Piauí/PI,-3.4757229,-41.8431178,29,494.20586
1,Caraúbas/PB,-7.7273231,-36.4923357,12,288.32292
1,Caraúbas/RN,-5.7889323,-37.5548751,127,619.72381
1,Carbonita/MG,-17.5308667,-43.0136207,2,21.26528
1,Cardeal da Silva/BA,-11.9428154,-37.9494462,7,75.30931
1,Cardoso Moreira/RJ,-21.4894916,-41.6152776,122,951.41543
1,Cardoso/SP,-20.080447,-49.9139767,15,121.69398
D1,Cardoso/SP,-20.080447,-49.9139767,1,8.11293
1,Careaçu/MG,-22.0440585,-45.6949091,3,44.39840
1,Careiro da Várzea/AM,-3.197024,-59.8259104,78,258.06452
D1,Careiro da Várzea/AM,-3.197024,-59.8259104,4,13.23408
1,Careiro/AM,-3.8185277,-60.3616505,922,2434.70913
D1,Careiro/AM,-3.8185277,-60.3616505,13,34.32887
1,Cariacica/ES,-20.263202,-40.416549,4681,1227.69057
D1,Cariacica/ES,-20.263202,-40.416549,224,58.74871
1,Caridade do Piauí/PI,-7.7331063,-40.9883665,9,177.61989
1,Caridade/CE,-4.2316487,-39.1946515,191,847.11935
D1,Caridade/CE,-4.2316487,-39.1946515,12,53.22216
1,Carinhanha/BA,-14.298524,-43.772349,2,6.89227
1,Carira/SE,-10.358303,-37.701473,56,253.60022
D1,Carira/SE,-10.358303,-37.701473,6,27.17145
1,Cariri do Tocantins/TO,-11.8882727,-49.1604216,62,1414.87905
D1,Cariri do Tocantins/TO,-11.8882727,-49.1604216,1,22.82063
1,Caririaçu/CE,-7.0417053,-39.2835527,122,452.43835
D1,Caririaçu/CE,-7.0417053,-39.2835527,3,11.12553
1,Cariré/CE,-3.948584,-40.476028,347,1880.96271
D1,Cariré/CE,-3.948584,-40.476028,8,43.36513
1,Cariús/CE,-6.5348688,-39.4966658,122,652.44131
D1,Cariús/CE,-6.5348688,-39.4966658,2,10.69576
1,Carlos Barbosa/RS,-29.2978372,-51.5005613,266,891.63007
D1,Carlos Barbosa/RS,-29.2978372,-51.5005613,7,23.46395
1,Carlos Chagas/MG,-21.744351,-43.3908675,39,207.03934
1,Carlópolis/PR,-23.4224762,-49.7194008,39,272.34637
1,Carmo da Cachoeira/MG,-21.460556,-45.223334,4,32.86771
1,Carmo da Mata/MG,-20.558334,-44.8703774,7,60.99686
1,Carmo de Minas/MG,-22.1216655,-45.1323836,5,33.64964
1,Carmo do Cajuru/MG,-20.184444,-44.770834,76,338.10837
D1,Carmo do Cajuru/MG,-20.184444,-44.770834,3,13.34638
1,Carmo do Paranaíba/MG,-18.9992327,-46.306916,63,207.72198
1,Carmo do Rio Claro/MG,-20.973315,-46.1186754,16,75.38280
D1,Carmo do Rio Claro/MG,-20.973315,-46.1186754,1,4.71143
1,Carmo do Rio Verde/GO,-15.3549139,-49.707975,13,128.94267
1,Carmo/RJ,-21.9341749,-42.6091737,63,333.42154
D1,Carmo/RJ,-21.9341749,-42.6091737,2,10.58481
1,Carmolândia/TO,-7.033804,-48.3951295,14,542.63566
D1,Carmolândia/TO,-7.033804,-48.3951295,1,38.75969
1,Carmópolis de Minas/MG,-20.541224,-44.6350611,84,433.99638
D1,Carmópolis de Minas/MG,-20.541224,-44.6350611,2,10.33325
1,Carmópolis/SE,-10.64835,-36.98493,86,517.01335
D1,Carmópolis/SE,-10.64835,-36.98493,3,18.03535
1,Carnaubais/RN,-5.3383681,-36.8335566,36,334.60359
D1,Carnaubais/RN,-5.3383681,-36.8335566,2,18.58909
1,Carnaubal/CE,-4.1611842,-40.9412317,136,772.46393
D1,Carnaubal/CE,-4.1611842,-40.9412317,2,11.35976
1,Carnaubeira da Penha/PE,-8.3192809,-38.7435891,7,54.12929
D1,Carnaubeira da Penha/PE,-8.3192809,-38.7435891,1,7.73276
1,Carnaíba/PE,-7.805964,-37.7947314,49,250.62657
D1,Carnaíba/PE,-7.805964,-37.7947314,6,30.68897
1,Carnaúba dos Dantas/RN,-6.5560588,-36.5930811,8,97.79951
D1,Carnaúba dos Dantas/RN,-6.5560588,-36.5930811,2,24.44988
1,Carneirinho/MG,-19.6975,-50.688055,4,39.89229
1,Carneiros/AL,-9.4832948,-37.3757121,24,264.28807
1,Caroebe/RR,0.8812315,-59.6932274,336,3304.15970
D1,Caroebe/RR,0.8812315,-59.6932274,2,19.66762
1,Carolina/MA,-7.3313437,-47.4738762,130,534.49552
1,Carpina/PE,-7.8459151,-35.2538861,244,291.72296
D1,Carpina/PE,-7.8459151,-35.2538861,36,43.04109
1,Carrapateira/PB,-7.0395225,-38.3432281,5,188.04062
1,Carrasco Bonito/TO,-5.3205734,-48.0376667,12,293.04029
1,Caruaru/PE,-8.2829702,-35.9722852,1681,465.49881
D1,Caruaru/PE,-8.2829702,-35.9722852,117,32.39938
1,Carutapera/MA,-1.2016638,-46.0205618,236,991.30508
D1,Carutapera/MA,-1.2016638,-46.0205618,14,58.80623
1,Carvalhópolis/MG,-21.7773461,-45.8412117,1,27.94077
1,Casa Branca/SP,-21.7743137,-47.0852175,20,65.83278
D1,Casa Branca/SP,-21.7743137,-47.0852175,1,3.29164
1,Casa Nova/BA,-9.1736775,-40.9734475,87,120.88538
D1,Casa Nova/BA,-9.1736775,-40.9734475,3,4.16846
1,Casca/RS,-28.5634054,-51.9741902,16,177.16753
1,Cascalho Rico/MG,-18.579344,-47.875774,6,195.12195
1,Cascavel/CE,-4.129666,-38.241178,990,1379.92557
D1,Cascavel/CE,-4.129666,-38.241178,71,98.96436
1,Cascavel/PR,-24.9554996,-53.4560544,2601,791.89171
D1,Cascavel/PR,-24.9554996,-53.4560544,44,13.39609
1,Caseara/TO,-9.273159,-49.9576837,4,74.50177
D1,Caseara/TO,-9.273159,-49.9576837,1,18.62544
1,Caseiros/RS,-28.2721149,-51.6873536,11,343.53529
1,Casimiro de Abreu/RJ,-22.4809932,-42.2039976,333,753.66649
D1,Casimiro de Abreu/RJ,-22.4809932,-42.2039976,10,22.63263
1,Casinhas/PE,-7.744698,-35.7250923,23,160.37933
D1,Casinhas/PE,-7.744698,-35.7250923,2,13.94603
1,Casserengue/PB,-6.779538,-35.817875,101,1352.43706
D1,Casserengue/PB,-6.779538,-35.817875,1,13.39047
1,Cassilândia/MS,-19.1128242,-51.7345354,13,59.25521
1,Castanhal/PA,-1.2927031,-47.9223903,1534,763.97086
D1,Castanhal/PA,-1.2927031,-47.9223903,166,82.67220
1,Castanheira/MT,-11.1391946,-58.6088547,3,34.36820
1,Castanheiras/RO,-11.4277212,-61.9486802,19,622.54260
1,Castelo do Piauí/PI,-5.3230426,-41.5546185,25,126.80057
D1,Castelo do Piauí/PI,-5.3230426,-41.5546185,1,5.07202
1,Castelo/ES,-20.6034476,-41.2033505,254,676.71977
D1,Castelo/ES,-20.6034476,-41.2033505,5,13.32126
1,Castelândia/GO,-18.089062,-50.220798,4,116.44833
1,Castilho/SP,-20.8695636,-51.4877792,14,66.64762
D1,Castilho/SP,-20.8695636,-51.4877792,1,4.76054
1,Castro Alves/BA,-12.7616941,-39.4281088,59,224.64210
D1,Castro Alves/BA,-12.7616941,-39.4281088,1,3.80749
1,Castro/PR,-24.794072,-49.9972914,48,67.14789
1,Cataguases/MG,-21.387426,-42.6957219,86,114.47892
D1,Cataguases/MG,-21.387426,-42.6957219,2,2.66230
1,Catalão/GO,-18.1702546,-47.9447082,200,183.78468
D1,Catalão/GO,-18.1702546,-47.9447082,5,4.59462
1,Catanduva/SP,-21.1331035,-48.9712817,439,360.24355
D1,Catanduva/SP,-21.1331035,-48.9712817,22,18.05321
1,Catanduvas/PR,-25.2043528,-53.154826,24,235.54814
1,Catanduvas/SC,-27.0689719,-51.660158,24,220.97413
1,Catarina/CE,-6.1341578,-39.8795321,48,231.90646
D1,Catarina/CE,-6.1341578,-39.8795321,1,4.83138
1,Catas Altas da Noruega/MG,-20.690277,-43.4975,13,357.04477
1,Catas Altas/MG,-20.0744,-43.4075,18,334.82143
1,Catende/PE,-8.6900588,-35.748470825,325,757.71706
D1,Catende/PE,-8.6900588,-35.748470825,21,48.96018
1,Catiguá/SP,-21.0491485,-49.0578923,26,333.16248
D1,Catiguá/SP,-21.0491485,-49.0578923,1,12.81394
1,Catingueira/PB,-7.120081,-37.60638,12,243.30900
D1,Catingueira/PB,-7.120081,-37.60638,2,40.55150
1,Catolândia/BA,-12.315088,-44.8616434,1,27.95639
1,Catolé do Rocha/PB,-6.340625,-37.746967,147,481.24141
D1,Catolé do Rocha/PB,-6.340625,-37.746967,6,19.64251
1,Catu/BA,-12.351274,-38.379108,275,502.70547
D1,Catu/BA,-12.351274,-38.379108,2,3.65604
1,Catuji/MG,-17.3024568,-41.5168387,9,142.60814
1,Catunda/CE,-4.6494224,-40.2002603,96,928.25372
D1,Catunda/CE,-4.6494224,-40.2002603,1,9.66931
1,Caturaí/GO,-16.4473559,-49.4919149,7,138.06706
1,Caturité/PB,-7.4199652,-36.0207132,56,1154.16323
1,Catuípe/RS,-28.255356,-54.013215,6,68.38386
1,Caucaia/CE,-3.7300563,-38.6593082,3551,982.56779
D1,Caucaia/CE,-3.7300563,-38.6593082,275,76.09297
1,Cavalcante/GO,-13.7928414,-47.4568521,4,41.19889
1,Caxambu do Sul/SC,-27.1615046,-52.8796675,35,961.01043
D1,Caxambu do Sul/SC,-27.1615046,-52.8796675,1,27.45744
1,Caxambu/MG,-21.9770359,-44.9318289,18,83.11784
D1,Caxambu/MG,-21.9770359,-44.9318289,1,4.61766
1,Caxias do Sul/RS,-29.1684796,-51.1793861,1006,196.90511
D1,Caxias do Sul/RS,-29.1684796,-51.1793861,15,2.93596
1,Caxias/MA,-4.8654201,-43.353664,923,559.80107
D1,Caxias/MA,-4.8654201,-43.353664,22,13.34304
1,Caxingó/PI,-3.4208396,-41.8925637,27,497.78761
1,Caçador/SC,-26.77567,-51.0120041,70,89.06419
D1,Caçador/SC,-26.77567,-51.0120041,4,5.08938
1,Caçapava do Sul/RS,-30.5113286,-53.4916761,145,431.23959
D1,Caçapava do Sul/RS,-30.5113286,-53.4916761,2,5.94813
1,Caçapava/SP,-23.099204,-45.707645,155,164.43355
D1,Caçapava/SP,-23.099204,-45.707645,7,7.42603
1,Caçu/GO,-18.5637222,-51.1369685,66,412.26810
D1,Caçu/GO,-18.5637222,-51.1369685,3,18.73946
1,Caém/BA,-11.0909658,-40.4322187,15,162.81342
1,Ceará-Mirim/RN,-5.633588,-35.4248407,382,519.74911
D1,Ceará-Mirim/RN,-5.633588,-35.4248407,19,25.85140
1,Cedral/MA,-2.000269,-44.528114,71,665.10539
1,Cedral/SP,-20.9028433,-49.2699665,21,227.34654
1,Cedro de São João/SE,-10.2506778,-36.8816067,53,898.76208
1,Cedro/CE,-6.6065382,-39.0599487,57,223.03087
D1,Cedro/CE,-6.6065382,-39.0599487,5,19.56411
1,Cedro/PE,-7.7186318,-39.2363385,37,313.37342
D1,Cedro/PE,-7.7186318,-39.2363385,1,8.46955
1,Celso Ramos/SC,-27.6335797,-51.3368111,1,36.65689
1,Centenário do Sul/PR,-22.821497,-51.5951456,8,73.88935
1,Centenário/RS,-27.7633568,-51.989010104551,2,69.18021
1,Central de Minas/MG,-18.7612885,-41.3071204,1,14.22071
1,Central do Maranhão/MA,-2.1967253,-44.8290757,15,172.95054
D1,Central do Maranhão/MA,-2.1967253,-44.8290757,1,11.53004
1,Centralina/MG,-18.5843349,-49.1954739,29,280.19324
D1,Centralina/MG,-18.5843349,-49.1954739,1,9.66184
1,Centro Novo do Maranhão/MA,-2.1361032,-46.1248528,271,1253.35307
D1,Centro Novo do Maranhão/MA,-2.1361032,-46.1248528,5,23.12460
1,Centro do Guilherme/MA,-2.4511749,-46.039127,51,378.95675
D1,Centro do Guilherme/MA,-2.4511749,-46.039127,1,7.43052
1,Cerejeiras/RO,-13.186987,-60.816836,31,189.91607
D1,Cerejeiras/RO,-13.186987,-60.816836,2,12.25265
1,Ceres/GO,-15.3103568,-49.6032054,67,301.92420
D1,Ceres/GO,-15.3103568,-49.6032054,1,4.50633
1,Cerqueira César/SP,-23.0353135,-49.1650519,21,105.07881
D1,Cerqueira César/SP,-23.0353135,-49.1650519,1,5.00375
1,Cerquilho/SP,-23.1626556,-47.7433878,59,120.53362
D1,Cerquilho/SP,-23.1626556,-47.7433878,6,12.25766
1,Cerro Azul/PR,-24.8245108,-49.2615181,13,73.11997
1,Cerro Corá/RN,-6.0412685,-36.3464694,6,53.67206
D1,Cerro Corá/RN,-6.0412685,-36.3464694,1,8.94534
1,Cerro Grande do Sul/RS,-30.5962963,-51.7517196,2,16.34120
D1,Cerro Grande do Sul/RS,-30.5962963,-51.7517196,1,8.17060
1,Cerro Largo/RS,-28.147498,-54.7383681,3,21.22692
1,Cesário Lange/SP,-23.226035,-47.954453,20,110.20498
D1,Cesário Lange/SP,-23.226035,-47.954453,2,11.02050
1,Cezarina/GO,-16.9718289,-49.775814,9,104.57820
D1,Cezarina/GO,-16.9718289,-49.775814,1,11.61980
1,Chalé/MG,-20.0419748,-41.6914563,8,140.25245
1,Chapada de Areia/TO,-10.1409456,-49.1783677,1,71.12376
1,Chapada dos Guimarães/MT,-15.464343,-55.749857,57,288.57837
D1,Chapada dos Guimarães/MT,-15.464343,-55.749857,4,20.25111
1,Chapada/RS,-28.0587829,-53.0657459,6,64.73190
1,Chapadinha/MA,-3.7416803,-43.3548006,1756,2203.95356
D1,Chapadinha/MA,-3.7416803,-43.3548006,13,16.31628
1,Chapadão do Céu/GO,-18.3951972,-52.6670783,36,354.08675
1,Chapadão do Sul/MS,-18.7949051,-52.6199512,157,622.57118
1,Chapecó/SC,-27.0922364,-52.6166878,2456,1114.50444
D1,Chapecó/SC,-27.0922364,-52.6166878,11,4.99167
1,Charqueada/SP,-22.50958,-47.775468,96,558.46422
D1,Charqueada/SP,-22.50958,-47.775468,3,17.45201
1,Charqueadas/RS,-29.955012,-51.6249195,40,98.06565
D1,Charqueadas/RS,-29.955012,-51.6249195,1,2.45164
1,Charrua/RS,-27.9533747,-52.0312591,1,30.49710
1,Chaval/CE,-3.0339874,-41.2438452,379,2899.99235
D1,Chaval/CE,-3.0339874,-41.2438452,7,53.56186
1,Chavantes/SP,-23.0406405,-49.7071698,1,8.05283
1,Chaves/PA,-0.164154,-49.987006,139,586.07750
D1,Chaves/PA,-0.164154,-49.987006,1,4.21638
1,Chiador/MG,-22.002778,-43.057222,22,818.75698
1,Chiapetta/RS,-27.923162,-53.9419052,22,585.72950
1,Chopinzinho/PR,-25.8566167,-52.5294107,14,72.71216
1,Chorozinho/CE,-4.3010895,-38.4976923,346,1707.46151
D1,Chorozinho/CE,-4.3010895,-38.4976923,11,54.28346
1,Chorrochó/BA,-8.9774059,-39.0993132,1,8.94694
1,Choró/CE,-4.8435726,-39.1393071,191,1412.61741
D1,Choró/CE,-4.8435726,-39.1393071,4,29.58361
1,Chupinguaia/RO,-12.5528918,-60.9027819,11,98.37238
1,Chuvisca/RS,-30.7557984,-51.9784928,6,110.27385
1,Chuí/RS,-33.6895237,-53.454704,2,29.83294
1,Chácara/MG,-21.6727567,-43.2206851,1,31.70577
1,Chã Grande/PE,-8.238271,-35.457148,173,797.30851
D1,Chã Grande/PE,-8.238271,-35.457148,11,50.69592
1,Chã Preta/AL,-9.255605,-36.298334,16,218.84831
1,Chã de Alegria/PE,-7.9959409,-35.2134636,136,1006.06599
D1,Chã de Alegria/PE,-7.9959409,-35.2134636,5,36.98772
1,Cianorte/PR,-23.662036,-52.6103989,440,532.55870
D1,Cianorte/PR,-23.662036,-52.6103989,4,4.84144
1,Cidade Gaúcha/PR,-23.3816558,-52.9444098,9,71.13500
D1,Cidade Gaúcha/PR,-23.3816558,-52.9444098,1,7.90389
1,Cidade Ocidental/GO,-16.1000758,-47.9445014,321,449.73100
D1,Cidade Ocidental/GO,-16.1000758,-47.9445014,5,7.00516
1,Cidelândia/MA,-5.174655,-47.7833531,201,1367.62605
1,Cidreira/RS,-30.1657063,-50.218331,33,203.02695
D1,Cidreira/RS,-30.1657063,-50.218331,2,12.30466
1,Cipotânea/MG,-20.905278,-43.365556,10,147.34050
D1,Cipotânea/MG,-20.905278,-43.365556,1,14.73405
1,Cipó/BA,-11.0990534,-38.5153006,18,104.04624
1,Ciríaco/RS,-28.3429139,-51.8763682,8,168.52749
1,Claraval/MG,-20.398889,-47.283056,5,103.24179
1,Clementina/SP,-21.5594631,-50.448624,2,23.20993
1,Clevelândia/PR,-26.404065,-52.3513972,68,410.65282
D1,Clevelândia/PR,-26.404065,-52.3513972,4,24.15605
1,Cláudia/MT,-11.5057202,-54.8763166,40,329.24521
1,Cláudio/MG,-20.4448485,-44.7655217,31,108.32722
1,Coaraci/BA,-14.6407979,-39.5496765,67,394.28000
D1,Coaraci/BA,-14.6407979,-39.5496765,3,17.65433
1,Coari/AM,-4.0885957,-63.1431166,3720,4371.48196
D1,Coari/AM,-4.0885957,-63.1431166,82,96.36062
1,Cocal de Telha/PI,-4.5553648,-41.9722429,28,572.48007
1,Cocal do Sul/SC,-28.6007346,-49.3248697,28,167.82546
D1,Cocal do Sul/SC,-28.6007346,-49.3248697,2,11.98753
1,Cocal dos Alves/PI,-3.59964,-41.444741,3,48.75670
1,Cocal/PI,-3.4691882,-41.555851,115,413.86260
D1,Cocal/PI,-3.4691882,-41.555851,2,7.19761
1,Cocalinho/MT,-14.390339,-51.00015,5,87.71930
1,Cocalzinho de Goiás/GO,-15.7762854,-48.7730427,22,108.69565
D1,Cocalzinho de Goiás/GO,-15.7762854,-48.7730427,2,9.88142
1,Cocos/BA,-14.1811222,-44.5382117,7,37.27965
1,Codajás/AM,-3.8413202,-62.0603444,140,488.87802
D1,Codajás/AM,-3.8413202,-62.0603444,3,10.47596
1,Codó/MA,-4.455623,-43.892354,1770,1440.67590
D1,Codó/MA,-4.455623,-43.892354,13,10.58124
1,Coelho Neto/MA,-4.2535154,-43.0149321,985,1992.51542
D1,Coelho Neto/MA,-4.2535154,-43.0149321,21,42.48002
1,Coimbra/MG,-21.5733599,-45.1979819,6,79.40709
1,Coité do Nóia/AL,-9.633484,-36.584493,54,505.00327
1,Coivaras/PI,-5.0927005,-42.2052489,28,696.51741
1,Colares/PA,-0.936423,-48.280254,71,587.50517
D1,Colares/PA,-0.936423,-48.280254,8,66.19777
1,Colatina/ES,-19.5346732,-40.6287836,1336,1090.62115
D1,Colatina/ES,-19.5346732,-40.6287836,26,21.22466
1,Colina/SP,-20.711443,-48.53867,48,259.90903
D1,Colina/SP,-20.711443,-48.53867,6,32.48863
1,Colinas do Tocantins/TO,-8.0612688,-48.4716768,208,587.17254
D1,Colinas do Tocantins/TO,-8.0612688,-48.4716768,3,8.46883
1,Colinas/MA,-6.0332631,-44.2528542,438,1063.67478
D1,Colinas/MA,-6.0332631,-44.2528542,8,19.42785
1,Colinas/RS,-29.3866023,-51.8697911,14,574.24118
1,Colméia/TO,-8.734098,-48.7510897,8,97.50152
1,Colniza/MT,-9.4560637,-59.2197132,2,5.18376
1,Colombo/PR,-25.2925439,-49.2243472,292,119.80667
D1,Colombo/PR,-25.2925439,-49.2243472,10,4.10297
1,Colorado do Oeste/RO,-13.117431,-60.545428,33,207.78240
1,Colorado/PR,-22.8385097,-51.9730135,28,116.60836
D1,Colorado/PR,-22.8385097,-51.9730135,1,4.16458
1,Colorado/RS,-28.525842,-52.99282,4,125.98425
1,Colíder/MT,-10.8094999,-55.4540386,181,541.30032
D1,Colíder/MT,-10.8094999,-55.4540386,2,5.98122
1,Colômbia/SP,-20.1774291,-48.6872822,6,96.61836
1,Colônia Leopoldina/AL,-8.918058,-35.721414,167,769.65619
D1,Colônia Leopoldina/AL,-8.918058,-35.721414,3,13.82616
1,Colônia do Gurguéia/PI,-8.183697,-43.793999,5,77.11289
D1,Colônia do Gurguéia/PI,-8.183697,-43.793999,2,30.84516
1,Colônia do Piauí/PI,-7.2320268,-42.1777122,12,156.73981
1,Comendador Gomes/MG,-19.6991718,-49.0814065,2,64.28801
1,Comendador Levy Gasparian/RJ,-22.028685,-43.204655,51,595.72480
1,Comercinho/MG,-16.2965093,-41.7930954,2,28.86419
1,Comodoro/MT,-13.6581107,-59.786883,32,154.12031
D1,Comodoro/MT,-13.6581107,-59.786883,1,4.81626
1,Conceição da Barra de Minas/MG,-21.128889,-44.472223,2,50.58169
1,Conceição da Barra/ES,-18.5841421,-39.7371844,54,173.84026
D1,Conceição da Barra/ES,-18.5841421,-39.7371844,3,9.65779
1,Conceição da Feira/BA,-12.5013001,-39.0002166,90,398.56517
D1,Conceição da Feira/BA,-12.5013001,-39.0002166,1,4.42850
1,Conceição das Alagoas/MG,-19.9194009,-48.3803414,69,247.37389
D1,Conceição das Alagoas/MG,-19.9194009,-48.3803414,1,3.58513
1,Conceição das Pedras/MG,-22.1596572,-45.4550521,1,35.56188
1,Conceição de Macabu/RJ,-22.0849986,-41.8679947,172,740.48562
D1,Conceição de Macabu/RJ,-22.0849986,-41.8679947,1,4.30515
1,Conceição do Almeida/BA,-12.7772763,-39.1692214,31,179.74140
1,Conceição do Araguaia/PA,-8.2696905,-49.2676864,186,388.60104
D1,Conceição do Araguaia/PA,-8.2696905,-49.2676864,4,8.35701
1,Conceição do Castelo/ES,-20.3601311,-41.2470343,49,385.12929
D1,Conceição do Castelo/ES,-20.3601311,-41.2470343,2,15.71956
1,Conceição do Coité/BA,-11.5629384,-39.2839543,171,256.71050
1,Conceição do Jacuípe/BA,-12.326831,-38.768433,153,461.49670
1,Conceição do Lago-Açu/MA,-3.8410056,-44.8930565,125,769.84665
D1,Conceição do Lago-Açu/MA,-3.8410056,-44.8930565,2,12.31755
1,Conceição do Mato Dentro/MG,-19.037222,-43.425278,104,582.89429
1,Conceição do Rio Verde/MG,-21.881078,-45.0868526,4,29.32981
1,Conceição dos Ouros/MG,-22.413056,-45.797777,4,34.37017
1,Conceição/PB,-7.5565059,-38.5053706,11,57.94964
1,Conchal/SP,-22.337512,-47.172927,26,92.69162
1,Conchas/SP,-23.0133538,-48.0077595,26,145.28386
D1,Conchas/SP,-23.0133538,-48.0077595,3,16.76352
1,Concórdia do Pará/PA,-1.9924056,-47.9450474,536,1608.74002
D1,Concórdia do Pará/PA,-1.9924056,-47.9450474,8,24.01105
1,Concórdia/SC,-27.2312011,-52.0231024,1220,1634.49043
D1,Concórdia/SC,-27.2312011,-52.0231024,13,17.41670
1,Condado/PB,-6.9092101,-37.5966375,69,1036.97024
D1,Condado/PB,-6.9092101,-37.5966375,1,15.02855
1,Condado/PE,-7.587868,-35.09994,179,677.49139
D1,Condado/PE,-7.587868,-35.09994,22,83.26710
1,Conde/BA,-11.8129758,-37.6138705,37,143.20548
D1,Conde/BA,-11.8129758,-37.6138705,4,15.48167
1,Conde/PB,-7.2600359,-34.9053524,343,1390.35266
D1,Conde/PB,-7.2600359,-34.9053524,5,20.26753
1,Condeúba/BA,-14.902227,-41.971829,24,139.15464
