type,name,lat,lon,total,total_per_100k_inhabitants
1,Abadia de Goiás/GO,-16.7572644,-49.4412205,1251,13965.17080
D1,Abadia de Goiás/GO,-16.7572644,-49.4412205,25,279.08015
1,Abadia dos Dourados/MG,-18.4911191,-47.4063589,353,5038.53840
D1,Abadia dos Dourados/MG,-18.4911191,-47.4063589,12,171.28176
1,Abadiânia/GO,-16.1940946,-48.7067767,318,1554.17624
D1,Abadiânia/GO,-16.1940946,-48.7067767,26,127.07101
1,Abaetetuba/PA,-1.721828,-48.878843,6756,4246.91979
D1,Abaetetuba/PA,-1.721828,-48.878843,180,113.15062
1,Abaeté/MG,-19.1566833,-45.4481213,925,3978.49462
D1,Abaeté/MG,-19.1566833,-45.4481213,19,81.72043
1,Abaiara/CE,-7.3607808,-39.0487878,380,3205.93942
D1,Abaiara/CE,-7.3607808,-39.0487878,8,67.49346
1,Abaré/BA,-8.7239913,-39.1139689,718,3528.77574
D1,Abaré/BA,-8.7239913,-39.1139689,4,19.65892
1,Abatiá/PR,-23.3052967,-50.3102532,570,7694.38445
D1,Abatiá/PR,-23.3052967,-50.3102532,9,121.49028
1,Abaíra/BA,-13.2503296,-41.6640342,249,2858.78301
D1,Abaíra/BA,-13.2503296,-41.6640342,9,103.32951
1,Abdon Batista/SC,-27.612419,-51.022992,285,11185.24333
D1,Abdon Batista/SC,-27.612419,-51.022992,2,78.49294
1,Abel Figueiredo/PA,-4.953001,-48.3958485,801,10699.97328
D1,Abel Figueiredo/PA,-4.953001,-48.3958485,9,120.22442
1,Abelardo Luz/SC,-26.5705893,-52.3280339,1247,6943.20713
D1,Abelardo Luz/SC,-26.5705893,-52.3280339,40,222.71715
1,Abre Campo/MG,-20.2976097,-42.4764741,849,6315.08480
D1,Abre Campo/MG,-20.2976097,-42.4764741,12,89.25915
1,Abreu e Lima/PE,-7.900719,-34.898389,2327,2318.97634
D1,Abreu e Lima/PE,-7.900719,-34.898389,183,182.36900
1,Abreulândia/TO,-9.6221526,-49.1558343,245,9444.87278
D1,Abreulândia/TO,-9.6221526,-49.1558343,6,231.30301
1,Acaiaca/MG,-20.3621646,-43.1444162,211,5282.92439
D1,Acaiaca/MG,-20.3621646,-43.1444162,8,200.30045
1,Acajutiba/BA,-11.6609659,-38.0186381,475,3127.67499
D1,Acajutiba/BA,-11.6609659,-38.0186381,13,85.59953
1,Acarape/CE,-4.2237866,-38.7071663,2495,16593.50891
D1,Acarape/CE,-4.2237866,-38.7071663,22,146.31551
1,Acaraú/CE,-2.8869514,-40.1194713,4289,6796.71653
D1,Acaraú/CE,-2.8869514,-40.1194713,87,137.86765
1,Acari/RN,-6.4364689,-36.6394777,790,7103.67773
D1,Acari/RN,-6.4364689,-36.6394777,12,107.90397
1,Acará/PA,-1.961388,-48.1987043,1108,1990.33573
D1,Acará/PA,-1.961388,-48.1987043,25,44.90830
1,Acauã/PI,-8.219542,-41.083059,175,2464.09462
D1,Acauã/PI,-8.219542,-41.083059,1,14.08054
1,Aceguá/RS,-31.8695131,-54.1615593,289,5847.83488
D1,Aceguá/RS,-31.8695131,-54.1615593,4,80.93889
1,Acopiara/CE,-6.0936464,-39.4543204,2560,4698.88585
D1,Acopiara/CE,-6.0936464,-39.4543204,104,190.89224
1,Acorizal/MT,-15.2001544,-56.3668953,455,8530.18373
D1,Acorizal/MT,-15.2001544,-56.3668953,18,337.45782
1,Acrelândia/AC,-10.0759167,-67.0526898,1494,9644.93221
D1,Acrelândia/AC,-10.0759167,-67.0526898,27,174.30600
1,Acreúna/GO,-17.3959899,-50.3749031,1642,7282.88832
D1,Acreúna/GO,-17.3959899,-50.3749031,39,172.97969
1,Adamantina/SP,-21.6866517,-51.0762975,2407,6855.40144
D1,Adamantina/SP,-21.6866517,-51.0762975,68,193.67150
1,Adelândia/GO,-16.4155077,-50.1665834,141,5604.13355
D1,Adelândia/GO,-16.4155077,-50.1665834,3,119.23688
1,Adolfo/SP,-21.2356597,-49.6441918,387,10889.13900
D1,Adolfo/SP,-21.2356597,-49.6441918,9,253.23579
1,Adrianópolis/PR,-24.6557863,-48.9912769,1057,18046.78163
D1,Adrianópolis/PR,-24.6557863,-48.9912769,21,358.54533
1,Adustina/BA,-10.5358875,-38.114479,619,3614.38748
D1,Adustina/BA,-10.5358875,-38.114479,9,52.55168
1,Afogados da Ingazeira/PE,-7.750429,-37.6356375,3551,9493.63704
D1,Afogados da Ingazeira/PE,-7.750429,-37.6356375,53,141.69608
1,Afonso Bezerra/RN,-5.4745,-36.57625071327935,445,4034.81730
D1,Afonso Bezerra/RN,-5.4745,-36.57625071327935,12,108.80406
1,Afonso Cláudio/ES,-20.077841,-41.12606,3084,10126.41602
D1,Afonso Cláudio/ES,-20.077841,-41.12606,53,174.02725
1,Afonso Cunha/MA,-4.1326105,-43.3230026,158,2401.94588
D1,Afonso Cunha/MA,-4.1326105,-43.3230026,2,30.40438
1,Afrânio/PE,-8.5198919,-41.0070197,714,3604.24028
D1,Afrânio/PE,-8.5198919,-41.0070197,13,65.62342
1,Afuá/PA,-0.1535664,-50.3879223,2842,7182.75330
D1,Afuá/PA,-0.1535664,-50.3879223,14,35.38302
1,Agrestina/PE,-8.4558021,-35.9442663,1224,4883.30341
D1,Agrestina/PE,-8.4558021,-35.9442663,44,175.54359
1,Agricolândia/PI,-5.7967843,-42.6605131,350,6821.28240
D1,Agricolândia/PI,-5.7967843,-42.6605131,3,58.46813
1,Agrolândia/SC,-27.4122212,-49.8295774,994,9025.69690
D1,Agrolândia/SC,-27.4122212,-49.8295774,14,127.12249
1,Agronômica/SC,-27.2660744,-49.7104753,470,8531.49392
D1,Agronômica/SC,-27.2660744,-49.7104753,9,163.36903
1,Aguanil/MG,-20.9424533,-45.3927152,416,9199.46926
D1,Aguanil/MG,-20.9424533,-45.3927152,8,176.91287
1,Aguaí/SP,-22.0592036,-46.979384,1910,5211.74416
D1,Aguaí/SP,-22.0592036,-46.979384,53,144.61908
1,Agudo/RS,-29.6423259,-53.2494005,1087,6627.64466
D1,Agudo/RS,-29.6423259,-53.2494005,17,103.65222
1,Agudos do Sul/PR,-25.9890808,-49.3328175,459,4846.88490
D1,Agudos do Sul/PR,-25.9890808,-49.3328175,15,158.39493
1,Agudos/SP,-22.471162,-48.987822,2751,7355.41830
D1,Agudos/SP,-22.471162,-48.987822,58,155.07607
1,Aguiar/PB,-7.0928404,-38.1727215,274,4866.78508
D1,Aguiar/PB,-7.0928404,-38.1727215,3,53.28597
1,Aguiarnópolis/TO,-6.5600452,-47.4721189,515,7472.43180
D1,Aguiarnópolis/TO,-6.5600452,-47.4721189,12,174.11492
1,Aimorés/MG,-19.4917754,-41.0615603,1675,6662.42393
D1,Aimorés/MG,-19.4917754,-41.0615603,44,175.01293
1,Aiquara/BA,-14.126918,-39.8887574,436,9873.18841
D1,Aiquara/BA,-14.126918,-39.8887574,9,203.80435
1,Aiuaba/CE,-6.5710836,-40.1212278,365,2086.54891
D1,Aiuaba/CE,-6.5710836,-40.1212278,9,51.44915
1,Aiuruoca/MG,-21.9759554,-44.6036637,79,1321.95448
D1,Aiuruoca/MG,-21.9759554,-44.6036637,6,100.40161
1,Ajuricaba/RS,-28.239654,-53.7693013,700,10018.60598
D1,Ajuricaba/RS,-28.239654,-53.7693013,22,314.87047
1,Alagoa Grande/PB,-7.0415212,-35.6285322,2617,9202.15197
D1,Alagoa Grande/PB,-7.0415212,-35.6285322,48,168.78231
1,Alagoa Nova/PB,-7.0653703,-35.76695977336711,719,3436.73821
D1,Alagoa Nova/PB,-7.0653703,-35.76695977336711,13,62.13852
1,Alagoa/MG,-22.1697202,-44.6400042,330,12382.73921
D1,Alagoa/MG,-22.1697202,-44.6400042,4,150.09381
1,Alagoinha do Piauí/PI,-7.0090952,-40.939675,257,3352.90280
D1,Alagoinha do Piauí/PI,-7.0090952,-40.939675,9,117.41683
1,Alagoinha/PB,-6.97063215,-35.51490901897793,1419,9745.87912
D1,Alagoinha/PB,-6.97063215,-35.51490901897793,23,157.96703
1,Alagoinha/PE,-8.50355635,-36.77701174370496,533,3621.41595
D1,Alagoinha/PE,-8.50355635,-36.77701174370496,17,115.50482
1,Alagoinhas/BA,-12.133526,-38.420772,10754,7059.81211
D1,Alagoinhas/BA,-12.133526,-38.420772,209,137.20483
1,Alambari/SP,-23.550338,-47.897971,428,6983.19465
D1,Alambari/SP,-23.550338,-47.897971,9,146.84288
1,Albertina/MG,-20.66164,-43.784039,178,5911.65726
D1,Albertina/MG,-20.66164,-43.784039,6,199.26935
1,Alcantil/PB,-7.7425491,-36.0609604,300,5445.63442
D1,Alcantil/PB,-7.7425491,-36.0609604,6,108.91269
1,Alcinópolis/MS,-18.3264121,-53.7094463,167,3082.88721
D1,Alcinópolis/MS,-18.3264121,-53.7094463,6,110.76241
1,Alcobaça/BA,-17.5215875,-39.1965474,1212,5389.06181
D1,Alcobaça/BA,-17.5215875,-39.1965474,20,88.92841
1,Alcântara/MA,-2.4038956,-44.4154241,262,1184.87699
D1,Alcântara/MA,-2.4038956,-44.4154241,13,58.79161
1,Alcântaras/CE,-3.586247,-40.5457641,1193,10126.47483
D1,Alcântaras/CE,-3.586247,-40.5457641,15,127.32366
1,Aldeias Altas/MA,-4.6291957,-43.4708622,975,3643.90627
D1,Aldeias Altas/MA,-4.6291957,-43.4708622,13,48.58542
1,Alecrim/RS,-27.6566142,-54.7653195,237,4067.27304
D1,Alecrim/RS,-27.6566142,-54.7653195,9,154.45341
1,Alegre/ES,-20.7625787,-41.5318886,1824,6085.07089
D1,Alegre/ES,-20.7625787,-41.5318886,44,146.78899
1,Alegrete do Piauí/PI,-7.2440138,-40.8602296,461,9373.72916
D1,Alegrete do Piauí/PI,-7.2440138,-40.8602296,5,101.66734
1,Alegrete/RS,-29.790166,-55.794862,7269,9953.71638
D1,Alegrete/RS,-29.790166,-55.794862,209,286.19160
1,Alegria/RS,-27.8332103,-54.0574959,303,8980.43865
D1,Alegria/RS,-27.8332103,-54.0574959,2,59.27682
1,Alenquer/PA,-1.946229,-54.738355,2523,4419.18307
D1,Alenquer/PA,-1.946229,-54.738355,93,162.89498
1,Alexandria/RN,-6.414779,-38.0135516,1029,7592.41496
D1,Alexandria/RN,-6.414779,-38.0135516,13,95.91972
1,Alexânia/GO,-16.0834049,-48.5077803,2619,9350.23206
D1,Alexânia/GO,-16.0834049,-48.5077803,63,224.91967
1,Alfenas/MG,-21.4297405,-45.9479419,6144,7632.86705
D1,Alfenas/MG,-21.4297405,-45.9479419,138,171.44135
1,Alfredo Chaves/ES,-20.624970400000002,-40.75006690147988,2062,14088.54878
D1,Alfredo Chaves/ES,-20.624970400000002,-40.75006690147988,28,191.30910
1,Alfredo Marcondes/SP,-21.9527,-51.413956,205,4899.61759
D1,Alfredo Marcondes/SP,-21.9527,-51.413956,8,191.20459
1,Alfredo Vasconcelos/MG,-21.145833,-43.776389,274,3924.93912
D1,Alfredo Vasconcelos/MG,-21.145833,-43.776389,10,143.24595
1,Alfredo Wagner/SC,-27.6961513,-49.3326734,611,6057.90204
D1,Alfredo Wagner/SC,-27.6961513,-49.3326734,7,69.40313
1,Algodão de Jandaíra/PB,-6.9040175,-36.0089879,101,3919.28599
1,Alhandra/PB,-7.4304246,-34.9106103,1525,7730.52162
D1,Alhandra/PB,-7.4304246,-34.9106103,29,147.00664
1,Aliança do Tocantins/TO,-11.3055927,-48.9409096,548,10250.65470
D1,Aliança do Tocantins/TO,-11.3055927,-48.9409096,19,355.40591
1,Aliança/PE,-7.60398,-35.222696,526,1369.89869
D1,Aliança/PE,-7.60398,-35.222696,41,106.77918
1,Almadina/BA,-14.70466,-39.6381994,587,10939.24711
D1,Almadina/BA,-14.70466,-39.6381994,9,167.72270
1,Almas/TO,-11.5681309,-47.1702803,181,2593.49477
D1,Almas/TO,-11.5681309,-47.1702803,4,57.31480
1,Almeirim/PA,-1.5290377,-52.5788111,3274,9607.93520
D1,Almeirim/PA,-1.5290377,-52.5788111,32,93.90774
1,Almenara/MG,-16.1740678,-40.6904907,3321,7880.31227
D1,Almenara/MG,-16.1740678,-40.6904907,34,80.67769
1,Almino Afonso/RN,-6.1544208,-37.7649018,353,7494.69214
D1,Almino Afonso/RN,-6.1544208,-37.7649018,10,212.31423
1,Almirante Tamandaré do Sul/RS,-28.1141129,-52.9134874,172,8825.03848
D1,Almirante Tamandaré do Sul/RS,-28.1141129,-52.9134874,1,51.30836
1,Almirante Tamandaré/PR,-25.3133048,-49.2997838,7755,6460.29273
D1,Almirante Tamandaré/PR,-25.3133048,-49.2997838,287,239.08498
1,Aloândia/GO,-17.7277983,-49.4809338,213,10725.07553
D1,Aloândia/GO,-17.7277983,-49.4809338,6,302.11480
1,Alpercata/MG,-18.9803616,-41.9827637,407,5473.37278
D1,Alpercata/MG,-18.9803616,-41.9827637,15,201.72136
1,Alpestre/RS,-27.2512339,-53.0349646,278,4582.16582
D1,Alpestre/RS,-27.2512339,-53.0349646,7,115.37828
1,Alpinópolis/MG,-20.863611,-46.387777,746,3737.84948
D1,Alpinópolis/MG,-20.863611,-46.387777,17,85.17888
1,Alta Floresta D'Oeste/RO,-11.9296917,-61.9961284,3416,15029.91904
D1,Alta Floresta D'Oeste/RO,-11.9296917,-61.9961284,54,237.59240
1,Alta Floresta/MT,-9.8715018,-56.0839881,6959,13393.25237
D1,Alta Floresta/MT,-9.8715018,-56.0839881,101,194.38403
1,Altair/SP,-20.5238955,-49.0606135,138,3296.70330
D1,Altair/SP,-20.5238955,-49.0606135,9,215.00239
1,Altamira do Maranhão/MA,-4.1643006,-45.4674574,288,3516.91293
D1,Altamira do Maranhão/MA,-4.1643006,-45.4674574,8,97.69203
1,Altamira do Paraná/PR,-24.799114,-52.7128633,102,6064.20927
D1,Altamira do Paraná/PR,-24.799114,-52.7128633,3,178.35910
1,Altamira/PA,-3.204065,-52.209961,12051,10391.57016
D1,Altamira/PA,-3.204065,-52.209961,265,228.50934
1,Altaneira/CE,-6.9980933,-39.7385742,360,4705.88235
D1,Altaneira/CE,-6.9980933,-39.7385742,12,156.86275
1,Alterosa/MG,-21.249166,-46.143055,522,3595.78425
D1,Alterosa/MG,-21.249166,-46.143055,28,192.87732
1,Altinho/PE,-8.4904095,-36.0607494,886,3854.85555
D1,Altinho/PE,-8.4904095,-36.0607494,18,78.31535
1,Altinópolis/SP,-21.021364,-47.3712,691,4264.64235
D1,Altinópolis/SP,-21.021364,-47.3712,22,135.77733
1,Alto Alegre do Maranhão/MA,-4.2055693,-44.4525287,831,2982.98514
D1,Alto Alegre do Maranhão/MA,-4.2055693,-44.4525287,22,78.97193
1,Alto Alegre do Pindaré/MA,-3.6698186,-45.8462153,1766,5528.59781
D1,Alto Alegre do Pindaré/MA,-3.6698186,-45.8462153,36,112.70075
1,Alto Alegre dos Parecis/RO,-12.1314515,-61.856265,1267,9558.65711
D1,Alto Alegre dos Parecis/RO,-12.1314515,-61.856265,30,226.32969
1,Alto Alegre/RR,2.98858,-61.307167,1219,7925.87776
D1,Alto Alegre/RR,2.98858,-61.307167,27,175.55267
1,Alto Alegre/RS,-31.780844700000003,-52.81311114489171,145,8989.46063
D1,Alto Alegre/RS,-31.780844700000003,-52.81311114489171,1,61.99628
1,Alto Alegre/SP,-21.5820592,-50.1661976,256,6262.23092
D1,Alto Alegre/SP,-21.5820592,-50.1661976,11,269.08023
1,Alto Araguaia/MT,-17.3156528,-53.2169365,1003,5174.10369
D1,Alto Araguaia/MT,-17.3156528,-53.2169365,21,108.33118
1,Alto Bela Vista/SC,-27.4320737,-51.905771,143,7424.71443
D1,Alto Bela Vista/SC,-27.4320737,-51.905771,2,103.84216
1,Alto Boa Vista/MT,-11.6723985,-51.3744431,532,7670.12687
D1,Alto Boa Vista/MT,-11.6723985,-51.3744431,10,144.17532
1,Alto Caparaó/MG,-20.4405661,-41.8683799,338,5734.64540
D1,Alto Caparaó/MG,-20.4405661,-41.8683799,8,135.73125
1,Alto Feliz/RS,-29.3785943,-51.3123751,193,6357.04875
D1,Alto Feliz/RS,-29.3785943,-51.3123751,1,32.93808
1,Alto Garças/MT,-16.9469683,-53.529427,597,4913.17587
D1,Alto Garças/MT,-16.9469683,-53.529427,24,197.51461
1,Alto Horizonte/GO,-14.1954948,-49.3366993,637,9644.20893
D1,Alto Horizonte/GO,-14.1954948,-49.3366993,7,105.98032
1,Alto Jequitibá/MG,-20.423611,-41.966111,586,7059.39043
D1,Alto Jequitibá/MG,-20.423611,-41.966111,9,108.42067
1,Alto Longá/PI,-5.2549051,-42.2072388,542,3779.90097
D1,Alto Longá/PI,-5.2549051,-42.2072388,13,90.66183
1,Alto Paraguai/MT,-14.513712,-56.4936374,694,6048.98457
D1,Alto Paraguai/MT,-14.513712,-56.4936374,22,191.75455
1,Alto Paraná/PR,-23.131247,-52.318893,690,4643.65031
D1,Alto Paraná/PR,-23.131247,-52.318893,16,107.67885
1,Alto Paraíso de Goiás/GO,-14.1304779,-47.5100161,524,6815.81686
D1,Alto Paraíso de Goiás/GO,-14.1304779,-47.5100161,6,78.04370
1,Alto Paraíso/PR,-23.508137,-53.728537,154,5735.56797
D1,Alto Paraíso/PR,-23.508137,-53.728537,2,74.48790
1,Alto Paraíso/RO,-9.7240103,-63.3188123,1605,7346.54644
D1,Alto Paraíso/RO,-9.7240103,-63.3188123,36,164.78235
1,Alto Parnaíba/MA,-9.112506,-45.9310154,680,6064.93043
D1,Alto Parnaíba/MA,-9.112506,-45.9310154,5,44.59508
1,Alto Piquiri/PR,-24.0239021,-53.4417448,511,5226.01759
D1,Alto Piquiri/PR,-24.0239021,-53.4417448,12,122.72448
1,Alto Rio Doce/MG,-21.0239537,-43.4133507,288,2652.17792
D1,Alto Rio Doce/MG,-21.0239537,-43.4133507,23,211.80588
1,Alto Rio Novo/ES,-19.0577208,-41.0171518,644,8178.81636
D1,Alto Rio Novo/ES,-19.0577208,-41.0171518,21,266.70053
1,Alto Santo/CE,-5.5190371,-38.2719351,869,5053.50081
D1,Alto Santo/CE,-5.5190371,-38.2719351,19,110.49081
1,Alto Taquari/MT,-17.8269099,-53.2831736,1310,11766.81937
D1,Alto Taquari/MT,-17.8269099,-53.2831736,26,233.53993
1,Alto do Rodrigues/RN,-5.290868,-36.7616726,1387,9417.43618
D1,Alto do Rodrigues/RN,-5.290868,-36.7616726,26,176.53449
1,Altos/PI,-5.0393915,-42.4611694,3740,9210.68834
D1,Altos/PI,-5.0393915,-42.4611694,71,174.85531
1,Altônia/PR,-23.8722004,-53.894037,849,3828.46320
D1,Altônia/PR,-23.8722004,-53.894037,14,63.13131
1,Alumínio/SP,-23.5203479,-47.2575256,1120,5967.92242
D1,Alumínio/SP,-23.5203479,-47.2575256,36,191.82608
1,Alvarenga/MG,-19.4175,-41.728334,364,9469.30281
D1,Alvarenga/MG,-19.4175,-41.728334,4,104.05827
1,Alvarães/AM,-3.214786,-64.8143124,2707,16689.27250
D1,Alvarães/AM,-3.214786,-64.8143124,41,252.77435
1,Alvinlândia/SP,-22.4431852,-49.7643596,110,3398.20822
D1,Alvinlândia/SP,-22.4431852,-49.7643596,6,185.35681
1,Alvinópolis/MG,-20.1105199,-43.0601805,521,3434.63643
D1,Alvinópolis/MG,-20.1105199,-43.0601805,16,105.47828
1,Alvorada D'Oeste/RO,-11.346271,-62.284697,845,5990.35871
D1,Alvorada D'Oeste/RO,-11.346271,-62.284697,23,163.05118
1,Alvorada de Minas/MG,-18.7318587,-43.3641479,235,6518.72399
D1,Alvorada de Minas/MG,-18.7318587,-43.3641479,1,27.73925
1,Alvorada do Gurguéia/PI,-8.4465288,-43.8655915,273,5013.77410
D1,Alvorada do Gurguéia/PI,-8.4465288,-43.8655915,8,146.92378
1,Alvorada do Norte/GO,-14.483911,-46.4959897,600,6892.59047
D1,Alvorada do Norte/GO,-14.483911,-46.4959897,2,22.97530
1,Alvorada do Sul/PR,-22.7807269,-51.2307721,630,5476.83213
D1,Alvorada do Sul/PR,-22.7807269,-51.2307721,20,173.86769
1,Alvorada/RS,-29.9981184,-51.0772509,17379,8222.77528
D1,Alvorada/RS,-29.9981184,-51.0772509,641,303.28551
1,Alvorada/TO,-12.478465,-49.124926,1010,12029.53788
D1,Alvorada/TO,-12.478465,-49.124926,17,202.47737
1,Além Paraíba/MG,-21.8760576,-42.6810473,2625,7415.04477
D1,Além Paraíba/MG,-21.8760576,-42.6810473,123,347.44781
1,Amajari/RR,3.6523869,-61.4194315,858,6507.39477
D1,Amajari/RR,3.6523869,-61.4194315,18,136.51877
1,Amambai/MS,-23.1082701,-55.2284854,2113,5305.57927
D1,Amambai/MS,-23.1082701,-55.2284854,40,100.43690
1,Amaporã/PR,-23.094272,-52.786597,230,3632.34365
D1,Amaporã/PR,-23.094272,-52.786597,5,78.96399
1,Amapá do Maranhão/MA,-1.6762114,-46.0109669,138,1970.02141
D1,Amapá do Maranhão/MA,-1.6762114,-46.0109669,2,28.55103
1,Amapá/AP,2.0529997,-50.7930003,1232,13410.25362
D1,Amapá/AP,2.0529997,-50.7930003,10,108.84946
1,Amaraji/PE,-8.373925,-35.4536527,435,1902.05509
D1,Amaraji/PE,-8.373925,-35.4536527,28,122.43113
1,Amaral Ferrador/RS,-30.8750633,-52.2542051,197,2780.52223
D1,Amaral Ferrador/RS,-30.8750633,-52.2542051,4,56.45730
1,Amaralina/GO,-13.9236199,-49.2962411,51,1326.39792
1,Amarante do Maranhão/MA,-5.56913,-46.747284,1479,3544.29773
D1,Amarante do Maranhão/MA,-5.56913,-46.747284,53,127.00999
1,Amarante/PI,-6.2459374,-42.8476238,1291,7333.56055
D1,Amarante/PI,-6.2459374,-42.8476238,30,170.41581
1,Amargosa/BA,-13.03793715,-39.60796443875596,2259,6033.49270
D1,Amargosa/BA,-13.03793715,-39.60796443875596,45,120.18910
1,Amaturá/AM,-3.3640509,-68.1994689,2312,19700.06817
D1,Amaturá/AM,-3.3640509,-68.1994689,17,144.85344
1,Americana/SP,-22.7392463,-47.3306032,15685,6480.92291
D1,Americana/SP,-22.7392463,-47.3306032,489,202.05109
1,Americano do Brasil/GO,-16.2515808,-49.9806104,384,6229.72096
D1,Americano do Brasil/GO,-16.2515808,-49.9806104,15,243.34848
1,Ametista do Sul/RS,-27.3617341,-53.1826575,505,6821.55883
D1,Ametista do Sul/RS,-27.3617341,-53.1826575,12,162.09645
1,Amontada/CE,-3.3634586,-39.8284791,2125,4848.38805
D1,Amontada/CE,-3.3634586,-39.8284791,35,79.85580
1,Amorinópolis/GO,-16.6211308,-51.0949921,153,4985.33724
D1,Amorinópolis/GO,-16.6211308,-51.0949921,2,65.16781
1,Amparo de São Francisco/SE,-10.1299754,-36.9269099,143,6008.40336
D1,Amparo de São Francisco/SE,-10.1299754,-36.9269099,3,126.05042
1,Amparo do Serra/MG,-20.5070255,-42.8028462,109,2330.05558
D1,Amparo do Serra/MG,-20.5070255,-42.8028462,4,85.50663
1,Amparo/PB,-7.56394725,-37.04652873235175,158,7019.10262
D1,Amparo/PB,-7.56394725,-37.04652873235175,4,177.69880
1,Amparo/SP,-22.70111,-46.76444,4184,5756.97951
D1,Amparo/SP,-22.70111,-46.76444,107,147.22677
1,Ampére/PR,-25.9168712,-53.4742414,955,4945.36793
D1,Ampére/PR,-25.9168712,-53.4742414,28,144.99508
1,Amélia Rodrigues/BA,-12.4015388,-38.7516971,1781,7110.34813
D1,Amélia Rodrigues/BA,-12.4015388,-38.7516971,36,143.72405
1,América Dourada/BA,-11.4515262,-41.4357517,684,4251.08763
D1,América Dourada/BA,-11.4515262,-41.4357517,4,24.86016
1,Américo Brasiliense/SP,-21.7297099,-48.1052092,3049,7430.78573
D1,Américo Brasiliense/SP,-21.7297099,-48.1052092,71,173.03568
1,Américo de Campos/SP,-20.298476,-49.735904,621,10382.87912
D1,Américo de Campos/SP,-20.298476,-49.735904,21,351.11185
1,Anadia/AL,-9.6830208,-36.3052699,1080,6162.27319
D1,Anadia/AL,-9.6830208,-36.3052699,23,131.23360
1,Anagé/BA,-14.6134669,-41.1376308,732,3387.79099
D1,Anagé/BA,-14.6134669,-41.1376308,16,74.05008
1,Anahy/PR,-24.6450861,-53.1337957,308,11047.34577
D1,Anahy/PR,-24.6450861,-53.1337957,5,179.34003
1,Anajatuba/MA,-3.26441,-44.6179916,749,2775.30754
D1,Anajatuba/MA,-3.26441,-44.6179916,18,66.69631
1,Anajás/PA,-0.9878802,-49.9390114,1298,4372.13689
D1,Anajás/PA,-0.9878802,-49.9390114,17,57.26219
1,Analândia/SP,-22.128917,-47.661939,253,5003.95570
D1,Analândia/SP,-22.128917,-47.661939,3,59.33544
1,Anamã/AM,-3.5797356,-61.4049996,1707,12231.29837
D1,Anamã/AM,-3.5797356,-61.4049996,9,64.48839
1,Ananindeua/PA,-1.374035,-48.4016623,19203,3585.67969
D1,Ananindeua/PA,-1.374035,-48.4016623,673,125.66591
1,Ananás/TO,-6.3663053,-48.080238,1371,14443.74210
D1,Ananás/TO,-6.3663053,-48.080238,20,210.70375
1,Anapu/PA,-3.4668292,-51.2057035,1293,4519.87276
D1,Anapu/PA,-3.4668292,-51.2057035,31,108.36509
1,Anapurus/MA,-3.6751298,-43.1046001,828,5209.51302
D1,Anapurus/MA,-3.6751298,-43.1046001,11,69.20851
1,Anastácio/MS,-20.4832458,-55.8048448,1695,6716.32920
D1,Anastácio/MS,-20.4832458,-55.8048448,52,206.04668
1,Anaurilândia/MS,-22.185169,-52.719056,293,3228.29440
D1,Anaurilândia/MS,-22.185169,-52.719056,10,110.18070
1,Anchieta/ES,-20.8057672,-40.6454564,4137,13892.34024
D1,Anchieta/ES,-20.8057672,-40.6454564,68,228.34884
1,Anchieta/SC,-26.5350527,-53.3293938,396,7126.14720
D1,Anchieta/SC,-26.5350527,-53.3293938,6,107.97193
1,Andaraí/BA,-12.8059674,-41.3322919,630,4797.44136
D1,Andaraí/BA,-12.8059674,-41.3322919,6,45.68992
1,Andirá/PR,-23.0494761,-50.2310027,1484,7447.55596
D1,Andirá/PR,-23.0494761,-50.2310027,53,265.98414
1,Andorinha/BA,-10.3445708,-39.8334411,693,4778.32173
D1,Andorinha/BA,-10.3445708,-39.8334411,10,68.95125
1,Andradas/MG,-22.0680484,-46.5688976,2554,6169.67823
D1,Andradas/MG,-22.0680484,-46.5688976,66,159.43569
1,Andradina/SP,-20.896505,-51.3742765,4517,7896.57704
D1,Andradina/SP,-20.896505,-51.3742765,191,333.90441
1,Andrelândia/MG,-21.739722,-44.308889,206,1687.69458
D1,Andrelândia/MG,-21.739722,-44.308889,7,57.34884
1,André da Rocha/RS,-28.6309124,-51.5733328,94,6999.25540
1,Angatuba/SP,-23.4938938,-48.4110675,2142,8406.92335
D1,Angatuba/SP,-23.4938938,-48.4110675,57,223.71365
1,Angelim/PE,-8.8902038,-36.2872987,140,1247.10493
D1,Angelim/PE,-8.8902038,-36.2872987,5,44.53946
1,Angelina/SC,-27.5805287,-48.9838759,442,9318.99642
D1,Angelina/SC,-27.5805287,-48.9838759,1,21.08370
1,Angelândia/MG,-17.7253,-42.2728,86,1005.02513
D1,Angelândia/MG,-17.7253,-42.2728,1,11.68634
1,Angical do Piauí/PI,-6.0872666,-42.7366138,469,6914.34469
D1,Angical do Piauí/PI,-6.0872666,-42.7366138,8,117.94191
1,Angical/BA,-12.005623,-44.7000236,440,3156.83742
D1,Angical/BA,-12.005623,-44.7000236,10,71.74631
1,Angico/TO,-6.3893733,-47.8656722,202,5848.29184
D1,Angico/TO,-6.3893733,-47.8656722,3,86.85582
1,Angicos/RN,-5.6666344,-36.6009064,581,4963.69073
D1,Angicos/RN,-5.6666344,-36.6009064,14,119.60701
1,Angra dos Reis/RJ,-23.0063966,-44.316326,12277,5929.65746
D1,Angra dos Reis/RJ,-23.0063966,-44.316326,395,190.78070
1,Anguera/BA,-12.1509425,-39.2452469,324,2868.01806
D1,Anguera/BA,-12.1509425,-39.2452469,1,8.85191
1,Angélica/MS,-22.1588196,-53.7728504,630,5762.89791
D1,Angélica/MS,-22.1588196,-53.7728504,14,128.06440
1,Anhanguera/GO,-18.3338749,-48.220363,88,7586.20690
D1,Anhanguera/GO,-18.3338749,-48.220363,6,517.24138
1,Anhembi/SP,-22.7891096,-48.1316776,134,1965.09752
D1,Anhembi/SP,-22.7891096,-48.1316776,4,58.65963
1,Anhumas/SP,-22.2956478,-51.3873401,185,4464.28571
D1,Anhumas/SP,-22.2956478,-51.3873401,4,96.52510
1,Anicuns/GO,-16.4606451,-49.9572265,2224,10117.82903
D1,Anicuns/GO,-16.4606451,-49.9572265,53,241.11733
1,Anita Garibaldi/SC,-27.6855032,-51.1293873,938,13482.82306
D1,Anita Garibaldi/SC,-27.6855032,-51.1293873,8,114.99209
1,Anitápolis/SC,-27.9041185,-49.1287395,297,9200.74349
D1,Anitápolis/SC,-27.9041185,-49.1287395,1,30.97893
1,Anori/AM,-3.7435254,-61.6605203,1833,8534.71155
D1,Anori/AM,-3.7435254,-61.6605203,31,144.34046
1,Anta Gorda/RS,-28.9718745,-52.0069187,528,8857.57423
D1,Anta Gorda/RS,-28.9718745,-52.0069187,4,67.10284
1,Antas/BA,-10.4114649,-38.3308815,1036,5318.54818
D1,Antas/BA,-10.4114649,-38.3308815,5,25.66867
1,Antonina do Norte/CE,-6.7754187,-39.9879345,458,6207.64435
D1,Antonina do Norte/CE,-6.7754187,-39.9879345,16,216.86094
1,Antonina/PR,-25.4298854,-48.7125431,2097,11066.54705
D1,Antonina/PR,-25.4298854,-48.7125431,50,263.86617
1,Antônio Almeida/PI,-7.2186016,-44.1950248,400,12618.29653
D1,Antônio Almeida/PI,-7.2186016,-44.1950248,10,315.45741
1,Antônio Cardoso/BA,-12.4363122,-39.1200307,317,2714.73837
D1,Antônio Cardoso/BA,-12.4363122,-39.1200307,7,59.94690
1,Antônio Carlos/MG,-21.318334,-43.746666,441,3848.50336
D1,Antônio Carlos/MG,-21.318334,-43.746666,8,69.81412
1,Antônio Carlos/SC,-27.5168462,-48.7684715,1427,16567.97864
D1,Antônio Carlos/SC,-27.5168462,-48.7684715,20,232.20713
1,Antônio Dias/MG,-19.6525,-42.872778,470,5067.38544
D1,Antônio Dias/MG,-19.6525,-42.872778,18,194.07008
1,Antônio Gonçalves/BA,-10.5715409,-40.2748824,643,5413.36925
D1,Antônio Gonçalves/BA,-10.5715409,-40.2748824,7,58.93248
1,Antônio João/MS,-22.1892837,-55.9508227,306,3392.46120
D1,Antônio João/MS,-22.1892837,-55.9508227,6,66.51885
1,Antônio Martins/RN,-6.2155812,-37.8890129,370,5171.93179
D1,Antônio Martins/RN,-6.2155812,-37.8890129,4,55.91278
1,Antônio Olinto/PR,-25.9849006,-50.1974516,313,4214.35304
D1,Antônio Olinto/PR,-25.9849006,-50.1974516,8,107.71509
1,Antônio Prado de Minas/MG,-21.0171988,-42.1101106,152,9577.81979
D1,Antônio Prado de Minas/MG,-21.0171988,-42.1101106,5,315.05986
1,Antônio Prado/RS,-28.8567806,-51.2801355,1818,13936.37409
D1,Antônio Prado/RS,-28.8567806,-51.2801355,17,130.31813
1,Anápolis/GO,-16.3332828,-48.9525756,31055,7926.80437
D1,Anápolis/GO,-16.3332828,-48.9525756,1069,272.86279
1,Anísio de Abreu/PI,-9.185643,-43.04941,284,2857.71785
D1,Anísio de Abreu/PI,-9.185643,-43.04941,8,80.49909
1,Aparecida d'Oeste/SP,-20.4498109,-50.8808706,590,14189.51419
D1,Aparecida d'Oeste/SP,-20.4498109,-50.8808706,11,264.55026
1,Aparecida de Goiânia/GO,-16.8226769,-49.2452546,60294,10216.79381
D1,Aparecida de Goiânia/GO,-16.8226769,-49.2452546,1178,199.61162
1,Aparecida do Rio Doce/GO,-18.2980167,-51.1491312,183,7396.92805
D1,Aparecida do Rio Doce/GO,-18.2980167,-51.1491312,3,121.26112
1,Aparecida do Rio Negro/TO,-9.9513491,-47.9773786,287,5919.96700
D1,Aparecida do Rio Negro/TO,-9.9513491,-47.9773786,5,103.13531
1,Aparecida do Taboado/MS,-20.0840304,-51.1013943,2302,8830.41160
D1,Aparecida do Taboado/MS,-20.0840304,-51.1013943,35,134.25908
1,Aparecida/PB,-6.7859598, -38.0831353,672,7984.79087
D1,Aparecida/PB,-6.7859598, -38.0831353,11,130.70342
1,Aparecida/SP,-22.851552,-45.2340924,2060,5692.96670
D1,Aparecida/SP,-22.851552,-45.2340924,69,190.68675
1,Aperibé/RJ,-21.6211928,-42.1028167,472,3966.05327
D1,Aperibé/RJ,-21.6211928,-42.1028167,19,159.65045
1,Apiacá/ES,-21.152272,-41.569297,626,8287.00026
D1,Apiacá/ES,-21.152272,-41.569297,25,330.95049
1,Apiacás/MT,-9.5678422,-57.394852,1177,11446.07605
D1,Apiacás/MT,-9.5678422,-57.394852,11,106.97267
1,Apiaí/SP,-24.5076527,-48.8461582,940,3880.12879
D1,Apiaí/SP,-24.5076527,-48.8461582,42,173.36746
1,Apicum-Açu/MA,-1.5279295,-45.082278,412,2366.04835
D1,Apicum-Açu/MA,-1.5279295,-45.082278,3,17.22851
1,Apiúna/SC,-27.0374658,-49.3885037,734,6766.22419
D1,Apiúna/SC,-27.0374658,-49.3885037,15,138.27434
1,Apodi/RN,-5.6631109,-37.796927,4596,12811.50694
D1,Apodi/RN,-5.6631109,-37.796927,67,186.76479
1,Aporá/BA,-11.6599747,-38.0794757,447,2512.93007
D1,Aporá/BA,-11.6599747,-38.0794757,17,95.57005
1,Aporé/GO,-18.9642193,-51.92804,315,7443.28922
D1,Aporé/GO,-18.9642193,-51.92804,7,165.40643
1,Apuarema/BA,-13.8517897,-39.7457126,626,8572.99370
D1,Apuarema/BA,-13.8517897,-39.7457126,9,123.25390
1,Apucarana/PR,-23.5525327,-51.4610764,6695,4914.33856
D1,Apucarana/PR,-23.5525327,-51.4610764,219,160.75282
1,Apuiarés/CE,-3.9460303,-39.4313298,841,5732.00654
D1,Apuiarés/CE,-3.9460303,-39.4313298,15,102.23555
1,Apuí/AM,-7.1940195,-59.8830192,1203,5380.38374
D1,Apuí/AM,-7.1940195,-59.8830192,26,116.28427
1,Aquidabã/SE,-10.2837579,-37.0188687,1712,7896.31475
D1,Aquidabã/SE,-10.2837579,-37.0188687,28,129.14533
1,Aquidauana/MS,-20.473969,-55.7821375,3976,8278.33184
D1,Aquidauana/MS,-20.473969,-55.7821375,118,245.68490
1,Aquiraz/CE,-3.9063117,-38.387504,4907,6062.88997
D1,Aquiraz/CE,-3.9063117,-38.387504,71,87.72472
1,Arabutã/SC,-27.1587028,-52.1438142,381,8928.98992
D1,Arabutã/SC,-27.1587028,-52.1438142,6,140.61401
1,Aracaju/SE,-10.9162061,-37.0774655,98547,14821.14819
D1,Aracaju/SE,-10.9162061,-37.0774655,1708,256.87764
1,Aracati/CE,-4.558259,-37.767894,5014,6687.56252
D1,Aracati/CE,-4.558259,-37.767894,109,145.38179
1,Aracatu/BA,-14.4274236,-41.4604105,703,5389.03795
D1,Aracatu/BA,-14.4274236,-41.4604105,13,99.65504
1,Araci/BA,-11.3356065,-38.9573261,3179,5817.23027
D1,Araci/BA,-11.3356065,-38.9573261,41,75.02562
1,Aracitaba/MG,-21.3425,-43.378611,85,4128.21758
D1,Aracitaba/MG,-21.3425,-43.378611,7,339.97086
1,Aracoiaba/CE,-4.3702577,-38.8084313,2543,9583.56887
D1,Aracoiaba/CE,-4.3702577,-38.8084313,25,94.21519
1,Aracruz/ES,-19.8245218,-40.2735025,13078,12684.64903
D1,Aracruz/ES,-19.8245218,-40.2735025,188,182.34547
1,Aragarças/GO,-15.8957166,-52.2514538,1835,9051.44774
D1,Aragarças/GO,-15.8957166,-52.2514538,43,212.10477
1,Aragoiânia/GO,-16.9146388,-49.4499148,870,8288.87195
D1,Aragoiânia/GO,-16.9146388,-49.4499148,14,133.38415
1,Aragominas/TO,-7.1654101,-48.525488,451,7869.48177
D1,Aragominas/TO,-7.1654101,-48.525488,8,139.59169
1,Araguacema/TO,-8.8067391,-49.5560969,421,5883.99720
D1,Araguacema/TO,-8.8067391,-49.5560969,11,153.73864
1,Araguaiana/MT,-15.729144,-51.834112,169,5435.83146
D1,Araguaiana/MT,-15.729144,-51.834112,4,128.65873
1,Araguainha/MT,-16.857016,-53.031778,21,2219.87315
1,Araguanã/MA,-2.9508403,-45.6651986,743,4777.82779
D1,Araguanã/MA,-2.9508403,-45.6651986,5,32.15227
1,Araguanã/TO,-6.5799107,-48.6428482,367,6335.23218
D1,Araguanã/TO,-6.5799107,-48.6428482,12,207.14656
1,Araguapaz/GO,-15.0937927,-50.626417,442,5679.04407
D1,Araguapaz/GO,-15.0937927,-50.626417,19,244.12180
1,Araguari/MG,-18.6511256,-48.1933764,11718,9945.25780
D1,Araguari/MG,-18.6511256,-48.1933764,324,274.98409
1,Araguatins/TO,-5.6522925,-48.1158973,1756,4854.85209
D1,Araguatins/TO,-5.6522925,-48.1158973,47,129.94194
1,Araguaçu/TO,-12.928934,-49.823134,750,8857.91898
D1,Araguaçu/TO,-12.928934,-49.823134,16,188.96894
1,Araguaína/TO,-7.193241,-48.2018597,26923,14681.45555
D1,Araguaína/TO,-7.193241,-48.2018597,355,193.58603
1,Araioses/MA,-2.890914,-41.904993,631,1349.12660
D1,Araioses/MA,-2.890914,-41.904993,12,25.65692
1,Aral Moreira/MS,-22.951141,-55.6268421,356,2886.79857
D1,Aral Moreira/MS,-22.951141,-55.6268421,9,72.98086
1,Aramari/BA,-12.0907897,-38.4985065,510,4449.87348
D1,Aramari/BA,-12.0907897,-38.4985065,11,95.97766
1,Arambaré/RS,-30.9132252,-51.4994625,151,4239.19147
D1,Arambaré/RS,-30.9132252,-51.4994625,5,140.37058
1,Arame/MA,-4.8858769,-46.0102484,1050,3204.73691
D1,Arame/MA,-4.8858769,-46.0102484,30,91.56391
1,Aramina/SP,-20.0876144,-47.789201,237,4190.98143
D1,Aramina/SP,-20.0876144,-47.789201,10,176.83466
1,Arandu/SP,-23.1345103,-49.0545651,260,4084.83896
D1,Arandu/SP,-23.1345103,-49.0545651,7,109.97643
1,Arantina/MG,-21.911667,-44.255833,111,3982.77718
D1,Arantina/MG,-21.911667,-44.255833,3,107.64263
1,Arapeí/SP,-22.6738889,-44.4477778,178,7235.77236
D1,Arapeí/SP,-22.6738889,-44.4477778,2,81.30081
1,Arapiraca/AL,-9.754866,-36.661471,21600,9268.51665
D1,Arapiraca/AL,-9.754866,-36.661471,337,144.60602
1,Arapoema/TO,-7.6575001,-49.0641484,408,6166.86820
D1,Arapoema/TO,-7.6575001,-49.0641484,6,90.68924
1,Araponga/MG,-20.666667,-42.520556,342,4045.90086
D1,Araponga/MG,-20.666667,-42.520556,6,70.98072
1,Arapongas/PR,-23.415296,-51.42592,9539,7642.81708
D1,Arapongas/PR,-23.415296,-51.42592,376,301.25791
1,Araporã/MG,-18.4318188,-49.188313,1574,22709.56572
D1,Araporã/MG,-18.4318188,-49.188313,22,317.41451
1,Arapoti/PR,-24.1457957,-49.8224605,2231,7883.39223
D1,Arapoti/PR,-24.1457957,-49.8224605,38,134.27562
1,Araputanga/MT,-15.4710868,-58.346796,1554,9167.60073
D1,Araputanga/MT,-15.4710868,-58.346796,35,206.47749
1,Arapuá/MG,-19.034444,-46.155556,167,5890.65256
D1,Arapuá/MG,-19.034444,-46.155556,1,35.27337
1,Arapuã/PR,-24.3079525,-51.7901941,175,5815.88568
D1,Arapuã/PR,-24.3079525,-51.7901941,5,166.16816
1,Araquari/SC,-26.3703324,-48.7210994,2995,7577.67432
D1,Araquari/SC,-26.3703324,-48.7210994,62,156.86671
1,Arara/PB,-6.8271895,-35.7605703,592,4371.58470
D1,Arara/PB,-6.8271895,-35.7605703,19,140.30424
1,Araranguá/SC,-28.9348832,-49.4858389,8629,12529.94903
D1,Araranguá/SC,-28.9348832,-49.4858389,182,264.27752
1,Araraquara/SP,-21.7886713,-48.1773096,16134,6769.34954
D1,Araraquara/SP,-21.7886713,-48.1773096,363,152.30407
1,Araras/SP,-22.3569477,-47.3838889,13184,9729.45847
D1,Araras/SP,-22.3569477,-47.3838889,293,216.22659
1,Ararendá/CE,-4.7504395,-40.8303611,693,6323.56967
D1,Ararendá/CE,-4.7504395,-40.8303611,14,127.74888
1,Arari/MA,-3.4547602,-44.7772723,545,1820.79380
D1,Arari/MA,-3.4547602,-44.7772723,21,70.15903
1,Araricá/RS,-29.6168543,-50.929121,934,16184.37013
D1,Araricá/RS,-29.6168543,-50.929121,24,415.87247
1,Araripe/CE,-7.212861,-40.1359222,780,3602.10585
D1,Araripe/CE,-7.212861,-40.1359222,11,50.79893
1,Araripina/PE,-7.5768582,-40.5038509,5517,6500.98982
D1,Araripina/PE,-7.5768582,-40.5038509,114,134.33258
1,Araruama/RJ,-22.8733203,-42.3428897,4697,3497.57620
D1,Araruama/RJ,-22.8733203,-42.3428897,245,182.43691
1,Araruna/PB,-6.5321155,-35.7397595,592,2893.02644
D1,Araruna/PB,-6.5321155,-35.7397595,16,78.18990
1,Araruna/PR,-23.9320308,-52.4976047,1010,7214.28571
D1,Araruna/PR,-23.9320308,-52.4976047,19,135.71429
1,Arataca/BA,-15.2617424,-39.4122943,470,4287.92993
D1,Arataca/BA,-15.2617424,-39.4122943,13,118.60232
1,Aratiba/RS,-27.3955734,-52.3024325,344,5558.24851
D1,Aratiba/RS,-27.3955734,-52.3024325,6,96.94619
1,Aratuba/CE,-4.4195958,-39.0463737,1067,9040.84054
D1,Aratuba/CE,-4.4195958,-39.0463737,6,50.83884
1,Aratuípe/BA,-13.077137,-39.0010786,303,3428.76542
D1,Aratuípe/BA,-13.077137,-39.0010786,8,90.52846
1,Araucária/PR,-25.5861107,-49.4051209,19335,13223.76790
D1,Araucária/PR,-25.5861107,-49.4051209,297,203.12692
1,Arauá/SE,-11.2644014,-37.6181058,895,8997.68775
D1,Arauá/SE,-11.2644014,-37.6181058,17,170.90580
1,Araxá/MG,-19.5928536,-46.940241,8654,8062.45749
D1,Araxá/MG,-19.5928536,-46.940241,133,123.90881
1,Araçagi/PB,-6.8519969,-35.3835602,961,5679.33337
D1,Araçagi/PB,-6.8519969,-35.3835602,12,70.91779
1,Araçariguama/SP,-23.438611,-47.061389,1168,5109.36133
D1,Araçariguama/SP,-23.438611,-47.061389,36,157.48031
1,Araçatuba/SP,-21.207992,-50.4390225,21251,10725.84024
D1,Araçatuba/SP,-21.207992,-50.4390225,621,313.43216
1,Araçaí/MG,-19.200833,-44.2475,49,2081.56330
1,Araçoiaba da Serra/SP,-23.5045367,-47.6168158,1998,5745.34161
D1,Araçoiaba da Serra/SP,-23.5045367,-47.6168158,45,129.39959
1,Araçoiaba/PE,-7.7856903,-35.0898881,379,1828.00367
D1,Araçoiaba/PE,-7.7856903,-35.0898881,23,110.93426
1,Araçu/GO,-16.3561579,-49.6815269,373,10699.94263
D1,Araçu/GO,-16.3561579,-49.6815269,15,430.29260
1,Araçuaí/MG,-16.8484451,-42.0661868,1180,3214.20789
D1,Araçuaí/MG,-16.8484451,-42.0661868,25,68.09762
1,Araçás/BA,-12.2139176,-38.2026159,536,4390.56356
D1,Araçás/BA,-12.2139176,-38.2026159,7,57.33945
1,Araújos/MG,-19.948055,-45.165556,559,5946.17594
D1,Araújos/MG,-19.948055,-45.165556,6,63.82300
1,Arceburgo/MG,-21.364444,-46.939722,702,6450.42727
D1,Arceburgo/MG,-21.364444,-46.939722,16,147.01829
1,Arco-Íris/SP,-21.7741308,-50.4668814,89,5019.74055
D1,Arco-Íris/SP,-21.7741308,-50.4668814,6,338.40948
1,Arcos/MG,-20.282223,-45.539444,4198,10396.23576
D1,Arcos/MG,-20.282223,-45.539444,53,131.25310
1,Arcoverde/PE,-8.415192,-37.057748,4810,6428.59052
D1,Arcoverde/PE,-8.415192,-37.057748,98,130.97752
1,Areado/MG,-21.3582771,-46.1476688,514,3385.81121
D1,Areado/MG,-21.3582771,-46.1476688,15,98.80772
1,Areal/RJ,-22.2314922,-43.1056264,785,6196.22701
D1,Areal/RJ,-22.2314922,-43.1056264,34,268.37162
1,Arealva/SP,-22.0301906,-48.9111936,588,6826.88959
D1,Arealva/SP,-22.0301906,-48.9111936,8,92.88285
1,Areia Branca/RN,-4.9506652,-37.1263312,1895,6775.84296
D1,Areia Branca/RN,-4.9506652,-37.1263312,78,278.90013
1,Areia Branca/SE,-10.7591455,-37.3148072,1355,7251.41817
D1,Areia Branca/SE,-10.7591455,-37.3148072,34,181.95440
1,Areia de Baraúnas/PB,-7.1233949,-36.9446216,89,4206.04915
D1,Areia de Baraúnas/PB,-7.1233949,-36.9446216,3,141.77694
1,Areia/PB,-6.9680243,-35.6994783,1038,4581.56780
D1,Areia/PB,-6.9680243,-35.6994783,20,88.27684
1,Areial/PB,-7.0501306,-35.9245244,242,3443.85940
D1,Areial/PB,-7.0501306,-35.9245244,6,85.38494
1,Areias/SP,-22.5800929,-44.6975127,230,5903.49076
D1,Areias/SP,-22.5800929,-44.6975127,1,25.66735
1,Areiópolis/SP,-22.6758064,-48.6673653,886,7940.49113
D1,Areiópolis/SP,-22.6758064,-48.6673653,12,107.54616
1,Arenápolis/MT,-14.4610369,-56.8432806,1212,12755.20943
D1,Arenápolis/MT,-14.4610369,-56.8432806,19,199.95790
1,Arenópolis/GO,-16.3859286,-51.55937,165,6506.30915
D1,Arenópolis/GO,-16.3859286,-51.55937,8,315.45741
1,Argirita/MG,-21.612761,-42.8371922,245,9060.65089
D1,Argirita/MG,-21.612761,-42.8371922,5,184.91124
1,Aricanduva/MG,-17.8678,-42.5569,80,1518.31467
1,Arinos/MG,-15.917223,-46.106111,413,2312.17109
D1,Arinos/MG,-15.917223,-46.106111,11,61.58325
1,Aripuanã/MT,-10.175806,-59.4439663,2067,9100.11447
D1,Aripuanã/MT,-10.175806,-59.4439663,39,171.70027
1,Ariquemes/RO,-9.9076522,-63.033069,18290,16699.68865
D1,Ariquemes/RO,-9.9076522,-63.033069,393,358.82874
1,Ariranha do Ivaí/PR,-24.3834527,-51.5876772,129,6243.94966
D1,Ariranha do Ivaí/PR,-24.3834527,-51.5876772,2,96.80542
1,Ariranha/SP,-21.18716,-48.790418,387,3964.75771
D1,Ariranha/SP,-21.18716,-48.790418,13,133.18308
1,Armazém/SC,-28.2624996,-49.0190126,1311,14967.46204
D1,Armazém/SC,-28.2624996,-49.0190126,27,308.25437
1,Armação dos Búzios/RJ,-22.7597805,-41.8875267,3912,11346.69490
D1,Armação dos Búzios/RJ,-22.7597805,-41.8875267,40,116.01938
1,Arneiroz/CE,-6.3235099,-40.1603859,361,4602.24375
D1,Arneiroz/CE,-6.3235099,-40.1603859,11,140.23457
1,Aroazes/PI,-6.1108814,-41.7886137,522,8958.29758
D1,Aroazes/PI,-6.1108814,-41.7886137,12,205.93788
1,Aroeiras do Itaim/PI,-7.2797031,-41.5629681,97,3802.43042
D1,Aroeiras do Itaim/PI,-7.2797031,-41.5629681,1,39.20031
1,Aroeiras/PB,-7.5462904,-35.7080002,851,4451.76815
D1,Aroeiras/PB,-7.5462904,-35.7080002,6,31.38732
1,Arraial do Cabo/RJ,-22.9662839,-42.024427,589,1925.27702
D1,Arraial do Cabo/RJ,-22.9662839,-42.024427,23,75.18060
1,Arraial/PI,-6.6541632,-42.5335332,137,2902.54237
D1,Arraial/PI,-6.6541632,-42.5335332,2,42.37288
1,Arraias/TO,-12.9287788,-46.9437231,437,4148.47162
D1,Arraias/TO,-12.9287788,-46.9437231,3,28.47921
1,Arroio Grande/RS,-32.2384246,-53.0866661,1341,7352.77991
D1,Arroio Grande/RS,-32.2384246,-53.0866661,47,257.70370
1,Arroio Trinta/SC,-26.9301976,-51.334928,455,12820.51282
D1,Arroio Trinta/SC,-26.9301976,-51.334928,8,225.41561
1,Arroio do Meio/RS,-29.4020392,-51.9444993,2601,12405.20818
D1,Arroio do Meio/RS,-29.4020392,-51.9444993,33,157.39018
1,Arroio do Padre/RS,-31.4428773,-52.4228985,128,4337.51271
D1,Arroio do Padre/RS,-31.4428773,-52.4228985,2,67.77364
1,Arroio do Sal/RS,-29.549852,-49.8874395,898,8736.25839
D1,Arroio do Sal/RS,-29.549852,-49.8874395,31,301.58576
1,Arroio do Tigre/RS,-29.334158,-53.0888935,938,6993.21554
D1,Arroio do Tigre/RS,-29.334158,-53.0888935,17,126.74271
1,Arroio dos Ratos/RS,-30.0894524,-51.7265541,782,5515.97658
D1,Arroio dos Ratos/RS,-30.0894524,-51.7265541,29,204.55668
1,Artur Nogueira/SP,-22.572737,-47.172679,3160,5710.15540
D1,Artur Nogueira/SP,-22.572737,-47.172679,91,164.43802
1,Aruanã/GO,-14.9162439,-51.0715692,389,3847.67557
D1,Aruanã/GO,-14.9162439,-51.0715692,10,98.91197
1,Arujá/SP,-23.396266,-46.3175449,5889,6460.28281
D1,Arujá/SP,-23.396266,-46.3175449,222,243.53588
1,Arvoredo/SC,-27.0752908,-52.4571847,266,11906.89346
D1,Arvoredo/SC,-27.0752908,-52.4571847,4,179.05103
1,Arvorezinha/RS,-28.87369,-52.17808,693,6648.75756
D1,Arvorezinha/RS,-28.87369,-52.17808,23,220.66584
1,Arês/RN,-6.1969216,-35.1642968,718,4980.23167
D1,Arês/RN,-6.1969216,-35.1642968,20,138.72512
1,Ascurra/SC,-26.9569975,-49.3767752,1002,12559.53873
D1,Ascurra/SC,-26.9569975,-49.3767752,9,112.81023
1,Aspásia/SP,-20.160028,-50.728046,91,5005.50055
D1,Aspásia/SP,-20.160028,-50.728046,4,220.02200
1,Assaré/CE,-6.8746791,-39.8741385,1320,5622.28469
D1,Assaré/CE,-6.8746791,-39.8741385,27,115.00128
1,Assaí/PR,-23.3736041,-50.8454929,1117,7469.57336
D1,Assaí/PR,-23.3736041,-50.8454929,35,234.05109
1,Assis Brasil/AC,-10.9409203,-69.5672108,1492,19803.55721
D1,Assis Brasil/AC,-10.9409203,-69.5672108,21,278.73640
1,Assis Chateaubriand/PR,-24.4054826,-53.5120468,2998,8992.20156
D1,Assis Chateaubriand/PR,-24.4054826,-53.5120468,74,221.95561
1,Assis/SP,-22.6620892,-50.420623,7041,6700.16272
D1,Assis/SP,-22.6620892,-50.420623,230,218.86627
1,Assunção do Piauí/PI,-5.8610212,-41.0485091,286,3637.28857
D1,Assunção do Piauí/PI,-5.8610212,-41.0485091,6,76.30675
1,Assunção/PB,-7.073396,-36.7274003,277,6875.15513
D1,Assunção/PB,-7.073396,-36.7274003,2,49.64011
1,Astolfo Dutra/MG,-21.3132636,-42.8624102,1065,7463.20953
D1,Astolfo Dutra/MG,-21.3132636,-42.8624102,15,105.11563
1,Astorga/PR,-23.2350184,-51.6647074,2402,9164.79072
D1,Astorga/PR,-23.2350184,-51.6647074,54,206.03609
1,Atalaia do Norte/AM,-4.3658547,-70.1908742,2686,13167.95764
D1,Atalaia do Norte/AM,-4.3658547,-70.1908742,8,39.21953
1,Atalaia/AL,-9.5029595,-36.0219316,1016,2145.04381
D1,Atalaia/AL,-9.5029595,-36.0219316,41,86.56181
1,Atalaia/PR,-23.1513833,-52.0529697,328,8451.43004
D1,Atalaia/PR,-23.1513833,-52.0529697,15,386.49833
1,Atalanta/SC,-27.421916,-49.778863,255,7981.22066
D1,Atalanta/SC,-27.421916,-49.778863,5,156.49452
1,Ataléia/MG,-18.04432,-41.1110524,1001,7895.56712
D1,Ataléia/MG,-18.04432,-41.1110524,7,55.21376
1,Atibaia/SP,-23.1177393,-46.5547861,8611,5976.20898
D1,Atibaia/SP,-23.1177393,-46.5547861,205,142.27417
1,Atilio Vivacqua/ES,-20.9139369,-41.1947519,1293,10681.53656
D1,Atilio Vivacqua/ES,-20.9139369,-41.1947519,23,190.00413
1,Augustinópolis/TO,-5.4662267,-47.8897519,1322,7091.13340
D1,Augustinópolis/TO,-5.4662267,-47.8897519,23,123.37070
1,Augusto Corrêa/PA,-1.0229335,-46.6404029,1874,4032.62250
D1,Augusto Corrêa/PA,-1.0229335,-46.6404029,33,71.01203
1,Augusto Pestana/RS,-28.5148413,-53.9906433,353,5346.86459
D1,Augusto Pestana/RS,-28.5148413,-53.9906433,6,90.88155
1,Augusto de Lima/MG,-18.1092963,-44.2651945,203,4184.70418
D1,Augusto de Lima/MG,-18.1092963,-44.2651945,7,144.30014
1,Aurelino Leal/BA,-14.3167137,-39.3256107,812,7186.47668
D1,Aurelino Leal/BA,-14.3167137,-39.3256107,22,194.70750
1,Auriflama/SP,-20.6840418,-50.5554616,1590,10424.17885
D1,Auriflama/SP,-20.6840418,-50.5554616,53,347.47263
1,Aurilândia/GO,-16.6772599,-50.4641231,170,5559.18901
D1,Aurilândia/GO,-16.6772599,-50.4641231,5,163.50556
1,Aurora do Pará/PA,-2.1323199,-47.558436,1168,3676.07717
D1,Aurora do Pará/PA,-2.1323199,-47.558436,13,40.91524
1,Aurora do Tocantins/TO,-12.71045,-46.407604,166,4388.05181
D1,Aurora do Tocantins/TO,-12.71045,-46.407604,2,52.86809
1,Aurora/CE,-6.9426019,-38.9693765,1232,5006.09508
D1,Aurora/CE,-6.9426019,-38.9693765,29,117.83828
1,Aurora/SC,-27.3166417,-49.6368502,644,11332.04294
D1,Aurora/SC,-27.3166417,-49.6368502,13,228.75242
1,Autazes/AM,-3.5833283,-59.1301518,2756,6840.40705
D1,Autazes/AM,-3.5833283,-59.1301518,86,213.45247
1,Avanhandava/SP,-21.4603331,-49.9465156,540,3896.38502
D1,Avanhandava/SP,-21.4603331,-49.9465156,24,173.17267
1,Avaré/SP,-23.1045215,-48.9259103,6069,6652.27113
D1,Avaré/SP,-23.1045215,-48.9259103,137,150.16661
1,Avaí/SP,-22.1564662,-49.3316395,261,4801.32450
D1,Avaí/SP,-22.1564662,-49.3316395,5,91.97940
1,Aveiro/PA,-3.6049239,-55.3310742,573,3493.05048
D1,Aveiro/PA,-3.6049239,-55.3310742,9,54.86467
1,Avelino Lopes/PI,-10.1346855,-43.9489525,303,2675.26046
D1,Avelino Lopes/PI,-10.1346855,-43.9489525,18,158.92636
1,Avelinópolis/GO,-16.4672409,-49.7578661,263,10917.39311
D1,Avelinópolis/GO,-16.4672409,-49.7578661,11,456.62100
1,Axixá do Tocantins/TO,-5.612747,-47.77007,982,10033.71820
D1,Axixá do Tocantins/TO,-5.612747,-47.77007,16,163.48217
1,Axixá/MA,-2.8379465,-44.0561053,189,1551.34203
D1,Axixá/MA,-2.8379465,-44.0561053,4,32.83264
1,Açailândia/MA,-4.9514278,-47.4844564,4730,4181.36332
D1,Açailândia/MA,-4.9514278,-47.4844564,166,146.74552
1,Açu/RN,-5.5836157,-36.9139541,4396,7529.46013
D1,Açu/RN,-5.5836157,-36.9139541,121,207.24856
1,Açucena/MG,-19.073056,-42.546666,674,7194.70538
D1,Açucena/MG,-19.073056,-42.546666,22,234.84202
1,Babaçulândia/TO,-7.2034355,-47.761613,556,5212.82580
D1,Babaçulândia/TO,-7.2034355,-47.761613,4,37.50234
1,Bacabal/MA,-4.2318132,-44.781167,4349,4150.20517
D1,Bacabal/MA,-4.2318132,-44.781167,150,143.14343
1,Bacabeira/MA,-2.9775747,-44.3155943,317,1837.46812
D1,Bacabeira/MA,-2.9775747,-44.3155943,6,34.77858
1,Bacuri/MA,-1.728894,-45.1417148,429,2299.77485
D1,Bacuri/MA,-1.728894,-45.1417148,4,21.44312
1,Bacurituba/MA,-2.7082587,-44.7381309,112,1975.30864
D1,Bacurituba/MA,-2.7082587,-44.7381309,1,17.63668
1,Bady Bassitt/SP,-20.9178969,-49.4517911,2327,13101.73977
D1,Bady Bassitt/SP,-20.9178969,-49.4517911,50,281.51568
1,Baependi/MG,-21.959162,-44.8899249,1029,5359.65415
D1,Baependi/MG,-21.959162,-44.8899249,12,62.50326
1,Bagre/PA,-1.8994498,-50.2103844,831,2652.83320
D1,Bagre/PA,-1.8994498,-50.2103844,11,35.11572
1,Bagé/RS,-31.3314264,-54.1062808,7105,5855.68880
D1,Bagé/RS,-31.3314264,-54.1062808,191,157.41542
1,Baianópolis/BA,-12.3067564,-44.5383591,442,3173.23570
D1,Baianópolis/BA,-12.3067564,-44.5383591,4,28.71707
1,Baixa Grande do Ribeiro/PI,-7.862861,-45.2113289,1910,16365.35001
D1,Baixa Grande do Ribeiro/PI,-7.862861,-45.2113289,19,162.79668
1,Baixa Grande/BA,-11.9630941,-40.1657537,607,2968.36031
D1,Baixa Grande/BA,-11.9630941,-40.1657537,7,34.23150
1,Baixio/CE,-6.7303544,-38.7170095,348,5521.18039
D1,Baixio/CE,-6.7303544,-38.7170095,8,126.92369
1,Baixo Guandu/ES,-19.5138322,-41.0182089,3084,9906.20583
D1,Baixo Guandu/ES,-19.5138322,-41.0182089,69,221.63690
1,Baião/PA,-2.7903479,-49.6702845,653,1347.53090
D1,Baião/PA,-2.7903479,-49.6702845,22,45.39920
1,Balbinos/SP,-21.9006253,-49.3583966,308,5190.42804
D1,Balbinos/SP,-21.9006253,-49.3583966,3,50.55612
1,Baldim/MG,-19.2913568,-43.9558262,443,5677.30360
D1,Baldim/MG,-19.2913568,-43.9558262,8,102.52467
1,Baliza/GO,-16.1978119,-52.542789,196,3712.12121
D1,Baliza/GO,-16.1978119,-52.542789,6,113.63636
1,Balneário Arroio do Silva/SC,-28.9815269,-49.4189932,1705,12695.45793
D1,Balneário Arroio do Silva/SC,-28.9815269,-49.4189932,36,268.05659
1,Balneário Barra do Sul/SC,-26.459842,-48.6061471,1257,11391.02855
D1,Balneário Barra do Sul/SC,-26.459842,-48.6061471,27,244.67603
1,Balneário Camboriú/SC,-26.9924395,-48.6339782,21976,15073.11586
D1,Balneário Camboriú/SC,-26.9924395,-48.6339782,319,218.79887
1,Balneário Gaivota/SC,-29.1553098,-49.5808712,1088,9662.52220
D1,Balneário Gaivota/SC,-29.1553098,-49.5808712,26,230.90586
1,Balneário Pinhal/RS,-30.2482978,-50.234585,652,4539.44162
D1,Balneário Pinhal/RS,-30.2482978,-50.234585,36,250.64402
1,Balneário Piçarras/SC,-26.7638889,-48.6716667,3935,16553.08767
D1,Balneário Piçarras/SC,-26.7638889,-48.6716667,40,168.26519
1,Balneário Rincão/SC,-28.8235718,-49.2241642,1225,9462.38220
D1,Balneário Rincão/SC,-28.8235718,-49.2241642,33,254.90499
1,Balsa Nova/PR,-25.5842234,-49.6312741,1136,8677.05469
D1,Balsa Nova/PR,-25.5842234,-49.6312741,23,175.67980
1,Balsas/MA,-7.53214,-46.037163,8408,8764.81564
D1,Balsas/MA,-7.53214,-46.037163,130,135.51689
1,Bambuí/MG,-20.0131996,-45.9777034,1040,4351.82860
D1,Bambuí/MG,-20.0131996,-45.9777034,14,58.58231
1,Banabuiú/CE,-5.3046404,-38.919766,1065,5833.69851
D1,Banabuiú/CE,-5.3046404,-38.919766,8,43.82121
1,Bananal/SP,-22.6828195,-44.3221095,724,6586.00928
D1,Bananal/SP,-22.6828195,-44.3221095,2,18.19340
1,Bananeiras/PB,-6.7537682,-35.6338343,913,4292.63247
D1,Bananeiras/PB,-6.7537682,-35.6338343,16,75.22686
1,Bandeira do Sul/MG,-21.728056,-46.385555,201,3478.71236
D1,Bandeira do Sul/MG,-21.728056,-46.385555,7,121.14919
1,Bandeira/MG,-15.884444,-40.559167,448,9399.91607
D1,Bandeira/MG,-15.884444,-40.559167,9,188.83760
1,Bandeirante/SC,-26.7677402,-53.6397596,224,8459.21450
D1,Bandeirante/SC,-26.7677402,-53.6397596,2,75.52870
1,Bandeirantes do Tocantins/TO,-7.7635698,-48.579148,278,7739.42094
D1,Bandeirantes do Tocantins/TO,-7.7635698,-48.579148,4,111.35857
1,Bandeirantes/MS,-19.9179623,-54.3646768,438,6028.07597
D1,Bandeirantes/MS,-19.9179623,-54.3646768,8,110.10184
1,Bandeirantes/PR,-23.107788,-50.370407,2706,8670.02019
D1,Bandeirantes/PR,-23.107788,-50.370407,79,253.11589
1,Bannach/PA,-7.3508505,-50.4064531,530,16247.70080
D1,Bannach/PA,-7.3508505,-50.4064531,2,61.31208
1,Banzaê/BA,-10.5827616,-38.6122305,814,6148.03625
D1,Banzaê/BA,-10.5827616,-38.6122305,7,52.87009
1,Baraúna/PB,-6.643394,-36.2531932,238,4794.52055
D1,Baraúna/PB,-6.643394,-36.2531932,3,60.43513
1,Baraúna/RN,-5.0775002,-37.61752,798,2775.94184
D1,Baraúna/RN,-5.0775002,-37.61752,20,69.57248
1,Barbacena/MG,-21.2254524,-43.7735087,5377,3890.62545
D1,Barbacena/MG,-21.2254524,-43.7735087,172,124.45371
1,Barbalha/CE,-7.3121067,-39.3036427,3812,6225.90971
D1,Barbalha/CE,-7.3121067,-39.3036427,74,120.85974
1,Barbosa Ferraz/PR,-24.0287182,-52.00811,681,5960.09102
D1,Barbosa Ferraz/PR,-24.0287182,-52.00811,15,131.27954
1,Barbosa/SP,-21.265661,-49.951816,343,4592.92983
D1,Barbosa/SP,-21.265661,-49.951816,10,133.90466
1,Barcarena/PA,-1.5107945,-48.6190679,9427,7421.25690
D1,Barcarena/PA,-1.5107945,-48.6190679,191,150.36173
1,Barcelona/RN,-5.9514918,-35.9260284,54,1352.02804
D1,Barcelona/RN,-5.9514918,-35.9260284,3,75.11267
1,Barcelos/AM,-0.9729214,-62.925635,4077,14751.42919
D1,Barcelos/AM,-0.9729214,-62.925635,56,202.61958
1,Bariri/SP,-22.0746355,-48.7394852,2246,6316.44074
D1,Bariri/SP,-22.0746355,-48.7394852,89,250.29529
1,Barra Bonita/SC,-26.6526364,-53.4419581,128,7752.87704
D1,Barra Bonita/SC,-26.6526364,-53.4419581,1,60.56935
1,Barra Bonita/SP,-22.490859,-48.558349,2573,7122.29419
D1,Barra Bonita/SP,-22.490859,-48.558349,68,188.23008
1,Barra D'Alcântara/PI,-6.5209258,-42.1071089,104,2631.57895
D1,Barra D'Alcântara/PI,-6.5209258,-42.1071089,3,75.91093
1,Barra Funda/RS,-27.9230048,-53.0401045,381,14935.31948
D1,Barra Funda/RS,-27.9230048,-53.0401045,7,274.40220
1,Barra Longa/MG,-20.2833541,-43.0423516,238,4745.76271
D1,Barra Longa/MG,-20.2833541,-43.0423516,7,139.58126
1,Barra Mansa/RJ,-22.5394843,-44.1735129,13005,7036.08122
D1,Barra Mansa/RJ,-22.5394843,-44.1735129,438,236.97067
1,Barra Velha/SC,-26.6338203,-48.6835001,3511,11758.20496
D1,Barra Velha/SC,-26.6338203,-48.6835001,77,257.87006
1,Barra da Estiva/BA,-13.6269662,-41.3278287,1394,6836.01412
D1,Barra da Estiva/BA,-13.6269662,-41.3278287,12,58.84661
1,Barra de Guabiraba/PE,-8.4173522,-35.6626669,339,2336.31978
D1,Barra de Guabiraba/PE,-8.4173522,-35.6626669,14,96.48518
1,Barra de Santa Rosa/PB,-6.7218007,-36.0564638,726,4684.77770
D1,Barra de Santa Rosa/PB,-6.7218007,-36.0564638,4,25.81145
1,Barra de Santana/PB,-7.5230865,-35.9988518,314,3760.92945
D1,Barra de Santana/PB,-7.5230865,-35.9988518,4,47.90993
1,Barra de Santo Antônio/AL,-9.4038098,-35.5117693,269,1674.13493
D1,Barra de Santo Antônio/AL,-9.4038098,-35.5117693,19,118.24745
1,Barra de São Francisco/ES,-18.7570902,-40.8916119,4302,9564.46342
D1,Barra de São Francisco/ES,-18.7570902,-40.8916119,177,393.51697
1,Barra de São Miguel/AL,-9.8261357,-35.8837777,367,4380.52041
D1,Barra de São Miguel/AL,-9.8261357,-35.8837777,6,71.61614
1,Barra de São Miguel/PB,-7.7528088,-36.3170996,332,5474.03133
D1,Barra de São Miguel/PB,-7.7528088,-36.3170996,5,82.44023
1,Barra do Bugres/MT,-15.0683712,-57.1853688,2200,6231.05900
D1,Barra do Bugres/MT,-15.0683712,-57.1853688,54,152.94418
1,Barra do Chapéu/SP,-24.472203,-49.023784,218,3784.72222
D1,Barra do Chapéu/SP,-24.472203,-49.023784,1,17.36111
1,Barra do Choça/BA,-14.8638173,-40.5761637,1732,5549.68118
D1,Barra do Choça/BA,-14.8638173,-40.5761637,27,86.51351
1,Barra do Corda/MA,-5.496823,-45.248496,5029,5682.99959
D1,Barra do Corda/MA,-5.496823,-45.248496,50,56.50228
1,Barra do Garças/MT,-15.8916033,-52.2615413,6202,10144.76159
D1,Barra do Garças/MT,-15.8916033,-52.2615413,222,363.13078
1,Barra do Guarita/RS,-27.1888016,-53.7147086,107,3285.23181
D1,Barra do Guarita/RS,-27.1888016,-53.7147086,4,122.81240
1,Barra do Jacaré/PR,-23.1151788,-50.1813945,157,5645.45128
D1,Barra do Jacaré/PR,-23.1151788,-50.1813945,1,35.95829
1,Barra do Mendes/BA,-11.8053298,-42.057037,642,4641.07569
D1,Barra do Mendes/BA,-11.8053298,-42.057037,10,72.29090
1,Barra do Ouro/TO,-7.7113784,-47.6743925,114,2461.13990
D1,Barra do Ouro/TO,-7.7113784,-47.6743925,5,107.94473
1,Barra do Piraí/RJ,-22.4703403,-43.8263256,4782,4745.74253
D1,Barra do Piraí/RJ,-22.4703403,-43.8263256,236,234.21063
1,Barra do Quaraí/RS,-30.208947,-57.5505128,252,5961.67495
D1,Barra do Quaraí/RS,-30.208947,-57.5505128,2,47.31488
1,Barra do Ribeiro/RS,-30.2930206,-51.301437,951,7015.34376
D1,Barra do Ribeiro/RS,-30.2930206,-51.301437,46,339.33314
1,Barra do Rio Azul/RS,-27.4101581,-52.4117471,65,3927.49245
D1,Barra do Rio Azul/RS,-27.4101581,-52.4117471,1,60.42296
1,Barra do Rocha/BA,-14.2090974,-39.6004395,356,6343.54954
D1,Barra do Rocha/BA,-14.2090974,-39.6004395,4,71.27584
1,Barra do Turvo/SP,-24.756421,-48.5056942,451,5909.32914
D1,Barra do Turvo/SP,-24.756421,-48.5056942,11,144.12998
1,Barra dos Coqueiros/SE,-10.9075694,-37.0386249,5403,17468.47721
D1,Barra dos Coqueiros/SE,-10.9075694,-37.0386249,69,223.08438
1,Barra/BA,-11.0892702,-43.1420453,1618,3001.29846
D1,Barra/BA,-11.0892702,-43.1420453,27,50.08347
1,Barracão/PR,-26.252395,-53.6349576,966,9367.72692
D1,Barracão/PR,-26.252395,-53.6349576,24,232.73856
1,Barracão/RS,-27.6728964,-51.4582928,289,5498.47793
D1,Barracão/RS,-27.6728964,-51.4582928,11,209.28463
1,Barras/PI,-4.2446153,-42.2920241,4045,8572.63961
D1,Barras/PI,-4.2446153,-42.2920241,79,167.42609
1,Barreira/CE,-4.2883361,-38.641094,1018,4509.81261
D1,Barreira/CE,-4.2883361,-38.641094,31,137.33221
1,Barreiras do Piauí/PI,-9.9224524,-45.4763776,59,1760.14320
D1,Barreiras do Piauí/PI,-9.9224524,-45.4763776,1,29.83294
1,Barreiras/BA,-12.1440031,-44.9967406,12537,7986.62207
D1,Barreiras/BA,-12.1440031,-44.9967406,177,112.75681
1,Barreirinha/AM,-2.798863,-57.067897,2279,7015.97759
D1,Barreirinha/AM,-2.798863,-57.067897,61,187.79054
1,Barreirinhas/MA,-2.7541271,-42.8259693,1751,2769.82457
D1,Barreirinhas/MA,-2.7541271,-42.8259693,33,52.20115
1,Barreiros/PE,-8.8159644,-35.1831905,654,1529.32373
D1,Barreiros/PE,-8.8159644,-35.1831905,48,112.24394
1,Barretos/SP,-20.5531437,-48.5697509,10493,8542.49265
D1,Barretos/SP,-20.5531437,-48.5697509,315,256.44574
1,Barrinha/SP,-21.1898849,-48.1550642,1205,3631.70585
D1,Barrinha/SP,-21.1898849,-48.1550642,50,150.69319
1,Barro Alto/BA,-11.7618025,-41.9094904,708,4703.06895
D1,Barro Alto/BA,-11.7618025,-41.9094904,8,53.14202
1,Barro Alto/GO,-14.9696025,-48.9190985,1198,10501.40252
D1,Barro Alto/GO,-14.9696025,-48.9190985,13,113.95512
1,Barro Duro/PI,-5.8180139,-42.5106589,608,8652.34097
D1,Barro Duro/PI,-5.8180139,-42.5106589,9,128.07742
1,Barro Preto/BA,-14.8068289,-39.4727588,539,9893.53891
D1,Barro Preto/BA,-14.8068289,-39.4727588,10,183.55360
1,Barro/CE,-7.1713587,-38.7742136,725,3185.69294
D1,Barro/CE,-7.1713587,-38.7742136,18,79.09307
1,Barrocas/BA,-11.5165,-39.099282894736845,668,4147.78019
D1,Barrocas/BA,-11.5165,-39.099282894736845,17,105.55728
1,Barrolândia/TO,-9.837246,-48.7264346,673,11909.39657
D1,Barrolândia/TO,-9.837246,-48.7264346,18,318.52769
1,Barroquinha/CE,-3.0200371,-41.1339229,928,6168.57219
D1,Barroquinha/CE,-3.0200371,-41.1339229,23,152.88487
1,Barros Cassal/RS,-29.094938,-52.5832366,493,4408.87140
D1,Barros Cassal/RS,-29.094938,-52.5832366,6,53.65766
1,Barroso/MG,-21.187222,-43.976111,976,4670.52687
D1,Barroso/MG,-21.187222,-43.976111,17,81.35139
1,Barueri/SP,-23.5112184,-46.8764612,22632,8170.92807
D1,Barueri/SP,-23.5112184,-46.8764612,859,310.12846
1,Barão de Antonina/SP,-23.6295651,-49.5632104,185,5288.73642
D1,Barão de Antonina/SP,-23.6295651,-49.5632104,3,85.76329
1,Barão de Cocais/MG,-19.9452437,-43.4870298,3080,9371.38684
D1,Barão de Cocais/MG,-19.9452437,-43.4870298,52,158.21822
1,Barão de Cotegipe/RS,-27.6214694,-52.3765316,544,8217.52266
D1,Barão de Cotegipe/RS,-27.6214694,-52.3765316,6,90.63444
1,Barão de Grajaú/MA,-6.7542591,-43.0263477,301,1590.57282
D1,Barão de Grajaú/MA,-6.7542591,-43.0263477,2,10.56859
1,Barão de Melgaço/MT,-16.195776,-55.9668049,290,3552.18030
D1,Barão de Melgaço/MT,-16.195776,-55.9668049,12,146.98677
1,Barão de Monte Alto/MG,-21.244722,-42.2375,190,3548.74860
D1,Barão de Monte Alto/MG,-21.244722,-42.2375,7,130.74337
1,Barão do Triunfo/RS,-30.3909877,-51.7375349,366,4867.66857
D1,Barão do Triunfo/RS,-30.3909877,-51.7375349,5,66.49820
1,Barão/RS,-29.372474,-51.494908,486,7836.18188
D1,Barão/RS,-29.372474,-51.494908,8,128.99065
1,Bastos/SP,-21.9222474,-50.7317727,592,2825.37107
D1,Bastos/SP,-21.9222474,-50.7317727,22,104.99690
1,Bataguassu/MS,-21.715899,-52.422058,2091,8964.63023
D1,Bataguassu/MS,-21.715899,-52.422058,24,102.89389
1,Batalha/AL,-9.6733809,-37.1265481,894,4875.12270
D1,Batalha/AL,-9.6733809,-37.1265481,15,81.79736
1,Batalha/PI,-4.022391,-42.0780926,861,3200.14867
D1,Batalha/PI,-4.022391,-42.0780926,30,111.50344
1,Batatais/SP,-20.892867,-47.592149,2122,3369.32359
D1,Batatais/SP,-20.892867,-47.592149,88,139.72690
1,Batayporã/MS,-22.2976466,-53.2685608,634,5586.39528
D1,Batayporã/MS,-22.2976466,-53.2685608,11,96.92484
1,Baturité/CE,-4.3290203,-38.8821055,2371,6596.92273
D1,Baturité/CE,-4.3290203,-38.8821055,58,161.37559
1,Bauru/SP,-22.3218102,-49.0705863,34533,9104.47486
D1,Bauru/SP,-22.3218102,-49.0705863,756,199.31610
1,Bayeux/PB,-7.1301631,-34.936532,5919,6089.31823
D1,Bayeux/PB,-7.1301631,-34.936532,210,216.04271
1,Baía Formosa/RN,-6.3691885,-35.0063741,308,3304.01201
D1,Baía Formosa/RN,-6.3691885,-35.0063741,8,85.81849
1,Baía da Traição/PB,-6.691258,-34.9371244,1173,12895.77836
D1,Baía da Traição/PB,-6.691258,-34.9371244,11,120.93228
1,Bebedouro/SP,-20.949077,-48.479083,3248,4187.99562
D1,Bebedouro/SP,-20.949077,-48.479083,84,108.31023
1,Beberibe/CE,-4.1810469,-38.1298101,3332,6176.20345
D1,Beberibe/CE,-4.1810469,-38.1298101,90,166.82422
1,Bela Cruz/CE,-3.0529129,-40.167582,2667,8150.47980
D1,Bela Cruz/CE,-3.0529129,-40.167582,48,146.69030
1,Bela Vista da Caroba/PR,-25.8792818,-53.6672545,159,4599.36361
D1,Bela Vista da Caroba/PR,-25.8792818,-53.6672545,5,144.63408
1,Bela Vista de Goiás/GO,-16.9692949,-48.9513071,2049,6719.79536
D1,Bela Vista de Goiás/GO,-16.9692949,-48.9513071,52,170.53653
1,Bela Vista de Minas/MG,-19.8289721,-43.0973688,654,6373.02670
D1,Bela Vista de Minas/MG,-19.8289721,-43.0973688,10,97.44689
1,Bela Vista do Maranhão/MA,-3.7416367,-45.2514192,283,2509.08769
D1,Bela Vista do Maranhão/MA,-3.7416367,-45.2514192,3,26.59810
1,Bela Vista do Paraíso/PR,-22.9948493,-51.1907996,1582,10273.39438
D1,Bela Vista do Paraíso/PR,-22.9948493,-51.1907996,56,363.65998
1,Bela Vista do Piauí/PI,-7.9716353,-41.8715061,228,5657.56824
D1,Bela Vista do Piauí/PI,-7.9716353,-41.8715061,6,148.88337
1,Bela Vista do Toldo/SC,-26.274625,-50.466354,58,911.66300
D1,Bela Vista do Toldo/SC,-26.274625,-50.466354,1,15.71833
1,Bela Vista/MS,-22.107327,-56.5317344,705,2850.21225
D1,Bela Vista/MS,-22.107327,-56.5317344,20,80.85709
1,Belford Roxo/RJ,-22.7667284,-43.4033603,18864,3676.34735
D1,Belford Roxo/RJ,-22.7667284,-43.4033603,540,105.23895
1,Belmiro Braga/MG,-21.9486291,-43.413564,150,4379.56204
D1,Belmiro Braga/MG,-21.9486291,-43.413564,3,87.59124
1,Belmonte/BA,-15.8630837,-38.8792845,886,3780.34731
D1,Belmonte/BA,-15.8630837,-38.8792845,17,72.53488
1,Belmonte/SC,-26.8448262,-53.578916,204,7530.45404
D1,Belmonte/SC,-26.8448262,-53.578916,4,147.65596
1,Belo Campo/BA,-15.0338286,-41.2585109,645,3769.94564
D1,Belo Campo/BA,-15.0338286,-41.2585109,9,52.60389
1,Belo Horizonte/MG,-19.9227318,-43.9450948,176029,6980.94516
D1,Belo Horizonte/MG,-19.9227318,-43.9450948,4266,169.18071
1,Belo Jardim/PE,-8.3338293,-36.4176419,2563,3342.15708
D1,Belo Jardim/PE,-8.3338293,-36.4176419,78,101.71215
1,Belo Monte/AL,-9.8269944,-37.2787165,243,3621.46051
D1,Belo Monte/AL,-9.8269944,-37.2787165,6,89.41878
1,Belo Oriente/MG,-19.2232523,-42.4807033,2320,8594.50248
D1,Belo Oriente/MG,-19.2232523,-42.4807033,55,203.74898
1,Belo Vale/MG,-20.407778,-44.024167,532,6892.08447
D1,Belo Vale/MG,-20.407778,-44.024167,9,116.59541
1,Belterra/PA,-2.636091,-54.937392,1181,6620.32625
D1,Belterra/PA,-2.636091,-54.937392,24,134.53669
1,Belágua/MA,-3.1604031,-43.5085052,197,2616.89692
D1,Belágua/MA,-3.1604031,-43.5085052,14,185.97237
1,Belém de Maria/PE,-8.6242497,-35.8388934,179,1476.65402
D1,Belém de Maria/PE,-8.6242497,-35.8388934,6,49.49678
1,Belém do Brejo do Cruz/PB,-6.1880727,-37.5332267,487,6626.75194
D1,Belém do Brejo do Cruz/PB,-6.1880727,-37.5332267,5,68.03647
1,Belém do Piauí/PI,-7.3767305,-40.9712156,417,11625.31363
D1,Belém do Piauí/PI,-7.3767305,-40.9712156,7,195.14915
1,Belém do São Francisco/PE,-8.7517707,-38.9625715,560,2701.39894
D1,Belém do São Francisco/PE,-8.7517707,-38.9625715,7,33.76749
1,Belém/AL,-9.5715351,-36.492841,96,2240.89636
D1,Belém/AL,-9.5715351,-36.492841,3,70.02801
1,Belém/PA,-1.45056,-48.4682453,95546,6371.25819
D1,Belém/PA,-1.45056,-48.4682453,4462,297.53788
1,Belém/PB,-6.6967586,-35.5369626,1850,10449.02570
D1,Belém/PB,-6.6967586,-35.5369626,31,175.09178
1,Beneditinos/PI,-5.4565671,-42.3605061,850,8116.10809
D1,Beneditinos/PI,-5.4565671,-42.3605061,29,276.90251
1,Benedito Leite/MA,-7.2173453,-44.5523331,295,5232.35190
D1,Benedito Leite/MA,-7.2173453,-44.5523331,2,35.47357
1,Benedito Novo/SC,-26.7840657,-49.3629511,912,7745.22293
D1,Benedito Novo/SC,-26.7840657,-49.3629511,15,127.38854
1,Benevides/PA,-1.3555577,-48.252235,3566,5592.14653
D1,Benevides/PA,-1.3555577,-48.252235,83,130.15933
1,Benjamin Constant do Sul/RS,-27.5105555,-52.6007689,152,7763.02349
1,Benjamin Constant/AM,-4.3782748,-70.0290603,2666,6068.05508
D1,Benjamin Constant/AM,-4.3782748,-70.0290603,83,188.91544
1,Bento Fernandes/RN,-5.6926846,-35.8207423,96,1737.55656
D1,Bento Fernandes/RN,-5.6926846,-35.8207423,2,36.19910
1,Bento Gonçalves/RS,-29.1654014,-51.5197627,14126,11597.41550
D1,Bento Gonçalves/RS,-29.1654014,-51.5197627,254,208.53345
1,Bento de Abreu/SP,-21.2707225,-50.8120444,240,7986.68885
1,Bequimão/MA,-2.4495376,-44.7884889,275,1291.14043
D1,Bequimão/MA,-2.4495376,-44.7884889,17,79.81595
1,Berilo/MG,-16.9515764,-42.4643732,123,1036.05121
D1,Berilo/MG,-16.9515764,-42.4643732,1,8.42318
1,Berizal/MG,-15.6118785,-41.7417382,103,2162.04870
D1,Berizal/MG,-15.6118785,-41.7417382,1,20.99076
1,Bernardino Batista/PB,-6.4532173,-38.5495418,232,6561.08597
1,Bernardino de Campos/SP,-23.0140216,-49.4760724,388,3477.32569
D1,Bernardino de Campos/SP,-23.0140216,-49.4760724,7,62.73526
1,Bernardo Sayão/TO,-7.8794244,-48.8968905,385,8655.57554
D1,Bernardo Sayão/TO,-7.8794244,-48.8968905,6,134.89209
1,Bernardo do Mearim/MA,-4.6315929,-44.7617508,261,4297.71118
D1,Bernardo do Mearim/MA,-4.6315929,-44.7617508,5,82.33163
1,Bertioga/SP,-23.848568,-46.139586,4524,6989.78725
D1,Bertioga/SP,-23.848568,-46.139586,113,174.59018
1,Bertolínia/PI,-7.6372159,-43.9540611,756,13727.98257
D1,Bertolínia/PI,-7.6372159,-43.9540611,10,181.58707
1,Bertópolis/MG,-17.063333,-40.573889,264,5730.41025
D1,Bertópolis/MG,-17.063333,-40.573889,1,21.70610
1,Beruri/AM,-3.9007135,-61.3717319,2081,10356.84069
D1,Beruri/AM,-3.9007135,-61.3717319,31,154.28259
1,Betim/MG,-19.968056,-44.198333,24716,5556.85456
D1,Betim/MG,-19.968056,-44.198333,851,191.32882
1,Betânia do Piauí/PI,-8.1460635,-40.7961387,155,2495.97424
D1,Betânia do Piauí/PI,-8.1460635,-40.7961387,2,32.20612
1,Betânia/PE,-8.2742779,-38.0351767,353,2765.37407
D1,Betânia/PE,-8.2742779,-38.0351767,10,78.33921
1,Bezerros/PE,-8.2372132,-35.7558262,3133,5146.18922
D1,Bezerros/PE,-8.2372132,-35.7558262,95,156.04468
1,Bias Fortes/MG,-21.605833,-43.756944,99,2973.86603
D1,Bias Fortes/MG,-21.605833,-43.756944,2,60.07810
1,Bicas/MG,-21.7213723,-43.0604327,978,6719.80212
D1,Bicas/MG,-21.7213723,-43.0604327,29,199.25794
1,Biguaçu/SC,-27.4961277,-48.6542432,10078,14503.64102
D1,Biguaçu/SC,-27.4961277,-48.6542432,144,207.23599
1,Bilac/SP,-21.403962,-50.47464,714,8796.35333
D1,Bilac/SP,-21.403962,-50.47464,12,147.83787
1,Biquinhas/MG,-18.783611,-45.502222,99,3963.17054
D1,Biquinhas/MG,-18.783611,-45.502222,1,40.03203
1,Birigui/SP,-21.2908491,-50.34144,10922,8745.78606
D1,Birigui/SP,-21.2908491,-50.34144,358,286.66832
1,Biritiba Mirim/SP,-23.5697765,-46.0407456,995,3021.01044
D1,Biritiba Mirim/SP,-23.5697765,-46.0407456,64,194.31625
1,Biritinga/BA,-11.6227908,-38.8066738,286,1789.28929
D1,Biritinga/BA,-11.6227908,-38.8066738,6,37.53754
1,Bituruna/PR,-26.161281,-51.5533319,551,3359.75610
D1,Bituruna/PR,-26.161281,-51.5533319,9,54.87805
1,Blumenau/SC,-26.9195567,-49.0658025,44070,12178.91144
D1,Blumenau/SC,-26.9195567,-49.0658025,495,136.79513
1,Boa Esperança do Iguaçu/PR,-25.6362851,-53.2139114,133,5384.61538
1,Boa Esperança do Sul/SP,-21.9930206,-48.3917372,683,4547.87588
D1,Boa Esperança do Sul/SP,-21.9930206,-48.3917372,11,73.24544
1,Boa Esperança/ES,-18.5395472,-40.2904088,1124,7447.65439
D1,Boa Esperança/ES,-18.5395472,-40.2904088,34,225.28492
1,Boa Esperança/MG,-21.0901253,-45.5660195,2767,6879.83291
D1,Boa Esperança/MG,-21.0901253,-45.5660195,71,176.53348
1,Boa Esperança/PR,-24.2411024,-52.7860277,241,5955.02842
D1,Boa Esperança/PR,-24.2411024,-52.7860277,6,148.25797
1,Boa Hora/PI,-4.4094627,-42.1255341,466,6837.85767
D1,Boa Hora/PI,-4.4094627,-42.1255341,5,73.36757
1,Boa Nova/BA,-14.365907,-40.2063056,714,5791.22394
D1,Boa Nova/BA,-14.365907,-40.2063056,11,89.22054
1,Boa Ventura de São Roque/PR,-24.88177,-51.5441292,338,5310.29065
D1,Boa Ventura de São Roque/PR,-24.88177,-51.5441292,5,78.55460
1,Boa Ventura/PB,-7.4202462,-38.2156782,271,5106.46316
D1,Boa Ventura/PB,-7.4202462,-38.2156782,4,75.37215
1,Boa Viagem/CE,-5.1261877,-39.7300055,2728,4998.44257
D1,Boa Viagem/CE,-5.1261877,-39.7300055,72,131.92370
1,Boa Vista da Aparecida/PR,-25.4357216,-53.4067721,653,8660.47745
D1,Boa Vista da Aparecida/PR,-25.4357216,-53.4067721,18,238.72679
1,Boa Vista das Missões/RS,-27.6677983,-53.3127622,110,5258.12620
D1,Boa Vista das Missões/RS,-27.6677983,-53.3127622,4,191.20459
1,Boa Vista do Buricá/RS,-27.6687782,-54.1111913,576,8581.64482
D1,Boa Vista do Buricá/RS,-27.6687782,-54.1111913,8,119.18951
1,Boa Vista do Cadeado/RS,-28.5783827,-53.8123759,145,5875.20259
D1,Boa Vista do Cadeado/RS,-28.5783827,-53.8123759,2,81.03728
1,Boa Vista do Gurupi/MA,-1.7981168,-46.3071882,15,178.95490
D1,Boa Vista do Gurupi/MA,-1.7981168,-46.3071882,4,47.72131
1,Boa Vista do Incra/RS,-28.8195551,-53.3866624,157,6001.52905
D1,Boa Vista do Incra/RS,-28.8195551,-53.3866624,2,76.45260
1,Boa Vista do Ramos/AM,-2.9716927,-57.5869819,857,4366.65648
D1,Boa Vista do Ramos/AM,-2.9716927,-57.5869819,11,56.04810
1,Boa Vista do Sul/RS,-29.3510488,-51.6779679,250,8999.28006
D1,Boa Vista do Sul/RS,-29.3510488,-51.6779679,3,107.99136
1,Boa Vista do Tupim/BA,-12.6605988,-40.6083594,177,955.15622
D1,Boa Vista do Tupim/BA,-12.6605988,-40.6083594,4,21.58545
1,Boa Vista/PB,-7.2620711,-36.2415161,538,7539.23767
D1,Boa Vista/PB,-7.2620711,-36.2415161,9,126.12108
1,Boa Vista/RR,2.8208478,-60.6719582,73215,17446.59861
D1,Boa Vista/RR,2.8208478,-60.6719582,1164,277.37268
1,Boca da Mata/AL,-9.6452054,-36.2116658,1585,5793.97573
D1,Boca da Mata/AL,-9.6452054,-36.2116658,39,142.56470
1,Boca do Acre/AM,-8.7553487,-67.3930873,2473,7140.17612
D1,Boca do Acre/AM,-8.7553487,-67.3930873,22,63.51956
1,Bocaina de Minas/MG,-22.167778,-44.394722,137,2692.08096
D1,Bocaina de Minas/MG,-22.167778,-44.394722,5,98.25113
1,Bocaina do Sul/SC,-27.745494,-49.942279,353,10120.41284
D1,Bocaina do Sul/SC,-27.745494,-49.942279,3,86.00917
1,Bocaina/PI,-6.9445939,-41.3224599,233,5172.03108
D1,Bocaina/PI,-6.9445939,-41.3224599,3,66.59267
1,Bocaina/SP,-22.1421831,-48.522276,1085,8713.45969
D1,Bocaina/SP,-22.1421831,-48.522276,24,192.74012
1,Bocaiúva do Sul/PR,-25.206591,-49.114131,1120,8530.73349
D1,Bocaiúva do Sul/PR,-25.206591,-49.114131,11,83.78399
1,Bocaiúva/MG,-17.1160208,-43.8122678,1750,3482.17128
D1,Bocaiúva/MG,-17.1160208,-43.8122678,41,81.58230
1,Bodocó/PE,-7.777592,-39.933797,1553,4046.58919
D1,Bodocó/PE,-7.777592,-39.933797,23,59.93017
1,Bodoquena/MS,-20.5508775,-56.6769653,264,3368.20618
D1,Bodoquena/MS,-20.5508775,-56.6769653,10,127.58357
1,Bodó/RN,-5.9866104,-36.4134824,96,4369.59490
1,Bofete/SP,-23.1019554,-48.2610535,556,4664.03825
D1,Bofete/SP,-23.1019554,-48.2610535,13,109.05125
1,Boituva/SP,-23.2838893,-47.6738231,4145,6667.20283
D1,Boituva/SP,-23.2838893,-47.6738231,97,156.02381
1,Bom Conselho/PE,-9.169191,-36.685683,1285,2634.97857
D1,Bom Conselho/PE,-9.169191,-36.685683,43,88.17438
1,Bom Despacho/MG,-19.7375242,-45.2517288,2730,5350.00392
D1,Bom Despacho/MG,-19.7375242,-45.2517288,59,115.62280
1,Bom Jardim da Serra/SC,-28.3380324,-49.625588,540,11316.01006
D1,Bom Jardim da Serra/SC,-28.3380324,-49.625588,4,83.82230
1,Bom Jardim de Goiás/GO,-16.2062659,-52.172793,585,6596.00857
D1,Bom Jardim de Goiás/GO,-16.2062659,-52.172793,11,124.02751
1,Bom Jardim de Minas/MG,-21.9476466,-44.1906033,346,5356.86639
D1,Bom Jardim de Minas/MG,-21.9476466,-44.1906033,1,15.48227
1,Bom Jardim/MA,-3.54129,-45.606004,1149,2747.35785
D1,Bom Jardim/MA,-3.54129,-45.606004,40,95.64344
1,Bom Jardim/PE,-7.7961572,-35.5871696,1052,2631.11823
D1,Bom Jardim/PE,-7.7961572,-35.5871696,46,115.04890
1,Bom Jardim/RJ,-22.1515328,-42.4186683,1133,4102.69409
D1,Bom Jardim/RJ,-22.1515328,-42.4186683,26,94.14832
1,Bom Jesus da Lapa/BA,-13.250571,-43.410754,3267,4689.78783
D1,Bom Jesus da Lapa/BA,-13.250571,-43.410754,51,73.21065
1,Bom Jesus da Penha/MG,-21.0165299,-46.5226644,283,6668.23751
D1,Bom Jesus da Penha/MG,-21.0165299,-46.5226644,8,188.50141
1,Bom Jesus da Serra/BA,-14.3724084,-40.5047119,408,4153.51726
D1,Bom Jesus da Serra/BA,-14.3724084,-40.5047119,8,81.44151
1,Bom Jesus das Selvas/MA,-4.4878075,-46.8526639,2597,7512.94587
D1,Bom Jesus das Selvas/MA,-4.4878075,-46.8526639,22,63.64452
1,Bom Jesus de Goiás/GO,-18.2174587,-49.739721,2399,9353.55583
D1,Bom Jesus de Goiás/GO,-18.2174587,-49.739721,91,354.80349
1,Bom Jesus do Amparo/MG,-19.7045132,-43.4752911,165,2690.36361
D1,Bom Jesus do Amparo/MG,-19.7045132,-43.4752911,5,81.52617
1,Bom Jesus do Araguaia/MT,-12.1725897,-51.5074425,814,12138.38354
D1,Bom Jesus do Araguaia/MT,-12.1725897,-51.5074425,14,208.76827
1,Bom Jesus do Galho/MG,-19.8283191,-42.3162256,527,3545.95613
D1,Bom Jesus do Galho/MG,-19.8283191,-42.3162256,23,154.75710
1,Bom Jesus do Itabapoana/RJ,-21.1341025,-41.680095,2623,7050.50668
D1,Bom Jesus do Itabapoana/RJ,-21.1341025,-41.680095,70,188.15687
1,Bom Jesus do Norte/ES,-21.1254776,-41.6711646,851,8542.46135
D1,Bom Jesus do Norte/ES,-21.1254776,-41.6711646,21,210.80104
1,Bom Jesus do Oeste/SC,-26.6929713,-53.0967453,135,6311.36045
D1,Bom Jesus do Oeste/SC,-26.6929713,-53.0967453,4,187.00327
1,Bom Jesus do Sul/PR,-26.1922507,-53.6002033,231,6588.70508
D1,Bom Jesus do Sul/PR,-26.1922507,-53.6002033,3,85.56760
1,Bom Jesus do Tocantins/PA,-5.0471796,-48.5978362,689,4025.00292
D1,Bom Jesus do Tocantins/PA,-5.0471796,-48.5978362,22,128.51969
1,Bom Jesus do Tocantins/TO,-8.96306,-48.165043,122,2436.10224
D1,Bom Jesus do Tocantins/TO,-8.96306,-48.165043,1,19.96805
1,Bom Jesus dos Perdões/SP,-23.1353864,-46.4648052,1684,6480.66192
D1,Bom Jesus dos Perdões/SP,-23.1353864,-46.4648052,21,80.81586
1,Bom Jesus/PB,-6.8156725,-38.6551841,117,4543.68932
D1,Bom Jesus/PB,-6.8156725,-38.6551841,3,116.50485
1,Bom Jesus/PI,-9.0711644,-44.3583926,2695,10615.66944
D1,Bom Jesus/PI,-9.0711644,-44.3583926,29,114.23169
1,Bom Jesus/RN,-5.9887544,-35.5821149,606,5902.40577
D1,Bom Jesus/RN,-5.9887544,-35.5821149,12,116.87932
1,Bom Jesus/RS,-28.6692723,-50.4346894,605,5349.72146
D1,Bom Jesus/RS,-28.6692723,-50.4346894,14,123.79521
1,Bom Jesus/SC,-26.7350604,-52.3916519,317,10369.64344
D1,Bom Jesus/SC,-26.7350604,-52.3916519,6,196.27085
1,Bom Lugar/MA,-4.3728019,-45.0366054,423,2573.30575
D1,Bom Lugar/MA,-4.3728019,-45.0366054,7,42.58426
1,Bom Princípio do Piauí/PI,-3.1912777,-41.6430185,109,1928.86215
D1,Bom Princípio do Piauí/PI,-3.1912777,-41.6430185,9,159.26385
1,Bom Princípio/RS,-29.489788,-51.3566782,1352,9484.39144
D1,Bom Princípio/RS,-29.489788,-51.3566782,25,175.37706
1,Bom Progresso/RS,-27.5490948,-53.8655601,115,6055.81885
D1,Bom Progresso/RS,-27.5490948,-53.8655601,3,157.97788
1,Bom Repouso/MG,-22.4657069,-46.1485376,606,5751.16257
D1,Bom Repouso/MG,-22.4657069,-46.1485376,13,123.37477
1,Bom Retiro do Sul/RS,-29.6000007,-51.9359243,902,7280.06457
D1,Bom Retiro do Sul/RS,-29.6000007,-51.9359243,23,185.63358
1,Bom Retiro/SC,-27.798993,-49.486994,595,5914.51292
D1,Bom Retiro/SC,-27.798993,-49.486994,14,139.16501
1,Bom Sucesso de Itararé/SP,-24.3190016,-49.1446207,117,2936.74699
D1,Bom Sucesso de Itararé/SP,-24.3190016,-49.1446207,5,125.50201
1,Bom Sucesso do Sul/PR,-26.0749256,-52.8348629,302,9280.88506
D1,Bom Sucesso do Sul/PR,-26.0749256,-52.8348629,6,184.38844
1,Bom Sucesso/MG,-21.0323516,-44.7598082,497,2822.74096
D1,Bom Sucesso/MG,-21.0323516,-44.7598082,5,28.39780
1,Bom Sucesso/PB,-6.4458948,-37.9297662,192,3874.09201
D1,Bom Sucesso/PB,-6.4458948,-37.9297662,2,40.35513
1,Bom Sucesso/PR,-23.7088019,-51.7651297,619,8757.78155
D1,Bom Sucesso/PR,-23.7088019,-51.7651297,12,169.77929
1,Bombinhas/SC,-27.1519159,-48.4875691,3229,15879.02631
D1,Bombinhas/SC,-27.1519159,-48.4875691,49,240.96386
1,Bonfim do Piauí/PI,-9.1648678,-42.8734415,275,4837.29112
D1,Bonfim do Piauí/PI,-9.1648678,-42.8734415,5,87.95075
1,Bonfim/MG,-20.3266626, -44.2386157,340,4956.26822
D1,Bonfim/MG,-20.3266626, -44.2386157,13,189.50437
1,Bonfim/RR,3.3613818,-59.8427241,2108,16787.44923
D1,Bonfim/RR,3.3613818,-59.8427241,24,191.12845
1,Bonfinópolis de Minas/MG,-16.5660011,-45.98645,365,6704.62895
D1,Bonfinópolis de Minas/MG,-16.5660011,-45.98645,10,183.68846
1,Bonfinópolis/GO,-16.6172709,-48.9615701,430,4335.11443
D1,Bonfinópolis/GO,-16.6172709,-48.9615701,16,161.30658
1,Boninal/BA,-12.7095183,-41.8299984,566,3918.03960
D1,Boninal/BA,-12.7095183,-41.8299984,7,48.45632
1,Bonito de Minas/MG,-15.3191266,-44.7544,43,378.22148
1,Bonito de Santa Fé/PB,-7.3143332,-38.5146677,398,3310.59724
D1,Bonito de Santa Fé/PB,-7.3143332,-38.5146677,11,91.49892
1,Bonito/BA,-11.9665473,-41.2649896,634,3755.03435
D1,Bonito/BA,-11.9665473,-41.2649896,8,47.38214
1,Bonito/MS,-21.1264766,-56.4902208,2130,9598.91843
D1,Bonito/MS,-21.1264766,-56.4902208,45,202.79405
1,Bonito/PA,-1.3605722,-47.3049907,350,2117.36237
D1,Bonito/PA,-1.3605722,-47.3049907,12,72.59528
1,Bonito/PE,-8.4721161,-35.7314591,591,1550.48928
D1,Bonito/PE,-8.4721161,-35.7314591,34,89.19905
1,Bonópolis/GO,-13.649331,-49.8329113,133,2960.16025
D1,Bonópolis/GO,-13.649331,-49.8329113,1,22.25684
1,Boqueirão do Leão/RS,-29.30332,-52.4296817,547,7102.05142
D1,Boqueirão do Leão/RS,-29.30332,-52.4296817,28,363.54194
1,Boqueirão do Piauí/PI,-4.4850148,-42.1095161,474,7376.28385
D1,Boqueirão do Piauí/PI,-4.4850148,-42.1095161,7,108.93246
1,Boqueirão/PB,-7.487004,-36.130887,1277,7146.05484
D1,Boqueirão/PB,-7.487004,-36.130887,22,123.11136
1,Boquim/SE,-11.1450175,-37.6204228,1749,6502.10045
D1,Boquim/SE,-11.1450175,-37.6204228,40,148.70441
1,Boquira/BA,-12.8184859,-42.7270883,454,2111.92259
D1,Boquira/BA,-12.8184859,-42.7270883,9,41.86631
1,Boracéia/SP,-22.195355,-48.7801925,758,15571.07642
D1,Boracéia/SP,-22.195355,-48.7801925,19,390.30403
1,Borba/AM,-4.3934778,-59.5947721,1791,4290.02587
D1,Borba/AM,-4.3934778,-59.5947721,53,126.95219
1,Borborema/PB,-6.8066718,-35.5990191,303,5731.03840
D1,Borborema/PB,-6.8066718,-35.5990191,8,151.31455
1,Borborema/SP,-21.6212706,-49.074135,964,5963.87033
D1,Borborema/SP,-21.6212706,-49.074135,31,191.78421
1,Borda da Mata/MG,-22.274167,-46.165278,1053,5368.61426
D1,Borda da Mata/MG,-22.274167,-46.165278,34,173.34557
1,Borebi/SP,-22.5700178,-48.9714871,126,4696.23556
D1,Borebi/SP,-22.5700178,-48.9714871,2,74.54342
1,Borrazópolis/PR,-23.9393362,-51.5850786,486,7547.75586
D1,Borrazópolis/PR,-23.9393362,-51.5850786,15,232.95543
1,Borá/SP,-22.2701088,-50.544407,54,6443.91408
1,Bossoroca/RS,-28.7278885,-54.9120278,347,5592.26430
D1,Bossoroca/RS,-28.7278885,-54.9120278,19,306.20467
1,Botelhos/MG,-21.65,-46.394722,1128,7545.65523
D1,Botelhos/MG,-21.65,-46.394722,13,86.96234
1,Botucatu/SP,-22.8879628,-48.4410712,10939,7384.72963
D1,Botucatu/SP,-22.8879628,-48.4410712,204,137.71687
1,Botumirim/MG,-16.862778,-43.011111,164,2608.14249
D1,Botumirim/MG,-16.862778,-43.011111,2,31.80662
1,Botuporã/BA,-13.3744752,-42.5198469,188,1856.05687
D1,Botuporã/BA,-13.3744752,-42.5198469,3,29.61793
1,Botuverá/SC,-27.200749,-49.068892,810,15219.84216
D1,Botuverá/SC,-27.200749,-49.068892,8,150.31943
1,Bozano/RS,-28.3669953,-53.7705165,204,9663.66651
D1,Bozano/RS,-28.3669953,-53.7705165,7,331.59640
1,Braga/RS,-27.617348,-53.740514,147,4439.74630
D1,Braga/RS,-27.617348,-53.740514,4,120.80942
1,Braganey/PR,-24.8179919,-53.118506,300,5574.13601
D1,Braganey/PR,-24.8179919,-53.118506,7,130.06317
1,Bragança Paulista/SP,-22.9520235,-46.5418586,12210,7159.90453
D1,Bragança Paulista/SP,-22.9520235,-46.5418586,299,175.33263
1,Bragança/PA,-1.0573967,-46.7635406,3512,2724.29682
D1,Bragança/PA,-1.0573967,-46.7635406,116,89.98247
1,Branquinha/AL,-9.2478057,-36.0152009,442,4225.62141
D1,Branquinha/AL,-9.2478057,-36.0152009,9,86.04207
1,Brasil Novo/PA,-3.3055853,-52.539198,1413,9430.68811
D1,Brasil Novo/PA,-3.3055853,-52.539198,29,193.55269
1,Brasileira/PI,-4.131182,-41.7824969,460,5510.96202
D1,Brasileira/PI,-4.131182,-41.7824969,8,95.84282
1,Brasilândia de Minas/MG,-17.0096469,-46.0087183,901,5379.74684
D1,Brasilândia de Minas/MG,-17.0096469,-46.0087183,10,59.70862
1,Brasilândia do Sul/PR,-24.1975793,-53.527551,312,12069.63250
D1,Brasilândia do Sul/PR,-24.1975793,-53.527551,7,270.79304
1,Brasilândia do Tocantins/TO,-8.3886619,-48.4842729,132,5970.14925
D1,Brasilândia do Tocantins/TO,-8.3886619,-48.4842729,4,180.91361
1,Brasilândia/MS,-21.255575,-52.0365617,701,5914.11457
D1,Brasilândia/MS,-21.255575,-52.0365617,12,101.24019
1,Brasiléia/AC,-11.0010413,-68.7487894,2448,9167.85260
D1,Brasiléia/AC,-11.0010413,-68.7487894,35,131.07632
1,Brasnorte/MT,-12.1227151,-58.0050109,1689,8386.29593
D1,Brasnorte/MT,-12.1227151,-58.0050109,27,134.06157
1,Brasília de Minas/MG,-16.2075114,-44.430559,813,2508.87209
D1,Brasília de Minas/MG,-16.2075114,-44.430559,5,15.42972
1,Brasília/DF,-15.7934036,-47.8823172,378783,12398.18418
D1,Brasília/DF,-15.7934036,-47.8823172,7798,255.24123
1,Brazabrantes/GO,-16.4291635,-49.3858216,350,9343.29952
D1,Brazabrantes/GO,-16.4291635,-49.3858216,3,80.08542
1,Brazópolis/MG,-22.4742842,-45.6165577,652,4524.63567
D1,Brazópolis/MG,-22.4742842,-45.6165577,28,194.30951
1,Braço do Norte/SC,-28.2728633,-49.1622712,6967,20566.18255
D1,Braço do Norte/SC,-28.2728633,-49.1622712,71,209.58791
1,Braço do Trombudo/SC,-27.358578,-49.882145,554,14698.85911
D1,Braço do Trombudo/SC,-27.358578,-49.882145,4,106.12895
1,Braúna/SP,-21.5015319,-50.3175246,352,6131.33600
D1,Braúna/SP,-21.5015319,-50.3175246,19,330.95280
1,Braúnas/MG,-19.055556,-42.716111,188,3942.12623
D1,Braúnas/MG,-19.055556,-42.716111,6,125.81254
1,Brejetuba/ES,-20.1465817,-41.2902303,1403,11289.93321
D1,Brejetuba/ES,-20.1465817,-41.2902303,13,104.61093
1,Brejinho de Nazaré/TO,-11.0205883,-48.5722906,382,6921.54376
D1,Brejinho de Nazaré/TO,-11.0205883,-48.5722906,8,144.95380
1,Brejinho/PE,-7.3482153,-37.28538,546,7291.66667
D1,Brejinho/PE,-7.3482153,-37.28538,10,133.54701
1,Brejinho/RN,-6.1957907,-35.3583019,876,6850.70775
D1,Brejinho/RN,-6.1957907,-35.3583019,8,62.56354
1,Brejo Alegre/SP,-21.1671191,-50.1850393,263,9103.49602
D1,Brejo Alegre/SP,-21.1671191,-50.1850393,10,346.14053
1,Brejo Grande do Araguaia/PA,-5.7011449,-48.4037308,750,10179.15309
D1,Brejo Grande do Araguaia/PA,-5.7011449,-48.4037308,4,54.28882
1,Brejo Grande/SE,-10.4287358,-36.4667918,308,3687.29798
D1,Brejo Grande/SE,-10.4287358,-36.4667918,12,143.66096
1,Brejo Santo/CE,-7.4909841,-38.9859152,6798,13639.09955
D1,Brejo Santo/CE,-7.4909841,-38.9859152,112,224.71008
1,Brejo da Madre de Deus/PE,-8.1409718,-36.3712527,1705,3328.45290
D1,Brejo da Madre de Deus/PE,-8.1409718,-36.3712527,46,89.79990
1,Brejo de Areia/MA,-4.3316785,-45.5833334,281,3117.37298
D1,Brejo de Areia/MA,-4.3316785,-45.5833334,8,88.75083
1,Brejo do Cruz/PB,-6.32926065,-37.48746163303929,1232,8672.39195
D1,Brejo do Cruz/PB,-6.32926065,-37.48746163303929,19,133.74630
1,Brejo do Piauí/PI,-8.207583,-42.8359849,60,1559.25156
D1,Brejo do Piauí/PI,-8.207583,-42.8359849,3,77.96258
1,Brejo dos Santos/PB,-6.3769367,-37.8243125,350,5414.60396
D1,Brejo dos Santos/PB,-6.3769367,-37.8243125,4,61.88119
1,Brejo/MA,-3.6804397,-42.7529313,805,2196.39300
D1,Brejo/MA,-3.6804397,-42.7529313,19,51.84033
1,Brejolândia/BA,-12.4843845,-43.9611861,129,1214.91806
D1,Brejolândia/BA,-12.4843845,-43.9611861,8,75.34376
1,Brejão/PE,-9.029146,-36.566034,166,1847.11250
D1,Brejão/PE,-9.029146,-36.566034,5,55.63592
1,Brejões/BA,-13.1033754,-39.7909837,544,3825.05977
D1,Brejões/BA,-13.1033754,-39.7909837,8,56.25088
1,Breu Branco/PA,-3.7785073,-49.5684795,576,855.46248
D1,Breu Branco/PA,-3.7785073,-49.5684795,40,59.40712
1,Breves/PA,-1.68036,-50.479085,3782,3654.21220
D1,Breves/PA,-1.68036,-50.479085,107,103.38464
1,Britânia/GO,-15.2427599,-51.1602061,444,7659.13403
D1,Britânia/GO,-15.2427599,-51.1602061,3,51.75091
1,Brochier/RS,-29.556766,-51.5963047,348,6818.18182
D1,Brochier/RS,-29.556766,-51.5963047,1,19.59248
1,Brodowski/SP,-20.984532,-47.657217,1755,6943.07078
D1,Brodowski/SP,-20.984532,-47.657217,46,181.98362
1,Brotas de Macaúbas/BA,-12.0019007,-42.6257506,61,602.17177
D1,Brotas de Macaúbas/BA,-12.0019007,-42.6257506,1,9.87167
1,Brotas/SP,-22.2840884,-48.1267265,435,1765.70872
D1,Brotas/SP,-22.2840884,-48.1267265,29,117.71391
1,Brumadinho/MG,-20.143611,-44.2,2863,7040.27935
D1,Brumadinho/MG,-20.143611,-44.2,67,164.75680
1,Brumado/BA,-14.29507325,-41.659307508575985,8127,12069.50323
D1,Brumado/BA,-14.29507325,-41.659307508575985,157,233.16255
1,Brunópolis/SC,-27.310953,-50.837585,196,8277.02703
D1,Brunópolis/SC,-27.310953,-50.837585,5,211.14865
1,Brusque/SC,-27.0964628,-48.9136323,22602,16415.25467
D1,Brusque/SC,-27.0964628,-48.9136323,228,165.59057
1,Brás Pires/MG,-20.8483109,-43.2430524,172,4006.52225
D1,Brás Pires/MG,-20.8483109,-43.2430524,6,139.76240
1,Bueno Brandão/MG,-22.441976,-46.3517971,537,4885.81567
D1,Bueno Brandão/MG,-22.441976,-46.3517971,18,163.77036
1,Buenos Aires/PE,-7.7218931,-35.326587,195,1478.39272
D1,Buenos Aires/PE,-7.7218931,-35.326587,19,144.04852
1,Buenópolis/MG,-17.8756607,-44.1749365,264,2549.98551
D1,Buenópolis/MG,-17.8756607,-44.1749365,8,77.27229
1,Buerarema/BA,-14.9571177,-39.3008035,1226,6697.25773
D1,Buerarema/BA,-14.9571177,-39.3008035,36,196.65683
1,Bugre/MG,-19.4257687,-42.2556,346,8686.91941
D1,Bugre/MG,-19.4257687,-42.2556,10,251.06703
1,Bujari/AC,-9.8309656,-67.9520886,1067,10239.92322
D1,Bujari/AC,-9.8309656,-67.9520886,13,124.76008
1,Bujaru/PA,-1.5169239,-48.0410699,1255,4264.79084
D1,Bujaru/PA,-1.5169239,-48.0410699,36,122.33663
1,Buri/SP,-23.79849,-48.598924,2112,10578.51240
D1,Buri/SP,-23.79849,-48.598924,54,270.47333
1,Buritama/SP,-21.0664017,-50.1448077,1789,10352.41016
D1,Buritama/SP,-21.0664017,-50.1448077,52,300.90851
1,Buriti Alegre/GO,-18.1377879,-49.0404411,790,8329.81864
D1,Buriti Alegre/GO,-18.1377879,-49.0404411,27,284.69000
1,Buriti Bravo/MA,-5.8391884,-43.8367876,1186,4954.25874
D1,Buriti Bravo/MA,-5.8391884,-43.8367876,11,45.95012
1,Buriti de Goiás/GO,-16.180644,-50.4287479,173,6987.07593
D1,Buriti de Goiás/GO,-16.180644,-50.4287479,7,282.71405
1,Buriti do Tocantins/TO,-5.3187439,-48.2256609,664,5775.41967
D1,Buriti do Tocantins/TO,-5.3187439,-48.2256609,7,60.88545
1,Buriti dos Lopes/PI,-3.1776723,-41.8707444,1161,5861.56409
D1,Buriti dos Lopes/PI,-3.1776723,-41.8707444,22,111.07184
1,Buriti dos Montes/PI,-5.3136171,-41.0971256,532,6437.56050
D1,Buriti dos Montes/PI,-5.3136171,-41.0971256,6,72.60407
1,Buriti/MA,-3.9430944,-42.9244281,751,2607.81999
D1,Buriti/MA,-3.9430944,-42.9244281,7,24.30724
1,Buriticupu/MA,-4.3227472,-46.4516989,2927,4010.52300
D1,Buriticupu/MA,-4.3227472,-46.4516989,38,52.06692
1,Buritinópolis/GO,-14.4589282,-46.4293104,155,4721.29150
D1,Buritinópolis/GO,-14.4589282,-46.4293104,1,30.45995
1,Buritirama/BA,-10.7148421,-43.6362327,760,3572.10002
D1,Buritirama/BA,-10.7148421,-43.6362327,17,79.90224
1,Buritirana/MA,-5.5897455,-47.0148915,282,1823.23657
D1,Buritirana/MA,-5.5897455,-47.0148915,23,148.70369
1,Buritis/MG,-15.621389,-46.423889,1311,5241.27454
D1,Buritis/MG,-15.621389,-46.423889,25,99.94803
1,Buritis/RO,-10.2054937,-63.8281954,4179,10355.33750
D1,Buritis/RO,-10.2054937,-63.8281954,56,138.76499
1,Buritizal/SP,-20.1933264,-47.7097165,219,4851.57288
D1,Buritizal/SP,-20.1933264,-47.7097165,9,199.37971
1,Buritizeiro/MG,-17.3667765,-44.9647781,928,3300.02489
D1,Buritizeiro/MG,-17.3667765,-44.9647781,28,99.56972
1,Butiá/RS,-30.1256795,-51.9692224,1583,7555.36464
D1,Butiá/RS,-30.1256795,-51.9692224,46,219.54945
1,Buíque/PE,-8.6239732,-37.157296,1719,2917.56479
D1,Buíque/PE,-8.6239732,-37.157296,34,57.70634
1,Bálsamo/SP,-20.7343722,-49.5807484,1247,13644.81891
D1,Bálsamo/SP,-20.7343722,-49.5807484,49,536.16369
0,CASO SEM LOCALIZAÇÃO DEFINIDA/BA,-13.415069300066518,-38.14174656569957,10056,67.61216
D0,CASO SEM LOCALIZAÇÃO DEFINIDA/BA,-13.415069300066518,-38.14174656569957,168,1.12956
0,CASO SEM LOCALIZAÇÃO DEFINIDA/CE,-3.3445126297392798,-38.624961942434304,15567,170.46504
D0,CASO SEM LOCALIZAÇÃO DEFINIDA/CE,-3.3445126297392798,-38.624961942434304,295,3.23037
0,CASO SEM LOCALIZAÇÃO DEFINIDA/ES,-20.30989267097039,-39.81745156645774,3429,85.32716
D0,CASO SEM LOCALIZAÇÃO DEFINIDA/ES,-20.30989267097039,-39.81745156645774,175,4.35470
0,CASO SEM LOCALIZAÇÃO DEFINIDA/GO,-16.701590966270153,-49.164524059025034,1234,17.58247
D0,CASO SEM LOCALIZAÇÃO DEFINIDA/GO,-16.701590966270153,-49.164524059025034,52,0.74091
0,CASO SEM LOCALIZAÇÃO DEFINIDA/MG,-19.97049116501593,-43.8852149072783,4266,20.15231
D0,CASO SEM LOCALIZAÇÃO DEFINIDA/MG,-19.97049116501593,-43.8852149072783,253,1.19516
0,CASO SEM LOCALIZAÇÃO DEFINIDA/MT,-15.54791153961863,-56.17143998972475,2163,62.07551
D0,CASO SEM LOCALIZAÇÃO DEFINIDA/MT,-15.54791153961863,-56.17143998972475,165,4.73530
0,CASO SEM LOCALIZAÇÃO DEFINIDA/PA,-0.09317078214359542,-48.0050231510481,1427,16.58750
D0,CASO SEM LOCALIZAÇÃO DEFINIDA/PA,-0.09317078214359542,-48.0050231510481,102,1.18565
0,CASO SEM LOCALIZAÇÃO DEFINIDA/PI,-2.683810218391744,-41.470898009352254,448,13.68680
D0,CASO SEM LOCALIZAÇÃO DEFINIDA/PI,-2.683810218391744,-41.470898009352254,23,0.70267
0,CASO SEM LOCALIZAÇÃO DEFINIDA/PR,-25.69415946385943,-48.10141676336737,5656,49.46669
D0,CASO SEM LOCALIZAÇÃO DEFINIDA/PR,-25.69415946385943,-48.10141676336737,143,1.25066
0,CASO SEM LOCALIZAÇÃO DEFINIDA/RN,-5.749310788669161,-34.95302586257457,1905,54.32221
D0,CASO SEM LOCALIZAÇÃO DEFINIDA/RN,-5.749310788669161,-34.95302586257457,46,1.31172
0,CASO SEM LOCALIZAÇÃO DEFINIDA/RR,2.813328208465927,-60.663338675861986,2532,417.98663
D0,CASO SEM LOCALIZAÇÃO DEFINIDA/RR,2.813328208465927,-60.663338675861986,14,2.31114
0,CASO SEM LOCALIZAÇÃO DEFINIDA/SP,-24.30968974555485,-46.21366504207253,601,1.30883
1,Caapiranga/AM,-3.3188884,-61.2096404,555,4178.27298
D1,Caapiranga/AM,-3.3188884,-61.2096404,20,150.56840
1,Caaporã/PB,-7.510234,-34.9154114,1602,7296.74334
D1,Caaporã/PB,-7.510234,-34.9154114,27,122.97882
1,Caarapó/MS,-22.6349267,-54.8240903,2569,8397.34580
D1,Caarapó/MS,-22.6349267,-54.8240903,25,81.71804
1,Caatiba/BA,-14.9782759,-40.4092325,705,10866.21455
D1,Caatiba/BA,-14.9782759,-40.4092325,8,123.30456
1,Cabaceiras do Paraguaçu/BA,-12.5377868,-39.1901339,422,2231.50547
D1,Cabaceiras do Paraguaçu/BA,-12.5377868,-39.1901339,4,21.15171
1,Cabaceiras/PB,-7.4899156,-36.2860501,303,5352.41123
D1,Cabaceiras/PB,-7.4899156,-36.2860501,1,17.66472
1,Cabeceira Grande/MG,-16.0297,-47.0906,265,3792.21523
D1,Cabeceira Grande/MG,-16.0297,-47.0906,4,57.24098
1,Cabeceiras do Piauí/PI,-4.4733665,-42.3098716,445,4186.26529
D1,Cabeceiras do Piauí/PI,-4.4733665,-42.3098716,10,94.07338
1,Cabeceiras/GO,-15.7995459,-46.9264991,267,3318.41909
D1,Cabeceiras/GO,-15.7995459,-46.9264991,10,124.28536
1,Cabedelo/PB,-6.97324,-34.8351609,7337,10669.36176
D1,Cabedelo/PB,-6.97324,-34.8351609,164,238.48648
1,Cabixi/RO,-13.4956065,-60.5424442,636,12259.05937
D1,Cabixi/RO,-13.4956065,-60.5424442,14,269.85351
1,Cabo Frio/RJ,-22.8804369,-42.0189227,10123,4394.08277
D1,Cabo Frio/RJ,-22.8804369,-42.0189227,511,221.80937
1,Cabo Verde/MG,-21.4743338,-46.3964995,343,2436.94494
D1,Cabo Verde/MG,-21.4743338,-46.3964995,5,35.52398
1,Cabo de Santo Agostinho/PE,-8.2838945,-35.0320984,4548,2176.65977
D1,Cabo de Santo Agostinho/PE,-8.2838945,-35.0320984,388,185.69569
1,Cabreúva/SP,-23.3075813,-47.1324417,2990,5929.12808
D1,Cabreúva/SP,-23.3075813,-47.1324417,69,136.82603
1,Cabrobó/PE,-8.5083701,-39.3106961,1523,4414.10892
D1,Cabrobó/PE,-8.5083701,-39.3106961,19,55.06768
1,Cabrália Paulista/SP,-22.4562909,-49.3385645,237,5585.67052
D1,Cabrália Paulista/SP,-22.4562909,-49.3385645,2,47.13646
1,Cacaulândia/RO,-10.3380043,-62.9007231,750,11963.63056
D1,Cacaulândia/RO,-10.3380043,-62.9007231,9,143.56357
1,Cacequi/RS,-29.8838059,-54.8273443,318,2559.76817
D1,Cacequi/RS,-29.8838059,-54.8273443,6,48.29751
1,Cachoeira Alta/GO,-18.7618269,-50.9432431,1163,9182.06221
D1,Cachoeira Alta/GO,-18.7618269,-50.9432431,17,134.21759
1,Cachoeira Dourada/GO,-18.4934204,-49.481062,377,4694.30955
D1,Cachoeira Dourada/GO,-18.4934204,-49.481062,13,161.87274
1,Cachoeira Dourada/MG,-18.517136,-49.5002062,134,4951.95861
D1,Cachoeira Dourada/MG,-18.517136,-49.5002062,2,73.90983
1,Cachoeira Grande/MA,-2.9290492,-44.0573223,217,2289.51256
D1,Cachoeira Grande/MA,-2.9290492,-44.0573223,5,52.75375
1,Cachoeira Paulista/SP,-22.666498,-45.015384,1882,5604.35961
D1,Cachoeira Paulista/SP,-22.666498,-45.015384,29,86.35836
1,Cachoeira da Prata/MG,-19.524723,-44.453056,221,6154.27458
D1,Cachoeira da Prata/MG,-19.524723,-44.453056,4,111.38959
1,Cachoeira de Goiás/GO,-16.6688414,-50.6435997,53,3949.32936
D1,Cachoeira de Goiás/GO,-16.6688414,-50.6435997,2,149.03130
1,Cachoeira de Minas/MG,-22.3554043,-45.7796324,511,4413.16176
D1,Cachoeira de Minas/MG,-22.3554043,-45.7796324,7,60.45427
1,Cachoeira de Pajeú/MG,-15.965833,-41.496666,293,3103.15611
D1,Cachoeira de Pajeú/MG,-15.965833,-41.496666,8,84.72781
1,Cachoeira do Arari/PA,-1.0143572,-48.9621089,354,1471.07713
D1,Cachoeira do Arari/PA,-1.0143572,-48.9621089,19,78.95612
1,Cachoeira do Piriá/PA,-1.7599443,-46.5446954,697,2013.92701
D1,Cachoeira do Piriá/PA,-1.7599443,-46.5446954,4,11.55769
1,Cachoeira do Sul/RS,-30.0474778,-52.8905413,6232,7612.16089
D1,Cachoeira do Sul/RS,-30.0474778,-52.8905413,102,124.58928
1,Cachoeira dos Índios/PB,-6.9259193,-38.6742159,548,5317.80689
D1,Cachoeira dos Índios/PB,-6.9259193,-38.6742159,13,126.15235
1,Cachoeira/BA,-12.5998256,-38.9665918,1214,3616.64730
D1,Cachoeira/BA,-12.5998256,-38.9665918,18,53.62410
1,Cachoeiras de Macacu/RJ,-22.4626861,-42.6534414,2374,4003.17016
D1,Cachoeiras de Macacu/RJ,-22.4626861,-42.6534414,82,138.27294
1,Cachoeirinha/PE,-8.4906364,-36.2338963,401,1956.00215
D1,Cachoeirinha/PE,-8.4906364,-36.2338963,23,112.18965
1,Cachoeirinha/RS,-29.9493353,-51.0898927,11798,8989.63731
D1,Cachoeirinha/RS,-29.9493353,-51.0898927,345,262.87717
1,Cachoeirinha/TO,-6.118647,-47.9208885,117,5122.59194
D1,Cachoeirinha/TO,-6.118647,-47.9208885,2,87.56567
1,Cachoeiro de Itapemirim/ES,-20.848084,-41.11129,22139,10512.89479
D1,Cachoeiro de Itapemirim/ES,-20.848084,-41.11129,453,215.11095
1,Cacimba de Areia/PB,-7.1288513,-37.1575194,29,784.84438
D1,Cacimba de Areia/PB,-7.1288513,-37.1575194,1,27.06360
1,Cacimba de Dentro/PB,-6.6425101,-35.7929304,858,4994.76074
D1,Cacimba de Dentro/PB,-6.6425101,-35.7929304,23,133.89219
1,Cacimbas/PB,-7.2125451,-37.0593398,196,2722.60036
D1,Cacimbas/PB,-7.2125451,-37.0593398,6,83.34491
1,Cacimbinhas/AL,-9.401212,-36.991082,548,5032.60171
D1,Cacimbinhas/AL,-9.401212,-36.991082,7,64.28506
1,Cacique Doble/RS,-27.7700117,-51.6616409,326,6424.91131
D1,Cacique Doble/RS,-27.7700117,-51.6616409,6,118.24990
1,Cacoal/RO,-11.4333,-61.4420502,11302,13158.23175
D1,Cacoal/RO,-11.4333,-61.4420502,205,238.66904
1,Caconde/SP,-21.527995,-46.643659,972,5113.36735
D1,Caconde/SP,-21.527995,-46.643659,18,94.69199
1,Caculé/BA,-14.4990734,-42.2233006,1311,5628.78365
D1,Caculé/BA,-14.4990734,-42.2233006,11,47.22854
1,Caetanos/BA,-14.3387456,-40.9085971,547,3744.52355
D1,Caetanos/BA,-14.3387456,-40.9085971,9,61.61008
1,Caetanópolis/MG,-19.2947496,-44.4138386,755,6426.07882
D1,Caetanópolis/MG,-19.2947496,-44.4138386,7,59.57954
1,Caetité/BA,-14.0691776,-42.4852428,1917,3752.86310
D1,Caetité/BA,-14.0691776,-42.4852428,19,37.19583
1,Caeté/MG,-19.897777,-43.670278,1460,3241.05934
D1,Caeté/MG,-19.897777,-43.670278,41,91.01605
1,Caetés/PE,-8.7728788,-36.6255835,1109,3836.83919
D1,Caetés/PE,-8.7728788,-36.6255835,16,55.35566
1,Cafarnaum/BA,-11.691399,-41.468823,750,4051.20726
D1,Cafarnaum/BA,-11.691399,-41.468823,16,86.42575
1,Cafeara/PR,-22.78905,-51.714195,224,7582.93839
D1,Cafeara/PR,-22.78905,-51.714195,8,270.81923
1,Cafelândia/PR,-24.6176963,-53.3218057,1400,7585.60902
D1,Cafelândia/PR,-24.6176963,-53.3218057,9,48.76463
1,Cafelândia/SP,-21.8054355,-49.6030627,638,3575.63190
D1,Cafelândia/SP,-21.8054355,-49.6030627,30,168.13316
1,Cafezal do Sul/PR,-23.900508,-53.512418,224,5587.42829
D1,Cafezal do Sul/PR,-23.900508,-53.512418,3,74.83163
1,Caiabu/SP,-22.0143038,-51.2356597,69,1645.59981
D1,Caiabu/SP,-22.0143038,-51.2356597,5,119.24636
1,Caiana/MG,-20.695555,-41.924723,122,2201.76863
D1,Caiana/MG,-20.695555,-41.924723,7,126.33099
1,Caiapônia/GO,-16.9538779,-51.8090761,940,4919.66295
D1,Caiapônia/GO,-16.9538779,-51.8090761,31,162.24420
1,Caibaté/RS,-28.290475,-54.645407,205,4250.46651
D1,Caibaté/RS,-28.290475,-54.645407,7,145.13788
1,Caibi/SC,-27.0751925,-53.2502133,542,8841.76183
D1,Caibi/SC,-27.0751925,-53.2502133,10,163.13214
1,Caicó/RN,-6.4594544,-37.0971911,8815,12898.17538
D1,Caicó/RN,-6.4594544,-37.0971911,107,156.56322
1,Caieiras/SP,-23.3644621,-46.7484765,6312,6141.57139
D1,Caieiras/SP,-23.3644621,-46.7484765,223,216.97884
1,Cairu/BA,-13.4860505,-39.0455744,1019,5529.92891
D1,Cairu/BA,-13.4860505,-39.0455744,10,54.26819
1,Caiuá/SP,-21.8319357,-51.9887179,245,4120.41709
D1,Caiuá/SP,-21.8319357,-51.9887179,5,84.09014
1,Caiçara do Norte/RN,-5.0645017,-36.0561226,293,4465.78266
D1,Caiçara do Norte/RN,-5.0645017,-36.0561226,9,137.17421
1,Caiçara do Rio do Vento/RN,-5.757968,-36.00089,209,5625.84118
D1,Caiçara do Rio do Vento/RN,-5.757968,-36.00089,7,188.42530
1,Caiçara/PB,-6.6146866,-35.4681434,611,8496.73203
D1,Caiçara/PB,-6.6146866,-35.4681434,13,180.78153
1,Caiçara/RS,-27.2750478,-53.4310053,406,8638.29787
D1,Caiçara/RS,-27.2750478,-53.4310053,8,170.21277
1,Cajamar/SP,-23.3561111,-46.8769444,3420,4388.32859
D1,Cajamar/SP,-23.3561111,-46.8769444,158,202.73565
1,Cajapió/MA,-2.8778715,-44.6746871,71,633.02425
D1,Cajapió/MA,-2.8778715,-44.6746871,3,26.74750
1,Cajari/MA,-3.3213076,-45.0118757,160,822.57982
D1,Cajari/MA,-3.3213076,-45.0118757,5,25.70562
1,Cajati/SP,-24.7272376,-48.1077914,2816,9882.78234
D1,Cajati/SP,-24.7272376,-48.1077914,70,245.66575
1,Cajazeiras do Piauí/PI,-6.794271,-42.3935024,38,1063.53205
D1,Cajazeiras do Piauí/PI,-6.794271,-42.3935024,1,27.98769
1,Cajazeiras/PB,-6.8897849,-38.5570389,6489,10417.56972
D1,Cajazeiras/PB,-6.8897849,-38.5570389,115,184.62329
1,Cajazeirinhas/PB,-6.961442,-37.7993733,110,3432.13729
1,Cajobi/SP,-20.8776238,-48.8106972,683,6445.82861
D1,Cajobi/SP,-20.8776238,-48.8106972,21,198.18800
1,Cajueiro da Praia/PI,-2.931114,-41.340801,466,6072.45244
D1,Cajueiro da Praia/PI,-2.931114,-41.340801,15,195.46521
1,Cajueiro/AL,-9.399589,-36.1524309,496,2325.25432
D1,Cajueiro/AL,-9.399589,-36.1524309,19,89.07224
1,Cajuri/MG,-20.7901414,-42.7954489,295,7423.25113
D1,Cajuri/MG,-20.7901414,-42.7954489,1,25.16356
1,Cajuru/SP,-21.2759978,-47.3046035,714,2705.26276
D1,Cajuru/SP,-21.2759978,-47.3046035,21,79.56655
1,Caldas Brandão/PB,-7.1027959,-35.3254676,456,7542.17665
D1,Caldas Brandão/PB,-7.1027959,-35.3254676,7,115.77903
1,Caldas Novas/GO,-17.745,-48.625,6992,7502.46792
D1,Caldas Novas/GO,-17.745,-48.625,172,184.55728
1,Caldas/MG,-21.923611,-46.386111,591,4064.36971
D1,Caldas/MG,-21.923611,-46.386111,19,130.66502
1,Caldazinha/GO,-16.7116649,-49.0012601,210,5457.38046
D1,Caldazinha/GO,-16.7116649,-49.0012601,4,103.95010
1,Caldeirão Grande do Piauí/PI,-7.3310393,-40.6374433,271,4687.77028
D1,Caldeirão Grande do Piauí/PI,-7.3310393,-40.6374433,2,34.59609
1,Caldeirão Grande/BA,-11.0208483,-40.3041387,536,4002.68837
D1,Caldeirão Grande/BA,-11.0208483,-40.3041387,6,44.80621
1,Califórnia/PR,-23.6672543,-51.3554556,777,9028.58471
D1,Califórnia/PR,-23.6672543,-51.3554556,14,162.67720
1,Calmon/SC,-26.6023644,-51.0992893,27,809.59520
D1,Calmon/SC,-26.6023644,-51.0992893,3,89.95502
1,Calumbi/PE,-7.9389746,-38.1516871,427,7429.96346
D1,Calumbi/PE,-7.9389746,-38.1516871,3,52.20115
1,Calçado/PE,-8.7413446,-36.3351787,340,3085.85950
D1,Calçado/PE,-8.7413446,-36.3351787,2,18.15211
1,Calçoene/AP,2.4981757,-50.9539503,1588,14045.63948
D1,Calçoene/AP,2.4981757,-50.9539503,10,88.44861
1,Camacan/BA,-15.4166631,-39.4930088,2377,7426.73249
D1,Camacan/BA,-15.4166631,-39.4930088,59,184.34044
1,Camacho/MG,-20.625556,-45.156667,49,1707.91216
D1,Camacho/MG,-20.625556,-45.156667,1,34.85535
1,Camalaú/PB,-7.885031,-36.824191,359,5952.57835
D1,Camalaú/PB,-7.885031,-36.824191,5,82.90499
1,Camamu/BA,-13.9438142,-39.1060917,1930,5454.75100
D1,Camamu/BA,-13.9438142,-39.1060917,39,110.22554
1,Camanducaia/MG,-22.755278,-46.144444,2338,10724.27870
D1,Camanducaia/MG,-22.755278,-46.144444,48,220.17339
1,Camapuã/MS,-19.5291747,-54.0434641,587,4286.86190
D1,Camapuã/MS,-19.5291747,-54.0434641,20,146.06003
1,Camaquã/RS,-30.8524752,-51.8075619,5900,8875.11658
D1,Camaquã/RS,-30.8524752,-51.8075619,112,168.47679
1,Camaragibe/PE,-8.0213832,-34.9810768,4425,2784.78782
D1,Camaragibe/PE,-8.0213832,-34.9810768,309,194.46315
1,Camargo/RS,-28.5865661,-52.2031474,275,10029.17578
D1,Camargo/RS,-28.5865661,-52.2031474,5,182.34865
1,Camaçari/BA,-12.6998188,-38.3260762,20282,6665.08929
D1,Camaçari/BA,-12.6998188,-38.3260762,515,169.23977
1,Cambará do Sul/RS,-29.0489517,-50.145412,289,4511.39557
D1,Cambará do Sul/RS,-29.0489517,-50.145412,8,124.88292
1,Cambará/PR,-23.042273,-50.075281,1806,7091.80869
D1,Cambará/PR,-23.042273,-50.075281,36,141.36496
1,Cambira/PR,-23.600265,-51.581045,648,8184.91853
D1,Cambira/PR,-23.600265,-51.581045,13,164.20361
1,Camboriú/SC,-27.0273601,-48.6535657,10863,12764.23242
D1,Camboriú/SC,-27.0273601,-48.6535657,142,166.85271
1,Cambuci/RJ,-21.5749919,-41.9107833,699,4505.60784
D1,Cambuci/RJ,-21.5749919,-41.9107833,23,148.25319
1,Cambuquira/MG,-21.853056,-45.2953619,412,3215.73525
D1,Cambuquira/MG,-21.853056,-45.2953619,13,101.46737
1,Cambuí/MG,-22.6122501,-46.0572137,2399,8046.55531
D1,Cambuí/MG,-22.6122501,-46.0572137,35,117.39451
1,Cambé/PR,-23.2782035,-51.2779583,8981,8366.79368
D1,Cambé/PR,-23.2782035,-51.2779583,178,165.82666
1,Cametá/PA,-2.242949,-49.497885,6752,4844.86668
D1,Cametá/PA,-2.242949,-49.497885,190,136.33363
1,Camocim de São Félix/PE,-8.3616757,-35.7638903,420,2222.22222
D1,Camocim de São Félix/PE,-8.3616757,-35.7638903,12,63.49206
1,Camocim/CE,-2.9009918,-40.8427389,4698,7351.30737
D1,Camocim/CE,-2.9009918,-40.8427389,133,208.11492
1,Campanha/MG,-21.8361108,-45.401986,1080,6443.14521
D1,Campanha/MG,-21.8361108,-45.401986,22,131.24925
1,Campanário/MG,-18.2398144,-41.7271768,177,4745.30831
D1,Campanário/MG,-18.2398144,-41.7271768,2,53.61930
1,Campestre da Serra/RS,-28.7966535,-51.0958149,140,4123.71134
1,Campestre de Goiás/GO,-16.7624179,-49.69497,421,11537.40751
D1,Campestre de Goiás/GO,-16.7624179,-49.69497,10,274.04768
1,Campestre do Maranhão/MA,-6.1729113,-47.3640512,884,6116.37722
D1,Campestre do Maranhão/MA,-6.1729113,-47.3640512,39,269.84017
1,Campestre/AL,-8.8481634,-35.5660033,238,3422.49065
D1,Campestre/AL,-8.8481634,-35.5660033,6,86.28128
1,Campestre/MG,-19.6142116,-43.219378,811,3851.99962
D1,Campestre/MG,-19.6142116,-43.219378,18,85.49444
1,Campina Grande do Sul/PR,-25.3046032,-49.0545355,4094,9371.63786
D1,Campina Grande do Sul/PR,-25.3046032,-49.0545355,82,187.70745
1,Campina Grande/PB,-7.2246743,-35.8771292,26733,6491.63322
D1,Campina Grande/PB,-7.2246743,-35.8771292,773,187.70929
1,Campina Verde/MG,-19.535277,-49.486389,841,4257.79668
D1,Campina Verde/MG,-19.535277,-49.486389,24,121.50668
1,Campina da Lagoa/PR,-24.5937926,-52.8038965,887,6316.31418
D1,Campina da Lagoa/PR,-24.5937926,-52.8038965,20,142.41971
