type,name,lat,lon,total,total_per_100k_inhabitants
1,Abadia de Goiás/GO,-16.7572644,-49.4412205,3791,41395.50120
D1,Abadia de Goiás/GO,-16.7572644,-49.4412205,49,535.05132
1,Abadia dos Dourados/MG,-18.4911191,-47.4063589,1917,27299.91455
D1,Abadia dos Dourados/MG,-18.4911191,-47.4063589,20,284.81914
1,Abadiânia/GO,-16.1940946,-48.7067767,2094,10032.09888
D1,Abadiânia/GO,-16.1940946,-48.7067767,55,263.49830
1,Abaetetuba/PA,-1.721828,-48.878843,11584,7220.18960
D1,Abaetetuba/PA,-1.721828,-48.878843,243,151.45943
1,Abaeté/MG,-19.1566833,-45.4481213,3991,17155.99880
D1,Abaeté/MG,-19.1566833,-45.4481213,48,206.33624
1,Abaiara/CE,-7.3607808,-39.0487878,1357,11341.41245
D1,Abaiara/CE,-7.3607808,-39.0487878,20,167.15420
1,Abaré/BA,-8.7239913,-39.1139689,2959,14368.26260
D1,Abaré/BA,-8.7239913,-39.1139689,18,87.40410
1,Abatiá/PR,-23.3052967,-50.3102532,1767,24008.15217
D1,Abatiá/PR,-23.3052967,-50.3102532,24,326.08696
1,Abaíra/BA,-13.2503296,-41.6640342,359,4135.46826
D1,Abaíra/BA,-13.2503296,-41.6640342,17,195.82997
1,Abdon Batista/SC,-27.612419,-51.022992,538,21231.25493
D1,Abdon Batista/SC,-27.612419,-51.022992,4,157.85320
1,Abel Figueiredo/PA,-4.953001,-48.3958485,1452,19267.51592
D1,Abel Figueiredo/PA,-4.953001,-48.3958485,12,159.23567
1,Abelardo Luz/SC,-26.5705893,-52.3280339,2604,14454.62115
D1,Abelardo Luz/SC,-26.5705893,-52.3280339,69,383.01415
1,Abre Campo/MG,-20.2976097,-42.4764741,2138,15914.84294
D1,Abre Campo/MG,-20.2976097,-42.4764741,19,141.43219
1,Abreu e Lima/PE,-7.900719,-34.898389,5493,5454.92463
D1,Abreu e Lima/PE,-7.900719,-34.898389,261,259.19085
1,Abreulândia/TO,-9.6221526,-49.1558343,523,20045.99463
D1,Abreulândia/TO,-9.6221526,-49.1558343,8,306.63089
1,Acaiaca/MG,-20.3621646,-43.1444162,290,7259.07384
D1,Acaiaca/MG,-20.3621646,-43.1444162,12,300.37547
1,Acajutiba/BA,-11.6609659,-38.0186381,736,4837.64953
D1,Acajutiba/BA,-11.6609659,-38.0186381,28,184.04101
1,Acarape/CE,-4.2237866,-38.7071663,3409,22516.51255
D1,Acarape/CE,-4.2237866,-38.7071663,36,237.78071
1,Acaraú/CE,-2.8869514,-40.1194713,7932,12480.33231
D1,Acaraú/CE,-2.8869514,-40.1194713,121,190.38328
1,Acari/RN,-6.4364689,-36.6394777,1493,13443.18386
D1,Acari/RN,-6.4364689,-36.6394777,26,234.10769
1,Acará/PA,-1.961388,-48.1987043,2545,4565.51378
D1,Acará/PA,-1.961388,-48.1987043,45,80.72618
1,Acauã/PI,-8.219542,-41.083059,255,3581.96376
D1,Acauã/PI,-8.219542,-41.083059,2,28.09383
1,Aceguá/RS,-31.8695131,-54.1615593,1086,21802.85083
D1,Aceguá/RS,-31.8695131,-54.1615593,8,160.61032
1,Acopiara/CE,-6.0936464,-39.4543204,6361,11631.64920
D1,Acopiara/CE,-6.0936464,-39.4543204,179,327.31728
1,Acorizal/MT,-15.2001544,-56.3668953,1621,30533.05707
D1,Acorizal/MT,-15.2001544,-56.3668953,24,452.06254
1,Acrelândia/AC,-10.0759167,-67.0526898,3445,21913.36429
D1,Acrelândia/AC,-10.0759167,-67.0526898,40,254.43674
1,Acreúna/GO,-17.3959899,-50.3749031,5967,26274.76882
D1,Acreúna/GO,-17.3959899,-50.3749031,84,369.88111
1,Adamantina/SP,-21.6866517,-51.0762975,10880,30950.41675
D1,Adamantina/SP,-21.6866517,-51.0762975,186,529.11558
1,Adelândia/GO,-16.4155077,-50.1665834,697,27713.71769
D1,Adelândia/GO,-16.4155077,-50.1665834,6,238.56859
1,Adolfo/SP,-21.2356597,-49.6441918,1037,29252.46827
D1,Adolfo/SP,-21.2356597,-49.6441918,28,789.84485
1,Adrianópolis/PR,-24.6557863,-48.9912769,2006,34604.10557
D1,Adrianópolis/PR,-24.6557863,-48.9912769,31,534.75936
1,Adustina/BA,-10.5358875,-38.114479,1736,10087.74478
D1,Adustina/BA,-10.5358875,-38.114479,29,168.51647
1,Afogados da Ingazeira/PE,-7.750429,-37.6356375,9852,26239.81250
D1,Afogados da Ingazeira/PE,-7.750429,-37.6356375,81,215.73536
1,Afonso Bezerra/RN,-5.4745,-36.57625071327935,1318,11955.73295
D1,Afonso Bezerra/RN,-5.4745,-36.57625071327935,19,172.35123
1,Afonso Cláudio/ES,-20.077841,-41.12606,8498,28022.15920
D1,Afonso Cláudio/ES,-20.077841,-41.12606,86,283.58504
1,Afonso Cunha/MA,-4.1326105,-43.3230026,451,6801.38742
D1,Afonso Cunha/MA,-4.1326105,-43.3230026,2,30.16136
1,Afrânio/PE,-8.5198919,-41.0070197,1650,8257.84495
D1,Afrânio/PE,-8.5198919,-41.0070197,16,80.07607
1,Afuá/PA,-0.1535664,-50.3879223,3574,8955.14909
D1,Afuá/PA,-0.1535664,-50.3879223,20,50.11275
1,Agrestina/PE,-8.4558021,-35.9442663,3129,12396.98891
D1,Agrestina/PE,-8.4558021,-35.9442663,73,289.22345
1,Agricolândia/PI,-5.7967843,-42.6605131,1041,20320.12493
D1,Agricolândia/PI,-5.7967843,-42.6605131,11,214.71794
1,Agrolândia/SC,-27.4122212,-49.8295774,2356,21111.11111
D1,Agrolândia/SC,-27.4122212,-49.8295774,35,313.62007
1,Agronômica/SC,-27.2660744,-49.7104753,1321,23716.33752
D1,Agronômica/SC,-27.2660744,-49.7104753,15,269.29982
1,Aguanil/MG,-20.9424533,-45.3927152,1297,28461.70726
D1,Aguanil/MG,-20.9424533,-45.3927152,8,175.55409
1,Aguaí/SP,-22.0592036,-46.979384,6880,18604.14808
D1,Aguaí/SP,-22.0592036,-46.979384,136,367.75642
1,Agudo/RS,-29.6423259,-53.2494005,3481,21298.33578
D1,Agudo/RS,-29.6423259,-53.2494005,39,238.61968
1,Agudos do Sul/PR,-25.9890808,-49.3328175,1765,18448.83454
D1,Agudos do Sul/PR,-25.9890808,-49.3328175,38,397.19870
1,Agudos/SP,-22.471162,-48.987822,8173,21747.11298
D1,Agudos/SP,-22.471162,-48.987822,123,327.28434
1,Aguiar/PB,-7.0928404,-38.1727215,920,16364.28317
D1,Aguiar/PB,-7.0928404,-38.1727215,7,124.51085
1,Aguiarnópolis/TO,-6.5600452,-47.4721189,1107,15704.35523
D1,Aguiarnópolis/TO,-6.5600452,-47.4721189,15,212.79614
1,Aimorés/MG,-19.4917754,-41.0615603,3909,15563.78404
D1,Aimorés/MG,-19.4917754,-41.0615603,91,362.31884
1,Aiquara/BA,-14.126918,-39.8887574,673,15340.77958
D1,Aiquara/BA,-14.126918,-39.8887574,12,273.53545
1,Aiuaba/CE,-6.5710836,-40.1212278,1229,6989.30846
D1,Aiuaba/CE,-6.5710836,-40.1212278,16,90.99181
1,Aiuruoca/MG,-21.9759554,-44.6036637,1136,19095.64633
D1,Aiuruoca/MG,-21.9759554,-44.6036637,15,252.14322
1,Ajuricaba/RS,-28.239654,-53.7693013,2666,38354.19364
D1,Ajuricaba/RS,-28.239654,-53.7693013,39,561.07035
1,Alagoa Grande/PB,-7.0415212,-35.6285322,6143,21642.47463
D1,Alagoa Grande/PB,-7.0415212,-35.6285322,85,299.46449
1,Alagoa Nova/PB,-7.0653703,-35.76695977336711,3305,15744.09299
D1,Alagoa Nova/PB,-7.0653703,-35.76695977336711,39,185.78506
1,Alagoa/MG,-22.1697202,-44.6400042,693,26082.04742
D1,Alagoa/MG,-22.1697202,-44.6400042,9,338.72789
1,Alagoinha do Piauí/PI,-7.0090952,-40.939675,410,5339.93227
D1,Alagoinha do Piauí/PI,-7.0090952,-40.939675,13,169.31493
1,Alagoinha/PB,-6.97063215,-35.51490901897793,2554,17458.47290
D1,Alagoinha/PB,-6.97063215,-35.51490901897793,26,177.72917
1,Alagoinha/PE,-8.50355635,-36.77701174370496,3469,23442.35708
D1,Alagoinha/PE,-8.50355635,-36.77701174370496,31,209.48777
1,Alagoinhas/BA,-12.133526,-38.420772,20118,13147.04325
D1,Alagoinhas/BA,-12.133526,-38.420772,368,240.48672
1,Alambari/SP,-23.550338,-47.897971,1556,24971.91462
D1,Alambari/SP,-23.550338,-47.897971,14,224.68304
1,Albertina/MG,-20.66164,-43.784039,827,27429.51907
D1,Albertina/MG,-20.66164,-43.784039,12,398.00995
1,Alcantil/PB,-7.7425491,-36.0609604,1339,24226.52434
D1,Alcantil/PB,-7.7425491,-36.0609604,9,162.83698
1,Alcinópolis/MS,-18.3264121,-53.7094463,977,17799.23483
D1,Alcinópolis/MS,-18.3264121,-53.7094463,15,273.27382
1,Alcobaça/BA,-17.5215875,-39.1965474,2750,12217.33529
D1,Alcobaça/BA,-17.5215875,-39.1965474,32,142.16536
1,Alcântara/MA,-2.4038956,-44.4154241,337,1523.09500
D1,Alcântara/MA,-2.4038956,-44.4154241,21,94.91096
1,Alcântaras/CE,-3.586247,-40.5457641,2522,21289.88688
D1,Alcântaras/CE,-3.586247,-40.5457641,23,194.15837
1,Aldeias Altas/MA,-4.6291957,-43.4708622,1175,4355.23926
D1,Aldeias Altas/MA,-4.6291957,-43.4708622,14,51.89221
1,Alecrim/RS,-27.6566142,-54.7653195,667,11681.26095
D1,Alecrim/RS,-27.6566142,-54.7653195,13,227.67075
1,Alegre/ES,-20.7625787,-41.5318886,9099,30463.02186
D1,Alegre/ES,-20.7625787,-41.5318886,93,311.35960
1,Alegrete do Piauí/PI,-7.2440138,-40.8602296,657,13350.94493
D1,Alegrete do Piauí/PI,-7.2440138,-40.8602296,9,182.88966
1,Alegrete/RS,-29.790166,-55.794862,19933,27496.44793
D1,Alegrete/RS,-29.790166,-55.794862,331,456.59581
1,Alegria/RS,-27.8332103,-54.0574959,628,19105.56739
D1,Alegria/RS,-27.8332103,-54.0574959,5,152.11439
1,Alenquer/PA,-1.946229,-54.738355,6043,10529.70901
D1,Alenquer/PA,-1.946229,-54.738355,176,306.67364
1,Alexandria/RN,-6.414779,-38.0135516,2574,19025.79644
D1,Alexandria/RN,-6.414779,-38.0135516,33,243.92047
1,Alexânia/GO,-16.0834049,-48.5077803,7911,27894.92243
D1,Alexânia/GO,-16.0834049,-48.5077803,117,412.55289
1,Alfenas/MG,-21.4297405,-45.9479419,24215,29905.03007
D1,Alfenas/MG,-21.4297405,-45.9479419,260,321.09469
1,Alfredo Chaves/ES,-20.624970400000002,-40.75006690147988,5537,37743.69461
D1,Alfredo Chaves/ES,-20.624970400000002,-40.75006690147988,47,320.38173
1,Alfredo Marcondes/SP,-21.9527,-51.413956,311,7402.99929
D1,Alfredo Marcondes/SP,-21.9527,-51.413956,21,499.88098
1,Alfredo Vasconcelos/MG,-21.145833,-43.776389,1594,22603.51673
D1,Alfredo Vasconcelos/MG,-21.145833,-43.776389,16,226.88599
1,Alfredo Wagner/SC,-27.6961513,-49.3326734,1454,14344.90923
D1,Alfredo Wagner/SC,-27.6961513,-49.3326734,12,118.38990
1,Algodão de Jandaíra/PB,-6.9040175,-36.0089879,544,21020.09274
D1,Algodão de Jandaíra/PB,-6.9040175,-36.0089879,2,77.27975
1,Alhandra/PB,-7.4304246,-34.9106103,3472,17477.97634
D1,Alhandra/PB,-7.4304246,-34.9106103,49,246.66499
1,Aliança do Tocantins/TO,-11.3055927,-48.9409096,1331,25099.00057
D1,Aliança do Tocantins/TO,-11.3055927,-48.9409096,25,471.43127
1,Aliança/PE,-7.60398,-35.222696,2594,6753.80129
D1,Aliança/PE,-7.60398,-35.222696,87,226.51531
1,Almadina/BA,-14.70466,-39.6381994,885,16783.61464
D1,Almadina/BA,-14.70466,-39.6381994,13,246.53897
1,Almas/TO,-11.5681309,-47.1702803,332,4808.11007
D1,Almas/TO,-11.5681309,-47.1702803,5,72.41130
1,Almeirim/PA,-1.5290377,-52.5788111,4818,14152.27353
D1,Almeirim/PA,-1.5290377,-52.5788111,57,167.43038
1,Almenara/MG,-16.1740678,-40.6904907,7377,17406.79566
D1,Almenara/MG,-16.1740678,-40.6904907,71,167.53185
1,Almino Afonso/RN,-6.1544208,-37.7649018,778,16606.18997
D1,Almino Afonso/RN,-6.1544208,-37.7649018,16,341.51547
1,Almirante Tamandaré do Sul/RS,-28.1141129,-52.9134874,660,34108.52713
D1,Almirante Tamandaré do Sul/RS,-28.1141129,-52.9134874,7,361.75711
1,Almirante Tamandaré/PR,-25.3133048,-49.2997838,17856,14705.97925
D1,Almirante Tamandaré/PR,-25.3133048,-49.2997838,497,409.32301
1,Aloândia/GO,-17.7277983,-49.4809338,682,34514.17004
D1,Aloândia/GO,-17.7277983,-49.4809338,12,607.28745
1,Alpercata/MG,-18.9803616,-41.9827637,589,7908.16327
D1,Alpercata/MG,-18.9803616,-41.9827637,25,335.66058
1,Alpestre/RS,-27.2512339,-53.0349646,1447,24587.93543
D1,Alpestre/RS,-27.2512339,-53.0349646,17,288.87001
1,Alpinópolis/MG,-20.863611,-46.387777,4721,23535.57007
D1,Alpinópolis/MG,-20.863611,-46.387777,52,259.23526
1,Alta Floresta D'Oeste/RO,-11.9296917,-61.9961284,9048,40184.75751
D1,Alta Floresta D'Oeste/RO,-11.9296917,-61.9961284,83,368.62675
1,Alta Floresta/MT,-9.8715018,-56.0839881,18532,35566.64428
D1,Alta Floresta/MT,-9.8715018,-56.0839881,189,362.72910
1,Altair/SP,-20.5238955,-49.0606135,321,7622.89242
D1,Altair/SP,-20.5238955,-49.0606135,18,427.45191
1,Altamira do Maranhão/MA,-4.1643006,-45.4674574,538,6521.21212
D1,Altamira do Maranhão/MA,-4.1643006,-45.4674574,14,169.69697
1,Altamira do Paraná/PR,-24.799114,-52.7128633,604,42267.31980
D1,Altamira do Paraná/PR,-24.799114,-52.7128633,15,1049.68509
1,Altamira/PA,-3.204065,-52.209961,24814,21150.69894
D1,Altamira/PA,-3.204065,-52.209961,360,306.85305
1,Altaneira/CE,-6.9980933,-39.7385742,1137,14743.25726
D1,Altaneira/CE,-6.9980933,-39.7385742,20,259.33610
1,Alterosa/MG,-21.249166,-46.143055,2262,15529.31484
D1,Alterosa/MG,-21.249166,-46.143055,42,288.34272
1,Altinho/PE,-8.4904095,-36.0607494,1961,8527.57001
D1,Altinho/PE,-8.4904095,-36.0607494,30,130.45747
1,Altinópolis/SP,-21.021364,-47.3712,1244,7669.07096
D1,Altinópolis/SP,-21.021364,-47.3712,68,419.20967
1,Alto Alegre do Maranhão/MA,-4.2055693,-44.4525287,2202,7845.79206
D1,Alto Alegre do Maranhão/MA,-4.2055693,-44.4525287,28,99.76484
1,Alto Alegre do Pindaré/MA,-3.6698186,-45.8462153,2938,9190.72794
D1,Alto Alegre do Pindaré/MA,-3.6698186,-45.8462153,54,168.92420
1,Alto Alegre dos Parecis/RO,-12.1314515,-61.856265,2402,18103.70817
D1,Alto Alegre dos Parecis/RO,-12.1314515,-61.856265,51,384.38348
1,Alto Alegre/RR,2.98858,-61.307167,2660,17443.76680
D1,Alto Alegre/RR,2.98858,-61.307167,39,255.75448
1,Alto Alegre/RS,-31.780844700000003,-52.81311114489171,434,27295.59748
D1,Alto Alegre/RS,-31.780844700000003,-52.81311114489171,3,188.67925
1,Alto Alegre/SP,-21.5820592,-50.1661976,420,10299.16626
D1,Alto Alegre/SP,-21.5820592,-50.1661976,27,662.08926
1,Alto Araguaia/MT,-17.3156528,-53.2169365,3488,17693.01004
D1,Alto Araguaia/MT,-17.3156528,-53.2169365,35,177.53880
1,Alto Bela Vista/SC,-27.4320737,-51.905771,510,26631.85379
D1,Alto Bela Vista/SC,-27.4320737,-51.905771,3,156.65796
1,Alto Boa Vista/MT,-11.6723985,-51.3744431,1622,22870.84038
D1,Alto Boa Vista/MT,-11.6723985,-51.3744431,20,282.00790
1,Alto Caparaó/MG,-20.4405661,-41.8683799,682,11485.34860
D1,Alto Caparaó/MG,-20.4405661,-41.8683799,10,168.40687
1,Alto Feliz/RS,-29.3785943,-51.3123751,769,25271.11403
D1,Alto Feliz/RS,-29.3785943,-51.3123751,4,131.44923
1,Alto Garças/MT,-16.9469683,-53.529427,1455,11807.18981
D1,Alto Garças/MT,-16.9469683,-53.529427,46,373.28573
1,Alto Horizonte/GO,-14.1954948,-49.3366993,3077,45276.63331
D1,Alto Horizonte/GO,-14.1954948,-49.3366993,16,235.43261
1,Alto Jequitibá/MG,-20.423611,-41.966111,1516,18295.92083
D1,Alto Jequitibá/MG,-20.423611,-41.966111,16,193.09679
1,Alto Longá/PI,-5.2549051,-42.2072388,956,6652.28585
D1,Alto Longá/PI,-5.2549051,-42.2072388,17,118.29379
1,Alto Paraguai/MT,-14.513712,-56.4936374,1008,8699.40451
D1,Alto Paraguai/MT,-14.513712,-56.4936374,32,276.17157
1,Alto Paraná/PR,-23.131247,-52.318893,3193,21365.00502
D1,Alto Paraná/PR,-23.131247,-52.318893,28,187.35363
1,Alto Paraíso de Goiás/GO,-14.1304779,-47.5100161,1810,23351.82557
D1,Alto Paraíso de Goiás/GO,-14.1304779,-47.5100161,10,129.01561
1,Alto Paraíso/PR,-23.508137,-53.728537,1337,50836.50190
D1,Alto Paraíso/PR,-23.508137,-53.728537,11,418.25095
1,Alto Paraíso/RO,-9.7240103,-63.3188123,4457,20024.26094
D1,Alto Paraíso/RO,-9.7240103,-63.3188123,65,292.02983
1,Alto Parnaíba/MA,-9.112506,-45.9310154,1021,9089.29048
D1,Alto Parnaíba/MA,-9.112506,-45.9310154,11,97.92575
1,Alto Piquiri/PR,-24.0239021,-53.4417448,2597,26712.61057
D1,Alto Piquiri/PR,-24.0239021,-53.4417448,32,329.15038
1,Alto Rio Doce/MG,-21.0239537,-43.4133507,1254,11694.48848
D1,Alto Rio Doce/MG,-21.0239537,-43.4133507,33,307.74970
1,Alto Rio Novo/ES,-19.0577208,-41.0171518,1612,20376.69068
D1,Alto Rio Novo/ES,-19.0577208,-41.0171518,29,366.57818
1,Alto Santo/CE,-5.5190371,-38.2719351,3311,20594.63830
D1,Alto Santo/CE,-5.5190371,-38.2719351,44,273.68290
1,Alto Taquari/MT,-17.8269099,-53.2831736,1690,14807.67546
D1,Alto Taquari/MT,-17.8269099,-53.2831736,30,262.85814
1,Alto do Rodrigues/RN,-5.290868,-36.7616726,4149,27802.72063
D1,Alto do Rodrigues/RN,-5.290868,-36.7616726,49,328.35221
1,Altos/PI,-5.0393915,-42.4611694,6419,15778.86483
D1,Altos/PI,-5.0393915,-42.4611694,117,287.60355
1,Altônia/PR,-23.8722004,-53.894037,4810,21576.27955
D1,Altônia/PR,-23.8722004,-53.894037,55,246.71422
1,Alumínio/SP,-23.5203479,-47.2575256,1741,9210.17828
D1,Alumínio/SP,-23.5203479,-47.2575256,56,296.24927
1,Alvarenga/MG,-19.4175,-41.728334,715,18900.34364
D1,Alvarenga/MG,-19.4175,-41.728334,7,185.03833
1,Alvarães/AM,-3.214786,-64.8143124,3896,23761.89314
D1,Alvarães/AM,-3.214786,-64.8143124,46,280.55623
1,Alvinlândia/SP,-22.4431852,-49.7643596,156,4798.52353
D1,Alvinlândia/SP,-22.4431852,-49.7643596,10,307.59766
1,Alvinópolis/MG,-20.1105199,-43.0601805,2516,16623.71985
D1,Alvinópolis/MG,-20.1105199,-43.0601805,25,165.18005
1,Alvorada D'Oeste/RO,-11.346271,-62.284697,4127,29890.63519
D1,Alvorada D'Oeste/RO,-11.346271,-62.284697,44,318.67893
1,Alvorada de Minas/MG,-18.7318587,-43.3641479,542,15034.67406
D1,Alvorada de Minas/MG,-18.7318587,-43.3641479,4,110.95700
1,Alvorada do Gurguéia/PI,-8.4465288,-43.8655915,990,18102.02962
D1,Alvorada do Gurguéia/PI,-8.4465288,-43.8655915,14,255.98830
1,Alvorada do Norte/GO,-14.483911,-46.4959897,1603,18322.09395
D1,Alvorada do Norte/GO,-14.483911,-46.4959897,21,240.02743
1,Alvorada do Sul/PR,-22.7807269,-51.2307721,1690,14571.47784
D1,Alvorada do Sul/PR,-22.7807269,-51.2307721,41,353.50923
1,Alvorada/RS,-29.9981184,-51.0772509,38958,18345.95389
D1,Alvorada/RS,-29.9981184,-51.0772509,920,433.24292
1,Alvorada/TO,-12.478465,-49.124926,3628,43288.39041
D1,Alvorada/TO,-12.478465,-49.124926,32,381.81601
1,Além Paraíba/MG,-21.8760576,-42.6810473,7711,21759.12862
D1,Além Paraíba/MG,-21.8760576,-42.6810473,173,488.17653
1,Amajari/RR,3.6523869,-61.4194315,1533,11304.47607
D1,Amajari/RR,3.6523869,-61.4194315,26,191.72627
1,Amambai/MS,-23.1082701,-55.2284854,6282,15608.61679
D1,Amambai/MS,-23.1082701,-55.2284854,102,253.43504
1,Amaporã/PR,-23.094272,-52.786597,978,15269.32084
D1,Amaporã/PR,-23.094272,-52.786597,8,124.90242
1,Amapá do Maranhão/MA,-1.6762114,-46.0109669,172,2440.75493
D1,Amapá do Maranhão/MA,-1.6762114,-46.0109669,4,56.76174
1,Amapá/AP,2.0529997,-50.7930003,2115,22827.84674
D1,Amapá/AP,2.0529997,-50.7930003,13,140.31301
1,Amaraji/PE,-8.373925,-35.4536527,1425,6219.99127
D1,Amaraji/PE,-8.373925,-35.4536527,50,218.24531
1,Amaral Ferrador/RS,-30.8750633,-52.2542051,598,8380.04484
D1,Amaral Ferrador/RS,-30.8750633,-52.2542051,15,210.20179
1,Amaralina/GO,-13.9236199,-49.2962411,431,11122.58065
D1,Amaralina/GO,-13.9236199,-49.2962411,2,51.61290
1,Amarante do Maranhão/MA,-5.56913,-46.747284,2471,5880.95295
D1,Amarante do Maranhão/MA,-5.56913,-46.747284,64,152.31930
1,Amarante/PI,-6.2459374,-42.8476238,1883,10693.39542
D1,Amarante/PI,-6.2459374,-42.8476238,37,210.11983
1,Amargosa/BA,-13.03793715,-39.60796443875596,5290,14057.55893
D1,Amargosa/BA,-13.03793715,-39.60796443875596,65,172.72993
1,Amaturá/AM,-3.3640509,-68.1994689,2638,22104.91034
D1,Amaturá/AM,-3.3640509,-68.1994689,19,159.20898
1,Americana/SP,-22.7392463,-47.3306032,28237,11555.01903
D1,Americana/SP,-22.7392463,-47.3306032,998,408.39710
1,Americano do Brasil/GO,-16.2515808,-49.9806104,2465,39630.22508
D1,Americano do Brasil/GO,-16.2515808,-49.9806104,28,450.16077
1,Ametista do Sul/RS,-27.3617341,-53.1826575,1889,25540.83288
D1,Ametista do Sul/RS,-27.3617341,-53.1826575,30,405.62466
1,Amontada/CE,-3.3634586,-39.8284791,3787,8568.84263
D1,Amontada/CE,-3.3634586,-39.8284791,64,144.81276
1,Amorinópolis/GO,-16.6211308,-51.0949921,727,24144.80239
D1,Amorinópolis/GO,-16.6211308,-51.0949921,14,464.96181
1,Amparo de São Francisco/SE,-10.1299754,-36.9269099,264,11064.54317
D1,Amparo de São Francisco/SE,-10.1299754,-36.9269099,6,251.46689
1,Amparo do Serra/MG,-20.5070255,-42.8028462,396,8528.96834
D1,Amparo do Serra/MG,-20.5070255,-42.8028462,13,279.99138
1,Amparo/PB,-7.56394725,-37.04652873235175,314,13869.25795
D1,Amparo/PB,-7.56394725,-37.04652873235175,4,176.67845
1,Amparo/SP,-22.70111,-46.76444,10631,14534.14451
D1,Amparo/SP,-22.70111,-46.76444,261,356.82548
1,Ampére/PR,-25.9168712,-53.4742414,6086,31264.76934
D1,Ampére/PR,-25.9168712,-53.4742414,70,359.60136
1,Amélia Rodrigues/BA,-12.4015388,-38.7516971,2961,11845.42145
D1,Amélia Rodrigues/BA,-12.4015388,-38.7516971,56,224.02688
1,América Dourada/BA,-11.4515262,-41.4357517,1297,8062.91185
D1,América Dourada/BA,-11.4515262,-41.4357517,14,87.03220
1,Américo Brasiliense/SP,-21.7297099,-48.1052092,7340,17667.58936
D1,Américo Brasiliense/SP,-21.7297099,-48.1052092,111,267.18017
1,Américo de Campos/SP,-20.298476,-49.735904,1292,21558.48490
D1,Américo de Campos/SP,-20.298476,-49.735904,38,634.07309
1,Anadia/AL,-9.6830208,-36.3052699,1904,10875.64974
D1,Anadia/AL,-9.6830208,-36.3052699,39,222.76804
1,Anagé/BA,-14.6134669,-41.1376308,1300,6123.69871
D1,Anagé/BA,-14.6134669,-41.1376308,32,150.73720
1,Anahy/PR,-24.6450861,-53.1337957,843,30389.32949
D1,Anahy/PR,-24.6450861,-53.1337957,16,576.78443
1,Anajatuba/MA,-3.26441,-44.6179916,1615,5944.05594
D1,Anajatuba/MA,-3.26441,-44.6179916,29,106.73537
1,Anajás/PA,-0.9878802,-49.9390114,1391,4622.64464
D1,Anajás/PA,-0.9878802,-49.9390114,24,79.75807
1,Analândia/SP,-22.128917,-47.661939,615,12023.46041
D1,Analândia/SP,-22.128917,-47.661939,6,117.30205
1,Anamã/AM,-3.5797356,-61.4049996,2529,17695.21411
D1,Anamã/AM,-3.5797356,-61.4049996,11,76.96613
1,Ananindeua/PA,-1.374035,-48.4016623,33539,6206.21380
D1,Ananindeua/PA,-1.374035,-48.4016623,871,161.17392
1,Ananás/TO,-6.3663053,-48.080238,2437,25829.35877
D1,Ananás/TO,-6.3663053,-48.080238,27,286.16852
1,Anapu/PA,-3.4668292,-51.2057035,2906,9914.02838
D1,Anapu/PA,-3.4668292,-51.2057035,71,242.22162
1,Anapurus/MA,-3.6751298,-43.1046001,832,5182.50903
D1,Anapurus/MA,-3.6751298,-43.1046001,15,93.43466
1,Anastácio/MS,-20.4832458,-55.8048448,3466,13680.13893
D1,Anastácio/MS,-20.4832458,-55.8048448,95,374.96053
1,Anaurilândia/MS,-22.185169,-52.719056,1368,15006.58183
D1,Anaurilândia/MS,-22.185169,-52.719056,17,186.48530
1,Anchieta/ES,-20.8057672,-40.6454564,11896,39280.17170
D1,Anchieta/ES,-20.8057672,-40.6454564,116,383.02790
1,Anchieta/SC,-26.5350527,-53.3293938,1300,23735.62169
D1,Anchieta/SC,-26.5350527,-53.3293938,13,237.35622
1,Andaraí/BA,-12.8059674,-41.3322919,1414,10775.79637
D1,Andaraí/BA,-12.8059674,-41.3322919,15,114.31184
1,Andirá/PR,-23.0494761,-50.2310027,5859,29556.57569
D1,Andirá/PR,-23.0494761,-50.2310027,102,514.55380
1,Andorinha/BA,-10.3445708,-39.8334411,1576,10932.29745
D1,Andorinha/BA,-10.3445708,-39.8334411,21,145.67148
1,Andradas/MG,-22.0680484,-46.5688976,7906,18957.41416
D1,Andradas/MG,-22.0680484,-46.5688976,141,338.09707
1,Andradina/SP,-20.896505,-51.3742765,15062,26311.46825
D1,Andradina/SP,-20.896505,-51.3742765,319,557.25391
1,Andrelândia/MG,-21.739722,-44.308889,206,1690.04840
D1,Andrelândia/MG,-21.739722,-44.308889,19,155.87825
1,André da Rocha/RS,-28.6309124,-51.5733328,288,21317.54256
D1,André da Rocha/RS,-28.6309124,-51.5733328,1,74.01925
1,Angatuba/SP,-23.4938938,-48.4110675,5514,21435.23558
D1,Angatuba/SP,-23.4938938,-48.4110675,93,361.53009
1,Angelim/PE,-8.8902038,-36.2872987,327,2893.54924
D1,Angelim/PE,-8.8902038,-36.2872987,16,141.58039
1,Angelina/SC,-27.5805287,-48.9838759,988,21084.08024
D1,Angelina/SC,-27.5805287,-48.9838759,6,128.04097
1,Angelândia/MG,-17.7253,-42.2728,599,6969.97906
D1,Angelândia/MG,-17.7253,-42.2728,4,46.54410
1,Angical do Piauí/PI,-6.0872666,-42.7366138,904,13335.30019
D1,Angical do Piauí/PI,-6.0872666,-42.7366138,13,191.76870
1,Angical/BA,-12.005623,-44.7000236,1304,9379.94533
D1,Angical/BA,-12.005623,-44.7000236,22,158.25061
1,Angico/TO,-6.3893733,-47.8656722,253,7280.57554
D1,Angico/TO,-6.3893733,-47.8656722,4,115.10791
1,Angicos/RN,-5.6666344,-36.6009064,1367,11688.75588
D1,Angicos/RN,-5.6666344,-36.6009064,32,273.62121
1,Angra dos Reis/RJ,-23.0063966,-44.316326,26920,12808.61774
D1,Angra dos Reis/RJ,-23.0063966,-44.316326,615,292.61887
1,Anguera/BA,-12.1509425,-39.2452469,764,6720.02815
D1,Anguera/BA,-12.1509425,-39.2452469,5,43.97924
1,Angélica/MS,-22.1588196,-53.7728504,2338,21099.17877
D1,Angélica/MS,-22.1588196,-53.7728504,24,216.58695
1,Anhanguera/GO,-18.3338749,-48.220363,243,20751.49445
D1,Anhanguera/GO,-18.3338749,-48.220363,7,597.77968
1,Anhembi/SP,-22.7891096,-48.1316776,455,6583.70713
D1,Anhembi/SP,-22.7891096,-48.1316776,15,217.04529
1,Anhumas/SP,-22.2956478,-51.3873401,409,9803.45158
D1,Anhumas/SP,-22.2956478,-51.3873401,10,239.69319
1,Anicuns/GO,-16.4606451,-49.9572265,8752,39578.52847
D1,Anicuns/GO,-16.4606451,-49.9572265,84,379.86705
1,Anita Garibaldi/SC,-27.6855032,-51.1293873,2125,31328.32080
D1,Anita Garibaldi/SC,-27.6855032,-51.1293873,12,176.91287
1,Anitápolis/SC,-27.9041185,-49.1287395,767,23797.70400
D1,Anitápolis/SC,-27.9041185,-49.1287395,6,186.16196
1,Anori/AM,-3.7435254,-61.6605203,2670,12171.21758
D1,Anori/AM,-3.7435254,-61.6605203,33,150.43078
1,Anta Gorda/RS,-28.9718745,-52.0069187,1088,18313.41525
D1,Anta Gorda/RS,-28.9718745,-52.0069187,8,134.65747
1,Antas/BA,-10.4114649,-38.3308815,1490,7579.22580
D1,Antas/BA,-10.4114649,-38.3308815,15,76.30093
1,Antonina do Norte/CE,-6.7754187,-39.9879345,1113,15036.47663
D1,Antonina do Norte/CE,-6.7754187,-39.9879345,28,378.27614
1,Antonina/PR,-25.4298854,-48.7125431,5103,26972.88440
D1,Antonina/PR,-25.4298854,-48.7125431,76,401.71256
1,Antônio Almeida/PI,-7.2186016,-44.1950248,412,12976.37795
D1,Antônio Almeida/PI,-7.2186016,-44.1950248,11,346.45669
1,Antônio Cardoso/BA,-12.4363122,-39.1200307,1198,10265.63839
D1,Antônio Cardoso/BA,-12.4363122,-39.1200307,12,102.82776
1,Antônio Carlos/MG,-21.318334,-43.746666,2292,19980.82120
D1,Antônio Carlos/MG,-21.318334,-43.746666,22,191.78799
1,Antônio Carlos/SC,-27.5168462,-48.7684715,3202,36753.90266
D1,Antônio Carlos/SC,-27.5168462,-48.7684715,29,332.87420
1,Antônio Dias/MG,-19.6525,-42.872778,925,10018.41222
D1,Antônio Dias/MG,-19.6525,-42.872778,29,314.09076
1,Antônio Gonçalves/BA,-10.5715409,-40.2748824,1248,10439.14680
D1,Antônio Gonçalves/BA,-10.5715409,-40.2748824,11,92.01171
1,Antônio João/MS,-22.1892837,-55.9508227,1299,14303.01696
D1,Antônio João/MS,-22.1892837,-55.9508227,21,231.22660
1,Antônio Martins/RN,-6.2155812,-37.8890129,1065,14870.14800
D1,Antônio Martins/RN,-6.2155812,-37.8890129,7,97.73806
1,Antônio Olinto/PR,-25.9849006,-50.1974516,1380,18595.87657
D1,Antônio Olinto/PR,-25.9849006,-50.1974516,18,242.55491
1,Antônio Prado de Minas/MG,-21.0171988,-42.1101106,384,24350.03171
D1,Antônio Prado de Minas/MG,-21.0171988,-42.1101106,6,380.46925
1,Antônio Prado/RS,-28.8567806,-51.2801355,5213,39973.92838
D1,Antônio Prado/RS,-28.8567806,-51.2801355,35,268.38433
1,Anápolis/GO,-16.3332828,-48.9525756,88232,22251.25212
D1,Anápolis/GO,-16.3332828,-48.9525756,2000,504.38055
1,Anísio de Abreu/PI,-9.185643,-43.04941,314,3141.88513
D1,Anísio de Abreu/PI,-9.185643,-43.04941,16,160.09606
1,Aparecida d'Oeste/SP,-20.4498109,-50.8808706,1724,41824.35711
D1,Aparecida d'Oeste/SP,-20.4498109,-50.8808706,27,655.02183
1,Aparecida de Goiânia/GO,-16.8226769,-49.2452546,172099,28595.28383
D1,Aparecida de Goiânia/GO,-16.8226769,-49.2452546,2016,334.97052
1,Aparecida do Rio Doce/GO,-18.2980167,-51.1491312,848,34276.47534
D1,Aparecida do Rio Doce/GO,-18.2980167,-51.1491312,5,202.10186
1,Aparecida do Rio Negro/TO,-9.9513491,-47.9773786,416,8488.06366
D1,Aparecida do Rio Negro/TO,-9.9513491,-47.9773786,13,265.25199
1,Aparecida do Taboado/MS,-20.0840304,-51.1013943,6600,25013.26461
D1,Aparecida do Taboado/MS,-20.0840304,-51.1013943,73,276.66187
1,Aparecida/PB,-6.7859598, -38.0831353,1906,22471.11530
D1,Aparecida/PB,-6.7859598, -38.0831353,16,188.63476
1,Aparecida/SP,-22.851552,-45.2340924,2988,8251.63624
D1,Aparecida/SP,-22.851552,-45.2340924,129,356.24534
1,Aperibé/RJ,-21.6211928,-42.1028167,2133,17721.83450
D1,Aperibé/RJ,-21.6211928,-42.1028167,35,290.79428
1,Apiacá/ES,-21.152272,-41.569297,2657,35229.38213
D1,Apiacá/ES,-21.152272,-41.569297,42,556.88146
1,Apiacás/MT,-9.5678422,-57.394852,3401,32604.73588
D1,Apiacás/MT,-9.5678422,-57.394852,20,191.73617
1,Apiaí/SP,-24.5076527,-48.8461582,1805,7495.53590
D1,Apiaí/SP,-24.5076527,-48.8461582,110,456.79166
1,Apicum-Açu/MA,-1.5279295,-45.082278,777,4419.29246
D1,Apicum-Açu/MA,-1.5279295,-45.082278,12,68.25162
1,Apiúna/SC,-27.0374658,-49.3885037,1765,16117.24957
D1,Apiúna/SC,-27.0374658,-49.3885037,20,182.63172
1,Apodi/RN,-5.6631109,-37.796927,10947,30489.63904
D1,Apodi/RN,-5.6631109,-37.796927,108,300.80214
1,Aporá/BA,-11.6599747,-38.0794757,727,4075.11211
D1,Aporá/BA,-11.6599747,-38.0794757,25,140.13453
1,Aporé/GO,-18.9642193,-51.92804,1002,23488.04501
D1,Aporé/GO,-18.9642193,-51.92804,11,257.85279
1,Apuarema/BA,-13.8517897,-39.7457126,932,12812.75777
D1,Apuarema/BA,-13.8517897,-39.7457126,12,164.97113
1,Apucarana/PR,-23.5525327,-51.4610764,22608,16449.59909
D1,Apucarana/PR,-23.5525327,-51.4610764,579,421.28087
1,Apuiarés/CE,-3.9460303,-39.4313298,1870,12684.84602
D1,Apuiarés/CE,-3.9460303,-39.4313298,27,183.15018
1,Apuí/AM,-7.1940195,-59.8830192,2439,10726.06535
D1,Apuí/AM,-7.1940195,-59.8830192,36,158.31831
1,Aquidabã/SE,-10.2837579,-37.0188687,2678,12286.65810
D1,Aquidabã/SE,-10.2837579,-37.0188687,46,211.04790
1,Aquidauana/MS,-20.473969,-55.7821375,8350,17329.40395
D1,Aquidauana/MS,-20.473969,-55.7821375,177,367.34186
1,Aquiraz/CE,-3.9063117,-38.387504,11773,14431.05625
D1,Aquiraz/CE,-3.9063117,-38.387504,105,128.70644
1,Arabutã/SC,-27.1587028,-52.1438142,721,16893.15839
D1,Arabutã/SC,-27.1587028,-52.1438142,10,234.30178
1,Aracaju/SE,-10.9162061,-37.0774655,168037,24982.67952
D1,Aracaju/SE,-10.9162061,-37.0774655,2606,387.44362
1,Aracati/CE,-4.558259,-37.767894,14300,18967.52971
D1,Aracati/CE,-4.558259,-37.767894,181,240.07852
1,Aracatu/BA,-14.4274236,-41.4604105,1451,11195.98765
D1,Aracatu/BA,-14.4274236,-41.4604105,23,177.46914
1,Araci/BA,-11.3356065,-38.9573261,4763,8675.30007
D1,Araci/BA,-11.3356065,-38.9573261,62,112.92643
1,Aracitaba/MG,-21.3425,-43.378611,109,5301.55642
D1,Aracitaba/MG,-21.3425,-43.378611,11,535.01946
1,Aracoiaba/CE,-4.3702577,-38.8084313,5637,21191.72932
D1,Aracoiaba/CE,-4.3702577,-38.8084313,39,146.61654
1,Aracruz/ES,-19.8245218,-40.2735025,40484,38577.49995
D1,Aracruz/ES,-19.8245218,-40.2735025,285,271.57859
1,Aragarças/GO,-15.8957166,-52.2514538,5136,25164.13523
D1,Aragarças/GO,-15.8957166,-52.2514538,86,421.36208
1,Aragoiânia/GO,-16.9146388,-49.4499148,3402,31853.93258
D1,Aragoiânia/GO,-16.9146388,-49.4499148,34,318.35206
1,Aragominas/TO,-7.1654101,-48.525488,1154,20227.87029
D1,Aragominas/TO,-7.1654101,-48.525488,10,175.28484
1,Araguacema/TO,-8.8067391,-49.5560969,1436,19880.93590
D1,Araguacema/TO,-8.8067391,-49.5560969,19,263.04859
1,Araguaiana/MT,-15.729144,-51.834112,661,21573.10705
D1,Araguaiana/MT,-15.729144,-51.834112,8,261.09661
1,Araguainha/MT,-16.857016,-53.031778,73,8030.80308
D1,Araguainha/MT,-16.857016,-53.031778,2,220.02200
1,Araguanã/MA,-2.9508403,-45.6651986,878,5601.27592
D1,Araguanã/MA,-2.9508403,-45.6651986,5,31.89793
1,Araguanã/TO,-6.5799107,-48.6428482,625,10672.81421
D1,Araguanã/TO,-6.5799107,-48.6428482,16,273.22404
1,Araguapaz/GO,-15.0937927,-50.626417,1225,15715.20205
D1,Araguapaz/GO,-15.0937927,-50.626417,32,410.51956
1,Araguari/MG,-18.6511256,-48.1933764,33121,27983.03495
D1,Araguari/MG,-18.6511256,-48.1933764,525,443.55827
1,Araguatins/TO,-5.6522925,-48.1158973,3635,9939.02606
D1,Araguatins/TO,-5.6522925,-48.1158973,75,205.06931
1,Araguaçu/TO,-12.928934,-49.823134,2050,24352.57781
D1,Araguaçu/TO,-12.928934,-49.823134,25,296.98266
1,Araguaína/TO,-7.193241,-48.2018597,52429,28150.55438
D1,Araguaína/TO,-7.193241,-48.2018597,628,337.19026
1,Araioses/MA,-2.890914,-41.904993,687,1458.75358
D1,Araioses/MA,-2.890914,-41.904993,15,31.85051
1,Aral Moreira/MS,-22.951141,-55.6268421,585,4675.88522
D1,Aral Moreira/MS,-22.951141,-55.6268421,21,167.85229
1,Aramari/BA,-12.0907897,-38.4985065,1074,9323.72602
D1,Aramari/BA,-12.0907897,-38.4985065,15,130.21964
1,Arambaré/RS,-30.9132252,-51.4994625,389,10976.29797
D1,Arambaré/RS,-30.9132252,-51.4994625,10,282.16704
1,Arame/MA,-4.8858769,-46.0102484,1708,5203.35110
D1,Arame/MA,-4.8858769,-46.0102484,42,127.95126
1,Aramina/SP,-20.0876144,-47.789201,394,6925.64598
D1,Aramina/SP,-20.0876144,-47.789201,20,351.55563
1,Arandu/SP,-23.1345103,-49.0545651,668,10481.71976
D1,Arandu/SP,-23.1345103,-49.0545651,22,345.20634
1,Arantina/MG,-21.911667,-44.255833,687,24721.12271
D1,Arantina/MG,-21.911667,-44.255833,7,251.88917
1,Arapeí/SP,-22.6738889,-44.4477778,276,11256.11746
D1,Arapeí/SP,-22.6738889,-44.4477778,7,285.48124
1,Arapiraca/AL,-9.754866,-36.661471,41094,17538.37881
D1,Arapiraca/AL,-9.754866,-36.661471,587,250.52388
1,Arapoema/TO,-7.6575001,-49.0641484,713,10819.42337
D1,Arapoema/TO,-7.6575001,-49.0641484,12,182.09408
1,Araponga/MG,-20.666667,-42.520556,989,11680.64249
D1,Araponga/MG,-20.666667,-42.520556,16,188.96894
1,Arapongas/PR,-23.415296,-51.42592,30005,23710.93287
D1,Arapongas/PR,-23.415296,-51.42592,661,522.34383
1,Araporã/MG,-18.4318188,-49.188313,2865,40975.40046
D1,Araporã/MG,-18.4318188,-49.188313,43,614.98856
1,Arapoti/PR,-24.1457957,-49.8224605,5784,20308.98876
D1,Arapoti/PR,-24.1457957,-49.8224605,74,259.83146
1,Araputanga/MT,-15.4710868,-58.346796,4808,28153.17953
D1,Araputanga/MT,-15.4710868,-58.346796,58,339.61822
1,Arapuá/MG,-19.034444,-46.155556,463,16325.81100
D1,Arapuá/MG,-19.034444,-46.155556,3,105.78279
1,Arapuã/PR,-24.3079525,-51.7901941,909,30803.11759
D1,Arapuã/PR,-24.3079525,-51.7901941,9,304.98136
1,Araquari/SC,-26.3703324,-48.7210994,7750,18953.28931
D1,Araquari/SC,-26.3703324,-48.7210994,97,237.22181
1,Arara/PB,-6.8271895,-35.7605703,1241,9116.28590
D1,Arara/PB,-6.8271895,-35.7605703,32,235.06942
1,Araranguá/SC,-28.9348832,-49.4858389,18826,27090.49832
D1,Araranguá/SC,-28.9348832,-49.4858389,282,405.79627
1,Araraquara/SP,-21.7886713,-48.1773096,63248,26293.95282
D1,Araraquara/SP,-21.7886713,-48.1773096,652,271.05454
1,Araras/SP,-22.3569477,-47.3838889,20443,14950.37992
D1,Araras/SP,-22.3569477,-47.3838889,459,335.67600
1,Ararendá/CE,-4.7504395,-40.8303611,2186,19903.48721
D1,Ararendá/CE,-4.7504395,-40.8303611,22,200.30957
1,Arari/MA,-3.4547602,-44.7772723,1439,4794.42927
D1,Arari/MA,-3.4547602,-44.7772723,35,116.61225
1,Araricá/RS,-29.6168543,-50.929121,1807,30941.78082
D1,Araricá/RS,-29.6168543,-50.929121,30,513.69863
1,Araripe/CE,-7.212861,-40.1359222,2221,10231.72249
D1,Araripe/CE,-7.212861,-40.1359222,28,128.99065
1,Araripina/PE,-7.5768582,-40.5038509,11726,13746.61493
D1,Araripina/PE,-7.5768582,-40.5038509,182,213.36209
1,Araruama/RJ,-22.8733203,-42.3428897,11222,8244.86257
D1,Araruama/RJ,-22.8733203,-42.3428897,519,381.31204
1,Araruna/PB,-6.5321155,-35.7397595,1109,5380.88307
D1,Araruna/PB,-6.5321155,-35.7397595,18,87.33624
1,Araruna/PR,-23.9320308,-52.4976047,3495,24912.68088
D1,Araruna/PR,-23.9320308,-52.4976047,44,313.63604
1,Arataca/BA,-15.2617424,-39.4122943,961,8813.27953
D1,Arataca/BA,-15.2617424,-39.4122943,16,146.73514
1,Aratiba/RS,-27.3955734,-52.3024325,1079,17558.99105
D1,Aratiba/RS,-27.3955734,-52.3024325,8,130.18714
1,Aratuba/CE,-4.4195958,-39.0463737,2266,19270.34612
D1,Aratuba/CE,-4.4195958,-39.0463737,14,119.05774
1,Aratuípe/BA,-13.077137,-39.0010786,1194,13494.57505
D1,Aratuípe/BA,-13.077137,-39.0010786,14,158.22785
1,Araucária/PR,-25.5861107,-49.4051209,46547,31340.13816
D1,Araucária/PR,-25.5861107,-49.4051209,587,395.22764
1,Arauá/SE,-11.2644014,-37.6181058,1455,14786.58537
D1,Arauá/SE,-11.2644014,-37.6181058,23,233.73984
1,Araxá/MG,-19.5928536,-46.940241,39965,36867.06087
D1,Araxá/MG,-19.5928536,-46.940241,309,285.04746
1,Araçagi/PB,-6.8519969,-35.3835602,3015,17885.74479
D1,Araçagi/PB,-6.8519969,-35.3835602,29,172.03536
1,Araçariguama/SP,-23.438611,-47.061389,3186,13648.63128
D1,Araçariguama/SP,-23.438611,-47.061389,78,334.14728
1,Araçatuba/SP,-21.207992,-50.4390225,47339,23763.36529
D1,Araçatuba/SP,-21.207992,-50.4390225,1010,507.00266
1,Araçaí/MG,-19.200833,-44.2475,309,13093.22034
D1,Araçaí/MG,-19.200833,-44.2475,2,84.74576
1,Araçoiaba da Serra/SP,-23.5045367,-47.6168158,3305,9339.06016
D1,Araçoiaba da Serra/SP,-23.5045367,-47.6168158,104,293.87663
1,Araçoiaba/PE,-7.7856903,-35.0898881,1226,5855.94192
D1,Araçoiaba/PE,-7.7856903,-35.0898881,33,157.62323
1,Araçu/GO,-16.3561579,-49.6815269,1960,56811.59420
D1,Araçu/GO,-16.3561579,-49.6815269,23,666.66667
1,Araçuaí/MG,-16.8484451,-42.0661868,4137,11267.87417
D1,Araçuaí/MG,-16.8484451,-42.0661868,62,168.86831
1,Araçás/BA,-12.2139176,-38.2026159,1063,8686.76963
D1,Araçás/BA,-12.2139176,-38.2026159,16,130.75100
1,Araújos/MG,-19.948055,-45.165556,947,9944.34527
D1,Araújos/MG,-19.948055,-45.165556,15,157.51339
1,Arceburgo/MG,-21.364444,-46.939722,2540,23111.91993
D1,Arceburgo/MG,-21.364444,-46.939722,37,336.66970
1,Arco-Íris/SP,-21.7741308,-50.4668814,606,34529.91453
D1,Arco-Íris/SP,-21.7741308,-50.4668814,10,569.80057
1,Arcos/MG,-20.282223,-45.539444,10137,24932.36263
D1,Arcos/MG,-20.282223,-45.539444,158,388.60741
1,Arcoverde/PE,-8.415192,-37.057748,11835,15718.17518
D1,Arcoverde/PE,-8.415192,-37.057748,145,192.57587
1,Areado/MG,-21.3582771,-46.1476688,3600,23547.88069
D1,Areado/MG,-21.3582771,-46.1476688,35,228.93773
1,Areal/RJ,-22.2314922,-43.1056264,2424,18992.39991
D1,Areal/RJ,-22.2314922,-43.1056264,56,438.76831
1,Arealva/SP,-22.0301906,-48.9111936,2107,24316.21466
D1,Arealva/SP,-22.0301906,-48.9111936,31,357.76111
1,Areia Branca/RN,-4.9506652,-37.1263312,4560,16195.48231
D1,Areia Branca/RN,-4.9506652,-37.1263312,122,433.30018
1,Areia Branca/SE,-10.7591455,-37.3148072,2486,13205.84329
D1,Areia Branca/SE,-10.7591455,-37.3148072,50,265.60425
1,Areia de Baraúnas/PB,-7.1233949,-36.9446216,386,18337.29216
D1,Areia de Baraúnas/PB,-7.1233949,-36.9446216,7,332.54157
1,Areia/PB,-6.9680243,-35.6994783,2968,13195.21629
D1,Areia/PB,-6.9680243,-35.6994783,36,160.04979
1,Areial/PB,-7.0501306,-35.9245244,620,8789.33938
D1,Areial/PB,-7.0501306,-35.9245244,13,184.29260
1,Areias/SP,-22.5800929,-44.6975127,365,9344.59805
D1,Areias/SP,-22.5800929,-44.6975127,6,153.60983
1,Areiópolis/SP,-22.6758064,-48.6673653,2234,19971.39281
D1,Areiópolis/SP,-22.6758064,-48.6673653,33,295.01162
1,Arenápolis/MT,-14.4610369,-56.8432806,3197,34014.25684
D1,Arenápolis/MT,-14.4610369,-56.8432806,44,468.13491
1,Arenópolis/GO,-16.3859286,-51.55937,863,35052.80260
D1,Arenópolis/GO,-16.3859286,-51.55937,10,406.17384
1,Argirita/MG,-21.612761,-42.8371922,766,28571.42857
D1,Argirita/MG,-21.612761,-42.8371922,15,559.49273
1,Aricanduva/MG,-17.8678,-42.5569,450,8482.56362
1,Arinos/MG,-15.917223,-46.106111,3035,17002.80112
D1,Arinos/MG,-15.917223,-46.106111,31,173.66947
1,Aripuanã/MT,-10.175806,-59.4439663,6425,27853.64373
D1,Aripuanã/MT,-10.175806,-59.4439663,59,255.77665
1,Ariquemes/RO,-9.9076522,-63.033069,35594,32023.96804
D1,Ariquemes/RO,-9.9076522,-63.033069,564,507.43153
1,Ariranha do Ivaí/PR,-24.3834527,-51.5876772,694,34254.68904
D1,Ariranha do Ivaí/PR,-24.3834527,-51.5876772,5,246.79171
1,Ariranha/SP,-21.18716,-48.790418,1039,10547.15257
D1,Ariranha/SP,-21.18716,-48.790418,38,385.74764
1,Armazém/SC,-28.2624996,-49.0190126,1766,19970.59821
D1,Armazém/SC,-28.2624996,-49.0190126,36,407.10166
1,Armação dos Búzios/RJ,-22.7597805,-41.8875267,9218,26292.07074
D1,Armação dos Búzios/RJ,-22.7597805,-41.8875267,83,236.73702
1,Arneiroz/CE,-6.3235099,-40.1603859,963,12270.64220
D1,Arneiroz/CE,-6.3235099,-40.1603859,21,267.58410
1,Aroazes/PI,-6.1108814,-41.7886137,786,13507.47551
D1,Aroazes/PI,-6.1108814,-41.7886137,15,257.77625
1,Aroeiras do Itaim/PI,-7.2797031,-41.5629681,190,7448.05958
D1,Aroeiras do Itaim/PI,-7.2797031,-41.5629681,2,78.40063
1,Aroeiras/PB,-7.5462904,-35.7080002,3034,15900.63414
D1,Aroeiras/PB,-7.5462904,-35.7080002,20,104.81631
1,Arraial do Cabo/RJ,-22.9662839,-42.024427,3604,11691.05005
D1,Arraial do Cabo/RJ,-22.9662839,-42.024427,54,175.17112
1,Arraial/PI,-6.6541632,-42.5335332,172,3649.48016
D1,Arraial/PI,-6.6541632,-42.5335332,3,63.65372
1,Arraias/TO,-12.9287788,-46.9437231,1768,16834.88859
D1,Arraias/TO,-12.9287788,-46.9437231,13,123.78595
1,Arroio Grande/RS,-32.2384246,-53.0866661,3375,18559.25213
D1,Arroio Grande/RS,-32.2384246,-53.0866661,62,340.94034
1,Arroio Trinta/SC,-26.9301976,-51.334928,1337,37693.82577
D1,Arroio Trinta/SC,-26.9301976,-51.334928,15,422.89259
1,Arroio do Meio/RS,-29.4020392,-51.9444993,5624,26627.52711
D1,Arroio do Meio/RS,-29.4020392,-51.9444993,60,284.07746
1,Arroio do Padre/RS,-31.4428773,-52.4228985,530,17869.18409
D1,Arroio do Padre/RS,-31.4428773,-52.4228985,5,168.57721
1,Arroio do Sal/RS,-29.549852,-49.8874395,4225,40303.34828
D1,Arroio do Sal/RS,-29.549852,-49.8874395,44,419.72718
1,Arroio do Tigre/RS,-29.334158,-53.0888935,2705,20108.53405
D1,Arroio do Tigre/RS,-29.334158,-53.0888935,25,185.84597
1,Arroio dos Ratos/RS,-30.0894524,-51.7265541,2943,20723.89268
D1,Arroio dos Ratos/RS,-30.0894524,-51.7265541,50,352.08788
1,Artur Nogueira/SP,-22.572737,-47.172679,9131,16233.75469
D1,Artur Nogueira/SP,-22.572737,-47.172679,169,300.46047
1,Aruanã/GO,-14.9162439,-51.0715692,2180,21083.17215
D1,Aruanã/GO,-14.9162439,-51.0715692,23,222.43714
1,Arujá/SP,-23.396266,-46.3175449,12405,13417.62842
D1,Arujá/SP,-23.396266,-46.3175449,362,391.55030
1,Arvoredo/SC,-27.0752908,-52.4571847,491,22037.70197
D1,Arvoredo/SC,-27.0752908,-52.4571847,5,224.41652
1,Arvorezinha/RS,-28.87369,-52.17808,1697,16282.86317
D1,Arvorezinha/RS,-28.87369,-52.17808,34,326.23297
1,Arês/RN,-6.1969216,-35.1642968,1764,12143.74226
D1,Arês/RN,-6.1969216,-35.1642968,27,185.87361
1,Ascurra/SC,-26.9569975,-49.3767752,2323,28961.47613
D1,Ascurra/SC,-26.9569975,-49.3767752,14,174.54183
1,Aspásia/SP,-20.160028,-50.728046,592,32617.07989
D1,Aspásia/SP,-20.160028,-50.728046,10,550.96419
1,Assaré/CE,-6.8746791,-39.8741385,3201,13599.86404
D1,Assaré/CE,-6.8746791,-39.8741385,57,242.17190
1,Assaí/PR,-23.3736041,-50.8454929,3472,23472.14711
D1,Assaí/PR,-23.3736041,-50.8454929,72,486.74959
1,Assis Brasil/AC,-10.9409203,-69.5672108,2225,29088.76977
D1,Assis Brasil/AC,-10.9409203,-69.5672108,26,339.91371
1,Assis Chateaubriand/PR,-24.4054826,-53.5120468,9754,29286.01453
D1,Assis Chateaubriand/PR,-24.4054826,-53.5120468,147,441.36192
1,Assis/SP,-22.6620892,-50.420623,24777,23425.79986
D1,Assis/SP,-22.6620892,-50.420623,471,445.31427
1,Assunção do Piauí/PI,-5.8610212,-41.0485091,411,5216.39802
D1,Assunção do Piauí/PI,-5.8610212,-41.0485091,10,126.91966
1,Assunção/PB,-7.073396,-36.7274003,799,19645.93066
D1,Assunção/PB,-7.073396,-36.7274003,6,147.52889
1,Astolfo Dutra/MG,-21.3132636,-42.8624102,2425,16889.53893
D1,Astolfo Dutra/MG,-21.3132636,-42.8624102,33,229.83702
1,Astorga/PR,-23.2350184,-51.6647074,9384,35675.18248
D1,Astorga/PR,-23.2350184,-51.6647074,107,406.78224
1,Atalaia do Norte/AM,-4.3658547,-70.1908742,4185,20054.62910
D1,Atalaia do Norte/AM,-4.3658547,-70.1908742,11,52.71229
1,Atalaia/AL,-9.5029595,-36.0219316,2193,4612.95751
D1,Atalaia/AL,-9.5029595,-36.0219316,59,124.10602
1,Atalaia/PR,-23.1513833,-52.0529697,1291,33350.55541
D1,Atalaia/PR,-23.1513833,-52.0529697,28,723.32731
1,Atalanta/SC,-27.421916,-49.778863,923,29034.28751
D1,Atalanta/SC,-27.421916,-49.778863,12,377.47719
1,Ataléia/MG,-18.04432,-41.1110524,1530,12243.91805
D1,Ataléia/MG,-18.04432,-41.1110524,12,96.03073
1,Atibaia/SP,-23.1177393,-46.5547861,13289,9140.99795
D1,Atibaia/SP,-23.1177393,-46.5547861,485,333.61306
1,Atilio Vivacqua/ES,-20.9139369,-41.1947519,3451,28125.50937
D1,Atilio Vivacqua/ES,-20.9139369,-41.1947519,40,325.99837
1,Augustinópolis/TO,-5.4662267,-47.8897519,2416,12803.39163
D1,Augustinópolis/TO,-5.4662267,-47.8897519,32,169.58135
1,Augusto Corrêa/PA,-1.0229335,-46.6404029,3193,6802.73558
D1,Augusto Corrêa/PA,-1.0229335,-46.6404029,59,125.70041
1,Augusto Pestana/RS,-28.5148413,-53.9906433,1967,30053.47594
D1,Augusto Pestana/RS,-28.5148413,-53.9906433,17,259.74026
1,Augusto de Lima/MG,-18.1092963,-44.2651945,327,6765.98386
D1,Augusto de Lima/MG,-18.1092963,-44.2651945,12,248.29299
1,Aurelino Leal/BA,-14.3167137,-39.3256107,1374,12401.84132
D1,Aurelino Leal/BA,-14.3167137,-39.3256107,41,370.06950
1,Auriflama/SP,-20.6840418,-50.5554616,2368,15460.95586
D1,Auriflama/SP,-20.6840418,-50.5554616,87,568.03343
1,Aurilândia/GO,-16.6772599,-50.4641231,1490,49666.66667
D1,Aurilândia/GO,-16.6772599,-50.4641231,17,566.66667
1,Aurora do Pará/PA,-2.1323199,-47.558436,2344,7279.50311
D1,Aurora do Pará/PA,-2.1323199,-47.558436,20,62.11180
1,Aurora do Tocantins/TO,-12.71045,-46.407604,617,16198.47729
D1,Aurora do Tocantins/TO,-12.71045,-46.407604,8,210.02888
1,Aurora/CE,-6.9426019,-38.9693765,2850,11600.92807
D1,Aurora/CE,-6.9426019,-38.9693765,45,183.17255
1,Aurora/SC,-27.3166417,-49.6368502,1574,27677.15843
D1,Aurora/SC,-27.3166417,-49.6368502,23,404.43116
1,Autazes/AM,-3.5833283,-59.1301518,4207,10259.72442
D1,Autazes/AM,-3.5833283,-59.1301518,102,248.75015
1,Avanhandava/SP,-21.4603331,-49.9465156,1890,13439.52215
D1,Avanhandava/SP,-21.4603331,-49.9465156,49,348.43206
1,Avaré/SP,-23.1045215,-48.9259103,15677,17078.83040
D1,Avaré/SP,-23.1045215,-48.9259103,325,354.06136
1,Avaí/SP,-22.1564662,-49.3316395,830,15182.00110
D1,Avaí/SP,-22.1564662,-49.3316395,14,256.08195
1,Aveiro/PA,-3.6049239,-55.3310742,1261,7679.19128
D1,Aveiro/PA,-3.6049239,-55.3310742,15,91.34645
1,Avelino Lopes/PI,-10.1346855,-43.9489525,852,7499.33985
D1,Avelino Lopes/PI,-10.1346855,-43.9489525,24,211.24901
1,Avelinópolis/GO,-16.4672409,-49.7578661,429,17867.55519
D1,Avelinópolis/GO,-16.4672409,-49.7578661,18,749.68763
1,Axixá do Tocantins/TO,-5.612747,-47.77007,1397,14230.41662
D1,Axixá do Tocantins/TO,-5.612747,-47.77007,24,244.47387
1,Axixá/MA,-2.8379465,-44.0561053,192,1569.39676
D1,Axixá/MA,-2.8379465,-44.0561053,7,57.21759
1,Açailândia/MA,-4.9514278,-47.4844564,6947,6105.48149
D1,Açailândia/MA,-4.9514278,-47.4844564,297,261.02318
1,Açu/RN,-5.5836157,-36.9139541,10686,18191.10362
D1,Açu/RN,-5.5836157,-36.9139541,178,303.01483
1,Açucena/MG,-19.073056,-42.546666,918,9902.91262
D1,Açucena/MG,-19.073056,-42.546666,39,420.71197
1,Babaçulândia/TO,-7.2034355,-47.761613,908,8511.43607
D1,Babaçulândia/TO,-7.2034355,-47.761613,8,74.99063
1,Bacabal/MA,-4.2318132,-44.781167,11061,10524.86346
D1,Bacabal/MA,-4.2318132,-44.781167,237,225.51240
1,Bacabeira/MA,-2.9775747,-44.3155943,696,3989.45317
D1,Bacabeira/MA,-2.9775747,-44.3155943,10,57.31973
1,Bacuri/MA,-1.728894,-45.1417148,1093,5836.80444
D1,Bacuri/MA,-1.728894,-45.1417148,4,21.36067
1,Bacurituba/MA,-2.7082587,-44.7381309,117,2054.07303
D1,Bacurituba/MA,-2.7082587,-44.7381309,1,17.55618
1,Bady Bassitt/SP,-20.9178969,-49.4517911,4546,25237.32860
D1,Bady Bassitt/SP,-20.9178969,-49.4517911,103,571.80925
1,Baependi/MG,-21.959162,-44.8899249,3861,20058.18484
D1,Baependi/MG,-21.959162,-44.8899249,38,197.41285
1,Bagre/PA,-1.8994498,-50.2103844,1350,4223.10508
D1,Bagre/PA,-1.8994498,-50.2103844,13,40.66694
1,Bagé/RS,-31.3314264,-54.1062808,29416,24207.11335
D1,Bagé/RS,-31.3314264,-54.1062808,360,296.25241
1,Baianópolis/BA,-12.3067564,-44.5383591,1384,9900.56513
D1,Baianópolis/BA,-12.3067564,-44.5383591,26,185.99328
1,Baixa Grande do Ribeiro/PI,-7.862861,-45.2113289,2675,22764.02008
D1,Baixa Grande do Ribeiro/PI,-7.862861,-45.2113289,36,306.35691
1,Baixa Grande/BA,-11.9630941,-40.1657537,1455,7121.53101
D1,Baixa Grande/BA,-11.9630941,-40.1657537,26,127.25760
1,Baixio/CE,-6.7303544,-38.7170095,939,14862.29820
D1,Baixio/CE,-6.7303544,-38.7170095,18,284.90028
1,Baixo Guandu/ES,-19.5138322,-41.0182089,10801,34548.82769
D1,Baixo Guandu/ES,-19.5138322,-41.0182089,106,339.05895
1,Baião/PA,-2.7903479,-49.6702845,990,2001.86031
D1,Baião/PA,-2.7903479,-49.6702845,39,78.86116
1,Balbinos/SP,-21.9006253,-49.3583966,767,12518.36135
D1,Balbinos/SP,-21.9006253,-49.3583966,4,65.28480
1,Baldim/MG,-19.2913568,-43.9558262,915,11760.92545
D1,Baldim/MG,-19.2913568,-43.9558262,25,321.33676
1,Baliza/GO,-16.1978119,-52.542789,880,16242.15578
D1,Baliza/GO,-16.1978119,-52.542789,13,239.94094
1,Balneário Arroio do Silva/SC,-28.9815269,-49.4189932,4031,29248.29488
D1,Balneário Arroio do Silva/SC,-28.9815269,-49.4189932,66,478.88550
1,Balneário Barra do Sul/SC,-26.459842,-48.6061471,2538,22517.96646
D1,Balneário Barra do Sul/SC,-26.459842,-48.6061471,57,505.72265
1,Balneário Camboriú/SC,-26.9924395,-48.6339782,38353,25701.11307
D1,Balneário Camboriú/SC,-26.9924395,-48.6339782,506,339.08073
1,Balneário Gaivota/SC,-29.1553098,-49.5808712,3846,33336.22259
D1,Balneário Gaivota/SC,-29.1553098,-49.5808712,41,355.37835
1,Balneário Pinhal/RS,-30.2482978,-50.234585,3969,27101.39980
D1,Balneário Pinhal/RS,-30.2482978,-50.234585,63,430.18095
1,Balneário Piçarras/SC,-26.7638889,-48.6716667,7811,32031.98688
D1,Balneário Piçarras/SC,-26.7638889,-48.6716667,74,303.46525
1,Balneário Rincão/SC,-28.8235718,-49.2241642,2602,19818.72191
D1,Balneário Rincão/SC,-28.8235718,-49.2241642,54,411.30322
1,Balsa Nova/PR,-25.5842234,-49.6312741,3277,24754.49464
D1,Balsa Nova/PR,-25.5842234,-49.6312741,36,271.94440
1,Balsas/MA,-7.53214,-46.037163,16998,17532.56800
D1,Balsas/MA,-7.53214,-46.037163,244,251.67353
1,Bambuí/MG,-20.0131996,-45.9777034,6155,25684.35987
D1,Bambuí/MG,-20.0131996,-45.9777034,42,175.26289
1,Banabuiú/CE,-5.3046404,-38.919766,3163,17271.88336
D1,Banabuiú/CE,-5.3046404,-38.919766,22,120.13324
1,Bananal/SP,-22.6828195,-44.3221095,1166,10562.55096
D1,Bananal/SP,-22.6828195,-44.3221095,10,90.58792
1,Bananeiras/PB,-6.7537682,-35.6338343,2085,9825.63619
D1,Bananeiras/PB,-6.7537682,-35.6338343,29,136.66352
1,Bandeira do Sul/MG,-21.728056,-46.385555,1411,24294.07713
D1,Bandeira do Sul/MG,-21.728056,-46.385555,17,292.69972
1,Bandeira/MG,-15.884444,-40.559167,748,15787.25201
D1,Bandeira/MG,-15.884444,-40.559167,12,253.27142
1,Bandeirante/SC,-26.7677402,-53.6397596,777,29679.14439
D1,Bandeirante/SC,-26.7677402,-53.6397596,7,267.37968
1,Bandeirantes do Tocantins/TO,-7.7635698,-48.579148,842,23189.20408
D1,Bandeirantes do Tocantins/TO,-7.7635698,-48.579148,8,220.32498
1,Bandeirantes/MS,-19.9179623,-54.3646768,826,11344.59552
D1,Bandeirantes/MS,-19.9179623,-54.3646768,12,164.81253
1,Bandeirantes/PR,-23.107788,-50.370407,9922,31943.59486
D1,Bandeirantes/PR,-23.107788,-50.370407,166,534.43225
1,Bannach/PA,-7.3508505,-50.4064531,721,22259.95678
D1,Bannach/PA,-7.3508505,-50.4064531,3,92.62118
1,Banzaê/BA,-10.5827616,-38.6122305,1481,11176.51498
D1,Banzaê/BA,-10.5827616,-38.6122305,14,105.65240
1,Baraúna/PB,-6.643394,-36.2531932,804,15974.56785
D1,Baraúna/PB,-6.643394,-36.2531932,9,178.81979
1,Baraúna/RN,-5.0775002,-37.61752,1842,6327.28772
D1,Baraúna/RN,-5.0775002,-37.61752,33,113.35532
1,Barbacena/MG,-21.2254524,-43.7735087,19488,14013.99386
D1,Barbacena/MG,-21.2254524,-43.7735087,365,262.47474
1,Barbalha/CE,-7.3121067,-39.3036427,12324,19986.37735
D1,Barbalha/CE,-7.3121067,-39.3036427,214,347.05329
1,Barbosa Ferraz/PR,-24.0287182,-52.00811,3632,32178.61256
D1,Barbosa Ferraz/PR,-24.0287182,-52.00811,61,540.44476
1,Barbosa/SP,-21.265661,-49.951816,937,12440.25491
D1,Barbosa/SP,-21.265661,-49.951816,25,331.91715
1,Barcarena/PA,-1.5107945,-48.6190679,14903,11522.96784
D1,Barcarena/PA,-1.5107945,-48.6190679,260,201.03145
1,Barcelona/RN,-5.9514918,-35.9260284,528,13236.40010
D1,Barcelona/RN,-5.9514918,-35.9260284,11,275.75834
1,Barcelos/AM,-0.9729214,-62.925635,5365,19318.01815
D1,Barcelos/AM,-0.9729214,-62.925635,60,216.04494
1,Bariri/SP,-22.0746355,-48.7394852,7150,19947.55050
D1,Bariri/SP,-22.0746355,-48.7394852,156,435.21928
1,Barra Bonita/SC,-26.6526364,-53.4419581,506,31138.46154
D1,Barra Bonita/SC,-26.6526364,-53.4419581,2,123.07692
1,Barra Bonita/SP,-22.490859,-48.558349,5635,15598.61592
D1,Barra Bonita/SP,-22.490859,-48.558349,129,357.09343
1,Barra D'Alcântara/PI,-6.5209258,-42.1071089,164,4148.74779
D1,Barra D'Alcântara/PI,-6.5209258,-42.1071089,5,126.48621
1,Barra Funda/RS,-27.9230048,-53.0401045,1149,44830.27702
D1,Barra Funda/RS,-27.9230048,-53.0401045,15,585.25166
1,Barra Longa/MG,-20.2833541,-43.0423516,702,14311.92661
D1,Barra Longa/MG,-20.2833541,-43.0423516,14,285.42304
1,Barra Mansa/RJ,-22.5394843,-44.1735129,48455,26158.38089
D1,Barra Mansa/RJ,-22.5394843,-44.1735129,757,408.66566
1,Barra Velha/SC,-26.6338203,-48.6835001,7417,24286.97731
D1,Barra Velha/SC,-26.6338203,-48.6835001,148,484.62622
1,Barra da Estiva/BA,-13.6269662,-41.3278287,3952,19566.29369
D1,Barra da Estiva/BA,-13.6269662,-41.3278287,38,188.13744
1,Barra de Guabiraba/PE,-8.4173522,-35.6626669,1018,6957.35375
D1,Barra de Guabiraba/PE,-8.4173522,-35.6626669,21,143.52105
1,Barra de Santa Rosa/PB,-6.7218007,-36.0564638,1795,11501.24944
D1,Barra de Santa Rosa/PB,-6.7218007,-36.0564638,16,102.51810
1,Barra de Santana/PB,-7.5230865,-35.9988518,1269,15219.47709
D1,Barra de Santana/PB,-7.5230865,-35.9988518,8,95.94627
1,Barra de Santo Antônio/AL,-9.4038098,-35.5117693,653,4030.61539
D1,Barra de Santo Antônio/AL,-9.4038098,-35.5117693,33,203.69113
1,Barra de São Francisco/ES,-18.7570902,-40.8916119,12338,27235.60186
D1,Barra de São Francisco/ES,-18.7570902,-40.8916119,263,580.56114
1,Barra de São Miguel/AL,-9.8261357,-35.8837777,1075,12746.02798
D1,Barra de São Miguel/AL,-9.8261357,-35.8837777,10,118.56770
1,Barra de São Miguel/PB,-7.7528088,-36.3170996,1393,22854.79902
D1,Barra de São Miguel/PB,-7.7528088,-36.3170996,10,164.06891
1,Barra do Bugres/MT,-15.0683712,-57.1853688,8455,23722.01336
D1,Barra do Bugres/MT,-15.0683712,-57.1853688,106,297.40194
1,Barra do Chapéu/SP,-24.472203,-49.023784,467,8060.06213
D1,Barra do Chapéu/SP,-24.472203,-49.023784,16,276.14774
1,Barra do Choça/BA,-14.8638173,-40.5761637,2978,9659.10934
D1,Barra do Choça/BA,-14.8638173,-40.5761637,43,139.47001
1,Barra do Corda/MA,-5.496823,-45.248496,5876,6610.04556
D1,Barra do Corda/MA,-5.496823,-45.248496,78,87.74397
1,Barra do Garças/MT,-15.8916033,-52.2615413,17384,28174.12726
D1,Barra do Garças/MT,-15.8916033,-52.2615413,409,662.86344
1,Barra do Guarita/RS,-27.1888016,-53.7147086,141,4317.20759
D1,Barra do Guarita/RS,-27.1888016,-53.7147086,8,244.94795
1,Barra do Jacaré/PR,-23.1151788,-50.1813945,689,24775.26070
D1,Barra do Jacaré/PR,-23.1151788,-50.1813945,7,251.70802
1,Barra do Mendes/BA,-11.8053298,-42.057037,1521,11585.92322
D1,Barra do Mendes/BA,-11.8053298,-42.057037,22,167.58074
1,Barra do Ouro/TO,-7.7113784,-47.6743925,213,4558.09972
D1,Barra do Ouro/TO,-7.7113784,-47.6743925,8,171.19623
1,Barra do Piraí/RJ,-22.4703403,-43.8263256,12961,12815.03673
D1,Barra do Piraí/RJ,-22.4703403,-43.8263256,451,445.92096
1,Barra do Quaraí/RS,-30.208947,-57.5505128,1124,26521.94431
D1,Barra do Quaraí/RS,-30.208947,-57.5505128,9,212.36432
1,Barra do Ribeiro/RS,-30.2930206,-51.301437,2748,20179.17462
D1,Barra do Ribeiro/RS,-30.2930206,-51.301437,63,462.62300
1,Barra do Rio Azul/RS,-27.4101581,-52.4117471,220,13571.86922
D1,Barra do Rio Azul/RS,-27.4101581,-52.4117471,1,61.69031
1,Barra do Rocha/BA,-14.2090974,-39.6004395,812,14723.48141
D1,Barra do Rocha/BA,-14.2090974,-39.6004395,8,145.05893
1,Barra do Turvo/SP,-24.756421,-48.5056942,894,11753.87852
D1,Barra do Turvo/SP,-24.756421,-48.5056942,27,354.98291
1,Barra dos Coqueiros/SE,-10.9075694,-37.0386249,9057,28808.16820
D1,Barra dos Coqueiros/SE,-10.9075694,-37.0386249,110,349.88390
1,Barra/BA,-11.0892702,-43.1420453,3623,6681.42001
D1,Barra/BA,-11.0892702,-43.1420453,72,132.78008
1,Barracão/PR,-26.252395,-53.6349576,2865,27689.18527
D1,Barracão/PR,-26.252395,-53.6349576,39,376.92085
1,Barracão/RS,-27.6728964,-51.4582928,917,17510.02482
D1,Barracão/RS,-27.6728964,-51.4582928,18,343.70823
1,Barras/PI,-4.2446153,-42.2920241,7005,14810.35139
D1,Barras/PI,-4.2446153,-42.2920241,109,230.45372
1,Barreira/CE,-4.2883361,-38.641094,2446,10768.21484
D1,Barreira/CE,-4.2883361,-38.641094,54,237.72837
1,Barreiras do Piauí/PI,-9.9224524,-45.4763776,114,3396.90107
D1,Barreiras do Piauí/PI,-9.9224524,-45.4763776,4,119.18951
1,Barreiras/BA,-12.1440031,-44.9967406,26233,16557.89234
D1,Barreiras/BA,-12.1440031,-44.9967406,355,224.07089
1,Barreirinha/AM,-2.798863,-57.067897,4115,12500.37972
D1,Barreirinha/AM,-2.798863,-57.067897,69,209.60540
1,Barreirinhas/MA,-2.7541271,-42.8259693,2986,4673.58470
D1,Barreirinhas/MA,-2.7541271,-42.8259693,46,71.99762
1,Barreiros/PE,-8.8159644,-35.1831905,1702,3970.51276
D1,Barreiros/PE,-8.8159644,-35.1831905,68,158.63388
1,Barretos/SP,-20.5531437,-48.5697509,30371,24582.74651
D1,Barretos/SP,-20.5531437,-48.5697509,640,518.02567
1,Barrinha/SP,-21.1898849,-48.1550642,1762,5253.89868
D1,Barrinha/SP,-21.1898849,-48.1550642,93,277.30566
1,Barro Alto/BA,-11.7618025,-41.9094904,1353,8918.33103
D1,Barro Alto/BA,-11.7618025,-41.9094904,17,112.05590
1,Barro Alto/GO,-14.9696025,-48.9190985,2991,25689.25535
D1,Barro Alto/GO,-14.9696025,-48.9190985,24,206.13244
1,Barro Duro/PI,-5.8180139,-42.5106589,856,12190.25919
D1,Barro Duro/PI,-5.8180139,-42.5106589,12,170.89148
1,Barro Preto/BA,-14.8068289,-39.4727588,778,14646.08434
D1,Barro Preto/BA,-14.8068289,-39.4727588,15,282.37952
1,Barro/CE,-7.1713587,-38.7742136,3116,13646.31690
D1,Barro/CE,-7.1713587,-38.7742136,52,227.73058
1,Barrocas/BA,-11.5165,-39.099282894736845,1177,7254.23729
D1,Barrocas/BA,-11.5165,-39.099282894736845,30,184.89985
1,Barrolândia/TO,-9.837246,-48.7264346,901,15893.45564
D1,Barrolândia/TO,-9.837246,-48.7264346,21,370.43570
1,Barroquinha/CE,-3.0200371,-41.1339229,1790,11878.69135
D1,Barroquinha/CE,-3.0200371,-41.1339229,28,185.81193
1,Barros Cassal/RS,-29.094938,-52.5832366,1651,14784.63329
D1,Barros Cassal/RS,-29.094938,-52.5832366,16,143.27931
1,Barroso/MG,-21.187222,-43.976111,5951,28363.75769
D1,Barroso/MG,-21.187222,-43.976111,74,352.70006
1,Barueri/SP,-23.5112184,-46.8764612,47207,16877.48477
D1,Barueri/SP,-23.5112184,-46.8764612,1262,451.19126
1,Barão de Antonina/SP,-23.6295651,-49.5632104,992,28141.84397
D1,Barão de Antonina/SP,-23.6295651,-49.5632104,11,312.05674
1,Barão de Cocais/MG,-19.9452437,-43.4870298,8009,24100.26481
D1,Barão de Cocais/MG,-19.9452437,-43.4870298,85,255.77756
1,Barão de Cotegipe/RS,-27.6214694,-52.3765316,1115,16853.08343
D1,Barão de Cotegipe/RS,-27.6214694,-52.3765316,11,166.26360
1,Barão de Grajaú/MA,-6.7542591,-43.0263477,503,2643.75066
D1,Barão de Grajaú/MA,-6.7542591,-43.0263477,6,31.53579
1,Barão de Melgaço/MT,-16.195776,-55.9668049,1244,15235.76240
D1,Barão de Melgaço/MT,-16.195776,-55.9668049,19,232.70055
1,Barão de Monte Alto/MG,-21.244722,-42.2375,387,7286.76332
D1,Barão de Monte Alto/MG,-21.244722,-42.2375,16,301.26153
1,Barão do Triunfo/RS,-30.3909877,-51.7375349,812,10754.96689
D1,Barão do Triunfo/RS,-30.3909877,-51.7375349,10,132.45033
1,Barão/RS,-29.372474,-51.494908,1429,22930.03851
D1,Barão/RS,-29.372474,-51.494908,15,240.69320
1,Bastos/SP,-21.9222474,-50.7317727,3816,18213.05842
D1,Bastos/SP,-21.9222474,-50.7317727,97,462.96296
1,Bataguassu/MS,-21.715899,-52.422058,4565,19326.84166
D1,Bataguassu/MS,-21.715899,-52.422058,55,232.85351
1,Batalha/AL,-9.6733809,-37.1265481,1303,7066.16052
D1,Batalha/AL,-9.6733809,-37.1265481,24,130.15184
1,Batalha/PI,-4.022391,-42.0780926,1592,5907.01644
D1,Batalha/PI,-4.022391,-42.0780926,40,148.41750
1,Batatais/SP,-20.892867,-47.592149,6893,10865.72717
D1,Batatais/SP,-20.892867,-47.592149,211,332.60822
1,Batayporã/MS,-22.2976466,-53.2685608,1864,16396.90359
D1,Batayporã/MS,-22.2976466,-53.2685608,32,281.49191
1,Baturité/CE,-4.3290203,-38.8821055,5927,16406.01212
D1,Baturité/CE,-4.3290203,-38.8821055,91,251.88917
1,Bauru/SP,-22.3218102,-49.0705863,85334,22355.94934
D1,Bauru/SP,-22.3218102,-49.0705863,1466,384.06522
1,Bayeux/PB,-7.1301631,-34.936532,13408,13749.11556
D1,Bayeux/PB,-7.1301631,-34.936532,273,279.94545
1,Baía Formosa/RN,-6.3691885,-35.0063741,895,9548.70372
D1,Baía Formosa/RN,-6.3691885,-35.0063741,11,117.35837
1,Baía da Traição/PB,-6.691258,-34.9371244,1775,19299.77166
D1,Baía da Traição/PB,-6.691258,-34.9371244,13,141.35044
1,Bebedouro/SP,-20.949077,-48.479083,6028,7766.84018
D1,Bebedouro/SP,-20.949077,-48.479083,352,453.53811
1,Beberibe/CE,-4.1810469,-38.1298101,10886,20042.34558
D1,Beberibe/CE,-4.1810469,-38.1298101,145,266.96124
1,Bela Cruz/CE,-3.0529129,-40.167582,4421,13457.73340
D1,Bela Cruz/CE,-3.0529129,-40.167582,79,240.47974
1,Bela Vista da Caroba/PR,-25.8792818,-53.6672545,810,23795.53467
D1,Bela Vista da Caroba/PR,-25.8792818,-53.6672545,9,264.39483
1,Bela Vista de Goiás/GO,-16.9692949,-48.9513071,6191,19968.39118
D1,Bela Vista de Goiás/GO,-16.9692949,-48.9513071,112,361.24371
1,Bela Vista de Minas/MG,-19.8289721,-43.0973688,1308,12737.36488
D1,Bela Vista de Minas/MG,-19.8289721,-43.0973688,26,253.18921
1,Bela Vista do Maranhão/MA,-3.7416367,-45.2514192,406,3578.03825
D1,Bela Vista do Maranhão/MA,-3.7416367,-45.2514192,19,167.44514
1,Bela Vista do Paraíso/PR,-22.9948493,-51.1907996,4105,26655.84416
D1,Bela Vista do Paraíso/PR,-22.9948493,-51.1907996,89,577.92208
1,Bela Vista do Piauí/PI,-7.9716353,-41.8715061,328,8110.78140
D1,Bela Vista do Piauí/PI,-7.9716353,-41.8715061,7,173.09594
1,Bela Vista do Toldo/SC,-26.274625,-50.466354,111,1738.17726
D1,Bela Vista do Toldo/SC,-26.274625,-50.466354,5,78.29627
1,Bela Vista/MS,-22.107327,-56.5317344,2927,11782.46518
D1,Bela Vista/MS,-22.107327,-56.5317344,45,181.14484
1,Belford Roxo/RJ,-22.7667284,-43.4033603,52330,10156.45167
D1,Belford Roxo/RJ,-22.7667284,-43.4033603,1027,199.32497
1,Belmiro Braga/MG,-21.9486291,-43.413564,983,28725.89129
D1,Belmiro Braga/MG,-21.9486291,-43.413564,6,175.33606
1,Belmonte/BA,-15.8630837,-38.8792845,1837,7803.73832
D1,Belmonte/BA,-15.8630837,-38.8792845,33,140.18692
1,Belmonte/SC,-26.8448262,-53.578916,666,24557.52212
D1,Belmonte/SC,-26.8448262,-53.578916,5,184.36578
1,Belo Campo/BA,-15.0338286,-41.2585109,1262,7417.85693
D1,Belo Campo/BA,-15.0338286,-41.2585109,22,129.31288
1,Belo Horizonte/MG,-19.9227318,-43.9450948,461219,18224.95032
D1,Belo Horizonte/MG,-19.9227318,-43.9450948,8243,325.72003
1,Belo Jardim/PE,-8.3338293,-36.4176419,10374,13484.98635
D1,Belo Jardim/PE,-8.3338293,-36.4176419,140,181.98362
1,Belo Monte/AL,-9.8269944,-37.2787165,680,10123.56707
D1,Belo Monte/AL,-9.8269944,-37.2787165,11,163.76358
1,Belo Oriente/MG,-19.2232523,-42.4807033,3654,13395.90131
D1,Belo Oriente/MG,-19.2232523,-42.4807033,83,304.28566
1,Belo Vale/MG,-20.407778,-44.024167,1723,22309.98317
D1,Belo Vale/MG,-20.407778,-44.024167,20,258.96672
1,Belterra/PA,-2.636091,-54.937392,3438,19159.60767
D1,Belterra/PA,-2.636091,-54.937392,50,278.64467
1,Belágua/MA,-3.1604031,-43.5085052,451,5945.16214
D1,Belágua/MA,-3.1604031,-43.5085052,4,52.72871
1,Belém de Maria/PE,-8.6242497,-35.8388934,544,4470.37554
D1,Belém de Maria/PE,-8.6242497,-35.8388934,10,82.17602
1,Belém do Brejo do Cruz/PB,-6.1880727,-37.5332267,969,13172.92007
D1,Belém do Brejo do Cruz/PB,-6.1880727,-37.5332267,10,135.94345
1,Belém do Piauí/PI,-7.3767305,-40.9712156,627,17382.86665
D1,Belém do Piauí/PI,-7.3767305,-40.9712156,8,221.79096
1,Belém do São Francisco/PE,-8.7517707,-38.9625715,2064,9956.58466
D1,Belém do São Francisco/PE,-8.7517707,-38.9625715,23,110.95031
1,Belém/AL,-9.5715351,-36.492841,259,6128.72693
D1,Belém/AL,-9.5715351,-36.492841,8,189.30431
1,Belém/PA,-1.45056,-48.4682453,155749,10339.01568
D1,Belém/PA,-1.45056,-48.4682453,5424,360.05895
1,Belém/PB,-6.6967586,-35.5369626,3121,17599.95489
D1,Belém/PB,-6.6967586,-35.5369626,48,270.68178
1,Beneditinos/PI,-5.4565671,-42.3605061,1538,14676.97299
D1,Beneditinos/PI,-5.4565671,-42.3605061,43,410.34450
1,Benedito Leite/MA,-7.2173453,-44.5523331,388,6875.77530
D1,Benedito Leite/MA,-7.2173453,-44.5523331,2,35.44214
1,Benedito Novo/SC,-26.7840657,-49.3629511,1617,13592.80430
D1,Benedito Novo/SC,-26.7840657,-49.3629511,25,210.15467
1,Benevides/PA,-1.3555577,-48.252235,7261,11208.70639
D1,Benevides/PA,-1.3555577,-48.252235,118,182.15499
1,Benjamin Constant do Sul/RS,-27.5105555,-52.6007689,208,10810.81081
D1,Benjamin Constant do Sul/RS,-27.5105555,-52.6007689,3,155.92516
1,Benjamin Constant/AM,-4.3782748,-70.0290603,4125,9192.61026
D1,Benjamin Constant/AM,-4.3782748,-70.0290603,89,198.33753
1,Bento Fernandes/RN,-5.6926846,-35.8207423,315,5673.63112
D1,Bento Fernandes/RN,-5.6926846,-35.8207423,4,72.04611
1,Bento Gonçalves/RS,-29.1654014,-51.5197627,40016,32509.54586
D1,Bento Gonçalves/RS,-29.1654014,-51.5197627,486,394.83305
1,Bento de Abreu/SP,-21.2707225,-50.8120444,666,21994.71598
D1,Bento de Abreu/SP,-21.2707225,-50.8120444,6,198.15059
1,Bequimão/MA,-2.4495376,-44.7884889,1074,5038.23240
D1,Bequimão/MA,-2.4495376,-44.7884889,28,131.35057
1,Berilo/MG,-16.9515764,-42.4643732,539,4562.76983
D1,Berilo/MG,-16.9515764,-42.4643732,3,25.39575
1,Berizal/MG,-15.6118785,-41.7417382,419,8743.73957
D1,Berizal/MG,-15.6118785,-41.7417382,3,62.60434
1,Bernardino Batista/PB,-6.4532173,-38.5495418,471,13189.58275
D1,Bernardino Batista/PB,-6.4532173,-38.5495418,3,84.01008
1,Bernardino de Campos/SP,-23.0140216,-49.4760724,2060,18445.55874
D1,Bernardino de Campos/SP,-23.0140216,-49.4760724,42,376.07450
1,Bernardo Sayão/TO,-7.8794244,-48.8968905,1240,27934.21942
D1,Bernardo Sayão/TO,-7.8794244,-48.8968905,13,292.85875
1,Bernardo do Mearim/MA,-4.6315929,-44.7617508,614,10062.27466
D1,Bernardo do Mearim/MA,-4.6315929,-44.7617508,7,114.71649
1,Bertioga/SP,-23.848568,-46.139586,11045,16695.89140
D1,Bertioga/SP,-23.848568,-46.139586,200,302.32488
1,Bertolínia/PI,-7.6372159,-43.9540611,1281,23240.20319
D1,Bertolínia/PI,-7.6372159,-43.9540611,12,217.70682
1,Bertópolis/MG,-17.063333,-40.573889,863,18724.23519
D1,Bertópolis/MG,-17.063333,-40.573889,6,130.18008
1,Beruri/AM,-3.9007135,-61.3717319,2982,14544.21304
D1,Beruri/AM,-3.9007135,-61.3717319,35,170.70673
1,Betim/MG,-19.968056,-44.198333,54427,12094.24386
D1,Betim/MG,-19.968056,-44.198333,1468,326.20482
1,Betânia do Piauí/PI,-8.1460635,-40.7961387,184,2961.05568
D1,Betânia do Piauí/PI,-8.1460635,-40.7961387,4,64.37078
1,Betânia/PE,-8.2742779,-38.0351767,1163,9078.13598
D1,Betânia/PE,-8.2742779,-38.0351767,19,148.31005
1,Bezerros/PE,-8.2372132,-35.7558262,9740,15977.69029
D1,Bezerros/PE,-8.2372132,-35.7558262,132,216.53543
1,Bias Fortes/MG,-21.605833,-43.756944,610,18586.22791
D1,Bias Fortes/MG,-21.605833,-43.756944,4,121.87690
1,Bicas/MG,-21.7213723,-43.0604327,4044,27675.88284
D1,Bicas/MG,-21.7213723,-43.0604327,56,383.24665
1,Biguaçu/SC,-27.4961277,-48.6542432,17759,25200.43706
D1,Biguaçu/SC,-27.4961277,-48.6542432,191,271.03347
1,Bilac/SP,-21.403962,-50.47464,970,11833.59766
D1,Bilac/SP,-21.403962,-50.47464,25,304.98963
1,Biquinhas/MG,-18.783611,-45.502222,425,17123.28767
D1,Biquinhas/MG,-18.783611,-45.502222,4,161.16035
1,Birigui/SP,-21.2908491,-50.34144,30669,24322.33096
D1,Birigui/SP,-21.2908491,-50.34144,648,513.90233
1,Biritiba Mirim/SP,-23.5697765,-46.0407456,1589,4776.79242
D1,Biritiba Mirim/SP,-23.5697765,-46.0407456,120,360.73952
1,Biritinga/BA,-11.6227908,-38.8066738,1160,7254.98780
D1,Biritinga/BA,-11.6227908,-38.8066738,13,81.30590
1,Bituruna/PR,-26.161281,-51.5533319,2788,16988.60520
D1,Bituruna/PR,-26.161281,-51.5533319,40,243.73896
1,Blumenau/SC,-26.9195567,-49.0658025,111124,30327.11275
D1,Blumenau/SC,-26.9195567,-49.0658025,825,225.15269
1,Boa Esperança do Iguaçu/PR,-25.6362851,-53.2139114,520,21337.71030
D1,Boa Esperança do Iguaçu/PR,-25.6362851,-53.2139114,2,82.06812
1,Boa Esperança do Sul/SP,-21.9930206,-48.3917372,2702,17881.01383
D1,Boa Esperança do Sul/SP,-21.9930206,-48.3917372,28,185.29548
1,Boa Esperança/ES,-18.5395472,-40.2904088,5324,35151.19503
D1,Boa Esperança/ES,-18.5395472,-40.2904088,56,369.73458
1,Boa Esperança/MG,-21.0901253,-45.5660195,9014,22362.80639
D1,Boa Esperança/MG,-21.0901253,-45.5660195,154,382.05815
1,Boa Esperança/PR,-24.2411024,-52.7860277,1457,36507.14107
D1,Boa Esperança/PR,-24.2411024,-52.7860277,20,501.12754
1,Boa Hora/PI,-4.4094627,-42.1255341,608,8878.50467
D1,Boa Hora/PI,-4.4094627,-42.1255341,7,102.21963
1,Boa Nova/BA,-14.365907,-40.2063056,1368,11363.07002
D1,Boa Nova/BA,-14.365907,-40.2063056,23,191.04577
1,Boa Ventura de São Roque/PR,-24.88177,-51.5441292,1142,18004.09901
D1,Boa Ventura de São Roque/PR,-24.88177,-51.5441292,12,189.18493
1,Boa Ventura/PB,-7.4202462,-38.2156782,1095,20865.09146
D1,Boa Ventura/PB,-7.4202462,-38.2156782,12,228.65854
1,Boa Viagem/CE,-5.1261877,-39.7300055,6467,11826.99342
D1,Boa Viagem/CE,-5.1261877,-39.7300055,124,226.77396
1,Boa Vista da Aparecida/PR,-25.4357216,-53.4067721,1853,24627.85752
D1,Boa Vista da Aparecida/PR,-25.4357216,-53.4067721,42,558.21372
1,Boa Vista das Missões/RS,-27.6677983,-53.3127622,725,34738.85961
D1,Boa Vista das Missões/RS,-27.6677983,-53.3127622,7,335.40968
1,Boa Vista do Buricá/RS,-27.6687782,-54.1111913,1773,26415.37545
D1,Boa Vista do Buricá/RS,-27.6687782,-54.1111913,13,193.68296
1,Boa Vista do Cadeado/RS,-28.5783827,-53.8123759,477,19343.06569
D1,Boa Vista do Cadeado/RS,-28.5783827,-53.8123759,5,202.75750
1,Boa Vista do Gurupi/MA,-1.7981168,-46.3071882,16,188.36826
D1,Boa Vista do Gurupi/MA,-1.7981168,-46.3071882,5,58.86508
1,Boa Vista do Incra/RS,-28.8195551,-53.3866624,865,32914.76408
D1,Boa Vista do Incra/RS,-28.8195551,-53.3866624,5,190.25875
1,Boa Vista do Ramos/AM,-2.9716927,-57.5869819,1849,9226.54691
D1,Boa Vista do Ramos/AM,-2.9716927,-57.5869819,14,69.86028
1,Boa Vista do Sul/RS,-29.3510488,-51.6779679,677,24413.99207
D1,Boa Vista do Sul/RS,-29.3510488,-51.6779679,5,180.31013
1,Boa Vista do Tupim/BA,-12.6605988,-40.6083594,320,1730.57163
D1,Boa Vista do Tupim/BA,-12.6605988,-40.6083594,14,75.71251
1,Boa Vista/PB,-7.2620711,-36.2415161,1769,24508.17401
D1,Boa Vista/PB,-7.2620711,-36.2415161,17,235.52231
1,Boa Vista/RR,2.8208478,-60.6719582,138087,31628.45776
D1,Boa Vista/RR,2.8208478,-60.6719582,1638,375.17952
1,Boca da Mata/AL,-9.6452054,-36.2116658,2828,10310.25557
D1,Boca da Mata/AL,-9.6452054,-36.2116658,53,193.22615
1,Boca do Acre/AM,-8.7553487,-67.3930873,4881,13962.46925
D1,Boca do Acre/AM,-8.7553487,-67.3930873,32,91.53842
1,Bocaina de Minas/MG,-22.167778,-44.394722,874,17177.67296
D1,Bocaina de Minas/MG,-22.167778,-44.394722,7,137.57862
1,Bocaina do Sul/SC,-27.745494,-49.942279,899,25678.37761
D1,Bocaina do Sul/SC,-27.745494,-49.942279,5,142.81634
1,Bocaina/PI,-6.9445939,-41.3224599,453,10046.57352
D1,Bocaina/PI,-6.9445939,-41.3224599,11,243.95653
1,Bocaina/SP,-22.1421831,-48.522276,2508,19950.68014
D1,Bocaina/SP,-22.1421831,-48.522276,39,310.23785
1,Bocaiúva do Sul/PR,-25.206591,-49.114131,3462,26014.42741
D1,Bocaiúva do Sul/PR,-25.206591,-49.114131,31,232.94259
1,Bocaiúva/MG,-17.1160208,-43.8122678,5061,10017.61644
D1,Bocaiúva/MG,-17.1160208,-43.8122678,81,160.32937
1,Bodocó/PE,-7.777592,-39.933797,3293,8529.98316
D1,Bodocó/PE,-7.777592,-39.933797,45,116.56521
1,Bodoquena/MS,-20.5508775,-56.6769653,927,11881.56883
D1,Bodoquena/MS,-20.5508775,-56.6769653,24,307.61343
1,Bodó/RN,-5.9866104,-36.4134824,564,25978.81161
D1,Bodó/RN,-5.9866104,-36.4134824,2,92.12345
1,Bofete/SP,-23.1019554,-48.2610535,2414,19938.87833
D1,Bofete/SP,-23.1019554,-48.2610535,29,239.53085
1,Boituva/SP,-23.2838893,-47.6738231,7058,11148.31780
D1,Boituva/SP,-23.2838893,-47.6738231,214,338.01927
1,Bom Conselho/PE,-9.169191,-36.685683,3905,7973.45584
D1,Bom Conselho/PE,-9.169191,-36.685683,92,187.85094
1,Bom Despacho/MG,-19.7375242,-45.2517288,12789,24863.90855
D1,Bom Despacho/MG,-19.7375242,-45.2517288,137,266.35042
1,Bom Jardim da Serra/SC,-28.3380324,-49.625588,1124,23411.78921
D1,Bom Jardim da Serra/SC,-28.3380324,-49.625588,8,166.63195
1,Bom Jardim de Goiás/GO,-16.2062659,-52.172793,2587,29028.27648
D1,Bom Jardim de Goiás/GO,-16.2062659,-52.172793,32,359.06643
1,Bom Jardim de Minas/MG,-21.9476466,-44.1906033,1499,23261.94910
D1,Bom Jardim de Minas/MG,-21.9476466,-44.1906033,8,124.14649
1,Bom Jardim/MA,-3.54129,-45.606004,2210,5260.65223
D1,Bom Jardim/MA,-3.54129,-45.606004,58,138.06237
1,Bom Jardim/PE,-7.7961572,-35.5871696,3025,7555.32244
D1,Bom Jardim/PE,-7.7961572,-35.5871696,74,184.82442
1,Bom Jardim/RJ,-22.1515328,-42.4186683,5037,18132.40217
D1,Bom Jardim/RJ,-22.1515328,-42.4186683,61,219.59034
1,Bom Jesus da Lapa/BA,-13.250571,-43.410754,8563,12206.52592
D1,Bom Jesus da Lapa/BA,-13.250571,-43.410754,111,158.23010
1,Bom Jesus da Penha/MG,-21.0165299,-46.5226644,1349,31592.50585
D1,Bom Jesus da Penha/MG,-21.0165299,-46.5226644,21,491.80328
1,Bom Jesus da Serra/BA,-14.3724084,-40.5047119,692,7084.35708
D1,Bom Jesus da Serra/BA,-14.3724084,-40.5047119,13,133.08763
1,Bom Jesus das Selvas/MA,-4.4878075,-46.8526639,4521,12882.17695
D1,Bom Jesus das Selvas/MA,-4.4878075,-46.8526639,44,125.37398
1,Bom Jesus de Goiás/GO,-18.2174587,-49.739721,6128,23506.84721
D1,Bom Jesus de Goiás/GO,-18.2174587,-49.739721,126,483.33269
1,Bom Jesus do Amparo/MG,-19.7045132,-43.4752911,640,10352.63669
D1,Bom Jesus do Amparo/MG,-19.7045132,-43.4752911,9,145.58395
1,Bom Jesus do Araguaia/MT,-12.1725897,-51.5074425,1142,16720.35139
D1,Bom Jesus do Araguaia/MT,-12.1725897,-51.5074425,17,248.90190
1,Bom Jesus do Galho/MG,-19.8283191,-42.3162256,1026,6936.18172
D1,Bom Jesus do Galho/MG,-19.8283191,-42.3162256,42,283.93726
1,Bom Jesus do Itabapoana/RJ,-21.1341025,-41.680095,8653,23194.66038
D1,Bom Jesus do Itabapoana/RJ,-21.1341025,-41.680095,127,340.42781
1,Bom Jesus do Norte/ES,-21.1254776,-41.6711646,2981,29845.81498
D1,Bom Jesus do Norte/ES,-21.1254776,-41.6711646,34,340.40849
1,Bom Jesus do Oeste/SC,-26.6929713,-53.0967453,385,18024.34457
D1,Bom Jesus do Oeste/SC,-26.6929713,-53.0967453,6,280.89888
1,Bom Jesus do Sul/PR,-26.1922507,-53.6002033,1426,41071.42857
D1,Bom Jesus do Sul/PR,-26.1922507,-53.6002033,11,316.82028
1,Bom Jesus do Tocantins/PA,-5.0471796,-48.5978362,1392,8067.69445
D1,Bom Jesus do Tocantins/PA,-5.0471796,-48.5978362,29,168.07697
1,Bom Jesus do Tocantins/TO,-8.96306,-48.165043,201,3925.78125
D1,Bom Jesus do Tocantins/TO,-8.96306,-48.165043,3,58.59375
1,Bom Jesus dos Perdões/SP,-23.1353864,-46.4648052,2544,9597.82691
D1,Bom Jesus dos Perdões/SP,-23.1353864,-46.4648052,52,196.18200
1,Bom Jesus/PB,-6.8156725,-38.6551841,480,18547.14065
D1,Bom Jesus/PB,-6.8156725,-38.6551841,4,154.55951
1,Bom Jesus/PI,-9.0711644,-44.3583926,3880,15165.72858
D1,Bom Jesus/PI,-9.0711644,-44.3583926,55,214.97811
1,Bom Jesus/RN,-5.9887544,-35.5821149,1568,15189.38293
D1,Bom Jesus/RN,-5.9887544,-35.5821149,20,193.74213
1,Bom Jesus/RS,-28.6692723,-50.4346894,1983,17595.38598
D1,Bom Jesus/RS,-28.6692723,-50.4346894,28,248.44720
1,Bom Jesus/SC,-26.7350604,-52.3916519,788,25386.59794
D1,Bom Jesus/SC,-26.7350604,-52.3916519,12,386.59794
1,Bom Lugar/MA,-4.3728019,-45.0366054,660,3981.17988
D1,Bom Lugar/MA,-4.3728019,-45.0366054,7,42.22464
1,Bom Princípio do Piauí/PI,-3.1912777,-41.6430185,302,5326.27866
D1,Bom Princípio do Piauí/PI,-3.1912777,-41.6430185,14,246.91358
1,Bom Princípio/RS,-29.489788,-51.3566782,3832,26526.37408
D1,Bom Princípio/RS,-29.489788,-51.3566782,36,249.20393
1,Bom Progresso/RS,-27.5490948,-53.8655601,330,17761.03337
D1,Bom Progresso/RS,-27.5490948,-53.8655601,3,161.46394
1,Bom Repouso/MG,-22.4657069,-46.1485376,2645,25125.86682
D1,Bom Repouso/MG,-22.4657069,-46.1485376,35,332.47839
1,Bom Retiro do Sul/RS,-29.6000007,-51.9359243,2399,19272.17224
D1,Bom Retiro do Sul/RS,-29.6000007,-51.9359243,42,337.40360
1,Bom Retiro/SC,-27.798993,-49.486994,1334,13138.97370
D1,Bom Retiro/SC,-27.798993,-49.486994,23,226.53403
1,Bom Sucesso de Itararé/SP,-24.3190016,-49.1446207,661,16471.46773
D1,Bom Sucesso de Itararé/SP,-24.3190016,-49.1446207,7,174.43309
1,Bom Sucesso do Sul/PR,-26.0749256,-52.8348629,1125,34679.40814
D1,Bom Sucesso do Sul/PR,-26.0749256,-52.8348629,10,308.26141
1,Bom Sucesso/MG,-21.0323516,-44.7598082,2453,13928.00363
D1,Bom Sucesso/MG,-21.0323516,-44.7598082,35,198.72814
1,Bom Sucesso/PB,-6.4458948,-37.9297662,837,16953.61556
D1,Bom Sucesso/PB,-6.4458948,-37.9297662,5,101.27608
1,Bom Sucesso/PR,-23.7088019,-51.7651297,2653,37350.41532
D1,Bom Sucesso/PR,-23.7088019,-51.7651297,22,309.72828
1,Bombinhas/SC,-27.1519159,-48.4875691,5050,24175.40332
D1,Bombinhas/SC,-27.1519159,-48.4875691,77,368.61506
1,Bonfim do Piauí/PI,-9.1648678,-42.8734415,519,9105.26316
D1,Bonfim do Piauí/PI,-9.1648678,-42.8734415,9,157.89474
1,Bonfim/MG,-20.3266626, -44.2386157,1004,14652.65616
D1,Bonfim/MG,-20.3266626, -44.2386157,21,306.47986
1,Bonfim/RR,3.3613818,-59.8427241,3395,26730.17873
D1,Bonfim/RR,3.3613818,-59.8427241,37,291.31564
1,Bonfinópolis de Minas/MG,-16.5660011,-45.98645,960,17787.65981
D1,Bonfinópolis de Minas/MG,-16.5660011,-45.98645,15,277.93218
1,Bonfinópolis/GO,-16.6172709,-48.9615701,691,6828.06324
D1,Bonfinópolis/GO,-16.6172709,-48.9615701,37,365.61265
1,Boninal/BA,-12.7095183,-41.8299984,1212,8348.25734
D1,Boninal/BA,-12.7095183,-41.8299984,11,75.76801
1,Bonito de Minas/MG,-15.3191266,-44.7544,379,3295.07912
D1,Bonito de Minas/MG,-15.3191266,-44.7544,5,43.47070
1,Bonito de Santa Fé/PB,-7.3143332,-38.5146677,970,7999.34026
D1,Bonito de Santa Fé/PB,-7.3143332,-38.5146677,14,115.45440
1,Bonito/BA,-11.9665473,-41.2649896,1718,10106.47685
D1,Bonito/BA,-11.9665473,-41.2649896,17,100.00588
1,Bonito/MS,-21.1264766,-56.4902208,5598,24989.95581
D1,Bonito/MS,-21.1264766,-56.4902208,83,370.51917
1,Bonito/PA,-1.3605722,-47.3049907,539,3214.26442
D1,Bonito/PA,-1.3605722,-47.3049907,18,107.34093
1,Bonito/PE,-8.4721161,-35.7314591,3030,7952.54718
D1,Bonito/PE,-8.4721161,-35.7314591,48,125.98095
1,Bonópolis/GO,-13.649331,-49.8329113,963,21030.79275
D1,Bonópolis/GO,-13.649331,-49.8329113,5,109.19415
1,Boqueirão do Leão/RS,-29.30332,-52.4296817,771,10024.70420
D1,Boqueirão do Leão/RS,-29.30332,-52.4296817,35,455.07736
1,Boqueirão do Piauí/PI,-4.4850148,-42.1095161,893,13860.00310
D1,Boqueirão do Piauí/PI,-4.4850148,-42.1095161,14,217.29008
1,Boqueirão/PB,-7.487004,-36.130887,2643,14737.37036
D1,Boqueirão/PB,-7.487004,-36.130887,53,295.52805
1,Boquim/SE,-11.1450175,-37.6204228,4071,15088.95478
D1,Boquim/SE,-11.1450175,-37.6204228,79,292.80949
1,Boquira/BA,-12.8184859,-42.7270883,1117,5198.73406
D1,Boquira/BA,-12.8184859,-42.7270883,27,125.66322
1,Boracéia/SP,-22.195355,-48.7801925,1060,21575.41217
D1,Boracéia/SP,-22.195355,-48.7801925,26,529.20822
1,Borba/AM,-4.3934778,-59.5947721,3961,9357.87186
D1,Borba/AM,-4.3934778,-59.5947721,71,167.73767
1,Borborema/PB,-6.8066718,-35.5990191,480,9037.84598
D1,Borborema/PB,-6.8066718,-35.5990191,14,263.60384
1,Borborema/SP,-21.6212706,-49.074135,4268,26219.43728
D1,Borborema/SP,-21.6212706,-49.074135,60,368.59565
1,Borda da Mata/MG,-22.274167,-46.165278,5986,30218.58751
D1,Borda da Mata/MG,-22.274167,-46.165278,66,333.18189
1,Borebi/SP,-22.5700178,-48.9714871,305,11242.16734
D1,Borebi/SP,-22.5700178,-48.9714871,4,147.43826
1,Borrazópolis/PR,-23.9393362,-51.5850786,2012,31987.28140
D1,Borrazópolis/PR,-23.9393362,-51.5850786,38,604.13355
1,Borá/SP,-22.2701088,-50.544407,205,24433.84982
D1,Borá/SP,-22.2701088,-50.544407,1,119.18951
1,Bossoroca/RS,-28.7278885,-54.9120278,932,15191.52404
D1,Bossoroca/RS,-28.7278885,-54.9120278,22,358.59821
1,Botelhos/MG,-21.65,-46.394722,4141,27741.67616
D1,Botelhos/MG,-21.65,-46.394722,37,247.87298
1,Botucatu/SP,-22.8879628,-48.4410712,52772,35247.59882
D1,Botucatu/SP,-22.8879628,-48.4410712,392,261.82557
1,Botumirim/MG,-16.862778,-43.011111,1015,16216.64803
D1,Botumirim/MG,-16.862778,-43.011111,5,79.88497
1,Botuporã/BA,-13.3744752,-42.5198469,1082,10766.16915
D1,Botuporã/BA,-13.3744752,-42.5198469,8,79.60199
1,Botuverá/SC,-27.200749,-49.068892,1819,33710.15567
D1,Botuverá/SC,-27.200749,-49.068892,12,222.38695
1,Bozano/RS,-28.3669953,-53.7705165,654,31157.69414
D1,Bozano/RS,-28.3669953,-53.7705165,9,428.77561
1,Braga/RS,-27.617348,-53.740514,725,22164.47570
D1,Braga/RS,-27.617348,-53.740514,12,366.86029
1,Braganey/PR,-24.8179919,-53.118506,1436,26901.46122
D1,Braganey/PR,-24.8179919,-53.118506,15,281.00412
1,Bragança Paulista/SP,-22.9520235,-46.5418586,44243,25671.03385
D1,Bragança Paulista/SP,-22.9520235,-46.5418586,648,375.98784
1,Bragança/PA,-1.0573967,-46.7635406,8256,6344.81487
D1,Bragança/PA,-1.0573967,-46.7635406,201,154.47042
1,Branquinha/AL,-9.2478057,-36.0152009,1197,11480.91310
D1,Branquinha/AL,-9.2478057,-36.0152009,17,163.05390
1,Brasil Novo/PA,-3.3055853,-52.539198,4936,33165.35645
D1,Brasil Novo/PA,-3.3055853,-52.539198,49,329.23470
1,Brasileira/PI,-4.131182,-41.7824969,1094,13079.86609
D1,Brasileira/PI,-4.131182,-41.7824969,21,251.07604
1,Brasilândia de Minas/MG,-17.0096469,-46.0087183,3443,20312.68437
D1,Brasilândia de Minas/MG,-17.0096469,-46.0087183,31,182.89086
1,Brasilândia do Sul/PR,-24.1975793,-53.527551,1016,40301.46767
D1,Brasilândia do Sul/PR,-24.1975793,-53.527551,14,555.33518
1,Brasilândia do Tocantins/TO,-8.3886619,-48.4842729,310,13957.67672
D1,Brasilândia do Tocantins/TO,-8.3886619,-48.4842729,5,225.12382
1,Brasilândia/MS,-21.255575,-52.0365617,2280,19264.89227
D1,Brasilândia/MS,-21.255575,-52.0365617,28,236.58640
1,Brasiléia/AC,-11.0010413,-68.7487894,4026,14843.49076
D1,Brasiléia/AC,-11.0010413,-68.7487894,51,188.03230
1,Brasnorte/MT,-12.1227151,-58.0050109,3836,18647.61071
D1,Brasnorte/MT,-12.1227151,-58.0050109,45,218.75456
1,Brasília de Minas/MG,-16.2075114,-44.430559,2182,6722.11953
D1,Brasília de Minas/MG,-16.2075114,-44.430559,18,55.45287
1,Brasília/DF,-15.7934036,-47.8823172,880172,28444.71735
D1,Brasília/DF,-15.7934036,-47.8823172,11837,382.53900
1,Brazabrantes/GO,-16.4291635,-49.3858216,939,24632.73872
D1,Brazabrantes/GO,-16.4291635,-49.3858216,8,209.86359
1,Brazópolis/MG,-22.4742842,-45.6165577,2066,14383.18017
D1,Brazópolis/MG,-22.4742842,-45.6165577,40,278.47396
1,Braço do Norte/SC,-28.2728633,-49.1622712,13397,39065.14259
D1,Braço do Norte/SC,-28.2728633,-49.1622712,120,349.91544
1,Braço do Trombudo/SC,-27.358578,-49.882145,1255,33078.54507
D1,Braço do Trombudo/SC,-27.358578,-49.882145,8,210.85925
1,Braúna/SP,-21.5015319,-50.3175246,636,10974.97843
D1,Braúna/SP,-21.5015319,-50.3175246,26,448.66264
1,Braúnas/MG,-19.055556,-42.716111,488,10301.87883
D1,Braúnas/MG,-19.055556,-42.716111,12,253.32489
1,Brejetuba/ES,-20.1465817,-41.2902303,3164,25413.65462
D1,Brejetuba/ES,-20.1465817,-41.2902303,21,168.67470
1,Brejinho de Nazaré/TO,-11.0205883,-48.5722906,1446,26101.08303
D1,Brejinho de Nazaré/TO,-11.0205883,-48.5722906,20,361.01083
1,Brejinho/PE,-7.3482153,-37.28538,1266,16904.79370
D1,Brejinho/PE,-7.3482153,-37.28538,22,293.76419
1,Brejinho/RN,-6.1957907,-35.3583019,2063,16025.79041
D1,Brejinho/RN,-6.1957907,-35.3583019,20,155.36394
1,Brejo Alegre/SP,-21.1671191,-50.1850393,838,28787.35830
D1,Brejo Alegre/SP,-21.1671191,-50.1850393,14,480.93439
1,Brejo Grande do Araguaia/PA,-5.7011449,-48.4037308,1290,17534.32105
D1,Brejo Grande do Araguaia/PA,-5.7011449,-48.4037308,6,81.55498
1,Brejo Grande/SE,-10.4287358,-36.4667918,698,8313.48261
D1,Brejo Grande/SE,-10.4287358,-36.4667918,13,154.83564
1,Brejo Santo/CE,-7.4909841,-38.9859152,11903,23713.51728
D1,Brejo Santo/CE,-7.4909841,-38.9859152,159,316.76462
1,Brejo da Madre de Deus/PE,-8.1409718,-36.3712527,4410,8530.64067
D1,Brejo da Madre de Deus/PE,-8.1409718,-36.3712527,64,123.80068
1,Brejo de Areia/MA,-4.3316785,-45.5833334,485,5485.80477
D1,Brejo de Areia/MA,-4.3316785,-45.5833334,11,124.42031
1,Brejo do Cruz/PB,-6.32926065,-37.48746163303929,2109,14761.67145
D1,Brejo do Cruz/PB,-6.32926065,-37.48746163303929,25,174.98425
1,Brejo do Piauí/PI,-8.207583,-42.8359849,249,6511.50628
D1,Brejo do Piauí/PI,-8.207583,-42.8359849,5,130.75314
1,Brejo dos Santos/PB,-6.3769367,-37.8243125,1658,25590.36888
D1,Brejo dos Santos/PB,-6.3769367,-37.8243125,8,123.47585
1,Brejo/MA,-3.6804397,-42.7529313,1087,2945.79946
D1,Brejo/MA,-3.6804397,-42.7529313,20,54.20054
1,Brejolândia/BA,-12.4843845,-43.9611861,414,3878.22014
D1,Brejolândia/BA,-12.4843845,-43.9611861,13,121.77986
1,Brejão/PE,-9.029146,-36.566034,675,7515.86683
D1,Brejão/PE,-9.029146,-36.566034,10,111.34618
1,Brejões/BA,-13.1033754,-39.7909837,1489,10519.25115
D1,Brejões/BA,-13.1033754,-39.7909837,20,141.29283
1,Breu Branco/PA,-3.7785073,-49.5684795,1743,2540.92745
D1,Breu Branco/PA,-3.7785073,-49.5684795,74,107.87644
1,Breves/PA,-1.68036,-50.479085,6648,6375.14384
D1,Breves/PA,-1.68036,-50.479085,127,121.78750
1,Britânia/GO,-15.2427599,-51.1602061,1494,25692.17541
D1,Britânia/GO,-15.2427599,-51.1602061,10,171.96905
1,Brochier/RS,-29.556766,-51.5963047,1276,24863.60094
D1,Brochier/RS,-29.556766,-51.5963047,8,155.88465
1,Brodowski/SP,-20.984532,-47.657217,4629,18078.50029
D1,Brodowski/SP,-20.984532,-47.657217,87,339.77739
1,Brotas de Macaúbas/BA,-12.0019007,-42.6257506,689,6436.24475
D1,Brotas de Macaúbas/BA,-12.0019007,-42.6257506,9,84.07286
1,Brotas/SP,-22.2840884,-48.1267265,7611,30612.98367
D1,Brotas/SP,-22.2840884,-48.1267265,77,309.70960
1,Brumadinho/MG,-20.143611,-44.2,8385,20347.99068
D1,Brumadinho/MG,-20.143611,-44.2,111,269.36517
1,Brumado/BA,-14.29507325,-41.659307508575985,11890,17623.16950
D1,Brumado/BA,-14.29507325,-41.659307508575985,211,312.74085
1,Brunópolis/SC,-27.310953,-50.837585,754,32528.04142
D1,Brunópolis/SC,-27.310953,-50.837585,9,388.26575
1,Brusque/SC,-27.0964628,-48.9136323,45142,32107.37071
D1,Brusque/SC,-27.0964628,-48.9136323,365,259.60725
1,Brás Pires/MG,-20.8483109,-43.2430524,727,17085.78143
D1,Brás Pires/MG,-20.8483109,-43.2430524,11,258.51939
1,Bueno Brandão/MG,-22.441976,-46.3517971,2430,22127.11710
D1,Bueno Brandão/MG,-22.441976,-46.3517971,40,364.23238
1,Buenos Aires/PE,-7.7218931,-35.326587,741,5603.44828
D1,Buenos Aires/PE,-7.7218931,-35.326587,28,211.73624
1,Buenópolis/MG,-17.8756607,-44.1749365,1112,10752.27229
D1,Buenópolis/MG,-17.8756607,-44.1749365,20,193.38619
1,Buerarema/BA,-14.9571177,-39.3008035,1743,9540.75209
D1,Buerarema/BA,-14.9571177,-39.3008035,53,290.10893
1,Bugre/MG,-19.4257687,-42.2556,380,9538.15261
D1,Bugre/MG,-19.4257687,-42.2556,14,351.40562
1,Bujari/AC,-9.8309656,-67.9520886,1649,15597.80552
D1,Bujari/AC,-9.8309656,-67.9520886,18,170.26107
1,Bujaru/PA,-1.5169239,-48.0410699,2058,6925.32894
D1,Bujaru/PA,-1.5169239,-48.0410699,43,144.69832
1,Buri/SP,-23.79849,-48.598924,4367,21780.54863
D1,Buri/SP,-23.79849,-48.598924,106,528.67830
1,Buritama/SP,-21.0664017,-50.1448077,5774,33157.22982
D1,Buritama/SP,-21.0664017,-50.1448077,91,522.56805
1,Buriti Alegre/GO,-18.1377879,-49.0404411,1883,19789.80557
D1,Buriti Alegre/GO,-18.1377879,-49.0404411,40,420.38886
1,Buriti Bravo/MA,-5.8391884,-43.8367876,2388,9952.90293
D1,Buriti Bravo/MA,-5.8391884,-43.8367876,21,87.52553
1,Buriti de Goiás/GO,-16.180644,-50.4287479,813,32995.12987
D1,Buriti de Goiás/GO,-16.180644,-50.4287479,9,365.25974
1,Buriti do Tocantins/TO,-5.3187439,-48.2256609,1772,15218.13810
D1,Buriti do Tocantins/TO,-5.3187439,-48.2256609,27,231.87908
1,Buriti dos Lopes/PI,-3.1776723,-41.8707444,1748,8814.03792
D1,Buriti dos Lopes/PI,-3.1776723,-41.8707444,38,191.60952
1,Buriti dos Montes/PI,-5.3136171,-41.0971256,725,8753.92417
D1,Buriti dos Montes/PI,-5.3136171,-41.0971256,10,120.74378
1,Buriti/MA,-3.9430944,-42.9244281,1169,4042.74450
D1,Buriti/MA,-3.9430944,-42.9244281,9,31.12464
1,Buriticupu/MA,-4.3227472,-46.4516989,4810,6535.77009
D1,Buriticupu/MA,-4.3227472,-46.4516989,83,112.77940
1,Buritinópolis/GO,-14.4589282,-46.4293104,676,20660.14670
D1,Buritinópolis/GO,-14.4589282,-46.4293104,4,122.24939
1,Buritirama/BA,-10.7148421,-43.6362327,1555,7275.19416
D1,Buritirama/BA,-10.7148421,-43.6362327,28,131.00028
1,Buritirana/MA,-5.5897455,-47.0148915,451,2909.11436
D1,Buritirana/MA,-5.5897455,-47.0148915,27,174.15984
1,Buritis/MG,-15.621389,-46.423889,6412,25465.66583
D1,Buritis/MG,-15.621389,-46.423889,57,226.37913
1,Buritis/RO,-10.2054937,-63.8281954,13355,32539.04442
D1,Buritis/RO,-10.2054937,-63.8281954,105,255.82925
1,Buritizal/SP,-20.1933264,-47.7097165,361,7939.30064
D1,Buritizal/SP,-20.1933264,-47.7097165,10,219.92523
1,Buritizeiro/MG,-17.3667765,-44.9647781,3631,12883.19614
D1,Buritizeiro/MG,-17.3667765,-44.9647781,43,152.56883
1,Butiá/RS,-30.1256795,-51.9692224,5194,24776.98803
D1,Butiá/RS,-30.1256795,-51.9692224,70,333.92167
1,Buíque/PE,-8.6239732,-37.157296,3121,5249.96636
D1,Buíque/PE,-8.6239732,-37.157296,60,100.92854
1,Bálsamo/SP,-20.7343722,-49.5807484,3009,32674.55750
D1,Bálsamo/SP,-20.7343722,-49.5807484,77,836.13856
0,CASO SEM LOCALIZAÇÃO DEFINIDA/BA,-13.415069300066518,-38.14174656569957,21727,146.08288
D0,CASO SEM LOCALIZAÇÃO DEFINIDA/BA,-13.415069300066518,-38.14174656569957,357,2.40031
0,CASO SEM LOCALIZAÇÃO DEFINIDA/CE,-3.3445126297392798,-38.624961942434304,18166,198.92515
0,CASO SEM LOCALIZAÇÃO DEFINIDA/ES,-20.30989267097039,-39.81745156645774,9508,236.59687
D0,CASO SEM LOCALIZAÇÃO DEFINIDA/ES,-20.30989267097039,-39.81745156645774,283,7.04217
0,CASO SEM LOCALIZAÇÃO DEFINIDA/MG,-19.97049116501593,-43.8852149072783,4266,20.15231
D0,CASO SEM LOCALIZAÇÃO DEFINIDA/MG,-19.97049116501593,-43.8852149072783,431,2.03602
0,CASO SEM LOCALIZAÇÃO DEFINIDA/PR,-25.69415946385943,-48.10141676336737,12075,105.60648
D0,CASO SEM LOCALIZAÇÃO DEFINIDA/PR,-25.69415946385943,-48.10141676336737,245,2.14274
0,CASO SEM LOCALIZAÇÃO DEFINIDA/RR,2.813328208465927,-60.663338675861986,4187,691.19669
D0,CASO SEM LOCALIZAÇÃO DEFINIDA/RR,2.813328208465927,-60.663338675861986,23,3.79688
0,CASO SEM LOCALIZAÇÃO DEFINIDA/SP,-24.30968974555485,-46.21366504207253,257,0.55968
1,Caapiranga/AM,-3.3188884,-61.2096404,1038,7699.15443
D1,Caapiranga/AM,-3.3188884,-61.2096404,24,178.01513
1,Caaporã/PB,-7.510234,-34.9154114,3043,13782.32710
D1,Caaporã/PB,-7.510234,-34.9154114,41,185.69682
1,Caarapó/MS,-22.6349267,-54.8240903,6881,22193.19465
D1,Caarapó/MS,-22.6349267,-54.8240903,66,212.86889
1,Caatiba/BA,-14.9782759,-40.4092325,1018,16335.04493
D1,Caatiba/BA,-14.9782759,-40.4092325,17,272.78562
1,Cabaceiras do Paraguaçu/BA,-12.5377868,-39.1901339,1692,8900.57864
D1,Cabaceiras do Paraguaçu/BA,-12.5377868,-39.1901339,8,42.08311
1,Cabaceiras/PB,-7.4899156,-36.2860501,673,11786.33975
D1,Cabaceiras/PB,-7.4899156,-36.2860501,6,105.07881
1,Cabeceira Grande/MG,-16.0297,-47.0906,975,13879.00356
D1,Cabeceira Grande/MG,-16.0297,-47.0906,9,128.11388
1,Cabeceiras do Piauí/PI,-4.4733665,-42.3098716,877,8218.53622
D1,Cabeceiras do Piauí/PI,-4.4733665,-42.3098716,18,168.68147
1,Cabeceiras/GO,-15.7995459,-46.9264991,1418,17510.49642
D1,Cabeceiras/GO,-15.7995459,-46.9264991,20,246.97456
1,Cabedelo/PB,-6.97324,-34.8351609,14661,21012.42601
D1,Cabedelo/PB,-6.97324,-34.8351609,223,319.60787
1,Cabixi/RO,-13.4956065,-60.5424442,1849,36491.02033
D1,Cabixi/RO,-13.4956065,-60.5424442,23,453.91751
1,Cabo Frio/RJ,-22.8804369,-42.0189227,30661,13098.68120
D1,Cabo Frio/RJ,-22.8804369,-42.0189227,1040,444.29824
1,Cabo Verde/MG,-21.4743338,-46.3964995,2574,18289.04363
D1,Cabo Verde/MG,-21.4743338,-46.3964995,22,156.31661
1,Cabo de Santo Agostinho/PE,-8.2838945,-35.0320984,17547,8324.16175
D1,Cabo de Santo Agostinho/PE,-8.2838945,-35.0320984,561,266.13408
1,Cabreúva/SP,-23.3075813,-47.1324417,7895,15441.03266
D1,Cabreúva/SP,-23.3075813,-47.1324417,156,305.10464
1,Cabrobó/PE,-8.5083701,-39.3106961,5487,15777.21548
D1,Cabrobó/PE,-8.5083701,-39.3106961,37,106.38910
1,Cabrália Paulista/SP,-22.4562909,-49.3385645,1117,26456.65561
D1,Cabrália Paulista/SP,-22.4562909,-49.3385645,9,213.16911
1,Cacaulândia/RO,-10.3380043,-62.9007231,2341,37117.48850
D1,Cacaulândia/RO,-10.3380043,-62.9007231,17,269.54178
1,Cacequi/RS,-29.8838059,-54.8273443,1571,12781.71019
D1,Cacequi/RS,-29.8838059,-54.8273443,19,154.58466
1,Cachoeira Alta/GO,-18.7618269,-50.9432431,4011,31231.02079
D1,Cachoeira Alta/GO,-18.7618269,-50.9432431,36,280.30834
1,Cachoeira Dourada/GO,-18.4934204,-49.481062,2267,28348.13055
D1,Cachoeira Dourada/GO,-18.4934204,-49.481062,33,412.65475
1,Cachoeira Dourada/MG,-18.517136,-49.5002062,633,23272.05882
D1,Cachoeira Dourada/MG,-18.517136,-49.5002062,2,73.52941
1,Cachoeira Grande/MA,-2.9290492,-44.0573223,491,5155.39689
D1,Cachoeira Grande/MA,-2.9290492,-44.0573223,8,83.99832
1,Cachoeira Paulista/SP,-22.666498,-45.015384,5438,16075.91569
D1,Cachoeira Paulista/SP,-22.666498,-45.015384,72,212.84773
1,Cachoeira da Prata/MG,-19.524723,-44.453056,226,6312.84916
D1,Cachoeira da Prata/MG,-19.524723,-44.453056,16,446.92737
1,Cachoeira de Goiás/GO,-16.6688414,-50.6435997,559,41841.31737
D1,Cachoeira de Goiás/GO,-16.6688414,-50.6435997,6,449.10180
1,Cachoeira de Minas/MG,-22.3554043,-45.7796324,2567,22112.15436
D1,Cachoeira de Minas/MG,-22.3554043,-45.7796324,21,180.89413
1,Cachoeira de Pajeú/MG,-15.965833,-41.496666,691,7296.72650
D1,Cachoeira de Pajeú/MG,-15.965833,-41.496666,11,116.15628
1,Cachoeira do Arari/PA,-1.0143572,-48.9621089,633,2599.05564
D1,Cachoeira do Arari/PA,-1.0143572,-48.9621089,27,110.86019
1,Cachoeira do Piriá/PA,-1.7599443,-46.5446954,1702,4820.57382
D1,Cachoeira do Piriá/PA,-1.7599443,-46.5446954,12,33.98759
1,Cachoeira do Sul/RS,-30.0474778,-52.8905413,23560,28889.54287
D1,Cachoeira do Sul/RS,-30.0474778,-52.8905413,244,299.19561
1,Cachoeira dos Índios/PB,-6.9259193,-38.6742159,1677,16181.01119
D1,Cachoeira dos Índios/PB,-6.9259193,-38.6742159,24,231.57082
1,Cachoeira/BA,-12.5998256,-38.9665918,3020,8972.34024
D1,Cachoeira/BA,-12.5998256,-38.9665918,33,98.04213
1,Cachoeiras de Macacu/RJ,-22.4626861,-42.6534414,5562,9324.07966
D1,Cachoeiras de Macacu/RJ,-22.4626861,-42.6534414,122,204.51955
1,Cachoeirinha/PE,-8.4906364,-36.2338963,1148,5567.95033
D1,Cachoeirinha/PE,-8.4906364,-36.2338963,37,179.45485
1,Cachoeirinha/RS,-29.9493353,-51.0898927,27557,20853.76559
D1,Cachoeirinha/RS,-29.9493353,-51.0898927,549,415.45587
1,Cachoeirinha/TO,-6.118647,-47.9208885,135,5887.48365
D1,Cachoeirinha/TO,-6.118647,-47.9208885,2,87.22198
1,Cachoeiro de Itapemirim/ES,-20.848084,-41.11129,59971,28265.27534
D1,Cachoeiro de Itapemirim/ES,-20.848084,-41.11129,750,353.48679
1,Cacimba de Areia/PB,-7.1288513,-37.1575194,420,11326.86084
D1,Cacimba de Areia/PB,-7.1288513,-37.1575194,5,134.84358
1,Cacimba de Dentro/PB,-6.6425101,-35.7929304,1606,9354.06838
D1,Cacimba de Dentro/PB,-6.6425101,-35.7929304,40,232.97804
1,Cacimbas/PB,-7.2125451,-37.0593398,501,6934.25606
D1,Cacimbas/PB,-7.2125451,-37.0593398,11,152.24913
1,Cacimbinhas/AL,-9.401212,-36.991082,1138,10421.24542
D1,Cacimbinhas/AL,-9.401212,-36.991082,13,119.04762
1,Cacique Doble/RS,-27.7700117,-51.6616409,1378,27109.97442
D1,Cacique Doble/RS,-27.7700117,-51.6616409,15,295.10132
1,Cacoal/RO,-11.4333,-61.4420502,30580,35386.96538
D1,Cacoal/RO,-11.4333,-61.4420502,353,408.48917
1,Caconde/SP,-21.527995,-46.643659,3479,18280.69991
D1,Caconde/SP,-21.527995,-46.643659,46,241.71089
1,Caculé/BA,-14.4990734,-42.2233006,3494,14927.15854
D1,Caculé/BA,-14.4990734,-42.2233006,33,140.98347
1,Caetanos/BA,-14.3387456,-40.9085971,834,5684.68407
D1,Caetanos/BA,-14.3387456,-40.9085971,13,88.61018
1,Caetanópolis/MG,-19.2947496,-44.4138386,1917,16151.31856
D1,Caetanópolis/MG,-19.2947496,-44.4138386,22,185.35681
1,Caetité/BA,-14.0691776,-42.4852428,7204,14074.71085
D1,Caetité/BA,-14.0691776,-42.4852428,56,109.40919
1,Caeté/MG,-19.897777,-43.670278,3406,7508.15625
D1,Caeté/MG,-19.897777,-43.670278,84,185.16886
1,Caetés/PE,-8.7728788,-36.6255835,3033,10435.23138
D1,Caetés/PE,-8.7728788,-36.6255835,29,99.77636
1,Cafarnaum/BA,-11.691399,-41.468823,1328,7145.54748
D1,Cafarnaum/BA,-11.691399,-41.468823,24,129.13640
1,Cafeara/PR,-22.78905,-51.714195,883,29700.63909
D1,Cafeara/PR,-22.78905,-51.714195,15,504.54087
1,Cafelândia/PR,-24.6176963,-53.3218057,5633,29989.88447
D1,Cafelândia/PR,-24.6176963,-53.3218057,49,260.87419
1,Cafelândia/SP,-21.8054355,-49.6030627,892,4978.51203
D1,Cafelândia/SP,-21.8054355,-49.6030627,61,340.45878
1,Cafezal do Sul/PR,-23.900508,-53.512418,1132,28477.98742
D1,Cafezal do Sul/PR,-23.900508,-53.512418,13,327.04403
1,Caiabu/SP,-22.0143038,-51.2356597,332,7914.18355
D1,Caiabu/SP,-22.0143038,-51.2356597,8,190.70322
1,Caiana/MG,-20.695555,-41.924723,301,5390.40115
D1,Caiana/MG,-20.695555,-41.924723,7,125.35817
1,Caiapônia/GO,-16.9538779,-51.8090761,4332,22440.94488
D1,Caiapônia/GO,-16.9538779,-51.8090761,47,243.47286
1,Caibaté/RS,-28.290475,-54.645407,549,11432.73636
D1,Caibaté/RS,-28.290475,-54.645407,8,166.59725
1,Caibi/SC,-27.0751925,-53.2502133,1320,21596.85864
D1,Caibi/SC,-27.0751925,-53.2502133,20,327.22513
1,Caicó/RN,-6.4594544,-37.0971911,20833,30313.12749
D1,Caicó/RN,-6.4594544,-37.0971911,193,280.82531
1,Caieiras/SP,-23.3644621,-46.7484765,13409,12887.81669
D1,Caieiras/SP,-23.3644621,-46.7484765,362,347.92972
1,Cairu/BA,-13.4860505,-39.0455744,1922,10296.79631
D1,Cairu/BA,-13.4860505,-39.0455744,19,101.78935
1,Caiuá/SP,-21.8319357,-51.9887179,521,8658.80007
D1,Caiuá/SP,-21.8319357,-51.9887179,12,199.43493
1,Caiçara do Norte/RN,-5.0645017,-36.0561226,805,12248.93488
D1,Caiçara do Norte/RN,-5.0645017,-36.0561226,14,213.02495
1,Caiçara do Rio do Vento/RN,-5.757968,-36.00089,935,24966.62216
D1,Caiçara do Rio do Vento/RN,-5.757968,-36.00089,9,240.32043
1,Caiçara/PB,-6.6146866,-35.4681434,1191,16583.12448
D1,Caiçara/PB,-6.6146866,-35.4681434,15,208.85547
1,Caiçara/RS,-27.2750478,-53.4310053,1289,27666.88131
D1,Caiçara/RS,-27.2750478,-53.4310053,12,257.56600
1,Cajamar/SP,-23.3561111,-46.8769444,5668,7171.59703
D1,Cajamar/SP,-23.3561111,-46.8769444,270,341.62512
1,Cajapió/MA,-2.8778715,-44.6746871,484,4300.31097
D1,Cajapió/MA,-2.8778715,-44.6746871,7,62.19458
1,Cajari/MA,-3.3213076,-45.0118757,511,2617.69377
D1,Cajari/MA,-3.3213076,-45.0118757,8,40.98151
1,Cajati/SP,-24.7272376,-48.1077914,6679,23483.70310
D1,Cajati/SP,-24.7272376,-48.1077914,114,400.82979
1,Cajazeiras do Piauí/PI,-6.794271,-42.3935024,90,2509.76018
D1,Cajazeiras do Piauí/PI,-6.794271,-42.3935024,2,55.77245
1,Cajazeiras/PB,-6.8897849,-38.5570389,18780,30011.50601
D1,Cajazeiras/PB,-6.8897849,-38.5570389,192,306.82690
1,Cajazeirinhas/PB,-6.961442,-37.7993733,358,11128.38048
D1,Cajazeirinhas/PB,-6.961442,-37.7993733,1,31.08486
1,Cajobi/SP,-20.8776238,-48.8106972,2332,21898.76984
D1,Cajobi/SP,-20.8776238,-48.8106972,38,356.84102
1,Cajueiro da Praia/PI,-2.931114,-41.340801,501,6503.11526
D1,Cajueiro da Praia/PI,-2.931114,-41.340801,21,272.58567
1,Cajueiro/AL,-9.399589,-36.1524309,925,4323.03594
D1,Cajueiro/AL,-9.399589,-36.1524309,35,163.57433
1,Cajuri/MG,-20.7901414,-42.7954489,734,18530.67407
D1,Cajuri/MG,-20.7901414,-42.7954489,11,277.70765
1,Cajuru/SP,-21.2759978,-47.3046035,2105,7909.66821
D1,Cajuru/SP,-21.2759978,-47.3046035,79,296.84741
1,Caldas Brandão/PB,-7.1027959,-35.3254676,1115,18347.86901
D1,Caldas Brandão/PB,-7.1027959,-35.3254676,13,213.92134
1,Caldas Novas/GO,-17.745,-48.625,23609,24803.79900
D1,Caldas Novas/GO,-17.745,-48.625,357,375.06698
1,Caldas/MG,-21.923611,-46.386111,2276,15589.04110
D1,Caldas/MG,-21.923611,-46.386111,43,294.52055
1,Caldazinha/GO,-16.7116649,-49.0012601,1421,36435.89744
D1,Caldazinha/GO,-16.7116649,-49.0012601,12,307.69231
1,Caldeirão Grande do Piauí/PI,-7.3310393,-40.6374433,551,9522.98652
D1,Caldeirão Grande do Piauí/PI,-7.3310393,-40.6374433,2,34.56619
1,Caldeirão Grande/BA,-11.0208483,-40.3041387,749,5567.94529
D1,Caldeirão Grande/BA,-11.0208483,-40.3041387,7,52.03687
1,Califórnia/PR,-23.6672543,-51.3554556,2308,26709.87154
D1,Califórnia/PR,-23.6672543,-51.3554556,42,486.05485
1,Calmon/SC,-26.6023644,-51.0992893,83,2496.24060
D1,Calmon/SC,-26.6023644,-51.0992893,7,210.52632
1,Calumbi/PE,-7.9389746,-38.1516871,1333,23206.82451
D1,Calumbi/PE,-7.9389746,-38.1516871,6,104.45682
1,Calçado/PE,-8.7413446,-36.3351787,1008,9177.82027
D1,Calçado/PE,-8.7413446,-36.3351787,9,81.94482
1,Calçoene/AP,2.4981757,-50.9539503,3195,27799.53015
D1,Calçoene/AP,2.4981757,-50.9539503,15,130.51423
1,Camacan/BA,-15.4166631,-39.4930088,3936,12291.16572
D1,Camacan/BA,-15.4166631,-39.4930088,101,315.39831
1,Camacho/MG,-20.625556,-45.156667,356,12539.62663
D1,Camacho/MG,-20.625556,-45.156667,2,70.44734
1,Camalaú/PB,-7.885031,-36.824191,1007,16650.13228
D1,Camalaú/PB,-7.885031,-36.824191,8,132.27513
1,Camamu/BA,-13.9438142,-39.1060917,3365,9493.84945
D1,Camamu/BA,-13.9438142,-39.1060917,65,183.38788
1,Camanducaia/MG,-22.755278,-46.144444,5541,25381.33846
D1,Camanducaia/MG,-22.755278,-46.144444,90,412.25780
1,Camapuã/MS,-19.5291747,-54.0434641,2009,14691.04205
D1,Camapuã/MS,-19.5291747,-54.0434641,38,277.87934
1,Camaquã/RS,-30.8524752,-51.8075619,14563,21838.16693
D1,Camaquã/RS,-30.8524752,-51.8075619,193,289.41607
1,Camaragibe/PE,-8.0213832,-34.9810768,13420,8390.38419
D1,Camaragibe/PE,-8.0213832,-34.9810768,471,294.47623
1,Camargo/RS,-28.5865661,-52.2031474,718,26109.09091
D1,Camargo/RS,-28.5865661,-52.2031474,8,290.90909
1,Camaçari/BA,-12.6998188,-38.3260762,35111,11355.13958
D1,Camaçari/BA,-12.6998188,-38.3260762,697,225.41461
1,Cambará do Sul/RS,-29.0489517,-50.145412,429,6720.97760
D1,Cambará do Sul/RS,-29.0489517,-50.145412,12,187.99937
1,Cambará/PR,-23.042273,-50.075281,6638,25961.12480
D1,Cambará/PR,-23.042273,-50.075281,79,308.96789
1,Cambira/PR,-23.600265,-51.581045,2769,34755.86796
D1,Cambira/PR,-23.600265,-51.581045,33,414.20861
1,Camboriú/SC,-27.0273601,-48.6535657,21078,24177.84099
D1,Camboriú/SC,-27.0273601,-48.6535657,217,248.91316
1,Cambuci/RJ,-21.5749919,-41.9107833,3548,22859.35185
D1,Cambuci/RJ,-21.5749919,-41.9107833,51,328.58708
1,Cambuquira/MG,-21.853056,-45.2953619,2179,17010.14832
D1,Cambuquira/MG,-21.853056,-45.2953619,39,304.44965
1,Cambuí/MG,-22.6122501,-46.0572137,9331,31032.99189
D1,Cambuí/MG,-22.6122501,-46.0572137,69,229.47985
1,Cambé/PR,-23.2782035,-51.2779583,24191,22372.97227
D1,Cambé/PR,-23.2782035,-51.2779583,431,398.60903
1,Cametá/PA,-2.242949,-49.497885,12212,8672.43314
D1,Cametá/PA,-2.242949,-49.497885,318,225.82982
1,Camocim de São Félix/PE,-8.3616757,-35.7638903,1270,6672.97184
D1,Camocim de São Félix/PE,-8.3616757,-35.7638903,25,131.35771
1,Camocim/CE,-2.9009918,-40.8427389,8723,13598.45355
D1,Camocim/CE,-2.9009918,-40.8427389,166,258.78061
