type,name,lat,lon,total,total_per_100k_inhabitants
1,Abadia de Goiás/GO,-16.7572644,-49.4412205,1821,19884.25420
D1,Abadia de Goiás/GO,-16.7572644,-49.4412205,37,404.01834
1,Abadia dos Dourados/MG,-18.4911191,-47.4063589,574,8174.30931
D1,Abadia dos Dourados/MG,-18.4911191,-47.4063589,17,242.09627
1,Abadiânia/GO,-16.1940946,-48.7067767,503,2409.81172
D1,Abadiânia/GO,-16.1940946,-48.7067767,43,206.00776
1,Abaetetuba/PA,-1.721828,-48.878843,9335,5818.41074
D1,Abaetetuba/PA,-1.721828,-48.878843,225,140.24022
1,Abaeté/MG,-19.1566833,-45.4481213,1632,7015.43223
D1,Abaeté/MG,-19.1566833,-45.4481213,41,176.24554
1,Abaiara/CE,-7.3607808,-39.0487878,630,5265.35729
D1,Abaiara/CE,-7.3607808,-39.0487878,17,142.08107
1,Abaré/BA,-8.7239913,-39.1139689,1026,4982.03360
D1,Abaré/BA,-8.7239913,-39.1139689,11,53.41362
1,Abatiá/PR,-23.3052967,-50.3102532,1120,15217.39130
D1,Abatiá/PR,-23.3052967,-50.3102532,20,271.73913
1,Abaíra/BA,-13.2503296,-41.6640342,298,3432.78424
D1,Abaíra/BA,-13.2503296,-41.6640342,12,138.23292
1,Abdon Batista/SC,-27.612419,-51.022992,444,17521.70481
D1,Abdon Batista/SC,-27.612419,-51.022992,4,157.85320
1,Abel Figueiredo/PA,-4.953001,-48.3958485,1074,14251.59236
D1,Abel Figueiredo/PA,-4.953001,-48.3958485,11,145.96603
1,Abelardo Luz/SC,-26.5705893,-52.3280339,1694,9403.27505
D1,Abelardo Luz/SC,-26.5705893,-52.3280339,60,333.05579
1,Abre Campo/MG,-20.2976097,-42.4764741,1272,9468.51273
D1,Abre Campo/MG,-20.2976097,-42.4764741,16,119.10079
1,Abreu e Lima/PE,-7.900719,-34.898389,3415,3391.32853
D1,Abreu e Lima/PE,-7.900719,-34.898389,242,240.32255
1,Abreulândia/TO,-9.6221526,-49.1558343,318,12188.57800
D1,Abreulândia/TO,-9.6221526,-49.1558343,6,229.97317
1,Acaiaca/MG,-20.3621646,-43.1444162,231,5782.22778
D1,Acaiaca/MG,-20.3621646,-43.1444162,11,275.34418
1,Acajutiba/BA,-11.6609659,-38.0186381,573,3766.26791
D1,Acajutiba/BA,-11.6609659,-38.0186381,20,131.45787
1,Acarape/CE,-4.2237866,-38.7071663,2837,18738.44122
D1,Acarape/CE,-4.2237866,-38.7071663,32,211.36063
1,Acaraú/CE,-2.8869514,-40.1194713,5135,8079.48895
D1,Acaraú/CE,-2.8869514,-40.1194713,113,177.79596
1,Acari/RN,-6.4364689,-36.6394777,1120,10084.63893
D1,Acari/RN,-6.4364689,-36.6394777,19,171.07870
1,Acará/PA,-1.961388,-48.1987043,1773,3180.61137
D1,Acará/PA,-1.961388,-48.1987043,36,64.58094
1,Acauã/PI,-8.219542,-41.083059,212,2977.94634
D1,Acauã/PI,-8.219542,-41.083059,1,14.04692
1,Aceguá/RS,-31.8695131,-54.1615593,372,7468.37984
D1,Aceguá/RS,-31.8695131,-54.1615593,7,140.53403
1,Acopiara/CE,-6.0936464,-39.4543204,4076,7453.32529
D1,Acopiara/CE,-6.0936464,-39.4543204,151,276.11681
1,Acorizal/MT,-15.2001544,-56.3668953,785,14786.21209
D1,Acorizal/MT,-15.2001544,-56.3668953,22,414.39066
1,Acrelândia/AC,-10.0759167,-67.0526898,1796,11424.20966
D1,Acrelândia/AC,-10.0759167,-67.0526898,37,235.35399
1,Acreúna/GO,-17.3959899,-50.3749031,2604,11466.31440
D1,Acreúna/GO,-17.3959899,-50.3749031,60,264.20079
1,Adamantina/SP,-21.6866517,-51.0762975,3801,10812.73291
D1,Adamantina/SP,-21.6866517,-51.0762975,133,378.34609
1,Adelândia/GO,-16.4155077,-50.1665834,227,9025.84493
D1,Adelândia/GO,-16.4155077,-50.1665834,4,159.04573
1,Adolfo/SP,-21.2356597,-49.6441918,620,17489.42172
D1,Adolfo/SP,-21.2356597,-49.6441918,19,535.96615
1,Adrianópolis/PR,-24.6557863,-48.9912769,1416,24426.42746
D1,Adrianópolis/PR,-24.6557863,-48.9912769,29,500.25875
1,Adustina/BA,-10.5358875,-38.114479,1084,6299.02958
D1,Adustina/BA,-10.5358875,-38.114479,27,156.89465
1,Afogados da Ingazeira/PE,-7.750429,-37.6356375,5221,13905.60912
D1,Afogados da Ingazeira/PE,-7.750429,-37.6356375,74,197.09157
1,Afonso Bezerra/RN,-5.4745,-36.57625071327935,798,7238.75181
D1,Afonso Bezerra/RN,-5.4745,-36.57625071327935,18,163.28012
1,Afonso Cláudio/ES,-20.077841,-41.12606,3593,11847.91928
D1,Afonso Cláudio/ES,-20.077841,-41.12606,62,204.44503
1,Afonso Cunha/MA,-4.1326105,-43.3230026,267,4026.54200
D1,Afonso Cunha/MA,-4.1326105,-43.3230026,3,45.24204
1,Afrânio/PE,-8.5198919,-41.0070197,970,4854.61188
D1,Afrânio/PE,-8.5198919,-41.0070197,15,75.07132
1,Afuá/PA,-0.1535664,-50.3879223,3094,7752.44300
D1,Afuá/PA,-0.1535664,-50.3879223,16,40.09020
1,Agrestina/PE,-8.4558021,-35.9442663,1752,6941.36292
D1,Agrestina/PE,-8.4558021,-35.9442663,67,265.45166
1,Agricolândia/PI,-5.7967843,-42.6605131,546,10657.81768
D1,Agricolândia/PI,-5.7967843,-42.6605131,8,156.15850
1,Agrolândia/SC,-27.4122212,-49.8295774,1701,15241.93548
D1,Agrolândia/SC,-27.4122212,-49.8295774,29,259.85663
1,Agronômica/SC,-27.2660744,-49.7104753,676,12136.44524
D1,Agronômica/SC,-27.2660744,-49.7104753,14,251.34650
1,Aguanil/MG,-20.9424533,-45.3927152,684,15009.87492
D1,Aguanil/MG,-20.9424533,-45.3927152,8,175.55409
1,Aguaí/SP,-22.0592036,-46.979384,3599,9732.02455
D1,Aguaí/SP,-22.0592036,-46.979384,109,294.74595
1,Agudo/RS,-29.6423259,-53.2494005,1847,11300.78316
D1,Agudo/RS,-29.6423259,-53.2494005,29,177.43514
1,Agudos do Sul/PR,-25.9890808,-49.3328175,752,7860.35330
D1,Agudos do Sul/PR,-25.9890808,-49.3328175,30,313.57792
1,Agudos/SP,-22.471162,-48.987822,4760,12665.63781
D1,Agudos/SP,-22.471162,-48.987822,110,292.69331
1,Aguiar/PB,-7.0928404,-38.1727215,533,9480.61188
D1,Aguiar/PB,-7.0928404,-38.1727215,5,88.93632
1,Aguiarnópolis/TO,-6.5600452,-47.4721189,689,9774.43609
D1,Aguiarnópolis/TO,-6.5600452,-47.4721189,13,184.42332
1,Aimorés/MG,-19.4917754,-41.0615603,2089,8317.40723
D1,Aimorés/MG,-19.4917754,-41.0615603,76,302.59595
1,Aiquara/BA,-14.126918,-39.8887574,502,11442.89948
D1,Aiquara/BA,-14.126918,-39.8887574,12,273.53545
1,Aiuaba/CE,-6.5710836,-40.1212278,838,4765.69609
D1,Aiuaba/CE,-6.5710836,-40.1212278,11,62.55687
1,Aiuruoca/MG,-21.9759554,-44.6036637,346,5816.10355
D1,Aiuruoca/MG,-21.9759554,-44.6036637,9,151.28593
1,Ajuricaba/RS,-28.239654,-53.7693013,1319,18975.68695
D1,Ajuricaba/RS,-28.239654,-53.7693013,30,431.59258
1,Alagoa Grande/PB,-7.0415212,-35.6285322,4150,14620.91319
D1,Alagoa Grande/PB,-7.0415212,-35.6285322,72,253.66404
1,Alagoa Nova/PB,-7.0653703,-35.76695977336711,1744,8307.92683
D1,Alagoa Nova/PB,-7.0653703,-35.76695977336711,30,142.91159
1,Alagoa/MG,-22.1697202,-44.6400042,444,16710.57584
D1,Alagoa/MG,-22.1697202,-44.6400042,7,263.45502
1,Alagoinha do Piauí/PI,-7.0090952,-40.939675,392,5105.49622
D1,Alagoinha do Piauí/PI,-7.0090952,-40.939675,10,130.24225
1,Alagoinha/PB,-6.97063215,-35.51490901897793,2085,14252.51213
D1,Alagoinha/PB,-6.97063215,-35.51490901897793,25,170.89343
1,Alagoinha/PE,-8.50355635,-36.77701174370496,1424,9622.92202
D1,Alagoinha/PE,-8.50355635,-36.77701174370496,28,189.21476
1,Alagoinhas/BA,-12.133526,-38.420772,14543,9503.80008
D1,Alagoinhas/BA,-12.133526,-38.420772,322,210.42588
1,Alambari/SP,-23.550338,-47.897971,679,10897.12727
D1,Alambari/SP,-23.550338,-47.897971,12,192.58546
1,Albertina/MG,-20.66164,-43.784039,262,8689.88391
D1,Albertina/MG,-20.66164,-43.784039,9,298.50746
1,Alcantil/PB,-7.7425491,-36.0609604,689,12466.07563
D1,Alcantil/PB,-7.7425491,-36.0609604,8,144.74398
1,Alcinópolis/MS,-18.3264121,-53.7094463,420,7651.66697
D1,Alcinópolis/MS,-18.3264121,-53.7094463,11,200.40080
1,Alcobaça/BA,-17.5215875,-39.1965474,1738,7721.35590
D1,Alcobaça/BA,-17.5215875,-39.1965474,30,133.28002
1,Alcântara/MA,-2.4038956,-44.4154241,336,1518.57543
D1,Alcântara/MA,-2.4038956,-44.4154241,19,85.87183
1,Alcântaras/CE,-3.586247,-40.5457641,1798,15178.11920
D1,Alcântaras/CE,-3.586247,-40.5457641,22,185.71670
1,Aldeias Altas/MA,-4.6291957,-43.4708622,977,3621.33511
D1,Aldeias Altas/MA,-4.6291957,-43.4708622,14,51.89221
1,Alecrim/RS,-27.6566142,-54.7653195,315,5516.63748
D1,Alecrim/RS,-27.6566142,-54.7653195,12,210.15762
1,Alegre/ES,-20.7625787,-41.5318886,3229,10810.53936
D1,Alegre/ES,-20.7625787,-41.5318886,70,234.35669
1,Alegrete do Piauí/PI,-7.2440138,-40.8602296,524,10648.24223
D1,Alegrete do Piauí/PI,-7.2440138,-40.8602296,7,142.24751
1,Alegrete/RS,-29.790166,-55.794862,11102,15314.58210
D1,Alegrete/RS,-29.790166,-55.794862,292,402.79751
1,Alegria/RS,-27.8332103,-54.0574959,396,12047.45969
D1,Alegria/RS,-27.8332103,-54.0574959,4,121.69151
1,Alenquer/PA,-1.946229,-54.738355,3615,6299.00680
D1,Alenquer/PA,-1.946229,-54.738355,143,249.17233
1,Alexandria/RN,-6.414779,-38.0135516,1900,14043.90568
D1,Alexandria/RN,-6.414779,-38.0135516,32,236.52894
1,Alexânia/GO,-16.0834049,-48.5077803,3508,12369.53456
D1,Alexânia/GO,-16.0834049,-48.5077803,87,306.77010
1,Alfenas/MG,-21.4297405,-45.9479419,10803,13341.48420
D1,Alfenas/MG,-21.4297405,-45.9479419,205,253.17081
1,Alfredo Chaves/ES,-20.624970400000002,-40.75006690147988,2663,18152.69257
D1,Alfredo Chaves/ES,-20.624970400000002,-40.75006690147988,37,252.21541
1,Alfredo Marcondes/SP,-21.9527,-51.413956,267,6355.62961
D1,Alfredo Marcondes/SP,-21.9527,-51.413956,13,309.45013
1,Alfredo Vasconcelos/MG,-21.145833,-43.776389,627,8891.09472
D1,Alfredo Vasconcelos/MG,-21.145833,-43.776389,15,212.70562
1,Alfredo Wagner/SC,-27.6961513,-49.3326734,1098,10832.67561
D1,Alfredo Wagner/SC,-27.6961513,-49.3326734,7,69.06077
1,Algodão de Jandaíra/PB,-6.9040175,-36.0089879,253,9775.88872
D1,Algodão de Jandaíra/PB,-6.9040175,-36.0089879,1,38.63988
1,Alhandra/PB,-7.4304246,-34.9106103,2464,12403.72514
D1,Alhandra/PB,-7.4304246,-34.9106103,39,196.32520
1,Aliança do Tocantins/TO,-11.3055927,-48.9409096,734,13841.22195
D1,Aliança do Tocantins/TO,-11.3055927,-48.9409096,21,396.00226
1,Aliança/PE,-7.60398,-35.222696,693,1804.31160
D1,Aliança/PE,-7.60398,-35.222696,64,166.63195
1,Almadina/BA,-14.70466,-39.6381994,640,12137.30324
D1,Almadina/BA,-14.70466,-39.6381994,11,208.60990
1,Almas/TO,-11.5681309,-47.1702803,239,3461.25996
D1,Almas/TO,-11.5681309,-47.1702803,5,72.41130
1,Almeirim/PA,-1.5290377,-52.5788111,3763,11053.34273
D1,Almeirim/PA,-1.5290377,-52.5788111,48,140.99401
1,Almenara/MG,-16.1740678,-40.6904907,4543,10719.67909
D1,Almenara/MG,-16.1740678,-40.6904907,52,122.69939
1,Almino Afonso/RN,-6.1544208,-37.7649018,509,10864.46105
D1,Almino Afonso/RN,-6.1544208,-37.7649018,13,277.48132
1,Almirante Tamandaré do Sul/RS,-28.1141129,-52.9134874,328,16950.90439
D1,Almirante Tamandaré do Sul/RS,-28.1141129,-52.9134874,7,361.75711
1,Almirante Tamandaré/PR,-25.3133048,-49.2997838,10886,8965.57404
D1,Almirante Tamandaré/PR,-25.3133048,-49.2997838,424,349.20112
1,Aloândia/GO,-17.7277983,-49.4809338,328,16599.19028
D1,Aloândia/GO,-17.7277983,-49.4809338,11,556.68016
1,Alpercata/MG,-18.9803616,-41.9827637,501,6726.63802
D1,Alpercata/MG,-18.9803616,-41.9827637,20,268.52846
1,Alpestre/RS,-27.2512339,-53.0349646,567,9634.66440
D1,Alpestre/RS,-27.2512339,-53.0349646,12,203.90824
1,Alpinópolis/MG,-20.863611,-46.387777,1823,9088.18984
D1,Alpinópolis/MG,-20.863611,-46.387777,43,214.36762
1,Alta Floresta D'Oeste/RO,-11.9296917,-61.9961284,4075,18098.24125
D1,Alta Floresta D'Oeste/RO,-11.9296917,-61.9961284,66,293.12489
1,Alta Floresta/MT,-9.8715018,-56.0839881,10169,19516.36119
D1,Alta Floresta/MT,-9.8715018,-56.0839881,145,278.28423
1,Altair/SP,-20.5238955,-49.0606135,331,7860.36571
D1,Altair/SP,-20.5238955,-49.0606135,17,403.70458
1,Altamira do Maranhão/MA,-4.1643006,-45.4674574,363,4400.00000
D1,Altamira do Maranhão/MA,-4.1643006,-45.4674574,14,169.69697
1,Altamira do Paraná/PR,-24.799114,-52.7128633,267,18684.39468
D1,Altamira do Paraná/PR,-24.799114,-52.7128633,12,839.74808
1,Altamira/PA,-3.204065,-52.209961,14254,12149.67610
D1,Altamira/PA,-3.204065,-52.209961,306,260.82509
1,Altaneira/CE,-6.9980933,-39.7385742,683,8856.32780
D1,Altaneira/CE,-6.9980933,-39.7385742,15,194.50207
1,Alterosa/MG,-21.249166,-46.143055,811,5567.76054
D1,Alterosa/MG,-21.249166,-46.143055,35,240.28560
1,Altinho/PE,-8.4904095,-36.0607494,1374,5974.95217
D1,Altinho/PE,-8.4904095,-36.0607494,29,126.10889
1,Altinópolis/SP,-21.021364,-47.3712,1027,6331.29893
D1,Altinópolis/SP,-21.021364,-47.3712,50,308.24240
1,Alto Alegre do Maranhão/MA,-4.2055693,-44.4525287,1358,4838.59474
D1,Alto Alegre do Maranhão/MA,-4.2055693,-44.4525287,29,103.32787
1,Alto Alegre do Pindaré/MA,-3.6698186,-45.8462153,2262,7076.04717
D1,Alto Alegre do Pindaré/MA,-3.6698186,-45.8462153,47,147.02662
1,Alto Alegre dos Parecis/RO,-12.1314515,-61.856265,1490,11230.02713
D1,Alto Alegre dos Parecis/RO,-12.1314515,-61.856265,45,339.16189
1,Alto Alegre/RR,2.98858,-61.307167,1619,10617.08965
D1,Alto Alegre/RR,2.98858,-61.307167,37,242.63886
1,Alto Alegre/RS,-31.780844700000003,-52.81311114489171,211,13270.44025
D1,Alto Alegre/RS,-31.780844700000003,-52.81311114489171,2,125.78616
1,Alto Alegre/SP,-21.5820592,-50.1661976,401,9833.25159
D1,Alto Alegre/SP,-21.5820592,-50.1661976,21,514.95831
1,Alto Araguaia/MT,-17.3156528,-53.2169365,1600,8116.05965
D1,Alto Araguaia/MT,-17.3156528,-53.2169365,29,147.10358
1,Alto Bela Vista/SC,-27.4320737,-51.905771,203,10600.52219
D1,Alto Bela Vista/SC,-27.4320737,-51.905771,3,156.65796
1,Alto Boa Vista/MT,-11.6723985,-51.3744431,923,13014.66441
D1,Alto Boa Vista/MT,-11.6723985,-51.3744431,17,239.70671
1,Alto Caparaó/MG,-20.4405661,-41.8683799,437,7359.38026
D1,Alto Caparaó/MG,-20.4405661,-41.8683799,9,151.56618
1,Alto Feliz/RS,-29.3785943,-51.3123751,314,10318.76438
D1,Alto Feliz/RS,-29.3785943,-51.3123751,2,65.72461
1,Alto Garças/MT,-16.9469683,-53.529427,1157,9388.94750
D1,Alto Garças/MT,-16.9469683,-53.529427,42,340.82610
1,Alto Horizonte/GO,-14.1954948,-49.3366993,1134,16686.28605
D1,Alto Horizonte/GO,-14.1954948,-49.3366993,14,206.00353
1,Alto Jequitibá/MG,-20.423611,-41.966111,976,11778.90418
D1,Alto Jequitibá/MG,-20.423611,-41.966111,11,132.75404
1,Alto Longá/PI,-5.2549051,-42.2072388,703,4891.79598
D1,Alto Longá/PI,-5.2549051,-42.2072388,15,104.37687
1,Alto Paraguai/MT,-14.513712,-56.4936374,925,7983.08449
D1,Alto Paraguai/MT,-14.513712,-56.4936374,29,250.28049
1,Alto Paraná/PR,-23.131247,-52.318893,1276,8537.97257
D1,Alto Paraná/PR,-23.131247,-52.318893,26,173.97123
1,Alto Paraíso de Goiás/GO,-14.1304779,-47.5100161,830,10708.29570
D1,Alto Paraíso de Goiás/GO,-14.1304779,-47.5100161,8,103.21249
1,Alto Paraíso/PR,-23.508137,-53.728537,362,13764.25856
D1,Alto Paraíso/PR,-23.508137,-53.728537,8,304.18251
1,Alto Paraíso/RO,-9.7240103,-63.3188123,1883,8459.87959
D1,Alto Paraíso/RO,-9.7240103,-63.3188123,50,224.63833
1,Alto Parnaíba/MA,-9.112506,-45.9310154,1019,9071.48580
D1,Alto Parnaíba/MA,-9.112506,-45.9310154,11,97.92575
1,Alto Piquiri/PR,-24.0239021,-53.4417448,1106,11376.26003
D1,Alto Piquiri/PR,-24.0239021,-53.4417448,27,277.72063
1,Alto Rio Doce/MG,-21.0239537,-43.4133507,569,5306.35083
D1,Alto Rio Doce/MG,-21.0239537,-43.4133507,29,270.44670
1,Alto Rio Novo/ES,-19.0577208,-41.0171518,787,9948.17343
D1,Alto Rio Novo/ES,-19.0577208,-41.0171518,23,290.73442
1,Alto Santo/CE,-5.5190371,-38.2719351,1948,12116.68844
D1,Alto Santo/CE,-5.5190371,-38.2719351,35,217.70231
1,Alto Taquari/MT,-17.8269099,-53.2831736,1642,14387.10243
D1,Alto Taquari/MT,-17.8269099,-53.2831736,29,254.09621
1,Alto do Rodrigues/RN,-5.290868,-36.7616726,2563,17174.83080
D1,Alto do Rodrigues/RN,-5.290868,-36.7616726,41,274.74368
1,Altos/PI,-5.0393915,-42.4611694,4714,11587.71908
D1,Altos/PI,-5.0393915,-42.4611694,91,223.69165
1,Altônia/PR,-23.8722004,-53.894037,1570,7042.56942
D1,Altônia/PR,-23.8722004,-53.894037,39,174.94281
1,Alumínio/SP,-23.5203479,-47.2575256,1636,8654.71089
D1,Alumínio/SP,-23.5203479,-47.2575256,53,280.37878
1,Alvarenga/MG,-19.4175,-41.728334,514,13587.10019
D1,Alvarenga/MG,-19.4175,-41.728334,4,105.73619
1,Alvarães/AM,-3.214786,-64.8143124,2908,17736.03318
D1,Alvarães/AM,-3.214786,-64.8143124,46,280.55623
1,Alvinlândia/SP,-22.4431852,-49.7643596,144,4429.40634
D1,Alvinlândia/SP,-22.4431852,-49.7643596,9,276.83790
1,Alvinópolis/MG,-20.1105199,-43.0601805,854,5642.55038
D1,Alvinópolis/MG,-20.1105199,-43.0601805,22,145.35844
1,Alvorada D'Oeste/RO,-11.346271,-62.284697,1162,8416.02086
D1,Alvorada D'Oeste/RO,-11.346271,-62.284697,29,210.03839
1,Alvorada de Minas/MG,-18.7318587,-43.3641479,282,7822.46879
D1,Alvorada de Minas/MG,-18.7318587,-43.3641479,3,83.21775
1,Alvorada do Gurguéia/PI,-8.4465288,-43.8655915,449,8209.91040
D1,Alvorada do Gurguéia/PI,-8.4465288,-43.8655915,11,201.13366
1,Alvorada do Norte/GO,-14.483911,-46.4959897,834,9532.51800
D1,Alvorada do Norte/GO,-14.483911,-46.4959897,11,125.72865
1,Alvorada do Sul/PR,-22.7807269,-51.2307721,850,7328.84980
D1,Alvorada do Sul/PR,-22.7807269,-51.2307721,31,267.28746
1,Alvorada/RS,-29.9981184,-51.0772509,22583,10634.70087
D1,Alvorada/RS,-29.9981184,-51.0772509,792,372.96564
1,Alvorada/TO,-12.478465,-49.124926,1486,17730.58108
D1,Alvorada/TO,-12.478465,-49.124926,26,310.22551
1,Além Paraíba/MG,-21.8760576,-42.6810473,3668,10350.47125
D1,Além Paraíba/MG,-21.8760576,-42.6810473,158,445.84909
1,Amajari/RR,3.6523869,-61.4194315,1180,8701.42320
D1,Amajari/RR,3.6523869,-61.4194315,21,154.85584
1,Amambai/MS,-23.1082701,-55.2284854,3318,8244.09273
D1,Amambai/MS,-23.1082701,-55.2284854,83,206.22655
1,Amaporã/PR,-23.094272,-52.786597,463,7228.72756
D1,Amaporã/PR,-23.094272,-52.786597,8,124.90242
1,Amapá do Maranhão/MA,-1.6762114,-46.0109669,172,2440.75493
D1,Amapá do Maranhão/MA,-1.6762114,-46.0109669,6,85.14261
1,Amapá/AP,2.0529997,-50.7930003,1412,15240.15111
D1,Amapá/AP,2.0529997,-50.7930003,13,140.31301
1,Amaraji/PE,-8.373925,-35.4536527,666,2907.02750
D1,Amaraji/PE,-8.373925,-35.4536527,48,209.51550
1,Amaral Ferrador/RS,-30.8750633,-52.2542051,311,4358.18386
D1,Amaral Ferrador/RS,-30.8750633,-52.2542051,10,140.13453
1,Amaralina/GO,-13.9236199,-49.2962411,138,3561.29032
D1,Amaralina/GO,-13.9236199,-49.2962411,2,51.61290
1,Amarante do Maranhão/MA,-5.56913,-46.747284,1610,3831.78237
D1,Amarante do Maranhão/MA,-5.56913,-46.747284,53,126.13942
1,Amarante/PI,-6.2459374,-42.8476238,1588,9018.11574
D1,Amarante/PI,-6.2459374,-42.8476238,35,198.76200
1,Amargosa/BA,-13.03793715,-39.60796443875596,3215,8543.48808
D1,Amargosa/BA,-13.03793715,-39.60796443875596,56,148.81348
1,Amaturá/AM,-3.3640509,-68.1994689,2392,20043.57298
D1,Amaturá/AM,-3.3640509,-68.1994689,18,150.82956
1,Americana/SP,-22.7392463,-47.3306032,26993,11045.95490
D1,Americana/SP,-22.7392463,-47.3306032,831,340.05811
1,Americano do Brasil/GO,-16.2515808,-49.9806104,856,13762.05788
D1,Americano do Brasil/GO,-16.2515808,-49.9806104,23,369.77492
1,Ametista do Sul/RS,-27.3617341,-53.1826575,919,12425.63548
D1,Ametista do Sul/RS,-27.3617341,-53.1826575,24,324.49973
1,Amontada/CE,-3.3634586,-39.8284791,2944,6661.38703
D1,Amontada/CE,-3.3634586,-39.8284791,57,128.97387
1,Amorinópolis/GO,-16.6211308,-51.0949921,382,12686.81501
D1,Amorinópolis/GO,-16.6211308,-51.0949921,6,199.26935
1,Amparo de São Francisco/SE,-10.1299754,-36.9269099,256,10729.25398
D1,Amparo de São Francisco/SE,-10.1299754,-36.9269099,5,209.55574
1,Amparo do Serra/MG,-20.5070255,-42.8028462,169,3639.88800
D1,Amparo do Serra/MG,-20.5070255,-42.8028462,8,172.30239
1,Amparo/PB,-7.56394725,-37.04652873235175,178,7862.19081
D1,Amparo/PB,-7.56394725,-37.04652873235175,4,176.67845
1,Amparo/SP,-22.70111,-46.76444,7694,10518.83246
D1,Amparo/SP,-22.70111,-46.76444,137,187.29920
1,Ampére/PR,-25.9168712,-53.4742414,2515,12919.96301
D1,Ampére/PR,-25.9168712,-53.4742414,58,297.95541
1,Amélia Rodrigues/BA,-12.4015388,-38.7516971,2367,9469.13630
D1,Amélia Rodrigues/BA,-12.4015388,-38.7516971,48,192.02304
1,América Dourada/BA,-11.4515262,-41.4357517,950,5905.75656
D1,América Dourada/BA,-11.4515262,-41.4357517,13,80.81562
1,Américo Brasiliense/SP,-21.7297099,-48.1052092,4313,10381.51402
D1,Américo Brasiliense/SP,-21.7297099,-48.1052092,97,233.48177
1,Américo de Campos/SP,-20.298476,-49.735904,1168,19489.40431
D1,Américo de Campos/SP,-20.298476,-49.735904,35,584.01468
1,Anadia/AL,-9.6830208,-36.3052699,1478,8442.33735
D1,Anadia/AL,-9.6830208,-36.3052699,32,182.78403
1,Anagé/BA,-14.6134669,-41.1376308,1140,5370.01272
D1,Anagé/BA,-14.6134669,-41.1376308,30,141.31612
1,Anahy/PR,-24.6450861,-53.1337957,400,14419.61067
D1,Anahy/PR,-24.6450861,-53.1337957,10,360.49027
1,Anajatuba/MA,-3.26441,-44.6179916,1167,4295.17851
D1,Anajatuba/MA,-3.26441,-44.6179916,27,99.37431
1,Anajás/PA,-0.9878802,-49.9390114,1364,4532.91682
D1,Anajás/PA,-0.9878802,-49.9390114,22,73.11156
1,Analândia/SP,-22.128917,-47.661939,377,7370.47898
D1,Analândia/SP,-22.128917,-47.661939,5,97.75171
1,Anamã/AM,-3.5797356,-61.4049996,2013,14084.80269
D1,Anamã/AM,-3.5797356,-61.4049996,10,69.96921
1,Ananindeua/PA,-1.374035,-48.4016623,25711,4757.68398
D1,Ananindeua/PA,-1.374035,-48.4016623,826,152.84691
1,Ananás/TO,-6.3663053,-48.080238,1661,17604.66349
D1,Ananás/TO,-6.3663053,-48.080238,27,286.16852
1,Anapu/PA,-3.4668292,-51.2057035,1742,5942.95852
D1,Anapu/PA,-3.4668292,-51.2057035,47,160.34389
1,Anapurus/MA,-3.6751298,-43.1046001,831,5176.28005
D1,Anapurus/MA,-3.6751298,-43.1046001,14,87.20568
1,Anastácio/MS,-20.4832458,-55.8048448,2635,10400.22103
D1,Anastácio/MS,-20.4832458,-55.8048448,85,335.49100
1,Anaurilândia/MS,-22.185169,-52.719056,563,6175.95437
D1,Anaurilândia/MS,-22.185169,-52.719056,15,164.54585
1,Anchieta/ES,-20.8057672,-40.6454564,5241,17305.59683
D1,Anchieta/ES,-20.8057672,-40.6454564,91,300.47878
1,Anchieta/SC,-26.5350527,-53.3293938,699,12762.46120
D1,Anchieta/SC,-26.5350527,-53.3293938,11,200.83988
1,Andaraí/BA,-12.8059674,-41.3322919,949,7232.12925
D1,Andaraí/BA,-12.8059674,-41.3322919,10,76.20790
1,Andirá/PR,-23.0494761,-50.2310027,2624,13237.14877
D1,Andirá/PR,-23.0494761,-50.2310027,87,438.88412
1,Andorinha/BA,-10.3445708,-39.8334411,966,6700.88790
D1,Andorinha/BA,-10.3445708,-39.8334411,17,117.92453
1,Andradas/MG,-22.0680484,-46.5688976,4060,9735.27719
D1,Andradas/MG,-22.0680484,-46.5688976,123,294.93574
1,Andradina/SP,-20.896505,-51.3742765,6833,11936.41366
D1,Andradina/SP,-20.896505,-51.3742765,274,478.64442
1,Andrelândia/MG,-21.739722,-44.308889,206,1690.04840
D1,Andrelândia/MG,-21.739722,-44.308889,15,123.06178
1,André da Rocha/RS,-28.6309124,-51.5733328,122,9030.34789
D1,André da Rocha/RS,-28.6309124,-51.5733328,1,74.01925
1,Angatuba/SP,-23.4938938,-48.4110675,3184,12377.54626
D1,Angatuba/SP,-23.4938938,-48.4110675,77,299.33136
1,Angelim/PE,-8.8902038,-36.2872987,231,2044.06690
D1,Angelim/PE,-8.8902038,-36.2872987,11,97.33652
1,Angelina/SC,-27.5805287,-48.9838759,566,12078.53180
D1,Angelina/SC,-27.5805287,-48.9838759,2,42.68032
1,Angelândia/MG,-17.7253,-42.2728,268,3118.45474
D1,Angelândia/MG,-17.7253,-42.2728,4,46.54410
1,Angical do Piauí/PI,-6.0872666,-42.7366138,890,13128.78006
D1,Angical do Piauí/PI,-6.0872666,-42.7366138,12,177.01726
1,Angical/BA,-12.005623,-44.7000236,732,5265.42943
D1,Angical/BA,-12.005623,-44.7000236,19,136.67098
1,Angico/TO,-6.3893733,-47.8656722,238,6848.92086
D1,Angico/TO,-6.3893733,-47.8656722,5,143.88489
1,Angicos/RN,-5.6666344,-36.6009064,1114,9525.43822
D1,Angicos/RN,-5.6666344,-36.6009064,24,205.21590
1,Angra dos Reis/RJ,-23.0063966,-44.316326,16708,7949.71714
D1,Angra dos Reis/RJ,-23.0063966,-44.316326,531,252.65141
1,Anguera/BA,-12.1509425,-39.2452469,499,4389.12833
D1,Anguera/BA,-12.1509425,-39.2452469,2,17.59170
1,Angélica/MS,-22.1588196,-53.7728504,1434,12941.07030
D1,Angélica/MS,-22.1588196,-53.7728504,21,189.51358
1,Anhanguera/GO,-18.3338749,-48.220363,96,8198.12126
D1,Anhanguera/GO,-18.3338749,-48.220363,7,597.77968
1,Anhembi/SP,-22.7891096,-48.1316776,331,4789.46607
D1,Anhembi/SP,-22.7891096,-48.1316776,9,130.22717
1,Anhumas/SP,-22.2956478,-51.3873401,344,8245.44583
D1,Anhumas/SP,-22.2956478,-51.3873401,7,167.78523
1,Anicuns/GO,-16.4606451,-49.9572265,3251,14701.75915
D1,Anicuns/GO,-16.4606451,-49.9572265,68,307.51142
1,Anita Garibaldi/SC,-27.6855032,-51.1293873,1210,17838.71443
D1,Anita Garibaldi/SC,-27.6855032,-51.1293873,10,147.42739
1,Anitápolis/SC,-27.9041185,-49.1287395,356,11045.60968
D1,Anitápolis/SC,-27.9041185,-49.1287395,5,155.13497
1,Anori/AM,-3.7435254,-61.6605203,1921,8756.89474
D1,Anori/AM,-3.7435254,-61.6605203,33,150.43078
1,Anta Gorda/RS,-28.9718745,-52.0069187,644,10839.92594
D1,Anta Gorda/RS,-28.9718745,-52.0069187,5,84.16092
1,Antas/BA,-10.4114649,-38.3308815,1318,6704.30846
D1,Antas/BA,-10.4114649,-38.3308815,13,66.12747
1,Antonina do Norte/CE,-6.7754187,-39.9879345,810,10942.98838
D1,Antonina do Norte/CE,-6.7754187,-39.9879345,26,351.25642
1,Antonina/PR,-25.4298854,-48.7125431,2561,13536.65627
D1,Antonina/PR,-25.4298854,-48.7125431,73,385.85549
1,Antônio Almeida/PI,-7.2186016,-44.1950248,406,12787.40157
D1,Antônio Almeida/PI,-7.2186016,-44.1950248,10,314.96063
1,Antônio Cardoso/BA,-12.4363122,-39.1200307,628,5381.31962
D1,Antônio Cardoso/BA,-12.4363122,-39.1200307,11,94.25878
1,Antônio Carlos/MG,-21.318334,-43.746666,820,7148.46134
D1,Antônio Carlos/MG,-21.318334,-43.746666,17,148.19981
1,Antônio Carlos/SC,-27.5168462,-48.7684715,1674,19214.87603
D1,Antônio Carlos/SC,-27.5168462,-48.7684715,27,309.91736
1,Antônio Dias/MG,-19.6525,-42.872778,600,6498.42955
D1,Antônio Dias/MG,-19.6525,-42.872778,27,292.42933
1,Antônio Gonçalves/BA,-10.5715409,-40.2748824,916,7662.06608
D1,Antônio Gonçalves/BA,-10.5715409,-40.2748824,10,83.64701
1,Antônio João/MS,-22.1892837,-55.9508227,544,5989.87007
D1,Antônio João/MS,-22.1892837,-55.9508227,17,187.18344
1,Antônio Martins/RN,-6.2155812,-37.8890129,691,9648.14298
D1,Antônio Martins/RN,-6.2155812,-37.8890129,7,97.73806
1,Antônio Olinto/PR,-25.9849006,-50.1974516,547,7370.97426
D1,Antônio Olinto/PR,-25.9849006,-50.1974516,15,202.12909
1,Antônio Prado de Minas/MG,-21.0171988,-42.1101106,166,10526.31579
D1,Antônio Prado de Minas/MG,-21.0171988,-42.1101106,5,317.05770
1,Antônio Prado/RS,-28.8567806,-51.2801355,2779,21309.71551
D1,Antônio Prado/RS,-28.8567806,-51.2801355,32,245.37996
1,Anápolis/GO,-16.3332828,-48.9525756,48403,12206.76576
D1,Anápolis/GO,-16.3332828,-48.9525756,1724,434.77603
1,Anísio de Abreu/PI,-9.185643,-43.04941,291,2911.74705
D1,Anísio de Abreu/PI,-9.185643,-43.04941,14,140.08405
1,Aparecida d'Oeste/SP,-20.4498109,-50.8808706,843,20451.23726
D1,Aparecida d'Oeste/SP,-20.4498109,-50.8808706,18,436.68122
1,Aparecida de Goiânia/GO,-16.8226769,-49.2452546,83355,13849.93453
D1,Aparecida de Goiânia/GO,-16.8226769,-49.2452546,1704,283.12985
1,Aparecida do Rio Doce/GO,-18.2980167,-51.1491312,265,10711.39854
D1,Aparecida do Rio Doce/GO,-18.2980167,-51.1491312,4,161.68149
1,Aparecida do Rio Negro/TO,-9.9513491,-47.9773786,392,7998.36768
D1,Aparecida do Rio Negro/TO,-9.9513491,-47.9773786,13,265.25199
1,Aparecida do Taboado/MS,-20.0840304,-51.1013943,3650,13833.09331
D1,Aparecida do Taboado/MS,-20.0840304,-51.1013943,62,234.97309
1,Aparecida/PB,-6.7859598, -38.0831353,1012,11931.14831
D1,Aparecida/PB,-6.7859598, -38.0831353,14,165.05541
1,Aparecida/SP,-22.851552,-45.2340924,2874,7936.81478
D1,Aparecida/SP,-22.851552,-45.2340924,112,309.29828
1,Aperibé/RJ,-21.6211928,-42.1028167,1133,9413.42639
D1,Aperibé/RJ,-21.6211928,-42.1028167,31,257.56065
1,Apiacá/ES,-21.152272,-41.569297,965,12795.01458
D1,Apiacá/ES,-21.152272,-41.569297,35,464.06789
1,Apiacás/MT,-9.5678422,-57.394852,2021,19374.94008
D1,Apiacás/MT,-9.5678422,-57.394852,18,172.56255
1,Apiaí/SP,-24.5076527,-48.8461582,1776,7375.10901
D1,Apiaí/SP,-24.5076527,-48.8461582,85,352.97537
1,Apicum-Açu/MA,-1.5279295,-45.082278,545,3099.76112
D1,Apicum-Açu/MA,-1.5279295,-45.082278,11,62.56399
1,Apiúna/SC,-27.0374658,-49.3885037,882,8054.05899
D1,Apiúna/SC,-27.0374658,-49.3885037,18,164.36855
1,Apodi/RN,-5.6631109,-37.796927,6676,18594.02852
D1,Apodi/RN,-5.6631109,-37.796927,97,270.16488
1,Aporá/BA,-11.6599747,-38.0794757,648,3632.28700
D1,Aporá/BA,-11.6599747,-38.0794757,19,106.50224
1,Aporé/GO,-18.9642193,-51.92804,429,10056.25879
D1,Aporé/GO,-18.9642193,-51.92804,11,257.85279
1,Apuarema/BA,-13.8517897,-39.7457126,777,10681.88067
D1,Apuarema/BA,-13.8517897,-39.7457126,11,151.22354
1,Apucarana/PR,-23.5525327,-51.4610764,10823,7874.82356
D1,Apucarana/PR,-23.5525327,-51.4610764,456,331.78597
1,Apuiarés/CE,-3.9460303,-39.4313298,1382,9374.57604
D1,Apuiarés/CE,-3.9460303,-39.4313298,25,169.58350
1,Apuí/AM,-7.1940195,-59.8830192,1484,6526.23246
D1,Apuí/AM,-7.1940195,-59.8830192,32,140.72738
1,Aquidabã/SE,-10.2837579,-37.0188687,2408,11047.89870
D1,Aquidabã/SE,-10.2837579,-37.0188687,40,183.51991
1,Aquidauana/MS,-20.473969,-55.7821375,5671,11769.46704
D1,Aquidauana/MS,-20.473969,-55.7821375,167,346.58808
1,Aquiraz/CE,-3.9063117,-38.387504,6868,8418.62689
D1,Aquiraz/CE,-3.9063117,-38.387504,94,115.22291
1,Arabutã/SC,-27.1587028,-52.1438142,425,9957.82568
D1,Arabutã/SC,-27.1587028,-52.1438142,10,234.30178
1,Aracaju/SE,-10.9162061,-37.0774655,127701,18985.77788
D1,Aracaju/SE,-10.9162061,-37.0774655,2411,358.45225
1,Aracati/CE,-4.558259,-37.767894,8040,10664.26146
D1,Aracati/CE,-4.558259,-37.767894,165,218.85611
1,Aracatu/BA,-14.4274236,-41.4604105,906,6990.74074
D1,Aracatu/BA,-14.4274236,-41.4604105,18,138.88889
1,Araci/BA,-11.3356065,-38.9573261,3731,6795.62137
D1,Araci/BA,-11.3356065,-38.9573261,54,98.35528
1,Aracitaba/MG,-21.3425,-43.378611,91,4426.07004
D1,Aracitaba/MG,-21.3425,-43.378611,10,486.38132
1,Aracoiaba/CE,-4.3702577,-38.8084313,4301,16169.17293
D1,Aracoiaba/CE,-4.3702577,-38.8084313,35,131.57895
1,Aracruz/ES,-19.8245218,-40.2735025,17280,16466.23849
D1,Aracruz/ES,-19.8245218,-40.2735025,235,223.93322
1,Aragarças/GO,-15.8957166,-52.2514538,3250,15923.56688
D1,Aragarças/GO,-15.8957166,-52.2514538,76,372.36649
1,Aragoiânia/GO,-16.9146388,-49.4499148,1476,13820.22472
D1,Aragoiânia/GO,-16.9146388,-49.4499148,28,262.17228
1,Aragominas/TO,-7.1654101,-48.525488,570,9991.23576
D1,Aragominas/TO,-7.1654101,-48.525488,11,192.81332
1,Araguacema/TO,-8.8067391,-49.5560969,773,10701.92441
D1,Araguacema/TO,-8.8067391,-49.5560969,15,207.66994
1,Araguaiana/MT,-15.729144,-51.834112,397,12956.91906
D1,Araguaiana/MT,-15.729144,-51.834112,8,261.09661
1,Araguainha/MT,-16.857016,-53.031778,29,3190.31903
D1,Araguainha/MT,-16.857016,-53.031778,1,110.01100
1,Araguanã/MA,-2.9508403,-45.6651986,810,5167.46411
D1,Araguanã/MA,-2.9508403,-45.6651986,5,31.89793
1,Araguanã/TO,-6.5799107,-48.6428482,584,9972.67760
D1,Araguanã/TO,-6.5799107,-48.6428482,16,273.22404
1,Araguapaz/GO,-15.0937927,-50.626417,703,9018.60167
D1,Araguapaz/GO,-15.0937927,-50.626417,29,372.03335
1,Araguari/MG,-18.6511256,-48.1933764,18940,16001.89252
D1,Araguari/MG,-18.6511256,-48.1933764,451,381.03767
1,Araguatins/TO,-5.6522925,-48.1158973,2533,6925.87428
D1,Araguatins/TO,-5.6522925,-48.1158973,68,185.92951
1,Araguaçu/TO,-12.928934,-49.823134,937,11130.90995
D1,Araguaçu/TO,-12.928934,-49.823134,22,261.34474
1,Araguaína/TO,-7.193241,-48.2018597,37153,19948.45499
D1,Araguaína/TO,-7.193241,-48.2018597,527,282.96062
1,Araioses/MA,-2.890914,-41.904993,684,1452.38348
D1,Araioses/MA,-2.890914,-41.904993,15,31.85051
1,Aral Moreira/MS,-22.951141,-55.6268421,560,4476.06107
D1,Aral Moreira/MS,-22.951141,-55.6268421,16,127.88746
1,Aramari/BA,-12.0907897,-38.4985065,674,5851.20236
D1,Aramari/BA,-12.0907897,-38.4985065,13,112.85702
1,Arambaré/RS,-30.9132252,-51.4994625,230,6489.84199
D1,Arambaré/RS,-30.9132252,-51.4994625,9,253.95034
1,Arame/MA,-4.8858769,-46.0102484,1563,4761.61462
D1,Arame/MA,-4.8858769,-46.0102484,42,127.95126
1,Aramina/SP,-20.0876144,-47.789201,366,6433.46810
D1,Aramina/SP,-20.0876144,-47.789201,18,316.40007
1,Arandu/SP,-23.1345103,-49.0545651,657,10309.11659
D1,Arandu/SP,-23.1345103,-49.0545651,21,329.51514
1,Arantina/MG,-21.911667,-44.255833,233,8384.31090
D1,Arantina/MG,-21.911667,-44.255833,5,179.92083
1,Arapeí/SP,-22.6738889,-44.4477778,269,10970.63622
D1,Arapeí/SP,-22.6738889,-44.4477778,3,122.34910
1,Arapiraca/AL,-9.754866,-36.661471,31076,13262.82815
D1,Arapiraca/AL,-9.754866,-36.661471,526,224.48988
1,Arapoema/TO,-7.6575001,-49.0641484,520,7890.74355
D1,Arapoema/TO,-7.6575001,-49.0641484,12,182.09408
1,Araponga/MG,-20.666667,-42.520556,686,8102.04323
D1,Araponga/MG,-20.666667,-42.520556,13,153.53726
1,Arapongas/PR,-23.415296,-51.42592,14016,11075.90185
D1,Arapongas/PR,-23.415296,-51.42592,571,451.22289
1,Araporã/MG,-18.4318188,-49.188313,2063,29505.14874
D1,Araporã/MG,-18.4318188,-49.188313,40,572.08238
1,Arapoti/PR,-24.1457957,-49.8224605,3243,11386.93820
D1,Arapoti/PR,-24.1457957,-49.8224605,66,231.74157
1,Araputanga/MT,-15.4710868,-58.346796,2133,12489.75290
D1,Araputanga/MT,-15.4710868,-58.346796,55,322.05176
1,Arapuá/MG,-19.034444,-46.155556,289,10190.40903
D1,Arapuá/MG,-19.034444,-46.155556,3,105.78279
1,Arapuã/PR,-24.3079525,-51.7901941,278,9420.53541
D1,Arapuã/PR,-24.3079525,-51.7901941,7,237.20773
1,Araquari/SC,-26.3703324,-48.7210994,4148,10144.28956
D1,Araquari/SC,-26.3703324,-48.7210994,85,207.87479
1,Arara/PB,-6.8271895,-35.7605703,1045,7676.48571
D1,Arara/PB,-6.8271895,-35.7605703,29,213.03166
1,Araranguá/SC,-28.9348832,-49.4858389,11049,15899.44311
D1,Araranguá/SC,-28.9348832,-49.4858389,250,359.74846
1,Araraquara/SP,-21.7886713,-48.1773096,25130,10447.23998
D1,Araraquara/SP,-21.7886713,-48.1773096,510,212.02119
1,Araras/SP,-22.3569477,-47.3838889,18334,13408.02551
D1,Araras/SP,-22.3569477,-47.3838889,396,289.60282
1,Ararendá/CE,-4.7504395,-40.8303611,1416,12892.65228
D1,Ararendá/CE,-4.7504395,-40.8303611,22,200.30957
1,Arari/MA,-3.4547602,-44.7772723,1001,3335.11028
D1,Arari/MA,-3.4547602,-44.7772723,34,113.28047
1,Araricá/RS,-29.6168543,-50.929121,1019,17448.63014
D1,Araricá/RS,-29.6168543,-50.929121,27,462.32877
1,Araripe/CE,-7.212861,-40.1359222,1367,6297.50772
D1,Araripe/CE,-7.212861,-40.1359222,23,105.95660
1,Araripina/PE,-7.5768582,-40.5038509,7654,8972.93115
D1,Araripina/PE,-7.5768582,-40.5038509,163,191.08803
1,Araruama/RJ,-22.8733203,-42.3428897,7326,5382.45083
D1,Araruama/RJ,-22.8733203,-42.3428897,477,350.45442
1,Araruna/PB,-6.5321155,-35.7397595,714,3464.33770
D1,Araruna/PB,-6.5321155,-35.7397595,17,82.48423
1,Araruna/PR,-23.9320308,-52.4976047,2162,15410.93449
D1,Araruna/PR,-23.9320308,-52.4976047,36,256.61131
1,Arataca/BA,-15.2617424,-39.4122943,790,7245.04769
D1,Arataca/BA,-15.2617424,-39.4122943,15,137.56420
1,Aratiba/RS,-27.3955734,-52.3024325,457,7436.94060
D1,Aratiba/RS,-27.3955734,-52.3024325,7,113.91375
1,Aratuba/CE,-4.4195958,-39.0463737,1653,14057.31780
D1,Aratuba/CE,-4.4195958,-39.0463737,12,102.04949
1,Aratuípe/BA,-13.077137,-39.0010786,488,5515.37071
D1,Aratuípe/BA,-13.077137,-39.0010786,12,135.62387
1,Araucária/PR,-25.5861107,-49.4051209,28654,19292.76471
D1,Araucária/PR,-25.5861107,-49.4051209,513,345.40337
1,Arauá/SE,-11.2644014,-37.6181058,1291,13119.91870
D1,Arauá/SE,-11.2644014,-37.6181058,22,223.57724
1,Araxá/MG,-19.5928536,-46.940241,14725,13583.57241
D1,Araxá/MG,-19.5928536,-46.940241,239,220.47360
1,Araçagi/PB,-6.8519969,-35.3835602,1744,10345.85039
D1,Araçagi/PB,-6.8519969,-35.3835602,25,148.30634
1,Araçariguama/SP,-23.438611,-47.061389,2142,9176.19843
D1,Araçariguama/SP,-23.438611,-47.061389,71,304.15971
1,Araçatuba/SP,-21.207992,-50.4390225,30386,15253.25034
D1,Araçatuba/SP,-21.207992,-50.4390225,919,461.32222
1,Araçaí/MG,-19.200833,-44.2475,104,4406.77966
D1,Araçaí/MG,-19.200833,-44.2475,1,42.37288
1,Araçoiaba da Serra/SP,-23.5045367,-47.6168158,3083,8711.74659
D1,Araçoiaba da Serra/SP,-23.5045367,-47.6168158,85,240.18763
1,Araçoiaba/PE,-7.7856903,-35.0898881,686,3276.65266
D1,Araçoiaba/PE,-7.7856903,-35.0898881,32,152.84677
1,Araçu/GO,-16.3561579,-49.6815269,501,14521.73913
D1,Araçu/GO,-16.3561579,-49.6815269,18,521.73913
1,Araçuaí/MG,-16.8484451,-42.0661868,2022,5507.28585
D1,Araçuaí/MG,-16.8484451,-42.0661868,52,141.63149
1,Araçás/BA,-12.2139176,-38.2026159,717,5859.27924
D1,Araçás/BA,-12.2139176,-38.2026159,17,138.92294
1,Araújos/MG,-19.948055,-45.165556,947,9944.34527
D1,Araújos/MG,-19.948055,-45.165556,14,147.01250
1,Arceburgo/MG,-21.364444,-46.939722,1279,11637.85259
D1,Arceburgo/MG,-21.364444,-46.939722,34,309.37216
1,Arco-Íris/SP,-21.7741308,-50.4668814,163,9287.74929
D1,Arco-Íris/SP,-21.7741308,-50.4668814,8,455.84046
1,Arcos/MG,-20.282223,-45.539444,6201,15251.61100
D1,Arcos/MG,-20.282223,-45.539444,139,341.87614
1,Arcoverde/PE,-8.415192,-37.057748,7248,9626.13719
D1,Arcoverde/PE,-8.415192,-37.057748,135,179.29477
1,Areado/MG,-21.3582771,-46.1476688,1237,8091.31345
D1,Areado/MG,-21.3582771,-46.1476688,31,202.77342
1,Areal/RJ,-22.2314922,-43.1056264,1656,12975.00588
D1,Areal/RJ,-22.2314922,-43.1056264,51,399.59257
1,Arealva/SP,-22.0301906,-48.9111936,1008,11633.00635
D1,Arealva/SP,-22.0301906,-48.9111936,20,230.81362
1,Areia Branca/RN,-4.9506652,-37.1263312,2988,10612.30288
D1,Areia Branca/RN,-4.9506652,-37.1263312,99,351.61244
1,Areia Branca/SE,-10.7591455,-37.3148072,2101,11160.69057
D1,Areia Branca/SE,-10.7591455,-37.3148072,48,254.98008
1,Areia de Baraúnas/PB,-7.1233949,-36.9446216,222,10546.31829
D1,Areia de Baraúnas/PB,-7.1233949,-36.9446216,4,190.02375
1,Areia/PB,-6.9680243,-35.6994783,2032,9033.92166
D1,Areia/PB,-6.9680243,-35.6994783,34,151.15814
1,Areial/PB,-7.0501306,-35.9245244,392,5557.13071
D1,Areial/PB,-7.0501306,-35.9245244,12,170.11625
1,Areias/SP,-22.5800929,-44.6975127,367,9395.80133
D1,Areias/SP,-22.5800929,-44.6975127,2,51.20328
1,Areiópolis/SP,-22.6758064,-48.6673653,1406,12569.28303
D1,Areiópolis/SP,-22.6758064,-48.6673653,21,187.73467
1,Arenápolis/MT,-14.4610369,-56.8432806,1910,20321.31078
D1,Arenápolis/MT,-14.4610369,-56.8432806,39,414.93776
1,Arenópolis/GO,-16.3859286,-51.55937,342,13891.14541
D1,Arenópolis/GO,-16.3859286,-51.55937,8,324.93907
1,Argirita/MG,-21.612761,-42.8371922,283,10555.76278
D1,Argirita/MG,-21.612761,-42.8371922,9,335.69564
1,Aricanduva/MG,-17.8678,-42.5569,149,2808.67107
1,Arinos/MG,-15.917223,-46.106111,1094,6128.85154
D1,Arinos/MG,-15.917223,-46.106111,30,168.06723
1,Aripuanã/MT,-10.175806,-59.4439663,3233,14015.69341
D1,Aripuanã/MT,-10.175806,-59.4439663,50,216.75987
1,Ariquemes/RO,-9.9076522,-63.033069,22631,20361.14010
D1,Ariquemes/RO,-9.9076522,-63.033069,497,447.15155
1,Ariranha do Ivaí/PR,-24.3834527,-51.5876772,180,8884.50148
D1,Ariranha do Ivaí/PR,-24.3834527,-51.5876772,4,197.43337
1,Ariranha/SP,-21.18716,-48.790418,1012,10273.06872
D1,Ariranha/SP,-21.18716,-48.790418,26,263.93260
1,Armazém/SC,-28.2624996,-49.0190126,1451,16408.45867
D1,Armazém/SC,-28.2624996,-49.0190126,35,395.79328
1,Armação dos Búzios/RJ,-22.7597805,-41.8875267,5524,15755.84712
D1,Armação dos Búzios/RJ,-22.7597805,-41.8875267,70,199.65773
1,Arneiroz/CE,-6.3235099,-40.1603859,674,8588.17533
D1,Arneiroz/CE,-6.3235099,-40.1603859,17,216.61570
1,Aroazes/PI,-6.1108814,-41.7886137,603,10362.60526
D1,Aroazes/PI,-6.1108814,-41.7886137,12,206.22100
1,Aroeiras do Itaim/PI,-7.2797031,-41.5629681,172,6742.45394
D1,Aroeiras do Itaim/PI,-7.2797031,-41.5629681,2,78.40063
1,Aroeiras/PB,-7.5462904,-35.7080002,1939,10161.94120
D1,Aroeiras/PB,-7.5462904,-35.7080002,16,83.85305
1,Arraial do Cabo/RJ,-22.9662839,-42.024427,917,2974.66507
D1,Arraial do Cabo/RJ,-22.9662839,-42.024427,44,142.73202
1,Arraial/PI,-6.6541632,-42.5335332,170,3607.04435
D1,Arraial/PI,-6.6541632,-42.5335332,3,63.65372
1,Arraias/TO,-12.9287788,-46.9437231,1132,10778.89926
D1,Arraias/TO,-12.9287788,-46.9437231,13,123.78595
1,Arroio Grande/RS,-32.2384246,-53.0866661,2094,11514.98488
D1,Arroio Grande/RS,-32.2384246,-53.0866661,54,296.94803
1,Arroio Trinta/SC,-26.9301976,-51.334928,622,17535.94587
D1,Arroio Trinta/SC,-26.9301976,-51.334928,14,394.69975
1,Arroio do Meio/RS,-29.4020392,-51.9444993,3174,15027.69755
D1,Arroio do Meio/RS,-29.4020392,-51.9444993,49,231.99659
1,Arroio do Padre/RS,-31.4428773,-52.4228985,252,8496.29130
D1,Arroio do Padre/RS,-31.4428773,-52.4228985,4,134.86177
1,Arroio do Sal/RS,-29.549852,-49.8874395,1189,11342.17304
D1,Arroio do Sal/RS,-29.549852,-49.8874395,40,381.57016
1,Arroio do Tigre/RS,-29.334158,-53.0888935,1259,9359.20309
D1,Arroio do Tigre/RS,-29.334158,-53.0888935,22,163.54445
1,Arroio dos Ratos/RS,-30.0894524,-51.7265541,1141,8034.64545
D1,Arroio dos Ratos/RS,-30.0894524,-51.7265541,38,267.58679
1,Artur Nogueira/SP,-22.572737,-47.172679,5558,9881.41590
D1,Artur Nogueira/SP,-22.572737,-47.172679,143,254.23578
1,Aruanã/GO,-14.9162439,-51.0715692,783,7572.53385
D1,Aruanã/GO,-14.9162439,-51.0715692,19,183.75242
1,Arujá/SP,-23.396266,-46.3175449,8382,9066.22825
D1,Arujá/SP,-23.396266,-46.3175449,334,361.26464
1,Arvoredo/SC,-27.0752908,-52.4571847,338,15170.55655
D1,Arvoredo/SC,-27.0752908,-52.4571847,5,224.41652
1,Arvorezinha/RS,-28.87369,-52.17808,898,8616.38841
D1,Arvorezinha/RS,-28.87369,-52.17808,28,268.66244
1,Arês/RN,-6.1969216,-35.1642968,1139,7841.11249
D1,Arês/RN,-6.1969216,-35.1642968,25,172.10519
1,Ascurra/SC,-26.9569975,-49.3767752,1309,16319.66089
D1,Ascurra/SC,-26.9569975,-49.3767752,13,162.07455
1,Aspásia/SP,-20.160028,-50.728046,212,11680.44077
D1,Aspásia/SP,-20.160028,-50.728046,8,440.77135
1,Assaré/CE,-6.8746791,-39.8741385,2342,9950.29103
D1,Assaré/CE,-6.8746791,-39.8741385,44,186.93971
1,Assaí/PR,-23.3736041,-50.8454929,1480,10005.40833
D1,Assaí/PR,-23.3736041,-50.8454929,53,358.30178
1,Assis Brasil/AC,-10.9409203,-69.5672108,1829,23911.62243
D1,Assis Brasil/AC,-10.9409203,-69.5672108,24,313.76651
1,Assis Chateaubriand/PR,-24.4054826,-53.5120468,5197,15603.79511
D1,Assis Chateaubriand/PR,-24.4054826,-53.5120468,122,366.30037
1,Assis/SP,-22.6620892,-50.420623,11872,11224.56698
D1,Assis/SP,-22.6620892,-50.420623,409,386.69541
1,Assunção do Piauí/PI,-5.8610212,-41.0485091,345,4378.72827
D1,Assunção do Piauí/PI,-5.8610212,-41.0485091,8,101.53573
1,Assunção/PB,-7.073396,-36.7274003,424,10425.37497
D1,Assunção/PB,-7.073396,-36.7274003,5,122.94074
1,Astolfo Dutra/MG,-21.3132636,-42.8624102,1397,9729.76738
D1,Astolfo Dutra/MG,-21.3132636,-42.8624102,28,195.01323
1,Astorga/PR,-23.2350184,-51.6647074,3513,13355.38321
D1,Astorga/PR,-23.2350184,-51.6647074,89,338.35158
1,Atalaia do Norte/AM,-4.3658547,-70.1908742,2830,13561.43377
D1,Atalaia do Norte/AM,-4.3658547,-70.1908742,10,47.92026
1,Atalaia/AL,-9.5029595,-36.0219316,1244,2616.74379
D1,Atalaia/AL,-9.5029595,-36.0219316,52,109.38157
1,Atalaia/PR,-23.1513833,-52.0529697,448,11573.23689
D1,Atalaia/PR,-23.1513833,-52.0529697,22,568.32860
1,Atalanta/SC,-27.421916,-49.778863,503,15822.58572
D1,Atalanta/SC,-27.421916,-49.778863,11,346.02076
1,Ataléia/MG,-18.04432,-41.1110524,1192,9539.05250
D1,Ataléia/MG,-18.04432,-41.1110524,10,80.02561
1,Atibaia/SP,-23.1177393,-46.5547861,12663,8710.39635
D1,Atibaia/SP,-23.1177393,-46.5547861,281,193.28922
1,Atilio Vivacqua/ES,-20.9139369,-41.1947519,1673,13634.88183
D1,Atilio Vivacqua/ES,-20.9139369,-41.1947519,30,244.49878
1,Augustinópolis/TO,-5.4662267,-47.8897519,1782,9443.56121
D1,Augustinópolis/TO,-5.4662267,-47.8897519,32,169.58135
1,Augusto Corrêa/PA,-1.0229335,-46.6404029,2034,4333.46827
D1,Augusto Corrêa/PA,-1.0229335,-46.6404029,51,108.65628
1,Augusto Pestana/RS,-28.5148413,-53.9906433,873,13338.42628
D1,Augusto Pestana/RS,-28.5148413,-53.9906433,13,198.62490
1,Augusto de Lima/MG,-18.1092963,-44.2651945,310,6414.23546
D1,Augusto de Lima/MG,-18.1092963,-44.2651945,10,206.91082
1,Aurelino Leal/BA,-14.3167137,-39.3256107,1032,9314.92012
D1,Aurelino Leal/BA,-14.3167137,-39.3256107,33,297.86082
1,Auriflama/SP,-20.6840418,-50.5554616,2069,13508.74902
D1,Auriflama/SP,-20.6840418,-50.5554616,73,476.62575
1,Aurilândia/GO,-16.6772599,-50.4641231,365,12166.66667
D1,Aurilândia/GO,-16.6772599,-50.4641231,11,366.66667
1,Aurora do Pará/PA,-2.1323199,-47.558436,1693,5257.76398
D1,Aurora do Pará/PA,-2.1323199,-47.558436,15,46.58385
1,Aurora do Tocantins/TO,-12.71045,-46.407604,278,7298.50354
D1,Aurora do Tocantins/TO,-12.71045,-46.407604,6,157.52166
1,Aurora/CE,-6.9426019,-38.9693765,1818,7400.17096
D1,Aurora/CE,-6.9426019,-38.9693765,38,154.67904
1,Aurora/SC,-27.3166417,-49.6368502,899,15807.98312
D1,Aurora/SC,-27.3166417,-49.6368502,16,281.34341
1,Autazes/AM,-3.5833283,-59.1301518,2906,7086.94062
D1,Autazes/AM,-3.5833283,-59.1301518,95,231.67906
1,Avanhandava/SP,-21.4603331,-49.9465156,1227,8725.02311
D1,Avanhandava/SP,-21.4603331,-49.9465156,43,305.76691
1,Avaré/SP,-23.1045215,-48.9259103,11738,12787.60676
D1,Avaré/SP,-23.1045215,-48.9259103,278,302.85864
1,Avaí/SP,-22.1564662,-49.3316395,490,8962.86812
D1,Avaí/SP,-22.1564662,-49.3316395,12,219.49881
1,Aveiro/PA,-3.6049239,-55.3310742,849,5170.20888
D1,Aveiro/PA,-3.6049239,-55.3310742,14,85.25668
1,Avelino Lopes/PI,-10.1346855,-43.9489525,457,4022.53323
D1,Avelino Lopes/PI,-10.1346855,-43.9489525,19,167.23880
1,Avelinópolis/GO,-16.4672409,-49.7578661,344,14327.36360
D1,Avelinópolis/GO,-16.4672409,-49.7578661,18,749.68763
1,Axixá do Tocantins/TO,-5.612747,-47.77007,1052,10716.10472
D1,Axixá do Tocantins/TO,-5.612747,-47.77007,21,213.91464
1,Axixá/MA,-2.8379465,-44.0561053,192,1569.39676
D1,Axixá/MA,-2.8379465,-44.0561053,8,65.39153
1,Açailândia/MA,-4.9514278,-47.4844564,5681,4992.83724
D1,Açailândia/MA,-4.9514278,-47.4844564,240,210.92782
1,Açu/RN,-5.5836157,-36.9139541,8217,13988.04964
D1,Açu/RN,-5.5836157,-36.9139541,148,251.94491
1,Açucena/MG,-19.073056,-42.546666,808,8716.28910
D1,Açucena/MG,-19.073056,-42.546666,36,388.34951
1,Babaçulândia/TO,-7.2034355,-47.761613,884,8286.46419
D1,Babaçulândia/TO,-7.2034355,-47.761613,8,74.99063
1,Bacabal/MA,-4.2318132,-44.781167,5601,5329.51453
D1,Bacabal/MA,-4.2318132,-44.781167,202,192.20888
1,Bacabeira/MA,-2.9775747,-44.3155943,398,2281.32523
D1,Bacabeira/MA,-2.9775747,-44.3155943,10,57.31973
1,Bacuri/MA,-1.728894,-45.1417148,621,3316.24479
D1,Bacuri/MA,-1.728894,-45.1417148,4,21.36067
1,Bacurituba/MA,-2.7082587,-44.7381309,117,2054.07303
D1,Bacurituba/MA,-2.7082587,-44.7381309,2,35.11236
1,Bady Bassitt/SP,-20.9178969,-49.4517911,4147,23022.26170
D1,Bady Bassitt/SP,-20.9178969,-49.4517911,84,466.32987
1,Baependi/MG,-21.959162,-44.8899249,1611,8369.26594
D1,Baependi/MG,-21.959162,-44.8899249,32,166.24240
1,Bagre/PA,-1.8994498,-50.2103844,947,2962.43001
D1,Bagre/PA,-1.8994498,-50.2103844,12,37.53871
1,Bagé/RS,-31.3314264,-54.1062808,11552,9506.41057
D1,Bagé/RS,-31.3314264,-54.1062808,292,240.29362
1,Baianópolis/BA,-12.3067564,-44.5383591,939,6717.21869
D1,Baianópolis/BA,-12.3067564,-44.5383591,20,143.07175
1,Baixa Grande do Ribeiro/PI,-7.862861,-45.2113289,2667,22695.94077
D1,Baixa Grande do Ribeiro/PI,-7.862861,-45.2113289,33,280.82716
1,Baixa Grande/BA,-11.9630941,-40.1657537,906,4434.43786
D1,Baixa Grande/BA,-11.9630941,-40.1657537,16,78.31237
1,Baixio/CE,-6.7303544,-38.7170095,715,11316.87243
D1,Baixio/CE,-6.7303544,-38.7170095,13,205.76132
1,Baixo Guandu/ES,-19.5138322,-41.0182089,3858,12340.46637
D1,Baixo Guandu/ES,-19.5138322,-41.0182089,82,262.29089
1,Baião/PA,-2.7903479,-49.6702845,806,1629.79739
D1,Baião/PA,-2.7903479,-49.6702845,38,76.83908
1,Balbinos/SP,-21.9006253,-49.3583966,372,6071.48686
D1,Balbinos/SP,-21.9006253,-49.3583966,4,65.28480
1,Baldim/MG,-19.2913568,-43.9558262,674,8663.23907
D1,Baldim/MG,-19.2913568,-43.9558262,22,282.77635
1,Baliza/GO,-16.1978119,-52.542789,492,9080.84164
D1,Baliza/GO,-16.1978119,-52.542789,9,166.11296
1,Balneário Arroio do Silva/SC,-28.9815269,-49.4189932,2170,15745.17487
D1,Balneário Arroio do Silva/SC,-28.9815269,-49.4189932,58,420.83878
1,Balneário Barra do Sul/SC,-26.459842,-48.6061471,1555,13796.46881
D1,Balneário Barra do Sul/SC,-26.459842,-48.6061471,49,434.74403
1,Balneário Camboriú/SC,-26.9924395,-48.6339782,26989,18085.86918
D1,Balneário Camboriú/SC,-26.9924395,-48.6339782,410,274.74921
1,Balneário Gaivota/SC,-29.1553098,-49.5808712,1370,11874.83748
D1,Balneário Gaivota/SC,-29.1553098,-49.5808712,38,329.37505
1,Balneário Pinhal/RS,-30.2482978,-50.234585,1036,7074.08672
D1,Balneário Pinhal/RS,-30.2482978,-50.234585,51,348.24172
1,Balneário Piçarras/SC,-26.7638889,-48.6716667,5342,21906.90999
D1,Balneário Piçarras/SC,-26.7638889,-48.6716667,61,250.15378
1,Balneário Rincão/SC,-28.8235718,-49.2241642,1511,11508.87349
D1,Balneário Rincão/SC,-28.8235718,-49.2241642,52,396.06977
1,Balsa Nova/PR,-25.5842234,-49.6312741,1736,13113.76341
D1,Balsa Nova/PR,-25.5842234,-49.6312741,35,264.39039
1,Balsas/MA,-7.53214,-46.037163,13045,13455.25059
D1,Balsas/MA,-7.53214,-46.037163,208,214.54137
1,Bambuí/MG,-20.0131996,-45.9777034,2062,8604.57353
D1,Bambuí/MG,-20.0131996,-45.9777034,32,133.53363
1,Banabuiú/CE,-5.3046404,-38.919766,2331,12728.66270
D1,Banabuiú/CE,-5.3046404,-38.919766,22,120.13324
1,Bananal/SP,-22.6828195,-44.3221095,1133,10263.61083
D1,Bananal/SP,-22.6828195,-44.3221095,4,36.23517
1,Bananeiras/PB,-6.7537682,-35.6338343,1566,7379.83035
D1,Bananeiras/PB,-6.7537682,-35.6338343,27,127.23845
1,Bandeira do Sul/MG,-21.728056,-46.385555,686,11811.29477
D1,Bandeira do Sul/MG,-21.728056,-46.385555,15,258.26446
1,Bandeira/MG,-15.884444,-40.559167,478,10088.64500
D1,Bandeira/MG,-15.884444,-40.559167,10,211.05952
1,Bandeirante/SC,-26.7677402,-53.6397596,424,16195.56914
D1,Bandeirante/SC,-26.7677402,-53.6397596,5,190.98549
1,Bandeirantes do Tocantins/TO,-7.7635698,-48.579148,521,14348.66428
D1,Bandeirantes do Tocantins/TO,-7.7635698,-48.579148,7,192.78436
1,Bandeirantes/MS,-19.9179623,-54.3646768,640,8790.00137
D1,Bandeirantes/MS,-19.9179623,-54.3646768,11,151.07815
1,Bandeirantes/PR,-23.107788,-50.370407,5343,17201.63549
D1,Bandeirantes/PR,-23.107788,-50.370407,144,463.60388
1,Bannach/PA,-7.3508505,-50.4064531,650,20067.92220
D1,Bannach/PA,-7.3508505,-50.4064531,3,92.62118
1,Banzaê/BA,-10.5827616,-38.6122305,1193,9003.09411
D1,Banzaê/BA,-10.5827616,-38.6122305,9,67.91940
1,Baraúna/PB,-6.643394,-36.2531932,708,14067.15677
D1,Baraúna/PB,-6.643394,-36.2531932,9,178.81979
1,Baraúna/RN,-5.0775002,-37.61752,1708,5866.99643
D1,Baraúna/RN,-5.0775002,-37.61752,29,99.61528
1,Barbacena/MG,-21.2254524,-43.7735087,9243,6646.72338
D1,Barbacena/MG,-21.2254524,-43.7735087,297,213.57534
1,Barbalha/CE,-7.3121067,-39.3036427,7014,11374.91486
D1,Barbalha/CE,-7.3121067,-39.3036427,163,264.34433
1,Barbosa Ferraz/PR,-24.0287182,-52.00811,1307,11579.69345
D1,Barbosa Ferraz/PR,-24.0287182,-52.00811,41,363.24976
1,Barbosa/SP,-21.265661,-49.951816,771,10236.32501
D1,Barbosa/SP,-21.265661,-49.951816,20,265.53372
1,Barcarena/PA,-1.5107945,-48.6190679,11871,9178.63190
D1,Barcarena/PA,-1.5107945,-48.6190679,239,184.79429
1,Barcelona/RN,-5.9514918,-35.9260284,199,4988.71898
D1,Barcelona/RN,-5.9514918,-35.9260284,7,175.48258
1,Barcelos/AM,-0.9729214,-62.925635,4490,16167.36281
D1,Barcelos/AM,-0.9729214,-62.925635,60,216.04494
1,Bariri/SP,-22.0746355,-48.7394852,3197,8919.20545
D1,Bariri/SP,-22.0746355,-48.7394852,132,368.26247
1,Barra Bonita/SC,-26.6526364,-53.4419581,203,12492.30769
D1,Barra Bonita/SC,-26.6526364,-53.4419581,2,123.07692
1,Barra Bonita/SP,-22.490859,-48.558349,3880,10740.48443
D1,Barra Bonita/SP,-22.490859,-48.558349,113,312.80277
1,Barra D'Alcântara/PI,-6.5209258,-42.1071089,154,3895.77536
D1,Barra D'Alcântara/PI,-6.5209258,-42.1071089,4,101.18897
1,Barra Funda/RS,-27.9230048,-53.0401045,627,24463.51931
D1,Barra Funda/RS,-27.9230048,-53.0401045,14,546.23488
1,Barra Longa/MG,-20.2833541,-43.0423516,430,8766.56473
D1,Barra Longa/MG,-20.2833541,-43.0423516,11,224.26096
1,Barra Mansa/RJ,-22.5394843,-44.1735129,29584,15970.89134
D1,Barra Mansa/RJ,-22.5394843,-44.1735129,657,354.68076
1,Barra Velha/SC,-26.6338203,-48.6835001,4961,16244.80173
D1,Barra Velha/SC,-26.6338203,-48.6835001,125,409.31268
1,Barra da Estiva/BA,-13.6269662,-41.3278287,2830,14011.28825
D1,Barra da Estiva/BA,-13.6269662,-41.3278287,33,163.38251
1,Barra de Guabiraba/PE,-8.4173522,-35.6626669,450,3075.45107
D1,Barra de Guabiraba/PE,-8.4173522,-35.6626669,16,109.34937
1,Barra de Santa Rosa/PB,-6.7218007,-36.0564638,1724,11046.32537
D1,Barra de Santa Rosa/PB,-6.7218007,-36.0564638,13,83.29596
1,Barra de Santana/PB,-7.5230865,-35.9988518,686,8227.39266
D1,Barra de Santana/PB,-7.5230865,-35.9988518,7,83.95299
1,Barra de Santo Antônio/AL,-9.4038098,-35.5117693,463,2857.84828
D1,Barra de Santo Antônio/AL,-9.4038098,-35.5117693,32,197.51867
1,Barra de São Francisco/ES,-18.7570902,-40.8916119,5268,11628.88236
D1,Barra de São Francisco/ES,-18.7570902,-40.8916119,220,485.64049
1,Barra de São Miguel/AL,-9.8261357,-35.8837777,639,7576.47617
D1,Barra de São Miguel/AL,-9.8261357,-35.8837777,8,94.85416
1,Barra de São Miguel/PB,-7.7528088,-36.3170996,669,10976.21001
D1,Barra de São Miguel/PB,-7.7528088,-36.3170996,7,114.84824
1,Barra do Bugres/MT,-15.0683712,-57.1853688,3664,10280.00673
D1,Barra do Bugres/MT,-15.0683712,-57.1853688,84,235.67701
1,Barra do Chapéu/SP,-24.472203,-49.023784,448,7732.13669
D1,Barra do Chapéu/SP,-24.472203,-49.023784,6,103.55540
1,Barra do Choça/BA,-14.8638173,-40.5761637,2300,7460.02400
D1,Barra do Choça/BA,-14.8638173,-40.5761637,35,113.52210
1,Barra do Corda/MA,-5.496823,-45.248496,5830,6558.29912
D1,Barra do Corda/MA,-5.496823,-45.248496,74,83.24428
1,Barra do Garças/MT,-15.8916033,-52.2615413,10538,17078.86292
D1,Barra do Garças/MT,-15.8916033,-52.2615413,380,615.86334
1,Barra do Guarita/RS,-27.1888016,-53.7147086,116,3551.74525
D1,Barra do Guarita/RS,-27.1888016,-53.7147086,8,244.94795
1,Barra do Jacaré/PR,-23.1151788,-50.1813945,269,9672.77958
D1,Barra do Jacaré/PR,-23.1151788,-50.1813945,7,251.70802
1,Barra do Mendes/BA,-11.8053298,-42.057037,832,6337.59902
D1,Barra do Mendes/BA,-11.8053298,-42.057037,16,121.87690
1,Barra do Ouro/TO,-7.7113784,-47.6743925,167,3573.72138
D1,Barra do Ouro/TO,-7.7113784,-47.6743925,7,149.79670
1,Barra do Piraí/RJ,-22.4703403,-43.8263256,7465,7380.93119
D1,Barra do Piraí/RJ,-22.4703403,-43.8263256,389,384.61919
1,Barra do Quaraí/RS,-30.208947,-57.5505128,622,14676.73431
D1,Barra do Quaraí/RS,-30.208947,-57.5505128,9,212.36432
1,Barra do Ribeiro/RS,-30.2930206,-51.301437,1139,8363.93009
D1,Barra do Ribeiro/RS,-30.2930206,-51.301437,51,374.50433
1,Barra do Rio Azul/RS,-27.4101581,-52.4117471,118,7279.45713
D1,Barra do Rio Azul/RS,-27.4101581,-52.4117471,1,61.69031
1,Barra do Rocha/BA,-14.2090974,-39.6004395,409,7416.13781
D1,Barra do Rocha/BA,-14.2090974,-39.6004395,7,126.92656
1,Barra do Turvo/SP,-24.756421,-48.5056942,720,9466.21089
D1,Barra do Turvo/SP,-24.756421,-48.5056942,19,249.80279
1,Barra dos Coqueiros/SE,-10.9075694,-37.0386249,7053,22433.91965
D1,Barra dos Coqueiros/SE,-10.9075694,-37.0386249,99,314.89551
1,Barra/BA,-11.0892702,-43.1420453,2266,4178.88428
D1,Barra/BA,-11.0892702,-43.1420453,63,116.18257
1,Barracão/PR,-26.252395,-53.6349576,1344,12989.27225
D1,Barracão/PR,-26.252395,-53.6349576,35,338.26230
1,Barracão/RS,-27.6728964,-51.4582928,531,10139.39278
D1,Barracão/RS,-27.6728964,-51.4582928,16,305.51843
1,Barras/PI,-4.2446153,-42.2920241,5210,11015.26492
D1,Barras/PI,-4.2446153,-42.2920241,94,198.73990
1,Barreira/CE,-4.2883361,-38.641094,1603,7057.01079
D1,Barreira/CE,-4.2883361,-38.641094,50,220.11886
1,Barreiras do Piauí/PI,-9.9224524,-45.4763776,110,3277.71156
D1,Barreiras do Piauí/PI,-9.9224524,-45.4763776,3,89.39213
1,Barreiras/BA,-12.1440031,-44.9967406,19856,12532.82165
D1,Barreiras/BA,-12.1440031,-44.9967406,328,207.02888
1,Barreirinha/AM,-2.798863,-57.067897,2438,7406.05729
D1,Barreirinha/AM,-2.798863,-57.067897,63,191.37884
1,Barreirinhas/MA,-2.7541271,-42.8259693,2646,4141.42837
D1,Barreirinhas/MA,-2.7541271,-42.8259693,48,75.12795
1,Barreiros/PE,-8.8159644,-35.1831905,807,1882.61093
D1,Barreiros/PE,-8.8159644,-35.1831905,64,149.30248
1,Barretos/SP,-20.5531437,-48.5697509,17703,14329.07581
D1,Barretos/SP,-20.5531437,-48.5697509,582,471.07960
1,Barrinha/SP,-21.1898849,-48.1550642,1707,5089.90071
D1,Barrinha/SP,-21.1898849,-48.1550642,72,214.68825
1,Barro Alto/BA,-11.7618025,-41.9094904,926,6103.75058
D1,Barro Alto/BA,-11.7618025,-41.9094904,13,85.68980
1,Barro Alto/GO,-14.9696025,-48.9190985,1539,13218.24272
D1,Barro Alto/GO,-14.9696025,-48.9190985,22,188.95474
1,Barro Duro/PI,-5.8180139,-42.5106589,704,10025.63372
D1,Barro Duro/PI,-5.8180139,-42.5106589,12,170.89148
1,Barro Preto/BA,-14.8068289,-39.4727588,638,12010.54217
D1,Barro Preto/BA,-14.8068289,-39.4727588,12,225.90361
1,Barro/CE,-7.1713587,-38.7742136,1842,8066.91775
D1,Barro/CE,-7.1713587,-38.7742136,45,197.07454
1,Barrocas/BA,-11.5165,-39.099282894736845,866,5337.44222
D1,Barrocas/BA,-11.5165,-39.099282894736845,25,154.08320
1,Barrolândia/TO,-9.837246,-48.7264346,799,14094.19651
D1,Barrolândia/TO,-9.837246,-48.7264346,20,352.79591
1,Barroquinha/CE,-3.0200371,-41.1339229,1316,8733.16079
D1,Barroquinha/CE,-3.0200371,-41.1339229,25,165.90351
1,Barros Cassal/RS,-29.094938,-52.5832366,840,7522.16352
D1,Barros Cassal/RS,-29.094938,-52.5832366,14,125.36939
1,Barroso/MG,-21.187222,-43.976111,2083,9928.03012
D1,Barroso/MG,-21.187222,-43.976111,58,276.44059
1,Barueri/SP,-23.5112184,-46.8764612,34559,12355.56159
D1,Barueri/SP,-23.5112184,-46.8764612,1157,413.65157
1,Barão de Antonina/SP,-23.6295651,-49.5632104,518,14695.03546
D1,Barão de Antonina/SP,-23.6295651,-49.5632104,10,283.68794
1,Barão de Cocais/MG,-19.9452437,-43.4870298,4771,14356.64420
D1,Barão de Cocais/MG,-19.9452437,-43.4870298,74,222.67694
1,Barão de Cotegipe/RS,-27.6214694,-52.3765316,813,12288.39178
D1,Barão de Cotegipe/RS,-27.6214694,-52.3765316,10,151.14873
1,Barão de Grajaú/MA,-6.7542591,-43.0263477,479,2517.60748
D1,Barão de Grajaú/MA,-6.7542591,-43.0263477,4,21.02386
1,Barão de Melgaço/MT,-16.195776,-55.9668049,482,5903.24556
D1,Barão de Melgaço/MT,-16.195776,-55.9668049,17,208.20576
1,Barão de Monte Alto/MG,-21.244722,-42.2375,344,6477.12295
D1,Barão de Monte Alto/MG,-21.244722,-42.2375,12,225.94615
1,Barão do Triunfo/RS,-30.3909877,-51.7375349,495,6556.29139
D1,Barão do Triunfo/RS,-30.3909877,-51.7375349,6,79.47020
1,Barão/RS,-29.372474,-51.494908,742,11906.29012
D1,Barão/RS,-29.372474,-51.494908,11,176.50834
1,Bastos/SP,-21.9222474,-50.7317727,2056,9812.90569
D1,Bastos/SP,-21.9222474,-50.7317727,46,219.54945
1,Bataguassu/MS,-21.715899,-52.422058,3484,14750.21169
D1,Bataguassu/MS,-21.715899,-52.422058,49,207.45131
1,Batalha/AL,-9.6733809,-37.1265481,1133,6144.25163
D1,Batalha/AL,-9.6733809,-37.1265481,20,108.45987
1,Batalha/PI,-4.022391,-42.0780926,1306,4845.83132
D1,Batalha/PI,-4.022391,-42.0780926,34,126.15487
1,Batatais/SP,-20.892867,-47.592149,6390,10072.82701
D1,Batatais/SP,-20.892867,-47.592149,173,272.70721
1,Batayporã/MS,-22.2976466,-53.2685608,1099,9667.48768
D1,Batayporã/MS,-22.2976466,-53.2685608,26,228.71217
1,Baturité/CE,-4.3290203,-38.8821055,4214,11664.40612
D1,Baturité/CE,-4.3290203,-38.8821055,87,240.81712
1,Bauru/SP,-22.3218102,-49.0705863,53175,13930.87874
D1,Bauru/SP,-22.3218102,-49.0705863,1231,322.49952
1,Bayeux/PB,-7.1301631,-34.936532,8346,8558.33222
D1,Bayeux/PB,-7.1301631,-34.936532,251,257.38574
1,Baía Formosa/RN,-6.3691885,-35.0063741,516,5505.17444
D1,Baía Formosa/RN,-6.3691885,-35.0063741,9,96.02048
1,Baía da Traição/PB,-6.691258,-34.9371244,1324,14395.99870
D1,Baía da Traição/PB,-6.691258,-34.9371244,12,130.47733
1,Bebedouro/SP,-20.949077,-48.479083,4465,5752.97634
D1,Bebedouro/SP,-20.949077,-48.479083,196,252.53827
1,Beberibe/CE,-4.1810469,-38.1298101,5681,10459.35745
D1,Beberibe/CE,-4.1810469,-38.1298101,129,237.50345
1,Bela Cruz/CE,-3.0529129,-40.167582,3504,10666.34197
D1,Bela Cruz/CE,-3.0529129,-40.167582,73,222.21546
1,Bela Vista da Caroba/PR,-25.8792818,-53.6672545,191,5611.04583
D1,Bela Vista da Caroba/PR,-25.8792818,-53.6672545,7,205.64042
1,Bela Vista de Goiás/GO,-16.9692949,-48.9513071,3372,10876.01600
D1,Bela Vista de Goiás/GO,-16.9692949,-48.9513071,79,254.80583
1,Bela Vista de Minas/MG,-19.8289721,-43.0973688,993,9669.88022
D1,Bela Vista de Minas/MG,-19.8289721,-43.0973688,24,233.71312
1,Bela Vista do Maranhão/MA,-3.7416367,-45.2514192,225,1982.90297
D1,Bela Vista do Maranhão/MA,-3.7416367,-45.2514192,20,176.25804
1,Bela Vista do Paraíso/PR,-22.9948493,-51.1907996,2095,13603.89610
D1,Bela Vista do Paraíso/PR,-22.9948493,-51.1907996,75,487.01299
1,Bela Vista do Piauí/PI,-7.9716353,-41.8715061,282,6973.29377
D1,Bela Vista do Piauí/PI,-7.9716353,-41.8715061,6,148.36795
1,Bela Vista do Toldo/SC,-26.274625,-50.466354,85,1331.03664
D1,Bela Vista do Toldo/SC,-26.274625,-50.466354,4,62.63702
1,Bela Vista/MS,-22.107327,-56.5317344,1092,4395.78134
D1,Bela Vista/MS,-22.107327,-56.5317344,32,128.81411
1,Belford Roxo/RJ,-22.7667284,-43.4033603,23666,4593.20820
D1,Belford Roxo/RJ,-22.7667284,-43.4033603,881,170.98861
1,Belmiro Braga/MG,-21.9486291,-43.413564,216,6312.09819
D1,Belmiro Braga/MG,-21.9486291,-43.413564,3,87.66803
1,Belmonte/BA,-15.8630837,-38.8792845,1201,5101.95412
D1,Belmonte/BA,-15.8630837,-38.8792845,26,110.45030
1,Belmonte/SC,-26.8448262,-53.578916,333,12278.76106
D1,Belmonte/SC,-26.8448262,-53.578916,5,184.36578
1,Belo Campo/BA,-15.0338286,-41.2585109,987,5801.44595
D1,Belo Campo/BA,-15.0338286,-41.2585109,18,105.80145
1,Belo Horizonte/MG,-19.9227318,-43.9450948,278370,10999.71905
D1,Belo Horizonte/MG,-19.9227318,-43.9450948,6617,261.46906
1,Belo Jardim/PE,-8.3338293,-36.4176419,4495,5842.97413
D1,Belo Jardim/PE,-8.3338293,-36.4176419,129,167.68491
1,Belo Monte/AL,-9.8269944,-37.2787165,554,8247.72964
D1,Belo Monte/AL,-9.8269944,-37.2787165,9,133.98839
1,Belo Oriente/MG,-19.2232523,-42.4807033,2748,10074.42167
D1,Belo Oriente/MG,-19.2232523,-42.4807033,71,260.29255
1,Belo Vale/MG,-20.407778,-44.024167,1056,13673.44296
D1,Belo Vale/MG,-20.407778,-44.024167,12,155.38003
1,Belterra/PA,-2.636091,-54.937392,1651,9200.84708
D1,Belterra/PA,-2.636091,-54.937392,31,172.75970
1,Belágua/MA,-3.1604031,-43.5085052,413,5444.23939
D1,Belágua/MA,-3.1604031,-43.5085052,4,52.72871
1,Belém de Maria/PE,-8.6242497,-35.8388934,303,2489.93344
D1,Belém de Maria/PE,-8.6242497,-35.8388934,6,49.30561
1,Belém do Brejo do Cruz/PB,-6.1880727,-37.5332267,534,7259.38010
D1,Belém do Brejo do Cruz/PB,-6.1880727,-37.5332267,6,81.56607
1,Belém do Piauí/PI,-7.3767305,-40.9712156,486,13473.80094
D1,Belém do Piauí/PI,-7.3767305,-40.9712156,7,194.06709
1,Belém do São Francisco/PE,-8.7517707,-38.9625715,1018,4910.75736
D1,Belém do São Francisco/PE,-8.7517707,-38.9625715,13,62.71105
1,Belém/AL,-9.5715351,-36.492841,126,2981.54283
D1,Belém/AL,-9.5715351,-36.492841,7,165.64127
1,Belém/PA,-1.45056,-48.4682453,106004,7036.81576
D1,Belém/PA,-1.45056,-48.4682453,5119,339.81227
1,Belém/PB,-6.6967586,-35.5369626,2426,13680.70828
D1,Belém/PB,-6.6967586,-35.5369626,45,253.76417
1,Beneditinos/PI,-5.4565671,-42.3605061,1316,12558.45023
D1,Beneditinos/PI,-5.4565671,-42.3605061,40,381.71581
1,Benedito Leite/MA,-7.2173453,-44.5523331,316,5599.85823
D1,Benedito Leite/MA,-7.2173453,-44.5523331,2,35.44214
1,Benedito Novo/SC,-26.7840657,-49.3629511,1100,9246.80565
D1,Benedito Novo/SC,-26.7840657,-49.3629511,19,159.71755
1,Benevides/PA,-1.3555577,-48.252235,4119,6358.44396
D1,Benevides/PA,-1.3555577,-48.252235,105,162.08706
1,Benjamin Constant do Sul/RS,-27.5105555,-52.6007689,187,9719.33472
D1,Benjamin Constant do Sul/RS,-27.5105555,-52.6007689,1,51.97505
1,Benjamin Constant/AM,-4.3782748,-70.0290603,2712,6043.72340
D1,Benjamin Constant/AM,-4.3782748,-70.0290603,87,193.88051
1,Bento Fernandes/RN,-5.6926846,-35.8207423,183,3296.10951
D1,Bento Fernandes/RN,-5.6926846,-35.8207423,3,54.03458
1,Bento Gonçalves/RS,-29.1654014,-51.5197627,21833,17737.42790
D1,Bento Gonçalves/RS,-29.1654014,-51.5197627,384,311.96685
1,Bento de Abreu/SP,-21.2707225,-50.8120444,363,11988.11096
D1,Bento de Abreu/SP,-21.2707225,-50.8120444,5,165.12550
1,Bequimão/MA,-2.4495376,-44.7884889,282,1322.88784
D1,Bequimão/MA,-2.4495376,-44.7884889,23,107.89511
1,Berilo/MG,-16.9515764,-42.4643732,153,1295.18327
D1,Berilo/MG,-16.9515764,-42.4643732,1,8.46525
1,Berizal/MG,-15.6118785,-41.7417382,250,5217.02838
D1,Berizal/MG,-15.6118785,-41.7417382,1,20.86811
1,Bernardino Batista/PB,-6.4532173,-38.5495418,308,8625.03500
D1,Bernardino Batista/PB,-6.4532173,-38.5495418,1,28.00336
1,Bernardino de Campos/SP,-23.0140216,-49.4760724,911,8157.23496
D1,Bernardino de Campos/SP,-23.0140216,-49.4760724,32,286.53295
1,Bernardo Sayão/TO,-7.8794244,-48.8968905,649,14620.41000
D1,Bernardo Sayão/TO,-7.8794244,-48.8968905,13,292.85875
1,Bernardo do Mearim/MA,-4.6315929,-44.7617508,308,5047.52540
D1,Bernardo do Mearim/MA,-4.6315929,-44.7617508,6,98.32842
1,Bertioga/SP,-23.848568,-46.139586,6111,9237.53666
D1,Bertioga/SP,-23.848568,-46.139586,165,249.41802
1,Bertolínia/PI,-7.6372159,-43.9540611,893,16201.01597
D1,Bertolínia/PI,-7.6372159,-43.9540611,11,199.56459
1,Bertópolis/MG,-17.063333,-40.573889,489,10609.67672
D1,Bertópolis/MG,-17.063333,-40.573889,4,86.78672
1,Beruri/AM,-3.9007135,-61.3717319,2294,11188.60655
D1,Beruri/AM,-3.9007135,-61.3717319,34,165.82939
1,Betim/MG,-19.968056,-44.198333,31777,7061.17896
D1,Betim/MG,-19.968056,-44.198333,1333,296.20642
1,Betânia do Piauí/PI,-8.1460635,-40.7961387,173,2784.03605
D1,Betânia do Piauí/PI,-8.1460635,-40.7961387,2,32.18539
1,Betânia/PE,-8.2742779,-38.0351767,514,4012.17704
D1,Betânia/PE,-8.2742779,-38.0351767,17,132.69846
1,Bezerros/PE,-8.2372132,-35.7558262,3910,6414.04199
D1,Bezerros/PE,-8.2372132,-35.7558262,129,211.61417
1,Bias Fortes/MG,-21.605833,-43.756944,119,3625.83790
D1,Bias Fortes/MG,-21.605833,-43.756944,3,91.40768
1,Bicas/MG,-21.7213723,-43.0604327,1491,10203.94197
D1,Bicas/MG,-21.7213723,-43.0604327,46,314.80975
1,Biguaçu/SC,-27.4961277,-48.6542432,11537,16371.27329
D1,Biguaçu/SC,-27.4961277,-48.6542432,169,239.81496
1,Bilac/SP,-21.403962,-50.47464,958,11687.20264
D1,Bilac/SP,-21.403962,-50.47464,23,280.59046
1,Biquinhas/MG,-18.783611,-45.502222,172,6929.89525
D1,Biquinhas/MG,-18.783611,-45.502222,3,120.87027
1,Birigui/SP,-21.2908491,-50.34144,17858,14162.45024
D1,Birigui/SP,-21.2908491,-50.34144,590,467.90490
1,Biritiba Mirim/SP,-23.5697765,-46.0407456,1548,4653.53976
D1,Biritiba Mirim/SP,-23.5697765,-46.0407456,102,306.62859
1,Biritinga/BA,-11.6227908,-38.8066738,603,3771.34280
D1,Biritinga/BA,-11.6227908,-38.8066738,7,43.78010
1,Bituruna/PR,-26.161281,-51.5533319,1417,8634.45250
D1,Bituruna/PR,-26.161281,-51.5533319,20,121.86948
1,Blumenau/SC,-26.9195567,-49.0658025,58415,15942.17533
D1,Blumenau/SC,-26.9195567,-49.0658025,655,178.75759
1,Boa Esperança do Iguaçu/PR,-25.6362851,-53.2139114,189,7755.43701
1,Boa Esperança do Sul/SP,-21.9930206,-48.3917372,1744,11541.26133
D1,Boa Esperança do Sul/SP,-21.9930206,-48.3917372,21,138.97161
1,Boa Esperança/ES,-18.5395472,-40.2904088,1745,11521.19371
D1,Boa Esperança/ES,-18.5395472,-40.2904088,46,303.71055
1,Boa Esperança/MG,-21.0901253,-45.5660195,4918,12201.05190
D1,Boa Esperança/MG,-21.0901253,-45.5660195,144,357.24918
1,Boa Esperança/PR,-24.2411024,-52.7860277,487,12202.45552
D1,Boa Esperança/PR,-24.2411024,-52.7860277,17,425.95841
1,Boa Hora/PI,-4.4094627,-42.1255341,592,8644.85981
D1,Boa Hora/PI,-4.4094627,-42.1255341,7,102.21963
1,Boa Nova/BA,-14.365907,-40.2063056,1036,8605.36589
D1,Boa Nova/BA,-14.365907,-40.2063056,20,166.12675
1,Boa Ventura de São Roque/PR,-24.88177,-51.5441292,568,8954.75327
D1,Boa Ventura de São Roque/PR,-24.88177,-51.5441292,8,126.12329
1,Boa Ventura/PB,-7.4202462,-38.2156782,769,14653.20122
D1,Boa Ventura/PB,-7.4202462,-38.2156782,12,228.65854
1,Boa Viagem/CE,-5.1261877,-39.7300055,4315,7891.36796
D1,Boa Viagem/CE,-5.1261877,-39.7300055,117,213.97220
1,Boa Vista da Aparecida/PR,-25.4357216,-53.4067721,1095,14553.42903
D1,Boa Vista da Aparecida/PR,-25.4357216,-53.4067721,34,451.88729
1,Boa Vista das Missões/RS,-27.6677983,-53.3127622,255,12218.49545
D1,Boa Vista das Missões/RS,-27.6677983,-53.3127622,7,335.40968
1,Boa Vista do Buricá/RS,-27.6687782,-54.1111913,908,13528.00954
D1,Boa Vista do Buricá/RS,-27.6687782,-54.1111913,11,163.88558
1,Boa Vista do Cadeado/RS,-28.5783827,-53.8123759,211,8556.36659
D1,Boa Vista do Cadeado/RS,-28.5783827,-53.8123759,4,162.20600
1,Boa Vista do Gurupi/MA,-1.7981168,-46.3071882,15,176.59524
D1,Boa Vista do Gurupi/MA,-1.7981168,-46.3071882,4,47.09206
1,Boa Vista do Incra/RS,-28.8195551,-53.3866624,314,11948.24962
D1,Boa Vista do Incra/RS,-28.8195551,-53.3866624,4,152.20700
1,Boa Vista do Ramos/AM,-2.9716927,-57.5869819,997,4975.04990
D1,Boa Vista do Ramos/AM,-2.9716927,-57.5869819,12,59.88024
1,Boa Vista do Sul/RS,-29.3510488,-51.6779679,324,11684.09665
D1,Boa Vista do Sul/RS,-29.3510488,-51.6779679,4,144.24811
1,Boa Vista do Tupim/BA,-12.6605988,-40.6083594,290,1568.33054
D1,Boa Vista do Tupim/BA,-12.6605988,-40.6083594,11,59.48840
1,Boa Vista/PB,-7.2620711,-36.2415161,858,11886.94929
D1,Boa Vista/PB,-7.2620711,-36.2415161,15,207.81380
1,Boa Vista/RR,2.8208478,-60.6719582,96705,22150.02142
D1,Boa Vista/RR,2.8208478,-60.6719582,1515,347.00670
1,Boca da Mata/AL,-9.6452054,-36.2116658,1890,6890.51734
D1,Boca da Mata/AL,-9.6452054,-36.2116658,45,164.05994
1,Boca do Acre/AM,-8.7553487,-67.3930873,2671,7640.59729
D1,Boca do Acre/AM,-8.7553487,-67.3930873,27,77.23554
1,Bocaina de Minas/MG,-22.167778,-44.394722,195,3832.54717
D1,Bocaina de Minas/MG,-22.167778,-44.394722,7,137.57862
1,Bocaina do Sul/SC,-27.745494,-49.942279,394,11253.92745
D1,Bocaina do Sul/SC,-27.745494,-49.942279,3,85.68980
1,Bocaina/PI,-6.9445939,-41.3224599,368,8161.45487
D1,Bocaina/PI,-6.9445939,-41.3224599,9,199.60080
1,Bocaina/SP,-22.1421831,-48.522276,1356,10786.73137
D1,Bocaina/SP,-22.1421831,-48.522276,35,278.41858
1,Bocaiúva do Sul/PR,-25.206591,-49.114131,2184,16411.18124
D1,Bocaiúva do Sul/PR,-25.206591,-49.114131,26,195.37121
1,Bocaiúva/MG,-17.1160208,-43.8122678,2715,5374.00289
D1,Bocaiúva/MG,-17.1160208,-43.8122678,68,134.59749
1,Bodocó/PE,-7.777592,-39.933797,2175,5633.98524
D1,Bodocó/PE,-7.777592,-39.933797,41,106.20386
1,Bodoquena/MS,-20.5508775,-56.6769653,600,7690.33581
D1,Bodoquena/MS,-20.5508775,-56.6769653,18,230.71007
1,Bodó/RN,-5.9866104,-36.4134824,195,8982.03593
D1,Bodó/RN,-5.9866104,-36.4134824,1,46.06172
1,Bofete/SP,-23.1019554,-48.2610535,970,8011.89395
D1,Bofete/SP,-23.1019554,-48.2610535,22,181.71306
1,Boituva/SP,-23.2838893,-47.6738231,6661,10521.24467
D1,Boituva/SP,-23.2838893,-47.6738231,190,300.11057
1,Bom Conselho/PE,-9.169191,-36.685683,2326,4749.36192
D1,Bom Conselho/PE,-9.169191,-36.685683,71,144.97192
1,Bom Despacho/MG,-19.7375242,-45.2517288,5726,11132.28089
D1,Bom Despacho/MG,-19.7375242,-45.2517288,97,188.58387
1,Bom Jardim da Serra/SC,-28.3380324,-49.625588,708,14746.92772
D1,Bom Jardim da Serra/SC,-28.3380324,-49.625588,8,166.63195
1,Bom Jardim de Goiás/GO,-16.2062659,-52.172793,1251,14037.25314
D1,Bom Jardim de Goiás/GO,-16.2062659,-52.172793,17,190.75404
1,Bom Jardim de Minas/MG,-21.9476466,-44.1906033,544,8441.96151
D1,Bom Jardim de Minas/MG,-21.9476466,-44.1906033,3,46.55493
1,Bom Jardim/MA,-3.54129,-45.606004,1476,3513.44918
D1,Bom Jardim/MA,-3.54129,-45.606004,55,130.92121
1,Bom Jardim/PE,-7.7961572,-35.5871696,1784,4455.76702
D1,Bom Jardim/PE,-7.7961572,-35.5871696,71,177.33154
1,Bom Jardim/RJ,-22.1515328,-42.4186683,2022,7278.87973
D1,Bom Jardim/RJ,-22.1515328,-42.4186683,50,179.99208
1,Bom Jesus da Lapa/BA,-13.250571,-43.410754,6167,8791.03648
D1,Bom Jesus da Lapa/BA,-13.250571,-43.410754,95,135.42216
1,Bom Jesus da Penha/MG,-21.0165299,-46.5226644,700,16393.44262
D1,Bom Jesus da Penha/MG,-21.0165299,-46.5226644,17,398.12646
1,Bom Jesus da Serra/BA,-14.3724084,-40.5047119,486,4975.42998
D1,Bom Jesus da Serra/BA,-14.3724084,-40.5047119,9,92.13759
1,Bom Jesus das Selvas/MA,-4.4878075,-46.8526639,3622,10320.55848
D1,Bom Jesus das Selvas/MA,-4.4878075,-46.8526639,38,108.27753
1,Bom Jesus de Goiás/GO,-18.2174587,-49.739721,3126,11991.25398
D1,Bom Jesus de Goiás/GO,-18.2174587,-49.739721,115,441.13698
1,Bom Jesus do Amparo/MG,-19.7045132,-43.4752911,293,4739.56648
D1,Bom Jesus do Amparo/MG,-19.7045132,-43.4752911,8,129.40796
1,Bom Jesus do Araguaia/MT,-12.1725897,-51.5074425,1097,16061.49341
D1,Bom Jesus do Araguaia/MT,-12.1725897,-51.5074425,17,248.90190
1,Bom Jesus do Galho/MG,-19.8283191,-42.3162256,802,5421.84965
D1,Bom Jesus do Galho/MG,-19.8283191,-42.3162256,35,236.61439
1,Bom Jesus do Itabapoana/RJ,-21.1341025,-41.680095,4276,11461.96322
D1,Bom Jesus do Itabapoana/RJ,-21.1341025,-41.680095,104,278.77553
1,Bom Jesus do Norte/ES,-21.1254776,-41.6711646,1265,12665.19824
D1,Bom Jesus do Norte/ES,-21.1254776,-41.6711646,30,300.36043
1,Bom Jesus do Oeste/SC,-26.6929713,-53.0967453,185,8661.04869
D1,Bom Jesus do Oeste/SC,-26.6929713,-53.0967453,6,280.89888
1,Bom Jesus do Sul/PR,-26.1922507,-53.6002033,507,14602.53456
D1,Bom Jesus do Sul/PR,-26.1922507,-53.6002033,6,172.81106
1,Bom Jesus do Tocantins/PA,-5.0471796,-48.5978362,779,4514.89510
D1,Bom Jesus do Tocantins/PA,-5.0471796,-48.5978362,26,150.68970
1,Bom Jesus do Tocantins/TO,-8.96306,-48.165043,176,3437.50000
D1,Bom Jesus do Tocantins/TO,-8.96306,-48.165043,3,58.59375
1,Bom Jesus dos Perdões/SP,-23.1353864,-46.4648052,2466,9303.55391
D1,Bom Jesus dos Perdões/SP,-23.1353864,-46.4648052,29,109.40919
1,Bom Jesus/PB,-6.8156725,-38.6551841,194,7496.13601
D1,Bom Jesus/PB,-6.8156725,-38.6551841,3,115.91963
1,Bom Jesus/PI,-9.0711644,-44.3583926,3809,14888.21138
D1,Bom Jesus/PI,-9.0711644,-44.3583926,47,183.70857
1,Bom Jesus/RN,-5.9887544,-35.5821149,983,9522.42565
D1,Bom Jesus/RN,-5.9887544,-35.5821149,18,174.36792
1,Bom Jesus/RS,-28.6692723,-50.4346894,1008,8944.09938
D1,Bom Jesus/RS,-28.6692723,-50.4346894,24,212.95475
1,Bom Jesus/SC,-26.7350604,-52.3916519,500,16108.24742
D1,Bom Jesus/SC,-26.7350604,-52.3916519,9,289.94845
1,Bom Lugar/MA,-4.3728019,-45.0366054,532,3209.07226
D1,Bom Lugar/MA,-4.3728019,-45.0366054,7,42.22464
1,Bom Princípio do Piauí/PI,-3.1912777,-41.6430185,141,2486.77249
D1,Bom Princípio do Piauí/PI,-3.1912777,-41.6430185,13,229.27690
1,Bom Princípio/RS,-29.489788,-51.3566782,2189,15152.98352
D1,Bom Princípio/RS,-29.489788,-51.3566782,32,221.51461
1,Bom Progresso/RS,-27.5490948,-53.8655601,189,10172.22820
D1,Bom Progresso/RS,-27.5490948,-53.8655601,3,161.46394
1,Bom Repouso/MG,-22.4657069,-46.1485376,1196,11361.26152
D1,Bom Repouso/MG,-22.4657069,-46.1485376,27,256.48333
1,Bom Retiro do Sul/RS,-29.6000007,-51.9359243,1072,8611.82519
D1,Bom Retiro do Sul/RS,-29.6000007,-51.9359243,37,297.23650
1,Bom Retiro/SC,-27.798993,-49.486994,901,8874.22437
D1,Bom Retiro/SC,-27.798993,-49.486994,21,206.83542
1,Bom Sucesso de Itararé/SP,-24.3190016,-49.1446207,257,6404.18639
D1,Bom Sucesso de Itararé/SP,-24.3190016,-49.1446207,6,149.51408
1,Bom Sucesso do Sul/PR,-26.0749256,-52.8348629,530,16337.85450
D1,Bom Sucesso do Sul/PR,-26.0749256,-52.8348629,9,277.43527
1,Bom Sucesso/MG,-21.0323516,-44.7598082,1262,7165.56893
D1,Bom Sucesso/MG,-21.0323516,-44.7598082,25,141.94867
1,Bom Sucesso/PB,-6.4458948,-37.9297662,507,10269.39437
D1,Bom Sucesso/PB,-6.4458948,-37.9297662,4,81.02086
1,Bom Sucesso/PR,-23.7088019,-51.7651297,1311,18456.99000
D1,Bom Sucesso/PR,-23.7088019,-51.7651297,20,281.57117
1,Bombinhas/SC,-27.1519159,-48.4875691,3622,17339.26947
D1,Bombinhas/SC,-27.1519159,-48.4875691,64,306.38135
1,Bonfim do Piauí/PI,-9.1648678,-42.8734415,487,8543.85965
D1,Bonfim do Piauí/PI,-9.1648678,-42.8734415,8,140.35088
1,Bonfim/MG,-20.3266626, -44.2386157,491,7165.79101
D1,Bonfim/MG,-20.3266626, -44.2386157,17,248.10274
1,Bonfim/RR,3.3613818,-59.8427241,2512,19777.97024
D1,Bonfim/RR,3.3613818,-59.8427241,34,267.69546
1,Bonfinópolis de Minas/MG,-16.5660011,-45.98645,577,10691.12470
D1,Bonfinópolis de Minas/MG,-16.5660011,-45.98645,14,259.40337
1,Bonfinópolis/GO,-16.6172709,-48.9615701,512,5059.28854
D1,Bonfinópolis/GO,-16.6172709,-48.9615701,32,316.20553
1,Boninal/BA,-12.7095183,-41.8299984,674,4642.51274
D1,Boninal/BA,-12.7095183,-41.8299984,8,55.10401
1,Bonito de Minas/MG,-15.3191266,-44.7544,110,956.35542
1,Bonito de Santa Fé/PB,-7.3143332,-38.5146677,562,4634.66931
D1,Bonito de Santa Fé/PB,-7.3143332,-38.5146677,14,115.45440
1,Bonito/BA,-11.9665473,-41.2649896,994,5847.40279
D1,Bonito/BA,-11.9665473,-41.2649896,14,82.35779
1,Bonito/MS,-21.1264766,-56.4902208,3206,14311.86108
D1,Bonito/MS,-21.1264766,-56.4902208,76,339.27057
1,Bonito/PA,-1.3605722,-47.3049907,405,2415.17085
D1,Bonito/PA,-1.3605722,-47.3049907,15,89.45077
1,Bonito/PE,-8.4721161,-35.7314591,1129,2963.17682
D1,Bonito/PE,-8.4721161,-35.7314591,45,118.10714
1,Bonópolis/GO,-13.649331,-49.8329113,330,7206.81371
D1,Bonópolis/GO,-13.649331,-49.8329113,3,65.51649
1,Boqueirão do Leão/RS,-29.30332,-52.4296817,613,7970.35496
D1,Boqueirão do Leão/RS,-29.30332,-52.4296817,32,416.07073
1,Boqueirão do Piauí/PI,-4.4850148,-42.1095161,792,12292.41037
D1,Boqueirão do Piauí/PI,-4.4850148,-42.1095161,10,155.20720
1,Boqueirão/PB,-7.487004,-36.130887,2315,12908.44207
D1,Boqueirão/PB,-7.487004,-36.130887,43,239.76804
1,Boquim/SE,-11.1450175,-37.6204228,2689,9966.64196
D1,Boquim/SE,-11.1450175,-37.6204228,67,248.33210
1,Boquira/BA,-12.8184859,-42.7270883,885,4118.96118
D1,Boquira/BA,-12.8184859,-42.7270883,20,93.08387
1,Boracéia/SP,-22.195355,-48.7801925,992,20191.32913
D1,Boracéia/SP,-22.195355,-48.7801925,24,488.49990
1,Borba/AM,-4.3934778,-59.5947721,2509,5927.51843
D1,Borba/AM,-4.3934778,-59.5947721,69,163.01266
1,Borborema/PB,-6.8066718,-35.5990191,389,7324.42101
D1,Borborema/PB,-6.8066718,-35.5990191,14,263.60384
1,Borborema/SP,-21.6212706,-49.074135,1711,10511.11930
D1,Borborema/SP,-21.6212706,-49.074135,52,319.44956
1,Borda da Mata/MG,-22.274167,-46.165278,1964,9914.68524
D1,Borda da Mata/MG,-22.274167,-46.165278,58,292.79620
1,Borebi/SP,-22.5700178,-48.9714871,290,10689.27387
D1,Borebi/SP,-22.5700178,-48.9714871,4,147.43826
1,Borrazópolis/PR,-23.9393362,-51.5850786,880,13990.46105
D1,Borrazópolis/PR,-23.9393362,-51.5850786,28,445.15103
1,Borá/SP,-22.2701088,-50.544407,126,15017.87843
D1,Borá/SP,-22.2701088,-50.544407,1,119.18951
1,Bossoroca/RS,-28.7278885,-54.9120278,474,7726.16137
D1,Bossoroca/RS,-28.7278885,-54.9120278,22,358.59821
1,Botelhos/MG,-21.65,-46.394722,1872,12541.03303
D1,Botelhos/MG,-21.65,-46.394722,32,214.37663
1,Botucatu/SP,-22.8879628,-48.4410712,18792,12551.59700
D1,Botucatu/SP,-22.8879628,-48.4410712,320,213.73516
1,Botumirim/MG,-16.862778,-43.011111,243,3882.40933
D1,Botumirim/MG,-16.862778,-43.011111,4,63.90797
1,Botuporã/BA,-13.3744752,-42.5198469,456,4537.31343
D1,Botuporã/BA,-13.3744752,-42.5198469,5,49.75124
1,Botuverá/SC,-27.200749,-49.068892,960,17790.95626
D1,Botuverá/SC,-27.200749,-49.068892,10,185.32246
1,Bozano/RS,-28.3669953,-53.7705165,273,13006.19343
D1,Bozano/RS,-28.3669953,-53.7705165,8,381.13387
1,Braga/RS,-27.617348,-53.740514,427,13054.11189
D1,Braga/RS,-27.617348,-53.740514,9,275.14522
1,Braganey/PR,-24.8179919,-53.118506,593,11109.02960
D1,Braganey/PR,-24.8179919,-53.118506,7,131.13526
1,Bragança Paulista/SP,-22.9520235,-46.5418586,22534,13074.86104
D1,Bragança Paulista/SP,-22.9520235,-46.5418586,572,331.89050
1,Bragança/PA,-1.0573967,-46.7635406,4223,3245.41584
D1,Bragança/PA,-1.0573967,-46.7635406,176,135.25768
1,Branquinha/AL,-9.2478057,-36.0152009,702,6733.16708
D1,Branquinha/AL,-9.2478057,-36.0152009,14,134.27969
1,Brasil Novo/PA,-3.3055853,-52.539198,2064,13868.17174
D1,Brasil Novo/PA,-3.3055853,-52.539198,43,288.92024
1,Brasileira/PI,-4.131182,-41.7824969,637,7615.97322
D1,Brasileira/PI,-4.131182,-41.7824969,16,191.29603
1,Brasilândia de Minas/MG,-17.0096469,-46.0087183,1759,10377.58112
D1,Brasilândia de Minas/MG,-17.0096469,-46.0087183,28,165.19174
1,Brasilândia do Sul/PR,-24.1975793,-53.527551,418,16580.72194
D1,Brasilândia do Sul/PR,-24.1975793,-53.527551,10,396.66799
1,Brasilândia do Tocantins/TO,-8.3886619,-48.4842729,255,11481.31472
D1,Brasilândia do Tocantins/TO,-8.3886619,-48.4842729,6,270.14858
1,Brasilândia/MS,-21.255575,-52.0365617,1274,10764.68103
D1,Brasilândia/MS,-21.255575,-52.0365617,25,211.23785
1,Brasiléia/AC,-11.0010413,-68.7487894,2997,11049.66265
D1,Brasiléia/AC,-11.0010413,-68.7487894,43,158.53703
1,Brasnorte/MT,-12.1227151,-58.0050109,2133,10368.96602
D1,Brasnorte/MT,-12.1227151,-58.0050109,40,194.44850
1,Brasília de Minas/MG,-16.2075114,-44.430559,1448,4460.87492
D1,Brasília de Minas/MG,-16.2075114,-44.430559,9,27.72643
1,Brasília/DF,-15.7934036,-47.8823172,484499,15657.66363
D1,Brasília/DF,-15.7934036,-47.8823172,10273,331.99486
1,Brazabrantes/GO,-16.4291635,-49.3858216,574,15057.71249
D1,Brazabrantes/GO,-16.4291635,-49.3858216,3,78.69885
1,Brazópolis/MG,-22.4742842,-45.6165577,917,6384.01559
D1,Brazópolis/MG,-22.4742842,-45.6165577,32,222.77917
1,Braço do Norte/SC,-28.2728633,-49.1622712,8641,25196.82743
D1,Braço do Norte/SC,-28.2728633,-49.1622712,108,314.92389
1,Braço do Trombudo/SC,-27.358578,-49.882145,739,19478.12335
D1,Braço do Trombudo/SC,-27.358578,-49.882145,7,184.50185
1,Braúna/SP,-21.5015319,-50.3175246,623,10750.64711
D1,Braúna/SP,-21.5015319,-50.3175246,24,414.15013
1,Braúnas/MG,-19.055556,-42.716111,259,5467.59552
D1,Braúnas/MG,-19.055556,-42.716111,11,232.21448
1,Brejetuba/ES,-20.1465817,-41.2902303,1761,14144.57831
D1,Brejetuba/ES,-20.1465817,-41.2902303,16,128.51406
1,Brejinho de Nazaré/TO,-11.0205883,-48.5722906,660,11913.35740
D1,Brejinho de Nazaré/TO,-11.0205883,-48.5722906,17,306.85921
1,Brejinho/PE,-7.3482153,-37.28538,838,11189.74496
D1,Brejinho/PE,-7.3482153,-37.28538,21,280.41127
1,Brejinho/RN,-6.1957907,-35.3583019,1511,11737.74567
D1,Brejinho/RN,-6.1957907,-35.3583019,17,132.05935
1,Brejo Alegre/SP,-21.1671191,-50.1850393,403,13844.03985
D1,Brejo Alegre/SP,-21.1671191,-50.1850393,13,446.58193
1,Brejo Grande do Araguaia/PA,-5.7011449,-48.4037308,894,12151.69227
D1,Brejo Grande do Araguaia/PA,-5.7011449,-48.4037308,4,54.36999
1,Brejo Grande/SE,-10.4287358,-36.4667918,461,5490.70986
D1,Brejo Grande/SE,-10.4287358,-36.4667918,13,154.83564
1,Brejo Santo/CE,-7.4909841,-38.9859152,8436,16806.45483
D1,Brejo Santo/CE,-7.4909841,-38.9859152,155,308.79570
1,Brejo da Madre de Deus/PE,-8.1409718,-36.3712527,2322,4491.64345
D1,Brejo da Madre de Deus/PE,-8.1409718,-36.3712527,52,100.58805
1,Brejo de Areia/MA,-4.3316785,-45.5833334,316,3574.25631
D1,Brejo de Areia/MA,-4.3316785,-45.5833334,11,124.42031
1,Brejo do Cruz/PB,-6.32926065,-37.48746163303929,1961,13725.76468
D1,Brejo do Cruz/PB,-6.32926065,-37.48746163303929,24,167.98488
1,Brejo do Piauí/PI,-8.207583,-42.8359849,158,4131.79916
D1,Brejo do Piauí/PI,-8.207583,-42.8359849,4,104.60251
1,Brejo dos Santos/PB,-6.3769367,-37.8243125,756,11668.46736
D1,Brejo dos Santos/PB,-6.3769367,-37.8243125,8,123.47585
1,Brejo/MA,-3.6804397,-42.7529313,958,2596.20596
D1,Brejo/MA,-3.6804397,-42.7529313,19,51.49051
1,Brejolândia/BA,-12.4843845,-43.9611861,148,1386.41686
D1,Brejolândia/BA,-12.4843845,-43.9611861,11,103.04450
1,Brejão/PE,-9.029146,-36.566034,492,5478.23182
D1,Brejão/PE,-9.029146,-36.566034,9,100.21156
1,Brejões/BA,-13.1033754,-39.7909837,868,6132.10880
D1,Brejões/BA,-13.1033754,-39.7909837,12,84.77570
1,Breu Branco/PA,-3.7785073,-49.5684795,943,1374.69569
D1,Breu Branco/PA,-3.7785073,-49.5684795,52,75.80506
1,Breves/PA,-1.68036,-50.479085,4083,3915.42002
D1,Breves/PA,-1.68036,-50.479085,120,115.07480
1,Britânia/GO,-15.2427599,-51.1602061,673,11573.51677
D1,Britânia/GO,-15.2427599,-51.1602061,8,137.57524
1,Brochier/RS,-29.556766,-51.5963047,617,12022.60327
D1,Brochier/RS,-29.556766,-51.5963047,5,97.42790
1,Brodowski/SP,-20.984532,-47.657217,2861,11173.59891
D1,Brodowski/SP,-20.984532,-47.657217,78,304.62800
1,Brotas de Macaúbas/BA,-12.0019007,-42.6257506,305,2849.13592
D1,Brotas de Macaúbas/BA,-12.0019007,-42.6257506,8,74.73143
1,Brotas/SP,-22.2840884,-48.1267265,2143,8619.58008
D1,Brotas/SP,-22.2840884,-48.1267265,69,277.53198
1,Brumadinho/MG,-20.143611,-44.2,4178,10138.80800
D1,Brumadinho/MG,-20.143611,-44.2,89,215.97748
1,Brumado/BA,-14.29507325,-41.659307508575985,9718,14403.86554
D1,Brumado/BA,-14.29507325,-41.659307508575985,199,294.95465
1,Brunópolis/SC,-27.310953,-50.837585,318,13718.72304
D1,Brunópolis/SC,-27.310953,-50.837585,8,345.12511
1,Brusque/SC,-27.0964628,-48.9136323,29695,21120.64980
D1,Brusque/SC,-27.0964628,-48.9136323,317,225.46712
1,Brás Pires/MG,-20.8483109,-43.2430524,302,7097.53231
D1,Brás Pires/MG,-20.8483109,-43.2430524,8,188.01410
1,Bueno Brandão/MG,-22.441976,-46.3517971,998,9087.59789
D1,Bueno Brandão/MG,-22.441976,-46.3517971,30,273.17429
1,Buenos Aires/PE,-7.7218931,-35.326587,392,2964.30732
D1,Buenos Aires/PE,-7.7218931,-35.326587,25,189.05021
1,Buenópolis/MG,-17.8756607,-44.1749365,305,2949.13943
D1,Buenópolis/MG,-17.8756607,-44.1749365,13,125.70102
1,Buerarema/BA,-14.9571177,-39.3008035,1369,7493.56834
D1,Buerarema/BA,-14.9571177,-39.3008035,45,246.31890
1,Bugre/MG,-19.4257687,-42.2556,372,9337.34940
D1,Bugre/MG,-19.4257687,-42.2556,13,326.30522
1,Bujari/AC,-9.8309656,-67.9520886,1139,10773.74196
D1,Bujari/AC,-9.8309656,-67.9520886,17,160.80212
1,Bujaru/PA,-1.5169239,-48.0410699,1460,4913.01275
D1,Bujaru/PA,-1.5169239,-48.0410699,40,134.60309
1,Buri/SP,-23.79849,-48.598924,2678,13356.60848
D1,Buri/SP,-23.79849,-48.598924,93,463.84040
1,Buritama/SP,-21.0664017,-50.1448077,2675,15361.20363
D1,Buritama/SP,-21.0664017,-50.1448077,75,430.68795
1,Buriti Alegre/GO,-18.1377879,-49.0404411,1103,11592.22281
D1,Buriti Alegre/GO,-18.1377879,-49.0404411,34,357.33053
1,Buriti Bravo/MA,-5.8391884,-43.8367876,1762,7343.80861
D1,Buriti Bravo/MA,-5.8391884,-43.8367876,20,83.35765
1,Buriti de Goiás/GO,-16.180644,-50.4287479,307,12459.41558
D1,Buriti de Goiás/GO,-16.180644,-50.4287479,9,365.25974
1,Buriti do Tocantins/TO,-5.3187439,-48.2256609,1165,10005.15287
D1,Buriti do Tocantins/TO,-5.3187439,-48.2256609,21,180.35040
1,Buriti dos Lopes/PI,-3.1776723,-41.8707444,1345,6781.96854
D1,Buriti dos Lopes/PI,-3.1776723,-41.8707444,34,171.44010
1,Buriti dos Montes/PI,-5.3136171,-41.0971256,717,8657.32915
D1,Buriti dos Montes/PI,-5.3136171,-41.0971256,9,108.66940
1,Buriti/MA,-3.9430944,-42.9244281,922,3188.54613
D1,Buriti/MA,-3.9430944,-42.9244281,8,27.66634
1,Buriticupu/MA,-4.3227472,-46.4516989,3796,5157.95910
D1,Buriticupu/MA,-4.3227472,-46.4516989,79,107.34425
1,Buritinópolis/GO,-14.4589282,-46.4293104,218,6662.59169
D1,Buritinópolis/GO,-14.4589282,-46.4293104,3,91.68704
1,Buritirama/BA,-10.7148421,-43.6362327,855,4000.18714
D1,Buritirama/BA,-10.7148421,-43.6362327,23,107.60737
1,Buritirana/MA,-5.5897455,-47.0148915,448,2889.76327
D1,Buritirana/MA,-5.5897455,-47.0148915,24,154.80875
1,Buritis/MG,-15.621389,-46.423889,2410,9571.46829
D1,Buritis/MG,-15.621389,-46.423889,44,174.74880
1,Buritis/RO,-10.2054937,-63.8281954,5064,12338.27937
D1,Buritis/RO,-10.2054937,-63.8281954,77,187.60812
1,Buritizal/SP,-20.1933264,-47.7097165,352,7741.36793
D1,Buritizal/SP,-20.1933264,-47.7097165,10,219.92523
1,Buritizeiro/MG,-17.3667765,-44.9647781,1578,5598.92137
D1,Buritizeiro/MG,-17.3667765,-44.9647781,34,120.63582
1,Butiá/RS,-30.1256795,-51.9692224,2525,12045.03172
D1,Butiá/RS,-30.1256795,-51.9692224,57,271.90765
1,Buíque/PE,-8.6239732,-37.157296,2601,4375.25232
D1,Buíque/PE,-8.6239732,-37.157296,47,79.06069
1,Bálsamo/SP,-20.7343722,-49.5807484,1803,19578.67304
D1,Bálsamo/SP,-20.7343722,-49.5807484,66,716.69019
0,CASO SEM LOCALIZAÇÃO DEFINIDA/BA,-13.415069300066518,-38.14174656569957,11499,77.31426
D0,CASO SEM LOCALIZAÇÃO DEFINIDA/BA,-13.415069300066518,-38.14174656569957,292,1.96328
0,CASO SEM LOCALIZAÇÃO DEFINIDA/CE,-3.3445126297392798,-38.624961942434304,10694,117.10369
0,CASO SEM LOCALIZAÇÃO DEFINIDA/ES,-20.30989267097039,-39.81745156645774,4730,117.70122
D0,CASO SEM LOCALIZAÇÃO DEFINIDA/ES,-20.30989267097039,-39.81745156645774,235,5.84773
0,CASO SEM LOCALIZAÇÃO DEFINIDA/GO,-16.701590966270153,-49.164524059025034,80,1.13987
D0,CASO SEM LOCALIZAÇÃO DEFINIDA/GO,-16.701590966270153,-49.164524059025034,2,0.02850
0,CASO SEM LOCALIZAÇÃO DEFINIDA/MG,-19.97049116501593,-43.8852149072783,4266,20.15231
D0,CASO SEM LOCALIZAÇÃO DEFINIDA/MG,-19.97049116501593,-43.8852149072783,367,1.73368
0,CASO SEM LOCALIZAÇÃO DEFINIDA/MT,-15.54791153961863,-56.17143998972475,3205,91.97966
D0,CASO SEM LOCALIZAÇÃO DEFINIDA/MT,-15.54791153961863,-56.17143998972475,243,6.97381
0,CASO SEM LOCALIZAÇÃO DEFINIDA/PA,-0.09317078214359542,-48.0050231510481,88,1.02292
D0,CASO SEM LOCALIZAÇÃO DEFINIDA/PA,-0.09317078214359542,-48.0050231510481,7,0.08137
0,CASO SEM LOCALIZAÇÃO DEFINIDA/PI,-2.683810218391744,-41.470898009352254,102,3.11619
D0,CASO SEM LOCALIZAÇÃO DEFINIDA/PI,-2.683810218391744,-41.470898009352254,2,0.06110
0,CASO SEM LOCALIZAÇÃO DEFINIDA/PR,-25.69415946385943,-48.10141676336737,20527,179.52665
D0,CASO SEM LOCALIZAÇÃO DEFINIDA/PR,-25.69415946385943,-48.10141676336737,672,5.87723
0,CASO SEM LOCALIZAÇÃO DEFINIDA/RR,2.813328208465927,-60.663338675861986,3232,533.54376
D0,CASO SEM LOCALIZAÇÃO DEFINIDA/RR,2.813328208465927,-60.663338675861986,19,3.13655
0,CASO SEM LOCALIZAÇÃO DEFINIDA/SP,-24.30968974555485,-46.21366504207253,128,0.27875
1,Caapiranga/AM,-3.3188884,-61.2096404,695,5155.02151
D1,Caapiranga/AM,-3.3188884,-61.2096404,22,163.18054
1,Caaporã/PB,-7.510234,-34.9154114,2167,9814.75610
D1,Caaporã/PB,-7.510234,-34.9154114,35,158.52167
1,Caarapó/MS,-22.6349267,-54.8240903,4073,13136.59087
D1,Caarapó/MS,-22.6349267,-54.8240903,57,183.84132
1,Caatiba/BA,-14.9782759,-40.4092325,954,15308.08729
D1,Caatiba/BA,-14.9782759,-40.4092325,15,240.69320
1,Cabaceiras do Paraguaçu/BA,-12.5377868,-39.1901339,774,4071.54129
D1,Cabaceiras do Paraguaçu/BA,-12.5377868,-39.1901339,5,26.30195
1,Cabaceiras/PB,-7.4899156,-36.2860501,465,8143.60771
D1,Cabaceiras/PB,-7.4899156,-36.2860501,4,70.05254
1,Cabeceira Grande/MG,-16.0297,-47.0906,510,7259.78648
D1,Cabeceira Grande/MG,-16.0297,-47.0906,7,99.64413
1,Cabeceiras do Piauí/PI,-4.4733665,-42.3098716,678,6353.66882
D1,Cabeceiras do Piauí/PI,-4.4733665,-42.3098716,15,140.56789
1,Cabeceiras/GO,-15.7995459,-46.9264991,448,5532.23018
D1,Cabeceiras/GO,-15.7995459,-46.9264991,17,209.92838
1,Cabedelo/PB,-6.97324,-34.8351609,9740,13959.55456
D1,Cabedelo/PB,-6.97324,-34.8351609,202,289.51027
1,Cabixi/RO,-13.4956065,-60.5424442,911,17979.08032
D1,Cabixi/RO,-13.4956065,-60.5424442,21,414.44642
1,Cabo Frio/RJ,-22.8804369,-42.0189227,17083,7298.02586
D1,Cabo Frio/RJ,-22.8804369,-42.0189227,834,356.29301
1,Cabo Verde/MG,-21.4743338,-46.3964995,759,5392.92312
D1,Cabo Verde/MG,-21.4743338,-46.3964995,9,63.94770
1,Cabo de Santo Agostinho/PE,-8.2838945,-35.0320984,9928,4709.76679
D1,Cabo de Santo Agostinho/PE,-8.2838945,-35.0320984,523,248.10717
1,Cabreúva/SP,-23.3075813,-47.1324417,4896,9575.59163
D1,Cabreúva/SP,-23.3075813,-47.1324417,122,238.60747
1,Cabrobó/PE,-8.5083701,-39.3106961,2451,7047.55880
D1,Cabrobó/PE,-8.5083701,-39.3106961,28,80.51067
1,Cabrália Paulista/SP,-22.4562909,-49.3385645,457,10824.25391
D1,Cabrália Paulista/SP,-22.4562909,-49.3385645,9,213.16911
1,Cacaulândia/RO,-10.3380043,-62.9007231,934,14808.94244
D1,Cacaulândia/RO,-10.3380043,-62.9007231,15,237.83098
1,Cacequi/RS,-29.8838059,-54.8273443,814,6622.73208
D1,Cacequi/RS,-29.8838059,-54.8273443,11,89.49638
1,Cachoeira Alta/GO,-18.7618269,-50.9432431,1818,14155.57113
D1,Cachoeira Alta/GO,-18.7618269,-50.9432431,25,194.65857
1,Cachoeira Dourada/GO,-18.4934204,-49.481062,918,11479.30474
D1,Cachoeira Dourada/GO,-18.4934204,-49.481062,33,412.65475
1,Cachoeira Dourada/MG,-18.517136,-49.5002062,172,6323.52941
D1,Cachoeira Dourada/MG,-18.517136,-49.5002062,2,73.52941
1,Cachoeira Grande/MA,-2.9290492,-44.0573223,327,3433.43133
D1,Cachoeira Grande/MA,-2.9290492,-44.0573223,8,83.99832
1,Cachoeira Paulista/SP,-22.666498,-45.015384,2694,7964.05238
D1,Cachoeira Paulista/SP,-22.666498,-45.015384,44,130.07361
1,Cachoeira da Prata/MG,-19.524723,-44.453056,226,6312.84916
D1,Cachoeira da Prata/MG,-19.524723,-44.453056,13,363.12849
1,Cachoeira de Goiás/GO,-16.6688414,-50.6435997,132,9880.23952
D1,Cachoeira de Goiás/GO,-16.6688414,-50.6435997,5,374.25150
1,Cachoeira de Minas/MG,-22.3554043,-45.7796324,1110,9561.54708
D1,Cachoeira de Minas/MG,-22.3554043,-45.7796324,19,163.66612
1,Cachoeira de Pajeú/MG,-15.965833,-41.496666,537,5670.53854
D1,Cachoeira de Pajeú/MG,-15.965833,-41.496666,11,116.15628
1,Cachoeira do Arari/PA,-1.0143572,-48.9621089,503,2065.28434
D1,Cachoeira do Arari/PA,-1.0143572,-48.9621089,25,102.64833
1,Cachoeira do Piriá/PA,-1.7599443,-46.5446954,957,2710.51066
D1,Cachoeira do Piriá/PA,-1.7599443,-46.5446954,7,19.82610
1,Cachoeira do Sul/RS,-30.0474778,-52.8905413,10915,13384.09849
D1,Cachoeira do Sul/RS,-30.0474778,-52.8905413,197,241.56366
1,Cachoeira dos Índios/PB,-6.9259193,-38.6742159,933,9002.31571
D1,Cachoeira dos Índios/PB,-6.9259193,-38.6742159,16,154.38055
1,Cachoeira/BA,-12.5998256,-38.9665918,1751,5202.17475
D1,Cachoeira/BA,-12.5998256,-38.9665918,30,89.12921
1,Cachoeiras de Macacu/RJ,-22.4626861,-42.6534414,3464,5807.01401
D1,Cachoeiras de Macacu/RJ,-22.4626861,-42.6534414,108,181.05009
1,Cachoeirinha/PE,-8.4906364,-36.2338963,646,3133.18460
D1,Cachoeirinha/PE,-8.4906364,-36.2338963,34,164.90445
1,Cachoeirinha/RS,-29.9493353,-51.0898927,15765,11930.16709
D1,Cachoeirinha/RS,-29.9493353,-51.0898927,458,346.59160
1,Cachoeirinha/TO,-6.118647,-47.9208885,128,5582.20672
D1,Cachoeirinha/TO,-6.118647,-47.9208885,2,87.22198
1,Cachoeiro de Itapemirim/ES,-20.848084,-41.11129,29540,13922.66652
D1,Cachoeiro de Itapemirim/ES,-20.848084,-41.11129,611,287.97391
1,Cacimba de Areia/PB,-7.1288513,-37.1575194,63,1699.02913
D1,Cacimba de Areia/PB,-7.1288513,-37.1575194,4,107.87487
1,Cacimba de Dentro/PB,-6.6425101,-35.7929304,1242,7233.96820
D1,Cacimba de Dentro/PB,-6.6425101,-35.7929304,35,203.85579
1,Cacimbas/PB,-7.2125451,-37.0593398,266,3681.66090
D1,Cacimbas/PB,-7.2125451,-37.0593398,8,110.72664
1,Cacimbinhas/AL,-9.401212,-36.991082,900,8241.75824
D1,Cacimbinhas/AL,-9.401212,-36.991082,11,100.73260
1,Cacique Doble/RS,-27.7700117,-51.6616409,617,12138.50089
D1,Cacique Doble/RS,-27.7700117,-51.6616409,12,236.08105
1,Cacoal/RO,-11.4333,-61.4420502,14749,17067.44121
D1,Cacoal/RO,-11.4333,-61.4420502,303,350.62951
1,Caconde/SP,-21.527995,-46.643659,1451,7624.40229
D1,Caconde/SP,-21.527995,-46.643659,39,204.92880
1,Caculé/BA,-14.4990734,-42.2233006,2634,11253.04396
D1,Caculé/BA,-14.4990734,-42.2233006,21,89.71675
1,Caetanos/BA,-14.3387456,-40.9085971,757,5159.83914
D1,Caetanos/BA,-14.3387456,-40.9085971,11,74.97785
1,Caetanópolis/MG,-19.2947496,-44.4138386,1169,9849.18696
D1,Caetanópolis/MG,-19.2947496,-44.4138386,20,168.50619
1,Caetité/BA,-14.0691776,-42.4852428,3992,7799.31229
D1,Caetité/BA,-14.0691776,-42.4852428,42,82.05689
1,Caeté/MG,-19.897777,-43.670278,2139,4715.19266
D1,Caeté/MG,-19.897777,-43.670278,72,158.71616
1,Caetés/PE,-8.7728788,-36.6255835,1755,6038.19026
D1,Caetés/PE,-8.7728788,-36.6255835,23,79.13298
1,Cafarnaum/BA,-11.691399,-41.468823,919,4944.84800
D1,Cafarnaum/BA,-11.691399,-41.468823,23,123.75572
1,Cafeara/PR,-22.78905,-51.714195,436,14665.32122
D1,Cafeara/PR,-22.78905,-51.714195,11,369.99664
1,Cafelândia/PR,-24.6176963,-53.3218057,2672,14225.62956
D1,Cafelândia/PR,-24.6176963,-53.3218057,32,170.36682
1,Cafelândia/SP,-21.8054355,-49.6030627,827,4615.72808
D1,Cafelândia/SP,-21.8054355,-49.6030627,48,267.90199
1,Cafezal do Sul/PR,-23.900508,-53.512418,456,11471.69811
D1,Cafezal do Sul/PR,-23.900508,-53.512418,7,176.10063
1,Caiabu/SP,-22.0143038,-51.2356597,316,7532.77712
D1,Caiabu/SP,-22.0143038,-51.2356597,7,166.86532
1,Caiana/MG,-20.695555,-41.924723,182,3259.31232
D1,Caiana/MG,-20.695555,-41.924723,7,125.35817
1,Caiapônia/GO,-16.9538779,-51.8090761,1561,8086.40696
D1,Caiapônia/GO,-16.9538779,-51.8090761,43,222.75176
1,Caibaté/RS,-28.290475,-54.645407,420,8746.35569
D1,Caibaté/RS,-28.290475,-54.645407,7,145.77259
1,Caibi/SC,-27.0751925,-53.2502133,704,11518.32461
D1,Caibi/SC,-27.0751925,-53.2502133,16,261.78010
1,Caicó/RN,-6.4594544,-37.0971911,12336,17949.53875
D1,Caicó/RN,-6.4594544,-37.0971911,152,221.16812
1,Caieiras/SP,-23.3644621,-46.7484765,9571,9198.99273
D1,Caieiras/SP,-23.3644621,-46.7484765,325,312.36784
1,Cairu/BA,-13.4860505,-39.0455744,1561,8362.79867
D1,Cairu/BA,-13.4860505,-39.0455744,16,85.71735
1,Caiuá/SP,-21.8319357,-51.9887179,408,6780.78777
D1,Caiuá/SP,-21.8319357,-51.9887179,10,166.19578
1,Caiçara do Norte/RN,-5.0645017,-36.0561226,534,8125.38040
D1,Caiçara do Norte/RN,-5.0645017,-36.0561226,12,182.59282
1,Caiçara do Rio do Vento/RN,-5.757968,-36.00089,369,9853.13752
D1,Caiçara do Rio do Vento/RN,-5.757968,-36.00089,8,213.61816
1,Caiçara/PB,-6.6146866,-35.4681434,830,11556.66945
D1,Caiçara/PB,-6.6146866,-35.4681434,14,194.93177
1,Caiçara/RS,-27.2750478,-53.4310053,650,13951.49174
D1,Caiçara/RS,-27.2750478,-53.4310053,10,214.63833
1,Cajamar/SP,-23.3561111,-46.8769444,5415,6851.48164
D1,Cajamar/SP,-23.3561111,-46.8769444,233,294.80983
1,Cajapió/MA,-2.8778715,-44.6746871,178,1581.51932
D1,Cajapió/MA,-2.8778715,-44.6746871,7,62.19458
1,Cajari/MA,-3.3213076,-45.0118757,282,1444.59813
D1,Cajari/MA,-3.3213076,-45.0118757,9,46.10420
1,Cajati/SP,-24.7272376,-48.1077914,4684,16469.18181
D1,Cajati/SP,-24.7272376,-48.1077914,103,362.15323
1,Cajazeiras do Piauí/PI,-6.794271,-42.3935024,80,2230.89794
D1,Cajazeiras do Piauí/PI,-6.794271,-42.3935024,1,27.88622
1,Cajazeiras/PB,-6.8897849,-38.5570389,9932,15871.89977
D1,Cajazeiras/PB,-6.8897849,-38.5570389,157,250.89491
1,Cajazeirinhas/PB,-6.961442,-37.7993733,212,6589.99067
D1,Cajazeirinhas/PB,-6.961442,-37.7993733,1,31.08486
1,Cajobi/SP,-20.8776238,-48.8106972,1100,10329.60841
D1,Cajobi/SP,-20.8776238,-48.8106972,32,300.49770
1,Cajueiro da Praia/PI,-2.931114,-41.340801,489,6347.35202
D1,Cajueiro da Praia/PI,-2.931114,-41.340801,20,259.60540
1,Cajueiro/AL,-9.399589,-36.1524309,638,2981.72641
D1,Cajueiro/AL,-9.399589,-36.1524309,31,144.88012
1,Cajuri/MG,-20.7901414,-42.7954489,429,10830.59833
D1,Cajuri/MG,-20.7901414,-42.7954489,7,176.72305
1,Cajuru/SP,-21.2759978,-47.3046035,1996,7500.09394
D1,Cajuru/SP,-21.2759978,-47.3046035,57,214.18104
1,Caldas Brandão/PB,-7.1027959,-35.3254676,601,9889.74823
D1,Caldas Brandão/PB,-7.1027959,-35.3254676,10,164.55488
1,Caldas Novas/GO,-17.745,-48.625,12315,12938.23477
D1,Caldas Novas/GO,-17.745,-48.625,286,300.47382
1,Caldas/MG,-21.923611,-46.386111,1020,6986.30137
D1,Caldas/MG,-21.923611,-46.386111,39,267.12329
1,Caldazinha/GO,-16.7116649,-49.0012601,387,9923.07692
D1,Caldazinha/GO,-16.7116649,-49.0012601,11,282.05128
1,Caldeirão Grande do Piauí/PI,-7.3310393,-40.6374433,453,7829.24300
D1,Caldeirão Grande do Piauí/PI,-7.3310393,-40.6374433,2,34.56619
1,Caldeirão Grande/BA,-11.0208483,-40.3041387,570,4237.28814
D1,Caldeirão Grande/BA,-11.0208483,-40.3041387,6,44.60303
1,Califórnia/PR,-23.6672543,-51.3554556,1302,15067.70050
D1,Califórnia/PR,-23.6672543,-51.3554556,38,439.76392
1,Calmon/SC,-26.6023644,-51.0992893,50,1503.75940
D1,Calmon/SC,-26.6023644,-51.0992893,7,210.52632
1,Calumbi/PE,-7.9389746,-38.1516871,776,13509.74930
D1,Calumbi/PE,-7.9389746,-38.1516871,5,87.04735
1,Calçado/PE,-8.7413446,-36.3351787,540,4916.68943
D1,Calçado/PE,-8.7413446,-36.3351787,7,63.73486
1,Calçoene/AP,2.4981757,-50.9539503,1682,14634.99521
D1,Calçoene/AP,2.4981757,-50.9539503,11,95.71043
1,Camacan/BA,-15.4166631,-39.4930088,3042,9499.42229
D1,Camacan/BA,-15.4166631,-39.4930088,87,271.67973
1,Camacho/MG,-20.625556,-45.156667,195,6868.61571
D1,Camacho/MG,-20.625556,-45.156667,2,70.44734
1,Camalaú/PB,-7.885031,-36.824191,458,7572.75132
D1,Camalaú/PB,-7.885031,-36.824191,7,115.74074
1,Camamu/BA,-13.9438142,-39.1060917,2496,7042.09457
D1,Camamu/BA,-13.9438142,-39.1060917,58,163.63842
1,Camanducaia/MG,-22.755278,-46.144444,3472,15903.98974
D1,Camanducaia/MG,-22.755278,-46.144444,70,320.64495
1,Camapuã/MS,-19.5291747,-54.0434641,930,6800.73126
D1,Camapuã/MS,-19.5291747,-54.0434641,32,234.00366
1,Camaquã/RS,-30.8524752,-51.8075619,7475,11209.24932
D1,Camaquã/RS,-30.8524752,-51.8075619,151,226.43433
1,Camaragibe/PE,-8.0213832,-34.9810768,7635,4773.51590
D1,Camaragibe/PE,-8.0213832,-34.9810768,438,273.84413
1,Camargo/RS,-28.5865661,-52.2031474,441,16036.36364
D1,Camargo/RS,-28.5865661,-52.2031474,7,254.54545
1,Camaçari/BA,-12.6998188,-38.3260762,24841,8033.75074
D1,Camaçari/BA,-12.6998188,-38.3260762,622,201.15909
1,Cambará do Sul/RS,-29.0489517,-50.145412,338,5295.31568
D1,Cambará do Sul/RS,-29.0489517,-50.145412,10,156.66614
1,Cambará/PR,-23.042273,-50.075281,3067,11994.99394
D1,Cambará/PR,-23.042273,-50.075281,65,254.21409
1,Cambira/PR,-23.600265,-51.581045,1112,13957.57500
D1,Cambira/PR,-23.600265,-51.581045,26,326.34618
1,Camboriú/SC,-27.0273601,-48.6535657,14146,16226.38479
D1,Camboriú/SC,-27.0273601,-48.6535657,172,197.29522
1,Cambuci/RJ,-21.5749919,-41.9107833,1613,10392.37163
D1,Cambuci/RJ,-21.5749919,-41.9107833,40,257.71535
1,Cambuquira/MG,-21.853056,-45.2953619,868,6775.95628
D1,Cambuquira/MG,-21.853056,-45.2953619,28,218.57923
1,Cambuí/MG,-22.6122501,-46.0572137,4119,13698.94905
D1,Cambuí/MG,-22.6122501,-46.0572137,60,199.54769
1,Cambé/PR,-23.2782035,-51.2779583,13007,12029.48412
D1,Cambé/PR,-23.2782035,-51.2779583,319,295.02617
1,Cametá/PA,-2.242949,-49.497885,9897,7028.42047
D1,Cametá/PA,-2.242949,-49.497885,269,191.03214
1,Camocim de São Félix/PE,-8.3616757,-35.7638903,606,3184.11097
D1,Camocim de São Félix/PE,-8.3616757,-35.7638903,19,99.83186
1,Camocim/CE,-2.9009918,-40.8427389,6288,9802.48492
D1,Camocim/CE,-2.9009918,-40.8427389,163,254.10386
1,Campanha/MG,-21.8361108,-45.401986,2210,13111.83625
