type,name,lat,lon,total,total_per_100k_inhabitants
1,Abadia de Goiás/GO,-16.7572644,-49.4412205,643,7177.94150
D1,Abadia de Goiás/GO,-16.7572644,-49.4412205,7,78.14244
1,Abadia dos Dourados/MG,-18.4911191,-47.4063589,99,1413.07451
D1,Abadia dos Dourados/MG,-18.4911191,-47.4063589,1,14.27348
1,Abadiânia/GO,-16.1940946,-48.7067767,166,811.29955
D1,Abadiânia/GO,-16.1940946,-48.7067767,12,58.64816
1,Abaetetuba/PA,-1.721828,-48.878843,3289,2067.51320
D1,Abaetetuba/PA,-1.721828,-48.878843,114,71.66206
1,Abaeté/MG,-19.1566833,-45.4481213,74,318.27957
D1,Abaeté/MG,-19.1566833,-45.4481213,3,12.90323
1,Abaiara/CE,-7.3607808,-39.0487878,92,776.17481
D1,Abaiara/CE,-7.3607808,-39.0487878,2,16.87337
1,Abaré/BA,-8.7239913,-39.1139689,108,530.79078
1,Abatiá/PR,-23.3052967,-50.3102532,81,1093.41253
1,Abaíra/BA,-13.2503296,-41.6640342,62,711.82549
1,Abdon Batista/SC,-27.612419,-51.022992,144,5651.49137
1,Abel Figueiredo/PA,-4.953001,-48.3958485,402,5370.02404
D1,Abel Figueiredo/PA,-4.953001,-48.3958485,2,26.71654
1,Abelardo Luz/SC,-26.5705893,-52.3280339,446,2483.29621
D1,Abelardo Luz/SC,-26.5705893,-52.3280339,6,33.40757
1,Abre Campo/MG,-20.2976097,-42.4764741,110,818.20887
D1,Abre Campo/MG,-20.2976097,-42.4764741,1,7.43826
1,Abreu e Lima/PE,-7.900719,-34.898389,897,893.90708
D1,Abreu e Lima/PE,-7.900719,-34.898389,119,118.58968
1,Abreulândia/TO,-9.6221526,-49.1558343,91,3508.09561
D1,Abreulândia/TO,-9.6221526,-49.1558343,4,154.20200
1,Acaiaca/MG,-20.3621646,-43.1444162,42,1051.57737
D1,Acaiaca/MG,-20.3621646,-43.1444162,1,25.03756
1,Acajutiba/BA,-11.6609659,-38.0186381,167,1099.62468
D1,Acajutiba/BA,-11.6609659,-38.0186381,4,26.33832
1,Acarape/CE,-4.2237866,-38.7071663,1919,12762.70285
D1,Acarape/CE,-4.2237866,-38.7071663,15,99.76057
1,Acaraú/CE,-2.8869514,-40.1194713,2693,4267.55832
D1,Acaraú/CE,-2.8869514,-40.1194713,57,90.32708
1,Acari/RN,-6.4364689,-36.6394777,147,1321.82358
D1,Acari/RN,-6.4364689,-36.6394777,7,62.94398
1,Acará/PA,-1.961388,-48.1987043,795,1428.08385
D1,Acará/PA,-1.961388,-48.1987043,13,23.35231
1,Acauã/PI,-8.219542,-41.083059,43,605.46325
1,Aceguá/RS,-31.8695131,-54.1615593,4,80.93889
1,Acopiara/CE,-6.0936464,-39.4543204,1202,2206.27375
D1,Acopiara/CE,-6.0936464,-39.4543204,43,78.92660
1,Acorizal/MT,-15.2001544,-56.3668953,188,3524.55943
D1,Acorizal/MT,-15.2001544,-56.3668953,7,131.23360
1,Acrelândia/AC,-10.0759167,-67.0526898,491,3169.78696
D1,Acrelândia/AC,-10.0759167,-67.0526898,10,64.55778
1,Acreúna/GO,-17.3959899,-50.3749031,947,4200.30161
D1,Acreúna/GO,-17.3959899,-50.3749031,23,102.01366
1,Adamantina/SP,-21.6866517,-51.0762975,435,1238.92797
D1,Adamantina/SP,-21.6866517,-51.0762975,11,31.32921
1,Adelândia/GO,-16.4155077,-50.1665834,81,3219.39587
D1,Adelândia/GO,-16.4155077,-50.1665834,1,39.74563
1,Adolfo/SP,-21.2356597,-49.6441918,120,3376.47721
D1,Adolfo/SP,-21.2356597,-49.6441918,5,140.68655
1,Adrianópolis/PR,-24.6557863,-48.9912769,184,3141.54004
D1,Adrianópolis/PR,-24.6557863,-48.9912769,4,68.29435
1,Adustina/BA,-10.5358875,-38.114479,112,653.97641
D1,Adustina/BA,-10.5358875,-38.114479,2,11.67815
1,Afogados da Ingazeira/PE,-7.750429,-37.6356375,845,2259.11667
D1,Afogados da Ingazeira/PE,-7.750429,-37.6356375,13,34.75564
1,Afonso Bezerra/RN,-5.4745,-36.57625071327935,154,1396.31880
D1,Afonso Bezerra/RN,-5.4745,-36.57625071327935,11,99.73706
1,Afonso Cláudio/ES,-20.077841,-41.12606,996,3270.39895
D1,Afonso Cláudio/ES,-20.077841,-41.12606,20,65.67066
1,Afonso Cunha/MA,-4.1326105,-43.3230026,152,2310.73275
D1,Afonso Cunha/MA,-4.1326105,-43.3230026,2,30.40438
1,Afrânio/PE,-8.5198919,-41.0070197,215,1085.31045
D1,Afrânio/PE,-8.5198919,-41.0070197,2,10.09591
1,Afuá/PA,-0.1535664,-50.3879223,2227,5628.42773
D1,Afuá/PA,-0.1535664,-50.3879223,11,27.80095
1,Agrestina/PE,-8.4558021,-35.9442663,589,2349.89029
D1,Agrestina/PE,-8.4558021,-35.9442663,32,127.66806
1,Agricolândia/PI,-5.7967843,-42.6605131,63,1227.83083
1,Agrolândia/SC,-27.4122212,-49.8295774,185,1679.83292
D1,Agrolândia/SC,-27.4122212,-49.8295774,6,54.48107
1,Agronômica/SC,-27.2660744,-49.7104753,88,1597.38610
D1,Agronômica/SC,-27.2660744,-49.7104753,3,54.45634
1,Aguanil/MG,-20.9424533,-45.3927152,97,2145.06855
D1,Aguanil/MG,-20.9424533,-45.3927152,3,66.34233
1,Aguaí/SP,-22.0592036,-46.979384,339,925.01637
D1,Aguaí/SP,-22.0592036,-46.979384,8,21.82929
1,Agudo/RS,-29.6423259,-53.2494005,63,384.12292
D1,Agudo/RS,-29.6423259,-53.2494005,1,6.09719
1,Agudos do Sul/PR,-25.9890808,-49.3328175,76,802.53432
D1,Agudos do Sul/PR,-25.9890808,-49.3328175,1,10.55966
1,Agudos/SP,-22.471162,-48.987822,735,1965.18810
D1,Agudos/SP,-22.471162,-48.987822,14,37.43215
1,Aguiar/PB,-7.0928404,-38.1727215,34,603.90764
1,Aguiarnópolis/TO,-6.5600452,-47.4721189,425,6166.56994
D1,Aguiarnópolis/TO,-6.5600452,-47.4721189,9,130.58619
1,Aimorés/MG,-19.4917754,-41.0615603,340,1352.37262
D1,Aimorés/MG,-19.4917754,-41.0615603,7,27.84297
1,Aiquara/BA,-14.126918,-39.8887574,254,5751.81159
D1,Aiquara/BA,-14.126918,-39.8887574,4,90.57971
1,Aiuaba/CE,-6.5710836,-40.1212278,57,325.84462
D1,Aiuaba/CE,-6.5710836,-40.1212278,1,5.71657
1,Aiuruoca/MG,-21.9759554,-44.6036637,19,317.93842
D1,Aiuruoca/MG,-21.9759554,-44.6036637,3,50.20080
1,Ajuricaba/RS,-28.239654,-53.7693013,216,3091.45556
D1,Ajuricaba/RS,-28.239654,-53.7693013,1,14.31229
1,Alagoa Grande/PB,-7.0415212,-35.6285322,1661,5840.57105
D1,Alagoa Grande/PB,-7.0415212,-35.6285322,28,98.45635
1,Alagoa Nova/PB,-7.0653703,-35.76695977336711,384,1835.47632
D1,Alagoa Nova/PB,-7.0653703,-35.76695977336711,9,43.01898
1,Alagoa/MG,-22.1697202,-44.6400042,28,1050.65666
1,Alagoinha do Piauí/PI,-7.0090952,-40.939675,107,1395.95564
D1,Alagoinha do Piauí/PI,-7.0090952,-40.939675,2,26.09263
1,Alagoinha/PB,-6.97063215,-35.51490901897793,1055,7245.87912
D1,Alagoinha/PB,-6.97063215,-35.51490901897793,12,82.41758
1,Alagoinha/PE,-8.50355635,-36.77701174370496,215,1460.79630
D1,Alagoinha/PE,-8.50355635,-36.77701174370496,9,61.14961
1,Alagoinhas/BA,-12.133526,-38.420772,5642,3703.87390
D1,Alagoinhas/BA,-12.133526,-38.420772,78,51.20563
1,Alambari/SP,-23.550338,-47.897971,81,1321.58590
D1,Alambari/SP,-23.550338,-47.897971,3,48.94763
1,Albertina/MG,-20.66164,-43.784039,46,1527.73165
D1,Albertina/MG,-20.66164,-43.784039,4,132.84623
1,Alcantil/PB,-7.7425491,-36.0609604,78,1415.86495
1,Alcinópolis/MS,-18.3264121,-53.7094463,21,387.66845
D1,Alcinópolis/MS,-18.3264121,-53.7094463,2,36.92080
1,Alcobaça/BA,-17.5215875,-39.1965474,612,2721.20943
D1,Alcobaça/BA,-17.5215875,-39.1965474,8,35.57137
1,Alcântara/MA,-2.4038956,-44.4154241,201,909.00868
D1,Alcântara/MA,-2.4038956,-44.4154241,8,36.17945
1,Alcântaras/CE,-3.586247,-40.5457641,545,4626.09286
D1,Alcântaras/CE,-3.586247,-40.5457641,4,33.95298
1,Aldeias Altas/MA,-4.6291957,-43.4708622,939,3509.36204
D1,Aldeias Altas/MA,-4.6291957,-43.4708622,5,18.68670
1,Alecrim/RS,-27.6566142,-54.7653195,18,308.90681
D1,Alecrim/RS,-27.6566142,-54.7653195,1,17.16149
1,Alegre/ES,-20.7625787,-41.5318886,416,1387.82319
D1,Alegre/ES,-20.7625787,-41.5318886,20,66.72227
1,Alegrete do Piauí/PI,-7.2440138,-40.8602296,291,5917.03945
D1,Alegrete do Piauí/PI,-7.2440138,-40.8602296,1,20.33347
1,Alegrete/RS,-29.790166,-55.794862,833,1140.65838
D1,Alegrete/RS,-29.790166,-55.794862,17,23.27874
1,Alegria/RS,-27.8332103,-54.0574959,58,1719.02786
1,Alenquer/PA,-1.946229,-54.738355,1459,2555.52442
D1,Alenquer/PA,-1.946229,-54.738355,30,52.54677
1,Alexandria/RN,-6.414779,-38.0135516,187,1379.76832
D1,Alexandria/RN,-6.414779,-38.0135516,4,29.51376
1,Alexânia/GO,-16.0834049,-48.5077803,1194,4262.76330
D1,Alexânia/GO,-16.0834049,-48.5077803,17,60.69261
1,Alfenas/MG,-21.4297405,-45.9479419,1843,2289.61165
D1,Alfenas/MG,-21.4297405,-45.9479419,48,59.63177
1,Alfredo Chaves/ES,-20.624970400000002,-40.75006690147988,510,3484.55862
D1,Alfredo Chaves/ES,-20.624970400000002,-40.75006690147988,7,47.82728
1,Alfredo Marcondes/SP,-21.9527,-51.413956,61,1457.93499
D1,Alfredo Marcondes/SP,-21.9527,-51.413956,3,71.70172
1,Alfredo Vasconcelos/MG,-21.145833,-43.776389,17,243.51812
D1,Alfredo Vasconcelos/MG,-21.145833,-43.776389,1,14.32460
1,Alfredo Wagner/SC,-27.6961513,-49.3326734,209,2072.17926
D1,Alfredo Wagner/SC,-27.6961513,-49.3326734,1,9.91473
1,Algodão de Jandaíra/PB,-6.9040175,-36.0089879,31,1202.94917
1,Alhandra/PB,-7.4304246,-34.9106103,688,3487.60582
D1,Alhandra/PB,-7.4304246,-34.9106103,18,91.24550
1,Aliança do Tocantins/TO,-11.3055927,-48.9409096,176,3292.18107
D1,Aliança do Tocantins/TO,-11.3055927,-48.9409096,3,56.11672
1,Aliança/PE,-7.60398,-35.222696,388,1010.49561
D1,Aliança/PE,-7.60398,-35.222696,29,75.52673
1,Almadina/BA,-14.70466,-39.6381994,359,6690.27208
D1,Almadina/BA,-14.70466,-39.6381994,6,111.81513
1,Almas/TO,-11.5681309,-47.1702803,84,1203.61083
D1,Almas/TO,-11.5681309,-47.1702803,2,28.65740
1,Almeirim/PA,-1.5290377,-52.5788111,267,783.54267
D1,Almeirim/PA,-1.5290377,-52.5788111,18,52.82310
1,Almenara/MG,-16.1740678,-40.6904907,874,2073.89127
D1,Almenara/MG,-16.1740678,-40.6904907,11,26.10161
1,Almino Afonso/RN,-6.1544208,-37.7649018,45,955.41401
1,Almirante Tamandaré do Sul/RS,-28.1141129,-52.9134874,13,667.00872
1,Almirante Tamandaré/PR,-25.3133048,-49.2997838,1898,1581.12645
D1,Almirante Tamandaré/PR,-25.3133048,-49.2997838,61,50.81597
1,Aloândia/GO,-17.7277983,-49.4809338,100,5035.24673
D1,Aloândia/GO,-17.7277983,-49.4809338,4,201.40987
1,Alpercata/MG,-18.9803616,-41.9827637,193,2595.48144
D1,Alpercata/MG,-18.9803616,-41.9827637,6,80.68854
1,Alpestre/RS,-27.2512339,-53.0349646,56,923.02621
D1,Alpestre/RS,-27.2512339,-53.0349646,2,32.96522
1,Alpinópolis/MG,-20.863611,-46.387777,129,646.35735
D1,Alpinópolis/MG,-20.863611,-46.387777,4,20.04209
1,Alta Floresta D'Oeste/RO,-11.9296917,-61.9961284,886,3898.27526
D1,Alta Floresta D'Oeste/RO,-11.9296917,-61.9961284,11,48.39845
1,Alta Floresta/MT,-9.8715018,-56.0839881,1519,2923.45888
D1,Alta Floresta/MT,-9.8715018,-56.0839881,24,46.19027
1,Altair/SP,-20.5238955,-49.0606135,47,1122.79025
D1,Altair/SP,-20.5238955,-49.0606135,2,47.77831
1,Altamira do Maranhão/MA,-4.1643006,-45.4674574,274,3345.95189
D1,Altamira do Maranhão/MA,-4.1643006,-45.4674574,6,73.26902
1,Altamira do Paraná/PR,-24.799114,-52.7128633,17,1010.70155
D1,Altamira do Paraná/PR,-24.799114,-52.7128633,2,118.90606
1,Altamira/PA,-3.204065,-52.209961,4581,3950.19359
D1,Altamira/PA,-3.204065,-52.209961,123,106.06283
1,Altaneira/CE,-6.9980933,-39.7385742,74,967.32026
D1,Altaneira/CE,-6.9980933,-39.7385742,1,13.07190
1,Alterosa/MG,-21.249166,-46.143055,23,158.43494
D1,Alterosa/MG,-21.249166,-46.143055,2,13.77695
1,Altinho/PE,-8.4904095,-36.0607494,511,2223.28576
D1,Altinho/PE,-8.4904095,-36.0607494,10,43.50853
1,Altinópolis/SP,-21.021364,-47.3712,222,1370.11665
D1,Altinópolis/SP,-21.021364,-47.3712,7,43.20188
1,Alto Alegre do Maranhão/MA,-4.2055693,-44.4525287,391,1403.54656
D1,Alto Alegre do Maranhão/MA,-4.2055693,-44.4525287,12,43.07560
1,Alto Alegre do Pindaré/MA,-3.6698186,-45.8462153,1489,4661.42817
D1,Alto Alegre do Pindaré/MA,-3.6698186,-45.8462153,23,72.00326
1,Alto Alegre dos Parecis/RO,-12.1314515,-61.856265,209,1576.76349
D1,Alto Alegre dos Parecis/RO,-12.1314515,-61.856265,9,67.89891
1,Alto Alegre/RR,2.98858,-61.307167,672,4369.31079
D1,Alto Alegre/RR,2.98858,-61.307167,17,110.53316
1,Alto Alegre/RS,-31.780844700000003,-52.81311114489171,15,929.94420
1,Alto Alegre/SP,-21.5820592,-50.1661976,75,1834.63796
D1,Alto Alegre/SP,-21.5820592,-50.1661976,3,73.38552
1,Alto Araguaia/MT,-17.3156528,-53.2169365,404,2084.08563
D1,Alto Araguaia/MT,-17.3156528,-53.2169365,8,41.26902
1,Alto Bela Vista/SC,-27.4320737,-51.905771,31,1609.55348
D1,Alto Bela Vista/SC,-27.4320737,-51.905771,1,51.92108
1,Alto Boa Vista/MT,-11.6723985,-51.3744431,91,1311.99539
D1,Alto Boa Vista/MT,-11.6723985,-51.3744431,3,43.25260
1,Alto Caparaó/MG,-20.4405661,-41.8683799,21,356.29454
D1,Alto Caparaó/MG,-20.4405661,-41.8683799,1,16.96641
1,Alto Feliz/RS,-29.3785943,-51.3123751,36,1185.77075
1,Alto Garças/MT,-16.9469683,-53.529427,286,2353.71574
D1,Alto Garças/MT,-16.9469683,-53.529427,11,90.52753
1,Alto Horizonte/GO,-14.1954948,-49.3366993,185,2800.90840
D1,Alto Horizonte/GO,-14.1954948,-49.3366993,2,30.28009
1,Alto Jequitibá/MG,-20.423611,-41.966111,94,1132.39369
D1,Alto Jequitibá/MG,-20.423611,-41.966111,4,48.18697
1,Alto Longá/PI,-5.2549051,-42.2072388,193,1345.97950
D1,Alto Longá/PI,-5.2549051,-42.2072388,6,41.84392
1,Alto Paraguai/MT,-14.513712,-56.4936374,280,2440.51251
D1,Alto Paraguai/MT,-14.513712,-56.4936374,9,78.44504
1,Alto Paraná/PR,-23.131247,-52.318893,117,787.40157
D1,Alto Paraná/PR,-23.131247,-52.318893,1,6.72993
1,Alto Paraíso de Goiás/GO,-14.1304779,-47.5100161,243,3160.77003
1,Alto Paraíso/PR,-23.508137,-53.728537,5,186.21974
1,Alto Paraíso/RO,-9.7240103,-63.3188123,378,1730.21467
D1,Alto Paraíso/RO,-9.7240103,-63.3188123,8,36.61830
1,Alto Parnaíba/MA,-9.112506,-45.9310154,316,2818.40885
D1,Alto Parnaíba/MA,-9.112506,-45.9310154,3,26.75705
1,Alto Piquiri/PR,-24.0239021,-53.4417448,114,1165.88259
D1,Alto Piquiri/PR,-24.0239021,-53.4417448,4,40.90816
1,Alto Rio Doce/MG,-21.0239537,-43.4133507,74,681.46238
D1,Alto Rio Doce/MG,-21.0239537,-43.4133507,2,18.41790
1,Alto Rio Novo/ES,-19.0577208,-41.0171518,192,2438.40488
D1,Alto Rio Novo/ES,-19.0577208,-41.0171518,12,152.40030
1,Alto Santo/CE,-5.5190371,-38.2719351,464,2698.30193
D1,Alto Santo/CE,-5.5190371,-38.2719351,12,69.78367
1,Alto Taquari/MT,-17.8269099,-53.2831736,352,3161.77131
D1,Alto Taquari/MT,-17.8269099,-53.2831736,6,53.89383
1,Alto do Rodrigues/RN,-5.290868,-36.7616726,484,3286.25747
D1,Alto do Rodrigues/RN,-5.290868,-36.7616726,18,122.21619
1,Altos/PI,-5.0393915,-42.4611694,1693,4169.43726
D1,Altos/PI,-5.0393915,-42.4611694,25,61.56877
1,Altônia/PR,-23.8722004,-53.894037,193,870.31025
D1,Altônia/PR,-23.8722004,-53.894037,3,13.52814
1,Alumínio/SP,-23.5203479,-47.2575256,272,1449.35259
D1,Alumínio/SP,-23.5203479,-47.2575256,9,47.95652
1,Alvarenga/MG,-19.4175,-41.728334,133,3459.93757
D1,Alvarenga/MG,-19.4175,-41.728334,1,26.01457
1,Alvarães/AM,-3.214786,-64.8143124,1263,7786.68311
D1,Alvarães/AM,-3.214786,-64.8143124,16,98.64365
1,Alvinlândia/SP,-22.4431852,-49.7643596,27,834.10565
1,Alvinópolis/MG,-20.1105199,-43.0601805,72,474.65225
D1,Alvinópolis/MG,-20.1105199,-43.0601805,1,6.59239
1,Alvorada D'Oeste/RO,-11.346271,-62.284697,147,1042.10974
D1,Alvorada D'Oeste/RO,-11.346271,-62.284697,7,49.62427
1,Alvorada de Minas/MG,-18.7318587,-43.3641479,57,1581.13731
D1,Alvorada de Minas/MG,-18.7318587,-43.3641479,1,27.73925
1,Alvorada do Gurguéia/PI,-8.4465288,-43.8655915,56,1028.46648
D1,Alvorada do Gurguéia/PI,-8.4465288,-43.8655915,3,55.09642
1,Alvorada do Norte/GO,-14.483911,-46.4959897,279,3205.05457
D1,Alvorada do Norte/GO,-14.483911,-46.4959897,1,11.48765
1,Alvorada do Sul/PR,-22.7807269,-51.2307721,85,738.93767
D1,Alvorada do Sul/PR,-22.7807269,-51.2307721,5,43.46692
1,Alvorada/RS,-29.9981184,-51.0772509,4593,2173.15190
D1,Alvorada/RS,-29.9981184,-51.0772509,157,74.28366
1,Alvorada/TO,-12.478465,-49.124926,541,6443.54455
D1,Alvorada/TO,-12.478465,-49.124926,10,119.10434
1,Além Paraíba/MG,-21.8760576,-42.6810473,496,1401.09036
D1,Além Paraíba/MG,-21.8760576,-42.6810473,16,45.19646
1,Amajari/RR,3.6523869,-61.4194315,439,3329.54115
D1,Amajari/RR,3.6523869,-61.4194315,16,121.35002
1,Amambai/MS,-23.1082701,-55.2284854,269,675.43816
D1,Amambai/MS,-23.1082701,-55.2284854,5,12.55461
1,Amaporã/PR,-23.094272,-52.786597,30,473.78395
1,Amapá do Maranhão/MA,-1.6762114,-46.0109669,4,57.10207
1,Amapá/AP,2.0529997,-50.7930003,774,8424.94830
D1,Amapá/AP,2.0529997,-50.7930003,4,43.53978
1,Amaraji/PE,-8.373925,-35.4536527,176,769.56712
D1,Amaraji/PE,-8.373925,-35.4536527,24,104.94097
1,Amaral Ferrador/RS,-30.8750633,-52.2542051,36,508.11574
D1,Amaral Ferrador/RS,-30.8750633,-52.2542051,1,14.11433
1,Amaralina/GO,-13.9236199,-49.2962411,12,312.09363
1,Amarante do Maranhão/MA,-5.56913,-46.747284,1124,2693.57042
D1,Amarante do Maranhão/MA,-5.56913,-46.747284,23,55.11754
1,Amarante/PI,-6.2459374,-42.8476238,454,2578.95933
D1,Amarante/PI,-6.2459374,-42.8476238,8,45.44422
1,Amargosa/BA,-13.03793715,-39.60796443875596,473,1263.32096
D1,Amargosa/BA,-13.03793715,-39.60796443875596,14,37.39216
1,Amaturá/AM,-3.3640509,-68.1994689,948,8077.70961
D1,Amaturá/AM,-3.3640509,-68.1994689,10,85.20791
1,Americana/SP,-22.7392463,-47.3306032,5527,2283.71443
D1,Americana/SP,-22.7392463,-47.3306032,168,69.41632
1,Americano do Brasil/GO,-16.2515808,-49.9806104,146,2368.59182
D1,Americano do Brasil/GO,-16.2515808,-49.9806104,3,48.66970
1,Ametista do Sul/RS,-27.3617341,-53.1826575,77,1040.11887
1,Amontada/CE,-3.3634586,-39.8284791,827,1886.87855
D1,Amontada/CE,-3.3634586,-39.8284791,20,45.63189
1,Amorinópolis/GO,-16.6211308,-51.0949921,59,1922.45031
1,Amparo de São Francisco/SE,-10.1299754,-36.9269099,74,3109.24370
D1,Amparo de São Francisco/SE,-10.1299754,-36.9269099,2,84.03361
1,Amparo do Serra/MG,-20.5070255,-42.8028462,12,256.51988
D1,Amparo do Serra/MG,-20.5070255,-42.8028462,1,21.37666
1,Amparo/PB,-7.56394725,-37.04652873235175,18,799.64460
1,Amparo/SP,-22.70111,-46.76444,1229,1691.04393
D1,Amparo/SP,-22.70111,-46.76444,32,44.03044
1,Ampére/PR,-25.9168712,-53.4742414,146,756.04578
D1,Ampére/PR,-25.9168712,-53.4742414,4,20.71358
1,Amélia Rodrigues/BA,-12.4015388,-38.7516971,503,2008.14436
D1,Amélia Rodrigues/BA,-12.4015388,-38.7516971,10,39.92335
1,América Dourada/BA,-11.4515262,-41.4357517,107,665.00932
1,Américo Brasiliense/SP,-21.7297099,-48.1052092,707,1723.04543
D1,Américo Brasiliense/SP,-21.7297099,-48.1052092,13,31.68259
1,Américo de Campos/SP,-20.298476,-49.735904,326,5450.59355
D1,Américo de Campos/SP,-20.298476,-49.735904,11,183.91573
1,Anadia/AL,-9.6830208,-36.3052699,495,2824.37521
D1,Anadia/AL,-9.6830208,-36.3052699,8,45.64647
1,Anagé/BA,-14.6134669,-41.1376308,165,763.64141
D1,Anagé/BA,-14.6134669,-41.1376308,4,18.51252
1,Anahy/PR,-24.6450861,-53.1337957,34,1219.51220
1,Anajatuba/MA,-3.26441,-44.6179916,346,1282.05128
D1,Anajatuba/MA,-3.26441,-44.6179916,9,33.34815
1,Anajás/PA,-0.9878802,-49.9390114,595,2004.17677
D1,Anajás/PA,-0.9878802,-49.9390114,11,37.05201
1,Analândia/SP,-22.128917,-47.661939,38,751.58228
D1,Analândia/SP,-22.128917,-47.661939,2,39.55696
1,Anamã/AM,-3.5797356,-61.4049996,795,5696.47463
D1,Anamã/AM,-3.5797356,-61.4049996,1,7.16538
1,Ananindeua/PA,-1.374035,-48.4016623,8218,1534.50584
D1,Ananindeua/PA,-1.374035,-48.4016623,370,69.08824
1,Ananás/TO,-6.3663053,-48.080238,367,3866.41382
D1,Ananás/TO,-6.3663053,-48.080238,11,115.88706
1,Anapu/PA,-3.4668292,-51.2057035,989,3457.19579
D1,Anapu/PA,-3.4668292,-51.2057035,23,80.39990
1,Anapurus/MA,-3.6751298,-43.1046001,726,4567.76142
D1,Anapurus/MA,-3.6751298,-43.1046001,6,37.75009
1,Anastácio/MS,-20.4832458,-55.8048448,739,2928.24028
D1,Anastácio/MS,-20.4832458,-55.8048448,22,87.17359
1,Anaurilândia/MS,-22.185169,-52.719056,39,429.70472
D1,Anaurilândia/MS,-22.185169,-52.719056,1,11.01807
1,Anchieta/ES,-20.8057672,-40.6454564,1016,3411.80026
D1,Anchieta/ES,-20.8057672,-40.6454564,22,73.87756
1,Anchieta/SC,-26.5350527,-53.3293938,34,611.84092
D1,Anchieta/SC,-26.5350527,-53.3293938,1,17.99532
1,Andaraí/BA,-12.8059674,-41.3322919,37,281.75449
1,Andirá/PR,-23.0494761,-50.2310027,266,1334.93928
D1,Andirá/PR,-23.0494761,-50.2310027,4,20.07427
1,Andorinha/BA,-10.3445708,-39.8334411,94,648.14176
D1,Andorinha/BA,-10.3445708,-39.8334411,2,13.79025
1,Andradas/MG,-22.0680484,-46.5688976,452,1091.89294
D1,Andradas/MG,-22.0680484,-46.5688976,16,38.65108
1,Andradina/SP,-20.896505,-51.3742765,1518,2653.75337
D1,Andradina/SP,-20.896505,-51.3742765,48,83.91315
1,Andrelândia/MG,-21.739722,-44.308889,70,573.48845
1,André da Rocha/RS,-28.6309124,-51.5733328,26,1935.96426
1,Angatuba/SP,-23.4938938,-48.4110675,311,1220.61305
D1,Angatuba/SP,-23.4938938,-48.4110675,9,35.32321
1,Angelim/PE,-8.8902038,-36.2872987,75,668.09193
D1,Angelim/PE,-8.8902038,-36.2872987,3,26.72368
1,Angelina/SC,-27.5805287,-48.9838759,99,2087.28653
1,Angelândia/MG,-17.7253,-42.2728,18,210.35410
1,Angical do Piauí/PI,-6.0872666,-42.7366138,147,2167.18266
D1,Angical do Piauí/PI,-6.0872666,-42.7366138,3,44.22822
1,Angical/BA,-12.005623,-44.7000236,182,1305.78275
D1,Angical/BA,-12.005623,-44.7000236,4,28.69852
1,Angico/TO,-6.3893733,-47.8656722,68,1968.73191
D1,Angico/TO,-6.3893733,-47.8656722,1,28.95194
1,Angicos/RN,-5.6666344,-36.6009064,119,1016.65955
D1,Angicos/RN,-5.6666344,-36.6009064,5,42.71679
1,Angra dos Reis/RJ,-23.0063966,-44.316326,6063,2928.36305
D1,Angra dos Reis/RJ,-23.0063966,-44.316326,198,95.63185
1,Anguera/BA,-12.1509425,-39.2452469,65,575.37399
1,Angélica/MS,-22.1588196,-53.7728504,142,1298.93889
D1,Angélica/MS,-22.1588196,-53.7728504,4,36.58983
1,Anhanguera/GO,-18.3338749,-48.220363,18,1551.72414
D1,Anhanguera/GO,-18.3338749,-48.220363,2,172.41379
1,Anhembi/SP,-22.7891096,-48.1316776,21,307.96304
1,Anhumas/SP,-22.2956478,-51.3873401,87,2099.42085
1,Anicuns/GO,-16.4606451,-49.9572265,782,3557.61794
D1,Anicuns/GO,-16.4606451,-49.9572265,17,77.33952
1,Anita Garibaldi/SC,-27.6855032,-51.1293873,258,3708.49504
D1,Anita Garibaldi/SC,-27.6855032,-51.1293873,1,14.37401
1,Anitápolis/SC,-27.9041185,-49.1287395,57,1765.79926
1,Anori/AM,-3.7435254,-61.6605203,922,4292.96457
D1,Anori/AM,-3.7435254,-61.6605203,11,51.21758
1,Anta Gorda/RS,-28.9718745,-52.0069187,83,1392.38383
1,Antas/BA,-10.4114649,-38.3308815,415,2130.49951
1,Antonina do Norte/CE,-6.7754187,-39.9879345,56,759.01328
1,Antonina/PR,-25.4298854,-48.7125431,558,2944.74642
D1,Antonina/PR,-25.4298854,-48.7125431,12,63.32788
1,Antônio Almeida/PI,-7.2186016,-44.1950248,232,7318.61199
D1,Antônio Almeida/PI,-7.2186016,-44.1950248,1,31.54574
1,Antônio Cardoso/BA,-12.4363122,-39.1200307,80,685.10748
D1,Antônio Cardoso/BA,-12.4363122,-39.1200307,2,17.12769
1,Antônio Carlos/MG,-21.318334,-43.746666,75,654.50737
D1,Antônio Carlos/MG,-21.318334,-43.746666,2,17.45353
1,Antônio Carlos/SC,-27.5168462,-48.7684715,348,4040.40404
D1,Antônio Carlos/SC,-27.5168462,-48.7684715,11,127.71392
1,Antônio Dias/MG,-19.6525,-42.872778,115,1239.89218
D1,Antônio Dias/MG,-19.6525,-42.872778,2,21.56334
1,Antônio Gonçalves/BA,-10.5715409,-40.2748824,194,1633.27159
D1,Antônio Gonçalves/BA,-10.5715409,-40.2748824,1,8.41893
1,Antônio João/MS,-22.1892837,-55.9508227,65,720.62084
1,Antônio Martins/RN,-6.2155812,-37.8890129,32,447.30221
D1,Antônio Martins/RN,-6.2155812,-37.8890129,1,13.97819
1,Antônio Olinto/PR,-25.9849006,-50.1974516,95,1279.11674
D1,Antônio Olinto/PR,-25.9849006,-50.1974516,1,13.46439
1,Antônio Prado de Minas/MG,-21.0171988,-42.1101106,13,819.15564
1,Antônio Prado/RS,-28.8567806,-51.2801355,522,4001.53315
D1,Antônio Prado/RS,-28.8567806,-51.2801355,9,68.99195
1,Anápolis/GO,-16.3332828,-48.9525756,12840,3277.41646
D1,Anápolis/GO,-16.3332828,-48.9525756,341,87.04042
1,Anísio de Abreu/PI,-9.185643,-43.04941,107,1076.67539
1,Aparecida d'Oeste/SP,-20.4498109,-50.8808706,258,6204.90620
D1,Aparecida d'Oeste/SP,-20.4498109,-50.8808706,6,144.30014
1,Aparecida de Goiânia/GO,-16.8226769,-49.2452546,35633,6037.99738
D1,Aparecida de Goiânia/GO,-16.8226769,-49.2452546,531,89.97773
1,Aparecida do Rio Doce/GO,-18.2980167,-51.1491312,100,4042.03719
D1,Aparecida do Rio Doce/GO,-18.2980167,-51.1491312,2,80.84074
1,Aparecida do Rio Negro/TO,-9.9513491,-47.9773786,58,1196.36964
1,Aparecida do Taboado/MS,-20.0840304,-51.1013943,1000,3835.97376
D1,Aparecida do Taboado/MS,-20.0840304,-51.1013943,20,76.71948
1,Aparecida/PB,-6.7859598, -38.0831353,253,3006.17871
D1,Aparecida/PB,-6.7859598, -38.0831353,6,71.29278
1,Aparecida/SP,-22.851552,-45.2340924,473,1307.17148
D1,Aparecida/SP,-22.851552,-45.2340924,11,30.39934
1,Aperibé/RJ,-21.6211928,-42.1028167,198,1663.72574
D1,Aperibé/RJ,-21.6211928,-42.1028167,7,58.81859
1,Apiacá/ES,-21.152272,-41.569297,179,2369.60551
D1,Apiacá/ES,-21.152272,-41.569297,5,66.19010
1,Apiacás/MT,-9.5678422,-57.394852,56,544.58816
D1,Apiacás/MT,-9.5678422,-57.394852,1,9.72479
1,Apiaí/SP,-24.5076527,-48.8461582,152,627.42508
D1,Apiaí/SP,-24.5076527,-48.8461582,5,20.63898
1,Apicum-Açu/MA,-1.5279295,-45.082278,197,1131.33866
D1,Apicum-Açu/MA,-1.5279295,-45.082278,3,17.22851
1,Apiúna/SC,-27.0374658,-49.3885037,104,958.70206
D1,Apiúna/SC,-27.0374658,-49.3885037,3,27.65487
1,Apodi/RN,-5.6631109,-37.796927,2632,7336.78988
D1,Apodi/RN,-5.6631109,-37.796927,37,103.13876
1,Aporá/BA,-11.6599747,-38.0794757,195,1096.24466
D1,Aporá/BA,-11.6599747,-38.0794757,5,28.10884
1,Aporé/GO,-18.9642193,-51.92804,90,2126.65406
D1,Aporé/GO,-18.9642193,-51.92804,3,70.88847
1,Apuarema/BA,-13.8517897,-39.7457126,442,6053.13613
D1,Apuarema/BA,-13.8517897,-39.7457126,5,68.47439
1,Apucarana/PR,-23.5525327,-51.4610764,1155,847.80598
D1,Apucarana/PR,-23.5525327,-51.4610764,44,32.29737
1,Apuiarés/CE,-3.9460303,-39.4313298,249,1697.11014
D1,Apuiarés/CE,-3.9460303,-39.4313298,11,74.97274
1,Apuí/AM,-7.1940195,-59.8830192,260,1162.84270
D1,Apuí/AM,-7.1940195,-59.8830192,3,13.41742
1,Aquidabã/SE,-10.2837579,-37.0188687,697,3214.79637
D1,Aquidabã/SE,-10.2837579,-37.0188687,16,73.79733
1,Aquidauana/MS,-20.473969,-55.7821375,2051,4270.33667
D1,Aquidauana/MS,-20.473969,-55.7821375,64,133.25283
1,Aquiraz/CE,-3.9063117,-38.387504,1070,1322.04856
D1,Aquiraz/CE,-3.9063117,-38.387504,33,40.77346
1,Arabutã/SC,-27.1587028,-52.1438142,76,1781.11085
D1,Arabutã/SC,-27.1587028,-52.1438142,2,46.87134
1,Aracaju/SE,-10.9162061,-37.0774655,38039,5720.94184
D1,Aracaju/SE,-10.9162061,-37.0774655,784,117.91105
1,Aracati/CE,-4.558259,-37.767894,1894,2526.17539
D1,Aracati/CE,-4.558259,-37.767894,53,70.69023
1,Aracatu/BA,-14.4274236,-41.4604105,118,904.56113
D1,Aracatu/BA,-14.4274236,-41.4604105,1,7.66577
1,Araci/BA,-11.3356065,-38.9573261,1177,2153.78422
D1,Araci/BA,-11.3356065,-38.9573261,14,25.61850
1,Aracitaba/MG,-21.3425,-43.378611,1,48.56727
1,Aracoiaba/CE,-4.3702577,-38.8084313,794,2992.27435
D1,Aracoiaba/CE,-4.3702577,-38.8084313,14,52.76050
1,Aracruz/ES,-19.8245218,-40.2735025,4553,4416.05804
D1,Aracruz/ES,-19.8245218,-40.2735025,77,74.68405
1,Aragarças/GO,-15.8957166,-52.2514538,802,3956.00059
D1,Aragarças/GO,-15.8957166,-52.2514538,18,88.78804
1,Aragoiânia/GO,-16.9146388,-49.4499148,402,3830.03049
D1,Aragoiânia/GO,-16.9146388,-49.4499148,4,38.10976
1,Aragominas/TO,-7.1654101,-48.525488,218,3803.87367
D1,Aragominas/TO,-7.1654101,-48.525488,3,52.34689
1,Araguacema/TO,-8.8067391,-49.5560969,55,768.69322
D1,Araguacema/TO,-8.8067391,-49.5560969,1,13.97624
1,Araguaiana/MT,-15.729144,-51.834112,58,1865.55162
D1,Araguaiana/MT,-15.729144,-51.834112,2,64.32937
1,Araguainha/MT,-16.857016,-53.031778,4,422.83298
1,Araguanã/MA,-2.9508403,-45.6651986,542,3485.30641
D1,Araguanã/MA,-2.9508403,-45.6651986,2,12.86091
1,Araguanã/TO,-6.5799107,-48.6428482,171,2951.83843
D1,Araguanã/TO,-6.5799107,-48.6428482,8,138.09770
1,Araguapaz/GO,-15.0937927,-50.626417,191,2454.06656
D1,Araguapaz/GO,-15.0937927,-50.626417,6,77.09110
1,Araguari/MG,-18.6511256,-48.1933764,4295,3645.23658
D1,Araguari/MG,-18.6511256,-48.1933764,91,77.23318
1,Araguatins/TO,-5.6522925,-48.1158973,987,2728.78076
D1,Araguatins/TO,-5.6522925,-48.1158973,27,74.64750
1,Araguaçu/TO,-12.928934,-49.823134,493,5822.60541
D1,Araguaçu/TO,-12.928934,-49.823134,7,82.67391
1,Araguaína/TO,-7.193241,-48.2018597,15729,8577.22447
D1,Araguaína/TO,-7.193241,-48.2018597,221,120.51412
1,Araioses/MA,-2.890914,-41.904993,586,1252.91313
D1,Araioses/MA,-2.890914,-41.904993,10,21.38077
1,Aral Moreira/MS,-22.951141,-55.6268421,123,997.40512
D1,Aral Moreira/MS,-22.951141,-55.6268421,2,16.21797
1,Aramari/BA,-12.0907897,-38.4985065,147,1282.61059
D1,Aramari/BA,-12.0907897,-38.4985065,1,8.72524
1,Arambaré/RS,-30.9132252,-51.4994625,30,842.22347
D1,Arambaré/RS,-30.9132252,-51.4994625,1,28.07412
1,Arame/MA,-4.8858769,-46.0102484,948,2893.41961
D1,Arame/MA,-4.8858769,-46.0102484,13,39.67770
1,Aramina/SP,-20.0876144,-47.789201,122,2157.38285
D1,Aramina/SP,-20.0876144,-47.789201,5,88.41733
1,Arandu/SP,-23.1345103,-49.0545651,54,848.38963
D1,Arandu/SP,-23.1345103,-49.0545651,3,47.13276
1,Arantina/MG,-21.911667,-44.255833,20,717.61751
D1,Arantina/MG,-21.911667,-44.255833,1,35.88088
1,Arapeí/SP,-22.6738889,-44.4477778,7,284.55285
D1,Arapeí/SP,-22.6738889,-44.4477778,1,40.65041
1,Arapiraca/AL,-9.754866,-36.661471,12015,5155.61239
D1,Arapiraca/AL,-9.754866,-36.661471,162,69.51387
1,Arapoema/TO,-7.6575001,-49.0641484,134,2025.39299
D1,Arapoema/TO,-7.6575001,-49.0641484,4,60.45949
1,Araponga/MG,-20.666667,-42.520556,1,11.83012
1,Arapongas/PR,-23.415296,-51.42592,3155,2527.84232
D1,Arapongas/PR,-23.415296,-51.42592,109,87.33275
1,Araporã/MG,-18.4318188,-49.188313,863,12451.30573
D1,Araporã/MG,-18.4318188,-49.188313,8,115.42346
1,Arapoti/PR,-24.1457957,-49.8224605,282,996.46643
D1,Arapoti/PR,-24.1457957,-49.8224605,1,3.53357
1,Araputanga/MT,-15.4710868,-58.346796,576,3398.02961
D1,Araputanga/MT,-15.4710868,-58.346796,7,41.29550
1,Arapuá/MG,-19.034444,-46.155556,35,1234.56790
1,Arapuã/PR,-24.3079525,-51.7901941,48,1595.21436
D1,Arapuã/PR,-24.3079525,-51.7901941,1,33.23363
1,Araquari/SC,-26.3703324,-48.7210994,974,2464.32547
D1,Araquari/SC,-26.3703324,-48.7210994,15,37.95162
1,Arara/PB,-6.8271895,-35.7605703,238,1757.49520
D1,Arara/PB,-6.8271895,-35.7605703,6,44.30660
1,Araranguá/SC,-28.9348832,-49.4858389,2211,3210.53625
D1,Araranguá/SC,-28.9348832,-49.4858389,45,65.34334
1,Araraquara/SP,-21.7886713,-48.1773096,5402,2266.51954
D1,Araraquara/SP,-21.7886713,-48.1773096,63,26.43294
1,Araras/SP,-22.3569477,-47.3838889,4797,3540.06465
D1,Araras/SP,-22.3569477,-47.3838889,77,56.82405
1,Ararendá/CE,-4.7504395,-40.8303611,184,1678.98531
D1,Ararendá/CE,-4.7504395,-40.8303611,3,27.37476
1,Arari/MA,-3.4547602,-44.7772723,258,861.95376
D1,Arari/MA,-3.4547602,-44.7772723,10,33.40906
1,Araricá/RS,-29.6168543,-50.929121,117,2027.37827
D1,Araricá/RS,-29.6168543,-50.929121,5,86.64010
1,Araripe/CE,-7.212861,-40.1359222,238,1099.10409
D1,Araripe/CE,-7.212861,-40.1359222,3,13.85425
1,Araripina/PE,-7.5768582,-40.5038509,2239,2638.33899
D1,Araripina/PE,-7.5768582,-40.5038509,40,47.13424
1,Araruama/RJ,-22.8733203,-42.3428897,1669,1242.80491
D1,Araruama/RJ,-22.8733203,-42.3428897,69,51.38019
1,Araruna/PB,-6.5321155,-35.7397595,267,1304.79402
D1,Araruna/PB,-6.5321155,-35.7397595,8,39.09495
1,Araruna/PR,-23.9320308,-52.4976047,206,1471.42857
D1,Araruna/PR,-23.9320308,-52.4976047,9,64.28571
1,Arataca/BA,-15.2617424,-39.4122943,237,2162.21148
D1,Arataca/BA,-15.2617424,-39.4122943,7,63.86279
1,Aratiba/RS,-27.3955734,-52.3024325,41,662.46566
D1,Aratiba/RS,-27.3955734,-52.3024325,2,32.31540
1,Aratuba/CE,-4.4195958,-39.0463737,249,2109.81190
D1,Aratuba/CE,-4.4195958,-39.0463737,2,16.94628
1,Aratuípe/BA,-13.077137,-39.0010786,155,1753.98891
D1,Aratuípe/BA,-13.077137,-39.0010786,6,67.89634
1,Araucária/PR,-25.5861107,-49.4051209,4595,3142.65392
D1,Araucária/PR,-25.5861107,-49.4051209,71,48.55896
1,Arauá/SE,-11.2644014,-37.6181058,323,3247.21021
D1,Arauá/SE,-11.2644014,-37.6181058,9,90.47954
1,Araxá/MG,-19.5928536,-46.940241,2276,2120.42446
D1,Araxá/MG,-19.5928536,-46.940241,34,31.67594
1,Araçagi/PB,-6.8519969,-35.3835602,533,3149.93204
D1,Araçagi/PB,-6.8519969,-35.3835602,6,35.45890
1,Araçariguama/SP,-23.438611,-47.061389,380,1662.29221
D1,Araçariguama/SP,-23.438611,-47.061389,8,34.99563
1,Araçatuba/SP,-21.207992,-50.4390225,7137,3602.19857
D1,Araçatuba/SP,-21.207992,-50.4390225,165,83.27908
1,Araçaí/MG,-19.200833,-44.2475,5,212.40442
1,Araçoiaba da Serra/SP,-23.5045367,-47.6168158,632,1817.34530
D1,Araçoiaba da Serra/SP,-23.5045367,-47.6168158,12,34.50656
1,Araçoiaba/PE,-7.7856903,-35.0898881,167,805.47919
D1,Araçoiaba/PE,-7.7856903,-35.0898881,18,86.81812
1,Araçu/GO,-16.3561579,-49.6815269,74,2122.77682
D1,Araçu/GO,-16.3561579,-49.6815269,3,86.05852
1,Araçuaí/MG,-16.8484451,-42.0661868,102,277.83831
D1,Araçuaí/MG,-16.8484451,-42.0661868,2,5.44781
1,Araçás/BA,-12.2139176,-38.2026159,254,2080.60288
D1,Araçás/BA,-12.2139176,-38.2026159,4,32.76540
1,Araújos/MG,-19.948055,-45.165556,77,819.06180
D1,Araújos/MG,-19.948055,-45.165556,1,10.63717
1,Arceburgo/MG,-21.364444,-46.939722,75,689.14821
D1,Arceburgo/MG,-21.364444,-46.939722,2,18.37729
1,Arco-Íris/SP,-21.7741308,-50.4668814,11,620.41737
1,Arcos/MG,-20.282223,-45.539444,475,1176.32491
D1,Arcos/MG,-20.282223,-45.539444,10,24.76474
1,Arcoverde/PE,-8.415192,-37.057748,1811,2420.41111
D1,Arcoverde/PE,-8.415192,-37.057748,52,69.49828
1,Areado/MG,-21.3582771,-46.1476688,19,125.15645
D1,Areado/MG,-21.3582771,-46.1476688,1,6.58718
1,Areal/RJ,-22.2314922,-43.1056264,256,2020.68040
D1,Areal/RJ,-22.2314922,-43.1056264,9,71.03955
1,Arealva/SP,-22.0301906,-48.9111936,121,1404.85313
D1,Arealva/SP,-22.0301906,-48.9111936,2,23.22071
1,Areia Branca/RN,-4.9506652,-37.1263312,870,3110.80917
D1,Areia Branca/RN,-4.9506652,-37.1263312,50,178.78214
1,Areia Branca/SE,-10.7591455,-37.3148072,743,3976.23890
D1,Areia Branca/SE,-10.7591455,-37.3148072,19,101.68040
1,Areia de Baraúnas/PB,-7.1233949,-36.9446216,13,614.36673
1,Areia/PB,-6.9680243,-35.6994783,523,2308.43927
D1,Areia/PB,-6.9680243,-35.6994783,5,22.06921
1,Areial/PB,-7.0501306,-35.9245244,96,1366.15910
D1,Areial/PB,-7.0501306,-35.9245244,2,28.46165
1,Areias/SP,-22.5800929,-44.6975127,56,1437.37166
1,Areiópolis/SP,-22.6758064,-48.6673653,122,1093.38591
D1,Areiópolis/SP,-22.6758064,-48.6673653,4,35.84872
1,Arenápolis/MT,-14.4610369,-56.8432806,412,4335.92928
D1,Arenápolis/MT,-14.4610369,-56.8432806,6,63.14460
1,Arenópolis/GO,-16.3859286,-51.55937,32,1261.82965
1,Argirita/MG,-21.612761,-42.8371922,25,924.55621
D1,Argirita/MG,-21.612761,-42.8371922,2,73.96450
1,Aricanduva/MG,-17.8678,-42.5569,1,18.97893
1,Arinos/MG,-15.917223,-46.106111,120,671.81727
D1,Arinos/MG,-15.917223,-46.106111,2,11.19695
1,Aripuanã/MT,-10.175806,-59.4439663,762,3354.75918
D1,Aripuanã/MT,-10.175806,-59.4439663,15,66.03857
1,Ariquemes/RO,-9.9076522,-63.033069,5719,5221.73425
D1,Ariquemes/RO,-9.9076522,-63.033069,96,87.65282
1,Ariranha do Ivaí/PR,-24.3834527,-51.5876772,22,1064.85963
D1,Ariranha do Ivaí/PR,-24.3834527,-51.5876772,1,48.40271
1,Ariranha/SP,-21.18716,-48.790418,162,1659.66602
D1,Ariranha/SP,-21.18716,-48.790418,7,71.71396
1,Armazém/SC,-28.2624996,-49.0190126,304,3470.71584
D1,Armazém/SC,-28.2624996,-49.0190126,5,57.08414
1,Armação dos Búzios/RJ,-22.7597805,-41.8875267,554,1606.86835
D1,Armação dos Búzios/RJ,-22.7597805,-41.8875267,16,46.40775
1,Arneiroz/CE,-6.3235099,-40.1603859,63,803.16165
D1,Arneiroz/CE,-6.3235099,-40.1603859,4,50.99439
1,Aroazes/PI,-6.1108814,-41.7886137,106,1819.11790
D1,Aroazes/PI,-6.1108814,-41.7886137,4,68.64596
1,Aroeiras do Itaim/PI,-7.2797031,-41.5629681,86,3371.22697
D1,Aroeiras do Itaim/PI,-7.2797031,-41.5629681,1,39.20031
1,Aroeiras/PB,-7.5462904,-35.7080002,233,1218.87424
D1,Aroeiras/PB,-7.5462904,-35.7080002,1,5.23122
1,Arraial do Cabo/RJ,-22.9662839,-42.024427,217,709.31259
D1,Arraial do Cabo/RJ,-22.9662839,-42.024427,6,19.61233
1,Arraial/PI,-6.6541632,-42.5335332,42,889.83051
D1,Arraial/PI,-6.6541632,-42.5335332,1,21.18644
1,Arraias/TO,-12.9287788,-46.9437231,135,1281.56446
1,Arroio Grande/RS,-32.2384246,-53.0866661,125,685.38217
D1,Arroio Grande/RS,-32.2384246,-53.0866661,1,5.48306
1,Arroio Trinta/SC,-26.9301976,-51.334928,69,1944.20964
1,Arroio do Meio/RS,-29.4020392,-51.9444993,504,2403.77736
D1,Arroio do Meio/RS,-29.4020392,-51.9444993,1,4.76940
1,Arroio do Padre/RS,-31.4428773,-52.4228985,10,338.86818
1,Arroio do Sal/RS,-29.549852,-49.8874395,103,1002.04300
D1,Arroio do Sal/RS,-29.549852,-49.8874395,4,38.91429
1,Arroio do Tigre/RS,-29.334158,-53.0888935,41,305.67360
D1,Arroio do Tigre/RS,-29.334158,-53.0888935,1,7.45545
1,Arroio dos Ratos/RS,-30.0894524,-51.7265541,186,1311.98420
D1,Arroio dos Ratos/RS,-30.0894524,-51.7265541,12,84.64414
1,Artur Nogueira/SP,-22.572737,-47.172679,1119,2022.04554
D1,Artur Nogueira/SP,-22.572737,-47.172679,27,48.78930
1,Aruanã/GO,-14.9162439,-51.0715692,149,1473.78833
D1,Aruanã/GO,-14.9162439,-51.0715692,1,9.89120
1,Arujá/SP,-23.396266,-46.3175449,2160,2369.53827
D1,Arujá/SP,-23.396266,-46.3175449,91,99.82777
1,Arvoredo/SC,-27.0752908,-52.4571847,57,2551.47717
D1,Arvoredo/SC,-27.0752908,-52.4571847,1,44.76276
1,Arvorezinha/RS,-28.87369,-52.17808,153,1467.90751
D1,Arvorezinha/RS,-28.87369,-52.17808,5,47.97083
1,Arês/RN,-6.1969216,-35.1642968,238,1650.82888
D1,Arês/RN,-6.1969216,-35.1642968,9,62.42630
1,Ascurra/SC,-26.9569975,-49.3767752,164,2055.65305
D1,Ascurra/SC,-26.9569975,-49.3767752,2,25.06894
1,Aspásia/SP,-20.160028,-50.728046,48,2640.26403
D1,Aspásia/SP,-20.160028,-50.728046,1,55.00550
1,Assaré/CE,-6.8746791,-39.8741385,391,1665.38887
D1,Assaré/CE,-6.8746791,-39.8741385,8,34.07445
1,Assaí/PR,-23.3736041,-50.8454929,339,2266.95199
D1,Assaí/PR,-23.3736041,-50.8454929,12,80.24609
1,Assis Brasil/AC,-10.9409203,-69.5672108,709,9410.67162
D1,Assis Brasil/AC,-10.9409203,-69.5672108,9,119.45846
1,Assis Chateaubriand/PR,-24.4054826,-53.5120468,542,1625.67487
D1,Assis Chateaubriand/PR,-24.4054826,-53.5120468,7,20.99580
1,Assis/SP,-22.6620892,-50.420623,1475,1403.59892
D1,Assis/SP,-22.6620892,-50.420623,25,23.78981
1,Assunção do Piauí/PI,-5.8610212,-41.0485091,131,1666.03078
D1,Assunção do Piauí/PI,-5.8610212,-41.0485091,2,25.43558
1,Assunção/PB,-7.073396,-36.7274003,47,1166.54257
1,Astolfo Dutra/MG,-21.3132636,-42.8624102,161,1128.24107
D1,Astolfo Dutra/MG,-21.3132636,-42.8624102,3,21.02313
1,Astorga/PR,-23.2350184,-51.6647074,503,1919.18807
D1,Astorga/PR,-23.2350184,-51.6647074,7,26.70838
1,Atalaia do Norte/AM,-4.3658547,-70.1908742,1248,6118.24689
D1,Atalaia do Norte/AM,-4.3658547,-70.1908742,4,19.60977
1,Atalaia/AL,-9.5029595,-36.0219316,609,1285.75953
D1,Atalaia/AL,-9.5029595,-36.0219316,20,42.22527
1,Atalaia/PR,-23.1513833,-52.0529697,94,2422.05617
D1,Atalaia/PR,-23.1513833,-52.0529697,3,77.29967
1,Atalanta/SC,-27.421916,-49.778863,40,1251.95618
1,Ataléia/MG,-18.04432,-41.1110524,160,1262.02871
D1,Ataléia/MG,-18.04432,-41.1110524,4,31.55072
1,Atibaia/SP,-23.1177393,-46.5547861,2208,1532.39687
D1,Atibaia/SP,-23.1177393,-46.5547861,65,45.11132
1,Atilio Vivacqua/ES,-20.9139369,-41.1947519,374,3089.63238
D1,Atilio Vivacqua/ES,-20.9139369,-41.1947519,8,66.08839
1,Augustinópolis/TO,-5.4662267,-47.8897519,679,3642.11768
D1,Augustinópolis/TO,-5.4662267,-47.8897519,8,42.91155
1,Augusto Corrêa/PA,-1.0229335,-46.6404029,1358,2922.25259
D1,Augusto Corrêa/PA,-1.0229335,-46.6404029,20,43.03759
1,Augusto Pestana/RS,-28.5148413,-53.9906433,23,348.37928
D1,Augusto Pestana/RS,-28.5148413,-53.9906433,1,15.14693
1,Augusto de Lima/MG,-18.1092963,-44.2651945,39,803.95795
1,Aurelino Leal/BA,-14.3167137,-39.3256107,434,3841.04788
D1,Aurelino Leal/BA,-14.3167137,-39.3256107,9,79.65307
1,Auriflama/SP,-20.6840418,-50.5554616,439,2878.12234
D1,Auriflama/SP,-20.6840418,-50.5554616,12,78.67305
1,Aurilândia/GO,-16.6772599,-50.4641231,61,1994.76782
1,Aurora do Pará/PA,-2.1323199,-47.558436,657,2067.79341
D1,Aurora do Pará/PA,-2.1323199,-47.558436,8,25.17861
1,Aurora do Tocantins/TO,-12.71045,-46.407604,47,1242.40021
1,Aurora/CE,-6.9426019,-38.9693765,518,2104.83543
D1,Aurora/CE,-6.9426019,-38.9693765,19,77.20439
1,Aurora/SC,-27.3166417,-49.6368502,81,1425.30354
1,Autazes/AM,-3.5833283,-59.1301518,1373,3407.79350
D1,Autazes/AM,-3.5833283,-59.1301518,37,91.83420
1,Avanhandava/SP,-21.4603331,-49.9465156,227,1637.92481
D1,Avanhandava/SP,-21.4603331,-49.9465156,5,36.07764
1,Avaré/SP,-23.1045215,-48.9259103,801,877.98141
D1,Avaré/SP,-23.1045215,-48.9259103,18,19.72992
1,Avaí/SP,-22.1564662,-49.3316395,104,1913.17145
D1,Avaí/SP,-22.1564662,-49.3316395,1,18.39588
1,Aveiro/PA,-3.6049239,-55.3310742,445,2712.75299
D1,Aveiro/PA,-3.6049239,-55.3310742,5,30.48037
1,Avelino Lopes/PI,-10.1346855,-43.9489525,46,406.14515
D1,Avelino Lopes/PI,-10.1346855,-43.9489525,5,44.14621
1,Avelinópolis/GO,-16.4672409,-49.7578661,108,4483.18804
D1,Avelinópolis/GO,-16.4672409,-49.7578661,1,41.51100
1,Axixá do Tocantins/TO,-5.612747,-47.77007,427,4362.93042
D1,Axixá do Tocantins/TO,-5.612747,-47.77007,4,40.87054
1,Axixá/MA,-2.8379465,-44.0561053,142,1165.55857
D1,Axixá/MA,-2.8379465,-44.0561053,3,24.62448
1,Açailândia/MA,-4.9514278,-47.4844564,3477,3073.69984
D1,Açailândia/MA,-4.9514278,-47.4844564,85,75.14078
1,Açu/RN,-5.5836157,-36.9139541,1824,3124.14360
D1,Açu/RN,-5.5836157,-36.9139541,67,114.75747
1,Açucena/MG,-19.073056,-42.546666,94,1003.41588
D1,Açucena/MG,-19.073056,-42.546666,4,42.69855
1,Babaçulândia/TO,-7.2034355,-47.761613,378,3543.97150
D1,Babaçulândia/TO,-7.2034355,-47.761613,3,28.12676
1,Bacabal/MA,-4.2318132,-44.781167,3464,3305.65894
D1,Bacabal/MA,-4.2318132,-44.781167,58,55.34879
1,Bacabeira/MA,-2.9775747,-44.3155943,153,886.85370
D1,Bacabeira/MA,-2.9775747,-44.3155943,2,11.59286
1,Bacuri/MA,-1.728894,-45.1417148,417,2235.44548
D1,Bacuri/MA,-1.728894,-45.1417148,3,16.08234
1,Bacurituba/MA,-2.7082587,-44.7381309,69,1216.93122
1,Bady Bassitt/SP,-20.9178969,-49.4517911,932,5247.45228
D1,Bady Bassitt/SP,-20.9178969,-49.4517911,21,118.23659
1,Baependi/MG,-21.959162,-44.8899249,145,755.24767
D1,Baependi/MG,-21.959162,-44.8899249,4,20.83442
1,Bagre/PA,-1.8994498,-50.2103844,398,1270.55068
D1,Bagre/PA,-1.8994498,-50.2103844,10,31.92338
1,Bagé/RS,-31.3314264,-54.1062808,1265,1042.56810
D1,Bagé/RS,-31.3314264,-54.1062808,16,13.18663
1,Baianópolis/BA,-12.3067564,-44.5383591,144,1033.81434
D1,Baianópolis/BA,-12.3067564,-44.5383591,1,7.17927
1,Baixa Grande do Ribeiro/PI,-7.862861,-45.2113289,1352,11584.26870
D1,Baixa Grande do Ribeiro/PI,-7.862861,-45.2113289,10,85.68246
1,Baixa Grande/BA,-11.9630941,-40.1657537,34,166.26730
D1,Baixa Grande/BA,-11.9630941,-40.1657537,2,9.78043
1,Baixio/CE,-6.7303544,-38.7170095,105,1665.87339
D1,Baixio/CE,-6.7303544,-38.7170095,3,47.59638
1,Baixo Guandu/ES,-19.5138322,-41.0182089,844,2711.03688
D1,Baixo Guandu/ES,-19.5138322,-41.0182089,19,61.03045
1,Baião/PA,-2.7903479,-49.6702845,404,833.69446
D1,Baião/PA,-2.7903479,-49.6702845,13,26.82680
1,Balbinos/SP,-21.9006253,-49.3583966,105,1769.46411
D1,Balbinos/SP,-21.9006253,-49.3583966,3,50.55612
1,Baldim/MG,-19.2913568,-43.9558262,62,794.56619
D1,Baldim/MG,-19.2913568,-43.9558262,5,64.07792
1,Baliza/GO,-16.1978119,-52.542789,30,568.18182
1,Balneário Arroio do Silva/SC,-28.9815269,-49.4189932,467,3477.28965
D1,Balneário Arroio do Silva/SC,-28.9815269,-49.4189932,7,52.12211
1,Balneário Barra do Sul/SC,-26.459842,-48.6061471,503,4558.22383
D1,Balneário Barra do Sul/SC,-26.459842,-48.6061471,8,72.49660
1,Balneário Camboriú/SC,-26.9924395,-48.6339782,7765,5325.93487
D1,Balneário Camboriú/SC,-26.9924395,-48.6339782,93,63.78776
1,Balneário Gaivota/SC,-29.1553098,-49.5808712,229,2033.74778
D1,Balneário Gaivota/SC,-29.1553098,-49.5808712,8,71.04796
1,Balneário Pinhal/RS,-30.2482978,-50.234585,276,1921.60412
D1,Balneário Pinhal/RS,-30.2482978,-50.234585,4,27.84934
1,Balneário Piçarras/SC,-26.7638889,-48.6716667,968,4072.01750
D1,Balneário Piçarras/SC,-26.7638889,-48.6716667,10,42.06630
1,Balneário Rincão/SC,-28.8235718,-49.2241642,406,3136.10382
D1,Balneário Rincão/SC,-28.8235718,-49.2241642,10,77.24394
1,Balsa Nova/PR,-25.5842234,-49.6312741,243,1856.09533
D1,Balsa Nova/PR,-25.5842234,-49.6312741,6,45.82951
1,Balsas/MA,-7.53214,-46.037163,6467,6741.44419
D1,Balsas/MA,-7.53214,-46.037163,67,69.84332
1,Bambuí/MG,-20.0131996,-45.9777034,69,288.72709
D1,Bambuí/MG,-20.0131996,-45.9777034,1,4.18445
1,Banabuiú/CE,-5.3046404,-38.919766,598,3275.63541
D1,Banabuiú/CE,-5.3046404,-38.919766,4,21.91060
1,Bananal/SP,-22.6828195,-44.3221095,145,1319.02120
D1,Bananal/SP,-22.6828195,-44.3221095,1,9.09670
1,Bananeiras/PB,-6.7537682,-35.6338343,446,2096.94861
D1,Bananeiras/PB,-6.7537682,-35.6338343,2,9.40336
1,Bandeira do Sul/MG,-21.728056,-46.385555,42,726.89512
D1,Bandeira do Sul/MG,-21.728056,-46.385555,1,17.30703
1,Bandeira/MG,-15.884444,-40.559167,198,4154.42719
D1,Bandeira/MG,-15.884444,-40.559167,1,20.98196
1,Bandeirante/SC,-26.7677402,-53.6397596,12,453.17221
1,Bandeirantes do Tocantins/TO,-7.7635698,-48.579148,58,1614.69933
D1,Bandeirantes do Tocantins/TO,-7.7635698,-48.579148,1,27.83964
1,Bandeirantes/MS,-19.9179623,-54.3646768,76,1045.96752
1,Bandeirantes/PR,-23.107788,-50.370407,1007,3226.42658
D1,Bandeirantes/PR,-23.107788,-50.370407,31,99.32396
1,Bannach/PA,-7.3508505,-50.4064531,112,3433.47639
D1,Bannach/PA,-7.3508505,-50.4064531,2,61.31208
1,Banzaê/BA,-10.5827616,-38.6122305,389,2938.06647
D1,Banzaê/BA,-10.5827616,-38.6122305,1,7.55287
1,Baraúna/PB,-6.643394,-36.2531932,143,2880.74134
1,Baraúna/RN,-5.0775002,-37.61752,535,1861.06376
D1,Baraúna/RN,-5.0775002,-37.61752,14,48.70073
1,Barbacena/MG,-21.2254524,-43.7735087,1039,751.78721
D1,Barbacena/MG,-21.2254524,-43.7735087,19,13.74779
1,Barbalha/CE,-7.3121067,-39.3036427,2161,3529.43098
D1,Barbalha/CE,-7.3121067,-39.3036427,56,91.46142
1,Barbosa Ferraz/PR,-24.0287182,-52.00811,172,1505.33870
D1,Barbosa Ferraz/PR,-24.0287182,-52.00811,4,35.00788
1,Barbosa/SP,-21.265661,-49.951816,122,1633.63685
D1,Barbosa/SP,-21.265661,-49.951816,1,13.39047
1,Barcarena/PA,-1.5107945,-48.6190679,4480,3526.80926
D1,Barcarena/PA,-1.5107945,-48.6190679,113,88.95747
1,Barcelona/RN,-5.9514918,-35.9260284,37,926.38958
D1,Barcelona/RN,-5.9514918,-35.9260284,3,75.11267
1,Barcelos/AM,-0.9729214,-62.925635,2758,9979.01440
D1,Barcelos/AM,-0.9729214,-62.925635,25,90.45517
1,Bariri/SP,-22.0746355,-48.7394852,959,2697.00208
D1,Bariri/SP,-22.0746355,-48.7394852,23,64.68305
1,Barra Bonita/SC,-26.6526364,-53.4419581,3,181.70806
1,Barra Bonita/SP,-22.490859,-48.558349,1028,2845.59597
D1,Barra Bonita/SP,-22.490859,-48.558349,25,69.20224
1,Barra D'Alcântara/PI,-6.5209258,-42.1071089,17,430.16194
D1,Barra D'Alcântara/PI,-6.5209258,-42.1071089,1,25.30364
1,Barra Funda/RS,-27.9230048,-53.0401045,117,4586.43669
D1,Barra Funda/RS,-27.9230048,-53.0401045,3,117.60094
1,Barra Longa/MG,-20.2833541,-43.0423516,88,1754.73579
1,Barra Mansa/RJ,-22.5394843,-44.1735129,3500,1893.60125
D1,Barra Mansa/RJ,-22.5394843,-44.1735129,176,95.22109
1,Barra Velha/SC,-26.6338203,-48.6835001,1023,3425.98794
D1,Barra Velha/SC,-26.6338203,-48.6835001,18,60.28131
1,Barra da Estiva/BA,-13.6269662,-41.3278287,57,279.52138
1,Barra de Guabiraba/PE,-8.4173522,-35.6626669,192,1323.22536
D1,Barra de Guabiraba/PE,-8.4173522,-35.6626669,11,75.80979
1,Barra de Santa Rosa/PB,-6.7218007,-36.0564638,121,780.79628
D1,Barra de Santa Rosa/PB,-6.7218007,-36.0564638,1,6.45286
1,Barra de Santana/PB,-7.5230865,-35.9988518,102,1221.70320
D1,Barra de Santana/PB,-7.5230865,-35.9988518,3,35.93245
1,Barra de Santo Antônio/AL,-9.4038098,-35.5117693,135,840.17924
D1,Barra de Santo Antônio/AL,-9.4038098,-35.5117693,13,80.90615
1,Barra de São Francisco/ES,-18.7570902,-40.8916119,965,2145.44565
D1,Barra de São Francisco/ES,-18.7570902,-40.8916119,32,71.14431
1,Barra de São Miguel/AL,-9.8261357,-35.8837777,150,1790.40344
D1,Barra de São Miguel/AL,-9.8261357,-35.8837777,5,59.68011
1,Barra de São Miguel/PB,-7.7528088,-36.3170996,74,1220.11542
D1,Barra de São Miguel/PB,-7.7528088,-36.3170996,1,16.48805
1,Barra do Bugres/MT,-15.0683712,-57.1853688,1031,2920.10083
D1,Barra do Bugres/MT,-15.0683712,-57.1853688,21,59.47829
1,Barra do Chapéu/SP,-24.472203,-49.023784,51,885.41667
1,Barra do Choça/BA,-14.8638173,-40.5761637,487,1560.44731
D1,Barra do Choça/BA,-14.8638173,-40.5761637,6,19.22522
1,Barra do Corda/MA,-5.496823,-45.248496,4008,4529.22298
D1,Barra do Corda/MA,-5.496823,-45.248496,41,46.33187
1,Barra do Garças/MT,-15.8916033,-52.2615413,2565,4195.63262
D1,Barra do Garças/MT,-15.8916033,-52.2615413,104,170.11532
1,Barra do Guarita/RS,-27.1888016,-53.7147086,61,1872.88916
1,Barra do Jacaré/PR,-23.1151788,-50.1813945,16,575.33261
1,Barra do Mendes/BA,-11.8053298,-42.057037,22,159.03998
1,Barra do Ouro/TO,-7.7113784,-47.6743925,72,1554.40415
D1,Barra do Ouro/TO,-7.7113784,-47.6743925,5,107.94473
1,Barra do Piraí/RJ,-22.4703403,-43.8263256,1205,1195.86360
D1,Barra do Piraí/RJ,-22.4703403,-43.8263256,61,60.53749
1,Barra do Quaraí/RS,-30.208947,-57.5505128,81,1916.25266
D1,Barra do Quaraí/RS,-30.208947,-57.5505128,1,23.65744
1,Barra do Ribeiro/RS,-30.2930206,-51.301437,150,1106.52110
D1,Barra do Ribeiro/RS,-30.2930206,-51.301437,14,103.27530
1,Barra do Rio Azul/RS,-27.4101581,-52.4117471,16,966.76737
1,Barra do Rocha/BA,-14.2090974,-39.6004395,118,2102.63721
1,Barra do Turvo/SP,-24.756421,-48.5056942,139,1821.27883
D1,Barra do Turvo/SP,-24.756421,-48.5056942,4,52.41090
1,Barra dos Coqueiros/SE,-10.9075694,-37.0386249,1363,4406.72486
D1,Barra dos Coqueiros/SE,-10.9075694,-37.0386249,27,87.29389
1,Barra/BA,-11.0892702,-43.1420453,334,619.55110
D1,Barra/BA,-11.0892702,-43.1420453,6,11.12966
1,Barracão/PR,-26.252395,-53.6349576,98,950.34911
D1,Barracão/PR,-26.252395,-53.6349576,1,9.69744
1,Barracão/RS,-27.6728964,-51.4582928,81,1541.09589
D1,Barracão/RS,-27.6728964,-51.4582928,3,57.07763
1,Barras/PI,-4.2446153,-42.2920241,2841,6020.98124
D1,Barras/PI,-4.2446153,-42.2920241,56,118.68178
1,Barreira/CE,-4.2883361,-38.641094,348,1541.66482
D1,Barreira/CE,-4.2883361,-38.641094,19,84.17136
1,Barreiras do Piauí/PI,-9.9224524,-45.4763776,27,805.48926
1,Barreiras/BA,-12.1440031,-44.9967406,5473,3486.54244
D1,Barreiras/BA,-12.1440031,-44.9967406,90,57.33397
1,Barreirinha/AM,-2.798863,-57.067897,1200,3694.24006
D1,Barreirinha/AM,-2.798863,-57.067897,20,61.57067
1,Barreirinhas/MA,-2.7541271,-42.8259693,1147,1814.38537
D1,Barreirinhas/MA,-2.7541271,-42.8259693,23,36.38262
1,Barreiros/PE,-8.8159644,-35.1831905,336,785.70760
D1,Barreiros/PE,-8.8159644,-35.1831905,41,95.87504
1,Barretos/SP,-20.5531437,-48.5697509,5182,4218.73601
D1,Barretos/SP,-20.5531437,-48.5697509,138,112.34766
1,Barrinha/SP,-21.1898849,-48.1550642,747,2251.35624
D1,Barrinha/SP,-21.1898849,-48.1550642,30,90.41591
1,Barro Alto/BA,-11.7618025,-41.9094904,123,817.05859
D1,Barro Alto/BA,-11.7618025,-41.9094904,1,6.64275
1,Barro Alto/GO,-14.9696025,-48.9190985,504,4417.95231
D1,Barro Alto/GO,-14.9696025,-48.9190985,4,35.06311
1,Barro Duro/PI,-5.8180139,-42.5106589,443,6304.25502
D1,Barro Duro/PI,-5.8180139,-42.5106589,7,99.61577
1,Barro Preto/BA,-14.8068289,-39.4727588,259,4754.03818
D1,Barro Preto/BA,-14.8068289,-39.4727588,6,110.13216
1,Barro/CE,-7.1713587,-38.7742136,301,1322.61183
D1,Barro/CE,-7.1713587,-38.7742136,9,39.54653
1,Barrocas/BA,-11.5165,-39.099282894736845,148,918.96926
1,Barrolândia/TO,-9.837246,-48.7264346,214,3786.94036
D1,Barrolândia/TO,-9.837246,-48.7264346,4,70.78393
1,Barroquinha/CE,-3.0200371,-41.1339229,797,5297.79314
D1,Barroquinha/CE,-3.0200371,-41.1339229,19,126.29620
1,Barros Cassal/RS,-29.094938,-52.5832366,51,456.09014
D1,Barros Cassal/RS,-29.094938,-52.5832366,1,8.94294
1,Barroso/MG,-21.187222,-43.976111,189,904.43604
D1,Barroso/MG,-21.187222,-43.976111,2,9.57075
1,Barueri/SP,-23.5112184,-46.8764612,7518,2714.25580
D1,Barueri/SP,-23.5112184,-46.8764612,382,137.91510
1,Barão de Antonina/SP,-23.6295651,-49.5632104,21,600.34305
1,Barão de Cocais/MG,-19.9452437,-43.4870298,720,2190.71381
D1,Barão de Cocais/MG,-19.9452437,-43.4870298,4,12.17063
1,Barão de Cotegipe/RS,-27.6214694,-52.3765316,126,1903.32326
D1,Barão de Cotegipe/RS,-27.6214694,-52.3765316,3,45.31722
1,Barão de Grajaú/MA,-6.7542591,-43.0263477,18,95.11731
D1,Barão de Grajaú/MA,-6.7542591,-43.0263477,1,5.28430
1,Barão de Melgaço/MT,-16.195776,-55.9668049,123,1506.61440
D1,Barão de Melgaço/MT,-16.195776,-55.9668049,6,73.49339
1,Barão de Monte Alto/MG,-21.244722,-42.2375,61,1139.33508
D1,Barão de Monte Alto/MG,-21.244722,-42.2375,3,56.03287
1,Barão do Triunfo/RS,-30.3909877,-51.7375349,108,1436.36122
D1,Barão do Triunfo/RS,-30.3909877,-51.7375349,1,13.29964
1,Barão/RS,-29.372474,-51.494908,79,1273.78265
D1,Barão/RS,-29.372474,-51.494908,2,32.24766
1,Bastos/SP,-21.9222474,-50.7317727,145,692.02501
D1,Bastos/SP,-21.9222474,-50.7317727,4,19.09035
1,Bataguassu/MS,-21.715899,-52.422058,883,3785.63773
D1,Bataguassu/MS,-21.715899,-52.422058,7,30.01072
1,Batalha/AL,-9.6733809,-37.1265481,597,3255.53495
D1,Batalha/AL,-9.6733809,-37.1265481,10,54.53157
1,Batalha/PI,-4.022391,-42.0780926,430,1598.21594
D1,Batalha/PI,-4.022391,-42.0780926,9,33.45103
1,Batatais/SP,-20.892867,-47.592149,714,1133.69324
D1,Batatais/SP,-20.892867,-47.592149,22,34.93172
1,Batayporã/MS,-22.2976466,-53.2685608,227,2000.17623
D1,Batayporã/MS,-22.2976466,-53.2685608,5,44.05675
1,Baturité/CE,-4.3290203,-38.8821055,597,1661.05562
D1,Baturité/CE,-4.3290203,-38.8821055,31,86.25247
1,Bauru/SP,-22.3218102,-49.0705863,13209,3482.49525
D1,Bauru/SP,-22.3218102,-49.0705863,240,63.27495
1,Bayeux/PB,-7.1301631,-34.936532,2110,2170.71490
D1,Bayeux/PB,-7.1301631,-34.936532,114,117.28033
1,Baía Formosa/RN,-6.3691885,-35.0063741,129,1383.82321
D1,Baía Formosa/RN,-6.3691885,-35.0063741,6,64.36387
1,Baía da Traição/PB,-6.691258,-34.9371244,716,7871.59191
D1,Baía da Traição/PB,-6.691258,-34.9371244,7,76.95690
1,Bebedouro/SP,-20.949077,-48.479083,1334,1720.06963
D1,Bebedouro/SP,-20.949077,-48.479083,32,41.26104
1,Beberibe/CE,-4.1810469,-38.1298101,927,1718.28950
D1,Beberibe/CE,-4.1810469,-38.1298101,30,55.60807
1,Bela Cruz/CE,-3.0529129,-40.167582,1239,3786.44337
D1,Bela Cruz/CE,-3.0529129,-40.167582,24,73.34515
1,Bela Vista da Caroba/PR,-25.8792818,-53.6672545,30,867.80445
1,Bela Vista de Goiás/GO,-16.9692949,-48.9513071,920,3017.18484
D1,Bela Vista de Goiás/GO,-16.9692949,-48.9513071,17,55.75233
1,Bela Vista de Minas/MG,-19.8289721,-43.0973688,83,808.80920
D1,Bela Vista de Minas/MG,-19.8289721,-43.0973688,1,9.74469
1,Bela Vista do Maranhão/MA,-3.7416367,-45.2514192,130,1152.58445
D1,Bela Vista do Maranhão/MA,-3.7416367,-45.2514192,8,70.92827
1,Bela Vista do Paraíso/PR,-22.9948493,-51.1907996,190,1233.84635
D1,Bela Vista do Paraíso/PR,-22.9948493,-51.1907996,4,25.97571
1,Bela Vista do Piauí/PI,-7.9716353,-41.8715061,44,1091.81141
D1,Bela Vista do Piauí/PI,-7.9716353,-41.8715061,1,24.81390
1,Bela Vista do Toldo/SC,-26.274625,-50.466354,8,125.74662
1,Bela Vista/MS,-22.107327,-56.5317344,70,282.99980
D1,Bela Vista/MS,-22.107327,-56.5317344,4,16.17142
1,Belford Roxo/RJ,-22.7667284,-43.4033603,10844,2113.35404
D1,Belford Roxo/RJ,-22.7667284,-43.4033603,323,62.94848
1,Belmiro Braga/MG,-21.9486291,-43.413564,19,554.74453
D1,Belmiro Braga/MG,-21.9486291,-43.413564,2,58.39416
1,Belmonte/BA,-15.8630837,-38.8792845,481,2052.31045
D1,Belmonte/BA,-15.8630837,-38.8792845,4,17.06703
1,Belmonte/SC,-26.8448262,-53.578916,6,221.48394
1,Belo Campo/BA,-15.0338286,-41.2585109,88,514.34917
D1,Belo Campo/BA,-15.0338286,-41.2585109,1,5.84488
1,Belo Horizonte/MG,-19.9227318,-43.9450948,46707,1852.30278
D1,Belo Horizonte/MG,-19.9227318,-43.9450948,1444,57.26605
1,Belo Jardim/PE,-8.3338293,-36.4176419,1338,1744.75465
D1,Belo Jardim/PE,-8.3338293,-36.4176419,41,53.46408
1,Belo Monte/AL,-9.8269944,-37.2787165,172,2563.33830
D1,Belo Monte/AL,-9.8269944,-37.2787165,4,59.61252
1,Belo Oriente/MG,-19.2232523,-42.4807033,693,2567.23716
D1,Belo Oriente/MG,-19.2232523,-42.4807033,11,40.74980
1,Belo Vale/MG,-20.407778,-44.024167,89,1152.99909
D1,Belo Vale/MG,-20.407778,-44.024167,3,38.86514
1,Belterra/PA,-2.636091,-54.937392,550,3083.13246
D1,Belterra/PA,-2.636091,-54.937392,14,78.47974
1,Belágua/MA,-3.1604031,-43.5085052,272,3613.17747
D1,Belágua/MA,-3.1604031,-43.5085052,1,13.28374
1,Belém de Maria/PE,-8.6242497,-35.8388934,97,800.19799
D1,Belém de Maria/PE,-8.6242497,-35.8388934,3,24.74839
1,Belém do Brejo do Cruz/PB,-6.1880727,-37.5332267,143,1945.84297
D1,Belém do Brejo do Cruz/PB,-6.1880727,-37.5332267,2,27.21459
1,Belém do Piauí/PI,-7.3767305,-40.9712156,106,2955.11570
D1,Belém do Piauí/PI,-7.3767305,-40.9712156,3,83.63535
1,Belém do São Francisco/PE,-8.7517707,-38.9625715,141,680.17366
1,Belém/AL,-9.5715351,-36.492841,59,1377.21755
D1,Belém/AL,-9.5715351,-36.492841,1,23.34267
1,Belém/PA,-1.45056,-48.4682453,41363,2758.19346
D1,Belém/PA,-1.45056,-48.4682453,2233,148.90230
1,Belém/PB,-6.6967586,-35.5369626,1123,6342.84101
D1,Belém/PB,-6.6967586,-35.5369626,16,90.36995
1,Beneditinos/PI,-5.4565671,-42.3605061,291,2778.57347
D1,Beneditinos/PI,-5.4565671,-42.3605061,8,76.38690
1,Benedito Leite/MA,-7.2173453,-44.5523331,201,3565.09400
D1,Benedito Leite/MA,-7.2173453,-44.5523331,2,35.47357
1,Benedito Novo/SC,-26.7840657,-49.3629511,157,1333.33333
D1,Benedito Novo/SC,-26.7840657,-49.3629511,2,16.98514
1,Benevides/PA,-1.3555577,-48.252235,1802,2825.86877
D1,Benevides/PA,-1.3555577,-48.252235,48,75.27286
1,Benjamin Constant do Sul/RS,-27.5105555,-52.6007689,106,5413.68744
1,Benjamin Constant/AM,-4.3782748,-70.0290603,1625,3698.64573
D1,Benjamin Constant/AM,-4.3782748,-70.0290603,40,91.04359
1,Bento Fernandes/RN,-5.6926846,-35.8207423,33,597.28507
D1,Bento Fernandes/RN,-5.6926846,-35.8207423,2,36.19910
1,Bento Gonçalves/RS,-29.1654014,-51.5197627,4079,3348.85019
D1,Bento Gonçalves/RS,-29.1654014,-51.5197627,119,97.69874
1,Bento de Abreu/SP,-21.2707225,-50.8120444,40,1331.11481
1,Bequimão/MA,-2.4495376,-44.7884889,235,1103.33818
D1,Bequimão/MA,-2.4495376,-44.7884889,12,56.34067
1,Berilo/MG,-16.9515764,-42.4643732,6,50.53908
1,Berizal/MG,-15.6118785,-41.7417382,8,167.92611
1,Bernardino Batista/PB,-6.4532173,-38.5495418,122,3450.22624
1,Bernardino de Campos/SP,-23.0140216,-49.4760724,110,985.83976
D1,Bernardino de Campos/SP,-23.0140216,-49.4760724,3,26.88654
1,Bernardo Sayão/TO,-7.8794244,-48.8968905,61,1371.40288
D1,Bernardo Sayão/TO,-7.8794244,-48.8968905,3,67.44604
1,Bernardo do Mearim/MA,-4.6315929,-44.7617508,129,2124.15610
D1,Bernardo do Mearim/MA,-4.6315929,-44.7617508,3,49.39898
1,Bertioga/SP,-23.848568,-46.139586,1979,3057.64566
D1,Bertioga/SP,-23.848568,-46.139586,44,67.98202
1,Bertolínia/PI,-7.6372159,-43.9540611,445,8080.62466
D1,Bertolínia/PI,-7.6372159,-43.9540611,4,72.63483
1,Bertópolis/MG,-17.063333,-40.573889,73,1584.54526
1,Beruri/AM,-3.9007135,-61.3717319,932,4638.43129
D1,Beruri/AM,-3.9007135,-61.3717319,12,59.72229
1,Betim/MG,-19.968056,-44.198333,7224,1624.15914
D1,Betim/MG,-19.968056,-44.198333,230,51.71049
1,Betânia do Piauí/PI,-8.1460635,-40.7961387,37,595.81320
D1,Betânia do Piauí/PI,-8.1460635,-40.7961387,1,16.10306
1,Betânia/PE,-8.2742779,-38.0351767,100,783.39209
D1,Betânia/PE,-8.2742779,-38.0351767,2,15.66784
1,Bezerros/PE,-8.2372132,-35.7558262,1230,2020.36794
D1,Bezerros/PE,-8.2372132,-35.7558262,63,103.48226
1,Bias Fortes/MG,-21.605833,-43.756944,16,480.62481
D1,Bias Fortes/MG,-21.605833,-43.756944,1,30.03905
1,Bicas/MG,-21.7213723,-43.0604327,69,474.09647
D1,Bicas/MG,-21.7213723,-43.0604327,1,6.87096
1,Biguaçu/SC,-27.4961277,-48.6542432,2696,3879.91826
D1,Biguaçu/SC,-27.4961277,-48.6542432,35,50.36986
1,Bilac/SP,-21.403962,-50.47464,102,1256.62190
D1,Bilac/SP,-21.403962,-50.47464,2,24.63965
1,Biquinhas/MG,-18.783611,-45.502222,28,1120.89672
1,Birigui/SP,-21.2908491,-50.34144,2622,2099.56519
D1,Birigui/SP,-21.2908491,-50.34144,83,66.46221
1,Biritiba Mirim/SP,-23.5697765,-46.0407456,453,1375.39470
D1,Biritiba Mirim/SP,-23.5697765,-46.0407456,30,91.08574
1,Biritinga/BA,-11.6227908,-38.8066738,99,619.36937
D1,Biritinga/BA,-11.6227908,-38.8066738,1,6.25626
1,Bituruna/PR,-26.161281,-51.5533319,48,292.68293
D1,Bituruna/PR,-26.161281,-51.5533319,1,6.09756
1,Blumenau/SC,-26.9195567,-49.0658025,13240,3658.92415
D1,Blumenau/SC,-26.9195567,-49.0658025,157,43.38754
1,Boa Esperança do Iguaçu/PR,-25.6362851,-53.2139114,43,1740.89069
1,Boa Esperança do Sul/SP,-21.9930206,-48.3917372,194,1291.78319
D1,Boa Esperança do Sul/SP,-21.9930206,-48.3917372,6,39.95206
1,Boa Esperança/ES,-18.5395472,-40.2904088,391,2590.77657
D1,Boa Esperança/ES,-18.5395472,-40.2904088,16,106.01643
1,Boa Esperança/MG,-21.0901253,-45.5660195,370,919.96320
D1,Boa Esperança/MG,-21.0901253,-45.5660195,17,42.26858
1,Boa Esperança/PR,-24.2411024,-52.7860277,36,889.54781
1,Boa Hora/PI,-4.4094627,-42.1255341,113,1658.10712
1,Boa Nova/BA,-14.365907,-40.2063056,219,1776.29978
D1,Boa Nova/BA,-14.365907,-40.2063056,3,24.33287
1,Boa Ventura de São Roque/PR,-24.88177,-51.5441292,7,109.97643
1,Boa Ventura/PB,-7.4202462,-38.2156782,132,2487.28095
D1,Boa Ventura/PB,-7.4202462,-38.2156782,2,37.68607
1,Boa Viagem/CE,-5.1261877,-39.7300055,1305,2391.11714
D1,Boa Viagem/CE,-5.1261877,-39.7300055,33,60.46503
1,Boa Vista da Aparecida/PR,-25.4357216,-53.4067721,145,1923.07692
D1,Boa Vista da Aparecida/PR,-25.4357216,-53.4067721,3,39.78780
1,Boa Vista das Missões/RS,-27.6677983,-53.3127622,7,334.60803
1,Boa Vista do Buricá/RS,-27.6687782,-54.1111913,105,1564.36234
1,Boa Vista do Cadeado/RS,-28.5783827,-53.8123759,14,567.26094
1,Boa Vista do Gurupi/MA,-1.7981168,-46.3071882,14,167.02458
D1,Boa Vista do Gurupi/MA,-1.7981168,-46.3071882,3,35.79098
1,Boa Vista do Incra/RS,-28.8195551,-53.3866624,22,840.97859
1,Boa Vista do Ramos/AM,-2.9716927,-57.5869819,405,2063.58912
D1,Boa Vista do Ramos/AM,-2.9716927,-57.5869819,3,15.28585
1,Boa Vista do Sul/RS,-29.3510488,-51.6779679,62,2231.82145
D1,Boa Vista do Sul/RS,-29.3510488,-51.6779679,1,35.99712
1,Boa Vista do Tupim/BA,-12.6605988,-40.6083594,100,539.63629
D1,Boa Vista do Tupim/BA,-12.6605988,-40.6083594,2,10.79273
1,Boa Vista/PB,-7.2620711,-36.2415161,143,2003.92377
D1,Boa Vista/PB,-7.2620711,-36.2415161,1,14.01345
1,Boa Vista/RR,2.8208478,-60.6719582,41287,9838.38990
D1,Boa Vista/RR,2.8208478,-60.6719582,498,118.66975
1,Boca da Mata/AL,-9.6452054,-36.2116658,1251,4573.03699
D1,Boca da Mata/AL,-9.6452054,-36.2116658,24,87.73212
1,Boca do Acre/AM,-8.7553487,-67.3930873,1351,3900.67850
D1,Boca do Acre/AM,-8.7553487,-67.3930873,13,37.53429
1,Bocaina de Minas/MG,-22.167778,-44.394722,15,294.75339
1,Bocaina do Sul/SC,-27.745494,-49.942279,32,917.43119
D1,Bocaina do Sul/SC,-27.745494,-49.942279,2,57.33945
1,Bocaina/PI,-6.9445939,-41.3224599,149,3307.43618
D1,Bocaina/PI,-6.9445939,-41.3224599,1,22.19756
1,Bocaina/SP,-22.1421831,-48.522276,146,1172.50241
D1,Bocaina/SP,-22.1421831,-48.522276,3,24.09252
1,Bocaiúva do Sul/PR,-25.206591,-49.114131,237,1805.16414
D1,Bocaiúva do Sul/PR,-25.206591,-49.114131,3,22.85018
1,Bocaiúva/MG,-17.1160208,-43.8122678,423,841.69054
D1,Bocaiúva/MG,-17.1160208,-43.8122678,6,11.93887
1,Bodocó/PE,-7.777592,-39.933797,296,771.27521
D1,Bodocó/PE,-7.777592,-39.933797,8,20.84528
1,Bodoquena/MS,-20.5508775,-56.6769653,42,535.85098
D1,Bodoquena/MS,-20.5508775,-56.6769653,1,12.75836
1,Bodó/RN,-5.9866104,-36.4134824,18,819.29904
1,Bofete/SP,-23.1019554,-48.2610535,163,1367.33496
D1,Bofete/SP,-23.1019554,-48.2610535,4,33.55423
1,Boituva/SP,-23.2838893,-47.6738231,1154,1856.20074
D1,Boituva/SP,-23.2838893,-47.6738231,20,32.16986
1,Bom Conselho/PE,-9.169191,-36.685683,754,1546.12750
D1,Bom Conselho/PE,-9.169191,-36.685683,24,49.21361
1,Bom Despacho/MG,-19.7375242,-45.2517288,720,1410.99004
D1,Bom Despacho/MG,-19.7375242,-45.2517288,17,33.31504
1,Bom Jardim da Serra/SC,-28.3380324,-49.625588,139,2912.82481
D1,Bom Jardim da Serra/SC,-28.3380324,-49.625588,1,20.95557
1,Bom Jardim de Goiás/GO,-16.2062659,-52.172793,169,1905.51359
D1,Bom Jardim de Goiás/GO,-16.2062659,-52.172793,3,33.82568
1,Bom Jardim de Minas/MG,-21.9476466,-44.1906033,13,201.26955
1,Bom Jardim/MA,-3.54129,-45.606004,963,2302.61585
D1,Bom Jardim/MA,-3.54129,-45.606004,27,64.55932
1,Bom Jardim/PE,-7.7961572,-35.5871696,723,1808.26851
D1,Bom Jardim/PE,-7.7961572,-35.5871696,31,77.53295
1,Bom Jardim/RJ,-22.1515328,-42.4186683,198,716.97567
D1,Bom Jardim/RJ,-22.1515328,-42.4186683,4,14.48436
1,Bom Jesus da Lapa/BA,-13.250571,-43.410754,659,945.99638
D1,Bom Jesus da Lapa/BA,-13.250571,-43.410754,7,10.04852
1,Bom Jesus da Penha/MG,-21.0165299,-46.5226644,97,2285.57964
D1,Bom Jesus da Penha/MG,-21.0165299,-46.5226644,1,23.56268
1,Bom Jesus da Serra/BA,-14.3724084,-40.5047119,105,1068.91988
1,Bom Jesus das Selvas/MA,-4.4878075,-46.8526639,1794,5189.92102
D1,Bom Jesus das Selvas/MA,-4.4878075,-46.8526639,13,37.60812
1,Bom Jesus de Goiás/GO,-18.2174587,-49.739721,984,3836.55646
D1,Bom Jesus de Goiás/GO,-18.2174587,-49.739721,27,105.27137
1,Bom Jesus do Amparo/MG,-19.7045132,-43.4752911,36,586.98842
D1,Bom Jesus do Amparo/MG,-19.7045132,-43.4752911,2,32.61047
1,Bom Jesus do Araguaia/MT,-12.1725897,-51.5074425,148,2206.97882
1,Bom Jesus do Galho/MG,-19.8283191,-42.3162256,135,908.35688
D1,Bom Jesus do Galho/MG,-19.8283191,-42.3162256,5,33.64285
1,Bom Jesus do Itabapoana/RJ,-21.1341025,-41.680095,830,2231.00288
D1,Bom Jesus do Itabapoana/RJ,-21.1341025,-41.680095,23,61.82297
1,Bom Jesus do Norte/ES,-21.1254776,-41.6711646,340,3412.96928
D1,Bom Jesus do Norte/ES,-21.1254776,-41.6711646,8,80.30516
1,Bom Jesus do Oeste/SC,-26.6929713,-53.0967453,25,1168.77045
D1,Bom Jesus do Oeste/SC,-26.6929713,-53.0967453,1,46.75082
1,Bom Jesus do Sul/PR,-26.1922507,-53.6002033,24,684.54079
D1,Bom Jesus do Sul/PR,-26.1922507,-53.6002033,1,28.52253
1,Bom Jesus do Tocantins/PA,-5.0471796,-48.5978362,402,2348.40519
D1,Bom Jesus do Tocantins/PA,-5.0471796,-48.5978362,4,23.36722
1,Bom Jesus do Tocantins/TO,-8.96306,-48.165043,91,1817.09265
1,Bom Jesus dos Perdões/SP,-23.1353864,-46.4648052,354,1362.32442
D1,Bom Jesus dos Perdões/SP,-23.1353864,-46.4648052,3,11.54512
1,Bom Jesus/PB,-6.8156725,-38.6551841,46,1786.40777
D1,Bom Jesus/PB,-6.8156725,-38.6551841,1,38.83495
1,Bom Jesus/PI,-9.0711644,-44.3583926,1657,6526.96262
D1,Bom Jesus/PI,-9.0711644,-44.3583926,21,82.71950
1,Bom Jesus/RN,-5.9887544,-35.5821149,147,1431.77170
D1,Bom Jesus/RN,-5.9887544,-35.5821149,5,48.69972
1,Bom Jesus/RS,-28.6692723,-50.4346894,134,1184.89698
1,Bom Jesus/SC,-26.7350604,-52.3916519,94,3074.91004
D1,Bom Jesus/SC,-26.7350604,-52.3916519,3,98.13543
1,Bom Lugar/MA,-4.3728019,-45.0366054,305,1855.45687
D1,Bom Lugar/MA,-4.3728019,-45.0366054,2,12.16693
1,Bom Princípio do Piauí/PI,-3.1912777,-41.6430185,41,725.53530
D1,Bom Princípio do Piauí/PI,-3.1912777,-41.6430185,3,53.08795
1,Bom Princípio/RS,-29.489788,-51.3566782,397,2784.98772
D1,Bom Princípio/RS,-29.489788,-51.3566782,3,21.04525
1,Bom Progresso/RS,-27.5490948,-53.8655601,14,737.23012
1,Bom Repouso/MG,-22.4657069,-46.1485376,85,806.68122
D1,Bom Repouso/MG,-22.4657069,-46.1485376,5,47.45184
1,Bom Retiro do Sul/RS,-29.6000007,-51.9359243,220,1775.62550
D1,Bom Retiro do Sul/RS,-29.6000007,-51.9359243,3,24.21308
1,Bom Retiro/SC,-27.798993,-49.486994,96,954.27435
D1,Bom Retiro/SC,-27.798993,-49.486994,4,39.76143
1,Bom Sucesso de Itararé/SP,-24.3190016,-49.1446207,9,225.90361
D1,Bom Sucesso de Itararé/SP,-24.3190016,-49.1446207,1,25.10040
1,Bom Sucesso do Sul/PR,-26.0749256,-52.8348629,17,522.43393
1,Bom Sucesso/MG,-21.0323516,-44.7598082,41,232.86193
D1,Bom Sucesso/MG,-21.0323516,-44.7598082,1,5.67956
1,Bom Sucesso/PB,-6.4458948,-37.9297662,27,544.79419
1,Bom Sucesso/PR,-23.7088019,-51.7651297,107,1513.86531
D1,Bom Sucesso/PR,-23.7088019,-51.7651297,1,14.14827
1,Bombinhas/SC,-27.1519159,-48.4875691,1206,5930.66142
D1,Bombinhas/SC,-27.1519159,-48.4875691,10,49.17630
1,Bonfim do Piauí/PI,-9.1648678,-42.8734415,85,1495.16271
D1,Bonfim do Piauí/PI,-9.1648678,-42.8734415,1,17.59015
1,Bonfim/MG,-20.3266626, -44.2386157,70,1020.40816
D1,Bonfim/MG,-20.3266626, -44.2386157,2,29.15452
1,Bonfim/RR,3.3613818,-59.8427241,865,6888.58804
D1,Bonfim/RR,3.3613818,-59.8427241,13,103.52791
1,Bonfinópolis de Minas/MG,-16.5660011,-45.98645,143,2626.74504
D1,Bonfinópolis de Minas/MG,-16.5660011,-45.98645,6,110.21308
1,Bonfinópolis/GO,-16.6172709,-48.9615701,347,3498.33653
D1,Bonfinópolis/GO,-16.6172709,-48.9615701,8,80.65329
1,Boninal/BA,-12.7095183,-41.8299984,17,117.67963
D1,Boninal/BA,-12.7095183,-41.8299984,1,6.92233
1,Bonito de Minas/MG,-15.3191266,-44.7544,6,52.77509
1,Bonito de Santa Fé/PB,-7.3143332,-38.5146677,143,1189.48594
D1,Bonito de Santa Fé/PB,-7.3143332,-38.5146677,4,33.27233
1,Bonito/BA,-11.9665473,-41.2649896,60,355.36603
D1,Bonito/BA,-11.9665473,-41.2649896,2,11.84553
1,Bonito/MS,-21.1264766,-56.4902208,588,2649.84227
D1,Bonito/MS,-21.1264766,-56.4902208,7,31.54574
1,Bonito/PA,-1.3605722,-47.3049907,267,1615.24501
D1,Bonito/PA,-1.3605722,-47.3049907,9,54.44646
1,Bonito/PE,-8.4721161,-35.7314591,349,915.60196
D1,Bonito/PE,-8.4721161,-35.7314591,26,68.21103
1,Bonópolis/GO,-13.649331,-49.8329113,72,1602.49277
D1,Bonópolis/GO,-13.649331,-49.8329113,1,22.25684
1,Boqueirão do Leão/RS,-29.30332,-52.4296817,99,1285.38042
D1,Boqueirão do Leão/RS,-29.30332,-52.4296817,2,25.96728
1,Boqueirão do Piauí/PI,-4.4850148,-42.1095161,146,2272.01992
D1,Boqueirão do Piauí/PI,-4.4850148,-42.1095161,1,15.56178
1,Boqueirão/PB,-7.487004,-36.130887,519,2904.30890
D1,Boqueirão/PB,-7.487004,-36.130887,7,39.17180
1,Boquim/SE,-11.1450175,-37.6204228,656,2438.75237
D1,Boquim/SE,-11.1450175,-37.6204228,16,59.48177
1,Boquira/BA,-12.8184859,-42.7270883,49,227.93878
D1,Boquira/BA,-12.8184859,-42.7270883,1,4.65181
1,Boracéia/SP,-22.195355,-48.7801925,99,2033.68940
D1,Boracéia/SP,-22.195355,-48.7801925,1,20.54232
1,Borba/AM,-4.3934778,-59.5947721,723,1731.81949
D1,Borba/AM,-4.3934778,-59.5947721,23,55.09246
1,Borborema/PB,-6.8066718,-35.5990191,55,1040.28750
1,Borborema/SP,-21.6212706,-49.074135,241,1490.96758
D1,Borborema/SP,-21.6212706,-49.074135,6,37.11952
1,Borda da Mata/MG,-22.274167,-46.165278,363,1850.71887
D1,Borda da Mata/MG,-22.274167,-46.165278,16,81.57439
1,Borebi/SP,-22.5700178,-48.9714871,47,1751.77041
D1,Borebi/SP,-22.5700178,-48.9714871,1,37.27171
1,Borrazópolis/PR,-23.9393362,-51.5850786,105,1630.68800
D1,Borrazópolis/PR,-23.9393362,-51.5850786,3,46.59109
1,Borá/SP,-22.2701088,-50.544407,5,596.65871
1,Bossoroca/RS,-28.7278885,-54.9120278,74,1192.58662
D1,Bossoroca/RS,-28.7278885,-54.9120278,1,16.11604
1,Botelhos/MG,-21.65,-46.394722,86,575.28932
D1,Botelhos/MG,-21.65,-46.394722,1,6.68941
1,Botucatu/SP,-22.8879628,-48.4410712,2604,1757.91534
D1,Botucatu/SP,-22.8879628,-48.4410712,48,32.40397
1,Botuporã/BA,-13.3744752,-42.5198469,8,78.98114
D1,Botuporã/BA,-13.3744752,-42.5198469,1,9.87264
1,Botuverá/SC,-27.200749,-49.068892,161,3025.17850
1,Bozano/RS,-28.3669953,-53.7705165,18,852.67646
1,Braga/RS,-27.617348,-53.740514,19,573.84476
1,Braganey/PR,-24.8179919,-53.118506,58,1077.66630
D1,Braganey/PR,-24.8179919,-53.118506,2,37.16091
1,Bragança Paulista/SP,-22.9520235,-46.5418586,3813,2235.93088
D1,Bragança Paulista/SP,-22.9520235,-46.5418586,83,48.67093
1,Bragança/PA,-1.0573967,-46.7635406,2424,1880.32332
D1,Bragança/PA,-1.0573967,-46.7635406,94,72.91683
1,Branquinha/AL,-9.2478057,-36.0152009,272,2600.38241
D1,Branquinha/AL,-9.2478057,-36.0152009,6,57.36138
1,Brasil Novo/PA,-3.3055853,-52.539198,757,5052.39271
D1,Brasil Novo/PA,-3.3055853,-52.539198,16,106.78769
1,Brasileira/PI,-4.131182,-41.7824969,178,2132.50270
D1,Brasileira/PI,-4.131182,-41.7824969,2,23.96070
1,Brasilândia de Minas/MG,-17.0096469,-46.0087183,322,1922.61763
D1,Brasilândia de Minas/MG,-17.0096469,-46.0087183,1,5.97086
1,Brasilândia do Sul/PR,-24.1975793,-53.527551,41,1586.07350
D1,Brasilândia do Sul/PR,-24.1975793,-53.527551,1,38.68472
1,Brasilândia do Tocantins/TO,-8.3886619,-48.4842729,52,2351.87698
D1,Brasilândia do Tocantins/TO,-8.3886619,-48.4842729,1,45.22840
1,Brasilândia/MS,-21.255575,-52.0365617,111,936.47178
D1,Brasilândia/MS,-21.255575,-52.0365617,4,33.74673
1,Brasiléia/AC,-11.0010413,-68.7487894,1181,4422.88967
D1,Brasiléia/AC,-11.0010413,-68.7487894,19,71.15572
1,Brasnorte/MT,-12.1227151,-58.0050109,306,1519.36445
D1,Brasnorte/MT,-12.1227151,-58.0050109,1,4.96524
1,Brasília de Minas/MG,-16.2075114,-44.430559,188,580.15738
D1,Brasília de Minas/MG,-16.2075114,-44.430559,5,15.42972
1,Brasília/DF,-15.7934036,-47.8823172,208761,6833.08736
D1,Brasília/DF,-15.7934036,-47.8823172,3623,118.58669
1,Brazabrantes/GO,-16.4291635,-49.3858216,77,2055.52589
D1,Brazabrantes/GO,-16.4291635,-49.3858216,2,53.39028
1,Brazópolis/MG,-22.4742842,-45.6165577,271,1880.63845
D1,Brazópolis/MG,-22.4742842,-45.6165577,2,13.87925
1,Braço do Norte/SC,-28.2728633,-49.1622712,2373,7004.95926
D1,Braço do Norte/SC,-28.2728633,-49.1622712,20,59.03885
1,Braço do Trombudo/SC,-27.358578,-49.882145,62,1644.99867
D1,Braço do Trombudo/SC,-27.358578,-49.882145,1,26.53224
1,Braúna/SP,-21.5015319,-50.3175246,105,1828.94966
D1,Braúna/SP,-21.5015319,-50.3175246,7,121.92998
1,Braúnas/MG,-19.055556,-42.716111,17,356.46886
D1,Braúnas/MG,-19.055556,-42.716111,3,62.90627
1,Brejetuba/ES,-20.1465817,-41.2902303,535,4305.14203
D1,Brejetuba/ES,-20.1465817,-41.2902303,1,8.04699
1,Brejinho de Nazaré/TO,-11.0205883,-48.5722906,89,1612.61098
D1,Brejinho de Nazaré/TO,-11.0205883,-48.5722906,4,72.47690
1,Brejinho/PE,-7.3482153,-37.28538,157,2096.68803
D1,Brejinho/PE,-7.3482153,-37.28538,1,13.35470
1,Brejinho/RN,-6.1957907,-35.3583019,232,1814.34269
D1,Brejinho/RN,-6.1957907,-35.3583019,3,23.46133
1,Brejo Alegre/SP,-21.1671191,-50.1850393,88,3046.03669
D1,Brejo Alegre/SP,-21.1671191,-50.1850393,5,173.07027
1,Brejo Grande do Araguaia/PA,-5.7011449,-48.4037308,513,6962.54072
D1,Brejo Grande do Araguaia/PA,-5.7011449,-48.4037308,2,27.14441
1,Brejo Grande/SE,-10.4287358,-36.4667918,173,2071.11218
D1,Brejo Grande/SE,-10.4287358,-36.4667918,7,83.80223
1,Brejo Santo/CE,-7.4909841,-38.9859152,1863,3737.81148
D1,Brejo Santo/CE,-7.4909841,-38.9859152,25,50.15850
1,Brejo da Madre de Deus/PE,-8.1409718,-36.3712527,1022,1995.11957
D1,Brejo da Madre de Deus/PE,-8.1409718,-36.3712527,24,46.85212
1,Brejo de Areia/MA,-4.3316785,-45.5833334,205,2274.24007
D1,Brejo de Areia/MA,-4.3316785,-45.5833334,2,22.18771
1,Brejo do Cruz/PB,-6.32926065,-37.48746163303929,589,4146.13544
D1,Brejo do Cruz/PB,-6.32926065,-37.48746163303929,9,63.35351
1,Brejo do Piauí/PI,-8.207583,-42.8359849,23,597.71310
1,Brejo dos Santos/PB,-6.3769367,-37.8243125,76,1175.74257
1,Brejo/MA,-3.6804397,-42.7529313,698,1904.45008
D1,Brejo/MA,-3.6804397,-42.7529313,18,49.11189
1,Brejolândia/BA,-12.4843845,-43.9611861,5,47.08985
D1,Brejolândia/BA,-12.4843845,-43.9611861,1,9.41797
1,Brejão/PE,-9.029146,-36.566034,32,356.06988
D1,Brejão/PE,-9.029146,-36.566034,2,22.25437
1,Brejões/BA,-13.1033754,-39.7909837,86,604.69695
D1,Brejões/BA,-13.1033754,-39.7909837,1,7.03136
1,Breu Branco/PA,-3.7785073,-49.5684795,303,450.00891
D1,Breu Branco/PA,-3.7785073,-49.5684795,21,31.18874
1,Breves/PA,-1.68036,-50.479085,2689,2598.14294
D1,Breves/PA,-1.68036,-50.479085,86,83.09420
1,Britânia/GO,-15.2427599,-51.1602061,180,3105.05434
D1,Britânia/GO,-15.2427599,-51.1602061,1,17.25030
1,Brochier/RS,-29.556766,-51.5963047,48,940.43887
1,Brodowski/SP,-20.984532,-47.657217,551,2179.84729
D1,Brodowski/SP,-20.984532,-47.657217,21,83.07948
1,Brotas de Macaúbas/BA,-12.0019007,-42.6257506,3,29.61500
1,Brotas/SP,-22.2840884,-48.1267265,139,564.21497
D1,Brotas/SP,-22.2840884,-48.1267265,2,8.11820
1,Brumadinho/MG,-20.143611,-44.2,1190,2926.27748
D1,Brumadinho/MG,-20.143611,-44.2,14,34.42679
1,Brumado/BA,-14.29507325,-41.659307508575985,2287,3396.45058
D1,Brumado/BA,-14.29507325,-41.659307508575985,21,31.18735
1,Brunópolis/SC,-27.310953,-50.837585,34,1435.81081
1,Brusque/SC,-27.0964628,-48.9136323,6058,4399.77050
D1,Brusque/SC,-27.0964628,-48.9136323,57,41.39764
1,Brás Pires/MG,-20.8483109,-43.2430524,8,186.34987
D1,Brás Pires/MG,-20.8483109,-43.2430524,1,23.29373
1,Bueno Brandão/MG,-22.441976,-46.3517971,81,736.96661
D1,Bueno Brandão/MG,-22.441976,-46.3517971,5,45.49177
1,Buenos Aires/PE,-7.7218931,-35.326587,57,432.14556
D1,Buenos Aires/PE,-7.7218931,-35.326587,8,60.65201
1,Buenópolis/MG,-17.8756607,-44.1749365,91,878.97228
D1,Buenópolis/MG,-17.8756607,-44.1749365,2,19.31807
1,Buerarema/BA,-14.9571177,-39.3008035,544,2971.70327
D1,Buerarema/BA,-14.9571177,-39.3008035,20,109.25380
1,Bugre/MG,-19.4257687,-42.2556,69,1732.36254
D1,Bugre/MG,-19.4257687,-42.2556,2,50.21341
1,Bujari/AC,-9.8309656,-67.9520886,400,3838.77159
D1,Bujari/AC,-9.8309656,-67.9520886,7,67.17850
1,Bujaru/PA,-1.5169239,-48.0410699,645,2191.86461
D1,Bujaru/PA,-1.5169239,-48.0410699,23,78.15951
1,Buri/SP,-23.79849,-48.598924,292,1462.55948
D1,Buri/SP,-23.79849,-48.598924,10,50.08765
1,Buritama/SP,-21.0664017,-50.1448077,394,2279.96065
D1,Buritama/SP,-21.0664017,-50.1448077,12,69.44043
1,Buriti Alegre/GO,-18.1377879,-49.0404411,250,2636.01856
D1,Buriti Alegre/GO,-18.1377879,-49.0404411,7,73.80852
1,Buriti Bravo/MA,-5.8391884,-43.8367876,738,3082.83554
D1,Buriti Bravo/MA,-5.8391884,-43.8367876,2,8.35457
1,Buriti de Goiás/GO,-16.180644,-50.4287479,97,3917.60905
D1,Buriti de Goiás/GO,-16.180644,-50.4287479,1,40.38772
1,Buriti do Tocantins/TO,-5.3187439,-48.2256609,256,2226.66783
1,Buriti dos Lopes/PI,-3.1776723,-41.8707444,779,3932.95300
D1,Buriti dos Lopes/PI,-3.1776723,-41.8707444,12,60.58464
1,Buriti dos Montes/PI,-5.3136171,-41.0971256,56,677.63795
D1,Buriti dos Montes/PI,-5.3136171,-41.0971256,1,12.10068
1,Buriti/MA,-3.9430944,-42.9244281,653,2267.51858
D1,Buriti/MA,-3.9430944,-42.9244281,2,6.94493
1,Buriticupu/MA,-4.3227472,-46.4516989,2528,3463.82034
D1,Buriticupu/MA,-4.3227472,-46.4516989,4,5.48073
1,Buritinópolis/GO,-14.4589282,-46.4293104,54,1644.83704
1,Buritirama/BA,-10.7148421,-43.6362327,260,1222.03422
D1,Buritirama/BA,-10.7148421,-43.6362327,5,23.50066
1,Buritirana/MA,-5.5897455,-47.0148915,241,1558.15607
D1,Buritirana/MA,-5.5897455,-47.0148915,6,38.79227
1,Buritis/MG,-15.621389,-46.423889,392,1567.18506
D1,Buritis/MG,-15.621389,-46.423889,3,11.99376
1,Buritis/RO,-10.2054937,-63.8281954,765,1895.62890
D1,Buritis/RO,-10.2054937,-63.8281954,8,19.82357
1,Buritizal/SP,-20.1933264,-47.7097165,59,1307.04475
D1,Buritizal/SP,-20.1933264,-47.7097165,3,66.45990
1,Buritizeiro/MG,-17.3667765,-44.9647781,298,1059.70627
D1,Buritizeiro/MG,-17.3667765,-44.9647781,7,24.89243
1,Butiá/RS,-30.1256795,-51.9692224,321,1532.07331
D1,Butiá/RS,-30.1256795,-51.9692224,13,62.04658
1,Buíque/PE,-8.6239732,-37.157296,568,964.03537
D1,Buíque/PE,-8.6239732,-37.157296,7,11.88072
1,Bálsamo/SP,-20.7343722,-49.5807484,549,6007.22180
D1,Bálsamo/SP,-20.7343722,-49.5807484,23,251.66867
0,CASO SEM LOCALIZAÇÃO DEFINIDA/AL,-9.931093434363673,-35.609611600637464,8,0.23971
D0,CASO SEM LOCALIZAÇÃO DEFINIDA/AL,-9.931093434363673,-35.609611600637464,8,0.23971
0,CASO SEM LOCALIZAÇÃO DEFINIDA/BA,-13.415069300066518,-38.14174656569957,5092,34.23639
D0,CASO SEM LOCALIZAÇÃO DEFINIDA/BA,-13.415069300066518,-38.14174656569957,52,0.34963
0,CASO SEM LOCALIZAÇÃO DEFINIDA/CE,-3.3445126297392798,-38.624961942434304,4045,44.29441
D0,CASO SEM LOCALIZAÇÃO DEFINIDA/CE,-3.3445126297392798,-38.624961942434304,2,0.02190
0,CASO SEM LOCALIZAÇÃO DEFINIDA/ES,-20.30989267097039,-39.81745156645774,1289,32.07545
D0,CASO SEM LOCALIZAÇÃO DEFINIDA/ES,-20.30989267097039,-39.81745156645774,34,0.84606
0,CASO SEM LOCALIZAÇÃO DEFINIDA/GO,-16.701590966270153,-49.164524059025034,308,4.38849
D0,CASO SEM LOCALIZAÇÃO DEFINIDA/GO,-16.701590966270153,-49.164524059025034,3,0.04275
0,CASO SEM LOCALIZAÇÃO DEFINIDA/MG,-19.97049116501593,-43.8852149072783,2363,11.16266
D0,CASO SEM LOCALIZAÇÃO DEFINIDA/MG,-19.97049116501593,-43.8852149072783,75,0.35430
0,CASO SEM LOCALIZAÇÃO DEFINIDA/MT,-15.54791153961863,-56.17143998972475,719,20.63444
D0,CASO SEM LOCALIZAÇÃO DEFINIDA/MT,-15.54791153961863,-56.17143998972475,55,1.57843
0,CASO SEM LOCALIZAÇÃO DEFINIDA/PA,-0.09317078214359542,-48.0050231510481,783,9.10162
D0,CASO SEM LOCALIZAÇÃO DEFINIDA/PA,-0.09317078214359542,-48.0050231510481,5,0.05812
0,CASO SEM LOCALIZAÇÃO DEFINIDA/PI,-2.683810218391744,-41.470898009352254,274,8.37094
D0,CASO SEM LOCALIZAÇÃO DEFINIDA/PI,-2.683810218391744,-41.470898009352254,7,0.21386
0,CASO SEM LOCALIZAÇÃO DEFINIDA/PR,-25.69415946385943,-48.10141676336737,2171,18.98730
D0,CASO SEM LOCALIZAÇÃO DEFINIDA/PR,-25.69415946385943,-48.10141676336737,49,0.42855
0,CASO SEM LOCALIZAÇÃO DEFINIDA/RN,-5.749310788669161,-34.95302586257457,328,9.35312
D0,CASO SEM LOCALIZAÇÃO DEFINIDA/RN,-5.749310788669161,-34.95302586257457,9,0.25664
0,CASO SEM LOCALIZAÇÃO DEFINIDA/RR,2.813328208465927,-60.663338675861986,1404,231.77458
D0,CASO SEM LOCALIZAÇÃO DEFINIDA/RR,2.813328208465927,-60.663338675861986,5,0.82541
0,CASO SEM LOCALIZAÇÃO DEFINIDA/SC,-27.675643660562308,-48.18313219398259,6768,94.46197
0,CASO SEM LOCALIZAÇÃO DEFINIDA/SP,-24.30968974555485,-46.21366504207253,195,0.42466
1,Caapiranga/AM,-3.3188884,-61.2096404,356,2680.11744
D1,Caapiranga/AM,-3.3188884,-61.2096404,9,67.75578
1,Caaporã/PB,-7.510234,-34.9154114,994,4527.44250
D1,Caaporã/PB,-7.510234,-34.9154114,18,81.98588
1,Caarapó/MS,-22.6349267,-54.8240903,624,2039.68228
D1,Caarapó/MS,-22.6349267,-54.8240903,3,9.80616
1,Caatiba/BA,-14.9782759,-40.4092325,400,6165.22811
D1,Caatiba/BA,-14.9782759,-40.4092325,3,46.23921
1,Cabaceiras do Paraguaçu/BA,-12.5377868,-39.1901339,97,512.92898
D1,Cabaceiras do Paraguaçu/BA,-12.5377868,-39.1901339,1,5.28793
1,Cabaceiras/PB,-7.4899156,-36.2860501,128,2261.08461
1,Cabeceira Grande/MG,-16.0297,-47.0906,47,672.58157
D1,Cabeceira Grande/MG,-16.0297,-47.0906,2,28.62049
1,Cabeceiras do Piauí/PI,-4.4733665,-42.3098716,230,2163.68768
D1,Cabeceiras do Piauí/PI,-4.4733665,-42.3098716,7,65.85136
1,Cabeceiras/GO,-15.7995459,-46.9264991,72,894.85459
D1,Cabeceiras/GO,-15.7995459,-46.9264991,3,37.28561
1,Cabedelo/PB,-6.97324,-34.8351609,3180,4624.31108
D1,Cabedelo/PB,-6.97324,-34.8351609,77,111.97231
1,Cabixi/RO,-13.4956065,-60.5424442,138,2659.98458
D1,Cabixi/RO,-13.4956065,-60.5424442,5,96.37625
1,Cabo Frio/RJ,-22.8804369,-42.0189227,2870,1245.77868
D1,Cabo Frio/RJ,-22.8804369,-42.0189227,168,72.92363
1,Cabo Verde/MG,-21.4743338,-46.3964995,48,341.03020
D1,Cabo Verde/MG,-21.4743338,-46.3964995,1,7.10480
1,Cabo de Santo Agostinho/PE,-8.2838945,-35.0320984,2093,1001.70381
D1,Cabo de Santo Agostinho/PE,-8.2838945,-35.0320984,267,127.78544
1,Cabreúva/SP,-23.3075813,-47.1324417,1205,2389.49811
D1,Cabreúva/SP,-23.3075813,-47.1324417,39,77.33645
1,Cabrobó/PE,-8.5083701,-39.3106961,412,1194.09906
D1,Cabrobó/PE,-8.5083701,-39.3106961,5,14.49149
1,Cabrália Paulista/SP,-22.4562909,-49.3385645,97,2286.11831
1,Cacaulândia/RO,-10.3380043,-62.9007231,84,1339.92662
1,Cacequi/RS,-29.8838059,-54.8273443,51,410.52886
D1,Cacequi/RS,-29.8838059,-54.8273443,1,8.04959
1,Cachoeira Alta/GO,-18.7618269,-50.9432431,743,5866.09822
D1,Cachoeira Alta/GO,-18.7618269,-50.9432431,9,71.05637
1,Cachoeira Dourada/GO,-18.4934204,-49.481062,122,1519.11344
D1,Cachoeira Dourada/GO,-18.4934204,-49.481062,2,24.90350
1,Cachoeira Dourada/MG,-18.517136,-49.5002062,18,665.18847
1,Cachoeira Grande/MA,-2.9290492,-44.0573223,183,1930.78709
D1,Cachoeira Grande/MA,-2.9290492,-44.0573223,4,42.20300
1,Cachoeira Paulista/SP,-22.666498,-45.015384,391,1164.34889
D1,Cachoeira Paulista/SP,-22.666498,-45.015384,15,44.66812
1,Cachoeira da Prata/MG,-19.524723,-44.453056,48,1336.67502
D1,Cachoeira da Prata/MG,-19.524723,-44.453056,1,27.84740
1,Cachoeira de Goiás/GO,-16.6688414,-50.6435997,17,1266.76602
1,Cachoeira de Minas/MG,-22.3554043,-45.7796324,210,1813.62812
D1,Cachoeira de Minas/MG,-22.3554043,-45.7796324,3,25.90897
1,Cachoeira de Pajeú/MG,-15.965833,-41.496666,209,2213.51409
D1,Cachoeira de Pajeú/MG,-15.965833,-41.496666,2,21.18195
1,Cachoeira do Arari/PA,-1.0143572,-48.9621089,300,1246.67553
D1,Cachoeira do Arari/PA,-1.0143572,-48.9621089,13,54.02261
1,Cachoeira do Piriá/PA,-1.7599443,-46.5446954,529,1528.50415
D1,Cachoeira do Piriá/PA,-1.7599443,-46.5446954,3,8.66827
1,Cachoeira do Sul/RS,-30.0474778,-52.8905413,637,778.07229
D1,Cachoeira do Sul/RS,-30.0474778,-52.8905413,7,8.55024
1,Cachoeira dos Índios/PB,-6.9259193,-38.6742159,190,1843.76516
D1,Cachoeira dos Índios/PB,-6.9259193,-38.6742159,7,67.92819
1,Cachoeira/BA,-12.5998256,-38.9665918,454,1352.51884
D1,Cachoeira/BA,-12.5998256,-38.9665918,10,29.79116
1,Cachoeiras de Macacu/RJ,-22.4626861,-42.6534414,657,1107.86975
D1,Cachoeiras de Macacu/RJ,-22.4626861,-42.6534414,34,57.33268
1,Cachoeirinha/PE,-8.4906364,-36.2338963,273,1331.64236
D1,Cachoeirinha/PE,-8.4906364,-36.2338963,20,97.55622
1,Cachoeirinha/RS,-29.9493353,-51.0898927,3514,2677.53734
D1,Cachoeirinha/RS,-29.9493353,-51.0898927,92,70.10058
1,Cachoeirinha/TO,-6.118647,-47.9208885,28,1225.91944
1,Cachoeiro de Itapemirim/ES,-20.848084,-41.11129,6664,3164.45778
D1,Cachoeiro de Itapemirim/ES,-20.848084,-41.11129,182,86.42427
1,Cacimba de Areia/PB,-7.1288513,-37.1575194,11,297.69959
1,Cacimba de Dentro/PB,-6.6425101,-35.7929304,356,2072.41821
D1,Cacimba de Dentro/PB,-6.6425101,-35.7929304,9,52.39260
1,Cacimbas/PB,-7.2125451,-37.0593398,65,902.90318
D1,Cacimbas/PB,-7.2125451,-37.0593398,2,27.78164
1,Cacimbinhas/AL,-9.401212,-36.991082,270,2479.56654
D1,Cacimbinhas/AL,-9.401212,-36.991082,3,27.55074
1,Cacique Doble/RS,-27.7700117,-51.6616409,97,1911.70674
1,Cacoal/RO,-11.4333,-61.4420502,2507,2918.74774
D1,Cacoal/RO,-11.4333,-61.4420502,34,39.58413
1,Caconde/SP,-21.527995,-46.643659,154,810.14256
D1,Caconde/SP,-21.527995,-46.643659,1,5.26067
1,Caculé/BA,-14.4990734,-42.2233006,89,382.12185
D1,Caculé/BA,-14.4990734,-42.2233006,2,8.58701
1,Caetanos/BA,-14.3387456,-40.9085971,178,1218.51041
1,Caetanópolis/MG,-19.2947496,-44.4138386,111,944.76126
D1,Caetanópolis/MG,-19.2947496,-44.4138386,2,17.02273
1,Caetité/BA,-14.0691776,-42.4852428,183,358.25454
D1,Caetité/BA,-14.0691776,-42.4852428,5,9.78838
1,Caeté/MG,-19.897777,-43.670278,464,1030.03530
D1,Caeté/MG,-19.897777,-43.670278,16,35.51846
1,Caetés/PE,-8.7728788,-36.6255835,607,2100.05536
D1,Caetés/PE,-8.7728788,-36.6255835,6,20.75837
1,Cafarnaum/BA,-11.691399,-41.468823,277,1496.24588
D1,Cafarnaum/BA,-11.691399,-41.468823,4,21.60644
1,Cafeara/PR,-22.78905,-51.714195,69,2335.81584
1,Cafelândia/PR,-24.6176963,-53.3218057,295,1598.39619
D1,Cafelândia/PR,-24.6176963,-53.3218057,1,5.41829
1,Cafelândia/SP,-21.8054355,-49.6030627,324,1815.83814
D1,Cafelândia/SP,-21.8054355,-49.6030627,10,56.04439
1,Cafezal do Sul/PR,-23.900508,-53.512418,32,798.20404
D1,Cafezal do Sul/PR,-23.900508,-53.512418,1,24.94388
1,Caiabu/SP,-22.0143038,-51.2356597,37,882.42309
D1,Caiabu/SP,-22.0143038,-51.2356597,2,47.69855
1,Caiana/MG,-20.695555,-41.924723,16,288.75654
D1,Caiana/MG,-20.695555,-41.924723,2,36.09457
1,Caiapônia/GO,-16.9538779,-51.8090761,226,1182.81258
D1,Caiapônia/GO,-16.9538779,-51.8090761,2,10.46737
1,Caibaté/RS,-28.290475,-54.645407,2,41.46797
1,Caibi/SC,-27.0751925,-53.2502133,53,864.60033
D1,Caibi/SC,-27.0751925,-53.2502133,2,32.62643
1,Caicó/RN,-6.4594544,-37.0971911,3183,4657.38993
D1,Caicó/RN,-6.4594544,-37.0971911,36,52.67548
1,Caieiras/SP,-23.3644621,-46.7484765,2318,2255.41231
D1,Caieiras/SP,-23.3644621,-46.7484765,102,99.24593
1,Cairu/BA,-13.4860505,-39.0455744,376,2040.48407
D1,Cairu/BA,-13.4860505,-39.0455744,5,27.13410
1,Caiuá/SP,-21.8319357,-51.9887179,60,1009.08174
D1,Caiuá/SP,-21.8319357,-51.9887179,1,16.81803
1,Caiçara do Norte/RN,-5.0645017,-36.0561226,116,1768.02317
D1,Caiçara do Norte/RN,-5.0645017,-36.0561226,3,45.72474
1,Caiçara do Rio do Vento/RN,-5.757968,-36.00089,64,1722.74563
D1,Caiçara do Rio do Vento/RN,-5.757968,-36.00089,1,26.91790
1,Caiçara/PB,-6.6146866,-35.4681434,462,6424.69754
D1,Caiçara/PB,-6.6146866,-35.4681434,10,139.06272
1,Caiçara/RS,-27.2750478,-53.4310053,93,1978.72340
D1,Caiçara/RS,-27.2750478,-53.4310053,3,63.82979
1,Cajamar/SP,-23.3561111,-46.8769444,1616,2073.54941
D1,Cajamar/SP,-23.3561111,-46.8769444,77,98.80155
1,Cajapió/MA,-2.8778715,-44.6746871,5,44.57917
D1,Cajapió/MA,-2.8778715,-44.6746871,2,17.83167
1,Cajari/MA,-3.3213076,-45.0118757,132,678.62835
D1,Cajari/MA,-3.3213076,-45.0118757,4,20.56450
1,Cajati/SP,-24.7272376,-48.1077914,1761,6180.24847
D1,Cajati/SP,-24.7272376,-48.1077914,29,101.77581
1,Cajazeiras do Piauí/PI,-6.794271,-42.3935024,12,335.85223
1,Cajazeiras/PB,-6.8897849,-38.5570389,2580,4141.98334
D1,Cajazeiras/PB,-6.8897849,-38.5570389,50,80.27099
1,Cajazeirinhas/PB,-6.961442,-37.7993733,36,1123.24493
1,Cajobi/SP,-20.8776238,-48.8106972,226,2132.88033
D1,Cajobi/SP,-20.8776238,-48.8106972,7,66.06267
1,Cajueiro da Praia/PI,-2.931114,-41.340801,366,4769.35106
D1,Cajueiro da Praia/PI,-2.931114,-41.340801,10,130.31014
1,Cajueiro/AL,-9.399589,-36.1524309,340,1593.92434
D1,Cajueiro/AL,-9.399589,-36.1524309,14,65.63218
1,Cajuri/MG,-20.7901414,-42.7954489,64,1610.46804
1,Cajuru/SP,-21.2759978,-47.3046035,481,1822.45292
D1,Cajuru/SP,-21.2759978,-47.3046035,12,45.46660
1,Caldas Brandão/PB,-7.1027959,-35.3254676,330,5458.15415
D1,Caldas Brandão/PB,-7.1027959,-35.3254676,2,33.07972
1,Caldas Novas/GO,-17.745,-48.625,2011,2157.81793
D1,Caldas Novas/GO,-17.745,-48.625,51,54.72338
1,Caldas/MG,-21.923611,-46.386111,118,811.49852
D1,Caldas/MG,-21.923611,-46.386111,3,20.63132
1,Caldazinha/GO,-16.7116649,-49.0012601,96,2494.80249
D1,Caldazinha/GO,-16.7116649,-49.0012601,2,51.97505
1,Caldeirão Grande do Piauí/PI,-7.3310393,-40.6374433,126,2179.55371
1,Caldeirão Grande/BA,-11.0208483,-40.3041387,131,978.26899
D1,Caldeirão Grande/BA,-11.0208483,-40.3041387,1,7.46770
1,Califórnia/PR,-23.6672543,-51.3554556,102,1185.21961
D1,Califórnia/PR,-23.6672543,-51.3554556,2,23.23960
1,Calmon/SC,-26.6023644,-51.0992893,10,299.85007
D1,Calmon/SC,-26.6023644,-51.0992893,1,29.98501
1,Calumbi/PE,-7.9389746,-38.1516871,187,3253.87159
D1,Calumbi/PE,-7.9389746,-38.1516871,2,34.80077
1,Calçado/PE,-8.7413446,-36.3351787,75,680.70430
D1,Calçado/PE,-8.7413446,-36.3351787,1,9.07606
1,Calçoene/AP,2.4981757,-50.9539503,1181,10445.78100
D1,Calçoene/AP,2.4981757,-50.9539503,5,44.22431
1,Camacan/BA,-15.4166631,-39.4930088,1499,4683.49684
D1,Camacan/BA,-15.4166631,-39.4930088,32,99.98125
1,Camacho/MG,-20.625556,-45.156667,1,34.85535
1,Camalaú/PB,-7.885031,-36.824191,33,547.17294
1,Camamu/BA,-13.9438142,-39.1060917,834,2357.13074
D1,Camamu/BA,-13.9438142,-39.1060917,21,59.35221
1,Camanducaia/MG,-22.755278,-46.144444,580,2660.42842
D1,Camanducaia/MG,-22.755278,-46.144444,11,50.45640
1,Camapuã/MS,-19.5291747,-54.0434641,61,445.48309
D1,Camapuã/MS,-19.5291747,-54.0434641,3,21.90900
1,Camaquã/RS,-30.8524752,-51.8075619,1381,2077.37898
D1,Camaquã/RS,-30.8524752,-51.8075619,23,34.59791
1,Camaragibe/PE,-8.0213832,-34.9810768,2224,1399.63121
D1,Camaragibe/PE,-8.0213832,-34.9810768,193,121.46080
1,Camargo/RS,-28.5865661,-52.2031474,70,2552.88111
1,Camaçari/BA,-12.6998188,-38.3260762,6418,2109.08900
D1,Camaçari/BA,-12.6998188,-38.3260762,130,42.72072
1,Cambará do Sul/RS,-29.0489517,-50.145412,81,1264.43959
1,Cambará/PR,-23.042273,-50.075281,324,1272.28461
D1,Cambará/PR,-23.042273,-50.075281,7,27.48763
1,Cambira/PR,-23.600265,-51.581045,84,1061.00796
D1,Cambira/PR,-23.600265,-51.581045,3,37.89314
1,Camboriú/SC,-27.0273601,-48.6535657,3050,3583.80824
D1,Camboriú/SC,-27.0273601,-48.6535657,47,55.22590
1,Cambuci/RJ,-21.5749919,-41.9107833,212,1366.50767
D1,Cambuci/RJ,-21.5749919,-41.9107833,6,38.67475
1,Cambuquira/MG,-21.853056,-45.2953619,37,288.79176
D1,Cambuquira/MG,-21.853056,-45.2953619,2,15.61037
1,Cambuí/MG,-22.6122501,-46.0572137,421,1412.08828
D1,Cambuí/MG,-22.6122501,-46.0572137,8,26.83303
1,Cambé/PR,-23.2782035,-51.2779583,2154,2006.68896
D1,Cambé/PR,-23.2782035,-51.2779583,36,33.53798
1,Cametá/PA,-2.242949,-49.497885,4943,3546.82701
D1,Cametá/PA,-2.242949,-49.497885,100,71.75454
1,Camocim de São Félix/PE,-8.3616757,-35.7638903,235,1243.38624
D1,Camocim de São Félix/PE,-8.3616757,-35.7638903,8,42.32804
1,Camocim/CE,-2.9009918,-40.8427389,2393,3744.50373
D1,Camocim/CE,-2.9009918,-40.8427389,81,126.74668
1,Campanha/MG,-21.8361108,-45.401986,202,1205.10679
D1,Campanha/MG,-21.8361108,-45.401986,6,35.79525
1,Campanário/MG,-18.2398144,-41.7271768,19,509.38338
1,Campestre da Serra/RS,-28.7966535,-51.0958149,49,1443.29897
1,Campestre de Goiás/GO,-16.7624179,-49.69497,170,4658.81063
D1,Campestre de Goiás/GO,-16.7624179,-49.69497,2,54.80954
1,Campestre do Maranhão/MA,-6.1729113,-47.3640512,524,3625.54487
D1,Campestre do Maranhão/MA,-6.1729113,-47.3640512,12,83.02775
1,Campestre/AL,-8.8481634,-35.5660033,96,1380.50043
D1,Campestre/AL,-8.8481634,-35.5660033,3,43.14064
1,Campestre/MG,-19.6142116,-43.219378,178,845.44505
D1,Campestre/MG,-19.6142116,-43.219378,4,18.99877
1,Campina Grande do Sul/PR,-25.3046032,-49.0545355,1090,2495.13563
D1,Campina Grande do Sul/PR,-25.3046032,-49.0545355,25,57.22788
1,Campina Grande/PB,-7.2246743,-35.8771292,13662,3317.57352
D1,Campina Grande/PB,-7.2246743,-35.8771292,399,96.89005
1,Campina Verde/MG,-19.535277,-49.486389,154,779.66788
D1,Campina Verde/MG,-19.535277,-49.486389,6,30.37667
1,Campina da Lagoa/PR,-24.5937926,-52.8038965,47,334.68632
D1,Campina da Lagoa/PR,-24.5937926,-52.8038965,3,21.36296
1,Campina das Missões/RS,-27.9883295,-54.8411665,48,889.21823
D1,Campina das Missões/RS,-27.9883295,-54.8411665,3,55.57614
1,Campina do Monte Alegre/SP,-23.5935653,-48.4801876,83,1370.31534
1,Campina do Simão/PR,-25.1086375,-51.8076658,5,129.56725
D1,Campina do Simão/PR,-25.1086375,-51.8076658,1,25.91345
1,Campinas do Piauí/PI,-7.6593687,-41.8814875,43,765.12456
D1,Campinas do Piauí/PI,-7.6593687,-41.8814875,1,17.79359
1,Campinas do Sul/RS,-27.7167968,-52.6257885,95,1746.96580
D1,Campinas do Sul/RS,-27.7167968,-52.6257885,2,36.77823
1,Campinas/SP,-22.90556,-47.06083,33419,2753.27239
D1,Campinas/SP,-22.90556,-47.06083,1307,107.67908
1,Campinaçu/GO,-13.7869969,-48.5703841,118,3248.89868
1,Campinorte/GO,-14.3136699,-49.1510931,410,3212.15920
D1,Campinorte/GO,-14.3136699,-49.1510931,7,54.84174
1,Campinápolis/MT,-14.5403731,-52.7970626,445,2630.17909
D1,Campinápolis/MT,-14.5403731,-52.7970626,15,88.65772
1,Campo Alegre de Goiás/GO,-17.6337896,-47.779291,36,465.23650
D1,Campo Alegre de Goiás/GO,-17.6337896,-47.779291,1,12.92324
1,Campo Alegre de Lourdes/BA,-9.5160326,-43.0101338,132,458.01527
D1,Campo Alegre de Lourdes/BA,-9.5160326,-43.0101338,4,13.87925
1,Campo Alegre do Fidalgo/PI,-8.3753852,-41.8364191,15,295.91635
D1,Campo Alegre do Fidalgo/PI,-8.3753852,-41.8364191,1,19.72776
1,Campo Alegre/AL,-9.7798607,-36.3575793,1439,2500.99936
D1,Campo Alegre/AL,-9.7798607,-36.3575793,28,48.66434
1,Campo Alegre/SC,-26.1941684,-49.2657484,170,1418.91328
D1,Campo Alegre/SC,-26.1941684,-49.2657484,6,50.07929
1,Campo Azul/MG,-16.5078525,-44.8133524,30,784.51883
1,Campo Belo do Sul/SC,-27.8987563,-50.7586887,83,1193.90104
D1,Campo Belo do Sul/SC,-27.8987563,-50.7586887,1,14.38435
1,Campo Belo/MG,-20.8975,-45.277223,1223,2257.04056
D1,Campo Belo/MG,-20.8975,-45.277223,30,55.36485
1,Campo Bom/RS,-29.674694,-51.060601,2617,3767.74454
D1,Campo Bom/RS,-29.674694,-51.060601,48,69.10651
1,Campo Bonito/PR,-25.0328004,-52.992976,57,1514.74887
1,Campo Erê/SC,-26.3947432,-53.0790495,103,1223.56854
1,Campo Florido/MG,-19.760833,-48.572223,221,2672.63272
1,Campo Formoso/BA,-10.51055,-40.320031,1089,1523.35390
D1,Campo Formoso/BA,-10.51055,-40.320031,12,16.78627
1,Campo Grande do Piauí/PI,-7.1327559,-41.0381164,156,2615.25566
D1,Campo Grande do Piauí/PI,-7.1327559,-41.0381164,3,50.29338
1,Campo Grande/AL,-9.9725,-36.74791447368421,221,2310.02404
D1,Campo Grande/AL,-9.9725,-36.74791447368421,5,52.26299
1,Campo Grande/MS,-20.4640173,-54.6162947,34836,3844.64271
D1,Campo Grande/MS,-20.4640173,-54.6162947,665,73.39211
1,Campo Grande/RN,-5.862063,-37.3134908,93,961.73733
D1,Campo Grande/RN,-5.862063,-37.3134908,2,20.68252
1,Campo Largo do Piauí/PI,-3.8104731,-42.6288333,226,3091.23239
D1,Campo Largo do Piauí/PI,-3.8104731,-42.6288333,5,68.39010
1,Campo Largo/PR,-25.4597726,-49.5270851,3292,2459.19396
D1,Campo Largo/PR,-25.4597726,-49.5270851,85,63.49681
1,Campo Limpo Paulista/SP,-23.207791,-46.788919,1317,1539.61258
D1,Campo Limpo Paulista/SP,-23.207791,-46.788919,71,83.00113
1,Campo Limpo de Goiás/GO,-16.297101,-49.0894994,27,340.05038
D1,Campo Limpo de Goiás/GO,-16.297101,-49.0894994,2,25.18892
1,Campo Magro/PR,-25.3691533,-49.4496921,599,2014.12239
D1,Campo Magro/PR,-25.3691533,-49.4496921,14,47.07465
1,Campo Maior/PI,-4.8339574,-42.1739786,2468,5263.04566
D1,Campo Maior/PI,-4.8339574,-42.1739786,50,106.62572
1,Campo Mourão/PR,-24.046329,-52.37802,1184,1239.94638
D1,Campo Mourão/PR,-24.046329,-52.37802,40,41.89008
1,Campo Novo de Rondônia/RO,-10.5704235,-63.6199511,167,1170.61545
D1,Campo Novo de Rondônia/RO,-10.5704235,-63.6199511,6,42.05804
1,Campo Novo do Parecis/MT,-13.658735,-57.890723,2866,7929.61293
D1,Campo Novo do Parecis/MT,-13.658735,-57.890723,29,80.23684
1,Campo Novo/RS,-28.91500235,-52.331375687737626,27,617.00183
D1,Campo Novo/RS,-28.91500235,-52.331375687737626,1,22.85192
1,Campo Redondo/RN,-6.2420373,-36.1830606,240,2125.58675
D1,Campo Redondo/RN,-6.2420373,-36.1830606,3,26.56983
1,Campo Verde/MT,-15.5430787,-55.1590511,2479,5419.76388
D1,Campo Verde/MT,-15.5430787,-55.1590511,45,98.38216
1,Campo do Brito/SE,-10.7496246,-37.4942276,762,4182.67647
D1,Campo do Brito/SE,-10.7496246,-37.4942276,12,65.86892
1,Campo do Meio/MG,-21.1072006,-45.8301735,130,1115.78405
D1,Campo do Meio/MG,-21.1072006,-45.8301735,2,17.16591
1,Campo do Tenente/PR,-25.9814143,-49.684518,144,1789.93163
D1,Campo do Tenente/PR,-25.9814143,-49.684518,3,37.29024
1,Campos Altos/MG,-19.696389,-46.171389,144,925.27148
D1,Campos Altos/MG,-19.696389,-46.171389,6,38.55298
1,Campos Belos/GO,-13.0349839,-46.768112,333,1664.41745
D1,Campos Belos/GO,-13.0349839,-46.768112,7,34.98775
1,Campos Borges/RS,-28.8852198,-52.999098,25,758.72534
1,Campos Gerais/MG,-21.2333342,-45.7584127,191,662.22869
D1,Campos Gerais/MG,-21.2333342,-45.7584127,4,13.86866
1,Campos Lindos/TO,-7.9740597,-46.8023881,287,2783.16524
D1,Campos Lindos/TO,-7.9740597,-46.8023881,2,19.39488
1,Campos Novos Paulista/SP,-22.601952,-49.998726,114,2281.36882
D1,Campos Novos Paulista/SP,-22.601952,-49.998726,2,40.02401
1,Campos Novos/SC,-27.3962904,-51.2224397,1404,3840.68279
D1,Campos Novos/SC,-27.3962904,-51.2224397,16,43.76846
1,Campos Sales/CE,-7.0742675,-40.3740367,534,1943.93884
D1,Campos Sales/CE,-7.0742675,-40.3740367,9,32.76301
1,Campos Verdes/GO,-14.2709062,-49.65746,42,2295.08197
D1,Campos Verdes/GO,-14.2709062,-49.65746,1,54.64481
1,Campos de Júlio/MT,-13.7223646,-59.2645296,426,6025.45969
D1,Campos de Júlio/MT,-13.7223646,-59.2645296,6,84.86563
1,Campos do Jordão/SP,-22.7395263,-45.5912829,893,1704.03587
D1,Campos do Jordão/SP,-22.7395263,-45.5912829,28,53.43002
1,Campos dos Goytacazes/RJ,-21.7558619,-41.3326895,7339,1435.73150
D1,Campos dos Goytacazes/RJ,-21.7558619,-41.3326895,422,82.55603
1,Camutanga/PE,-7.4092965,-35.2738166,170,1983.20112
D1,Camutanga/PE,-7.4092965,-35.2738166,7,81.66122
1,Cana Verde/MG,-21.021308,-45.1817881,94,1680.37183
D1,Cana Verde/MG,-21.021308,-45.1817881,2,35.75259
1,Canabrava do Norte/MT,-11.0516481,-51.8301897,60,1269.03553
D1,Canabrava do Norte/MT,-11.0516481,-51.8301897,2,42.30118
1,Cananéia/SP,-25.0104609,-47.9315628,200,1594.76916
D1,Cananéia/SP,-25.0104609,-47.9315628,7,55.81692
1,Canapi/AL,-9.1173572,-37.6011704,66,372.48152
D1,Canapi/AL,-9.1173572,-37.6011704,3,16.93098
1,Canarana/BA,-11.6870151,-41.7683675,254,964.86230
D1,Canarana/BA,-11.6870151,-41.7683675,3,11.39601
1,Canarana/MT,-13.5564602,-52.2691167,782,3580.25822
D1,Canarana/MT,-13.5564602,-52.2691167,16,73.25337
1,Canas/SP,-22.7029347,-45.0526508,51,980.01537
D1,Canas/SP,-22.7029347,-45.0526508,2,38.43198
1,Canavieira/PI,-7.6924041,-43.7190063,17,431.03448
D1,Canavieira/PI,-7.6924041,-43.7190063,1,25.35497
1,Canavieiras/BA,-15.61621745,-39.08485321304444,274,886.55924
D1,Canavieiras/BA,-15.61621745,-39.08485321304444,15,48.53427
1,Canaã dos Carajás/PA,-6.5296837,-49.8516592,4162,10923.02443
D1,Canaã dos Carajás/PA,-6.5296837,-49.8516592,46,120.72540
1,Canaã/MG,-20.685555,-42.62,1,21.98769
1,Candeal/BA,-11.8053441,-39.1206515,150,1833.51669
1,Candeias do Jamari/RO,-8.7949939,-63.7018851,1473,5378.26785
D1,Candeias do Jamari/RO,-8.7949939,-63.7018851,32,116.83949
1,Candeias/BA,-12.6693806,-38.5406462,2534,2897.39075
D1,Candeias/BA,-12.6693806,-38.5406462,63,72.03458
1,Candeias/MG,-20.7676161,-45.2763777,111,745.56690
D1,Candeias/MG,-20.7676161,-45.2763777,3,20.15046
1,Candelária/RS,-29.668391,-52.789495,176,560.13494
D1,Candelária/RS,-29.668391,-52.789495,3,9.54775
1,Candiba/BA,-14.4125032,-42.8714102,42,292.31626
1,Candiota/RS,-31.5451894,-53.719538,92,953.66435
D1,Candiota/RS,-31.5451894,-53.719538,1,10.36592
1,Candói/PR,-25.5711951,-52.051107,86,535.72541
1,Canela/RS,-29.3624657,-50.8134204,1041,2288.51565
D1,Canela/RS,-29.3624657,-50.8134204,22,48.36440
1,Canelinha/SC,-27.2660341,-48.7666708,540,4355.54122
D1,Canelinha/SC,-27.2660341,-48.7666708,10,80.65817
1,Canguaretama/RN,-6.3751942,-35.137463,321,929.14206
D1,Canguaretama/RN,-6.3751942,-35.137463,17,49.20690
1,Canguçu/RS,-31.398276,-52.6773522,264,469.65896
D1,Canguçu/RS,-31.398276,-52.6773522,8,14.23209
1,Canhoba/SE,-10.1373681,-36.9710796,90,2246.63005
1,Canhotinho/PE,-8.876519,-36.197935,447,1804.38380
D1,Canhotinho/PE,-8.876519,-36.197935,17,68.62310
1,Canindé de São Francisco/SE,-9.6597475,-37.7904456,512,1684.09973
D1,Canindé de São Francisco/SE,-9.6597475,-37.7904456,9,29.60332
1,Canindé/CE,-4.3547946,-39.3108516,2000,2589.19787
D1,Canindé/CE,-4.3547946,-39.3108516,76,98.38952
