type,name,lat,lon,total,total_per_100k_inhabitants
1,Abadia de Goiás/GO,-16.7572644,-49.4412205,357,4069.30354
D1,Abadia de Goiás/GO,-16.7572644,-49.4412205,2,22.79722
1,Abadia dos Dourados/MG,-18.4911191,-47.4063589,49,701.10173
D1,Abadia dos Dourados/MG,-18.4911191,-47.4063589,1,14.30820
1,Abadiânia/GO,-16.1940946,-48.7067767,90,449.05698
D1,Abadiânia/GO,-16.1940946,-48.7067767,8,39.91618
1,Abaetetuba/PA,-1.721828,-48.878843,2973,1885.24902
D1,Abaetetuba/PA,-1.721828,-48.878843,114,72.29007
1,Abaeté/MG,-19.1566833,-45.4481213,35,150.62185
D1,Abaeté/MG,-19.1566833,-45.4481213,2,8.60696
1,Abaiara/CE,-7.3607808,-39.0487878,67,570.84434
D1,Abaiara/CE,-7.3607808,-39.0487878,2,17.04013
1,Abaré/BA,-8.7239913,-39.1139689,50,248.92960
1,Abatiá/PR,-23.3052967,-50.3102532,57,764.38246
1,Abaíra/BA,-13.2503296,-41.6640342,17,194.53027
D1,Abaíra/BA,-13.2503296,-41.6640342,1,11.44296
1,Abdon Batista/SC,-27.612419,-51.022992,87,3394.45962
1,Abel Figueiredo/PA,-4.953001,-48.3958485,294,3954.80226
D1,Abel Figueiredo/PA,-4.953001,-48.3958485,1,13.45171
1,Abelardo Luz/SC,-26.5705893,-52.3280339,172,960.67918
D1,Abelardo Luz/SC,-26.5705893,-52.3280339,3,16.75603
1,Abre Campo/MG,-20.2976097,-42.4764741,30,222.98201
1,Abreu e Lima/PE,-7.900719,-34.898389,736,736.07361
D1,Abreu e Lima/PE,-7.900719,-34.898389,92,92.00920
1,Abreulândia/TO,-9.6221526,-49.1558343,35,1357.11516
D1,Abreulândia/TO,-9.6221526,-49.1558343,2,77.54944
1,Acaiaca/MG,-20.3621646,-43.1444162,19,475.71357
D1,Acaiaca/MG,-20.3621646,-43.1444162,1,25.03756
1,Acajutiba/BA,-11.6609659,-38.0186381,84,554.12626
D1,Acajutiba/BA,-11.6609659,-38.0186381,3,19.79022
1,Acarape/CE,-4.2237866,-38.7071663,1396,9350.92772
D1,Acarape/CE,-4.2237866,-38.7071663,14,93.77721
1,Acaraú/CE,-2.8869514,-40.1194713,2620,4182.56414
D1,Acaraú/CE,-2.8869514,-40.1194713,56,89.39832
1,Acari/RN,-6.4364689,-36.6394777,62,556.75287
D1,Acari/RN,-6.4364689,-36.6394777,4,35.91954
1,Acará/PA,-1.961388,-48.1987043,713,1282.58171
D1,Acará/PA,-1.961388,-48.1987043,13,23.38508
1,Acauã/PI,-8.219542,-41.083059,27,381.14060
1,Acopiara/CE,-6.0936464,-39.4543204,569,1048.46140
D1,Acopiara/CE,-6.0936464,-39.4543204,30,55.27916
1,Acorizal/MT,-15.2001544,-56.3668953,115,2130.02408
D1,Acorizal/MT,-15.2001544,-56.3668953,3,55.56585
1,Acrelândia/AC,-10.0759167,-67.0526898,403,2641.58364
D1,Acrelândia/AC,-10.0759167,-67.0526898,8,52.43838
1,Acreúna/GO,-17.3959899,-50.3749031,287,1283.19771
D1,Acreúna/GO,-17.3959899,-50.3749031,9,40.23965
1,Adamantina/SP,-21.6866517,-51.0762975,230,655.86860
D1,Adamantina/SP,-21.6866517,-51.0762975,7,19.96122
1,Adelândia/GO,-16.4155077,-50.1665834,51,2027.02703
1,Adolfo/SP,-21.2356597,-49.6441918,70,1965.18810
D1,Adolfo/SP,-21.2356597,-49.6441918,3,84.22235
1,Adrianópolis/PR,-24.6557863,-48.9912769,163,2753.84355
D1,Adrianópolis/PR,-24.6557863,-48.9912769,2,33.78949
1,Adustina/BA,-10.5358875,-38.114479,74,434.27230
D1,Adustina/BA,-10.5358875,-38.114479,1,5.86854
1,Afogados da Ingazeira/PE,-7.750429,-37.6356375,355,952.78993
D1,Afogados da Ingazeira/PE,-7.750429,-37.6356375,7,18.78741
1,Afonso Bezerra/RN,-5.4745,-36.57625071327935,109,987.76620
D1,Afonso Bezerra/RN,-5.4745,-36.57625071327935,6,54.37245
1,Afonso Cláudio/ES,-20.077841,-41.12606,646,2112.07742
D1,Afonso Cláudio/ES,-20.077841,-41.12606,16,52.31152
1,Afonso Cunha/MA,-4.1326105,-43.3230026,134,2053.95463
D1,Afonso Cunha/MA,-4.1326105,-43.3230026,2,30.65604
1,Afrânio/PE,-8.5198919,-41.0070197,127,646.80418
D1,Afrânio/PE,-8.5198919,-41.0070197,1,5.09295
1,Afuá/PA,-0.1535664,-50.3879223,1898,4839.61446
D1,Afuá/PA,-0.1535664,-50.3879223,10,25.49850
1,Agrestina/PE,-8.4558021,-35.9442663,524,2105.68616
D1,Agrestina/PE,-8.4558021,-35.9442663,30,120.55455
1,Agricolândia/PI,-5.7967843,-42.6605131,41,797.82059
1,Agrolândia/SC,-27.4122212,-49.8295774,114,1049.33726
D1,Agrolândia/SC,-27.4122212,-49.8295774,3,27.61414
1,Agronômica/SC,-27.2660744,-49.7104753,72,1321.58590
D1,Agronômica/SC,-27.2660744,-49.7104753,3,55.06608
1,Aguanil/MG,-20.9424533,-45.3927152,24,534.99777
D1,Aguanil/MG,-20.9424533,-45.3927152,3,66.87472
1,Aguaí/SP,-22.0592036,-46.979384,217,597.71381
D1,Aguaí/SP,-22.0592036,-46.979384,5,13.77221
1,Agudo/RS,-29.6423259,-53.2494005,9,54.67469
1,Agudos do Sul/PR,-25.9890808,-49.3328175,68,725.64294
1,Agudos/SP,-22.471162,-48.987822,431,1158.16628
D1,Agudos/SP,-22.471162,-48.987822,7,18.81013
1,Aguiar/PB,-7.0928404,-38.1727215,24,425.53191
1,Aguiarnópolis/TO,-6.5600452,-47.4721189,366,5435.91267
D1,Aguiarnópolis/TO,-6.5600452,-47.4721189,6,89.11332
1,Aimorés/MG,-19.4917754,-41.0615603,255,1013.23161
D1,Aimorés/MG,-19.4917754,-41.0615603,4,15.89383
1,Aiquara/BA,-14.126918,-39.8887574,143,3216.37427
D1,Aiquara/BA,-14.126918,-39.8887574,3,67.47638
1,Aiuaba/CE,-6.5710836,-40.1212278,20,114.94914
D1,Aiuaba/CE,-6.5710836,-40.1212278,1,5.74746
1,Aiuruoca/MG,-21.9759554,-44.6036637,1,16.65834
1,Ajuricaba/RS,-28.239654,-53.7693013,9,128.13212
1,Alagoa Grande/PB,-7.0415212,-35.6285322,898,3151.31948
D1,Alagoa Grande/PB,-7.0415212,-35.6285322,19,66.67602
1,Alagoa Nova/PB,-7.0653703,-35.76695977336711,277,1328.60089
D1,Alagoa Nova/PB,-7.0653703,-35.76695977336711,7,33.57475
1,Alagoinha do Piauí/PI,-7.0090952,-40.939675,90,1176.31682
D1,Alagoinha do Piauí/PI,-7.0090952,-40.939675,1,13.07019
1,Alagoinha/PB,-6.97063215,-35.51490901897793,924,6377.25171
D1,Alagoinha/PB,-6.97063215,-35.51490901897793,8,55.21430
1,Alagoinha/PE,-8.50355635,-36.77701174370496,154,1052.20005
D1,Alagoinha/PE,-8.50355635,-36.77701174370496,3,20.49740
1,Alagoinhas/BA,-12.133526,-38.420772,3370,2223.01380
D1,Alagoinhas/BA,-12.133526,-38.420772,37,24.40698
1,Alambari/SP,-23.550338,-47.897971,52,863.07054
1,Albertina/MG,-20.66164,-43.784039,8,266.04589
1,Alcantil/PB,-7.7425491,-36.0609604,59,1074.28988
1,Alcinópolis/MS,-18.3264121,-53.7094463,8,149.72862
D1,Alcinópolis/MS,-18.3264121,-53.7094463,2,37.43215
1,Alcobaça/BA,-17.5215875,-39.1965474,378,1682.24299
D1,Alcobaça/BA,-17.5215875,-39.1965474,5,22.25189
1,Alcântara/MA,-2.4038956,-44.4154241,40,181.02005
D1,Alcântara/MA,-2.4038956,-44.4154241,6,27.15301
1,Alcântaras/CE,-3.586247,-40.5457641,414,3534.23254
D1,Alcântaras/CE,-3.586247,-40.5457641,3,25.61038
1,Aldeias Altas/MA,-4.6291957,-43.4708622,788,2969.99849
D1,Aldeias Altas/MA,-4.6291957,-43.4708622,4,15.07613
1,Alecrim/RS,-27.6566142,-54.7653195,13,218.48739
1,Alegre/ES,-20.7625787,-41.5318886,299,993.88379
D1,Alegre/ES,-20.7625787,-41.5318886,15,49.86039
1,Alegrete do Piauí/PI,-7.2440138,-40.8602296,71,1444.55748
1,Alegrete/RS,-29.790166,-55.794862,411,558.50739
D1,Alegrete/RS,-29.790166,-55.794862,12,16.30678
1,Alegria/RS,-27.8332103,-54.0574959,29,837.18245
1,Alenquer/PA,-1.946229,-54.738355,1234,2172.95603
D1,Alenquer/PA,-1.946229,-54.738355,29,51.06623
1,Alexandria/RN,-6.414779,-38.0135516,45,331.44288
D1,Alexandria/RN,-6.414779,-38.0135516,4,29.46159
1,Alexânia/GO,-16.0834049,-48.5077803,614,2220.37392
D1,Alexânia/GO,-16.0834049,-48.5077803,11,39.77869
1,Alfenas/MG,-21.4297405,-45.9479419,418,522.52613
D1,Alfenas/MG,-21.4297405,-45.9479419,24,30.00150
1,Alfredo Chaves/ES,-20.624970400000002,-40.75006690147988,374,2561.46839
D1,Alfredo Chaves/ES,-20.624970400000002,-40.75006690147988,5,34.24423
1,Alfredo Marcondes/SP,-21.9527,-51.413956,38,912.14594
D1,Alfredo Marcondes/SP,-21.9527,-51.413956,2,48.00768
1,Alfredo Vasconcelos/MG,-21.145833,-43.776389,13,188.21485
D1,Alfredo Vasconcelos/MG,-21.145833,-43.776389,1,14.47807
1,Alfredo Wagner/SC,-27.6961513,-49.3326734,124,1235.55201
1,Algodão de Jandaíra/PB,-6.9040175,-36.0089879,16,623.29568
1,Alhandra/PB,-7.4304246,-34.9106103,618,3154.99285
D1,Alhandra/PB,-7.4304246,-34.9106103,16,81.68266
1,Aliança do Tocantins/TO,-11.3055927,-48.9409096,37,686.45640
1,Aliança/PE,-7.60398,-35.222696,342,890.94983
D1,Aliança/PE,-7.60398,-35.222696,26,67.73303
1,Almadina/BA,-14.70466,-39.6381994,291,5325.76867
D1,Almadina/BA,-14.70466,-39.6381994,3,54.90483
1,Almas/TO,-11.5681309,-47.1702803,68,963.85542
D1,Almas/TO,-11.5681309,-47.1702803,2,28.34869
1,Almeirim/PA,-1.5290377,-52.5788111,255,747.60327
D1,Almeirim/PA,-1.5290377,-52.5788111,18,52.77200
1,Almenara/MG,-16.1740678,-40.6904907,557,1329.48253
D1,Almenara/MG,-16.1740678,-40.6904907,10,23.86863
1,Almino Afonso/RN,-6.1544208,-37.7649018,18,380.14784
1,Almirante Tamandaré do Sul/RS,-28.1141129,-52.9134874,6,305.49898
1,Almirante Tamandaré/PR,-25.3133048,-49.2997838,1170,986.31800
D1,Almirante Tamandaré/PR,-25.3133048,-49.2997838,29,24.44720
1,Aloândia/GO,-17.7277983,-49.4809338,15,751.87970
D1,Aloândia/GO,-17.7277983,-49.4809338,1,50.12531
1,Alpercata/MG,-18.9803616,-41.9827637,155,2087.82328
D1,Alpercata/MG,-18.9803616,-41.9827637,5,67.34914
1,Alpestre/RS,-27.2512339,-53.0349646,31,495.36593
1,Alpinópolis/MG,-20.863611,-46.387777,66,332.44346
D1,Alpinópolis/MG,-20.863611,-46.387777,4,20.14809
1,Alta Floresta D'Oeste/RO,-11.9296917,-61.9961284,434,1891.47963
D1,Alta Floresta D'Oeste/RO,-11.9296917,-61.9961284,6,26.14949
1,Alta Floresta/MT,-9.8715018,-56.0839881,603,1164.49732
D1,Alta Floresta/MT,-9.8715018,-56.0839881,15,28.96759
1,Altair/SP,-20.5238955,-49.0606135,30,721.15385
D1,Altair/SP,-20.5238955,-49.0606135,1,24.03846
1,Altamira do Maranhão/MA,-4.1643006,-45.4674574,262,3223.42520
D1,Altamira do Maranhão/MA,-4.1643006,-45.4674574,5,61.51575
1,Altamira do Paraná/PR,-24.799114,-52.7128633,7,360.45314
1,Altamira/PA,-3.204065,-52.209961,3674,3206.10154
D1,Altamira/PA,-3.204065,-52.209961,104,90.75519
1,Altaneira/CE,-6.9980933,-39.7385742,10,131.82178
1,Alterosa/MG,-21.249166,-46.143055,13,89.86589
D1,Alterosa/MG,-21.249166,-46.143055,1,6.91276
1,Altinho/PE,-8.4904095,-36.0607494,403,1754.30959
D1,Altinho/PE,-8.4904095,-36.0607494,7,30.47188
1,Altinópolis/SP,-21.021364,-47.3712,171,1056.59911
D1,Altinópolis/SP,-21.021364,-47.3712,6,37.07365
1,Alto Alegre do Maranhão/MA,-4.2055693,-44.4525287,323,1193.95261
D1,Alto Alegre do Maranhão/MA,-4.2055693,-44.4525287,11,40.66092
1,Alto Alegre do Pindaré/MA,-3.6698186,-45.8462153,1319,4132.33497
D1,Alto Alegre do Pindaré/MA,-3.6698186,-45.8462153,17,53.25981
1,Alto Alegre dos Parecis/RO,-12.1314515,-61.856265,157,1185.71105
D1,Alto Alegre dos Parecis/RO,-12.1314515,-61.856265,4,30.20920
1,Alto Alegre/RR,2.98858,-61.307167,519,3346.22824
D1,Alto Alegre/RR,2.98858,-61.307167,14,90.26435
1,Alto Alegre/RS,-31.780844700000003,-52.81311114489171,1,61.05006
1,Alto Alegre/SP,-21.5820592,-50.1661976,46,1122.22493
D1,Alto Alegre/SP,-21.5820592,-50.1661976,1,24.39619
1,Alto Araguaia/MT,-17.3156528,-53.2169365,134,703.63369
D1,Alto Araguaia/MT,-17.3156528,-53.2169365,3,15.75299
1,Alto Bela Vista/SC,-27.4320737,-51.905771,13,671.14094
1,Alto Boa Vista/MT,-11.6723985,-51.3744431,63,923.48285
D1,Alto Boa Vista/MT,-11.6723985,-51.3744431,3,43.97537
1,Alto Caparaó/MG,-20.4405661,-41.8683799,12,205.23345
1,Alto Feliz/RS,-29.3785943,-51.3123751,18,594.45178
1,Alto Garças/MT,-16.9469683,-53.529427,164,1363.25852
D1,Alto Garças/MT,-16.9469683,-53.529427,4,33.25021
1,Alto Horizonte/GO,-14.1954948,-49.3366993,95,1481.13502
D1,Alto Horizonte/GO,-14.1954948,-49.3366993,1,15.59089
1,Alto Jequitibá/MG,-20.423611,-41.966111,48,577.13118
D1,Alto Jequitibá/MG,-20.423611,-41.966111,3,36.07070
1,Alto Longá/PI,-5.2549051,-42.2072388,100,699.10515
D1,Alto Longá/PI,-5.2549051,-42.2072388,2,13.98210
1,Alto Paraguai/MT,-14.513712,-56.4936374,81,713.27932
D1,Alto Paraguai/MT,-14.513712,-56.4936374,1,8.80592
1,Alto Paraná/PR,-23.131247,-52.318893,37,250.50779
1,Alto Paraíso de Goiás/GO,-14.1304779,-47.5100161,89,1167.36621
1,Alto Paraíso/PR,-23.508137,-53.728537,3,109.44911
1,Alto Paraíso/RO,-9.7240103,-63.3188123,247,1152.69741
D1,Alto Paraíso/RO,-9.7240103,-63.3188123,5,23.33396
1,Alto Parnaíba/MA,-9.112506,-45.9310154,173,1546.02324
D1,Alto Parnaíba/MA,-9.112506,-45.9310154,1,8.93655
1,Alto Piquiri/PR,-24.0239021,-53.4417448,79,803.17202
D1,Alto Piquiri/PR,-24.0239021,-53.4417448,4,40.66694
1,Alto Rio Doce/MG,-21.0239537,-43.4133507,59,536.36364
D1,Alto Rio Doce/MG,-21.0239537,-43.4133507,1,9.09091
1,Alto Rio Novo/ES,-19.0577208,-41.0171518,157,2003.57325
D1,Alto Rio Novo/ES,-19.0577208,-41.0171518,8,102.09290
1,Alto Santo/CE,-5.5190371,-38.2719351,287,1673.85979
D1,Alto Santo/CE,-5.5190371,-38.2719351,6,34.99358
1,Alto Taquari/MT,-17.8269099,-53.2831736,96,885.03734
D1,Alto Taquari/MT,-17.8269099,-53.2831736,5,46.09569
1,Alto do Rodrigues/RN,-5.290868,-36.7616726,331,2278.20222
D1,Alto do Rodrigues/RN,-5.290868,-36.7616726,15,103.24179
1,Altos/PI,-5.0393915,-42.4611694,1134,2798.34172
D1,Altos/PI,-5.0393915,-42.4611694,15,37.01510
1,Altônia/PR,-23.8722004,-53.894037,108,489.66268
D1,Altônia/PR,-23.8722004,-53.894037,1,4.53391
1,Alumínio/SP,-23.5203479,-47.2575256,132,708.61069
D1,Alumínio/SP,-23.5203479,-47.2575256,6,32.20958
1,Alvarenga/MG,-19.4175,-41.728334,116,2969.02995
D1,Alvarenga/MG,-19.4175,-41.728334,1,25.59509
1,Alvarães/AM,-3.214786,-64.8143124,1204,7505.76647
D1,Alvarães/AM,-3.214786,-64.8143124,13,81.04233
1,Alvinlândia/SP,-22.4431852,-49.7643596,23,713.84233
1,Alvinópolis/MG,-20.1105199,-43.0601805,40,263.10597
1,Alvorada D'Oeste/RO,-11.346271,-62.284697,99,686.97523
D1,Alvorada D'Oeste/RO,-11.346271,-62.284697,3,20.81743
1,Alvorada de Minas/MG,-18.7318587,-43.3641479,47,1303.38325
D1,Alvorada de Minas/MG,-18.7318587,-43.3641479,1,27.73156
1,Alvorada do Gurguéia/PI,-8.4465288,-43.8655915,40,738.14357
D1,Alvorada do Gurguéia/PI,-8.4465288,-43.8655915,2,36.90718
1,Alvorada do Norte/GO,-14.483911,-46.4959897,140,1616.62818
1,Alvorada do Sul/PR,-22.7807269,-51.2307721,34,298.08873
D1,Alvorada do Sul/PR,-22.7807269,-51.2307721,3,26.30195
1,Alvorada/RS,-29.9981184,-51.0772509,2082,989.99073
D1,Alvorada/RS,-29.9981184,-51.0772509,87,41.36849
1,Alvorada/TO,-12.478465,-49.124926,404,4802.66286
D1,Alvorada/TO,-12.478465,-49.124926,4,47.55112
1,Além Paraíba/MG,-21.8760576,-42.6810473,328,927.54935
D1,Além Paraíba/MG,-21.8760576,-42.6810473,11,31.10684
1,Amajari/RR,3.6523869,-61.4194315,282,2203.81369
D1,Amajari/RR,3.6523869,-61.4194315,6,46.88965
1,Amambai/MS,-23.1082701,-55.2284854,128,324.90608
D1,Amambai/MS,-23.1082701,-55.2284854,3,7.61499
1,Amaporã/PR,-23.094272,-52.786597,24,383.57040
1,Amapá do Maranhão/MA,-1.6762114,-46.0109669,3,43.09107
1,Amapá/AP,2.0529997,-50.7930003,465,5104.84137
D1,Amapá/AP,2.0529997,-50.7930003,4,43.91261
1,Amaraji/PE,-8.373925,-35.4536527,146,639.53743
D1,Amaraji/PE,-8.373925,-35.4536527,22,96.36865
1,Amaral Ferrador/RS,-30.8750633,-52.2542051,3,42.66818
1,Amaralina/GO,-13.9236199,-49.2962411,2,52.46590
1,Amarante do Maranhão/MA,-5.56913,-46.747284,830,2003.13744
D1,Amarante do Maranhão/MA,-5.56913,-46.747284,16,38.61470
1,Amarante/PI,-6.2459374,-42.8476238,223,1267.18945
D1,Amarante/PI,-6.2459374,-42.8476238,5,28.41232
1,Amargosa/BA,-13.03793715,-39.60796443875596,274,735.74823
D1,Amargosa/BA,-13.03793715,-39.60796443875596,8,21.48170
1,Amaturá/AM,-3.3640509,-68.1994689,575,4984.39667
D1,Amaturá/AM,-3.3640509,-68.1994689,8,69.34813
1,Americana/SP,-22.7392463,-47.3306032,3411,1423.64053
D1,Americana/SP,-22.7392463,-47.3306032,102,42.57148
1,Americano do Brasil/GO,-16.2515808,-49.9806104,119,1947.30813
D1,Americano do Brasil/GO,-16.2515808,-49.9806104,2,32.72787
1,Ametista do Sul/RS,-27.3617341,-53.1826575,45,607.36942
1,Amontada/CE,-3.3634586,-39.8284791,759,1746.75504
D1,Amontada/CE,-3.3634586,-39.8284791,16,36.82224
1,Amorinópolis/GO,-16.6211308,-51.0949921,21,671.78503
1,Amparo de São Francisco/SE,-10.1299754,-36.9269099,70,2948.60994
1,Amparo do Serra/MG,-20.5070255,-42.8028462,10,212.17908
1,Amparo/PB,-7.56394725,-37.04652873235175,17,759.60679
1,Amparo/SP,-22.70111,-46.76444,640,886.48798
D1,Amparo/SP,-22.70111,-46.76444,18,24.93247
1,Ampére/PR,-25.9168712,-53.4742414,69,360.27569
D1,Ampére/PR,-25.9168712,-53.4742414,2,10.44277
1,Amélia Rodrigues/BA,-12.4015388,-38.7516971,269,1071.62776
D1,Amélia Rodrigues/BA,-12.4015388,-38.7516971,3,11.95124
1,América Dourada/BA,-11.4515262,-41.4357517,90,559.21461
1,Américo Brasiliense/SP,-21.7297099,-48.1052092,367,906.08335
D1,Américo Brasiliense/SP,-21.7297099,-48.1052092,4,9.87557
1,Américo de Campos/SP,-20.298476,-49.735904,204,3417.65790
D1,Américo de Campos/SP,-20.298476,-49.735904,5,83.76612
1,Anadia/AL,-9.6830208,-36.3052699,430,2450.84070
D1,Anadia/AL,-9.6830208,-36.3052699,6,34.19778
1,Anagé/BA,-14.6134669,-41.1376308,79,359.00932
D1,Anagé/BA,-14.6134669,-41.1376308,1,4.54442
1,Anahy/PR,-24.6450861,-53.1337957,23,821.13531
1,Anajatuba/MA,-3.26441,-44.6179916,324,1208.81991
D1,Anajatuba/MA,-3.26441,-44.6179916,8,29.84741
1,Anajás/PA,-0.9878802,-49.9390114,543,1854.69823
D1,Anajás/PA,-0.9878802,-49.9390114,12,40.98781
1,Analândia/SP,-22.128917,-47.661939,34,680.68068
D1,Analândia/SP,-22.128917,-47.661939,1,20.02002
1,Anamã/AM,-3.5797356,-61.4049996,639,4693.69766
1,Ananindeua/PA,-1.374035,-48.4016623,6501,1225.22135
D1,Ananindeua/PA,-1.374035,-48.4016623,350,65.96331
1,Ananás/TO,-6.3663053,-48.080238,140,1466.12211
D1,Ananás/TO,-6.3663053,-48.080238,6,62.83380
1,Anapu/PA,-3.4668292,-51.2057035,721,2585.15597
D1,Anapu/PA,-3.4668292,-51.2057035,17,60.95375
1,Anapurus/MA,-3.6751298,-43.1046001,709,4506.73786
D1,Anapurus/MA,-3.6751298,-43.1046001,6,38.13883
1,Anastácio/MS,-20.4832458,-55.8048448,303,1205.49035
D1,Anastácio/MS,-20.4832458,-55.8048448,8,31.82813
1,Anaurilândia/MS,-22.185169,-52.719056,29,320.97399
1,Anchieta/ES,-20.8057672,-40.6454564,699,2388.68195
D1,Anchieta/ES,-20.8057672,-40.6454564,20,68.34569
1,Anchieta/SC,-26.5350527,-53.3293938,23,407.94608
D1,Anchieta/SC,-26.5350527,-53.3293938,1,17.73679
1,Andaraí/BA,-12.8059674,-41.3322919,27,205.43255
1,Andirá/PR,-23.0494761,-50.2310027,180,898.60716
D1,Andirá/PR,-23.0494761,-50.2310027,2,9.98452
1,Andorinha/BA,-10.3445708,-39.8334411,59,404.24803
D1,Andorinha/BA,-10.3445708,-39.8334411,1,6.85166
1,Andradas/MG,-22.0680484,-46.5688976,163,396.81574
D1,Andradas/MG,-22.0680484,-46.5688976,5,12.17226
1,Andradina/SP,-20.896505,-51.3742765,285,498.62659
D1,Andradina/SP,-20.896505,-51.3742765,6,10.49740
1,Andrelândia/MG,-21.739722,-44.308889,63,515.37958
1,André da Rocha/RS,-28.6309124,-51.5733328,19,1425.35634
1,Angatuba/SP,-23.4938938,-48.4110675,227,899.79388
D1,Angatuba/SP,-23.4938938,-48.4110675,5,19.81925
1,Angelim/PE,-8.8902038,-36.2872987,54,484.30493
D1,Angelim/PE,-8.8902038,-36.2872987,1,8.96861
1,Angelina/SC,-27.5805287,-48.9838759,64,1333.05561
1,Angelândia/MG,-17.7253,-42.2728,12,140.84507
1,Angical do Piauí/PI,-6.0872666,-42.7366138,78,1149.08662
D1,Angical do Piauí/PI,-6.0872666,-42.7366138,3,44.19564
1,Angical/BA,-12.005623,-44.7000236,74,529.44122
D1,Angical/BA,-12.005623,-44.7000236,1,7.15461
1,Angico/TO,-6.3893733,-47.8656722,35,1019.51646
1,Angicos/RN,-5.6666344,-36.6009064,90,768.31142
D1,Angicos/RN,-5.6666344,-36.6009064,3,25.61038
1,Angra dos Reis/RJ,-23.0063966,-44.316326,4461,2189.07182
D1,Angra dos Reis/RJ,-23.0063966,-44.316326,141,69.19057
1,Anguera/BA,-12.1509425,-39.2452469,54,481.24053
1,Angélica/MS,-22.1588196,-53.7728504,65,602.96846
D1,Angélica/MS,-22.1588196,-53.7728504,3,27.82931
1,Anhanguera/GO,-18.3338749,-48.220363,14,1218.45083
D1,Anhanguera/GO,-18.3338749,-48.220363,3,261.09661
1,Anhembi/SP,-22.7891096,-48.1316776,11,163.59310
1,Anhumas/SP,-22.2956478,-51.3873401,23,558.93074
1,Anicuns/GO,-16.4606451,-49.9572265,423,1935.92677
D1,Anicuns/GO,-16.4606451,-49.9572265,4,18.30664
1,Anita Garibaldi/SC,-27.6855032,-51.1293873,164,2299.17286
D1,Anita Garibaldi/SC,-27.6855032,-51.1293873,1,14.01935
1,Anitápolis/SC,-27.9041185,-49.1287395,37,1144.80198
1,Anori/AM,-3.7435254,-61.6605203,724,3445.97811
D1,Anori/AM,-3.7435254,-61.6605203,11,52.35602
1,Anta Gorda/RS,-28.9718745,-52.0069187,39,652.06487
1,Antas/BA,-10.4114649,-38.3308815,118,611.68421
1,Antonina do Norte/CE,-6.7754187,-39.9879345,13,176.79859
1,Antonina/PR,-25.4298854,-48.7125431,236,1243.41412
D1,Antonina/PR,-25.4298854,-48.7125431,4,21.07482
1,Antônio Almeida/PI,-7.2186016,-44.1950248,195,6163.08470
D1,Antônio Almeida/PI,-7.2186016,-44.1950248,1,31.60556
1,Antônio Cardoso/BA,-12.4363122,-39.1200307,42,359.49670
1,Antônio Carlos/MG,-21.318334,-43.746666,25,218.43600
1,Antônio Carlos/SC,-27.5168462,-48.7684715,230,2701.75026
D1,Antônio Carlos/SC,-27.5168462,-48.7684715,11,129.21414
1,Antônio Dias/MG,-19.6525,-42.872778,59,633.18309
D1,Antônio Dias/MG,-19.6525,-42.872778,1,10.73192
1,Antônio Gonçalves/BA,-10.5715409,-40.2748824,139,1178.16579
D1,Antônio Gonçalves/BA,-10.5715409,-40.2748824,1,8.47601
1,Antônio João/MS,-22.1892837,-55.9508227,53,591.78205
1,Antônio Martins/RN,-6.2155812,-37.8890129,3,41.98740
D1,Antônio Martins/RN,-6.2155812,-37.8890129,1,13.99580
1,Antônio Olinto/PR,-25.9849006,-50.1974516,12,161.42050
1,Antônio Prado/RS,-28.8567806,-51.2801355,142,1088.12261
D1,Antônio Prado/RS,-28.8567806,-51.2801355,3,22.98851
1,Anápolis/GO,-16.3332828,-48.9525756,4562,1179.04596
D1,Anápolis/GO,-16.3332828,-48.9525756,138,35.66601
1,Anísio de Abreu/PI,-9.185643,-43.04941,94,951.41700
1,Aparecida d'Oeste/SP,-20.4498109,-50.8808706,35,834.12774
1,Aparecida de Goiânia/GO,-16.8226769,-49.2452546,16508,2855.17115
D1,Aparecida de Goiânia/GO,-16.8226769,-49.2452546,305,52.75183
1,Aparecida do Rio Doce/GO,-18.2980167,-51.1491312,44,1778.49636
D1,Aparecida do Rio Doce/GO,-18.2980167,-51.1491312,2,80.84074
1,Aparecida do Rio Negro/TO,-9.9513491,-47.9773786,25,521.37643
1,Aparecida do Taboado/MS,-20.0840304,-51.1013943,319,1239.07555
D1,Aparecida do Taboado/MS,-20.0840304,-51.1013943,6,23.30550
1,Aparecida/PB,-6.7859598, -38.0831353,81,970.40853
D1,Aparecida/PB,-6.7859598, -38.0831353,3,35.94106
1,Aparecida/SP,-22.851552,-45.2340924,203,561.44038
D1,Aparecida/SP,-22.851552,-45.2340924,2,5.53143
1,Aperibé/RJ,-21.6211928,-42.1028167,167,1420.18879
D1,Aperibé/RJ,-21.6211928,-42.1028167,6,51.02475
1,Apiacá/ES,-21.152272,-41.569297,117,1546.18739
D1,Apiacá/ES,-21.152272,-41.569297,4,52.86111
1,Apiacás/MT,-9.5678422,-57.394852,17,167.76868
D1,Apiacás/MT,-9.5678422,-57.394852,1,9.86875
1,Apiaí/SP,-24.5076527,-48.8461582,101,414.37597
D1,Apiaí/SP,-24.5076527,-48.8461582,5,20.51366
1,Apicum-Açu/MA,-1.5279295,-45.082278,197,1142.75770
D1,Apicum-Açu/MA,-1.5279295,-45.082278,3,17.40240
1,Apiúna/SC,-27.0374658,-49.3885037,55,511.96128
D1,Apiúna/SC,-27.0374658,-49.3885037,3,27.92516
1,Apodi/RN,-5.6631109,-37.796927,1481,4131.67806
D1,Apodi/RN,-5.6631109,-37.796927,21,58.58558
1,Aporá/BA,-11.6599747,-38.0794757,127,716.25966
D1,Aporá/BA,-11.6599747,-38.0794757,2,11.27968
1,Aporé/GO,-18.9642193,-51.92804,2,47.64173
D1,Aporé/GO,-18.9642193,-51.92804,1,23.82087
1,Apuarema/BA,-13.8517897,-39.7457126,244,3328.78581
D1,Apuarema/BA,-13.8517897,-39.7457126,1,13.64256
1,Apucarana/PR,-23.5525327,-51.4610764,484,358.52914
D1,Apucarana/PR,-23.5525327,-51.4610764,23,17.03754
1,Apuiarés/CE,-3.9460303,-39.4313298,207,1417.80822
D1,Apuiarés/CE,-3.9460303,-39.4313298,11,75.34247
1,Apuí/AM,-7.1940195,-59.8830192,126,573.43103
1,Aquidabã/SE,-10.2837579,-37.0188687,507,2351.24983
D1,Aquidabã/SE,-10.2837579,-37.0188687,11,51.01331
1,Aquidauana/MS,-20.473969,-55.7821375,1138,2377.22212
D1,Aquidauana/MS,-20.473969,-55.7821375,36,75.20211
1,Aquiraz/CE,-3.9063117,-38.387504,929,1157.32955
D1,Aquiraz/CE,-3.9063117,-38.387504,31,38.61918
1,Arabutã/SC,-27.1587028,-52.1438142,56,1312.39747
1,Aracaju/SE,-10.9162061,-37.0774655,32115,4888.03113
D1,Aracaju/SE,-10.9162061,-37.0774655,649,98.78039
1,Aracati/CE,-4.558259,-37.767894,1435,1924.96009
D1,Aracati/CE,-4.558259,-37.767894,48,64.38891
1,Aracatu/BA,-14.4274236,-41.4604105,25,190.33118
1,Araci/BA,-11.3356065,-38.9573261,879,1616.43281
D1,Araci/BA,-11.3356065,-38.9573261,9,16.55051
1,Aracitaba/MG,-21.3425,-43.378611,2,96.94619
1,Aracoiaba/CE,-4.3702577,-38.8084313,737,2784.38929
D1,Aracoiaba/CE,-4.3702577,-38.8084313,13,49.11406
1,Aracruz/ES,-19.8245218,-40.2735025,3013,2976.68445
D1,Aracruz/ES,-19.8245218,-40.2735025,66,65.20451
1,Aragarças/GO,-15.8957166,-52.2514538,504,2505.21921
D1,Aragarças/GO,-15.8957166,-52.2514538,13,64.61875
1,Aragoiânia/GO,-16.9146388,-49.4499148,153,1484.28405
D1,Aragoiânia/GO,-16.9146388,-49.4499148,2,19.40241
1,Aragominas/TO,-7.1654101,-48.525488,93,1615.14415
D1,Aragominas/TO,-7.1654101,-48.525488,2,34.73428
1,Araguacema/TO,-8.8067391,-49.5560969,15,211.68501
1,Araguaiana/MT,-15.729144,-51.834112,22,709.67742
1,Araguainha/MT,-16.857016,-53.031778,2,213.90374
1,Araguanã/MA,-2.9508403,-45.6651986,495,3208.86814
D1,Araguanã/MA,-2.9508403,-45.6651986,2,12.96512
1,Araguanã/TO,-6.5799107,-48.6428482,77,1344.03910
D1,Araguanã/TO,-6.5799107,-48.6428482,5,87.27527
1,Araguapaz/GO,-15.0937927,-50.626417,102,1312.74131
D1,Araguapaz/GO,-15.0937927,-50.626417,3,38.61004
1,Araguari/MG,-18.6511256,-48.1933764,1955,1667.13568
D1,Araguari/MG,-18.6511256,-48.1933764,54,46.04876
1,Araguatins/TO,-5.6522925,-48.1158973,603,1686.19446
D1,Araguatins/TO,-5.6522925,-48.1158973,22,61.51953
1,Araguaçu/TO,-12.928934,-49.823134,333,3909.82740
D1,Araguaçu/TO,-12.928934,-49.823134,6,70.44734
1,Araguaína/TO,-7.193241,-48.2018597,10008,5545.52003
D1,Araguaína/TO,-7.193241,-48.2018597,127,70.37181
1,Araioses/MA,-2.890914,-41.904993,542,1167.09733
D1,Araioses/MA,-2.890914,-41.904993,10,21.53316
1,Aral Moreira/MS,-22.951141,-55.6268421,31,255.16503
D1,Aral Moreira/MS,-22.951141,-55.6268421,1,8.23113
1,Aramari/BA,-12.0907897,-38.4985065,104,912.52084
1,Arambaré/RS,-30.9132252,-51.4994625,12,335.10193
D1,Arambaré/RS,-30.9132252,-51.4994625,1,27.92516
1,Arame/MA,-4.8858769,-46.0102484,760,2324.08795
D1,Arame/MA,-4.8858769,-46.0102484,7,21.40607
1,Aramina/SP,-20.0876144,-47.789201,65,1156.58363
D1,Aramina/SP,-20.0876144,-47.789201,1,17.79359
1,Arandu/SP,-23.1345103,-49.0545651,27,424.72865
D1,Arandu/SP,-23.1345103,-49.0545651,2,31.46138
1,Arantina/MG,-21.911667,-44.255833,8,286.22540
D1,Arantina/MG,-21.911667,-44.255833,1,35.77818
1,Arapeí/SP,-22.6738889,-44.4477778,3,121.50668
D1,Arapeí/SP,-22.6738889,-44.4477778,1,40.50223
1,Arapiraca/AL,-9.754866,-36.661471,10007,4318.07100
D1,Arapiraca/AL,-9.754866,-36.661471,124,53.50663
1,Arapoema/TO,-7.6575001,-49.0641484,49,737.61855
D1,Arapoema/TO,-7.6575001,-49.0641484,2,30.10688
1,Araponga/MG,-20.666667,-42.520556,1,11.84975
1,Arapongas/PR,-23.415296,-51.42592,1738,1412.69803
D1,Arapongas/PR,-23.415296,-51.42592,68,55.27242
1,Araporã/MG,-18.4318188,-49.188313,266,3872.47052
D1,Araporã/MG,-18.4318188,-49.188313,3,43.67448
1,Arapoti/PR,-24.1457957,-49.8224605,163,579.76169
D1,Arapoti/PR,-24.1457957,-49.8224605,1,3.55682
1,Araputanga/MT,-15.4710868,-58.346796,293,1741.76673
D1,Araputanga/MT,-15.4710868,-58.346796,4,23.77839
1,Arapuá/MG,-19.034444,-46.155556,18,635.14467
1,Arapuã/PR,-24.3079525,-51.7901941,29,945.24120
D1,Arapuã/PR,-24.3079525,-51.7901941,1,32.59452
1,Araquari/SC,-26.3703324,-48.7210994,589,1544.75596
D1,Araquari/SC,-26.3703324,-48.7210994,8,20.98141
1,Arara/PB,-6.8271895,-35.7605703,202,1499.62880
D1,Arara/PB,-6.8271895,-35.7605703,6,44.54343
1,Araranguá/SC,-28.9348832,-49.4858389,1479,2167.73172
D1,Araranguá/SC,-28.9348832,-49.4858389,31,45.43589
1,Araraquara/SP,-21.7886713,-48.1773096,2964,1255.54915
D1,Araraquara/SP,-21.7886713,-48.1773096,25,10.58999
1,Araras/SP,-22.3569477,-47.3838889,2172,1618.04583
D1,Araras/SP,-22.3569477,-47.3838889,53,39.48270
1,Ararendá/CE,-4.7504395,-40.8303611,45,411.52263
D1,Ararendá/CE,-4.7504395,-40.8303611,2,18.28989
1,Arari/MA,-3.4547602,-44.7772723,195,653.31010
D1,Arari/MA,-3.4547602,-44.7772723,7,23.45216
1,Araricá/RS,-29.6168543,-50.929121,46,807.30081
D1,Araricá/RS,-29.6168543,-50.929121,4,70.20007
1,Araripe/CE,-7.212861,-40.1359222,192,888.88889
D1,Araripe/CE,-7.212861,-40.1359222,2,9.25926
1,Araripina/PE,-7.5768582,-40.5038509,1183,1401.35990
D1,Araripina/PE,-7.5768582,-40.5038509,28,33.16828
1,Araruama/RJ,-22.8733203,-42.3428897,921,695.61934
D1,Araruama/RJ,-22.8733203,-42.3428897,51,38.51964
1,Araruna/PB,-6.5321155,-35.7397595,232,1142.18196
D1,Araruna/PB,-6.5321155,-35.7397595,7,34.46239
1,Araruna/PR,-23.9320308,-52.4976047,128,916.24911
D1,Araruna/PR,-23.9320308,-52.4976047,7,50.10737
1,Arataca/BA,-15.2617424,-39.4122943,136,1234.23178
D1,Arataca/BA,-15.2617424,-39.4122943,1,9.07523
1,Aratiba/RS,-27.3955734,-52.3024325,31,497.19326
D1,Aratiba/RS,-27.3955734,-52.3024325,1,16.03849
1,Aratuba/CE,-4.4195958,-39.0463737,216,1823.24639
D1,Aratuba/CE,-4.4195958,-39.0463737,1,8.44096
1,Aratuípe/BA,-13.077137,-39.0010786,72,815.86402
D1,Aratuípe/BA,-13.077137,-39.0010786,5,56.65722
1,Araucária/PR,-25.5861107,-49.4051209,2401,1669.18098
D1,Araucária/PR,-25.5861107,-49.4051209,39,27.11289
1,Arauá/SE,-11.2644014,-37.6181058,294,2923.62768
D1,Arauá/SE,-11.2644014,-37.6181058,7,69.61018
1,Araxá/MG,-19.5928536,-46.940241,728,685.31192
D1,Araxá/MG,-19.5928536,-46.940241,14,13.17908
1,Araçagi/PB,-6.8519969,-35.3835602,494,2908.10620
D1,Araçagi/PB,-6.8519969,-35.3835602,4,23.54742
1,Araçariguama/SP,-23.438611,-47.061389,269,1202.82597
D1,Araçariguama/SP,-23.438611,-47.061389,5,22.35736
1,Araças/BA,-12.2139176,-38.2026159,104,854.06915
D1,Araças/BA,-12.2139176,-38.2026159,1,8.21220
1,Araçatuba/SP,-21.207992,-50.4390225,5093,2585.06923
D1,Araçatuba/SP,-21.207992,-50.4390225,109,55.32546
1,Araçaí/MG,-19.200833,-44.2475,4,170.43034
1,Araçoiaba da Serra/SP,-23.5045367,-47.6168158,509,1490.65776
D1,Araçoiaba da Serra/SP,-23.5045367,-47.6168158,10,29.28601
1,Araçoiaba/PE,-7.7856903,-35.0898881,106,516.46852
D1,Araçoiaba/PE,-7.7856903,-35.0898881,12,58.46813
1,Araçu/GO,-16.3561579,-49.6815269,28,795.00284
1,Araçuaí/MG,-16.8484451,-42.0661868,32,87.17446
1,Araújos/MG,-19.948055,-45.165556,21,226.46393
1,Arceburgo/MG,-21.364444,-46.939722,29,269.21649
1,Arco-Íris/SP,-21.7741308,-50.4668814,7,390.84310
1,Arcos/MG,-20.282223,-45.539444,225,561.20922
D1,Arcos/MG,-20.282223,-45.539444,3,7.48279
1,Arcoverde/PE,-8.415192,-37.057748,830,1116.52183
D1,Arcoverde/PE,-8.415192,-37.057748,35,47.08225
1,Areado/MG,-21.3582771,-46.1476688,3,19.90710
1,Areal/RJ,-22.2314922,-43.1056264,150,1193.12759
D1,Areal/RJ,-22.2314922,-43.1056264,5,39.77092
1,Arealva/SP,-22.0301906,-48.9111936,89,1039.71963
D1,Arealva/SP,-22.0301906,-48.9111936,1,11.68224
1,Areia Branca/RN,-4.9506652,-37.1263312,722,2599.55354
D1,Areia Branca/RN,-4.9506652,-37.1263312,48,172.82350
1,Areia Branca/SE,-10.7591455,-37.3148072,632,3408.47805
D1,Areia Branca/SE,-10.7591455,-37.3148072,17,91.68375
1,Areia de Baraúnas/PB,-7.1233949,-36.9446216,11,516.91729
1,Areia/PB,-6.9680243,-35.6994783,411,1801.13064
D1,Areia/PB,-6.9680243,-35.6994783,3,13.14694
1,Areial/PB,-7.0501306,-35.9245244,48,685.91026
D1,Areial/PB,-7.0501306,-35.9245244,2,28.57959
1,Areias/SP,-22.5800929,-44.6975127,39,1003.60268
1,Areiópolis/SP,-22.6758064,-48.6673653,66,593.04520
D1,Areiópolis/SP,-22.6758064,-48.6673653,3,26.95660
1,Arenápolis/MT,-14.4610369,-56.8432806,187,1946.49735
D1,Arenápolis/MT,-14.4610369,-56.8432806,3,31.22723
1,Arenópolis/GO,-16.3859286,-51.55937,22,842.26646
1,Argirita/MG,-21.612761,-42.8371922,5,183.35167
D1,Argirita/MG,-21.612761,-42.8371922,1,36.67033
1,Aricanduva/MG,-17.8678,-42.5569,1,19.11680
1,Arinos/MG,-15.917223,-46.106111,52,290.90909
D1,Arinos/MG,-15.917223,-46.106111,1,5.59441
1,Aripuanã/MT,-10.175806,-59.4439663,207,926.00877
D1,Aripuanã/MT,-10.175806,-59.4439663,7,31.31431
1,Ariquemes/RO,-9.9076522,-63.033069,3971,3681.52193
D1,Ariquemes/RO,-9.9076522,-63.033069,63,58.40742
1,Ariranha do Ivaí/PR,-24.3834527,-51.5876772,15,711.57495
D1,Ariranha do Ivaí/PR,-24.3834527,-51.5876772,1,47.43833
1,Ariranha/SP,-21.18716,-48.790418,94,972.27969
D1,Ariranha/SP,-21.18716,-48.790418,3,31.03020
1,Armazém/SC,-28.2624996,-49.0190126,183,2109.75329
D1,Armazém/SC,-28.2624996,-49.0190126,4,46.11483
1,Armação dos Búzios/RJ,-22.7597805,-41.8875267,349,1030.41039
D1,Armação dos Búzios/RJ,-22.7597805,-41.8875267,11,32.47712
1,Arneiroz/CE,-6.3235099,-40.1603859,41,522.95918
D1,Arneiroz/CE,-6.3235099,-40.1603859,2,25.51020
1,Aroazes/PI,-6.1108814,-41.7886137,45,771.20823
D1,Aroazes/PI,-6.1108814,-41.7886137,2,34.27592
1,Aroeiras do Itaim/PI,-7.2797031,-41.5629681,24,940.80753
1,Aroeiras/PB,-7.5462904,-35.7080002,205,1070.32841
1,Arraial do Cabo/RJ,-22.9662839,-42.024427,148,487.66022
D1,Arraial do Cabo/RJ,-22.9662839,-42.024427,6,19.77001
1,Arraias/TO,-12.9287788,-46.9437231,39,369.07353
1,Arroio Grande/RS,-32.2384246,-53.0866661,29,158.53059
1,Arroio Trinta/SC,-26.9301976,-51.334928,51,1436.61972
1,Arroio do Meio/RS,-29.4020392,-51.9444993,313,1504.44605
1,Arroio do Sal/RS,-29.549852,-49.8874395,58,576.25435
D1,Arroio do Sal/RS,-29.549852,-49.8874395,3,29.80626
1,Arroio do Tigre/RS,-29.334158,-53.0888935,18,134.59957
1,Arroio dos Ratos/RS,-30.0894524,-51.7265541,73,515.86460
D1,Arroio dos Ratos/RS,-30.0894524,-51.7265541,7,49.46647
1,Artur Nogueira/SP,-22.572737,-47.172679,577,1060.50581
D1,Artur Nogueira/SP,-22.572737,-47.172679,11,20.21762
1,Aruanã/GO,-14.9162439,-51.0715692,47,475.94937
1,Arujá/SP,-23.396266,-46.3175449,1479,1646.55326
D1,Arujá/SP,-23.396266,-46.3175449,68,75.70360
1,Arvoredo/SC,-27.0752908,-52.4571847,40,1785.71429
D1,Arvoredo/SC,-27.0752908,-52.4571847,1,44.64286
1,Arvorezinha/RS,-28.87369,-52.17808,29,278.20414
D1,Arvorezinha/RS,-28.87369,-52.17808,3,28.77974
1,Arês/RN,-6.1969216,-35.1642968,202,1411.99497
D1,Arês/RN,-6.1969216,-35.1642968,9,62.91067
1,Ascurra/SC,-26.9569975,-49.3767752,107,1348.62617
D1,Ascurra/SC,-26.9569975,-49.3767752,2,25.20797
1,Aspásia/SP,-20.160028,-50.728046,29,1591.65752
1,Assaré/CE,-6.8746791,-39.8741385,280,1195.71252
D1,Assaré/CE,-6.8746791,-39.8741385,7,29.89281
1,Assaí/PR,-23.3736041,-50.8454929,186,1230.24010
D1,Assaí/PR,-23.3736041,-50.8454929,7,46.29936
1,Assis Brasil/AC,-10.9409203,-69.5672108,454,6121.07321
D1,Assis Brasil/AC,-10.9409203,-69.5672108,9,121.34286
1,Assis Chateaubriand/PR,-24.4054826,-53.5120468,352,1055.09262
D1,Assis Chateaubriand/PR,-24.4054826,-53.5120468,4,11.98969
1,Assis/SP,-22.6620892,-50.420623,882,844.94089
D1,Assis/SP,-22.6620892,-50.420623,20,19.15966
1,Assunção do Piauí/PI,-5.8610212,-41.0485091,115,1465.71501
D1,Assunção do Piauí/PI,-5.8610212,-41.0485091,1,12.74535
1,Assunção/PB,-7.073396,-36.7274003,45,1127.81955
1,Astolfo Dutra/MG,-21.3132636,-42.8624102,91,641.79420
D1,Astolfo Dutra/MG,-21.3132636,-42.8624102,2,14.10537
1,Astorga/PR,-23.2350184,-51.6647074,260,995.74892
D1,Astorga/PR,-23.2350184,-51.6647074,4,15.31921
1,Atalaia do Norte/AM,-4.3658547,-70.1908742,848,4256.81442
D1,Atalaia do Norte/AM,-4.3658547,-70.1908742,4,20.07931
1,Atalaia/AL,-9.5029595,-36.0219316,550,1165.62467
D1,Atalaia/AL,-9.5029595,-36.0219316,17,36.02840
1,Atalaia/PR,-23.1513833,-52.0529697,62,1593.01131
D1,Atalaia/PR,-23.1513833,-52.0529697,1,25.69373
1,Atalanta/SC,-27.421916,-49.778863,13,404.98442
1,Ataléia/MG,-18.04432,-41.1110524,83,645.01088
D1,Ataléia/MG,-18.04432,-41.1110524,3,23.31365
1,Atibaia/SP,-23.1177393,-46.5547861,1155,809.04449
D1,Atibaia/SP,-23.1177393,-46.5547861,42,29.41980
1,Atilio Vivacqua/ES,-20.9139369,-41.1947519,283,2370.97855
D1,Atilio Vivacqua/ES,-20.9139369,-41.1947519,5,41.89008
1,Augustinópolis/TO,-5.4662267,-47.8897519,530,2878.55746
D1,Augustinópolis/TO,-5.4662267,-47.8897519,5,27.15620
1,Augusto Corrêa/PA,-1.0229335,-46.6404029,1199,2606.63507
D1,Augusto Corrêa/PA,-1.0229335,-46.6404029,20,43.48015
1,Augusto Pestana/RS,-28.5148413,-53.9906433,2,30.02552
1,Augusto de Lima/MG,-18.1092963,-44.2651945,31,636.68104
1,Aurelino Leal/BA,-14.3167137,-39.3256107,343,2974.59024
D1,Aurelino Leal/BA,-14.3167137,-39.3256107,4,34.68910
1,Auriflama/SP,-20.6840418,-50.5554616,287,1889.52531
D1,Auriflama/SP,-20.6840418,-50.5554616,8,52.66970
1,Aurilândia/GO,-16.6772599,-50.4641231,37,1185.89744
1,Aurora do Pará/PA,-2.1323199,-47.558436,603,1924.18150
D1,Aurora do Pará/PA,-2.1323199,-47.558436,7,22.33710
1,Aurora do Tocantins/TO,-12.71045,-46.407604,16,425.87171
1,Aurora/CE,-6.9426019,-38.9693765,188,762.55374
D1,Aurora/CE,-6.9426019,-38.9693765,11,44.61751
1,Aurora/SC,-27.3166417,-49.6368502,53,933.26290
1,Autazes/AM,-3.5833283,-59.1301518,1203,3040.56616
D1,Autazes/AM,-3.5833283,-59.1301518,36,90.98951
1,Avanhandava/SP,-21.4603331,-49.9465156,93,681.36860
D1,Avanhandava/SP,-21.4603331,-49.9465156,2,14.65309
1,Avaré/SP,-23.1045215,-48.9259103,392,432.40858
D1,Avaré/SP,-23.1045215,-48.9259103,14,15.44316
1,Avaí/SP,-22.1564662,-49.3316395,39,721.82121
D1,Avaí/SP,-22.1564662,-49.3316395,1,18.50824
1,Aveiro/PA,-3.6049239,-55.3310742,391,2385.89212
D1,Aveiro/PA,-3.6049239,-55.3310742,4,24.40810
1,Avelino Lopes/PI,-10.1346855,-43.9489525,18,159.44725
D1,Avelino Lopes/PI,-10.1346855,-43.9489525,2,17.71636
1,Avelinópolis/GO,-16.4672409,-49.7578661,54,2234.17460
D1,Avelinópolis/GO,-16.4672409,-49.7578661,1,41.37360
1,Axixá do Tocantins/TO,-5.612747,-47.77007,164,1681.01681
D1,Axixá do Tocantins/TO,-5.612747,-47.77007,3,30.75031
1,Axixá/MA,-2.8379465,-44.0561053,123,1014.01484
D1,Axixá/MA,-2.8379465,-44.0561053,3,24.73207
1,Açailândia/MA,-4.9514278,-47.4844564,2985,2654.63115
D1,Açailândia/MA,-4.9514278,-47.4844564,77,68.47792
1,Açu/RN,-5.5836157,-36.9139541,1233,2125.23915
D1,Açu/RN,-5.5836157,-36.9139541,51,87.90527
1,Açucena/MG,-19.073056,-42.546666,48,506.86378
D1,Açucena/MG,-19.073056,-42.546666,2,21.11932
1,Babaçulândia/TO,-7.2034355,-47.761613,118,1106.52663
D1,Babaçulândia/TO,-7.2034355,-47.761613,2,18.75469
1,Bacabal/MA,-4.2318132,-44.781167,3120,2972.87254
D1,Bacabal/MA,-4.2318132,-44.781167,47,44.78366
1,Bacabeira/MA,-2.9775747,-44.3155943,144,844.32718
D1,Bacabeira/MA,-2.9775747,-44.3155943,2,11.72677
1,Bacuri/MA,-1.728894,-45.1417148,412,2217.19944
D1,Bacuri/MA,-1.728894,-45.1417148,3,16.14466
1,Bacurituba/MA,-2.7082587,-44.7381309,39,690.99929
1,Bady Bassitt/SP,-20.9178969,-49.4517911,592,3382.47057
D1,Bady Bassitt/SP,-20.9178969,-49.4517911,14,79.99086
1,Baependi/MG,-21.959162,-44.8899249,60,313.34865
D1,Baependi/MG,-21.959162,-44.8899249,1,5.22248
1,Bagre/PA,-1.8994498,-50.2103844,308,1004.14045
D1,Bagre/PA,-1.8994498,-50.2103844,10,32.60196
1,Bagé/RS,-31.3314264,-54.1062808,544,449.05607
D1,Bagé/RS,-31.3314264,-54.1062808,8,6.60377
1,Baianópolis/BA,-12.3067564,-44.5383591,57,410.75160
1,Baixa Grande do Ribeiro/PI,-7.862861,-45.2113289,708,6110.82341
D1,Baixa Grande do Ribeiro/PI,-7.862861,-45.2113289,8,69.04885
1,Baixa Grande/BA,-11.9630941,-40.1657537,23,112.37053
D1,Baixa Grande/BA,-11.9630941,-40.1657537,2,9.77135
1,Baixio/CE,-6.7303544,-38.7170095,75,1192.74809
D1,Baixio/CE,-6.7303544,-38.7170095,1,15.90331
1,Baixo Guandu/ES,-19.5138322,-41.0182089,612,1974.32092
D1,Baixo Guandu/ES,-19.5138322,-41.0182089,15,48.39022
1,Baião/PA,-2.7903479,-49.6702845,326,687.09691
D1,Baião/PA,-2.7903479,-49.6702845,14,29.50723
1,Balbinos/SP,-21.9006253,-49.3583966,80,1394.94333
D1,Balbinos/SP,-21.9006253,-49.3583966,1,17.43679
1,Baldim/MG,-19.2913568,-43.9558262,19,242.78048
D1,Baldim/MG,-19.2913568,-43.9558262,1,12.77792
1,Baliza/GO,-16.1978119,-52.542789,12,233.55391
1,Balneário Arroio do Silva/SC,-28.9815269,-49.4189932,322,2463.46875
D1,Balneário Arroio do Silva/SC,-28.9815269,-49.4189932,5,38.25262
1,Balneário Barra do Sul/SC,-26.459842,-48.6061471,387,3584.99305
D1,Balneário Barra do Sul/SC,-26.459842,-48.6061471,3,27.79064
1,Balneário Camboriú/SC,-26.9924395,-48.6339782,5436,3820.23262
D1,Balneário Camboriú/SC,-26.9924395,-48.6339782,72,50.59911
1,Balneário Gaivota/SC,-29.1553098,-49.5808712,131,1193.18699
D1,Balneário Gaivota/SC,-29.1553098,-49.5808712,4,36.43319
1,Balneário Pinhal/RS,-30.2482978,-50.234585,42,298.54990
D1,Balneário Pinhal/RS,-30.2482978,-50.234585,1,7.10833
1,Balneário Piçarras/SC,-26.7638889,-48.6716667,501,2164.42736
D1,Balneário Piçarras/SC,-26.7638889,-48.6716667,9,38.88193
1,Balneário Rincão/SC,-28.8235718,-49.2241642,193,1512.53918
D1,Balneário Rincão/SC,-28.8235718,-49.2241642,7,54.85893
1,Balsa Nova/PR,-25.5842234,-49.6312741,180,1390.92806
D1,Balsa Nova/PR,-25.5842234,-49.6312741,3,23.18213
1,Balsas/MA,-7.53214,-46.037163,4405,4642.36408
D1,Balsas/MA,-7.53214,-46.037163,27,28.45490
1,Bambuí/MG,-20.0131996,-45.9777034,25,104.91418
1,Banabuiú/CE,-5.3046404,-38.919766,489,2687.25614
D1,Banabuiú/CE,-5.3046404,-38.919766,3,16.48623
1,Bananal/SP,-22.6828195,-44.3221095,125,1142.07401
D1,Bananal/SP,-22.6828195,-44.3221095,1,9.13659
1,Bananeiras/PB,-6.7537682,-35.6338343,271,1271.22619
D1,Bananeiras/PB,-6.7537682,-35.6338343,2,9.38174
1,Bandeira do Sul/MG,-21.728056,-46.385555,12,208.84093
1,Bandeira/MG,-15.884444,-40.559167,198,4129.30136
D1,Bandeira/MG,-15.884444,-40.559167,1,20.85506
1,Bandeirante/SC,-26.7677402,-53.6397596,6,224.04780
1,Bandeirantes do Tocantins/TO,-7.7635698,-48.579148,24,675.48551
D1,Bandeirantes do Tocantins/TO,-7.7635698,-48.579148,1,28.14523
1,Bandeirantes/MS,-19.9179623,-54.3646768,61,898.64467
1,Bandeirantes/PR,-23.107788,-50.370407,358,1141.32687
D1,Bandeirantes/PR,-23.107788,-50.370407,13,41.44483
1,Bannach/PA,-7.3508505,-50.4064531,108,3286.67072
D1,Bannach/PA,-7.3508505,-50.4064531,2,60.86427
1,Banzaê/BA,-10.5827616,-38.6122305,113,854.18399
1,Baraúna/PB,-6.643394,-36.2531932,135,2759.60752
1,Baraúna/RN,-5.0775002,-37.61752,387,1363.92472
D1,Baraúna/RN,-5.0775002,-37.61752,12,42.29224
1,Barbacena/MG,-21.2254524,-43.7735087,582,423.84916
D1,Barbacena/MG,-21.2254524,-43.7735087,10,7.28263
1,Barbalha/CE,-7.3121067,-39.3036427,1019,1676.51075
D1,Barbalha/CE,-7.3121067,-39.3036427,44,72.39104
1,Barbosa Ferraz/PR,-24.0287182,-52.00811,117,1011.41079
D1,Barbosa Ferraz/PR,-24.0287182,-52.00811,4,34.57815
1,Barbosa/SP,-21.265661,-49.951816,92,1242.90732
1,Barcarena/PA,-1.5107945,-48.6190679,3822,3065.44755
D1,Barcarena/PA,-1.5107945,-48.6190679,106,85.01765
1,Barcelona/RN,-5.9514918,-35.9260284,32,800.40020
D1,Barcelona/RN,-5.9514918,-35.9260284,2,50.02501
1,Barcelos/AM,-0.9729214,-62.925635,2347,8533.92481
D1,Barcelos/AM,-0.9729214,-62.925635,24,87.26638
1,Bariri/SP,-22.0746355,-48.7394852,446,1264.74592
D1,Bariri/SP,-22.0746355,-48.7394852,10,28.35753
1,Barra Bonita/SC,-26.6526364,-53.4419581,2,119.26058
1,Barra Bonita/SP,-22.490859,-48.558349,451,1248.40835
D1,Barra Bonita/SP,-22.490859,-48.558349,10,27.68089
1,Barra D'Alcântara/PI,-6.5209258,-42.1071089,10,253.10048
1,Barra Funda/RS,-27.9230048,-53.0401045,65,2560.06302
D1,Barra Funda/RS,-27.9230048,-53.0401045,2,78.77117
1,Barra Longa/MG,-20.2833541,-43.0423516,59,1149.87332
1,Barra Mansa/RJ,-22.5394843,-44.1735129,1374,745.07082
D1,Barra Mansa/RJ,-22.5394843,-44.1735129,83,45.00792
1,Barra Velha/SC,-26.6338203,-48.6835001,494,1693.63686
D1,Barra Velha/SC,-26.6338203,-48.6835001,9,30.85573
1,Barra da Estiva/BA,-13.6269662,-41.3278287,7,33.98388
1,Barra de Guabiraba/PE,-8.4173522,-35.6626669,167,1160.93153
D1,Barra de Guabiraba/PE,-8.4173522,-35.6626669,11,76.46854
1,Barra de Santa Rosa/PB,-6.7218007,-36.0564638,73,474.51898
D1,Barra de Santa Rosa/PB,-6.7218007,-36.0564638,1,6.50026
1,Barra de Santana/PB,-7.5230865,-35.9988518,103,1232.20481
D1,Barra de Santana/PB,-7.5230865,-35.9988518,3,35.88946
1,Barra de Santo Antônio/AL,-9.4038098,-35.5117693,125,784.58448
D1,Barra de Santo Antônio/AL,-9.4038098,-35.5117693,9,56.49008
1,Barra de São Francisco/ES,-18.7570902,-40.8916119,514,1151.17581
D1,Barra de São Francisco/ES,-18.7570902,-40.8916119,20,44.79283
1,Barra de São Miguel/AL,-9.8261357,-35.8837777,134,1610.18986
D1,Barra de São Miguel/AL,-9.8261357,-35.8837777,5,60.08171
1,Barra de São Miguel/PB,-7.7528088,-36.3170996,53,878.06494
D1,Barra de São Miguel/PB,-7.7528088,-36.3170996,1,16.56726
1,Barra do Bugres/MT,-15.0683712,-57.1853688,361,1032.43150
D1,Barra do Bugres/MT,-15.0683712,-57.1853688,10,28.59921
1,Barra do Chapéu/SP,-24.472203,-49.023784,42,733.75262
D1,Barra do Chapéu/SP,-24.472203,-49.023784,1,17.47030
1,Barra do Choça/BA,-14.8638173,-40.5761637,323,1022.05487
D1,Barra do Choça/BA,-14.8638173,-40.5761637,3,9.49277
1,Barra do Corda/MA,-5.496823,-45.248496,3144,3564.14093
D1,Barra do Corda/MA,-5.496823,-45.248496,24,27.20718
1,Barra do Garças/MT,-15.8916033,-52.2615413,1187,1945.51891
D1,Barra do Garças/MT,-15.8916033,-52.2615413,62,101.61935
1,Barra do Guarita/RS,-27.1888016,-53.7147086,54,1662.56158
1,Barra do Jacaré/PR,-23.1151788,-50.1813945,15,539.37433
1,Barra do Mendes/BA,-11.8053298,-42.057037,10,72.12405
1,Barra do Ouro/TO,-7.7113784,-47.6743925,31,675.23415
D1,Barra do Ouro/TO,-7.7113784,-47.6743925,4,87.12699
1,Barra do Piraí/RJ,-22.4703403,-43.8263256,846,842.84775
D1,Barra do Piraí/RJ,-22.4703403,-43.8263256,42,41.84351
1,Barra do Quaraí/RS,-30.208947,-57.5505128,12,284.69751
D1,Barra do Quaraí/RS,-30.208947,-57.5505128,1,23.72479
1,Barra do Ribeiro/RS,-30.2930206,-51.301437,77,570.75087
D1,Barra do Ribeiro/RS,-30.2930206,-51.301437,7,51.88644
1,Barra do Rio Azul/RS,-27.4101581,-52.4117471,4,236.68639
1,Barra do Rocha/BA,-14.2090974,-39.6004395,61,1067.55338
1,Barra do Turvo/SP,-24.756421,-48.5056942,92,1201.20120
D1,Barra do Turvo/SP,-24.756421,-48.5056942,2,26.11307
1,Barra dos Coqueiros/SE,-10.9075694,-37.0386249,1076,3538.65886
D1,Barra dos Coqueiros/SE,-10.9075694,-37.0386249,19,62.48561
1,Barra/BA,-11.0892702,-43.1420453,129,240.77047
D1,Barra/BA,-11.0892702,-43.1420453,3,5.59931
1,Barracão/PR,-26.252395,-53.6349576,54,525.54745
D1,Barracão/PR,-26.252395,-53.6349576,1,9.73236
1,Barracão/RS,-27.6728964,-51.4582928,31,587.67773
D1,Barracão/RS,-27.6728964,-51.4582928,1,18.95735
1,Barras/PI,-4.2446153,-42.2920241,2175,4621.17027
D1,Barras/PI,-4.2446153,-42.2920241,47,99.85977
1,Barreira/CE,-4.2883361,-38.641094,310,1382.38573
D1,Barreira/CE,-4.2883361,-38.641094,19,84.72687
1,Barreiras do Piauí/PI,-9.9224524,-45.4763776,16,477.89725
1,Barreiras/BA,-12.1440031,-44.9967406,2942,1892.70389
D1,Barreiras/BA,-12.1440031,-44.9967406,46,29.59360
1,Barreirinha/AM,-2.798863,-57.067897,816,2546.73699
D1,Barreirinha/AM,-2.798863,-57.067897,12,37.45201
1,Barreirinhas/MA,-2.7541271,-42.8259693,613,980.36080
D1,Barreirinhas/MA,-2.7541271,-42.8259693,23,36.78352
1,Barreiros/PE,-8.8159644,-35.1831905,291,682.15382
D1,Barreiros/PE,-8.8159644,-35.1831905,40,93.76685
1,Barretos/SP,-20.5531437,-48.5697509,2906,2380.05537
D1,Barretos/SP,-20.5531437,-48.5697509,88,72.07325
1,Barrinha/SP,-21.1898849,-48.1550642,477,1453.73644
D1,Barrinha/SP,-21.1898849,-48.1550642,19,57.90564
1,Barro Alto/BA,-11.7618025,-41.9094904,17,113.85708
1,Barro Alto/GO,-14.9696025,-48.9190985,153,1370.10835
1,Barro Duro/PI,-5.8180139,-42.5106589,254,3612.05916
D1,Barro Duro/PI,-5.8180139,-42.5106589,4,56.88282
1,Barro Preto/BA,-14.8068289,-39.4727588,201,3595.06349
D1,Barro Preto/BA,-14.8068289,-39.4727588,3,53.65766
1,Barro/CE,-7.1713587,-38.7742136,113,498.23633
D1,Barro/CE,-7.1713587,-38.7742136,8,35.27337
1,Barrocas/BA,-11.5165,-39.099282894736845,88,550.75729
1,Barrolândia/TO,-9.837246,-48.7264346,58,1029.82955
D1,Barrolândia/TO,-9.837246,-48.7264346,1,17.75568
1,Barroquinha/CE,-3.0200371,-41.1339229,746,4967.70327
D1,Barroquinha/CE,-3.0200371,-41.1339229,17,113.20503
1,Barros Cassal/RS,-29.094938,-52.5832366,14,125.01116
D1,Barros Cassal/RS,-29.094938,-52.5832366,1,8.92937
1,Barroso/MG,-21.187222,-43.976111,115,552.61893
1,Barueri/SP,-23.5112184,-46.8764612,5070,1849.13670
D1,Barueri/SP,-23.5112184,-46.8764612,306,111.60470
1,Barão de Antonina/SP,-23.6295651,-49.5632104,10,288.26751
1,Barão de Cocais/MG,-19.9452437,-43.4870298,336,1034.32353
D1,Barão de Cocais/MG,-19.9452437,-43.4870298,2,6.15669
1,Barão de Cotegipe/RS,-27.6214694,-52.3765316,88,1328.70300
D1,Barão de Cotegipe/RS,-27.6214694,-52.3765316,3,45.29669
1,Barão de Grajaú/MA,-6.7542591,-43.0263477,16,85.01594
D1,Barão de Grajaú/MA,-6.7542591,-43.0263477,1,5.31350
1,Barão de Melgaço/MT,-16.195776,-55.9668049,82,957.49650
D1,Barão de Melgaço/MT,-16.195776,-55.9668049,4,46.70715
1,Barão de Monte Alto/MG,-21.244722,-42.2375,47,870.85418
D1,Barão de Monte Alto/MG,-21.244722,-42.2375,1,18.52881
1,Barão do Triunfo/RS,-30.3909877,-51.7375349,45,601.04181
D1,Barão do Triunfo/RS,-30.3909877,-51.7375349,1,13.35648
1,Barão/RS,-29.372474,-51.494908,45,729.21731
D1,Barão/RS,-29.372474,-51.494908,2,32.40966
1,Bastos/SP,-21.9222474,-50.7317727,47,224.31155
D1,Bastos/SP,-21.9222474,-50.7317727,1,4.77259
1,Bataguassu/MS,-21.715899,-52.422058,700,3040.30577
D1,Bataguassu/MS,-21.715899,-52.422058,4,17.37318
1,Batalha/AL,-9.6733809,-37.1265481,465,2550.46073
D1,Batalha/AL,-9.6733809,-37.1265481,6,32.90917
1,Batalha/PI,-4.022391,-42.0780926,326,1213.83624
D1,Batalha/PI,-4.022391,-42.0780926,7,26.06397
1,Batatais/SP,-20.892867,-47.592149,319,510.33468
D1,Batatais/SP,-20.892867,-47.592149,17,27.19652
1,Batayporã/MS,-22.2976466,-53.2685608,87,767.94068
D1,Batayporã/MS,-22.2976466,-53.2685608,3,26.48071
1,Baturité/CE,-4.3290203,-38.8821055,534,1493.70629
D1,Baturité/CE,-4.3290203,-38.8821055,28,78.32168
1,Bauru/SP,-22.3218102,-49.0705863,5803,1540.00074
D1,Bauru/SP,-22.3218102,-49.0705863,121,32.11099
1,Bayeux/PB,-7.1301631,-34.936532,1715,1770.23121
D1,Bayeux/PB,-7.1301631,-34.936532,92,94.96284
1,Baía Formosa/RN,-6.3691885,-35.0063741,85,916.83745
D1,Baía Formosa/RN,-6.3691885,-35.0063741,4,43.14529
1,Baía da Traição/PB,-6.691258,-34.9371244,602,6694.09541
D1,Baía da Traição/PB,-6.691258,-34.9371244,5,55.59880
1,Bebedouro/SP,-20.949077,-48.479083,432,557.44813
D1,Bebedouro/SP,-20.949077,-48.479083,21,27.09817
1,Beberibe/CE,-4.1810469,-38.1298101,715,1334.62752
D1,Beberibe/CE,-4.1810469,-38.1298101,28,52.26513
1,Bela Cruz/CE,-3.0529129,-40.167582,1149,3525.51318
D1,Bela Cruz/CE,-3.0529129,-40.167582,20,61.36663
1,Bela Vista da Caroba/PR,-25.8792818,-53.6672545,17,484.19254
1,Bela Vista de Goiás/GO,-16.9692949,-48.9513071,486,1621.35113
D1,Bela Vista de Goiás/GO,-16.9692949,-48.9513071,7,23.35279
1,Bela Vista de Minas/MG,-19.8289721,-43.0973688,29,282.78888
D1,Bela Vista de Minas/MG,-19.8289721,-43.0973688,1,9.75134
1,Bela Vista do Maranhão/MA,-3.7416367,-45.2514192,125,1115.17531
D1,Bela Vista do Maranhão/MA,-3.7416367,-45.2514192,3,26.76421
1,Bela Vista do Paraíso/PR,-22.9948493,-51.1907996,94,610.50854
D1,Bela Vista do Paraíso/PR,-22.9948493,-51.1907996,4,25.97909
1,Bela Vista do Piauí/PI,-7.9716353,-41.8715061,10,249.06600
1,Bela Vista do Toldo/SC,-26.274625,-50.466354,5,78.90169
1,Bela Vista/MS,-22.107327,-56.5317344,18,73.08458
1,Belford Roxo/RJ,-22.7667284,-43.4033603,6442,1260.89731
D1,Belford Roxo/RJ,-22.7667284,-43.4033603,239,46.77964
1,Belmiro Braga/MG,-21.9486291,-43.413564,12,349.95626
D1,Belmiro Braga/MG,-21.9486291,-43.413564,2,58.32604
1,Belmonte/BA,-15.8630837,-38.8792845,346,1483.19616
D1,Belmonte/BA,-15.8630837,-38.8792845,2,8.57339
1,Belmonte/SC,-26.8448262,-53.578916,2,73.90983
1,Belo Campo/BA,-15.0338286,-41.2585109,13,75.53309
1,Belo Horizonte/MG,-19.9227318,-43.9450948,29273,1165.29396
D1,Belo Horizonte/MG,-19.9227318,-43.9450948,838,33.35894
1,Belo Jardim/PE,-8.3338293,-36.4176419,829,1084.52492
D1,Belo Jardim/PE,-8.3338293,-36.4176419,29,37.93875
1,Belo Monte/AL,-9.8269944,-37.2787165,71,1059.06921
D1,Belo Monte/AL,-9.8269944,-37.2787165,2,29.83294
1,Belo Oriente/MG,-19.2232523,-42.4807033,370,1385.76779
D1,Belo Oriente/MG,-19.2232523,-42.4807033,8,29.96255
1,Belo Vale/MG,-20.407778,-44.024167,63,816.59106
D1,Belo Vale/MG,-20.407778,-44.024167,1,12.96176
1,Belterra/PA,-2.636091,-54.937392,221,1246.33431
D1,Belterra/PA,-2.636091,-54.937392,7,39.47665
1,Belágua/MA,-3.1604031,-43.5085052,201,2691.12331
D1,Belágua/MA,-3.1604031,-43.5085052,1,13.38867
1,Belém de Maria/PE,-8.6242497,-35.8388934,85,704.05036
D1,Belém de Maria/PE,-8.6242497,-35.8388934,1,8.28295
1,Belém do Brejo do Cruz/PB,-6.1880727,-37.5332267,37,503.94988
D1,Belém do Brejo do Cruz/PB,-6.1880727,-37.5332267,1,13.62027
1,Belém do Piauí/PI,-7.3767305,-40.9712156,62,1738.64274
D1,Belém do Piauí/PI,-7.3767305,-40.9712156,2,56.08525
1,Belém do São Francisco/PE,-8.7517707,-38.9625715,72,347.33948
1,Belém/AL,-9.5715351,-36.492841,50,1151.01289
D1,Belém/AL,-9.5715351,-36.492841,1,23.02026
1,Belém/PA,-1.45056,-48.4682453,30004,2009.98831
D1,Belém/PA,-1.45056,-48.4682453,2079,139.27362
1,Belém/PB,-6.6967586,-35.5369626,982,5555.55556
D1,Belém/PB,-6.6967586,-35.5369626,10,56.57389
1,Beneditinos/PI,-5.4565671,-42.3605061,187,1786.56731
D1,Beneditinos/PI,-5.4565671,-42.3605061,6,57.32302
1,Benedito Leite/MA,-7.2173453,-44.5523331,97,1722.30114
1,Benedito Novo/SC,-26.7840657,-49.3629511,100,858.22176
D1,Benedito Novo/SC,-26.7840657,-49.3629511,2,17.16444
1,Benevides/PA,-1.3555577,-48.252235,1329,2118.36715
D1,Benevides/PA,-1.3555577,-48.252235,49,78.10383
1,Benjamin Constant do Sul/RS,-27.5105555,-52.6007689,64,3209.62889
1,Benjamin Constant/AM,-4.3782748,-70.0290603,1535,3571.09622
D1,Benjamin Constant/AM,-4.3782748,-70.0290603,35,81.42565
1,Bento Fernandes/RN,-5.6926846,-35.8207423,23,418.41004
D1,Bento Fernandes/RN,-5.6926846,-35.8207423,1,18.19174
1,Bento Gonçalves/RS,-29.1654014,-51.5197627,2648,2198.34958
D1,Bento Gonçalves/RS,-29.1654014,-51.5197627,97,80.52867
1,Bento de Abreu/SP,-21.2707225,-50.8120444,29,973.15436
1,Bequimão/MA,-2.4495376,-44.7884889,206,968.04511
D1,Bequimão/MA,-2.4495376,-44.7884889,10,46.99248
1,Berilo/MG,-16.9515764,-42.4643732,5,41.90412
1,Bernardino Batista/PB,-6.4532173,-38.5495418,8,228.50614
1,Bernardino de Campos/SP,-23.0140216,-49.4760724,80,717.61751
D1,Bernardino de Campos/SP,-23.0140216,-49.4760724,3,26.91066
1,Bernardo Sayão/TO,-7.8794244,-48.8968905,28,627.94349
D1,Bernardo Sayão/TO,-7.8794244,-48.8968905,1,22.42655
1,Bernardo do Mearim/MA,-4.6315929,-44.7617508,49,810.85554
D1,Bernardo do Mearim/MA,-4.6315929,-44.7617508,3,49.64422
1,Bertioga/SP,-23.848568,-46.139586,1456,2302.01268
D1,Bertioga/SP,-23.848568,-46.139586,34,53.75579
1,Bertolínia/PI,-7.6372159,-43.9540611,112,2035.99346
1,Bertópolis/MG,-17.063333,-40.573889,7,152.04170
1,Beruri/AM,-3.9007135,-61.3717319,713,3623.15158
D1,Beruri/AM,-3.9007135,-61.3717319,8,40.65247
1,Betim/MG,-19.968056,-44.198333,3670,835.34392
D1,Betim/MG,-19.968056,-44.198333,141,32.09359
1,Betânia do Piauí/PI,-8.1460635,-40.7961387,14,225.62450
D1,Betânia do Piauí/PI,-8.1460635,-40.7961387,1,16.11604
1,Betânia/PE,-8.2742779,-38.0351767,48,377.38816
D1,Betânia/PE,-8.2742779,-38.0351767,2,15.72451
1,Bezerros/PE,-8.2372132,-35.7558262,815,1340.50462
D1,Bezerros/PE,-8.2372132,-35.7558262,41,67.43643
1,Bias Fortes/MG,-21.605833,-43.756944,13,384.72921
1,Bicas/MG,-21.7213723,-43.0604327,37,255.27805
1,Biguaçu/SC,-27.4961277,-48.6542432,1561,2279.46438
D1,Biguaçu/SC,-27.4961277,-48.6542432,25,36.50648
1,Bilac/SP,-21.403962,-50.47464,67,833.95569
D1,Bilac/SP,-21.403962,-50.47464,2,24.89420
1,Biquinhas/MG,-18.783611,-45.502222,27,1073.55865
1,Birigui/SP,-21.2908491,-50.34144,1557,1259.32157
D1,Birigui/SP,-21.2908491,-50.34144,58,46.91114
1,Biritiba-Mirim/SP,-23.5697765,-46.0407456,264,809.86564
D1,Biritiba-Mirim/SP,-23.5697765,-46.0407456,18,55.21811
1,Biritinga/BA,-11.6227908,-38.8066738,66,413.04212
1,Bituruna/PR,-26.161281,-51.5533319,34,207.45622
D1,Bituruna/PR,-26.161281,-51.5533319,1,6.10165
1,Blumenau/SC,-26.9195567,-49.0658025,7669,2146.98249
D1,Blumenau/SC,-26.9195567,-49.0658025,105,29.39538
1,Boa Esperança do Iguaçu/PR,-25.6362851,-53.2139114,32,1278.46584
1,Boa Esperança do Sul/SP,-21.9930206,-48.3917372,119,797.42679
D1,Boa Esperança do Sul/SP,-21.9930206,-48.3917372,3,20.10320
1,Boa Esperança/ES,-18.5395472,-40.2904088,311,2068.23170
D1,Boa Esperança/ES,-18.5395472,-40.2904088,13,86.45341
1,Boa Esperança/MG,-21.0901253,-45.5660195,78,194.38283
D1,Boa Esperança/MG,-21.0901253,-45.5660195,7,17.44461
1,Boa Esperança/PR,-24.2411024,-52.7860277,31,755.17661
1,Boa Hora/PI,-4.4094627,-42.1255341,84,1238.75535
1,Boa Nova/BA,-14.365907,-40.2063056,64,506.60967
D1,Boa Nova/BA,-14.365907,-40.2063056,2,15.83155
1,Boa Ventura/PB,-7.4202462,-38.2156782,6,111.81513
1,Boa Viagem/CE,-5.1261877,-39.7300055,429,787.58950
D1,Boa Viagem/CE,-5.1261877,-39.7300055,21,38.55333
1,Boa Vista da Aparecida/PR,-25.4357216,-53.4067721,86,1132.92056
D1,Boa Vista da Aparecida/PR,-25.4357216,-53.4067721,2,26.34699
1,Boa Vista das Missões/RS,-27.6677983,-53.3127622,4,190.65777
1,Boa Vista do Buricá/RS,-27.6687782,-54.1111913,47,700.23838
1,Boa Vista do Cadeado/RS,-28.5783827,-53.8123759,4,161.94332
1,Boa Vista do Gurupi/MA,-1.7981168,-46.3071882,13,139.98062
D1,Boa Vista do Gurupi/MA,-1.7981168,-46.3071882,3,32.30322
1,Boa Vista do Incra/RS,-28.8195551,-53.3866624,10,384.17211
1,Boa Vista do Ramos/AM,-2.9716927,-57.5869819,307,1598.37559
D1,Boa Vista do Ramos/AM,-2.9716927,-57.5869819,2,10.41287
1,Boa Vista do Sul/RS,-29.3510488,-51.6779679,39,1401.36543
D1,Boa Vista do Sul/RS,-29.3510488,-51.6779679,1,35.93245
1,Boa Vista do Tupim/BA,-12.6605988,-40.6083594,28,150.73213
1,Boa Vista/PB,-7.2620711,-36.2415161,97,1375.69139
D1,Boa Vista/PB,-7.2620711,-36.2415161,1,14.18239
1,Boa Vista/RR,2.8208478,-60.6719582,30710,7692.63526
D1,Boa Vista/RR,2.8208478,-60.6719582,446,111.71981
1,Boca da Mata/AL,-9.6452054,-36.2116658,1172,4296.03020
D1,Boca da Mata/AL,-9.6452054,-36.2116658,20,73.31110
1,Boca do Acre/AM,-8.7553487,-67.3930873,1028,2996.38568
D1,Boca do Acre/AM,-8.7553487,-67.3930873,11,32.06249
1,Bocaina de Minas/MG,-22.167778,-44.394722,10,196.46365
1,Bocaina do Sul/SC,-27.745494,-49.942279,11,316.63788
D1,Bocaina do Sul/SC,-27.745494,-49.942279,1,28.78526
1,Bocaina/PI,-6.9445939,-41.3224599,96,2133.33333
1,Bocaina/SP,-22.1421831,-48.522276,100,811.09579
D1,Bocaina/SP,-22.1421831,-48.522276,3,24.33287
1,Bocaiúva do Sul/PR,-25.206591,-49.114131,154,1189.74042
D1,Bocaiúva do Sul/PR,-25.206591,-49.114131,2,15.45117
1,Bocaiúva/MG,-17.1160208,-43.8122678,139,278.11681
D1,Bocaiúva/MG,-17.1160208,-43.8122678,2,4.00168
1,Bodocó/PE,-7.777592,-39.933797,166,435.17014
D1,Bodocó/PE,-7.777592,-39.933797,7,18.35055
1,Bodoquena/MS,-20.5508775,-56.6769653,7,88.88889
1,Bodó/RN,-5.9866104,-36.4134824,7,314.88979
1,Bofete/SP,-23.1019554,-48.2610535,103,878.09037
D1,Bofete/SP,-23.1019554,-48.2610535,3,25.57545
1,Boituva/SP,-23.2838893,-47.6738231,616,1009.88573
D1,Boituva/SP,-23.2838893,-47.6738231,15,24.59137
1,Bom Conselho/PE,-9.169191,-36.685683,535,1101.86596
D1,Bom Conselho/PE,-9.169191,-36.685683,17,35.01256
1,Bom Despacho/MG,-19.7375242,-45.2517288,315,622.46814
D1,Bom Despacho/MG,-19.7375242,-45.2517288,4,7.90436
1,Bom Jardim da Serra/SC,-28.3380324,-49.625588,65,1370.44065
D1,Bom Jardim da Serra/SC,-28.3380324,-49.625588,1,21.08370
1,Bom Jardim de Goiás/GO,-16.2062659,-52.172793,97,1097.16095
D1,Bom Jardim de Goiás/GO,-16.2062659,-52.172793,2,22.62188
1,Bom Jardim de Minas/MG,-21.9476466,-44.1906033,4,61.78560
1,Bom Jardim/MA,-3.54129,-45.606004,805,1933.70166
D1,Bom Jardim/MA,-3.54129,-45.606004,22,52.84650
1,Bom Jardim/PE,-7.7961572,-35.5871696,523,1334.72846
D1,Bom Jardim/PE,-7.7961572,-35.5871696,25,63.80155
1,Bom Jardim/RJ,-22.1515328,-42.4186683,119,433.57866
D1,Bom Jardim/RJ,-22.1515328,-42.4186683,3,10.93055
1,Bom Jesus da Lapa/BA,-13.250571,-43.410754,223,322.49667
D1,Bom Jesus da Lapa/BA,-13.250571,-43.410754,1,1.44617
1,Bom Jesus da Penha/MG,-21.0165299,-46.5226644,19,450.55727
1,Bom Jesus da Serra/BA,-14.3724084,-40.5047119,74,748.98785
1,Bom Jesus das Selvas/MA,-4.4878075,-46.8526639,1476,4337.60433
D1,Bom Jesus das Selvas/MA,-4.4878075,-46.8526639,10,29.38756
1,Bom Jesus de Goiás/GO,-18.2174587,-49.739721,169,670.20939
D1,Bom Jesus de Goiás/GO,-18.2174587,-49.739721,5,19.82868
1,Bom Jesus do Amparo/MG,-19.7045132,-43.4752911,21,345.22440
1,Bom Jesus do Araguaia/MT,-12.1725897,-51.5074425,53,805.47112
1,Bom Jesus do Galho/MG,-19.8283191,-42.3162256,74,495.48042
D1,Bom Jesus do Galho/MG,-19.8283191,-42.3162256,6,40.17409
1,Bom Jesus do Itabapoana/RJ,-21.1341025,-41.680095,645,1738.73194
D1,Bom Jesus do Itabapoana/RJ,-21.1341025,-41.680095,16,43.13133
1,Bom Jesus do Norte/ES,-21.1254776,-41.6711646,256,2576.48953
D1,Bom Jesus do Norte/ES,-21.1254776,-41.6711646,5,50.32206
1,Bom Jesus do Oeste/SC,-26.6929713,-53.0967453,11,513.53875
1,Bom Jesus do Sul/PR,-26.1922507,-53.6002033,13,367.12793
D1,Bom Jesus do Sul/PR,-26.1922507,-53.6002033,1,28.24061
1,Bom Jesus do Tocantins/PA,-5.0471796,-48.5978362,317,1866.79230
D1,Bom Jesus do Tocantins/PA,-5.0471796,-48.5978362,2,11.77787
1,Bom Jesus do Tocantins/TO,-8.96306,-48.165043,51,1042.09236
1,Bom Jesus dos Perdões/SP,-23.1353864,-46.4648052,186,730.90223
D1,Bom Jesus dos Perdões/SP,-23.1353864,-46.4648052,1,3.92958
1,Bom Jesus/PB,-6.8156725,-38.6551841,10,390.47247
1,Bom Jesus/PI,-9.0711644,-44.3583926,911,3618.09444
D1,Bom Jesus/PI,-9.0711644,-44.3583926,9,35.74407
1,Bom Jesus/RN,-5.9887544,-35.5821149,113,1106.75808
D1,Bom Jesus/RN,-5.9887544,-35.5821149,3,29.38296
1,Bom Jesus/RS,-28.6692723,-50.4346894,86,757.77602
1,Bom Jesus/SC,-26.7350604,-52.3916519,74,2458.47176
1,Bom Lugar/MA,-4.3728019,-45.0366054,205,1258.13183
D1,Bom Lugar/MA,-4.3728019,-45.0366054,1,6.13723
1,Bom Princípio do Piauí/PI,-3.1912777,-41.6430185,39,692.71758
D1,Bom Princípio do Piauí/PI,-3.1912777,-41.6430185,3,53.28597
1,Bom Princípio/RS,-29.489788,-51.3566782,244,1736.03700
D1,Bom Princípio/RS,-29.489788,-51.3566782,1,7.11491
1,Bom Progresso/RS,-27.5490948,-53.8655601,12,617.91967
1,Bom Repouso/MG,-22.4657069,-46.1485376,32,303.40381
D1,Bom Repouso/MG,-22.4657069,-46.1485376,2,18.96274
1,Bom Retiro do Sul/RS,-29.6000007,-51.9359243,161,1305.97015
D1,Bom Retiro do Sul/RS,-29.6000007,-51.9359243,3,24.33485
1,Bom Retiro/SC,-27.798993,-49.486994,66,662.25166
D1,Bom Retiro/SC,-27.798993,-49.486994,2,20.06823
1,Bom Sucesso de Itararé/SP,-24.3190016,-49.1446207,2,50.58169
1,Bom Sucesso do Sul/PR,-26.0749256,-52.8348629,4,122.54902
1,Bom Sucesso/MG,-21.0323516,-44.7598082,23,130.65955
D1,Bom Sucesso/MG,-21.0323516,-44.7598082,1,5.68085
1,Bom Sucesso/PB,-6.4458948,-37.9297662,23,462.31156
1,Bom Sucesso/PR,-23.7088019,-51.7651297,74,1052.33220
D1,Bom Sucesso/PR,-23.7088019,-51.7651297,1,14.22071
1,Bombinhas/SC,-27.1519159,-48.4875691,902,4562.69918
D1,Bombinhas/SC,-27.1519159,-48.4875691,7,35.40897
1,Bonfim do Piauí/PI,-9.1648678,-42.8734415,68,1199.29453
D1,Bonfim do Piauí/PI,-9.1648678,-42.8734415,1,17.63668
1,Bonfim/MG,-20.3266626, -44.2386157,24,349.44671
D1,Bonfim/MG,-20.3266626, -44.2386157,2,29.12056
1,Bonfim/RR,3.3613818,-59.8427241,664,5350.95495
D1,Bonfim/RR,3.3613818,-59.8427241,11,88.64534
1,Bonfinópolis de Minas/MG,-16.5660011,-45.98645,56,1019.47934
D1,Bonfinópolis de Minas/MG,-16.5660011,-45.98645,1,18.20499
1,Bonfinópolis/GO,-16.6172709,-48.9615701,194,1998.76365
D1,Bonfinópolis/GO,-16.6172709,-48.9615701,5,51.51453
1,Boninal/BA,-12.7095183,-41.8299984,7,48.71938
D1,Boninal/BA,-12.7095183,-41.8299984,1,6.95991
1,Bonito de Minas/MG,-15.3191266,-44.7544,4,35.61888
1,Bonito de Santa Fé/PB,-7.3143332,-38.5146677,31,260.13258
D1,Bonito de Santa Fé/PB,-7.3143332,-38.5146677,1,8.39137
1,Bonito/BA,-11.9665473,-41.2649896,33,196.85039
D1,Bonito/BA,-11.9665473,-41.2649896,2,11.93033
1,Bonito/MS,-21.1264766,-56.4902208,256,1164.90717
D1,Bonito/MS,-21.1264766,-56.4902208,1,4.55042
1,Bonito/PA,-1.3605722,-47.3049907,247,1516.64006
D1,Bonito/PA,-1.3605722,-47.3049907,7,42.98170
1,Bonito/PE,-8.4721161,-35.7314591,278,729.00823
D1,Bonito/PE,-8.4721161,-35.7314591,23,60.31363
1,Bonópolis/GO,-13.649331,-49.8329113,16,363.22361
D1,Bonópolis/GO,-13.649331,-49.8329113,1,22.70148
1,Boqueirão do Leão/RS,-29.30332,-52.4296817,7,90.74410
1,Boqueirão do Piauí/PI,-4.4850148,-42.1095161,127,1982.20696
D1,Boqueirão do Piauí/PI,-4.4850148,-42.1095161,1,15.60793
1,Boqueirão/PB,-7.487004,-36.130887,366,2055.71782
D1,Boqueirão/PB,-7.487004,-36.130887,6,33.70029
1,Boquim/SE,-11.1450175,-37.6204228,427,1592.33294
D1,Boquim/SE,-11.1450175,-37.6204228,13,48.47852
1,Boquira/BA,-12.8184859,-42.7270883,27,125.53468
1,Boracéia/SP,-22.195355,-48.7801925,62,1285.50695
D1,Boracéia/SP,-22.195355,-48.7801925,1,20.73398
1,Borba/AM,-4.3934778,-59.5947721,696,1690.92102
D1,Borba/AM,-4.3934778,-59.5947721,22,53.44865
1,Borborema/PB,-6.8066718,-35.5990191,40,760.02280
1,Borborema/SP,-21.6212706,-49.074135,100,623.20828
D1,Borborema/SP,-21.6212706,-49.074135,1,6.23208
1,Borda da Mata/MG,-22.274167,-46.165278,180,927.26149
D1,Borda da Mata/MG,-22.274167,-46.165278,10,51.51453
1,Borebi/SP,-22.5700178,-48.9714871,26,980.02262
D1,Borebi/SP,-22.5700178,-48.9714871,1,37.69318
1,Borrazópolis/PR,-23.9393362,-51.5850786,42,637.13592
1,Borá/SP,-22.2701088,-50.544407,2,238.94863
1,Bossoroca/RS,-28.7278885,-54.9120278,16,254.81765
D1,Bossoroca/RS,-28.7278885,-54.9120278,1,15.92610
1,Botelhos/MG,-21.65,-46.394722,44,293.90154
D1,Botelhos/MG,-21.65,-46.394722,1,6.67958
1,Botucatu/SP,-22.8879628,-48.4410712,1638,1118.11163
D1,Botucatu/SP,-22.8879628,-48.4410712,29,19.79563
1,Botuporã/BA,-13.3744752,-42.5198469,3,29.38008
D1,Botuporã/BA,-13.3744752,-42.5198469,1,9.79336
1,Botuverá/SC,-27.200749,-49.068892,118,2249.33283
1,Bozano/RS,-28.3669953,-53.7705165,4,188.41262
1,Braga/RS,-27.617348,-53.740514,12,357.88846
1,Braganey/PR,-24.8179919,-53.118506,45,829.18740
D1,Braganey/PR,-24.8179919,-53.118506,2,36.85277
1,Bragança Paulista/SP,-22.9520235,-46.5418586,1946,1153.74582
D1,Bragança Paulista/SP,-22.9520235,-46.5418586,45,26.67963
1,Bragança/PA,-1.0573967,-46.7635406,2167,1697.13203
D1,Bragança/PA,-1.0573967,-46.7635406,93,72.83492
1,Branquinha/AL,-9.2478057,-36.0152009,242,2306.07966
D1,Branquinha/AL,-9.2478057,-36.0152009,6,57.17553
1,Brasil Novo/PA,-3.3055853,-52.539198,624,4136.28530
D1,Brasil Novo/PA,-3.3055853,-52.539198,9,59.65796
1,Brasileira/PI,-4.131182,-41.7824969,81,972.50570
D1,Brasileira/PI,-4.131182,-41.7824969,1,12.00624
1,Brasilândia de Minas/MG,-17.0096469,-46.0087183,104,628.85476
D1,Brasilândia de Minas/MG,-17.0096469,-46.0087183,1,6.04668
1,Brasilândia do Sul/PR,-24.1975793,-53.527551,22,829.87552
1,Brasilândia do Tocantins/TO,-8.3886619,-48.4842729,14,636.07451
1,Brasilândia/MS,-21.255575,-52.0365617,80,673.85445
D1,Brasilândia/MS,-21.255575,-52.0365617,2,16.84636
1,Brasiléia/AC,-11.0010413,-68.7487894,1064,4049.01438
D1,Brasiléia/AC,-11.0010413,-68.7487894,16,60.88743
1,Brasnorte/MT,-12.1227151,-58.0050109,76,385.88474
1,Brasília de Minas/MG,-16.2075114,-44.430559,37,114.38464
D1,Brasília de Minas/MG,-16.2075114,-44.430559,2,6.18295
1,Brasília/DF,-15.7934036,-47.8823172,147127,4879.40044
D1,Brasília/DF,-15.7934036,-47.8823172,2257,74.85238
1,Brazabrantes/GO,-16.4291635,-49.3858216,64,1728.32838
D1,Brazabrantes/GO,-16.4291635,-49.3858216,2,54.01026
1,Brazópolis/MG,-22.4742842,-45.6165577,202,1397.05374
D1,Brazópolis/MG,-22.4742842,-45.6165577,2,13.83222
1,Braço do Norte/SC,-28.2728633,-49.1622712,1418,4239.16293
D1,Braço do Norte/SC,-28.2728633,-49.1622712,12,35.87444
1,Braço do Trombudo/SC,-27.358578,-49.882145,29,774.77959
D1,Braço do Trombudo/SC,-27.358578,-49.882145,1,26.71654
1,Braúna/SP,-21.5015319,-50.3175246,67,1178.33275
D1,Braúna/SP,-21.5015319,-50.3175246,4,70.34822
1,Braúnas/MG,-19.055556,-42.716111,15,312.43491
D1,Braúnas/MG,-19.055556,-42.716111,1,20.82899
1,Brejetuba/ES,-20.1465817,-41.2902303,379,3055.46598
1,Brejinho de Nazaré/TO,-11.0205883,-48.5722906,54,982.35401
D1,Brejinho de Nazaré/TO,-11.0205883,-48.5722906,3,54.57522
1,Brejinho/PE,-7.3482153,-37.28538,58,774.67611
1,Brejinho/RN,-6.1957907,-35.3583019,145,1141.82219
D1,Brejinho/RN,-6.1957907,-35.3583019,3,23.62391
1,Brejo Alegre/SP,-21.1671191,-50.1850393,27,942.40838
1,Brejo Grande do Araguaia/PA,-5.7011449,-48.4037308,207,2804.87805
D1,Brejo Grande do Araguaia/PA,-5.7011449,-48.4037308,2,27.10027
1,Brejo Grande/SE,-10.4287358,-36.4667918,159,1913.58768
D1,Brejo Grande/SE,-10.4287358,-36.4667918,6,72.21086
1,Brejo Santo/CE,-7.4909841,-38.9859152,1102,2227.29753
D1,Brejo Santo/CE,-7.4909841,-38.9859152,19,38.40168
1,Brejo da Madre de Deus/PE,-8.1409718,-36.3712527,823,1621.93055
D1,Brejo da Madre de Deus/PE,-8.1409718,-36.3712527,18,35.47357
1,Brejo de Areia/MA,-4.3316785,-45.5833334,196,2133.21724
D1,Brejo de Areia/MA,-4.3316785,-45.5833334,1,10.88376
1,Brejo do Cruz/PB,-6.32926065,-37.48746163303929,388,2747.48619
D1,Brejo do Cruz/PB,-6.32926065,-37.48746163303929,6,42.48690
1,Brejo do Piauí/PI,-8.207583,-42.8359849,9,232.25806
1,Brejo dos Santos/PB,-6.3769367,-37.8243125,29,449.68212
1,Brejo/MA,-3.6804397,-42.7529313,638,1752.89172
D1,Brejo/MA,-3.6804397,-42.7529313,18,49.45463
1,Brejolândia/BA,-12.4843845,-43.9611861,4,37.88955
D1,Brejolândia/BA,-12.4843845,-43.9611861,1,9.47239
1,Brejão/PE,-9.029146,-36.566034,25,277.99400
1,Brejões/BA,-13.1033754,-39.7909837,33,230.84995
1,Breu Branco/PA,-3.7785073,-49.5684795,281,425.46104
D1,Breu Branco/PA,-3.7785073,-49.5684795,19,28.76783
1,Breves/PA,-1.68036,-50.479085,2067,2012.63863
D1,Breves/PA,-1.68036,-50.479085,85,82.76453
1,Britânia/GO,-15.2427599,-51.1602061,45,778.68143
D1,Britânia/GO,-15.2427599,-51.1602061,1,17.30403
1,Brochier/RS,-29.556766,-51.5963047,22,433.58297
1,Brodowski/SP,-20.984532,-47.657217,354,1419.46349
D1,Brodowski/SP,-20.984532,-47.657217,12,48.11741
1,Brotas/SP,-22.2840884,-48.1267265,81,331.92640
D1,Brotas/SP,-22.2840884,-48.1267265,1,4.09786
1,Brumadinho/MG,-20.143611,-44.2,632,1575.94195
D1,Brumadinho/MG,-20.143611,-44.2,5,12.46790
1,Brumado/BA,-14.29507325,-41.659307508575985,683,1016.44468
D1,Brumado/BA,-14.29507325,-41.659307508575985,7,10.41744
1,Brunópolis/SC,-27.310953,-50.837585,27,1115.70248
1,Brusque/SC,-27.0964628,-48.9136323,3909,2901.50902
D1,Brusque/SC,-27.0964628,-48.9136323,50,37.11319
1,Brás Pires/MG,-20.8483109,-43.2430524,5,115.39349
1,Bueno Brandão/MG,-22.441976,-46.3517971,39,354.51323
D1,Bueno Brandão/MG,-22.441976,-46.3517971,3,27.27025
1,Buenos Aires/PE,-7.7218931,-35.326587,44,334.47358
D1,Buenos Aires/PE,-7.7218931,-35.326587,6,45.61003
1,Buenópolis/MG,-17.8756607,-44.1749365,87,839.36324
D1,Buenópolis/MG,-17.8756607,-44.1749365,1,9.64785
1,Buerarema/BA,-14.9571177,-39.3008035,376,2049.15799
D1,Buerarema/BA,-14.9571177,-39.3008035,11,59.94877
1,Bugre/MG,-19.4257687,-42.2556,41,1029.63335
D1,Bugre/MG,-19.4257687,-42.2556,1,25.11301
1,Bujari/AC,-9.8309656,-67.9520886,355,3458.01675
D1,Bujari/AC,-9.8309656,-67.9520886,6,58.44535
1,Bujaru/PA,-1.5169239,-48.0410699,500,1716.32569
D1,Bujaru/PA,-1.5169239,-48.0410699,20,68.65303
1,Buri/SP,-23.79849,-48.598924,211,1061.47500
D1,Buri/SP,-23.79849,-48.598924,4,20.12275
1,Buritama/SP,-21.0664017,-50.1448077,198,1154.92301
D1,Buritama/SP,-21.0664017,-50.1448077,9,52.49650
1,Buriti Alegre/GO,-18.1377879,-49.0404411,191,2019.24093
1,Buriti Bravo/MA,-5.8391884,-43.8367876,247,1034.16513
1,Buriti de Goiás/GO,-16.180644,-50.4287479,45,1808.68167
D1,Buriti de Goiás/GO,-16.180644,-50.4287479,1,40.19293
1,Buriti do Tocantins/TO,-5.3187439,-48.2256609,182,1603.80684
1,Buriti dos Lopes/PI,-3.1776723,-41.8707444,677,3422.47611
D1,Buriti dos Lopes/PI,-3.1776723,-41.8707444,12,60.66427
1,Buriti dos Montes/PI,-5.3136171,-41.0971256,11,133.43037
D1,Buriti dos Montes/PI,-5.3136171,-41.0971256,1,12.13003
1,Buriti/MA,-3.9430944,-42.9244281,500,1743.49676
D1,Buriti/MA,-3.9430944,-42.9244281,1,3.48699
1,Buriticupu/MA,-4.3227472,-46.4516989,2093,2892.56198
D1,Buriticupu/MA,-4.3227472,-46.4516989,4,5.52807
1,Buritinópolis/GO,-14.4589282,-46.4293104,29,880.92345
1,Buritirama/BA,-10.7148421,-43.6362327,151,713.13876
D1,Buritirama/BA,-10.7148421,-43.6362327,2,9.44555
1,Buritirana/MA,-5.5897455,-47.0148915,235,1523.00713
D1,Buritirana/MA,-5.5897455,-47.0148915,6,38.88529
1,Buritis/MG,-15.621389,-46.423889,183,736.68532
D1,Buritis/MG,-15.621389,-46.423889,1,4.02560
1,Buritis/RO,-10.2054937,-63.8281954,431,1086.90170
D1,Buritis/RO,-10.2054937,-63.8281954,7,17.65270
1,Buritizal/SP,-20.1933264,-47.7097165,50,1115.82236
1,Buritizeiro/MG,-17.3667765,-44.9647781,138,491.87340
D1,Buritizeiro/MG,-17.3667765,-44.9647781,4,14.25720
1,Butiá/RS,-30.1256795,-51.9692224,143,682.87092
D1,Butiá/RS,-30.1256795,-51.9692224,7,33.42725
1,Buíque/PE,-8.6239732,-37.157296,275,471.06787
D1,Buíque/PE,-8.6239732,-37.157296,5,8.56487
1,Bálsamo/SP,-20.7343722,-49.5807484,251,2767.97530
D1,Bálsamo/SP,-20.7343722,-49.5807484,8,88.22232
0,CASO SEM LOCALIZAÇÃO DEFINIDA/AC,-9.884083190922777,-67.85119819780795,328,37.19095
0,CASO SEM LOCALIZAÇÃO DEFINIDA/AL,-9.931093434363673,-35.609611600637464,827,24.78009
D0,CASO SEM LOCALIZAÇÃO DEFINIDA/AL,-9.931093434363673,-35.609611600637464,16,0.47942
0,CASO SEM LOCALIZAÇÃO DEFINIDA/AM,-3.07518492149711,-60.16169212873594,2488,60.02996
D0,CASO SEM LOCALIZAÇÃO DEFINIDA/AM,-3.07518492149711,-60.16169212873594,33,0.79622
0,CASO SEM LOCALIZAÇÃO DEFINIDA/AP,2.677150600275196,-50.477785111870624,428,50.60711
D0,CASO SEM LOCALIZAÇÃO DEFINIDA/AP,2.677150600275196,-50.477785111870624,4,0.47296
0,CASO SEM LOCALIZAÇÃO DEFINIDA/BA,-13.415069300066518,-38.14174656569957,11132,74.84672
D0,CASO SEM LOCALIZAÇÃO DEFINIDA/BA,-13.415069300066518,-38.14174656569957,174,1.16990
0,CASO SEM LOCALIZAÇÃO DEFINIDA/CE,-3.3445126297392798,-38.624961942434304,4389,48.06135
D0,CASO SEM LOCALIZAÇÃO DEFINIDA/CE,-3.3445126297392798,-38.624961942434304,43,0.47087
0,CASO SEM LOCALIZAÇÃO DEFINIDA/ES,-20.30989267097039,-39.81745156645774,1625,40.43646
D0,CASO SEM LOCALIZAÇÃO DEFINIDA/ES,-20.30989267097039,-39.81745156645774,28,0.69675
0,CASO SEM LOCALIZAÇÃO DEFINIDA/GO,-16.701590966270153,-49.164524059025034,1066,15.18875
D0,CASO SEM LOCALIZAÇÃO DEFINIDA/GO,-16.701590966270153,-49.164524059025034,47,0.66967
0,CASO SEM LOCALIZAÇÃO DEFINIDA/MA,-2.171256551718846,-43.98946796681719,2013,28.45157
D0,CASO SEM LOCALIZAÇÃO DEFINIDA/MA,-2.171256551718846,-43.98946796681719,25,0.35335
0,CASO SEM LOCALIZAÇÃO DEFINIDA/MG,-19.97049116501593,-43.8852149072783,10901,51.49562
D0,CASO SEM LOCALIZAÇÃO DEFINIDA/MG,-19.97049116501593,-43.8852149072783,346,1.63448
0,CASO SEM LOCALIZAÇÃO DEFINIDA/MS,-20.391549234908513,-54.645156949758444,2507,90.21276
D0,CASO SEM LOCALIZAÇÃO DEFINIDA/MS,-20.391549234908513,-54.645156949758444,54,1.94315
0,CASO SEM LOCALIZAÇÃO DEFINIDA/MT,-15.54791153961863,-56.17143998972475,15876,455.62218
D0,CASO SEM LOCALIZAÇÃO DEFINIDA/MT,-15.54791153961863,-56.17143998972475,373,10.70465
0,CASO SEM LOCALIZAÇÃO DEFINIDA/PB,-7.1049355696146606,-34.68696690234351,1525,37.95301
D0,CASO SEM LOCALIZAÇÃO DEFINIDA/PB,-7.1049355696146606,-34.68696690234351,44,1.09504
0,CASO SEM LOCALIZAÇÃO DEFINIDA/PE,-8.121628543819208,-34.57313921302556,1922,20.11076
D0,CASO SEM LOCALIZAÇÃO DEFINIDA/PE,-8.121628543819208,-34.57313921302556,123,1.28701
0,CASO SEM LOCALIZAÇÃO DEFINIDA/PR,-25.69415946385943,-48.10141676336737,5834,51.02346
D0,CASO SEM LOCALIZAÇÃO DEFINIDA/PR,-25.69415946385943,-48.10141676336737,100,0.87459
0,CASO SEM LOCALIZAÇÃO DEFINIDA/RJ,-23.210238986465157,-43.12864305824042,4548,26.34240
D0,CASO SEM LOCALIZAÇÃO DEFINIDA/RJ,-23.210238986465157,-43.12864305824042,193,1.11787
0,CASO SEM LOCALIZAÇÃO DEFINIDA/RN,-5.749310788669161,-34.95302586257457,1552,44.25620
D0,CASO SEM LOCALIZAÇÃO DEFINIDA/RN,-5.749310788669161,-34.95302586257457,86,2.45234
0,CASO SEM LOCALIZAÇÃO DEFINIDA/RO,-8.681174926655274,-63.9216949899276,848,47.71484
D0,CASO SEM LOCALIZAÇÃO DEFINIDA/RO,-8.681174926655274,-63.9216949899276,16,0.90028
0,CASO SEM LOCALIZAÇÃO DEFINIDA/RR,2.813328208465927,-60.663338675861986,1035,170.85946
D0,CASO SEM LOCALIZAÇÃO DEFINIDA/RR,2.813328208465927,-60.663338675861986,3,0.49524
0,CASO SEM LOCALIZAÇÃO DEFINIDA/RS,-30.50647488532064,-49.906261466443524,4504,39.58781
D0,CASO SEM LOCALIZAÇÃO DEFINIDA/RS,-30.50647488532064,-49.906261466443524,53,0.46584
0,CASO SEM LOCALIZAÇÃO DEFINIDA/SC,-27.675643660562308,-48.18313219398259,5741,80.12798
D0,CASO SEM LOCALIZAÇÃO DEFINIDA/SC,-27.675643660562308,-48.18313219398259,32,0.44663
0,CASO SEM LOCALIZAÇÃO DEFINIDA/SE,-11.03002091978736,-36.89283180376513,750,32.62719
D0,CASO SEM LOCALIZAÇÃO DEFINIDA/SE,-11.03002091978736,-36.89283180376513,14,0.60904
0,CASO SEM LOCALIZAÇÃO DEFINIDA/SP,-24.30968974555485,-46.21366504207253,13436,29.26019
D0,CASO SEM LOCALIZAÇÃO DEFINIDA/SP,-24.30968974555485,-46.21366504207253,237,0.51613
0,CASO SEM LOCALIZAÇÃO DEFINIDA/TO,-10.213012114749148,-48.40023803990334,991,63.00600
D0,CASO SEM LOCALIZAÇÃO DEFINIDA/TO,-10.213012114749148,-48.40023803990334,17,1.08083
1,Caapiranga/AM,-3.3188884,-61.2096404,277,2117.57511
D1,Caapiranga/AM,-3.3188884,-61.2096404,6,45.86805
1,Caaporã/PB,-7.510234,-34.9154114,925,4237.67638
D1,Caaporã/PB,-7.510234,-34.9154114,12,54.97526
1,Caarapó/MS,-22.6349267,-54.8240903,290,961.09233
D1,Caarapó/MS,-22.6349267,-54.8240903,1,3.31411
1,Caatiba/BA,-14.9782759,-40.4092325,167,2471.14531
1,Cabaceiras do Paraguaçu/BA,-12.5377868,-39.1901339,51,271.17563
D1,Cabaceiras do Paraguaçu/BA,-12.5377868,-39.1901339,1,5.31717
1,Cabaceiras/PB,-7.4899156,-36.2860501,62,1104.97238
1,Cabeceira Grande/MG,-16.0297,-47.0906,23,330.98288
1,Cabeceiras do Piauí/PI,-4.4733665,-42.3098716,188,1775.93047
D1,Cabeceiras do Piauí/PI,-4.4733665,-42.3098716,2,18.89288
1,Cabeceiras/GO,-15.7995459,-46.9264991,28,350.30652
D1,Cabeceiras/GO,-15.7995459,-46.9264991,3,37.53284
1,Cabedelo/PB,-6.97324,-34.8351609,2659,3925.53443
D1,Cabedelo/PB,-6.97324,-34.8351609,58,85.62655
1,Cabixi/RO,-13.4956065,-60.5424442,70,1317.77108
D1,Cabixi/RO,-13.4956065,-60.5424442,4,75.30120
1,Cabo Frio/RJ,-22.8804369,-42.0189227,1864,822.86723
D1,Cabo Frio/RJ,-22.8804369,-42.0189227,102,45.02814
1,Cabo Verde/MG,-21.4743338,-46.3964995,9,63.94316
1,Cabo de Santo Agostinho/PE,-8.2838945,-35.0320984,1625,784.84216
D1,Cabo de Santo Agostinho/PE,-8.2838945,-35.0320984,225,108.67045
1,Cabreúva/SP,-23.3075813,-47.1324417,970,1951.43541
D1,Cabreúva/SP,-23.3075813,-47.1324417,36,72.42441
1,Cabrobó/PE,-8.5083701,-39.3106961,371,1084.12963
D1,Cabrobó/PE,-8.5083701,-39.3106961,2,5.84436
1,Cabrália Paulista/SP,-22.4562909,-49.3385645,59,1383.67730
1,Cacaulândia/RO,-10.3380043,-62.9007231,59,947.03050
1,Cacequi/RS,-29.8838059,-54.8273443,13,103.49494
1,Cachoeira Alta/GO,-18.7618269,-50.9432431,347,2779.55783
D1,Cachoeira Alta/GO,-18.7618269,-50.9432431,5,40.05127
1,Cachoeira Dourada/GO,-18.4934204,-49.481062,31,384.28164
1,Cachoeira Dourada/MG,-18.517136,-49.5002062,4,148.58841
1,Cachoeira Grande/MA,-2.9290492,-44.0573223,171,1813.16934
D1,Cachoeira Grande/MA,-2.9290492,-44.0573223,4,42.41332
1,Cachoeira Paulista/SP,-22.666498,-45.015384,224,672.12770
D1,Cachoeira Paulista/SP,-22.666498,-45.015384,7,21.00399
1,Cachoeira da Prata/MG,-19.524723,-44.453056,29,804.88482
1,Cachoeira de Goiás/GO,-16.6688414,-50.6435997,12,888.23094
1,Cachoeira de Minas/MG,-22.3554043,-45.7796324,50,433.01290
1,Cachoeira de Pajeú/MG,-15.965833,-41.496666,102,1083.72291
1,Cachoeira do Arari/PA,-1.0143572,-48.9621089,261,1098.16132
D1,Cachoeira do Arari/PA,-1.0143572,-48.9621089,11,46.28266
1,Cachoeira do Piriá/PA,-1.7599443,-46.5446954,473,1395.28024
D1,Cachoeira do Piriá/PA,-1.7599443,-46.5446954,2,5.89971
1,Cachoeira do Sul/RS,-30.0474778,-52.8905413,330,401.45497
D1,Cachoeira do Sul/RS,-30.0474778,-52.8905413,3,3.64959
1,Cachoeira dos Índios/PB,-6.9259193,-38.6742159,99,966.41937
D1,Cachoeira dos Índios/PB,-6.9259193,-38.6742159,6,58.57087
1,Cachoeira/BA,-12.5998256,-38.9665918,388,1159.24709
D1,Cachoeira/BA,-12.5998256,-38.9665918,7,20.91425
1,Cachoeiras de Macacu/RJ,-22.4626861,-42.6534414,517,877.20787
D1,Cachoeiras de Macacu/RJ,-22.4626861,-42.6534414,26,44.11490
1,Cachoeirinha/PE,-8.4906364,-36.2338963,279,1368.98921
D1,Cachoeirinha/PE,-8.4906364,-36.2338963,19,93.22866
1,Cachoeirinha/RS,-29.9493353,-51.0898927,1722,1321.63662
D1,Cachoeirinha/RS,-29.9493353,-51.0898927,39,29.93254
1,Cachoeirinha/TO,-6.118647,-47.9208885,23,1010.98901
1,Cachoeiro de Itapemirim/ES,-20.848084,-41.11129,4439,2124.20803
D1,Cachoeiro de Itapemirim/ES,-20.848084,-41.11129,134,64.12342
1,Cacimba de Areia/PB,-7.1288513,-37.1575194,9,244.43237
1,Cacimba de Dentro/PB,-6.6425101,-35.7929304,265,1541.86304
D1,Cacimba de Dentro/PB,-6.6425101,-35.7929304,6,34.91011
1,Cacimbas/PB,-7.2125451,-37.0593398,46,641.29374
D1,Cacimbas/PB,-7.2125451,-37.0593398,1,13.94117
1,Cacimbinhas/AL,-9.401212,-36.991082,224,2062.99503
D1,Cacimbinhas/AL,-9.401212,-36.991082,3,27.62940
1,Cacique Doble/RS,-27.7700117,-51.6616409,56,1105.62685
1,Cacoal/RO,-11.4333,-61.4420502,1411,1653.01843
D1,Cacoal/RO,-11.4333,-61.4420502,20,23.43045
1,Caconde/SP,-21.527995,-46.643659,66,347.64288
1,Caculé/BA,-14.4990734,-42.2233006,65,280.53517
D1,Caculé/BA,-14.4990734,-42.2233006,2,8.63185
1,Caetanos/BA,-14.3387456,-40.9085971,26,178.79246
1,Caetanópolis/MG,-19.2947496,-44.4138386,50,430.14453
1,Caetité/BA,-14.0691776,-42.4852428,100,196.17460
D1,Caetité/BA,-14.0691776,-42.4852428,3,5.88524
1,Caeté/MG,-19.897777,-43.670278,223,498.68062
D1,Caeté/MG,-19.897777,-43.670278,4,8.94494
1,Caetés/PE,-8.7728788,-36.6255835,387,1346.60218
D1,Caetés/PE,-8.7728788,-36.6255835,5,17.39796
1,Cafarnaum/BA,-11.691399,-41.468823,132,715.95162
1,Cafeara/PR,-22.78905,-51.714195,47,1601.90866
1,Cafelândia/PR,-24.6176963,-53.3218057,100,551.87638
D1,Cafelândia/PR,-24.6176963,-53.3218057,1,5.51876
1,Cafelândia/SP,-21.8054355,-49.6030627,202,1136.93927
D1,Cafelândia/SP,-21.8054355,-49.6030627,2,11.25682
1,Cafezal do Sul/PR,-23.900508,-53.512418,9,222.55193
1,Caiabu/SP,-22.0143038,-51.2356597,34,811.26223
D1,Caiabu/SP,-22.0143038,-51.2356597,2,47.72131
1,Caiana/MG,-20.695555,-41.924723,14,254.73071
D1,Caiana/MG,-20.695555,-41.924723,1,18.19505
1,Caiapônia/GO,-16.9538779,-51.8090761,78,412.41474
1,Caibaté/RS,-28.290475,-54.645407,2,41.27115
1,Caibi/SC,-27.0751925,-53.2502133,30,487.96357
D1,Caibi/SC,-27.0751925,-53.2502133,2,32.53090
1,Caicó/RN,-6.4594544,-37.0971911,1647,2423.76972
D1,Caicó/RN,-6.4594544,-37.0971911,20,29.43254
1,Caieiras/SP,-23.3644621,-46.7484765,1638,1614.27023
D1,Caieiras/SP,-23.3644621,-46.7484765,80,78.84104
1,Cairu/BA,-13.4860505,-39.0455744,152,836.26761
D1,Cairu/BA,-13.4860505,-39.0455744,3,16.50528
1,Caiuá/SP,-21.8319357,-51.9887179,51,868.23289
1,Caiçara do Norte/RN,-5.0645017,-36.0561226,83,1267.36906
D1,Caiçara do Norte/RN,-5.0645017,-36.0561226,3,45.80852
1,Caiçara do Rio do Vento/RN,-5.757968,-36.00089,60,1628.66450
D1,Caiçara do Rio do Vento/RN,-5.757968,-36.00089,1,27.14441
1,Caiçara/PB,-6.6146866,-35.4681434,429,5957.50590
D1,Caiçara/PB,-6.6146866,-35.4681434,6,83.32176
1,Caiçara/RS,-27.2750478,-53.4310053,25,527.09256
D1,Caiçara/RS,-27.2750478,-53.4310053,1,21.08370
1,Cajamar/SP,-23.3561111,-46.8769444,1260,1640.60364
D1,Cajamar/SP,-23.3561111,-46.8769444,66,85.93638
1,Cajapió/MA,-2.8778715,-44.6746871,5,44.73472
D1,Cajapió/MA,-2.8778715,-44.6746871,2,17.89389
1,Cajari/MA,-3.3213076,-45.0118757,122,629.54745
D1,Cajari/MA,-3.3213076,-45.0118757,4,20.64090
1,Cajati/SP,-24.7272376,-48.1077914,1364,4777.75053
D1,Cajati/SP,-24.7272376,-48.1077914,19,66.55224
1,Cajazeiras do Piauí/PI,-6.794271,-42.3935024,6,168.58668
1,Cajazeiras/PB,-6.8897849,-38.5570389,1538,2480.92527
D1,Cajazeiras/PB,-6.8897849,-38.5570389,37,59.68416
1,Cajazeirinhas/PB,-6.961442,-37.7993733,32,1002.19230
1,Cajobi/SP,-20.8776238,-48.8106972,115,1090.87460
D1,Cajobi/SP,-20.8776238,-48.8106972,5,47.42933
1,Cajueiro da Praia/PI,-2.931114,-41.340801,246,3219.05260
D1,Cajueiro da Praia/PI,-2.931114,-41.340801,7,91.59906
1,Cajueiro/AL,-9.399589,-36.1524309,237,1114.55982
D1,Cajueiro/AL,-9.399589,-36.1524309,12,56.43341
1,Cajuri/MG,-20.7901414,-42.7954489,41,1028.34211
1,Cajuru/SP,-21.2759978,-47.3046035,327,1249.66561
D1,Cajuru/SP,-21.2759978,-47.3046035,7,26.75125
1,Caldas Brandão/PB,-7.1027959,-35.3254676,243,4040.57200
D1,Caldas Brandão/PB,-7.1027959,-35.3254676,2,33.25574
1,Caldas Novas/GO,-17.745,-48.625,785,861.10441
D1,Caldas Novas/GO,-17.745,-48.625,18,19.74507
1,Caldas/MG,-21.923611,-46.386111,60,414.36464
D1,Caldas/MG,-21.923611,-46.386111,1,6.90608
1,Caldazinha/GO,-16.7116649,-49.0012601,45,1182.96530
D1,Caldazinha/GO,-16.7116649,-49.0012601,1,26.28812
1,Caldeirão Grande do Piauí/PI,-7.3310393,-40.6374433,116,2008.31025
1,Caldeirão Grande/BA,-11.0208483,-40.3041387,115,862.90988
D1,Caldeirão Grande/BA,-11.0208483,-40.3041387,1,7.50356
1,Califórnia/PR,-23.6672543,-51.3554556,39,455.07585
D1,Califórnia/PR,-23.6672543,-51.3554556,2,23.33722
1,Calmon/SC,-26.6023644,-51.0992893,5,149.43216
1,Calumbi/PE,-7.9389746,-38.1516871,125,2173.91304
D1,Calumbi/PE,-7.9389746,-38.1516871,1,17.39130
1,Calçado/PE,-8.7413446,-36.3351787,45,407.12929
D1,Calçado/PE,-8.7413446,-36.3351787,1,9.04732
1,Calçoene/AP,2.4981757,-50.9539503,1121,10083.65566
D1,Calçoene/AP,2.4981757,-50.9539503,5,44.97616
1,Camacan/BA,-15.4166631,-39.4930088,1122,3507.56534
D1,Camacan/BA,-15.4166631,-39.4930088,22,68.77579
1,Camalaú/PB,-7.885031,-36.824191,3,49.89190
1,Camamu/BA,-13.9438142,-39.1060917,753,2132.17805
D1,Camamu/BA,-13.9438142,-39.1060917,12,33.97893
1,Camanducaia/MG,-22.755278,-46.144444,327,1502.06706
D1,Camanducaia/MG,-22.755278,-46.144444,4,18.37391
1,Camapuã/MS,-19.5291747,-54.0434641,30,218.80242
D1,Camapuã/MS,-19.5291747,-54.0434641,1,7.29341
1,Camaquã/RS,-30.8524752,-51.8075619,533,804.39474
D1,Camaquã/RS,-30.8524752,-51.8075619,14,21.12857
1,Camaragibe/PE,-8.0213832,-34.9810768,1804,1143.01645
D1,Camaragibe/PE,-8.0213832,-34.9810768,160,101.37618
1,Camargo/RS,-28.5865661,-52.2031474,29,1061.10501
1,Camaçari/BA,-12.6998188,-38.3260762,5091,1701.92423
D1,Camaçari/BA,-12.6998188,-38.3260762,69,23.06674
1,Cambará do Sul/RS,-29.0489517,-50.145412,52,808.58342
1,Cambará/PR,-23.042273,-50.075281,102,402.20820
D1,Cambará/PR,-23.042273,-50.075281,3,11.82965
1,Cambira/PR,-23.600265,-51.581045,25,317.86395
D1,Cambira/PR,-23.600265,-51.581045,1,12.71456
1,Camboriú/SC,-27.0273601,-48.6535657,1974,2378.62849
D1,Camboriú/SC,-27.0273601,-48.6535657,39,46.99418
1,Cambuci/RJ,-21.5749919,-41.9107833,157,1012.57659
D1,Cambuci/RJ,-21.5749919,-41.9107833,2,12.89906
1,Cambuquira/MG,-21.853056,-45.2953619,9,70.23568
1,Cambuí/MG,-22.6122501,-46.0572137,218,737.70769
D1,Cambuí/MG,-22.6122501,-46.0572137,6,20.30388
1,Cambé/PR,-23.2782035,-51.2779583,832,780.97866
D1,Cambé/PR,-23.2782035,-51.2779583,14,13.14147
1,Cametá/PA,-2.242949,-49.497885,4579,3320.76293
D1,Cametá/PA,-2.242949,-49.497885,93,67.44506
1,Camocim de São Félix/PE,-8.3616757,-35.7638903,167,889.95470
D1,Camocim de São Félix/PE,-8.3616757,-35.7638903,7,37.30349
1,Camocim/CE,-2.9009918,-40.8427389,2274,3572.04568
D1,Camocim/CE,-2.9009918,-40.8427389,79,124.09481
1,Campanha/MG,-21.8361108,-45.401986,59,354.03540
D1,Campanha/MG,-21.8361108,-45.401986,2,12.00120
1,Campanário/MG,-18.2398144,-41.7271768,13,349.36845
1,Campestre da Serra/RS,-28.7966535,-51.0958149,23,678.86659
1,Campestre de Goiás/GO,-16.7624179,-49.69497,88,2424.24242
D1,Campestre de Goiás/GO,-16.7624179,-49.69497,1,27.54821
1,Campestre do Maranhão/MA,-6.1729113,-47.3640512,340,2365.38194
D1,Campestre do Maranhão/MA,-6.1729113,-47.3640512,4,27.82802
1,Campestre/AL,-8.8481634,-35.5660033,89,1283.16032
D1,Campestre/AL,-8.8481634,-35.5660033,3,43.25260
1,Campestre/MG,-19.6142116,-43.219378,96,455.94871
D1,Campestre/MG,-19.6142116,-43.219378,3,14.24840
1,Campina Grande do Sul/PR,-25.3046032,-49.0545355,676,1561.63371
D1,Campina Grande do Sul/PR,-25.3046032,-49.0545355,19,43.89207
1,Campina Grande/PB,-7.2246743,-35.8771292,12036,2937.53707
D1,Campina Grande/PB,-7.2246743,-35.8771292,284,69.31377
1,Campina Verde/MG,-19.535277,-49.486389,82,415.29501
D1,Campina Verde/MG,-19.535277,-49.486389,3,15.19372
1,Campina da Lagoa/PR,-24.5937926,-52.8038965,18,126.74271
D1,Campina da Lagoa/PR,-24.5937926,-52.8038965,2,14.08252
1,Campina das Missões/RS,-27.9883295,-54.8411665,7,127.87724
1,Campina do Monte Alegre/SP,-23.5935653,-48.4801876,72,1195.21912
1,Campina do Simão/PR,-25.1086375,-51.8076658,5,128.63391
D1,Campina do Simão/PR,-25.1086375,-51.8076658,1,25.72678
1,Campinas do Piauí/PI,-7.6593687,-41.8814875,25,445.39462
D1,Campinas do Piauí/PI,-7.6593687,-41.8814875,1,17.81578
1,Campinas do Sul/RS,-27.7167968,-52.6257885,37,678.40117
D1,Campinas do Sul/RS,-27.7167968,-52.6257885,1,18.33517
1,Campinas/SP,-22.90556,-47.06083,24843,2063.24700
D1,Campinas/SP,-22.90556,-47.06083,937,77.81920
1,Campinaçu/GO,-13.7869969,-48.5703841,107,2939.56044
1,Campinorte/GO,-14.3136699,-49.1510931,192,1520.67163
D1,Campinorte/GO,-14.3136699,-49.1510931,4,31.68066
1,Campinápolis/MT,-14.5403731,-52.7970626,200,1251.56446
D1,Campinápolis/MT,-14.5403731,-52.7970626,8,50.06258
1,Campo Alegre de Goiás/GO,-17.6337896,-47.779291,6,79.06180
1,Campo Alegre de Lourdes/BA,-9.5160326,-43.0101338,89,309.04924
D1,Campo Alegre de Lourdes/BA,-9.5160326,-43.0101338,2,6.94493
1,Campo Alegre do Fidalgo/PI,-8.3753852,-41.8364191,13,257.68087
D1,Campo Alegre do Fidalgo/PI,-8.3753852,-41.8364191,1,19.82161
1,Campo Alegre/AL,-9.7798607,-36.3575793,1231,2157.26478
D1,Campo Alegre/AL,-9.7798607,-36.3575793,26,45.56368
1,Campo Alegre/SC,-26.1941684,-49.2657484,102,851.56120
D1,Campo Alegre/SC,-26.1941684,-49.2657484,3,25.04592
1,Campo Azul/MG,-16.5078525,-44.8133524,1,26.19859
1,Campo Belo do Sul/SC,-27.8987563,-50.7586887,31,441.84721
D1,Campo Belo do Sul/SC,-27.8987563,-50.7586887,1,14.25314
1,Campo Belo/MG,-20.8975,-45.277223,442,818.07918
D1,Campo Belo/MG,-20.8975,-45.277223,9,16.65772
1,Campo Bom/RS,-29.674694,-51.060601,1504,2254.46696
D1,Campo Bom/RS,-29.674694,-51.060601,36,53.96330
1,Campo Bonito/PR,-25.0328004,-52.992976,39,1017.47978
1,Campo Erê/SC,-26.3947432,-53.0790495,64,750.64509
1,Campo Florido/MG,-19.760833,-48.572223,64,785.17973
1,Campo Formoso/BA,-10.51055,-40.320031,867,1217.59402
D1,Campo Formoso/BA,-10.51055,-40.320031,8,11.23501
1,Campo Grande do Piauí/PI,-7.1327559,-41.0381164,90,1514.38667
D1,Campo Grande do Piauí/PI,-7.1327559,-41.0381164,1,16.82652
1,Campo Grande/AL,-9.9725,-36.74791447368421,175,1830.92697
D1,Campo Grande/AL,-9.9725,-36.74791447368421,5,52.31220
1,Campo Grande/MS,-20.4640173,-54.6162947,16988,1896.02023
D1,Campo Grande/MS,-20.4640173,-54.6162947,254,28.34878
1,Campo Largo do Piauí/PI,-3.8104731,-42.6288333,136,1868.38851
D1,Campo Largo do Piauí/PI,-3.8104731,-42.6288333,4,54.95260
1,Campo Largo/PR,-25.4597726,-49.5270851,2117,1603.76358
D1,Campo Largo/PR,-25.4597726,-49.5270851,49,37.12065
1,Campo Limpo Paulista/SP,-23.207791,-46.788919,891,1052.56940
D1,Campo Limpo Paulista/SP,-23.207791,-46.788919,62,73.24276
1,Campo Limpo de Goiás/GO,-16.297101,-49.0894994,18,231.09513
D1,Campo Limpo de Goiás/GO,-16.297101,-49.0894994,1,12.83862
1,Campo Magro/PR,-25.3691533,-49.4496921,342,1166.51886
D1,Campo Magro/PR,-25.3691533,-49.4496921,5,17.05437
1,Campo Maior/PI,-4.8339574,-42.1739786,1973,4212.84137
D1,Campo Maior/PI,-4.8339574,-42.1739786,40,85.40986
1,Campo Mourão/PR,-24.046329,-52.37802,768,809.62270
D1,Campo Mourão/PR,-24.046329,-52.37802,25,26.35491
1,Campo Novo de Rondônia/RO,-10.5704235,-63.6199511,116,820.42577
D1,Campo Novo de Rondônia/RO,-10.5704235,-63.6199511,4,28.29054
1,Campo Novo do Parecis/MT,-13.658735,-57.890723,1271,3594.45701
D1,Campo Novo do Parecis/MT,-13.658735,-57.890723,13,36.76471
1,Campo Novo/RS,-28.91500235,-52.331375687737626,14,312.22123
1,Campo Redondo/RN,-6.2420373,-36.1830606,192,1711.68762
D1,Campo Redondo/RN,-6.2420373,-36.1830606,2,17.83008
1,Campo Verde/MT,-15.5430787,-55.1590511,1019,2313.75309
D1,Campo Verde/MT,-15.5430787,-55.1590511,15,34.05917
1,Campo do Brito/SE,-10.7496246,-37.4942276,533,2943.28787
D1,Campo do Brito/SE,-10.7496246,-37.4942276,9,49.69904
1,Campo do Meio/MG,-21.1072006,-45.8301735,27,231.66023
1,Campo do Tenente/PR,-25.9814143,-49.684518,60,752.72864
D1,Campo do Tenente/PR,-25.9814143,-49.684518,3,37.63643
1,Campos Altos/MG,-19.696389,-46.171389,100,646.78869
D1,Campos Altos/MG,-19.696389,-46.171389,2,12.93577
1,Campos Belos/GO,-13.0349839,-46.768112,135,678.83542
D1,Campos Belos/GO,-13.0349839,-46.768112,3,15.08523
1,Campos Borges/RS,-28.8852198,-52.999098,5,150.60241
1,Campos Gerais/MG,-21.2333342,-45.7584127,68,236.32446
D1,Campos Gerais/MG,-21.2333342,-45.7584127,2,6.95072
1,Campos Lindos/TO,-7.9740597,-46.8023881,100,988.53302
D1,Campos Lindos/TO,-7.9740597,-46.8023881,2,19.77066
1,Campos Novos Paulista/SP,-22.601952,-49.998726,36,725.07553
1,Campos Novos/SC,-27.3962904,-51.2224397,697,1923.07692
D1,Campos Novos/SC,-27.3962904,-51.2224397,12,33.10893
1,Campos Sales/CE,-7.0742675,-40.3740367,279,1017.28287
D1,Campos Sales/CE,-7.0742675,-40.3740367,7,25.52323
1,Campos Verdes/GO,-14.2709062,-49.65746,20,934.14292
1,Campos de Júlio/MT,-13.7223646,-59.2645296,274,3976.20084
D1,Campos de Júlio/MT,-13.7223646,-59.2645296,4,58.04673
1,Campos do Jordão/SP,-22.7395263,-45.5912829,517,992.55107
D1,Campos do Jordão/SP,-22.7395263,-45.5912829,8,15.35862
1,Campos dos Goytacazes/RJ,-21.7558619,-41.3326895,4032,794.40762
D1,Campos dos Goytacazes/RJ,-21.7558619,-41.3326895,276,54.37909
1,Camutanga/PE,-7.4092965,-35.2738166,141,1648.92995
D1,Camutanga/PE,-7.4092965,-35.2738166,4,46.77815
1,Cana Verde/MG,-21.021308,-45.1817881,67,1195.78797
D1,Cana Verde/MG,-21.021308,-45.1817881,1,17.84758
1,Canabrava do Norte/MT,-11.0516481,-51.8301897,50,1054.18511
D1,Canabrava do Norte/MT,-11.0516481,-51.8301897,1,21.08370
1,Cananéia/SP,-25.0104609,-47.9315628,143,1140.35088
D1,Cananéia/SP,-25.0104609,-47.9315628,7,55.82137
1,Canapi/AL,-9.1173572,-37.6011704,56,315.99142
D1,Canapi/AL,-9.1173572,-37.6011704,3,16.92811
1,Canarana/BA,-11.6870151,-41.7683675,75,286.52200
D1,Canarana/BA,-11.6870151,-41.7683675,1,3.82029
1,Canarana/MT,-13.5564602,-52.2691167,384,1779.50785
D1,Canarana/MT,-13.5564602,-52.2691167,8,37.07308
1,Canas/SP,-22.7029347,-45.0526508,21,408.71935
D1,Canas/SP,-22.7029347,-45.0526508,2,38.92565
1,Canavieiras/BA,-15.61621745,-39.08485321304444,146,469.46847
D1,Canavieiras/BA,-15.61621745,-39.08485321304444,5,16.07769
1,Canaã dos Carajás/PA,-6.5296837,-49.8516592,3149,8491.30376
D1,Canaã dos Carajás/PA,-6.5296837,-49.8516592,39,105.16381
1,Candeal/BA,-11.8053441,-39.1206515,49,593.36401
1,Candeias do Jamari/RO,-8.7949939,-63.7018851,1087,4072.22867
D1,Candeias do Jamari/RO,-8.7949939,-63.7018851,21,78.67231
1,Candeias/BA,-12.6693806,-38.5406462,1830,2101.61238
D1,Candeias/BA,-12.6693806,-38.5406462,38,43.64004
1,Candeias/MG,-20.7676161,-45.2763777,64,429.93417
D1,Candeias/MG,-20.7676161,-45.2763777,2,13.43544
1,Candelária/RS,-29.668391,-52.789495,111,353.89766
D1,Candelária/RS,-29.668391,-52.789495,1,3.18827
1,Candiba/BA,-14.4125032,-42.8714102,25,174.59320
1,Candiota/RS,-31.5451894,-53.719538,64,667.77963
D1,Candiota/RS,-31.5451894,-53.719538,1,10.43406
1,Candói/PR,-25.5711951,-52.051107,57,356.71819
1,Canela/RS,-29.3624657,-50.8134204,383,851.14894
D1,Canela/RS,-29.3624657,-50.8134204,16,35.55714
1,Canelinha/SC,-27.2660341,-48.7666708,367,2998.36601
D1,Canelinha/SC,-27.2660341,-48.7666708,5,40.84967
1,Canguaretama/RN,-6.3751942,-35.137463,293,854.82553
D1,Canguaretama/RN,-6.3751942,-35.137463,17,49.59739
1,Canguçu/RS,-31.398276,-52.6773522,79,140.95816
D1,Canguçu/RS,-31.398276,-52.6773522,2,3.56856
1,Canhoba/SE,-10.1373681,-36.9710796,82,2045.90818
1,Canhotinho/PE,-8.876519,-36.197935,252,1015.96517
D1,Canhotinho/PE,-8.876519,-36.197935,12,48.37929
1,Canindé de São Francisco/SE,-9.6597475,-37.7904456,273,913.04348
D1,Canindé de São Francisco/SE,-9.6597475,-37.7904456,7,23.41137
1,Canindé/CE,-4.3547946,-39.3108516,1861,2416.97728
D1,Canindé/CE,-4.3547946,-39.3108516,68,88.31513
1,Canitar/SP,-23.0066616,-49.7840632,35,671.01227
D1,Canitar/SP,-23.0066616,-49.7840632,1,19.17178
1,Canoas/RS,-29.9216045,-51.1799525,3411,984.08614
D1,Canoas/RS,-29.9216045,-51.1799525,163,47.02610
1,Canoinhas/SC,-26.176591,-50.395001,325,597.41549
D1,Canoinhas/SC,-26.176591,-50.395001,8,14.70561
1,Cansanção/BA,-10.6671448,-39.498199,120,344.49101
D1,Cansanção/BA,-10.6671448,-39.498199,3,8.61228
1,Cantagalo/PR,-25.3735238,-52.1238114,56,420.51513
D1,Cantagalo/PR,-25.3735238,-52.1238114,1,7.50920
1,Cantagalo/RJ,-21.9811325,-42.3682522,65,322.22883
D1,Cantagalo/RJ,-21.9811325,-42.3682522,1,4.95737
1,Cantanhede/MA,-3.6355005,-44.3778738,381,1732.21187
D1,Cantanhede/MA,-3.6355005,-44.3778738,3,13.63946
1,Canto do Buriti/PI,-8.1112473,-42.944844,244,1151.64960
D1,Canto do Buriti/PI,-8.1112473,-42.944844,4,18.87950
1,Cantá/RR,2.60994,-60.605827,855,4663.21244
D1,Cantá/RR,2.60994,-60.605827,9,49.08645
1,Canudos do Vale/RS,-29.3240418,-52.2348494,5,291.37529
1,Canudos/BA,-9.8948692,-39.0266244,98,587.95296
D1,Canudos/BA,-9.8948692,-39.0266244,3,17.99856
1,Canutama/AM,-6.5330019,-64.3834966,374,2392.98740
1,Canápolis/MG,-18.7228793,-49.2016329,218,1794.23868
D1,Canápolis/MG,-18.7228793,-49.2016329,4,32.92181
1,Capanema/PA,-1.1933054,-47.1828679,1149,1664.56604
D1,Capanema/PA,-1.1933054,-47.1828679,64,92.71734
1,Capanema/PR,-25.6704878,-53.8083036,378,1976.57394
D1,Capanema/PR,-25.6704878,-53.8083036,3,15.68709
1,Caparaó/MG,-20.5232726,-41.9049984,17,312.61493
D1,Caparaó/MG,-20.5232726,-41.9049984,2,36.77823
1,Capela Nova/MG,-20.9236773,-43.6179487,2,42.98302
1,Capela de Santana/RS,-29.6926603,-51.3206659,39,326.63317
D1,Capela de Santana/RS,-29.6926603,-51.3206659,1,8.37521
1,Capela do Alto Alegre/BA,-11.6703944,-39.8362745,142,1220.24577
D1,Capela do Alto Alegre/BA,-11.6703944,-39.8362745,1,8.59328
1,Capela do Alto/SP,-23.4704798,-47.7352309,219,1057.66445
D1,Capela do Alto/SP,-23.4704798,-47.7352309,1,4.82952
1,Capela/AL,-9.415041,-36.082583,502,2943.76356
D1,Capela/AL,-9.415041,-36.082583,5,29.32035
1,Capela/SE,-10.50494,-37.0552566,669,1955.39707
D1,Capela/SE,-10.50494,-37.0552566,16,46.76585
1,Capelinha/MG,-17.693889,-42.518611,36,95.27842
1,Capetinga/MG,-20.6193382,-47.0577418,18,260.11561
1,Capim Branco/MG,-19.548333,-44.133056,30,307.56613
D1,Capim Branco/MG,-19.548333,-44.133056,2,20.50441
1,Capim Grosso/BA,-11.3793228,-40.0112095,757,2468.85396
D1,Capim Grosso/BA,-11.3793228,-40.0112095,4,13.04546
1,Capim/PB,-6.9174091,-35.1720326,149,2284.22505
D1,Capim/PB,-6.9174091,-35.1720326,5,76.65185
1,Capinzal do Norte/MA,-4.7304006,-44.3249063,339,3100.42071
D1,Capinzal do Norte/MA,-4.7304006,-44.3249063,1,9.14578
1,Capinzal/SC,-27.3440651,-51.6110403,1045,4573.70448
D1,Capinzal/SC,-27.3440651,-51.6110403,6,26.26050
1,Capinópolis/MG,-18.682778,-49.569723,187,1156.24807
D1,Capinópolis/MG,-18.682778,-49.569723,2,12.36629
1,Capistrano/CE,-4.4644692,-38.8956734,644,3630.62352
D1,Capistrano/CE,-4.4644692,-38.8956734,12,67.65137
1,Capitão Andrade/MG,-19.0675,-41.859722,16,292.61156
D1,Capitão Andrade/MG,-19.0675,-41.859722,1,18.28822
1,Capitão Enéas/MG,-16.3236018,-43.7154584,81,531.70540
D1,Capitão Enéas/MG,-16.3236018,-43.7154584,2,13.12853
1,Capitão Gervásio Oliveira/PI,-8.4954657,-41.8169342,19,463.41463
D1,Capitão Gervásio Oliveira/PI,-8.4954657,-41.8169342,1,24.39024
1,Capitão Leônidas Marques/PR,-25.481645,-53.611238,121,766.79341
1,Capitão Poço/PA,-1.7447162,-47.0638495,796,1465.84903
D1,Capitão Poço/PA,-1.7447162,-47.0638495,35,64.45316
1,Capitão de Campos/PI,-4.4584198,-41.9415301,150,1313.83025
D1,Capitão de Campos/PI,-4.4584198,-41.9415301,1,8.75887
1,Capitão/RS,-29.2718294,-51.9869716,19,689.15488
1,Capitólio/MG,-20.6142437,-46.0487652,28,324.37442
D1,Capitólio/MG,-20.6142437,-46.0487652,3,34.75440
1,Capivari de Baixo/SC,-28.449773,-48.963144,663,2665.75530
D1,Capivari de Baixo/SC,-28.449773,-48.963144,9,36.18672
1,Capivari do Sul/RS,-30.1437605,-50.5129169,23,493.56223
1,Capivari/SP,-22.995144,-47.50715,698,1251.61383
D1,Capivari/SP,-22.995144,-47.50715,8,14.34514
1,Capixaba/AC,-10.5741345,-67.6759719,243,2071.08156
D1,Capixaba/AC,-10.5741345,-67.6759719,7,59.66079
1,Capoeiras/PE,-8.7386788,-36.6268109,327,1631.08540
D1,Capoeiras/PE,-8.7386788,-36.6268109,5,24.94014
1,Caputira/MG,-20.171945,-42.270278,25,268.87503
1,Capão Alto/SC,-27.9382827,-50.511491,7,277.22772
D1,Capão Alto/SC,-27.9382827,-50.511491,1,39.60396
1,Capão Bonito do Sul/RS,-28.1287941,-51.393771,5,302.29746
D1,Capão Bonito do Sul/RS,-28.1287941,-51.393771,1,60.45949
1,Capão Bonito/SP,-24.0048759,-48.3489848,538,1141.32971
D1,Capão Bonito/SP,-24.0048759,-48.3489848,18,38.18575
1,Capão da Canoa/RS,-29.7542937,-50.0215684,417,786.06571
D1,Capão da Canoa/RS,-29.7542937,-50.0215684,14,26.39070
1,Capão do Cipó/RS,-28.9317296,-54.5555783,3,82.16927
1,Capão do Leão/RS,-31.766133,-52.5013148,64,252.42565
D1,Capão do Leão/RS,-31.766133,-52.5013148,3,11.83245
1,Caracaraí/RR,1.827598,-61.125389,779,3552.85962
D1,Caracaraí/RR,1.827598,-61.125389,8,36.48636
1,Caracol/MS,-22.0169949,-57.0298349,18,294.31001
1,Caracol/PI,-9.2804898,-43.3284924,153,1401.61231
D1,Caracol/PI,-9.2804898,-43.3284924,2,18.32173
1,Caraguatatuba/SP,-23.62028,-45.41306,1526,1255.63638
D1,Caraguatatuba/SP,-23.62028,-45.41306,65,53.48386
1,Carambeí/PR,-24.9513298,-50.1171293,173,738.84262
D1,Carambeí/PR,-24.9513298,-50.1171293,4,17.08307
1,Caranaíba/MG,-20.8736914,-43.7379458,7,219.91832
D1,Caranaíba/MG,-20.8736914,-43.7379458,1,31.41690
1,Carandaí/MG,-20.9523934,-43.8043903,112,439.19846
