type,name,lat,lon,total,total_per_100k_inhabitants
1,Abadia de Goiás/GO,-16.7572644,-49.4412205,1322,14757.75843
D1,Abadia de Goiás/GO,-16.7572644,-49.4412205,27,301.40656
1,Abadia dos Dourados/MG,-18.4911191,-47.4063589,362,5166.99971
D1,Abadia dos Dourados/MG,-18.4911191,-47.4063589,13,185.55524
1,Abadiânia/GO,-16.1940946,-48.7067767,333,1627.48644
D1,Abadiânia/GO,-16.1940946,-48.7067767,27,131.95836
1,Abaetetuba/PA,-1.721828,-48.878843,7269,4569.39904
D1,Abaetetuba/PA,-1.721828,-48.878843,195,122.57983
1,Abaeté/MG,-19.1566833,-45.4481213,983,4227.95699
D1,Abaeté/MG,-19.1566833,-45.4481213,23,98.92473
1,Abaiara/CE,-7.3607808,-39.0487878,439,3703.70370
D1,Abaiara/CE,-7.3607808,-39.0487878,10,84.36683
1,Abaré/BA,-8.7239913,-39.1139689,770,3784.34167
D1,Abaré/BA,-8.7239913,-39.1139689,8,39.31784
1,Abatiá/PR,-23.3052967,-50.3102532,694,9368.25054
D1,Abatiá/PR,-23.3052967,-50.3102532,10,134.98920
1,Abaíra/BA,-13.2503296,-41.6640342,252,2893.22618
D1,Abaíra/BA,-13.2503296,-41.6640342,10,114.81056
1,Abdon Batista/SC,-27.612419,-51.022992,328,12872.84144
D1,Abdon Batista/SC,-27.612419,-51.022992,2,78.49294
1,Abel Figueiredo/PA,-4.953001,-48.3958485,867,11581.61902
D1,Abel Figueiredo/PA,-4.953001,-48.3958485,9,120.22442
1,Abelardo Luz/SC,-26.5705893,-52.3280339,1297,7221.60356
D1,Abelardo Luz/SC,-26.5705893,-52.3280339,41,228.28508
1,Abre Campo/MG,-20.2976097,-42.4764741,884,6575.42398
D1,Abre Campo/MG,-20.2976097,-42.4764741,14,104.13567
1,Abreu e Lima/PE,-7.900719,-34.898389,2519,2510.31431
D1,Abreu e Lima/PE,-7.900719,-34.898389,190,189.34487
1,Abreulândia/TO,-9.6221526,-49.1558343,257,9907.47880
D1,Abreulândia/TO,-9.6221526,-49.1558343,6,231.30301
1,Acaiaca/MG,-20.3621646,-43.1444162,217,5433.14972
D1,Acaiaca/MG,-20.3621646,-43.1444162,10,250.37556
1,Acajutiba/BA,-11.6609659,-38.0186381,478,3147.42872
D1,Acajutiba/BA,-11.6609659,-38.0186381,14,92.18410
1,Acarape/CE,-4.2237866,-38.7071663,2593,17245.27800
D1,Acarape/CE,-4.2237866,-38.7071663,24,159.61692
1,Acaraú/CE,-2.8869514,-40.1194713,4440,7036.00406
D1,Acaraú/CE,-2.8869514,-40.1194713,93,147.37576
1,Acari/RN,-6.4364689,-36.6394777,840,7553.27758
D1,Acari/RN,-6.4364689,-36.6394777,13,116.89596
1,Acará/PA,-1.961388,-48.1987043,1199,2153.80194
D1,Acará/PA,-1.961388,-48.1987043,26,46.70463
1,Acauã/PI,-8.219542,-41.083059,175,2464.09462
D1,Acauã/PI,-8.219542,-41.083059,1,14.08054
1,Aceguá/RS,-31.8695131,-54.1615593,295,5969.24322
D1,Aceguá/RS,-31.8695131,-54.1615593,4,80.93889
1,Acopiara/CE,-6.0936464,-39.4543204,2751,5049.46679
D1,Acopiara/CE,-6.0936464,-39.4543204,112,205.57626
1,Acorizal/MT,-15.2001544,-56.3668953,459,8605.17435
D1,Acorizal/MT,-15.2001544,-56.3668953,18,337.45782
1,Acrelândia/AC,-10.0759167,-67.0526898,1526,9851.51711
D1,Acrelândia/AC,-10.0759167,-67.0526898,30,193.67334
1,Acreúna/GO,-17.3959899,-50.3749031,1702,7549.01091
D1,Acreúna/GO,-17.3959899,-50.3749031,42,186.28582
1,Adamantina/SP,-21.6866517,-51.0762975,2546,7251.28877
D1,Adamantina/SP,-21.6866517,-51.0762975,72,205.06394
1,Adelândia/GO,-16.4155077,-50.1665834,151,6001.58983
D1,Adelândia/GO,-16.4155077,-50.1665834,4,158.98251
1,Adolfo/SP,-21.2356597,-49.6441918,407,11451.88520
D1,Adolfo/SP,-21.2356597,-49.6441918,9,253.23579
1,Adrianópolis/PR,-24.6557863,-48.9912769,1095,18695.57794
D1,Adrianópolis/PR,-24.6557863,-48.9912769,21,358.54533
1,Adustina/BA,-10.5358875,-38.114479,657,3836.27233
D1,Adustina/BA,-10.5358875,-38.114479,11,64.22983
1,Afogados da Ingazeira/PE,-7.750429,-37.6356375,3841,10268.95519
D1,Afogados da Ingazeira/PE,-7.750429,-37.6356375,56,149.71661
1,Afonso Bezerra/RN,-5.4745,-36.57625071327935,545,4941.51782
D1,Afonso Bezerra/RN,-5.4745,-36.57625071327935,13,117.87107
1,Afonso Cláudio/ES,-20.077841,-41.12606,3141,10313.57741
D1,Afonso Cláudio/ES,-20.077841,-41.12606,55,180.59432
1,Afonso Cunha/MA,-4.1326105,-43.3230026,158,2401.94588
D1,Afonso Cunha/MA,-4.1326105,-43.3230026,2,30.40438
1,Afrânio/PE,-8.5198919,-41.0070197,743,3750.63099
D1,Afrânio/PE,-8.5198919,-41.0070197,13,65.62342
1,Afuá/PA,-0.1535664,-50.3879223,2885,7291.42973
D1,Afuá/PA,-0.1535664,-50.3879223,14,35.38302
1,Agrestina/PE,-8.4558021,-35.9442663,1305,5206.46320
D1,Agrestina/PE,-8.4558021,-35.9442663,49,195.49172
1,Agricolândia/PI,-5.7967843,-42.6605131,389,7581.36815
D1,Agricolândia/PI,-5.7967843,-42.6605131,3,58.46813
1,Agrolândia/SC,-27.4122212,-49.8295774,1102,10006.35612
D1,Agrolândia/SC,-27.4122212,-49.8295774,16,145.28285
1,Agronômica/SC,-27.2660744,-49.7104753,520,9439.09966
D1,Agronômica/SC,-27.2660744,-49.7104753,9,163.36903
1,Aguanil/MG,-20.9424533,-45.3927152,452,9995.57718
D1,Aguanil/MG,-20.9424533,-45.3927152,8,176.91287
1,Aguaí/SP,-22.0592036,-46.979384,2127,5803.86379
D1,Aguaí/SP,-22.0592036,-46.979384,58,158.26239
1,Agudo/RS,-29.6423259,-53.2494005,1195,7286.14109
D1,Agudo/RS,-29.6423259,-53.2494005,20,121.94378
1,Agudos do Sul/PR,-25.9890808,-49.3328175,481,5079.19747
D1,Agudos do Sul/PR,-25.9890808,-49.3328175,17,179.51426
1,Agudos/SP,-22.471162,-48.987822,2903,7761.82455
D1,Agudos/SP,-22.471162,-48.987822,64,171.11842
1,Aguiar/PB,-7.0928404,-38.1727215,290,5150.97691
D1,Aguiar/PB,-7.0928404,-38.1727215,3,53.28597
1,Aguiarnópolis/TO,-6.5600452,-47.4721189,535,7762.62333
D1,Aguiarnópolis/TO,-6.5600452,-47.4721189,12,174.11492
1,Aimorés/MG,-19.4917754,-41.0615603,1753,6972.67412
D1,Aimorés/MG,-19.4917754,-41.0615603,54,214.78859
1,Aiquara/BA,-14.126918,-39.8887574,442,10009.05797
D1,Aiquara/BA,-14.126918,-39.8887574,11,249.09420
1,Aiuaba/CE,-6.5710836,-40.1212278,425,2429.54325
D1,Aiuaba/CE,-6.5710836,-40.1212278,9,51.44915
1,Aiuruoca/MG,-21.9759554,-44.6036637,79,1321.95448
D1,Aiuruoca/MG,-21.9759554,-44.6036637,6,100.40161
1,Ajuricaba/RS,-28.239654,-53.7693013,819,11721.76900
D1,Ajuricaba/RS,-28.239654,-53.7693013,23,329.18277
1,Alagoa Grande/PB,-7.0415212,-35.6285322,2860,10056.61240
D1,Alagoa Grande/PB,-7.0415212,-35.6285322,52,182.84750
1,Alagoa Nova/PB,-7.0653703,-35.76695977336711,764,3651.83309
D1,Alagoa Nova/PB,-7.0653703,-35.76695977336711,16,76.47818
1,Alagoa/MG,-22.1697202,-44.6400042,399,14971.85741
D1,Alagoa/MG,-22.1697202,-44.6400042,4,150.09381
1,Alagoinha do Piauí/PI,-7.0090952,-40.939675,282,3679.06067
D1,Alagoinha do Piauí/PI,-7.0090952,-40.939675,10,130.46314
1,Alagoinha/PB,-6.97063215,-35.51490901897793,1532,10521.97802
D1,Alagoinha/PB,-6.97063215,-35.51490901897793,23,157.96703
1,Alagoinha/PE,-8.50355635,-36.77701174370496,620,4212.52888
D1,Alagoinha/PE,-8.50355635,-36.77701174370496,18,122.29923
1,Alagoinhas/BA,-12.133526,-38.420772,11056,7258.06981
D1,Alagoinhas/BA,-12.133526,-38.420772,219,143.76965
1,Alambari/SP,-23.550338,-47.897971,466,7603.19791
D1,Alambari/SP,-23.550338,-47.897971,9,146.84288
1,Albertina/MG,-20.66164,-43.784039,194,6443.04218
D1,Albertina/MG,-20.66164,-43.784039,7,232.48090
1,Alcantil/PB,-7.7425491,-36.0609604,323,5863.13306
D1,Alcantil/PB,-7.7425491,-36.0609604,6,108.91269
1,Alcinópolis/MS,-18.3264121,-53.7094463,183,3378.25365
D1,Alcinópolis/MS,-18.3264121,-53.7094463,6,110.76241
1,Alcobaça/BA,-17.5215875,-39.1965474,1280,5691.41841
D1,Alcobaça/BA,-17.5215875,-39.1965474,22,97.82125
1,Alcântara/MA,-2.4038956,-44.4154241,263,1189.39942
D1,Alcântara/MA,-2.4038956,-44.4154241,14,63.31404
1,Alcântaras/CE,-3.586247,-40.5457641,1305,11077.15814
D1,Alcântaras/CE,-3.586247,-40.5457641,17,144.30014
1,Aldeias Altas/MA,-4.6291957,-43.4708622,975,3643.90627
D1,Aldeias Altas/MA,-4.6291957,-43.4708622,13,48.58542
1,Alecrim/RS,-27.6566142,-54.7653195,241,4135.91900
D1,Alecrim/RS,-27.6566142,-54.7653195,11,188.77639
1,Alegre/ES,-20.7625787,-41.5318886,1957,6528.77398
D1,Alegre/ES,-20.7625787,-41.5318886,46,153.46122
1,Alegrete do Piauí/PI,-7.2440138,-40.8602296,474,9638.06425
D1,Alegrete do Piauí/PI,-7.2440138,-40.8602296,5,101.66734
1,Alegrete/RS,-29.790166,-55.794862,7692,10532.94627
D1,Alegrete/RS,-29.790166,-55.794862,213,291.66895
1,Alegria/RS,-27.8332103,-54.0574959,312,9247.18435
D1,Alegria/RS,-27.8332103,-54.0574959,2,59.27682
1,Alenquer/PA,-1.946229,-54.738355,2733,4787.01044
D1,Alenquer/PA,-1.946229,-54.738355,106,185.66524
1,Alexandria/RN,-6.414779,-38.0135516,1100,8116.28422
D1,Alexandria/RN,-6.414779,-38.0135516,15,110.67660
1,Alexânia/GO,-16.0834049,-48.5077803,2759,9850.05355
D1,Alexânia/GO,-16.0834049,-48.5077803,67,239.20029
1,Alfenas/MG,-21.4297405,-45.9479419,6331,7865.18250
D1,Alfenas/MG,-21.4297405,-45.9479419,148,183.86464
1,Alfredo Chaves/ES,-20.624970400000002,-40.75006690147988,2113,14437.00465
D1,Alfredo Chaves/ES,-20.624970400000002,-40.75006690147988,30,204.97404
1,Alfredo Marcondes/SP,-21.9527,-51.413956,210,5019.12046
D1,Alfredo Marcondes/SP,-21.9527,-51.413956,9,215.10516
1,Alfredo Vasconcelos/MG,-21.145833,-43.776389,309,4426.29996
D1,Alfredo Vasconcelos/MG,-21.145833,-43.776389,10,143.24595
1,Alfredo Wagner/SC,-27.6961513,-49.3326734,638,6325.59984
D1,Alfredo Wagner/SC,-27.6961513,-49.3326734,7,69.40313
1,Algodão de Jandaíra/PB,-6.9040175,-36.0089879,120,4656.57742
1,Alhandra/PB,-7.4304246,-34.9106103,1665,8440.20885
D1,Alhandra/PB,-7.4304246,-34.9106103,29,147.00664
1,Aliança do Tocantins/TO,-11.3055927,-48.9409096,554,10362.88814
D1,Aliança do Tocantins/TO,-11.3055927,-48.9409096,20,374.11149
1,Aliança/PE,-7.60398,-35.222696,555,1445.42542
D1,Aliança/PE,-7.60398,-35.222696,46,119.80103
1,Almadina/BA,-14.70466,-39.6381994,587,10939.24711
D1,Almadina/BA,-14.70466,-39.6381994,9,167.72270
1,Almas/TO,-11.5681309,-47.1702803,194,2779.76788
D1,Almas/TO,-11.5681309,-47.1702803,4,57.31480
1,Almeirim/PA,-1.5290377,-52.5788111,3307,9704.77756
D1,Almeirim/PA,-1.5290377,-52.5788111,36,105.64620
1,Almenara/MG,-16.1740678,-40.6904907,3476,8248.10763
D1,Almenara/MG,-16.1740678,-40.6904907,42,99.66068
1,Almino Afonso/RN,-6.1544208,-37.7649018,370,7855.62633
D1,Almino Afonso/RN,-6.1544208,-37.7649018,10,212.31423
1,Almirante Tamandaré do Sul/RS,-28.1141129,-52.9134874,208,10672.13956
D1,Almirante Tamandaré do Sul/RS,-28.1141129,-52.9134874,2,102.61673
1,Almirante Tamandaré/PR,-25.3133048,-49.2997838,7993,6658.55833
D1,Almirante Tamandaré/PR,-25.3133048,-49.2997838,298,248.24852
1,Aloândia/GO,-17.7277983,-49.4809338,218,10976.83787
D1,Aloândia/GO,-17.7277983,-49.4809338,6,302.11480
1,Alpercata/MG,-18.9803616,-41.9827637,447,6011.29640
D1,Alpercata/MG,-18.9803616,-41.9827637,15,201.72136
1,Alpestre/RS,-27.2512339,-53.0349646,278,4582.16582
D1,Alpestre/RS,-27.2512339,-53.0349646,7,115.37828
1,Alpinópolis/MG,-20.863611,-46.387777,857,4294.01744
D1,Alpinópolis/MG,-20.863611,-46.387777,19,95.19992
1,Alta Floresta D'Oeste/RO,-11.9296917,-61.9961284,3564,15681.09820
D1,Alta Floresta D'Oeste/RO,-11.9296917,-61.9961284,55,241.99226
1,Alta Floresta/MT,-9.8715018,-56.0839881,7299,14047.61447
D1,Alta Floresta/MT,-9.8715018,-56.0839881,109,209.78079
1,Altair/SP,-20.5238955,-49.0606135,142,3392.25991
D1,Altair/SP,-20.5238955,-49.0606135,10,238.89154
1,Altamira do Maranhão/MA,-4.1643006,-45.4674574,298,3639.02796
D1,Altamira do Maranhão/MA,-4.1643006,-45.4674574,8,97.69203
1,Altamira do Paraná/PR,-24.799114,-52.7128633,157,9334.12604
D1,Altamira do Paraná/PR,-24.799114,-52.7128633,4,237.81213
1,Altamira/PA,-3.204065,-52.209961,12351,10650.25998
D1,Altamira/PA,-3.204065,-52.209961,269,231.95854
1,Altaneira/CE,-6.9980933,-39.7385742,392,5124.18301
D1,Altaneira/CE,-6.9980933,-39.7385742,11,143.79085
1,Alterosa/MG,-21.249166,-46.143055,549,3781.77309
D1,Alterosa/MG,-21.249166,-46.143055,29,199.76579
1,Altinho/PE,-8.4904095,-36.0607494,895,3894.01323
D1,Altinho/PE,-8.4904095,-36.0607494,19,82.66620
1,Altinópolis/SP,-21.021364,-47.3712,713,4400.41968
D1,Altinópolis/SP,-21.021364,-47.3712,25,154.29241
1,Alto Alegre do Maranhão/MA,-4.2055693,-44.4525287,1007,3614.76057
D1,Alto Alegre do Maranhão/MA,-4.2055693,-44.4525287,22,78.97193
1,Alto Alegre do Pindaré/MA,-3.6698186,-45.8462153,1773,5550.51185
D1,Alto Alegre do Pindaré/MA,-3.6698186,-45.8462153,43,134.61478
1,Alto Alegre dos Parecis/RO,-12.1314515,-61.856265,1341,10116.93700
D1,Alto Alegre dos Parecis/RO,-12.1314515,-61.856265,34,256.50698
1,Alto Alegre/RR,2.98858,-61.307167,1238,8049.41482
D1,Alto Alegre/RR,2.98858,-61.307167,28,182.05462
1,Alto Alegre/RS,-31.780844700000003,-52.81311114489171,160,9919.40484
D1,Alto Alegre/RS,-31.780844700000003,-52.81311114489171,1,61.99628
1,Alto Alegre/SP,-21.5820592,-50.1661976,269,6580.23483
D1,Alto Alegre/SP,-21.5820592,-50.1661976,12,293.54207
1,Alto Araguaia/MT,-17.3156528,-53.2169365,1031,5318.54527
D1,Alto Araguaia/MT,-17.3156528,-53.2169365,22,113.48981
1,Alto Bela Vista/SC,-27.4320737,-51.905771,151,7840.08307
D1,Alto Bela Vista/SC,-27.4320737,-51.905771,2,103.84216
1,Alto Boa Vista/MT,-11.6723985,-51.3744431,637,9183.96770
D1,Alto Boa Vista/MT,-11.6723985,-51.3744431,11,158.59285
1,Alto Caparaó/MG,-20.4405661,-41.8683799,351,5955.20869
D1,Alto Caparaó/MG,-20.4405661,-41.8683799,8,135.73125
1,Alto Feliz/RS,-29.3785943,-51.3123751,212,6982.87220
D1,Alto Feliz/RS,-29.3785943,-51.3123751,2,65.87615
1,Alto Garças/MT,-16.9469683,-53.529427,655,5390.50284
D1,Alto Garças/MT,-16.9469683,-53.529427,25,205.74438
1,Alto Horizonte/GO,-14.1954948,-49.3366993,679,10280.09084
D1,Alto Horizonte/GO,-14.1954948,-49.3366993,7,105.98032
1,Alto Jequitibá/MG,-20.423611,-41.966111,600,7228.04481
D1,Alto Jequitibá/MG,-20.423611,-41.966111,9,108.42067
1,Alto Longá/PI,-5.2549051,-42.2072388,573,3996.09457
D1,Alto Longá/PI,-5.2549051,-42.2072388,13,90.66183
1,Alto Paraguai/MT,-14.513712,-56.4936374,761,6632.96435
D1,Alto Paraguai/MT,-14.513712,-56.4936374,25,217.90290
1,Alto Paraná/PR,-23.131247,-52.318893,768,5168.58470
D1,Alto Paraná/PR,-23.131247,-52.318893,18,121.13870
1,Alto Paraíso de Goiás/GO,-14.1304779,-47.5100161,566,7362.12279
D1,Alto Paraíso de Goiás/GO,-14.1304779,-47.5100161,7,91.05099
1,Alto Paraíso/PR,-23.508137,-53.728537,158,5884.54376
D1,Alto Paraíso/PR,-23.508137,-53.728537,2,74.48790
1,Alto Paraíso/RO,-9.7240103,-63.3188123,1645,7529.63794
D1,Alto Paraíso/RO,-9.7240103,-63.3188123,38,173.93692
1,Alto Parnaíba/MA,-9.112506,-45.9310154,699,6234.39172
D1,Alto Parnaíba/MA,-9.112506,-45.9310154,5,44.59508
1,Alto Piquiri/PR,-24.0239021,-53.4417448,584,5972.59153
D1,Alto Piquiri/PR,-24.0239021,-53.4417448,15,153.40560
1,Alto Rio Doce/MG,-21.0239537,-43.4133507,307,2827.14799
D1,Alto Rio Doce/MG,-21.0239537,-43.4133507,23,211.80588
1,Alto Rio Novo/ES,-19.0577208,-41.0171518,657,8343.91669
D1,Alto Rio Novo/ES,-19.0577208,-41.0171518,21,266.70053
1,Alto Santo/CE,-5.5190371,-38.2719351,1062,6175.85485
D1,Alto Santo/CE,-5.5190371,-38.2719351,20,116.30612
1,Alto Taquari/MT,-17.8269099,-53.2831736,1338,12018.32390
D1,Alto Taquari/MT,-17.8269099,-53.2831736,26,233.53993
1,Alto do Rodrigues/RN,-5.290868,-36.7616726,1565,10626.01847
D1,Alto do Rodrigues/RN,-5.290868,-36.7616726,29,196.90386
1,Altos/PI,-5.0393915,-42.4611694,3901,9607.19123
D1,Altos/PI,-5.0393915,-42.4611694,79,194.55732
1,Altônia/PR,-23.8722004,-53.894037,880,3968.25397
D1,Altônia/PR,-23.8722004,-53.894037,17,76.65945
1,Alumínio/SP,-23.5203479,-47.2575256,1175,6260.99004
D1,Alumínio/SP,-23.5203479,-47.2575256,37,197.15458
1,Alvarenga/MG,-19.4175,-41.728334,376,9781.47763
D1,Alvarenga/MG,-19.4175,-41.728334,4,104.05827
1,Alvarães/AM,-3.214786,-64.8143124,2733,16849.56843
D1,Alvarães/AM,-3.214786,-64.8143124,43,265.10481
1,Alvinlândia/SP,-22.4431852,-49.7643596,121,3738.02904
D1,Alvinlândia/SP,-22.4431852,-49.7643596,7,216.24961
1,Alvinópolis/MG,-20.1105199,-43.0601805,548,3612.63102
D1,Alvinópolis/MG,-20.1105199,-43.0601805,17,112.07067
1,Alvorada D'Oeste/RO,-11.346271,-62.284697,888,6295.19353
D1,Alvorada D'Oeste/RO,-11.346271,-62.284697,24,170.14037
1,Alvorada de Minas/MG,-18.7318587,-43.3641479,238,6601.94175
D1,Alvorada de Minas/MG,-18.7318587,-43.3641479,1,27.73925
1,Alvorada do Gurguéia/PI,-8.4465288,-43.8655915,284,5215.79431
D1,Alvorada do Gurguéia/PI,-8.4465288,-43.8655915,9,165.28926
1,Alvorada do Norte/GO,-14.483911,-46.4959897,614,7053.41758
D1,Alvorada do Norte/GO,-14.483911,-46.4959897,2,22.97530
1,Alvorada do Sul/PR,-22.7807269,-51.2307721,642,5581.15274
D1,Alvorada do Sul/PR,-22.7807269,-51.2307721,21,182.56107
1,Alvorada/RS,-29.9981184,-51.0772509,18462,8735.19058
D1,Alvorada/RS,-29.9981184,-51.0772509,659,311.80211
1,Alvorada/TO,-12.478465,-49.124926,1027,12232.01525
D1,Alvorada/TO,-12.478465,-49.124926,18,214.38780
1,Além Paraíba/MG,-21.8760576,-42.6810473,2703,7635.37753
D1,Além Paraíba/MG,-21.8760576,-42.6810473,131,370.04604
1,Amajari/RR,3.6523869,-61.4194315,892,6765.26356
D1,Amajari/RR,3.6523869,-61.4194315,19,144.10315
1,Amambai/MS,-23.1082701,-55.2284854,2194,5508.96399
D1,Amambai/MS,-23.1082701,-55.2284854,40,100.43690
1,Amaporã/PR,-23.094272,-52.786597,262,4137.71320
D1,Amaporã/PR,-23.094272,-52.786597,5,78.96399
1,Amapá do Maranhão/MA,-1.6762114,-46.0109669,172,2455.38901
D1,Amapá do Maranhão/MA,-1.6762114,-46.0109669,4,57.10207
1,Amapá/AP,2.0529997,-50.7930003,1252,13627.95254
D1,Amapá/AP,2.0529997,-50.7930003,10,108.84946
1,Amaraji/PE,-8.373925,-35.4536527,444,1941.40796
D1,Amaraji/PE,-8.373925,-35.4536527,28,122.43113
1,Amaral Ferrador/RS,-30.8750633,-52.2542051,200,2822.86521
D1,Amaral Ferrador/RS,-30.8750633,-52.2542051,4,56.45730
1,Amaralina/GO,-13.9236199,-49.2962411,58,1508.45254
1,Amarante do Maranhão/MA,-5.56913,-46.747284,1526,3656.92923
D1,Amarante do Maranhão/MA,-5.56913,-46.747284,54,129.40641
1,Amarante/PI,-6.2459374,-42.8476238,1351,7674.39218
D1,Amarante/PI,-6.2459374,-42.8476238,30,170.41581
1,Amargosa/BA,-13.03793715,-39.60796443875596,2321,6199.08656
D1,Amargosa/BA,-13.03793715,-39.60796443875596,46,122.85997
1,Amaturá/AM,-3.3640509,-68.1994689,2338,19921.60873
D1,Amaturá/AM,-3.3640509,-68.1994689,17,144.85344
1,Americana/SP,-22.7392463,-47.3306032,16675,6889.98339
D1,Americana/SP,-22.7392463,-47.3306032,515,212.79409
1,Americano do Brasil/GO,-16.2515808,-49.9806104,410,6651.52498
D1,Americano do Brasil/GO,-16.2515808,-49.9806104,15,243.34848
1,Ametista do Sul/RS,-27.3617341,-53.1826575,532,7186.27583
D1,Ametista do Sul/RS,-27.3617341,-53.1826575,12,162.09645
1,Amontada/CE,-3.3634586,-39.8284791,2422,5526.02158
D1,Amontada/CE,-3.3634586,-39.8284791,43,98.10856
1,Amorinópolis/GO,-16.6211308,-51.0949921,167,5441.51189
D1,Amorinópolis/GO,-16.6211308,-51.0949921,2,65.16781
1,Amparo de São Francisco/SE,-10.1299754,-36.9269099,174,7310.92437
D1,Amparo de São Francisco/SE,-10.1299754,-36.9269099,3,126.05042
1,Amparo do Serra/MG,-20.5070255,-42.8028462,122,2607.95212
D1,Amparo do Serra/MG,-20.5070255,-42.8028462,4,85.50663
1,Amparo/PB,-7.56394725,-37.04652873235175,158,7019.10262
D1,Amparo/PB,-7.56394725,-37.04652873235175,4,177.69880
1,Amparo/SP,-22.70111,-46.76444,4483,6168.38890
D1,Amparo/SP,-22.70111,-46.76444,108,148.60272
1,Ampére/PR,-25.9168712,-53.4742414,1060,5489.09948
D1,Ampére/PR,-25.9168712,-53.4742414,27,139.81668
1,Amélia Rodrigues/BA,-12.4015388,-38.7516971,1838,7337.91121
D1,Amélia Rodrigues/BA,-12.4015388,-38.7516971,37,147.71638
1,América Dourada/BA,-11.4515262,-41.4357517,748,4648.85022
D1,América Dourada/BA,-11.4515262,-41.4357517,7,43.50528
1,Américo Brasiliense/SP,-21.7297099,-48.1052092,3210,7823.16241
D1,Américo Brasiliense/SP,-21.7297099,-48.1052092,75,182.78417
1,Américo de Campos/SP,-20.298476,-49.735904,634,10600.23407
D1,Américo de Campos/SP,-20.298476,-49.735904,22,367.83147
1,Anadia/AL,-9.6830208,-36.3052699,1114,6356.27068
D1,Anadia/AL,-9.6830208,-36.3052699,24,136.93940
1,Anagé/BA,-14.6134669,-41.1376308,790,3656.22252
D1,Anagé/BA,-14.6134669,-41.1376308,16,74.05008
1,Anahy/PR,-24.6450861,-53.1337957,320,11477.76184
D1,Anahy/PR,-24.6450861,-53.1337957,6,215.20803
1,Anajatuba/MA,-3.26441,-44.6179916,788,2919.81621
D1,Anajatuba/MA,-3.26441,-44.6179916,18,66.69631
1,Anajás/PA,-0.9878802,-49.9390114,1313,4422.66236
D1,Anajás/PA,-0.9878802,-49.9390114,20,67.36729
1,Analândia/SP,-22.128917,-47.661939,261,5162.18354
D1,Analândia/SP,-22.128917,-47.661939,3,59.33544
1,Anamã/AM,-3.5797356,-61.4049996,1722,12338.77902
D1,Anamã/AM,-3.5797356,-61.4049996,9,64.48839
1,Ananindeua/PA,-1.374035,-48.4016623,20382,3805.82843
D1,Ananindeua/PA,-1.374035,-48.4016623,734,137.05613
1,Ananás/TO,-6.3663053,-48.080238,1417,14928.36072
D1,Ananás/TO,-6.3663053,-48.080238,20,210.70375
1,Anapu/PA,-3.4668292,-51.2057035,1298,4537.35100
D1,Anapu/PA,-3.4668292,-51.2057035,33,115.35638
1,Anapurus/MA,-3.6751298,-43.1046001,828,5209.51302
D1,Anapurus/MA,-3.6751298,-43.1046001,11,69.20851
1,Anastácio/MS,-20.4832458,-55.8048448,1757,6962.00024
D1,Anastácio/MS,-20.4832458,-55.8048448,56,221.89642
1,Anaurilândia/MS,-22.185169,-52.719056,320,3525.78228
D1,Anaurilândia/MS,-22.185169,-52.719056,11,121.19877
1,Anchieta/ES,-20.8057672,-40.6454564,4273,14349.03791
D1,Anchieta/ES,-20.8057672,-40.6454564,73,245.13919
1,Anchieta/SC,-26.5350527,-53.3293938,414,7450.06298
D1,Anchieta/SC,-26.5350527,-53.3293938,6,107.97193
1,Andaraí/BA,-12.8059674,-41.3322919,658,5010.66098
D1,Andaraí/BA,-12.8059674,-41.3322919,6,45.68992
1,Andirá/PR,-23.0494761,-50.2310027,1621,8135.09987
D1,Andirá/PR,-23.0494761,-50.2310027,60,301.11412
1,Andorinha/BA,-10.3445708,-39.8334411,722,4978.28036
D1,Andorinha/BA,-10.3445708,-39.8334411,11,75.84638
1,Andradas/MG,-22.0680484,-46.5688976,2728,6590.00870
D1,Andradas/MG,-22.0680484,-46.5688976,79,190.83969
1,Andradina/SP,-20.896505,-51.3742765,4743,8291.66812
D1,Andradina/SP,-20.896505,-51.3742765,204,356.63089
1,Andrelândia/MG,-21.739722,-44.308889,206,1687.69458
D1,Andrelândia/MG,-21.739722,-44.308889,7,57.34884
1,André da Rocha/RS,-28.6309124,-51.5733328,98,7297.09605
1,Angatuba/SP,-23.4938938,-48.4110675,2225,8732.68182
D1,Angatuba/SP,-23.4938938,-48.4110675,58,227.63845
1,Angelim/PE,-8.8902038,-36.2872987,160,1425.26278
D1,Angelim/PE,-8.8902038,-36.2872987,6,53.44735
1,Angelina/SC,-27.5805287,-48.9838759,458,9656.33565
D1,Angelina/SC,-27.5805287,-48.9838759,1,21.08370
1,Angelândia/MG,-17.7253,-42.2728,90,1051.77048
D1,Angelândia/MG,-17.7253,-42.2728,1,11.68634
1,Angical do Piauí/PI,-6.0872666,-42.7366138,573,8447.58956
D1,Angical do Piauí/PI,-6.0872666,-42.7366138,8,117.94191
1,Angical/BA,-12.005623,-44.7000236,498,3572.96599
D1,Angical/BA,-12.005623,-44.7000236,10,71.74631
1,Angico/TO,-6.3893733,-47.8656722,208,6022.00347
D1,Angico/TO,-6.3893733,-47.8656722,3,86.85582
1,Angicos/RN,-5.6666344,-36.6009064,646,5519.00897
D1,Angicos/RN,-5.6666344,-36.6009064,15,128.15036
1,Angra dos Reis/RJ,-23.0063966,-44.316326,12515,6044.60888
D1,Angra dos Reis/RJ,-23.0063966,-44.316326,413,199.47451
1,Anguera/BA,-12.1509425,-39.2452469,341,3018.50049
D1,Anguera/BA,-12.1509425,-39.2452469,1,8.85191
1,Angélica/MS,-22.1588196,-53.7728504,698,6384.92499
D1,Angélica/MS,-22.1588196,-53.7728504,15,137.21186
1,Anhanguera/GO,-18.3338749,-48.220363,88,7586.20690
D1,Anhanguera/GO,-18.3338749,-48.220363,6,517.24138
1,Anhembi/SP,-22.7891096,-48.1316776,185,2713.00777
D1,Anhembi/SP,-22.7891096,-48.1316776,5,73.32453
1,Anhumas/SP,-22.2956478,-51.3873401,193,4657.33591
D1,Anhumas/SP,-22.2956478,-51.3873401,4,96.52510
1,Anicuns/GO,-16.4606451,-49.9572265,2259,10277.05746
D1,Anicuns/GO,-16.4606451,-49.9572265,56,254.76548
1,Anita Garibaldi/SC,-27.6855032,-51.1293873,1023,14704.61406
D1,Anita Garibaldi/SC,-27.6855032,-51.1293873,8,114.99209
1,Anitápolis/SC,-27.9041185,-49.1287395,307,9510.53284
D1,Anitápolis/SC,-27.9041185,-49.1287395,1,30.97893
1,Anori/AM,-3.7435254,-61.6605203,1848,8604.55371
D1,Anori/AM,-3.7435254,-61.6605203,31,144.34046
1,Anta Gorda/RS,-28.9718745,-52.0069187,556,9327.29408
D1,Anta Gorda/RS,-28.9718745,-52.0069187,4,67.10284
1,Antas/BA,-10.4114649,-38.3308815,1060,5441.75779
D1,Antas/BA,-10.4114649,-38.3308815,7,35.93614
1,Antonina do Norte/CE,-6.7754187,-39.9879345,532,7210.62619
D1,Antonina do Norte/CE,-6.7754187,-39.9879345,19,257.52236
1,Antonina/PR,-25.4298854,-48.7125431,2153,11362.07715
D1,Antonina/PR,-25.4298854,-48.7125431,56,295.53011
1,Antônio Almeida/PI,-7.2186016,-44.1950248,403,12712.93375
D1,Antônio Almeida/PI,-7.2186016,-44.1950248,10,315.45741
1,Antônio Cardoso/BA,-12.4363122,-39.1200307,340,2911.70677
D1,Antônio Cardoso/BA,-12.4363122,-39.1200307,7,59.94690
1,Antônio Carlos/MG,-21.318334,-43.746666,472,4119.03307
D1,Antônio Carlos/MG,-21.318334,-43.746666,8,69.81412
1,Antônio Carlos/SC,-27.5168462,-48.7684715,1438,16695.69256
D1,Antônio Carlos/SC,-27.5168462,-48.7684715,20,232.20713
1,Antônio Dias/MG,-19.6525,-42.872778,487,5250.67385
D1,Antônio Dias/MG,-19.6525,-42.872778,22,237.19677
1,Antônio Gonçalves/BA,-10.5715409,-40.2748824,674,5674.35595
D1,Antônio Gonçalves/BA,-10.5715409,-40.2748824,8,67.35141
1,Antônio João/MS,-22.1892837,-55.9508227,330,3658.53659
D1,Antônio João/MS,-22.1892837,-55.9508227,7,77.60532
1,Antônio Martins/RN,-6.2155812,-37.8890129,466,6513.83841
D1,Antônio Martins/RN,-6.2155812,-37.8890129,4,55.91278
1,Antônio Olinto/PR,-25.9849006,-50.1974516,340,4577.89148
D1,Antônio Olinto/PR,-25.9849006,-50.1974516,8,107.71509
1,Antônio Prado de Minas/MG,-21.0171988,-42.1101106,154,9703.84373
D1,Antônio Prado de Minas/MG,-21.0171988,-42.1101106,5,315.05986
1,Antônio Prado/RS,-28.8567806,-51.2801355,1956,14994.25067
D1,Antônio Prado/RS,-28.8567806,-51.2801355,18,137.98390
1,Anápolis/GO,-16.3332828,-48.9525756,33382,8520.77229
D1,Anápolis/GO,-16.3332828,-48.9525756,1153,294.30383
1,Anísio de Abreu/PI,-9.185643,-43.04941,284,2857.71785
D1,Anísio de Abreu/PI,-9.185643,-43.04941,9,90.56148
1,Aparecida d'Oeste/SP,-20.4498109,-50.8808706,612,14718.61472
D1,Aparecida d'Oeste/SP,-20.4498109,-50.8808706,12,288.60029
1,Aparecida de Goiânia/GO,-16.8226769,-49.2452546,62600,10607.54457
D1,Aparecida de Goiânia/GO,-16.8226769,-49.2452546,1194,202.32282
1,Aparecida do Rio Doce/GO,-18.2980167,-51.1491312,184,7437.34842
D1,Aparecida do Rio Doce/GO,-18.2980167,-51.1491312,3,121.26112
1,Aparecida do Rio Negro/TO,-9.9513491,-47.9773786,303,6250.00000
D1,Aparecida do Rio Negro/TO,-9.9513491,-47.9773786,5,103.13531
1,Aparecida do Taboado/MS,-20.0840304,-51.1013943,2522,9674.32583
D1,Aparecida do Taboado/MS,-20.0840304,-51.1013943,39,149.60298
1,Aparecida/PB,-6.7859598, -38.0831353,689,8186.78707
D1,Aparecida/PB,-6.7859598, -38.0831353,11,130.70342
1,Aparecida/SP,-22.851552,-45.2340924,2095,5789.69186
D1,Aparecida/SP,-22.851552,-45.2340924,72,198.97748
1,Aperibé/RJ,-21.6211928,-42.1028167,501,4209.73027
D1,Aperibé/RJ,-21.6211928,-42.1028167,19,159.65045
1,Apiacá/ES,-21.152272,-41.569297,664,8790.04501
D1,Apiacá/ES,-21.152272,-41.569297,28,370.66455
1,Apiacás/MT,-9.5678422,-57.394852,1459,14188.46640
D1,Apiacás/MT,-9.5678422,-57.394852,13,126.42225
1,Apiaí/SP,-24.5076527,-48.8461582,1010,4169.07455
D1,Apiaí/SP,-24.5076527,-48.8461582,60,247.66779
1,Apicum-Açu/MA,-1.5279295,-45.082278,443,2544.07626
D1,Apicum-Açu/MA,-1.5279295,-45.082278,3,17.22851
1,Apiúna/SC,-27.0374658,-49.3885037,744,6858.40708
D1,Apiúna/SC,-27.0374658,-49.3885037,15,138.27434
1,Apodi/RN,-5.6631109,-37.796927,4865,13561.35363
D1,Apodi/RN,-5.6631109,-37.796927,72,200.70246
1,Aporá/BA,-11.6599747,-38.0794757,460,2586.01304
D1,Aporá/BA,-11.6599747,-38.0794757,18,101.19181
1,Aporé/GO,-18.9642193,-51.92804,324,7655.95463
D1,Aporé/GO,-18.9642193,-51.92804,9,212.66541
1,Apuarema/BA,-13.8517897,-39.7457126,639,8751.02712
D1,Apuarema/BA,-13.8517897,-39.7457126,9,123.25390
1,Apucarana/PR,-23.5525327,-51.4610764,7460,5475.87240
D1,Apucarana/PR,-23.5525327,-51.4610764,257,188.64601
1,Apuiarés/CE,-3.9460303,-39.4313298,927,6318.15703
D1,Apuiarés/CE,-3.9460303,-39.4313298,16,109.05125
1,Apuí/AM,-7.1940195,-59.8830192,1248,5581.64498
D1,Apuí/AM,-7.1940195,-59.8830192,27,120.75674
1,Aquidabã/SE,-10.2837579,-37.0188687,1810,8348.32342
D1,Aquidabã/SE,-10.2837579,-37.0188687,31,142.98233
1,Aquidauana/MS,-20.473969,-55.7821375,4099,8534.42712
D1,Aquidauana/MS,-20.473969,-55.7821375,120,249.84905
1,Aquiraz/CE,-3.9063117,-38.387504,5529,6831.40792
D1,Aquiraz/CE,-3.9063117,-38.387504,76,93.90251
1,Arabutã/SC,-27.1587028,-52.1438142,386,9046.16827
D1,Arabutã/SC,-27.1587028,-52.1438142,6,140.61401
1,Aracaju/SE,-10.9162061,-37.0774655,103069,15501.24228
D1,Aracaju/SE,-10.9162061,-37.0774655,1882,283.04668
1,Aracati/CE,-4.558259,-37.767894,5821,7763.92131
D1,Aracati/CE,-4.558259,-37.767894,118,157.38580
1,Aracatu/BA,-14.4274236,-41.4604105,731,5603.67957
D1,Aracatu/BA,-14.4274236,-41.4604105,14,107.32081
1,Araci/BA,-11.3356065,-38.9573261,3207,5868.46728
D1,Araci/BA,-11.3356065,-38.9573261,42,76.85551
1,Aracitaba/MG,-21.3425,-43.378611,77,3739.67946
D1,Aracitaba/MG,-21.3425,-43.378611,8,388.53813
1,Aracoiaba/CE,-4.3702577,-38.8084313,2980,11230.45035
D1,Aracoiaba/CE,-4.3702577,-38.8084313,27,101.75240
1,Aracruz/ES,-19.8245218,-40.2735025,13826,13410.15121
D1,Aracruz/ES,-19.8245218,-40.2735025,197,191.07477
1,Aragarças/GO,-15.8957166,-52.2514538,1908,9411.53258
D1,Aragarças/GO,-15.8957166,-52.2514538,44,217.03744
1,Aragoiânia/GO,-16.9146388,-49.4499148,912,8689.02439
D1,Aragoiânia/GO,-16.9146388,-49.4499148,17,161.96646
1,Aragominas/TO,-7.1654101,-48.525488,465,8113.76723
D1,Aragominas/TO,-7.1654101,-48.525488,8,139.59169
1,Araguacema/TO,-8.8067391,-49.5560969,477,6666.66667
D1,Araguacema/TO,-8.8067391,-49.5560969,11,153.73864
1,Araguaiana/MT,-15.729144,-51.834112,176,5660.98424
D1,Araguaiana/MT,-15.729144,-51.834112,4,128.65873
1,Araguainha/MT,-16.857016,-53.031778,22,2325.58140
1,Araguanã/MA,-2.9508403,-45.6651986,754,4848.56279
D1,Araguanã/MA,-2.9508403,-45.6651986,5,32.15227
1,Araguanã/TO,-6.5799107,-48.6428482,410,7077.50734
D1,Araguanã/TO,-6.5799107,-48.6428482,12,207.14656
1,Araguapaz/GO,-15.0937927,-50.626417,460,5910.31736
D1,Araguapaz/GO,-15.0937927,-50.626417,19,244.12180
1,Araguari/MG,-18.6511256,-48.1933764,12318,10454.48759
D1,Araguari/MG,-18.6511256,-48.1933764,338,286.86612
1,Araguatins/TO,-5.6522925,-48.1158973,1939,5360.79624
D1,Araguatins/TO,-5.6522925,-48.1158973,50,138.23611
1,Araguaçu/TO,-12.928934,-49.823134,775,9153.18295
D1,Araguaçu/TO,-12.928934,-49.823134,17,200.77950
1,Araguaína/TO,-7.193241,-48.2018597,28339,15453.61842
D1,Araguaína/TO,-7.193241,-48.2018597,377,205.58291
1,Araioses/MA,-2.890914,-41.904993,631,1349.12660
D1,Araioses/MA,-2.890914,-41.904993,12,25.65692
1,Aral Moreira/MS,-22.951141,-55.6268421,378,3065.19624
D1,Aral Moreira/MS,-22.951141,-55.6268421,9,72.98086
1,Aramari/BA,-12.0907897,-38.4985065,519,4528.40066
D1,Aramari/BA,-12.0907897,-38.4985065,11,95.97766
1,Arambaré/RS,-30.9132252,-51.4994625,159,4463.78439
D1,Arambaré/RS,-30.9132252,-51.4994625,5,140.37058
1,Arame/MA,-4.8858769,-46.0102484,1111,3390.91686
D1,Arame/MA,-4.8858769,-46.0102484,35,106.82456
1,Aramina/SP,-20.0876144,-47.789201,258,4562.33422
D1,Aramina/SP,-20.0876144,-47.789201,10,176.83466
1,Arandu/SP,-23.1345103,-49.0545651,297,4666.14297
D1,Arandu/SP,-23.1345103,-49.0545651,7,109.97643
1,Arantina/MG,-21.911667,-44.255833,131,4700.39469
D1,Arantina/MG,-21.911667,-44.255833,3,107.64263
1,Arapeí/SP,-22.6738889,-44.4477778,181,7357.72358
D1,Arapeí/SP,-22.6738889,-44.4477778,2,81.30081
1,Arapiraca/AL,-9.754866,-36.661471,22694,9737.94986
D1,Arapiraca/AL,-9.754866,-36.661471,360,154.47528
1,Arapoema/TO,-7.6575001,-49.0641484,412,6227.32769
D1,Arapoema/TO,-7.6575001,-49.0641484,6,90.68924
1,Araponga/MG,-20.666667,-42.520556,362,4282.50325
D1,Araponga/MG,-20.666667,-42.520556,6,70.98072
1,Arapongas/PR,-23.415296,-51.42592,10288,8242.92925
D1,Arapongas/PR,-23.415296,-51.42592,394,315.67983
1,Araporã/MG,-18.4318188,-49.188313,1635,23589.66960
D1,Araporã/MG,-18.4318188,-49.188313,22,317.41451
1,Arapoti/PR,-24.1457957,-49.8224605,2323,8208.48057
D1,Arapoti/PR,-24.1457957,-49.8224605,41,144.87633
1,Araputanga/MT,-15.4710868,-58.346796,1677,9893.22164
D1,Araputanga/MT,-15.4710868,-58.346796,43,253.67235
1,Arapuá/MG,-19.034444,-46.155556,180,6349.20635
D1,Arapuá/MG,-19.034444,-46.155556,2,70.54674
1,Arapuã/PR,-24.3079525,-51.7901941,181,6015.28747
D1,Arapuã/PR,-24.3079525,-51.7901941,5,166.16816
1,Araquari/SC,-26.3703324,-48.7210994,3139,7942.00992
D1,Araquari/SC,-26.3703324,-48.7210994,66,166.98715
1,Arara/PB,-6.8271895,-35.7605703,717,5294.63890
D1,Arara/PB,-6.8271895,-35.7605703,20,147.68867
1,Araranguá/SC,-28.9348832,-49.4858389,8952,12998.96903
D1,Araranguá/SC,-28.9348832,-49.4858389,201,291.86693
1,Araraquara/SP,-21.7886713,-48.1773096,16962,7116.75387
D1,Araraquara/SP,-21.7886713,-48.1773096,386,161.95419
1,Araras/SP,-22.3569477,-47.3838889,13556,10003.98506
D1,Araras/SP,-22.3569477,-47.3838889,303,223.60633
1,Ararendá/CE,-4.7504395,-40.8303611,769,7017.06360
D1,Ararendá/CE,-4.7504395,-40.8303611,16,145.99872
1,Arari/MA,-3.4547602,-44.7772723,675,2255.11159
D1,Arari/MA,-3.4547602,-44.7772723,24,80.18175
1,Araricá/RS,-29.6168543,-50.929121,952,16496.27448
D1,Araricá/RS,-29.6168543,-50.929121,24,415.87247
1,Araripe/CE,-7.212861,-40.1359222,874,4036.20578
D1,Araripe/CE,-7.212861,-40.1359222,13,60.03510
1,Araripina/PE,-7.5768582,-40.5038509,5627,6630.60897
D1,Araripina/PE,-7.5768582,-40.5038509,119,140.22436
1,Araruama/RJ,-22.8733203,-42.3428897,4987,3713.52193
D1,Araruama/RJ,-22.8733203,-42.3428897,309,230.09390
1,Araruna/PB,-6.5321155,-35.7397595,595,2907.68704
D1,Araruna/PB,-6.5321155,-35.7397595,16,78.18990
1,Araruna/PR,-23.9320308,-52.4976047,1095,7821.42857
D1,Araruna/PR,-23.9320308,-52.4976047,19,135.71429
1,Arataca/BA,-15.2617424,-39.4122943,515,4698.47642
D1,Arataca/BA,-15.2617424,-39.4122943,14,127.72557
1,Aratiba/RS,-27.3955734,-52.3024325,346,5590.56390
D1,Aratiba/RS,-27.3955734,-52.3024325,6,96.94619
1,Aratuba/CE,-4.4195958,-39.0463737,1144,9693.27233
D1,Aratuba/CE,-4.4195958,-39.0463737,8,67.78512
1,Aratuípe/BA,-13.077137,-39.0010786,318,3598.50628
D1,Aratuípe/BA,-13.077137,-39.0010786,8,90.52846
1,Araucária/PR,-25.5861107,-49.4051209,20153,13783.22185
D1,Araucária/PR,-25.5861107,-49.4051209,318,217.48943
1,Arauá/SE,-11.2644014,-37.6181058,966,9711.47080
D1,Arauá/SE,-11.2644014,-37.6181058,18,180.95908
1,Araxá/MG,-19.5928536,-46.940241,9397,8754.66987
D1,Araxá/MG,-19.5928536,-46.940241,144,134.15691
1,Araçagi/PB,-6.8519969,-35.3835602,1017,6010.28308
D1,Araçagi/PB,-6.8519969,-35.3835602,12,70.91779
1,Araçariguama/SP,-23.438611,-47.061389,1298,5678.04024
D1,Araçariguama/SP,-23.438611,-47.061389,44,192.47594
1,Araçatuba/SP,-21.207992,-50.4390225,21978,11092.77289
D1,Araçatuba/SP,-21.207992,-50.4390225,648,327.05964
1,Araçaí/MG,-19.200833,-44.2475,49,2081.56330
1,Araçoiaba da Serra/SP,-23.5045367,-47.6168158,2102,6044.39844
D1,Araçoiaba da Serra/SP,-23.5045367,-47.6168158,50,143.77732
1,Araçoiaba/PE,-7.7856903,-35.0898881,477,2300.68008
D1,Araçoiaba/PE,-7.7856903,-35.0898881,24,115.75749
1,Araçu/GO,-16.3561579,-49.6815269,377,10814.68732
D1,Araçu/GO,-16.3561579,-49.6815269,15,430.29260
1,Araçuaí/MG,-16.8484451,-42.0661868,1260,3432.12029
D1,Araçuaí/MG,-16.8484451,-42.0661868,26,70.82153
1,Araçás/BA,-12.2139176,-38.2026159,551,4513.43381
D1,Araçás/BA,-12.2139176,-38.2026159,7,57.33945
1,Araújos/MG,-19.948055,-45.165556,572,6084.45910
D1,Araújos/MG,-19.948055,-45.165556,8,85.09733
1,Arceburgo/MG,-21.364444,-46.939722,779,7157.95277
D1,Arceburgo/MG,-21.364444,-46.939722,18,165.39557
1,Arco-Íris/SP,-21.7741308,-50.4668814,101,5696.55950
D1,Arco-Íris/SP,-21.7741308,-50.4668814,6,338.40948
1,Arcos/MG,-20.282223,-45.539444,4337,10740.46558
D1,Arcos/MG,-20.282223,-45.539444,98,242.69440
1,Arcoverde/PE,-8.415192,-37.057748,4978,6653.12341
D1,Arcoverde/PE,-8.415192,-37.057748,105,140.33306
1,Areado/MG,-21.3582771,-46.1476688,541,3563.66511
D1,Areado/MG,-21.3582771,-46.1476688,15,98.80772
1,Areal/RJ,-22.2314922,-43.1056264,896,7072.38140
D1,Areal/RJ,-22.2314922,-43.1056264,37,292.05146
1,Arealva/SP,-22.0301906,-48.9111936,611,7093.92778
D1,Arealva/SP,-22.0301906,-48.9111936,9,104.49321
1,Areia Branca/RN,-4.9506652,-37.1263312,1989,7111.95337
D1,Areia Branca/RN,-4.9506652,-37.1263312,83,296.77835
1,Areia Branca/SE,-10.7591455,-37.3148072,1504,8048.80659
D1,Areia Branca/SE,-10.7591455,-37.3148072,37,198.00920
1,Areia de Baraúnas/PB,-7.1233949,-36.9446216,94,4442.34405
D1,Areia de Baraúnas/PB,-7.1233949,-36.9446216,3,141.77694
1,Areia/PB,-6.9680243,-35.6994783,1087,4797.84605
D1,Areia/PB,-6.9680243,-35.6994783,22,97.10452
1,Areial/PB,-7.0501306,-35.9245244,257,3657.32176
D1,Areial/PB,-7.0501306,-35.9245244,6,85.38494
1,Areias/SP,-22.5800929,-44.6975127,233,5980.49281
D1,Areias/SP,-22.5800929,-44.6975127,1,25.66735
1,Areiópolis/SP,-22.6758064,-48.6673653,970,8693.31421
D1,Areiópolis/SP,-22.6758064,-48.6673653,13,116.50833
1,Arenápolis/MT,-14.4610369,-56.8432806,1296,13639.23385
D1,Arenápolis/MT,-14.4610369,-56.8432806,21,221.00610
1,Arenópolis/GO,-16.3859286,-51.55937,164,6466.87697
D1,Arenópolis/GO,-16.3859286,-51.55937,8,315.45741
1,Argirita/MG,-21.612761,-42.8371922,247,9134.61538
D1,Argirita/MG,-21.612761,-42.8371922,5,184.91124
1,Aricanduva/MG,-17.8678,-42.5569,82,1556.27254
1,Arinos/MG,-15.917223,-46.106111,487,2726.45840
D1,Arinos/MG,-15.917223,-46.106111,12,67.18173
1,Aripuanã/MT,-10.175806,-59.4439663,2191,9646.03328
D1,Aripuanã/MT,-10.175806,-59.4439663,40,176.10284
1,Ariquemes/RO,-9.9076522,-63.033069,18973,17323.30195
D1,Ariquemes/RO,-9.9076522,-63.033069,412,376.17669
1,Ariranha do Ivaí/PR,-24.3834527,-51.5876772,129,6243.94966
D1,Ariranha do Ivaí/PR,-24.3834527,-51.5876772,2,96.80542
1,Ariranha/SP,-21.18716,-48.790418,416,4261.85842
D1,Ariranha/SP,-21.18716,-48.790418,14,143.42793
1,Armazém/SC,-28.2624996,-49.0190126,1330,15184.38178
D1,Armazém/SC,-28.2624996,-49.0190126,27,308.25437
1,Armação dos Búzios/RJ,-22.7597805,-41.8875267,4055,11761.46416
D1,Armação dos Búzios/RJ,-22.7597805,-41.8875267,44,127.62131
1,Arneiroz/CE,-6.3235099,-40.1603859,482,6144.82407
D1,Arneiroz/CE,-6.3235099,-40.1603859,13,165.73177
1,Aroazes/PI,-6.1108814,-41.7886137,531,9112.75099
D1,Aroazes/PI,-6.1108814,-41.7886137,12,205.93788
1,Aroeiras do Itaim/PI,-7.2797031,-41.5629681,100,3920.03136
D1,Aroeiras do Itaim/PI,-7.2797031,-41.5629681,2,78.40063
1,Aroeiras/PB,-7.5462904,-35.7080002,874,4572.08621
D1,Aroeiras/PB,-7.5462904,-35.7080002,6,31.38732
1,Arraial do Cabo/RJ,-22.9662839,-42.024427,619,2023.33867
D1,Arraial do Cabo/RJ,-22.9662839,-42.024427,26,84.98676
1,Arraial/PI,-6.6541632,-42.5335332,140,2966.10169
D1,Arraial/PI,-6.6541632,-42.5335332,2,42.37288
1,Arraias/TO,-12.9287788,-46.9437231,485,4604.13898
D1,Arraias/TO,-12.9287788,-46.9437231,4,37.97228
1,Arroio Grande/RS,-32.2384246,-53.0866661,1507,8262.96743
D1,Arroio Grande/RS,-32.2384246,-53.0866661,48,263.18675
1,Arroio Trinta/SC,-26.9301976,-51.334928,478,13468.58270
D1,Arroio Trinta/SC,-26.9301976,-51.334928,11,309.94646
1,Arroio do Meio/RS,-29.4020392,-51.9444993,2719,12967.99733
D1,Arroio do Meio/RS,-29.4020392,-51.9444993,35,166.92898
1,Arroio do Padre/RS,-31.4428773,-52.4228985,153,5184.68316
D1,Arroio do Padre/RS,-31.4428773,-52.4228985,2,67.77364
1,Arroio do Sal/RS,-29.549852,-49.8874395,923,8979.47271
D1,Arroio do Sal/RS,-29.549852,-49.8874395,31,301.58576
1,Arroio do Tigre/RS,-29.334158,-53.0888935,974,7261.61187
D1,Arroio do Tigre/RS,-29.334158,-53.0888935,18,134.19817
1,Arroio dos Ratos/RS,-30.0894524,-51.7265541,825,5819.28476
D1,Arroio dos Ratos/RS,-30.0894524,-51.7265541,29,204.55668
1,Artur Nogueira/SP,-22.572737,-47.172679,3362,6075.17167
D1,Artur Nogueira/SP,-22.572737,-47.172679,98,177.08710
1,Aruanã/GO,-14.9162439,-51.0715692,442,4371.90900
D1,Aruanã/GO,-14.9162439,-51.0715692,10,98.91197
1,Arujá/SP,-23.396266,-46.3175449,6192,6792.67637
D1,Arujá/SP,-23.396266,-46.3175449,234,256.69998
1,Arvoredo/SC,-27.0752908,-52.4571847,272,12175.47001
D1,Arvoredo/SC,-27.0752908,-52.4571847,4,179.05103
1,Arvorezinha/RS,-28.87369,-52.17808,717,6879.01756
D1,Arvorezinha/RS,-28.87369,-52.17808,24,230.26000
1,Arês/RN,-6.1969216,-35.1642968,797,5528.19588
D1,Arês/RN,-6.1969216,-35.1642968,20,138.72512
1,Ascurra/SC,-26.9569975,-49.3767752,1044,13085.98646
D1,Ascurra/SC,-26.9569975,-49.3767752,9,112.81023
1,Aspásia/SP,-20.160028,-50.728046,92,5060.50605
D1,Aspásia/SP,-20.160028,-50.728046,4,220.02200
1,Assaré/CE,-6.8746791,-39.8741385,1504,6405.99710
D1,Assaré/CE,-6.8746791,-39.8741385,31,132.03850
1,Assaí/PR,-23.3736041,-50.8454929,1170,7823.99358
D1,Assaí/PR,-23.3736041,-50.8454929,39,260.79979
1,Assis Brasil/AC,-10.9409203,-69.5672108,1540,20440.66897
D1,Assis Brasil/AC,-10.9409203,-69.5672108,21,278.73640
1,Assis Chateaubriand/PR,-24.4054826,-53.5120468,3113,9337.13257
D1,Assis Chateaubriand/PR,-24.4054826,-53.5120468,76,227.95441
1,Assis/SP,-22.6620892,-50.420623,7650,7279.68255
D1,Assis/SP,-22.6620892,-50.420623,251,238.84971
1,Assunção do Piauí/PI,-5.8610212,-41.0485091,301,3828.05545
D1,Assunção do Piauí/PI,-5.8610212,-41.0485091,6,76.30675
1,Assunção/PB,-7.073396,-36.7274003,283,7024.07545
D1,Assunção/PB,-7.073396,-36.7274003,2,49.64011
1,Astolfo Dutra/MG,-21.3132636,-42.8624102,1166,8170.98809
D1,Astolfo Dutra/MG,-21.3132636,-42.8624102,15,105.11563
1,Astorga/PR,-23.2350184,-51.6647074,2563,9779.08352
D1,Astorga/PR,-23.2350184,-51.6647074,58,221.29803
1,Atalaia do Norte/AM,-4.3658547,-70.1908742,2707,13270.90891
D1,Atalaia do Norte/AM,-4.3658547,-70.1908742,8,39.21953
1,Atalaia/AL,-9.5029595,-36.0219316,1072,2263.27457
D1,Atalaia/AL,-9.5029595,-36.0219316,42,88.67307
1,Atalaia/PR,-23.1513833,-52.0529697,334,8606.02937
D1,Atalaia/PR,-23.1513833,-52.0529697,15,386.49833
1,Atalanta/SC,-27.421916,-49.778863,306,9577.46479
D1,Atalanta/SC,-27.421916,-49.778863,7,219.09233
1,Ataléia/MG,-18.04432,-41.1110524,1031,8132.19751
D1,Ataléia/MG,-18.04432,-41.1110524,8,63.10144
1,Atibaia/SP,-23.1177393,-46.5547861,8955,6214.95197
D1,Atibaia/SP,-23.1177393,-46.5547861,215,149.21437
1,Atilio Vivacqua/ES,-20.9139369,-41.1947519,1339,11061.54482
D1,Atilio Vivacqua/ES,-20.9139369,-41.1947519,24,198.26518
1,Augustinópolis/TO,-5.4662267,-47.8897519,1351,7246.68776
D1,Augustinópolis/TO,-5.4662267,-47.8897519,25,134.09859
1,Augusto Corrêa/PA,-1.0229335,-46.6404029,1928,4148.82400
D1,Augusto Corrêa/PA,-1.0229335,-46.6404029,36,77.46767
1,Augusto Pestana/RS,-28.5148413,-53.9906433,569,8618.60042
D1,Augusto Pestana/RS,-28.5148413,-53.9906433,7,106.02848
1,Augusto de Lima/MG,-18.1092963,-44.2651945,218,4493.91878
D1,Augusto de Lima/MG,-18.1092963,-44.2651945,7,144.30014
1,Aurelino Leal/BA,-14.3167137,-39.3256107,832,7363.48349
D1,Aurelino Leal/BA,-14.3167137,-39.3256107,24,212.40818
1,Auriflama/SP,-20.6840418,-50.5554616,1671,10955.22192
D1,Auriflama/SP,-20.6840418,-50.5554616,58,380.25306
1,Aurilândia/GO,-16.6772599,-50.4641231,171,5591.89012
D1,Aurilândia/GO,-16.6772599,-50.4641231,6,196.20667
1,Aurora do Pará/PA,-2.1323199,-47.558436,1322,4160.76543
D1,Aurora do Pará/PA,-2.1323199,-47.558436,13,40.91524
1,Aurora do Tocantins/TO,-12.71045,-46.407604,170,4493.78800
D1,Aurora do Tocantins/TO,-12.71045,-46.407604,3,79.30214
1,Aurora/CE,-6.9426019,-38.9693765,1344,5461.19464
D1,Aurora/CE,-6.9426019,-38.9693765,30,121.90167
1,Aurora/SC,-27.3166417,-49.6368502,685,12053.49287
D1,Aurora/SC,-27.3166417,-49.6368502,14,246.34876
1,Autazes/AM,-3.5833283,-59.1301518,2784,6909.90320
D1,Autazes/AM,-3.5833283,-59.1301518,89,220.89849
1,Avanhandava/SP,-21.4603331,-49.9465156,586,4228.29930
D1,Avanhandava/SP,-21.4603331,-49.9465156,24,173.17267
1,Avaré/SP,-23.1045215,-48.9259103,6850,7508.33041
D1,Avaré/SP,-23.1045215,-48.9259103,150,164.41599
1,Avaí/SP,-22.1564662,-49.3316395,282,5187.63797
D1,Avaí/SP,-22.1564662,-49.3316395,7,128.77116
1,Aveiro/PA,-3.6049239,-55.3310742,593,3614.97196
D1,Aveiro/PA,-3.6049239,-55.3310742,9,54.86467
1,Avelino Lopes/PI,-10.1346855,-43.9489525,325,2869.50380
D1,Avelino Lopes/PI,-10.1346855,-43.9489525,19,167.75561
1,Avelinópolis/GO,-16.4672409,-49.7578661,264,10958.90411
D1,Avelinópolis/GO,-16.4672409,-49.7578661,11,456.62100
1,Axixá do Tocantins/TO,-5.612747,-47.77007,1001,10227.85327
D1,Axixá do Tocantins/TO,-5.612747,-47.77007,16,163.48217
1,Axixá/MA,-2.8379465,-44.0561053,189,1551.34203
D1,Axixá/MA,-2.8379465,-44.0561053,4,32.83264
1,Açailândia/MA,-4.9514278,-47.4844564,4843,4281.25635
D1,Açailândia/MA,-4.9514278,-47.4844564,174,153.81759
1,Açu/RN,-5.5836157,-36.9139541,4808,8235.13291
D1,Açu/RN,-5.5836157,-36.9139541,125,214.09975
1,Açucena/MG,-19.073056,-42.546666,691,7376.17421
D1,Açucena/MG,-19.073056,-42.546666,23,245.51665
1,Babaçulândia/TO,-7.2034355,-47.761613,569,5334.70842
D1,Babaçulândia/TO,-7.2034355,-47.761613,5,46.87793
1,Bacabal/MA,-4.2318132,-44.781167,4448,4244.67984
D1,Bacabal/MA,-4.2318132,-44.781167,161,153.64061
1,Bacabeira/MA,-2.9775747,-44.3155943,319,1849.06098
D1,Bacabeira/MA,-2.9775747,-44.3155943,6,34.77858
1,Bacuri/MA,-1.728894,-45.1417148,429,2299.77485
D1,Bacuri/MA,-1.728894,-45.1417148,4,21.44312
1,Bacurituba/MA,-2.7082587,-44.7381309,112,1975.30864
D1,Bacurituba/MA,-2.7082587,-44.7381309,1,17.63668
1,Bady Bassitt/SP,-20.9178969,-49.4517911,2460,13850.57148
D1,Bady Bassitt/SP,-20.9178969,-49.4517911,54,304.03693
1,Baependi/MG,-21.959162,-44.8899249,1124,5854.47159
D1,Baependi/MG,-21.959162,-44.8899249,12,62.50326
1,Bagre/PA,-1.8994498,-50.2103844,856,2732.64166
D1,Bagre/PA,-1.8994498,-50.2103844,11,35.11572
1,Bagé/RS,-31.3314264,-54.1062808,7750,6387.27490
D1,Bagé/RS,-31.3314264,-54.1062808,211,173.89871
1,Baianópolis/BA,-12.3067564,-44.5383591,556,3991.67205
D1,Baianópolis/BA,-12.3067564,-44.5383591,7,50.25486
1,Baixa Grande do Ribeiro/PI,-7.862861,-45.2113289,1984,16999.40022
D1,Baixa Grande do Ribeiro/PI,-7.862861,-45.2113289,20,171.36492
1,Baixa Grande/BA,-11.9630941,-40.1657537,622,3041.71353
D1,Baixa Grande/BA,-11.9630941,-40.1657537,7,34.23150
1,Baixio/CE,-6.7303544,-38.7170095,378,5997.14422
D1,Baixio/CE,-6.7303544,-38.7170095,9,142.78915
1,Baixo Guandu/ES,-19.5138322,-41.0182089,3117,10012.20609
D1,Baixo Guandu/ES,-19.5138322,-41.0182089,69,221.63690
1,Baião/PA,-2.7903479,-49.6702845,705,1454.83811
D1,Baião/PA,-2.7903479,-49.6702845,28,57.78080
1,Balbinos/SP,-21.9006253,-49.3583966,313,5274.68824
D1,Balbinos/SP,-21.9006253,-49.3583966,4,67.40816
1,Baldim/MG,-19.2913568,-43.9558262,478,6125.84903
D1,Baldim/MG,-19.2913568,-43.9558262,10,128.15584
1,Baliza/GO,-16.1978119,-52.542789,215,4071.96970
D1,Baliza/GO,-16.1978119,-52.542789,6,113.63636
1,Balneário Arroio do Silva/SC,-28.9815269,-49.4189932,1791,13335.81534
D1,Balneário Arroio do Silva/SC,-28.9815269,-49.4189932,39,290.39464
1,Balneário Barra do Sul/SC,-26.459842,-48.6061471,1296,11744.44948
D1,Balneário Barra do Sul/SC,-26.459842,-48.6061471,30,271.86226
1,Balneário Camboriú/SC,-26.9924395,-48.6339782,22323,15311.11965
D1,Balneário Camboriú/SC,-26.9924395,-48.6339782,327,224.28599
1,Balneário Gaivota/SC,-29.1553098,-49.5808712,1117,9920.07105
D1,Balneário Gaivota/SC,-29.1553098,-49.5808712,30,266.42984
1,Balneário Pinhal/RS,-30.2482978,-50.234585,657,4574.25329
D1,Balneário Pinhal/RS,-30.2482978,-50.234585,37,257.60635
1,Balneário Piçarras/SC,-26.7638889,-48.6716667,4108,17280.83460
D1,Balneário Piçarras/SC,-26.7638889,-48.6716667,42,176.67845
1,Balneário Rincão/SC,-28.8235718,-49.2241642,1239,9570.52371
D1,Balneário Rincão/SC,-28.8235718,-49.2241642,36,278.07817
1,Balsa Nova/PR,-25.5842234,-49.6312741,1209,9234.64711
D1,Balsa Nova/PR,-25.5842234,-49.6312741,23,175.67980
1,Balsas/MA,-7.53214,-46.037163,8610,8975.38805
D1,Balsas/MA,-7.53214,-46.037163,140,145.94127
1,Bambuí/MG,-20.0131996,-45.9777034,1139,4766.08921
D1,Bambuí/MG,-20.0131996,-45.9777034,17,71.13566
1,Banabuiú/CE,-5.3046404,-38.919766,1273,6973.04996
D1,Banabuiú/CE,-5.3046404,-38.919766,12,65.73181
1,Bananal/SP,-22.6828195,-44.3221095,878,7986.90076
D1,Bananal/SP,-22.6828195,-44.3221095,2,18.19340
1,Bananeiras/PB,-6.7537682,-35.6338343,952,4475.99793
D1,Bananeiras/PB,-6.7537682,-35.6338343,18,84.63021
1,Bandeira do Sul/MG,-21.728056,-46.385555,252,4361.37072
D1,Bandeira do Sul/MG,-21.728056,-46.385555,7,121.14919
1,Bandeira/MG,-15.884444,-40.559167,452,9483.84389
D1,Bandeira/MG,-15.884444,-40.559167,9,188.83760
1,Bandeirante/SC,-26.7677402,-53.6397596,236,8912.38671
D1,Bandeirante/SC,-26.7677402,-53.6397596,2,75.52870
1,Bandeirantes do Tocantins/TO,-7.7635698,-48.579148,343,9548.99777
D1,Bandeirantes do Tocantins/TO,-7.7635698,-48.579148,5,139.19822
1,Bandeirantes/MS,-19.9179623,-54.3646768,449,6179.46601
D1,Bandeirantes/MS,-19.9179623,-54.3646768,8,110.10184
1,Bandeirantes/PR,-23.107788,-50.370407,2995,9595.97578
D1,Bandeirantes/PR,-23.107788,-50.370407,91,291.56387
1,Bannach/PA,-7.3508505,-50.4064531,533,16339.66891
D1,Bannach/PA,-7.3508505,-50.4064531,2,61.31208
1,Banzaê/BA,-10.5827616,-38.6122305,837,6321.75227
D1,Banzaê/BA,-10.5827616,-38.6122305,7,52.87009
1,Baraúna/PB,-6.643394,-36.2531932,284,5721.19259
D1,Baraúna/PB,-6.643394,-36.2531932,3,60.43513
1,Baraúna/RN,-5.0775002,-37.61752,861,2995.09514
D1,Baraúna/RN,-5.0775002,-37.61752,22,76.52972
1,Barbacena/MG,-21.2254524,-43.7735087,5722,4140.25643
D1,Barbacena/MG,-21.2254524,-43.7735087,195,141.09577
1,Barbalha/CE,-7.3121067,-39.3036427,4517,7377.34370
D1,Barbalha/CE,-7.3121067,-39.3036427,93,151.89129
1,Barbosa Ferraz/PR,-24.0287182,-52.00811,857,7500.43760
D1,Barbosa Ferraz/PR,-24.0287182,-52.00811,16,140.03151
1,Barbosa/SP,-21.265661,-49.951816,363,4860.73915
D1,Barbosa/SP,-21.265661,-49.951816,10,133.90466
1,Barcarena/PA,-1.5107945,-48.6190679,10188,8020.34213
D1,Barcarena/PA,-1.5107945,-48.6190679,200,157.44684
1,Barcelona/RN,-5.9514918,-35.9260284,67,1677.51627
D1,Barcelona/RN,-5.9514918,-35.9260284,3,75.11267
1,Barcelos/AM,-0.9729214,-62.925635,4135,14961.28519
D1,Barcelos/AM,-0.9729214,-62.925635,57,206.23779
1,Bariri/SP,-22.0746355,-48.7394852,2299,6465.49300
D1,Bariri/SP,-22.0746355,-48.7394852,93,261.54452
1,Barra Bonita/SC,-26.6526364,-53.4419581,150,9085.40279
D1,Barra Bonita/SC,-26.6526364,-53.4419581,1,60.56935
1,Barra Bonita/SP,-22.490859,-48.558349,2662,7368.65415
D1,Barra Bonita/SP,-22.490859,-48.558349,71,196.53435
1,Barra D'Alcântara/PI,-6.5209258,-42.1071089,105,2656.88259
D1,Barra D'Alcântara/PI,-6.5209258,-42.1071089,3,75.91093
1,Barra Funda/RS,-27.9230048,-53.0401045,410,16072.12858
D1,Barra Funda/RS,-27.9230048,-53.0401045,8,313.60251
1,Barra Longa/MG,-20.2833541,-43.0423516,249,4965.10469
D1,Barra Longa/MG,-20.2833541,-43.0423516,8,159.52144
1,Barra Mansa/RJ,-22.5394843,-44.1735129,13636,7377.47047
D1,Barra Mansa/RJ,-22.5394843,-44.1735129,476,257.52977
1,Barra Velha/SC,-26.6338203,-48.6835001,3673,12300.73677
D1,Barra Velha/SC,-26.6338203,-48.6835001,81,271.26591
1,Barra da Estiva/BA,-13.6269662,-41.3278287,1584,7767.75206
D1,Barra da Estiva/BA,-13.6269662,-41.3278287,15,73.55826
1,Barra de Guabiraba/PE,-8.4173522,-35.6626669,344,2370.77877
D1,Barra de Guabiraba/PE,-8.4173522,-35.6626669,14,96.48518
1,Barra de Santa Rosa/PB,-6.7218007,-36.0564638,810,5226.81809
D1,Barra de Santa Rosa/PB,-6.7218007,-36.0564638,5,32.26431
1,Barra de Santana/PB,-7.5230865,-35.9988518,346,4144.20889
D1,Barra de Santana/PB,-7.5230865,-35.9988518,5,59.88741
1,Barra de Santo Antônio/AL,-9.4038098,-35.5117693,311,1935.52402
D1,Barra de Santo Antônio/AL,-9.4038098,-35.5117693,19,118.24745
1,Barra de São Francisco/ES,-18.7570902,-40.8916119,4373,9722.31486
D1,Barra de São Francisco/ES,-18.7570902,-40.8916119,180,400.18675
1,Barra de São Miguel/AL,-9.8261357,-35.8837777,427,5096.68179
D1,Barra de São Miguel/AL,-9.8261357,-35.8837777,7,83.55216
1,Barra de São Miguel/PB,-7.7528088,-36.3170996,389,6413.84996
D1,Barra de São Miguel/PB,-7.7528088,-36.3170996,6,98.92828
1,Barra do Bugres/MT,-15.0683712,-57.1853688,2315,6556.77344
D1,Barra do Bugres/MT,-15.0683712,-57.1853688,55,155.77647
1,Barra do Chapéu/SP,-24.472203,-49.023784,226,3923.61111
D1,Barra do Chapéu/SP,-24.472203,-49.023784,1,17.36111
1,Barra do Choça/BA,-14.8638173,-40.5761637,1815,5815.63011
D1,Barra do Choça/BA,-14.8638173,-40.5761637,27,86.51351
1,Barra do Corda/MA,-5.496823,-45.248496,5173,5845.72617
D1,Barra do Corda/MA,-5.496823,-45.248496,52,58.76237
1,Barra do Garças/MT,-15.8916033,-52.2615413,6474,10589.67858
D1,Barra do Garças/MT,-15.8916033,-52.2615413,227,371.30940
1,Barra do Guarita/RS,-27.1888016,-53.7147086,107,3285.23181
D1,Barra do Guarita/RS,-27.1888016,-53.7147086,6,184.21861
1,Barra do Jacaré/PR,-23.1151788,-50.1813945,160,5753.32614
D1,Barra do Jacaré/PR,-23.1151788,-50.1813945,1,35.95829
1,Barra do Mendes/BA,-11.8053298,-42.057037,652,4713.36659
D1,Barra do Mendes/BA,-11.8053298,-42.057037,11,79.51999
1,Barra do Ouro/TO,-7.7113784,-47.6743925,114,2461.13990
D1,Barra do Ouro/TO,-7.7113784,-47.6743925,5,107.94473
1,Barra do Piraí/RJ,-22.4703403,-43.8263256,5164,5124.84618
D1,Barra do Piraí/RJ,-22.4703403,-43.8263256,286,283.83153
1,Barra do Quaraí/RS,-30.208947,-57.5505128,346,8185.47433
D1,Barra do Quaraí/RS,-30.208947,-57.5505128,3,70.97232
1,Barra do Ribeiro/RS,-30.2930206,-51.301437,969,7148.12629
D1,Barra do Ribeiro/RS,-30.2930206,-51.301437,46,339.33314
1,Barra do Rio Azul/RS,-27.4101581,-52.4117471,66,3987.91541
D1,Barra do Rio Azul/RS,-27.4101581,-52.4117471,1,60.42296
1,Barra do Rocha/BA,-14.2090974,-39.6004395,373,6646.47185
D1,Barra do Rocha/BA,-14.2090974,-39.6004395,5,89.09480
1,Barra do Turvo/SP,-24.756421,-48.5056942,491,6433.43816
D1,Barra do Turvo/SP,-24.756421,-48.5056942,12,157.23270
1,Barra dos Coqueiros/SE,-10.9075694,-37.0386249,5732,18532.16941
D1,Barra dos Coqueiros/SE,-10.9075694,-37.0386249,75,242.48303
1,Barra/BA,-11.0892702,-43.1420453,1768,3279.53997
D1,Barra/BA,-11.0892702,-43.1420453,31,57.50325
1,Barracão/PR,-26.252395,-53.6349576,1014,9833.20403
D1,Barracão/PR,-26.252395,-53.6349576,26,252.13344
1,Barracão/RS,-27.6728964,-51.4582928,336,6392.69406
D1,Barracão/RS,-27.6728964,-51.4582928,12,228.31050
1,Barras/PI,-4.2446153,-42.2920241,4226,8956.23609
D1,Barras/PI,-4.2446153,-42.2920241,84,178.02268
1,Barreira/CE,-4.2883361,-38.641094,1137,5036.99110
D1,Barreira/CE,-4.2883361,-38.641094,32,141.76228
1,Barreiras do Piauí/PI,-9.9224524,-45.4763776,62,1849.64200
D1,Barreiras do Piauí/PI,-9.9224524,-45.4763776,1,29.83294
1,Barreiras/BA,-12.1440031,-44.9967406,13933,8875.93566
D1,Barreiras/BA,-12.1440031,-44.9967406,209,133.14222
1,Barreirinha/AM,-2.798863,-57.067897,2321,7145.27599
D1,Barreirinha/AM,-2.798863,-57.067897,61,187.79054
1,Barreirinhas/MA,-2.7541271,-42.8259693,1862,2945.41025
D1,Barreirinhas/MA,-2.7541271,-42.8259693,34,53.78300
1,Barreiros/PE,-8.8159644,-35.1831905,701,1639.22926
D1,Barreiros/PE,-8.8159644,-35.1831905,51,119.25919
1,Barretos/SP,-20.5531437,-48.5697509,10994,8950.36350
D1,Barretos/SP,-20.5531437,-48.5697509,342,278.42681
1,Barrinha/SP,-21.1898849,-48.1550642,1293,3896.92586
D1,Barrinha/SP,-21.1898849,-48.1550642,52,156.72092
1,Barro Alto/BA,-11.7618025,-41.9094904,741,4922.27979
D1,Barro Alto/BA,-11.7618025,-41.9094904,8,53.14202
1,Barro Alto/GO,-14.9696025,-48.9190985,1215,10650.42076
D1,Barro Alto/GO,-14.9696025,-48.9190985,13,113.95512
1,Barro Duro/PI,-5.8180139,-42.5106589,654,9306.95887
D1,Barro Duro/PI,-5.8180139,-42.5106589,9,128.07742
1,Barro Preto/BA,-14.8068289,-39.4727588,553,10150.51395
D1,Barro Preto/BA,-14.8068289,-39.4727588,10,183.55360
1,Barro/CE,-7.1713587,-38.7742136,886,3893.13648
D1,Barro/CE,-7.1713587,-38.7742136,18,79.09307
1,Barrocas/BA,-11.5165,-39.099282894736845,691,4290.59298
D1,Barrocas/BA,-11.5165,-39.099282894736845,18,111.76653
1,Barrolândia/TO,-9.837246,-48.7264346,698,12351.79614
D1,Barrolândia/TO,-9.837246,-48.7264346,19,336.22368
1,Barroquinha/CE,-3.0200371,-41.1339229,938,6235.04387
D1,Barroquinha/CE,-3.0200371,-41.1339229,24,159.53204
1,Barros Cassal/RS,-29.094938,-52.5832366,534,4775.53211
D1,Barros Cassal/RS,-29.094938,-52.5832366,7,62.60061
1,Barroso/MG,-21.187222,-43.976111,1218,5828.58784
D1,Barroso/MG,-21.187222,-43.976111,27,129.20515
1,Barueri/SP,-23.5112184,-46.8764612,23619,8527.26892
D1,Barueri/SP,-23.5112184,-46.8764612,898,324.20879
1,Barão de Antonina/SP,-23.6295651,-49.5632104,248,7089.76558
D1,Barão de Antonina/SP,-23.6295651,-49.5632104,7,200.11435
1,Barão de Cocais/MG,-19.9452437,-43.4870298,3220,9797.35897
D1,Barão de Cocais/MG,-19.9452437,-43.4870298,52,158.21822
1,Barão de Cotegipe/RS,-27.6214694,-52.3765316,572,8640.48338
D1,Barão de Cotegipe/RS,-27.6214694,-52.3765316,6,90.63444
1,Barão de Grajaú/MA,-6.7542591,-43.0263477,332,1754.38596
D1,Barão de Grajaú/MA,-6.7542591,-43.0263477,2,10.56859
1,Barão de Melgaço/MT,-16.195776,-55.9668049,317,3882.90054
D1,Barão de Melgaço/MT,-16.195776,-55.9668049,13,159.23567
1,Barão de Monte Alto/MG,-21.244722,-42.2375,190,3548.74860
D1,Barão de Monte Alto/MG,-21.244722,-42.2375,8,149.42099
1,Barão do Triunfo/RS,-30.3909877,-51.7375349,385,5120.36175
D1,Barão do Triunfo/RS,-30.3909877,-51.7375349,6,79.79785
1,Barão/RS,-29.372474,-51.494908,498,8029.66785
D1,Barão/RS,-29.372474,-51.494908,8,128.99065
1,Bastos/SP,-21.9222474,-50.7317727,785,3746.48022
D1,Bastos/SP,-21.9222474,-50.7317727,27,128.85983
1,Bataguassu/MS,-21.715899,-52.422058,2270,9732.04716
D1,Bataguassu/MS,-21.715899,-52.422058,26,111.46838
1,Batalha/AL,-9.6733809,-37.1265481,939,5120.51478
D1,Batalha/AL,-9.6733809,-37.1265481,15,81.79736
1,Batalha/PI,-4.022391,-42.0780926,903,3356.25348
D1,Batalha/PI,-4.022391,-42.0780926,30,111.50344
1,Batatais/SP,-20.892867,-47.592149,2267,3599.55541
D1,Batatais/SP,-20.892867,-47.592149,103,163.54398
1,Batayporã/MS,-22.2976466,-53.2685608,678,5974.09463
D1,Batayporã/MS,-22.2976466,-53.2685608,11,96.92484
1,Baturité/CE,-4.3290203,-38.8821055,2942,8185.63757
D1,Baturité/CE,-4.3290203,-38.8821055,66,183.63429
1,Bauru/SP,-22.3218102,-49.0705863,36721,9681.33152
D1,Bauru/SP,-22.3218102,-49.0705863,810,213.55297
1,Bayeux/PB,-7.1301631,-34.936532,6059,6233.34671
D1,Bayeux/PB,-7.1301631,-34.936532,214,220.15781
1,Baía Formosa/RN,-6.3691885,-35.0063741,311,3336.19395
D1,Baía Formosa/RN,-6.3691885,-35.0063741,8,85.81849
1,Baía da Traição/PB,-6.691258,-34.9371244,1204,13236.58751
D1,Baía da Traição/PB,-6.691258,-34.9371244,11,120.93228
1,Bebedouro/SP,-20.949077,-48.479083,3412,4399.45845
D1,Bebedouro/SP,-20.949077,-48.479083,97,125.07253
1,Beberibe/CE,-4.1810469,-38.1298101,3726,6906.52283
D1,Beberibe/CE,-4.1810469,-38.1298101,94,174.23863
1,Bela Cruz/CE,-3.0529129,-40.167582,3013,9207.87238
D1,Bela Cruz/CE,-3.0529129,-40.167582,60,183.36288
1,Bela Vista da Caroba/PR,-25.8792818,-53.6672545,159,4599.36361
D1,Bela Vista da Caroba/PR,-25.8792818,-53.6672545,5,144.63408
1,Bela Vista de Goiás/GO,-16.9692949,-48.9513071,2143,7028.07294
D1,Bela Vista de Goiás/GO,-16.9692949,-48.9513071,55,180.37518
1,Bela Vista de Minas/MG,-19.8289721,-43.0973688,690,6723.83551
D1,Bela Vista de Minas/MG,-19.8289721,-43.0973688,19,185.14909
1,Bela Vista do Maranhão/MA,-3.7416367,-45.2514192,309,2739.60457
D1,Bela Vista do Maranhão/MA,-3.7416367,-45.2514192,3,26.59810
1,Bela Vista do Paraíso/PR,-22.9948493,-51.1907996,1637,10630.56043
D1,Bela Vista do Paraíso/PR,-22.9948493,-51.1907996,58,376.64783
1,Bela Vista do Piauí/PI,-7.9716353,-41.8715061,233,5781.63772
D1,Bela Vista do Piauí/PI,-7.9716353,-41.8715061,6,148.88337
1,Bela Vista do Toldo/SC,-26.274625,-50.466354,64,1005.97296
D1,Bela Vista do Toldo/SC,-26.274625,-50.466354,2,31.43666
1,Bela Vista/MS,-22.107327,-56.5317344,717,2898.72650
D1,Bela Vista/MS,-22.107327,-56.5317344,20,80.85709
1,Belford Roxo/RJ,-22.7667284,-43.4033603,19308,3762.87715
D1,Belford Roxo/RJ,-22.7667284,-43.4033603,571,111.28045
1,Belmiro Braga/MG,-21.9486291,-43.413564,153,4467.15328
D1,Belmiro Braga/MG,-21.9486291,-43.413564,3,87.59124
1,Belmonte/BA,-15.8630837,-38.8792845,909,3878.48274
D1,Belmonte/BA,-15.8630837,-38.8792845,18,76.80164
1,Belmonte/SC,-26.8448262,-53.578916,211,7788.85197
D1,Belmonte/SC,-26.8448262,-53.578916,4,147.65596
1,Belo Campo/BA,-15.0338286,-41.2585109,686,4009.58560
D1,Belo Campo/BA,-15.0338286,-41.2585109,9,52.60389
1,Belo Horizonte/MG,-19.9227318,-43.9450948,189472,7514.06667
D1,Belo Horizonte/MG,-19.9227318,-43.9450948,4606,182.66441
1,Belo Jardim/PE,-8.3338293,-36.4176419,2773,3615.99750
D1,Belo Jardim/PE,-8.3338293,-36.4176419,83,108.23216
1,Belo Monte/AL,-9.8269944,-37.2787165,265,3949.32936
D1,Belo Monte/AL,-9.8269944,-37.2787165,6,89.41878
1,Belo Oriente/MG,-19.2232523,-42.4807033,2378,8809.36504
D1,Belo Oriente/MG,-19.2232523,-42.4807033,57,211.15804
1,Belo Vale/MG,-20.407778,-44.024167,586,7591.65695
D1,Belo Vale/MG,-20.407778,-44.024167,10,129.55046
1,Belterra/PA,-2.636091,-54.937392,1251,7012.72493
D1,Belterra/PA,-2.636091,-54.937392,24,134.53669
1,Belágua/MA,-3.1604031,-43.5085052,198,2630.18066
D1,Belágua/MA,-3.1604031,-43.5085052,14,185.97237
1,Belém de Maria/PE,-8.6242497,-35.8388934,195,1608.64544
D1,Belém de Maria/PE,-8.6242497,-35.8388934,6,49.49678
1,Belém do Brejo do Cruz/PB,-6.1880727,-37.5332267,487,6626.75194
D1,Belém do Brejo do Cruz/PB,-6.1880727,-37.5332267,5,68.03647
1,Belém do Piauí/PI,-7.3767305,-40.9712156,433,12071.36883
D1,Belém do Piauí/PI,-7.3767305,-40.9712156,7,195.14915
1,Belém do São Francisco/PE,-8.7517707,-38.9625715,570,2749.63821
D1,Belém do São Francisco/PE,-8.7517707,-38.9625715,8,38.59141
1,Belém/AL,-9.5715351,-36.492841,103,2404.29505
D1,Belém/AL,-9.5715351,-36.492841,3,70.02801
1,Belém/PA,-1.45056,-48.4682453,97723,6516.42626
D1,Belém/PA,-1.45056,-48.4682453,4613,307.60695
1,Belém/PB,-6.6967586,-35.5369626,1859,10499.85880
D1,Belém/PB,-6.6967586,-35.5369626,31,175.09178
1,Beneditinos/PI,-5.4565671,-42.3605061,980,9357.39521
D1,Beneditinos/PI,-5.4565671,-42.3605061,32,305.54760
1,Benedito Leite/MA,-7.2173453,-44.5523331,295,5232.35190
D1,Benedito Leite/MA,-7.2173453,-44.5523331,2,35.47357
1,Benedito Novo/SC,-26.7840657,-49.3629511,919,7804.67091
D1,Benedito Novo/SC,-26.7840657,-49.3629511,16,135.88110
1,Benevides/PA,-1.3555577,-48.252235,3651,5725.44223
D1,Benevides/PA,-1.3555577,-48.252235,87,136.43207
1,Benjamin Constant do Sul/RS,-27.5105555,-52.6007689,152,7763.02349
1,Benjamin Constant/AM,-4.3782748,-70.0290603,2678,6095.36816
D1,Benjamin Constant/AM,-4.3782748,-70.0290603,85,193.46762
1,Bento Fernandes/RN,-5.6926846,-35.8207423,117,2117.64706
D1,Bento Fernandes/RN,-5.6926846,-35.8207423,3,54.29864
1,Bento Gonçalves/RS,-29.1654014,-51.5197627,15051,12356.83850
D1,Bento Gonçalves/RS,-29.1654014,-51.5197627,267,219.20642
1,Bento de Abreu/SP,-21.2707225,-50.8120444,253,8419.30116
1,Bequimão/MA,-2.4495376,-44.7884889,275,1291.14043
D1,Bequimão/MA,-2.4495376,-44.7884889,17,79.81595
1,Berilo/MG,-16.9515764,-42.4643732,128,1078.16712
D1,Berilo/MG,-16.9515764,-42.4643732,1,8.42318
1,Berizal/MG,-15.6118785,-41.7417382,106,2225.02099
D1,Berizal/MG,-15.6118785,-41.7417382,1,20.99076
1,Bernardino Batista/PB,-6.4532173,-38.5495418,232,6561.08597
1,Bernardino de Campos/SP,-23.0140216,-49.4760724,417,3737.22889
D1,Bernardino de Campos/SP,-23.0140216,-49.4760724,8,71.69744
1,Bernardo Sayão/TO,-7.8794244,-48.8968905,436,9802.15827
D1,Bernardo Sayão/TO,-7.8794244,-48.8968905,6,134.89209
1,Bernardo do Mearim/MA,-4.6315929,-44.7617508,268,4412.97547
D1,Bernardo do Mearim/MA,-4.6315929,-44.7617508,6,98.79796
1,Bertioga/SP,-23.848568,-46.139586,4869,7522.82805
D1,Bertioga/SP,-23.848568,-46.139586,123,190.04063
1,Bertolínia/PI,-7.6372159,-43.9540611,789,14327.21990
D1,Bertolínia/PI,-7.6372159,-43.9540611,10,181.58707
1,Bertópolis/MG,-17.063333,-40.573889,267,5795.52854
1,Beruri/AM,-3.9007135,-61.3717319,2103,10466.33156
D1,Beruri/AM,-3.9007135,-61.3717319,31,154.28259
1,Betim/MG,-19.968056,-44.198333,25472,5726.82471
D1,Betim/MG,-19.968056,-44.198333,928,208.64060
1,Betânia do Piauí/PI,-8.1460635,-40.7961387,157,2528.18035
D1,Betânia do Piauí/PI,-8.1460635,-40.7961387,2,32.20612
1,Betânia/PE,-8.2742779,-38.0351767,392,3070.89698
D1,Betânia/PE,-8.2742779,-38.0351767,10,78.33921
1,Bezerros/PE,-8.2372132,-35.7558262,3294,5410.64389
D1,Bezerros/PE,-8.2372132,-35.7558262,98,160.97240
1,Bias Fortes/MG,-21.605833,-43.756944,99,2973.86603
D1,Bias Fortes/MG,-21.605833,-43.756944,2,60.07810
1,Bicas/MG,-21.7213723,-43.0604327,1110,7626.76927
D1,Bicas/MG,-21.7213723,-43.0604327,32,219.87083
1,Biguaçu/SC,-27.4961277,-48.6542432,10228,14719.51184
D1,Biguaçu/SC,-27.4961277,-48.6542432,151,217.30996
1,Bilac/SP,-21.403962,-50.47464,729,8981.15067
D1,Bilac/SP,-21.403962,-50.47464,13,160.15769
1,Biquinhas/MG,-18.783611,-45.502222,103,4123.29864
D1,Biquinhas/MG,-18.783611,-45.502222,1,40.03203
1,Birigui/SP,-21.2908491,-50.34144,11557,9254.26199
D1,Birigui/SP,-21.2908491,-50.34144,404,323.50280
1,Biritiba Mirim/SP,-23.5697765,-46.0407456,1057,3209.25431
D1,Biritiba Mirim/SP,-23.5697765,-46.0407456,69,209.49721
1,Biritinga/BA,-11.6227908,-38.8066738,315,1970.72072
D1,Biritinga/BA,-11.6227908,-38.8066738,6,37.53754
1,Bituruna/PR,-26.161281,-51.5533319,607,3701.21951
D1,Bituruna/PR,-26.161281,-51.5533319,10,60.97561
1,Blumenau/SC,-26.9195567,-49.0658025,45087,12459.96324
D1,Blumenau/SC,-26.9195567,-49.0658025,508,140.38772
1,Boa Esperança do Iguaçu/PR,-25.6362851,-53.2139114,139,5627.53036
1,Boa Esperança do Sul/SP,-21.9930206,-48.3917372,771,5133.83939
D1,Boa Esperança do Sul/SP,-21.9930206,-48.3917372,11,73.24544
1,Boa Esperança/ES,-18.5395472,-40.2904088,1189,7878.34614
D1,Boa Esperança/ES,-18.5395472,-40.2904088,35,231.91095
1,Boa Esperança/MG,-21.0901253,-45.5660195,3002,7464.13387
D1,Boa Esperança/MG,-21.0901253,-45.5660195,85,211.34290
1,Boa Esperança/PR,-24.2411024,-52.7860277,253,6251.54435
D1,Boa Esperança/PR,-24.2411024,-52.7860277,7,172.96763
1,Boa Hora/PI,-4.4094627,-42.1255341,487,7146.00147
D1,Boa Hora/PI,-4.4094627,-42.1255341,5,73.36757
1,Boa Nova/BA,-14.365907,-40.2063056,759,6156.21705
D1,Boa Nova/BA,-14.365907,-40.2063056,11,89.22054
1,Boa Ventura de São Roque/PR,-24.88177,-51.5441292,367,5765.90731
D1,Boa Ventura de São Roque/PR,-24.88177,-51.5441292,5,78.55460
1,Boa Ventura/PB,-7.4202462,-38.2156782,287,5407.95176
D1,Boa Ventura/PB,-7.4202462,-38.2156782,5,94.21519
1,Boa Viagem/CE,-5.1261877,-39.7300055,3068,5621.41561
D1,Boa Viagem/CE,-5.1261877,-39.7300055,80,146.58189
1,Boa Vista da Aparecida/PR,-25.4357216,-53.4067721,716,9496.02122
D1,Boa Vista da Aparecida/PR,-25.4357216,-53.4067721,20,265.25199
1,Boa Vista das Missões/RS,-27.6677983,-53.3127622,129,6166.34799
D1,Boa Vista das Missões/RS,-27.6677983,-53.3127622,4,191.20459
1,Boa Vista do Buricá/RS,-27.6687782,-54.1111913,606,9028.60548
D1,Boa Vista do Buricá/RS,-27.6687782,-54.1111913,8,119.18951
1,Boa Vista do Cadeado/RS,-28.5783827,-53.8123759,145,5875.20259
D1,Boa Vista do Cadeado/RS,-28.5783827,-53.8123759,2,81.03728
1,Boa Vista do Gurupi/MA,-1.7981168,-46.3071882,15,178.95490
D1,Boa Vista do Gurupi/MA,-1.7981168,-46.3071882,4,47.72131
1,Boa Vista do Incra/RS,-28.8195551,-53.3866624,221,8448.01223
D1,Boa Vista do Incra/RS,-28.8195551,-53.3866624,3,114.67890
1,Boa Vista do Ramos/AM,-2.9716927,-57.5869819,868,4422.70458
D1,Boa Vista do Ramos/AM,-2.9716927,-57.5869819,11,56.04810
1,Boa Vista do Sul/RS,-29.3510488,-51.6779679,253,9107.27142
D1,Boa Vista do Sul/RS,-29.3510488,-51.6779679,3,107.99136
1,Boa Vista do Tupim/BA,-12.6605988,-40.6083594,195,1052.29076
D1,Boa Vista do Tupim/BA,-12.6605988,-40.6083594,4,21.58545
1,Boa Vista/PB,-7.2620711,-36.2415161,548,7679.37220
D1,Boa Vista/PB,-7.2620711,-36.2415161,9,126.12108
1,Boa Vista/RR,2.8208478,-60.6719582,75483,17987.04641
D1,Boa Vista/RR,2.8208478,-60.6719582,1203,286.66609
1,Boca da Mata/AL,-9.6452054,-36.2116658,1634,5973.09548
D1,Boca da Mata/AL,-9.6452054,-36.2116658,41,149.87571
1,Boca do Acre/AM,-8.7553487,-67.3930873,2498,7212.35744
D1,Boca do Acre/AM,-8.7553487,-67.3930873,22,63.51956
1,Bocaina de Minas/MG,-22.167778,-44.394722,150,2947.53390
D1,Bocaina de Minas/MG,-22.167778,-44.394722,5,98.25113
1,Bocaina do Sul/SC,-27.745494,-49.942279,359,10292.43119
D1,Bocaina do Sul/SC,-27.745494,-49.942279,3,86.00917
1,Bocaina/PI,-6.9445939,-41.3224599,235,5216.42619
D1,Bocaina/PI,-6.9445939,-41.3224599,3,66.59267
1,Bocaina/SP,-22.1421831,-48.522276,1097,8809.82975
D1,Bocaina/SP,-22.1421831,-48.522276,26,208.80180
1,Bocaiúva do Sul/PR,-25.206591,-49.114131,1463,11143.27062
D1,Bocaiúva do Sul/PR,-25.206591,-49.114131,12,91.40072
1,Bocaiúva/MG,-17.1160208,-43.8122678,1816,3613.49889
D1,Bocaiúva/MG,-17.1160208,-43.8122678,44,87.55174
1,Bodocó/PE,-7.777592,-39.933797,1619,4218.56272
D1,Bodocó/PE,-7.777592,-39.933797,25,65.14149
1,Bodoquena/MS,-20.5508775,-56.6769653,280,3572.33988
D1,Bodoquena/MS,-20.5508775,-56.6769653,11,140.34192
1,Bodó/RN,-5.9866104,-36.4134824,104,4733.72781
1,Bofete/SP,-23.1019554,-48.2610535,577,4840.19797
D1,Bofete/SP,-23.1019554,-48.2610535,13,109.05125
1,Boituva/SP,-23.2838893,-47.6738231,4404,7083.80248
D1,Boituva/SP,-23.2838893,-47.6738231,108,173.71723
1,Bom Conselho/PE,-9.169191,-36.685683,1390,2850.28810
D1,Bom Conselho/PE,-9.169191,-36.685683,46,94.32608
1,Bom Despacho/MG,-19.7375242,-45.2517288,2945,5771.34122
D1,Bom Despacho/MG,-19.7375242,-45.2517288,66,129.34075
1,Bom Jardim da Serra/SC,-28.3380324,-49.625588,554,11609.38810
D1,Bom Jardim da Serra/SC,-28.3380324,-49.625588,4,83.82230
1,Bom Jardim de Goiás/GO,-16.2062659,-52.172793,621,7001.91679
D1,Bom Jardim de Goiás/GO,-16.2062659,-52.172793,14,157.85320
1,Bom Jardim de Minas/MG,-21.9476466,-44.1906033,377,5836.81684
D1,Bom Jardim de Minas/MG,-21.9476466,-44.1906033,1,15.48227
1,Bom Jardim/MA,-3.54129,-45.606004,1240,2964.94668
D1,Bom Jardim/MA,-3.54129,-45.606004,42,100.42561
1,Bom Jardim/PE,-7.7961572,-35.5871696,1113,2783.68307
D1,Bom Jardim/PE,-7.7961572,-35.5871696,51,127.55421
1,Bom Jardim/RJ,-22.1515328,-42.4186683,1304,4721.90035
D1,Bom Jardim/RJ,-22.1515328,-42.4186683,32,115.87486
1,Bom Jesus da Lapa/BA,-13.250571,-43.410754,3726,5348.68364
D1,Bom Jesus da Lapa/BA,-13.250571,-43.410754,54,77.51715
1,Bom Jesus da Penha/MG,-21.0165299,-46.5226644,340,8011.31008
D1,Bom Jesus da Penha/MG,-21.0165299,-46.5226644,8,188.50141
1,Bom Jesus da Serra/BA,-14.3724084,-40.5047119,415,4224.77858
D1,Bom Jesus da Serra/BA,-14.3724084,-40.5047119,8,81.44151
1,Bom Jesus das Selvas/MA,-4.4878075,-46.8526639,2777,8033.67374
D1,Bom Jesus das Selvas/MA,-4.4878075,-46.8526639,23,66.53745
1,Bom Jesus de Goiás/GO,-18.2174587,-49.739721,2437,9501.71553
D1,Bom Jesus de Goiás/GO,-18.2174587,-49.739721,97,378.19713
1,Bom Jesus do Amparo/MG,-19.7045132,-43.4752911,183,2983.85782
D1,Bom Jesus do Amparo/MG,-19.7045132,-43.4752911,6,97.83140
1,Bom Jesus do Araguaia/MT,-12.1725897,-51.5074425,878,13092.75276
D1,Bom Jesus do Araguaia/MT,-12.1725897,-51.5074425,14,208.76827
1,Bom Jesus do Galho/MG,-19.8283191,-42.3162256,540,3633.42753
D1,Bom Jesus do Galho/MG,-19.8283191,-42.3162256,24,161.48567
1,Bom Jesus do Itabapoana/RJ,-21.1341025,-41.680095,2732,7343.49380
D1,Bom Jesus do Itabapoana/RJ,-21.1341025,-41.680095,73,196.22073
1,Bom Jesus do Norte/ES,-21.1254776,-41.6711646,870,8733.18611
D1,Bom Jesus do Norte/ES,-21.1254776,-41.6711646,21,210.80104
1,Bom Jesus do Oeste/SC,-26.6929713,-53.0967453,152,7106.12436
D1,Bom Jesus do Oeste/SC,-26.6929713,-53.0967453,5,233.75409
1,Bom Jesus do Sul/PR,-26.1922507,-53.6002033,249,7102.11067
D1,Bom Jesus do Sul/PR,-26.1922507,-53.6002033,3,85.56760
1,Bom Jesus do Tocantins/PA,-5.0471796,-48.5978362,714,4171.04802
D1,Bom Jesus do Tocantins/PA,-5.0471796,-48.5978362,23,134.36149
1,Bom Jesus do Tocantins/TO,-8.96306,-48.165043,124,2476.03834
D1,Bom Jesus do Tocantins/TO,-8.96306,-48.165043,3,59.90415
1,Bom Jesus dos Perdões/SP,-23.1353864,-46.4648052,1731,6661.53550
D1,Bom Jesus dos Perdões/SP,-23.1353864,-46.4648052,23,88.51260
1,Bom Jesus/PB,-6.8156725,-38.6551841,121,4699.02913
D1,Bom Jesus/PB,-6.8156725,-38.6551841,3,116.50485
1,Bom Jesus/PI,-9.0711644,-44.3583926,2898,11415.29129
D1,Bom Jesus/PI,-9.0711644,-44.3583926,29,114.23169
1,Bom Jesus/RN,-5.9887544,-35.5821149,628,6116.68452
D1,Bom Jesus/RN,-5.9887544,-35.5821149,13,126.61927
1,Bom Jesus/RS,-28.6692723,-50.4346894,644,5694.57954
D1,Bom Jesus/RS,-28.6692723,-50.4346894,15,132.63772
1,Bom Jesus/SC,-26.7350604,-52.3916519,326,10664.04972
D1,Bom Jesus/SC,-26.7350604,-52.3916519,6,196.27085
1,Bom Lugar/MA,-4.3728019,-45.0366054,444,2701.05852
D1,Bom Lugar/MA,-4.3728019,-45.0366054,7,42.58426
1,Bom Princípio do Piauí/PI,-3.1912777,-41.6430185,118,2088.12600
D1,Bom Princípio do Piauí/PI,-3.1912777,-41.6430185,10,176.95983
1,Bom Princípio/RS,-29.489788,-51.3566782,1405,9856.19081
D1,Bom Princípio/RS,-29.489788,-51.3566782,25,175.37706
1,Bom Progresso/RS,-27.5490948,-53.8655601,117,6161.13744
D1,Bom Progresso/RS,-27.5490948,-53.8655601,3,157.97788
1,Bom Repouso/MG,-22.4657069,-46.1485376,725,6880.51628
D1,Bom Repouso/MG,-22.4657069,-46.1485376,17,161.33624
1,Bom Retiro do Sul/RS,-29.6000007,-51.9359243,912,7360.77482
D1,Bom Retiro do Sul/RS,-29.6000007,-51.9359243,24,193.70460
1,Bom Retiro/SC,-27.798993,-49.486994,620,6163.02187
D1,Bom Retiro/SC,-27.798993,-49.486994,14,139.16501
1,Bom Sucesso de Itararé/SP,-24.3190016,-49.1446207,119,2986.94779
D1,Bom Sucesso de Itararé/SP,-24.3190016,-49.1446207,5,125.50201
1,Bom Sucesso do Sul/PR,-26.0749256,-52.8348629,329,10110.63307
D1,Bom Sucesso do Sul/PR,-26.0749256,-52.8348629,6,184.38844
1,Bom Sucesso/MG,-21.0323516,-44.7598082,563,3197.59187
D1,Bom Sucesso/MG,-21.0323516,-44.7598082,4,22.71824
1,Bom Sucesso/PB,-6.4458948,-37.9297662,198,3995.15738
D1,Bom Sucesso/PB,-6.4458948,-37.9297662,2,40.35513
1,Bom Sucesso/PR,-23.7088019,-51.7651297,646,9139.78495
D1,Bom Sucesso/PR,-23.7088019,-51.7651297,12,169.77929
1,Bombinhas/SC,-27.1519159,-48.4875691,3297,16213.42513
D1,Bombinhas/SC,-27.1519159,-48.4875691,51,250.79911
1,Bonfim do Piauí/PI,-9.1648678,-42.8734415,291,5118.73351
D1,Bonfim do Piauí/PI,-9.1648678,-42.8734415,6,105.54090
1,Bonfim/MG,-20.3266626, -44.2386157,345,5029.15452
D1,Bonfim/MG,-20.3266626, -44.2386157,14,204.08163
1,Bonfim/RR,3.3613818,-59.8427241,2188,17424.54408
D1,Bonfim/RR,3.3613818,-59.8427241,24,191.12845
1,Bonfinópolis de Minas/MG,-16.5660011,-45.98645,379,6961.79280
D1,Bonfinópolis de Minas/MG,-16.5660011,-45.98645,11,202.05731
1,Bonfinópolis/GO,-16.6172709,-48.9615701,443,4466.17603
D1,Bonfinópolis/GO,-16.6172709,-48.9615701,16,161.30658
1,Boninal/BA,-12.7095183,-41.8299984,569,3938.80659
D1,Boninal/BA,-12.7095183,-41.8299984,7,48.45632
1,Bonito de Minas/MG,-15.3191266,-44.7544,43,378.22148
1,Bonito de Santa Fé/PB,-7.3143332,-38.5146677,411,3418.73232
D1,Bonito de Santa Fé/PB,-7.3143332,-38.5146677,11,91.49892
1,Bonito/BA,-11.9665473,-41.2649896,667,3950.48567
D1,Bonito/BA,-11.9665473,-41.2649896,10,59.22767
1,Bonito/MS,-21.1264766,-56.4902208,2253,10153.22217
D1,Bonito/MS,-21.1264766,-56.4902208,47,211.80712
1,Bonito/PA,-1.3605722,-47.3049907,352,2129.46158
D1,Bonito/PA,-1.3605722,-47.3049907,12,72.59528
1,Bonito/PE,-8.4721161,-35.7314591,646,1694.78186
D1,Bonito/PE,-8.4721161,-35.7314591,34,89.19905
1,Bonópolis/GO,-13.649331,-49.8329113,143,3182.72869
D1,Bonópolis/GO,-13.649331,-49.8329113,1,22.25684
1,Boqueirão do Leão/RS,-29.30332,-52.4296817,554,7192.93690
D1,Boqueirão do Leão/RS,-29.30332,-52.4296817,28,363.54194
1,Boqueirão do Piauí/PI,-4.4850148,-42.1095161,506,7874.26082
D1,Boqueirão do Piauí/PI,-4.4850148,-42.1095161,8,124.49424
1,Boqueirão/PB,-7.487004,-36.130887,1312,7341.91382
D1,Boqueirão/PB,-7.487004,-36.130887,23,128.70733
1,Boquim/SE,-11.1450175,-37.6204228,1927,7163.83509
D1,Boquim/SE,-11.1450175,-37.6204228,47,174.72769
1,Boquira/BA,-12.8184859,-42.7270883,463,2153.78890
D1,Boquira/BA,-12.8184859,-42.7270883,10,46.51812
1,Boracéia/SP,-22.195355,-48.7801925,789,16207.88825
D1,Boracéia/SP,-22.195355,-48.7801925,19,390.30403
1,Borba/AM,-4.3934778,-59.5947721,1901,4553.51155
D1,Borba/AM,-4.3934778,-59.5947721,54,129.34751
1,Borborema/PB,-6.8066718,-35.5990191,344,6506.52544
D1,Borborema/PB,-6.8066718,-35.5990191,10,189.14318
1,Borborema/SP,-21.6212706,-49.074135,1083,6700.07424
D1,Borborema/SP,-21.6212706,-49.074135,35,216.53056
1,Borda da Mata/MG,-22.274167,-46.165278,1121,5715.30539
D1,Borda da Mata/MG,-22.274167,-46.165278,36,183.54237
1,Borebi/SP,-22.5700178,-48.9714871,141,5255.31122
D1,Borebi/SP,-22.5700178,-48.9714871,2,74.54342
1,Borrazópolis/PR,-23.9393362,-51.5850786,528,8200.03106
D1,Borrazópolis/PR,-23.9393362,-51.5850786,19,295.07688
1,Borá/SP,-22.2701088,-50.544407,68,8114.55847
D1,Borá/SP,-22.2701088,-50.544407,1,119.33174
1,Bossoroca/RS,-28.7278885,-54.9120278,368,5930.70105
D1,Bossoroca/RS,-28.7278885,-54.9120278,19,306.20467
1,Botelhos/MG,-21.65,-46.394722,1238,8281.49040
D1,Botelhos/MG,-21.65,-46.394722,16,107.03057
1,Botucatu/SP,-22.8879628,-48.4410712,11419,7708.76932
D1,Botucatu/SP,-22.8879628,-48.4410712,211,142.44245
1,Botumirim/MG,-16.862778,-43.011111,187,2973.91858
D1,Botumirim/MG,-16.862778,-43.011111,3,47.70992
1,Botuporã/BA,-13.3744752,-42.5198469,188,1856.05687
D1,Botuporã/BA,-13.3744752,-42.5198469,3,29.61793
1,Botuverá/SC,-27.200749,-49.068892,837,15727.17024
D1,Botuverá/SC,-27.200749,-49.068892,8,150.31943
1,Bozano/RS,-28.3669953,-53.7705165,211,9995.26291
D1,Bozano/RS,-28.3669953,-53.7705165,7,331.59640
1,Braga/RS,-27.617348,-53.740514,168,5073.99577
D1,Braga/RS,-27.617348,-53.740514,4,120.80942
1,Braganey/PR,-24.8179919,-53.118506,313,5815.68190
D1,Braganey/PR,-24.8179919,-53.118506,7,130.06317
1,Bragança Paulista/SP,-22.9520235,-46.5418586,13522,7929.25709
D1,Bragança Paulista/SP,-22.9520235,-46.5418586,383,224.58996
1,Bragança/PA,-1.0573967,-46.7635406,3829,2970.19719
D1,Bragança/PA,-1.0573967,-46.7635406,123,95.41245
1,Branquinha/AL,-9.2478057,-36.0152009,463,4426.38623
D1,Branquinha/AL,-9.2478057,-36.0152009,9,86.04207
1,Brasil Novo/PA,-3.3055853,-52.539198,1590,10612.02696
D1,Brasil Novo/PA,-3.3055853,-52.539198,36,240.27231
1,Brasileira/PI,-4.131182,-41.7824969,482,5774.52977
D1,Brasileira/PI,-4.131182,-41.7824969,9,107.82317
1,Brasilândia de Minas/MG,-17.0096469,-46.0087183,960,5732.02770
D1,Brasilândia de Minas/MG,-17.0096469,-46.0087183,13,77.62121
1,Brasilândia do Sul/PR,-24.1975793,-53.527551,328,12688.58801
D1,Brasilândia do Sul/PR,-24.1975793,-53.527551,8,309.47776
1,Brasilândia do Tocantins/TO,-8.3886619,-48.4842729,141,6377.20488
D1,Brasilândia do Tocantins/TO,-8.3886619,-48.4842729,4,180.91361
1,Brasilândia/MS,-21.255575,-52.0365617,791,6673.41601
D1,Brasilândia/MS,-21.255575,-52.0365617,14,118.11356
1,Brasiléia/AC,-11.0010413,-68.7487894,2574,9639.72736
D1,Brasiléia/AC,-11.0010413,-68.7487894,36,134.82136
1,Brasnorte/MT,-12.1227151,-58.0050109,1751,8694.14101
D1,Brasnorte/MT,-12.1227151,-58.0050109,30,148.95730
1,Brasília de Minas/MG,-16.2075114,-44.430559,841,2595.27851
D1,Brasília de Minas/MG,-16.2075114,-44.430559,7,21.60160
1,Brasília/DF,-15.7934036,-47.8823172,390117,12769.16445
D1,Brasília/DF,-15.7934036,-47.8823172,8251,270.06866
1,Brazabrantes/GO,-16.4291635,-49.3858216,381,10170.84891
D1,Brazabrantes/GO,-16.4291635,-49.3858216,3,80.08542
1,Brazópolis/MG,-22.4742842,-45.6165577,722,5010.40944
D1,Brazópolis/MG,-22.4742842,-45.6165577,28,194.30951
1,Braço do Norte/SC,-28.2728633,-49.1622712,7156,21124.09966
D1,Braço do Norte/SC,-28.2728633,-49.1622712,76,224.34762
1,Braço do Trombudo/SC,-27.358578,-49.882145,570,15123.37490
D1,Braço do Trombudo/SC,-27.358578,-49.882145,4,106.12895
1,Braúna/SP,-21.5015319,-50.3175246,373,6497.12594
D1,Braúna/SP,-21.5015319,-50.3175246,19,330.95280
1,Braúnas/MG,-19.055556,-42.716111,192,4026.00126
D1,Braúnas/MG,-19.055556,-42.716111,7,146.78130
1,Brejetuba/ES,-20.1465817,-41.2902303,1467,11804.94085
D1,Brejetuba/ES,-20.1465817,-41.2902303,13,104.61093
1,Brejinho de Nazaré/TO,-11.0205883,-48.5722906,401,7265.80902
D1,Brejinho de Nazaré/TO,-11.0205883,-48.5722906,9,163.07302
1,Brejinho/PE,-7.3482153,-37.28538,595,7946.04701
D1,Brejinho/PE,-7.3482153,-37.28538,15,200.32051
1,Brejinho/RN,-6.1957907,-35.3583019,989,7734.41777
D1,Brejinho/RN,-6.1957907,-35.3583019,9,70.38398
1,Brejo Alegre/SP,-21.1671191,-50.1850393,262,9068.88197
D1,Brejo Alegre/SP,-21.1671191,-50.1850393,11,380.75459
1,Brejo Grande do Araguaia/PA,-5.7011449,-48.4037308,751,10192.72530
D1,Brejo Grande do Araguaia/PA,-5.7011449,-48.4037308,4,54.28882
1,Brejo Grande/SE,-10.4287358,-36.4667918,345,4130.25260
D1,Brejo Grande/SE,-10.4287358,-36.4667918,12,143.66096
1,Brejo Santo/CE,-7.4909841,-38.9859152,7180,14405.52145
D1,Brejo Santo/CE,-7.4909841,-38.9859152,127,254.80518
1,Brejo da Madre de Deus/PE,-8.1409718,-36.3712527,1788,3490.48316
D1,Brejo da Madre de Deus/PE,-8.1409718,-36.3712527,46,89.79990
1,Brejo de Areia/MA,-4.3316785,-45.5833334,281,3117.37298
D1,Brejo de Areia/MA,-4.3316785,-45.5833334,8,88.75083
1,Brejo do Cruz/PB,-6.32926065,-37.48746163303929,1236,8700.54906
D1,Brejo do Cruz/PB,-6.32926065,-37.48746163303929,20,140.78558
1,Brejo do Piauí/PI,-8.207583,-42.8359849,62,1611.22661
D1,Brejo do Piauí/PI,-8.207583,-42.8359849,3,77.96258
1,Brejo dos Santos/PB,-6.3769367,-37.8243125,371,5739.48020
D1,Brejo dos Santos/PB,-6.3769367,-37.8243125,4,61.88119
1,Brejo/MA,-3.6804397,-42.7529313,836,2280.97460
D1,Brejo/MA,-3.6804397,-42.7529313,19,51.84033
1,Brejolândia/BA,-12.4843845,-43.9611861,129,1214.91806
D1,Brejolândia/BA,-12.4843845,-43.9611861,8,75.34376
1,Brejão/PE,-9.029146,-36.566034,190,2114.16490
D1,Brejão/PE,-9.029146,-36.566034,5,55.63592
1,Brejões/BA,-13.1033754,-39.7909837,551,3874.27929
D1,Brejões/BA,-13.1033754,-39.7909837,9,63.28224
1,Breu Branco/PA,-3.7785073,-49.5684795,585,868.82909
D1,Breu Branco/PA,-3.7785073,-49.5684795,43,63.86265
1,Breves/PA,-1.68036,-50.479085,3833,3703.48899
D1,Breves/PA,-1.68036,-50.479085,109,105.31706
1,Britânia/GO,-15.2427599,-51.1602061,464,8004.14007
D1,Britânia/GO,-15.2427599,-51.1602061,4,69.00121
1,Brochier/RS,-29.556766,-51.5963047,359,7033.69906
D1,Brochier/RS,-29.556766,-51.5963047,1,19.59248
1,Brodowski/SP,-20.984532,-47.657217,1870,7398.02983
D1,Brodowski/SP,-20.984532,-47.657217,48,189.89595
1,Brotas de Macaúbas/BA,-12.0019007,-42.6257506,70,691.01678
D1,Brotas de Macaúbas/BA,-12.0019007,-42.6257506,1,9.87167
1,Brotas/SP,-22.2840884,-48.1267265,460,1867.18623
D1,Brotas/SP,-22.2840884,-48.1267265,32,129.89122
1,Brumadinho/MG,-20.143611,-44.2,2945,7241.92200
D1,Brumadinho/MG,-20.143611,-44.2,69,169.67491
1,Brumado/BA,-14.29507325,-41.659307508575985,8303,12330.88290
D1,Brumado/BA,-14.29507325,-41.659307508575985,168,249.49877
1,Brunópolis/SC,-27.310953,-50.837585,236,9966.21622
D1,Brunópolis/SC,-27.310953,-50.837585,6,253.37838
1,Brusque/SC,-27.0964628,-48.9136323,23531,17089.96361
D1,Brusque/SC,-27.0964628,-48.9136323,238,172.85331
1,Brás Pires/MG,-20.8483109,-43.2430524,177,4122.99092
D1,Brás Pires/MG,-20.8483109,-43.2430524,6,139.76240
1,Bueno Brandão/MG,-22.441976,-46.3517971,563,5122.37285
D1,Bueno Brandão/MG,-22.441976,-46.3517971,19,172.86871
1,Buenos Aires/PE,-7.7218931,-35.326587,221,1675.51175
D1,Buenos Aires/PE,-7.7218931,-35.326587,19,144.04852
1,Buenópolis/MG,-17.8756607,-44.1749365,305,2946.00599
D1,Buenópolis/MG,-17.8756607,-44.1749365,10,96.59036
1,Buerarema/BA,-14.9571177,-39.3008035,1242,6784.66077
D1,Buerarema/BA,-14.9571177,-39.3008035,37,202.11952
1,Bugre/MG,-19.4257687,-42.2556,351,8812.45292
D1,Bugre/MG,-19.4257687,-42.2556,12,301.28044
1,Bujari/AC,-9.8309656,-67.9520886,1103,10585.41267
D1,Bujari/AC,-9.8309656,-67.9520886,14,134.35701
1,Bujaru/PA,-1.5169239,-48.0410699,1299,4414.31339
D1,Bujaru/PA,-1.5169239,-48.0410699,36,122.33663
1,Buri/SP,-23.79849,-48.598924,2148,10758.82795
D1,Buri/SP,-23.79849,-48.598924,59,295.51716
1,Buritama/SP,-21.0664017,-50.1448077,1896,10971.58729
D1,Buritama/SP,-21.0664017,-50.1448077,55,318.26862
1,Buriti Alegre/GO,-18.1377879,-49.0404411,807,8509.06790
D1,Buriti Alegre/GO,-18.1377879,-49.0404411,28,295.23408
1,Buriti Bravo/MA,-5.8391884,-43.8367876,1245,5200.71849
D1,Buriti Bravo/MA,-5.8391884,-43.8367876,12,50.12741
1,Buriti de Goiás/GO,-16.180644,-50.4287479,176,7108.23910
D1,Buriti de Goiás/GO,-16.180644,-50.4287479,8,323.10178
1,Buriti do Tocantins/TO,-5.3187439,-48.2256609,697,6062.45107
D1,Buriti do Tocantins/TO,-5.3187439,-48.2256609,8,69.58337
1,Buriti dos Lopes/PI,-3.1776723,-41.8707444,1184,5977.68466
D1,Buriti dos Lopes/PI,-3.1776723,-41.8707444,24,121.16928
1,Buriti dos Montes/PI,-5.3136171,-41.0971256,550,6655.37270
D1,Buriti dos Montes/PI,-5.3136171,-41.0971256,7,84.70474
1,Buriti/MA,-3.9430944,-42.9244281,751,2607.81999
D1,Buriti/MA,-3.9430944,-42.9244281,7,24.30724
1,Buriticupu/MA,-4.3227472,-46.4516989,2973,4073.55137
D1,Buriticupu/MA,-4.3227472,-46.4516989,38,52.06692
1,Buritinópolis/GO,-14.4589282,-46.4293104,158,4812.67134
D1,Buritinópolis/GO,-14.4589282,-46.4293104,2,60.91989
1,Buritirama/BA,-10.7148421,-43.6362327,789,3708.40384
D1,Buritirama/BA,-10.7148421,-43.6362327,19,89.30250
1,Buritirana/MA,-5.5897455,-47.0148915,361,2334.00142
D1,Buritirana/MA,-5.5897455,-47.0148915,23,148.70369
1,Buritis/MG,-15.621389,-46.423889,1401,5601.08743
D1,Buritis/MG,-15.621389,-46.423889,28,111.94179
1,Buritis/RO,-10.2054937,-63.8281954,4255,10543.66141
D1,Buritis/RO,-10.2054937,-63.8281954,62,153.63267
1,Buritizal/SP,-20.1933264,-47.7097165,237,5250.33230
D1,Buritizal/SP,-20.1933264,-47.7097165,10,221.53301
1,Buritizeiro/MG,-17.3667765,-44.9647781,979,3481.38402
D1,Buritizeiro/MG,-17.3667765,-44.9647781,28,99.56972
1,Butiá/RS,-30.1256795,-51.9692224,1722,8218.78580
D1,Butiá/RS,-30.1256795,-51.9692224,48,229.09507
1,Buíque/PE,-8.6239732,-37.157296,1824,3095.77556
D1,Buíque/PE,-8.6239732,-37.157296,37,62.79808
1,Bálsamo/SP,-20.7343722,-49.5807484,1303,14257.57742
D1,Bálsamo/SP,-20.7343722,-49.5807484,51,558.04793
0,CASO SEM LOCALIZAÇÃO DEFINIDA/BA,-13.415069300066518,-38.14174656569957,10193,68.53329
D0,CASO SEM LOCALIZAÇÃO DEFINIDA/BA,-13.415069300066518,-38.14174656569957,190,1.27748
0,CASO SEM LOCALIZAÇÃO DEFINIDA/CE,-3.3445126297392798,-38.624961942434304,8852,96.93303
0,CASO SEM LOCALIZAÇÃO DEFINIDA/ES,-20.30989267097039,-39.81745156645774,3529,87.81556
D0,CASO SEM LOCALIZAÇÃO DEFINIDA/ES,-20.30989267097039,-39.81745156645774,174,4.32981
0,CASO SEM LOCALIZAÇÃO DEFINIDA/MG,-19.97049116501593,-43.8852149072783,4266,20.15231
D0,CASO SEM LOCALIZAÇÃO DEFINIDA/MG,-19.97049116501593,-43.8852149072783,268,1.26601
0,CASO SEM LOCALIZAÇÃO DEFINIDA/MT,-15.54791153961863,-56.17143998972475,568,16.30092
D0,CASO SEM LOCALIZAÇÃO DEFINIDA/MT,-15.54791153961863,-56.17143998972475,128,3.67345
0,CASO SEM LOCALIZAÇÃO DEFINIDA/PR,-25.69415946385943,-48.10141676336737,5749,50.28006
D0,CASO SEM LOCALIZAÇÃO DEFINIDA/PR,-25.69415946385943,-48.10141676336737,143,1.25066
D0,CASO SEM LOCALIZAÇÃO DEFINIDA/RN,-5.749310788669161,-34.95302586257457,16,0.45625
0,CASO SEM LOCALIZAÇÃO DEFINIDA/RR,2.813328208465927,-60.663338675861986,2540,419.30728
D0,CASO SEM LOCALIZAÇÃO DEFINIDA/RR,2.813328208465927,-60.663338675861986,14,2.31114
0,CASO SEM LOCALIZAÇÃO DEFINIDA/SP,-24.30968974555485,-46.21366504207253,714,1.55491
1,Caapiranga/AM,-3.3188884,-61.2096404,571,4298.72770
D1,Caapiranga/AM,-3.3188884,-61.2096404,20,150.56840
1,Caaporã/PB,-7.510234,-34.9154114,1669,7601.91300
D1,Caaporã/PB,-7.510234,-34.9154114,28,127.53359
1,Caarapó/MS,-22.6349267,-54.8240903,2656,8681.72458
D1,Caarapó/MS,-22.6349267,-54.8240903,25,81.71804
1,Caatiba/BA,-14.9782759,-40.4092325,732,11282.36745
D1,Caatiba/BA,-14.9782759,-40.4092325,8,123.30456
1,Cabaceiras do Paraguaçu/BA,-12.5377868,-39.1901339,465,2458.88636
D1,Cabaceiras do Paraguaçu/BA,-12.5377868,-39.1901339,4,21.15171
1,Cabaceiras/PB,-7.4899156,-36.2860501,313,5529.05847
D1,Cabaceiras/PB,-7.4899156,-36.2860501,2,35.32945
1,Cabeceira Grande/MG,-16.0297,-47.0906,287,4107.04064
D1,Cabeceira Grande/MG,-16.0297,-47.0906,4,57.24098
1,Cabeceiras do Piauí/PI,-4.4733665,-42.3098716,461,4336.78269
D1,Cabeceiras do Piauí/PI,-4.4733665,-42.3098716,10,94.07338
1,Cabeceiras/GO,-15.7995459,-46.9264991,304,3778.27492
D1,Cabeceiras/GO,-15.7995459,-46.9264991,13,161.57097
1,Cabedelo/PB,-6.97324,-34.8351609,7666,11147.78891
D1,Cabedelo/PB,-6.97324,-34.8351609,172,250.11997
1,Cabixi/RO,-13.4956065,-60.5424442,663,12779.49113
D1,Cabixi/RO,-13.4956065,-60.5424442,18,346.95451
1,Cabo Frio/RJ,-22.8804369,-42.0189227,10872,4719.20062
D1,Cabo Frio/RJ,-22.8804369,-42.0189227,563,244.38097
1,Cabo Verde/MG,-21.4743338,-46.3964995,379,2692.71758
D1,Cabo Verde/MG,-21.4743338,-46.3964995,5,35.52398
1,Cabo de Santo Agostinho/PE,-8.2838945,-35.0320984,5039,2411.65097
D1,Cabo de Santo Agostinho/PE,-8.2838945,-35.0320984,410,196.22483
1,Cabreúva/SP,-23.3075813,-47.1324417,3080,6107.59682
D1,Cabreúva/SP,-23.3075813,-47.1324417,75,148.72395
1,Cabrobó/PE,-8.5083701,-39.3106961,1691,4901.02310
D1,Cabrobó/PE,-8.5083701,-39.3106961,21,60.86427
1,Cabrália Paulista/SP,-22.4562909,-49.3385645,260,6127.73981
D1,Cabrália Paulista/SP,-22.4562909,-49.3385645,3,70.70469
1,Cacaulândia/RO,-10.3380043,-62.9007231,763,12171.00016
D1,Cacaulândia/RO,-10.3380043,-62.9007231,9,143.56357
1,Cacequi/RS,-29.8838059,-54.8273443,410,3300.33003
D1,Cacequi/RS,-29.8838059,-54.8273443,6,48.29751
1,Cachoeira Alta/GO,-18.7618269,-50.9432431,1211,9561.02953
D1,Cachoeira Alta/GO,-18.7618269,-50.9432431,17,134.21759
1,Cachoeira Dourada/GO,-18.4934204,-49.481062,382,4756.56830
D1,Cachoeira Dourada/GO,-18.4934204,-49.481062,17,211.67974
1,Cachoeira Dourada/MG,-18.517136,-49.5002062,135,4988.91353
D1,Cachoeira Dourada/MG,-18.517136,-49.5002062,2,73.90983
1,Cachoeira Grande/MA,-2.9290492,-44.0573223,221,2331.71555
D1,Cachoeira Grande/MA,-2.9290492,-44.0573223,5,52.75375
1,Cachoeira Paulista/SP,-22.666498,-45.015384,1998,5949.79304
D1,Cachoeira Paulista/SP,-22.666498,-45.015384,31,92.31411
1,Cachoeira da Prata/MG,-19.524723,-44.453056,226,6293.51156
D1,Cachoeira da Prata/MG,-19.524723,-44.453056,4,111.38959
1,Cachoeira de Goiás/GO,-16.6688414,-50.6435997,56,4172.87630
D1,Cachoeira de Goiás/GO,-16.6688414,-50.6435997,2,149.03130
1,Cachoeira de Minas/MG,-22.3554043,-45.7796324,539,4654.97884
D1,Cachoeira de Minas/MG,-22.3554043,-45.7796324,8,69.09060
1,Cachoeira de Pajeú/MG,-15.965833,-41.496666,293,3103.15611
D1,Cachoeira de Pajeú/MG,-15.965833,-41.496666,8,84.72781
1,Cachoeira do Arari/PA,-1.0143572,-48.9621089,450,1870.01330
D1,Cachoeira do Arari/PA,-1.0143572,-48.9621089,20,83.11170
1,Cachoeira do Piriá/PA,-1.7599443,-46.5446954,723,2089.05198
D1,Cachoeira do Piriá/PA,-1.7599443,-46.5446954,4,11.55769
1,Cachoeira do Sul/RS,-30.0474778,-52.8905413,6831,8343.81756
D1,Cachoeira do Sul/RS,-30.0474778,-52.8905413,110,134.36099
1,Cachoeira dos Índios/PB,-6.9259193,-38.6742159,611,5929.16060
D1,Cachoeira dos Índios/PB,-6.9259193,-38.6742159,14,135.85638
1,Cachoeira/BA,-12.5998256,-38.9665918,1302,3878.80955
D1,Cachoeira/BA,-12.5998256,-38.9665918,19,56.60321
1,Cachoeiras de Macacu/RJ,-22.4626861,-42.6534414,2472,4168.42318
D1,Cachoeiras de Macacu/RJ,-22.4626861,-42.6534414,84,141.64545
1,Cachoeirinha/PE,-8.4906364,-36.2338963,411,2004.78025
D1,Cachoeirinha/PE,-8.4906364,-36.2338963,23,112.18965
1,Cachoeirinha/RS,-29.9493353,-51.0898927,12473,9503.96221
D1,Cachoeirinha/RS,-29.9493353,-51.0898927,364,277.35447
1,Cachoeirinha/TO,-6.118647,-47.9208885,117,5122.59194
D1,Cachoeirinha/TO,-6.118647,-47.9208885,2,87.56567
1,Cachoeiro de Itapemirim/ES,-20.848084,-41.11129,23041,10941.21725
D1,Cachoeiro de Itapemirim/ES,-20.848084,-41.11129,481,228.40699
1,Cacimba de Areia/PB,-7.1288513,-37.1575194,30,811.90798
D1,Cacimba de Areia/PB,-7.1288513,-37.1575194,2,54.12720
1,Cacimba de Dentro/PB,-6.6425101,-35.7929304,889,5175.22412
D1,Cacimba de Dentro/PB,-6.6425101,-35.7929304,24,139.71359
1,Cacimbas/PB,-7.2125451,-37.0593398,196,2722.60036
D1,Cacimbas/PB,-7.2125451,-37.0593398,6,83.34491
1,Cacimbinhas/AL,-9.401212,-36.991082,597,5482.59712
D1,Cacimbinhas/AL,-9.401212,-36.991082,7,64.28506
1,Cacique Doble/RS,-27.7700117,-51.6616409,403,7942.45171
D1,Cacique Doble/RS,-27.7700117,-51.6616409,8,157.66654
1,Cacoal/RO,-11.4333,-61.4420502,11563,13462.09819
D1,Cacoal/RO,-11.4333,-61.4420502,222,258.46111
1,Caconde/SP,-21.527995,-46.643659,1013,5329.05466
D1,Caconde/SP,-21.527995,-46.643659,19,99.95265
1,Caculé/BA,-14.4990734,-42.2233006,1336,5736.12125
D1,Caculé/BA,-14.4990734,-42.2233006,11,47.22854
1,Caetanos/BA,-14.3387456,-40.9085971,592,4052.57393
D1,Caetanos/BA,-14.3387456,-40.9085971,9,61.61008
1,Caetanópolis/MG,-19.2947496,-44.4138386,778,6621.84016
D1,Caetanópolis/MG,-19.2947496,-44.4138386,7,59.57954
1,Caetité/BA,-14.0691776,-42.4852428,2036,3985.82643
D1,Caetité/BA,-14.0691776,-42.4852428,21,41.11118
1,Caeté/MG,-19.897777,-43.670278,1580,3507.44778
D1,Caeté/MG,-19.897777,-43.670278,41,91.01605
1,Caetés/PE,-8.7728788,-36.6255835,1163,4023.66454
D1,Caetés/PE,-8.7728788,-36.6255835,17,58.81539
1,Cafarnaum/BA,-11.691399,-41.468823,772,4170.04267
D1,Cafarnaum/BA,-11.691399,-41.468823,16,86.42575
1,Cafeara/PR,-22.78905,-51.714195,225,7616.79079
D1,Cafeara/PR,-22.78905,-51.714195,9,304.67163
1,Cafelândia/PR,-24.6176963,-53.3218057,1538,8333.33333
D1,Cafelândia/PR,-24.6176963,-53.3218057,11,59.60121
1,Cafelândia/SP,-21.8054355,-49.6030627,653,3659.69848
D1,Cafelândia/SP,-21.8054355,-49.6030627,30,168.13316
1,Cafezal do Sul/PR,-23.900508,-53.512418,259,6460.46396
D1,Cafezal do Sul/PR,-23.900508,-53.512418,4,99.77551
1,Caiabu/SP,-22.0143038,-51.2356597,76,1812.54472
D1,Caiabu/SP,-22.0143038,-51.2356597,5,119.24636
1,Caiana/MG,-20.695555,-41.924723,123,2219.81592
D1,Caiana/MG,-20.695555,-41.924723,7,126.33099
1,Caiapônia/GO,-16.9538779,-51.8090761,988,5170.87978
D1,Caiapônia/GO,-16.9538779,-51.8090761,32,167.47789
1,Caibaté/RS,-28.290475,-54.645407,214,4437.07236
D1,Caibaté/RS,-28.290475,-54.645407,7,145.13788
1,Caibi/SC,-27.0751925,-53.2502133,553,9021.20718
D1,Caibi/SC,-27.0751925,-53.2502133,11,179.44535
1,Caicó/RN,-6.4594544,-37.0971911,9212,13479.06881
D1,Caicó/RN,-6.4594544,-37.0971911,112,163.87926
1,Caieiras/SP,-23.3644621,-46.7484765,6663,6483.09414
D1,Caieiras/SP,-23.3644621,-46.7484765,242,235.46582
1,Cairu/BA,-13.4860505,-39.0455744,1053,5714.44077
D1,Cairu/BA,-13.4860505,-39.0455744,11,59.69501
1,Caiuá/SP,-21.8319357,-51.9887179,254,4271.77935
D1,Caiuá/SP,-21.8319357,-51.9887179,5,84.09014
1,Caiçara do Norte/RN,-5.0645017,-36.0561226,321,4892.54687
D1,Caiçara do Norte/RN,-5.0645017,-36.0561226,9,137.17421
1,Caiçara do Rio do Vento/RN,-5.757968,-36.00089,233,6271.87079
D1,Caiçara do Rio do Vento/RN,-5.757968,-36.00089,7,188.42530
1,Caiçara/PB,-6.6146866,-35.4681434,632,8788.76373
D1,Caiçara/PB,-6.6146866,-35.4681434,14,194.68780
1,Caiçara/RS,-27.2750478,-53.4310053,416,8851.06383
D1,Caiçara/RS,-27.2750478,-53.4310053,8,170.21277
1,Cajamar/SP,-23.3561111,-46.8769444,3553,4558.98581
D1,Cajamar/SP,-23.3561111,-46.8769444,178,228.39839
1,Cajapió/MA,-2.8778715,-44.6746871,73,650.85592
D1,Cajapió/MA,-2.8778715,-44.6746871,4,35.66334
1,Cajari/MA,-3.3213076,-45.0118757,178,915.12005
D1,Cajari/MA,-3.3213076,-45.0118757,6,30.84674
1,Cajati/SP,-24.7272376,-48.1077914,2853,10012.63424
D1,Cajati/SP,-24.7272376,-48.1077914,73,256.19429
1,Cajazeiras do Piauí/PI,-6.794271,-42.3935024,47,1315.42121
D1,Cajazeiras do Piauí/PI,-6.794271,-42.3935024,1,27.98769
1,Cajazeiras/PB,-6.8897849,-38.5570389,6860,11013.18050
D1,Cajazeiras/PB,-6.8897849,-38.5570389,119,191.04497
1,Cajazeirinhas/PB,-6.961442,-37.7993733,116,3619.34477
1,Cajobi/SP,-20.8776238,-48.8106972,753,7106.45527
D1,Cajobi/SP,-20.8776238,-48.8106972,25,235.93809
1,Cajueiro da Praia/PI,-2.931114,-41.340801,471,6137.60751
D1,Cajueiro da Praia/PI,-2.931114,-41.340801,16,208.49622
1,Cajueiro/AL,-9.399589,-36.1524309,510,2390.88650
D1,Cajueiro/AL,-9.399589,-36.1524309,20,93.76026
1,Cajuri/MG,-20.7901414,-42.7954489,317,7976.84952
D1,Cajuri/MG,-20.7901414,-42.7954489,2,50.32713
1,Cajuru/SP,-21.2759978,-47.3046035,816,3091.72887
D1,Cajuru/SP,-21.2759978,-47.3046035,35,132.61092
1,Caldas Brandão/PB,-7.1027959,-35.3254676,462,7641.41581
D1,Caldas Brandão/PB,-7.1027959,-35.3254676,7,115.77903
1,Caldas Novas/GO,-17.745,-48.625,7348,7884.45856
D1,Caldas Novas/GO,-17.745,-48.625,184,197.43337
1,Caldas/MG,-21.923611,-46.386111,624,4291.31421
D1,Caldas/MG,-21.923611,-46.386111,22,151.29633
1,Caldazinha/GO,-16.7116649,-49.0012601,225,5847.19335
D1,Caldazinha/GO,-16.7116649,-49.0012601,4,103.95010
1,Caldeirão Grande do Piauí/PI,-7.3310393,-40.6374433,286,4947.24096
D1,Caldeirão Grande do Piauí/PI,-7.3310393,-40.6374433,2,34.59609
1,Caldeirão Grande/BA,-11.0208483,-40.3041387,540,4032.55918
D1,Caldeirão Grande/BA,-11.0208483,-40.3041387,6,44.80621
1,Califórnia/PR,-23.6672543,-51.3554556,827,9609.57472
D1,Califórnia/PR,-23.6672543,-51.3554556,15,174.29700
1,Calmon/SC,-26.6023644,-51.0992893,28,839.58021
D1,Calmon/SC,-26.6023644,-51.0992893,4,119.94003
1,Calumbi/PE,-7.9389746,-38.1516871,452,7864.97303
D1,Calumbi/PE,-7.9389746,-38.1516871,3,52.20115
1,Calçado/PE,-8.7413446,-36.3351787,369,3349.06517
D1,Calçado/PE,-8.7413446,-36.3351787,2,18.15211
1,Calçoene/AP,2.4981757,-50.9539503,1600,14151.77782
D1,Calçoene/AP,2.4981757,-50.9539503,10,88.44861
1,Camacan/BA,-15.4166631,-39.4930088,2467,7707.92976
D1,Camacan/BA,-15.4166631,-39.4930088,66,206.21134
1,Camacho/MG,-20.625556,-45.156667,49,1707.91216
D1,Camacho/MG,-20.625556,-45.156667,1,34.85535
1,Camalaú/PB,-7.885031,-36.824191,376,6234.45531
D1,Camalaú/PB,-7.885031,-36.824191,5,82.90499
1,Camamu/BA,-13.9438142,-39.1060917,1972,5573.45543
D1,Camamu/BA,-13.9438142,-39.1060917,41,115.87813
1,Camanducaia/MG,-22.755278,-46.144444,2537,11637.08087
D1,Camanducaia/MG,-22.755278,-46.144444,51,233.93422
1,Camapuã/MS,-19.5291747,-54.0434641,627,4578.98196
D1,Camapuã/MS,-19.5291747,-54.0434641,21,153.36303
1,Camaquã/RS,-30.8524752,-51.8075619,6075,9138.36156
D1,Camaquã/RS,-30.8524752,-51.8075619,119,179.00659
1,Camaragibe/PE,-8.0213832,-34.9810768,4648,2925.12854
D1,Camaragibe/PE,-8.0213832,-34.9810768,328,206.42043
1,Camargo/RS,-28.5865661,-52.2031474,296,10795.04012
D1,Camargo/RS,-28.5865661,-52.2031474,5,182.34865
1,Camaçari/BA,-12.6998188,-38.3260762,20934,6879.35012
D1,Camaçari/BA,-12.6998188,-38.3260762,531,174.49770
1,Cambará do Sul/RS,-29.0489517,-50.145412,293,4573.83703
D1,Cambará do Sul/RS,-29.0489517,-50.145412,10,156.10365
1,Cambará/PR,-23.042273,-50.075281,1900,7460.92830
D1,Cambará/PR,-23.042273,-50.075281,38,149.21857
1,Cambira/PR,-23.600265,-51.581045,693,8753.31565
D1,Cambira/PR,-23.600265,-51.581045,16,202.09675
1,Camboriú/SC,-27.0273601,-48.6535657,11136,13085.01263
D1,Camboriú/SC,-27.0273601,-48.6535657,149,175.07785
1,Cambuci/RJ,-21.5749919,-41.9107833,736,4744.10210
D1,Cambuci/RJ,-21.5749919,-41.9107833,28,180.48215
1,Cambuquira/MG,-21.853056,-45.2953619,463,3613.79956
D1,Cambuquira/MG,-21.853056,-45.2953619,15,117.07774
1,Cambuí/MG,-22.6122501,-46.0572137,2696,9042.73160
D1,Cambuí/MG,-22.6122501,-46.0572137,37,124.10277
1,Cambé/PR,-23.2782035,-51.2779583,9212,8581.99570
D1,Cambé/PR,-23.2782035,-51.2779583,192,178.86921
1,Cametá/PA,-2.242949,-49.497885,7382,5296.92030
D1,Cametá/PA,-2.242949,-49.497885,205,147.09681
1,Camocim de São Félix/PE,-8.3616757,-35.7638903,436,2306.87831
D1,Camocim de São Félix/PE,-8.3616757,-35.7638903,12,63.49206
1,Camocim/CE,-2.9009918,-40.8427389,5221,8169.68407
D1,Camocim/CE,-2.9009918,-40.8427389,141,220.63311
1,Campanha/MG,-21.8361108,-45.401986,1178,7027.80098
D1,Campanha/MG,-21.8361108,-45.401986,24,143.18100
1,Campanário/MG,-18.2398144,-41.7271768,184,4932.97587
D1,Campanário/MG,-18.2398144,-41.7271768,3,80.42895
1,Campestre da Serra/RS,-28.7966535,-51.0958149,138,4064.80118
1,Campestre de Goiás/GO,-16.7624179,-49.69497,442,12112.90765
D1,Campestre de Goiás/GO,-16.7624179,-49.69497,10,274.04768
1,Campestre do Maranhão/MA,-6.1729113,-47.3640512,930,6434.65025
D1,Campestre do Maranhão/MA,-6.1729113,-47.3640512,40,276.75915
1,Campestre/AL,-8.8481634,-35.5660033,240,3451.25108
D1,Campestre/AL,-8.8481634,-35.5660033,6,86.28128
1,Campestre/MG,-19.6142116,-43.219378,943,4478.95887
D1,Campestre/MG,-19.6142116,-43.219378,23,109.24290
1,Campina Grande do Sul/PR,-25.3046032,-49.0545355,4475,10243.79077
D1,Campina Grande do Sul/PR,-25.3046032,-49.0545355,92,210.59860
1,Campina Grande/PB,-7.2246743,-35.8771292,27443,6664.04408
D1,Campina Grande/PB,-7.2246743,-35.8771292,819,198.87957
1,Campina Verde/MG,-19.535277,-49.486389,905,4581.81450
D1,Campina Verde/MG,-19.535277,-49.486389,24,121.50668
1,Campina da Lagoa/PR,-24.5937926,-52.8038965,1072,7633.69650
D1,Campina da Lagoa/PR,-24.5937926,-52.8038965,25,178.02464
1,Campina das Missões/RS,-27.9883295,-54.8411665,399,7391.62653
D1,Campina das Missões/RS,-27.9883295,-54.8411665,8,148.20304
1,Campina do Monte Alegre/SP,-23.5935653,-48.4801876,426,7033.18474
D1,Campina do Monte Alegre/SP,-23.5935653,-48.4801876,12,198.11788
1,Campina do Simão/PR,-25.1086375,-51.8076658,254,6582.01607
D1,Campina do Simão/PR,-25.1086375,-51.8076658,12,310.96139
1,Campinas do Piauí/PI,-7.6593687,-41.8814875,166,2953.73665
D1,Campinas do Piauí/PI,-7.6593687,-41.8814875,1,17.79359
1,Campinas do Sul/RS,-27.7167968,-52.6257885,427,7852.15153
