type,name,lat,lon,total,total_per_100k_inhabitants
1,Abadia de Goiás/GO,-16.7572644,-49.4412205,596,6653.27082
D1,Abadia de Goiás/GO,-16.7572644,-49.4412205,7,78.14244
1,Abadia dos Dourados/MG,-18.4911191,-47.4063589,94,1341.70711
D1,Abadia dos Dourados/MG,-18.4911191,-47.4063589,1,14.27348
1,Abadiânia/GO,-16.1940946,-48.7067767,158,772.20077
D1,Abadiânia/GO,-16.1940946,-48.7067767,12,58.64816
1,Abaetetuba/PA,-1.721828,-48.878843,3243,2038.59693
D1,Abaetetuba/PA,-1.721828,-48.878843,113,71.03344
1,Abaeté/MG,-19.1566833,-45.4481213,59,253.76344
D1,Abaeté/MG,-19.1566833,-45.4481213,2,8.60215
1,Abaiara/CE,-7.3607808,-39.0487878,89,750.86476
D1,Abaiara/CE,-7.3607808,-39.0487878,2,16.87337
1,Abaré/BA,-8.7239913,-39.1139689,101,496.38767
1,Abatiá/PR,-23.3052967,-50.3102532,77,1039.41685
1,Abaíra/BA,-13.2503296,-41.6640342,19,218.14007
1,Abdon Batista/SC,-27.612419,-51.022992,127,4984.30141
1,Abel Figueiredo/PA,-4.953001,-48.3958485,360,4808.97676
D1,Abel Figueiredo/PA,-4.953001,-48.3958485,2,26.71654
1,Abelardo Luz/SC,-26.5705893,-52.3280339,420,2338.53007
D1,Abelardo Luz/SC,-26.5705893,-52.3280339,5,27.83964
1,Abre Campo/MG,-20.2976097,-42.4764741,91,676.88188
1,Abreu e Lima/PE,-7.900719,-34.898389,867,864.01052
D1,Abreu e Lima/PE,-7.900719,-34.898389,110,109.62071
1,Abreulândia/TO,-9.6221526,-49.1558343,86,3315.34310
D1,Abreulândia/TO,-9.6221526,-49.1558343,3,115.65150
1,Acaiaca/MG,-20.3621646,-43.1444162,31,776.16425
D1,Acaiaca/MG,-20.3621646,-43.1444162,1,25.03756
1,Acajutiba/BA,-11.6609659,-38.0186381,136,895.50273
D1,Acajutiba/BA,-11.6609659,-38.0186381,3,19.75374
1,Acarape/CE,-4.2237866,-38.7071663,1876,12476.72253
D1,Acarape/CE,-4.2237866,-38.7071663,15,99.76057
1,Acaraú/CE,-2.8869514,-40.1194713,2696,4272.31237
D1,Acaraú/CE,-2.8869514,-40.1194713,57,90.32708
1,Acari/RN,-6.4364689,-36.6394777,101,908.19171
D1,Acari/RN,-6.4364689,-36.6394777,8,71.93598
1,Acará/PA,-1.961388,-48.1987043,793,1424.49119
D1,Acará/PA,-1.961388,-48.1987043,13,23.35231
1,Acauã/PI,-8.219542,-41.083059,41,577.30217
1,Aceguá/RS,-31.8695131,-54.1615593,4,80.93889
1,Acopiara/CE,-6.0936464,-39.4543204,1007,1848.35080
D1,Acopiara/CE,-6.0936464,-39.4543204,38,69.74909
1,Acorizal/MT,-15.2001544,-56.3668953,185,3468.31646
D1,Acorizal/MT,-15.2001544,-56.3668953,7,131.23360
1,Acrelândia/AC,-10.0759167,-67.0526898,472,3047.12718
D1,Acrelândia/AC,-10.0759167,-67.0526898,9,58.10200
1,Acreúna/GO,-17.3959899,-50.3749031,688,3051.53908
D1,Acreúna/GO,-17.3959899,-50.3749031,19,84.27215
1,Adamantina/SP,-21.6866517,-51.0762975,382,1087.97813
D1,Adamantina/SP,-21.6866517,-51.0762975,11,31.32921
1,Adelândia/GO,-16.4155077,-50.1665834,68,2702.70270
D1,Adelândia/GO,-16.4155077,-50.1665834,1,39.74563
1,Adolfo/SP,-21.2356597,-49.6441918,116,3263.92797
D1,Adolfo/SP,-21.2356597,-49.6441918,4,112.54924
1,Adrianópolis/PR,-24.6557863,-48.9912769,181,3090.31928
D1,Adrianópolis/PR,-24.6557863,-48.9912769,4,68.29435
1,Adustina/BA,-10.5358875,-38.114479,90,525.51676
D1,Adustina/BA,-10.5358875,-38.114479,2,11.67815
1,Afogados da Ingazeira/PE,-7.750429,-37.6356375,754,2015.82718
D1,Afogados da Ingazeira/PE,-7.750429,-37.6356375,12,32.08213
1,Afonso Bezerra/RN,-5.4745,-36.57625071327935,133,1205.91169
D1,Afonso Bezerra/RN,-5.4745,-36.57625071327935,8,72.53604
1,Afonso Cláudio/ES,-20.077841,-41.12606,900,2955.17977
D1,Afonso Cláudio/ES,-20.077841,-41.12606,18,59.10360
1,Afonso Cunha/MA,-4.1326105,-43.3230026,152,2310.73275
D1,Afonso Cunha/MA,-4.1326105,-43.3230026,2,30.40438
1,Afrânio/PE,-8.5198919,-41.0070197,206,1039.87885
D1,Afrânio/PE,-8.5198919,-41.0070197,2,10.09591
1,Afuá/PA,-0.1535664,-50.3879223,2210,5585.46263
D1,Afuá/PA,-0.1535664,-50.3879223,11,27.80095
1,Agrestina/PE,-8.4558021,-35.9442663,575,2294.03551
D1,Agrestina/PE,-8.4558021,-35.9442663,32,127.66806
1,Agricolândia/PI,-5.7967843,-42.6605131,61,1188.85208
1,Agrolândia/SC,-27.4122212,-49.8295774,179,1625.35186
D1,Agrolândia/SC,-27.4122212,-49.8295774,6,54.48107
1,Agronômica/SC,-27.2660744,-49.7104753,84,1524.77764
D1,Agronômica/SC,-27.2660744,-49.7104753,3,54.45634
1,Aguanil/MG,-20.9424533,-45.3927152,86,1901.81336
D1,Aguanil/MG,-20.9424533,-45.3927152,3,66.34233
1,Aguaí/SP,-22.0592036,-46.979384,305,832.24187
D1,Aguaí/SP,-22.0592036,-46.979384,6,16.37197
1,Agudo/RS,-29.6423259,-53.2494005,51,310.95665
D1,Agudo/RS,-29.6423259,-53.2494005,1,6.09719
1,Agudos do Sul/PR,-25.9890808,-49.3328175,76,802.53432
D1,Agudos do Sul/PR,-25.9890808,-49.3328175,1,10.55966
1,Agudos/SP,-22.471162,-48.987822,658,1759.31125
D1,Agudos/SP,-22.471162,-48.987822,13,34.75843
1,Aguiar/PB,-7.0928404,-38.1727215,28,497.33570
1,Aguiarnópolis/TO,-6.5600452,-47.4721189,418,6065.00290
D1,Aguiarnópolis/TO,-6.5600452,-47.4721189,9,130.58619
1,Aimorés/MG,-19.4917754,-41.0615603,324,1288.73155
D1,Aimorés/MG,-19.4917754,-41.0615603,6,23.86540
1,Aiquara/BA,-14.126918,-39.8887574,180,4076.08696
D1,Aiquara/BA,-14.126918,-39.8887574,3,67.93478
1,Aiuaba/CE,-6.5710836,-40.1212278,45,257.24576
D1,Aiuaba/CE,-6.5710836,-40.1212278,1,5.71657
1,Aiuruoca/MG,-21.9759554,-44.6036637,15,251.00402
D1,Aiuruoca/MG,-21.9759554,-44.6036637,2,33.46720
1,Ajuricaba/RS,-28.239654,-53.7693013,148,2118.21955
D1,Ajuricaba/RS,-28.239654,-53.7693013,1,14.31229
1,Alagoa Grande/PB,-7.0415212,-35.6285322,1596,5612.01167
D1,Alagoa Grande/PB,-7.0415212,-35.6285322,28,98.45635
1,Alagoa Nova/PB,-7.0653703,-35.76695977336711,354,1692.07973
D1,Alagoa Nova/PB,-7.0653703,-35.76695977336711,9,43.01898
1,Alagoa/MG,-22.1697202,-44.6400042,28,1050.65666
1,Alagoinha do Piauí/PI,-7.0090952,-40.939675,97,1265.49250
D1,Alagoinha do Piauí/PI,-7.0090952,-40.939675,1,13.04631
1,Alagoinha/PB,-6.97063215,-35.51490901897793,1053,7232.14286
D1,Alagoinha/PB,-6.97063215,-35.51490901897793,12,82.41758
1,Alagoinha/PE,-8.50355635,-36.77701174370496,201,1365.67468
D1,Alagoinha/PE,-8.50355635,-36.77701174370496,7,47.56081
1,Alagoinhas/BA,-12.133526,-38.420772,5437,3569.29500
D1,Alagoinhas/BA,-12.133526,-38.420772,74,48.57970
1,Alambari/SP,-23.550338,-47.897971,72,1174.74302
D1,Alambari/SP,-23.550338,-47.897971,1,16.31588
1,Albertina/MG,-20.66164,-43.784039,37,1228.82763
D1,Albertina/MG,-20.66164,-43.784039,1,33.21156
1,Alcantil/PB,-7.7425491,-36.0609604,68,1234.34380
1,Alcinópolis/MS,-18.3264121,-53.7094463,13,239.98523
D1,Alcinópolis/MS,-18.3264121,-53.7094463,2,36.92080
1,Alcobaça/BA,-17.5215875,-39.1965474,519,2307.69231
D1,Alcobaça/BA,-17.5215875,-39.1965474,7,31.12494
1,Alcântara/MA,-2.4038956,-44.4154241,200,904.48625
D1,Alcântara/MA,-2.4038956,-44.4154241,8,36.17945
1,Alcântaras/CE,-3.586247,-40.5457641,514,4362.95730
D1,Alcântaras/CE,-3.586247,-40.5457641,4,33.95298
1,Aldeias Altas/MA,-4.6291957,-43.4708622,926,3460.77662
D1,Aldeias Altas/MA,-4.6291957,-43.4708622,5,18.68670
1,Alecrim/RS,-27.6566142,-54.7653195,18,308.90681
1,Alegre/ES,-20.7625787,-41.5318886,366,1221.01751
D1,Alegre/ES,-20.7625787,-41.5318886,17,56.71393
1,Alegrete do Piauí/PI,-7.2440138,-40.8602296,231,4697.03131
1,Alegrete/RS,-29.790166,-55.794862,657,899.65493
D1,Alegrete/RS,-29.790166,-55.794862,16,21.90940
1,Alegria/RS,-27.8332103,-54.0574959,55,1630.11263
1,Alenquer/PA,-1.946229,-54.738355,1405,2460.94024
D1,Alenquer/PA,-1.946229,-54.738355,30,52.54677
1,Alexandria/RN,-6.414779,-38.0135516,162,1195.30731
D1,Alexandria/RN,-6.414779,-38.0135516,4,29.51376
1,Alexânia/GO,-16.0834049,-48.5077803,1139,4066.40486
D1,Alexânia/GO,-16.0834049,-48.5077803,16,57.12246
1,Alfenas/MG,-21.4297405,-45.9479419,1198,1488.30969
D1,Alfenas/MG,-21.4297405,-45.9479419,38,47.20849
1,Alfredo Chaves/ES,-20.624970400000002,-40.75006690147988,463,3163.43263
D1,Alfredo Chaves/ES,-20.624970400000002,-40.75006690147988,7,47.82728
1,Alfredo Marcondes/SP,-21.9527,-51.413956,54,1290.63098
D1,Alfredo Marcondes/SP,-21.9527,-51.413956,2,47.80115
1,Alfredo Vasconcelos/MG,-21.145833,-43.776389,17,243.51812
D1,Alfredo Vasconcelos/MG,-21.145833,-43.776389,1,14.32460
1,Alfredo Wagner/SC,-27.6961513,-49.3326734,201,1992.86139
D1,Alfredo Wagner/SC,-27.6961513,-49.3326734,1,9.91473
1,Algodão de Jandaíra/PB,-6.9040175,-36.0089879,27,1047.72992
1,Alhandra/PB,-7.4304246,-34.9106103,666,3376.08354
D1,Alhandra/PB,-7.4304246,-34.9106103,18,91.24550
1,Aliança do Tocantins/TO,-11.3055927,-48.9409096,149,2787.13056
D1,Aliança do Tocantins/TO,-11.3055927,-48.9409096,2,37.41115
1,Aliança/PE,-7.60398,-35.222696,370,963.61695
D1,Aliança/PE,-7.60398,-35.222696,28,72.92236
1,Almadina/BA,-14.70466,-39.6381994,356,6634.36452
D1,Almadina/BA,-14.70466,-39.6381994,6,111.81513
1,Almas/TO,-11.5681309,-47.1702803,81,1160.62473
D1,Almas/TO,-11.5681309,-47.1702803,2,28.65740
1,Almeirim/PA,-1.5290377,-52.5788111,257,754.19650
D1,Almeirim/PA,-1.5290377,-52.5788111,18,52.82310
1,Almenara/MG,-16.1740678,-40.6904907,833,1976.60347
D1,Almenara/MG,-16.1740678,-40.6904907,10,23.72873
1,Almino Afonso/RN,-6.1544208,-37.7649018,41,870.48832
1,Almirante Tamandaré do Sul/RS,-28.1141129,-52.9134874,10,513.08363
1,Almirante Tamandaré/PR,-25.3133048,-49.2997838,1700,1416.18280
D1,Almirante Tamandaré/PR,-25.3133048,-49.2997838,58,48.31683
1,Aloândia/GO,-17.7277983,-49.4809338,89,4481.36959
D1,Aloândia/GO,-17.7277983,-49.4809338,4,201.40987
1,Alpercata/MG,-18.9803616,-41.9827637,192,2582.03335
D1,Alpercata/MG,-18.9803616,-41.9827637,6,80.68854
1,Alpestre/RS,-27.2512339,-53.0349646,54,890.06099
D1,Alpestre/RS,-27.2512339,-53.0349646,1,16.48261
1,Alpinópolis/MG,-20.863611,-46.387777,103,516.08378
D1,Alpinópolis/MG,-20.863611,-46.387777,4,20.04209
1,Alta Floresta D'Oeste/RO,-11.9296917,-61.9961284,820,3607.88455
D1,Alta Floresta D'Oeste/RO,-11.9296917,-61.9961284,10,43.99859
1,Alta Floresta/MT,-9.8715018,-56.0839881,1404,2702.13053
D1,Alta Floresta/MT,-9.8715018,-56.0839881,24,46.19027
1,Altair/SP,-20.5238955,-49.0606135,47,1122.79025
D1,Altair/SP,-20.5238955,-49.0606135,2,47.77831
1,Altamira do Maranhão/MA,-4.1643006,-45.4674574,273,3333.74038
D1,Altamira do Maranhão/MA,-4.1643006,-45.4674574,5,61.05752
1,Altamira do Paraná/PR,-24.799114,-52.7128633,14,832.34245
D1,Altamira do Paraná/PR,-24.799114,-52.7128633,1,59.45303
1,Altamira/PA,-3.204065,-52.209961,4265,3677.70697
D1,Altamira/PA,-3.204065,-52.209961,120,103.47593
1,Altaneira/CE,-6.9980933,-39.7385742,38,496.73203
1,Alterosa/MG,-21.249166,-46.143055,17,117.10408
D1,Alterosa/MG,-21.249166,-46.143055,2,13.77695
1,Altinho/PE,-8.4904095,-36.0607494,493,2144.97041
D1,Altinho/PE,-8.4904095,-36.0607494,10,43.50853
1,Altinópolis/SP,-21.021364,-47.3712,220,1357.77325
D1,Altinópolis/SP,-21.021364,-47.3712,7,43.20188
1,Alto Alegre do Maranhão/MA,-4.2055693,-44.4525287,390,1399.95692
D1,Alto Alegre do Maranhão/MA,-4.2055693,-44.4525287,12,43.07560
1,Alto Alegre do Pindaré/MA,-3.6698186,-45.8462153,1466,4589.42491
D1,Alto Alegre do Pindaré/MA,-3.6698186,-45.8462153,19,59.48095
1,Alto Alegre dos Parecis/RO,-12.1314515,-61.856265,207,1561.67484
D1,Alto Alegre dos Parecis/RO,-12.1314515,-61.856265,9,67.89891
1,Alto Alegre/RR,2.98858,-61.307167,626,4070.22107
D1,Alto Alegre/RR,2.98858,-61.307167,16,104.03121
1,Alto Alegre/RS,-31.780844700000003,-52.81311114489171,14,867.94792
1,Alto Alegre/SP,-21.5820592,-50.1661976,66,1614.48141
D1,Alto Alegre/SP,-21.5820592,-50.1661976,2,48.92368
1,Alto Araguaia/MT,-17.3156528,-53.2169365,375,1934.48543
D1,Alto Araguaia/MT,-17.3156528,-53.2169365,5,25.79314
1,Alto Bela Vista/SC,-27.4320737,-51.905771,27,1401.86916
1,Alto Boa Vista/MT,-11.6723985,-51.3744431,88,1268.74279
D1,Alto Boa Vista/MT,-11.6723985,-51.3744431,3,43.25260
1,Alto Caparaó/MG,-20.4405661,-41.8683799,21,356.29454
1,Alto Feliz/RS,-29.3785943,-51.3123751,35,1152.83267
1,Alto Garças/MT,-16.9469683,-53.529427,253,2082.13316
D1,Alto Garças/MT,-16.9469683,-53.529427,10,82.29775
1,Alto Horizonte/GO,-14.1954948,-49.3366993,164,2482.96745
D1,Alto Horizonte/GO,-14.1954948,-49.3366993,1,15.14005
1,Alto Jequitibá/MG,-20.423611,-41.966111,87,1048.06650
D1,Alto Jequitibá/MG,-20.423611,-41.966111,4,48.18697
1,Alto Longá/PI,-5.2549051,-42.2072388,177,1234.39570
D1,Alto Longá/PI,-5.2549051,-42.2072388,6,41.84392
1,Alto Paraguai/MT,-14.513712,-56.4936374,264,2301.05465
D1,Alto Paraguai/MT,-14.513712,-56.4936374,8,69.72893
1,Alto Paraná/PR,-23.131247,-52.318893,102,686.45265
D1,Alto Paraná/PR,-23.131247,-52.318893,1,6.72993
1,Alto Paraíso de Goiás/GO,-14.1304779,-47.5100161,207,2692.50780
1,Alto Paraíso/PR,-23.508137,-53.728537,5,186.21974
1,Alto Paraíso/RO,-9.7240103,-63.3188123,378,1730.21467
D1,Alto Paraíso/RO,-9.7240103,-63.3188123,8,36.61830
1,Alto Parnaíba/MA,-9.112506,-45.9310154,298,2657.86657
D1,Alto Parnaíba/MA,-9.112506,-45.9310154,2,17.83803
1,Alto Piquiri/PR,-24.0239021,-53.4417448,114,1165.88259
D1,Alto Piquiri/PR,-24.0239021,-53.4417448,4,40.90816
1,Alto Rio Doce/MG,-21.0239537,-43.4133507,70,644.62658
D1,Alto Rio Doce/MG,-21.0239537,-43.4133507,2,18.41790
1,Alto Rio Novo/ES,-19.0577208,-41.0171518,176,2235.20447
D1,Alto Rio Novo/ES,-19.0577208,-41.0171518,11,139.70028
1,Alto Santo/CE,-5.5190371,-38.2719351,456,2651.77948
D1,Alto Santo/CE,-5.5190371,-38.2719351,11,63.96836
1,Alto Taquari/MT,-17.8269099,-53.2831736,328,2946.19599
D1,Alto Taquari/MT,-17.8269099,-53.2831736,6,53.89383
1,Alto do Rodrigues/RN,-5.290868,-36.7616726,377,2559.75014
D1,Alto do Rodrigues/RN,-5.290868,-36.7616726,17,115.42640
1,Altos/PI,-5.0393915,-42.4611694,1552,3822.18939
D1,Altos/PI,-5.0393915,-42.4611694,24,59.10602
1,Altônia/PR,-23.8722004,-53.894037,185,834.23521
D1,Altônia/PR,-23.8722004,-53.894037,2,9.01876
1,Alumínio/SP,-23.5203479,-47.2575256,253,1348.11105
D1,Alumínio/SP,-23.5203479,-47.2575256,6,31.97101
1,Alvarenga/MG,-19.4175,-41.728334,132,3433.92300
D1,Alvarenga/MG,-19.4175,-41.728334,1,26.01457
1,Alvarães/AM,-3.214786,-64.8143124,1239,7638.71763
D1,Alvarães/AM,-3.214786,-64.8143124,15,92.47842
1,Alvinlândia/SP,-22.4431852,-49.7643596,25,772.32005
1,Alvinópolis/MG,-20.1105199,-43.0601805,68,448.28268
D1,Alvinópolis/MG,-20.1105199,-43.0601805,1,6.59239
1,Alvorada D'Oeste/RO,-11.346271,-62.284697,139,985.39629
D1,Alvorada D'Oeste/RO,-11.346271,-62.284697,7,49.62427
1,Alvorada de Minas/MG,-18.7318587,-43.3641479,57,1581.13731
D1,Alvorada de Minas/MG,-18.7318587,-43.3641479,1,27.73925
1,Alvorada do Gurguéia/PI,-8.4465288,-43.8655915,49,899.90817
D1,Alvorada do Gurguéia/PI,-8.4465288,-43.8655915,2,36.73095
1,Alvorada do Norte/GO,-14.483911,-46.4959897,208,2389.43136
D1,Alvorada do Norte/GO,-14.483911,-46.4959897,1,11.48765
1,Alvorada do Sul/PR,-22.7807269,-51.2307721,66,573.76337
D1,Alvorada do Sul/PR,-22.7807269,-51.2307721,5,43.46692
1,Alvorada/RS,-29.9981184,-51.0772509,3975,1880.74870
D1,Alvorada/RS,-29.9981184,-51.0772509,137,64.82077
1,Alvorada/TO,-12.478465,-49.124926,525,6252.97761
D1,Alvorada/TO,-12.478465,-49.124926,9,107.19390
1,Além Paraíba/MG,-21.8760576,-42.6810473,463,1307.87266
D1,Além Paraíba/MG,-21.8760576,-42.6810473,14,39.54691
1,Amajari/RR,3.6523869,-61.4194315,390,2957.90671
D1,Amajari/RR,3.6523869,-61.4194315,15,113.76564
1,Amambai/MS,-23.1082701,-55.2284854,210,527.29373
D1,Amambai/MS,-23.1082701,-55.2284854,5,12.55461
1,Amaporã/PR,-23.094272,-52.786597,28,442.19836
1,Amapá do Maranhão/MA,-1.6762114,-46.0109669,4,57.10207
1,Amapá/AP,2.0529997,-50.7930003,773,8414.06335
D1,Amapá/AP,2.0529997,-50.7930003,4,43.53978
1,Amaraji/PE,-8.373925,-35.4536527,169,738.95934
D1,Amaraji/PE,-8.373925,-35.4536527,24,104.94097
1,Amaral Ferrador/RS,-30.8750633,-52.2542051,34,479.88709
D1,Amaral Ferrador/RS,-30.8750633,-52.2542051,1,14.11433
1,Amaralina/GO,-13.9236199,-49.2962411,8,208.06242
1,Amarante do Maranhão/MA,-5.56913,-46.747284,1110,2660.02061
D1,Amarante do Maranhão/MA,-5.56913,-46.747284,21,50.32471
1,Amarante/PI,-6.2459374,-42.8476238,402,2283.57192
D1,Amarante/PI,-6.2459374,-42.8476238,8,45.44422
1,Amargosa/BA,-13.03793715,-39.60796443875596,400,1068.34753
D1,Amargosa/BA,-13.03793715,-39.60796443875596,13,34.72129
1,Amaturá/AM,-3.3640509,-68.1994689,853,7268.23449
D1,Amaturá/AM,-3.3640509,-68.1994689,10,85.20791
1,Americana/SP,-22.7392463,-47.3306032,5266,2175.87122
D1,Americana/SP,-22.7392463,-47.3306032,161,66.52398
1,Americano do Brasil/GO,-16.2515808,-49.9806104,141,2287.47567
D1,Americano do Brasil/GO,-16.2515808,-49.9806104,3,48.66970
1,Ametista do Sul/RS,-27.3617341,-53.1826575,77,1040.11887
1,Amontada/CE,-3.3634586,-39.8284791,815,1859.49942
D1,Amontada/CE,-3.3634586,-39.8284791,20,45.63189
1,Amorinópolis/GO,-16.6211308,-51.0949921,54,1759.53079
1,Amparo de São Francisco/SE,-10.1299754,-36.9269099,74,3109.24370
D1,Amparo de São Francisco/SE,-10.1299754,-36.9269099,1,42.01681
1,Amparo do Serra/MG,-20.5070255,-42.8028462,11,235.14322
D1,Amparo do Serra/MG,-20.5070255,-42.8028462,1,21.37666
1,Amparo/PB,-7.56394725,-37.04652873235175,18,799.64460
1,Amparo/SP,-22.70111,-46.76444,1118,1538.31336
D1,Amparo/SP,-22.70111,-46.76444,24,33.02283
1,Ampére/PR,-25.9168712,-53.4742414,117,605.87230
D1,Ampére/PR,-25.9168712,-53.4742414,3,15.53519
1,Amélia Rodrigues/BA,-12.4015388,-38.7516971,414,1652.82657
D1,Amélia Rodrigues/BA,-12.4015388,-38.7516971,9,35.93101
1,América Dourada/BA,-11.4515262,-41.4357517,101,627.71908
1,Américo Brasiliense/SP,-21.7297099,-48.1052092,624,1520.76428
D1,Américo Brasiliense/SP,-21.7297099,-48.1052092,12,29.24547
1,Américo de Campos/SP,-20.298476,-49.735904,306,5116.20130
D1,Américo de Campos/SP,-20.298476,-49.735904,9,150.47651
1,Anadia/AL,-9.6830208,-36.3052699,474,2704.55324
D1,Anadia/AL,-9.6830208,-36.3052699,7,39.94066
1,Anagé/BA,-14.6134669,-41.1376308,137,634.05378
D1,Anagé/BA,-14.6134669,-41.1376308,3,13.88439
1,Anahy/PR,-24.6450861,-53.1337957,32,1147.77618
1,Anajatuba/MA,-3.26441,-44.6179916,338,1252.40848
D1,Anajatuba/MA,-3.26441,-44.6179916,9,33.34815
1,Anajás/PA,-0.9878802,-49.9390114,576,1940.17785
D1,Anajás/PA,-0.9878802,-49.9390114,11,37.05201
1,Analândia/SP,-22.128917,-47.661939,36,712.02532
D1,Analândia/SP,-22.128917,-47.661939,2,39.55696
1,Anamã/AM,-3.5797356,-61.4049996,776,5560.33247
D1,Anamã/AM,-3.5797356,-61.4049996,1,7.16538
1,Ananindeua/PA,-1.374035,-48.4016623,7622,1423.21776
D1,Ananindeua/PA,-1.374035,-48.4016623,368,68.71479
1,Ananás/TO,-6.3663053,-48.080238,333,3508.21745
D1,Ananás/TO,-6.3663053,-48.080238,11,115.88706
1,Anapu/PA,-3.4668292,-51.2057035,980,3425.73496
D1,Anapu/PA,-3.4668292,-51.2057035,23,80.39990
1,Anapurus/MA,-3.6751298,-43.1046001,720,4530.01133
D1,Anapurus/MA,-3.6751298,-43.1046001,6,37.75009
1,Anastácio/MS,-20.4832458,-55.8048448,655,2595.39565
D1,Anastácio/MS,-20.4832458,-55.8048448,20,79.24872
1,Anaurilândia/MS,-22.185169,-52.719056,32,352.57823
1,Anchieta/ES,-20.8057672,-40.6454564,891,2992.04137
D1,Anchieta/ES,-20.8057672,-40.6454564,21,70.51949
1,Anchieta/SC,-26.5350527,-53.3293938,33,593.84560
D1,Anchieta/SC,-26.5350527,-53.3293938,1,17.99532
1,Andaraí/BA,-12.8059674,-41.3322919,37,281.75449
1,Andirá/PR,-23.0494761,-50.2310027,256,1284.75359
D1,Andirá/PR,-23.0494761,-50.2310027,4,20.07427
1,Andorinha/BA,-10.3445708,-39.8334411,66,455.07826
D1,Andorinha/BA,-10.3445708,-39.8334411,2,13.79025
1,Andradas/MG,-22.0680484,-46.5688976,370,893.80616
D1,Andradas/MG,-22.0680484,-46.5688976,13,31.40400
1,Andradina/SP,-20.896505,-51.3742765,1218,2129.29618
D1,Andradina/SP,-20.896505,-51.3742765,34,59.43848
1,Andrelândia/MG,-21.739722,-44.308889,70,573.48845
1,André da Rocha/RS,-28.6309124,-51.5733328,23,1712.58377
1,Angatuba/SP,-23.4938938,-48.4110675,290,1138.19224
D1,Angatuba/SP,-23.4938938,-48.4110675,9,35.32321
1,Angelim/PE,-8.8902038,-36.2872987,71,632.46036
D1,Angelim/PE,-8.8902038,-36.2872987,3,26.72368
1,Angelina/SC,-27.5805287,-48.9838759,95,2002.95172
1,Angelândia/MG,-17.7253,-42.2728,16,186.98142
1,Angical do Piauí/PI,-6.0872666,-42.7366138,133,1960.78431
D1,Angical do Piauí/PI,-6.0872666,-42.7366138,3,44.22822
1,Angical/BA,-12.005623,-44.7000236,151,1083.36921
D1,Angical/BA,-12.005623,-44.7000236,3,21.52389
1,Angico/TO,-6.3893733,-47.8656722,67,1939.77997
D1,Angico/TO,-6.3893733,-47.8656722,1,28.95194
1,Angicos/RN,-5.6666344,-36.6009064,98,837.24904
D1,Angicos/RN,-5.6666344,-36.6009064,4,34.17343
1,Angra dos Reis/RJ,-23.0063966,-44.316326,5641,2724.54164
D1,Angra dos Reis/RJ,-23.0063966,-44.316326,190,91.76793
1,Anguera/BA,-12.1509425,-39.2452469,63,557.67018
1,Angélica/MS,-22.1588196,-53.7728504,119,1088.54738
D1,Angélica/MS,-22.1588196,-53.7728504,3,27.44237
1,Anhanguera/GO,-18.3338749,-48.220363,14,1206.89655
D1,Anhanguera/GO,-18.3338749,-48.220363,2,172.41379
1,Anhembi/SP,-22.7891096,-48.1316776,21,307.96304
1,Anhumas/SP,-22.2956478,-51.3873401,71,1713.32046
1,Anicuns/GO,-16.4606451,-49.9572265,718,3266.45740
D1,Anicuns/GO,-16.4606451,-49.9572265,16,72.79014
1,Anita Garibaldi/SC,-27.6855032,-51.1293873,245,3521.63289
D1,Anita Garibaldi/SC,-27.6855032,-51.1293873,1,14.37401
1,Anitápolis/SC,-27.9041185,-49.1287395,55,1703.84139
1,Anori/AM,-3.7435254,-61.6605203,800,3724.91503
D1,Anori/AM,-3.7435254,-61.6605203,11,51.21758
1,Anta Gorda/RS,-28.9718745,-52.0069187,81,1358.83241
1,Antas/BA,-10.4114649,-38.3308815,363,1863.54536
1,Antonina do Norte/CE,-6.7754187,-39.9879345,49,664.13662
1,Antonina/PR,-25.4298854,-48.7125431,428,2258.69439
D1,Antonina/PR,-25.4298854,-48.7125431,7,36.94126
1,Antônio Almeida/PI,-7.2186016,-44.1950248,222,7003.15457
D1,Antônio Almeida/PI,-7.2186016,-44.1950248,1,31.54574
1,Antônio Cardoso/BA,-12.4363122,-39.1200307,73,625.16057
D1,Antônio Cardoso/BA,-12.4363122,-39.1200307,1,8.56384
1,Antônio Carlos/MG,-21.318334,-43.746666,70,610.87355
D1,Antônio Carlos/MG,-21.318334,-43.746666,2,17.45353
1,Antônio Carlos/SC,-27.5168462,-48.7684715,291,3378.61372
D1,Antônio Carlos/SC,-27.5168462,-48.7684715,11,127.71392
1,Antônio Dias/MG,-19.6525,-42.872778,107,1153.63881
D1,Antônio Dias/MG,-19.6525,-42.872778,2,21.56334
1,Antônio Gonçalves/BA,-10.5715409,-40.2748824,182,1532.24449
D1,Antônio Gonçalves/BA,-10.5715409,-40.2748824,1,8.41893
1,Antônio João/MS,-22.1892837,-55.9508227,61,676.27494
1,Antônio Martins/RN,-6.2155812,-37.8890129,9,125.80375
D1,Antônio Martins/RN,-6.2155812,-37.8890129,2,27.95639
1,Antônio Olinto/PR,-25.9849006,-50.1974516,85,1144.47287
D1,Antônio Olinto/PR,-25.9849006,-50.1974516,1,13.46439
1,Antônio Prado de Minas/MG,-21.0171988,-42.1101106,11,693.13170
1,Antônio Prado/RS,-28.8567806,-51.2801355,481,3687.23649
D1,Antônio Prado/RS,-28.8567806,-51.2801355,9,68.99195
1,Anápolis/GO,-16.3332828,-48.9525756,11721,2991.79114
D1,Anápolis/GO,-16.3332828,-48.9525756,289,73.76740
1,Anísio de Abreu/PI,-9.185643,-43.04941,99,996.17629
1,Aparecida d'Oeste/SP,-20.4498109,-50.8808706,150,3607.50361
D1,Aparecida d'Oeste/SP,-20.4498109,-50.8808706,2,48.10005
1,Aparecida de Goiânia/GO,-16.8226769,-49.2452546,33832,5732.81866
D1,Aparecida de Goiânia/GO,-16.8226769,-49.2452546,503,85.23315
1,Aparecida do Rio Doce/GO,-18.2980167,-51.1491312,91,3678.25384
D1,Aparecida do Rio Doce/GO,-18.2980167,-51.1491312,2,80.84074
1,Aparecida do Rio Negro/TO,-9.9513491,-47.9773786,48,990.09901
1,Aparecida do Taboado/MS,-20.0840304,-51.1013943,909,3486.90015
D1,Aparecida do Taboado/MS,-20.0840304,-51.1013943,18,69.04753
1,Aparecida/PB,-6.7859598, -38.0831353,165,1960.55133
D1,Aparecida/PB,-6.7859598, -38.0831353,4,47.52852
1,Aparecida/SP,-22.851552,-45.2340924,408,1127.53904
D1,Aparecida/SP,-22.851552,-45.2340924,11,30.39934
1,Aperibé/RJ,-21.6211928,-42.1028167,193,1621.71246
D1,Aperibé/RJ,-21.6211928,-42.1028167,7,58.81859
1,Apiacá/ES,-21.152272,-41.569297,170,2250.46333
D1,Apiacá/ES,-21.152272,-41.569297,4,52.95208
1,Apiacás/MT,-9.5678422,-57.394852,54,525.13858
D1,Apiacás/MT,-9.5678422,-57.394852,1,9.72479
1,Apiaí/SP,-24.5076527,-48.8461582,148,610.91389
D1,Apiaí/SP,-24.5076527,-48.8461582,5,20.63898
1,Apicum-Açu/MA,-1.5279295,-45.082278,197,1131.33866
D1,Apicum-Açu/MA,-1.5279295,-45.082278,3,17.22851
1,Apiúna/SC,-27.0374658,-49.3885037,86,792.77286
D1,Apiúna/SC,-27.0374658,-49.3885037,3,27.65487
1,Apodi/RN,-5.6631109,-37.796927,2189,6101.91225
D1,Apodi/RN,-5.6631109,-37.796927,32,89.20109
1,Aporá/BA,-11.6599747,-38.0794757,192,1079.37936
D1,Aporá/BA,-11.6599747,-38.0794757,4,22.48707
1,Aporé/GO,-18.9642193,-51.92804,43,1016.06805
D1,Aporé/GO,-18.9642193,-51.92804,2,47.25898
1,Apuarema/BA,-13.8517897,-39.7457126,375,5135.57929
D1,Apuarema/BA,-13.8517897,-39.7457126,5,68.47439
1,Apucarana/PR,-23.5525327,-51.4610764,997,731.82906
D1,Apucarana/PR,-23.5525327,-51.4610764,39,28.62721
1,Apuiarés/CE,-3.9460303,-39.4313298,249,1697.11014
D1,Apuiarés/CE,-3.9460303,-39.4313298,11,74.97274
1,Apuí/AM,-7.1940195,-59.8830192,245,1095.75562
D1,Apuí/AM,-7.1940195,-59.8830192,2,8.94494
1,Aquidabã/SE,-10.2837579,-37.0188687,622,2868.87136
D1,Aquidabã/SE,-10.2837579,-37.0188687,15,69.18500
1,Aquidauana/MS,-20.473969,-55.7821375,1944,4047.55460
D1,Aquidauana/MS,-20.473969,-55.7821375,60,124.92452
1,Aquiraz/CE,-3.9063117,-38.387504,1036,1280.03954
D1,Aquiraz/CE,-3.9063117,-38.387504,33,40.77346
1,Arabutã/SC,-27.1587028,-52.1438142,75,1757.67518
D1,Arabutã/SC,-27.1587028,-52.1438142,2,46.87134
1,Aracaju/SE,-10.9162061,-37.0774655,35530,5343.59641
D1,Aracaju/SE,-10.9162061,-37.0774655,745,112.04558
1,Aracati/CE,-4.558259,-37.767894,1854,2472.82427
D1,Aracati/CE,-4.558259,-37.767894,52,69.35645
1,Aracatu/BA,-14.4274236,-41.4604105,68,521.27252
D1,Aracatu/BA,-14.4274236,-41.4604105,1,7.66577
1,Araci/BA,-11.3356065,-38.9573261,1115,2040.33084
D1,Araci/BA,-11.3356065,-38.9573261,14,25.61850
1,Aracitaba/MG,-21.3425,-43.378611,1,48.56727
1,Aracoiaba/CE,-4.3702577,-38.8084313,784,2954.58828
D1,Aracoiaba/CE,-4.3702577,-38.8084313,14,52.76050
1,Aracruz/ES,-19.8245218,-40.2735025,4127,4002.87097
D1,Aracruz/ES,-19.8245218,-40.2735025,73,70.80436
1,Aragarças/GO,-15.8957166,-52.2514538,758,3738.96315
D1,Aragarças/GO,-15.8957166,-52.2514538,17,83.85537
1,Aragoiânia/GO,-16.9146388,-49.4499148,371,3534.67988
D1,Aragoiânia/GO,-16.9146388,-49.4499148,4,38.10976
1,Aragominas/TO,-7.1654101,-48.525488,202,3524.69028
D1,Aragominas/TO,-7.1654101,-48.525488,3,52.34689
1,Araguacema/TO,-8.8067391,-49.5560969,55,768.69322
D1,Araguacema/TO,-8.8067391,-49.5560969,1,13.97624
1,Araguaiana/MT,-15.729144,-51.834112,58,1865.55162
D1,Araguaiana/MT,-15.729144,-51.834112,2,64.32937
1,Araguainha/MT,-16.857016,-53.031778,3,317.12474
1,Araguanã/MA,-2.9508403,-45.6651986,535,3440.29323
D1,Araguanã/MA,-2.9508403,-45.6651986,2,12.86091
1,Araguanã/TO,-6.5799107,-48.6428482,169,2917.31400
D1,Araguanã/TO,-6.5799107,-48.6428482,8,138.09770
1,Araguapaz/GO,-15.0937927,-50.626417,174,2235.64178
D1,Araguapaz/GO,-15.0937927,-50.626417,6,77.09110
1,Araguari/MG,-18.6511256,-48.1933764,3540,3004.45576
D1,Araguari/MG,-18.6511256,-48.1933764,80,67.89731
1,Araguatins/TO,-5.6522925,-48.1158973,936,2587.77993
D1,Araguatins/TO,-5.6522925,-48.1158973,27,74.64750
1,Araguaçu/TO,-12.928934,-49.823134,451,5326.56195
D1,Araguaçu/TO,-12.928934,-49.823134,7,82.67391
1,Araguaína/TO,-7.193241,-48.2018597,15258,8320.38216
D1,Araguaína/TO,-7.193241,-48.2018597,211,115.06099
1,Araioses/MA,-2.890914,-41.904993,585,1250.77505
D1,Araioses/MA,-2.890914,-41.904993,10,21.38077
1,Aral Moreira/MS,-22.951141,-55.6268421,104,843.33441
D1,Aral Moreira/MS,-22.951141,-55.6268421,2,16.21797
1,Aramari/BA,-12.0907897,-38.4985065,121,1055.75430
D1,Aramari/BA,-12.0907897,-38.4985065,1,8.72524
1,Arambaré/RS,-30.9132252,-51.4994625,24,673.77878
D1,Arambaré/RS,-30.9132252,-51.4994625,1,28.07412
1,Arame/MA,-4.8858769,-46.0102484,937,2859.84617
D1,Arame/MA,-4.8858769,-46.0102484,10,30.52130
1,Aramina/SP,-20.0876144,-47.789201,113,1998.23165
D1,Aramina/SP,-20.0876144,-47.789201,5,88.41733
1,Arandu/SP,-23.1345103,-49.0545651,48,754.12412
D1,Arandu/SP,-23.1345103,-49.0545651,3,47.13276
1,Arantina/MG,-21.911667,-44.255833,19,681.73663
D1,Arantina/MG,-21.911667,-44.255833,1,35.88088
1,Arapeí/SP,-22.6738889,-44.4477778,6,243.90244
D1,Arapeí/SP,-22.6738889,-44.4477778,1,40.65041
1,Arapiraca/AL,-9.754866,-36.661471,11745,5039.75593
D1,Arapiraca/AL,-9.754866,-36.661471,152,65.22289
1,Arapoema/TO,-7.6575001,-49.0641484,105,1587.06167
D1,Arapoema/TO,-7.6575001,-49.0641484,3,45.34462
1,Araponga/MG,-20.666667,-42.520556,1,11.83012
1,Arapongas/PR,-23.415296,-51.42592,2831,2268.24774
D1,Arapongas/PR,-23.415296,-51.42592,98,78.51935
1,Araporã/MG,-18.4318188,-49.188313,692,9984.12927
D1,Araporã/MG,-18.4318188,-49.188313,8,115.42346
1,Arapoti/PR,-24.1457957,-49.8224605,237,837.45583
D1,Arapoti/PR,-24.1457957,-49.8224605,1,3.53357
1,Araputanga/MT,-15.4710868,-58.346796,567,3344.93540
D1,Araputanga/MT,-15.4710868,-58.346796,7,41.29550
1,Arapuá/MG,-19.034444,-46.155556,34,1199.29453
1,Arapuã/PR,-24.3079525,-51.7901941,46,1528.74709
D1,Arapuã/PR,-24.3079525,-51.7901941,1,33.23363
1,Araquari/SC,-26.3703324,-48.7210994,878,2221.43508
D1,Araquari/SC,-26.3703324,-48.7210994,15,37.95162
1,Arara/PB,-6.8271895,-35.7605703,233,1720.57303
D1,Arara/PB,-6.8271895,-35.7605703,6,44.30660
1,Araranguá/SC,-28.9348832,-49.4858389,2065,2998.53340
D1,Araranguá/SC,-28.9348832,-49.4858389,42,60.98712
1,Araraquara/SP,-21.7886713,-48.1773096,4668,1958.55483
D1,Araraquara/SP,-21.7886713,-48.1773096,49,20.55895
1,Araras/SP,-22.3569477,-47.3838889,3810,2811.68362
D1,Araras/SP,-22.3569477,-47.3838889,73,53.87215
1,Ararendá/CE,-4.7504395,-40.8303611,128,1167.98978
D1,Ararendá/CE,-4.7504395,-40.8303611,3,27.37476
1,Arari/MA,-3.4547602,-44.7772723,224,748.36296
D1,Arari/MA,-3.4547602,-44.7772723,9,30.06815
1,Araricá/RS,-29.6168543,-50.929121,92,1594.17779
D1,Araricá/RS,-29.6168543,-50.929121,5,86.64010
1,Araripe/CE,-7.212861,-40.1359222,215,992.88815
D1,Araripe/CE,-7.212861,-40.1359222,3,13.85425
1,Araripina/PE,-7.5768582,-40.5038509,2081,2452.15875
D1,Araripina/PE,-7.5768582,-40.5038509,38,44.77753
1,Araruama/RJ,-22.8733203,-42.3428897,1521,1132.59812
D1,Araruama/RJ,-22.8733203,-42.3428897,67,49.89091
1,Araruna/PB,-6.5321155,-35.7397595,259,1265.69907
D1,Araruna/PB,-6.5321155,-35.7397595,8,39.09495
1,Araruna/PR,-23.9320308,-52.4976047,195,1392.85714
D1,Araruna/PR,-23.9320308,-52.4976047,7,50.00000
1,Arataca/BA,-15.2617424,-39.4122943,224,2043.60916
D1,Arataca/BA,-15.2617424,-39.4122943,5,45.61628
1,Aratiba/RS,-27.3955734,-52.3024325,40,646.30797
D1,Aratiba/RS,-27.3955734,-52.3024325,2,32.31540
1,Aratuba/CE,-4.4195958,-39.0463737,249,2109.81190
D1,Aratuba/CE,-4.4195958,-39.0463737,2,16.94628
1,Aratuípe/BA,-13.077137,-39.0010786,150,1697.40862
D1,Aratuípe/BA,-13.077137,-39.0010786,5,56.58029
1,Araucária/PR,-25.5861107,-49.4051209,4028,2754.86616
D1,Araucária/PR,-25.5861107,-49.4051209,68,46.50717
1,Arauá/SE,-11.2644014,-37.6181058,313,3146.67739
D1,Arauá/SE,-11.2644014,-37.6181058,8,80.42626
1,Araxá/MG,-19.5928536,-46.940241,1770,1649.01199
D1,Araxá/MG,-19.5928536,-46.940241,27,25.15442
1,Araçagi/PB,-6.8519969,-35.3835602,499,2948.99829
D1,Araçagi/PB,-6.8519969,-35.3835602,6,35.45890
1,Araçariguama/SP,-23.438611,-47.061389,365,1596.67542
D1,Araçariguama/SP,-23.438611,-47.061389,8,34.99563
1,Araçatuba/SP,-21.207992,-50.4390225,6461,3261.00672
D1,Araçatuba/SP,-21.207992,-50.4390225,150,75.70825
1,Araçaí/MG,-19.200833,-44.2475,4,169.92353
1,Araçoiaba da Serra/SP,-23.5045367,-47.6168158,613,1762.70991
D1,Araçoiaba da Serra/SP,-23.5045367,-47.6168158,11,31.63101
1,Araçoiaba/PE,-7.7856903,-35.0898881,162,781.36304
D1,Araçoiaba/PE,-7.7856903,-35.0898881,18,86.81812
1,Araçu/GO,-16.3561579,-49.6815269,72,2065.40448
D1,Araçu/GO,-16.3561579,-49.6815269,3,86.05852
1,Araçuaí/MG,-16.8484451,-42.0661868,91,247.87535
1,Araújos/MG,-19.948055,-45.165556,67,712.69014
D1,Araújos/MG,-19.948055,-45.165556,1,10.63717
1,Arceburgo/MG,-21.364444,-46.939722,63,578.88450
D1,Arceburgo/MG,-21.364444,-46.939722,1,9.18864
1,Arco-Íris/SP,-21.7741308,-50.4668814,10,564.01579
1,Arcos/MG,-20.282223,-45.539444,377,933.63051
D1,Arcos/MG,-20.282223,-45.539444,6,14.85884
1,Arcoverde/PE,-8.415192,-37.057748,1610,2151.77354
D1,Arcoverde/PE,-8.415192,-37.057748,51,68.16177
1,Areado/MG,-21.3582771,-46.1476688,8,52.69745
1,Areal/RJ,-22.2314922,-43.1056264,226,1783.88192
D1,Areal/RJ,-22.2314922,-43.1056264,8,63.14626
1,Arealva/SP,-22.0301906,-48.9111936,116,1346.80135
D1,Arealva/SP,-22.0301906,-48.9111936,1,11.61036
1,Areia Branca/RN,-4.9506652,-37.1263312,819,2928.45139
D1,Areia Branca/RN,-4.9506652,-37.1263312,51,182.35778
1,Areia Branca/SE,-10.7591455,-37.3148072,729,3901.31649
D1,Areia Branca/SE,-10.7591455,-37.3148072,19,101.68040
1,Areia de Baraúnas/PB,-7.1233949,-36.9446216,13,614.36673
1,Areia/PB,-6.9680243,-35.6994783,509,2246.64548
D1,Areia/PB,-6.9680243,-35.6994783,5,22.06921
1,Areial/PB,-7.0501306,-35.9245244,80,1138.46592
D1,Areial/PB,-7.0501306,-35.9245244,2,28.46165
1,Areias/SP,-22.5800929,-44.6975127,54,1386.03696
1,Areiópolis/SP,-22.6758064,-48.6673653,111,994.80194
D1,Areiópolis/SP,-22.6758064,-48.6673653,3,26.88654
1,Arenápolis/MT,-14.4610369,-56.8432806,391,4114.92317
D1,Arenápolis/MT,-14.4610369,-56.8432806,6,63.14460
1,Arenópolis/GO,-16.3859286,-51.55937,30,1182.96530
1,Argirita/MG,-21.612761,-42.8371922,23,850.59172
D1,Argirita/MG,-21.612761,-42.8371922,2,73.96450
1,Aricanduva/MG,-17.8678,-42.5569,1,18.97893
1,Arinos/MG,-15.917223,-46.106111,100,559.84772
D1,Arinos/MG,-15.917223,-46.106111,2,11.19695
1,Aripuanã/MT,-10.175806,-59.4439663,678,2984.94321
D1,Aripuanã/MT,-10.175806,-59.4439663,15,66.03857
1,Ariquemes/RO,-9.9076522,-63.033069,5536,5054.64606
D1,Ariquemes/RO,-9.9076522,-63.033069,93,84.91367
1,Ariranha do Ivaí/PR,-24.3834527,-51.5876772,21,1016.45692
D1,Ariranha do Ivaí/PR,-24.3834527,-51.5876772,1,48.40271
1,Ariranha/SP,-21.18716,-48.790418,149,1526.48294
D1,Ariranha/SP,-21.18716,-48.790418,7,71.71396
1,Armazém/SC,-28.2624996,-49.0190126,279,3185.29513
D1,Armazém/SC,-28.2624996,-49.0190126,5,57.08414
1,Armação dos Búzios/RJ,-22.7597805,-41.8875267,488,1415.43638
D1,Armação dos Búzios/RJ,-22.7597805,-41.8875267,14,40.60678
1,Arneiroz/CE,-6.3235099,-40.1603859,59,752.16726
D1,Arneiroz/CE,-6.3235099,-40.1603859,4,50.99439
1,Aroazes/PI,-6.1108814,-41.7886137,83,1424.40364
D1,Aroazes/PI,-6.1108814,-41.7886137,4,68.64596
1,Aroeiras do Itaim/PI,-7.2797031,-41.5629681,75,2940.02352
D1,Aroeiras do Itaim/PI,-7.2797031,-41.5629681,1,39.20031
1,Aroeiras/PB,-7.5462904,-35.7080002,224,1171.79326
D1,Aroeiras/PB,-7.5462904,-35.7080002,1,5.23122
1,Arraial do Cabo/RJ,-22.9662839,-42.024427,196,640.66943
D1,Arraial do Cabo/RJ,-22.9662839,-42.024427,6,19.61233
1,Arraial/PI,-6.6541632,-42.5335332,24,508.47458
1,Arraias/TO,-12.9287788,-46.9437231,122,1158.15455
1,Arroio Grande/RS,-32.2384246,-53.0866661,106,581.20408
D1,Arroio Grande/RS,-32.2384246,-53.0866661,1,5.48306
1,Arroio Trinta/SC,-26.9301976,-51.334928,66,1859.67878
1,Arroio do Meio/RS,-29.4020392,-51.9444993,445,2122.38279
D1,Arroio do Meio/RS,-29.4020392,-51.9444993,1,4.76940
1,Arroio do Padre/RS,-31.4428773,-52.4228985,7,237.20773
1,Arroio do Sal/RS,-29.549852,-49.8874395,89,865.84298
D1,Arroio do Sal/RS,-29.549852,-49.8874395,4,38.91429
1,Arroio do Tigre/RS,-29.334158,-53.0888935,32,238.57452
1,Arroio dos Ratos/RS,-30.0894524,-51.7265541,160,1128.58856
D1,Arroio dos Ratos/RS,-30.0894524,-51.7265541,11,77.59046
1,Artur Nogueira/SP,-22.572737,-47.172679,999,1805.20419
D1,Artur Nogueira/SP,-22.572737,-47.172679,23,41.56126
1,Aruanã/GO,-14.9162439,-51.0715692,138,1364.98516
D1,Aruanã/GO,-14.9162439,-51.0715692,1,9.89120
1,Arujá/SP,-23.396266,-46.3175449,1949,2138.06948
D1,Arujá/SP,-23.396266,-46.3175449,82,89.95469
1,Arvoredo/SC,-27.0752908,-52.4571847,51,2282.90063
D1,Arvoredo/SC,-27.0752908,-52.4571847,1,44.76276
1,Arvorezinha/RS,-28.87369,-52.17808,128,1228.05334
D1,Arvorezinha/RS,-28.87369,-52.17808,5,47.97083
1,Arês/RN,-6.1969216,-35.1642968,217,1505.16751
D1,Arês/RN,-6.1969216,-35.1642968,9,62.42630
1,Ascurra/SC,-26.9569975,-49.3767752,151,1892.70494
D1,Ascurra/SC,-26.9569975,-49.3767752,2,25.06894
1,Aspásia/SP,-20.160028,-50.728046,43,2365.23652
1,Assaré/CE,-6.8746791,-39.8741385,342,1456.68285
D1,Assaré/CE,-6.8746791,-39.8741385,9,38.33376
1,Assaí/PR,-23.3736041,-50.8454929,279,1865.72155
D1,Assaí/PR,-23.3736041,-50.8454929,11,73.55891
1,Assis Brasil/AC,-10.9409203,-69.5672108,639,8481.55031
D1,Assis Brasil/AC,-10.9409203,-69.5672108,9,119.45846
1,Assis Chateaubriand/PR,-24.4054826,-53.5120468,497,1490.70186
D1,Assis Chateaubriand/PR,-24.4054826,-53.5120468,7,20.99580
1,Assis/SP,-22.6620892,-50.420623,1339,1274.18234
D1,Assis/SP,-22.6620892,-50.420623,24,22.83822
1,Assunção do Piauí/PI,-5.8610212,-41.0485091,131,1666.03078
D1,Assunção do Piauí/PI,-5.8610212,-41.0485091,2,25.43558
1,Assunção/PB,-7.073396,-36.7274003,46,1141.72251
1,Astolfo Dutra/MG,-21.3132636,-42.8624102,144,1009.11002
D1,Astolfo Dutra/MG,-21.3132636,-42.8624102,3,21.02313
1,Astorga/PR,-23.2350184,-51.6647074,439,1674.99714
D1,Astorga/PR,-23.2350184,-51.6647074,7,26.70838
1,Atalaia do Norte/AM,-4.3658547,-70.1908742,1074,5265.22208
D1,Atalaia do Norte/AM,-4.3658547,-70.1908742,4,19.60977
1,Atalaia/AL,-9.5029595,-36.0219316,599,1264.64689
D1,Atalaia/AL,-9.5029595,-36.0219316,19,40.11401
1,Atalaia/PR,-23.1513833,-52.0529697,89,2293.22340
D1,Atalaia/PR,-23.1513833,-52.0529697,3,77.29967
1,Atalanta/SC,-27.421916,-49.778863,40,1251.95618
1,Ataléia/MG,-18.04432,-41.1110524,142,1120.05048
D1,Ataléia/MG,-18.04432,-41.1110524,4,31.55072
1,Atibaia/SP,-23.1177393,-46.5547861,1952,1354.72767
D1,Atibaia/SP,-23.1177393,-46.5547861,60,41.64122
1,Atilio Vivacqua/ES,-20.9139369,-41.1947519,352,2907.88930
D1,Atilio Vivacqua/ES,-20.9139369,-41.1947519,6,49.56629
1,Augustinópolis/TO,-5.4662267,-47.8897519,666,3572.38642
D1,Augustinópolis/TO,-5.4662267,-47.8897519,8,42.91155
1,Augusto Corrêa/PA,-1.0229335,-46.6404029,1345,2894.27815
D1,Augusto Corrêa/PA,-1.0229335,-46.6404029,20,43.03759
1,Augusto Pestana/RS,-28.5148413,-53.9906433,16,242.35080
D1,Augusto Pestana/RS,-28.5148413,-53.9906433,1,15.14693
1,Augusto de Lima/MG,-18.1092963,-44.2651945,38,783.34364
1,Aurelino Leal/BA,-14.3167137,-39.3256107,409,3619.78936
D1,Aurelino Leal/BA,-14.3167137,-39.3256107,7,61.95239
1,Auriflama/SP,-20.6840418,-50.5554616,359,2353.63535
D1,Auriflama/SP,-20.6840418,-50.5554616,10,65.56087
1,Aurilândia/GO,-16.6772599,-50.4641231,59,1929.36560
1,Aurora do Pará/PA,-2.1323199,-47.558436,649,2042.61480
D1,Aurora do Pará/PA,-2.1323199,-47.558436,8,25.17861
1,Aurora do Tocantins/TO,-12.71045,-46.407604,44,1163.09807
1,Aurora/CE,-6.9426019,-38.9693765,431,1751.32060
D1,Aurora/CE,-6.9426019,-38.9693765,17,69.07761
1,Aurora/SC,-27.3166417,-49.6368502,80,1407.70720
1,Autazes/AM,-3.5833283,-59.1301518,1314,3261.35517
D1,Autazes/AM,-3.5833283,-59.1301518,37,91.83420
1,Avanhandava/SP,-21.4603331,-49.9465156,210,1515.26084
D1,Avanhandava/SP,-21.4603331,-49.9465156,4,28.86211
1,Avaré/SP,-23.1045215,-48.9259103,696,762.89021
D1,Avaré/SP,-23.1045215,-48.9259103,17,18.63381
1,Avaí/SP,-22.1564662,-49.3316395,85,1563.64974
D1,Avaí/SP,-22.1564662,-49.3316395,1,18.39588
1,Aveiro/PA,-3.6049239,-55.3310742,445,2712.75299
D1,Aveiro/PA,-3.6049239,-55.3310742,5,30.48037
1,Avelino Lopes/PI,-10.1346855,-43.9489525,38,335.51121
D1,Avelino Lopes/PI,-10.1346855,-43.9489525,4,35.31697
1,Avelinópolis/GO,-16.4672409,-49.7578661,106,4400.16604
D1,Avelinópolis/GO,-16.4672409,-49.7578661,1,41.51100
1,Axixá do Tocantins/TO,-5.612747,-47.77007,388,3964.44263
D1,Axixá do Tocantins/TO,-5.612747,-47.77007,3,30.65291
1,Axixá/MA,-2.8379465,-44.0561053,138,1132.72593
D1,Axixá/MA,-2.8379465,-44.0561053,3,24.62448
1,Açailândia/MA,-4.9514278,-47.4844564,3355,2965.85073
D1,Açailândia/MA,-4.9514278,-47.4844564,85,75.14078
1,Açu/RN,-5.5836157,-36.9139541,1550,2654.83694
D1,Açu/RN,-5.5836157,-36.9139541,56,95.91669
1,Açucena/MG,-19.073056,-42.546666,81,864.64560
D1,Açucena/MG,-19.073056,-42.546666,3,32.02391
1,Babaçulândia/TO,-7.2034355,-47.761613,314,2943.93400
D1,Babaçulândia/TO,-7.2034355,-47.761613,2,18.75117
1,Bacabal/MA,-4.2318132,-44.781167,3377,3222.63575
D1,Bacabal/MA,-4.2318132,-44.781167,55,52.48592
1,Bacabeira/MA,-2.9775747,-44.3155943,153,886.85370
D1,Bacabeira/MA,-2.9775747,-44.3155943,2,11.59286
1,Bacuri/MA,-1.728894,-45.1417148,416,2230.08470
D1,Bacuri/MA,-1.728894,-45.1417148,3,16.08234
1,Bacurituba/MA,-2.7082587,-44.7381309,68,1199.29453
1,Bady Bassitt/SP,-20.9178969,-49.4517911,801,4509.88120
D1,Bady Bassitt/SP,-20.9178969,-49.4517911,21,118.23659
1,Baependi/MG,-21.959162,-44.8899249,102,531.27767
D1,Baependi/MG,-21.959162,-44.8899249,1,5.20860
1,Bagre/PA,-1.8994498,-50.2103844,388,1238.62729
D1,Bagre/PA,-1.8994498,-50.2103844,10,31.92338
1,Bagé/RS,-31.3314264,-54.1062808,1082,891.74599
D1,Bagé/RS,-31.3314264,-54.1062808,15,12.36247
1,Baianópolis/BA,-12.3067564,-44.5383591,105,753.82296
D1,Baianópolis/BA,-12.3067564,-44.5383591,1,7.17927
1,Baixa Grande do Ribeiro/PI,-7.862861,-45.2113289,1273,10907.37726
D1,Baixa Grande do Ribeiro/PI,-7.862861,-45.2113289,9,77.11421
1,Baixa Grande/BA,-11.9630941,-40.1657537,33,161.37708
D1,Baixa Grande/BA,-11.9630941,-40.1657537,2,9.78043
1,Baixio/CE,-6.7303544,-38.7170095,98,1554.81517
D1,Baixio/CE,-6.7303544,-38.7170095,2,31.73092
1,Baixo Guandu/ES,-19.5138322,-41.0182089,742,2383.39972
D1,Baixo Guandu/ES,-19.5138322,-41.0182089,19,61.03045
1,Baião/PA,-2.7903479,-49.6702845,388,800.67686
D1,Baião/PA,-2.7903479,-49.6702845,13,26.82680
1,Balbinos/SP,-21.9006253,-49.3583966,97,1634.64779
D1,Balbinos/SP,-21.9006253,-49.3583966,3,50.55612
1,Baldim/MG,-19.2913568,-43.9558262,54,692.04152
D1,Baldim/MG,-19.2913568,-43.9558262,5,64.07792
1,Baliza/GO,-16.1978119,-52.542789,26,492.42424
1,Balneário Arroio do Silva/SC,-28.9815269,-49.4189932,440,3276.24721
D1,Balneário Arroio do Silva/SC,-28.9815269,-49.4189932,7,52.12211
1,Balneário Barra do Sul/SC,-26.459842,-48.6061471,494,4476.66516
D1,Balneário Barra do Sul/SC,-26.459842,-48.6061471,7,63.43453
1,Balneário Camboriú/SC,-26.9924395,-48.6339782,7273,4988.47705
D1,Balneário Camboriú/SC,-26.9924395,-48.6339782,91,62.41598
1,Balneário Gaivota/SC,-29.1553098,-49.5808712,177,1571.93606
D1,Balneário Gaivota/SC,-29.1553098,-49.5808712,7,62.16696
1,Balneário Pinhal/RS,-30.2482978,-50.234585,272,1893.75479
D1,Balneário Pinhal/RS,-30.2482978,-50.234585,4,27.84934
1,Balneário Piçarras/SC,-26.7638889,-48.6716667,860,3617.70150
D1,Balneário Piçarras/SC,-26.7638889,-48.6716667,10,42.06630
1,Balneário Rincão/SC,-28.8235718,-49.2241642,395,3051.13549
D1,Balneário Rincão/SC,-28.8235718,-49.2241642,10,77.24394
1,Balsa Nova/PR,-25.5842234,-49.6312741,226,1726.24504
D1,Balsa Nova/PR,-25.5842234,-49.6312741,5,38.19126
1,Balsas/MA,-7.53214,-46.037163,6265,6530.87179
D1,Balsas/MA,-7.53214,-46.037163,58,60.46138
1,Bambuí/MG,-20.0131996,-45.9777034,60,251.06703
1,Banabuiú/CE,-5.3046404,-38.919766,564,3089.39527
D1,Banabuiú/CE,-5.3046404,-38.919766,4,21.91060
1,Bananal/SP,-22.6828195,-44.3221095,142,1291.73110
D1,Bananal/SP,-22.6828195,-44.3221095,1,9.09670
1,Bananeiras/PB,-6.7537682,-35.6338343,431,2026.42343
D1,Bananeiras/PB,-6.7537682,-35.6338343,2,9.40336
1,Bandeira do Sul/MG,-21.728056,-46.385555,31,536.51783
1,Bandeira/MG,-15.884444,-40.559167,198,4154.42719
D1,Bandeira/MG,-15.884444,-40.559167,1,20.98196
1,Bandeirante/SC,-26.7677402,-53.6397596,10,377.64350
1,Bandeirantes do Tocantins/TO,-7.7635698,-48.579148,56,1559.02004
D1,Bandeirantes do Tocantins/TO,-7.7635698,-48.579148,1,27.83964
1,Bandeirantes/MS,-19.9179623,-54.3646768,71,977.15387
1,Bandeirantes/PR,-23.107788,-50.370407,938,3005.35068
D1,Bandeirantes/PR,-23.107788,-50.370407,26,83.30396
1,Bannach/PA,-7.3508505,-50.4064531,112,3433.47639
D1,Bannach/PA,-7.3508505,-50.4064531,2,61.31208
1,Banzaê/BA,-10.5827616,-38.6122305,297,2243.20242
1,Baraúna/PB,-6.643394,-36.2531932,143,2880.74134
1,Baraúna/RN,-5.0775002,-37.61752,507,1763.66230
D1,Baraúna/RN,-5.0775002,-37.61752,13,45.22211
1,Barbacena/MG,-21.2254524,-43.7735087,917,663.51191
D1,Barbacena/MG,-21.2254524,-43.7735087,15,10.85352
1,Barbalha/CE,-7.3121067,-39.3036427,2104,3436.33632
D1,Barbalha/CE,-7.3121067,-39.3036427,54,88.19494
1,Barbosa Ferraz/PR,-24.0287182,-52.00811,157,1374.05916
D1,Barbosa Ferraz/PR,-24.0287182,-52.00811,4,35.00788
1,Barbosa/SP,-21.265661,-49.951816,112,1499.73219
D1,Barbosa/SP,-21.265661,-49.951816,1,13.39047
1,Barcarena/PA,-1.5107945,-48.6190679,4433,3489.80925
D1,Barcarena/PA,-1.5107945,-48.6190679,112,88.17023
1,Barcelona/RN,-5.9514918,-35.9260284,33,826.23936
D1,Barcelona/RN,-5.9514918,-35.9260284,2,50.07511
1,Barcelos/AM,-0.9729214,-62.925635,2695,9751.06737
D1,Barcelos/AM,-0.9729214,-62.925635,25,90.45517
1,Bariri/SP,-22.0746355,-48.7394852,830,2334.21452
D1,Bariri/SP,-22.0746355,-48.7394852,16,44.99691
1,Barra Bonita/SC,-26.6526364,-53.4419581,3,181.70806
1,Barra Bonita/SP,-22.490859,-48.558349,842,2330.73133
D1,Barra Bonita/SP,-22.490859,-48.558349,21,58.12988
1,Barra D'Alcântara/PI,-6.5209258,-42.1071089,12,303.64372
D1,Barra D'Alcântara/PI,-6.5209258,-42.1071089,1,25.30364
1,Barra Funda/RS,-27.9230048,-53.0401045,111,4351.23481
D1,Barra Funda/RS,-27.9230048,-53.0401045,3,117.60094
1,Barra Longa/MG,-20.2833541,-43.0423516,81,1615.15454
1,Barra Mansa/RJ,-22.5394843,-44.1735129,3144,1700.99495
D1,Barra Mansa/RJ,-22.5394843,-44.1735129,161,87.10566
1,Barra Velha/SC,-26.6338203,-48.6835001,836,2799.73208
D1,Barra Velha/SC,-26.6338203,-48.6835001,17,56.93235
1,Barra da Estiva/BA,-13.6269662,-41.3278287,17,83.36603
1,Barra de Guabiraba/PE,-8.4173522,-35.6626669,189,1302.54997
D1,Barra de Guabiraba/PE,-8.4173522,-35.6626669,11,75.80979
1,Barra de Santa Rosa/PB,-6.7218007,-36.0564638,118,761.43770
D1,Barra de Santa Rosa/PB,-6.7218007,-36.0564638,1,6.45286
1,Barra de Santana/PB,-7.5230865,-35.9988518,101,1209.72572
D1,Barra de Santana/PB,-7.5230865,-35.9988518,3,35.93245
1,Barra de Santo Antônio/AL,-9.4038098,-35.5117693,131,815.28504
D1,Barra de Santo Antônio/AL,-9.4038098,-35.5117693,11,68.45905
1,Barra de São Francisco/ES,-18.7570902,-40.8916119,821,1825.29625
D1,Barra de São Francisco/ES,-18.7570902,-40.8916119,29,64.47453
1,Barra de São Miguel/AL,-9.8261357,-35.8837777,147,1754.59537
D1,Barra de São Miguel/AL,-9.8261357,-35.8837777,5,59.68011
1,Barra de São Miguel/PB,-7.7528088,-36.3170996,72,1187.13932
D1,Barra de São Miguel/PB,-7.7528088,-36.3170996,1,16.48805
1,Barra do Bugres/MT,-15.0683712,-57.1853688,999,2829.46724
D1,Barra do Bugres/MT,-15.0683712,-57.1853688,21,59.47829
1,Barra do Chapéu/SP,-24.472203,-49.023784,48,833.33333
1,Barra do Choça/BA,-14.8638173,-40.5761637,429,1374.60348
D1,Barra do Choça/BA,-14.8638173,-40.5761637,6,19.22522
1,Barra do Corda/MA,-5.496823,-45.248496,3887,4392.48746
D1,Barra do Corda/MA,-5.496823,-45.248496,36,40.68164
1,Barra do Garças/MT,-15.8916033,-52.2615413,2426,3968.26695
D1,Barra do Garças/MT,-15.8916033,-52.2615413,97,158.66525
1,Barra do Guarita/RS,-27.1888016,-53.7147086,60,1842.18606
1,Barra do Jacaré/PR,-23.1151788,-50.1813945,15,539.37433
1,Barra do Mendes/BA,-11.8053298,-42.057037,18,130.12362
1,Barra do Ouro/TO,-7.7113784,-47.6743925,63,1360.10363
D1,Barra do Ouro/TO,-7.7113784,-47.6743925,5,107.94473
1,Barra do Piraí/RJ,-22.4703403,-43.8263256,1147,1138.30336
D1,Barra do Piraí/RJ,-22.4703403,-43.8263256,58,57.56024
1,Barra do Quaraí/RS,-30.208947,-57.5505128,76,1797.96546
D1,Barra do Quaraí/RS,-30.208947,-57.5505128,1,23.65744
1,Barra do Ribeiro/RS,-30.2930206,-51.301437,135,995.86899
D1,Barra do Ribeiro/RS,-30.2930206,-51.301437,13,95.89850
1,Barra do Rio Azul/RS,-27.4101581,-52.4117471,16,966.76737
1,Barra do Rocha/BA,-14.2090974,-39.6004395,111,1977.90449
1,Barra do Turvo/SP,-24.756421,-48.5056942,120,1572.32704
D1,Barra do Turvo/SP,-24.756421,-48.5056942,4,52.41090
1,Barra dos Coqueiros/SE,-10.9075694,-37.0386249,1207,3902.36017
D1,Barra dos Coqueiros/SE,-10.9075694,-37.0386249,23,74.36146
1,Barra/BA,-11.0892702,-43.1420453,268,497.12484
D1,Barra/BA,-11.0892702,-43.1420453,6,11.12966
1,Barracão/PR,-26.252395,-53.6349576,88,853.37471
D1,Barracão/PR,-26.252395,-53.6349576,2,19.39488
1,Barracão/RS,-27.6728964,-51.4582928,81,1541.09589
D1,Barracão/RS,-27.6728964,-51.4582928,3,57.07763
1,Barras/PI,-4.2446153,-42.2920241,2636,5586.52114
D1,Barras/PI,-4.2446153,-42.2920241,54,114.44315
1,Barreira/CE,-4.2883361,-38.641094,335,1484.07389
D1,Barreira/CE,-4.2883361,-38.641094,19,84.17136
1,Barreiras do Piauí/PI,-9.9224524,-45.4763776,27,805.48926
1,Barreiras/BA,-12.1440031,-44.9967406,4911,3128.52365
D1,Barreiras/BA,-12.1440031,-44.9967406,84,53.51171
1,Barreirinha/AM,-2.798863,-57.067897,1050,3232.46006
D1,Barreirinha/AM,-2.798863,-57.067897,14,43.09947
1,Barreirinhas/MA,-2.7541271,-42.8259693,1038,1641.96340
D1,Barreirinhas/MA,-2.7541271,-42.8259693,23,36.38262
1,Barreiros/PE,-8.8159644,-35.1831905,333,778.69236
D1,Barreiros/PE,-8.8159644,-35.1831905,41,95.87504
1,Barretos/SP,-20.5531437,-48.5697509,4535,3692.00459
D1,Barretos/SP,-20.5531437,-48.5697509,128,104.20652
1,Barrinha/SP,-21.1898849,-48.1550642,724,2182.03737
D1,Barrinha/SP,-21.1898849,-48.1550642,29,87.40205
1,Barro Alto/BA,-11.7618025,-41.9094904,82,544.70573
D1,Barro Alto/BA,-11.7618025,-41.9094904,1,6.64275
1,Barro Alto/GO,-14.9696025,-48.9190985,402,3523.84292
D1,Barro Alto/GO,-14.9696025,-48.9190985,3,26.29734
1,Barro Duro/PI,-5.8180139,-42.5106589,432,6147.71595
D1,Barro Duro/PI,-5.8180139,-42.5106589,7,99.61577
1,Barro Preto/BA,-14.8068289,-39.4727588,244,4478.70778
D1,Barro Preto/BA,-14.8068289,-39.4727588,6,110.13216
1,Barro/CE,-7.1713587,-38.7742136,231,1015.02768
D1,Barro/CE,-7.1713587,-38.7742136,9,39.54653
1,Barrocas/BA,-11.5165,-39.099282894736845,135,838.24899
1,Barrolândia/TO,-9.837246,-48.7264346,195,3450.71669
D1,Barrolândia/TO,-9.837246,-48.7264346,4,70.78393
1,Barroquinha/CE,-3.0200371,-41.1339229,786,5224.67429
D1,Barroquinha/CE,-3.0200371,-41.1339229,18,119.64903
1,Barros Cassal/RS,-29.094938,-52.5832366,32,286.17421
D1,Barros Cassal/RS,-29.094938,-52.5832366,1,8.94294
1,Barroso/MG,-21.187222,-43.976111,177,847.01153
D1,Barroso/MG,-21.187222,-43.976111,2,9.57075
1,Barueri/SP,-23.5112184,-46.8764612,6708,2421.81802
D1,Barueri/SP,-23.5112184,-46.8764612,374,135.02682
1,Barão de Antonina/SP,-23.6295651,-49.5632104,20,571.75529
1,Barão de Cocais/MG,-19.9452437,-43.4870298,551,1676.50459
D1,Barão de Cocais/MG,-19.9452437,-43.4870298,4,12.17063
1,Barão de Cotegipe/RS,-27.6214694,-52.3765316,120,1812.68882
D1,Barão de Cotegipe/RS,-27.6214694,-52.3765316,3,45.31722
1,Barão de Grajaú/MA,-6.7542591,-43.0263477,18,95.11731
D1,Barão de Grajaú/MA,-6.7542591,-43.0263477,1,5.28430
1,Barão de Melgaço/MT,-16.195776,-55.9668049,116,1420.87212
D1,Barão de Melgaço/MT,-16.195776,-55.9668049,5,61.24449
1,Barão de Monte Alto/MG,-21.244722,-42.2375,56,1045.94696
D1,Barão de Monte Alto/MG,-21.244722,-42.2375,2,37.35525
1,Barão do Triunfo/RS,-30.3909877,-51.7375349,104,1383.16265
D1,Barão do Triunfo/RS,-30.3909877,-51.7375349,1,13.29964
1,Barão/RS,-29.372474,-51.494908,76,1225.41116
D1,Barão/RS,-29.372474,-51.494908,2,32.24766
1,Bastos/SP,-21.9222474,-50.7317727,78,372.26173
D1,Bastos/SP,-21.9222474,-50.7317727,2,9.54517
1,Bataguassu/MS,-21.715899,-52.422058,822,3524.11576
D1,Bataguassu/MS,-21.715899,-52.422058,7,30.01072
1,Batalha/AL,-9.6733809,-37.1265481,592,3228.26917
D1,Batalha/AL,-9.6733809,-37.1265481,8,43.62526
1,Batalha/PI,-4.022391,-42.0780926,421,1564.76491
D1,Batalha/PI,-4.022391,-42.0780926,9,33.45103
1,Batatais/SP,-20.892867,-47.592149,659,1046.36393
D1,Batatais/SP,-20.892867,-47.592149,20,31.75611
1,Batayporã/MS,-22.2976466,-53.2685608,187,1647.72227
D1,Batayporã/MS,-22.2976466,-53.2685608,4,35.24540
1,Baturité/CE,-4.3290203,-38.8821055,588,1636.01458
D1,Baturité/CE,-4.3290203,-38.8821055,31,86.25247
1,Bauru/SP,-22.3218102,-49.0705863,11193,2950.98564
D1,Bauru/SP,-22.3218102,-49.0705863,208,54.83829
1,Bayeux/PB,-7.1301631,-34.936532,1923,1978.33400
D1,Bayeux/PB,-7.1301631,-34.936532,104,106.99258
1,Baía Formosa/RN,-6.3691885,-35.0063741,89,954.73074
D1,Baía Formosa/RN,-6.3691885,-35.0063741,5,53.63656
1,Baía da Traição/PB,-6.691258,-34.9371244,695,7640.72120
D1,Baía da Traição/PB,-6.691258,-34.9371244,7,76.95690
1,Bebedouro/SP,-20.949077,-48.479083,1207,1556.31487
D1,Bebedouro/SP,-20.949077,-48.479083,31,39.97163
1,Beberibe/CE,-4.1810469,-38.1298101,874,1620.04856
D1,Beberibe/CE,-4.1810469,-38.1298101,30,55.60807
1,Bela Cruz/CE,-3.0529129,-40.167582,1231,3761.99499
D1,Bela Cruz/CE,-3.0529129,-40.167582,23,70.28910
1,Bela Vista da Caroba/PR,-25.8792818,-53.6672545,25,723.17038
1,Bela Vista de Goiás/GO,-16.9692949,-48.9513071,850,2787.61642
D1,Bela Vista de Goiás/GO,-16.9692949,-48.9513071,14,45.91368
1,Bela Vista de Minas/MG,-19.8289721,-43.0973688,56,545.70259
D1,Bela Vista de Minas/MG,-19.8289721,-43.0973688,1,9.74469
1,Bela Vista do Maranhão/MA,-3.7416367,-45.2514192,128,1134.85238
D1,Bela Vista do Maranhão/MA,-3.7416367,-45.2514192,5,44.33017
1,Bela Vista do Paraíso/PR,-22.9948493,-51.1907996,179,1162.41314
D1,Bela Vista do Paraíso/PR,-22.9948493,-51.1907996,4,25.97571
1,Bela Vista do Piauí/PI,-7.9716353,-41.8715061,43,1066.99752
D1,Bela Vista do Piauí/PI,-7.9716353,-41.8715061,1,24.81390
1,Bela Vista do Toldo/SC,-26.274625,-50.466354,6,94.30997
1,Bela Vista/MS,-22.107327,-56.5317344,54,218.31413
D1,Bela Vista/MS,-22.107327,-56.5317344,4,16.17142
1,Belford Roxo/RJ,-22.7667284,-43.4033603,9948,1938.73534
D1,Belford Roxo/RJ,-22.7667284,-43.4033603,298,58.07631
1,Belmiro Braga/MG,-21.9486291,-43.413564,17,496.35036
D1,Belmiro Braga/MG,-21.9486291,-43.413564,2,58.39416
1,Belmonte/BA,-15.8630837,-38.8792845,464,1979.77557
D1,Belmonte/BA,-15.8630837,-38.8792845,3,12.80027
1,Belmonte/SC,-26.8448262,-53.578916,6,221.48394
1,Belo Campo/BA,-15.0338286,-41.2585109,62,362.38237
D1,Belo Campo/BA,-15.0338286,-41.2585109,1,5.84488
1,Belo Horizonte/MG,-19.9227318,-43.9450948,43153,1711.35851
D1,Belo Horizonte/MG,-19.9227318,-43.9450948,1287,51.03975
1,Belo Jardim/PE,-8.3338293,-36.4176419,1197,1560.89037
D1,Belo Jardim/PE,-8.3338293,-36.4176419,39,50.85608
1,Belo Monte/AL,-9.8269944,-37.2787165,167,2488.82265
D1,Belo Monte/AL,-9.8269944,-37.2787165,3,44.70939
1,Belo Oriente/MG,-19.2232523,-42.4807033,636,2356.07913
D1,Belo Oriente/MG,-19.2232523,-42.4807033,11,40.74980
1,Belo Vale/MG,-20.407778,-44.024167,85,1101.17891
D1,Belo Vale/MG,-20.407778,-44.024167,4,51.82018
1,Belterra/PA,-2.636091,-54.937392,522,2926.17299
D1,Belterra/PA,-2.636091,-54.937392,14,78.47974
1,Belágua/MA,-3.1604031,-43.5085052,270,3586.60999
D1,Belágua/MA,-3.1604031,-43.5085052,1,13.28374
1,Belém de Maria/PE,-8.6242497,-35.8388934,95,783.69906
D1,Belém de Maria/PE,-8.6242497,-35.8388934,3,24.74839
1,Belém do Brejo do Cruz/PB,-6.1880727,-37.5332267,140,1905.02109
D1,Belém do Brejo do Cruz/PB,-6.1880727,-37.5332267,2,27.21459
1,Belém do Piauí/PI,-7.3767305,-40.9712156,99,2759.96655
D1,Belém do Piauí/PI,-7.3767305,-40.9712156,3,83.63535
1,Belém do São Francisco/PE,-8.7517707,-38.9625715,129,622.28654
1,Belém/AL,-9.5715351,-36.492841,58,1353.87488
D1,Belém/AL,-9.5715351,-36.492841,1,23.34267
1,Belém/PA,-1.45056,-48.4682453,38384,2559.54592
D1,Belém/PA,-1.45056,-48.4682453,2210,147.36860
1,Belém/PB,-6.6967586,-35.5369626,1105,6241.17481
D1,Belém/PB,-6.6967586,-35.5369626,16,90.36995
1,Beneditinos/PI,-5.4565671,-42.3605061,275,2625.79968
D1,Beneditinos/PI,-5.4565671,-42.3605061,8,76.38690
1,Benedito Leite/MA,-7.2173453,-44.5523331,192,3405.46293
D1,Benedito Leite/MA,-7.2173453,-44.5523331,1,17.73679
1,Benedito Novo/SC,-26.7840657,-49.3629511,150,1273.88535
D1,Benedito Novo/SC,-26.7840657,-49.3629511,2,16.98514
1,Benevides/PA,-1.3555577,-48.252235,1767,2770.98231
D1,Benevides/PA,-1.3555577,-48.252235,48,75.27286
1,Benjamin Constant do Sul/RS,-27.5105555,-52.6007689,104,5311.54239
1,Benjamin Constant/AM,-4.3782748,-70.0290603,1608,3659.95220
D1,Benjamin Constant/AM,-4.3782748,-70.0290603,40,91.04359
1,Bento Fernandes/RN,-5.6926846,-35.8207423,27,488.68778
D1,Bento Fernandes/RN,-5.6926846,-35.8207423,2,36.19910
1,Bento Gonçalves/RS,-29.1654014,-51.5197627,3815,3132.10676
D1,Bento Gonçalves/RS,-29.1654014,-51.5197627,115,94.41475
1,Bento de Abreu/SP,-21.2707225,-50.8120444,39,1297.83694
1,Bequimão/MA,-2.4495376,-44.7884889,234,1098.64313
D1,Bequimão/MA,-2.4495376,-44.7884889,11,51.64562
1,Berilo/MG,-16.9515764,-42.4643732,6,50.53908
1,Berizal/MG,-15.6118785,-41.7417382,8,167.92611
1,Bernardino Batista/PB,-6.4532173,-38.5495418,74,2092.76018
1,Bernardino de Campos/SP,-23.0140216,-49.4760724,106,949.99104
D1,Bernardino de Campos/SP,-23.0140216,-49.4760724,3,26.88654
1,Bernardo Sayão/TO,-7.8794244,-48.8968905,53,1191.54676
D1,Bernardo Sayão/TO,-7.8794244,-48.8968905,3,67.44604
1,Bernardo do Mearim/MA,-4.6315929,-44.7617508,121,1992.42549
D1,Bernardo do Mearim/MA,-4.6315929,-44.7617508,3,49.39898
1,Bertioga/SP,-23.848568,-46.139586,1841,2844.42934
D1,Bertioga/SP,-23.848568,-46.139586,43,66.43697
1,Bertolínia/PI,-7.6372159,-43.9540611,360,6537.13456
D1,Bertolínia/PI,-7.6372159,-43.9540611,4,72.63483
1,Bertópolis/MG,-17.063333,-40.573889,33,716.30128
1,Beruri/AM,-3.9007135,-61.3717319,867,4314.93555
D1,Beruri/AM,-3.9007135,-61.3717319,12,59.72229
1,Betim/MG,-19.968056,-44.198333,6890,1549.06651
D1,Betim/MG,-19.968056,-44.198333,204,45.86496
1,Betânia do Piauí/PI,-8.1460635,-40.7961387,31,499.19485
D1,Betânia do Piauí/PI,-8.1460635,-40.7961387,1,16.10306
1,Betânia/PE,-8.2742779,-38.0351767,92,720.72072
D1,Betânia/PE,-8.2742779,-38.0351767,2,15.66784
1,Bezerros/PE,-8.2372132,-35.7558262,1141,1874.17871
D1,Bezerros/PE,-8.2372132,-35.7558262,62,101.83968
1,Bias Fortes/MG,-21.605833,-43.756944,15,450.58576
D1,Bias Fortes/MG,-21.605833,-43.756944,1,30.03905
1,Bicas/MG,-21.7213723,-43.0604327,67,460.35454
1,Biguaçu/SC,-27.4961277,-48.6542432,2114,3042.33946
D1,Biguaçu/SC,-27.4961277,-48.6542432,34,48.93072
1,Bilac/SP,-21.403962,-50.47464,90,1108.78403
D1,Bilac/SP,-21.403962,-50.47464,2,24.63965
1,Biquinhas/MG,-18.783611,-45.502222,28,1120.89672
1,Birigui/SP,-21.2908491,-50.34144,2242,1795.28038
D1,Birigui/SP,-21.2908491,-50.34144,70,56.05247
1,Biritinga/BA,-11.6227908,-38.8066738,94,588.08809
D1,Biritinga/BA,-11.6227908,-38.8066738,1,6.25626
1,Bituruna/PR,-26.161281,-51.5533319,47,286.58537
D1,Bituruna/PR,-26.161281,-51.5533319,1,6.09756
1,Blumenau/SC,-26.9195567,-49.0658025,12020,3321.77253
D1,Blumenau/SC,-26.9195567,-49.0658025,153,42.28213
1,Boa Esperança do Iguaçu/PR,-25.6362851,-53.2139114,37,1497.97571
1,Boa Esperança do Sul/SP,-21.9930206,-48.3917372,180,1198.56173
D1,Boa Esperança do Sul/SP,-21.9930206,-48.3917372,6,39.95206
1,Boa Esperança/ES,-18.5395472,-40.2904088,365,2418.49987
D1,Boa Esperança/ES,-18.5395472,-40.2904088,16,106.01643
1,Boa Esperança/MG,-21.0901253,-45.5660195,283,703.64753
D1,Boa Esperança/MG,-21.0901253,-45.5660195,13,32.32303
1,Boa Esperança/PR,-24.2411024,-52.7860277,36,889.54781
1,Boa Hora/PI,-4.4094627,-42.1255341,104,1526.04549
1,Boa Nova/BA,-14.365907,-40.2063056,191,1549.19296
D1,Boa Nova/BA,-14.365907,-40.2063056,3,24.33287
1,Boa Ventura de São Roque/PR,-24.88177,-51.5441292,3,47.13276
1,Boa Ventura/PB,-7.4202462,-38.2156782,110,2072.73412
D1,Boa Ventura/PB,-7.4202462,-38.2156782,2,37.68607
1,Boa Viagem/CE,-5.1261877,-39.7300055,1157,2119.94063
D1,Boa Viagem/CE,-5.1261877,-39.7300055,29,53.13594
1,Boa Vista da Aparecida/PR,-25.4357216,-53.4067721,133,1763.92573
D1,Boa Vista da Aparecida/PR,-25.4357216,-53.4067721,3,39.78780
1,Boa Vista das Missões/RS,-27.6677983,-53.3127622,4,191.20459
1,Boa Vista do Buricá/RS,-27.6687782,-54.1111913,85,1266.38856
1,Boa Vista do Cadeado/RS,-28.5783827,-53.8123759,11,445.70502
1,Boa Vista do Gurupi/MA,-1.7981168,-46.3071882,14,167.02458
D1,Boa Vista do Gurupi/MA,-1.7981168,-46.3071882,3,35.79098
1,Boa Vista do Incra/RS,-28.8195551,-53.3866624,18,688.07339
1,Boa Vista do Ramos/AM,-2.9716927,-57.5869819,373,1900.54010
D1,Boa Vista do Ramos/AM,-2.9716927,-57.5869819,2,10.19056
1,Boa Vista do Sul/RS,-29.3510488,-51.6779679,64,2303.81569
D1,Boa Vista do Sul/RS,-29.3510488,-51.6779679,1,35.99712
1,Boa Vista do Tupim/BA,-12.6605988,-40.6083594,99,534.23992
D1,Boa Vista do Tupim/BA,-12.6605988,-40.6083594,1,5.39636
1,Boa Vista/PB,-7.2620711,-36.2415161,142,1989.91031
D1,Boa Vista/PB,-7.2620711,-36.2415161,1,14.01345
1,Boa Vista/RR,2.8208478,-60.6719582,38348,9138.04772
D1,Boa Vista/RR,2.8208478,-60.6719582,486,115.81024
1,Boca da Mata/AL,-9.6452054,-36.2116658,1246,4554.75947
D1,Boca da Mata/AL,-9.6452054,-36.2116658,24,87.73212
1,Boca do Acre/AM,-8.7553487,-67.3930873,1332,3845.82070
D1,Boca do Acre/AM,-8.7553487,-67.3930873,13,37.53429
1,Bocaina de Minas/MG,-22.167778,-44.394722,15,294.75339
1,Bocaina do Sul/SC,-27.745494,-49.942279,28,802.75229
D1,Bocaina do Sul/SC,-27.745494,-49.942279,2,57.33945
1,Bocaina/PI,-6.9445939,-41.3224599,132,2930.07769
D1,Bocaina/PI,-6.9445939,-41.3224599,1,22.19756
1,Bocaina/SP,-22.1421831,-48.522276,136,1092.19403
D1,Bocaina/SP,-22.1421831,-48.522276,3,24.09252
1,Bocaiúva do Sul/PR,-25.206591,-49.114131,215,1637.59616
D1,Bocaiúva do Sul/PR,-25.206591,-49.114131,3,22.85018
1,Bocaiúva/MG,-17.1160208,-43.8122678,348,692.45463
D1,Bocaiúva/MG,-17.1160208,-43.8122678,4,7.95925
1,Bodocó/PE,-7.777592,-39.933797,266,693.10542
D1,Bodocó/PE,-7.777592,-39.933797,8,20.84528
1,Bodoquena/MS,-20.5508775,-56.6769653,34,433.78413
D1,Bodoquena/MS,-20.5508775,-56.6769653,1,12.75836
1,Bodó/RN,-5.9866104,-36.4134824,9,409.64952
1,Bofete/SP,-23.1019554,-48.2610535,150,1258.28370
D1,Bofete/SP,-23.1019554,-48.2610535,3,25.16567
1,Boituva/SP,-23.2838893,-47.6738231,1046,1682.48351
D1,Boituva/SP,-23.2838893,-47.6738231,18,28.95287
1,Bom Conselho/PE,-9.169191,-36.685683,722,1480.50936
D1,Bom Conselho/PE,-9.169191,-36.685683,24,49.21361
1,Bom Despacho/MG,-19.7375242,-45.2517288,617,1209.14008
D1,Bom Despacho/MG,-19.7375242,-45.2517288,15,29.39563
1,Bom Jardim da Serra/SC,-28.3380324,-49.625588,113,2367.97988
D1,Bom Jardim da Serra/SC,-28.3380324,-49.625588,1,20.95557
1,Bom Jardim de Goiás/GO,-16.2062659,-52.172793,163,1837.86222
D1,Bom Jardim de Goiás/GO,-16.2062659,-52.172793,3,33.82568
1,Bom Jardim de Minas/MG,-21.9476466,-44.1906033,12,185.78727
1,Bom Jardim/MA,-3.54129,-45.606004,929,2221.31892
D1,Bom Jardim/MA,-3.54129,-45.606004,27,64.55932
1,Bom Jardim/PE,-7.7961572,-35.5871696,706,1765.75044
D1,Bom Jardim/PE,-7.7961572,-35.5871696,31,77.53295
1,Bom Jardim/RJ,-22.1515328,-42.4186683,189,684.38586
D1,Bom Jardim/RJ,-22.1515328,-42.4186683,4,14.48436
1,Bom Jesus da Lapa/BA,-13.250571,-43.410754,501,719.18693
D1,Bom Jesus da Lapa/BA,-13.250571,-43.410754,3,4.30651
1,Bom Jesus da Penha/MG,-21.0165299,-46.5226644,93,2191.32893
D1,Bom Jesus da Penha/MG,-21.0165299,-46.5226644,1,23.56268
1,Bom Jesus da Serra/BA,-14.3724084,-40.5047119,104,1058.73969
1,Bom Jesus das Selvas/MA,-4.4878075,-46.8526639,1683,4868.80551
D1,Bom Jesus das Selvas/MA,-4.4878075,-46.8526639,12,34.71519
1,Bom Jesus de Goiás/GO,-18.2174587,-49.739721,933,3637.71054
D1,Bom Jesus de Goiás/GO,-18.2174587,-49.739721,23,89.67561
1,Bom Jesus do Amparo/MG,-19.7045132,-43.4752911,29,472.85179
D1,Bom Jesus do Amparo/MG,-19.7045132,-43.4752911,2,32.61047
1,Bom Jesus do Araguaia/MT,-12.1725897,-51.5074425,132,1968.38652
1,Bom Jesus do Galho/MG,-19.8283191,-42.3162256,114,767.05692
D1,Bom Jesus do Galho/MG,-19.8283191,-42.3162256,5,33.64285
1,Bom Jesus do Itabapoana/RJ,-21.1341025,-41.680095,812,2182.61968
D1,Bom Jesus do Itabapoana/RJ,-21.1341025,-41.680095,23,61.82297
1,Bom Jesus do Norte/ES,-21.1254776,-41.6711646,317,3182.09195
D1,Bom Jesus do Norte/ES,-21.1254776,-41.6711646,7,70.26701
1,Bom Jesus do Oeste/SC,-26.6929713,-53.0967453,24,1122.01964
D1,Bom Jesus do Oeste/SC,-26.6929713,-53.0967453,1,46.75082
1,Bom Jesus do Sul/PR,-26.1922507,-53.6002033,14,399.31546
D1,Bom Jesus do Sul/PR,-26.1922507,-53.6002033,1,28.52253
1,Bom Jesus do Tocantins/PA,-5.0471796,-48.5978362,396,2313.35436
D1,Bom Jesus do Tocantins/PA,-5.0471796,-48.5978362,4,23.36722
1,Bom Jesus do Tocantins/TO,-8.96306,-48.165043,77,1537.53994
1,Bom Jesus dos Perdões/SP,-23.1353864,-46.4648052,345,1327.68905
D1,Bom Jesus dos Perdões/SP,-23.1353864,-46.4648052,3,11.54512
1,Bom Jesus/PB,-6.8156725,-38.6551841,45,1747.57282
D1,Bom Jesus/PB,-6.8156725,-38.6551841,1,38.83495
1,Bom Jesus/PI,-9.0711644,-44.3583926,1442,5680.07248
D1,Bom Jesus/PI,-9.0711644,-44.3583926,17,66.96341
1,Bom Jesus/RN,-5.9887544,-35.5821149,117,1139.57339
D1,Bom Jesus/RN,-5.9887544,-35.5821149,4,38.95977
1,Bom Jesus/RS,-28.6692723,-50.4346894,122,1078.78681
1,Bom Jesus/SC,-26.7350604,-52.3916519,95,3107.62185
D1,Bom Jesus/SC,-26.7350604,-52.3916519,3,98.13543
1,Bom Lugar/MA,-4.3728019,-45.0366054,299,1818.95608
D1,Bom Lugar/MA,-4.3728019,-45.0366054,2,12.16693
1,Bom Princípio do Piauí/PI,-3.1912777,-41.6430185,41,725.53530
D1,Bom Princípio do Piauí/PI,-3.1912777,-41.6430185,3,53.08795
1,Bom Princípio/RS,-29.489788,-51.3566782,372,2609.61066
D1,Bom Princípio/RS,-29.489788,-51.3566782,3,21.04525
1,Bom Progresso/RS,-27.5490948,-53.8655601,14,737.23012
1,Bom Repouso/MG,-22.4657069,-46.1485376,80,759.22938
D1,Bom Repouso/MG,-22.4657069,-46.1485376,5,47.45184
1,Bom Retiro do Sul/RS,-29.6000007,-51.9359243,207,1670.70218
D1,Bom Retiro do Sul/RS,-29.6000007,-51.9359243,3,24.21308
1,Bom Retiro/SC,-27.798993,-49.486994,95,944.33400
D1,Bom Retiro/SC,-27.798993,-49.486994,4,39.76143
1,Bom Sucesso de Itararé/SP,-24.3190016,-49.1446207,10,251.00402
D1,Bom Sucesso de Itararé/SP,-24.3190016,-49.1446207,1,25.10040
1,Bom Sucesso do Sul/PR,-26.0749256,-52.8348629,13,399.50830
1,Bom Sucesso/MG,-21.0323516,-44.7598082,37,210.14369
D1,Bom Sucesso/MG,-21.0323516,-44.7598082,1,5.67956
1,Bom Sucesso/PB,-6.4458948,-37.9297662,27,544.79419
1,Bom Sucesso/PR,-23.7088019,-51.7651297,104,1471.42049
D1,Bom Sucesso/PR,-23.7088019,-51.7651297,1,14.14827
1,Bombinhas/SC,-27.1519159,-48.4875691,1175,5778.21490
D1,Bombinhas/SC,-27.1519159,-48.4875691,9,44.25867
1,Bonfim do Piauí/PI,-9.1648678,-42.8734415,69,1213.72032
D1,Bonfim do Piauí/PI,-9.1648678,-42.8734415,1,17.59015
1,Bonfim/MG,-20.3266626, -44.2386157,66,962.09913
D1,Bonfim/MG,-20.3266626, -44.2386157,3,43.73178
1,Bonfim/RR,3.3613818,-59.8427241,779,6203.71108
D1,Bonfim/RR,3.3613818,-59.8427241,13,103.52791
1,Bonfinópolis de Minas/MG,-16.5660011,-45.98645,123,2259.36811
D1,Bonfinópolis de Minas/MG,-16.5660011,-45.98645,6,110.21308
1,Bonfinópolis/GO,-16.6172709,-48.9615701,272,2742.21192
D1,Bonfinópolis/GO,-16.6172709,-48.9615701,8,80.65329
1,Boninal/BA,-12.7095183,-41.8299984,15,103.83497
D1,Boninal/BA,-12.7095183,-41.8299984,1,6.92233
1,Bonito de Minas/MG,-15.3191266,-44.7544,6,52.77509
1,Bonito de Santa Fé/PB,-7.3143332,-38.5146677,97,806.85410
D1,Bonito de Santa Fé/PB,-7.3143332,-38.5146677,3,24.95425
1,Bonito/BA,-11.9665473,-41.2649896,46,272.44729
D1,Bonito/BA,-11.9665473,-41.2649896,2,11.84553
1,Bonito/MS,-21.1264766,-56.4902208,518,2334.38486
D1,Bonito/MS,-21.1264766,-56.4902208,7,31.54574
1,Bonito/PA,-1.3605722,-47.3049907,261,1578.94737
D1,Bonito/PA,-1.3605722,-47.3049907,9,54.44646
1,Bonito/PE,-8.4721161,-35.7314591,343,899.86095
D1,Bonito/PE,-8.4721161,-35.7314591,26,68.21103
1,Bonópolis/GO,-13.649331,-49.8329113,63,1402.18117
D1,Bonópolis/GO,-13.649331,-49.8329113,1,22.25684
1,Boqueirão do Leão/RS,-29.30332,-52.4296817,85,1103.60945
D1,Boqueirão do Leão/RS,-29.30332,-52.4296817,2,25.96728
1,Boqueirão do Piauí/PI,-4.4850148,-42.1095161,141,2194.21102
D1,Boqueirão do Piauí/PI,-4.4850148,-42.1095161,1,15.56178
1,Boqueirão/PB,-7.487004,-36.130887,406,2271.96419
D1,Boqueirão/PB,-7.487004,-36.130887,7,39.17180
1,Boquim/SE,-11.1450175,-37.6204228,627,2330.94167
D1,Boquim/SE,-11.1450175,-37.6204228,16,59.48177
1,Boquira/BA,-12.8184859,-42.7270883,37,172.11704
D1,Boquira/BA,-12.8184859,-42.7270883,1,4.65181
1,Boracéia/SP,-22.195355,-48.7801925,88,1807.72391
D1,Boracéia/SP,-22.195355,-48.7801925,1,20.54232
1,Borba/AM,-4.3934778,-59.5947721,716,1715.05222
D1,Borba/AM,-4.3934778,-59.5947721,23,55.09246
1,Borborema/PB,-6.8066718,-35.5990191,53,1002.45886
1,Borborema/SP,-21.6212706,-49.074135,226,1398.16877
D1,Borborema/SP,-21.6212706,-49.074135,6,37.11952
1,Borda da Mata/MG,-22.274167,-46.165278,324,1651.88131
D1,Borda da Mata/MG,-22.274167,-46.165278,15,76.47599
1,Borebi/SP,-22.5700178,-48.9714871,46,1714.49870
D1,Borebi/SP,-22.5700178,-48.9714871,1,37.27171
1,Borrazópolis/PR,-23.9393362,-51.5850786,78,1211.36822
D1,Borrazópolis/PR,-23.9393362,-51.5850786,2,31.06072
1,Borá/SP,-22.2701088,-50.544407,3,357.99523
1,Bossoroca/RS,-28.7278885,-54.9120278,72,1160.35455
D1,Bossoroca/RS,-28.7278885,-54.9120278,1,16.11604
1,Botelhos/MG,-21.65,-46.394722,62,414.74346
D1,Botelhos/MG,-21.65,-46.394722,1,6.68941
1,Botucatu/SP,-22.8879628,-48.4410712,2412,1628.29947
D1,Botucatu/SP,-22.8879628,-48.4410712,45,30.37872
1,Botuporã/BA,-13.3744752,-42.5198469,5,49.36321
D1,Botuporã/BA,-13.3744752,-42.5198469,1,9.87264
1,Botuverá/SC,-27.200749,-49.068892,160,3006.38858
1,Bozano/RS,-28.3669953,-53.7705165,11,521.08006
1,Braga/RS,-27.617348,-53.740514,17,513.44005
1,Braganey/PR,-24.8179919,-53.118506,56,1040.50539
D1,Braganey/PR,-24.8179919,-53.118506,2,37.16091
1,Bragança Paulista/SP,-22.9520235,-46.5418586,3214,1884.67921
D1,Bragança Paulista/SP,-22.9520235,-46.5418586,74,43.39336
1,Bragança/PA,-1.0573967,-46.7635406,2379,1845.41632
D1,Bragança/PA,-1.0573967,-46.7635406,94,72.91683
1,Branquinha/AL,-9.2478057,-36.0152009,271,2590.82218
D1,Branquinha/AL,-9.2478057,-36.0152009,6,57.36138
1,Brasil Novo/PA,-3.3055853,-52.539198,750,5005.67310
D1,Brasil Novo/PA,-3.3055853,-52.539198,16,106.78769
1,Brasileira/PI,-4.131182,-41.7824969,139,1665.26896
D1,Brasileira/PI,-4.131182,-41.7824969,1,11.98035
1,Brasilândia de Minas/MG,-17.0096469,-46.0087183,273,1630.04538
D1,Brasilândia de Minas/MG,-17.0096469,-46.0087183,1,5.97086
1,Brasilândia do Sul/PR,-24.1975793,-53.527551,40,1547.38878
1,Brasilândia do Tocantins/TO,-8.3886619,-48.4842729,52,2351.87698
D1,Brasilândia do Tocantins/TO,-8.3886619,-48.4842729,1,45.22840
1,Brasilândia/MS,-21.255575,-52.0365617,106,894.28837
D1,Brasilândia/MS,-21.255575,-52.0365617,4,33.74673
1,Brasiléia/AC,-11.0010413,-68.7487894,1159,4340.49884
D1,Brasiléia/AC,-11.0010413,-68.7487894,19,71.15572
1,Brasnorte/MT,-12.1227151,-58.0050109,300,1489.57299
D1,Brasnorte/MT,-12.1227151,-58.0050109,1,4.96524
1,Brasília de Minas/MG,-16.2075114,-44.430559,157,484.49313
D1,Brasília de Minas/MG,-16.2075114,-44.430559,3,9.25783
1,Brasília/DF,-15.7934036,-47.8823172,197369,6460.20865
D1,Brasília/DF,-15.7934036,-47.8823172,3378,110.56744
1,Brazabrantes/GO,-16.4291635,-49.3858216,70,1868.65990
D1,Brazabrantes/GO,-16.4291635,-49.3858216,2,53.39028
1,Brazópolis/MG,-22.4742842,-45.6165577,261,1811.24219
D1,Brazópolis/MG,-22.4742842,-45.6165577,3,20.81888
1,Braço do Norte/SC,-28.2728633,-49.1622712,2281,6733.38056
D1,Braço do Norte/SC,-28.2728633,-49.1622712,19,56.08691
1,Braço do Trombudo/SC,-27.358578,-49.882145,52,1379.67631
D1,Braço do Trombudo/SC,-27.358578,-49.882145,1,26.53224
1,Braúna/SP,-21.5015319,-50.3175246,97,1689.60111
D1,Braúna/SP,-21.5015319,-50.3175246,7,121.92998
1,Braúnas/MG,-19.055556,-42.716111,16,335.50010
D1,Braúnas/MG,-19.055556,-42.716111,2,41.93751
1,Brejetuba/ES,-20.1465817,-41.2902303,476,3830.36936
D1,Brejetuba/ES,-20.1465817,-41.2902303,1,8.04699
1,Brejinho de Nazaré/TO,-11.0205883,-48.5722906,83,1503.89563
D1,Brejinho de Nazaré/TO,-11.0205883,-48.5722906,4,72.47690
1,Brejinho/PE,-7.3482153,-37.28538,124,1655.98291
D1,Brejinho/PE,-7.3482153,-37.28538,1,13.35470
1,Brejinho/RN,-6.1957907,-35.3583019,161,1259.09126
D1,Brejinho/RN,-6.1957907,-35.3583019,3,23.46133
1,Brejo Alegre/SP,-21.1671191,-50.1850393,63,2180.68536
D1,Brejo Alegre/SP,-21.1671191,-50.1850393,4,138.45621
1,Brejo Grande do Araguaia/PA,-5.7011449,-48.4037308,503,6826.81868
D1,Brejo Grande do Araguaia/PA,-5.7011449,-48.4037308,2,27.14441
1,Brejo Grande/SE,-10.4287358,-36.4667918,171,2047.16868
D1,Brejo Grande/SE,-10.4287358,-36.4667918,7,83.80223
1,Brejo Santo/CE,-7.4909841,-38.9859152,1753,3517.11408
D1,Brejo Santo/CE,-7.4909841,-38.9859152,25,50.15850
1,Brejo da Madre de Deus/PE,-8.1409718,-36.3712527,1003,1958.02831
D1,Brejo da Madre de Deus/PE,-8.1409718,-36.3712527,24,46.85212
1,Brejo de Areia/MA,-4.3316785,-45.5833334,205,2274.24007
D1,Brejo de Areia/MA,-4.3316785,-45.5833334,2,22.18771
1,Brejo do Cruz/PB,-6.32926065,-37.48746163303929,560,3941.99634
D1,Brejo do Cruz/PB,-6.32926065,-37.48746163303929,8,56.31423
1,Brejo do Piauí/PI,-8.207583,-42.8359849,20,519.75052
1,Brejo dos Santos/PB,-6.3769367,-37.8243125,75,1160.27228
1,Brejo/MA,-3.6804397,-42.7529313,694,1893.53633
D1,Brejo/MA,-3.6804397,-42.7529313,18,49.11189
1,Brejolândia/BA,-12.4843845,-43.9611861,5,47.08985
D1,Brejolândia/BA,-12.4843845,-43.9611861,1,9.41797
1,Brejão/PE,-9.029146,-36.566034,31,344.94270
D1,Brejão/PE,-9.029146,-36.566034,2,22.25437
1,Brejões/BA,-13.1033754,-39.7909837,58,407.81887
D1,Brejões/BA,-13.1033754,-39.7909837,1,7.03136
1,Breu Branco/PA,-3.7785073,-49.5684795,303,450.00891
D1,Breu Branco/PA,-3.7785073,-49.5684795,21,31.18874
1,Breves/PA,-1.68036,-50.479085,2616,2527.60950
D1,Breves/PA,-1.68036,-50.479085,86,83.09420
1,Britânia/GO,-15.2427599,-51.1602061,165,2846.29981
D1,Britânia/GO,-15.2427599,-51.1602061,1,17.25030
1,Brochier/RS,-29.556766,-51.5963047,45,881.66144
1,Brodowski/SP,-20.984532,-47.657217,509,2013.68833
D1,Brodowski/SP,-20.984532,-47.657217,18,71.21098
1,Brotas de Macaúbas/BA,-12.0019007,-42.6257506,3,29.61500
1,Brotas/SP,-22.2840884,-48.1267265,130,527.68307
D1,Brotas/SP,-22.2840884,-48.1267265,2,8.11820
1,Brumadinho/MG,-20.143611,-44.2,1129,2776.27502
D1,Brumadinho/MG,-20.143611,-44.2,13,31.96774
1,Brumado/BA,-14.29507325,-41.659307508575985,1636,2429.64283
D1,Brumado/BA,-14.29507325,-41.659307508575985,16,23.76179
1,Brunópolis/SC,-27.310953,-50.837585,32,1351.35135
1,Brusque/SC,-27.0964628,-48.9136323,5796,4209.48660
D1,Brusque/SC,-27.0964628,-48.9136323,57,41.39764
1,Brás Pires/MG,-20.8483109,-43.2430524,8,186.34987
1,Bueno Brandão/MG,-22.441976,-46.3517971,75,682.37649
D1,Bueno Brandão/MG,-22.441976,-46.3517971,4,36.39341
1,Buenos Aires/PE,-7.7218931,-35.326587,53,401.81956
D1,Buenos Aires/PE,-7.7218931,-35.326587,8,60.65201
1,Buenópolis/MG,-17.8756607,-44.1749365,89,859.65421
D1,Buenópolis/MG,-17.8756607,-44.1749365,2,19.31807
1,Buerarema/BA,-14.9571177,-39.3008035,526,2873.37485
D1,Buerarema/BA,-14.9571177,-39.3008035,18,98.32842
1,Bugre/MG,-19.4257687,-42.2556,69,1732.36254
D1,Bugre/MG,-19.4257687,-42.2556,2,50.21341
1,Bujari/AC,-9.8309656,-67.9520886,384,3685.22073
D1,Bujari/AC,-9.8309656,-67.9520886,7,67.17850
1,Bujaru/PA,-1.5169239,-48.0410699,644,2188.46637
D1,Bujaru/PA,-1.5169239,-48.0410699,23,78.15951
1,Buri/SP,-23.79849,-48.598924,280,1402.45430
D1,Buri/SP,-23.79849,-48.598924,6,30.05259
1,Buritama/SP,-21.0664017,-50.1448077,315,1822.81118
D1,Buritama/SP,-21.0664017,-50.1448077,12,69.44043
1,Buriti Alegre/GO,-18.1377879,-49.0404411,234,2467.31337
D1,Buriti Alegre/GO,-18.1377879,-49.0404411,7,73.80852
1,Buriti Bravo/MA,-5.8391884,-43.8367876,588,2456.24295
D1,Buriti Bravo/MA,-5.8391884,-43.8367876,1,4.17728
1,Buriti de Goiás/GO,-16.180644,-50.4287479,94,3796.44588
D1,Buriti de Goiás/GO,-16.180644,-50.4287479,1,40.38772
1,Buriti do Tocantins/TO,-5.3187439,-48.2256609,235,2044.01148
1,Buriti dos Lopes/PI,-3.1776723,-41.8707444,747,3771.39395
D1,Buriti dos Lopes/PI,-3.1776723,-41.8707444,12,60.58464
1,Buriti dos Montes/PI,-5.3136171,-41.0971256,48,580.83253
D1,Buriti dos Montes/PI,-5.3136171,-41.0971256,1,12.10068
1,Buriti/MA,-3.9430944,-42.9244281,634,2201.54177
D1,Buriti/MA,-3.9430944,-42.9244281,1,3.47246
1,Buriticupu/MA,-4.3227472,-46.4516989,2462,3373.38832
D1,Buriticupu/MA,-4.3227472,-46.4516989,4,5.48073
1,Buritinópolis/GO,-14.4589282,-46.4293104,47,1431.61742
1,Buritirama/BA,-10.7148421,-43.6362327,230,1081.03027
D1,Buritirama/BA,-10.7148421,-43.6362327,5,23.50066
1,Buritirana/MA,-5.5897455,-47.0148915,240,1551.69070
D1,Buritirana/MA,-5.5897455,-47.0148915,6,38.79227
1,Buritis/MG,-15.621389,-46.423889,377,1507.21625
D1,Buritis/MG,-15.621389,-46.423889,2,7.99584
1,Buritis/RO,-10.2054937,-63.8281954,728,1803.94489
D1,Buritis/RO,-10.2054937,-63.8281954,8,19.82357
1,Buritizal/SP,-20.1933264,-47.7097165,58,1284.89145
D1,Buritizal/SP,-20.1933264,-47.7097165,3,66.45990
1,Buritizeiro/MG,-17.3667765,-44.9647781,273,970.80474
D1,Buritizeiro/MG,-17.3667765,-44.9647781,6,21.33637
1,Butiá/RS,-30.1256795,-51.9692224,236,1126.38412
D1,Butiá/RS,-30.1256795,-51.9692224,12,57.27377
1,Buíque/PE,-8.6239732,-37.157296,501,850.31993
D1,Buíque/PE,-8.6239732,-37.157296,7,11.88072
1,Bálsamo/SP,-20.7343722,-49.5807484,510,5580.47926
D1,Bálsamo/SP,-20.7343722,-49.5807484,21,229.78444
0,CASO SEM LOCALIZAÇÃO DEFINIDA/AL,-9.931093434363673,-35.609611600637464,8,0.23971
D0,CASO SEM LOCALIZAÇÃO DEFINIDA/AL,-9.931093434363673,-35.609611600637464,8,0.23971
0,CASO SEM LOCALIZAÇÃO DEFINIDA/BA,-13.415069300066518,-38.14174656569957,9303,62.54932
D0,CASO SEM LOCALIZAÇÃO DEFINIDA/BA,-13.415069300066518,-38.14174656569957,121,0.81355
0,CASO SEM LOCALIZAÇÃO DEFINIDA/CE,-3.3445126297392798,-38.624961942434304,6426,70.36734
D0,CASO SEM LOCALIZAÇÃO DEFINIDA/CE,-3.3445126297392798,-38.624961942434304,41,0.44897
0,CASO SEM LOCALIZAÇÃO DEFINIDA/ES,-20.30989267097039,-39.81745156645774,9034,224.80186
D0,CASO SEM LOCALIZAÇÃO DEFINIDA/ES,-20.30989267097039,-39.81745156645774,149,3.70771
0,CASO SEM LOCALIZAÇÃO DEFINIDA/MA,-2.171256551718846,-43.98946796681719,1242,17.55432
D0,CASO SEM LOCALIZAÇÃO DEFINIDA/MA,-2.171256551718846,-43.98946796681719,21,0.29681
0,CASO SEM LOCALIZAÇÃO DEFINIDA/MG,-19.97049116501593,-43.8852149072783,6608,31.21576
D0,CASO SEM LOCALIZAÇÃO DEFINIDA/MG,-19.97049116501593,-43.8852149072783,217,1.02509
0,CASO SEM LOCALIZAÇÃO DEFINIDA/MS,-20.391549234908513,-54.645156949758444,1304,46.92359
D0,CASO SEM LOCALIZAÇÃO DEFINIDA/MS,-20.391549234908513,-54.645156949758444,34,1.22347
0,CASO SEM LOCALIZAÇÃO DEFINIDA/MT,-15.54791153961863,-56.17143998972475,675,19.37169
D0,CASO SEM LOCALIZAÇÃO DEFINIDA/MT,-15.54791153961863,-56.17143998972475,51,1.46364
0,CASO SEM LOCALIZAÇÃO DEFINIDA/PB,-7.1049355696146606,-34.68696690234351,1425,35.46428
D0,CASO SEM LOCALIZAÇÃO DEFINIDA/PB,-7.1049355696146606,-34.68696690234351,23,0.57241
0,CASO SEM LOCALIZAÇÃO DEFINIDA/PE,-8.121628543819208,-34.57313921302556,1378,14.41864
D0,CASO SEM LOCALIZAÇÃO DEFINIDA/PE,-8.121628543819208,-34.57313921302556,40,0.41854
0,CASO SEM LOCALIZAÇÃO DEFINIDA/PI,-2.683810218391744,-41.470898009352254,588,17.96392
D0,CASO SEM LOCALIZAÇÃO DEFINIDA/PI,-2.683810218391744,-41.470898009352254,8,0.24441
0,CASO SEM LOCALIZAÇÃO DEFINIDA/PR,-25.69415946385943,-48.10141676336737,4876,42.64490
D0,CASO SEM LOCALIZAÇÃO DEFINIDA/PR,-25.69415946385943,-48.10141676336737,128,1.11947
0,CASO SEM LOCALIZAÇÃO DEFINIDA/RJ,-23.210238986465157,-43.12864305824042,2024,11.72318
D0,CASO SEM LOCALIZAÇÃO DEFINIDA/RJ,-23.210238986465157,-43.12864305824042,86,0.49812
0,CASO SEM LOCALIZAÇÃO DEFINIDA/RN,-5.749310788669161,-34.95302586257457,3460,98.66396
D0,CASO SEM LOCALIZAÇÃO DEFINIDA/RN,-5.749310788669161,-34.95302586257457,46,1.31172
0,CASO SEM LOCALIZAÇÃO DEFINIDA/RO,-8.681174926655274,-63.9216949899276,167,9.39667
D0,CASO SEM LOCALIZAÇÃO DEFINIDA/RO,-8.681174926655274,-63.9216949899276,1,0.05627
0,CASO SEM LOCALIZAÇÃO DEFINIDA/RR,2.813328208465927,-60.663338675861986,1065,175.81191
D0,CASO SEM LOCALIZAÇÃO DEFINIDA/RR,2.813328208465927,-60.663338675861986,5,0.82541
0,CASO SEM LOCALIZAÇÃO DEFINIDA/SC,-27.675643660562308,-48.18313219398259,8743,122.02734
D0,CASO SEM LOCALIZAÇÃO DEFINIDA/SC,-27.675643660562308,-48.18313219398259,19,0.26519
0,CASO SEM LOCALIZAÇÃO DEFINIDA/SP,-24.30968974555485,-46.21366504207253,6559,14.28383
D0,CASO SEM LOCALIZAÇÃO DEFINIDA/SP,-24.30968974555485,-46.21366504207253,209,0.45515
0,CASO SEM LOCALIZAÇÃO DEFINIDA/TO,-10.213012114749148,-48.40023803990334,491,31.21690
D0,CASO SEM LOCALIZAÇÃO DEFINIDA/TO,-10.213012114749148,-48.40023803990334,13,0.82652
1,Caapiranga/AM,-3.3188884,-61.2096404,329,2476.85011
D1,Caapiranga/AM,-3.3188884,-61.2096404,8,60.22736
1,Caaporã/PB,-7.510234,-34.9154114,987,4495.55910
D1,Caaporã/PB,-7.510234,-34.9154114,16,72.87634
1,Caarapó/MS,-22.6349267,-54.8240903,485,1585.32998
D1,Caarapó/MS,-22.6349267,-54.8240903,3,9.80616
1,Caatiba/BA,-14.9782759,-40.4092325,333,5132.55240
D1,Caatiba/BA,-14.9782759,-40.4092325,1,15.41307
1,Cabaceiras do Paraguaçu/BA,-12.5377868,-39.1901339,78,412.45836
D1,Cabaceiras do Paraguaçu/BA,-12.5377868,-39.1901339,1,5.28793
1,Cabaceiras/PB,-7.4899156,-36.2860501,121,2137.43155
1,Cabeceira Grande/MG,-16.0297,-47.0906,45,643.96108
D1,Cabeceira Grande/MG,-16.0297,-47.0906,2,28.62049
1,Cabeceiras do Piauí/PI,-4.4733665,-42.3098716,223,2097.83631
D1,Cabeceiras do Piauí/PI,-4.4733665,-42.3098716,6,56.44403
1,Cabeceiras/GO,-15.7995459,-46.9264991,67,832.71191
D1,Cabeceiras/GO,-15.7995459,-46.9264991,3,37.28561
1,Cabedelo/PB,-6.97324,-34.8351609,2986,4342.19902
D1,Cabedelo/PB,-6.97324,-34.8351609,71,103.24720
1,Cabixi/RO,-13.4956065,-60.5424442,120,2313.03007
D1,Cabixi/RO,-13.4956065,-60.5424442,5,96.37625
1,Cabo Frio/RJ,-22.8804369,-42.0189227,2643,1147.24496
D1,Cabo Frio/RJ,-22.8804369,-42.0189227,148,64.24225
1,Cabo Verde/MG,-21.4743338,-46.3964995,42,298.40142
1,Cabo de Santo Agostinho/PE,-8.2838945,-35.0320984,1991,952.88690
D1,Cabo de Santo Agostinho/PE,-8.2838945,-35.0320984,259,123.95666
1,Cabreúva/SP,-23.3075813,-47.1324417,1178,2335.95748
D1,Cabreúva/SP,-23.3075813,-47.1324417,39,77.33645
1,Cabrobó/PE,-8.5083701,-39.3106961,396,1147.72628
D1,Cabrobó/PE,-8.5083701,-39.3106961,4,11.59319
1,Cabrália Paulista/SP,-22.4562909,-49.3385645,96,2262.55008
1,Cacaulândia/RO,-10.3380043,-62.9007231,83,1323.97512
1,Cacequi/RS,-29.8838059,-54.8273443,43,346.13217
1,Cachoeira Alta/GO,-18.7618269,-50.9432431,696,5495.02605
D1,Cachoeira Alta/GO,-18.7618269,-50.9432431,8,63.16122
1,Cachoeira Dourada/GO,-18.4934204,-49.481062,112,1394.59594
D1,Cachoeira Dourada/GO,-18.4934204,-49.481062,2,24.90350
1,Cachoeira Dourada/MG,-18.517136,-49.5002062,15,554.32373
1,Cachoeira Grande/MA,-2.9290492,-44.0573223,175,1846.38109
D1,Cachoeira Grande/MA,-2.9290492,-44.0573223,4,42.20300
1,Cachoeira Paulista/SP,-22.666498,-45.015384,353,1051.18966
D1,Cachoeira Paulista/SP,-22.666498,-45.015384,13,38.71237
1,Cachoeira da Prata/MG,-19.524723,-44.453056,37,1030.35366
D1,Cachoeira da Prata/MG,-19.524723,-44.453056,1,27.84740
1,Cachoeira de Goiás/GO,-16.6688414,-50.6435997,15,1117.73472
1,Cachoeira de Minas/MG,-22.3554043,-45.7796324,146,1260.90336
D1,Cachoeira de Minas/MG,-22.3554043,-45.7796324,2,17.27265
1,Cachoeira de Pajeú/MG,-15.965833,-41.496666,206,2181.74116
D1,Cachoeira de Pajeú/MG,-15.965833,-41.496666,2,21.18195
1,Cachoeira do Arari/PA,-1.0143572,-48.9621089,295,1225.89761
D1,Cachoeira do Arari/PA,-1.0143572,-48.9621089,13,54.02261
1,Cachoeira do Piriá/PA,-1.7599443,-46.5446954,522,1508.27819
D1,Cachoeira do Piriá/PA,-1.7599443,-46.5446954,3,8.66827
1,Cachoeira do Sul/RS,-30.0474778,-52.8905413,581,709.67033
D1,Cachoeira do Sul/RS,-30.0474778,-52.8905413,6,7.32878
1,Cachoeira dos Índios/PB,-6.9259193,-38.6742159,131,1271.22756
D1,Cachoeira dos Índios/PB,-6.9259193,-38.6742159,7,67.92819
1,Cachoeira/BA,-12.5998256,-38.9665918,439,1307.83210
D1,Cachoeira/BA,-12.5998256,-38.9665918,10,29.79116
1,Cachoeiras de Macacu/RJ,-22.4626861,-42.6534414,617,1040.41954
D1,Cachoeiras de Macacu/RJ,-22.4626861,-42.6534414,31,52.27392
1,Cachoeirinha/PE,-8.4906364,-36.2338963,269,1312.13112
D1,Cachoeirinha/PE,-8.4906364,-36.2338963,20,97.55622
1,Cachoeirinha/RS,-29.9493353,-51.0898927,3160,2407.80250
D1,Cachoeirinha/RS,-29.9493353,-51.0898927,77,58.67114
1,Cachoeirinha/TO,-6.118647,-47.9208885,28,1225.91944
1,Cachoeiro de Itapemirim/ES,-20.848084,-41.11129,5810,2758.92853
D1,Cachoeiro de Itapemirim/ES,-20.848084,-41.11129,171,81.20082
1,Cacimba de Areia/PB,-7.1288513,-37.1575194,11,297.69959
1,Cacimba de Dentro/PB,-6.6425101,-35.7929304,348,2025.84701
D1,Cacimba de Dentro/PB,-6.6425101,-35.7929304,7,40.74980
1,Cacimbas/PB,-7.2125451,-37.0593398,63,875.12154
D1,Cacimbas/PB,-7.2125451,-37.0593398,2,27.78164
1,Cacimbinhas/AL,-9.401212,-36.991082,263,2415.28148
D1,Cacimbinhas/AL,-9.401212,-36.991082,3,27.55074
1,Cacique Doble/RS,-27.7700117,-51.6616409,89,1754.04020
1,Cacoal/RO,-11.4333,-61.4420502,2386,2777.87480
D1,Cacoal/RO,-11.4333,-61.4420502,34,39.58413
1,Caconde/SP,-21.527995,-46.643659,117,615.49792
D1,Caconde/SP,-21.527995,-46.643659,1,5.26067
1,Caculé/BA,-14.4990734,-42.2233006,87,373.53484
D1,Caculé/BA,-14.4990734,-42.2233006,2,8.58701
1,Caetanos/BA,-14.3387456,-40.9085971,141,965.22453
1,Caetanópolis/MG,-19.2947496,-44.4138386,93,791.55673
D1,Caetanópolis/MG,-19.2947496,-44.4138386,2,17.02273
1,Caetité/BA,-14.0691776,-42.4852428,171,334.76244
D1,Caetité/BA,-14.0691776,-42.4852428,5,9.78838
1,Caeté/MG,-19.897777,-43.670278,430,954.55857
D1,Caeté/MG,-19.897777,-43.670278,13,28.85875
1,Caetés/PE,-8.7728788,-36.6255835,572,1978.96485
D1,Caetés/PE,-8.7728788,-36.6255835,6,20.75837
1,Cafarnaum/BA,-11.691399,-41.468823,253,1366.60725
D1,Cafarnaum/BA,-11.691399,-41.468823,4,21.60644
1,Cafeara/PR,-22.78905,-51.714195,53,1794.17739
1,Cafelândia/PR,-24.6176963,-53.3218057,263,1425.01084
D1,Cafelândia/PR,-24.6176963,-53.3218057,1,5.41829
1,Cafelândia/SP,-21.8054355,-49.6030627,285,1597.26503
D1,Cafelândia/SP,-21.8054355,-49.6030627,6,33.62663
1,Cafezal do Sul/PR,-23.900508,-53.512418,28,698.42854
1,Caiabu/SP,-22.0143038,-51.2356597,37,882.42309
D1,Caiabu/SP,-22.0143038,-51.2356597,2,47.69855
1,Caiana/MG,-20.695555,-41.924723,16,288.75654
D1,Caiana/MG,-20.695555,-41.924723,2,36.09457
1,Caiapônia/GO,-16.9538779,-51.8090761,209,1093.83995
D1,Caiapônia/GO,-16.9538779,-51.8090761,1,5.23368
1,Caibaté/RS,-28.290475,-54.645407,2,41.46797
1,Caibi/SC,-27.0751925,-53.2502133,44,717.78140
D1,Caibi/SC,-27.0751925,-53.2502133,2,32.62643
1,Caicó/RN,-6.4594544,-37.0971911,2701,3952.12385
D1,Caicó/RN,-6.4594544,-37.0971911,32,46.82264
1,Caieiras/SP,-23.3644621,-46.7484765,2191,2131.84140
D1,Caieiras/SP,-23.3644621,-46.7484765,98,95.35393
1,Cairu/BA,-13.4860505,-39.0455744,305,1655.17990
D1,Cairu/BA,-13.4860505,-39.0455744,5,27.13410
1,Caiuá/SP,-21.8319357,-51.9887179,58,975.44568
D1,Caiuá/SP,-21.8319357,-51.9887179,1,16.81803
1,Caiçara do Norte/RN,-5.0645017,-36.0561226,87,1326.01738
D1,Caiçara do Norte/RN,-5.0645017,-36.0561226,3,45.72474
1,Caiçara do Rio do Vento/RN,-5.757968,-36.00089,62,1668.90983
D1,Caiçara do Rio do Vento/RN,-5.757968,-36.00089,1,26.91790
1,Caiçara/PB,-6.6146866,-35.4681434,462,6424.69754
D1,Caiçara/PB,-6.6146866,-35.4681434,10,139.06272
1,Caiçara/RS,-27.2750478,-53.4310053,58,1234.04255
D1,Caiçara/RS,-27.2750478,-53.4310053,3,63.82979
1,Cajamar/SP,-23.3561111,-46.8769444,1567,2010.67570
D1,Cajamar/SP,-23.3561111,-46.8769444,77,98.80155
1,Cajapió/MA,-2.8778715,-44.6746871,5,44.57917
D1,Cajapió/MA,-2.8778715,-44.6746871,2,17.83167
1,Cajari/MA,-3.3213076,-45.0118757,132,678.62835
D1,Cajari/MA,-3.3213076,-45.0118757,4,20.56450
1,Cajati/SP,-24.7272376,-48.1077914,1542,5411.66561
D1,Cajati/SP,-24.7272376,-48.1077914,26,91.24728
1,Cajazeiras do Piauí/PI,-6.794271,-42.3935024,12,335.85223
1,Cajazeiras/PB,-6.8897849,-38.5570389,2063,3311.98125
D1,Cajazeiras/PB,-6.8897849,-38.5570389,46,73.84932
1,Cajazeirinhas/PB,-6.961442,-37.7993733,35,1092.04368
1,Cajobi/SP,-20.8776238,-48.8106972,208,1963.00491
D1,Cajobi/SP,-20.8776238,-48.8106972,6,56.62514
1,Cajueiro da Praia/PI,-2.931114,-41.340801,335,4365.38963
D1,Cajueiro da Praia/PI,-2.931114,-41.340801,9,117.27912
1,Cajueiro/AL,-9.399589,-36.1524309,310,1453.28395
D1,Cajueiro/AL,-9.399589,-36.1524309,13,60.94417
1,Cajuri/MG,-20.7901414,-42.7954489,55,1383.99597
1,Cajuru/SP,-21.2759978,-47.3046035,470,1780.77521
D1,Cajuru/SP,-21.2759978,-47.3046035,10,37.88883
1,Caldas Brandão/PB,-7.1027959,-35.3254676,327,5408.53457
D1,Caldas Brandão/PB,-7.1027959,-35.3254676,2,33.07972
1,Caldas Novas/GO,-17.745,-48.625,1785,1915.31825
D1,Caldas Novas/GO,-17.745,-48.625,45,48.28533
1,Caldas/MG,-21.923611,-46.386111,106,728.97325
D1,Caldas/MG,-21.923611,-46.386111,3,20.63132
1,Caldazinha/GO,-16.7116649,-49.0012601,94,2442.82744
D1,Caldazinha/GO,-16.7116649,-49.0012601,1,25.98753
1,Caldeirão Grande do Piauí/PI,-7.3310393,-40.6374433,126,2179.55371
1,Caldeirão Grande/BA,-11.0208483,-40.3041387,123,918.52737
D1,Caldeirão Grande/BA,-11.0208483,-40.3041387,1,7.46770
1,Califórnia/PR,-23.6672543,-51.3554556,87,1010.92261
D1,Califórnia/PR,-23.6672543,-51.3554556,2,23.23960
1,Calmon/SC,-26.6023644,-51.0992893,10,299.85007
D1,Calmon/SC,-26.6023644,-51.0992893,1,29.98501
1,Calumbi/PE,-7.9389746,-38.1516871,180,3132.06891
D1,Calumbi/PE,-7.9389746,-38.1516871,2,34.80077
1,Calçado/PE,-8.7413446,-36.3351787,61,553.63950
D1,Calçado/PE,-8.7413446,-36.3351787,1,9.07606
1,Calçoene/AP,2.4981757,-50.9539503,1165,10304.26322
D1,Calçoene/AP,2.4981757,-50.9539503,5,44.22431
1,Camacan/BA,-15.4166631,-39.4930088,1451,4533.52496
D1,Camacan/BA,-15.4166631,-39.4930088,31,96.85684
1,Camalaú/PB,-7.885031,-36.824191,33,547.17294
1,Camamu/BA,-13.9438142,-39.1060917,818,2311.91001
D1,Camamu/BA,-13.9438142,-39.1060917,18,50.87333
1,Camanducaia/MG,-22.755278,-46.144444,513,2353.10307
D1,Camanducaia/MG,-22.755278,-46.144444,10,45.86946
1,Camapuã/MS,-19.5291747,-54.0434641,47,343.24107
D1,Camapuã/MS,-19.5291747,-54.0434641,1,7.30300
1,Camaquã/RS,-30.8524752,-51.8075619,1214,1826.16806
D1,Camaquã/RS,-30.8524752,-51.8075619,20,30.08514
1,Camaragibe/PE,-8.0213832,-34.9810768,2150,1353.06075
D1,Camaragibe/PE,-8.0213832,-34.9810768,186,117.05549
1,Camargo/RS,-28.5865661,-52.2031474,64,2334.06273
1,Camaçari/BA,-12.6998188,-38.3260762,6207,2039.74999
D1,Camaçari/BA,-12.6998188,-38.3260762,124,40.74899
1,Cambará do Sul/RS,-29.0489517,-50.145412,69,1077.11520
1,Cambará/PR,-23.042273,-50.075281,287,1126.99285
D1,Cambará/PR,-23.042273,-50.075281,6,23.56083
1,Cambira/PR,-23.600265,-51.581045,77,972.59063
D1,Cambira/PR,-23.600265,-51.581045,3,37.89314
1,Camboriú/SC,-27.0273601,-48.6535657,2783,3270.07814
D1,Camboriú/SC,-27.0273601,-48.6535657,44,51.70084
1,Cambuci/RJ,-21.5749919,-41.9107833,200,1289.15818
D1,Cambuci/RJ,-21.5749919,-41.9107833,5,32.22895
1,Cambuquira/MG,-21.853056,-45.2953619,29,226.35030
D1,Cambuquira/MG,-21.853056,-45.2953619,2,15.61037
1,Cambuí/MG,-22.6122501,-46.0572137,400,1341.65157
D1,Cambuí/MG,-22.6122501,-46.0572137,8,26.83303
1,Cambé/PR,-23.2782035,-51.2779583,1947,1813.84559
D1,Cambé/PR,-23.2782035,-51.2779583,33,30.74315
1,Cametá/PA,-2.242949,-49.497885,4835,3469.33211
D1,Cametá/PA,-2.242949,-49.497885,99,71.03700
1,Camocim de São Félix/PE,-8.3616757,-35.7638903,221,1169.31217
D1,Camocim de São Félix/PE,-8.3616757,-35.7638903,8,42.32804
1,Camocim/CE,-2.9009918,-40.8427389,2382,3727.29122
D1,Camocim/CE,-2.9009918,-40.8427389,81,126.74668
1,Campanha/MG,-21.8361108,-45.401986,174,1038.06228
D1,Campanha/MG,-21.8361108,-45.401986,4,23.86350
1,Campanário/MG,-18.2398144,-41.7271768,17,455.76408
1,Campestre da Serra/RS,-28.7966535,-51.0958149,42,1237.11340
1,Campestre de Goiás/GO,-16.7624179,-49.69497,157,4302.54864
D1,Campestre de Goiás/GO,-16.7624179,-49.69497,2,54.80954
1,Campestre do Maranhão/MA,-6.1729113,-47.3640512,499,3452.57040
D1,Campestre do Maranhão/MA,-6.1729113,-47.3640512,8,55.35183
1,Campestre/AL,-8.8481634,-35.5660033,94,1351.74001
D1,Campestre/AL,-8.8481634,-35.5660033,3,43.14064
1,Campestre/MG,-19.6142116,-43.219378,138,655.45740
D1,Campestre/MG,-19.6142116,-43.219378,4,18.99877
1,Campina Grande do Sul/PR,-25.3046032,-49.0545355,987,2259.35676
D1,Campina Grande do Sul/PR,-25.3046032,-49.0545355,22,50.36054
1,Campina Grande/PB,-7.2246743,-35.8771292,13244,3216.06966
D1,Campina Grande/PB,-7.2246743,-35.8771292,385,93.49040
1,Campina Verde/MG,-19.535277,-49.486389,142,718.91454
D1,Campina Verde/MG,-19.535277,-49.486389,5,25.31389
1,Campina da Lagoa/PR,-24.5937926,-52.8038965,42,299.08139
D1,Campina da Lagoa/PR,-24.5937926,-52.8038965,3,21.36296
1,Campina das Missões/RS,-27.9883295,-54.8411665,37,685.43905
D1,Campina das Missões/RS,-27.9883295,-54.8411665,3,55.57614
1,Campina do Monte Alegre/SP,-23.5935653,-48.4801876,80,1320.78587
1,Campina do Simão/PR,-25.1086375,-51.8076658,5,129.56725
D1,Campina do Simão/PR,-25.1086375,-51.8076658,1,25.91345
1,Campinas do Piauí/PI,-7.6593687,-41.8814875,43,765.12456
D1,Campinas do Piauí/PI,-7.6593687,-41.8814875,1,17.79359
1,Campinas do Sul/RS,-27.7167968,-52.6257885,89,1636.63111
D1,Campinas do Sul/RS,-27.7167968,-52.6257885,2,36.77823
1,Campinas/SP,-22.90556,-47.06083,31789,2618.98249
D1,Campinas/SP,-22.90556,-47.06083,1253,103.23021
1,Campinaçu/GO,-13.7869969,-48.5703841,119,3276.43172
1,Campinorte/GO,-14.3136699,-49.1510931,384,3008.46130
D1,Campinorte/GO,-14.3136699,-49.1510931,8,62.67628
1,Campinápolis/MT,-14.5403731,-52.7970626,430,2541.52137
D1,Campinápolis/MT,-14.5403731,-52.7970626,15,88.65772
1,Campo Alegre de Goiás/GO,-17.6337896,-47.779291,21,271.38796
D1,Campo Alegre de Goiás/GO,-17.6337896,-47.779291,1,12.92324
1,Campo Alegre de Lourdes/BA,-9.5160326,-43.0101338,121,419.84733
D1,Campo Alegre de Lourdes/BA,-9.5160326,-43.0101338,4,13.87925
1,Campo Alegre do Fidalgo/PI,-8.3753852,-41.8364191,14,276.18860
D1,Campo Alegre do Fidalgo/PI,-8.3753852,-41.8364191,1,19.72776
1,Campo Alegre/AL,-9.7798607,-36.3575793,1415,2459.28707
D1,Campo Alegre/AL,-9.7798607,-36.3575793,28,48.66434
1,Campo Alegre/SC,-26.1941684,-49.2657484,167,1393.87363
D1,Campo Alegre/SC,-26.1941684,-49.2657484,5,41.73274
1,Campo Azul/MG,-16.5078525,-44.8133524,23,601.46444
1,Campo Belo do Sul/SC,-27.8987563,-50.7586887,83,1193.90104
D1,Campo Belo do Sul/SC,-27.8987563,-50.7586887,1,14.38435
1,Campo Belo/MG,-20.8975,-45.277223,1113,2054.03610
D1,Campo Belo/MG,-20.8975,-45.277223,15,27.68243
1,Campo Bom/RS,-29.674694,-51.060601,2360,3397.73676
D1,Campo Bom/RS,-29.674694,-51.060601,47,67.66679
1,Campo Bonito/PR,-25.0328004,-52.992976,57,1514.74887
1,Campo Erê/SC,-26.3947432,-53.0790495,100,1187.93062
1,Campo Florido/MG,-19.760833,-48.572223,201,2430.76551
1,Campo Formoso/BA,-10.51055,-40.320031,1037,1450.61340
D1,Campo Formoso/BA,-10.51055,-40.320031,12,16.78627
1,Campo Grande do Piauí/PI,-7.1327559,-41.0381164,116,1944.67728
D1,Campo Grande do Piauí/PI,-7.1327559,-41.0381164,1,16.76446
1,Campo Grande/AL,-9.9725,-36.74791447368421,218,2278.66625
D1,Campo Grande/AL,-9.9725,-36.74791447368421,5,52.26299
1,Campo Grande/MS,-20.4640173,-54.6162947,31579,3485.18693
D1,Campo Grande/MS,-20.4640173,-54.6162947,587,64.78371
1,Campo Largo do Piauí/PI,-3.8104731,-42.6288333,226,3091.23239
D1,Campo Largo do Piauí/PI,-3.8104731,-42.6288333,5,68.39010
1,Campo Largo/PR,-25.4597726,-49.5270851,3061,2286.63205
D1,Campo Largo/PR,-25.4597726,-49.5270851,80,59.76170
1,Campo Limpo Paulista/SP,-23.207791,-46.788919,1252,1463.62563
D1,Campo Limpo Paulista/SP,-23.207791,-46.788919,68,79.49404
1,Campo Limpo de Goiás/GO,-16.297101,-49.0894994,26,327.45592
D1,Campo Limpo de Goiás/GO,-16.297101,-49.0894994,2,25.18892
1,Campo Magro/PR,-25.3691533,-49.4496921,567,1906.52320
D1,Campo Magro/PR,-25.3691533,-49.4496921,12,40.34970
1,Campo Maior/PI,-4.8339574,-42.1739786,2362,5036.99913
D1,Campo Maior/PI,-4.8339574,-42.1739786,46,98.09566
1,Campo Mourão/PR,-24.046329,-52.37802,1061,1111.13438
D1,Campo Mourão/PR,-24.046329,-52.37802,39,40.84283
1,Campo Novo de Rondônia/RO,-10.5704235,-63.6199511,162,1135.56708
D1,Campo Novo de Rondônia/RO,-10.5704235,-63.6199511,5,35.04837
1,Campo Novo do Parecis/MT,-13.658735,-57.890723,2789,7716.57029
D1,Campo Novo do Parecis/MT,-13.658735,-57.890723,29,80.23684
1,Campo Novo/RS,-28.91500235,-52.331375687737626,25,571.29799
D1,Campo Novo/RS,-28.91500235,-52.331375687737626,1,22.85192
1,Campo Redondo/RN,-6.2420373,-36.1830606,233,2063.59047
D1,Campo Redondo/RN,-6.2420373,-36.1830606,3,26.56983
1,Campo Verde/MT,-15.5430787,-55.1590511,2350,5137.73502
D1,Campo Verde/MT,-15.5430787,-55.1590511,43,94.00962
1,Campo do Brito/SE,-10.7496246,-37.4942276,697,3825.88649
D1,Campo do Brito/SE,-10.7496246,-37.4942276,12,65.86892
1,Campo do Meio/MG,-21.1072006,-45.8301735,108,926.95906
D1,Campo do Meio/MG,-21.1072006,-45.8301735,2,17.16591
1,Campo do Tenente/PR,-25.9814143,-49.684518,100,1243.00808
D1,Campo do Tenente/PR,-25.9814143,-49.684518,3,37.29024
1,Campos Altos/MG,-19.696389,-46.171389,142,912.42048
D1,Campos Altos/MG,-19.696389,-46.171389,6,38.55298
1,Campos Belos/GO,-13.0349839,-46.768112,308,1539.46119
D1,Campos Belos/GO,-13.0349839,-46.768112,7,34.98775
1,Campos Borges/RS,-28.8852198,-52.999098,19,576.63126
1,Campos Gerais/MG,-21.2333342,-45.7584127,159,551.27938
D1,Campos Gerais/MG,-21.2333342,-45.7584127,3,10.40150
1,Campos Lindos/TO,-7.9740597,-46.8023881,276,2676.49341
D1,Campos Lindos/TO,-7.9740597,-46.8023881,2,19.39488
1,Campos Novos Paulista/SP,-22.601952,-49.998726,103,2061.23674
D1,Campos Novos Paulista/SP,-22.601952,-49.998726,2,40.02401
1,Campos Novos/SC,-27.3962904,-51.2224397,1372,3753.14586
D1,Campos Novos/SC,-27.3962904,-51.2224397,16,43.76846
1,Campos Sales/CE,-7.0742675,-40.3740367,425,1547.14234
D1,Campos Sales/CE,-7.0742675,-40.3740367,7,25.48234
1,Campos Verdes/GO,-14.2709062,-49.65746,40,2185.79235
D1,Campos Verdes/GO,-14.2709062,-49.65746,1,54.64481
1,Campos de Júlio/MT,-13.7223646,-59.2645296,420,5940.59406
D1,Campos de Júlio/MT,-13.7223646,-59.2645296,5,70.72136
1,Campos do Jordão/SP,-22.7395263,-45.5912829,765,1459.78437
D1,Campos do Jordão/SP,-22.7395263,-45.5912829,28,53.43002
1,Campos dos Goytacazes/RJ,-21.7558619,-41.3326895,6358,1243.81808
D1,Campos dos Goytacazes/RJ,-21.7558619,-41.3326895,387,75.70896
1,Camutanga/PE,-7.4092965,-35.2738166,158,1843.21045
D1,Camutanga/PE,-7.4092965,-35.2738166,7,81.66122
1,Cana Verde/MG,-21.021308,-45.1817881,94,1680.37183
D1,Cana Verde/MG,-21.021308,-45.1817881,2,35.75259
1,Canabrava do Norte/MT,-11.0516481,-51.8301897,58,1226.73435
D1,Canabrava do Norte/MT,-11.0516481,-51.8301897,2,42.30118
1,Cananéia/SP,-25.0104609,-47.9315628,189,1507.05685
D1,Cananéia/SP,-25.0104609,-47.9315628,7,55.81692
1,Canapi/AL,-9.1173572,-37.6011704,66,372.48152
D1,Canapi/AL,-9.1173572,-37.6011704,3,16.93098
1,Canarana/BA,-11.6870151,-41.7683675,172,653.37132
D1,Canarana/BA,-11.6870151,-41.7683675,2,7.59734
1,Canarana/MT,-13.5564602,-52.2691167,745,3410.85981
D1,Canarana/MT,-13.5564602,-52.2691167,15,68.67503
1,Canas/SP,-22.7029347,-45.0526508,50,960.79939
D1,Canas/SP,-22.7029347,-45.0526508,2,38.43198
1,Canavieira/PI,-7.6924041,-43.7190063,15,380.32454
D1,Canavieira/PI,-7.6924041,-43.7190063,1,25.35497
1,Canavieiras/BA,-15.61621745,-39.08485321304444,236,763.60577
D1,Canavieiras/BA,-15.61621745,-39.08485321304444,14,45.29865
1,Canaã dos Carajás/PA,-6.5296837,-49.8516592,4012,10529.35464
D1,Canaã dos Carajás/PA,-6.5296837,-49.8516592,46,120.72540
1,Canaã/MG,-20.685555,-42.62,1,21.98769
1,Candeal/BA,-11.8053441,-39.1206515,98,1197.89757
1,Candeias do Jamari/RO,-8.7949939,-63.7018851,1417,5173.79874
D1,Candeias do Jamari/RO,-8.7949939,-63.7018851,29,105.88579
1,Candeias/BA,-12.6693806,-38.5406462,2365,2704.15514
D1,Candeias/BA,-12.6693806,-38.5406462,61,69.74776
1,Candeias/MG,-20.7676161,-45.2763777,99,664.96507
D1,Candeias/MG,-20.7676161,-45.2763777,3,20.15046
1,Candelária/RS,-29.668391,-52.789495,162,515.57875
D1,Candelária/RS,-29.668391,-52.789495,3,9.54775
1,Candiba/BA,-14.4125032,-42.8714102,38,264.47661
1,Candiota/RS,-31.5451894,-53.719538,83,860.37110
D1,Candiota/RS,-31.5451894,-53.719538,1,10.36592
1,Candói/PR,-25.5711951,-52.051107,79,492.11985
1,Canela/RS,-29.3624657,-50.8134204,777,1708.14281
D1,Canela/RS,-29.3624657,-50.8134204,22,48.36440
1,Canelinha/SC,-27.2660341,-48.7666708,525,4234.55396
D1,Canelinha/SC,-27.2660341,-48.7666708,10,80.65817
1,Canguaretama/RN,-6.3751942,-35.137463,301,871.25159
D1,Canguaretama/RN,-6.3751942,-35.137463,17,49.20690
1,Canguçu/RS,-31.398276,-52.6773522,237,421.62566
D1,Canguçu/RS,-31.398276,-52.6773522,7,12.45308
1,Canhoba/SE,-10.1373681,-36.9710796,90,2246.63005
1,Canhotinho/PE,-8.876519,-36.197935,403,1626.77108
D1,Canhotinho/PE,-8.876519,-36.197935,17,68.62310
1,Canindé de São Francisco/SE,-9.6597475,-37.7904456,457,1503.19058
D1,Canindé de São Francisco/SE,-9.6597475,-37.7904456,8,26.31406
1,Canindé/CE,-4.3547946,-39.3108516,1959,2536.11931
D1,Canindé/CE,-4.3547946,-39.3108516,74,95.80032
1,Canitar/SP,-23.0066616,-49.7840632,44,831.44369
D1,Canitar/SP,-23.0066616,-49.7840632,1,18.89645
1,Canoas/RS,-29.9216045,-51.1799525,7096,2037.86243
D1,Canoas/RS,-29.9216045,-51.1799525,281,80.69889
1,Canoinhas/SC,-26.176591,-50.395001,599,1099.48605
D1,Canoinhas/SC,-26.176591,-50.395001,10,18.35536
1,Cansanção/BA,-10.6671448,-39.498199,176,504.55822
D1,Cansanção/BA,-10.6671448,-39.498199,6,17.20085
1,Cantagalo/MG,-20.4673592,-43.0356224,11,241.70512
1,Cantagalo/PR,-25.3735238,-52.1238114,65,487.65849
