type,name,lat,lon,total,total_per_100k_inhabitants
1,Abadia de Goiás/GO,-16.7572644,-49.4412205,297,3385.38698
D1,Abadia de Goiás/GO,-16.7572644,-49.4412205,2,22.79722
1,Abadia dos Dourados/MG,-18.4911191,-47.4063589,49,701.10173
D1,Abadia dos Dourados/MG,-18.4911191,-47.4063589,1,14.30820
1,Abadiânia/GO,-16.1940946,-48.7067767,80,399.16176
D1,Abadiânia/GO,-16.1940946,-48.7067767,7,34.92665
1,Abaetetuba/PA,-1.721828,-48.878843,2918,1850.37223
D1,Abaetetuba/PA,-1.721828,-48.878843,112,71.02183
1,Abaeté/MG,-19.1566833,-45.4481213,33,142.01489
D1,Abaeté/MG,-19.1566833,-45.4481213,2,8.60696
1,Abaiara/CE,-7.3607808,-39.0487878,65,553.80421
D1,Abaiara/CE,-7.3607808,-39.0487878,2,17.04013
1,Abaré/BA,-8.7239913,-39.1139689,45,224.03664
1,Abatiá/PR,-23.3052967,-50.3102532,56,750.97224
1,Abaíra/BA,-13.2503296,-41.6640342,16,183.08731
1,Abdon Batista/SC,-27.612419,-51.022992,83,3238.39251
1,Abel Figueiredo/PA,-4.953001,-48.3958485,266,3578.15443
D1,Abel Figueiredo/PA,-4.953001,-48.3958485,1,13.45171
1,Abelardo Luz/SC,-26.5705893,-52.3280339,167,932.75246
D1,Abelardo Luz/SC,-26.5705893,-52.3280339,3,16.75603
1,Abre Campo/MG,-20.2976097,-42.4764741,29,215.54928
1,Abreu e Lima/PE,-7.900719,-34.898389,712,712.07121
D1,Abreu e Lima/PE,-7.900719,-34.898389,90,90.00900
1,Abreulândia/TO,-9.6221526,-49.1558343,22,853.04382
D1,Abreulândia/TO,-9.6221526,-49.1558343,2,77.54944
1,Acaiaca/MG,-20.3621646,-43.1444162,13,325.48823
D1,Acaiaca/MG,-20.3621646,-43.1444162,1,25.03756
1,Acajutiba/BA,-11.6609659,-38.0186381,78,514.54581
D1,Acajutiba/BA,-11.6609659,-38.0186381,3,19.79022
1,Acarape/CE,-4.2237866,-38.7071663,1325,8875.34329
D1,Acarape/CE,-4.2237866,-38.7071663,14,93.77721
1,Acaraú/CE,-2.8869514,-40.1194713,2602,4153.82896
D1,Acaraú/CE,-2.8869514,-40.1194713,56,89.39832
1,Acari/RN,-6.4364689,-36.6394777,60,538.79310
D1,Acari/RN,-6.4364689,-36.6394777,3,26.93966
1,Acará/PA,-1.961388,-48.1987043,674,1212.42647
D1,Acará/PA,-1.961388,-48.1987043,12,21.58623
1,Acauã/PI,-8.219542,-41.083059,23,324.67532
1,Acopiara/CE,-6.0936464,-39.4543204,516,950.80155
D1,Acopiara/CE,-6.0936464,-39.4543204,28,51.59388
1,Acorizal/MT,-15.2001544,-56.3668953,115,2130.02408
D1,Acorizal/MT,-15.2001544,-56.3668953,3,55.56585
1,Acrelândia/AC,-10.0759167,-67.0526898,363,2379.39171
D1,Acrelândia/AC,-10.0759167,-67.0526898,8,52.43838
1,Acreúna/GO,-17.3959899,-50.3749031,253,1131.18126
D1,Acreúna/GO,-17.3959899,-50.3749031,8,35.76858
1,Adamantina/SP,-21.6866517,-51.0762975,200,570.32052
D1,Adamantina/SP,-21.6866517,-51.0762975,6,17.10962
1,Adelândia/GO,-16.4155077,-50.1665834,45,1788.55326
1,Adolfo/SP,-21.2356597,-49.6441918,53,1487.92813
D1,Adolfo/SP,-21.2356597,-49.6441918,3,84.22235
1,Adrianópolis/PR,-24.6557863,-48.9912769,148,2500.42237
D1,Adrianópolis/PR,-24.6557863,-48.9912769,2,33.78949
1,Adustina/BA,-10.5358875,-38.114479,63,369.71831
D1,Adustina/BA,-10.5358875,-38.114479,1,5.86854
1,Afogados da Ingazeira/PE,-7.750429,-37.6356375,257,689.76623
D1,Afogados da Ingazeira/PE,-7.750429,-37.6356375,7,18.78741
1,Afonso Bezerra/RN,-5.4745,-36.57625071327935,97,879.02130
D1,Afonso Bezerra/RN,-5.4745,-36.57625071327935,6,54.37245
1,Afonso Cláudio/ES,-20.077841,-41.12606,604,1974.75969
D1,Afonso Cláudio/ES,-20.077841,-41.12606,15,49.04205
1,Afonso Cunha/MA,-4.1326105,-43.3230026,132,2023.29859
D1,Afonso Cunha/MA,-4.1326105,-43.3230026,2,30.65604
1,Afrânio/PE,-8.5198919,-41.0070197,112,570.40998
D1,Afrânio/PE,-8.5198919,-41.0070197,1,5.09295
1,Afuá/PA,-0.1535664,-50.3879223,1809,4612.67785
D1,Afuá/PA,-0.1535664,-50.3879223,10,25.49850
1,Agrestina/PE,-8.4558021,-35.9442663,504,2025.31646
D1,Agrestina/PE,-8.4558021,-35.9442663,30,120.55455
1,Agricolândia/PI,-5.7967843,-42.6605131,38,739.44347
1,Agrolândia/SC,-27.4122212,-49.8295774,96,883.65243
D1,Agrolândia/SC,-27.4122212,-49.8295774,2,18.40943
1,Agronômica/SC,-27.2660744,-49.7104753,64,1174.74302
D1,Agronômica/SC,-27.2660744,-49.7104753,3,55.06608
1,Aguanil/MG,-20.9424533,-45.3927152,24,534.99777
D1,Aguanil/MG,-20.9424533,-45.3927152,3,66.87472
1,Aguaí/SP,-22.0592036,-46.979384,191,526.09833
D1,Aguaí/SP,-22.0592036,-46.979384,5,13.77221
1,Agudo/RS,-29.6423259,-53.2494005,8,48.59972
1,Agudos do Sul/PR,-25.9890808,-49.3328175,65,693.62928
1,Agudos/SP,-22.471162,-48.987822,379,1018.43392
D1,Agudos/SP,-22.471162,-48.987822,7,18.81013
1,Aguiar/PB,-7.0928404,-38.1727215,24,425.53191
1,Aguiarnópolis/TO,-6.5600452,-47.4721189,335,4975.49384
D1,Aguiarnópolis/TO,-6.5600452,-47.4721189,6,89.11332
1,Aimorés/MG,-19.4917754,-41.0615603,242,961.57667
D1,Aimorés/MG,-19.4917754,-41.0615603,1,3.97346
1,Aiquara/BA,-14.126918,-39.8887574,131,2946.46874
D1,Aiquara/BA,-14.126918,-39.8887574,3,67.47638
1,Aiuaba/CE,-6.5710836,-40.1212278,17,97.70676
D1,Aiuaba/CE,-6.5710836,-40.1212278,1,5.74746
1,Aiuruoca/MG,-21.9759554,-44.6036637,1,16.65834
1,Ajuricaba/RS,-28.239654,-53.7693013,7,99.65831
1,Alagoa Grande/PB,-7.0415212,-35.6285322,858,3010.94891
D1,Alagoa Grande/PB,-7.0415212,-35.6285322,18,63.16676
1,Alagoa Nova/PB,-7.0653703,-35.76695977336711,266,1275.84057
D1,Alagoa Nova/PB,-7.0653703,-35.76695977336711,7,33.57475
1,Alagoinha do Piauí/PI,-7.0090952,-40.939675,62,810.35159
D1,Alagoinha do Piauí/PI,-7.0090952,-40.939675,1,13.07019
1,Alagoinha/PB,-6.97063215,-35.51490901897793,859,5928.63552
D1,Alagoinha/PB,-6.97063215,-35.51490901897793,7,48.31251
1,Alagoinha/PE,-8.50355635,-36.77701174370496,142,970.21044
D1,Alagoinha/PE,-8.50355635,-36.77701174370496,3,20.49740
1,Alagoinhas/BA,-12.133526,-38.420772,2690,1774.45315
D1,Alagoinhas/BA,-12.133526,-38.420772,32,21.10874
1,Alambari/SP,-23.550338,-47.897971,41,680.49793
1,Albertina/MG,-20.66164,-43.784039,8,266.04589
1,Alcantil/PB,-7.7425491,-36.0609604,57,1037.87327
1,Alcinópolis/MS,-18.3264121,-53.7094463,6,112.29646
D1,Alcinópolis/MS,-18.3264121,-53.7094463,2,37.43215
1,Alcobaça/BA,-17.5215875,-39.1965474,336,1495.32710
D1,Alcobaça/BA,-17.5215875,-39.1965474,3,13.35113
1,Alcântara/MA,-2.4038956,-44.4154241,40,181.02005
D1,Alcântara/MA,-2.4038956,-44.4154241,6,27.15301
1,Alcântaras/CE,-3.586247,-40.5457641,403,3440.32781
D1,Alcântaras/CE,-3.586247,-40.5457641,3,25.61038
1,Aldeias Altas/MA,-4.6291957,-43.4708622,709,2672.24484
D1,Aldeias Altas/MA,-4.6291957,-43.4708622,1,3.76903
1,Alecrim/RS,-27.6566142,-54.7653195,12,201.68067
1,Alegre/ES,-20.7625787,-41.5318886,277,920.75522
D1,Alegre/ES,-20.7625787,-41.5318886,15,49.86039
1,Alegrete do Piauí/PI,-7.2440138,-40.8602296,48,976.60224
1,Alegrete/RS,-29.790166,-55.794862,351,476.97346
D1,Alegrete/RS,-29.790166,-55.794862,12,16.30678
1,Alegria/RS,-27.8332103,-54.0574959,20,577.36721
1,Alenquer/PA,-1.946229,-54.738355,1141,2009.19192
D1,Alenquer/PA,-1.946229,-54.738355,26,45.78351
1,Alexandria/RN,-6.414779,-38.0135516,45,331.44288
D1,Alexandria/RN,-6.414779,-38.0135516,4,29.46159
1,Alexânia/GO,-16.0834049,-48.5077803,511,1847.90077
D1,Alexânia/GO,-16.0834049,-48.5077803,8,28.92995
1,Alfenas/MG,-21.4297405,-45.9479419,379,473.77369
D1,Alfenas/MG,-21.4297405,-45.9479419,22,27.50138
1,Alfredo Chaves/ES,-20.624970400000002,-40.75006690147988,310,2123.14225
D1,Alfredo Chaves/ES,-20.624970400000002,-40.75006690147988,5,34.24423
1,Alfredo Marcondes/SP,-21.9527,-51.413956,34,816.13058
D1,Alfredo Marcondes/SP,-21.9527,-51.413956,1,24.00384
1,Alfredo Vasconcelos/MG,-21.145833,-43.776389,13,188.21485
D1,Alfredo Vasconcelos/MG,-21.145833,-43.776389,1,14.47807
1,Alfredo Wagner/SC,-27.6961513,-49.3326734,100,996.41291
1,Algodão de Jandaíra/PB,-6.9040175,-36.0089879,12,467.47176
1,Alhandra/PB,-7.4304246,-34.9106103,601,3068.20502
D1,Alhandra/PB,-7.4304246,-34.9106103,16,81.68266
1,Aliança do Tocantins/TO,-11.3055927,-48.9409096,31,575.13915
1,Aliança/PE,-7.60398,-35.222696,334,870.10889
D1,Aliança/PE,-7.60398,-35.222696,25,65.12791
1,Almadina/BA,-14.70466,-39.6381994,237,4337.48170
D1,Almadina/BA,-14.70466,-39.6381994,2,36.60322
1,Almas/TO,-11.5681309,-47.1702803,32,453.57902
D1,Almas/TO,-11.5681309,-47.1702803,2,28.34869
1,Almeirim/PA,-1.5290377,-52.5788111,225,659.64995
D1,Almeirim/PA,-1.5290377,-52.5788111,18,52.77200
1,Almenara/MG,-16.1740678,-40.6904907,539,1286.51900
D1,Almenara/MG,-16.1740678,-40.6904907,9,21.48176
1,Almino Afonso/RN,-6.1544208,-37.7649018,19,401.26716
1,Almirante Tamandaré do Sul/RS,-28.1141129,-52.9134874,4,203.66599
1,Almirante Tamandaré/PR,-25.3133048,-49.2997838,1030,868.29704
D1,Almirante Tamandaré/PR,-25.3133048,-49.2997838,24,20.23216
1,Aloândia/GO,-17.7277983,-49.4809338,14,701.75439
D1,Aloândia/GO,-17.7277983,-49.4809338,1,50.12531
1,Alpercata/MG,-18.9803616,-41.9827637,155,2087.82328
D1,Alpercata/MG,-18.9803616,-41.9827637,5,67.34914
1,Alpestre/RS,-27.2512339,-53.0349646,25,399.48865
1,Alpinópolis/MG,-20.863611,-46.387777,61,307.25835
D1,Alpinópolis/MG,-20.863611,-46.387777,3,15.11107
1,Alta Floresta D'Oeste/RO,-11.9296917,-61.9961284,388,1691.00022
D1,Alta Floresta D'Oeste/RO,-11.9296917,-61.9961284,3,13.07474
1,Alta Floresta/MT,-9.8715018,-56.0839881,603,1164.49732
D1,Alta Floresta/MT,-9.8715018,-56.0839881,15,28.96759
1,Altair/SP,-20.5238955,-49.0606135,24,576.92308
D1,Altair/SP,-20.5238955,-49.0606135,1,24.03846
1,Altamira do Maranhão/MA,-4.1643006,-45.4674574,250,3075.78740
D1,Altamira do Maranhão/MA,-4.1643006,-45.4674574,5,61.51575
1,Altamira do Paraná/PR,-24.799114,-52.7128633,7,360.45314
1,Altamira/PA,-3.204065,-52.209961,3512,3064.73288
D1,Altamira/PA,-3.204065,-52.209961,102,89.00990
1,Altaneira/CE,-6.9980933,-39.7385742,8,105.45742
1,Alterosa/MG,-21.249166,-46.143055,13,89.86589
D1,Alterosa/MG,-21.249166,-46.143055,1,6.91276
1,Altinho/PE,-8.4904095,-36.0607494,382,1662.89396
D1,Altinho/PE,-8.4904095,-36.0607494,7,30.47188
1,Altinópolis/SP,-21.021364,-47.3712,144,889.76767
D1,Altinópolis/SP,-21.021364,-47.3712,6,37.07365
1,Alto Alegre do Maranhão/MA,-4.2055693,-44.4525287,323,1193.95261
D1,Alto Alegre do Maranhão/MA,-4.2055693,-44.4525287,11,40.66092
1,Alto Alegre do Pindaré/MA,-3.6698186,-45.8462153,1288,4035.21414
D1,Alto Alegre do Pindaré/MA,-3.6698186,-45.8462153,10,31.32930
1,Alto Alegre dos Parecis/RO,-12.1314515,-61.856265,139,1049.76965
D1,Alto Alegre dos Parecis/RO,-12.1314515,-61.856265,4,30.20920
1,Alto Alegre/RR,2.98858,-61.307167,431,2778.85235
D1,Alto Alegre/RR,2.98858,-61.307167,11,70.92199
1,Alto Alegre/RS,-31.780844700000003,-52.81311114489171,1,61.05006
1,Alto Alegre/SP,-21.5820592,-50.1661976,33,805.07441
D1,Alto Alegre/SP,-21.5820592,-50.1661976,1,24.39619
1,Alto Araguaia/MT,-17.3156528,-53.2169365,134,703.63369
D1,Alto Araguaia/MT,-17.3156528,-53.2169365,3,15.75299
1,Alto Bela Vista/SC,-27.4320737,-51.905771,10,516.26226
1,Alto Boa Vista/MT,-11.6723985,-51.3744431,63,923.48285
D1,Alto Boa Vista/MT,-11.6723985,-51.3744431,3,43.97537
1,Alto Caparaó/MG,-20.4405661,-41.8683799,12,205.23345
1,Alto Feliz/RS,-29.3785943,-51.3123751,15,495.37649
1,Alto Garças/MT,-16.9469683,-53.529427,164,1363.25852
D1,Alto Garças/MT,-16.9469683,-53.529427,4,33.25021
1,Alto Horizonte/GO,-14.1954948,-49.3366993,81,1262.86249
1,Alto Jequitibá/MG,-20.423611,-41.966111,46,553.08404
D1,Alto Jequitibá/MG,-20.423611,-41.966111,3,36.07070
1,Alto Longá/PI,-5.2549051,-42.2072388,88,615.21253
D1,Alto Longá/PI,-5.2549051,-42.2072388,2,13.98210
1,Alto Paraguai/MT,-14.513712,-56.4936374,81,713.27932
D1,Alto Paraguai/MT,-14.513712,-56.4936374,1,8.80592
1,Alto Paraná/PR,-23.131247,-52.318893,32,216.65538
1,Alto Paraíso de Goiás/GO,-14.1304779,-47.5100161,84,1101.78384
1,Alto Paraíso/PR,-23.508137,-53.728537,1,36.48304
1,Alto Paraíso/RO,-9.7240103,-63.3188123,214,998.69330
D1,Alto Paraíso/RO,-9.7240103,-63.3188123,4,18.66716
1,Alto Parnaíba/MA,-9.112506,-45.9310154,122,1090.25916
D1,Alto Parnaíba/MA,-9.112506,-45.9310154,1,8.93655
1,Alto Piquiri/PR,-24.0239021,-53.4417448,67,681.17121
D1,Alto Piquiri/PR,-24.0239021,-53.4417448,4,40.66694
1,Alto Rio Doce/MG,-21.0239537,-43.4133507,59,536.36364
D1,Alto Rio Doce/MG,-21.0239537,-43.4133507,1,9.09091
1,Alto Rio Novo/ES,-19.0577208,-41.0171518,148,1888.71873
D1,Alto Rio Novo/ES,-19.0577208,-41.0171518,8,102.09290
1,Alto Santo/CE,-5.5190371,-38.2719351,268,1563.04677
D1,Alto Santo/CE,-5.5190371,-38.2719351,6,34.99358
1,Alto Taquari/MT,-17.8269099,-53.2831736,96,885.03734
D1,Alto Taquari/MT,-17.8269099,-53.2831736,5,46.09569
1,Alto do Rodrigues/RN,-5.290868,-36.7616726,330,2271.31943
D1,Alto do Rodrigues/RN,-5.290868,-36.7616726,12,82.59343
1,Altos/PI,-5.0393915,-42.4611694,1073,2647.81364
D1,Altos/PI,-5.0393915,-42.4611694,13,32.07976
1,Altônia/PR,-23.8722004,-53.894037,68,308.30613
D1,Altônia/PR,-23.8722004,-53.894037,1,4.53391
1,Alumínio/SP,-23.5203479,-47.2575256,120,644.19154
D1,Alumínio/SP,-23.5203479,-47.2575256,6,32.20958
1,Alvarenga/MG,-19.4175,-41.728334,116,2969.02995
D1,Alvarenga/MG,-19.4175,-41.728334,1,25.59509
1,Alvarães/AM,-3.214786,-64.8143124,1196,7455.89427
D1,Alvarães/AM,-3.214786,-64.8143124,13,81.04233
1,Alvinlândia/SP,-22.4431852,-49.7643596,21,651.76909
1,Alvinópolis/MG,-20.1105199,-43.0601805,27,177.59653
1,Alvorada D'Oeste/RO,-11.346271,-62.284697,80,555.13150
D1,Alvorada D'Oeste/RO,-11.346271,-62.284697,3,20.81743
1,Alvorada de Minas/MG,-18.7318587,-43.3641479,47,1303.38325
D1,Alvorada de Minas/MG,-18.7318587,-43.3641479,1,27.73156
1,Alvorada do Gurguéia/PI,-8.4465288,-43.8655915,40,738.14357
D1,Alvorada do Gurguéia/PI,-8.4465288,-43.8655915,2,36.90718
1,Alvorada do Norte/GO,-14.483911,-46.4959897,132,1524.24942
1,Alvorada do Sul/PR,-22.7807269,-51.2307721,28,245.48483
D1,Alvorada do Sul/PR,-22.7807269,-51.2307721,2,17.53463
1,Alvorada/RS,-29.9981184,-51.0772509,1824,867.31176
D1,Alvorada/RS,-29.9981184,-51.0772509,72,34.23599
1,Alvorada/TO,-12.478465,-49.124926,322,3827.86495
D1,Alvorada/TO,-12.478465,-49.124926,3,35.66334
1,Além Paraíba/MG,-21.8760576,-42.6810473,311,879.47514
D1,Além Paraíba/MG,-21.8760576,-42.6810473,11,31.10684
1,Amajari/RR,3.6523869,-61.4194315,265,2070.95967
D1,Amajari/RR,3.6523869,-61.4194315,6,46.88965
1,Amambai/MS,-23.1082701,-55.2284854,104,263.98619
D1,Amambai/MS,-23.1082701,-55.2284854,3,7.61499
1,Amaporã/PR,-23.094272,-52.786597,24,383.57040
1,Amapá do Maranhão/MA,-1.6762114,-46.0109669,3,43.09107
1,Amapá/AP,2.0529997,-50.7930003,438,4808.43122
D1,Amapá/AP,2.0529997,-50.7930003,4,43.91261
1,Amaraji/PE,-8.373925,-35.4536527,143,626.39625
D1,Amaraji/PE,-8.373925,-35.4536527,22,96.36865
1,Amaralina/GO,-13.9236199,-49.2962411,2,52.46590
1,Amarante do Maranhão/MA,-5.56913,-46.747284,797,1923.49463
D1,Amarante do Maranhão/MA,-5.56913,-46.747284,15,36.20128
1,Amarante/PI,-6.2459374,-42.8476238,189,1073.98568
D1,Amarante/PI,-6.2459374,-42.8476238,5,28.41232
1,Amargosa/BA,-13.03793715,-39.60796443875596,245,657.87707
D1,Amargosa/BA,-13.03793715,-39.60796443875596,7,18.79649
1,Amaturá/AM,-3.3640509,-68.1994689,546,4733.00971
D1,Amaturá/AM,-3.3640509,-68.1994689,8,69.34813
1,Americana/SP,-22.7392463,-47.3306032,2898,1209.53100
D1,Americana/SP,-22.7392463,-47.3306032,96,40.06728
1,Americano do Brasil/GO,-16.2515808,-49.9806104,111,1816.39666
D1,Americano do Brasil/GO,-16.2515808,-49.9806104,1,16.36393
1,Ametista do Sul/RS,-27.3617341,-53.1826575,45,607.36942
1,Amontada/CE,-3.3634586,-39.8284791,751,1728.34392
D1,Amontada/CE,-3.3634586,-39.8284791,16,36.82224
1,Amorinópolis/GO,-16.6211308,-51.0949921,16,511.83621
1,Amparo de São Francisco/SE,-10.1299754,-36.9269099,69,2906.48694
1,Amparo do Serra/MG,-20.5070255,-42.8028462,10,212.17908
1,Amparo/PB,-7.56394725,-37.04652873235175,17,759.60679
1,Amparo/SP,-22.70111,-46.76444,555,768.75130
D1,Amparo/SP,-22.70111,-46.76444,18,24.93247
1,Ampére/PR,-25.9168712,-53.4742414,56,292.39766
D1,Ampére/PR,-25.9168712,-53.4742414,2,10.44277
1,Amélia Rodrigues/BA,-12.4015388,-38.7516971,233,928.21289
D1,Amélia Rodrigues/BA,-12.4015388,-38.7516971,2,7.96749
1,América Dourada/BA,-11.4515262,-41.4357517,90,559.21461
1,Américo Brasiliense/SP,-21.7297099,-48.1052092,302,745.60537
D1,Américo Brasiliense/SP,-21.7297099,-48.1052092,4,9.87557
1,Américo de Campos/SP,-20.298476,-49.735904,167,2797.78857
D1,Américo de Campos/SP,-20.298476,-49.735904,1,16.75322
1,Anadia/AL,-9.6830208,-36.3052699,425,2422.34255
D1,Anadia/AL,-9.6830208,-36.3052699,6,34.19778
1,Anagé/BA,-14.6134669,-41.1376308,72,327.19836
D1,Anagé/BA,-14.6134669,-41.1376308,1,4.54442
1,Anahy/PR,-24.6450861,-53.1337957,22,785.43377
1,Anajatuba/MA,-3.26441,-44.6179916,320,1193.89621
D1,Anajatuba/MA,-3.26441,-44.6179916,8,29.84741
1,Anajás/PA,-0.9878802,-49.9390114,543,1854.69823
D1,Anajás/PA,-0.9878802,-49.9390114,12,40.98781
1,Analândia/SP,-22.128917,-47.661939,32,640.64064
1,Anamã/AM,-3.5797356,-61.4049996,606,4451.30013
1,Ananindeua/PA,-1.374035,-48.4016623,6256,1179.04704
D1,Ananindeua/PA,-1.374035,-48.4016623,348,65.58638
1,Ananás/TO,-6.3663053,-48.080238,129,1350.92680
D1,Ananás/TO,-6.3663053,-48.080238,6,62.83380
1,Anapu/PA,-3.4668292,-51.2057035,667,2391.53819
D1,Anapu/PA,-3.4668292,-51.2057035,16,57.36823
1,Anapurus/MA,-3.6751298,-43.1046001,694,4411.39080
D1,Anapurus/MA,-3.6751298,-43.1046001,6,38.13883
1,Anastácio/MS,-20.4832458,-55.8048448,227,903.12314
D1,Anastácio/MS,-20.4832458,-55.8048448,6,23.87110
1,Anaurilândia/MS,-22.185169,-52.719056,32,354.17820
1,Anchieta/ES,-20.8057672,-40.6454564,648,2214.40044
D1,Anchieta/ES,-20.8057672,-40.6454564,19,64.92841
1,Anchieta/SC,-26.5350527,-53.3293938,24,425.68287
D1,Anchieta/SC,-26.5350527,-53.3293938,1,17.73679
1,Andaraí/BA,-12.8059674,-41.3322919,26,197.82394
1,Andirá/PR,-23.0494761,-50.2310027,140,698.91668
D1,Andirá/PR,-23.0494761,-50.2310027,1,4.99226
1,Andorinha/BA,-10.3445708,-39.8334411,46,315.17643
D1,Andorinha/BA,-10.3445708,-39.8334411,1,6.85166
1,Andradas/MG,-22.0680484,-46.5688976,139,338.38888
D1,Andradas/MG,-22.0680484,-46.5688976,5,12.17226
1,Andradina/SP,-20.896505,-51.3742765,235,411.14824
D1,Andradina/SP,-20.896505,-51.3742765,6,10.49740
1,Andrelândia/MG,-21.739722,-44.308889,49,400.85079
1,André da Rocha/RS,-28.6309124,-51.5733328,14,1050.26257
1,Angatuba/SP,-23.4938938,-48.4110675,204,808.62534
D1,Angatuba/SP,-23.4938938,-48.4110675,4,15.85540
1,Angelim/PE,-8.8902038,-36.2872987,41,367.71300
D1,Angelim/PE,-8.8902038,-36.2872987,1,8.96861
1,Angelina/SC,-27.5805287,-48.9838759,61,1270.56863
1,Angelândia/MG,-17.7253,-42.2728,12,140.84507
1,Angical do Piauí/PI,-6.0872666,-42.7366138,71,1045.96346
D1,Angical do Piauí/PI,-6.0872666,-42.7366138,2,29.46376
1,Angical/BA,-12.005623,-44.7000236,37,264.72061
1,Angico/TO,-6.3893733,-47.8656722,32,932.12933
1,Angicos/RN,-5.6666344,-36.6009064,89,759.77463
D1,Angicos/RN,-5.6666344,-36.6009064,4,34.14717
1,Angra dos Reis/RJ,-23.0063966,-44.316326,4142,2032.53429
D1,Angra dos Reis/RJ,-23.0063966,-44.316326,127,62.32058
1,Anguera/BA,-12.1509425,-39.2452469,52,463.41681
1,Angélica/MS,-22.1588196,-53.7728504,48,445.26902
D1,Angélica/MS,-22.1588196,-53.7728504,3,27.82931
1,Anhanguera/GO,-18.3338749,-48.220363,13,1131.41862
D1,Anhanguera/GO,-18.3338749,-48.220363,3,261.09661
1,Anhembi/SP,-22.7891096,-48.1316776,12,178.46520
1,Anhumas/SP,-22.2956478,-51.3873401,23,558.93074
1,Anicuns/GO,-16.4606451,-49.9572265,370,1693.36384
D1,Anicuns/GO,-16.4606451,-49.9572265,2,9.15332
1,Anita Garibaldi/SC,-27.6855032,-51.1293873,134,1878.59246
D1,Anita Garibaldi/SC,-27.6855032,-51.1293873,1,14.01935
1,Anitápolis/SC,-27.9041185,-49.1287395,36,1113.86139
1,Anori/AM,-3.7435254,-61.6605203,715,3403.14136
D1,Anori/AM,-3.7435254,-61.6605203,11,52.35602
1,Anta Gorda/RS,-28.9718745,-52.0069187,36,601.90604
1,Antas/BA,-10.4114649,-38.3308815,113,585.76538
1,Antonina do Norte/CE,-6.7754187,-39.9879345,13,176.79859
1,Antonina/PR,-25.4298854,-48.7125431,192,1011.59115
D1,Antonina/PR,-25.4298854,-48.7125431,4,21.07482
1,Antônio Almeida/PI,-7.2186016,-44.1950248,185,5847.02908
D1,Antônio Almeida/PI,-7.2186016,-44.1950248,1,31.60556
1,Antônio Cardoso/BA,-12.4363122,-39.1200307,40,342.37781
1,Antônio Carlos/MG,-21.318334,-43.746666,23,200.96112
1,Antônio Carlos/SC,-27.5168462,-48.7684715,220,2584.28286
D1,Antônio Carlos/SC,-27.5168462,-48.7684715,11,129.21414
1,Antônio Dias/MG,-19.6525,-42.872778,59,633.18309
D1,Antônio Dias/MG,-19.6525,-42.872778,1,10.73192
1,Antônio Gonçalves/BA,-10.5715409,-40.2748824,133,1127.30971
D1,Antônio Gonçalves/BA,-10.5715409,-40.2748824,1,8.47601
1,Antônio João/MS,-22.1892837,-55.9508227,51,569.45065
1,Antônio Martins/RN,-6.2155812,-37.8890129,4,55.98321
D1,Antônio Martins/RN,-6.2155812,-37.8890129,1,13.99580
1,Antônio Olinto/PR,-25.9849006,-50.1974516,11,147.96879
1,Antônio Prado/RS,-28.8567806,-51.2801355,110,842.91188
D1,Antônio Prado/RS,-28.8567806,-51.2801355,2,15.32567
1,Anápolis/GO,-16.3332828,-48.9525756,3710,958.84711
D1,Anápolis/GO,-16.3332828,-48.9525756,123,31.78927
1,Anísio de Abreu/PI,-9.185643,-43.04941,94,951.41700
1,Aparecida d'Oeste/SP,-20.4498109,-50.8808706,24,571.97331
1,Aparecida de Goiânia/GO,-16.8226769,-49.2452546,14677,2538.48722
D1,Aparecida de Goiânia/GO,-16.8226769,-49.2452546,256,44.27695
1,Aparecida do Rio Doce/GO,-18.2980167,-51.1491312,41,1657.23525
D1,Aparecida do Rio Doce/GO,-18.2980167,-51.1491312,2,80.84074
1,Aparecida do Rio Negro/TO,-9.9513491,-47.9773786,17,354.53597
1,Aparecida do Taboado/MS,-20.0840304,-51.1013943,212,823.46087
D1,Aparecida do Taboado/MS,-20.0840304,-51.1013943,6,23.30550
1,Aparecida/PB,-6.7859598, -38.0831353,70,838.62466
D1,Aparecida/PB,-6.7859598, -38.0831353,1,11.98035
1,Aparecida/SP,-22.851552,-45.2340924,169,467.40603
D1,Aparecida/SP,-22.851552,-45.2340924,2,5.53143
1,Aperibé/RJ,-21.6211928,-42.1028167,166,1411.68467
D1,Aperibé/RJ,-21.6211928,-42.1028167,6,51.02475
1,Apiacá/ES,-21.152272,-41.569297,99,1308.31241
D1,Apiacá/ES,-21.152272,-41.569297,2,26.43055
1,Apiacás/MT,-9.5678422,-57.394852,17,167.76868
D1,Apiacás/MT,-9.5678422,-57.394852,1,9.86875
1,Apiaí/SP,-24.5076527,-48.8461582,86,352.83499
D1,Apiaí/SP,-24.5076527,-48.8461582,5,20.51366
1,Apicum-Açu/MA,-1.5279295,-45.082278,197,1142.75770
D1,Apicum-Açu/MA,-1.5279295,-45.082278,3,17.40240
1,Apiúna/SC,-27.0374658,-49.3885037,46,428.18580
D1,Apiúna/SC,-27.0374658,-49.3885037,1,9.30839
1,Apodi/RN,-5.6631109,-37.796927,1393,3886.17659
D1,Apodi/RN,-5.6631109,-37.796927,21,58.58558
1,Aporá/BA,-11.6599747,-38.0794757,97,547.06446
D1,Aporá/BA,-11.6599747,-38.0794757,2,11.27968
1,Aporé/GO,-18.9642193,-51.92804,2,47.64173
D1,Aporé/GO,-18.9642193,-51.92804,1,23.82087
1,Apuarema/BA,-13.8517897,-39.7457126,208,2837.65348
D1,Apuarema/BA,-13.8517897,-39.7457126,1,13.64256
1,Apucarana/PR,-23.5525327,-51.4610764,420,311.12033
D1,Apucarana/PR,-23.5525327,-51.4610764,22,16.29678
1,Apuiarés/CE,-3.9460303,-39.4313298,195,1335.61644
D1,Apuiarés/CE,-3.9460303,-39.4313298,11,75.34247
1,Apuí/AM,-7.1940195,-59.8830192,126,573.43103
1,Aquidabã/SE,-10.2837579,-37.0188687,484,2244.58563
D1,Aquidabã/SE,-10.2837579,-37.0188687,11,51.01331
1,Aquidauana/MS,-20.473969,-55.7821375,854,1783.96106
D1,Aquidauana/MS,-20.473969,-55.7821375,24,50.13474
1,Aquiraz/CE,-3.9063117,-38.387504,899,1119.95615
D1,Aquiraz/CE,-3.9063117,-38.387504,30,37.37340
1,Arabutã/SC,-27.1587028,-52.1438142,56,1312.39747
1,Aracaju/SE,-10.9162061,-37.0774655,31139,4739.48004
D1,Aracaju/SE,-10.9162061,-37.0774655,630,95.88851
1,Aracati/CE,-4.558259,-37.767894,1420,1904.83856
D1,Aracati/CE,-4.558259,-37.767894,48,64.38891
1,Aracatu/BA,-14.4274236,-41.4604105,24,182.71793
1,Araci/BA,-11.3356065,-38.9573261,773,1421.50462
D1,Araci/BA,-11.3356065,-38.9573261,6,11.03367
1,Aracitaba/MG,-21.3425,-43.378611,2,96.94619
1,Aracoiaba/CE,-4.3702577,-38.8084313,713,2693.71718
D1,Aracoiaba/CE,-4.3702577,-38.8084313,13,49.11406
1,Aracruz/ES,-19.8245218,-40.2735025,2803,2769.21557
D1,Aracruz/ES,-19.8245218,-40.2735025,61,60.26477
1,Aragarças/GO,-15.8957166,-52.2514538,435,2162.24277
D1,Aragarças/GO,-15.8957166,-52.2514538,10,49.70673
1,Aragoiânia/GO,-16.9146388,-49.4499148,144,1396.97322
D1,Aragoiânia/GO,-16.9146388,-49.4499148,2,19.40241
1,Aragominas/TO,-7.1654101,-48.525488,77,1337.26989
D1,Aragominas/TO,-7.1654101,-48.525488,2,34.73428
1,Araguacema/TO,-8.8067391,-49.5560969,9,127.01101
1,Araguaiana/MT,-15.729144,-51.834112,22,709.67742
1,Araguainha/MT,-16.857016,-53.031778,2,213.90374
1,Araguanã/MA,-2.9508403,-45.6651986,480,3111.62972
D1,Araguanã/MA,-2.9508403,-45.6651986,2,12.96512
1,Araguanã/TO,-6.5799107,-48.6428482,78,1361.49415
D1,Araguanã/TO,-6.5799107,-48.6428482,3,52.36516
1,Araguapaz/GO,-15.0937927,-50.626417,84,1081.08108
D1,Araguapaz/GO,-15.0937927,-50.626417,2,25.74003
1,Araguari/MG,-18.6511256,-48.1933764,1840,1569.06888
D1,Araguari/MG,-18.6511256,-48.1933764,50,42.63774
1,Araguatins/TO,-5.6522925,-48.1158973,474,1325.46629
D1,Araguatins/TO,-5.6522925,-48.1158973,20,55.92685
1,Araguaçu/TO,-12.928934,-49.823134,272,3193.61277
D1,Araguaçu/TO,-12.928934,-49.823134,4,46.96489
1,Araguaína/TO,-7.193241,-48.2018597,8771,4860.08755
D1,Araguaína/TO,-7.193241,-48.2018597,119,65.93894
1,Araioses/MA,-2.890914,-41.904993,536,1154.17743
D1,Araioses/MA,-2.890914,-41.904993,10,21.53316
1,Aral Moreira/MS,-22.951141,-55.6268421,31,255.16503
D1,Aral Moreira/MS,-22.951141,-55.6268421,1,8.23113
1,Aramari/BA,-12.0907897,-38.4985065,97,851.10117
1,Arambaré/RS,-30.9132252,-51.4994625,12,335.10193
D1,Arambaré/RS,-30.9132252,-51.4994625,1,27.92516
1,Arame/MA,-4.8858769,-46.0102484,693,2119.20125
D1,Arame/MA,-4.8858769,-46.0102484,7,21.40607
1,Aramina/SP,-20.0876144,-47.789201,54,960.85409
D1,Aramina/SP,-20.0876144,-47.789201,1,17.79359
1,Arandu/SP,-23.1345103,-49.0545651,24,377.53657
D1,Arandu/SP,-23.1345103,-49.0545651,2,31.46138
1,Arantina/MG,-21.911667,-44.255833,7,250.44723
D1,Arantina/MG,-21.911667,-44.255833,1,35.77818
1,Arapeí/SP,-22.6738889,-44.4477778,3,121.50668
D1,Arapeí/SP,-22.6738889,-44.4477778,1,40.50223
1,Arapiraca/AL,-9.754866,-36.661471,9486,4093.25687
D1,Arapiraca/AL,-9.754866,-36.661471,120,51.78061
1,Arapoema/TO,-7.6575001,-49.0641484,35,526.87039
D1,Arapoema/TO,-7.6575001,-49.0641484,2,30.10688
1,Araponga/MG,-20.666667,-42.520556,1,11.84975
1,Arapongas/PR,-23.415296,-51.42592,1523,1237.93964
D1,Arapongas/PR,-23.415296,-51.42592,59,47.95695
1,Araporã/MG,-18.4318188,-49.188313,230,3348.37677
D1,Araporã/MG,-18.4318188,-49.188313,3,43.67448
1,Arapoti/PR,-24.1457957,-49.8224605,150,533.52303
D1,Arapoti/PR,-24.1457957,-49.8224605,1,3.55682
1,Araputanga/MT,-15.4710868,-58.346796,293,1741.76673
D1,Araputanga/MT,-15.4710868,-58.346796,4,23.77839
1,Arapuá/MG,-19.034444,-46.155556,17,599.85886
1,Arapuã/PR,-24.3079525,-51.7901941,26,847.45763
D1,Arapuã/PR,-24.3079525,-51.7901941,1,32.59452
1,Araquari/SC,-26.3703324,-48.7210994,560,1468.69837
D1,Araquari/SC,-26.3703324,-48.7210994,6,15.73605
1,Arara/PB,-6.8271895,-35.7605703,196,1455.08537
D1,Arara/PB,-6.8271895,-35.7605703,4,29.69562
1,Araranguá/SC,-28.9348832,-49.4858389,1213,1777.86246
D1,Araranguá/SC,-28.9348832,-49.4858389,23,33.71050
1,Araraquara/SP,-21.7886713,-48.1773096,2577,1091.61612
D1,Araraquara/SP,-21.7886713,-48.1773096,21,8.89559
1,Araras/SP,-22.3569477,-47.3838889,1920,1430.31676
D1,Araras/SP,-22.3569477,-47.3838889,45,33.52305
1,Ararendá/CE,-4.7504395,-40.8303611,41,374.94284
D1,Ararendá/CE,-4.7504395,-40.8303611,2,18.28989
1,Arari/MA,-3.4547602,-44.7772723,194,649.95980
D1,Arari/MA,-3.4547602,-44.7772723,7,23.45216
1,Araricá/RS,-29.6168543,-50.929121,45,789.75079
D1,Araricá/RS,-29.6168543,-50.929121,3,52.65005
1,Araripe/CE,-7.212861,-40.1359222,184,851.85185
D1,Araripe/CE,-7.212861,-40.1359222,2,9.25926
1,Araripina/PE,-7.5768582,-40.5038509,1007,1192.87356
D1,Araripina/PE,-7.5768582,-40.5038509,27,31.98370
1,Araruama/RJ,-22.8733203,-42.3428897,814,614.80363
D1,Araruama/RJ,-22.8733203,-42.3428897,48,36.25378
1,Araruna/PB,-6.5321155,-35.7397595,227,1117.56597
D1,Araruna/PB,-6.5321155,-35.7397595,7,34.46239
1,Araruna/PR,-23.9320308,-52.4976047,108,773.08518
D1,Araruna/PR,-23.9320308,-52.4976047,7,50.10737
1,Arataca/BA,-15.2617424,-39.4122943,118,1070.87758
D1,Arataca/BA,-15.2617424,-39.4122943,1,9.07523
1,Aratiba/RS,-27.3955734,-52.3024325,30,481.15477
D1,Aratiba/RS,-27.3955734,-52.3024325,1,16.03849
1,Aratuba/CE,-4.4195958,-39.0463737,190,1603.78155
D1,Aratuba/CE,-4.4195958,-39.0463737,1,8.44096
1,Aratuípe/BA,-13.077137,-39.0010786,60,679.88669
D1,Aratuípe/BA,-13.077137,-39.0010786,4,45.32578
1,Araucária/PR,-25.5861107,-49.4051209,2121,1474.52431
D1,Araucária/PR,-25.5861107,-49.4051209,34,23.63688
1,Arauá/SE,-11.2644014,-37.6181058,288,2863.96181
D1,Arauá/SE,-11.2644014,-37.6181058,7,69.61018
1,Araxá/MG,-19.5928536,-46.940241,656,617.53382
D1,Araxá/MG,-19.5928536,-46.940241,13,12.23771
1,Araçagi/PB,-6.8519969,-35.3835602,482,2837.46394
D1,Araçagi/PB,-6.8519969,-35.3835602,4,23.54742
1,Araçariguama/SP,-23.438611,-47.061389,228,1019.49562
D1,Araçariguama/SP,-23.438611,-47.061389,5,22.35736
1,Araças/BA,-12.2139176,-38.2026159,65,533.79322
D1,Araças/BA,-12.2139176,-38.2026159,1,8.21220
1,Araçatuba/SP,-21.207992,-50.4390225,4729,2400.31266
D1,Araçatuba/SP,-21.207992,-50.4390225,104,52.78759
1,Araçaí/MG,-19.200833,-44.2475,4,170.43034
1,Araçoiaba da Serra/SP,-23.5045367,-47.6168158,473,1385.22814
D1,Araçoiaba da Serra/SP,-23.5045367,-47.6168158,9,26.35741
1,Araçoiaba/PE,-7.7856903,-35.0898881,96,467.74508
D1,Araçoiaba/PE,-7.7856903,-35.0898881,11,53.59579
1,Araçu/GO,-16.3561579,-49.6815269,19,539.46621
1,Araçuaí/MG,-16.8484451,-42.0661868,32,87.17446
1,Araújos/MG,-19.948055,-45.165556,21,226.46393
1,Arceburgo/MG,-21.364444,-46.939722,28,259.93316
1,Arco-Íris/SP,-21.7741308,-50.4668814,4,223.33892
1,Arcos/MG,-20.282223,-45.539444,202,503.84117
D1,Arcos/MG,-20.282223,-45.539444,3,7.48279
1,Arcoverde/PE,-8.415192,-37.057748,764,1027.73817
D1,Arcoverde/PE,-8.415192,-37.057748,32,43.04662
1,Areado/MG,-21.3582771,-46.1476688,2,13.27140
1,Areal/RJ,-22.2314922,-43.1056264,138,1097.67738
D1,Areal/RJ,-22.2314922,-43.1056264,3,23.86255
1,Arealva/SP,-22.0301906,-48.9111936,73,852.80374
D1,Arealva/SP,-22.0301906,-48.9111936,1,11.68224
1,Areia Branca/RN,-4.9506652,-37.1263312,735,2646.35990
D1,Areia Branca/RN,-4.9506652,-37.1263312,49,176.42399
1,Areia Branca/SE,-10.7591455,-37.3148072,600,3235.89688
D1,Areia Branca/SE,-10.7591455,-37.3148072,16,86.29058
1,Areia de Baraúnas/PB,-7.1233949,-36.9446216,10,469.92481
1,Areia/PB,-6.9680243,-35.6994783,379,1660.89662
D1,Areia/PB,-6.9680243,-35.6994783,3,13.14694
1,Areial/PB,-7.0501306,-35.9245244,48,685.91026
D1,Areial/PB,-7.0501306,-35.9245244,2,28.57959
1,Areias/SP,-22.5800929,-44.6975127,38,977.86927
1,Areiópolis/SP,-22.6758064,-48.6673653,47,422.32006
D1,Areiópolis/SP,-22.6758064,-48.6673653,3,26.95660
1,Arenápolis/MT,-14.4610369,-56.8432806,187,1946.49735
D1,Arenápolis/MT,-14.4610369,-56.8432806,3,31.22723
1,Arenópolis/GO,-16.3859286,-51.55937,15,574.27259
1,Argirita/MG,-21.612761,-42.8371922,5,183.35167
D1,Argirita/MG,-21.612761,-42.8371922,1,36.67033
1,Aricanduva/MG,-17.8678,-42.5569,1,19.11680
1,Arinos/MG,-15.917223,-46.106111,51,285.31469
1,Aripuanã/MT,-10.175806,-59.4439663,207,926.00877
D1,Aripuanã/MT,-10.175806,-59.4439663,7,31.31431
1,Ariquemes/RO,-9.9076522,-63.033069,3346,3102.08320
D1,Ariquemes/RO,-9.9076522,-63.033069,56,51.91771
1,Ariranha do Ivaí/PR,-24.3834527,-51.5876772,15,711.57495
D1,Ariranha do Ivaí/PR,-24.3834527,-51.5876772,1,47.43833
1,Ariranha/SP,-21.18716,-48.790418,81,837.81547
D1,Ariranha/SP,-21.18716,-48.790418,3,31.03020
1,Armazém/SC,-28.2624996,-49.0190126,165,1902.23657
D1,Armazém/SC,-28.2624996,-49.0190126,2,23.05741
1,Armação dos Búzios/RJ,-22.7597805,-41.8875267,341,1006.79067
D1,Armação dos Búzios/RJ,-22.7597805,-41.8875267,11,32.47712
1,Arneiroz/CE,-6.3235099,-40.1603859,41,522.95918
D1,Arneiroz/CE,-6.3235099,-40.1603859,2,25.51020
1,Aroazes/PI,-6.1108814,-41.7886137,42,719.79434
D1,Aroazes/PI,-6.1108814,-41.7886137,2,34.27592
1,Aroeiras do Itaim/PI,-7.2797031,-41.5629681,24,940.80753
1,Aroeiras/PB,-7.5462904,-35.7080002,201,1049.44395
1,Arraial do Cabo/RJ,-22.9662839,-42.024427,135,444.82520
D1,Arraial do Cabo/RJ,-22.9662839,-42.024427,6,19.77001
1,Arraias/TO,-12.9287788,-46.9437231,27,255.51244
1,Arroio Grande/RS,-32.2384246,-53.0866661,29,158.53059
1,Arroio Trinta/SC,-26.9301976,-51.334928,45,1267.60563
1,Arroio do Meio/RS,-29.4020392,-51.9444993,294,1413.12185
1,Arroio do Sal/RS,-29.549852,-49.8874395,53,526.57725
D1,Arroio do Sal/RS,-29.549852,-49.8874395,3,29.80626
1,Arroio do Tigre/RS,-29.334158,-53.0888935,13,97.21080
1,Arroio dos Ratos/RS,-30.0894524,-51.7265541,69,487.59805
D1,Arroio dos Ratos/RS,-30.0894524,-51.7265541,7,49.46647
1,Artur Nogueira/SP,-22.572737,-47.172679,489,898.76489
D1,Artur Nogueira/SP,-22.572737,-47.172679,6,11.02779
1,Aruanã/GO,-14.9162439,-51.0715692,42,425.31646
1,Arujá/SP,-23.396266,-46.3175449,1347,1499.59922
D1,Arujá/SP,-23.396266,-46.3175449,66,73.47702
1,Arvoredo/SC,-27.0752908,-52.4571847,35,1562.50000
D1,Arvoredo/SC,-27.0752908,-52.4571847,1,44.64286
1,Arvorezinha/RS,-28.87369,-52.17808,27,259.01765
D1,Arvorezinha/RS,-28.87369,-52.17808,3,28.77974
1,Arês/RN,-6.1969216,-35.1642968,205,1432.96519
D1,Arês/RN,-6.1969216,-35.1642968,8,55.92059
1,Ascurra/SC,-26.9569975,-49.3767752,87,1096.54651
D1,Ascurra/SC,-26.9569975,-49.3767752,1,12.60398
1,Aspásia/SP,-20.160028,-50.728046,27,1481.88804
1,Assaré/CE,-6.8746791,-39.8741385,263,1123.11569
D1,Assaré/CE,-6.8746791,-39.8741385,7,29.89281
1,Assaí/PR,-23.3736041,-50.8454929,142,939.21556
D1,Assaí/PR,-23.3736041,-50.8454929,7,46.29936
1,Assis Brasil/AC,-10.9409203,-69.5672108,420,5662.66685
D1,Assis Brasil/AC,-10.9409203,-69.5672108,9,121.34286
1,Assis Chateaubriand/PR,-24.4054826,-53.5120468,306,917.21120
D1,Assis Chateaubriand/PR,-24.4054826,-53.5120468,4,11.98969
1,Assis/SP,-22.6620892,-50.420623,797,763.51235
D1,Assis/SP,-22.6620892,-50.420623,18,17.24369
1,Assunção do Piauí/PI,-5.8610212,-41.0485091,112,1427.47897
D1,Assunção do Piauí/PI,-5.8610212,-41.0485091,1,12.74535
1,Assunção/PB,-7.073396,-36.7274003,45,1127.81955
1,Astolfo Dutra/MG,-21.3132636,-42.8624102,85,599.47810
D1,Astolfo Dutra/MG,-21.3132636,-42.8624102,2,14.10537
1,Astorga/PR,-23.2350184,-51.6647074,227,869.36540
D1,Astorga/PR,-23.2350184,-51.6647074,3,11.48941
1,Atalaia do Norte/AM,-4.3658547,-70.1908742,818,4106.21957
D1,Atalaia do Norte/AM,-4.3658547,-70.1908742,4,20.07931
1,Atalaia/AL,-9.5029595,-36.0219316,532,1127.47695
D1,Atalaia/AL,-9.5029595,-36.0219316,16,33.90908
1,Atalaia/PR,-23.1513833,-52.0529697,53,1361.76773
1,Atalanta/SC,-27.421916,-49.778863,13,404.98442
1,Ataléia/MG,-18.04432,-41.1110524,81,629.46845
D1,Ataléia/MG,-18.04432,-41.1110524,2,15.54243
1,Atibaia/SP,-23.1177393,-46.5547861,960,672.45256
D1,Atibaia/SP,-23.1177393,-46.5547861,39,27.31839
1,Atilio Vivacqua/ES,-20.9139369,-41.1947519,266,2228.55228
D1,Atilio Vivacqua/ES,-20.9139369,-41.1947519,4,33.51206
1,Augustinópolis/TO,-5.4662267,-47.8897519,494,2683.03280
D1,Augustinópolis/TO,-5.4662267,-47.8897519,5,27.15620
1,Augusto Corrêa/PA,-1.0229335,-46.6404029,1164,2530.54481
D1,Augusto Corrêa/PA,-1.0229335,-46.6404029,20,43.48015
1,Augusto Pestana/RS,-28.5148413,-53.9906433,2,30.02552
1,Augusto de Lima/MG,-18.1092963,-44.2651945,31,636.68104
1,Aurelino Leal/BA,-14.3167137,-39.3256107,331,2870.52294
D1,Aurelino Leal/BA,-14.3167137,-39.3256107,2,17.34455
1,Auriflama/SP,-20.6840418,-50.5554616,263,1731.51623
D1,Auriflama/SP,-20.6840418,-50.5554616,8,52.66970
1,Aurilândia/GO,-16.6772599,-50.4641231,28,897.43590
1,Aurora do Pará/PA,-2.1323199,-47.558436,601,1917.79948
D1,Aurora do Pará/PA,-2.1323199,-47.558436,7,22.33710
1,Aurora do Tocantins/TO,-12.71045,-46.407604,15,399.25472
1,Aurora/CE,-6.9426019,-38.9693765,180,730.10465
D1,Aurora/CE,-6.9426019,-38.9693765,10,40.56137
1,Aurora/SC,-27.3166417,-49.6368502,52,915.65416
1,Autazes/AM,-3.5833283,-59.1301518,1195,3020.34627
D1,Autazes/AM,-3.5833283,-59.1301518,36,90.98951
1,Avanhandava/SP,-21.4603331,-49.9465156,85,622.75625
D1,Avanhandava/SP,-21.4603331,-49.9465156,2,14.65309
1,Avaré/SP,-23.1045215,-48.9259103,355,391.59451
D1,Avaré/SP,-23.1045215,-48.9259103,13,14.34008
1,Avaí/SP,-22.1564662,-49.3316395,33,610.77179
1,Aveiro/PA,-3.6049239,-55.3310742,376,2294.36173
D1,Aveiro/PA,-3.6049239,-55.3310742,4,24.40810
1,Avelino Lopes/PI,-10.1346855,-43.9489525,16,141.73089
D1,Avelino Lopes/PI,-10.1346855,-43.9489525,1,8.85818
1,Avelinópolis/GO,-16.4672409,-49.7578661,50,2068.68018
D1,Avelinópolis/GO,-16.4672409,-49.7578661,1,41.37360
1,Axixá do Tocantins/TO,-5.612747,-47.77007,133,1363.26363
D1,Axixá do Tocantins/TO,-5.612747,-47.77007,3,30.75031
1,Axixá/MA,-2.8379465,-44.0561053,123,1014.01484
D1,Axixá/MA,-2.8379465,-44.0561053,3,24.73207
1,Açailândia/MA,-4.9514278,-47.4844564,2917,2594.15714
D1,Açailândia/MA,-4.9514278,-47.4844564,76,67.58860
1,Açu/RN,-5.5836157,-36.9139541,1127,1942.53408
D1,Açu/RN,-5.5836157,-36.9139541,47,81.01074
1,Açucena/MG,-19.073056,-42.546666,47,496.30412
D1,Açucena/MG,-19.073056,-42.546666,2,21.11932
1,Babaçulândia/TO,-7.2034355,-47.761613,93,872.09302
1,Bacabal/MA,-4.2318132,-44.781167,3081,2935.71163
D1,Bacabal/MA,-4.2318132,-44.781167,47,44.78366
1,Bacabeira/MA,-2.9775747,-44.3155943,133,779.82996
D1,Bacabeira/MA,-2.9775747,-44.3155943,2,11.72677
1,Bacuri/MA,-1.728894,-45.1417148,408,2195.67323
D1,Bacuri/MA,-1.728894,-45.1417148,3,16.14466
1,Bacurituba/MA,-2.7082587,-44.7381309,39,690.99929
1,Bady Bassitt/SP,-20.9178969,-49.4517911,520,2971.08902
D1,Bady Bassitt/SP,-20.9178969,-49.4517911,14,79.99086
1,Baependi/MG,-21.959162,-44.8899249,57,297.68122
D1,Baependi/MG,-21.959162,-44.8899249,1,5.22248
1,Bagre/PA,-1.8994498,-50.2103844,307,1000.88025
D1,Bagre/PA,-1.8994498,-50.2103844,9,29.34177
1,Bagé/RS,-31.3314264,-54.1062808,471,388.79671
D1,Bagé/RS,-31.3314264,-54.1062808,8,6.60377
1,Baianópolis/BA,-12.3067564,-44.5383591,54,389.13310
1,Baixa Grande do Ribeiro/PI,-7.862861,-45.2113289,538,4643.53530
D1,Baixa Grande do Ribeiro/PI,-7.862861,-45.2113289,8,69.04885
1,Baixa Grande/BA,-11.9630941,-40.1657537,14,68.39945
D1,Baixa Grande/BA,-11.9630941,-40.1657537,1,4.88568
1,Baixio/CE,-6.7303544,-38.7170095,59,938.29517
1,Baixo Guandu/ES,-19.5138322,-41.0182089,587,1893.67056
D1,Baixo Guandu/ES,-19.5138322,-41.0182089,15,48.39022
1,Baião/PA,-2.7903479,-49.6702845,301,634.40543
D1,Baião/PA,-2.7903479,-49.6702845,14,29.50723
1,Balbinos/SP,-21.9006253,-49.3583966,64,1115.95466
D1,Balbinos/SP,-21.9006253,-49.3583966,1,17.43679
1,Baldim/MG,-19.2913568,-43.9558262,19,242.78048
D1,Baldim/MG,-19.2913568,-43.9558262,1,12.77792
1,Baliza/GO,-16.1978119,-52.542789,12,233.55391
1,Balneário Arroio do Silva/SC,-28.9815269,-49.4189932,258,1973.83521
D1,Balneário Arroio do Silva/SC,-28.9815269,-49.4189932,5,38.25262
1,Balneário Barra do Sul/SC,-26.459842,-48.6061471,352,3260.76887
D1,Balneário Barra do Sul/SC,-26.459842,-48.6061471,2,18.52710
1,Balneário Camboriú/SC,-26.9924395,-48.6339782,5202,3655.78552
D1,Balneário Camboriú/SC,-26.9924395,-48.6339782,62,43.57145
1,Balneário Gaivota/SC,-29.1553098,-49.5808712,107,974.58785
D1,Balneário Gaivota/SC,-29.1553098,-49.5808712,4,36.43319
1,Balneário Pinhal/RS,-30.2482978,-50.234585,41,291.44157
D1,Balneário Pinhal/RS,-30.2482978,-50.234585,1,7.10833
1,Balneário Piçarras/SC,-26.7638889,-48.6716667,444,1918.17514
D1,Balneário Piçarras/SC,-26.7638889,-48.6716667,6,25.92129
1,Balneário Rincão/SC,-28.8235718,-49.2241642,159,1246.08150
D1,Balneário Rincão/SC,-28.8235718,-49.2241642,7,54.85893
1,Balsa Nova/PR,-25.5842234,-49.6312741,165,1275.01739
D1,Balsa Nova/PR,-25.5842234,-49.6312741,3,23.18213
1,Balsas/MA,-7.53214,-46.037163,3430,3614.82606
D1,Balsas/MA,-7.53214,-46.037163,21,22.13159
1,Bambuí/MG,-20.0131996,-45.9777034,25,104.91418
1,Banabuiú/CE,-5.3046404,-38.919766,472,2593.83415
D1,Banabuiú/CE,-5.3046404,-38.919766,3,16.48623
1,Bananal/SP,-22.6828195,-44.3221095,115,1050.70809
D1,Bananal/SP,-22.6828195,-44.3221095,1,9.13659
1,Bananeiras/PB,-6.7537682,-35.6338343,213,999.15564
D1,Bananeiras/PB,-6.7537682,-35.6338343,2,9.38174
1,Bandeira do Sul/MG,-21.728056,-46.385555,11,191.43752
1,Bandeira/MG,-15.884444,-40.559167,198,4129.30136
D1,Bandeira/MG,-15.884444,-40.559167,1,20.85506
1,Bandeirante/SC,-26.7677402,-53.6397596,6,224.04780
1,Bandeirantes do Tocantins/TO,-7.7635698,-48.579148,23,647.34028
D1,Bandeirantes do Tocantins/TO,-7.7635698,-48.579148,1,28.14523
1,Bandeirantes/MS,-19.9179623,-54.3646768,56,824.98527
1,Bandeirantes/PR,-23.107788,-50.370407,305,972.35949
D1,Bandeirantes/PR,-23.107788,-50.370407,9,28.69257
1,Bannach/PA,-7.3508505,-50.4064531,106,3225.80645
D1,Bannach/PA,-7.3508505,-50.4064531,2,60.86427
1,Banzaê/BA,-10.5827616,-38.6122305,108,816.38824
1,Baraúna/PB,-6.643394,-36.2531932,130,2657.39984
1,Baraúna/RN,-5.0775002,-37.61752,379,1335.72989
D1,Baraúna/RN,-5.0775002,-37.61752,12,42.29224
1,Barbacena/MG,-21.2254524,-43.7735087,565,411.46869
D1,Barbacena/MG,-21.2254524,-43.7735087,9,6.55437
1,Barbalha/CE,-7.3121067,-39.3036427,1001,1646.89623
D1,Barbalha/CE,-7.3121067,-39.3036427,42,69.10054
1,Barbosa Ferraz/PR,-24.0287182,-52.00811,105,907.67635
D1,Barbosa Ferraz/PR,-24.0287182,-52.00811,4,34.57815
1,Barbosa/SP,-21.265661,-49.951816,85,1148.33829
1,Barcarena/PA,-1.5107945,-48.6190679,3556,2852.10138
D1,Barcarena/PA,-1.5107945,-48.6190679,104,83.41354
1,Barcelona/RN,-5.9514918,-35.9260284,31,775.38769
D1,Barcelona/RN,-5.9514918,-35.9260284,2,50.02501
1,Barcelos/AM,-0.9729214,-62.925635,2173,7901.24355
D1,Barcelos/AM,-0.9729214,-62.925635,24,87.26638
1,Bariri/SP,-22.0746355,-48.7394852,375,1063.40744
D1,Bariri/SP,-22.0746355,-48.7394852,10,28.35753
1,Barra Bonita/SC,-26.6526364,-53.4419581,1,59.63029
1,Barra Bonita/SP,-22.490859,-48.558349,392,1085.09107
D1,Barra Bonita/SP,-22.490859,-48.558349,9,24.91281
1,Barra D'Alcântara/PI,-6.5209258,-42.1071089,9,227.79043
1,Barra Funda/RS,-27.9230048,-53.0401045,51,2008.66483
D1,Barra Funda/RS,-27.9230048,-53.0401045,2,78.77117
1,Barra Longa/MG,-20.2833541,-43.0423516,59,1149.87332
1,Barra Mansa/RJ,-22.5394843,-44.1735129,1170,634.44895
D1,Barra Mansa/RJ,-22.5394843,-44.1735129,80,43.38112
1,Barra Velha/SC,-26.6338203,-48.6835001,438,1501.64564
D1,Barra Velha/SC,-26.6338203,-48.6835001,5,17.14207
1,Barra da Estiva/BA,-13.6269662,-41.3278287,7,33.98388
1,Barra de Guabiraba/PE,-8.4173522,-35.6626669,160,1112.26973
D1,Barra de Guabiraba/PE,-8.4173522,-35.6626669,11,76.46854
1,Barra de Santa Rosa/PB,-6.7218007,-36.0564638,65,422.51690
D1,Barra de Santa Rosa/PB,-6.7218007,-36.0564638,1,6.50026
1,Barra de Santana/PB,-7.5230865,-35.9988518,92,1100.61012
D1,Barra de Santana/PB,-7.5230865,-35.9988518,2,23.92631
1,Barra de Santo Antônio/AL,-9.4038098,-35.5117693,120,753.20110
D1,Barra de Santo Antônio/AL,-9.4038098,-35.5117693,8,50.21341
1,Barra de São Francisco/ES,-18.7570902,-40.8916119,402,900.33595
D1,Barra de São Francisco/ES,-18.7570902,-40.8916119,17,38.07391
1,Barra de São Miguel/AL,-9.8261357,-35.8837777,128,1538.09180
D1,Barra de São Miguel/AL,-9.8261357,-35.8837777,5,60.08171
1,Barra de São Miguel/PB,-7.7528088,-36.3170996,48,795.22863
D1,Barra de São Miguel/PB,-7.7528088,-36.3170996,1,16.56726
1,Barra do Bugres/MT,-15.0683712,-57.1853688,361,1032.43150
D1,Barra do Bugres/MT,-15.0683712,-57.1853688,10,28.59921
1,Barra do Chapéu/SP,-24.472203,-49.023784,42,733.75262
1,Barra do Choça/BA,-14.8638173,-40.5761637,302,955.60548
D1,Barra do Choça/BA,-14.8638173,-40.5761637,3,9.49277
1,Barra do Corda/MA,-5.496823,-45.248496,2923,3313.60813
D1,Barra do Corda/MA,-5.496823,-45.248496,24,27.20718
1,Barra do Garças/MT,-15.8916033,-52.2615413,1187,1945.51891
D1,Barra do Garças/MT,-15.8916033,-52.2615413,62,101.61935
1,Barra do Guarita/RS,-27.1888016,-53.7147086,37,1139.16256
1,Barra do Jacaré/PR,-23.1151788,-50.1813945,9,323.62460
1,Barra do Mendes/BA,-11.8053298,-42.057037,8,57.69924
1,Barra do Ouro/TO,-7.7113784,-47.6743925,31,675.23415
D1,Barra do Ouro/TO,-7.7113784,-47.6743925,4,87.12699
1,Barra do Piraí/RJ,-22.4703403,-43.8263256,784,781.07877
D1,Barra do Piraí/RJ,-22.4703403,-43.8263256,41,40.84723
1,Barra do Quaraí/RS,-30.208947,-57.5505128,4,94.89917
D1,Barra do Quaraí/RS,-30.208947,-57.5505128,1,23.72479
1,Barra do Ribeiro/RS,-30.2930206,-51.301437,65,481.80268
D1,Barra do Ribeiro/RS,-30.2930206,-51.301437,6,44.47409
1,Barra do Rio Azul/RS,-27.4101581,-52.4117471,2,118.34320
1,Barra do Rocha/BA,-14.2090974,-39.6004395,42,735.03675
1,Barra do Turvo/SP,-24.756421,-48.5056942,62,809.50516
D1,Barra do Turvo/SP,-24.756421,-48.5056942,2,26.11307
1,Barra dos Coqueiros/SE,-10.9075694,-37.0386249,1029,3384.08919
D1,Barra dos Coqueiros/SE,-10.9075694,-37.0386249,17,55.90818
1,Barra/BA,-11.0892702,-43.1420453,115,214.64034
D1,Barra/BA,-11.0892702,-43.1420453,3,5.59931
1,Barracão/PR,-26.252395,-53.6349576,49,476.88564
D1,Barracão/PR,-26.252395,-53.6349576,1,9.73236
1,Barracão/RS,-27.6728964,-51.4582928,29,549.76303
D1,Barracão/RS,-27.6728964,-51.4582928,1,18.95735
1,Barras/PI,-4.2446153,-42.2920241,1882,3998.64021
D1,Barras/PI,-4.2446153,-42.2920241,40,84.98704
1,Barreira/CE,-4.2883361,-38.641094,310,1382.38573
D1,Barreira/CE,-4.2883361,-38.641094,19,84.72687
1,Barreiras do Piauí/PI,-9.9224524,-45.4763776,8,238.94863
1,Barreiras/BA,-12.1440031,-44.9967406,2368,1523.42720
D1,Barreiras/BA,-12.1440031,-44.9967406,32,20.58685
1,Barreirinha/AM,-2.798863,-57.067897,800,2496.80097
D1,Barreirinha/AM,-2.798863,-57.067897,11,34.33101
1,Barreirinhas/MA,-2.7541271,-42.8259693,515,823.63101
D1,Barreirinhas/MA,-2.7541271,-42.8259693,23,36.78352
1,Barreiros/PE,-8.8159644,-35.1831905,289,677.46548
D1,Barreiros/PE,-8.8159644,-35.1831905,39,91.42268
1,Barretos/SP,-20.5531437,-48.5697509,2573,2107.32363
D1,Barretos/SP,-20.5531437,-48.5697509,84,68.79720
1,Barrinha/SP,-21.1898849,-48.1550642,428,1304.40083
D1,Barrinha/SP,-21.1898849,-48.1550642,17,51.81031
1,Barro Alto/BA,-11.7618025,-41.9094904,12,80.36970
1,Barro Alto/GO,-14.9696025,-48.9190985,122,1092.50470
1,Barro Duro/PI,-5.8180139,-42.5106589,217,3085.89306
D1,Barro Duro/PI,-5.8180139,-42.5106589,4,56.88282
1,Barro Preto/BA,-14.8068289,-39.4727588,187,3344.66106
D1,Barro Preto/BA,-14.8068289,-39.4727588,3,53.65766
1,Barro/CE,-7.1713587,-38.7742136,98,432.09877
D1,Barro/CE,-7.1713587,-38.7742136,8,35.27337
1,Barrocas/BA,-11.5165,-39.099282894736845,82,513.20566
1,Barrolândia/TO,-9.837246,-48.7264346,55,976.56250
D1,Barrolândia/TO,-9.837246,-48.7264346,1,17.75568
1,Barroquinha/CE,-3.0200371,-41.1339229,734,4887.79383
D1,Barroquinha/CE,-3.0200371,-41.1339229,17,113.20503
1,Barros Cassal/RS,-29.094938,-52.5832366,14,125.01116
D1,Barros Cassal/RS,-29.094938,-52.5832366,1,8.92937
1,Barroso/MG,-21.187222,-43.976111,110,528.59202
1,Barueri/SP,-23.5112184,-46.8764612,4675,1705.07181
D1,Barueri/SP,-23.5112184,-46.8764612,296,107.95749
1,Barão de Antonina/SP,-23.6295651,-49.5632104,11,317.09426
1,Barão de Cocais/MG,-19.9452437,-43.4870298,309,951.20825
D1,Barão de Cocais/MG,-19.9452437,-43.4870298,2,6.15669
1,Barão de Cotegipe/RS,-27.6214694,-52.3765316,85,1283.40631
D1,Barão de Cotegipe/RS,-27.6214694,-52.3765316,3,45.29669
1,Barão de Grajaú/MA,-6.7542591,-43.0263477,15,79.70244
D1,Barão de Grajaú/MA,-6.7542591,-43.0263477,1,5.31350
1,Barão de Melgaço/MT,-16.195776,-55.9668049,82,957.49650
D1,Barão de Melgaço/MT,-16.195776,-55.9668049,4,46.70715
1,Barão de Monte Alto/MG,-21.244722,-42.2375,46,852.32537
D1,Barão de Monte Alto/MG,-21.244722,-42.2375,1,18.52881
1,Barão do Triunfo/RS,-30.3909877,-51.7375349,43,574.32884
D1,Barão do Triunfo/RS,-30.3909877,-51.7375349,1,13.35648
1,Barão/RS,-29.372474,-51.494908,37,599.57867
D1,Barão/RS,-29.372474,-51.494908,2,32.40966
1,Bastos/SP,-21.9222474,-50.7317727,42,200.44862
D1,Bastos/SP,-21.9222474,-50.7317727,1,4.77259
1,Bataguassu/MS,-21.715899,-52.422058,678,2944.75330
D1,Bataguassu/MS,-21.715899,-52.422058,4,17.37318
1,Batalha/AL,-9.6733809,-37.1265481,405,2221.36902
D1,Batalha/AL,-9.6733809,-37.1265481,6,32.90917
1,Batalha/PI,-4.022391,-42.0780926,303,1128.19749
D1,Batalha/PI,-4.022391,-42.0780926,7,26.06397
1,Batatais/SP,-20.892867,-47.592149,222,355.15454
D1,Batatais/SP,-20.892867,-47.592149,14,22.39713
1,Batayporã/MS,-22.2976466,-53.2685608,80,706.15235
D1,Batayporã/MS,-22.2976466,-53.2685608,3,26.48071
1,Baturité/CE,-4.3290203,-38.8821055,529,1479.72028
D1,Baturité/CE,-4.3290203,-38.8821055,28,78.32168
1,Bauru/SP,-22.3218102,-49.0705863,5024,1333.26964
D1,Bauru/SP,-22.3218102,-49.0705863,106,28.13029
1,Bayeux/PB,-7.1301631,-34.936532,1644,1696.94467
D1,Bayeux/PB,-7.1301631,-34.936532,89,91.86623
1,Baía Formosa/RN,-6.3691885,-35.0063741,87,938.41010
D1,Baía Formosa/RN,-6.3691885,-35.0063741,3,32.35897
1,Baía da Traição/PB,-6.691258,-34.9371244,542,6026.90982
D1,Baía da Traição/PB,-6.691258,-34.9371244,5,55.59880
1,Bebedouro/SP,-20.949077,-48.479083,368,474.86322
D1,Bebedouro/SP,-20.949077,-48.479083,21,27.09817
1,Beberibe/CE,-4.1810469,-38.1298101,703,1312.22817
D1,Beberibe/CE,-4.1810469,-38.1298101,28,52.26513
1,Bela Cruz/CE,-3.0529129,-40.167582,1143,3507.10319
D1,Bela Cruz/CE,-3.0529129,-40.167582,19,58.29830
1,Bela Vista da Caroba/PR,-25.8792818,-53.6672545,17,484.19254
1,Bela Vista de Goiás/GO,-16.9692949,-48.9513071,415,1384.48707
D1,Bela Vista de Goiás/GO,-16.9692949,-48.9513071,6,20.01668
1,Bela Vista de Minas/MG,-19.8289721,-43.0973688,27,263.28620
D1,Bela Vista de Minas/MG,-19.8289721,-43.0973688,1,9.75134
1,Bela Vista do Maranhão/MA,-3.7416367,-45.2514192,122,1088.41110
D1,Bela Vista do Maranhão/MA,-3.7416367,-45.2514192,3,26.76421
1,Bela Vista do Paraíso/PR,-22.9948493,-51.1907996,66,428.65493
D1,Bela Vista do Paraíso/PR,-22.9948493,-51.1907996,4,25.97909
1,Bela Vista do Piauí/PI,-7.9716353,-41.8715061,9,224.15940
1,Bela Vista do Toldo/SC,-26.274625,-50.466354,5,78.90169
1,Bela Vista/MS,-22.107327,-56.5317344,15,60.90381
1,Belford Roxo/RJ,-22.7667284,-43.4033603,3617,707.95802
D1,Belford Roxo/RJ,-22.7667284,-43.4033603,227,44.43087
1,Belmiro Braga/MG,-21.9486291,-43.413564,11,320.79323
D1,Belmiro Braga/MG,-21.9486291,-43.413564,2,58.32604
1,Belmonte/BA,-15.8630837,-38.8792845,310,1328.87517
D1,Belmonte/BA,-15.8630837,-38.8792845,1,4.28669
1,Belmonte/SC,-26.8448262,-53.578916,2,73.90983
1,Belo Campo/BA,-15.0338286,-41.2585109,6,34.86143
1,Belo Horizonte/MG,-19.9227318,-43.9450948,27485,1094.11760
D1,Belo Horizonte/MG,-19.9227318,-43.9450948,758,30.17432
1,Belo Jardim/PE,-8.3338293,-36.4176419,782,1023.03798
D1,Belo Jardim/PE,-8.3338293,-36.4176419,28,36.63052
1,Belo Monte/AL,-9.8269944,-37.2787165,60,894.98807
D1,Belo Monte/AL,-9.8269944,-37.2787165,2,29.83294
1,Belo Oriente/MG,-19.2232523,-42.4807033,349,1307.11610
D1,Belo Oriente/MG,-19.2232523,-42.4807033,7,26.21723
1,Belo Vale/MG,-20.407778,-44.024167,59,764.74401
D1,Belo Vale/MG,-20.407778,-44.024167,1,12.96176
1,Belterra/PA,-2.636091,-54.937392,211,1189.93909
D1,Belterra/PA,-2.636091,-54.937392,7,39.47665
1,Belágua/MA,-3.1604031,-43.5085052,201,2691.12331
D1,Belágua/MA,-3.1604031,-43.5085052,1,13.38867
1,Belém de Maria/PE,-8.6242497,-35.8388934,80,662.63563
D1,Belém de Maria/PE,-8.6242497,-35.8388934,1,8.28295
1,Belém do Brejo do Cruz/PB,-6.1880727,-37.5332267,31,422.22828
D1,Belém do Brejo do Cruz/PB,-6.1880727,-37.5332267,1,13.62027
1,Belém do Piauí/PI,-7.3767305,-40.9712156,44,1233.87549
D1,Belém do Piauí/PI,-7.3767305,-40.9712156,1,28.04262
1,Belém do São Francisco/PE,-8.7517707,-38.9625715,56,270.15293
1,Belém/AL,-9.5715351,-36.492841,50,1151.01289
D1,Belém/AL,-9.5715351,-36.492841,1,23.02026
1,Belém/PA,-1.45056,-48.4682453,28887,1935.15972
D1,Belém/PA,-1.45056,-48.4682453,2068,138.53672
1,Belém/PB,-6.6967586,-35.5369626,935,5289.65829
D1,Belém/PB,-6.6967586,-35.5369626,9,50.91650
1,Beneditinos/PI,-5.4565671,-42.3605061,167,1595.49059
D1,Beneditinos/PI,-5.4565671,-42.3605061,5,47.76918
1,Benedito Leite/MA,-7.2173453,-44.5523331,88,1562.50000
1,Benedito Novo/SC,-26.7840657,-49.3629511,81,695.15963
D1,Benedito Novo/SC,-26.7840657,-49.3629511,2,17.16444
1,Benevides/PA,-1.3555577,-48.252235,1325,2111.99133
D1,Benevides/PA,-1.3555577,-48.252235,49,78.10383
1,Benjamin Constant do Sul/RS,-27.5105555,-52.6007689,55,2758.27482
1,Benjamin Constant/AM,-4.3782748,-70.0290603,1532,3564.11688
D1,Benjamin Constant/AM,-4.3782748,-70.0290603,35,81.42565
1,Bento Fernandes/RN,-5.6926846,-35.8207423,24,436.60178
D1,Bento Fernandes/RN,-5.6926846,-35.8207423,1,18.19174
1,Bento Gonçalves/RS,-29.1654014,-51.5197627,2484,2062.19802
D1,Bento Gonçalves/RS,-29.1654014,-51.5197627,89,73.88713
1,Bento de Abreu/SP,-21.2707225,-50.8120444,29,973.15436
1,Bequimão/MA,-2.4495376,-44.7884889,206,968.04511
D1,Bequimão/MA,-2.4495376,-44.7884889,10,46.99248
1,Berilo/MG,-16.9515764,-42.4643732,5,41.90412
1,Bernardino Batista/PB,-6.4532173,-38.5495418,7,199.94287
1,Bernardino de Campos/SP,-23.0140216,-49.4760724,66,592.03445
D1,Bernardino de Campos/SP,-23.0140216,-49.4760724,3,26.91066
1,Bernardo Sayão/TO,-7.8794244,-48.8968905,23,515.81072
D1,Bernardo Sayão/TO,-7.8794244,-48.8968905,1,22.42655
1,Bernardo do Mearim/MA,-4.6315929,-44.7617508,48,794.30746
D1,Bernardo do Mearim/MA,-4.6315929,-44.7617508,2,33.09614
1,Bertioga/SP,-23.848568,-46.139586,1329,2101.21899
D1,Bertioga/SP,-23.848568,-46.139586,34,53.75579
1,Bertolínia/PI,-7.6372159,-43.9540611,83,1508.81658
1,Bertópolis/MG,-17.063333,-40.573889,6,130.32146
1,Beruri/AM,-3.9007135,-61.3717319,607,3084.50633
D1,Beruri/AM,-3.9007135,-61.3717319,8,40.65247
1,Betim/MG,-19.968056,-44.198333,3516,800.29135
D1,Betim/MG,-19.968056,-44.198333,132,30.04507
1,Betânia do Piauí/PI,-8.1460635,-40.7961387,11,177.27639
1,Betânia/PE,-8.2742779,-38.0351767,44,345.93915
D1,Betânia/PE,-8.2742779,-38.0351767,2,15.72451
1,Bezerros/PE,-8.2372132,-35.7558262,719,1182.60469
D1,Bezerros/PE,-8.2372132,-35.7558262,35,57.56768
1,Bias Fortes/MG,-21.605833,-43.756944,13,384.72921
1,Bicas/MG,-21.7213723,-43.0604327,37,255.27805
1,Biguaçu/SC,-27.4961277,-48.6542432,1423,2077.94863
D1,Biguaçu/SC,-27.4961277,-48.6542432,24,35.04622
1,Bilac/SP,-21.403962,-50.47464,62,771.72019
D1,Bilac/SP,-21.403962,-50.47464,2,24.89420
1,Biquinhas/MG,-18.783611,-45.502222,27,1073.55865
1,Birigui/SP,-21.2908491,-50.34144,1374,1111.30882
D1,Birigui/SP,-21.2908491,-50.34144,51,41.24945
1,Biritiba-Mirim/SP,-23.5697765,-46.0407456,239,733.17381
D1,Biritiba-Mirim/SP,-23.5697765,-46.0407456,17,52.15044
1,Biritinga/BA,-11.6227908,-38.8066738,48,300.39427
1,Bituruna/PR,-26.161281,-51.5533319,33,201.35457
1,Blumenau/SC,-26.9195567,-49.0658025,7094,1986.00780
D1,Blumenau/SC,-26.9195567,-49.0658025,92,25.75595
1,Boa Esperança do Iguaçu/PR,-25.6362851,-53.2139114,26,1038.75350
1,Boa Esperança do Sul/SP,-21.9930206,-48.3917372,99,663.40548
D1,Boa Esperança do Sul/SP,-21.9930206,-48.3917372,3,20.10320
1,Boa Esperança/ES,-18.5395472,-40.2904088,302,2008.37933
D1,Boa Esperança/ES,-18.5395472,-40.2904088,12,79.80315
1,Boa Esperança/MG,-21.0901253,-45.5660195,77,191.89075
D1,Boa Esperança/MG,-21.0901253,-45.5660195,6,14.95253
1,Boa Esperança/PR,-24.2411024,-52.7860277,30,730.81608
1,Boa Hora/PI,-4.4094627,-42.1255341,82,1209.26117
1,Boa Nova/BA,-14.365907,-40.2063056,52,411.62036
D1,Boa Nova/BA,-14.365907,-40.2063056,2,15.83155
1,Boa Ventura/PB,-7.4202462,-38.2156782,5,93.17928
1,Boa Viagem/CE,-5.1261877,-39.7300055,335,615.01744
D1,Boa Viagem/CE,-5.1261877,-39.7300055,19,34.88159
1,Boa Vista da Aparecida/PR,-25.4357216,-53.4067721,82,1080.22658
D1,Boa Vista da Aparecida/PR,-25.4357216,-53.4067721,2,26.34699
1,Boa Vista das Missões/RS,-27.6677983,-53.3127622,4,190.65777
1,Boa Vista do Buricá/RS,-27.6687782,-54.1111913,40,595.94756
1,Boa Vista do Cadeado/RS,-28.5783827,-53.8123759,4,161.94332
1,Boa Vista do Gurupi/MA,-1.7981168,-46.3071882,13,139.98062
D1,Boa Vista do Gurupi/MA,-1.7981168,-46.3071882,3,32.30322
1,Boa Vista do Incra/RS,-28.8195551,-53.3866624,8,307.33769
1,Boa Vista do Ramos/AM,-2.9716927,-57.5869819,305,1587.96272
D1,Boa Vista do Ramos/AM,-2.9716927,-57.5869819,2,10.41287
1,Boa Vista do Sul/RS,-29.3510488,-51.6779679,31,1113.90586
D1,Boa Vista do Sul/RS,-29.3510488,-51.6779679,1,35.93245
1,Boa Vista do Tupim/BA,-12.6605988,-40.6083594,24,129.19897
1,Boa Vista/PB,-7.2620711,-36.2415161,84,1191.32038
D1,Boa Vista/PB,-7.2620711,-36.2415161,1,14.18239
1,Boa Vista/RR,2.8208478,-60.6719582,27753,6951.92792
D1,Boa Vista/RR,2.8208478,-60.6719582,434,108.71389
1,Boca da Mata/AL,-9.6452054,-36.2116658,1125,4123.74913
D1,Boca da Mata/AL,-9.6452054,-36.2116658,18,65.97999
1,Boca do Acre/AM,-8.7553487,-67.3930873,988,2879.79480
D1,Boca do Acre/AM,-8.7553487,-67.3930873,11,32.06249
1,Bocaina de Minas/MG,-22.167778,-44.394722,7,137.52456
1,Bocaina do Sul/SC,-27.745494,-49.942279,9,259.06736
1,Bocaina/PI,-6.9445939,-41.3224599,94,2088.88889
1,Bocaina/SP,-22.1421831,-48.522276,94,762.43004
D1,Bocaina/SP,-22.1421831,-48.522276,3,24.33287
1,Bocaiúva do Sul/PR,-25.206591,-49.114131,140,1081.58220
D1,Bocaiúva do Sul/PR,-25.206591,-49.114131,2,15.45117
1,Bocaiúva/MG,-17.1160208,-43.8122678,124,248.10420
D1,Bocaiúva/MG,-17.1160208,-43.8122678,1,2.00084
1,Bodocó/PE,-7.777592,-39.933797,160,419.44109
D1,Bodocó/PE,-7.777592,-39.933797,5,13.10753
1,Bodoquena/MS,-20.5508775,-56.6769653,5,63.49206
1,Bodó/RN,-5.9866104,-36.4134824,5,224.92128
1,Bofete/SP,-23.1019554,-48.2610535,91,775.78858
D1,Bofete/SP,-23.1019554,-48.2610535,3,25.57545
1,Boituva/SP,-23.2838893,-47.6738231,565,926.27506
D1,Boituva/SP,-23.2838893,-47.6738231,14,22.95195
1,Bom Conselho/PE,-9.169191,-36.685683,479,986.53046
D1,Bom Conselho/PE,-9.169191,-36.685683,17,35.01256
1,Bom Despacho/MG,-19.7375242,-45.2517288,288,569.11372
D1,Bom Despacho/MG,-19.7375242,-45.2517288,3,5.92827
1,Bom Jardim da Serra/SC,-28.3380324,-49.625588,25,527.09256
1,Bom Jardim de Goiás/GO,-16.2062659,-52.172793,87,984.05158
D1,Bom Jardim de Goiás/GO,-16.2062659,-52.172793,2,22.62188
1,Bom Jardim de Minas/MG,-21.9476466,-44.1906033,4,61.78560
1,Bom Jardim/MA,-3.54129,-45.606004,787,1890.46361
D1,Bom Jardim/MA,-3.54129,-45.606004,22,52.84650
1,Bom Jardim/PE,-7.7961572,-35.5871696,460,1173.94855
D1,Bom Jardim/PE,-7.7961572,-35.5871696,25,63.80155
1,Bom Jardim/RJ,-22.1515328,-42.4186683,107,389.85645
D1,Bom Jardim/RJ,-22.1515328,-42.4186683,3,10.93055
1,Bom Jesus da Lapa/BA,-13.250571,-43.410754,181,261.75739
1,Bom Jesus da Penha/MG,-21.0165299,-46.5226644,17,403.13019
1,Bom Jesus da Serra/BA,-14.3724084,-40.5047119,70,708.50202
1,Bom Jesus das Selvas/MA,-4.4878075,-46.8526639,1432,4208.29905
D1,Bom Jesus das Selvas/MA,-4.4878075,-46.8526639,9,26.44881
1,Bom Jesus de Goiás/GO,-18.2174587,-49.739721,161,638.48350
D1,Bom Jesus de Goiás/GO,-18.2174587,-49.739721,4,15.86294
1,Bom Jesus do Amparo/MG,-19.7045132,-43.4752911,20,328.78514
1,Bom Jesus do Araguaia/MT,-12.1725897,-51.5074425,53,805.47112
1,Bom Jesus do Galho/MG,-19.8283191,-42.3162256,63,421.82792
D1,Bom Jesus do Galho/MG,-19.8283191,-42.3162256,3,20.08704
1,Bom Jesus do Itabapoana/RJ,-21.1341025,-41.680095,519,1399.07268
D1,Bom Jesus do Itabapoana/RJ,-21.1341025,-41.680095,15,40.43563
1,Bom Jesus do Norte/ES,-21.1254776,-41.6711646,239,2405.39452
D1,Bom Jesus do Norte/ES,-21.1254776,-41.6711646,5,50.32206
1,Bom Jesus do Oeste/SC,-26.6929713,-53.0967453,11,513.53875
1,Bom Jesus do Sul/PR,-26.1922507,-53.6002033,11,310.64671
D1,Bom Jesus do Sul/PR,-26.1922507,-53.6002033,1,28.24061
1,Bom Jesus do Tocantins/PA,-5.0471796,-48.5978362,294,1731.34680
D1,Bom Jesus do Tocantins/PA,-5.0471796,-48.5978362,1,5.88893
1,Bom Jesus do Tocantins/TO,-8.96306,-48.165043,43,878.62689
1,Bom Jesus dos Perdões/SP,-23.1353864,-46.4648052,147,577.64854
D1,Bom Jesus dos Perdões/SP,-23.1353864,-46.4648052,1,3.92958
1,Bom Jesus/PB,-6.8156725,-38.6551841,8,312.37798
1,Bom Jesus/PI,-9.0711644,-44.3583926,825,3276.53997
D1,Bom Jesus/PI,-9.0711644,-44.3583926,9,35.74407
1,Bom Jesus/RN,-5.9887544,-35.5821149,113,1106.75808
D1,Bom Jesus/RN,-5.9887544,-35.5821149,3,29.38296
1,Bom Jesus/RS,-28.6692723,-50.4346894,83,731.34197
1,Bom Jesus/SC,-26.7350604,-52.3916519,73,2425.24917
1,Bom Lugar/MA,-4.3728019,-45.0366054,185,1135.38726
1,Bom Princípio do Piauí/PI,-3.1912777,-41.6430185,38,674.95560
D1,Bom Princípio do Piauí/PI,-3.1912777,-41.6430185,3,53.28597
1,Bom Princípio/RS,-29.489788,-51.3566782,231,1643.54322
D1,Bom Princípio/RS,-29.489788,-51.3566782,1,7.11491
1,Bom Progresso/RS,-27.5490948,-53.8655601,12,617.91967
1,Bom Repouso/MG,-22.4657069,-46.1485376,26,246.51560
D1,Bom Repouso/MG,-22.4657069,-46.1485376,1,9.48137
1,Bom Retiro do Sul/RS,-29.6000007,-51.9359243,154,1249.18884
D1,Bom Retiro do Sul/RS,-29.6000007,-51.9359243,3,24.33485
1,Bom Retiro/SC,-27.798993,-49.486994,51,511.73992
D1,Bom Retiro/SC,-27.798993,-49.486994,1,10.03412
1,Bom Sucesso de Itararé/SP,-24.3190016,-49.1446207,2,50.58169
1,Bom Sucesso do Sul/PR,-26.0749256,-52.8348629,3,91.91176
1,Bom Sucesso/MG,-21.0323516,-44.7598082,22,124.97870
D1,Bom Sucesso/MG,-21.0323516,-44.7598082,1,5.68085
1,Bom Sucesso/PB,-6.4458948,-37.9297662,18,361.80905
1,Bom Sucesso/PR,-23.7088019,-51.7651297,54,767.91809
D1,Bom Sucesso/PR,-23.7088019,-51.7651297,1,14.22071
1,Bombinhas/SC,-27.1519159,-48.4875691,882,4461.53068
D1,Bombinhas/SC,-27.1519159,-48.4875691,7,35.40897
1,Bonfim do Piauí/PI,-9.1648678,-42.8734415,35,617.28395
D1,Bonfim do Piauí/PI,-9.1648678,-42.8734415,1,17.63668
1,Bonfim/MG,-20.3266626, -44.2386157,23,334.88643
D1,Bonfim/MG,-20.3266626, -44.2386157,1,14.56028
1,Bonfim/RR,3.3613818,-59.8427241,546,4400.03223
D1,Bonfim/RR,3.3613818,-59.8427241,9,72.52800
1,Bonfinópolis de Minas/MG,-16.5660011,-45.98645,56,1019.47934
1,Bonfinópolis/GO,-16.6172709,-48.9615701,192,1978.15784
D1,Bonfinópolis/GO,-16.6172709,-48.9615701,4,41.21162
1,Boninal/BA,-12.7095183,-41.8299984,7,48.71938
D1,Boninal/BA,-12.7095183,-41.8299984,1,6.95991
1,Bonito de Minas/MG,-15.3191266,-44.7544,4,35.61888
1,Bonito de Santa Fé/PB,-7.3143332,-38.5146677,24,201.39297
D1,Bonito de Santa Fé/PB,-7.3143332,-38.5146677,1,8.39137
1,Bonito/BA,-11.9665473,-41.2649896,32,190.88523
D1,Bonito/BA,-11.9665473,-41.2649896,2,11.93033
1,Bonito/MS,-21.1264766,-56.4902208,175,796.32326
1,Bonito/PA,-1.3605722,-47.3049907,236,1449.09738
D1,Bonito/PA,-1.3605722,-47.3049907,7,42.98170
1,Bonito/PE,-8.4721161,-35.7314591,259,679.18393
D1,Bonito/PE,-8.4721161,-35.7314591,23,60.31363
1,Bonópolis/GO,-13.649331,-49.8329113,9,204.31328
1,Boqueirão do Leão/RS,-29.30332,-52.4296817,5,64.81722
1,Boqueirão do Piauí/PI,-4.4850148,-42.1095161,119,1857.34353
D1,Boqueirão do Piauí/PI,-4.4850148,-42.1095161,1,15.60793
1,Boqueirão/PB,-7.487004,-36.130887,341,1915.29993
D1,Boqueirão/PB,-7.487004,-36.130887,5,28.08358
1,Boquim/SE,-11.1450175,-37.6204228,385,1435.71002
D1,Boquim/SE,-11.1450175,-37.6204228,12,44.74940
1,Boquira/BA,-12.8184859,-42.7270883,20,92.98866
1,Boracéia/SP,-22.195355,-48.7801925,52,1078.16712
D1,Boracéia/SP,-22.195355,-48.7801925,1,20.73398
1,Borba/AM,-4.3934778,-59.5947721,673,1635.04288
D1,Borba/AM,-4.3934778,-59.5947721,22,53.44865
1,Borborema/PB,-6.8066718,-35.5990191,39,741.02223
1,Borborema/SP,-21.6212706,-49.074135,82,511.03079
D1,Borborema/SP,-21.6212706,-49.074135,1,6.23208
1,Borda da Mata/MG,-22.274167,-46.165278,155,798.47517
D1,Borda da Mata/MG,-22.274167,-46.165278,9,46.36307
1,Borebi/SP,-22.5700178,-48.9714871,21,791.55673
D1,Borebi/SP,-22.5700178,-48.9714871,1,37.69318
1,Borrazópolis/PR,-23.9393362,-51.5850786,40,606.79612
1,Borá/SP,-22.2701088,-50.544407,2,238.94863
1,Bossoroca/RS,-28.7278885,-54.9120278,12,191.11323
D1,Bossoroca/RS,-28.7278885,-54.9120278,1,15.92610
1,Botelhos/MG,-21.65,-46.394722,41,273.86280
D1,Botelhos/MG,-21.65,-46.394722,1,6.67958
1,Botucatu/SP,-22.8879628,-48.4410712,1465,1000.02048
D1,Botucatu/SP,-22.8879628,-48.4410712,28,19.11302
1,Botuporã/BA,-13.3744752,-42.5198469,3,29.38008
D1,Botuporã/BA,-13.3744752,-42.5198469,1,9.79336
1,Botuverá/SC,-27.200749,-49.068892,103,1963.40069
1,Bozano/RS,-28.3669953,-53.7705165,3,141.30947
1,Braga/RS,-27.617348,-53.740514,9,268.41634
1,Braganey/PR,-24.8179919,-53.118506,39,718.62908
D1,Braganey/PR,-24.8179919,-53.118506,2,36.85277
1,Bragança Paulista/SP,-22.9520235,-46.5418586,1535,910.07186
D1,Bragança Paulista/SP,-22.9520235,-46.5418586,37,21.93659
1,Bragança/PA,-1.0573967,-46.7635406,2149,1683.03495
D1,Bragança/PA,-1.0573967,-46.7635406,91,71.26858
1,Branquinha/AL,-9.2478057,-36.0152009,230,2191.72861
D1,Branquinha/AL,-9.2478057,-36.0152009,5,47.64627
1,Brasil Novo/PA,-3.3055853,-52.539198,577,3824.73817
D1,Brasil Novo/PA,-3.3055853,-52.539198,9,59.65796
1,Brasileira/PI,-4.131182,-41.7824969,71,852.44327
D1,Brasileira/PI,-4.131182,-41.7824969,1,12.00624
1,Brasilândia de Minas/MG,-17.0096469,-46.0087183,82,495.82779
D1,Brasilândia de Minas/MG,-17.0096469,-46.0087183,1,6.04668
1,Brasilândia do Sul/PR,-24.1975793,-53.527551,20,754.43229
1,Brasilândia do Tocantins/TO,-8.3886619,-48.4842729,4,181.73557
1,Brasilândia/MS,-21.255575,-52.0365617,73,614.89218
D1,Brasilândia/MS,-21.255575,-52.0365617,2,16.84636
1,Brasiléia/AC,-11.0010413,-68.7487894,916,3485.80562
D1,Brasiléia/AC,-11.0010413,-68.7487894,14,53.27651
1,Brasnorte/MT,-12.1227151,-58.0050109,76,385.88474
1,Brasília de Minas/MG,-16.2075114,-44.430559,34,105.11021
D1,Brasília de Minas/MG,-16.2075114,-44.430559,3,9.27443
1,Brasília/DF,-15.7934036,-47.8823172,133166,4416.39018
D1,Brasília/DF,-15.7934036,-47.8823172,1936,64.20656
1,Brazabrantes/GO,-16.4291635,-49.3858216,61,1647.31299
D1,Brazabrantes/GO,-16.4291635,-49.3858216,2,54.01026
1,Brazópolis/MG,-22.4742842,-45.6165577,186,1286.39602
D1,Brazópolis/MG,-22.4742842,-45.6165577,1,6.91611
1,Braço do Norte/SC,-28.2728633,-49.1622712,1298,3880.41854
D1,Braço do Norte/SC,-28.2728633,-49.1622712,12,35.87444
1,Braço do Trombudo/SC,-27.358578,-49.882145,25,667.91344
D1,Braço do Trombudo/SC,-27.358578,-49.882145,1,26.71654
1,Braúna/SP,-21.5015319,-50.3175246,62,1090.39747
D1,Braúna/SP,-21.5015319,-50.3175246,4,70.34822
1,Braúnas/MG,-19.055556,-42.716111,13,270.77692
D1,Braúnas/MG,-19.055556,-42.716111,1,20.82899
1,Brejetuba/ES,-20.1465817,-41.2902303,356,2870.04192
1,Brejinho de Nazaré/TO,-11.0205883,-48.5722906,47,855.01182
D1,Brejinho de Nazaré/TO,-11.0205883,-48.5722906,2,36.38348
1,Brejinho/PE,-7.3482153,-37.28538,56,747.96314
1,Brejinho/RN,-6.1957907,-35.3583019,147,1157.57146
D1,Brejinho/RN,-6.1957907,-35.3583019,3,23.62391
1,Brejo Alegre/SP,-21.1671191,-50.1850393,23,802.79232
1,Brejo Grande do Araguaia/PA,-5.7011449,-48.4037308,146,1978.31978
D1,Brejo Grande do Araguaia/PA,-5.7011449,-48.4037308,1,13.55014
1,Brejo Grande/SE,-10.4287358,-36.4667918,146,1757.13082
D1,Brejo Grande/SE,-10.4287358,-36.4667918,6,72.21086
1,Brejo Santo/CE,-7.4909841,-38.9859152,955,1930.18979
D1,Brejo Santo/CE,-7.4909841,-38.9859152,18,36.38054
1,Brejo da Madre de Deus/PE,-8.1409718,-36.3712527,754,1485.94852
D1,Brejo da Madre de Deus/PE,-8.1409718,-36.3712527,17,33.50282
1,Brejo de Areia/MA,-4.3316785,-45.5833334,164,1784.93687
D1,Brejo de Areia/MA,-4.3316785,-45.5833334,1,10.88376
1,Brejo do Cruz/PB,-6.32926065,-37.48746163303929,351,2485.48364
D1,Brejo do Cruz/PB,-6.32926065,-37.48746163303929,5,35.40575
1,Brejo do Piauí/PI,-8.207583,-42.8359849,7,180.64516
1,Brejo dos Santos/PB,-6.3769367,-37.8243125,25,387.65700
1,Brejo/MA,-3.6804397,-42.7529313,614,1686.95222
D1,Brejo/MA,-3.6804397,-42.7529313,18,49.45463
1,Brejolândia/BA,-12.4843845,-43.9611861,3,28.41716
D1,Brejolândia/BA,-12.4843845,-43.9611861,1,9.47239
1,Brejão/PE,-9.029146,-36.566034,19,211.27544
1,Brejões/BA,-13.1033754,-39.7909837,27,188.87723
1,Breu Branco/PA,-3.7785073,-49.5684795,275,416.37646
D1,Breu Branco/PA,-3.7785073,-49.5684795,19,28.76783
1,Breves/PA,-1.68036,-50.479085,1830,1781.87165
D1,Breves/PA,-1.68036,-50.479085,82,79.84343
1,Britânia/GO,-15.2427599,-51.1602061,18,311.47257
D1,Britânia/GO,-15.2427599,-51.1602061,1,17.30403
1,Brochier/RS,-29.556766,-51.5963047,20,394.16634
1,Brodowski/SP,-20.984532,-47.657217,297,1190.90581
D1,Brodowski/SP,-20.984532,-47.657217,11,44.10762
1,Brotas/SP,-22.2840884,-48.1267265,67,274.55641
D1,Brotas/SP,-22.2840884,-48.1267265,1,4.09786
1,Brumadinho/MG,-20.143611,-44.2,603,1503.62816
D1,Brumadinho/MG,-20.143611,-44.2,5,12.46790
1,Brumado/BA,-14.29507325,-41.659307508575985,600,892.92358
D1,Brumado/BA,-14.29507325,-41.659307508575985,6,8.92924
1,Brunópolis/SC,-27.310953,-50.837585,26,1074.38017
1,Brusque/SC,-27.0964628,-48.9136323,3566,2646.91255
D1,Brusque/SC,-27.0964628,-48.9136323,44,32.65961
1,Brás Pires/MG,-20.8483109,-43.2430524,5,115.39349
1,Bueno Brandão/MG,-22.441976,-46.3517971,33,299.97273
D1,Bueno Brandão/MG,-22.441976,-46.3517971,3,27.27025
1,Buenos Aires/PE,-7.7218931,-35.326587,42,319.27024
D1,Buenos Aires/PE,-7.7218931,-35.326587,5,38.00836
1,Buenópolis/MG,-17.8756607,-44.1749365,87,839.36324
D1,Buenópolis/MG,-17.8756607,-44.1749365,1,9.64785
1,Buerarema/BA,-14.9571177,-39.3008035,315,1716.71481
D1,Buerarema/BA,-14.9571177,-39.3008035,9,49.04899
1,Bugre/MG,-19.4257687,-42.2556,41,1029.63335
D1,Bugre/MG,-19.4257687,-42.2556,1,25.11301
1,Bujari/AC,-9.8309656,-67.9520886,349,3399.57140
D1,Bujari/AC,-9.8309656,-67.9520886,6,58.44535
1,Bujaru/PA,-1.5169239,-48.0410699,367,1259.78306
D1,Bujaru/PA,-1.5169239,-48.0410699,21,72.08568
1,Buri/SP,-23.79849,-48.598924,170,855.21682
D1,Buri/SP,-23.79849,-48.598924,4,20.12275
1,Buritama/SP,-21.0664017,-50.1448077,167,974.10173
D1,Buritama/SP,-21.0664017,-50.1448077,8,46.66356
1,Buriti Alegre/GO,-18.1377879,-49.0404411,174,1839.51792
1,Buriti Bravo/MA,-5.8391884,-43.8367876,213,891.81042
1,Buriti de Goiás/GO,-16.180644,-50.4287479,23,924.43730
D1,Buriti de Goiás/GO,-16.180644,-50.4287479,1,40.19293
1,Buriti do Tocantins/TO,-5.3187439,-48.2256609,164,1445.18858
1,Buriti dos Lopes/PI,-3.1776723,-41.8707444,656,3316.31363
D1,Buriti dos Lopes/PI,-3.1776723,-41.8707444,12,60.66427
1,Buriti dos Montes/PI,-5.3136171,-41.0971256,12,145.56041
D1,Buriti dos Montes/PI,-5.3136171,-41.0971256,1,12.13003
1,Buriti/MA,-3.9430944,-42.9244281,450,1569.14708
D1,Buriti/MA,-3.9430944,-42.9244281,1,3.48699
1,Buriticupu/MA,-4.3227472,-46.4516989,2067,2856.62954
D1,Buriticupu/MA,-4.3227472,-46.4516989,4,5.52807
1,Buritinópolis/GO,-14.4589282,-46.4293104,26,789.79344
1,Buritirama/BA,-10.7148421,-43.6362327,127,599.79220
D1,Buritirama/BA,-10.7148421,-43.6362327,1,4.72277
1,Buritirana/MA,-5.5897455,-47.0148915,235,1523.00713
D1,Buritirana/MA,-5.5897455,-47.0148915,6,38.88529
1,Buritis/MG,-15.621389,-46.423889,168,676.30128
D1,Buritis/MG,-15.621389,-46.423889,1,4.02560
1,Buritis/RO,-10.2054937,-63.8281954,362,912.89656
D1,Buritis/RO,-10.2054937,-63.8281954,5,12.60907
1,Buritizal/SP,-20.1933264,-47.7097165,48,1071.18947
1,Buritizeiro/MG,-17.3667765,-44.9647781,121,431.28030
D1,Buritizeiro/MG,-17.3667765,-44.9647781,4,14.25720
1,Butiá/RS,-30.1256795,-51.9692224,131,625.56707
D1,Butiá/RS,-30.1256795,-51.9692224,6,28.65193
1,Buíque/PE,-8.6239732,-37.157296,229,392.27106
D1,Buíque/PE,-8.6239732,-37.157296,4,6.85190
1,Bálsamo/SP,-20.7343722,-49.5807484,211,2326.86370
D1,Bálsamo/SP,-20.7343722,-49.5807484,8,88.22232
0,CASO SEM LOCALIZAÇÃO DEFINIDA/AC,-9.884083190922777,-67.85119819780795,193,21.88370
D0,CASO SEM LOCALIZAÇÃO DEFINIDA/AC,-9.884083190922777,-67.85119819780795,2,0.22677
0,CASO SEM LOCALIZAÇÃO DEFINIDA/AL,-9.931093434363673,-35.609611600637464,790,23.67143
D0,CASO SEM LOCALIZAÇÃO DEFINIDA/AL,-9.931093434363673,-35.609611600637464,19,0.56931
0,CASO SEM LOCALIZAÇÃO DEFINIDA/AM,-3.07518492149711,-60.16169212873594,975,23.52460
D0,CASO SEM LOCALIZAÇÃO DEFINIDA/AM,-3.07518492149711,-60.16169212873594,20,0.48256
0,CASO SEM LOCALIZAÇÃO DEFINIDA/AP,2.677150600275196,-50.477785111870624,229,27.07717
D0,CASO SEM LOCALIZAÇÃO DEFINIDA/AP,2.677150600275196,-50.477785111870624,3,0.35472
0,CASO SEM LOCALIZAÇÃO DEFINIDA/BA,-13.415069300066518,-38.14174656569957,13069,87.87026
D0,CASO SEM LOCALIZAÇÃO DEFINIDA/BA,-13.415069300066518,-38.14174656569957,191,1.28420
0,CASO SEM LOCALIZAÇÃO DEFINIDA/CE,-3.3445126297392798,-38.624961942434304,3217,35.22747
D0,CASO SEM LOCALIZAÇÃO DEFINIDA/CE,-3.3445126297392798,-38.624961942434304,14,0.15331
0,CASO SEM LOCALIZAÇÃO DEFINIDA/ES,-20.30989267097039,-39.81745156645774,2065,51.38542
D0,CASO SEM LOCALIZAÇÃO DEFINIDA/ES,-20.30989267097039,-39.81745156645774,41,1.02024
0,CASO SEM LOCALIZAÇÃO DEFINIDA/GO,-16.701590966270153,-49.164524059025034,2475,35.26468
D0,CASO SEM LOCALIZAÇÃO DEFINIDA/GO,-16.701590966270153,-49.164524059025034,48,0.68392
0,CASO SEM LOCALIZAÇÃO DEFINIDA/MA,-2.171256551718846,-43.98946796681719,1131,15.98546
D0,CASO SEM LOCALIZAÇÃO DEFINIDA/MA,-2.171256551718846,-43.98946796681719,12,0.16961
0,CASO SEM LOCALIZAÇÃO DEFINIDA/MG,-19.97049116501593,-43.8852149072783,512,2.41865
D0,CASO SEM LOCALIZAÇÃO DEFINIDA/MG,-19.97049116501593,-43.8852149072783,41,0.19368
0,CASO SEM LOCALIZAÇÃO DEFINIDA/MS,-20.391549234908513,-54.645156949758444,1925,69.26987
D0,CASO SEM LOCALIZAÇÃO DEFINIDA/MS,-20.391549234908513,-54.645156949758444,33,1.18748
0,CASO SEM LOCALIZAÇÃO DEFINIDA/MT,-15.54791153961863,-56.17143998972475,7207,206.83227
D0,CASO SEM LOCALIZAÇÃO DEFINIDA/MT,-15.54791153961863,-56.17143998972475,169,4.85010
0,CASO SEM LOCALIZAÇÃO DEFINIDA/PB,-7.1049355696146606,-34.68696690234351,866,21.55233
D0,CASO SEM LOCALIZAÇÃO DEFINIDA/PB,-7.1049355696146606,-34.68696690234351,21,0.52263
0,CASO SEM LOCALIZAÇÃO DEFINIDA/PE,-8.121628543819208,-34.57313921302556,1814,18.98071
D0,CASO SEM LOCALIZAÇÃO DEFINIDA/PE,-8.121628543819208,-34.57313921302556,86,0.89986
0,CASO SEM LOCALIZAÇÃO DEFINIDA/PI,-2.683810218391744,-41.470898009352254,1043,31.86458
D0,CASO SEM LOCALIZAÇÃO DEFINIDA/PI,-2.683810218391744,-41.470898009352254,13,0.39716
0,CASO SEM LOCALIZAÇÃO DEFINIDA/PR,-25.69415946385943,-48.10141676336737,5147,45.01504
D0,CASO SEM LOCALIZAÇÃO DEFINIDA/PR,-25.69415946385943,-48.10141676336737,124,1.08449
0,CASO SEM LOCALIZAÇÃO DEFINIDA/RJ,-23.210238986465157,-43.12864305824042,4281,24.79591
D0,CASO SEM LOCALIZAÇÃO DEFINIDA/RJ,-23.210238986465157,-43.12864305824042,212,1.22792
0,CASO SEM LOCALIZAÇÃO DEFINIDA/RN,-5.749310788669161,-34.95302586257457,201,5.73163
D0,CASO SEM LOCALIZAÇÃO DEFINIDA/RN,-5.749310788669161,-34.95302586257457,36,1.02656
0,CASO SEM LOCALIZAÇÃO DEFINIDA/RO,-8.681174926655274,-63.9216949899276,1227,69.04022
D0,CASO SEM LOCALIZAÇÃO DEFINIDA/RO,-8.681174926655274,-63.9216949899276,20,1.12535
0,CASO SEM LOCALIZAÇÃO DEFINIDA/RR,2.813328208465927,-60.663338675861986,2515,415.18024
D0,CASO SEM LOCALIZAÇÃO DEFINIDA/RR,2.813328208465927,-60.663338675861986,14,2.31114
0,CASO SEM LOCALIZAÇÃO DEFINIDA/RS,-30.50647488532064,-49.906261466443524,2582,22.69443
D0,CASO SEM LOCALIZAÇÃO DEFINIDA/RS,-30.50647488532064,-49.906261466443524,47,0.41311
0,CASO SEM LOCALIZAÇÃO DEFINIDA/SC,-27.675643660562308,-48.18313219398259,3420,47.73344
0,CASO SEM LOCALIZAÇÃO DEFINIDA/SE,-11.03002091978736,-36.89283180376513,415,18.05371
D0,CASO SEM LOCALIZAÇÃO DEFINIDA/SE,-11.03002091978736,-36.89283180376513,14,0.60904
0,CASO SEM LOCALIZAÇÃO DEFINIDA/SP,-24.30968974555485,-46.21366504207253,11807,25.71264
D0,CASO SEM LOCALIZAÇÃO DEFINIDA/SP,-24.30968974555485,-46.21366504207253,289,0.62937
0,CASO SEM LOCALIZAÇÃO DEFINIDA/TO,-10.213012114749148,-48.40023803990334,994,63.19674
D0,CASO SEM LOCALIZAÇÃO DEFINIDA/TO,-10.213012114749148,-48.40023803990334,7,0.44505
1,Caapiranga/AM,-3.3188884,-61.2096404,269,2056.41771
D1,Caapiranga/AM,-3.3188884,-61.2096404,6,45.86805
1,Caaporã/PB,-7.510234,-34.9154114,914,4187.28239
D1,Caaporã/PB,-7.510234,-34.9154114,12,54.97526
1,Caarapó/MS,-22.6349267,-54.8240903,275,911.38066
D1,Caarapó/MS,-22.6349267,-54.8240903,1,3.31411
1,Caatiba/BA,-14.9782759,-40.4092325,142,2101.21338
1,Cabaceiras do Paraguaçu/BA,-12.5377868,-39.1901339,47,249.90695
D1,Cabaceiras do Paraguaçu/BA,-12.5377868,-39.1901339,1,5.31717
1,Cabaceiras/PB,-7.4899156,-36.2860501,60,1069.32811
1,Cabeceira Grande/MG,-16.0297,-47.0906,15,215.85840
1,Cabeceiras do Piauí/PI,-4.4733665,-42.3098716,170,1605.89458
D1,Cabeceiras do Piauí/PI,-4.4733665,-42.3098716,1,9.44644
1,Cabeceiras/GO,-15.7995459,-46.9264991,17,212.68610
D1,Cabeceiras/GO,-15.7995459,-46.9264991,1,12.51095
1,Cabedelo/PB,-6.97324,-34.8351609,2593,3828.09732
D1,Cabedelo/PB,-6.97324,-34.8351609,54,79.72127
1,Cabixi/RO,-13.4956065,-60.5424442,67,1261.29518
D1,Cabixi/RO,-13.4956065,-60.5424442,4,75.30120
1,Cabo Frio/RJ,-22.8804369,-42.0189227,1721,759.73954
D1,Cabo Frio/RJ,-22.8804369,-42.0189227,91,40.17217
1,Cabo Verde/MG,-21.4743338,-46.3964995,8,56.83837
1,Cabo de Santo Agostinho/PE,-8.2838945,-35.0320984,1559,752.96550
D1,Cabo de Santo Agostinho/PE,-8.2838945,-35.0320984,216,104.32364
1,Cabreúva/SP,-23.3075813,-47.1324417,860,1730.13861
D1,Cabreúva/SP,-23.3075813,-47.1324417,36,72.42441
1,Cabrobó/PE,-8.5083701,-39.3106961,362,1057.82999
D1,Cabrobó/PE,-8.5083701,-39.3106961,2,5.84436
1,Cabrália Paulista/SP,-22.4562909,-49.3385645,52,1219.51220
1,Cacaulândia/RO,-10.3380043,-62.9007231,55,882.82504
1,Cacequi/RS,-29.8838059,-54.8273443,10,79.61150
1,Cachoeira Alta/GO,-18.7618269,-50.9432431,307,2459.14771
D1,Cachoeira Alta/GO,-18.7618269,-50.9432431,1,8.01025
1,Cachoeira Dourada/GO,-18.4934204,-49.481062,25,309.90455
1,Cachoeira Dourada/MG,-18.517136,-49.5002062,4,148.58841
1,Cachoeira Grande/MA,-2.9290492,-44.0573223,170,1802.56601
D1,Cachoeira Grande/MA,-2.9290492,-44.0573223,3,31.80999
1,Cachoeira Paulista/SP,-22.666498,-45.015384,199,597.11345
D1,Cachoeira Paulista/SP,-22.666498,-45.015384,7,21.00399
1,Cachoeira da Prata/MG,-19.524723,-44.453056,24,666.11157
1,Cachoeira de Goiás/GO,-16.6688414,-50.6435997,11,814.21170
1,Cachoeira de Minas/MG,-22.3554043,-45.7796324,45,389.71161
1,Cachoeira de Pajeú/MG,-15.965833,-41.496666,83,881.85295
1,Cachoeira do Arari/PA,-1.0143572,-48.9621089,259,1089.74629
D1,Cachoeira do Arari/PA,-1.0143572,-48.9621089,11,46.28266
1,Cachoeira do Piriá/PA,-1.7599443,-46.5446954,444,1309.73451
D1,Cachoeira do Piriá/PA,-1.7599443,-46.5446954,2,5.89971
1,Cachoeira do Sul/RS,-30.0474778,-52.8905413,286,347.92764
D1,Cachoeira do Sul/RS,-30.0474778,-52.8905413,3,3.64959
1,Cachoeira dos Índios/PB,-6.9259193,-38.6742159,95,927.37212
D1,Cachoeira dos Índios/PB,-6.9259193,-38.6742159,6,58.57087
1,Cachoeira/BA,-12.5998256,-38.9665918,350,1045.71258
D1,Cachoeira/BA,-12.5998256,-38.9665918,7,20.91425
1,Cachoeiras de Macacu/RJ,-22.4626861,-42.6534414,482,817.82242
D1,Cachoeiras de Macacu/RJ,-22.4626861,-42.6534414,26,44.11490
1,Cachoeirinha/PE,-8.4906364,-36.2338963,271,1329.73503
D1,Cachoeirinha/PE,-8.4906364,-36.2338963,18,88.32188
1,Cachoeirinha/RS,-29.9493353,-51.0898927,1544,1185.02145
D1,Cachoeirinha/RS,-29.9493353,-51.0898927,33,25.32753
1,Cachoeirinha/TO,-6.118647,-47.9208885,18,791.20879
1,Cachoeiro de Itapemirim/ES,-20.848084,-41.11129,4132,1977.29839
D1,Cachoeiro de Itapemirim/ES,-20.848084,-41.11129,121,57.90249
1,Cacimba de Areia/PB,-7.1288513,-37.1575194,8,217.27322
1,Cacimba de Dentro/PB,-6.6425101,-35.7929304,255,1483.67953
D1,Cacimba de Dentro/PB,-6.6425101,-35.7929304,5,29.09176
1,Cacimbas/PB,-7.2125451,-37.0593398,46,641.29374
D1,Cacimbas/PB,-7.2125451,-37.0593398,1,13.94117
1,Cacimbinhas/AL,-9.401212,-36.991082,195,1795.91085
D1,Cacimbinhas/AL,-9.401212,-36.991082,3,27.62940
1,Cacique Doble/RS,-27.7700117,-51.6616409,55,1085.88351
1,Cacoal/RO,-11.4333,-61.4420502,1189,1392.94040
D1,Cacoal/RO,-11.4333,-61.4420502,19,22.25893
1,Caconde/SP,-21.527995,-46.643659,64,337.10824
1,Caculé/BA,-14.4990734,-42.2233006,54,233.05999
D1,Caculé/BA,-14.4990734,-42.2233006,1,4.31593
1,Caetanos/BA,-14.3387456,-40.9085971,17,116.90276
1,Caetanópolis/MG,-19.2947496,-44.4138386,45,387.13008
1,Caetité/BA,-14.0691776,-42.4852428,92,180.48063
D1,Caetité/BA,-14.0691776,-42.4852428,3,5.88524
1,Caeté/MG,-19.897777,-43.670278,202,451.71967
D1,Caeté/MG,-19.897777,-43.670278,2,4.47247
1,Caetés/PE,-8.7728788,-36.6255835,355,1235.25523
D1,Caetés/PE,-8.7728788,-36.6255835,5,17.39796
1,Cafarnaum/BA,-11.691399,-41.468823,124,672.56061
1,Cafeara/PR,-22.78905,-51.714195,44,1499.65917
1,Cafelândia/PR,-24.6176963,-53.3218057,83,458.05740
D1,Cafelândia/PR,-24.6176963,-53.3218057,1,5.51876
1,Cafelândia/SP,-21.8054355,-49.6030627,177,996.22896
D1,Cafelândia/SP,-21.8054355,-49.6030627,2,11.25682
1,Cafezal do Sul/PR,-23.900508,-53.512418,9,222.55193
1,Caiabu/SP,-22.0143038,-51.2356597,29,691.95896
D1,Caiabu/SP,-22.0143038,-51.2356597,2,47.72131
1,Caiana/MG,-20.695555,-41.924723,13,236.53566
D1,Caiana/MG,-20.695555,-41.924723,1,18.19505
1,Caiapônia/GO,-16.9538779,-51.8090761,76,401.84000
1,Caibaté/RS,-28.290475,-54.645407,2,41.27115
1,Caibi/SC,-27.0751925,-53.2502133,29,471.69811
D1,Caibi/SC,-27.0751925,-53.2502133,2,32.53090
1,Caicó/RN,-6.4594544,-37.0971911,1303,1917.53002
D1,Caicó/RN,-6.4594544,-37.0971911,18,26.48929
1,Caieiras/SP,-23.3644621,-46.7484765,1444,1423.08071
D1,Caieiras/SP,-23.3644621,-46.7484765,78,76.87001
1,Cairu/BA,-13.4860505,-39.0455744,144,792.25352
D1,Cairu/BA,-13.4860505,-39.0455744,3,16.50528
1,Caiuá/SP,-21.8319357,-51.9887179,47,800.13619
1,Caiçara do Norte/RN,-5.0645017,-36.0561226,85,1297.90808
D1,Caiçara do Norte/RN,-5.0645017,-36.0561226,3,45.80852
1,Caiçara do Rio do Vento/RN,-5.757968,-36.00089,60,1628.66450
D1,Caiçara do Rio do Vento/RN,-5.757968,-36.00089,1,27.14441
1,Caiçara/PB,-6.6146866,-35.4681434,410,5693.65366
D1,Caiçara/PB,-6.6146866,-35.4681434,5,69.43480
1,Caiçara/RS,-27.2750478,-53.4310053,22,463.84145
D1,Caiçara/RS,-27.2750478,-53.4310053,1,21.08370
1,Cajamar/SP,-23.3561111,-46.8769444,1178,1533.83419
D1,Cajamar/SP,-23.3561111,-46.8769444,63,82.03018
1,Cajapió/MA,-2.8778715,-44.6746871,5,44.73472
D1,Cajapió/MA,-2.8778715,-44.6746871,2,17.89389
1,Cajari/MA,-3.3213076,-45.0118757,121,624.38722
D1,Cajari/MA,-3.3213076,-45.0118757,4,20.64090
1,Cajati/SP,-24.7272376,-48.1077914,1241,4346.91233
D1,Cajati/SP,-24.7272376,-48.1077914,14,49.03850
1,Cajazeiras do Piauí/PI,-6.794271,-42.3935024,6,168.58668
1,Cajazeiras/PB,-6.8897849,-38.5570389,1421,2292.19428
D1,Cajazeiras/PB,-6.8897849,-38.5570389,35,56.45799
1,Cajazeirinhas/PB,-6.961442,-37.7993733,24,751.64422
1,Cajobi/SP,-20.8776238,-48.8106972,100,948.58661
D1,Cajobi/SP,-20.8776238,-48.8106972,5,47.42933
1,Cajueiro da Praia/PI,-2.931114,-41.340801,217,2839.57079
D1,Cajueiro da Praia/PI,-2.931114,-41.340801,7,91.59906
1,Cajueiro/AL,-9.399589,-36.1524309,222,1044.01806
D1,Cajueiro/AL,-9.399589,-36.1524309,12,56.43341
1,Cajuri/MG,-20.7901414,-42.7954489,41,1028.34211
1,Cajuru/SP,-21.2759978,-47.3046035,279,1066.22846
D1,Cajuru/SP,-21.2759978,-47.3046035,7,26.75125
1,Caldas Brandão/PB,-7.1027959,-35.3254676,226,3757.89824
D1,Caldas Brandão/PB,-7.1027959,-35.3254676,2,33.25574
1,Caldas Novas/GO,-17.745,-48.625,586,642.81170
D1,Caldas Novas/GO,-17.745,-48.625,12,13.16338
1,Caldas/MG,-21.923611,-46.386111,55,379.83425
1,Caldazinha/GO,-16.7116649,-49.0012601,40,1051.52471
D1,Caldazinha/GO,-16.7116649,-49.0012601,1,26.28812
1,Caldeirão Grande do Piauí/PI,-7.3310393,-40.6374433,63,1090.72022
1,Caldeirão Grande/BA,-11.0208483,-40.3041387,110,825.39206
D1,Caldeirão Grande/BA,-11.0208483,-40.3041387,1,7.50356
1,Califórnia/PR,-23.6672543,-51.3554556,33,385.06418
D1,Califórnia/PR,-23.6672543,-51.3554556,2,23.33722
1,Calmon/SC,-26.6023644,-51.0992893,5,149.43216
1,Calumbi/PE,-7.9389746,-38.1516871,109,1895.65217
D1,Calumbi/PE,-7.9389746,-38.1516871,1,17.39130
1,Calçado/PE,-8.7413446,-36.3351787,45,407.12929
D1,Calçado/PE,-8.7413446,-36.3351787,1,9.04732
1,Calçoene/AP,2.4981757,-50.9539503,1108,9966.71764
D1,Calçoene/AP,2.4981757,-50.9539503,5,44.97616
1,Camacan/BA,-15.4166631,-39.4930088,1066,3332.49969
D1,Camacan/BA,-15.4166631,-39.4930088,21,65.64962
1,Camalaú/PB,-7.885031,-36.824191,2,33.26127
1,Camamu/BA,-13.9438142,-39.1060917,715,2024.57809
D1,Camamu/BA,-13.9438142,-39.1060917,11,31.14736
1,Camanducaia/MG,-22.755278,-46.144444,318,1460.72577
D1,Camanducaia/MG,-22.755278,-46.144444,4,18.37391
1,Camapuã/MS,-19.5291747,-54.0434641,28,204.21559
D1,Camapuã/MS,-19.5291747,-54.0434641,1,7.29341
1,Camaquã/RS,-30.8524752,-51.8075619,443,668.56824
D1,Camaquã/RS,-30.8524752,-51.8075619,13,19.61938
1,Camaragibe/PE,-8.0213832,-34.9810768,1747,1106.90118
D1,Camaragibe/PE,-8.0213832,-34.9810768,155,98.20818
1,Camargo/RS,-28.5865661,-52.2031474,27,987.92536
1,Camaçari/BA,-12.6998188,-38.3260762,4731,1581.57603
D1,Camaçari/BA,-12.6998188,-38.3260762,62,20.72664
1,Cambará do Sul/RS,-29.0489517,-50.145412,51,793.03374
1,Cambará/PR,-23.042273,-50.075281,92,362.77603
D1,Cambará/PR,-23.042273,-50.075281,3,11.82965
1,Cambira/PR,-23.600265,-51.581045,18,228.86205
D1,Cambira/PR,-23.600265,-51.581045,1,12.71456
1,Camboriú/SC,-27.0273601,-48.6535657,1859,2240.05591
D1,Camboriú/SC,-27.0273601,-48.6535657,31,37.35435
1,Cambuci/RJ,-21.5749919,-41.9107833,133,857.78781
D1,Cambuci/RJ,-21.5749919,-41.9107833,1,6.44953
1,Cambuquira/MG,-21.853056,-45.2953619,8,62.43172
1,Cambuí/MG,-22.6122501,-46.0572137,209,707.25187
D1,Cambuí/MG,-22.6122501,-46.0572137,5,16.91990
1,Cambé/PR,-23.2782035,-51.2779583,661,620.46502
D1,Cambé/PR,-23.2782035,-51.2779583,13,12.20279
1,Cametá/PA,-2.242949,-49.497885,4529,3284.50214
D1,Cametá/PA,-2.242949,-49.497885,91,65.99463
1,Camocim de São Félix/PE,-8.3616757,-35.7638903,146,778.04423
D1,Camocim de São Félix/PE,-8.3616757,-35.7638903,5,26.64535
1,Camocim/CE,-2.9009918,-40.8427389,2259,3548.48337
D1,Camocim/CE,-2.9009918,-40.8427389,79,124.09481
1,Campanha/MG,-21.8361108,-45.401986,46,276.02760
D1,Campanha/MG,-21.8361108,-45.401986,2,12.00120
1,Campanário/MG,-18.2398144,-41.7271768,9,241.87046
1,Campestre da Serra/RS,-28.7966535,-51.0958149,22,649.35065
1,Campestre de Goiás/GO,-16.7624179,-49.69497,78,2148.76033
D1,Campestre de Goiás/GO,-16.7624179,-49.69497,1,27.54821
1,Campestre do Maranhão/MA,-6.1729113,-47.3640512,303,2107.97273
D1,Campestre do Maranhão/MA,-6.1729113,-47.3640512,2,13.91401
1,Campestre/AL,-8.8481634,-35.5660033,82,1182.23760
D1,Campestre/AL,-8.8481634,-35.5660033,3,43.25260
1,Campestre/MG,-19.6142116,-43.219378,90,427.45191
D1,Campestre/MG,-19.6142116,-43.219378,3,14.24840
1,Campina Grande do Sul/PR,-25.3046032,-49.0545355,573,1323.69248
D1,Campina Grande do Sul/PR,-25.3046032,-49.0545355,14,32.34153
1,Campina Grande/PB,-7.2246743,-35.8771292,11567,2823.07172
D1,Campina Grande/PB,-7.2246743,-35.8771292,251,61.25970
1,Campina Verde/MG,-19.535277,-49.486389,72,364.64928
D1,Campina Verde/MG,-19.535277,-49.486389,2,10.12915
1,Campina da Lagoa/PR,-24.5937926,-52.8038965,14,98.57767
D1,Campina da Lagoa/PR,-24.5937926,-52.8038965,2,14.08252
1,Campina das Missões/RS,-27.9883295,-54.8411665,6,109.60906
1,Campina do Monte Alegre/SP,-23.5935653,-48.4801876,71,1178.61886
1,Campina do Simão/PR,-25.1086375,-51.8076658,4,102.90713
1,Campinas do Piauí/PI,-7.6593687,-41.8814875,21,374.13148
1,Campinas do Sul/RS,-27.7167968,-52.6257885,34,623.39567
D1,Campinas do Sul/RS,-27.7167968,-52.6257885,1,18.33517
1,Campinas/SP,-22.90556,-47.06083,22652,1881.28128
D1,Campinas/SP,-22.90556,-47.06083,847,70.34457
1,Campinaçu/GO,-13.7869969,-48.5703841,104,2857.14286
1,Campinorte/GO,-14.3136699,-49.1510931,160,1267.22636
D1,Campinorte/GO,-14.3136699,-49.1510931,2,15.84033
1,Campinápolis/MT,-14.5403731,-52.7970626,200,1251.56446
D1,Campinápolis/MT,-14.5403731,-52.7970626,8,50.06258
1,Campo Alegre de Goiás/GO,-17.6337896,-47.779291,5,65.88483
1,Campo Alegre de Lourdes/BA,-9.5160326,-43.0101338,87,302.10431
D1,Campo Alegre de Lourdes/BA,-9.5160326,-43.0101338,2,6.94493
1,Campo Alegre do Fidalgo/PI,-8.3753852,-41.8364191,13,257.68087
D1,Campo Alegre do Fidalgo/PI,-8.3753852,-41.8364191,1,19.82161
1,Campo Alegre/AL,-9.7798607,-36.3575793,1190,2085.41437
D1,Campo Alegre/AL,-9.7798607,-36.3575793,25,43.81123
1,Campo Alegre/SC,-26.1941684,-49.2657484,87,726.33161
D1,Campo Alegre/SC,-26.1941684,-49.2657484,2,16.69728
1,Campo Azul/MG,-16.5078525,-44.8133524,1,26.19859
1,Campo Belo do Sul/SC,-27.8987563,-50.7586887,25,356.32839
1,Campo Belo/MG,-20.8975,-45.277223,408,755.15001
D1,Campo Belo/MG,-20.8975,-45.277223,9,16.65772
1,Campo Bom/RS,-29.674694,-51.060601,1374,2059.59947
D1,Campo Bom/RS,-29.674694,-51.060601,31,46.46840
1,Campo Bonito/PR,-25.0328004,-52.992976,40,1043.56901
D1,Campo Bonito/PR,-25.0328004,-52.992976,1,26.08923
1,Campo Erê/SC,-26.3947432,-53.0790495,63,738.91626
1,Campo Florido/MG,-19.760833,-48.572223,55,674.76383
1,Campo Formoso/BA,-10.51055,-40.320031,800,1123.50083
D1,Campo Formoso/BA,-10.51055,-40.320031,6,8.42626
1,Campo Grande do Piauí/PI,-7.1327559,-41.0381164,88,1480.73364
D1,Campo Grande do Piauí/PI,-7.1327559,-41.0381164,1,16.82652
1,Campo Grande/AL,-9.9725,-36.74791447368421,165,1726.30257
D1,Campo Grande/AL,-9.9725,-36.74791447368421,4,41.84976
1,Campo Grande/MS,-20.4640173,-54.6162947,13940,1555.83483
D1,Campo Grande/MS,-20.4640173,-54.6162947,204,22.76831
1,Campo Largo do Piauí/PI,-3.8104731,-42.6288333,120,1648.57810
D1,Campo Largo do Piauí/PI,-3.8104731,-42.6288333,4,54.95260
1,Campo Largo/PR,-25.4597726,-49.5270851,1823,1381.03968
D1,Campo Largo/PR,-25.4597726,-49.5270851,44,33.33283
1,Campo Limpo Paulista/SP,-23.207791,-46.788919,838,989.95865
D1,Campo Limpo Paulista/SP,-23.207791,-46.788919,58,68.51742
1,Campo Limpo de Goiás/GO,-16.297101,-49.0894994,18,231.09513
1,Campo Magro/PR,-25.3691533,-49.4496921,296,1009.61866
D1,Campo Magro/PR,-25.3691533,-49.4496921,5,17.05437
1,Campo Maior/PI,-4.8339574,-42.1739786,1906,4069.77986
D1,Campo Maior/PI,-4.8339574,-42.1739786,37,79.00412
1,Campo Mourão/PR,-24.046329,-52.37802,689,726.34120
D1,Campo Mourão/PR,-24.046329,-52.37802,24,25.30071
1,Campo Novo de Rondônia/RO,-10.5704235,-63.6199511,102,721.40887
D1,Campo Novo de Rondônia/RO,-10.5704235,-63.6199511,4,28.29054
1,Campo Novo do Parecis/MT,-13.658735,-57.890723,1271,3594.45701
D1,Campo Novo do Parecis/MT,-13.658735,-57.890723,13,36.76471
1,Campo Novo/RS,-28.91500235,-52.331375687737626,13,289.91971
1,Campo Redondo/RN,-6.2420373,-36.1830606,172,1533.38682
D1,Campo Redondo/RN,-6.2420373,-36.1830606,2,17.83008
1,Campo Verde/MT,-15.5430787,-55.1590511,1019,2313.75309
D1,Campo Verde/MT,-15.5430787,-55.1590511,15,34.05917
1,Campo do Brito/SE,-10.7496246,-37.4942276,465,2567.78397
D1,Campo do Brito/SE,-10.7496246,-37.4942276,7,38.65481
1,Campo do Meio/MG,-21.1072006,-45.8301735,17,145.86015
1,Campo do Tenente/PR,-25.9814143,-49.684518,57,715.09221
D1,Campo do Tenente/PR,-25.9814143,-49.684518,3,37.63643
1,Campos Altos/MG,-19.696389,-46.171389,90,582.10982
D1,Campos Altos/MG,-19.696389,-46.171389,2,12.93577
1,Campos Belos/GO,-13.0349839,-46.768112,121,608.43767
D1,Campos Belos/GO,-13.0349839,-46.768112,1,5.02841
1,Campos Borges/RS,-28.8852198,-52.999098,5,150.60241
1,Campos Gerais/MG,-21.2333342,-45.7584127,64,222.42302
D1,Campos Gerais/MG,-21.2333342,-45.7584127,2,6.95072
1,Campos Lindos/TO,-7.9740597,-46.8023881,68,672.20245
D1,Campos Lindos/TO,-7.9740597,-46.8023881,1,9.88533
1,Campos Novos Paulista/SP,-22.601952,-49.998726,27,543.80665
1,Campos Novos/SC,-27.3962904,-51.2224397,615,1696.83258
D1,Campos Novos/SC,-27.3962904,-51.2224397,12,33.10893
1,Campos Sales/CE,-7.0742675,-40.3740367,259,944.35937
D1,Campos Sales/CE,-7.0742675,-40.3740367,7,25.52323
1,Campos Verdes/GO,-14.2709062,-49.65746,17,794.02149
1,Campos de Júlio/MT,-13.7223646,-59.2645296,274,3976.20084
D1,Campos de Júlio/MT,-13.7223646,-59.2645296,4,58.04673
1,Campos do Jordão/SP,-22.7395263,-45.5912829,462,886.96053
D1,Campos do Jordão/SP,-22.7395263,-45.5912829,7,13.43880
1,Campos dos Goytacazes/RJ,-21.7558619,-41.3326895,3377,665.35579
D1,Campos dos Goytacazes/RJ,-21.7558619,-41.3326895,244,48.07427
1,Camutanga/PE,-7.4092965,-35.2738166,137,1602.15180
D1,Camutanga/PE,-7.4092965,-35.2738166,4,46.77815
1,Cana Verde/MG,-21.021308,-45.1817881,65,1160.09281
D1,Cana Verde/MG,-21.021308,-45.1817881,1,17.84758
1,Canabrava do Norte/MT,-11.0516481,-51.8301897,50,1054.18511
D1,Canabrava do Norte/MT,-11.0516481,-51.8301897,1,21.08370
1,Cananéia/SP,-25.0104609,-47.9315628,118,940.98884
D1,Cananéia/SP,-25.0104609,-47.9315628,7,55.82137
1,Canapi/AL,-9.1173572,-37.6011704,53,299.06331
D1,Canapi/AL,-9.1173572,-37.6011704,3,16.92811
1,Canarana/BA,-11.6870151,-41.7683675,71,271.24083
D1,Canarana/BA,-11.6870151,-41.7683675,1,3.82029
1,Canarana/MT,-13.5564602,-52.2691167,384,1779.50785
D1,Canarana/MT,-13.5564602,-52.2691167,8,37.07308
1,Canas/SP,-22.7029347,-45.0526508,20,389.25652
D1,Canas/SP,-22.7029347,-45.0526508,1,19.46283
1,Canavieiras/BA,-15.61621745,-39.08485321304444,121,389.08003
D1,Canavieiras/BA,-15.61621745,-39.08485321304444,3,9.64661
1,Canaã dos Carajás/PA,-6.5296837,-49.8516592,2980,8035.59391
D1,Canaã dos Carajás/PA,-6.5296837,-49.8516592,38,102.46730
1,Candeal/BA,-11.8053441,-39.1206515,43,520.70719
1,Candeias do Jamari/RO,-8.7949939,-63.7018851,1043,3907.39145
D1,Candeias do Jamari/RO,-8.7949939,-63.7018851,20,74.92601
1,Candeias/BA,-12.6693806,-38.5406462,1735,1992.51229
D1,Candeias/BA,-12.6693806,-38.5406462,36,41.34319
1,Candeias/MG,-20.7676161,-45.2763777,64,429.93417
D1,Candeias/MG,-20.7676161,-45.2763777,2,13.43544
1,Candelária/RS,-29.668391,-52.789495,98,312.45018
D1,Candelária/RS,-29.668391,-52.789495,1,3.18827
1,Candiba/BA,-14.4125032,-42.8714102,23,160.62574
1,Candiota/RS,-31.5451894,-53.719538,59,615.60935
D1,Candiota/RS,-31.5451894,-53.719538,1,10.43406
1,Candói/PR,-25.5711951,-52.051107,55,344.20176
1,Canela/RS,-29.3624657,-50.8134204,343,762.25610
D1,Canela/RS,-29.3624657,-50.8134204,12,26.66785
1,Canelinha/SC,-27.2660341,-48.7666708,350,2859.47712
D1,Canelinha/SC,-27.2660341,-48.7666708,4,32.67974
1,Canguaretama/RN,-6.3751942,-35.137463,299,872.33049
D1,Canguaretama/RN,-6.3751942,-35.137463,16,46.67989
1,Canguçu/RS,-31.398276,-52.6773522,69,123.11535
D1,Canguçu/RS,-31.398276,-52.6773522,2,3.56856
1,Canhoba/SE,-10.1373681,-36.9710796,77,1921.15768
1,Canhotinho/PE,-8.876519,-36.197935,241,971.61748
D1,Canhotinho/PE,-8.876519,-36.197935,11,44.34769
1,Canindé de São Francisco/SE,-9.6597475,-37.7904456,254,849.49833
D1,Canindé de São Francisco/SE,-9.6597475,-37.7904456,7,23.41137
1,Canindé/CE,-4.3547946,-39.3108516,1845,2396.19725
D1,Canindé/CE,-4.3547946,-39.3108516,67,87.01638
1,Canitar/SP,-23.0066616,-49.7840632,28,536.80982
D1,Canitar/SP,-23.0066616,-49.7840632,1,19.17178
1,Canoas/RS,-29.9216045,-51.1799525,3018,870.70418
D1,Canoas/RS,-29.9216045,-51.1799525,135,38.94800
1,Canoinhas/SC,-26.176591,-50.395001,306,562.48966
D1,Canoinhas/SC,-26.176591,-50.395001,8,14.70561
1,Cansanção/BA,-10.6671448,-39.498199,115,330.13722
D1,Cansanção/BA,-10.6671448,-39.498199,2,5.74152
1,Cantagalo/PR,-25.3735238,-52.1238114,55,413.00593
D1,Cantagalo/PR,-25.3735238,-52.1238114,1,7.50920
1,Cantagalo/RJ,-21.9811325,-42.3682522,58,287.52727
D1,Cantagalo/RJ,-21.9811325,-42.3682522,1,4.95737
1,Cantanhede/MA,-3.6355005,-44.3778738,381,1732.21187
D1,Cantanhede/MA,-3.6355005,-44.3778738,3,13.63946
1,Canto do Buriti/PI,-8.1112473,-42.944844,227,1071.41171
D1,Canto do Buriti/PI,-8.1112473,-42.944844,3,14.15963
1,Cantá/RR,2.60994,-60.605827,796,4341.42351
D1,Cantá/RR,2.60994,-60.605827,8,43.63240
1,Canudos do Vale/RS,-29.3240418,-52.2348494,5,291.37529
1,Canudos/BA,-9.8948692,-39.0266244,90,539.95680
D1,Canudos/BA,-9.8948692,-39.0266244,2,11.99904
1,Canutama/AM,-6.5330019,-64.3834966,343,2194.63817
1,Canápolis/MG,-18.7228793,-49.2016329,173,1423.86831
D1,Canápolis/MG,-18.7228793,-49.2016329,3,24.69136
1,Capanema/PA,-1.1933054,-47.1828679,1131,1638.48929
D1,Capanema/PA,-1.1933054,-47.1828679,61,88.37122
1,Capanema/PR,-25.6704878,-53.8083036,344,1798.78686
D1,Capanema/PR,-25.6704878,-53.8083036,2,10.45806
1,Caparaó/MG,-20.5232726,-41.9049984,16,294.22582
D1,Caparaó/MG,-20.5232726,-41.9049984,2,36.77823
1,Capela Nova/MG,-20.9236773,-43.6179487,2,42.98302
1,Capela de Santana/RS,-29.6926603,-51.3206659,30,251.25628
1,Capela do Alto Alegre/BA,-11.6703944,-39.8362745,132,1134.31297
D1,Capela do Alto Alegre/BA,-11.6703944,-39.8362745,1,8.59328
1,Capela do Alto/SP,-23.4704798,-47.7352309,197,951.41505
D1,Capela do Alto/SP,-23.4704798,-47.7352309,1,4.82952
1,Capela/AL,-9.415041,-36.082583,498,2920.30728
D1,Capela/AL,-9.415041,-36.082583,4,23.45628
1,Capela/SE,-10.50494,-37.0552566,668,1952.47421
D1,Capela/SE,-10.50494,-37.0552566,16,46.76585
1,Capelinha/MG,-17.693889,-42.518611,25,66.16557
1,Capetinga/MG,-20.6193382,-47.0577418,16,231.21387
1,Capim Branco/MG,-19.548333,-44.133056,28,287.06172
D1,Capim Branco/MG,-19.548333,-44.133056,1,10.25220
1,Capim Grosso/BA,-11.3793228,-40.0112095,628,2048.13776
D1,Capim Grosso/BA,-11.3793228,-40.0112095,4,13.04546
1,Capim/PB,-6.9174091,-35.1720326,149,2284.22505
D1,Capim/PB,-6.9174091,-35.1720326,5,76.65185
1,Capinzal do Norte/MA,-4.7304006,-44.3249063,338,3091.27492
D1,Capinzal do Norte/MA,-4.7304006,-44.3249063,1,9.14578
1,Capinzal/SC,-27.3440651,-51.6110403,907,3969.71289
D1,Capinzal/SC,-27.3440651,-51.6110403,5,21.88375
1,Capinópolis/MG,-18.682778,-49.569723,160,989.30316
1,Capistrano/CE,-4.4644692,-38.8956734,629,3546.05931
D1,Capistrano/CE,-4.4644692,-38.8956734,12,67.65137
1,Capitão Andrade/MG,-19.0675,-41.859722,16,292.61156
D1,Capitão Andrade/MG,-19.0675,-41.859722,1,18.28822
1,Capitão Enéas/MG,-16.3236018,-43.7154584,76,498.88408
D1,Capitão Enéas/MG,-16.3236018,-43.7154584,2,13.12853
1,Capitão Gervásio Oliveira/PI,-8.4954657,-41.8169342,15,365.85366
1,Capitão Leônidas Marques/PR,-25.481645,-53.611238,93,589.35361
1,Capitão Poço/PA,-1.7447162,-47.0638495,761,1401.39587
D1,Capitão Poço/PA,-1.7447162,-47.0638495,33,60.77012
1,Capitão de Campos/PI,-4.4584198,-41.9415301,139,1217.48270
D1,Capitão de Campos/PI,-4.4584198,-41.9415301,1,8.75887
1,Capitão/RS,-29.2718294,-51.9869716,19,689.15488
1,Capitólio/MG,-20.6142437,-46.0487652,24,278.03522
D1,Capitólio/MG,-20.6142437,-46.0487652,2,23.16960
1,Capivari de Baixo/SC,-28.449773,-48.963144,616,2476.78019
D1,Capivari de Baixo/SC,-28.449773,-48.963144,6,24.12448
1,Capivari do Sul/RS,-30.1437605,-50.5129169,20,429.18455
1,Capivari/SP,-22.995144,-47.50715,490,878.64008
D1,Capivari/SP,-22.995144,-47.50715,3,5.37943
1,Capixaba/AC,-10.5741345,-67.6759719,233,1985.85187
D1,Capixaba/AC,-10.5741345,-67.6759719,7,59.66079
1,Capoeiras/PE,-8.7386788,-36.6268109,270,1346.76776
D1,Capoeiras/PE,-8.7386788,-36.6268109,3,14.96409
1,Caputira/MG,-20.171945,-42.270278,24,258.12003
1,Capão Alto/SC,-27.9382827,-50.511491,6,237.62376
D1,Capão Alto/SC,-27.9382827,-50.511491,1,39.60396
1,Capão Bonito do Sul/RS,-28.1287941,-51.393771,5,302.29746
D1,Capão Bonito do Sul/RS,-28.1287941,-51.393771,1,60.45949
1,Capão Bonito/SP,-24.0048759,-48.3489848,491,1041.62247
D1,Capão Bonito/SP,-24.0048759,-48.3489848,18,38.18575
1,Capão da Canoa/RS,-29.7542937,-50.0215684,344,648.45709
D1,Capão da Canoa/RS,-29.7542937,-50.0215684,10,18.85050
1,Capão do Cipó/RS,-28.9317296,-54.5555783,3,82.16927
1,Capão do Leão/RS,-31.766133,-52.5013148,60,236.64905
D1,Capão do Leão/RS,-31.766133,-52.5013148,1,3.94415
1,Caracaraí/RR,1.827598,-61.125389,685,3124.14485
D1,Caracaraí/RR,1.827598,-61.125389,8,36.48636
1,Caracol/MS,-22.0169949,-57.0298349,18,294.31001
1,Caracol/PI,-9.2804898,-43.3284924,149,1364.96885
D1,Caracol/PI,-9.2804898,-43.3284924,1,9.16086
1,Caraguatatuba/SP,-23.62028,-45.41306,1343,1105.05875
D1,Caraguatatuba/SP,-23.62028,-45.41306,59,48.54688
1,Carambeí/PR,-24.9513298,-50.1171293,150,640.61499
D1,Carambeí/PR,-24.9513298,-50.1171293,4,17.08307
1,Caranaíba/MG,-20.8736914,-43.7379458,6,188.50141
D1,Caranaíba/MG,-20.8736914,-43.7379458,1,31.41690
1,Carandaí/MG,-20.9523934,-43.8043903,106,415.66997
D1,Carandaí/MG,-20.9523934,-43.8043903,3,11.76424
1,Carangola/MG,-20.733056,-42.029445,339,1027.27273
D1,Carangola/MG,-20.733056,-42.029445,9,27.27273
1,Carapebus/RJ,-22.1869969,-41.6633764,241,1478.43691
D1,Carapebus/RJ,-22.1869969,-41.6633764,4,24.53837
1,Carapicuíba/SP,-23.5234673,-46.8406808,5289,1319.19277
D1,Carapicuíba/SP,-23.5234673,-46.8406808,254,63.35318
1,Caratinga/MG,-19.7900887,-42.140533,986,1071.01736
D1,Caratinga/MG,-19.7900887,-42.140533,25,27.15561
1,Carauari/AM,-4.8766426,-66.8961433,861,3043.04800
D1,Carauari/AM,-4.8766426,-66.8961433,8,28.27455
1,Caravelas/BA,-17.7296514,-39.2660082,182,826.67151
1,Carazinho/RS,-28.2981634,-52.7942363,357,574.78667
D1,Carazinho/RS,-28.2981634,-52.7942363,9,14.49042
1,Caraá/RS,-29.7900698,-50.4302307,69,834.34099
D1,Caraá/RS,-29.7900698,-50.4302307,1,12.09190
1,Caraí/MG,-17.1884104,-41.6976554,95,401.09774
D1,Caraí/MG,-17.1884104,-41.6976554,3,12.66624
1,Caraíbas/BA,-14.72496,-41.2566163,11,122.89130
1,Caraúbas do Piauí/PI,-3.4757229,-41.8431178,142,2419.90457
D1,Caraúbas do Piauí/PI,-3.4757229,-41.8431178,2,34.08316
1,Caraúbas/PB,-7.7273231,-36.4923357,38,913.02259
1,Caraúbas/RN,-5.7889323,-37.5548751,303,1478.55365
D1,Caraúbas/RN,-5.7889323,-37.5548751,4,19.51886
1,Carbonita/MG,-17.5308667,-43.0136207,6,63.79585
1,Cardeal da Silva/BA,-11.9428154,-37.9494462,31,333.51264
D1,Cardeal da Silva/BA,-11.9428154,-37.9494462,1,10.75847
1,Cardoso Moreira/RJ,-21.4894916,-41.6152776,235,1832.64447
