type,name,lat,lon,total,total_per_100k_inhabitants
1,Abadia de Goiás/GO,-16.7572644,-49.4412205,579,6599.79483
D1,Abadia de Goiás/GO,-16.7572644,-49.4412205,7,79.79027
1,Abadia dos Dourados/MG,-18.4911191,-47.4063589,90,1287.73787
D1,Abadia dos Dourados/MG,-18.4911191,-47.4063589,1,14.30820
1,Abadiânia/GO,-16.1940946,-48.7067767,130,648.63786
D1,Abadiânia/GO,-16.1940946,-48.7067767,11,54.88474
1,Abaetetuba/PA,-1.721828,-48.878843,3241,2055.19411
D1,Abaetetuba/PA,-1.721828,-48.878843,112,71.02183
1,Abaeté/MG,-19.1566833,-45.4481213,57,245.29845
D1,Abaeté/MG,-19.1566833,-45.4481213,2,8.60696
1,Abaiara/CE,-7.3607808,-39.0487878,81,690.12524
D1,Abaiara/CE,-7.3607808,-39.0487878,2,17.04013
1,Abaré/BA,-8.7239913,-39.1139689,100,497.85921
1,Abatiá/PR,-23.3052967,-50.3102532,75,1005.76639
1,Abaíra/BA,-13.2503296,-41.6640342,17,194.53027
1,Abdon Batista/SC,-27.612419,-51.022992,127,4955.13071
1,Abel Figueiredo/PA,-4.953001,-48.3958485,360,4842.61501
D1,Abel Figueiredo/PA,-4.953001,-48.3958485,2,26.90342
1,Abelardo Luz/SC,-26.5705893,-52.3280339,417,2329.08847
D1,Abelardo Luz/SC,-26.5705893,-52.3280339,5,27.92672
1,Abre Campo/MG,-20.2976097,-42.4764741,88,654.08057
1,Abreu e Lima/PE,-7.900719,-34.898389,862,862.08621
D1,Abreu e Lima/PE,-7.900719,-34.898389,109,109.01090
1,Abreulândia/TO,-9.6221526,-49.1558343,86,3334.62582
D1,Abreulândia/TO,-9.6221526,-49.1558343,3,116.32416
1,Acaiaca/MG,-20.3621646,-43.1444162,31,776.16425
D1,Acaiaca/MG,-20.3621646,-43.1444162,1,25.03756
1,Acajutiba/BA,-11.6609659,-38.0186381,136,897.15680
D1,Acajutiba/BA,-11.6609659,-38.0186381,3,19.79022
1,Acarape/CE,-4.2237866,-38.7071663,1713,11474.31174
D1,Acarape/CE,-4.2237866,-38.7071663,15,100.47558
1,Acaraú/CE,-2.8869514,-40.1194713,2681,4279.94445
D1,Acaraú/CE,-2.8869514,-40.1194713,57,90.99472
1,Acari/RN,-6.4364689,-36.6394777,101,906.96839
D1,Acari/RN,-6.4364689,-36.6394777,8,71.83908
1,Acará/PA,-1.961388,-48.1987043,792,1424.69105
D1,Acará/PA,-1.961388,-48.1987043,13,23.38508
1,Acauã/PI,-8.219542,-41.083059,40,564.65274
1,Aceguá/RS,-31.8695131,-54.1615593,2,40.80800
1,Acopiara/CE,-6.0936464,-39.4543204,952,1754.19200
D1,Acopiara/CE,-6.0936464,-39.4543204,36,66.33499
1,Acorizal/MT,-15.2001544,-56.3668953,183,3389.51658
D1,Acorizal/MT,-15.2001544,-56.3668953,7,129.65364
1,Acrelândia/AC,-10.0759167,-67.0526898,472,3093.86471
D1,Acrelândia/AC,-10.0759167,-67.0526898,9,58.99318
1,Acreúna/GO,-17.3959899,-50.3749031,603,2696.05651
D1,Acreúna/GO,-17.3959899,-50.3749031,17,76.00823
1,Adamantina/SP,-21.6866517,-51.0762975,379,1080.75739
D1,Adamantina/SP,-21.6866517,-51.0762975,11,31.36763
1,Adelândia/GO,-16.4155077,-50.1665834,67,2662.95707
D1,Adelândia/GO,-16.4155077,-50.1665834,1,39.74563
1,Adolfo/SP,-21.2356597,-49.6441918,116,3256.59742
D1,Adolfo/SP,-21.2356597,-49.6441918,4,112.29646
1,Adrianópolis/PR,-24.6557863,-48.9912769,180,3041.05423
D1,Adrianópolis/PR,-24.6557863,-48.9912769,4,67.57898
1,Adustina/BA,-10.5358875,-38.114479,90,528.16901
D1,Adustina/BA,-10.5358875,-38.114479,2,11.73709
1,Afogados da Ingazeira/PE,-7.750429,-37.6356375,748,2007.56864
D1,Afogados da Ingazeira/PE,-7.750429,-37.6356375,12,32.20698
1,Afonso Bezerra/RN,-5.4745,-36.57625071327935,133,1205.25600
D1,Afonso Bezerra/RN,-5.4745,-36.57625071327935,8,72.49660
1,Afonso Cláudio/ES,-20.077841,-41.12606,900,2942.52272
D1,Afonso Cláudio/ES,-20.077841,-41.12606,18,58.85045
1,Afonso Cunha/MA,-4.1326105,-43.3230026,152,2329.85898
D1,Afonso Cunha/MA,-4.1326105,-43.3230026,2,30.65604
1,Afrânio/PE,-8.5198919,-41.0070197,205,1044.05399
D1,Afrânio/PE,-8.5198919,-41.0070197,2,10.18589
1,Afuá/PA,-0.1535664,-50.3879223,2204,5619.86843
D1,Afuá/PA,-0.1535664,-50.3879223,11,28.04835
1,Agrestina/PE,-8.4558021,-35.9442663,571,2294.55495
D1,Agrestina/PE,-8.4558021,-35.9442663,32,128.59152
1,Agricolândia/PI,-5.7967843,-42.6605131,61,1187.00136
1,Agrolândia/SC,-27.4122212,-49.8295774,178,1638.43888
D1,Agrolândia/SC,-27.4122212,-49.8295774,6,55.22828
1,Agronômica/SC,-27.2660744,-49.7104753,84,1541.85022
D1,Agronômica/SC,-27.2660744,-49.7104753,3,55.06608
1,Aguanil/MG,-20.9424533,-45.3927152,80,1783.32590
D1,Aguanil/MG,-20.9424533,-45.3927152,3,66.87472
1,Aguaí/SP,-22.0592036,-46.979384,294,809.80581
D1,Aguaí/SP,-22.0592036,-46.979384,6,16.52665
1,Agudo/RS,-29.6423259,-53.2494005,49,297.67329
D1,Agudo/RS,-29.6423259,-53.2494005,1,6.07497
1,Agudos do Sul/PR,-25.9890808,-49.3328175,76,811.01270
D1,Agudos do Sul/PR,-25.9890808,-49.3328175,1,10.67122
1,Agudos/SP,-22.471162,-48.987822,650,1746.65448
D1,Agudos/SP,-22.471162,-48.987822,13,34.93309
1,Aguiar/PB,-7.0928404,-38.1727215,28,496.45390
1,Aguiarnópolis/TO,-6.5600452,-47.4721189,418,6208.22813
D1,Aguiarnópolis/TO,-6.5600452,-47.4721189,9,133.66998
1,Aimorés/MG,-19.4917754,-41.0615603,323,1283.42671
D1,Aimorés/MG,-19.4917754,-41.0615603,6,23.84074
1,Aiquara/BA,-14.126918,-39.8887574,179,4026.09087
D1,Aiquara/BA,-14.126918,-39.8887574,3,67.47638
1,Aiuaba/CE,-6.5710836,-40.1212278,43,247.14064
D1,Aiuaba/CE,-6.5710836,-40.1212278,1,5.74746
1,Aiuruoca/MG,-21.9759554,-44.6036637,14,233.21672
D1,Aiuruoca/MG,-21.9759554,-44.6036637,2,33.31667
1,Ajuricaba/RS,-28.239654,-53.7693013,145,2064.35080
D1,Ajuricaba/RS,-28.239654,-53.7693013,1,14.23690
1,Alagoa Grande/PB,-7.0415212,-35.6285322,1560,5474.45255
D1,Alagoa Grande/PB,-7.0415212,-35.6285322,28,98.25940
1,Alagoa Nova/PB,-7.0653703,-35.76695977336711,354,1697.92316
D1,Alagoa Nova/PB,-7.0653703,-35.76695977336711,9,43.16754
1,Alagoa/MG,-22.1697202,-44.6400042,26,972.32610
1,Alagoinha do Piauí/PI,-7.0090952,-40.939675,97,1267.80813
D1,Alagoinha do Piauí/PI,-7.0090952,-40.939675,1,13.07019
1,Alagoinha/PB,-6.97063215,-35.51490901897793,1052,7260.68052
D1,Alagoinha/PB,-6.97063215,-35.51490901897793,12,82.82145
1,Alagoinha/PE,-8.50355635,-36.77701174370496,201,1373.32605
D1,Alagoinha/PE,-8.50355635,-36.77701174370496,7,47.82728
1,Alagoinhas/BA,-12.133526,-38.420772,5426,3579.25011
D1,Alagoinhas/BA,-12.133526,-38.420772,74,48.81395
1,Alambari/SP,-23.550338,-47.897971,72,1195.02075
D1,Alambari/SP,-23.550338,-47.897971,1,16.59751
1,Albertina/MG,-20.66164,-43.784039,37,1230.46225
D1,Albertina/MG,-20.66164,-43.784039,1,33.25574
1,Alcantil/PB,-7.7425491,-36.0609604,68,1238.16460
1,Alcinópolis/MS,-18.3264121,-53.7094463,13,243.30900
D1,Alcinópolis/MS,-18.3264121,-53.7094463,2,37.43215
1,Alcobaça/BA,-17.5215875,-39.1965474,510,2269.69292
D1,Alcobaça/BA,-17.5215875,-39.1965474,7,31.15265
1,Alcântara/MA,-2.4038956,-44.4154241,200,905.10024
D1,Alcântara/MA,-2.4038956,-44.4154241,7,31.67851
1,Alcântaras/CE,-3.586247,-40.5457641,501,4276.93358
D1,Alcântaras/CE,-3.586247,-40.5457641,4,34.14717
1,Aldeias Altas/MA,-4.6291957,-43.4708622,924,3482.58706
D1,Aldeias Altas/MA,-4.6291957,-43.4708622,5,18.84517
1,Alecrim/RS,-27.6566142,-54.7653195,17,285.71429
1,Alegre/ES,-20.7625787,-41.5318886,366,1216.59354
D1,Alegre/ES,-20.7625787,-41.5318886,17,56.50844
1,Alegrete do Piauí/PI,-7.2440138,-40.8602296,212,4313.32655
1,Alegrete/RS,-29.790166,-55.794862,641,871.05410
D1,Alegrete/RS,-29.790166,-55.794862,15,20.38348
1,Alegria/RS,-27.8332103,-54.0574959,53,1530.02309
1,Alenquer/PA,-1.946229,-54.738355,1398,2461.74435
D1,Alenquer/PA,-1.946229,-54.738355,30,52.82713
1,Alexandria/RN,-6.414779,-38.0135516,162,1193.19437
D1,Alexandria/RN,-6.414779,-38.0135516,4,29.46159
1,Alexânia/GO,-16.0834049,-48.5077803,1122,4057.42596
D1,Alexânia/GO,-16.0834049,-48.5077803,15,54.24366
1,Alfenas/MG,-21.4297405,-45.9479419,1172,1465.07325
D1,Alfenas/MG,-21.4297405,-45.9479419,33,41.25206
1,Alfredo Chaves/ES,-20.624970400000002,-40.75006690147988,463,3171.01568
D1,Alfredo Chaves/ES,-20.624970400000002,-40.75006690147988,7,47.94192
1,Alfredo Marcondes/SP,-21.9527,-51.413956,54,1296.20739
D1,Alfredo Marcondes/SP,-21.9527,-51.413956,2,48.00768
1,Alfredo Vasconcelos/MG,-21.145833,-43.776389,17,246.12712
D1,Alfredo Vasconcelos/MG,-21.145833,-43.776389,1,14.47807
1,Alfredo Wagner/SC,-27.6961513,-49.3326734,201,2002.78996
D1,Alfredo Wagner/SC,-27.6961513,-49.3326734,1,9.96413
1,Algodão de Jandaíra/PB,-6.9040175,-36.0089879,27,1051.81145
1,Alhandra/PB,-7.4304246,-34.9106103,666,3400.04084
D1,Alhandra/PB,-7.4304246,-34.9106103,18,91.89300
1,Aliança do Tocantins/TO,-11.3055927,-48.9409096,149,2764.37848
D1,Aliança do Tocantins/TO,-11.3055927,-48.9409096,2,37.10575
1,Aliança/PE,-7.60398,-35.222696,368,958.68285
D1,Aliança/PE,-7.60398,-35.222696,28,72.94326
1,Almadina/BA,-14.70466,-39.6381994,355,6497.07174
D1,Almadina/BA,-14.70466,-39.6381994,6,109.80966
1,Almas/TO,-11.5681309,-47.1702803,81,1148.12190
D1,Almas/TO,-11.5681309,-47.1702803,2,28.34869
1,Almeirim/PA,-1.5290377,-52.5788111,257,753.46683
D1,Almeirim/PA,-1.5290377,-52.5788111,18,52.77200
1,Almenara/MG,-16.1740678,-40.6904907,805,1921.42448
D1,Almenara/MG,-16.1740678,-40.6904907,10,23.86863
1,Almino Afonso/RN,-6.1544208,-37.7649018,41,865.89229
1,Almirante Tamandaré do Sul/RS,-28.1141129,-52.9134874,10,509.16497
1,Almirante Tamandaré/PR,-25.3133048,-49.2997838,1680,1416.25149
D1,Almirante Tamandaré/PR,-25.3133048,-49.2997838,57,48.05139
1,Aloândia/GO,-17.7277983,-49.4809338,89,4461.15288
D1,Aloândia/GO,-17.7277983,-49.4809338,4,200.50125
1,Alpercata/MG,-18.9803616,-41.9827637,192,2586.20690
D1,Alpercata/MG,-18.9803616,-41.9827637,6,80.81897
1,Alpestre/RS,-27.2512339,-53.0349646,54,862.89549
D1,Alpestre/RS,-27.2512339,-53.0349646,1,15.97955
1,Alpinópolis/MG,-20.863611,-46.387777,102,513.77626
D1,Alpinópolis/MG,-20.863611,-46.387777,4,20.14809
1,Alta Floresta D'Oeste/RO,-11.9296917,-61.9961284,811,3534.53912
D1,Alta Floresta D'Oeste/RO,-11.9296917,-61.9961284,10,43.58248
1,Alta Floresta/MT,-9.8715018,-56.0839881,1375,2655.36287
D1,Alta Floresta/MT,-9.8715018,-56.0839881,24,46.34815
1,Altair/SP,-20.5238955,-49.0606135,47,1129.80769
D1,Altair/SP,-20.5238955,-49.0606135,2,48.07692
1,Altamira do Maranhão/MA,-4.1643006,-45.4674574,273,3358.75984
D1,Altamira do Maranhão/MA,-4.1643006,-45.4674574,5,61.51575
1,Altamira do Paraná/PR,-24.799114,-52.7128633,13,669.41298
D1,Altamira do Paraná/PR,-24.799114,-52.7128633,1,51.49331
1,Altamira/PA,-3.204065,-52.209961,4222,3684.31157
D1,Altamira/PA,-3.204065,-52.209961,120,104.71752
1,Altaneira/CE,-6.9980933,-39.7385742,33,435.01186
1,Alterosa/MG,-21.249166,-46.143055,17,117.51694
D1,Alterosa/MG,-21.249166,-46.143055,2,13.82552
1,Altinho/PE,-8.4904095,-36.0607494,493,2146.09089
D1,Altinho/PE,-8.4904095,-36.0607494,10,43.53126
1,Altinópolis/SP,-21.021364,-47.3712,217,1340.83045
D1,Altinópolis/SP,-21.021364,-47.3712,7,43.25260
1,Alto Alegre do Maranhão/MA,-4.2055693,-44.4525287,390,1441.61461
D1,Alto Alegre do Maranhão/MA,-4.2055693,-44.4525287,12,44.35737
1,Alto Alegre do Pindaré/MA,-3.6698186,-45.8462153,1466,4592.87572
D1,Alto Alegre do Pindaré/MA,-3.6698186,-45.8462153,19,59.52567
1,Alto Alegre dos Parecis/RO,-12.1314515,-61.856265,205,1548.22143
D1,Alto Alegre dos Parecis/RO,-12.1314515,-61.856265,9,67.97070
1,Alto Alegre/RR,2.98858,-61.307167,625,4029.65828
D1,Alto Alegre/RR,2.98858,-61.307167,15,96.71180
1,Alto Alegre/RS,-31.780844700000003,-52.81311114489171,14,854.70085
1,Alto Alegre/SP,-21.5820592,-50.1661976,66,1610.14882
D1,Alto Alegre/SP,-21.5820592,-50.1661976,2,48.79239
1,Alto Araguaia/MT,-17.3156528,-53.2169365,373,1958.62214
D1,Alto Araguaia/MT,-17.3156528,-53.2169365,5,26.25499
1,Alto Bela Vista/SC,-27.4320737,-51.905771,27,1393.90811
1,Alto Boa Vista/MT,-11.6723985,-51.3744431,88,1289.94430
D1,Alto Boa Vista/MT,-11.6723985,-51.3744431,3,43.97537
1,Alto Caparaó/MG,-20.4405661,-41.8683799,21,359.15854
1,Alto Feliz/RS,-29.3785943,-51.3123751,35,1155.87847
1,Alto Garças/MT,-16.9469683,-53.529427,248,2061.51288
D1,Alto Garças/MT,-16.9469683,-53.529427,10,83.12552
1,Alto Horizonte/GO,-14.1954948,-49.3366993,162,2525.72498
D1,Alto Horizonte/GO,-14.1954948,-49.3366993,1,15.59089
1,Alto Jequitibá/MG,-20.423611,-41.966111,81,973.90886
D1,Alto Jequitibá/MG,-20.423611,-41.966111,4,48.09426
1,Alto Longá/PI,-5.2549051,-42.2072388,177,1237.41611
D1,Alto Longá/PI,-5.2549051,-42.2072388,6,41.94631
1,Alto Paraguai/MT,-14.513712,-56.4936374,254,2236.70306
D1,Alto Paraguai/MT,-14.513712,-56.4936374,8,70.44734
1,Alto Paraná/PR,-23.131247,-52.318893,102,690.58903
D1,Alto Paraná/PR,-23.131247,-52.318893,1,6.77048
1,Alto Paraíso de Goiás/GO,-14.1304779,-47.5100161,199,2610.17838
1,Alto Paraíso/PR,-23.508137,-53.728537,5,182.41518
1,Alto Paraíso/RO,-9.7240103,-63.3188123,375,1750.04667
D1,Alto Paraíso/RO,-9.7240103,-63.3188123,8,37.33433
1,Alto Parnaíba/MA,-9.112506,-45.9310154,298,2663.09205
D1,Alto Parnaíba/MA,-9.112506,-45.9310154,2,17.87310
1,Alto Piquiri/PR,-24.0239021,-53.4417448,114,1159.00773
D1,Alto Piquiri/PR,-24.0239021,-53.4417448,4,40.66694
1,Alto Rio Doce/MG,-21.0239537,-43.4133507,70,636.36364
D1,Alto Rio Doce/MG,-21.0239537,-43.4133507,2,18.18182
1,Alto Rio Novo/ES,-19.0577208,-41.0171518,176,2246.04390
D1,Alto Rio Novo/ES,-19.0577208,-41.0171518,11,140.37774
1,Alto Santo/CE,-5.5190371,-38.2719351,447,2607.02205
D1,Alto Santo/CE,-5.5190371,-38.2719351,11,64.15490
1,Alto Taquari/MT,-17.8269099,-53.2831736,321,2959.34360
D1,Alto Taquari/MT,-17.8269099,-53.2831736,6,55.31483
1,Alto do Rodrigues/RN,-5.290868,-36.7616726,377,2594.81038
D1,Alto do Rodrigues/RN,-5.290868,-36.7616726,17,117.00736
1,Altos/PI,-5.0393915,-42.4611694,1542,3805.15250
D1,Altos/PI,-5.0393915,-42.4611694,24,59.22416
1,Altônia/PR,-23.8722004,-53.894037,185,838.77403
D1,Altônia/PR,-23.8722004,-53.894037,2,9.06783
1,Alumínio/SP,-23.5203479,-47.2575256,248,1331.32918
D1,Alumínio/SP,-23.5203479,-47.2575256,6,32.20958
1,Alvarenga/MG,-19.4175,-41.728334,132,3378.55132
D1,Alvarenga/MG,-19.4175,-41.728334,1,25.59509
1,Alvarães/AM,-3.214786,-64.8143124,1226,7642.91503
D1,Alvarães/AM,-3.214786,-64.8143124,14,87.27635
1,Alvinlândia/SP,-22.4431852,-49.7643596,25,775.91558
1,Alvinópolis/MG,-20.1105199,-43.0601805,68,447.28014
D1,Alvinópolis/MG,-20.1105199,-43.0601805,1,6.57765
1,Alvorada D'Oeste/RO,-11.346271,-62.284697,137,950.66269
D1,Alvorada D'Oeste/RO,-11.346271,-62.284697,7,48.57401
1,Alvorada de Minas/MG,-18.7318587,-43.3641479,57,1580.69884
D1,Alvorada de Minas/MG,-18.7318587,-43.3641479,1,27.73156
1,Alvorada do Gurguéia/PI,-8.4465288,-43.8655915,47,867.31869
D1,Alvorada do Gurguéia/PI,-8.4465288,-43.8655915,2,36.90718
1,Alvorada do Norte/GO,-14.483911,-46.4959897,207,2390.30023
D1,Alvorada do Norte/GO,-14.483911,-46.4959897,1,11.54734
1,Alvorada do Sul/PR,-22.7807269,-51.2307721,66,578.64282
D1,Alvorada do Sul/PR,-22.7807269,-51.2307721,5,43.83658
1,Alvorada/RS,-29.9981184,-51.0772509,3874,1842.08649
D1,Alvorada/RS,-29.9981184,-51.0772509,132,62.76598
1,Alvorada/TO,-12.478465,-49.124926,525,6241.08417
D1,Alvorada/TO,-12.478465,-49.124926,9,106.99001
1,Além Paraíba/MG,-21.8760576,-42.6810473,462,1306.48719
D1,Além Paraíba/MG,-21.8760576,-42.6810473,14,39.59052
1,Amajari/RR,3.6523869,-61.4194315,389,3040.01250
D1,Amajari/RR,3.6523869,-61.4194315,15,117.22413
1,Amambai/MS,-23.1082701,-55.2284854,206,522.89573
D1,Amambai/MS,-23.1082701,-55.2284854,5,12.69164
1,Amaporã/PR,-23.094272,-52.786597,28,447.49880
1,Amapá do Maranhão/MA,-1.6762114,-46.0109669,4,57.45475
1,Amapá/AP,2.0529997,-50.7930003,773,8486.11264
D1,Amapá/AP,2.0529997,-50.7930003,4,43.91261
1,Amaraji/PE,-8.373925,-35.4536527,169,740.28648
D1,Amaraji/PE,-8.373925,-35.4536527,24,105.12944
1,Amaral Ferrador/RS,-30.8750633,-52.2542051,34,483.57275
D1,Amaral Ferrador/RS,-30.8750633,-52.2542051,1,14.22273
1,Amaralina/GO,-13.9236199,-49.2962411,8,209.86359
1,Amarante do Maranhão/MA,-5.56913,-46.747284,1107,2671.65440
D1,Amarante do Maranhão/MA,-5.56913,-46.747284,21,50.68179
1,Amarante/PI,-6.2459374,-42.8476238,395,2244.57325
D1,Amarante/PI,-6.2459374,-42.8476238,8,45.45971
1,Amargosa/BA,-13.03793715,-39.60796443875596,397,1066.02938
D1,Amargosa/BA,-13.03793715,-39.60796443875596,13,34.90776
1,Amaturá/AM,-3.3640509,-68.1994689,710,6154.64632
D1,Amaturá/AM,-3.3640509,-68.1994689,10,86.68516
1,Americana/SP,-22.7392463,-47.3306032,5198,2169.47625
D1,Americana/SP,-22.7392463,-47.3306032,157,65.52670
1,Americano do Brasil/GO,-16.2515808,-49.9806104,140,2290.95074
D1,Americano do Brasil/GO,-16.2515808,-49.9806104,3,49.09180
1,Ametista do Sul/RS,-27.3617341,-53.1826575,77,1039.27656
1,Amontada/CE,-3.3634586,-39.8284791,807,1857.22176
D1,Amontada/CE,-3.3634586,-39.8284791,20,46.02780
1,Amorinópolis/GO,-16.6211308,-51.0949921,52,1663.46769
1,Amparo de São Francisco/SE,-10.1299754,-36.9269099,74,3117.10194
D1,Amparo de São Francisco/SE,-10.1299754,-36.9269099,1,42.12300
1,Amparo do Serra/MG,-20.5070255,-42.8028462,11,233.39699
D1,Amparo do Serra/MG,-20.5070255,-42.8028462,1,21.21791
1,Amparo/PB,-7.56394725,-37.04652873235175,17,759.60679
1,Amparo/SP,-22.70111,-46.76444,1092,1512.57012
D1,Amparo/SP,-22.70111,-46.76444,24,33.24330
1,Ampére/PR,-25.9168712,-53.4742414,114,595.23810
D1,Ampére/PR,-25.9168712,-53.4742414,3,15.66416
1,Amélia Rodrigues/BA,-12.4015388,-38.7516971,398,1585.53103
D1,Amélia Rodrigues/BA,-12.4015388,-38.7516971,8,31.86997
1,América Dourada/BA,-11.4515262,-41.4357517,100,621.34957
1,Américo Brasiliense/SP,-21.7297099,-48.1052092,606,1496.14853
D1,Américo Brasiliense/SP,-21.7297099,-48.1052092,11,27.15781
1,Américo de Campos/SP,-20.298476,-49.735904,302,5059.47395
D1,Américo de Campos/SP,-20.298476,-49.735904,9,150.77902
1,Anadia/AL,-9.6830208,-36.3052699,470,2678.82588
D1,Anadia/AL,-9.6830208,-36.3052699,7,39.89741
1,Anagé/BA,-14.6134669,-41.1376308,135,613.49693
D1,Anagé/BA,-14.6134669,-41.1376308,3,13.63327
1,Anahy/PR,-24.6450861,-53.1337957,31,1106.74759
1,Anajatuba/MA,-3.26441,-44.6179916,338,1261.05287
D1,Anajatuba/MA,-3.26441,-44.6179916,9,33.57833
1,Anajás/PA,-0.9878802,-49.9390114,576,1967.41469
D1,Anajás/PA,-0.9878802,-49.9390114,11,37.57216
1,Analândia/SP,-22.128917,-47.661939,36,720.72072
D1,Analândia/SP,-22.128917,-47.661939,2,40.04004
1,Anamã/AM,-3.5797356,-61.4049996,770,5655.94241
D1,Anamã/AM,-3.5797356,-61.4049996,1,7.34538
1,Ananindeua/PA,-1.374035,-48.4016623,7550,1422.92282
D1,Ananindeua/PA,-1.374035,-48.4016623,368,69.35571
1,Ananás/TO,-6.3663053,-48.080238,333,3487.27615
D1,Ananás/TO,-6.3663053,-48.080238,11,115.19531
1,Anapu/PA,-3.4668292,-51.2057035,976,3499.46217
D1,Anapu/PA,-3.4668292,-51.2057035,23,82.46683
1,Anapurus/MA,-3.6751298,-43.1046001,720,4576.65904
D1,Anapurus/MA,-3.6751298,-43.1046001,6,38.13883
1,Anastácio/MS,-20.4832458,-55.8048448,649,2582.05689
D1,Anastácio/MS,-20.4832458,-55.8048448,20,79.57032
1,Anaurilândia/MS,-22.185169,-52.719056,33,365.24626
1,Anchieta/ES,-20.8057672,-40.6454564,891,3044.80060
D1,Anchieta/ES,-20.8057672,-40.6454564,21,71.76298
1,Anchieta/SC,-26.5350527,-53.3293938,32,567.57716
D1,Anchieta/SC,-26.5350527,-53.3293938,1,17.73679
1,Andaraí/BA,-12.8059674,-41.3322919,37,281.51868
1,Andirá/PR,-23.0494761,-50.2310027,252,1258.05002
D1,Andirá/PR,-23.0494761,-50.2310027,4,19.96905
1,Andorinha/BA,-10.3445708,-39.8334411,66,452.20966
D1,Andorinha/BA,-10.3445708,-39.8334411,2,13.70332
1,Andradas/MG,-22.0680484,-46.5688976,355,864.23059
D1,Andradas/MG,-22.0680484,-46.5688976,13,31.64788
1,Andradina/SP,-20.896505,-51.3742765,1158,2025.99857
D1,Andradina/SP,-20.896505,-51.3742765,29,50.73744
1,Andrelândia/MG,-21.739722,-44.308889,70,572.64398
1,André da Rocha/RS,-28.6309124,-51.5733328,21,1575.39385
1,Angatuba/SP,-23.4938938,-48.4110675,290,1149.51641
D1,Angatuba/SP,-23.4938938,-48.4110675,9,35.67465
1,Angelim/PE,-8.8902038,-36.2872987,71,636.77130
D1,Angelim/PE,-8.8902038,-36.2872987,3,26.90583
1,Angelina/SC,-27.5805287,-48.9838759,95,1978.75443
1,Angelândia/MG,-17.7253,-42.2728,16,187.79343
1,Angical do Piauí/PI,-6.0872666,-42.7366138,126,1856.21685
D1,Angical do Piauí/PI,-6.0872666,-42.7366138,3,44.19564
1,Angical/BA,-12.005623,-44.7000236,151,1080.34628
D1,Angical/BA,-12.005623,-44.7000236,3,21.46383
1,Angico/TO,-6.3893733,-47.8656722,66,1922.51675
1,Angicos/RN,-5.6666344,-36.6009064,98,836.60577
D1,Angicos/RN,-5.6666344,-36.6009064,4,34.14717
1,Angra dos Reis/RJ,-23.0063966,-44.316326,5633,2764.18775
D1,Angra dos Reis/RJ,-23.0063966,-44.316326,190,93.23552
1,Anguera/BA,-12.1509425,-39.2452469,63,561.44729
1,Angélica/MS,-22.1588196,-53.7728504,112,1038.96104
D1,Angélica/MS,-22.1588196,-53.7728504,3,27.82931
1,Anhanguera/GO,-18.3338749,-48.220363,14,1218.45083
D1,Anhanguera/GO,-18.3338749,-48.220363,2,174.06440
1,Anhembi/SP,-22.7891096,-48.1316776,21,312.31410
1,Anhumas/SP,-22.2956478,-51.3873401,71,1725.39490
1,Anicuns/GO,-16.4606451,-49.9572265,701,3208.23799
D1,Anicuns/GO,-16.4606451,-49.9572265,14,64.07323
1,Anita Garibaldi/SC,-27.6855032,-51.1293873,243,3406.70125
D1,Anita Garibaldi/SC,-27.6855032,-51.1293873,1,14.01935
1,Anitápolis/SC,-27.9041185,-49.1287395,55,1701.73267
1,Anori/AM,-3.7435254,-61.6605203,780,3712.51785
D1,Anori/AM,-3.7435254,-61.6605203,11,52.35602
1,Anta Gorda/RS,-28.9718745,-52.0069187,80,1337.56897
1,Antas/BA,-10.4114649,-38.3308815,363,1881.70650
1,Antonina do Norte/CE,-6.7754187,-39.9879345,46,625.59500
1,Antonina/PR,-25.4298854,-48.7125431,400,2107.48156
D1,Antonina/PR,-25.4298854,-48.7125431,7,36.88093
1,Antônio Almeida/PI,-7.2186016,-44.1950248,222,7016.43489
D1,Antônio Almeida/PI,-7.2186016,-44.1950248,1,31.60556
1,Antônio Cardoso/BA,-12.4363122,-39.1200307,71,607.72062
D1,Antônio Cardoso/BA,-12.4363122,-39.1200307,1,8.55945
1,Antônio Carlos/MG,-21.318334,-43.746666,69,602.88336
D1,Antônio Carlos/MG,-21.318334,-43.746666,2,17.47488
1,Antônio Carlos/SC,-27.5168462,-48.7684715,291,3418.30142
D1,Antônio Carlos/SC,-27.5168462,-48.7684715,11,129.21414
1,Antônio Dias/MG,-19.6525,-42.872778,102,1094.65551
D1,Antônio Dias/MG,-19.6525,-42.872778,2,21.46383
1,Antônio Gonçalves/BA,-10.5715409,-40.2748824,178,1508.73029
D1,Antônio Gonçalves/BA,-10.5715409,-40.2748824,1,8.47601
1,Antônio João/MS,-22.1892837,-55.9508227,60,669.94194
1,Antônio Martins/RN,-6.2155812,-37.8890129,9,125.96221
D1,Antônio Martins/RN,-6.2155812,-37.8890129,2,27.99160
1,Antônio Olinto/PR,-25.9849006,-50.1974516,85,1143.39521
D1,Antônio Olinto/PR,-25.9849006,-50.1974516,1,13.45171
1,Antônio Prado de Minas/MG,-21.0171988,-42.1101106,11,688.36045
1,Antônio Prado/RS,-28.8567806,-51.2801355,474,3632.18391
D1,Antônio Prado/RS,-28.8567806,-51.2801355,9,68.96552
1,Anápolis/GO,-16.3332828,-48.9525756,11343,2931.59104
D1,Anápolis/GO,-16.3332828,-48.9525756,278,71.84892
1,Anísio de Abreu/PI,-9.185643,-43.04941,99,1002.02429
1,Aparecida d'Oeste/SP,-20.4498109,-50.8808706,136,3241.18208
D1,Aparecida d'Oeste/SP,-20.4498109,-50.8808706,2,47.66444
1,Aparecida de Goiânia/GO,-16.8226769,-49.2452546,31723,5486.70913
D1,Aparecida de Goiânia/GO,-16.8226769,-49.2452546,472,81.63562
1,Aparecida do Rio Doce/GO,-18.2980167,-51.1491312,92,3718.67421
D1,Aparecida do Rio Doce/GO,-18.2980167,-51.1491312,2,80.84074
1,Aparecida do Rio Negro/TO,-9.9513491,-47.9773786,48,1001.04275
1,Aparecida do Taboado/MS,-20.0840304,-51.1013943,872,3387.06545
D1,Aparecida do Taboado/MS,-20.0840304,-51.1013943,18,69.91649
1,Aparecida/PB,-6.7859598, -38.0831353,152,1821.01354
D1,Aparecida/PB,-6.7859598, -38.0831353,4,47.92141
1,Aparecida/SP,-22.851552,-45.2340924,374,1034.37785
D1,Aparecida/SP,-22.851552,-45.2340924,10,27.65716
1,Aperibé/RJ,-21.6211928,-42.1028167,190,1615.78366
D1,Aperibé/RJ,-21.6211928,-42.1028167,7,59.52887
1,Apiacá/ES,-21.152272,-41.569297,170,2246.59707
D1,Apiacá/ES,-21.152272,-41.569297,4,52.86111
1,Apiacás/MT,-9.5678422,-57.394852,51,503.30603
D1,Apiacás/MT,-9.5678422,-57.394852,1,9.86875
1,Apiaí/SP,-24.5076527,-48.8461582,145,594.89620
D1,Apiaí/SP,-24.5076527,-48.8461582,5,20.51366
1,Apicum-Açu/MA,-1.5279295,-45.082278,197,1142.75770
D1,Apicum-Açu/MA,-1.5279295,-45.082278,3,17.40240
1,Apiúna/SC,-27.0374658,-49.3885037,85,791.21288
D1,Apiúna/SC,-27.0374658,-49.3885037,3,27.92516
1,Apodi/RN,-5.6631109,-37.796927,2189,6106.84893
D1,Apodi/RN,-5.6631109,-37.796927,32,89.27326
1,Aporá/BA,-11.6599747,-38.0794757,192,1082.84925
D1,Aporá/BA,-11.6599747,-38.0794757,4,22.55936
1,Aporé/GO,-18.9642193,-51.92804,42,1000.47642
D1,Aporé/GO,-18.9642193,-51.92804,2,47.64173
1,Apuarema/BA,-13.8517897,-39.7457126,374,5102.31924
D1,Apuarema/BA,-13.8517897,-39.7457126,5,68.21282
1,Apucarana/PR,-23.5525327,-51.4610764,969,717.79905
D1,Apucarana/PR,-23.5525327,-51.4610764,39,28.88974
1,Apuiarés/CE,-3.9460303,-39.4313298,246,1684.93151
D1,Apuiarés/CE,-3.9460303,-39.4313298,11,75.34247
1,Apuí/AM,-7.1940195,-59.8830192,213,969.37150
D1,Apuí/AM,-7.1940195,-59.8830192,1,4.55104
1,Aquidabã/SE,-10.2837579,-37.0188687,593,2750.08116
D1,Aquidabã/SE,-10.2837579,-37.0188687,15,69.56360
1,Aquidauana/MS,-20.473969,-55.7821375,1929,4029.57949
D1,Aquidauana/MS,-20.473969,-55.7821375,59,123.24790
1,Aquiraz/CE,-3.9063117,-38.387504,1006,1253.25460
D1,Aquiraz/CE,-3.9063117,-38.387504,33,41.11074
1,Arabutã/SC,-27.1587028,-52.1438142,75,1757.67518
D1,Arabutã/SC,-27.1587028,-52.1438142,2,46.87134
1,Aracaju/SE,-10.9162061,-37.0774655,35231,5362.29877
D1,Aracaju/SE,-10.9162061,-37.0774655,738,112.32654
1,Aracati/CE,-4.558259,-37.767894,1801,2415.92552
D1,Aracati/CE,-4.558259,-37.767894,52,69.75465
1,Aracatu/BA,-14.4274236,-41.4604105,67,510.08755
D1,Aracatu/BA,-14.4274236,-41.4604105,1,7.61325
1,Araci/BA,-11.3356065,-38.9573261,1111,2043.06810
D1,Araci/BA,-11.3356065,-38.9573261,14,25.74523
1,Aracitaba/MG,-21.3425,-43.378611,1,48.47310
1,Aracoiaba/CE,-4.3702577,-38.8084313,774,2924.17545
D1,Aracoiaba/CE,-4.3702577,-38.8084313,14,52.89206
1,Aracruz/ES,-19.8245218,-40.2735025,4127,4077.25746
D1,Aracruz/ES,-19.8245218,-40.2735025,73,72.12013
1,Aragarças/GO,-15.8957166,-52.2514538,720,3578.88458
D1,Aragarças/GO,-15.8957166,-52.2514538,17,84.50144
1,Aragoiânia/GO,-16.9146388,-49.4499148,348,3376.01863
D1,Aragoiânia/GO,-16.9146388,-49.4499148,4,38.80481
1,Aragominas/TO,-7.1654101,-48.525488,202,3508.16256
D1,Aragominas/TO,-7.1654101,-48.525488,3,52.10142
1,Araguacema/TO,-8.8067391,-49.5560969,55,776.17838
D1,Araguacema/TO,-8.8067391,-49.5560969,1,14.11233
1,Araguaiana/MT,-15.729144,-51.834112,58,1870.96774
D1,Araguaiana/MT,-15.729144,-51.834112,2,64.51613
1,Araguainha/MT,-16.857016,-53.031778,3,320.85561
1,Araguanã/MA,-2.9508403,-45.6651986,535,3468.17062
D1,Araguanã/MA,-2.9508403,-45.6651986,2,12.96512
1,Araguanã/TO,-6.5799107,-48.6428482,169,2949.90400
D1,Araguanã/TO,-6.5799107,-48.6428482,8,139.64043
1,Araguapaz/GO,-15.0937927,-50.626417,166,2136.42214
D1,Araguapaz/GO,-15.0937927,-50.626417,5,64.35006
1,Araguari/MG,-18.6511256,-48.1933764,3480,2967.58679
D1,Araguari/MG,-18.6511256,-48.1933764,78,66.51488
1,Araguatins/TO,-5.6522925,-48.1158973,935,2614.58013
D1,Araguatins/TO,-5.6522925,-48.1158973,27,75.50124
1,Araguaçu/TO,-12.928934,-49.823134,451,5295.29177
D1,Araguaçu/TO,-12.928934,-49.823134,7,82.18856
1,Araguaína/TO,-7.193241,-48.2018597,15227,8437.41342
D1,Araguaína/TO,-7.193241,-48.2018597,207,114.70050
1,Araioses/MA,-2.890914,-41.904993,585,1259.68992
D1,Araioses/MA,-2.890914,-41.904993,10,21.53316
1,Aral Moreira/MS,-22.951141,-55.6268421,95,781.95736
D1,Aral Moreira/MS,-22.951141,-55.6268421,2,16.46226
1,Aramari/BA,-12.0907897,-38.4985065,120,1052.90866
D1,Aramari/BA,-12.0907897,-38.4985065,1,8.77424
1,Arambaré/RS,-30.9132252,-51.4994625,23,642.27869
D1,Arambaré/RS,-30.9132252,-51.4994625,1,27.92516
1,Arame/MA,-4.8858769,-46.0102484,937,2865.35580
D1,Arame/MA,-4.8858769,-46.0102484,10,30.58010
1,Aramina/SP,-20.0876144,-47.789201,109,1939.50178
D1,Aramina/SP,-20.0876144,-47.789201,5,88.96797
1,Arandu/SP,-23.1345103,-49.0545651,41,644.95831
D1,Arandu/SP,-23.1345103,-49.0545651,3,47.19207
1,Arantina/MG,-21.911667,-44.255833,19,679.78533
D1,Arantina/MG,-21.911667,-44.255833,1,35.77818
1,Arapeí/SP,-22.6738889,-44.4477778,6,243.01337
D1,Arapeí/SP,-22.6738889,-44.4477778,1,40.50223
1,Arapiraca/AL,-9.754866,-36.661471,11656,5029.62282
D1,Arapiraca/AL,-9.754866,-36.661471,144,62.13673
1,Arapoema/TO,-7.6575001,-49.0641484,101,1520.39741
D1,Arapoema/TO,-7.6575001,-49.0641484,3,45.16032
1,Araponga/MG,-20.666667,-42.520556,1,11.84975
1,Arapongas/PR,-23.415296,-51.42592,2822,2293.80542
D1,Arapongas/PR,-23.415296,-51.42592,98,79.65731
1,Araporã/MG,-18.4318188,-49.188313,623,9069.73359
D1,Araporã/MG,-18.4318188,-49.188313,8,116.46528
1,Arapoti/PR,-24.1457957,-49.8224605,236,839.40957
D1,Arapoti/PR,-24.1457957,-49.8224605,1,3.55682
1,Araputanga/MT,-15.4710868,-58.346796,559,3323.02937
D1,Araputanga/MT,-15.4710868,-58.346796,7,41.61217
1,Arapuá/MG,-19.034444,-46.155556,34,1199.71771
1,Arapuã/PR,-24.3079525,-51.7901941,45,1466.75359
D1,Arapuã/PR,-24.3079525,-51.7901941,1,32.59452
1,Araquari/SC,-26.3703324,-48.7210994,867,2273.85979
D1,Araquari/SC,-26.3703324,-48.7210994,15,39.34013
1,Arara/PB,-6.8271895,-35.7605703,233,1729.76986
D1,Arara/PB,-6.8271895,-35.7605703,6,44.54343
1,Araranguá/SC,-28.9348832,-49.4858389,2051,3006.09720
D1,Araranguá/SC,-28.9348832,-49.4858389,42,61.55830
1,Araraquara/SP,-21.7886713,-48.1773096,4580,1940.08608
D1,Araraquara/SP,-21.7886713,-48.1773096,47,19.90918
1,Araras/SP,-22.3569477,-47.3838889,3701,2757.08454
D1,Araras/SP,-22.3569477,-47.3838889,68,50.65705
1,Ararendá/CE,-4.7504395,-40.8303611,123,1124.82853
D1,Ararendá/CE,-4.7504395,-40.8303611,3,27.43484
1,Arari/MA,-3.4547602,-44.7772723,223,747.11873
D1,Arari/MA,-3.4547602,-44.7772723,9,30.15277
1,Araricá/RS,-29.6168543,-50.929121,88,1544.40154
D1,Araricá/RS,-29.6168543,-50.929121,5,87.75009
1,Araripe/CE,-7.212861,-40.1359222,211,976.85185
D1,Araripe/CE,-7.212861,-40.1359222,3,13.88889
1,Araripina/PE,-7.5768582,-40.5038509,2060,2440.23786
D1,Araripina/PE,-7.5768582,-40.5038509,37,43.82952
1,Araruama/RJ,-22.8733203,-42.3428897,1516,1145.01511
D1,Araruama/RJ,-22.8733203,-42.3428897,66,49.84894
1,Araruna/PB,-6.5321155,-35.7397595,259,1275.10831
D1,Araruna/PB,-6.5321155,-35.7397595,8,39.38558
1,Araruna/PR,-23.9320308,-52.4976047,194,1388.69005
D1,Araruna/PR,-23.9320308,-52.4976047,7,50.10737
1,Arataca/BA,-15.2617424,-39.4122943,218,1978.40094
D1,Arataca/BA,-15.2617424,-39.4122943,5,45.37617
1,Aratiba/RS,-27.3955734,-52.3024325,40,641.53970
D1,Aratiba/RS,-27.3955734,-52.3024325,2,32.07698
1,Aratuba/CE,-4.4195958,-39.0463737,240,2025.82932
D1,Aratuba/CE,-4.4195958,-39.0463737,2,16.88191
1,Aratuípe/BA,-13.077137,-39.0010786,149,1688.38527
D1,Aratuípe/BA,-13.077137,-39.0010786,5,56.65722
1,Araucária/PR,-25.5861107,-49.4051209,3972,2761.34397
D1,Araucária/PR,-25.5861107,-49.4051209,66,45.88336
1,Arauá/SE,-11.2644014,-37.6181058,312,3102.62530
D1,Arauá/SE,-11.2644014,-37.6181058,8,79.55449
1,Araxá/MG,-19.5928536,-46.940241,1698,1598.43357
D1,Araxá/MG,-19.5928536,-46.940241,25,23.53406
1,Araçagi/PB,-6.8519969,-35.3835602,499,2937.54047
D1,Araçagi/PB,-6.8519969,-35.3835602,6,35.32113
1,Araçariguama/SP,-23.438611,-47.061389,364,1627.61581
D1,Araçariguama/SP,-23.438611,-47.061389,8,35.77178
1,Araças/BA,-12.2139176,-38.2026159,217,1782.04812
D1,Araças/BA,-12.2139176,-38.2026159,3,24.63661
1,Araçatuba/SP,-21.207992,-50.4390225,6335,3215.47489
D1,Araçatuba/SP,-21.207992,-50.4390225,145,73.59808
1,Araçaí/MG,-19.200833,-44.2475,4,170.43034
1,Araçoiaba da Serra/SP,-23.5045367,-47.6168158,608,1780.58923
D1,Araçoiaba da Serra/SP,-23.5045367,-47.6168158,11,32.21461
1,Araçoiaba/PE,-7.7856903,-35.0898881,163,794.19217
D1,Araçoiaba/PE,-7.7856903,-35.0898881,17,82.82986
1,Araçu/GO,-16.3561579,-49.6815269,72,2044.29302
D1,Araçu/GO,-16.3561579,-49.6815269,3,85.17888
1,Araçuaí/MG,-16.8484451,-42.0661868,88,239.72976
1,Araújos/MG,-19.948055,-45.165556,67,722.52777
D1,Araújos/MG,-19.948055,-45.165556,1,10.78400
1,Arceburgo/MG,-21.364444,-46.939722,61,566.28296
D1,Arceburgo/MG,-21.364444,-46.939722,1,9.28333
1,Arco-Íris/SP,-21.7741308,-50.4668814,10,558.34729
1,Arcos/MG,-20.282223,-45.539444,377,940.33722
D1,Arcos/MG,-20.282223,-45.539444,6,14.96558
1,Arcoverde/PE,-8.415192,-37.057748,1588,2136.18876
D1,Arcoverde/PE,-8.415192,-37.057748,51,68.60556
1,Areado/MG,-21.3582771,-46.1476688,7,46.44990
1,Areal/RJ,-22.2314922,-43.1056264,219,1741.96627
D1,Areal/RJ,-22.2314922,-43.1056264,8,63.63347
1,Arealva/SP,-22.0301906,-48.9111936,114,1331.77570
D1,Arealva/SP,-22.0301906,-48.9111936,1,11.68224
1,Areia Branca/RN,-4.9506652,-37.1263312,819,2948.80104
D1,Areia Branca/RN,-4.9506652,-37.1263312,51,183.62497
1,Areia Branca/SE,-10.7591455,-37.3148072,728,3926.22155
D1,Areia Branca/SE,-10.7591455,-37.3148072,19,102.47007
1,Areia de Baraúnas/PB,-7.1233949,-36.9446216,13,610.90226
1,Areia/PB,-6.9680243,-35.6994783,506,2217.45037
D1,Areia/PB,-6.9680243,-35.6994783,5,21.91156
1,Areial/PB,-7.0501306,-35.9245244,80,1143.18377
D1,Areial/PB,-7.0501306,-35.9245244,2,28.57959
1,Areias/SP,-22.5800929,-44.6975127,54,1389.60371
1,Areiópolis/SP,-22.6758064,-48.6673653,111,997.39420
D1,Areiópolis/SP,-22.6758064,-48.6673653,3,26.95660
1,Arenápolis/MT,-14.4610369,-56.8432806,388,4038.72177
D1,Arenápolis/MT,-14.4610369,-56.8432806,5,52.04538
1,Arenópolis/GO,-16.3859286,-51.55937,29,1110.26034
1,Argirita/MG,-21.612761,-42.8371922,23,843.41768
D1,Argirita/MG,-21.612761,-42.8371922,2,73.34067
1,Aricanduva/MG,-17.8678,-42.5569,1,19.11680
1,Arinos/MG,-15.917223,-46.106111,97,542.65734
D1,Arinos/MG,-15.917223,-46.106111,2,11.18881
1,Aripuanã/MT,-10.175806,-59.4439663,660,2952.49172
D1,Aripuanã/MT,-10.175806,-59.4439663,15,67.10208
1,Ariquemes/RO,-9.9076522,-63.033069,5509,5107.40476
D1,Ariquemes/RO,-9.9076522,-63.033069,93,86.22048
1,Ariranha do Ivaí/PR,-24.3834527,-51.5876772,21,996.20493
D1,Ariranha do Ivaí/PR,-24.3834527,-51.5876772,1,47.43833
1,Ariranha/SP,-21.18716,-48.790418,145,1499.79313
D1,Ariranha/SP,-21.18716,-48.790418,6,62.06041
1,Armazém/SC,-28.2624996,-49.0190126,276,3181.92299
D1,Armazém/SC,-28.2624996,-49.0190126,5,57.64353
1,Armação dos Búzios/RJ,-22.7597805,-41.8875267,484,1428.99321
D1,Armação dos Búzios/RJ,-22.7597805,-41.8875267,14,41.33451
1,Arneiroz/CE,-6.3235099,-40.1603859,57,727.04082
D1,Arneiroz/CE,-6.3235099,-40.1603859,4,51.02041
1,Aroazes/PI,-6.1108814,-41.7886137,80,1371.03685
D1,Aroazes/PI,-6.1108814,-41.7886137,3,51.41388
1,Aroeiras do Itaim/PI,-7.2797031,-41.5629681,75,2940.02352
D1,Aroeiras do Itaim/PI,-7.2797031,-41.5629681,1,39.20031
1,Aroeiras/PB,-7.5462904,-35.7080002,224,1169.52958
D1,Aroeiras/PB,-7.5462904,-35.7080002,1,5.22111
1,Arraial do Cabo/RJ,-22.9662839,-42.024427,187,616.16528
D1,Arraial do Cabo/RJ,-22.9662839,-42.024427,6,19.77001
1,Arraial/PI,-6.6541632,-42.5335332,24,507.72160
1,Arraias/TO,-12.9287788,-46.9437231,122,1154.53771
1,Arroio Grande/RS,-32.2384246,-53.0866661,107,584.92319
D1,Arroio Grande/RS,-32.2384246,-53.0866661,1,5.46657
1,Arroio Trinta/SC,-26.9301976,-51.334928,63,1774.64789
1,Arroio do Meio/RS,-29.4020392,-51.9444993,442,2124.48931
D1,Arroio do Meio/RS,-29.4020392,-51.9444993,1,4.80654
1,Arroio do Padre/RS,-31.4428773,-52.4228985,7,238.33844
1,Arroio do Sal/RS,-29.549852,-49.8874395,86,854.44610
D1,Arroio do Sal/RS,-29.549852,-49.8874395,4,39.74168
1,Arroio do Tigre/RS,-29.334158,-53.0888935,29,216.85486
1,Arroio dos Ratos/RS,-30.0894524,-51.7265541,151,1067.06240
D1,Arroio dos Ratos/RS,-30.0894524,-51.7265541,10,70.66638
1,Artur Nogueira/SP,-22.572737,-47.172679,972,1786.50199
D1,Artur Nogueira/SP,-22.572737,-47.172679,21,38.59727
1,Aruanã/GO,-14.9162439,-51.0715692,132,1336.70886
D1,Aruanã/GO,-14.9162439,-51.0715692,1,10.12658
1,Arujá/SP,-23.396266,-46.3175449,1928,2146.41967
D1,Arujá/SP,-23.396266,-46.3175449,81,90.17634
1,Arvoredo/SC,-27.0752908,-52.4571847,51,2276.78571
D1,Arvoredo/SC,-27.0752908,-52.4571847,1,44.64286
1,Arvorezinha/RS,-28.87369,-52.17808,113,1084.03684
D1,Arvorezinha/RS,-28.87369,-52.17808,5,47.96623
1,Arês/RN,-6.1969216,-35.1642968,217,1516.84608
D1,Arês/RN,-6.1969216,-35.1642968,9,62.91067
1,Ascurra/SC,-26.9569975,-49.3767752,150,1890.59743
D1,Ascurra/SC,-26.9569975,-49.3767752,2,25.20797
1,Aspásia/SP,-20.160028,-50.728046,42,2305.15917
1,Assaré/CE,-6.8746791,-39.8741385,337,1439.12542
D1,Assaré/CE,-6.8746791,-39.8741385,9,38.43362
1,Assaí/PR,-23.3736041,-50.8454929,277,1832.13175
D1,Assaí/PR,-23.3736041,-50.8454929,11,72.75613
1,Assis Brasil/AC,-10.9409203,-69.5672108,639,8615.34313
D1,Assis Brasil/AC,-10.9409203,-69.5672108,9,121.34286
1,Assis Chateaubriand/PR,-24.4054826,-53.5120468,492,1474.73173
D1,Assis Chateaubriand/PR,-24.4054826,-53.5120468,7,20.98196
1,Assis/SP,-22.6620892,-50.420623,1293,1238.67185
D1,Assis/SP,-22.6620892,-50.420623,23,22.03361
1,Assunção do Piauí/PI,-5.8610212,-41.0485091,131,1669.64058
D1,Assunção do Piauí/PI,-5.8610212,-41.0485091,2,25.49070
1,Assunção/PB,-7.073396,-36.7274003,46,1152.88221
1,Astolfo Dutra/MG,-21.3132636,-42.8624102,144,1015.58643
D1,Astolfo Dutra/MG,-21.3132636,-42.8624102,3,21.15805
1,Astorga/PR,-23.2350184,-51.6647074,434,1662.13473
D1,Astorga/PR,-23.2350184,-51.6647074,7,26.80862
1,Atalaia do Norte/AM,-4.3658547,-70.1908742,1008,5059.98695
D1,Atalaia do Norte/AM,-4.3658547,-70.1908742,4,20.07931
1,Atalaia/AL,-9.5029595,-36.0219316,594,1258.87464
D1,Atalaia/AL,-9.5029595,-36.0219316,19,40.26703
1,Atalaia/PR,-23.1513833,-52.0529697,89,2286.74203
D1,Atalaia/PR,-23.1513833,-52.0529697,3,77.08119
1,Atalanta/SC,-27.421916,-49.778863,39,1214.95327
1,Ataléia/MG,-18.04432,-41.1110524,142,1103.51259
D1,Ataléia/MG,-18.04432,-41.1110524,4,31.08486
1,Atibaia/SP,-23.1177393,-46.5547861,1902,1332.29664
D1,Atibaia/SP,-23.1177393,-46.5547861,60,42.02829
1,Atilio Vivacqua/ES,-20.9139369,-41.1947519,352,2949.06166
D1,Atilio Vivacqua/ES,-20.9139369,-41.1947519,6,50.26810
1,Augustinópolis/TO,-5.4662267,-47.8897519,666,3617.20617
D1,Augustinópolis/TO,-5.4662267,-47.8897519,8,43.44992
1,Augusto Corrêa/PA,-1.0229335,-46.6404029,1321,2871.86399
D1,Augusto Corrêa/PA,-1.0229335,-46.6404029,20,43.48015
1,Augusto Pestana/RS,-28.5148413,-53.9906433,14,210.17865
D1,Augusto Pestana/RS,-28.5148413,-53.9906433,1,15.01276
1,Augusto de Lima/MG,-18.1092963,-44.2651945,38,780.44773
1,Aurelino Leal/BA,-14.3167137,-39.3256107,405,3512.27127
D1,Aurelino Leal/BA,-14.3167137,-39.3256107,7,60.70592
1,Auriflama/SP,-20.6840418,-50.5554616,345,2271.38060
D1,Auriflama/SP,-20.6840418,-50.5554616,10,65.83712
1,Aurilândia/GO,-16.6772599,-50.4641231,57,1826.92308
1,Aurora do Pará/PA,-2.1323199,-47.558436,636,2029.48497
D1,Aurora do Pará/PA,-2.1323199,-47.558436,7,22.33710
1,Aurora do Tocantins/TO,-12.71045,-46.407604,43,1144.53021
1,Aurora/CE,-6.9426019,-38.9693765,408,1654.90387
D1,Aurora/CE,-6.9426019,-38.9693765,17,68.95433
1,Aurora/SC,-27.3166417,-49.6368502,77,1355.87251
1,Autazes/AM,-3.5833283,-59.1301518,1309,3308.47972
D1,Autazes/AM,-3.5833283,-59.1301518,36,90.98951
1,Avanhandava/SP,-21.4603331,-49.9465156,198,1450.65573
D1,Avanhandava/SP,-21.4603331,-49.9465156,4,29.30618
1,Avaré/SP,-23.1045215,-48.9259103,670,739.06569
D1,Avaré/SP,-23.1045215,-48.9259103,17,18.75241
1,Avaí/SP,-22.1564662,-49.3316395,86,1591.70831
D1,Avaí/SP,-22.1564662,-49.3316395,1,18.50824
1,Aveiro/PA,-3.6049239,-55.3310742,442,2697.09544
D1,Aveiro/PA,-3.6049239,-55.3310742,5,30.51013
1,Avelino Lopes/PI,-10.1346855,-43.9489525,37,327.75268
D1,Avelino Lopes/PI,-10.1346855,-43.9489525,4,35.43272
1,Avelinópolis/GO,-16.4672409,-49.7578661,104,4302.85478
D1,Avelinópolis/GO,-16.4672409,-49.7578661,1,41.37360
1,Axixá do Tocantins/TO,-5.612747,-47.77007,388,3977.03977
D1,Axixá do Tocantins/TO,-5.612747,-47.77007,3,30.75031
1,Axixá/MA,-2.8379465,-44.0561053,138,1137.67519
D1,Axixá/MA,-2.8379465,-44.0561053,3,24.73207
1,Açailândia/MA,-4.9514278,-47.4844564,3353,2981.90226
D1,Açailândia/MA,-4.9514278,-47.4844564,85,75.59251
1,Açu/RN,-5.5836157,-36.9139541,1550,2671.63073
D1,Açu/RN,-5.5836157,-36.9139541,56,96.52343
1,Açucena/MG,-19.073056,-42.546666,80,844.77297
D1,Açucena/MG,-19.073056,-42.546666,2,21.11932
1,Babaçulândia/TO,-7.2034355,-47.761613,314,2944.48612
D1,Babaçulândia/TO,-7.2034355,-47.761613,2,18.75469
1,Bacabal/MA,-4.2318132,-44.781167,3375,3215.84770
D1,Bacabal/MA,-4.2318132,-44.781167,55,52.40641
1,Bacabeira/MA,-2.9775747,-44.3155943,153,897.09763
D1,Bacabeira/MA,-2.9775747,-44.3155943,2,11.72677
1,Bacuri/MA,-1.728894,-45.1417148,416,2238.72565
D1,Bacuri/MA,-1.728894,-45.1417148,3,16.14466
1,Bacurituba/MA,-2.7082587,-44.7381309,67,1187.10135
1,Bady Bassitt/SP,-20.9178969,-49.4517911,791,4519.48349
D1,Bady Bassitt/SP,-20.9178969,-49.4517911,20,114.27265
1,Baependi/MG,-21.959162,-44.8899249,97,506.58032
D1,Baependi/MG,-21.959162,-44.8899249,1,5.22248
1,Bagre/PA,-1.8994498,-50.2103844,388,1264.95615
D1,Bagre/PA,-1.8994498,-50.2103844,10,32.60196
1,Bagé/RS,-31.3314264,-54.1062808,1062,876.64991
D1,Bagé/RS,-31.3314264,-54.1062808,15,12.38206
1,Baianópolis/BA,-12.3067564,-44.5383591,104,749.44152
D1,Baianópolis/BA,-12.3067564,-44.5383591,1,7.20617
1,Baixa Grande do Ribeiro/PI,-7.862861,-45.2113289,1253,10814.77645
D1,Baixa Grande do Ribeiro/PI,-7.862861,-45.2113289,9,77.67996
1,Baixa Grande/BA,-11.9630941,-40.1657537,33,161.22728
D1,Baixa Grande/BA,-11.9630941,-40.1657537,2,9.77135
1,Baixio/CE,-6.7303544,-38.7170095,97,1542.62087
D1,Baixio/CE,-6.7303544,-38.7170095,2,31.80662
1,Baixo Guandu/ES,-19.5138322,-41.0182089,742,2393.70282
D1,Baixo Guandu/ES,-19.5138322,-41.0182089,19,61.29428
1,Baião/PA,-2.7903479,-49.6702845,388,817.77178
D1,Baião/PA,-2.7903479,-49.6702845,13,27.39957
1,Balbinos/SP,-21.9006253,-49.3583966,96,1673.93200
D1,Balbinos/SP,-21.9006253,-49.3583966,3,52.31037
1,Baldim/MG,-19.2913568,-43.9558262,49,626.11807
D1,Baldim/MG,-19.2913568,-43.9558262,5,63.88960
1,Baliza/GO,-16.1978119,-52.542789,24,467.10782
1,Balneário Arroio do Silva/SC,-28.9815269,-49.4189932,430,3289.72535
D1,Balneário Arroio do Silva/SC,-28.9815269,-49.4189932,7,53.55367
1,Balneário Barra do Sul/SC,-26.459842,-48.6061471,491,4548.40204
D1,Balneário Barra do Sul/SC,-26.459842,-48.6061471,7,64.84484
1,Balneário Camboriú/SC,-26.9924395,-48.6339782,7226,5078.18265
D1,Balneário Camboriú/SC,-26.9924395,-48.6339782,90,63.24888
1,Balneário Gaivota/SC,-29.1553098,-49.5808712,175,1593.95209
D1,Balneário Gaivota/SC,-29.1553098,-49.5808712,7,63.75808
1,Balneário Pinhal/RS,-30.2482978,-50.234585,271,1926.35769
D1,Balneário Pinhal/RS,-30.2482978,-50.234585,3,21.32499
1,Balneário Piçarras/SC,-26.7638889,-48.6716667,838,3620.33957
D1,Balneário Piçarras/SC,-26.7638889,-48.6716667,10,43.20214
1,Balneário Rincão/SC,-28.8235718,-49.2241642,392,3072.10031
D1,Balneário Rincão/SC,-28.8235718,-49.2241642,10,78.36991
1,Balsa Nova/PR,-25.5842234,-49.6312741,223,1723.20532
D1,Balsa Nova/PR,-25.5842234,-49.6312741,5,38.63689
1,Balsas/MA,-7.53214,-46.037163,6253,6589.94383
D1,Balsas/MA,-7.53214,-46.037163,57,60.07145
1,Bambuí/MG,-20.0131996,-45.9777034,60,251.79403
1,Banabuiú/CE,-5.3046404,-38.919766,553,3038.96247
D1,Banabuiú/CE,-5.3046404,-38.919766,4,21.98165
1,Bananal/SP,-22.6828195,-44.3221095,140,1279.12289
D1,Bananal/SP,-22.6828195,-44.3221095,1,9.13659
1,Bananeiras/PB,-6.7537682,-35.6338343,432,2026.45652
D1,Bananeiras/PB,-6.7537682,-35.6338343,2,9.38174
1,Bandeira do Sul/MG,-21.728056,-46.385555,31,539.50574
1,Bandeira/MG,-15.884444,-40.559167,198,4129.30136
D1,Bandeira/MG,-15.884444,-40.559167,1,20.85506
1,Bandeirante/SC,-26.7677402,-53.6397596,10,373.41299
1,Bandeirantes do Tocantins/TO,-7.7635698,-48.579148,56,1576.13285
D1,Bandeirantes do Tocantins/TO,-7.7635698,-48.579148,1,28.14523
1,Bandeirantes/MS,-19.9179623,-54.3646768,70,1031.23159
1,Bandeirantes/PR,-23.107788,-50.370407,920,2933.01878
D1,Bandeirantes/PR,-23.107788,-50.370407,25,79.70160
1,Bannach/PA,-7.3508505,-50.4064531,112,3408.39927
D1,Bannach/PA,-7.3508505,-50.4064531,2,60.86427
1,Banzaê/BA,-10.5827616,-38.6122305,296,2237.50850
1,Baraúna/PB,-6.643394,-36.2531932,143,2923.13982
1,Baraúna/RN,-5.0775002,-37.61752,507,1786.84711
D1,Baraúna/RN,-5.0775002,-37.61752,13,45.81659
1,Barbacena/MG,-21.2254524,-43.7735087,917,667.81732
D1,Barbacena/MG,-21.2254524,-43.7735087,15,10.92395
1,Barbalha/CE,-7.3121067,-39.3036427,1988,3270.75895
D1,Barbalha/CE,-7.3121067,-39.3036427,54,88.84355
1,Barbosa Ferraz/PR,-24.0287182,-52.00811,157,1357.19225
D1,Barbosa Ferraz/PR,-24.0287182,-52.00811,4,34.57815
1,Barbosa/SP,-21.265661,-49.951816,110,1486.08484
D1,Barbosa/SP,-21.265661,-49.951816,1,13.50986
1,Barcarena/PA,-1.5107945,-48.6190679,4426,3549.88771
D1,Barcarena/PA,-1.5107945,-48.6190679,112,89.82996
1,Barcelona/RN,-5.9514918,-35.9260284,33,825.41271
D1,Barcelona/RN,-5.9514918,-35.9260284,2,50.02501
1,Barcelos/AM,-0.9729214,-62.925635,2656,9657.47946
D1,Barcelos/AM,-0.9729214,-62.925635,25,90.90248
1,Bariri/SP,-22.0746355,-48.7394852,800,2268.60254
D1,Bariri/SP,-22.0746355,-48.7394852,16,45.37205
1,Barra Bonita/SC,-26.6526364,-53.4419581,3,178.89088
1,Barra Bonita/SP,-22.490859,-48.558349,826,2286.44190
D1,Barra Bonita/SP,-22.490859,-48.558349,21,58.12988
1,Barra D'Alcântara/PI,-6.5209258,-42.1071089,12,303.72058
D1,Barra D'Alcântara/PI,-6.5209258,-42.1071089,1,25.31005
1,Barra Funda/RS,-27.9230048,-53.0401045,111,4371.79992
D1,Barra Funda/RS,-27.9230048,-53.0401045,3,118.15675
1,Barra Longa/MG,-20.2833541,-43.0423516,81,1578.63964
1,Barra Mansa/RJ,-22.5394843,-44.1735129,3112,1687.52576
D1,Barra Mansa/RJ,-22.5394843,-44.1735129,161,87.30451
1,Barra Velha/SC,-26.6338203,-48.6835001,804,2756.44542
D1,Barra Velha/SC,-26.6338203,-48.6835001,16,54.85464
1,Barra da Estiva/BA,-13.6269662,-41.3278287,17,82.53228
1,Barra de Guabiraba/PE,-8.4173522,-35.6626669,190,1320.82030
D1,Barra de Guabiraba/PE,-8.4173522,-35.6626669,11,76.46854
1,Barra de Santa Rosa/PB,-6.7218007,-36.0564638,118,767.03068
D1,Barra de Santa Rosa/PB,-6.7218007,-36.0564638,1,6.50026
1,Barra de Santana/PB,-7.5230865,-35.9988518,101,1208.27850
D1,Barra de Santana/PB,-7.5230865,-35.9988518,3,35.88946
1,Barra de Santo Antônio/AL,-9.4038098,-35.5117693,130,815.96786
D1,Barra de Santo Antônio/AL,-9.4038098,-35.5117693,11,69.04343
1,Barra de São Francisco/ES,-18.7570902,-40.8916119,821,1838.74580
D1,Barra de São Francisco/ES,-18.7570902,-40.8916119,29,64.94961
1,Barra de São Miguel/AL,-9.8261357,-35.8837777,147,1766.40231
D1,Barra de São Miguel/AL,-9.8261357,-35.8837777,5,60.08171
1,Barra de São Miguel/PB,-7.7528088,-36.3170996,70,1159.70842
D1,Barra de São Miguel/PB,-7.7528088,-36.3170996,1,16.56726
1,Barra do Bugres/MT,-15.0683712,-57.1853688,979,2799.86272
D1,Barra do Bugres/MT,-15.0683712,-57.1853688,21,60.05834
1,Barra do Chapéu/SP,-24.472203,-49.023784,47,821.10412
1,Barra do Choça/BA,-14.8638173,-40.5761637,423,1338.48052
D1,Barra do Choça/BA,-14.8638173,-40.5761637,5,15.82128
1,Barra do Corda/MA,-5.496823,-45.248496,3882,4400.76180
D1,Barra do Corda/MA,-5.496823,-45.248496,36,40.81077
1,Barra do Garças/MT,-15.8916033,-52.2615413,2373,3889.39881
D1,Barra do Garças/MT,-15.8916033,-52.2615413,96,157.34610
1,Barra do Guarita/RS,-27.1888016,-53.7147086,60,1847.29064
1,Barra do Jacaré/PR,-23.1151788,-50.1813945,15,539.37433
1,Barra do Mendes/BA,-11.8053298,-42.057037,18,129.82330
1,Barra do Ouro/TO,-7.7113784,-47.6743925,63,1372.25005
D1,Barra do Ouro/TO,-7.7113784,-47.6743925,5,108.90873
1,Barra do Piraí/RJ,-22.4703403,-43.8263256,1141,1136.74856
D1,Barra do Piraí/RJ,-22.4703403,-43.8263256,58,57.78389
1,Barra do Quaraí/RS,-30.208947,-57.5505128,65,1542.11151
D1,Barra do Quaraí/RS,-30.208947,-57.5505128,1,23.72479
1,Barra do Ribeiro/RS,-30.2930206,-51.301437,135,1000.66711
D1,Barra do Ribeiro/RS,-30.2930206,-51.301437,13,96.36054
1,Barra do Rio Azul/RS,-27.4101581,-52.4117471,16,946.74556
1,Barra do Rocha/BA,-14.2090974,-39.6004395,111,1942.59713
1,Barra do Turvo/SP,-24.756421,-48.5056942,118,1540.67111
D1,Barra do Turvo/SP,-24.756421,-48.5056942,4,52.22614
1,Barra dos Coqueiros/SE,-10.9075694,-37.0386249,1198,3939.88226
D1,Barra dos Coqueiros/SE,-10.9075694,-37.0386249,22,72.35176
1,Barra/BA,-11.0892702,-43.1420453,262,489.00668
D1,Barra/BA,-11.0892702,-43.1420453,6,11.19863
1,Barracão/PR,-26.252395,-53.6349576,87,846.71533
D1,Barracão/PR,-26.252395,-53.6349576,2,19.46472
1,Barracão/RS,-27.6728964,-51.4582928,80,1516.58768
D1,Barracão/RS,-27.6728964,-51.4582928,3,56.87204
1,Barras/PI,-4.2446153,-42.2920241,2622,5570.90044
D1,Barras/PI,-4.2446153,-42.2920241,54,114.73250
1,Barreira/CE,-4.2883361,-38.641094,323,1440.35674
D1,Barreira/CE,-4.2883361,-38.641094,19,84.72687
1,Barreiras do Piauí/PI,-9.9224524,-45.4763776,27,806.45161
1,Barreiras/BA,-12.1440031,-44.9967406,4882,3140.78191
D1,Barreiras/BA,-12.1440031,-44.9967406,83,53.39715
1,Barreirinha/AM,-2.798863,-57.067897,1004,3133.48522
D1,Barreirinha/AM,-2.798863,-57.067897,13,40.57302
1,Barreirinhas/MA,-2.7541271,-42.8259693,1036,1656.85773
D1,Barreirinhas/MA,-2.7541271,-42.8259693,23,36.78352
1,Barreiros/PE,-8.8159644,-35.1831905,333,780.60902
D1,Barreiros/PE,-8.8159644,-35.1831905,41,96.11102
1,Barretos/SP,-20.5531437,-48.5697509,4397,3601.20559
D1,Barretos/SP,-20.5531437,-48.5697509,126,103.19579
1,Barrinha/SP,-21.1898849,-48.1550642,719,2191.27149
D1,Barrinha/SP,-21.1898849,-48.1550642,28,85.33463
1,Barro Alto/BA,-11.7618025,-41.9094904,80,535.79800
D1,Barro Alto/BA,-11.7618025,-41.9094904,1,6.69748
1,Barro Alto/GO,-14.9696025,-48.9190985,369,3304.37897
D1,Barro Alto/GO,-14.9696025,-48.9190985,3,26.86487
1,Barro Duro/PI,-5.8180139,-42.5106589,428,6086.46189
D1,Barro Duro/PI,-5.8180139,-42.5106589,7,99.54494
1,Barro Preto/BA,-14.8068289,-39.4727588,242,4328.38490
D1,Barro Preto/BA,-14.8068289,-39.4727588,6,107.31533
1,Barro/CE,-7.1713587,-38.7742136,226,996.47266
D1,Barro/CE,-7.1713587,-38.7742136,9,39.68254
1,Barrocas/BA,-11.5165,-39.099282894736845,134,838.65315
1,Barrolândia/TO,-9.837246,-48.7264346,195,3462.35795
D1,Barrolândia/TO,-9.837246,-48.7264346,4,71.02273
1,Barroquinha/CE,-3.0200371,-41.1339229,768,5114.20390
D1,Barroquinha/CE,-3.0200371,-41.1339229,18,119.86415
1,Barros Cassal/RS,-29.094938,-52.5832366,31,276.81043
D1,Barros Cassal/RS,-29.094938,-52.5832366,1,8.92937
1,Barroso/MG,-21.187222,-43.976111,174,836.13647
D1,Barroso/MG,-21.187222,-43.976111,2,9.61076
1,Barueri/SP,-23.5112184,-46.8764612,6564,2394.03024
D1,Barueri/SP,-23.5112184,-46.8764612,371,135.31158
1,Barão de Antonina/SP,-23.6295651,-49.5632104,20,576.53502
1,Barão de Cocais/MG,-19.9452437,-43.4870298,531,1634.60058
D1,Barão de Cocais/MG,-19.9452437,-43.4870298,4,12.31338
1,Barão de Cotegipe/RS,-27.6214694,-52.3765316,117,1766.57104
D1,Barão de Cotegipe/RS,-27.6214694,-52.3765316,3,45.29669
1,Barão de Grajaú/MA,-6.7542591,-43.0263477,18,95.64293
D1,Barão de Grajaú/MA,-6.7542591,-43.0263477,1,5.31350
1,Barão de Melgaço/MT,-16.195776,-55.9668049,110,1284.44652
D1,Barão de Melgaço/MT,-16.195776,-55.9668049,5,58.38393
1,Barão de Monte Alto/MG,-21.244722,-42.2375,56,1037.61349
D1,Barão de Monte Alto/MG,-21.244722,-42.2375,2,37.05762
1,Barão do Triunfo/RS,-30.3909877,-51.7375349,102,1362.36143
D1,Barão do Triunfo/RS,-30.3909877,-51.7375349,1,13.35648
1,Barão/RS,-29.372474,-51.494908,75,1215.36218
D1,Barão/RS,-29.372474,-51.494908,2,32.40966
1,Bastos/SP,-21.9222474,-50.7317727,73,348.39880
D1,Bastos/SP,-21.9222474,-50.7317727,2,9.54517
1,Bataguassu/MS,-21.715899,-52.422058,809,3513.72481
D1,Bataguassu/MS,-21.715899,-52.422058,7,30.40306
1,Batalha/AL,-9.6733809,-37.1265481,592,3247.03817
D1,Batalha/AL,-9.6733809,-37.1265481,8,43.87889
1,Batalha/PI,-4.022391,-42.0780926,418,1556.39126
D1,Batalha/PI,-4.022391,-42.0780926,9,33.51082
1,Batatais/SP,-20.892867,-47.592149,657,1051.06546
D1,Batatais/SP,-20.892867,-47.592149,20,31.99590
1,Batayporã/MS,-22.2976466,-53.2685608,176,1553.53518
D1,Batayporã/MS,-22.2976466,-53.2685608,4,35.30762
1,Baturité/CE,-4.3290203,-38.8821055,581,1625.17483
D1,Baturité/CE,-4.3290203,-38.8821055,31,86.71329
1,Bauru/SP,-22.3218102,-49.0705863,10891,2890.25471
D1,Bauru/SP,-22.3218102,-49.0705863,200,53.07602
1,Bayeux/PB,-7.1301631,-34.936532,1917,1978.73658
D1,Bayeux/PB,-7.1301631,-34.936532,104,107.34930
1,Baía Formosa/RN,-6.3691885,-35.0063741,89,959.98274
D1,Baía Formosa/RN,-6.3691885,-35.0063741,5,53.93161
1,Baía da Traição/PB,-6.691258,-34.9371244,694,7717.11331
D1,Baía da Traição/PB,-6.691258,-34.9371244,6,66.71856
1,Bebedouro/SP,-20.949077,-48.479083,1153,1487.81873
D1,Bebedouro/SP,-20.949077,-48.479083,27,34.84051
1,Beberibe/CE,-4.1810469,-38.1298101,806,1504.48920
D1,Beberibe/CE,-4.1810469,-38.1298101,30,55.99836
1,Bela Cruz/CE,-3.0529129,-40.167582,1222,3749.50140
D1,Bela Cruz/CE,-3.0529129,-40.167582,23,70.57163
1,Bela Vista da Caroba/PR,-25.8792818,-53.6672545,25,712.04785
1,Bela Vista de Goiás/GO,-16.9692949,-48.9513071,808,2695.57965
D1,Bela Vista de Goiás/GO,-16.9692949,-48.9513071,13,43.36947
1,Bela Vista de Minas/MG,-19.8289721,-43.0973688,56,546.07509
D1,Bela Vista de Minas/MG,-19.8289721,-43.0973688,1,9.75134
1,Bela Vista do Maranhão/MA,-3.7416367,-45.2514192,128,1141.93951
D1,Bela Vista do Maranhão/MA,-3.7416367,-45.2514192,5,44.60701
1,Bela Vista do Paraíso/PR,-22.9948493,-51.1907996,176,1143.07982
D1,Bela Vista do Paraíso/PR,-22.9948493,-51.1907996,4,25.97909
1,Bela Vista do Piauí/PI,-7.9716353,-41.8715061,43,1070.98381
D1,Bela Vista do Piauí/PI,-7.9716353,-41.8715061,1,24.90660
1,Bela Vista do Toldo/SC,-26.274625,-50.466354,6,94.68203
1,Bela Vista/MS,-22.107327,-56.5317344,51,207.07296
D1,Bela Vista/MS,-22.107327,-56.5317344,4,16.24102
1,Belford Roxo/RJ,-22.7667284,-43.4033603,9919,1941.45303
D1,Belford Roxo/RJ,-22.7667284,-43.4033603,296,57.93629
1,Belmiro Braga/MG,-21.9486291,-43.413564,17,495.77136
D1,Belmiro Braga/MG,-21.9486291,-43.413564,2,58.32604
1,Belmonte/BA,-15.8630837,-38.8792845,463,1984.73937
D1,Belmonte/BA,-15.8630837,-38.8792845,3,12.86008
1,Belmonte/SC,-26.8448262,-53.578916,5,184.77458
1,Belo Campo/BA,-15.0338286,-41.2585109,62,360.23473
D1,Belo Campo/BA,-15.0338286,-41.2585109,1,5.81024
1,Belo Horizonte/MG,-19.9227318,-43.9450948,42659,1698.16128
D1,Belo Horizonte/MG,-19.9227318,-43.9450948,1270,50.55592
1,Belo Jardim/PE,-8.3338293,-36.4176419,1187,1552.87222
D1,Belo Jardim/PE,-8.3338293,-36.4176419,34,44.47991
1,Belo Monte/AL,-9.8269944,-37.2787165,166,2476.13365
D1,Belo Monte/AL,-9.8269944,-37.2787165,3,44.74940
1,Belo Oriente/MG,-19.2232523,-42.4807033,626,2344.56929
D1,Belo Oriente/MG,-19.2232523,-42.4807033,11,41.19850
1,Belo Vale/MG,-20.407778,-44.024167,83,1075.82631
D1,Belo Vale/MG,-20.407778,-44.024167,4,51.84705
1,Belterra/PA,-2.636091,-54.937392,487,2746.44710
D1,Belterra/PA,-2.636091,-54.937392,14,78.95330
1,Belágua/MA,-3.1604031,-43.5085052,270,3614.94176
D1,Belágua/MA,-3.1604031,-43.5085052,1,13.38867
1,Belém de Maria/PE,-8.6242497,-35.8388934,95,786.87981
D1,Belém de Maria/PE,-8.6242497,-35.8388934,3,24.84884
1,Belém do Brejo do Cruz/PB,-6.1880727,-37.5332267,140,1906.83737
D1,Belém do Brejo do Cruz/PB,-6.1880727,-37.5332267,2,27.24053
1,Belém do Piauí/PI,-7.3767305,-40.9712156,97,2720.13460
D1,Belém do Piauí/PI,-7.3767305,-40.9712156,3,84.12787
1,Belém do São Francisco/PE,-8.7517707,-38.9625715,127,612.66824
1,Belém/AL,-9.5715351,-36.492841,55,1266.11418
D1,Belém/AL,-9.5715351,-36.492841,1,23.02026
1,Belém/PA,-1.45056,-48.4682453,37694,2525.14663
D1,Belém/PA,-1.45056,-48.4682453,2200,147.37949
1,Belém/PB,-6.6967586,-35.5369626,1105,6251.41435
D1,Belém/PB,-6.6967586,-35.5369626,16,90.51822
1,Beneditinos/PI,-5.4565671,-42.3605061,273,2608.19719
D1,Beneditinos/PI,-5.4565671,-42.3605061,8,76.43069
1,Benedito Leite/MA,-7.2173453,-44.5523331,192,3409.09091
D1,Benedito Leite/MA,-7.2173453,-44.5523331,1,17.75568
1,Benedito Novo/SC,-26.7840657,-49.3629511,148,1270.16821
D1,Benedito Novo/SC,-26.7840657,-49.3629511,2,17.16444
1,Benevides/PA,-1.3555577,-48.252235,1732,2760.73131
D1,Benevides/PA,-1.3555577,-48.252235,48,76.50987
1,Benjamin Constant do Sul/RS,-27.5105555,-52.6007689,103,5165.49649
1,Benjamin Constant/AM,-4.3782748,-70.0290603,1607,3738.60041
D1,Benjamin Constant/AM,-4.3782748,-70.0290603,40,93.05788
1,Bento Fernandes/RN,-5.6926846,-35.8207423,27,491.17701
D1,Bento Fernandes/RN,-5.6926846,-35.8207423,2,36.38348
1,Bento Gonçalves/RS,-29.1654014,-51.5197627,3770,3129.82549
D1,Bento Gonçalves/RS,-29.1654014,-51.5197627,114,94.64194
1,Bento de Abreu/SP,-21.2707225,-50.8120444,39,1308.72483
1,Bequimão/MA,-2.4495376,-44.7884889,234,1099.62406
D1,Bequimão/MA,-2.4495376,-44.7884889,11,51.69173
1,Berilo/MG,-16.9515764,-42.4643732,6,50.28495
1,Berizal/MG,-15.6118785,-41.7417382,8,168.95459
1,Bernardino Batista/PB,-6.4532173,-38.5495418,74,2113.68181
1,Bernardino de Campos/SP,-23.0140216,-49.4760724,102,914.96233
D1,Bernardino de Campos/SP,-23.0140216,-49.4760724,3,26.91066
1,Bernardo Sayão/TO,-7.8794244,-48.8968905,53,1188.60731
D1,Bernardo Sayão/TO,-7.8794244,-48.8968905,3,67.27966
1,Bernardo do Mearim/MA,-4.6315929,-44.7617508,121,2002.31673
D1,Bernardo do Mearim/MA,-4.6315929,-44.7617508,3,49.64422
1,Bertioga/SP,-23.848568,-46.139586,1819,2875.93480
D1,Bertioga/SP,-23.848568,-46.139586,42,66.40421
1,Bertolínia/PI,-7.6372159,-43.9540611,359,6526.08617
D1,Bertolínia/PI,-7.6372159,-43.9540611,4,72.71405
1,Bertópolis/MG,-17.063333,-40.573889,31,673.32754
1,Beruri/AM,-3.9007135,-61.3717319,842,4278.67270
D1,Beruri/AM,-3.9007135,-61.3717319,12,60.97871
1,Betim/MG,-19.968056,-44.198333,6671,1518.41398
D1,Betim/MG,-19.968056,-44.198333,201,45.75044
1,Betânia do Piauí/PI,-8.1460635,-40.7961387,31,499.59710
D1,Betânia do Piauí/PI,-8.1460635,-40.7961387,1,16.11604
1,Betânia/PE,-8.2742779,-38.0351767,90,707.60280
D1,Betânia/PE,-8.2742779,-38.0351767,2,15.72451
1,Bezerros/PE,-8.2372132,-35.7558262,1125,1850.38982
D1,Bezerros/PE,-8.2372132,-35.7558262,62,101.97704
1,Bias Fortes/MG,-21.605833,-43.756944,15,443.91832
1,Bicas/MG,-21.7213723,-43.0604327,67,462.26025
D1,Bicas/MG,-21.7213723,-43.0604327,1,6.89941
1,Biguaçu/SC,-27.4961277,-48.6542432,2079,3035.87856
D1,Biguaçu/SC,-27.4961277,-48.6542432,34,49.64881
1,Bilac/SP,-21.403962,-50.47464,90,1120.23898
D1,Bilac/SP,-21.403962,-50.47464,2,24.89420
1,Biquinhas/MG,-18.783611,-45.502222,28,1113.32008
1,Birigui/SP,-21.2908491,-50.34144,2180,1763.21196
D1,Birigui/SP,-21.2908491,-50.34144,69,55.80808
1,Biritiba-Mirim/SP,-23.5697765,-46.0407456,411,1260.81355
D1,Biritiba-Mirim/SP,-23.5697765,-46.0407456,28,85.89484
1,Biritinga/BA,-11.6227908,-38.8066738,93,582.01389
D1,Biritinga/BA,-11.6227908,-38.8066738,1,6.25821
1,Bituruna/PR,-26.161281,-51.5533319,46,280.67606
D1,Bituruna/PR,-26.161281,-51.5533319,1,6.10165
1,Blumenau/SC,-26.9195567,-49.0658025,11930,3339.87497
D1,Blumenau/SC,-26.9195567,-49.0658025,153,42.83327
1,Boa Esperança do Iguaçu/PR,-25.6362851,-53.2139114,37,1478.22613
1,Boa Esperança do Sul/SP,-21.9930206,-48.3917372,179,1199.49072
D1,Boa Esperança do Sul/SP,-21.9930206,-48.3917372,6,40.20639
1,Boa Esperança/ES,-18.5395472,-40.2904088,365,2427.34588
D1,Boa Esperança/ES,-18.5395472,-40.2904088,16,106.40420
1,Boa Esperança/MG,-21.0901253,-45.5660195,270,672.86366
D1,Boa Esperança/MG,-21.0901253,-45.5660195,13,32.39714
1,Boa Esperança/PR,-24.2411024,-52.7860277,36,876.97929
1,Boa Hora/PI,-4.4094627,-42.1255341,103,1518.95001
1,Boa Nova/BA,-14.365907,-40.2063056,181,1432.75548
D1,Boa Nova/BA,-14.365907,-40.2063056,3,23.74733
1,Boa Ventura de São Roque/PR,-24.88177,-51.5441292,3,46.97041
1,Boa Ventura/PB,-7.4202462,-38.2156782,107,1994.03653
D1,Boa Ventura/PB,-7.4202462,-38.2156782,2,37.27171
1,Boa Viagem/CE,-5.1261877,-39.7300055,1122,2059.84946
D1,Boa Viagem/CE,-5.1261877,-39.7300055,29,53.24032
1,Boa Vista da Aparecida/PR,-25.4357216,-53.4067721,130,1712.55434
D1,Boa Vista da Aparecida/PR,-25.4357216,-53.4067721,3,39.52048
1,Boa Vista das Missões/RS,-27.6677983,-53.3127622,4,190.65777
1,Boa Vista do Buricá/RS,-27.6687782,-54.1111913,82,1221.69249
1,Boa Vista do Cadeado/RS,-28.5783827,-53.8123759,11,445.34413
1,Boa Vista do Gurupi/MA,-1.7981168,-46.3071882,14,150.74836
D1,Boa Vista do Gurupi/MA,-1.7981168,-46.3071882,3,32.30322
1,Boa Vista do Incra/RS,-28.8195551,-53.3866624,18,691.50980
1,Boa Vista do Ramos/AM,-2.9716927,-57.5869819,366,1905.55527
D1,Boa Vista do Ramos/AM,-2.9716927,-57.5869819,2,10.41287
1,Boa Vista do Sul/RS,-29.3510488,-51.6779679,60,2155.94682
D1,Boa Vista do Sul/RS,-29.3510488,-51.6779679,1,35.93245
1,Boa Vista do Tupim/BA,-12.6605988,-40.6083594,99,532.94574
D1,Boa Vista do Tupim/BA,-12.6605988,-40.6083594,1,5.38329
1,Boa Vista/PB,-7.2620711,-36.2415161,142,2013.89874
D1,Boa Vista/PB,-7.2620711,-36.2415161,1,14.18239
1,Boa Vista/RR,2.8208478,-60.6719582,38084,9539.76950
D1,Boa Vista/RR,2.8208478,-60.6719582,485,121.48903
1,Boca da Mata/AL,-9.6452054,-36.2116658,1246,4567.28126
D1,Boca da Mata/AL,-9.6452054,-36.2116658,24,87.97331
1,Boca do Acre/AM,-8.7553487,-67.3930873,1310,3818.35140
D1,Boca do Acre/AM,-8.7553487,-67.3930873,13,37.89204
1,Bocaina de Minas/MG,-22.167778,-44.394722,15,294.69548
1,Bocaina do Sul/SC,-27.745494,-49.942279,28,805.98733
D1,Bocaina do Sul/SC,-27.745494,-49.942279,2,57.57052
1,Bocaina/PI,-6.9445939,-41.3224599,131,2911.11111
D1,Bocaina/PI,-6.9445939,-41.3224599,1,22.22222
1,Bocaina/SP,-22.1421831,-48.522276,135,1094.97932
D1,Bocaina/SP,-22.1421831,-48.522276,3,24.33287
1,Bocaiúva do Sul/PR,-25.206591,-49.114131,211,1630.09889
D1,Bocaiúva do Sul/PR,-25.206591,-49.114131,3,23.17676
1,Bocaiúva/MG,-17.1160208,-43.8122678,344,688.28908
D1,Bocaiúva/MG,-17.1160208,-43.8122678,4,8.00336
1,Bodocó/PE,-7.777592,-39.933797,265,694.69931
D1,Bodocó/PE,-7.777592,-39.933797,8,20.97205
1,Bodoquena/MS,-20.5508775,-56.6769653,34,431.74603
D1,Bodoquena/MS,-20.5508775,-56.6769653,1,12.69841
1,Bodó/RN,-5.9866104,-36.4134824,9,404.85830
1,Bofete/SP,-23.1019554,-48.2610535,147,1253.19693
D1,Bofete/SP,-23.1019554,-48.2610535,3,25.57545
1,Boituva/SP,-23.2838893,-47.6738231,1013,1660.73741
D1,Boituva/SP,-23.2838893,-47.6738231,18,29.50965
1,Bom Conselho/PE,-9.169191,-36.685683,722,1487.00416
D1,Bom Conselho/PE,-9.169191,-36.685683,24,49.42950
1,Bom Despacho/MG,-19.7375242,-45.2517288,600,1185.65359
D1,Bom Despacho/MG,-19.7375242,-45.2517288,15,29.64134
1,Bom Jardim da Serra/SC,-28.3380324,-49.625588,110,2319.20725
D1,Bom Jardim da Serra/SC,-28.3380324,-49.625588,1,21.08370
1,Bom Jardim de Goiás/GO,-16.2062659,-52.172793,159,1798.43909
D1,Bom Jardim de Goiás/GO,-16.2062659,-52.172793,3,33.93281
1,Bom Jardim de Minas/MG,-21.9476466,-44.1906033,12,185.35681
1,Bom Jardim/MA,-3.54129,-45.606004,929,2231.56378
D1,Bom Jardim/MA,-3.54129,-45.606004,26,62.45496
1,Bom Jardim/PE,-7.7961572,-35.5871696,705,1799.20376
D1,Bom Jardim/PE,-7.7961572,-35.5871696,31,79.11392
1,Bom Jardim/RJ,-22.1515328,-42.4186683,184,670.40735
D1,Bom Jardim/RJ,-22.1515328,-42.4186683,4,14.57407
1,Bom Jesus da Lapa/BA,-13.250571,-43.410754,501,724.53289
D1,Bom Jesus da Lapa/BA,-13.250571,-43.410754,2,2.89235
1,Bom Jesus da Penha/MG,-21.0165299,-46.5226644,93,2205.35926
1,Bom Jesus da Serra/BA,-14.3724084,-40.5047119,104,1052.63158
1,Bom Jesus das Selvas/MA,-4.4878075,-46.8526639,1683,4945.92688
D1,Bom Jesus das Selvas/MA,-4.4878075,-46.8526639,12,35.26508
1,Bom Jesus de Goiás/GO,-18.2174587,-49.739721,890,3529.50508
D1,Bom Jesus de Goiás/GO,-18.2174587,-49.739721,20,79.31472
1,Bom Jesus do Amparo/MG,-19.7045132,-43.4752911,28,460.29919
D1,Bom Jesus do Amparo/MG,-19.7045132,-43.4752911,2,32.87851
1,Bom Jesus do Araguaia/MT,-12.1725897,-51.5074425,131,1990.88146
1,Bom Jesus do Galho/MG,-19.8283191,-42.3162256,114,763.30767
D1,Bom Jesus do Galho/MG,-19.8283191,-42.3162256,5,33.47841
1,Bom Jesus do Itabapoana/RJ,-21.1341025,-41.680095,800,2156.56675
D1,Bom Jesus do Itabapoana/RJ,-21.1341025,-41.680095,23,62.00129
1,Bom Jesus do Norte/ES,-21.1254776,-41.6711646,317,3190.41868
D1,Bom Jesus do Norte/ES,-21.1254776,-41.6711646,7,70.45089
1,Bom Jesus do Oeste/SC,-26.6929713,-53.0967453,23,1073.76284
D1,Bom Jesus do Oeste/SC,-26.6929713,-53.0967453,1,46.68534
1,Bom Jesus do Sul/PR,-26.1922507,-53.6002033,14,395.36854
D1,Bom Jesus do Sul/PR,-26.1922507,-53.6002033,1,28.24061
1,Bom Jesus do Tocantins/PA,-5.0471796,-48.5978362,395,2326.12920
D1,Bom Jesus do Tocantins/PA,-5.0471796,-48.5978362,4,23.55574
1,Bom Jesus do Tocantins/TO,-8.96306,-48.165043,77,1573.35513
1,Bom Jesus dos Perdões/SP,-23.1353864,-46.4648052,332,1304.62119
D1,Bom Jesus dos Perdões/SP,-23.1353864,-46.4648052,3,11.78875
1,Bom Jesus/PB,-6.8156725,-38.6551841,45,1757.12612
D1,Bom Jesus/PB,-6.8156725,-38.6551841,1,39.04725
1,Bom Jesus/PI,-9.0711644,-44.3583926,1398,5552.24592
D1,Bom Jesus/PI,-9.0711644,-44.3583926,14,55.60189
1,Bom Jesus/RN,-5.9887544,-35.5821149,117,1145.93536
D1,Bom Jesus/RN,-5.9887544,-35.5821149,4,39.17728
1,Bom Jesus/RS,-28.6692723,-50.4346894,122,1074.98458
1,Bom Jesus/SC,-26.7350604,-52.3916519,95,3156.14618
D1,Bom Jesus/SC,-26.7350604,-52.3916519,3,99.66777
1,Bom Lugar/MA,-4.3728019,-45.0366054,299,1835.03130
D1,Bom Lugar/MA,-4.3728019,-45.0366054,2,12.27446
1,Bom Princípio do Piauí/PI,-3.1912777,-41.6430185,41,728.24156
D1,Bom Princípio do Piauí/PI,-3.1912777,-41.6430185,3,53.28597
1,Bom Princípio/RS,-29.489788,-51.3566782,368,2618.28531
D1,Bom Princípio/RS,-29.489788,-51.3566782,3,21.34472
1,Bom Progresso/RS,-27.5490948,-53.8655601,14,720.90628
1,Bom Repouso/MG,-22.4657069,-46.1485376,79,749.02816
D1,Bom Repouso/MG,-22.4657069,-46.1485376,5,47.40685
1,Bom Retiro do Sul/RS,-29.6000007,-51.9359243,206,1670.99286
D1,Bom Retiro do Sul/RS,-29.6000007,-51.9359243,3,24.33485
1,Bom Retiro/SC,-27.798993,-49.486994,95,953.24102
D1,Bom Retiro/SC,-27.798993,-49.486994,4,40.13646
1,Bom Sucesso de Itararé/SP,-24.3190016,-49.1446207,9,227.61760
1,Bom Sucesso do Sul/PR,-26.0749256,-52.8348629,12,367.64706
1,Bom Sucesso/MG,-21.0323516,-44.7598082,37,210.19144
D1,Bom Sucesso/MG,-21.0323516,-44.7598082,1,5.68085
1,Bom Sucesso/PB,-6.4458948,-37.9297662,27,542.71357
1,Bom Sucesso/PR,-23.7088019,-51.7651297,104,1478.95336
D1,Bom Sucesso/PR,-23.7088019,-51.7651297,1,14.22071
1,Bombinhas/SC,-27.1519159,-48.4875691,1173,5933.53230
D1,Bombinhas/SC,-27.1519159,-48.4875691,9,45.52582
1,Bonfim do Piauí/PI,-9.1648678,-42.8734415,69,1216.93122
D1,Bonfim do Piauí/PI,-9.1648678,-42.8734415,1,17.63668
1,Bonfim/MG,-20.3266626, -44.2386157,66,960.97845
D1,Bonfim/MG,-20.3266626, -44.2386157,3,43.68084
1,Bonfim/RR,3.3613818,-59.8427241,778,6269.64300
D1,Bonfim/RR,3.3613818,-59.8427241,13,104.76267
1,Bonfinópolis de Minas/MG,-16.5660011,-45.98645,123,2239.21354
D1,Bonfinópolis de Minas/MG,-16.5660011,-45.98645,6,109.22993
1,Bonfinópolis/GO,-16.6172709,-48.9615701,272,2802.39027
D1,Bonfinópolis/GO,-16.6172709,-48.9615701,7,72.12034
1,Boninal/BA,-12.7095183,-41.8299984,15,104.39866
D1,Boninal/BA,-12.7095183,-41.8299984,1,6.95991
1,Bonito de Minas/MG,-15.3191266,-44.7544,6,53.42832
1,Bonito de Santa Fé/PB,-7.3143332,-38.5146677,97,813.96325
D1,Bonito de Santa Fé/PB,-7.3143332,-38.5146677,2,16.78275
1,Bonito/BA,-11.9665473,-41.2649896,46,274.39752
D1,Bonito/BA,-11.9665473,-41.2649896,2,11.93033
1,Bonito/MS,-21.1264766,-56.4902208,509,2316.16309
D1,Bonito/MS,-21.1264766,-56.4902208,7,31.85293
1,Bonito/PA,-1.3605722,-47.3049907,259,1590.32298
D1,Bonito/PA,-1.3605722,-47.3049907,9,55.26219
1,Bonito/PE,-8.4721161,-35.7314591,343,899.45980
D1,Bonito/PE,-8.4721161,-35.7314591,26,68.18063
1,Bonópolis/GO,-13.649331,-49.8329113,56,1271.28263
D1,Bonópolis/GO,-13.649331,-49.8329113,1,22.70148
1,Boqueirão do Leão/RS,-29.30332,-52.4296817,81,1050.03889
D1,Boqueirão do Leão/RS,-29.30332,-52.4296817,2,25.92689
1,Boqueirão do Piauí/PI,-4.4850148,-42.1095161,141,2200.71796
D1,Boqueirão do Piauí/PI,-4.4850148,-42.1095161,1,15.60793
1,Boqueirão/PB,-7.487004,-36.130887,407,2286.00315
D1,Boqueirão/PB,-7.487004,-36.130887,7,39.31701
1,Boquim/SE,-11.1450175,-37.6204228,622,2319.51074
D1,Boquim/SE,-11.1450175,-37.6204228,15,55.93675
1,Boquira/BA,-12.8184859,-42.7270883,36,167.37958
D1,Boquira/BA,-12.8184859,-42.7270883,1,4.64943
1,Boracéia/SP,-22.195355,-48.7801925,88,1824.59050
D1,Boracéia/SP,-22.195355,-48.7801925,1,20.73398
1,Borba/AM,-4.3934778,-59.5947721,712,1729.79276
D1,Borba/AM,-4.3934778,-59.5947721,23,55.87814
1,Borborema/PB,-6.8066718,-35.5990191,53,1007.03021
1,Borborema/SP,-21.6212706,-49.074135,215,1339.89779
D1,Borborema/SP,-21.6212706,-49.074135,6,37.39250
1,Borda da Mata/MG,-22.274167,-46.165278,321,1653.61632
D1,Borda da Mata/MG,-22.274167,-46.165278,15,77.27179
1,Borebi/SP,-22.5700178,-48.9714871,45,1696.19299
D1,Borebi/SP,-22.5700178,-48.9714871,1,37.69318
1,Borrazópolis/PR,-23.9393362,-51.5850786,77,1168.08252
D1,Borrazópolis/PR,-23.9393362,-51.5850786,2,30.33981
1,Borá/SP,-22.2701088,-50.544407,3,358.42294
1,Bossoroca/RS,-28.7278885,-54.9120278,72,1146.67941
D1,Bossoroca/RS,-28.7278885,-54.9120278,1,15.92610
1,Botelhos/MG,-21.65,-46.394722,55,367.37693
D1,Botelhos/MG,-21.65,-46.394722,1,6.67958
1,Botucatu/SP,-22.8879628,-48.4410712,2379,1623.92404
D1,Botucatu/SP,-22.8879628,-48.4410712,44,30.03474
1,Botuporã/BA,-13.3744752,-42.5198469,5,48.96680
D1,Botuporã/BA,-13.3744752,-42.5198469,1,9.79336
1,Botuverá/SC,-27.200749,-49.068892,160,3049.94281
1,Bozano/RS,-28.3669953,-53.7705165,10,471.03156
1,Braga/RS,-27.617348,-53.740514,17,507.00865
1,Braganey/PR,-24.8179919,-53.118506,56,1031.87765
D1,Braganey/PR,-24.8179919,-53.118506,2,36.85277
1,Bragança Paulista/SP,-22.9520235,-46.5418586,3164,1875.87450
D1,Bragança Paulista/SP,-22.9520235,-46.5418586,73,43.28029
1,Bragança/PA,-1.0573967,-46.7635406,2347,1838.10285
D1,Bragança/PA,-1.0573967,-46.7635406,94,73.61809
1,Branquinha/AL,-9.2478057,-36.0152009,271,2582.42805
D1,Branquinha/AL,-9.2478057,-36.0152009,6,57.17553
1,Brasil Novo/PA,-3.3055853,-52.539198,747,4951.61076
D1,Brasil Novo/PA,-3.3055853,-52.539198,16,106.05860
1,Brasileira/PI,-4.131182,-41.7824969,139,1668.86781
D1,Brasileira/PI,-4.131182,-41.7824969,1,12.00624
1,Brasilândia de Minas/MG,-17.0096469,-46.0087183,273,1650.74374
D1,Brasilândia de Minas/MG,-17.0096469,-46.0087183,1,6.04668
1,Brasilândia do Sul/PR,-24.1975793,-53.527551,40,1508.86458
1,Brasilândia do Tocantins/TO,-8.3886619,-48.4842729,52,2362.56247
D1,Brasilândia do Tocantins/TO,-8.3886619,-48.4842729,1,45.43389
1,Brasilândia/MS,-21.255575,-52.0365617,106,892.85714
D1,Brasilândia/MS,-21.255575,-52.0365617,3,25.26954
1,Brasiléia/AC,-11.0010413,-68.7487894,1154,4391.50620
D1,Brasiléia/AC,-11.0010413,-68.7487894,19,72.30383
1,Brasnorte/MT,-12.1227151,-58.0050109,298,1513.07438
D1,Brasnorte/MT,-12.1227151,-58.0050109,1,5.07743
1,Brasília de Minas/MG,-16.2075114,-44.430559,157,485.36186
D1,Brasília de Minas/MG,-16.2075114,-44.430559,3,9.27443
1,Brasília/DF,-15.7934036,-47.8823172,195413,6480.78380
D1,Brasília/DF,-15.7934036,-47.8823172,3325,110.27212
1,Brazabrantes/GO,-16.4291635,-49.3858216,70,1890.35917
D1,Brazabrantes/GO,-16.4291635,-49.3858216,2,54.01026
1,Brazópolis/MG,-22.4742842,-45.6165577,261,1805.10409
D1,Brazópolis/MG,-22.4742842,-45.6165577,3,20.74832
1,Braço do Norte/SC,-28.2728633,-49.1622712,2270,6786.24813
D1,Braço do Norte/SC,-28.2728633,-49.1622712,18,53.81166
1,Braço do Trombudo/SC,-27.358578,-49.882145,51,1362.54341
D1,Braço do Trombudo/SC,-27.358578,-49.882145,1,26.71654
1,Braúna/SP,-21.5015319,-50.3175246,94,1653.18326
D1,Braúna/SP,-21.5015319,-50.3175246,7,123.10939
1,Braúnas/MG,-19.055556,-42.716111,16,333.26390
D1,Braúnas/MG,-19.055556,-42.716111,2,41.65799
1,Brejetuba/ES,-20.1465817,-41.2902303,476,3837.47178
D1,Brejetuba/ES,-20.1465817,-41.2902303,1,8.06192
1,Brejinho de Nazaré/TO,-11.0205883,-48.5722906,83,1509.91450
D1,Brejinho de Nazaré/TO,-11.0205883,-48.5722906,4,72.76696
1,Brejinho/PE,-7.3482153,-37.28538,113,1509.28276
D1,Brejinho/PE,-7.3482153,-37.28538,1,13.35648
1,Brejinho/RN,-6.1957907,-35.3583019,161,1267.81636
D1,Brejinho/RN,-6.1957907,-35.3583019,3,23.62391
1,Brejo Alegre/SP,-21.1671191,-50.1850393,61,2129.14485
D1,Brejo Alegre/SP,-21.1671191,-50.1850393,4,139.61606
1,Brejo Grande do Araguaia/PA,-5.7011449,-48.4037308,496,6720.86721
D1,Brejo Grande do Araguaia/PA,-5.7011449,-48.4037308,2,27.10027
1,Brejo Grande/SE,-10.4287358,-36.4667918,171,2058.00939
D1,Brejo Grande/SE,-10.4287358,-36.4667918,7,84.24600
1,Brejo Santo/CE,-7.4909841,-38.9859152,1684,3403.60167
D1,Brejo Santo/CE,-7.4909841,-38.9859152,25,50.52853
1,Brejo da Madre de Deus/PE,-8.1409718,-36.3712527,1003,1976.66627
D1,Brejo da Madre de Deus/PE,-8.1409718,-36.3712527,24,47.29810
1,Brejo de Areia/MA,-4.3316785,-45.5833334,205,2231.17109
D1,Brejo de Areia/MA,-4.3316785,-45.5833334,2,21.76752
1,Brejo do Cruz/PB,-6.32926065,-37.48746163303929,558,3951.28169
D1,Brejo do Cruz/PB,-6.32926065,-37.48746163303929,8,56.64920
1,Brejo do Piauí/PI,-8.207583,-42.8359849,20,516.12903
1,Brejo dos Santos/PB,-6.3769367,-37.8243125,75,1162.97100
1,Brejo/MA,-3.6804397,-42.7529313,694,1906.75056
D1,Brejo/MA,-3.6804397,-42.7529313,18,49.45463
1,Brejolândia/BA,-12.4843845,-43.9611861,5,47.36194
D1,Brejolândia/BA,-12.4843845,-43.9611861,1,9.47239
1,Brejão/PE,-9.029146,-36.566034,30,333.59279
D1,Brejão/PE,-9.029146,-36.566034,2,22.23952
1,Brejões/BA,-13.1033754,-39.7909837,56,391.74537
D1,Brejões/BA,-13.1033754,-39.7909837,1,6.99545
1,Breu Branco/PA,-3.7785073,-49.5684795,303,458.77116
D1,Breu Branco/PA,-3.7785073,-49.5684795,21,31.79602
1,Breves/PA,-1.68036,-50.479085,2533,2466.38300
D1,Breves/PA,-1.68036,-50.479085,86,83.73823
1,Britânia/GO,-15.2427599,-51.1602061,159,2751.34106
D1,Britânia/GO,-15.2427599,-51.1602061,1,17.30403
1,Brochier/RS,-29.556766,-51.5963047,45,886.87426
1,Brodowski/SP,-20.984532,-47.657217,509,2040.97999
D1,Brodowski/SP,-20.984532,-47.657217,18,72.17611
1,Brotas de Macaúbas/BA,-12.0019007,-42.6257506,3,29.32265
1,Brotas/SP,-22.2840884,-48.1267265,130,532.72139
D1,Brotas/SP,-22.2840884,-48.1267265,2,8.19571
1,Brumadinho/MG,-20.143611,-44.2,1127,2810.26357
D1,Brumadinho/MG,-20.143611,-44.2,13,32.41653
1,Brumado/BA,-14.29507325,-41.659307508575985,1597,2376.66493
D1,Brumado/BA,-14.29507325,-41.659307508575985,16,23.81130
1,Brunópolis/SC,-27.310953,-50.837585,32,1322.31405
1,Brusque/SC,-27.0964628,-48.9136323,5753,4270.24339
D1,Brusque/SC,-27.0964628,-48.9136323,57,42.30903
1,Brás Pires/MG,-20.8483109,-43.2430524,8,184.62959
1,Bueno Brandão/MG,-22.441976,-46.3517971,74,672.66612
D1,Bueno Brandão/MG,-22.441976,-46.3517971,4,36.36033
1,Buenos Aires/PE,-7.7218931,-35.326587,53,402.88864
D1,Buenos Aires/PE,-7.7218931,-35.326587,8,60.81338
1,Buenópolis/MG,-17.8756607,-44.1749365,89,858.65895
D1,Buenópolis/MG,-17.8756607,-44.1749365,2,19.29571
1,Buerarema/BA,-14.9571177,-39.3008035,520,2833.94190
D1,Buerarema/BA,-14.9571177,-39.3008035,18,98.09799
1,Bugre/MG,-19.4257687,-42.2556,69,1732.79759
D1,Bugre/MG,-19.4257687,-42.2556,2,50.22602
1,Bujari/AC,-9.8309656,-67.9520886,378,3682.05728
D1,Bujari/AC,-9.8309656,-67.9520886,7,68.18625
1,Bujaru/PA,-1.5169239,-48.0410699,644,2210.62749
D1,Bujaru/PA,-1.5169239,-48.0410699,23,78.95098
1,Buri/SP,-23.79849,-48.598924,274,1378.40829
D1,Buri/SP,-23.79849,-48.598924,6,30.18412
1,Buritama/SP,-21.0664017,-50.1448077,299,1744.05040
D1,Buritama/SP,-21.0664017,-50.1448077,12,69.99533
1,Buriti Alegre/GO,-18.1377879,-49.0404411,220,2325.82725
D1,Buriti Alegre/GO,-18.1377879,-49.0404411,6,63.43165
1,Buriti Bravo/MA,-5.8391884,-43.8367876,539,2256.74091
D1,Buriti Bravo/MA,-5.8391884,-43.8367876,1,4.18690
1,Buriti de Goiás/GO,-16.180644,-50.4287479,92,3697.74920
D1,Buriti de Goiás/GO,-16.180644,-50.4287479,1,40.19293
1,Buriti do Tocantins/TO,-5.3187439,-48.2256609,235,2070.84949
1,Buriti dos Lopes/PI,-3.1776723,-41.8707444,747,3776.35104
D1,Buriti dos Lopes/PI,-3.1776723,-41.8707444,12,60.66427
1,Buriti dos Montes/PI,-5.3136171,-41.0971256,47,570.11160
D1,Buriti dos Montes/PI,-5.3136171,-41.0971256,1,12.13003
1,Buriti/MA,-3.9430944,-42.9244281,631,2200.29291
D1,Buriti/MA,-3.9430944,-42.9244281,1,3.48699
1,Buriticupu/MA,-4.3227472,-46.4516989,2462,3402.52633
D1,Buriticupu/MA,-4.3227472,-46.4516989,4,5.52807
1,Buritinópolis/GO,-14.4589282,-46.4293104,49,1488.45687
1,Buritirama/BA,-10.7148421,-43.6362327,230,1086.23784
D1,Buritirama/BA,-10.7148421,-43.6362327,5,23.61387
1,Buritirana/MA,-5.5897455,-47.0148915,240,1555.41154
D1,Buritirana/MA,-5.5897455,-47.0148915,6,38.88529
1,Buritis/MG,-15.621389,-46.423889,370,1489.47305
D1,Buritis/MG,-15.621389,-46.423889,2,8.05121
1,Buritis/RO,-10.2054937,-63.8281954,719,1813.18404
D1,Buritis/RO,-10.2054937,-63.8281954,8,20.17451
1,Buritizal/SP,-20.1933264,-47.7097165,57,1272.03749
D1,Buritizal/SP,-20.1933264,-47.7097165,3,66.94934
1,Buritizeiro/MG,-17.3667765,-44.9647781,271,965.92529
D1,Buritizeiro/MG,-17.3667765,-44.9647781,6,21.38580
1,Butiá/RS,-30.1256795,-51.9692224,227,1083.99790
D1,Butiá/RS,-30.1256795,-51.9692224,12,57.30385
1,Buíque/PE,-8.6239732,-37.157296,492,842.78324
D1,Buíque/PE,-8.6239732,-37.157296,7,11.99082
1,Bálsamo/SP,-20.7343722,-49.5807484,499,5502.86723
D1,Bálsamo/SP,-20.7343722,-49.5807484,20,220.55580
0,CASO SEM LOCALIZAÇÃO DEFINIDA/AC,-9.884083190922777,-67.85119819780795,10,1.13387
0,CASO SEM LOCALIZAÇÃO DEFINIDA/AL,-9.931093434363673,-35.609611600637464,356,10.66712
D0,CASO SEM LOCALIZAÇÃO DEFINIDA/AL,-9.931093434363673,-35.609611600637464,20,0.59928
0,CASO SEM LOCALIZAÇÃO DEFINIDA/AM,-3.07518492149711,-60.16169212873594,3056,73.73455
D0,CASO SEM LOCALIZAÇÃO DEFINIDA/AM,-3.07518492149711,-60.16169212873594,134,3.23312
0,CASO SEM LOCALIZAÇÃO DEFINIDA/AP,2.677150600275196,-50.477785111870624,374,44.22210
D0,CASO SEM LOCALIZAÇÃO DEFINIDA/AP,2.677150600275196,-50.477785111870624,7,0.82769
0,CASO SEM LOCALIZAÇÃO DEFINIDA/BA,-13.415069300066518,-38.14174656569957,6121,41.15494
D0,CASO SEM LOCALIZAÇÃO DEFINIDA/BA,-13.415069300066518,-38.14174656569957,84,0.56478
0,CASO SEM LOCALIZAÇÃO DEFINIDA/CE,-3.3445126297392798,-38.624961942434304,2484,27.20082
D0,CASO SEM LOCALIZAÇÃO DEFINIDA/CE,-3.3445126297392798,-38.624961942434304,3,0.03285
0,CASO SEM LOCALIZAÇÃO DEFINIDA/ES,-20.30989267097039,-39.81745156645774,6740,167.71801
D0,CASO SEM LOCALIZAÇÃO DEFINIDA/ES,-20.30989267097039,-39.81745156645774,112,2.78701
0,CASO SEM LOCALIZAÇÃO DEFINIDA/GO,-16.701590966270153,-49.164524059025034,703,10.01659
D0,CASO SEM LOCALIZAÇÃO DEFINIDA/GO,-16.701590966270153,-49.164524059025034,35,0.49869
0,CASO SEM LOCALIZAÇÃO DEFINIDA/MA,-2.171256551718846,-43.98946796681719,170,2.40277
D0,CASO SEM LOCALIZAÇÃO DEFINIDA/MA,-2.171256551718846,-43.98946796681719,9,0.12721
0,CASO SEM LOCALIZAÇÃO DEFINIDA/MG,-19.97049116501593,-43.8852149072783,7088,33.48325
D0,CASO SEM LOCALIZAÇÃO DEFINIDA/MG,-19.97049116501593,-43.8852149072783,202,0.95423
0,CASO SEM LOCALIZAÇÃO DEFINIDA/MS,-20.391549234908513,-54.645156949758444,2017,72.58043
D0,CASO SEM LOCALIZAÇÃO DEFINIDA/MS,-20.391549234908513,-54.645156949758444,48,1.72725
0,CASO SEM LOCALIZAÇÃO DEFINIDA/MT,-15.54791153961863,-56.17143998972475,656,18.82641
D0,CASO SEM LOCALIZAÇÃO DEFINIDA/MT,-15.54791153961863,-56.17143998972475,51,1.46364
0,CASO SEM LOCALIZAÇÃO DEFINIDA/PA,-0.09317078214359542,-48.0050231510481,96,1.11591
D0,CASO SEM LOCALIZAÇÃO DEFINIDA/PA,-0.09317078214359542,-48.0050231510481,6,0.06974
0,CASO SEM LOCALIZAÇÃO DEFINIDA/PB,-7.1049355696146606,-34.68696690234351,440,10.95038
D0,CASO SEM LOCALIZAÇÃO DEFINIDA/PB,-7.1049355696146606,-34.68696690234351,9,0.22398
0,CASO SEM LOCALIZAÇÃO DEFINIDA/PE,-8.121628543819208,-34.57313921302556,68,0.71152
D0,CASO SEM LOCALIZAÇÃO DEFINIDA/PE,-8.121628543819208,-34.57313921302556,15,0.15695
0,CASO SEM LOCALIZAÇÃO DEFINIDA/PR,-25.69415946385943,-48.10141676336737,4218,36.89012
D0,CASO SEM LOCALIZAÇÃO DEFINIDA/PR,-25.69415946385943,-48.10141676336737,73,0.63845
0,CASO SEM LOCALIZAÇÃO DEFINIDA/RJ,-23.210238986465157,-43.12864305824042,126,0.72980
D0,CASO SEM LOCALIZAÇÃO DEFINIDA/RJ,-23.210238986465157,-43.12864305824042,20,0.11584
0,CASO SEM LOCALIZAÇÃO DEFINIDA/RN,-5.749310788669161,-34.95302586257457,2114,60.28197
D0,CASO SEM LOCALIZAÇÃO DEFINIDA/RN,-5.749310788669161,-34.95302586257457,35,0.99805
0,CASO SEM LOCALIZAÇÃO DEFINIDA/RO,-8.681174926655274,-63.9216949899276,362,20.36883
D0,CASO SEM LOCALIZAÇÃO DEFINIDA/RO,-8.681174926655274,-63.9216949899276,4,0.22507
0,CASO SEM LOCALIZAÇÃO DEFINIDA/RR,2.813328208465927,-60.663338675861986,1128,186.21205
D0,CASO SEM LOCALIZAÇÃO DEFINIDA/RR,2.813328208465927,-60.663338675861986,5,0.82541
0,CASO SEM LOCALIZAÇÃO DEFINIDA/RS,-30.50647488532064,-49.906261466443524,132,1.16021
D0,CASO SEM LOCALIZAÇÃO DEFINIDA/RS,-30.50647488532064,-49.906261466443524,10,0.08789
0,CASO SEM LOCALIZAÇÃO DEFINIDA/SC,-27.675643660562308,-48.18313219398259,7484,104.45529
D0,CASO SEM LOCALIZAÇÃO DEFINIDA/SC,-27.675643660562308,-48.18313219398259,5,0.06979
0,CASO SEM LOCALIZAÇÃO DEFINIDA/SE,-11.03002091978736,-36.89283180376513,193,8.39606
D0,CASO SEM LOCALIZAÇÃO DEFINIDA/SE,-11.03002091978736,-36.89283180376513,4,0.17401
0,CASO SEM LOCALIZAÇÃO DEFINIDA/SP,-24.30968974555485,-46.21366504207253,6747,14.69325
D0,CASO SEM LOCALIZAÇÃO DEFINIDA/SP,-24.30968974555485,-46.21366504207253,222,0.48346
0,CASO SEM LOCALIZAÇÃO DEFINIDA/TO,-10.213012114749148,-48.40023803990334,21,1.33514
D0,CASO SEM LOCALIZAÇÃO DEFINIDA/TO,-10.213012114749148,-48.40023803990334,2,0.12716
1,Caapiranga/AM,-3.3188884,-61.2096404,318,2431.00680
D1,Caapiranga/AM,-3.3188884,-61.2096404,7,53.51273
1,Caaporã/PB,-7.510234,-34.9154114,987,4521.71523
D1,Caaporã/PB,-7.510234,-34.9154114,16,73.30035
1,Caarapó/MS,-22.6349267,-54.8240903,470,1557.63240
D1,Caarapó/MS,-22.6349267,-54.8240903,2,6.62822
1,Caatiba/BA,-14.9782759,-40.4092325,322,4764.72329
D1,Caatiba/BA,-14.9782759,-40.4092325,1,14.79728
1,Cabaceiras do Paraguaçu/BA,-12.5377868,-39.1901339,73,388.15335
D1,Cabaceiras do Paraguaçu/BA,-12.5377868,-39.1901339,1,5.31717
1,Cabaceiras/PB,-7.4899156,-36.2860501,119,2120.83408
1,Cabeceira Grande/MG,-16.0297,-47.0906,45,647.57519
D1,Cabeceira Grande/MG,-16.0297,-47.0906,2,28.78112
1,Cabeceiras do Piauí/PI,-4.4733665,-42.3098716,223,2106.55583
D1,Cabeceiras do Piauí/PI,-4.4733665,-42.3098716,6,56.67863
1,Cabeceiras/GO,-15.7995459,-46.9264991,67,838.23345
D1,Cabeceiras/GO,-15.7995459,-46.9264991,3,37.53284
1,Cabedelo/PB,-6.97324,-34.8351609,3006,4437.81741
D1,Cabedelo/PB,-6.97324,-34.8351609,71,104.81871
1,Cabixi/RO,-13.4956065,-60.5424442,119,2240.21084
D1,Cabixi/RO,-13.4956065,-60.5424442,5,94.12651
1,Cabo Frio/RJ,-22.8804369,-42.0189227,2574,1136.29842
D1,Cabo Frio/RJ,-22.8804369,-42.0189227,147,64.89350
1,Cabo Verde/MG,-21.4743338,-46.3964995,41,291.29663
1,Cabo de Santo Agostinho/PE,-8.2838945,-35.0320984,1974,953.40211
D1,Cabo de Santo Agostinho/PE,-8.2838945,-35.0320984,257,124.12581
1,Cabreúva/SP,-23.3075813,-47.1324417,1164,2341.72249
D1,Cabreúva/SP,-23.3075813,-47.1324417,39,78.45977
1,Cabrobó/PE,-8.5083701,-39.3106961,395,1154.26200
D1,Cabrobó/PE,-8.5083701,-39.3106961,4,11.68873
1,Cabrália Paulista/SP,-22.4562909,-49.3385645,96,2251.40713
1,Cacaulândia/RO,-10.3380043,-62.9007231,83,1332.26324
1,Cacequi/RS,-29.8838059,-54.8273443,40,318.44598
1,Cachoeira Alta/GO,-18.7618269,-50.9432431,662,5302.78757
D1,Cachoeira Alta/GO,-18.7618269,-50.9432431,8,64.08202
1,Cachoeira Dourada/GO,-18.4934204,-49.481062,108,1338.78765
D1,Cachoeira Dourada/GO,-18.4934204,-49.481062,2,24.79236
1,Cachoeira Dourada/MG,-18.517136,-49.5002062,14,520.05944
1,Cachoeira Grande/MA,-2.9290492,-44.0573223,174,1844.97932
D1,Cachoeira Grande/MA,-2.9290492,-44.0573223,4,42.41332
1,Cachoeira Paulista/SP,-22.666498,-45.015384,345,1035.19669
D1,Cachoeira Paulista/SP,-22.666498,-45.015384,13,39.00741
1,Cachoeira da Prata/MG,-19.524723,-44.453056,37,1026.92201
D1,Cachoeira da Prata/MG,-19.524723,-44.453056,1,27.75465
1,Cachoeira de Goiás/GO,-16.6688414,-50.6435997,15,1110.28868
1,Cachoeira de Minas/MG,-22.3554043,-45.7796324,146,1264.39768
D1,Cachoeira de Minas/MG,-22.3554043,-45.7796324,2,17.32052
1,Cachoeira de Pajeú/MG,-15.965833,-41.496666,206,2188.69528
D1,Cachoeira de Pajeú/MG,-15.965833,-41.496666,2,21.24947
1,Cachoeira do Arari/PA,-1.0143572,-48.9621089,292,1228.59427
D1,Cachoeira do Arari/PA,-1.0143572,-48.9621089,13,54.69769
1,Cachoeira do Piriá/PA,-1.7599443,-46.5446954,513,1513.27434
D1,Cachoeira do Piriá/PA,-1.7599443,-46.5446954,3,8.84956
1,Cachoeira do Sul/RS,-30.0474778,-52.8905413,582,708.02058
D1,Cachoeira do Sul/RS,-30.0474778,-52.8905413,6,7.29918
1,Cachoeira dos Índios/PB,-6.9259193,-38.6742159,131,1278.79734
D1,Cachoeira dos Índios/PB,-6.9259193,-38.6742159,7,68.33268
1,Cachoeira/BA,-12.5998256,-38.9665918,439,1311.62235
D1,Cachoeira/BA,-12.5998256,-38.9665918,10,29.87750
1,Cachoeiras de Macacu/RJ,-22.4626861,-42.6534414,608,1031.61002
D1,Cachoeiras de Macacu/RJ,-22.4626861,-42.6534414,31,52.59854
1,Cachoeirinha/PE,-8.4906364,-36.2338963,269,1319.92149
D1,Cachoeirinha/PE,-8.4906364,-36.2338963,20,98.13543
1,Cachoeirinha/RS,-29.9493353,-51.0898927,3067,2353.92538
D1,Cachoeirinha/RS,-29.9493353,-51.0898927,73,56.02757
1,Cachoeirinha/TO,-6.118647,-47.9208885,28,1230.76923
1,Cachoeiro de Itapemirim/ES,-20.848084,-41.11129,5810,2780.27678
D1,Cachoeiro de Itapemirim/ES,-20.848084,-41.11129,171,81.82914
1,Cacimba de Areia/PB,-7.1288513,-37.1575194,11,298.75068
1,Cacimba de Dentro/PB,-6.6425101,-35.7929304,348,2024.78618
D1,Cacimba de Dentro/PB,-6.6425101,-35.7929304,7,40.72846
1,Cacimbas/PB,-7.2125451,-37.0593398,63,878.29360
D1,Cacimbas/PB,-7.2125451,-37.0593398,2,27.88234
1,Cacimbinhas/AL,-9.401212,-36.991082,261,2403.75760
D1,Cacimbinhas/AL,-9.401212,-36.991082,3,27.62940
1,Cacique Doble/RS,-27.7700117,-51.6616409,89,1757.15696
1,Cacoal/RO,-11.4333,-61.4420502,2356,2760.10731
D1,Cacoal/RO,-11.4333,-61.4420502,34,39.83177
1,Caconde/SP,-21.527995,-46.643659,110,579.40479
D1,Caconde/SP,-21.527995,-46.643659,1,5.26732
1,Caculé/BA,-14.4990734,-42.2233006,87,375.48554
D1,Caculé/BA,-14.4990734,-42.2233006,2,8.63185
1,Caetanos/BA,-14.3387456,-40.9085971,140,962.72865
1,Caetanópolis/MG,-19.2947496,-44.4138386,83,714.03992
D1,Caetanópolis/MG,-19.2947496,-44.4138386,2,17.20578
1,Caetité/BA,-14.0691776,-42.4852428,171,335.45856
D1,Caetité/BA,-14.0691776,-42.4852428,5,9.80873
1,Caeté/MG,-19.897777,-43.670278,423,945.92781
D1,Caeté/MG,-19.897777,-43.670278,12,26.83483
1,Caetés/PE,-8.7728788,-36.6255835,570,1983.36755
D1,Caetés/PE,-8.7728788,-36.6255835,6,20.87755
1,Cafarnaum/BA,-11.691399,-41.468823,253,1372.24060
D1,Cafarnaum/BA,-11.691399,-41.468823,4,21.69550
1,Cafeara/PR,-22.78905,-51.714195,51,1738.24131
1,Cafelândia/PR,-24.6176963,-53.3218057,259,1429.35982
D1,Cafelândia/PR,-24.6176963,-53.3218057,1,5.51876
1,Cafelândia/SP,-21.8054355,-49.6030627,279,1570.32701
D1,Cafelândia/SP,-21.8054355,-49.6030627,4,22.51365
1,Cafezal do Sul/PR,-23.900508,-53.512418,28,692.38378
1,Caiabu/SP,-22.0143038,-51.2356597,37,882.84419
D1,Caiabu/SP,-22.0143038,-51.2356597,2,47.72131
1,Caiana/MG,-20.695555,-41.924723,16,291.12082
D1,Caiana/MG,-20.695555,-41.924723,2,36.39010
1,Caiapônia/GO,-16.9538779,-51.8090761,197,1041.61159
D1,Caiapônia/GO,-16.9538779,-51.8090761,1,5.28737
1,Caibaté/RS,-28.290475,-54.645407,2,41.27115
1,Caibi/SC,-27.0751925,-53.2502133,43,699.41444
D1,Caibi/SC,-27.0751925,-53.2502133,2,32.53090
1,Caicó/RN,-6.4594544,-37.0971911,2701,3974.86461
D1,Caicó/RN,-6.4594544,-37.0971911,32,47.09206
1,Caieiras/SP,-23.3644621,-46.7484765,2155,2123.78043
D1,Caieiras/SP,-23.3644621,-46.7484765,98,96.58027
1,Cairu/BA,-13.4860505,-39.0455744,305,1678.03697
D1,Cairu/BA,-13.4860505,-39.0455744,5,27.50880
1,Caiuá/SP,-21.8319357,-51.9887179,58,987.40211
D1,Caiuá/SP,-21.8319357,-51.9887179,1,17.02417
1,Caiçara do Norte/RN,-5.0645017,-36.0561226,87,1328.44709
D1,Caiçara do Norte/RN,-5.0645017,-36.0561226,3,45.80852
1,Caiçara do Rio do Vento/RN,-5.757968,-36.00089,62,1682.95331
D1,Caiçara do Rio do Vento/RN,-5.757968,-36.00089,1,27.14441
1,Caiçara/PB,-6.6146866,-35.4681434,462,6415.77559
D1,Caiçara/PB,-6.6146866,-35.4681434,10,138.86960
1,Caiçara/RS,-27.2750478,-53.4310053,55,1159.60363
D1,Caiçara/RS,-27.2750478,-53.4310053,3,63.25111
1,Cajamar/SP,-23.3561111,-46.8769444,1557,2027.31735
D1,Cajamar/SP,-23.3561111,-46.8769444,77,100.25911
1,Cajapió/MA,-2.8778715,-44.6746871,5,44.73472
D1,Cajapió/MA,-2.8778715,-44.6746871,2,17.89389
1,Cajari/MA,-3.3213076,-45.0118757,132,681.14970
D1,Cajari/MA,-3.3213076,-45.0118757,4,20.64090
1,Cajati/SP,-24.7272376,-48.1077914,1539,5390.73172
D1,Cajati/SP,-24.7272376,-48.1077914,26,91.07149
1,Cajazeiras do Piauí/PI,-6.794271,-42.3935024,10,280.97780
1,Cajazeiras/PB,-6.8897849,-38.5570389,2036,3284.24177
D1,Cajazeiras/PB,-6.8897849,-38.5570389,46,74.20193
1,Cajazeirinhas/PB,-6.961442,-37.7993733,35,1096.14782
1,Cajobi/SP,-20.8776238,-48.8106972,208,1973.06014
D1,Cajobi/SP,-20.8776238,-48.8106972,6,56.91520
1,Cajueiro da Praia/PI,-2.931114,-41.340801,330,4318.24130
D1,Cajueiro da Praia/PI,-2.931114,-41.340801,9,117.77022
1,Cajueiro/AL,-9.399589,-36.1524309,306,1439.05192
D1,Cajueiro/AL,-9.399589,-36.1524309,13,61.13619
1,Cajuri/MG,-20.7901414,-42.7954489,54,1354.40181
1,Cajuru/SP,-21.2759978,-47.3046035,468,1788.51225
D1,Cajuru/SP,-21.2759978,-47.3046035,10,38.21607
1,Caldas Brandão/PB,-7.1027959,-35.3254676,325,5404.05720
D1,Caldas Brandão/PB,-7.1027959,-35.3254676,2,33.25574
1,Caldas Novas/GO,-17.745,-48.625,1740,1908.69002
D1,Caldas Novas/GO,-17.745,-48.625,43,47.16878
1,Caldas/MG,-21.923611,-46.386111,106,732.04420
D1,Caldas/MG,-21.923611,-46.386111,3,20.71823
1,Caldazinha/GO,-16.7116649,-49.0012601,88,2313.35436
D1,Caldazinha/GO,-16.7116649,-49.0012601,1,26.28812
1,Caldeirão Grande do Piauí/PI,-7.3310393,-40.6374433,126,2181.44044
1,Caldeirão Grande/BA,-11.0208483,-40.3041387,123,922.93840
D1,Caldeirão Grande/BA,-11.0208483,-40.3041387,1,7.50356
1,Califórnia/PR,-23.6672543,-51.3554556,85,991.83197
D1,Califórnia/PR,-23.6672543,-51.3554556,2,23.33722
1,Calmon/SC,-26.6023644,-51.0992893,10,298.86432
D1,Calmon/SC,-26.6023644,-51.0992893,1,29.88643
1,Calumbi/PE,-7.9389746,-38.1516871,179,3113.04348
D1,Calumbi/PE,-7.9389746,-38.1516871,2,34.78261
1,Calçado/PE,-8.7413446,-36.3351787,61,551.88637
D1,Calçado/PE,-8.7413446,-36.3351787,1,9.04732
1,Calçoene/AP,2.4981757,-50.9539503,1160,10434.46973
D1,Calçoene/AP,2.4981757,-50.9539503,5,44.97616
1,Camacan/BA,-15.4166631,-39.4930088,1448,4526.69751
D1,Camacan/BA,-15.4166631,-39.4930088,31,96.91134
1,Camalaú/PB,-7.885031,-36.824191,32,532.18028
1,Camamu/BA,-13.9438142,-39.1060917,818,2316.23060
D1,Camamu/BA,-13.9438142,-39.1060917,18,50.96840
1,Camanducaia/MG,-22.755278,-46.144444,513,2356.45384
D1,Camanducaia/MG,-22.755278,-46.144444,10,45.93477
1,Camapuã/MS,-19.5291747,-54.0434641,47,342.79046
D1,Camapuã/MS,-19.5291747,-54.0434641,1,7.29341
1,Camaquã/RS,-30.8524752,-51.8075619,1191,1797.43741
D1,Camaquã/RS,-30.8524752,-51.8075619,20,30.18367
1,Camaragibe/PE,-8.0213832,-34.9810768,2143,1357.80723
D1,Camaragibe/PE,-8.0213832,-34.9810768,185,117.21621
1,Camargo/RS,-28.5865661,-52.2031474,56,2049.03037
1,Camaçari/BA,-12.6998188,-38.3260762,6194,2070.65777
D1,Camaçari/BA,-12.6998188,-38.3260762,124,41.45327
1,Cambará do Sul/RS,-29.0489517,-50.145412,67,1041.82864
1,Cambará/PR,-23.042273,-50.075281,286,1127.76025
D1,Cambará/PR,-23.042273,-50.075281,6,23.65931
1,Cambira/PR,-23.600265,-51.581045,77,979.02098
D1,Cambira/PR,-23.600265,-51.581045,3,38.14367
1,Camboriú/SC,-27.0273601,-48.6535657,2758,3323.33201
D1,Camboriú/SC,-27.0273601,-48.6535657,43,51.81410
1,Cambuci/RJ,-21.5749919,-41.9107833,199,1283.45695
D1,Cambuci/RJ,-21.5749919,-41.9107833,5,32.24766
1,Cambuquira/MG,-21.853056,-45.2953619,29,226.31497
D1,Cambuquira/MG,-21.853056,-45.2953619,2,15.60793
1,Cambuí/MG,-22.6122501,-46.0572137,388,1312.98433
D1,Cambuí/MG,-22.6122501,-46.0572137,8,27.07184
1,Cambé/PR,-23.2782035,-51.2779583,1912,1794.74904
D1,Cambé/PR,-23.2782035,-51.2779583,33,30.97632
1,Cametá/PA,-2.242949,-49.497885,4805,3484.66169
D1,Cametá/PA,-2.242949,-49.497885,98,71.07114
1,Camocim de São Félix/PE,-8.3616757,-35.7638903,222,1183.05356
D1,Camocim de São Félix/PE,-8.3616757,-35.7638903,8,42.63256
1,Camocim/CE,-2.9009918,-40.8427389,2346,3685.14475
D1,Camocim/CE,-2.9009918,-40.8427389,81,127.23646
1,Campanha/MG,-21.8361108,-45.401986,172,1032.10321
D1,Campanha/MG,-21.8361108,-45.401986,4,24.00240
1,Campanário/MG,-18.2398144,-41.7271768,16,429.99194
1,Campestre da Serra/RS,-28.7966535,-51.0958149,42,1239.66942
1,Campestre de Goiás/GO,-16.7624179,-49.69497,135,3719.00826
D1,Campestre de Goiás/GO,-16.7624179,-49.69497,2,55.09642
1,Campestre do Maranhão/MA,-6.1729113,-47.3640512,499,3471.54585
D1,Campestre do Maranhão/MA,-6.1729113,-47.3640512,8,55.65605
1,Campestre/AL,-8.8481634,-35.5660033,94,1355.24798
D1,Campestre/AL,-8.8481634,-35.5660033,3,43.25260
1,Campestre/MG,-19.6142116,-43.219378,135,641.17787
D1,Campestre/MG,-19.6142116,-43.219378,4,18.99786
1,Campina Grande do Sul/PR,-25.3046032,-49.0545355,973,2247.73609
D1,Campina Grande do Sul/PR,-25.3046032,-49.0545355,22,50.82240
1,Campina Grande/PB,-7.2246743,-35.8771292,13196,3220.64965
D1,Campina Grande/PB,-7.2246743,-35.8771292,380,92.74378
1,Campina Verde/MG,-19.535277,-49.486389,139,703.97569
D1,Campina Verde/MG,-19.535277,-49.486389,5,25.32287
1,Campina da Lagoa/PR,-24.5937926,-52.8038965,42,295.73300
D1,Campina da Lagoa/PR,-24.5937926,-52.8038965,3,21.12379
1,Campina das Missões/RS,-27.9883295,-54.8411665,37,675.92254
D1,Campina das Missões/RS,-27.9883295,-54.8411665,3,54.80453
1,Campina do Monte Alegre/SP,-23.5935653,-48.4801876,80,1328.02125
1,Campina do Simão/PR,-25.1086375,-51.8076658,5,128.63391
D1,Campina do Simão/PR,-25.1086375,-51.8076658,1,25.72678
1,Campinas do Piauí/PI,-7.6593687,-41.8814875,39,694.81561
D1,Campinas do Piauí/PI,-7.6593687,-41.8814875,1,17.81578
1,Campinas do Sul/RS,-27.7167968,-52.6257885,84,1540.15402
D1,Campinas do Sul/RS,-27.7167968,-52.6257885,2,36.67033
1,Campinas/SP,-22.90556,-47.06083,31538,2619.27641
D1,Campinas/SP,-22.90556,-47.06083,1246,103.48210
1,Campinaçu/GO,-13.7869969,-48.5703841,119,3269.23077
1,Campinorte/GO,-14.3136699,-49.1510931,359,2843.33914
D1,Campinorte/GO,-14.3136699,-49.1510931,8,63.36132
1,Campinápolis/MT,-14.5403731,-52.7970626,425,2659.57447
D1,Campinápolis/MT,-14.5403731,-52.7970626,15,93.86733
1,Campo Alegre de Goiás/GO,-17.6337896,-47.779291,22,289.89327
D1,Campo Alegre de Goiás/GO,-17.6337896,-47.779291,1,13.17697
1,Campo Alegre de Lourdes/BA,-9.5160326,-43.0101338,120,416.69560
D1,Campo Alegre de Lourdes/BA,-9.5160326,-43.0101338,4,13.88985
1,Campo Alegre do Fidalgo/PI,-8.3753852,-41.8364191,14,277.50248
D1,Campo Alegre do Fidalgo/PI,-8.3753852,-41.8364191,1,19.82161
1,Campo Alegre/AL,-9.7798607,-36.3575793,1405,2462.19091
D1,Campo Alegre/AL,-9.7798607,-36.3575793,28,49.06857
1,Campo Alegre/SC,-26.1941684,-49.2657484,167,1394.22274
D1,Campo Alegre/SC,-26.1941684,-49.2657484,5,41.74320
1,Campo Azul/MG,-16.5078525,-44.8133524,23,602.56746
1,Campo Belo do Sul/SC,-27.8987563,-50.7586887,83,1183.01026
D1,Campo Belo do Sul/SC,-27.8987563,-50.7586887,1,14.25314
1,Campo Belo/MG,-20.8975,-45.277223,1085,2008.18079
D1,Campo Belo/MG,-20.8975,-45.277223,15,27.76287
1,Campo Bom/RS,-29.674694,-51.060601,2325,3485.13011
D1,Campo Bom/RS,-29.674694,-51.060601,47,70.45209
1,Campo Bonito/PR,-25.0328004,-52.992976,57,1487.08583
1,Campo Erê/SC,-26.3947432,-53.0790495,100,1172.88295
1,Campo Florido/MG,-19.760833,-48.572223,200,2453.68666
1,Campo Formoso/BA,-10.51055,-40.320031,1036,1454.93357
D1,Campo Formoso/BA,-10.51055,-40.320031,12,16.85251
1,Campo Grande do Piauí/PI,-7.1327559,-41.0381164,115,1935.04964
D1,Campo Grande do Piauí/PI,-7.1327559,-41.0381164,1,16.82652
1,Campo Grande/AL,-9.9725,-36.74791447368421,217,2270.34945
D1,Campo Grande/AL,-9.9725,-36.74791447368421,5,52.31220
1,Campo Grande/MS,-20.4640173,-54.6162947,30584,3413.46143
D1,Campo Grande/MS,-20.4640173,-54.6162947,560,62.50126
1,Campo Largo do Piauí/PI,-3.8104731,-42.6288333,226,3104.82209
D1,Campo Largo do Piauí/PI,-3.8104731,-42.6288333,5,68.69075
1,Campo Largo/PR,-25.4597726,-49.5270851,3044,2306.02567
D1,Campo Largo/PR,-25.4597726,-49.5270851,79,59.84758
1,Campo Limpo Paulista/SP,-23.207791,-46.788919,1247,1473.12463
D1,Campo Limpo Paulista/SP,-23.207791,-46.788919,67,79.14944
1,Campo Limpo de Goiás/GO,-16.297101,-49.0894994,23,295.28823
D1,Campo Limpo de Goiás/GO,-16.297101,-49.0894994,2,25.67724
1,Campo Magro/PR,-25.3691533,-49.4496921,556,1896.44587
D1,Campo Magro/PR,-25.3691533,-49.4496921,12,40.93049
1,Campo Maior/PI,-4.8339574,-42.1739786,2349,5015.69406
D1,Campo Maior/PI,-4.8339574,-42.1739786,45,96.08609
1,Campo Mourão/PR,-24.046329,-52.37802,1043,1099.52667
D1,Campo Mourão/PR,-24.046329,-52.37802,39,41.11365
1,Campo Novo de Rondônia/RO,-10.5704235,-63.6199511,155,1096.25858
D1,Campo Novo de Rondônia/RO,-10.5704235,-63.6199511,5,35.36318
1,Campo Novo do Parecis/MT,-13.658735,-57.890723,2752,7782.80543
D1,Campo Novo do Parecis/MT,-13.658735,-57.890723,28,79.18552
1,Campo Novo/RS,-28.91500235,-52.331375687737626,23,512.93488
D1,Campo Novo/RS,-28.91500235,-52.331375687737626,1,22.30152
1,Campo Redondo/RN,-6.2420373,-36.1830606,233,2077.20424
D1,Campo Redondo/RN,-6.2420373,-36.1830606,3,26.74512
1,Campo Verde/MT,-15.5430787,-55.1590511,2307,5238.30067
D1,Campo Verde/MT,-15.5430787,-55.1590511,42,95.36568
1,Campo do Brito/SE,-10.7496246,-37.4942276,687,3793.69374
D1,Campo do Brito/SE,-10.7496246,-37.4942276,12,66.26539
1,Campo do Meio/MG,-21.1072006,-45.8301735,100,858.00086
D1,Campo do Meio/MG,-21.1072006,-45.8301735,2,17.16002
1,Campo do Tenente/PR,-25.9814143,-49.684518,93,1166.72939
D1,Campo do Tenente/PR,-25.9814143,-49.684518,3,37.63643
1,Campos Altos/MG,-19.696389,-46.171389,142,918.43995
D1,Campos Altos/MG,-19.696389,-46.171389,6,38.80732
1,Campos Belos/GO,-13.0349839,-46.768112,298,1498.46633
D1,Campos Belos/GO,-13.0349839,-46.768112,7,35.19887
1,Campos Borges/RS,-28.8852198,-52.999098,19,572.28916
1,Campos Gerais/MG,-21.2333342,-45.7584127,155,538.68075
D1,Campos Gerais/MG,-21.2333342,-45.7584127,3,10.42608
1,Campos Lindos/TO,-7.9740597,-46.8023881,276,2728.35113
D1,Campos Lindos/TO,-7.9740597,-46.8023881,2,19.77066
1,Campos Novos Paulista/SP,-22.601952,-49.998726,102,2054.38066
D1,Campos Novos Paulista/SP,-22.601952,-49.998726,1,20.14099
1,Campos Novos/SC,-27.3962904,-51.2224397,1368,3774.41783
D1,Campos Novos/SC,-27.3962904,-51.2224397,16,44.14524
1,Campos Sales/CE,-7.0742675,-40.3740367,407,1483.99329
D1,Campos Sales/CE,-7.0742675,-40.3740367,7,25.52323
1,Campos Verdes/GO,-14.2709062,-49.65746,36,1681.45726
D1,Campos Verdes/GO,-14.2709062,-49.65746,1,46.70715
1,Campos de Júlio/MT,-13.7223646,-59.2645296,412,5978.81294
D1,Campos de Júlio/MT,-13.7223646,-59.2645296,5,72.55841
1,Campos do Jordão/SP,-22.7395263,-45.5912829,741,1422.59254
D1,Campos do Jordão/SP,-22.7395263,-45.5912829,28,53.75518
1,Campos dos Goytacazes/RJ,-21.7558619,-41.3326895,6228,1227.07606
D1,Campos dos Goytacazes/RJ,-21.7558619,-41.3326895,387,76.24895
1,Camutanga/PE,-7.4092965,-35.2738166,158,1847.73711
D1,Camutanga/PE,-7.4092965,-35.2738166,7,81.86177
1,Cana Verde/MG,-21.021308,-45.1817881,94,1677.67268
D1,Cana Verde/MG,-21.021308,-45.1817881,2,35.69516
1,Canabrava do Norte/MT,-11.0516481,-51.8301897,56,1180.68733
D1,Canabrava do Norte/MT,-11.0516481,-51.8301897,2,42.16740
1,Cananéia/SP,-25.0104609,-47.9315628,189,1507.17703
D1,Cananéia/SP,-25.0104609,-47.9315628,7,55.82137
1,Canapi/AL,-9.1173572,-37.6011704,65,366.77576
D1,Canapi/AL,-9.1173572,-37.6011704,3,16.92811
1,Canarana/BA,-11.6870151,-41.7683675,172,657.09046
D1,Canarana/BA,-11.6870151,-41.7683675,2,7.64059
1,Canarana/MT,-13.5564602,-52.2691167,736,3410.72339
D1,Canarana/MT,-13.5564602,-52.2691167,13,60.24376
1,Canas/SP,-22.7029347,-45.0526508,49,953.67847
D1,Canas/SP,-22.7029347,-45.0526508,2,38.92565
1,Canavieira/PI,-7.6924041,-43.7190063,15,379.74684
D1,Canavieira/PI,-7.6924041,-43.7190063,1,25.31646
1,Canavieiras/BA,-15.61621745,-39.08485321304444,231,742.78916
D1,Canavieiras/BA,-15.61621745,-39.08485321304444,13,41.80199
1,Canaã dos Carajás/PA,-6.5296837,-49.8516592,4001,10788.72860
D1,Canaã dos Carajás/PA,-6.5296837,-49.8516592,46,124.03937
1,Canaã/MG,-20.685555,-42.62,1,21.91541
1,Candeal/BA,-11.8053441,-39.1206515,97,1174.61855
1,Candeias do Jamari/RO,-8.7949939,-63.7018851,1412,5289.77635
D1,Candeias do Jamari/RO,-8.7949939,-63.7018851,29,108.64272
1,Candeias/BA,-12.6693806,-38.5406462,2359,2709.12766
D1,Candeias/BA,-12.6693806,-38.5406462,60,68.90532
1,Candeias/MG,-20.7676161,-45.2763777,99,665.05441
D1,Candeias/MG,-20.7676161,-45.2763777,3,20.15316
1,Candelária/RS,-29.668391,-52.789495,153,487.80488
D1,Candelária/RS,-29.668391,-52.789495,3,9.56480
1,Candiba/BA,-14.4125032,-42.8714102,38,265.38166
1,Candiota/RS,-31.5451894,-53.719538,82,855.59265
D1,Candiota/RS,-31.5451894,-53.719538,1,10.43406
1,Candói/PR,-25.5711951,-52.051107,76,475.62426
1,Canela/RS,-29.3624657,-50.8134204,730,1622.29432
D1,Canela/RS,-29.3624657,-50.8134204,21,46.66874
1,Canelinha/SC,-27.2660341,-48.7666708,524,4281.04575
D1,Canelinha/SC,-27.2660341,-48.7666708,10,81.69935
1,Canguaretama/RN,-6.3751942,-35.137463,301,878.16548
D1,Canguaretama/RN,-6.3751942,-35.137463,17,49.59739
1,Canguçu/RS,-31.398276,-52.6773522,234,417.52163
