type,name,lat,lon,total,total_per_100k_inhabitants
1,Abadia de Goiás/GO,-16.7572644,-49.4412205,5,56.99305
1,Abadia dos Dourados/MG,-18.4911191,-47.4063589,5,71.54099
1,Abaetetuba/PA,-1.721828,-48.878843,512,324.67121
D1,Abaetetuba/PA,-1.721828,-48.878843,26,16.48721
1,Abaeté/MG,-19.1566833,-45.4481213,1,4.30348
1,Abaiara/CE,-7.3607808,-39.0487878,1,8.52006
1,Abatiá/PR,-23.3052967,-50.3102532,1,13.41022
1,Abaíra/BA,-13.2503296,-41.6640342,4,45.77183
1,Abel Figueiredo/PA,-4.953001,-48.3958485,3,40.35513
D1,Abel Figueiredo/PA,-4.953001,-48.3958485,1,13.45171
1,Abelardo Luz/SC,-26.5705893,-52.3280339,3,16.75603
1,Abreu e Lima/PE,-7.900719,-34.898389,259,259.02590
D1,Abreu e Lima/PE,-7.900719,-34.898389,23,23.00230
1,Abreulândia/TO,-9.6221526,-49.1558343,2,77.54944
1,Acajutiba/BA,-11.6609659,-38.0186381,1,6.59674
1,Acarape/CE,-4.2237866,-38.7071663,21,140.66582
D1,Acarape/CE,-4.2237866,-38.7071663,3,20.09512
1,Acaraú/CE,-2.8869514,-40.1194713,278,443.79879
D1,Acaraú/CE,-2.8869514,-40.1194713,12,19.15678
1,Acari/RN,-6.4364689,-36.6394777,3,26.93966
1,Acará/PA,-1.961388,-48.1987043,26,46.77016
D1,Acará/PA,-1.961388,-48.1987043,6,10.79311
1,Acopiara/CE,-6.0936464,-39.4543204,39,71.86291
D1,Acopiara/CE,-6.0936464,-39.4543204,2,3.68528
1,Acorizal/MT,-15.2001544,-56.3668953,3,55.56585
1,Acrelândia/AC,-10.0759167,-67.0526898,129,845.56896
D1,Acrelândia/AC,-10.0759167,-67.0526898,1,6.55480
1,Adamantina/SP,-21.6866517,-51.0762975,36,102.65769
D1,Adamantina/SP,-21.6866517,-51.0762975,2,5.70321
1,Adolfo/SP,-21.2356597,-49.6441918,2,56.14823
1,Adustina/BA,-10.5358875,-38.114479,1,5.86854
D1,Adustina/BA,-10.5358875,-38.114479,1,5.86854
1,Afogados da Ingazeira/PE,-7.750429,-37.6356375,6,16.10349
1,Afonso Bezerra/RN,-5.4745,-36.57625071327935,5,45.31038
D1,Afonso Bezerra/RN,-5.4745,-36.57625071327935,1,9.06208
1,Afonso Cláudio/ES,-20.077841,-41.12606,45,147.12614
D1,Afonso Cláudio/ES,-20.077841,-41.12606,6,19.61682
1,Afonso Cunha/MA,-4.1326105,-43.3230026,1,15.32802
1,Afrânio/PE,-8.5198919,-41.0070197,3,15.27884
1,Afuá/PA,-0.1535664,-50.3879223,20,50.99699
1,Agrestina/PE,-8.4558021,-35.9442663,13,52.24031
D1,Agrestina/PE,-8.4558021,-35.9442663,4,16.07394
1,Agronômica/SC,-27.2660744,-49.7104753,5,91.77680
D1,Agronômica/SC,-27.2660744,-49.7104753,1,18.35536
1,Aguaí/SP,-22.0592036,-46.979384,17,46.82551
D1,Aguaí/SP,-22.0592036,-46.979384,3,8.26332
1,Agudos do Sul/PR,-25.9890808,-49.3328175,11,117.38342
1,Agudos/SP,-22.471162,-48.987822,22,59.11754
D1,Agudos/SP,-22.471162,-48.987822,1,2.68716
1,Aguiar/PB,-7.0928404,-38.1727215,1,17.73050
1,Aguiarnópolis/TO,-6.5600452,-47.4721189,12,178.22664
D1,Aguiarnópolis/TO,-6.5600452,-47.4721189,1,14.85222
1,Aimorés/MG,-19.4917754,-41.0615603,17,67.54877
1,Aiquara/BA,-14.126918,-39.8887574,3,67.47638
1,Aiuaba/CE,-6.5710836,-40.1212278,3,17.24237
1,Ajuricaba/RS,-28.239654,-53.7693013,2,28.47380
1,Alagoa Grande/PB,-7.0415212,-35.6285322,37,129.84278
D1,Alagoa Grande/PB,-7.0415212,-35.6285322,1,3.50926
1,Alagoa Nova/PB,-7.0653703,-35.76695977336711,9,43.16754
D1,Alagoa Nova/PB,-7.0653703,-35.76695977336711,1,4.79639
1,Alagoinha/PB,-6.97063215,-35.51490901897793,48,331.28580
1,Alagoinha/PE,-8.50355635,-36.77701174370496,4,27.32987
1,Alagoinhas/BA,-12.133526,-38.420772,24,15.83155
D1,Alagoinhas/BA,-12.133526,-38.420772,1,0.65965
1,Alambari/SP,-23.550338,-47.897971,4,66.39004
1,Alcinópolis/MS,-18.3264121,-53.7094463,1,18.71608
1,Alcântara/MA,-2.4038956,-44.4154241,6,27.15301
1,Alcântaras/CE,-3.586247,-40.5457641,33,281.71419
D1,Alcântaras/CE,-3.586247,-40.5457641,1,8.53679
1,Aldeias Altas/MA,-4.6291957,-43.4708622,3,11.30710
1,Alecrim/RS,-27.6566142,-54.7653195,1,16.80672
1,Alegre/ES,-20.7625787,-41.5318886,7,23.26818
1,Alegrete/RS,-29.790166,-55.794862,6,8.15339
1,Alenquer/PA,-1.946229,-54.738355,16,28.17447
1,Alexandria/RN,-6.414779,-38.0135516,5,36.82699
D1,Alexandria/RN,-6.414779,-38.0135516,1,7.36540
1,Alexânia/GO,-16.0834049,-48.5077803,1,3.61624
1,Alfenas/MG,-21.4297405,-45.9479419,11,13.75069
1,Alfredo Chaves/ES,-20.624970400000002,-40.75006690147988,59,404.08191
D1,Alfredo Chaves/ES,-20.624970400000002,-40.75006690147988,2,13.69769
1,Alfredo Marcondes/SP,-21.9527,-51.413956,2,48.00768
D1,Alfredo Marcondes/SP,-21.9527,-51.413956,1,24.00384
1,Alfredo Vasconcelos/MG,-21.145833,-43.776389,1,14.47807
D1,Alfredo Vasconcelos/MG,-21.145833,-43.776389,1,14.47807
1,Alhandra/PB,-7.4304246,-34.9106103,69,352.25648
D1,Alhandra/PB,-7.4304246,-34.9106103,4,20.42067
1,Aliança do Tocantins/TO,-11.3055927,-48.9409096,3,55.65863
1,Aliança/PE,-7.60398,-35.222696,45,117.23024
D1,Aliança/PE,-7.60398,-35.222696,12,31.26140
1,Almadina/BA,-14.70466,-39.6381994,2,36.60322
1,Almeirim/PA,-1.5290377,-52.5788111,16,46.90844
D1,Almeirim/PA,-1.5290377,-52.5788111,1,2.93178
1,Almenara/MG,-16.1740678,-40.6904907,6,14.32118
1,Almino Afonso/RN,-6.1544208,-37.7649018,1,21.11932
1,Almirante Tamandaré/PR,-25.3133048,-49.2997838,15,12.64510
1,Aloândia/GO,-17.7277983,-49.4809338,1,50.12531
1,Alpercata/MG,-18.9803616,-41.9827637,3,40.40948
1,Alpestre/RS,-27.2512339,-53.0349646,10,159.79546
1,Alpinópolis/MG,-20.863611,-46.387777,1,5.03702
1,Alta Floresta D'Oeste/RO,-11.9296917,-61.9961284,4,17.43299
1,Alta Floresta/MT,-9.8715018,-56.0839881,12,23.17408
1,Altair/SP,-20.5238955,-49.0606135,1,24.03846
1,Altamira do Maranhão/MA,-4.1643006,-45.4674574,1,12.30315
D1,Altamira do Maranhão/MA,-4.1643006,-45.4674574,1,12.30315
1,Altamira/PA,-3.204065,-52.209961,237,206.81711
D1,Altamira/PA,-3.204065,-52.209961,2,1.74529
1,Alterosa/MG,-21.249166,-46.143055,1,6.91276
1,Altinho/PE,-8.4904095,-36.0607494,11,47.88438
1,Altinópolis/SP,-21.021364,-47.3712,2,12.35788
1,Alto Alegre do Maranhão/MA,-4.2055693,-44.4525287,45,166.34015
D1,Alto Alegre do Maranhão/MA,-4.2055693,-44.4525287,2,7.39290
1,Alto Alegre do Pindaré/MA,-3.6698186,-45.8462153,74,231.83684
1,Alto Alegre dos Parecis/RO,-12.1314515,-61.856265,4,30.20920
1,Alto Alegre/RR,2.98858,-61.307167,52,335.26757
D1,Alto Alegre/RR,2.98858,-61.307167,2,12.89491
1,Alto Alegre/SP,-21.5820592,-50.1661976,1,24.39619
D1,Alto Alegre/SP,-21.5820592,-50.1661976,1,24.39619
1,Alto Araguaia/MT,-17.3156528,-53.2169365,7,36.75698
1,Alto Bela Vista/SC,-27.4320737,-51.905771,3,154.87868
1,Alto Boa Vista/MT,-11.6723985,-51.3744431,1,14.65846
D1,Alto Boa Vista/MT,-11.6723985,-51.3744431,1,14.65846
1,Alto Garças/MT,-16.9469683,-53.529427,1,8.31255
1,Alto Jequitibá/MG,-20.423611,-41.966111,7,84.16496
D1,Alto Jequitibá/MG,-20.423611,-41.966111,1,12.02357
1,Alto Longá/PI,-5.2549051,-42.2072388,3,20.97315
1,Alto Paraguai/MT,-14.513712,-56.4936374,1,8.80592
1,Alto Paraná/PR,-23.131247,-52.318893,7,47.39336
1,Alto Paraíso/PR,-23.508137,-53.728537,1,36.48304
1,Alto Paraíso/RO,-9.7240103,-63.3188123,5,23.33396
D1,Alto Paraíso/RO,-9.7240103,-63.3188123,1,4.66679
1,Alto Parnaíba/MA,-9.112506,-45.9310154,5,44.68275
1,Alto Rio Doce/MG,-21.0239537,-43.4133507,1,9.09091
1,Alto Santo/CE,-5.5190371,-38.2719351,17,99.14849
D1,Alto Santo/CE,-5.5190371,-38.2719351,1,5.83226
1,Alto do Rodrigues/RN,-5.290868,-36.7616726,22,151.42130
D1,Alto do Rodrigues/RN,-5.290868,-36.7616726,3,20.64836
1,Altos/PI,-5.0393915,-42.4611694,27,66.62718
1,Alumínio/SP,-23.5203479,-47.2575256,11,59.05089
D1,Alumínio/SP,-23.5203479,-47.2575256,1,5.36826
1,Alvarenga/MG,-19.4175,-41.728334,9,230.35577
1,Alvarães/AM,-3.214786,-64.8143124,46,286.76516
D1,Alvarães/AM,-3.214786,-64.8143124,5,31.17013
1,Alvorada D'Oeste/RO,-11.346271,-62.284697,3,20.81743
1,Alvorada do Gurguéia/PI,-8.4465288,-43.8655915,1,18.45359
1,Alvorada do Sul/PR,-22.7807269,-51.2307721,4,35.06926
1,Alvorada/RS,-29.9981184,-51.0772509,31,14.74050
D1,Alvorada/RS,-29.9981184,-51.0772509,2,0.95100
1,Alvorada/TO,-12.478465,-49.124926,6,71.32668
1,Além Paraíba/MG,-21.8760576,-42.6810473,37,104.63209
1,Amajari/RR,3.6523869,-61.4194315,22,171.92873
D1,Amajari/RR,3.6523869,-61.4194315,1,7.81494
1,Amambai/MS,-23.1082701,-55.2284854,4,10.15332
1,Amaporã/PR,-23.094272,-52.786597,18,287.67780
1,Amapá do Maranhão/MA,-1.6762114,-46.0109669,2,28.72738
1,Amapá/AP,2.0529997,-50.7930003,25,274.45384
D1,Amapá/AP,2.0529997,-50.7930003,1,10.97815
1,Amaraji/PE,-8.373925,-35.4536527,25,109.50983
D1,Amaraji/PE,-8.373925,-35.4536527,7,30.66275
1,Amaralina/GO,-13.9236199,-49.2962411,2,52.46590
1,Amarante do Maranhão/MA,-5.56913,-46.747284,62,149.63195
1,Amarante/PI,-6.2459374,-42.8476238,5,28.41232
1,Amargosa/BA,-13.03793715,-39.60796443875596,5,13.42606
D1,Amargosa/BA,-13.03793715,-39.60796443875596,1,2.68521
1,Amaturá/AM,-3.3640509,-68.1994689,195,1690.36061
D1,Amaturá/AM,-3.3640509,-68.1994689,6,52.01110
1,Americana/SP,-22.7392463,-47.3306032,84,35.05887
D1,Americana/SP,-22.7392463,-47.3306032,4,1.66947
1,Ametista do Sul/RS,-27.3617341,-53.1826575,2,26.99420
1,Amontada/CE,-3.3634586,-39.8284791,50,115.06950
D1,Amontada/CE,-3.3634586,-39.8284791,3,6.90417
1,Amorinópolis/GO,-16.6211308,-51.0949921,2,63.97953
1,Amparo de São Francisco/SE,-10.1299754,-36.9269099,4,168.49200
1,Amparo/PB,-7.56394725,-37.04652873235175,11,491.51028
1,Amparo/SP,-22.70111,-46.76444,21,29.08789
D1,Amparo/SP,-22.70111,-46.76444,1,1.38514
1,Ampére/PR,-25.9168712,-53.4742414,5,26.10693
D1,Ampére/PR,-25.9168712,-53.4742414,1,5.22139
1,Amélia Rodrigues/BA,-12.4015388,-38.7516971,9,35.85372
1,Américo Brasiliense/SP,-21.7297099,-48.1052092,26,64.19119
1,Américo de Campos/SP,-20.298476,-49.735904,3,50.25967
1,Anadia/AL,-9.6830208,-36.3052699,16,91.19407
D1,Anadia/AL,-9.6830208,-36.3052699,1,5.69963
1,Anagé/BA,-14.6134669,-41.1376308,1,4.54442
D1,Anagé/BA,-14.6134669,-41.1376308,1,4.54442
1,Anahy/PR,-24.6450861,-53.1337957,1,35.70154
1,Anajatuba/MA,-3.26441,-44.6179916,45,167.89165
D1,Anajatuba/MA,-3.26441,-44.6179916,2,7.46185
1,Anajás/PA,-0.9878802,-49.9390114,72,245.92684
D1,Anajás/PA,-0.9878802,-49.9390114,2,6.83130
1,Anamã/AM,-3.5797356,-61.4049996,110,807.99177
1,Ananindeua/PA,-1.374035,-48.4016623,1967,370.71380
D1,Ananindeua/PA,-1.374035,-48.4016623,175,32.98165
1,Ananás/TO,-6.3663053,-48.080238,2,20.94460
1,Anapu/PA,-3.4668292,-51.2057035,52,186.44676
1,Anapurus/MA,-3.6751298,-43.1046001,54,343.24943
1,Anchieta/ES,-20.8057672,-40.6454564,49,167.44695
1,Anchieta/SC,-26.5350527,-53.3293938,4,70.94714
1,Andirá/PR,-23.0494761,-50.2310027,3,14.97679
1,Andradas/MG,-22.0680484,-46.5688976,1,2.43445
D1,Andradas/MG,-22.0680484,-46.5688976,1,2.43445
1,Andradina/SP,-20.896505,-51.3742765,38,66.48355
D1,Andradina/SP,-20.896505,-51.3742765,4,6.99827
1,Andrelândia/MG,-21.739722,-44.308889,7,57.26440
1,Angatuba/SP,-23.4938938,-48.4110675,14,55.49390
D1,Angatuba/SP,-23.4938938,-48.4110675,1,3.96385
1,Angical do Piauí/PI,-6.0872666,-42.7366138,4,58.92752
1,Angico/TO,-6.3893733,-47.8656722,1,29.12904
1,Angicos/RN,-5.6666344,-36.6009064,2,17.07359
1,Angra dos Reis/RJ,-23.0063966,-44.316326,404,198.24815
D1,Angra dos Reis/RJ,-23.0063966,-44.316326,19,9.32355
1,Anguera/BA,-12.1509425,-39.2452469,7,62.38303
1,Anhanguera/GO,-18.3338749,-48.220363,1,87.03220
1,Anhembi/SP,-22.7891096,-48.1316776,2,29.74420
1,Anhumas/SP,-22.2956478,-51.3873401,1,24.30134
1,Anita Garibaldi/SC,-27.6855032,-51.1293873,1,14.01935
1,Anori/AM,-3.7435254,-61.6605203,208,990.00476
D1,Anori/AM,-3.7435254,-61.6605203,3,14.27891
1,Anta Gorda/RS,-28.9718745,-52.0069187,4,66.87845
1,Antonina do Norte/CE,-6.7754187,-39.9879345,2,27.19978
1,Antônio Carlos/SC,-27.5168462,-48.7684715,15,176.20110
D1,Antônio Carlos/SC,-27.5168462,-48.7684715,4,46.98696
1,Antônio Martins/RN,-6.2155812,-37.8890129,1,13.99580
1,Antônio Prado/RS,-28.8567806,-51.2801355,1,7.66284
1,Anápolis/GO,-16.3332828,-48.9525756,114,29.46323
D1,Anápolis/GO,-16.3332828,-48.9525756,2,0.51690
1,Anísio de Abreu/PI,-9.185643,-43.04941,15,151.82186
1,Aparecida de Goiânia/GO,-16.8226769,-49.2452546,222,38.39641
D1,Aparecida de Goiânia/GO,-16.8226769,-49.2452546,10,1.72957
1,Aparecida/PB,-6.7859598, -38.0831353,1,11.98035
1,Aparecida/SP,-22.851552,-45.2340924,5,13.82858
1,Aperibé/RJ,-21.6211928,-42.1028167,9,76.53712
1,Apiacá/ES,-21.152272,-41.569297,10,132.15277
1,Apiaí/SP,-24.5076527,-48.8461582,1,4.10273
1,Apicum-Açu/MA,-1.5279295,-45.082278,32,185.62562
1,Apodi/RN,-5.6631109,-37.796927,155,432.41735
D1,Apodi/RN,-5.6631109,-37.796927,2,5.57958
1,Apuarema/BA,-13.8517897,-39.7457126,1,13.64256
1,Apucarana/PR,-23.5525327,-51.4610764,30,22.22288
D1,Apucarana/PR,-23.5525327,-51.4610764,3,2.22229
1,Apuiarés/CE,-3.9460303,-39.4313298,16,109.58904
D1,Apuiarés/CE,-3.9460303,-39.4313298,5,34.24658
1,Apuí/AM,-7.1940195,-59.8830192,24,109.22496
1,Aquidabã/SE,-10.2837579,-37.0188687,13,60.28846
1,Aquiraz/CE,-3.9063117,-38.387504,166,206.79947
D1,Aquiraz/CE,-3.9063117,-38.387504,3,3.73734
1,Arabutã/SC,-27.1587028,-52.1438142,18,421.84204
1,Aracaju/SE,-10.9162061,-37.0774655,3066,466.65743
D1,Aracaju/SE,-10.9162061,-37.0774655,41,6.24036
1,Aracati/CE,-4.558259,-37.767894,72,96.58336
D1,Aracati/CE,-4.558259,-37.767894,8,10.73148
1,Aracatu/BA,-14.4274236,-41.4604105,3,22.83974
1,Araci/BA,-11.3356065,-38.9573261,2,3.67789
D1,Araci/BA,-11.3356065,-38.9573261,1,1.83895
1,Aracoiaba/CE,-4.3702577,-38.8084313,54,204.01224
1,Aracruz/ES,-19.8245218,-40.2735025,84,82.98755
D1,Aracruz/ES,-19.8245218,-40.2735025,8,7.90358
1,Aragarças/GO,-15.8957166,-52.2514538,4,19.88269
1,Aragoiânia/GO,-16.9146388,-49.4499148,2,19.40241
1,Aragominas/TO,-7.1654101,-48.525488,3,52.10142
1,Araguanã/MA,-2.9508403,-45.6651986,46,298.19785
1,Araguanã/TO,-6.5799107,-48.6428482,1,17.45505
1,Araguapaz/GO,-15.0937927,-50.626417,2,25.74003
D1,Araguapaz/GO,-15.0937927,-50.626417,1,12.87001
1,Araguari/MG,-18.6511256,-48.1933764,18,15.34959
D1,Araguari/MG,-18.6511256,-48.1933764,1,0.85275
1,Araguatins/TO,-5.6522925,-48.1158973,39,109.05735
D1,Araguatins/TO,-5.6522925,-48.1158973,8,22.37074
1,Araguaçu/TO,-12.928934,-49.823134,2,23.48245
1,Araguaína/TO,-7.193241,-48.2018597,1081,598.99152
D1,Araguaína/TO,-7.193241,-48.2018597,12,6.64930
1,Araioses/MA,-2.890914,-41.904993,64,137.81223
1,Arame/MA,-4.8858769,-46.0102484,22,67.27623
1,Arandu/SP,-23.1345103,-49.0545651,10,157.30691
D1,Arandu/SP,-23.1345103,-49.0545651,2,31.46138
1,Arantina/MG,-21.911667,-44.255833,2,71.55635
1,Arapiraca/AL,-9.754866,-36.661471,145,62.56823
D1,Arapiraca/AL,-9.754866,-36.661471,7,3.02054
1,Arapongas/PR,-23.415296,-51.42592,19,15.44376
D1,Arapongas/PR,-23.415296,-51.42592,1,0.81283
1,Araquari/SC,-26.3703324,-48.7210994,21,55.07619
1,Arara/PB,-6.8271895,-35.7605703,6,44.54343
1,Araranguá/SC,-28.9348832,-49.4858389,41,60.09263
D1,Araranguá/SC,-28.9348832,-49.4858389,1,1.46567
1,Araraquara/SP,-21.7886713,-48.1773096,168,71.16473
D1,Araraquara/SP,-21.7886713,-48.1773096,4,1.69440
1,Araras/SP,-22.3569477,-47.3838889,72,53.63688
D1,Araras/SP,-22.3569477,-47.3838889,3,2.23487
1,Ararendá/CE,-4.7504395,-40.8303611,2,18.28989
D1,Ararendá/CE,-4.7504395,-40.8303611,1,9.14495
1,Arari/MA,-3.4547602,-44.7772723,51,170.86572
D1,Arari/MA,-3.4547602,-44.7772723,1,3.35031
1,Araripe/CE,-7.212861,-40.1359222,2,9.25926
1,Araripina/PE,-7.5768582,-40.5038509,23,27.24537
D1,Araripina/PE,-7.5768582,-40.5038509,2,2.36916
1,Araruama/RJ,-22.8733203,-42.3428897,82,61.93353
D1,Araruama/RJ,-22.8733203,-42.3428897,3,2.26586
1,Araruna/PB,-6.5321155,-35.7397595,3,14.76959
1,Araruna/PR,-23.9320308,-52.4976047,16,114.53114
D1,Araruna/PR,-23.9320308,-52.4976047,1,7.15820
1,Arataca/BA,-15.2617424,-39.4122943,3,27.22570
1,Aratuba/CE,-4.4195958,-39.0463737,12,101.29147
1,Araucária/PR,-25.5861107,-49.4051209,33,22.94168
1,Arauá/SE,-11.2644014,-37.6181058,2,19.88862
1,Araxá/MG,-19.5928536,-46.940241,45,42.36131
D1,Araxá/MG,-19.5928536,-46.940241,1,0.94136
1,Araçagi/PB,-6.8519969,-35.3835602,29,170.71878
1,Araçariguama/SP,-23.438611,-47.061389,8,35.77178
D1,Araçariguama/SP,-23.438611,-47.061389,1,4.47147
1,Araças/BA,-12.2139176,-38.2026159,1,8.21220
1,Araçatuba/SP,-21.207992,-50.4390225,133,67.50721
D1,Araçatuba/SP,-21.207992,-50.4390225,4,2.03029
1,Araçoiaba da Serra/SP,-23.5045367,-47.6168158,28,82.00082
D1,Araçoiaba da Serra/SP,-23.5045367,-47.6168158,1,2.92860
1,Araçoiaba/PE,-7.7856903,-35.0898881,26,126.68096
D1,Araçoiaba/PE,-7.7856903,-35.0898881,3,14.61703
1,Araçuaí/MG,-16.8484451,-42.0661868,1,2.72420
1,Arceburgo/MG,-21.364444,-46.939722,4,37.13331
1,Arcos/MG,-20.282223,-45.539444,10,24.94263
1,Arcoverde/PE,-8.415192,-37.057748,76,102.23573
D1,Arcoverde/PE,-8.415192,-37.057748,10,13.45207
1,Areal/RJ,-22.2314922,-43.1056264,10,79.54184
1,Arealva/SP,-22.0301906,-48.9111936,1,11.68224
1,Areia Branca/RN,-4.9506652,-37.1263312,118,424.85778
D1,Areia Branca/RN,-4.9506652,-37.1263312,11,39.60539
1,Areia Branca/SE,-10.7591455,-37.3148072,35,188.76065
1,Areia/PB,-6.9680243,-35.6994783,37,162.14558
D1,Areia/PB,-6.9680243,-35.6994783,1,4.38231
1,Areial/PB,-7.0501306,-35.9245244,6,85.73878
1,Areiópolis/SP,-22.6758064,-48.6673653,8,71.88427
1,Aripuanã/MT,-10.175806,-59.4439663,5,22.36736
D1,Aripuanã/MT,-10.175806,-59.4439663,1,4.47347
1,Ariquemes/RO,-9.9076522,-63.033069,230,213.23345
D1,Ariquemes/RO,-9.9076522,-63.033069,3,2.78131
1,Ariranha/SP,-21.18716,-48.790418,1,10.34340
1,Armazém/SC,-28.2624996,-49.0190126,24,276.68896
1,Armação dos Búzios/RJ,-22.7597805,-41.8875267,33,97.43136
1,Arneiroz/CE,-6.3235099,-40.1603859,18,229.59184
1,Aroazes/PI,-6.1108814,-41.7886137,1,17.13796
1,Aroeiras/PB,-7.5462904,-35.7080002,13,67.87448
1,Arraial do Cabo/RJ,-22.9662839,-42.024427,33,108.73505
D1,Arraial do Cabo/RJ,-22.9662839,-42.024427,2,6.59000
1,Arroio do Meio/RS,-29.4020392,-51.9444993,67,322.03797
1,Arroio do Sal/RS,-29.549852,-49.8874395,9,89.41878
D1,Arroio do Sal/RS,-29.549852,-49.8874395,1,9.93542
1,Arroio dos Ratos/RS,-30.0894524,-51.7265541,6,42.39983
D1,Arroio dos Ratos/RS,-30.0894524,-51.7265541,1,7.06664
1,Artur Nogueira/SP,-22.572737,-47.172679,10,18.37965
1,Arujá/SP,-23.396266,-46.3175449,189,210.41147
D1,Arujá/SP,-23.396266,-46.3175449,14,15.58603
1,Arvoredo/SC,-27.0752908,-52.4571847,8,357.14286
1,Arvorezinha/RS,-28.87369,-52.17808,1,9.59325
1,Arês/RN,-6.1969216,-35.1642968,4,27.96030
1,Assaré/CE,-6.8746791,-39.8741385,1,4.27040
1,Assaí/PR,-23.3736041,-50.8454929,2,13.22839
1,Assis Brasil/AC,-10.9409203,-69.5672108,7,94.37778
D1,Assis Brasil/AC,-10.9409203,-69.5672108,1,13.48254
1,Assis Chateaubriand/PR,-24.4054826,-53.5120468,24,71.93813
1,Assis/SP,-22.6620892,-50.420623,37,35.44537
D1,Assis/SP,-22.6620892,-50.420623,5,4.78991
1,Astolfo Dutra/MG,-21.3132636,-42.8624102,8,56.42147
1,Atalaia do Norte/AM,-4.3658547,-70.1908742,6,30.11897
1,Atalaia/AL,-9.5029595,-36.0219316,42,89.01134
D1,Atalaia/AL,-9.5029595,-36.0219316,2,4.23864
1,Atalanta/SC,-27.421916,-49.778863,3,93.45794
1,Atibaia/SP,-23.1177393,-46.5547861,74,51.83488
D1,Atibaia/SP,-23.1177393,-46.5547861,4,2.80189
1,Atilio Vivacqua/ES,-20.9139369,-41.1947519,1,8.37802
1,Augustinópolis/TO,-5.4662267,-47.8897519,22,119.48729
D1,Augustinópolis/TO,-5.4662267,-47.8897519,2,10.86248
1,Augusto Corrêa/PA,-1.0229335,-46.6404029,52,113.04839
D1,Augusto Corrêa/PA,-1.0229335,-46.6404029,3,6.52202
1,Aurelino Leal/BA,-14.3167137,-39.3256107,4,34.68910
1,Auriflama/SP,-20.6840418,-50.5554616,1,6.58371
1,Aurilândia/GO,-16.6772599,-50.4641231,1,32.05128
D1,Aurilândia/GO,-16.6772599,-50.4641231,1,32.05128
1,Aurora do Pará/PA,-2.1323199,-47.558436,29,92.53941
1,Aurora do Tocantins/TO,-12.71045,-46.407604,2,53.23396
1,Aurora/CE,-6.9426019,-38.9693765,4,16.22455
D1,Aurora/CE,-6.9426019,-38.9693765,1,4.05614
1,Aurora/SC,-27.3166417,-49.6368502,3,52.82620
1,Autazes/AM,-3.5833283,-59.1301518,425,1074.18173
D1,Autazes/AM,-3.5833283,-59.1301518,22,55.60470
1,Avanhandava/SP,-21.4603331,-49.9465156,1,7.32654
1,Avaré/SP,-23.1045215,-48.9259103,42,46.32949
D1,Avaré/SP,-23.1045215,-48.9259103,3,3.30925
1,Avaí/SP,-22.1564662,-49.3316395,2,37.01647
1,Avelino Lopes/PI,-10.1346855,-43.9489525,1,8.85818
1,Axixá do Tocantins/TO,-5.612747,-47.77007,27,276.75277
D1,Axixá do Tocantins/TO,-5.612747,-47.77007,2,20.50021
1,Axixá/MA,-2.8379465,-44.0561053,10,82.44023
1,Açailândia/MA,-4.9514278,-47.4844564,188,167.19285
D1,Açailândia/MA,-4.9514278,-47.4844564,3,2.66797
1,Açu/RN,-5.5836157,-36.9139541,96,165.46874
D1,Açu/RN,-5.5836157,-36.9139541,4,6.89453
1,Açucena/MG,-19.073056,-42.546666,2,21.11932
1,Babaçulândia/TO,-7.2034355,-47.761613,1,9.37734
1,Bacabal/MA,-4.2318132,-44.781167,177,168.65335
D1,Bacabal/MA,-4.2318132,-44.781167,1,0.95284
1,Bacabeira/MA,-2.9775747,-44.3155943,60,351.80299
D1,Bacabeira/MA,-2.9775747,-44.3155943,2,11.72677
1,Bacuri/MA,-1.728894,-45.1417148,21,113.01259
1,Bacurituba/MA,-2.7082587,-44.7381309,2,35.43586
1,Bady Bassitt/SP,-20.9178969,-49.4517911,20,114.27265
D1,Bady Bassitt/SP,-20.9178969,-49.4517911,4,22.85453
1,Bagre/PA,-1.8994498,-50.2103844,34,110.84667
D1,Bagre/PA,-1.8994498,-50.2103844,2,6.52039
1,Bagé/RS,-31.3314264,-54.1062808,35,28.89148
1,Baixa Grande do Ribeiro/PI,-7.862861,-45.2113289,7,60.41775
D1,Baixa Grande do Ribeiro/PI,-7.862861,-45.2113289,1,8.63111
1,Baixo Guandu/ES,-19.5138322,-41.0182089,49,158.07471
D1,Baixo Guandu/ES,-19.5138322,-41.0182089,1,3.22601
1,Baião/PA,-2.7903479,-49.6702845,79,166.50508
D1,Baião/PA,-2.7903479,-49.6702845,3,6.32298
1,Balneário Arroio do Silva/SC,-28.9815269,-49.4189932,15,114.75786
D1,Balneário Arroio do Silva/SC,-28.9815269,-49.4189932,1,7.65052
1,Balneário Barra do Sul/SC,-26.459842,-48.6061471,5,46.31774
1,Balneário Camboriú/SC,-26.9924395,-48.6339782,256,179.90794
D1,Balneário Camboriú/SC,-26.9924395,-48.6339782,2,1.40553
1,Balneário Gaivota/SC,-29.1553098,-49.5808712,9,81.97468
D1,Balneário Gaivota/SC,-29.1553098,-49.5808712,1,9.10830
1,Balneário Piçarras/SC,-26.7638889,-48.6716667,17,73.44364
1,Balneário Rincão/SC,-28.8235718,-49.2241642,3,23.51097
1,Balsa Nova/PR,-25.5842234,-49.6312741,5,38.63689
1,Balsas/MA,-7.53214,-46.037163,158,166.51385
1,Banabuiú/CE,-5.3046404,-38.919766,37,203.33022
D1,Banabuiú/CE,-5.3046404,-38.919766,1,5.49541
1,Bananal/SP,-22.6828195,-44.3221095,3,27.40978
1,Bananeiras/PB,-6.7537682,-35.6338343,15,70.36307
1,Bandeirantes do Tocantins/TO,-7.7635698,-48.579148,5,140.72615
1,Bandeirantes/PR,-23.107788,-50.370407,3,9.56419
D1,Bandeirantes/PR,-23.107788,-50.370407,1,3.18806
1,Bannach/PA,-7.3508505,-50.4064531,8,243.45709
D1,Bannach/PA,-7.3508505,-50.4064531,1,30.43214
1,Banzaê/BA,-10.5827616,-38.6122305,1,7.55915
1,Baraúna/RN,-5.0775002,-37.61752,62,218.50990
D1,Baraúna/RN,-5.0775002,-37.61752,2,7.04871
1,Barbacena/MG,-21.2254524,-43.7735087,41,29.85879
D1,Barbacena/MG,-21.2254524,-43.7735087,4,2.91305
1,Barbalha/CE,-7.3121067,-39.3036427,31,51.00278
D1,Barbalha/CE,-7.3121067,-39.3036427,1,1.64525
1,Barcarena/PA,-1.5107945,-48.6190679,339,271.89605
D1,Barcarena/PA,-1.5107945,-48.6190679,54,43.31088
1,Barcelona/RN,-5.9514918,-35.9260284,1,25.01251
1,Barcelos/AM,-0.9729214,-62.925635,274,996.29118
D1,Barcelos/AM,-0.9729214,-62.925635,10,36.36099
1,Bariri/SP,-22.0746355,-48.7394852,7,19.85027
D1,Bariri/SP,-22.0746355,-48.7394852,1,2.83575
1,Barra Bonita/SP,-22.490859,-48.558349,23,63.66606
D1,Barra Bonita/SP,-22.490859,-48.558349,1,2.76809
1,Barra Mansa/RJ,-22.5394843,-44.1735129,123,66.69848
D1,Barra Mansa/RJ,-22.5394843,-44.1735129,9,4.88038
1,Barra Velha/SC,-26.6338203,-48.6835001,11,37.71256
1,Barra de Guabiraba/PE,-8.4173522,-35.6626669,8,55.61349
D1,Barra de Guabiraba/PE,-8.4173522,-35.6626669,1,6.95169
1,Barra de Santa Rosa/PB,-6.7218007,-36.0564638,1,6.50026
1,Barra de Santana/PB,-7.5230865,-35.9988518,9,107.66838
1,Barra de Santo Antônio/AL,-9.4038098,-35.5117693,7,43.93673
D1,Barra de Santo Antônio/AL,-9.4038098,-35.5117693,1,6.27668
1,Barra de São Francisco/ES,-18.7570902,-40.8916119,67,150.05599
D1,Barra de São Francisco/ES,-18.7570902,-40.8916119,1,2.23964
1,Barra de São Miguel/AL,-9.8261357,-35.8837777,9,108.14708
1,Barra de São Miguel/PB,-7.7528088,-36.3170996,1,16.56726
1,Barra do Choça/BA,-14.8638173,-40.5761637,6,18.98554
1,Barra do Corda/MA,-5.496823,-45.248496,258,292.47721
D1,Barra do Corda/MA,-5.496823,-45.248496,6,6.80180
1,Barra do Garças/MT,-15.8916033,-52.2615413,61,99.98033
D1,Barra do Garças/MT,-15.8916033,-52.2615413,3,4.91707
1,Barra do Ouro/TO,-7.7113784,-47.6743925,1,21.78175
1,Barra do Piraí/RJ,-22.4703403,-43.8263256,73,72.72800
D1,Barra do Piraí/RJ,-22.4703403,-43.8263256,14,13.94784
1,Barra do Ribeiro/RS,-30.2930206,-51.301437,1,7.41235
1,Barra do Rocha/BA,-14.2090974,-39.6004395,4,70.00350
1,Barra do Turvo/SP,-24.756421,-48.5056942,8,104.45228
D1,Barra do Turvo/SP,-24.756421,-48.5056942,1,13.05653
1,Barra dos Coqueiros/SE,-10.9075694,-37.0386249,120,394.64597
D1,Barra dos Coqueiros/SE,-10.9075694,-37.0386249,1,3.28872
1,Barra/BA,-11.0892702,-43.1420453,3,5.59931
1,Barracão/PR,-26.252395,-53.6349576,3,29.19708
1,Barras/PI,-4.2446153,-42.2920241,50,106.23380
D1,Barras/PI,-4.2446153,-42.2920241,1,2.12468
1,Barreira/CE,-4.2883361,-38.641094,29,129.31996
D1,Barreira/CE,-4.2883361,-38.641094,5,22.29654
1,Barreiras/BA,-12.1440031,-44.9967406,26,16.72682
1,Barreirinha/AM,-2.798863,-57.067897,176,549.29621
D1,Barreirinha/AM,-2.798863,-57.067897,2,6.24200
1,Barreirinhas/MA,-2.7541271,-42.8259693,108,172.72262
1,Barreiros/PE,-8.8159644,-35.1831905,77,180.50118
D1,Barreiros/PE,-8.8159644,-35.1831905,6,14.06503
1,Barretos/SP,-20.5531437,-48.5697509,132,108.10988
D1,Barretos/SP,-20.5531437,-48.5697509,7,5.73310
1,Barrinha/SP,-21.1898849,-48.1550642,13,39.61965
D1,Barrinha/SP,-21.1898849,-48.1550642,1,3.04767
1,Barro Alto/GO,-14.9696025,-48.9190985,2,17.90991
1,Barro Preto/BA,-14.8068289,-39.4727588,4,71.54355
1,Barro/CE,-7.1713587,-38.7742136,3,13.22751
1,Barrocas/BA,-11.5165,-39.099282894736845,4,25.03442
1,Barrolândia/TO,-9.837246,-48.7264346,6,106.53409
D1,Barrolândia/TO,-9.837246,-48.7264346,1,17.75568
1,Barroquinha/CE,-3.0200371,-41.1339229,43,286.34215
1,Barros Cassal/RS,-29.094938,-52.5832366,2,17.85874
D1,Barros Cassal/RS,-29.094938,-52.5832366,1,8.92937
1,Barroso/MG,-21.187222,-43.976111,2,9.61076
1,Barueri/SP,-23.5112184,-46.8764612,854,311.47194
D1,Barueri/SP,-23.5112184,-46.8764612,95,34.64852
1,Barão de Antonina/SP,-23.6295651,-49.5632104,1,28.82675
1,Barão de Cotegipe/RS,-27.6214694,-52.3765316,6,90.59339
1,Barão de Grajaú/MA,-6.7542591,-43.0263477,1,5.31350
1,Bastos/SP,-21.9222474,-50.7317727,1,4.77259
1,Bataguassu/MS,-21.715899,-52.422058,5,21.71647
1,Batalha/AL,-9.6733809,-37.1265481,6,32.90917
D1,Batalha/AL,-9.6733809,-37.1265481,1,5.48486
1,Batalha/PI,-4.022391,-42.0780926,39,145.21354
D1,Batalha/PI,-4.022391,-42.0780926,1,3.72342
1,Batatais/SP,-20.892867,-47.592149,6,9.59877
D1,Batatais/SP,-20.892867,-47.592149,1,1.59980
1,Batayporã/MS,-22.2976466,-53.2685608,6,52.96143
D1,Batayporã/MS,-22.2976466,-53.2685608,2,17.65381
1,Baturité/CE,-4.3290203,-38.8821055,37,103.49650
D1,Baturité/CE,-4.3290203,-38.8821055,6,16.78322
1,Bauru/SP,-22.3218102,-49.0705863,243,64.48737
D1,Bauru/SP,-22.3218102,-49.0705863,12,3.18456
1,Bayeux/PB,-7.1301631,-34.936532,191,197.15111
D1,Bayeux/PB,-7.1301631,-34.936532,13,13.41866
1,Baía Formosa/RN,-6.3691885,-35.0063741,3,32.35897
1,Baía da Traição/PB,-6.691258,-34.9371244,29,322.47303
1,Bebedouro/SP,-20.949077,-48.479083,15,19.35584
D1,Bebedouro/SP,-20.949077,-48.479083,1,1.29039
1,Beberibe/CE,-4.1810469,-38.1298101,55,102.66366
D1,Beberibe/CE,-4.1810469,-38.1298101,10,18.66612
1,Bela Cruz/CE,-3.0529129,-40.167582,129,395.81480
D1,Bela Cruz/CE,-3.0529129,-40.167582,5,15.34166
1,Bela Vista de Goiás/GO,-16.9692949,-48.9513071,22,73.39450
D1,Bela Vista de Goiás/GO,-16.9692949,-48.9513071,1,3.33611
1,Bela Vista de Minas/MG,-19.8289721,-43.0973688,2,19.50268
1,Bela Vista do Maranhão/MA,-3.7416367,-45.2514192,31,276.56348
1,Bela Vista do Piauí/PI,-7.9716353,-41.8715061,1,24.90660
1,Bela Vista/MS,-22.107327,-56.5317344,2,8.12051
1,Belford Roxo/RJ,-22.7667284,-43.4033603,507,99.23548
D1,Belford Roxo/RJ,-22.7667284,-43.4033603,73,14.28834
1,Belmiro Braga/MG,-21.9486291,-43.413564,3,87.48906
D1,Belmiro Braga/MG,-21.9486291,-43.413564,1,29.16302
1,Belmonte/BA,-15.8630837,-38.8792845,4,17.14678
D1,Belmonte/BA,-15.8630837,-38.8792845,1,4.28669
1,Belo Horizonte/MG,-19.9227318,-43.9450948,1351,53.78035
D1,Belo Horizonte/MG,-19.9227318,-43.9450948,42,1.67193
1,Belo Jardim/PE,-8.3338293,-36.4176419,24,31.39759
D1,Belo Jardim/PE,-8.3338293,-36.4176419,1,1.30823
1,Belo Oriente/MG,-19.2232523,-42.4807033,4,14.98127
1,Belo Vale/MG,-20.407778,-44.024167,1,12.96176
D1,Belo Vale/MG,-20.407778,-44.024167,1,12.96176
1,Belterra/PA,-2.636091,-54.937392,10,56.39522
D1,Belterra/PA,-2.636091,-54.937392,2,11.27904
1,Belágua/MA,-3.1604031,-43.5085052,38,508.76958
1,Belém do Brejo do Cruz/PB,-6.1880727,-37.5332267,1,13.62027
1,Belém do Piauí/PI,-7.3767305,-40.9712156,4,112.17050
D1,Belém do Piauí/PI,-7.3767305,-40.9712156,1,28.04262
1,Belém do São Francisco/PE,-8.7517707,-38.9625715,2,9.64832
1,Belém/AL,-9.5715351,-36.492841,1,23.02026
1,Belém/PA,-1.45056,-48.4682453,8626,577.86159
D1,Belém/PA,-1.45056,-48.4682453,1000,66.99068
1,Belém/PB,-6.6967586,-35.5369626,13,73.54605
1,Beneditinos/PI,-5.4565671,-42.3605061,1,9.55384
1,Benedito Leite/MA,-7.2173453,-44.5523331,2,35.51136
1,Benedito Novo/SC,-26.7840657,-49.3629511,4,34.32887
1,Benevides/PA,-1.3555577,-48.252235,198,315.60323
D1,Benevides/PA,-1.3555577,-48.252235,13,20.72142
1,Benjamin Constant do Sul/RS,-27.5105555,-52.6007689,6,300.90271
1,Benjamin Constant/AM,-4.3782748,-70.0290603,539,1253.95496
D1,Benjamin Constant/AM,-4.3782748,-70.0290603,16,37.22315
1,Bento Fernandes/RN,-5.6926846,-35.8207423,2,36.38348
1,Bento Gonçalves/RS,-29.1654014,-51.5197627,427,354.49217
D1,Bento Gonçalves/RS,-29.1654014,-51.5197627,7,5.81135
1,Bequimão/MA,-2.4495376,-44.7884889,63,296.05263
D1,Bequimão/MA,-2.4495376,-44.7884889,1,4.69925
1,Bernardo do Mearim/MA,-4.6315929,-44.7617508,25,413.70180
1,Bertioga/SP,-23.848568,-46.139586,40,63.24211
D1,Bertioga/SP,-23.848568,-46.139586,3,4.74316
1,Bertolínia/PI,-7.6372159,-43.9540611,1,18.17851
1,Beruri/AM,-3.9007135,-61.3717319,167,848.62036
D1,Beruri/AM,-3.9007135,-61.3717319,5,25.40780
1,Betim/MG,-19.968056,-44.198333,54,12.29116
D1,Betim/MG,-19.968056,-44.198333,4,0.91046
1,Betânia do Piauí/PI,-8.1460635,-40.7961387,1,16.11604
1,Betânia/PE,-8.2742779,-38.0351767,4,31.44901
D1,Betânia/PE,-8.2742779,-38.0351767,1,7.86225
1,Bezerros/PE,-8.2372132,-35.7558262,30,49.34373
D1,Bezerros/PE,-8.2372132,-35.7558262,1,1.64479
1,Bicas/MG,-21.7213723,-43.0604327,2,13.79881
1,Biguaçu/SC,-27.4961277,-48.6542432,17,24.82440
1,Bilac/SP,-21.403962,-50.47464,1,12.44710
1,Birigui/SP,-21.2908491,-50.34144,52,42.05827
1,Biritiba-Mirim/SP,-23.5697765,-46.0407456,33,101.23320
D1,Biritiba-Mirim/SP,-23.5697765,-46.0407456,1,3.06767
1,Blumenau/SC,-26.9195567,-49.0658025,571,159.85487
D1,Blumenau/SC,-26.9195567,-49.0658025,3,0.83987
1,Boa Esperança do Sul/SP,-21.9930206,-48.3917372,7,46.90746
1,Boa Esperança/ES,-18.5395472,-40.2904088,37,246.05972
D1,Boa Esperança/ES,-18.5395472,-40.2904088,3,19.95079
1,Boa Esperança/MG,-21.0901253,-45.5660195,19,47.34966
D1,Boa Esperança/MG,-21.0901253,-45.5660195,2,4.98418
1,Boa Hora/PI,-4.4094627,-42.1255341,1,14.74709
1,Boa Viagem/CE,-5.1261877,-39.7300055,33,60.58381
D1,Boa Viagem/CE,-5.1261877,-39.7300055,6,11.01524
1,Boa Vista da Aparecida/PR,-25.4357216,-53.4067721,1,13.17349
1,Boa Vista das Missões/RS,-27.6677983,-53.3127622,1,47.66444
1,Boa Vista do Gurupi/MA,-1.7981168,-46.3071882,9,96.90966
D1,Boa Vista do Gurupi/MA,-1.7981168,-46.3071882,1,10.76774
1,Boa Vista do Ramos/AM,-2.9716927,-57.5869819,53,275.94106
D1,Boa Vista do Ramos/AM,-2.9716927,-57.5869819,1,5.20644
1,Boa Vista do Sul/RS,-29.3510488,-51.6779679,10,359.32447
D1,Boa Vista do Sul/RS,-29.3510488,-51.6779679,1,35.93245
1,Boa Vista do Tupim/BA,-12.6605988,-40.6083594,1,5.38329
1,Boa Vista/PB,-7.2620711,-36.2415161,3,42.54716
1,Boa Vista/RR,2.8208478,-60.6719582,1802,451.38811
D1,Boa Vista/RR,2.8208478,-60.6719582,66,16.53253
1,Boca da Mata/AL,-9.6452054,-36.2116658,18,65.97999
D1,Boca da Mata/AL,-9.6452054,-36.2116658,1,3.66555
1,Boca do Acre/AM,-8.7553487,-67.3930873,263,766.58505
D1,Boca do Acre/AM,-8.7553487,-67.3930873,3,8.74432
1,Bocaina/PI,-6.9445939,-41.3224599,2,44.44444
1,Bocaina/SP,-22.1421831,-48.522276,9,72.99862
1,Bocaiúva/MG,-17.1160208,-43.8122678,1,2.00084
1,Bodocó/PE,-7.777592,-39.933797,3,7.86452
1,Boituva/SP,-23.2838893,-47.6738231,41,67.21642
D1,Boituva/SP,-23.2838893,-47.6738231,2,3.27885
1,Bom Conselho/PE,-9.169191,-36.685683,53,109.15682
D1,Bom Conselho/PE,-9.169191,-36.685683,1,2.05956
1,Bom Despacho/MG,-19.7375242,-45.2517288,5,9.88045
D1,Bom Despacho/MG,-19.7375242,-45.2517288,1,1.97609
1,Bom Jardim de Goiás/GO,-16.2062659,-52.172793,1,11.31094
1,Bom Jardim/MA,-3.54129,-45.606004,22,52.84650
1,Bom Jardim/PE,-7.7961572,-35.5871696,26,66.35361
D1,Bom Jardim/PE,-7.7961572,-35.5871696,8,20.41650
1,Bom Jardim/RJ,-22.1515328,-42.4186683,11,40.07870
D1,Bom Jardim/RJ,-22.1515328,-42.4186683,2,7.28704
1,Bom Jesus da Lapa/BA,-13.250571,-43.410754,1,1.44617
1,Bom Jesus das Selvas/MA,-4.4878075,-46.8526639,34,99.91771
1,Bom Jesus de Goiás/GO,-18.2174587,-49.739721,4,15.86294
1,Bom Jesus do Araguaia/MT,-12.1725897,-51.5074425,2,30.39514
1,Bom Jesus do Itabapoana/RJ,-21.1341025,-41.680095,44,118.61117
D1,Bom Jesus do Itabapoana/RJ,-21.1341025,-41.680095,2,5.39142
1,Bom Jesus do Norte/ES,-21.1254776,-41.6711646,23,231.48148
1,Bom Jesus do Tocantins/PA,-5.0471796,-48.5978362,5,29.44467
1,Bom Jesus dos Perdões/SP,-23.1353864,-46.4648052,9,35.36624
1,Bom Jesus/PB,-6.8156725,-38.6551841,1,39.04725
1,Bom Jesus/PI,-9.0711644,-44.3583926,38,150.91942
1,Bom Jesus/RN,-5.9887544,-35.5821149,3,29.38296
D1,Bom Jesus/RN,-5.9887544,-35.5821149,1,9.79432
1,Bom Jesus/RS,-28.6692723,-50.4346894,23,202.66103
1,Bom Lugar/MA,-4.3728019,-45.0366054,6,36.82337
1,Bom Princípio do Piauí/PI,-3.1912777,-41.6430185,1,17.76199
D1,Bom Princípio do Piauí/PI,-3.1912777,-41.6430185,1,17.76199
1,Bom Princípio/RS,-29.489788,-51.3566782,18,128.06830
1,Bom Progresso/RS,-27.5490948,-53.8655601,3,154.47992
1,Bom Repouso/MG,-22.4657069,-46.1485376,3,28.44411
1,Bom Retiro do Sul/RS,-29.6000007,-51.9359243,43,348.79948
1,Bombinhas/SC,-27.1519159,-48.4875691,2,10.11685
1,Bonfim do Piauí/PI,-9.1648678,-42.8734415,1,17.63668
1,Bonfim/MG,-20.3266626, -44.2386157,1,14.56028
D1,Bonfim/MG,-20.3266626, -44.2386157,1,14.56028
1,Bonfim/RR,3.3613818,-59.8427241,59,475.46136
D1,Bonfim/RR,3.3613818,-59.8427241,1,8.05867
1,Bonfinópolis de Minas/MG,-16.5660011,-45.98645,1,18.20499
1,Bonfinópolis/GO,-16.6172709,-48.9615701,2,20.60581
1,Bonito/MS,-21.1264766,-56.4902208,30,136.51256
1,Bonito/PA,-1.3605722,-47.3049907,57,349.99386
D1,Bonito/PA,-1.3605722,-47.3049907,1,6.14024
1,Bonito/PE,-8.4721161,-35.7314591,22,57.69130
D1,Bonito/PE,-8.4721161,-35.7314591,5,13.11166
1,Boqueirão/PB,-7.487004,-36.130887,6,33.70029
D1,Boqueirão/PB,-7.487004,-36.130887,1,5.61672
1,Boquim/SE,-11.1450175,-37.6204228,14,52.20764
1,Boquira/BA,-12.8184859,-42.7270883,5,23.24716
1,Boracéia/SP,-22.195355,-48.7801925,2,41.46797
1,Borba/AM,-4.3934778,-59.5947721,173,420.30077
D1,Borba/AM,-4.3934778,-59.5947721,11,26.72433
1,Borborema/PB,-6.8066718,-35.5990191,1,19.00057
1,Borborema/SP,-21.6212706,-49.074135,5,31.16041
1,Borda da Mata/MG,-22.274167,-46.165278,3,15.45436
1,Borebi/SP,-22.5700178,-48.9714871,2,75.38636
1,Botelhos/MG,-21.65,-46.394722,3,20.03874
1,Botucatu/SP,-22.8879628,-48.4410712,196,133.79114
D1,Botucatu/SP,-22.8879628,-48.4410712,7,4.77825
1,Botuverá/SC,-27.200749,-49.068892,5,95.31071
1,Braga/RS,-27.617348,-53.740514,2,59.64808
1,Braganey/PR,-24.8179919,-53.118506,1,18.42639
1,Bragança Paulista/SP,-22.9520235,-46.5418586,185,109.68293
D1,Bragança Paulista/SP,-22.9520235,-46.5418586,10,5.92881
1,Bragança/PA,-1.0573967,-46.7635406,339,265.49504
D1,Bragança/PA,-1.0573967,-46.7635406,26,20.36245
1,Branquinha/AL,-9.2478057,-36.0152009,5,47.64627
1,Brasil Novo/PA,-3.3055853,-52.539198,16,106.05860
1,Brasilândia/MS,-21.255575,-52.0365617,15,126.34771
D1,Brasilândia/MS,-21.255575,-52.0365617,2,16.84636
1,Brasiléia/AC,-11.0010413,-68.7487894,25,95.13662
1,Brasília de Minas/MG,-16.2075114,-44.430559,7,21.64034
1,Brasília/DF,-15.7934036,-47.8823172,6251,207.31159
D1,Brasília/DF,-15.7934036,-47.8823172,95,3.15063
1,Brazópolis/MG,-22.4742842,-45.6165577,7,48.41275
1,Braço do Norte/SC,-28.2728633,-49.1622712,103,307.92227
D1,Braço do Norte/SC,-28.2728633,-49.1622712,2,5.97907
1,Brejetuba/ES,-20.1465817,-41.2902303,4,32.24766
1,Brejinho/RN,-6.1957907,-35.3583019,2,15.74927
1,Brejo Alegre/SP,-21.1671191,-50.1850393,1,34.90401
1,Brejo Grande do Araguaia/PA,-5.7011449,-48.4037308,7,94.85095
1,Brejo Grande/SE,-10.4287358,-36.4667918,1,12.03514
1,Brejo Santo/CE,-7.4909841,-38.9859152,16,32.33826
D1,Brejo Santo/CE,-7.4909841,-38.9859152,3,6.06342
1,Brejo da Madre de Deus/PE,-8.1409718,-36.3712527,36,70.94714
D1,Brejo da Madre de Deus/PE,-8.1409718,-36.3712527,1,1.97075
1,Brejo de Areia/MA,-4.3316785,-45.5833334,1,10.88376
1,Brejo do Cruz/PB,-6.32926065,-37.48746163303929,5,35.40575
D1,Brejo do Cruz/PB,-6.32926065,-37.48746163303929,1,7.08115
1,Brejo/MA,-3.6804397,-42.7529313,28,76.92942
D1,Brejo/MA,-3.6804397,-42.7529313,2,5.49496
1,Breu Branco/PA,-3.7785073,-49.5684795,14,21.19735
D1,Breu Branco/PA,-3.7785073,-49.5684795,3,4.54229
1,Breves/PA,-1.68036,-50.479085,432,420.63855
D1,Breves/PA,-1.68036,-50.479085,50,48.68502
1,Britânia/GO,-15.2427599,-51.1602061,2,34.60806
1,Brochier/RS,-29.556766,-51.5963047,1,19.70832
1,Brodowski/SP,-20.984532,-47.657217,15,60.14676
1,Brotas/SP,-22.2840884,-48.1267265,4,16.39143
1,Brumadinho/MG,-20.143611,-44.2,15,37.40369
1,Brumado/BA,-14.29507325,-41.659307508575985,10,14.88206
1,Brusque/SC,-27.0964628,-48.9136323,106,78.67996
1,Bueno Brandão/MG,-22.441976,-46.3517971,2,18.18017
D1,Bueno Brandão/MG,-22.441976,-46.3517971,1,9.09008
1,Buenos Aires/PE,-7.7218931,-35.326587,9,68.41505
D1,Buenos Aires/PE,-7.7218931,-35.326587,2,15.20334
1,Buerarema/BA,-14.9571177,-39.3008035,37,201.64587
D1,Buerarema/BA,-14.9571177,-39.3008035,3,16.34966
1,Bujari/AC,-9.8309656,-67.9520886,27,263.00409
1,Bujaru/PA,-1.5169239,-48.0410699,90,308.93862
D1,Bujaru/PA,-1.5169239,-48.0410699,10,34.32651
1,Buri/SP,-23.79849,-48.598924,1,5.03069
1,Buritama/SP,-21.0664017,-50.1448077,13,75.82828
1,Buriti Bravo/MA,-5.8391884,-43.8367876,3,12.56071
1,Buriti do Tocantins/TO,-5.3187439,-48.2256609,5,44.06063
1,Buriti dos Lopes/PI,-3.1776723,-41.8707444,4,20.22142
D1,Buriti dos Lopes/PI,-3.1776723,-41.8707444,1,5.05536
1,Buriti dos Montes/PI,-5.3136171,-41.0971256,2,24.26007
1,Buriti/MA,-3.9430944,-42.9244281,15,52.30490
1,Buriticupu/MA,-4.3227472,-46.4516989,138,190.71837
1,Buritirana/MA,-5.5897455,-47.0148915,50,324.04407
D1,Buritirana/MA,-5.5897455,-47.0148915,1,6.48088
1,Buritis/RO,-10.2054937,-63.8281954,12,30.26176
D1,Buritis/RO,-10.2054937,-63.8281954,1,2.52181
1,Butiá/RS,-30.1256795,-51.9692224,2,9.55064
1,Buíque/PE,-8.6239732,-37.157296,7,11.99082
0,CASO SEM LOCALIZAÇÃO DEFINIDA/AL,-9.931093434363673,-35.609611600637464,223,6.68193
D0,CASO SEM LOCALIZAÇÃO DEFINIDA/AL,-9.931093434363673,-35.609611600637464,18,0.53935
0,CASO SEM LOCALIZAÇÃO DEFINIDA/BA,-13.415069300066518,-38.14174656569957,987,6.63616
D0,CASO SEM LOCALIZAÇÃO DEFINIDA/BA,-13.415069300066518,-38.14174656569957,11,0.07396
0,CASO SEM LOCALIZAÇÃO DEFINIDA/CE,-3.3445126297392798,-38.624961942434304,4825,52.83573
0,CASO SEM LOCALIZAÇÃO DEFINIDA/ES,-20.30989267097039,-39.81745156645774,686,17.07041
D0,CASO SEM LOCALIZAÇÃO DEFINIDA/ES,-20.30989267097039,-39.81745156645774,20,0.49768
0,CASO SEM LOCALIZAÇÃO DEFINIDA/GO,-16.701590966270153,-49.164524059025034,83,1.18261
0,CASO SEM LOCALIZAÇÃO DEFINIDA/MG,-19.97049116501593,-43.8852149072783,466,2.20135
0,CASO SEM LOCALIZAÇÃO DEFINIDA/MT,-15.54791153961863,-56.17143998972475,115,3.30036
D0,CASO SEM LOCALIZAÇÃO DEFINIDA/MT,-15.54791153961863,-56.17143998972475,2,0.05740
0,CASO SEM LOCALIZAÇÃO DEFINIDA/PA,-0.09317078214359542,-48.0050231510481,1428,16.59912
D0,CASO SEM LOCALIZAÇÃO DEFINIDA/PA,-0.09317078214359542,-48.0050231510481,149,1.73198
0,CASO SEM LOCALIZAÇÃO DEFINIDA/PE,-8.121628543819208,-34.57313921302556,668,6.98959
D0,CASO SEM LOCALIZAÇÃO DEFINIDA/PE,-8.121628543819208,-34.57313921302556,67,0.70105
0,CASO SEM LOCALIZAÇÃO DEFINIDA/PR,-25.69415946385943,-48.10141676336737,280,2.44885
D0,CASO SEM LOCALIZAÇÃO DEFINIDA/PR,-25.69415946385943,-48.10141676336737,9,0.07871
0,CASO SEM LOCALIZAÇÃO DEFINIDA/RJ,-23.210238986465157,-43.12864305824042,68,0.39386
0,CASO SEM LOCALIZAÇÃO DEFINIDA/RN,-5.749310788669161,-34.95302586257457,182,5.18984
D0,CASO SEM LOCALIZAÇÃO DEFINIDA/RN,-5.749310788669161,-34.95302586257457,6,0.17109
0,CASO SEM LOCALIZAÇÃO DEFINIDA/RR,2.813328208465927,-60.663338675861986,27,4.45720
D0,CASO SEM LOCALIZAÇÃO DEFINIDA/RR,2.813328208465927,-60.663338675861986,3,0.49524
0,CASO SEM LOCALIZAÇÃO DEFINIDA/SC,-27.675643660562308,-48.18313219398259,369,5.15019
D0,CASO SEM LOCALIZAÇÃO DEFINIDA/SC,-27.675643660562308,-48.18313219398259,4,0.05583
0,CASO SEM LOCALIZAÇÃO DEFINIDA/SP,-24.30968974555485,-46.21366504207253,1644,3.58021
1,Caapiranga/AM,-3.3188884,-61.2096404,60,458.68053
D1,Caapiranga/AM,-3.3188884,-61.2096404,2,15.28935
1,Caaporã/PB,-7.510234,-34.9154114,209,957.48580
D1,Caaporã/PB,-7.510234,-34.9154114,3,13.74382
1,Caarapó/MS,-22.6349267,-54.8240903,1,3.31411
1,Cabaceiras/PB,-7.4899156,-36.2860501,2,35.64427
1,Cabeceiras do Piauí/PI,-4.4733665,-42.3098716,1,9.44644
1,Cabedelo/PB,-6.97324,-34.8351609,288,425.18011
D1,Cabedelo/PB,-6.97324,-34.8351609,6,8.85792
1,Cabo Frio/RJ,-22.8804369,-42.0189227,226,99.76824
D1,Cabo Frio/RJ,-22.8804369,-42.0189227,12,5.29743
1,Cabo de Santo Agostinho/PE,-8.2838945,-35.0320984,469,226.51752
D1,Cabo de Santo Agostinho/PE,-8.2838945,-35.0320984,70,33.80859
1,Cabreúva/SP,-23.3075813,-47.1324417,34,68.40083
D1,Cabreúva/SP,-23.3075813,-47.1324417,3,6.03537
1,Cabrobó/PE,-8.5083701,-39.3106961,3,8.76655
D1,Cabrobó/PE,-8.5083701,-39.3106961,1,2.92218
1,Cacaulândia/RO,-10.3380043,-62.9007231,1,16.05136
1,Cachoeira Dourada/MG,-18.517136,-49.5002062,1,37.14710
1,Cachoeira Grande/MA,-2.9290492,-44.0573223,10,106.03329
D1,Cachoeira Grande/MA,-2.9290492,-44.0573223,2,21.20666
1,Cachoeira Paulista/SP,-22.666498,-45.015384,6,18.00342
1,Cachoeira de Minas/MG,-22.3554043,-45.7796324,1,8.66026
1,Cachoeira do Arari/PA,-1.0143572,-48.9621089,35,147.26301
D1,Cachoeira do Arari/PA,-1.0143572,-48.9621089,8,33.66012
1,Cachoeira do Piriá/PA,-1.7599443,-46.5446954,1,2.94985
1,Cachoeira do Sul/RS,-30.0474778,-52.8905413,16,19.46448
1,Cachoeira dos Índios/PB,-6.9259193,-38.6742159,3,29.28544
D1,Cachoeira dos Índios/PB,-6.9259193,-38.6742159,1,9.76181
1,Cachoeira/BA,-12.5998256,-38.9665918,3,8.96325
1,Cachoeiras de Macacu/RJ,-22.4626861,-42.6534414,68,115.37744
D1,Cachoeiras de Macacu/RJ,-22.4626861,-42.6534414,6,10.18036
1,Cachoeirinha/PE,-8.4906364,-36.2338963,24,117.76251
D1,Cachoeirinha/PE,-8.4906364,-36.2338963,1,4.90677
1,Cachoeirinha/RS,-29.9493353,-51.0898927,66,50.65506
1,Cachoeirinha/TO,-6.118647,-47.9208885,5,219.78022
1,Cachoeiro de Itapemirim/ES,-20.848084,-41.11129,157,75.12968
D1,Cachoeiro de Itapemirim/ES,-20.848084,-41.11129,4,1.91413
1,Cacimba de Dentro/PB,-6.6425101,-35.7929304,11,64.00186
1,Cacimbas/PB,-7.2125451,-37.0593398,2,27.88234
1,Cacimbinhas/AL,-9.401212,-36.991082,6,55.25880
D1,Cacimbinhas/AL,-9.401212,-36.991082,1,9.20980
1,Cacoal/RO,-11.4333,-61.4420502,39,45.68938
1,Caconde/SP,-21.527995,-46.643659,1,5.26732
1,Caetanos/BA,-14.3387456,-40.9085971,2,13.75327
1,Caetanópolis/MG,-19.2947496,-44.4138386,3,25.80867
1,Caetité/BA,-14.0691776,-42.4852428,1,1.96175
1,Caeté/MG,-19.897777,-43.670278,4,8.94494
1,Caetés/PE,-8.7728788,-36.6255835,23,80.03062
D1,Caetés/PE,-8.7728788,-36.6255835,2,6.95918
1,Cafeara/PR,-22.78905,-51.714195,1,34.08316
1,Cafelândia/PR,-24.6176963,-53.3218057,2,11.03753
1,Caiabu/SP,-22.0143038,-51.2356597,1,23.86065
D1,Caiabu/SP,-22.0143038,-51.2356597,1,23.86065
1,Caicó/RN,-6.4594544,-37.0971911,17,25.01766
1,Caieiras/SP,-23.3644621,-46.7484765,220,216.81285
D1,Caieiras/SP,-23.3644621,-46.7484765,19,18.72475
1,Cairu/BA,-13.4860505,-39.0455744,12,66.02113
1,Caiçara do Norte/RN,-5.0645017,-36.0561226,4,61.07803
1,Caiçara do Rio do Vento/RN,-5.757968,-36.00089,1,27.14441
1,Caiçara/PB,-6.6146866,-35.4681434,18,249.96528
D1,Caiçara/PB,-6.6146866,-35.4681434,1,13.88696
1,Cajamar/SP,-23.3561111,-46.8769444,184,239.58021
D1,Cajamar/SP,-23.3561111,-46.8769444,21,27.34339
1,Cajapió/MA,-2.8778715,-44.6746871,4,35.78778
D1,Cajapió/MA,-2.8778715,-44.6746871,1,8.94694
1,Cajari/MA,-3.3213076,-45.0118757,27,139.32607
1,Cajati/SP,-24.7272376,-48.1077914,15,52.54124
1,Cajazeiras/PB,-6.8897849,-38.5570389,44,70.97576
D1,Cajazeiras/PB,-6.8897849,-38.5570389,4,6.45234
1,Cajazeirinhas/PB,-6.961442,-37.7993733,1,31.31851
1,Cajobi/SP,-20.8776238,-48.8106972,3,28.45760
D1,Cajobi/SP,-20.8776238,-48.8106972,1,9.48587
1,Cajueiro/AL,-9.399589,-36.1524309,5,23.51392
D1,Cajueiro/AL,-9.399589,-36.1524309,1,4.70278
1,Cajuri/MG,-20.7901414,-42.7954489,1,25.08151
1,Cajuru/SP,-21.2759978,-47.3046035,3,11.46482
D1,Cajuru/SP,-21.2759978,-47.3046035,1,3.82161
1,Caldas Brandão/PB,-7.1027959,-35.3254676,8,133.02295
1,Caldas Novas/GO,-17.745,-48.625,9,9.87253
1,Caldas/MG,-21.923611,-46.386111,4,27.62431
1,Caldeirão Grande/BA,-11.0208483,-40.3041387,3,22.51069
1,Calçado/PE,-8.7413446,-36.3351787,1,9.04732
1,Calçoene/AP,2.4981757,-50.9539503,21,188.89988
D1,Calçoene/AP,2.4981757,-50.9539503,1,8.99523
1,Camacan/BA,-15.4166631,-39.4930088,38,118.79455
1,Camamu/BA,-13.9438142,-39.1060917,4,11.32631
1,Camanducaia/MG,-22.755278,-46.144444,22,101.05650
1,Camapuã/MS,-19.5291747,-54.0434641,1,7.29341
1,Camaquã/RS,-30.8524752,-51.8075619,9,13.58265
1,Camaragibe/PE,-8.0213832,-34.9810768,747,473.30005
D1,Camaragibe/PE,-8.0213832,-34.9810768,52,32.94726
1,Camargo/RS,-28.5865661,-52.2031474,3,109.76948
1,Camaçari/BA,-12.6998188,-38.3260762,117,39.11317
D1,Camaçari/BA,-12.6998188,-38.3260762,4,1.33720
1,Cambará/PR,-23.042273,-50.075281,1,3.94322
1,Camboriú/SC,-27.0273601,-48.6535657,99,119.29292
D1,Camboriú/SC,-27.0273601,-48.6535657,3,3.61494
1,Cambuci/RJ,-21.5749919,-41.9107833,15,96.74299
1,Cambuquira/MG,-21.853056,-45.2953619,2,15.60793
1,Cambuí/MG,-22.6122501,-46.0572137,30,101.51941
1,Cambé/PR,-23.2782035,-51.2779583,21,19.71220
D1,Cambé/PR,-23.2782035,-51.2779583,1,0.93868
1,Cametá/PA,-2.242949,-49.497885,602,436.57988
D1,Cametá/PA,-2.242949,-49.497885,27,19.58083
1,Camocim de São Félix/PE,-8.3616757,-35.7638903,21,111.91047
1,Camocim/CE,-2.9009918,-40.8427389,55,86.39512
D1,Camocim/CE,-2.9009918,-40.8427389,6,9.42492
1,Campanha/MG,-21.8361108,-45.401986,1,6.00060
1,Campestre de Goiás/GO,-16.7624179,-49.69497,1,27.54821
1,Campestre do Maranhão/MA,-6.1729113,-47.3640512,11,76.52706
D1,Campestre do Maranhão/MA,-6.1729113,-47.3640512,1,6.95701
1,Campestre/AL,-8.8481634,-35.5660033,14,201.84544
D1,Campestre/AL,-8.8481634,-35.5660033,1,14.41753
1,Campestre/MG,-19.6142116,-43.219378,1,4.74947
1,Campina Grande do Sul/PR,-25.3046032,-49.0545355,19,43.89207
D1,Campina Grande do Sul/PR,-25.3046032,-49.0545355,3,6.93033
1,Campina Grande/PB,-7.2246743,-35.8771292,713,174.01661
D1,Campina Grande/PB,-7.2246743,-35.8771292,10,2.44063
1,Campina Verde/MG,-19.535277,-49.486389,3,15.19372
1,Campina da Lagoa/PR,-24.5937926,-52.8038965,1,7.04126
D1,Campina da Lagoa/PR,-24.5937926,-52.8038965,1,7.04126
1,Campina do Monte Alegre/SP,-23.5935653,-48.4801876,1,16.60027
1,Campinas do Sul/RS,-27.7167968,-52.6257885,3,55.00550
1,Campinas/SP,-22.90556,-47.06083,1250,103.81430
D1,Campinas/SP,-22.90556,-47.06083,52,4.31868
1,Campinorte/GO,-14.3136699,-49.1510931,2,15.84033
1,Campo Alegre de Goiás/GO,-17.6337896,-47.779291,1,13.17697
1,Campo Alegre de Lourdes/BA,-9.5160326,-43.0101338,7,24.30724
1,Campo Alegre/AL,-9.7798607,-36.3575793,19,33.29653
D1,Campo Alegre/AL,-9.7798607,-36.3575793,1,1.75245
1,Campo Belo/MG,-20.8975,-45.277223,5,9.25429
1,Campo Bom/RS,-29.674694,-51.060601,4,5.99592
1,Campo Bonito/PR,-25.0328004,-52.992976,2,52.17845
1,Campo Erê/SC,-26.3947432,-53.0790495,1,11.72883
1,Campo Formoso/BA,-10.51055,-40.320031,1,1.40438
1,Campo Grande do Piauí/PI,-7.1327559,-41.0381164,12,201.91822
1,Campo Grande/AL,-9.9725,-36.74791447368421,9,94.16196
D1,Campo Grande/AL,-9.9725,-36.74791447368421,1,10.46244
1,Campo Grande/MS,-20.4640173,-54.6162947,238,26.56303
D1,Campo Grande/MS,-20.4640173,-54.6162947,6,0.66966
1,Campo Largo do Piauí/PI,-3.8104731,-42.6288333,1,13.73815
1,Campo Largo/PR,-25.4597726,-49.5270851,35,26.51475
D1,Campo Largo/PR,-25.4597726,-49.5270851,2,1.51513
1,Campo Limpo Paulista/SP,-23.207791,-46.788919,49,57.88541
D1,Campo Limpo Paulista/SP,-23.207791,-46.788919,7,8.26934
1,Campo Magro/PR,-25.3691533,-49.4496921,2,6.82175
1,Campo Maior/PI,-4.8339574,-42.1739786,96,204.98367
D1,Campo Maior/PI,-4.8339574,-42.1739786,1,2.13525
1,Campo Mourão/PR,-24.046329,-52.37802,48,50.60142
D1,Campo Mourão/PR,-24.046329,-52.37802,4,4.21678
1,Campo Novo de Rondônia/RO,-10.5704235,-63.6199511,1,7.07264
D1,Campo Novo de Rondônia/RO,-10.5704235,-63.6199511,1,7.07264
1,Campo Novo do Parecis/MT,-13.658735,-57.890723,3,8.48416
1,Campo Novo/RS,-28.91500235,-52.331375687737626,1,22.30152
1,Campo Redondo/RN,-6.2420373,-36.1830606,4,35.66016
1,Campo Verde/MT,-15.5430787,-55.1590511,7,15.89428
1,Campo do Brito/SE,-10.7496246,-37.4942276,7,38.65481
1,Campo do Tenente/PR,-25.9814143,-49.684518,1,12.54548
1,Campos Altos/MG,-19.696389,-46.171389,4,25.87155
1,Campos Belos/GO,-13.0349839,-46.768112,18,90.51139
D1,Campos Belos/GO,-13.0349839,-46.768112,1,5.02841
1,Campos Gerais/MG,-21.2333342,-45.7584127,4,13.90144
1,Campos Lindos/TO,-7.9740597,-46.8023881,1,9.88533
1,Campos Novos/SC,-27.3962904,-51.2224397,3,8.27723
1,Campos Sales/CE,-7.0742675,-40.3740367,23,83.86203
1,Campos de Júlio/MT,-13.7223646,-59.2645296,1,14.51168
1,Campos do Jordão/SP,-22.7395263,-45.5912829,15,28.79742
1,Campos dos Goytacazes/RJ,-21.7558619,-41.3326895,374,73.68761
D1,Campos dos Goytacazes/RJ,-21.7558619,-41.3326895,16,3.15241
1,Camutanga/PE,-7.4092965,-35.2738166,13,152.02900
D1,Camutanga/PE,-7.4092965,-35.2738166,2,23.38908
1,Cana Verde/MG,-21.021308,-45.1817881,6,107.08549
1,Cananéia/SP,-25.0104609,-47.9315628,13,103.66826
D1,Cananéia/SP,-25.0104609,-47.9315628,2,15.94896
1,Canapi/AL,-9.1173572,-37.6011704,1,5.64270
1,Canarana/BA,-11.6870151,-41.7683675,5,19.10147
1,Canarana/MT,-13.5564602,-52.2691167,2,9.26827
1,Canas/SP,-22.7029347,-45.0526508,1,19.46283
1,Canavieiras/BA,-15.61621745,-39.08485321304444,18,57.87967
D1,Canavieiras/BA,-15.61621745,-39.08485321304444,1,3.21554
1,Canaã dos Carajás/PA,-6.5296837,-49.8516592,504,1359.04004
D1,Canaã dos Carajás/PA,-6.5296837,-49.8516592,6,16.17905
1,Candeias do Jamari/RO,-8.7949939,-63.7018851,47,176.07612
D1,Candeias do Jamari/RO,-8.7949939,-63.7018851,1,3.74630
1,Candeias/BA,-12.6693806,-38.5406462,109,125.17801
1,Candeias/MG,-20.7676161,-45.2763777,4,26.87089
1,Candelária/RS,-29.668391,-52.789495,5,15.94134
1,Candiota/RS,-31.5451894,-53.719538,1,10.43406
1,Canelinha/SC,-27.2660341,-48.7666708,1,8.16993
1,Canguaretama/RN,-6.3751942,-35.137463,43,125.45221
D1,Canguaretama/RN,-6.3751942,-35.137463,7,20.42245
1,Canguçu/RS,-31.398276,-52.6773522,11,19.62709
1,Canhoba/SE,-10.1373681,-36.9710796,1,24.95010
1,Canhotinho/PE,-8.876519,-36.197935,3,12.09482
D1,Canhotinho/PE,-8.876519,-36.197935,1,4.03161
1,Canindé de São Francisco/SE,-9.6597475,-37.7904456,20,66.88963
D1,Canindé de São Francisco/SE,-9.6597475,-37.7904456,1,3.34448
1,Canindé/CE,-4.3547946,-39.3108516,203,263.64664
D1,Canindé/CE,-4.3547946,-39.3108516,3,3.89626
1,Canoas/RS,-29.9216045,-51.1799525,69,19.90676
D1,Canoas/RS,-29.9216045,-51.1799525,6,1.73102
1,Canoinhas/SC,-26.176591,-50.395001,13,23.89662
1,Cansanção/BA,-10.6671448,-39.498199,1,2.87076
1,Cantagalo/RJ,-21.9811325,-42.3682522,4,19.82947
1,Cantanhede/MA,-3.6355005,-44.3778738,52,236.41737
1,Canto do Buriti/PI,-8.1112473,-42.944844,4,18.87950
D1,Canto do Buriti/PI,-8.1112473,-42.944844,1,4.71988
1,Cantá/RR,2.60994,-60.605827,49,267.24843
D1,Cantá/RR,2.60994,-60.605827,1,5.45405
1,Canudos do Vale/RS,-29.3240418,-52.2348494,4,233.10023
1,Canutama/AM,-6.5330019,-64.3834966,26,166.35741
1,Capanema/PA,-1.1933054,-47.1828679,236,341.89520
D1,Capanema/PA,-1.1933054,-47.1828679,16,23.17934
1,Capanema/PR,-25.6704878,-53.8083036,2,10.45806
1,Caparaó/MG,-20.5232726,-41.9049984,1,18.38911
1,Capela do Alto Alegre/BA,-11.6703944,-39.8362745,2,17.18656
1,Capela do Alto/SP,-23.4704798,-47.7352309,24,115.90843
1,Capela/AL,-9.415041,-36.082583,20,117.28142
1,Capela/SE,-10.50494,-37.0552566,19,55.53445
1,Capim Grosso/BA,-11.3793228,-40.0112095,11,35.87502
D1,Capim Grosso/BA,-11.3793228,-40.0112095,3,9.78410
1,Capim/PB,-6.9174091,-35.1720326,22,337.26813
D1,Capim/PB,-6.9174091,-35.1720326,1,15.33037
1,Capinzal do Norte/MA,-4.7304006,-44.3249063,31,283.51930
1,Capinópolis/MG,-18.682778,-49.569723,1,6.18314
1,Capistrano/CE,-4.4644692,-38.8956734,72,405.90822
D1,Capistrano/CE,-4.4644692,-38.8956734,4,22.55046
1,Capitão Gervásio Oliveira/PI,-8.4954657,-41.8169342,1,24.39024
1,Capitão Leônidas Marques/PR,-25.481645,-53.611238,1,6.33714
1,Capitão Poço/PA,-1.7447162,-47.0638495,178,327.79036
D1,Capitão Poço/PA,-1.7447162,-47.0638495,5,9.20759
1,Capitão/RS,-29.2718294,-51.9869716,1,36.27131
1,Capitólio/MG,-20.6142437,-46.0487652,2,23.16960
D1,Capitólio/MG,-20.6142437,-46.0487652,1,11.58480
1,Capivari de Baixo/SC,-28.449773,-48.963144,19,76.39419
1,Capivari/SP,-22.995144,-47.50715,2,3.58629
1,Capixaba/AC,-10.5741345,-67.6759719,17,144.89048
1,Capoeiras/PE,-8.7386788,-36.6268109,7,34.91620
D1,Capoeiras/PE,-8.7386788,-36.6268109,1,4.98803
1,Capão Bonito/SP,-24.0048759,-48.3489848,10,21.21431
D1,Capão Bonito/SP,-24.0048759,-48.3489848,4,8.48572
1,Capão da Canoa/RS,-29.7542937,-50.0215684,9,16.96545
1,Capão do Leão/RS,-31.766133,-52.5013148,1,3.94415
1,Caracaraí/RR,1.827598,-61.125389,14,63.85114
1,Caracol/PI,-9.2804898,-43.3284924,2,18.32173
1,Caraguatatuba/SP,-23.62028,-45.41306,119,97.91660
D1,Caraguatatuba/SP,-23.62028,-45.41306,4,3.29131
1,Carambeí/PR,-24.9513298,-50.1171293,1,4.27077
1,Carandaí/MG,-20.9523934,-43.8043903,2,7.84283
1,Carangola/MG,-20.733056,-42.029445,37,112.12121
1,Carapebus/RJ,-22.1869969,-41.6633764,8,49.07674
D1,Carapebus/RJ,-22.1869969,-41.6633764,1,6.13459
1,Carapicuíba/SP,-23.5234673,-46.8406808,736,183.57457
D1,Carapicuíba/SP,-23.5234673,-46.8406808,69,17.21012
1,Caratinga/MG,-19.7900887,-42.140533,11,11.94847
1,Carauari/AM,-4.8766426,-66.8961433,195,689.19205
D1,Carauari/AM,-4.8766426,-66.8961433,2,7.06864
1,Carazinho/RS,-28.2981634,-52.7942363,30,48.30140
1,Caraúbas/RN,-5.7889323,-37.5548751,11,53.67687
1,Cardeal da Silva/BA,-11.9428154,-37.9494462,2,21.51694
1,Cardoso Moreira/RJ,-21.4894916,-41.6152776,6,46.79092
1,Cardoso/SP,-20.080447,-49.9139767,1,8.11293
1,Careaçu/MG,-22.0440585,-45.6949091,1,14.79947
1,Careiro da Várzea/AM,-3.197024,-59.8259104,44,145.57486
D1,Careiro da Várzea/AM,-3.197024,-59.8259104,1,3.30852
1,Careiro/AM,-3.8185277,-60.3616505,522,1378.43619
D1,Careiro/AM,-3.8185277,-60.3616505,11,29.04751
1,Cariacica/ES,-20.263202,-40.416549,1322,346.72227
D1,Cariacica/ES,-20.263202,-40.416549,62,16.26080
1,Caridade/CE,-4.2316487,-39.1946515,13,57.65734
D1,Caridade/CE,-4.2316487,-39.1946515,3,13.30554
1,Carira/SE,-10.358303,-37.701473,2,9.05715
1,Cariri do Tocantins/TO,-11.8882727,-49.1604216,49,1118.21086
D1,Cariri do Tocantins/TO,-11.8882727,-49.1604216,1,22.82063
1,Caririaçu/CE,-7.0417053,-39.2835527,11,40.79362
D1,Caririaçu/CE,-7.0417053,-39.2835527,1,3.70851
1,Cariré/CE,-3.948584,-40.476028,17,92.15091
1,Cariús/CE,-6.5348688,-39.4966658,2,10.69576
D1,Cariús/CE,-6.5348688,-39.4966658,1,5.34788
1,Carlos Barbosa/RS,-29.2978372,-51.5005613,88,294.97536
D1,Carlos Barbosa/RS,-29.2978372,-51.5005613,1,3.35199
1,Carlos Chagas/MG,-21.744351,-43.3908675,1,5.30870
1,Carmo da Cachoeira/MG,-21.460556,-45.223334,1,8.21693
1,Carmo da Mata/MG,-20.558334,-44.8703774,1,8.71384
1,Carmo do Cajuru/MG,-20.184444,-44.770834,14,62.28312
D1,Carmo do Cajuru/MG,-20.184444,-44.770834,2,8.89759
1,Carmo do Paranaíba/MG,-18.9992327,-46.306916,4,13.18870
1,Carmo do Rio Verde/GO,-15.3549139,-49.707975,3,29.75600
1,Carmo/RJ,-21.9341749,-42.6091737,12,63.50886
1,Carmópolis de Minas/MG,-20.541224,-44.6350611,6,30.99974
1,Carmópolis/SE,-10.64835,-36.98493,6,36.07070
D1,Carmópolis/SE,-10.64835,-36.98493,1,6.01178
1,Carnaubais/RN,-5.3383681,-36.8335566,1,9.29454
1,Carnaubal/CE,-4.1611842,-40.9412317,14,79.51835
1,Carnaubeira da Penha/PE,-8.3192809,-38.7435891,3,23.19827
D1,Carnaubeira da Penha/PE,-8.3192809,-38.7435891,1,7.73276
1,Carnaíba/PE,-7.805964,-37.7947314,8,40.91862
D1,Carnaíba/PE,-7.805964,-37.7947314,4,20.45931
1,Carnaúba dos Dantas/RN,-6.5560588,-36.5930811,1,12.22494
D1,Carnaúba dos Dantas/RN,-6.5560588,-36.5930811,1,12.22494
1,Carneiros/AL,-9.4832948,-37.3757121,5,55.06002
1,Caroebe/RR,0.8812315,-59.6932274,45,442.52139
D1,Caroebe/RR,0.8812315,-59.6932274,1,9.83381
1,Carolina/MA,-7.3313437,-47.4738762,7,28.78053
1,Carpina/PE,-7.8459151,-35.2538861,75,89.66894
D1,Carpina/PE,-7.8459151,-35.2538861,12,14.34703
1,Carrapateira/PB,-7.0395225,-38.3432281,1,37.60812
1,Caruaru/PE,-8.2829702,-35.9722852,213,58.98349
D1,Caruaru/PE,-8.2829702,-35.9722852,20,5.53836
1,Carutapera/MA,-1.2016638,-46.0205618,18,75.60801
D1,Carutapera/MA,-1.2016638,-46.0205618,5,21.00223
1,Casa Branca/SP,-21.7743137,-47.0852175,3,9.87492
1,Casca/RS,-28.5634054,-51.9741902,4,44.29188
1,Cascalho Rico/MG,-18.579344,-47.875774,1,32.52033
1,Cascavel/CE,-4.129666,-38.241178,147,204.89804
D1,Cascavel/CE,-4.129666,-38.241178,7,9.75705
1,Cascavel/PR,-24.9554996,-53.4560544,175,53.27991
D1,Cascavel/PR,-24.9554996,-53.4560544,6,1.82674
1,Caseara/TO,-9.273159,-49.9576837,1,18.62544
1,Caseiros/RS,-28.2721149,-51.6873536,2,62.46096
1,Casimiro de Abreu/RJ,-22.4809932,-42.2039976,55,124.47945
D1,Casimiro de Abreu/RJ,-22.4809932,-42.2039976,6,13.57958
1,Casinhas/PE,-7.744698,-35.7250923,4,27.89206
1,Casserengue/PB,-6.779538,-35.817875,2,26.78093
1,Castanhal/PA,-1.2927031,-47.9223903,403,200.70421
D1,Castanhal/PA,-1.2927031,-47.9223903,67,33.36770
1,Castelo do Piauí/PI,-5.3230426,-41.5546185,6,30.43214
1,Castelo/ES,-20.6034476,-41.2033505,14,37.29952
D1,Castelo/ES,-20.6034476,-41.2033505,1,2.66425
1,Castilho/SP,-20.8695636,-51.4877792,4,19.04218
D1,Castilho/SP,-20.8695636,-51.4877792,1,4.76054
1,Castro Alves/BA,-12.7616941,-39.4281088,15,57.11240
1,Castro/PR,-24.794072,-49.9972914,3,4.19674
1,Cataguases/MG,-21.387426,-42.6957219,23,30.61646
D1,Cataguases/MG,-21.387426,-42.6957219,2,2.66230
1,Catalão/GO,-18.1702546,-47.9447082,13,11.94600
1,Catanduva/SP,-21.1331035,-48.9712817,95,77.95703
D1,Catanduva/SP,-21.1331035,-48.9712817,8,6.56480
1,Catanduvas/SC,-27.0689719,-51.660158,11,101.27981
1,Catarina/CE,-6.1341578,-39.8795321,11,53.14523
D1,Catarina/CE,-6.1341578,-39.8795321,1,4.83138
1,Catas Altas/MG,-20.0744,-43.4075,2,37.20238
1,Catende/PE,-8.6900588,-35.748470825,46,107.24611
D1,Catende/PE,-8.6900588,-35.748470825,6,13.98862
1,Catiguá/SP,-21.0491485,-49.0578923,1,12.81394
1,Catingueira/PB,-7.120081,-37.60638,2,40.55150
1,Catolé do Rocha/PB,-6.340625,-37.746967,12,39.28501
1,Catu/BA,-12.351274,-38.379108,14,25.59228
D1,Catu/BA,-12.351274,-38.379108,1,1.82802
1,Catuji/MG,-17.3024568,-41.5168387,4,63.38140
1,Catunda/CE,-4.6494224,-40.2002603,4,38.67724
1,Caturaí/GO,-16.4473559,-49.4919149,1,19.72387
1,Caturité/PB,-7.4199652,-36.0207132,4,82.44023
1,Caucaia/CE,-3.7300563,-38.6593082,1104,305.47869
D1,Caucaia/CE,-3.7300563,-38.6593082,59,16.32540
1,Caxambu do Sul/SC,-27.1615046,-52.8796675,12,329.48929
1,Caxambu/MG,-21.9770359,-44.9318289,5,23.08829
D1,Caxambu/MG,-21.9770359,-44.9318289,1,4.61766
1,Caxias do Sul/RS,-29.1684796,-51.1793861,122,23.87915
D1,Caxias do Sul/RS,-29.1684796,-51.1793861,3,0.58719
1,Caxias/MA,-4.8654201,-43.353664,86,52.15915
D1,Caxias/MA,-4.8654201,-43.353664,3,1.81951
1,Caçador/SC,-26.77567,-51.0120041,18,22.90222
D1,Caçador/SC,-26.77567,-51.0120041,1,1.27235
1,Caçapava do Sul/RS,-30.5113286,-53.4916761,1,2.97407
1,Caçapava/SP,-23.099204,-45.707645,30,31.82585
D1,Caçapava/SP,-23.099204,-45.707645,2,2.12172
1,Caçu/GO,-18.5637222,-51.1369685,6,37.47892
1,Caém/BA,-11.0909658,-40.4322187,3,32.56268
1,Ceará-Mirim/RN,-5.633588,-35.4248407,48,65.30879
D1,Ceará-Mirim/RN,-5.633588,-35.4248407,5,6.80300
1,Cedral/MA,-2.000269,-44.528114,4,37.47073
1,Cedral/SP,-20.9028433,-49.2699665,1,10.82603
1,Cedro de São João/SE,-10.2506778,-36.8816067,23,390.02883
1,Cedro/CE,-6.6065382,-39.0599487,5,19.56411
1,Cedro/PE,-7.7186318,-39.2363385,2,16.93910
1,Centenário do Sul/PR,-22.821497,-51.5951456,3,27.70851
1,Central do Maranhão/MA,-2.1967253,-44.8290757,3,34.59011
1,Centralina/MG,-18.5843349,-49.1954739,5,48.30918
D1,Centralina/MG,-18.5843349,-49.1954739,1,9.66184
1,Centro Novo do Maranhão/MA,-2.1361032,-46.1248528,9,41.62427
D1,Centro Novo do Maranhão/MA,-2.1361032,-46.1248528,1,4.62492
1,Centro do Guilherme/MA,-2.4511749,-46.039127,9,66.87472
1,Cerejeiras/RO,-13.186987,-60.816836,1,6.12632
D1,Cerejeiras/RO,-13.186987,-60.816836,1,6.12632
1,Ceres/GO,-15.3103568,-49.6032054,4,18.02533
1,Cerqueira César/SP,-23.0353135,-49.1650519,3,15.01126
1,Cerquilho/SP,-23.1626556,-47.7433878,7,14.30060
D1,Cerquilho/SP,-23.1626556,-47.7433878,2,4.08589
1,Cerro Corá/RN,-6.0412685,-36.3464694,1,8.94534
D1,Cerro Corá/RN,-6.0412685,-36.3464694,1,8.94534
1,Cerro Grande do Sul/RS,-30.5962963,-51.7517196,1,8.17060
D1,Cerro Grande do Sul/RS,-30.5962963,-51.7517196,1,8.17060
1,Cesário Lange/SP,-23.226035,-47.954453,3,16.53075
D1,Cesário Lange/SP,-23.226035,-47.954453,1,5.51025
1,Chapada dos Guimarães/MT,-15.464343,-55.749857,7,35.43945
D1,Chapada dos Guimarães/MT,-15.464343,-55.749857,1,5.06278
1,Chapada/RS,-28.0587829,-53.0657459,3,32.36595
1,Chapadinha/MA,-3.7416803,-43.3548006,521,653.90650
1,Chapadão do Céu/GO,-18.3951972,-52.6670783,5,49.17872
1,Chapadão do Sul/MS,-18.7949051,-52.6199512,10,39.65422
1,Chapecó/SC,-27.0922364,-52.6166878,628,284.97915
D1,Chapecó/SC,-27.0922364,-52.6166878,2,0.90758
1,Charqueada/SP,-22.50958,-47.775468,33,191.97208
D1,Charqueada/SP,-22.50958,-47.775468,3,17.45201
1,Charqueadas/RS,-29.955012,-51.6249195,6,14.70985
1,Chaval/CE,-3.0339874,-41.2438452,6,45.91017
D1,Chaval/CE,-3.0339874,-41.2438452,2,15.30339
1,Chavantes/SP,-23.0406405,-49.7071698,1,8.05283
1,Chaves/PA,-0.164154,-49.987006,7,29.51469
D1,Chaves/PA,-0.164154,-49.987006,1,4.21638
1,Chiador/MG,-22.002778,-43.057222,6,223.29736
1,Chopinzinho/PR,-25.8566167,-52.5294107,2,10.38745
1,Chorozinho/CE,-4.3010895,-38.4976923,58,286.22187
D1,Chorozinho/CE,-4.3010895,-38.4976923,4,19.73944
1,Choró/CE,-4.8435726,-39.1393071,43,318.02381
D1,Choró/CE,-4.8435726,-39.1393071,1,7.39590
1,Chácara/MG,-21.6727567,-43.2206851,1,31.70577
1,Chã Grande/PE,-8.238271,-35.457148,64,294.95806
D1,Chã Grande/PE,-8.238271,-35.457148,5,23.04360
1,Chã de Alegria/PE,-7.9959409,-35.2134636,44,325.49194
D1,Chã de Alegria/PE,-7.9959409,-35.2134636,3,22.19263
1,Cianorte/PR,-23.662036,-52.6103989,29,35.10046
D1,Cianorte/PR,-23.662036,-52.6103989,1,1.21036
1,Cidade Gaúcha/PR,-23.3816558,-52.9444098,2,15.80778
1,Cidade Ocidental/GO,-16.1000758,-47.9445014,11,15.41134
1,Cidelândia/MA,-5.174655,-47.7833531,35,238.14384
1,Cidreira/RS,-30.1657063,-50.218331,2,12.30466
D1,Cidreira/RS,-30.1657063,-50.218331,1,6.15233
1,Ciríaco/RS,-28.3429139,-51.8763682,1,21.06594
1,Cláudio/MG,-20.4448485,-44.7655217,3,10.48328
1,Coaraci/BA,-14.6407979,-39.5496765,29,170.65851
D1,Coaraci/BA,-14.6407979,-39.5496765,2,11.76955
1,Coari/AM,-4.0885957,-63.1431166,1051,1235.06117
D1,Coari/AM,-4.0885957,-63.1431166,40,47.00518
1,Cocal de Telha/PI,-4.5553648,-41.9722429,25,511.14292
1,Cocal do Sul/SC,-28.6007346,-49.3248697,11,65.93143
D1,Cocal do Sul/SC,-28.6007346,-49.3248697,1,5.99377
1,Cocal dos Alves/PI,-3.59964,-41.444741,2,32.50447
1,Cocal/PI,-3.4691882,-41.555851,12,43.18566
D1,Cocal/PI,-3.4691882,-41.555851,1,3.59881
1,Cocos/BA,-14.1811222,-44.5382117,4,21.30266
1,Codajás/AM,-3.8413202,-62.0603444,41,143.17142
D1,Codajás/AM,-3.8413202,-62.0603444,1,3.49199
1,Codó/MA,-4.455623,-43.892354,276,224.64777
D1,Codó/MA,-4.455623,-43.892354,1,0.81394
1,Coelho Neto/MA,-4.2535154,-43.0149321,120,242.74300
1,Coité do Nóia/AL,-9.633484,-36.584493,4,37.40765
1,Coivaras/PI,-5.0927005,-42.2052489,2,49.75124
1,Colares/PA,-0.936423,-48.280254,13,107.57137
D1,Colares/PA,-0.936423,-48.280254,2,16.54944
1,Colatina/ES,-19.5346732,-40.6287836,170,138.77664
D1,Colatina/ES,-19.5346732,-40.6287836,3,2.44900
1,Colina/SP,-20.711443,-48.53867,8,43.31817
D1,Colina/SP,-20.711443,-48.53867,1,5.41477
1,Colinas do Tocantins/TO,-8.0612688,-48.4716768,47,132.67841
D1,Colinas do Tocantins/TO,-8.0612688,-48.4716768,1,2.82294
1,Colinas/MA,-6.0332631,-44.2528542,73,177.27913
1,Colinas/RS,-29.3866023,-51.8697911,12,492.20673
1,Colméia/TO,-8.734098,-48.7510897,1,12.18769
1,Colombo/PR,-25.2925439,-49.2243472,31,12.71920
1,Colorado/PR,-22.8385097,-51.9730135,4,16.65834
1,Colíder/MT,-10.8094999,-55.4540386,1,2.99061
1,Colônia Leopoldina/AL,-8.918058,-35.721414,15,69.13080
1,Colônia do Gurguéia/PI,-8.183697,-43.793999,4,61.69031
D1,Colônia do Gurguéia/PI,-8.183697,-43.793999,1,15.42258
1,Colônia do Piauí/PI,-7.2320268,-42.1777122,1,13.06165
1,Comendador Levy Gasparian/RJ,-22.028685,-43.204655,2,23.36176
1,Comercinho/MG,-16.2965093,-41.7930954,1,14.43210
1,Conceição da Barra/ES,-18.5841421,-39.7371844,5,16.09632
1,Conceição da Feira/BA,-12.5013001,-39.0002166,1,4.42850
1,Conceição das Alagoas/MG,-19.9194009,-48.3803414,2,7.17026
1,Conceição de Macabu/RJ,-22.0849986,-41.8679947,9,38.74634
1,Conceição do Almeida/BA,-12.7772763,-39.1692214,3,17.39433
1,Conceição do Araguaia/PA,-8.2696905,-49.2676864,30,62.67759
1,Conceição do Castelo/ES,-20.3601311,-41.2470343,16,125.75650
D1,Conceição do Castelo/ES,-20.3601311,-41.2470343,1,7.85978
1,Conceição do Coité/BA,-11.5629384,-39.2839543,8,12.00985
1,Conceição do Jacuípe/BA,-12.326831,-38.768433,5,15.08159
1,Conceição do Lago-Açu/MA,-3.8410056,-44.8930565,21,129.33424
D1,Conceição do Lago-Açu/MA,-3.8410056,-44.8930565,1,6.15877
1,Conceição do Rio Verde/MG,-21.881078,-45.0868526,2,14.66491
1,Conceição/PB,-7.5565059,-38.5053706,2,10.53630
1,Conchal/SP,-22.337512,-47.172927,2,7.13012
1,Conchas/SP,-23.0133538,-48.0077595,5,27.93920
D1,Conchas/SP,-23.0133538,-48.0077595,1,5.58784
1,Concórdia do Pará/PA,-1.9924056,-47.9450474,69,207.09526
D1,Concórdia do Pará/PA,-1.9924056,-47.9450474,1,3.00138
1,Concórdia/SC,-27.2312011,-52.0231024,461,617.62302
D1,Concórdia/SC,-27.2312011,-52.0231024,7,9.37822
1,Condado/PB,-6.9092101,-37.5966375,40,601.14217
1,Condado/PE,-7.587868,-35.09994,55,208.16775
D1,Condado/PE,-7.587868,-35.09994,10,37.84868
1,Conde/BA,-11.8129758,-37.6138705,1,3.87042
1,Conde/PB,-7.2600359,-34.9053524,62,251.31739
D1,Conde/PB,-7.2600359,-34.9053524,2,8.10701
1,Condor/RS,-28.2058277,-53.4844696,7,103.65763
1,Confresa/MT,-10.643695,-51.569873,28,90.51822
1,Congo/PB,-7.80963435,-36.641233278035656,11,229.83702
D1,Congo/PB,-7.80963435,-36.641233278035656,1,20.89427
1,Congonhal/MG,-22.1532505,-46.0404698,1,8.36820
1,Congonhas/MG,-20.5015168,-43.8564586,2,3.65217
1,Conquista D'Oeste/MT,-14.5381171,-59.5443775,3,74.29421
1,Conselheiro Lafaiete/MG,-20.6596107,-43.785743,22,17.10877
1,Contagem/MG,-19.9132749,-44.0840953,134,20.18513
D1,Contagem/MG,-19.9132749,-44.0840953,8,1.20508
1,Contenda/PR,-25.678811,-49.535044,3,16.14292
1,Coqueiro Seco/AL,-9.637147,-35.799377,17,290.84688
1,Coração de Maria/BA,-12.2484345,-38.7499274,2,8.84760
1,Cordeiro/RJ,-22.0287681,-42.3607442,7,31.92557
1,Cordeirópolis/SP,-22.4768324,-47.4550551,40,163.07893
1,Cordilheira Alta/SC,-26.9853947,-52.603549,1,22.45677
1,Coreaú/CE,-3.5519794,-40.6528409,126,544.60581
1,Coremas/PB,-7.0175897,-37.9465062,12,77.69505
1,Corinto/MG,-18.363056,-44.456111,1,4.21390
1,Cornélio Procópio/PR,-23.1825218,-50.6499263,20,41.80165
1,Coroados/SP,-21.3554634,-50.2853589,10,165.07098
D1,Coroados/SP,-21.3554634,-50.2853589,1,16.50710
1,Coroatá/MA,-4.1282283,-44.1360269,166,254.22691
1,Coromandel/MG,-18.473889,-47.200278,7,25.02324
1,Coronel Bicaco/RS,-27.7174002,-53.705821,1,13.65188
1,Coronel Fabriciano/MG,-19.5200067,-42.6282686,21,19.11611
1,Coronel Freitas/SC,-26.9058932,-52.7028055,1,10.01904
1,Coronel João Pessoa/RN,-6.2607103,-38.4424915,2,40.71661
D1,Coronel João Pessoa/RN,-6.2607103,-38.4424915,1,20.35831
1,Coronel Vivida/PR,-25.9803771,-52.5654277,1,4.82300
1,Corrente/PI,-10.4401356,-45.1627472,17,63.80423
1,Correntes/PE,-9.1295585,-36.3287438,4,21.96957
D1,Correntes/PE,-9.1295585,-36.3287438,1,5.49239
1,Cortês/PE,-8.4724921,-35.5431197,18,143.10701
D1,Cortês/PE,-8.4724921,-35.5431197,3,23.85117
1,Corumbaíba/GO,-18.1348982,-48.564223,1,10.28489
D1,Corumbaíba/GO,-18.1348982,-48.564223,1,10.28489
1,Corumbá de Goiás/GO,-15.9268355,-48.8074659,1,9.00090
1,Corumbá/MS,-19.0016365,-57.6534316,24,21.53722
1,Coruripe/AL,-10.1249963,-36.1760623,63,110.65639
D1,Coruripe/AL,-10.1249963,-36.1760623,3,5.26935
1,Cosmorama/SP,-20.475472,-49.782747,2,27.37101
1,Cosmópolis/SP,-22.6437398,-47.1972086,15,20.76067
1,Cotia/SP,-23.603889,-46.918889,415,166.52622
D1,Cotia/SP,-23.603889,-46.918889,36,14.44565
1,Cotriguaçu/MT,-9.9034364,-58.5658915,2,10.12658
1,Couto Magalhães/TO,-8.360583,-49.1773955,12,214.74588
1,Couto de Magalhães de Minas/MG,-18.073016,-43.4718628,1,22.67574
1,Coxilha/RS,-28.1254442,-52.2979903,10,362.84470
1,Coxim/MS,-18.504915,-54.7450251,8,23.84998
1,Coxixola/PB,-7.6272915,-36.606013,4,208.22488
1,Crateús/CE,-5.1782451,-40.6696545,79,105.22951
D1,Crateús/CE,-5.1782451,-40.6696545,4,5.32808
1,Crato/CE,-7.2369112,-39.4149236,33,24.97673
1,Cravinhos/SP,-21.340278,-47.729444,17,48.16956
D1,Cravinhos/SP,-21.340278,-47.729444,1,2.83350
1,Cravolândia/BA,-13.3576247,-39.8153954,2,37.39017
1,Craíbas/AL,-9.6168038,-36.7684669,16,66.06383
1,Criciúma/SC,-28.6789941,-49.3695627,337,156.60870
D1,Criciúma/SC,-28.6789941,-49.3695627,6,2.78829
1,Crissiumal/RS,-27.4982242,-54.1024643,1,7.43605
1,Cristalina/GO,-16.7676079,-47.6131281,4,6.78001
D1,Cristalina/GO,-16.7676079,-47.6131281,1,1.69500
1,Cristina/MG,-22.212222,-45.264167,2,19.52744
1,Cristinápolis/SE,-11.4757019,-37.7555212,7,39.16303
1,Cristópolis/BA,-12.2349301,-44.4160811,3,21.56722
1,Crixás do Tocantins/TO,-11.1039404,-48.918827,1,58.07201
1,Croatá/CE,-4.4156199,-40.9048081,1,5.53618
1,Cruz Alta/RS,-28.645056,-53.6058047,8,13.26722
D1,Cruz Alta/RS,-28.645056,-53.6058047,1,1.65840
1,Cruz das Almas/BA,-12.6722649,-39.1053665,9,14.23172
1,Cruz do Espírito Santo/PB,-7.139022,-35.085721,86,496.56447
D1,Cruz do Espírito Santo/PB,-7.139022,-35.085721,6,34.64403
1,Cruz/CE,-2.918128,-40.175981,76,306.11834
D1,Cruz/CE,-2.918128,-40.175981,2,8.05575
1,Cruzaltense/RS,-27.667414,-52.6487833,7,381.88762
1,Cruzeiro do Iguaçu/PR,-25.6142278,-53.1299075,2,47.03669
1,Cruzeiro do Sul/AC,-7.6307956,-72.6703869,431,487.68897
D1,Cruzeiro do Sul/AC,-7.6307956,-72.6703869,4,4.52612
1,Cruzeiro do Sul/PR,-22.9623678,-52.1625688,6,134.25822
1,Cruzeiro do Sul/RS,-29.5139742,-51.9917068,28,226.75737
D1,Cruzeiro do Sul/RS,-29.5139742,-51.9917068,2,16.19695
1,Cruzeiro/SP,-22.5783685,-44.9642044,13,15.80778
D1,Cruzeiro/SP,-22.5783685,-44.9642044,2,2.43197
1,Cruzeta/RN,-6.4113343,-36.7872964,4,50.01250
1,Cruzília/MG,-21.838333,-44.808056,2,12.97269
1,Cubatão/SP,-23.8857982,-46.4241869,232,177.49895
D1,Cubatão/SP,-23.8857982,-46.4241869,17,13.00639
1,Cuiabá/MT,-15.5986686,-56.0991301,401,65.46436
D1,Cuiabá/MT,-15.5986686,-56.0991301,5,0.81626
1,Cuitegi/PB,-6.8962776,-35.5228851,32,470.38071
D1,Cuitegi/PB,-6.8962776,-35.5228851,1,14.69940
1,Cuité de Mamanguape/PB,-6.912922,-35.250219,3,47.22178
1,Cuité/PB,-6.4855072,-36.1478606,8,39.33523
1,Cujubim/RO,-9.3687919,-62.5832107,11,43.62483
D1,Cujubim/RO,-9.3687919,-62.5832107,1,3.96589
1,Cumaru do Norte/PA,-7.8122669,-50.7677675,4,29.68901
1,Cumaru/PE,-8.0065285,-35.6991651,17,155.87750
1,Cumbe/SE,-10.3552462,-37.1828788,1,25.08151
1,Cunha Porã/SC,-26.8927163,-53.1716516,9,81.18347
1,Cunha/SP,-23.07753,-44.9567436,3,13.92305
1,Cupira/PE,-8.6053148,-35.9530366,22,91.25980
D1,Cupira/PE,-8.6053148,-35.9530366,1,4.14817
1,Curaçá/BA,-8.9925655,-39.9053169,13,37.46398
1,Curimatá/PI,-10.0349005,-44.3033114,2,17.56235
1,Curionópolis/PA,-6.0990443,-49.6059039,73,407.16158
D1,Curionópolis/PA,-6.0990443,-49.6059039,3,16.73267
1,Curitiba/PR,-25.4295963,-49.2712724,711,36.78021
D1,Curitiba/PR,-25.4295963,-49.2712724,35,1.81056
1,Currais Novos/RN,-6.2626676,-36.5173039,16,35.72545
D1,Currais Novos/RN,-6.2626676,-36.5173039,1,2.23284
1,Curral de Cima/PB,-6.7174163,-35.266704,3,57.39430
1,Curralinho/PA,-1.8137876,-49.7980165,41,119.01997
D1,Curralinho/PA,-1.8137876,-49.7980165,3,8.70878
1,Cururupu/MA,-1.824255,-44.872996,22,67.28858
D1,Cururupu/MA,-1.824255,-44.872996,1,3.05857
1,Curuá/PA,-1.887754,-55.116842,6,41.68693
1,Curuçá/PA,-0.7276792,-47.856568,105,262.06759
D1,Curuçá/PA,-0.7276792,-47.856568,26,64.89293
1,Curvelo/MG,-18.7571926,-44.4305993,40,49.91950
1,Curvelândia/MT,-15.6108629,-57.9188924,4,76.64304
D1,Curvelândia/MT,-15.6108629,-57.9188924,1,19.16076
1,Custódia/PE,-8.0861426,-37.6401873,37,99.70090
D1,Custódia/PE,-8.0861426,-37.6401873,6,16.16771
1,Cutias/AP,0.9708625,-50.8000608,70,1169.98161
D1,Cutias/AP,0.9708625,-50.8000608,1,16.71402
1,Cáceres/MT,-16.0658939,-57.6852775,19,20.13224
D1,Cáceres/MT,-16.0658939,-57.6852775,3,3.17877
1,Cândido Mendes/MA,-1.4531117,-45.7273136,19,94.16196
1,Cândido Mota/SP,-22.7434964,-50.38924,4,12.78772
1,Cândido Rodrigues/SP,-21.3255615,-48.6308798,2,71.60759
1,Céu Azul/PR,-25.1484973,-53.8494214,5,42.49894
1,Córrego do Bom Jesus/MG,-22.630556,-46.019723,4,107.99136
1,Damião/PB,-6.64317595,-35.933835193092264,1,18.76173
1,Darcinópolis/TO,-6.7085964,-47.7524283,62,1016.89355
1,Davinópolis/MA,-5.5265775,-47.3942217,30,232.41401
D1,Davinópolis/MA,-5.5265775,-47.3942217,2,15.49427
1,Delfim Moreira/MG,-22.5086783,-45.2792398,5,62.30530
1,Delfinópolis/MG,-20.344749,-46.8546425,1,14.05679
1,Delmiro Gouveia/AL,-9.3841161,-37.997756,5,9.61243
D1,Delmiro Gouveia/AL,-9.3841161,-37.997756,1,1.92249
1,Demerval Lobão/PI,-5.3640643,-42.673993,20,144.74922
1,Deodápolis/MS,-22.276272,-54.168163,3,23.21263
1,Deputado Irapuan Pinheiro/CE,-5.9173532,-39.2672104,4,41.55844
1,Derrubadas/RS,-27.2657279,-53.8618488,1,35.65062
1,Descalvado/SP,-21.9090404,-47.6203241,3,8.89732
1,Desterro/PB,-7.2889695,-37.0880761,2,24.10510
1,Diadema/SP,-23.681347,-46.62052,806,190.14636
D1,Diadema/SP,-23.681347,-46.62052,61,14.39073
1,Diamante do Sul/PR,-25.0436147,-52.6800923,2,58.15644
1,Diamantina/MG,-18.2440862,-43.6006487,7,14.66798
1,Dianópolis/TO,-11.624008,-46.819787,1,4.51692
1,Dias d'Ávila/BA,-12.6107233,-38.3028518,27,33.29675
D1,Dias d'Ávila/BA,-12.6107233,-38.3028518,2,2.46643
1,Dionísio/MG,-19.841944,-42.776945,5,64.69142
1,Dirceu Arcoverde/PI,-9.3413101,-42.4362055,7,99.84310
1,Divina Pastora/SE,-10.6783231,-37.1482727,2,38.92565
1,Divino das Laranjeiras/MG,-18.7775,-41.479167,1,20.08435
1,Divino de São Lourenço/ES,-20.6201409,-41.6834749,2,46.46840
1,Divino/MG,-20.6151497,-42.1474733,3,15.05193
1,Divinolândia/SP,-21.6604584,-46.7371151,1,8.97183
1,Divinésia/MG,-20.990277,-43.003889,1,29.26544
1,Divinópolis do Tocantins/TO,-9.8015722,-49.2143531,1,14.49275
1,Divinópolis/MG,-20.1434559,-44.89125,136,57.08769
D1,Divinópolis/MG,-20.1434559,-44.89125,2,0.83952
1,Divisa Nova/MG,-21.5126801,-46.1926626,1,16.63617
1,Dobrada/SP,-21.5180904,-48.3938897,3,33.59839
1,Dois Córregos/SP,-22.3697554,-48.3845315,2,7.32198
D1,Dois Córregos/SP,-22.3697554,-48.3845315,2,7.32198
1,Dois Irmãos/RS,-29.58356,-51.089776,3,9.18246
1,Dois Riachos/AL,-9.384645,-37.096502,2,18.05869
1,Dois Vizinhos/PR,-25.7464681,-53.0554369,1,2.46057
1,Dom Aquino/MT,-15.809899,-54.922298,2,24.45586
1,Dom Basílio/BA,-13.7589818,-41.7715676,2,16.39479
1,Dom Eliseu/PA,-4.2928111,-47.5559083,163,272.94496
D1,Dom Eliseu/PA,-4.2928111,-47.5559083,3,5.02353
1,Dom Expedito Lopes/PI,-6.9644926,-41.648155,4,57.93743
1,Dom Feliciano/RS,-30.70214,-52.1080845,3,19.46283
1,Dom Inocêncio/PI,-9.0009167,-41.974038,1,10.46463
1,Dom Pedrito/RS,-30.983755,-54.6746483,9,23.40033
D1,Dom Pedrito/RS,-30.983755,-54.6746483,1,2.60004
1,Dom Pedro/MA,-5.0389999,-44.4377854,30,128.47966
1,Domingos Martins/ES,-20.3646483,-40.6585797,66,194.97784
1,Dona Inês/PB,-6.6032239,-35.627146,1,9.56663
1,Dormentes/PE,-8.441163,-40.766168,1,5.28877
1,Douradina/MS,-22.0402812,-54.6118292,12,202.56583
1,Douradina/PR,-23.3847331,-53.2932989,1,11.43249
1,Dourado/SP,-22.1124638,-48.3151079,2,22.54029
1,Dourados/MS,-22.2206145,-54.812208,102,45.75037
D1,Dourados/MS,-22.2206145,-54.812208,1,0.44853
1,Doutor Camargo/PR,-23.5575611,-52.2185546,1,16.72520
1,Doutor Maurício Cardoso/RS,-27.5067264,-54.3626756,1,21.98285
D1,Doutor Maurício Cardoso/RS,-27.5067264,-54.3626756,1,21.98285
1,Doutor Ricardo/RS,-29.0901549,-51.9894847,3,151.28593
1,Doutor Severiano/RN,-6.0948339,-38.3748,3,42.39683
1,Dracena/SP,-21.4835523,-51.5334408,28,59.83801
D1,Dracena/SP,-21.4835523,-51.5334408,2,4.27414
1,Duartina/SP,-22.414562,-49.408355,1,8.03536
1,Duas Estradas/PB,-6.6883382,-35.4175255,12,333.70412
1,Dueré/TO,-11.341631,-49.271566,5,106.70081
1,Dumont/SP,-21.2391417,-47.9747665,3,30.40130
1,Duque Bacelar/MA,-4.1542795,-42.946096,11,96.92484
1,Duque de Caxias/RJ,-22.7896225,-43.309929,1177,127.99099
D1,Duque de Caxias/RJ,-22.7896225,-43.309929,180,19.57381
1,Dário Meira/BA,-14.4332181,-39.9028712,4,37.34827
1,Ecoporanga/ES,-18.3720918,-40.8321351,40,174.49723
D1,Ecoporanga/ES,-18.3720918,-40.8321351,3,13.08729
1,Edéia/GO,-17.3407253,-49.9292351,1,8.08277
1,Eirunepé/AM,-6.6567654,-69.866161,75,212.62722
1,Eldorado do Carajás/PA,-6.1029246,-49.3572487,8,23.66304
D1,Eldorado do Carajás/PA,-6.1029246,-49.3572487,1,2.95788
1,Eldorado do Sul/RS,-29.9984639,-51.3091977,8,19.37750
D1,Eldorado do Sul/RS,-29.9984639,-51.3091977,1,2.42219
1,Eldorado/SP,-24.522583,-48.1093489,3,19.36233
D1,Eldorado/SP,-24.522583,-48.1093489,1,6.45411
1,Elesbão Veloso/PI,-6.2032654,-42.1376937,16,109.57403
D1,Elesbão Veloso/PI,-6.2032654,-42.1376937,1,6.84838
1,Elias Fausto/SP,-23.0416538,-47.3718002,4,22.50731
D1,Elias Fausto/SP,-23.0416538,-47.3718002,1,5.62683
1,Elisiário/SP,-21.1673392,-49.1111015,1,27.38976
1,Elói Mendes/MG,-21.6094466,-45.5660211,6,21.37057
1,Emas/PB,-7.1071447,-37.7155578,1,28.39296
1,Embu das Artes/SP,-23.6495294,-46.8528497,373,136.26765
D1,Embu das Artes/SP,-23.6495294,-46.8528497,36,13.15184
1,Embu-Guaçu/SP,-23.8317997,-46.8156204,86,123.94610
D1,Embu-Guaçu/SP,-23.8317997,-46.8156204,7,10.08864
1,Emilianópolis/SP,-21.831436,-51.483168,4,124.45551
1,Encantado/RS,-29.2392716,-51.8744817,36,158.54840
D1,Encantado/RS,-29.2392716,-51.8744817,1,4.40412
1,Encanto/RN,-6.1107477,-38.3050953,12,212.84143
D1,Encanto/RN,-6.1107477,-38.3050953,2,35.47357
1,Encruzilhada do Sul/RS,-30.53619325,-52.51564721101029,2,7.72887
D1,Encruzilhada do Sul/RS,-30.53619325,-52.51564721101029,1,3.86444
1,Encruzilhada/BA,-15.5322113,-40.9072488,1,5.88028
1,Engenheiro Coelho/SP,-22.4896659,-47.2119005,11,52.95335
1,Engenheiro Navarro/MG,-17.286622,-43.9515719,1,13.80834
1,Engenheiro Paulo de Frontin/RJ,-22.5504556,-43.6783403,6,42.85102
D1,Engenheiro Paulo de Frontin/RJ,-22.5504556,-43.6783403,1,7.14184
1,Entre Rios/BA,-11.9423743,-38.0836985,1,2.39349
1,Entre Rios/SC,-26.7236463,-52.5638445,29,905.40119
1,Epitaciolândia/AC,-11.0289439,-68.7411519,40,217.26142
1,Erebango/RS,-27.8542708,-52.3029274,4,133.73454
1,Erechim/RS,-27.6350143,-52.2737288,60,56.67756
D1,Erechim/RS,-27.6350143,-52.2737288,1,0.94463
1,Ererê/CE,-6.0311304,-38.3482173,19,263.96221
D1,Ererê/CE,-6.0311304,-38.3482173,2,27.78550
1,Ernestina/RS,-28.498434,-52.5702451,2,63.13131
1,Erval Grande/RS,-27.3910282,-52.5703742,3,61.74110
1,Ervália/MG,-20.8400156,-42.653352,1,5.29241
1,Escada/PE,-8.3594071,-35.2232683,95,137.93103
D1,Escada/PE,-8.3594071,-35.2232683,11,15.97096
1,Esmeraldas/MG,-19.7613111,-44.3145945,6,8.50437
1,Espera Feliz/MG,-20.6494192,-41.9080693,13,52.10212
1,Esperantina/PI,-3.8950963,-42.2370595,94,236.55535
D1,Esperantina/PI,-3.8950963,-42.2370595,1,2.51655
1,Esperantina/TO,-5.3658232,-48.5368181,7,63.65951
1,Esperantinópolis/MA,-4.8751875,-44.8801032,65,377.00829
D1,Esperantinópolis/MA,-4.8751875,-44.8801032,1,5.80013
1,Esperança do Sul/RS,-27.3617442,-53.9909736,11,375.93985
D1,Esperança do Sul/RS,-27.3617442,-53.9909736,1,34.17635
1,Esperança/PB,-7.018517,-35.852193,40,121.18642
1,Espigão D'Oeste/RO,-11.532175,-61.0130935,11,33.97788
D1,Espigão D'Oeste/RO,-11.532175,-61.0130935,1,3.08890
1,Espinosa/MG,-14.9232007,-42.8093337,3,9.48857
D1,Espinosa/MG,-14.9232007,-42.8093337,1,3.16286
1,Espumoso/RS,-28.7256962,-52.8453751,9,57.73672
D1,Espumoso/RS,-28.7256962,-52.8453751,1,6.41519
1,Espírito Santo do Dourado/MG,-22.046666,-45.950833,3,63.93862
1,Espírito Santo do Pinhal/SP,-22.190871,-46.74767,4,9.02323
1,Espírito Santo/RN,-6.3317917,-35.3096508,1,9.51928
1,Estação/RS,-27.9128965,-52.2606058,10,167.84156
1,Esteio/RS,-29.8511627,-51.1778852,22,26.44167
1,Estiva Gerbi/SP,-22.2754831,-46.9525448,1,8.84643
1,Estiva/MG,-22.4638686,-46.0182101,5,44.03734
1,Estreito/MA,-6.5583016,-47.4432212,111,264.62595
1,Estrela Dalva/MG,-21.741666,-42.460833,3,128.04097
D1,Estrela Dalva/MG,-21.741666,-42.460833,1,42.68032
1,Estrela d'Oeste/SP,-20.2860692,-50.3986216,1,11.87790
1,Estrela do Sul/MG,-18.7420499,-47.6900736,1,12.53447
1,Estrela/RS,-29.5010545,-51.962226,85,249.14996
D1,Estrela/RS,-29.5010545,-51.962226,1,2.93118
1,Estância Velha/RS,-29.6529666,-51.1719687,22,43.98065
1,Estância/SE,-11.2682255,-37.4378341,109,157.55088
D1,Estância/SE,-11.2682255,-37.4378341,2,2.89084
1,Euclides da Cunha/BA,-10.5060835,-39.0129875,3,4.95172
1,Eugenópolis/MG,-21.0968165,-42.1850985,3,26.60754
1,Eunápolis/BA,-16.3722412,-39.575704,50,44.09949
1,Eusébio/CE,-3.8889838,-38.4546585,491,915.73725
D1,Eusébio/CE,-3.8889838,-38.4546585,11,20.51550
1,Extrema/MG,-22.8549109,-46.3190079,68,187.71567
D1,Extrema/MG,-22.8549109,-46.3190079,3,8.28157
1,Extremoz/RN,-5.7092903,-35.3058914,65,227.40790
D1,Extremoz/RN,-5.7092903,-35.3058914,1,3.49858
1,Fagundes/PB,-7.3577473,-35.7839735,3,26.65956
1,Faina/GO,-15.4458005,-50.3633826,1,15.08978
1,Faria Lemos/MG,-20.8051202,-42.0127393,4,123.41870
1,Farias Brito/CE,-6.9272823,-39.5714222,26,133.67609
D1,Farias Brito/CE,-6.9272823,-39.5714222,3,15.42416
1,Faro/PA,-1.1091625500000002,-57.800250715708856,1,13.90047
1,Farroupilha/RS,-29.22647,-51.3468188,178,246.09089
D1,Farroupilha/RS,-29.22647,-51.3468188,4,5.53013
1,Fartura do Piauí/PI,-9.4839171,-42.7906894,1,18.84304
1,Fartura/SP,-23.390039,-49.5109023,8,49.88775
D1,Fartura/SP,-23.390039,-49.5109023,1,6.23597
1,Faxinal dos Guedes/SC,-26.8476897,-52.2604154,13,121.87119
1,Faxinal/PR,-24.001065,-51.3223237,2,11.59353
1,Fazenda Rio Grande/PR,-25.645841,-49.3126653,45,44.90615
D1,Fazenda Rio Grande/PR,-25.645841,-49.3126653,4,3.99166
1,Fazenda Vilanova/RS,-29.588511,-51.821714,4,88.24178
1,Feijó/AC,-8.1648652,-70.3539579,2,5.75043
1,Feira Grande/AL,-9.8944239,-36.6793255,9,40.60272
1,Feira Nova do Maranhão/MA,-6.965082,-46.678577,5,58.79586
D1,Feira Nova do Maranhão/MA,-6.965082,-46.678577,1,11.75917
1,Feira Nova/PE,-7.9481471,-35.3871681,71,320.81695
D1,Feira Nova/PE,-7.9481471,-35.3871681,6,27.11129
1,Feira Nova/SE,-10.2629878,-37.3131265,2,35.81662
1,Feira de Santana/BA,-12.2578934,-38.9598047,260,42.28522
D1,Feira de Santana/BA,-12.2578934,-38.9598047,3,0.48791
1,Felipe Guerra/RN,-5.5979694,-37.6961704,33,551.37845
1,Feliz Deserto/AL,-10.292494,-36.3028583,1,21.03492
1,Feliz/RS,-29.4508908,-51.307713,5,36.90854
1,Fernandes Pinheiro/PR,-25.4148066,-50.5489837,1,17.71165
1,Fernando Falcão/MA,-6.1512461,-44.9022436,15,144.78764
1,Fernando Pedroza/RN,-5.6972558,-36.5316864,1,32.74394
1,Fernando Prestes/SP,-21.266061,-48.687384,2,34.58413
1,Fernando de Noronha/PE,-3.8561012,-32.4248189,42,1372.10062
1,Fernandópolis/SP,-20.2825647,-50.2500762,34,49.19266
1,Fernão/SP,-22.3595388,-49.5209504,1,58.27506
1,Ferraz de Vasconcelos/SP,-23.541056,-46.37097,300,154.41949
D1,Ferraz de Vasconcelos/SP,-23.541056,-46.37097,30,15.44195
1,Ferreira Gomes/AP,0.8580838,-51.1814,54,694.08740
D1,Ferreira Gomes/AP,0.8580838,-51.1814,2,25.70694
1,Ferreiros/PE,-7.449667,-35.2426004,36,296.95620
D1,Ferreiros/PE,-7.449667,-35.2426004,5,41.24392
1,Ferros/MG,-19.234984,-43.019542,6,61.09980
1,Fervedouro/MG,-20.7292242,-42.2785942,3,27.25786
1,Figueira/PR,-23.8481018,-50.4059875,1,12.87001
1,Figueirópolis/TO,-12.1347916,-49.1737141,6,114.00342
D1,Figueirópolis/TO,-12.1347916,-49.1737141,1,19.00057
1,Filadélfia/TO,-7.3395833,-47.496372,3,33.87534
1,Flexeiras/AL,-9.2788679,-35.7235246,3,23.45582
D1,Flexeiras/AL,-9.2788679,-35.7235246,1,7.81861
1,Flores da Cunha/RS,-29.030129,-51.1833349,7,22.76793
1,Flores/PE,-7.862025,-37.9742806,1,4.42008
1,Floresta Azul/BA,-14.8602238,-39.6561384,4,37.63289
1,Floresta do Araguaia/PA,-7.5597065,-49.7032829,2,9.85028
1,Floresta/PE,-8.5998918,-38.5706775,6,18.25206
D1,Floresta/PE,-8.5998918,-38.5706775,2,6.08402
1,Floresta/PR,-23.6144046,-52.0819003,2,29.52465
1,Floriano Peixoto/RS,-27.8603248,-52.0856015,6,339.75085
1,Floriano/PI,-6.7726534,-43.0070616,54,90.09761
1,Florianópolis/SC,-27.5973002,-48.5496098,568,113.37936
D1,Florianópolis/SC,-27.5973002,-48.5496098,5,0.99806
1,Florânia/RN,-6.1268685,-36.8183238,1,10.96972
1,Flórida Paulista/SP,-21.614061,-51.1729548,2,13.66120
1,Fonte Boa/AM,-2.55,-66.91321428571428,146,829.12147
D1,Fonte Boa/AM,-2.55,-66.91321428571428,5,28.39457
1,Fontoura Xavier/RS,-28.981655,-52.344455,4,38.81988
1,Formiga/MG,-20.4648425,-45.4266753,9,13.29728
1,Formigueiro/RS,-29.9982245,-53.5029931,1,15.00600
1,Formosa da Serra Negra/MA,-6.4437601,-46.1905789,20,104.77238
1,Formosa/GO,-15.5492443,-47.3301212,19,15.62282
1,Formoso do Araguaia/TO,-11.8059989,-49.5257153,17,92.19089
1,Forquilha/CE,-3.799447,-40.263405,11,45.42076
D1,Forquilha/CE,-3.799447,-40.263405,2,8.25832
1,Forquilhinha/SC,-28.7487602,-49.4737661,23,85.84332
1,Fortaleza dos Nogueiras/MA,-6.9643779,-46.1703933,15,118.75544
1,Fortaleza/CE,-3.7304512,-38.5217989,18644,698.44928
D1,Fortaleza/CE,-3.7304512,-38.5217989,1574,58.96584
1,Fortim/CE,-4.451256,-37.798056,24,145.63107
1,Fortuna/MA,-5.7331469,-44.154276,12,77.16049
1,Foz do Iguaçu/PR,-25.5401479,-54.5858139,81,31.33074
D1,Foz do Iguaçu/PR,-25.5401479,-54.5858139,2,0.77360
1,Fraiburgo/SC,-27.023288,-50.919978,12,32.92813
1,Franca/SP,-20.5381768,-47.4009795,69,19.53639
D1,Franca/SP,-20.5381768,-47.4009795,2,0.56627
1,Francinópolis/PI,-6.3962771,-42.2635654,5,93.49289
1,Francisco Ayres/PI,-6.6217571,-42.6941944,1,22.99908
1,Francisco Beltrão/PR,-26.0790979,-53.0533527,13,14.27113
D1,Francisco Beltrão/PR,-26.0790979,-53.0533527,1,1.09778
1,Francisco Morato/SP,-23.2817308,-46.7448996,256,145.58359
D1,Francisco Morato/SP,-23.2817308,-46.7448996,18,10.23635
1,Francisco Santos/PI,-6.9944754,-41.1345548,3,32.19230
1,Franco da Rocha/SP,-23.3328038,-46.724446,317,205.19260
D1,Franco da Rocha/SP,-23.3328038,-46.724446,34,22.00804
1,Frecheirinha/CE,-3.755572,-40.818019,19,135.01990
1,Frederico Westphalen/RS,-27.35711,-53.3964117,21,67.06480
D1,Frederico Westphalen/RS,-27.35711,-53.3964117,1,3.19356
1,Frei Inocêncio/MG,-18.563076,-41.9064881,1,10.40474
1,Frei Miguelinho/PE,-7.9433019,-35.920939,38,245.84331
D1,Frei Miguelinho/PE,-7.9433019,-35.920939,3,19.40868
1,Frei Paulo/SE,-10.549956,-37.5356071,12,77.81597
D1,Frei Paulo/SE,-10.549956,-37.5356071,1,6.48466
1,Fronteira/MG,-20.286111,-49.202778,1,5.52395
1,Fronteiras/PI,-7.088607,-40.6147253,4,34.40860
1,Frutal/MG,-20.0220064,-48.9280076,11,18.48864
D1,Frutal/MG,-20.0220064,-48.9280076,1,1.68079
1,Frutuoso Gomes/RN,-6.1585113,-37.8408614,2,49.16421
1,Fundão/ES,-19.9332174,-40.4049674,91,423.07871
D1,Fundão/ES,-19.9332174,-40.4049674,7,32.54452
1,Fátima do Sul/MS,-22.3750499,-54.516698,16,83.38110
1,Fátima/TO,-10.7575656,-48.9031328,5,130.37810
1,Gado Bravo/PB,-7.5830516,-35.7914371,15,180.37518
D1,Gado Bravo/PB,-7.5830516,-35.7914371,1,12.02501
1,Galinhos/RN,-5.0923928,-36.2744827,1,35.89375
1,Gameleira/PE,-8.579803,-35.384573,16,51.52647
D1,Gameleira/PE,-8.579803,-35.384573,3,9.66121
1,Gandu/BA,-13.7448138,-39.4844732,5,15.43067
D1,Gandu/BA,-13.7448138,-39.4844732,1,3.08613
1,Garanhuns/PE,-8.8905889,-36.4930896,122,87.27502
D1,Garanhuns/PE,-8.8905889,-36.4930896,9,6.43832
1,Gararu/SE,-9.9688996,-37.0827962,2,17.23544
D1,Gararu/SE,-9.9688996,-37.0827962,1,8.61772
1,Garibaldi/RS,-29.2562253,-51.5269167,214,610.20816
D1,Garibaldi/RS,-29.2562253,-51.5269167,4,11.40576
1,Garopaba/SC,-28.0274798,-48.6240197,3,12.99939
1,Garrafão do Norte/PA,-1.9282256,-47.0513157,46,176.47510
D1,Garrafão do Norte/PA,-1.9282256,-47.0513157,1,3.83642
1,Garuva/SC,-26.0294904,-48.8545202,3,16.53348
D1,Garuva/SC,-26.0294904,-48.8545202,1,5.51116
1,Garça/SP,-22.2125766,-49.6547994,9,20.27484
1,Gaspar/SC,-26.9307306,-48.9566824,37,53.13115
D1,Gaspar/SC,-26.9307306,-48.9566824,1,1.43598
1,Gastão Vidigal/SP,-20.7952902,-50.1905016,4,83.19468
D1,Gastão Vidigal/SP,-20.7952902,-50.1905016,1,20.79867
1,Gaurama/RS,-27.5879319,-52.0927073,10,180.70112
1,Gavião Peixoto/SP,-21.8377536,-48.492853,2,41.76237
1,General Carneiro/PR,-26.422982,-51.3146691,2,14.58789
1,General Câmara/RS,-29.9058172,-51.7626264,2,23.85212
1,General Maynard/SE,-10.6855125,-36.98492,1,29.88643
1,General Salgado/SP,-20.6488139,-50.3608101,2,18.40096
1,General Sampaio/CE,-4.0503563,-39.4484058,11,144.39485
D1,General Sampaio/CE,-4.0503563,-39.4484058,3,39.38041
1,Gentil/RS,-28.4319165,-52.0348748,5,305.99755
1,Getulina/SP,-21.7988557,-49.9288096,1,8.76501
1,Getúlio Vargas/RS,-27.8871493,-52.2257967,5,30.84135
1,Girau do Ponciano/AL,-9.884041,-36.831592,7,17.10780
1,Glorinha/RS,-29.8790534,-50.7869437,1,12.34873
1,Glória de Dourados/MS,-22.4173731,-54.2313391,2,20.07025
1,Glória do Goitá/PE,-7.999959,-35.2866116,58,189.51771
D1,Glória do Goitá/PE,-7.999959,-35.2866116,12,39.21056
1,Godofredo Viana/MA,-1.4147105,-45.7713182,10,84.60953
1,Goiana/PE,-7.560603,-34.99591,207,259.53509
D1,Goiana/PE,-7.560603,-34.99591,23,28.83723
1,Goiandira/GO,-18.1357087,-48.0866307,3,53.57143
D1,Goiandira/GO,-18.1357087,-48.0866307,1,17.85714
1,Goianinha/RN,-6.2663538,-35.2092447,15,56.97356
1,Goianira/GO,-16.5001973,-49.4254788,3,6.77369
1,Goianá/MG,-21.5375,-43.2014,2,50.42864
1,Goianésia do Pará/PA,-3.8380998,-49.0977992,24,59.29586
D1,Goianésia do Pará/PA,-3.8380998,-49.0977992,1,2.47066
1,Goianésia/GO,-15.3118269,-49.1162001,33,47.08635
D1,Goianésia/GO,-15.3118269,-49.1162001,3,4.28058
1,Goiatins/TO,-7.7132054,-47.3154841,18,138.25947
D1,Goiatins/TO,-7.7132054,-47.3154841,1,7.68108
1,Goiatuba/GO,-18.0154577,-49.3640591,10,29.32981
D1,Goiatuba/GO,-18.0154577,-49.3640591,1,2.93298
1,Goioerê/PR,-24.1851885,-53.0250623,5,17.31062
1,Goioxim/PR,-25.1987274,-51.9924229,1,14.06272
1,Goiânia/GO,-16.680882,-49.2532691,1164,76.77528
D1,Goiânia/GO,-16.680882,-49.2532691,41,2.70428
1,Gongogi/BA,-14.3240248,-39.4665106,12,168.35017
D1,Gongogi/BA,-14.3240248,-39.4665106,2,28.05836
1,Gonçalves Dias/MA,-5.1532875,-44.2997071,7,39.03201
1,Gouveia/MG,-18.4545728,-43.7415904,1,8.45666
1,Governador Archer/MA,-5.023562,-44.2709924,1,9.22509
1,Governador Celso Ramos/SC,-27.317161,-48.557608,24,165.84894
1,Governador Dix-Sept Rosado/RN,-5.4576782,-37.5209263,6,46.02286
1,Governador Edison Lobão/MA,-5.7456705,-47.363091,45,245.95540
1,Governador Eugênio Barros/MA,-5.3200262,-44.2440583,1,5.94248
1,Governador Jorge Teixeira/RO,-10.6140224,-62.7326412,4,51.49994
1,Governador Mangabeira/BA,-12.6038648,-39.0372154,2,9.65158
1,Governador Newton Bello/MA,-3.4285914,-45.6714297,10,98.23183
1,Governador Nunes Freire/MA,-2.1303959,-45.8900498,31,121.20264
1,Governador Valadares/MG,-18.8539497,-41.9458753,106,37.87270
D1,Governador Valadares/MG,-18.8539497,-41.9458753,5,1.78645
1,Graccho Cardoso/SE,-10.238671100000001,-37.20556291018945,9,154.69233
1,Grajaú/MA,-5.8154034,-46.1361454,101,145.26731
1,Gramado Xavier/RS,-29.2702991,-52.5785872,1,23.12139
1,Gramado dos Loureiros/RS,-27.4439526,-52.9183699,8,384.24592
1,Gramado/RS,-29.3787488,-50.8724941,8,22.07993
1,Granito/PE,-7.7145682,-39.6164505,1,13.35827
1,Granja/CE,-3.1212057,-40.8284124,42,76.71513
D1,Granja/CE,-3.1212057,-40.8284124,2,3.65310
1,Gravatal/SC,-28.3300703,-49.0362296,25,217.37240
D1,Gravatal/SC,-28.3300703,-49.0362296,1,8.69490
1,Gravataí/RS,-29.9440222,-50.9930938,35,12.43255
D1,Gravataí/RS,-29.9440222,-50.9930938,3,1.06565
1,Gravatá/PE,-8.1993049,-35.5631137,73,86.82827
D1,Gravatá/PE,-8.1993049,-35.5631137,7,8.32600
1,Graça Aranha/MA,-5.405468,-44.335816,5,79.84669
1,Graça/CE,-4.0453849,-40.7527195,35,243.07244
1,Groaíras/CE,-3.9157768,-40.3855093,32,289.12179
D1,Groaíras/CE,-3.9157768,-40.3855093,1,9.03506
1,Grossos/RN,-4.9843455,-37.1511253,6,57.78677
D1,Grossos/RN,-4.9843455,-37.1511253,1,9.63113
1,Grão Pará/SC,-28.1856937,-49.2163956,3,45.66905
1,Guabiruba/SC,-27.0864326,-48.9781319,6,25.17623
D1,Guabiruba/SC,-27.0864326,-48.9781319,1,4.19604
1,Guaimbê/SP,-21.909072,-49.89861,2,34.69211
1,Guairaçá/PR,-22.9352304,-52.6865101,7,106.36681
D1,Guairaçá/PR,-22.9352304,-52.6865101,1,15.19526
1,Guaiçara/SP,-21.619537,-49.801287,2,16.43655
1,Guaiúba/CE,-4.0412656,-38.6369079,57,218.69245
D1,Guaiúba/CE,-4.0412656,-38.6369079,5,19.18355
1,Guajará-Mirim/RO,-10.7804239,-65.3327825,116,251.22363
D1,Guajará-Mirim/RO,-10.7804239,-65.3327825,19,41.14870
1,Guajará/AM,-7.5455927,-72.5832769,13,77.94700
D1,Guajará/AM,-7.5455927,-72.5832769,1,5.99592
1,Guamaré/RN,-5.1075294,-36.3196635,21,134.10818
1,Guanambi/BA,-14.223066,-42.779943,4,4.73479
1,Guanhães/MG,-18.7753627,-42.9340634,2,5.82768
1,Guapiara/SP,-24.18921,-48.529549,2,11.65705
1,Guapiaçu/SP,-20.79663,-49.2253917,19,88.56157
D1,Guapiaçu/SP,-20.79663,-49.2253917,1,4.66114
1,Guapimirim/RJ,-22.5266308,-42.9790687,57,94.18841
D1,Guapimirim/RJ,-22.5266308,-42.9790687,7,11.56700
1,Guaporé/RS,-28.8471928,-51.8907881,12,46.64360
1,Guapé/MG,-20.7619447,-45.9174969,2,14.04001
1,Guapó/GO,-16.8308602,-49.5343721,7,49.26455
1,Guarabira/PB,-6.8513982,-35.4915582,399,678.19081
D1,Guarabira/PB,-6.8513982,-35.4915582,3,5.09918
1,Guaraci/PR,-22.970394,-51.6479769,5,90.87605
1,Guaraci/SP,-20.4976771,-48.9452074,1,8.93815
1,Guaraciaba do Norte/CE,-4.1632924,-40.7495985,36,88.57832
D1,Guaraciaba do Norte/CE,-4.1632924,-40.7495985,2,4.92102
1,Guaramiranga/CE,-4.2615431,-38.9339337,10,192.56692
1,Guaramirim/SC,-26.468753,-49.002628,31,69.16709
1,Guarani d'Oeste/SP,-20.0737613,-50.3379634,1,50.00000
1,Guaraniaçu/PR,-25.10035,-52.867811,9,72.16164
1,Guarantã do Norte/MT,-9.9517992,-54.9098178,4,11.16819
1,Guaranésia/MG,-21.3024827,-46.7956962,1,5.25735
1,Guarapari/ES,-20.6718755,-40.4984617,146,116.93190
D1,Guarapari/ES,-20.6718755,-40.4984617,5,4.00452
1,Guarapuava/PR,-25.3950986,-51.4622016,20,11.01904
1,Guaraqueçaba/PR,-25.2983566,-48.3290185,1,13.09586
D1,Guaraqueçaba/PR,-25.2983566,-48.3290185,1,13.09586
1,Guararapes/SP,-21.2537115,-50.6441746,15,45.53872
D1,Guararapes/SP,-21.2537115,-50.6441746,1,3.03591
1,Guararema/SP,-23.4133724,-46.0379249,32,107.38976
D1,Guararema/SP,-23.4133724,-46.0379249,5,16.77965
1,Guarará/MG,-21.731945,-43.037777,1,26.34352
1,Guaratinga/BA,-16.5802498,-39.7808088,1,4.79777
1,Guaratinguetá/SP,-22.8057839,-45.1908926,20,16.42063
D1,Guaratinguetá/SP,-22.8057839,-45.1908926,1,0.82103
1,Guaratuba/PR,-25.8806192,-48.5750905,6,16.18690
1,Guaraçaí/SP,-21.031027,-51.2064201,3,36.04470
1,Guaraí/TO,-8.835429,-48.511432,24,92.58188
D1,Guaraí/TO,-8.835429,-48.511432,1,3.85758
1,Guareí/SP,-23.3718195,-48.184685,3,16.19870
1,Guariba/SP,-21.35938,-48.23158,3,7.48036
1,Guarujá/SP,-23.9927768,-46.2558332,469,146.35258
D1,Guarujá/SP,-23.9927768,-46.2558332,34,10.60978
1,Guarulhos/SP,-23.4430602,-46.524459,1995,144.65096
D1,Guarulhos/SP,-23.4430602,-46.524459,225,16.31402
1,Guará/SP,-20.4290496,-47.8250067,1,4.71254
D1,Guará/SP,-20.4290496,-47.8250067,1,4.71254
1,Guatambú/SC,-27.1333139,-52.7852104,21,446.42857
1,Guaxupé/MG,-21.3087615,-46.7190609,8,15.40921
1,Guaçuí/ES,-20.7726679,-41.6750657,28,90.71176
D1,Guaçuí/ES,-20.7726679,-41.6750657,2,6.47941
1,Guaíba/RS,-30.1130731,-51.329442,27,27.51088
D1,Guaíba/RS,-30.1130731,-51.329442,1,1.01892
1,Guaíra/PR,-24.0851924,-54.2567519,14,42.27181
D1,Guaíra/PR,-24.0851924,-54.2567519,3,9.05824
1,Guaíra/SP,-20.3245873,-48.3148818,11,26.96739
1,Guia Lopes da Laguna/MS,-21.5375346,-55.96134153440401,144,1455.28044
1,Guimarânia/MG,-18.8442251,-46.7925141,2,24.87872
1,Guimarães/MA,-2.127551,-44.60199,20,166.25104
D1,Guimarães/MA,-2.127551,-44.60199,1,8.31255
1,Gurinhém/PB,-7.1244757,-35.424854,23,162.78576
1,Gurjão/PB,-7.2470565,-36.4862714,3,87.51459
1,Gurupi/TO,-11.72794,-49.068046,73,84.24989
D1,Gurupi/TO,-11.72794,-49.068046,1,1.15411
1,Gurupá/PA,-1.406325,-51.6427456,11,32.95781
D1,Gurupá/PA,-1.406325,-51.6427456,2,5.99233
1,Guzolândia/SP,-20.6491637,-50.6622974,1,18.98614
1,Harmonia/RS,-29.549989,-51.422308,5,102.75380
1,Heliodora/MG,-22.0675,-45.542222,1,15.24855
1,Herculândia/SP,-22.004508,-50.3862746,3,31.49276
1,Herval d'Oeste/SC,-27.17361,-51.4903659,6,26.54163
1,Hidrolândia/CE,-4.4084745,-40.4065472,12,60.06607
D1,Hidrolândia/CE,-4.4084745,-40.4065472,1,5.00551
1,Hidrolândia/GO,-16.9671342,-49.22826,17,78.31936
D1,Hidrolândia/GO,-16.9671342,-49.22826,1,4.60702
1,Holambra/SP,-22.6332028,-47.0545305,10,66.97924
1,Horizonte/CE,-4.0964618,-38.4965574,203,301.46873
D1,Horizonte/CE,-4.0964618,-38.4965574,14,20.79095
1,Horizontina/RS,-27.627931,-54.3090256,7,36.21501
1,Hortolândia/SP,-22.85833,-47.22,114,49.38250
D1,Hortolândia/SP,-22.85833,-47.22,12,5.19816
1,Hugo Napoleão/PI,-5.989919,-42.5593218,3,77.37942
1,Humaitá/AM,-7.5099404,-63.0248674,36,65.35948
D1,Humaitá/AM,-7.5099404,-63.0248674,1,1.81554
1,Humaitá/RS,-27.5660564,-53.9719817,6,125.99748
1,Humberto de Campos/MA,-2.598282,-43.464877,30,104.46774
1,Iacanga/SP,-21.8928341,-49.0226082,2,17.07942
1,Iapu/MG,-19.436389,-42.217223,3,27.26281
1,Iati/PE,-9.0426669,-36.8466803,1,5.20915
1,Iaçu/BA,-12.7672074,-40.2106427,7,28.80066
D1,Iaçu/BA,-12.7672074,-40.2106427,2,8.22876
1,Ibaiti/PR,-23.8452962,-50.1905666,2,6.37674
1,Ibaretama/CE,-4.8194345,-38.8208476,4,29.95582
D1,Ibaretama/CE,-4.8194345,-38.8208476,3,22.46686
1,Ibateguara/AL,-8.9737196,-35.9279963,4,25.61475
D1,Ibateguara/AL,-8.9737196,-35.9279963,3,19.21107
1,Ibatiba/ES,-20.2342792,-41.5082981,10,38.34062
1,Ibaté/SP,-21.9554092,-47.9989614,11,31.33546
1,Ibema/PR,-25.1192916,-53.0071928,13,204.65995
1,Ibiapina/CE,-3.9228792,-40.8890296,15,60.00720
1,Ibiara/PB,-7.4997862,-38.4034987,2,33.73250
1,Ibiaí/MG,-16.861111,-44.913889,1,11.91185
1,Ibicaraí/BA,-14.8625311,-39.5890865,13,59.93822
1,Ibicuitinga/CE,-4.9751759,-38.6368754,61,487.02595
D1,Ibicuitinga/CE,-4.9751759,-38.6368754,1,7.98403
1,Ibimirim/PE,-8.5379259,-37.6941375,20,68.41115
D1,Ibimirim/PE,-8.5379259,-37.6941375,5,17.10279
1,Ibiporã/PR,-23.265941,-51.052243,3,5.49874
1,Ibirajuba/PE,-8.5795521,-36.178045,1,12.88328
1,Ibirama/SC,-27.0536613,-49.5191153,1,5.27704
1,Ibirapitanga/BA,-14.1615686,-39.369522,6,25.66845
D1,Ibirapitanga/BA,-14.1615686,-39.369522,1,4.27807
1,Ibirapuitã/RS,-28.6226503,-52.5170577,15,373.78520
D1,Ibirapuitã/RS,-28.6226503,-52.5170577,2,49.83803
1,Ibirarema/SP,-22.8138003,-50.0737669,5,64.49116
1,Ibirataia/BA,-14.0689024,-39.6394008,11,71.83908
D1,Ibirataia/BA,-14.0689024,-39.6394008,1,6.53083
1,Ibiraçu/ES,-19.8309496,-40.3686594,18,144.24233
D1,Ibiraçu/ES,-19.8309496,-40.3686594,1,8.01346
1,Ibirité/MG,-20.0214251,-44.0621506,24,13.31824
D1,Ibirité/MG,-20.0214251,-44.0621506,1,0.55493
1,Ibirubá/RS,-28.630161,-53.096124,9,44.22604
1,Ibirá/SP,-21.0815104,-49.2424619,4,32.27628
1,Ibitinga/SP,-21.75623,-48.831903,11,18.32326
D1,Ibitinga/SP,-21.75623,-48.831903,2,3.33150
1,Ibitirama/ES,-20.539374,-41.664695,1,11.24986
1,Ibiá/MG,-19.4771843,-46.5386956,1,3.96841
1,Ibiúna/SP,-23.6548363,-47.2210116,66,83.67352
D1,Ibiúna/SP,-23.6548363,-47.2210116,2,2.53556
1,Ibotirama/BA,-12.1829519,-43.2181138,1,3.71374
1,Icapuí/CE,-4.7158474,-37.3535365,42,210.69529
D1,Icapuí/CE,-4.7158474,-37.3535365,3,15.04966
1,Icaraí de Minas/MG,-16.2176592,-44.9023441,1,8.34028
1,Icatu/MA,-2.772065,-44.050061,5,18.44134
D1,Icatu/MA,-2.772065,-44.050061,1,3.68827
1,Iconha/ES,-20.7935003,-40.8108852,11,79.36508
1,Icó/CE,-6.4003992,-38.8575946,34,49.98677
D1,Icó/CE,-6.4003992,-38.8575946,3,4.41060
1,Ielmo Marinho/RN,-5.8227944,-35.551993,12,87.17129
1,Iepê/SP,-22.660165,-51.077881,1,12.25640
D1,Iepê/SP,-22.660165,-51.077881,1,12.25640
1,Igaci/AL,-9.537678,-36.637191,1,3.90153
1,Igaracy/PB,-7.1819802,-38.1487395,4,65.39153
