type,name,lat,lon,total,total_per_100k_inhabitants
1,Abadia de Goiás/GO,-16.7572644,-49.4412205,3247,35455.33959
D1,Abadia de Goiás/GO,-16.7572644,-49.4412205,46,502.29308
1,Abadia dos Dourados/MG,-18.4911191,-47.4063589,1606,22870.97693
D1,Abadia dos Dourados/MG,-18.4911191,-47.4063589,20,284.81914
1,Abadiânia/GO,-16.1940946,-48.7067767,1659,7948.06688
D1,Abadiânia/GO,-16.1940946,-48.7067767,54,258.70742
1,Abaetetuba/PA,-1.721828,-48.878843,10705,6672.31783
D1,Abaetetuba/PA,-1.721828,-48.878843,239,148.96627
1,Abaeté/MG,-19.1566833,-45.4481213,3281,14103.94188
D1,Abaeté/MG,-19.1566833,-45.4481213,49,210.63491
1,Abaiara/CE,-7.3607808,-39.0487878,995,8315.92144
D1,Abaiara/CE,-7.3607808,-39.0487878,19,158.79649
1,Abaré/BA,-8.7239913,-39.1139689,2336,11343.10964
D1,Abaré/BA,-8.7239913,-39.1139689,17,82.54832
1,Abatiá/PR,-23.3052967,-50.3102532,1609,21861.41304
D1,Abatiá/PR,-23.3052967,-50.3102532,23,312.50000
1,Abaíra/BA,-13.2503296,-41.6640342,333,3835.96360
D1,Abaíra/BA,-13.2503296,-41.6640342,17,195.82997
1,Abdon Batista/SC,-27.612419,-51.022992,510,20126.28256
D1,Abdon Batista/SC,-27.612419,-51.022992,4,157.85320
1,Abel Figueiredo/PA,-4.953001,-48.3958485,1433,19015.39278
D1,Abel Figueiredo/PA,-4.953001,-48.3958485,12,159.23567
1,Abelardo Luz/SC,-26.5705893,-52.3280339,2308,12811.54593
D1,Abelardo Luz/SC,-26.5705893,-52.3280339,68,377.46323
1,Abre Campo/MG,-20.2976097,-42.4764741,1926,14336.75748
D1,Abre Campo/MG,-20.2976097,-42.4764741,19,141.43219
1,Abreu e Lima/PE,-7.900719,-34.898389,4781,4747.85994
D1,Abreu e Lima/PE,-7.900719,-34.898389,258,256.21164
1,Abreulândia/TO,-9.6221526,-49.1558343,447,17133.00115
D1,Abreulândia/TO,-9.6221526,-49.1558343,8,306.63089
1,Acaiaca/MG,-20.3621646,-43.1444162,270,6758.44806
D1,Acaiaca/MG,-20.3621646,-43.1444162,12,300.37547
1,Acajutiba/BA,-11.6609659,-38.0186381,627,4121.20415
D1,Acajutiba/BA,-11.6609659,-38.0186381,26,170.89523
1,Acarape/CE,-4.2237866,-38.7071663,3178,20990.75297
D1,Acarape/CE,-4.2237866,-38.7071663,36,237.78071
1,Acaraú/CE,-2.8869514,-40.1194713,6593,10373.52886
D1,Acaraú/CE,-2.8869514,-40.1194713,121,190.38328
1,Acari/RN,-6.4364689,-36.6394777,1360,12245.63299
D1,Acari/RN,-6.4364689,-36.6394777,25,225.10355
1,Acará/PA,-1.961388,-48.1987043,2440,4377.15270
D1,Acará/PA,-1.961388,-48.1987043,42,75.34443
1,Acauã/PI,-8.219542,-41.083059,228,3202.69701
D1,Acauã/PI,-8.219542,-41.083059,2,28.09383
1,Aceguá/RS,-31.8695131,-54.1615593,940,18871.71251
D1,Aceguá/RS,-31.8695131,-54.1615593,8,160.61032
1,Acopiara/CE,-6.0936464,-39.4543204,5260,9618.37365
D1,Acopiara/CE,-6.0936464,-39.4543204,164,299.88846
1,Acorizal/MT,-15.2001544,-56.3668953,1210,22791.48616
D1,Acorizal/MT,-15.2001544,-56.3668953,24,452.06254
1,Acrelândia/AC,-10.0759167,-67.0526898,2893,18402.13727
D1,Acrelândia/AC,-10.0759167,-67.0526898,40,254.43674
1,Acreúna/GO,-17.3959899,-50.3749031,4946,21778.95200
D1,Acreúna/GO,-17.3959899,-50.3749031,83,365.47776
1,Adamantina/SP,-21.6866517,-51.0762975,8646,24595.34037
D1,Adamantina/SP,-21.6866517,-51.0762975,175,497.82380
1,Adelândia/GO,-16.4155077,-50.1665834,553,21988.07157
D1,Adelândia/GO,-16.4155077,-50.1665834,6,238.56859
1,Adolfo/SP,-21.2356597,-49.6441918,811,22877.29196
D1,Adolfo/SP,-21.2356597,-49.6441918,24,677.00987
1,Adrianópolis/PR,-24.6557863,-48.9912769,1922,33155.08021
D1,Adrianópolis/PR,-24.6557863,-48.9912769,30,517.50906
1,Adustina/BA,-10.5358875,-38.114479,1369,7955.13975
D1,Adustina/BA,-10.5358875,-38.114479,28,162.70556
1,Afogados da Ingazeira/PE,-7.750429,-37.6356375,8278,22047.62158
D1,Afogados da Ingazeira/PE,-7.750429,-37.6356375,79,210.40857
1,Afonso Bezerra/RN,-5.4745,-36.57625071327935,1206,10939.76778
D1,Afonso Bezerra/RN,-5.4745,-36.57625071327935,19,172.35123
1,Afonso Cláudio/ES,-20.077841,-41.12606,7409,24431.18116
D1,Afonso Cláudio/ES,-20.077841,-41.12606,83,273.69254
1,Afonso Cunha/MA,-4.1326105,-43.3230026,301,4539.28518
D1,Afonso Cunha/MA,-4.1326105,-43.3230026,2,30.16136
1,Afrânio/PE,-8.5198919,-41.0070197,1363,6821.48041
D1,Afrânio/PE,-8.5198919,-41.0070197,16,80.07607
1,Afuá/PA,-0.1535664,-50.3879223,3490,8744.67552
D1,Afuá/PA,-0.1535664,-50.3879223,17,42.59584
1,Agrestina/PE,-8.4558021,-35.9442663,2637,10447.70206
D1,Agrestina/PE,-8.4558021,-35.9442663,73,289.22345
1,Agricolândia/PI,-5.7967843,-42.6605131,830,16201.44447
D1,Agricolândia/PI,-5.7967843,-42.6605131,10,195.19813
1,Agrolândia/SC,-27.4122212,-49.8295774,2270,20340.50179
D1,Agrolândia/SC,-27.4122212,-49.8295774,34,304.65950
1,Agronômica/SC,-27.2660744,-49.7104753,1208,21687.61221
D1,Agronômica/SC,-27.2660744,-49.7104753,15,269.29982
1,Aguanil/MG,-20.9424533,-45.3927152,1297,28461.70726
D1,Aguanil/MG,-20.9424533,-45.3927152,8,175.55409
1,Aguaí/SP,-22.0592036,-46.979384,6243,16881.64192
D1,Aguaí/SP,-22.0592036,-46.979384,133,359.64414
1,Agudo/RS,-29.6423259,-53.2494005,3324,20337.73862
D1,Agudo/RS,-29.6423259,-53.2494005,38,232.50122
1,Agudos do Sul/PR,-25.9890808,-49.3328175,1577,16483.74621
D1,Agudos do Sul/PR,-25.9890808,-49.3328175,34,355.38831
1,Agudos/SP,-22.471162,-48.987822,6834,18184.23713
D1,Agudos/SP,-22.471162,-48.987822,120,319.30179
1,Aguiar/PB,-7.0928404,-38.1727215,860,15297.04731
D1,Aguiar/PB,-7.0928404,-38.1727215,7,124.51085
1,Aguiarnópolis/TO,-6.5600452,-47.4721189,964,13675.69868
D1,Aguiarnópolis/TO,-6.5600452,-47.4721189,15,212.79614
1,Aimorés/MG,-19.4917754,-41.0615603,3448,13728.30068
D1,Aimorés/MG,-19.4917754,-41.0615603,88,350.37426
1,Aiquara/BA,-14.126918,-39.8887574,608,13859.12925
D1,Aiquara/BA,-14.126918,-39.8887574,12,273.53545
1,Aiuaba/CE,-6.5710836,-40.1212278,1184,6733.39399
D1,Aiuaba/CE,-6.5710836,-40.1212278,16,90.99181
1,Aiuruoca/MG,-21.9759554,-44.6036637,917,15414.35535
D1,Aiuruoca/MG,-21.9759554,-44.6036637,13,218.52412
1,Ajuricaba/RS,-28.239654,-53.7693013,2109,30340.95814
D1,Ajuricaba/RS,-28.239654,-53.7693013,37,532.29751
1,Alagoa Grande/PB,-7.0415212,-35.6285322,5456,19222.09696
D1,Alagoa Grande/PB,-7.0415212,-35.6285322,78,274.80271
1,Alagoa Nova/PB,-7.0653703,-35.76695977336711,2800,13338.41463
D1,Alagoa Nova/PB,-7.0653703,-35.76695977336711,37,176.25762
1,Alagoa/MG,-22.1697202,-44.6400042,664,24990.59089
D1,Alagoa/MG,-22.1697202,-44.6400042,8,301.09146
1,Alagoinha do Piauí/PI,-7.0090952,-40.939675,402,5235.73847
D1,Alagoinha do Piauí/PI,-7.0090952,-40.939675,13,169.31493
1,Alagoinha/PB,-6.97063215,-35.51490901897793,2446,16720.21328
D1,Alagoinha/PB,-6.97063215,-35.51490901897793,26,177.72917
1,Alagoinha/PE,-8.50355635,-36.77701174370496,2714,18340.31626
D1,Alagoinha/PE,-8.50355635,-36.77701174370496,31,209.48777
1,Alagoinhas/BA,-12.133526,-38.420772,17580,11488.46905
D1,Alagoinhas/BA,-12.133526,-38.420772,351,229.37728
1,Alambari/SP,-23.550338,-47.897971,1313,21072.05906
D1,Alambari/SP,-23.550338,-47.897971,13,208.63425
1,Albertina/MG,-20.66164,-43.784039,686,22752.90216
D1,Albertina/MG,-20.66164,-43.784039,11,364.84245
1,Alcantil/PB,-7.7425491,-36.0609604,1237,22381.03854
D1,Alcantil/PB,-7.7425491,-36.0609604,9,162.83698
1,Alcinópolis/MS,-18.3264121,-53.7094463,867,15795.22682
D1,Alcinópolis/MS,-18.3264121,-53.7094463,14,255.05557
1,Alcobaça/BA,-17.5215875,-39.1965474,2256,10022.65760
D1,Alcobaça/BA,-17.5215875,-39.1965474,32,142.16536
1,Alcântara/MA,-2.4038956,-44.4154241,337,1523.09500
D1,Alcântara/MA,-2.4038956,-44.4154241,21,94.91096
1,Alcântaras/CE,-3.586247,-40.5457641,2228,18808.03647
D1,Alcântaras/CE,-3.586247,-40.5457641,23,194.15837
1,Aldeias Altas/MA,-4.6291957,-43.4708622,1159,4295.93387
D1,Aldeias Altas/MA,-4.6291957,-43.4708622,14,51.89221
1,Alecrim/RS,-27.6566142,-54.7653195,625,10945.70928
D1,Alecrim/RS,-27.6566142,-54.7653195,13,227.67075
1,Alegre/ES,-20.7625787,-41.5318886,7566,25330.61033
D1,Alegre/ES,-20.7625787,-41.5318886,86,287.92393
1,Alegrete do Piauí/PI,-7.2440138,-40.8602296,584,11867.50660
D1,Alegrete do Piauí/PI,-7.2440138,-40.8602296,9,182.88966
1,Alegrete/RS,-29.790166,-55.794862,17676,24383.04388
D1,Alegrete/RS,-29.790166,-55.794862,327,451.07804
1,Alegria/RS,-27.8332103,-54.0574959,555,16884.69729
D1,Alegria/RS,-27.8332103,-54.0574959,5,152.11439
1,Alenquer/PA,-1.946229,-54.738355,5314,9259.45287
D1,Alenquer/PA,-1.946229,-54.738355,169,294.47639
1,Alexandria/RN,-6.414779,-38.0135516,2414,17843.15175
D1,Alexandria/RN,-6.414779,-38.0135516,33,243.92047
1,Alexânia/GO,-16.0834049,-48.5077803,6619,23339.21016
D1,Alexânia/GO,-16.0834049,-48.5077803,114,401.97461
1,Alfenas/MG,-21.4297405,-45.9479419,21844,26976.89353
D1,Alfenas/MG,-21.4297405,-45.9479419,248,306.27493
1,Alfredo Chaves/ES,-20.624970400000002,-40.75006690147988,4503,30695.29652
D1,Alfredo Chaves/ES,-20.624970400000002,-40.75006690147988,47,320.38173
1,Alfredo Marcondes/SP,-21.9527,-51.413956,304,7236.37229
D1,Alfredo Marcondes/SP,-21.9527,-51.413956,18,428.46941
1,Alfredo Vasconcelos/MG,-21.145833,-43.776389,1252,17753.82870
D1,Alfredo Vasconcelos/MG,-21.145833,-43.776389,16,226.88599
1,Alfredo Wagner/SC,-27.6961513,-49.3326734,1449,14295.58011
D1,Alfredo Wagner/SC,-27.6961513,-49.3326734,12,118.38990
1,Algodão de Jandaíra/PB,-6.9040175,-36.0089879,499,19281.29830
D1,Algodão de Jandaíra/PB,-6.9040175,-36.0089879,1,38.63988
1,Alhandra/PB,-7.4304246,-34.9106103,3022,15212.68563
D1,Alhandra/PB,-7.4304246,-34.9106103,47,236.59703
1,Aliança do Tocantins/TO,-11.3055927,-48.9409096,1205,22722.98699
D1,Aliança do Tocantins/TO,-11.3055927,-48.9409096,25,471.43127
1,Aliança/PE,-7.60398,-35.222696,2094,5451.98917
D1,Aliança/PE,-7.60398,-35.222696,83,216.10081
1,Almadina/BA,-14.70466,-39.6381994,775,14697.51565
D1,Almadina/BA,-14.70466,-39.6381994,13,246.53897
1,Almas/TO,-11.5681309,-47.1702803,314,4547.42940
D1,Almas/TO,-11.5681309,-47.1702803,5,72.41130
1,Almeirim/PA,-1.5290377,-52.5788111,4549,13362.11961
D1,Almeirim/PA,-1.5290377,-52.5788111,55,161.55563
1,Almenara/MG,-16.1740678,-40.6904907,6761,15953.27985
D1,Almenara/MG,-16.1740678,-40.6904907,65,153.37423
1,Almino Afonso/RN,-6.1544208,-37.7649018,735,15688.36713
D1,Almino Afonso/RN,-6.1544208,-37.7649018,14,298.82604
1,Almirante Tamandaré do Sul/RS,-28.1141129,-52.9134874,568,29354.00517
D1,Almirante Tamandaré do Sul/RS,-28.1141129,-52.9134874,7,361.75711
1,Almirante Tamandaré/PR,-25.3133048,-49.2997838,16574,13650.14001
D1,Almirante Tamandaré/PR,-25.3133048,-49.2997838,455,374.73233
1,Aloândia/GO,-17.7277983,-49.4809338,467,23633.60324
D1,Aloândia/GO,-17.7277983,-49.4809338,11,556.68016
1,Alpercata/MG,-18.9803616,-41.9827637,589,7908.16327
D1,Alpercata/MG,-18.9803616,-41.9827637,23,308.80773
1,Alpestre/RS,-27.2512339,-53.0349646,1271,21597.28122
D1,Alpestre/RS,-27.2512339,-53.0349646,17,288.87001
1,Alpinópolis/MG,-20.863611,-46.387777,4078,20330.02642
D1,Alpinópolis/MG,-20.863611,-46.387777,51,254.24996
1,Alta Floresta D'Oeste/RO,-11.9296917,-61.9961284,8088,35921.12276
D1,Alta Floresta D'Oeste/RO,-11.9296917,-61.9961284,81,359.74418
1,Alta Floresta/MT,-9.8715018,-56.0839881,16894,32422.99204
D1,Alta Floresta/MT,-9.8715018,-56.0839881,174,333.94108
1,Altair/SP,-20.5238955,-49.0606135,320,7599.14510
D1,Altair/SP,-20.5238955,-49.0606135,18,427.45191
1,Altamira do Maranhão/MA,-4.1643006,-45.4674574,499,6048.48485
D1,Altamira do Maranhão/MA,-4.1643006,-45.4674574,14,169.69697
1,Altamira do Paraná/PR,-24.799114,-52.7128633,564,39468.15955
D1,Altamira do Paraná/PR,-24.799114,-52.7128633,14,979.70609
1,Altamira/PA,-3.204065,-52.209961,21109,17992.66962
D1,Altamira/PA,-3.204065,-52.209961,353,300.88646
1,Altaneira/CE,-6.9980933,-39.7385742,880,11410.78838
D1,Altaneira/CE,-6.9980933,-39.7385742,19,246.36929
1,Alterosa/MG,-21.249166,-46.143055,2010,13799.25855
D1,Alterosa/MG,-21.249166,-46.143055,41,281.47741
1,Altinho/PE,-8.4904095,-36.0607494,1695,7370.84710
D1,Altinho/PE,-8.4904095,-36.0607494,30,130.45747
1,Altinópolis/SP,-21.021364,-47.3712,1233,7601.25763
D1,Altinópolis/SP,-21.021364,-47.3712,65,400.71512
1,Alto Alegre do Maranhão/MA,-4.2055693,-44.4525287,2048,7297.08544
D1,Alto Alegre do Maranhão/MA,-4.2055693,-44.4525287,28,99.76484
1,Alto Alegre do Pindaré/MA,-3.6698186,-45.8462153,2529,7911.28351
D1,Alto Alegre do Pindaré/MA,-3.6698186,-45.8462153,54,168.92420
1,Alto Alegre dos Parecis/RO,-12.1314515,-61.856265,2287,17236.96111
D1,Alto Alegre dos Parecis/RO,-12.1314515,-61.856265,51,384.38348
1,Alto Alegre/RR,2.98858,-61.307167,2221,14564.88950
D1,Alto Alegre/RR,2.98858,-61.307167,39,255.75448
1,Alto Alegre/RS,-31.780844700000003,-52.81311114489171,417,26226.41509
D1,Alto Alegre/RS,-31.780844700000003,-52.81311114489171,2,125.78616
1,Alto Alegre/SP,-21.5820592,-50.1661976,408,10004.90436
D1,Alto Alegre/SP,-21.5820592,-50.1661976,23,564.00196
1,Alto Araguaia/MT,-17.3156528,-53.2169365,2972,15075.58081
D1,Alto Araguaia/MT,-17.3156528,-53.2169365,34,172.46627
1,Alto Bela Vista/SC,-27.4320737,-51.905771,487,25430.80940
D1,Alto Bela Vista/SC,-27.4320737,-51.905771,3,156.65796
1,Alto Boa Vista/MT,-11.6723985,-51.3744431,1353,19077.83418
D1,Alto Boa Vista/MT,-11.6723985,-51.3744431,19,267.90750
1,Alto Caparaó/MG,-20.4405661,-41.8683799,556,9363.42203
D1,Alto Caparaó/MG,-20.4405661,-41.8683799,10,168.40687
1,Alto Feliz/RS,-29.3785943,-51.3123751,712,23397.96254
D1,Alto Feliz/RS,-29.3785943,-51.3123751,4,131.44923
1,Alto Garças/MT,-16.9469683,-53.529427,1448,11750.38546
D1,Alto Garças/MT,-16.9469683,-53.529427,44,357.05591
1,Alto Horizonte/GO,-14.1954948,-49.3366993,2397,35270.74750
D1,Alto Horizonte/GO,-14.1954948,-49.3366993,16,235.43261
1,Alto Jequitibá/MG,-20.423611,-41.966111,1384,16702.87231
D1,Alto Jequitibá/MG,-20.423611,-41.966111,13,156.89114
1,Alto Longá/PI,-5.2549051,-42.2072388,860,5984.27388
D1,Alto Longá/PI,-5.2549051,-42.2072388,15,104.37687
1,Alto Paraguai/MT,-14.513712,-56.4936374,960,8285.14715
D1,Alto Paraguai/MT,-14.513712,-56.4936374,31,267.54121
1,Alto Paraná/PR,-23.131247,-52.318893,3087,20655.73770
D1,Alto Paraná/PR,-23.131247,-52.318893,28,187.35363
1,Alto Paraíso de Goiás/GO,-14.1304779,-47.5100161,1384,17855.76055
D1,Alto Paraíso de Goiás/GO,-14.1304779,-47.5100161,10,129.01561
1,Alto Paraíso/PR,-23.508137,-53.728537,1171,44524.71483
D1,Alto Paraíso/PR,-23.508137,-53.728537,10,380.22814
1,Alto Paraíso/RO,-9.7240103,-63.3188123,3663,16457.00422
D1,Alto Paraíso/RO,-9.7240103,-63.3188123,63,283.04430
1,Alto Parnaíba/MA,-9.112506,-45.9310154,1021,9089.29048
D1,Alto Parnaíba/MA,-9.112506,-45.9310154,11,97.92575
1,Alto Piquiri/PR,-24.0239021,-53.4417448,2496,25673.72969
D1,Alto Piquiri/PR,-24.0239021,-53.4417448,31,318.86443
1,Alto Rio Doce/MG,-21.0239537,-43.4133507,1003,9353.72564
D1,Alto Rio Doce/MG,-21.0239537,-43.4133507,31,289.09820
1,Alto Rio Novo/ES,-19.0577208,-41.0171518,1515,19150.54987
D1,Alto Rio Novo/ES,-19.0577208,-41.0171518,28,353.93756
1,Alto Santo/CE,-5.5190371,-38.2719351,2588,16097.53063
D1,Alto Santo/CE,-5.5190371,-38.2719351,43,267.46284
1,Alto Taquari/MT,-17.8269099,-53.2831736,1674,14667.48445
D1,Alto Taquari/MT,-17.8269099,-53.2831736,30,262.85814
1,Alto do Rodrigues/RN,-5.290868,-36.7616726,3650,24458.88896
D1,Alto do Rodrigues/RN,-5.290868,-36.7616726,43,288.14582
1,Altos/PI,-5.0393915,-42.4611694,5615,13802.51223
D1,Altos/PI,-5.0393915,-42.4611694,108,265.48020
1,Altônia/PR,-23.8722004,-53.894037,4571,20504.19414
D1,Altônia/PR,-23.8722004,-53.894037,53,237.74279
1,Alumínio/SP,-23.5203479,-47.2575256,1705,9019.73232
D1,Alumínio/SP,-23.5203479,-47.2575256,56,296.24927
1,Alvarenga/MG,-19.4175,-41.728334,541,14300.81946
D1,Alvarenga/MG,-19.4175,-41.728334,6,158.60428
1,Alvarães/AM,-3.214786,-64.8143124,3706,22603.07392
D1,Alvarães/AM,-3.214786,-64.8143124,46,280.55623
1,Alvinlândia/SP,-22.4431852,-49.7643596,150,4613.96493
D1,Alvinlândia/SP,-22.4431852,-49.7643596,10,307.59766
1,Alvinópolis/MG,-20.1105199,-43.0601805,2018,13333.33333
D1,Alvinópolis/MG,-20.1105199,-43.0601805,25,165.18005
1,Alvorada D'Oeste/RO,-11.346271,-62.284697,2598,18816.54233
D1,Alvorada D'Oeste/RO,-11.346271,-62.284697,38,275.22271
1,Alvorada de Minas/MG,-18.7318587,-43.3641479,468,12981.96949
D1,Alvorada de Minas/MG,-18.7318587,-43.3641479,4,110.95700
1,Alvorada do Gurguéia/PI,-8.4465288,-43.8655915,717,13110.25782
D1,Alvorada do Gurguéia/PI,-8.4465288,-43.8655915,14,255.98830
1,Alvorada do Norte/GO,-14.483911,-46.4959897,1285,14687.39284
D1,Alvorada do Norte/GO,-14.483911,-46.4959897,22,251.45731
1,Alvorada do Sul/PR,-22.7807269,-51.2307721,1583,13648.90498
D1,Alvorada do Sul/PR,-22.7807269,-51.2307721,34,293.15399
1,Alvorada/RS,-29.9981184,-51.0772509,34560,16274.86438
D1,Alvorada/RS,-29.9981184,-51.0772509,893,420.52818
1,Alvorada/TO,-12.478465,-49.124926,2866,34196.39661
D1,Alvorada/TO,-12.478465,-49.124926,32,381.81601
1,Além Paraíba/MG,-21.8760576,-42.6810473,6426,18133.07749
D1,Além Paraíba/MG,-21.8760576,-42.6810473,170,479.71104
1,Amajari/RR,3.6523869,-61.4194315,1361,10036.13303
D1,Amajari/RR,3.6523869,-61.4194315,25,184.35219
1,Amambai/MS,-23.1082701,-55.2284854,5897,14652.02375
D1,Amambai/MS,-23.1082701,-55.2284854,102,253.43504
1,Amaporã/PR,-23.094272,-52.786597,954,14894.61358
D1,Amaporã/PR,-23.094272,-52.786597,8,124.90242
1,Amapá do Maranhão/MA,-1.6762114,-46.0109669,172,2440.75493
D1,Amapá do Maranhão/MA,-1.6762114,-46.0109669,4,56.76174
1,Amapá/AP,2.0529997,-50.7930003,1876,20248.24609
D1,Amapá/AP,2.0529997,-50.7930003,13,140.31301
1,Amaraji/PE,-8.373925,-35.4536527,1230,5368.83457
D1,Amaraji/PE,-8.373925,-35.4536527,50,218.24531
1,Amaral Ferrador/RS,-30.8750633,-52.2542051,559,7833.52018
D1,Amaral Ferrador/RS,-30.8750633,-52.2542051,14,196.18834
1,Amaralina/GO,-13.9236199,-49.2962411,295,7612.90323
D1,Amaralina/GO,-13.9236199,-49.2962411,2,51.61290
1,Amarante do Maranhão/MA,-5.56913,-46.747284,2222,5288.33567
D1,Amarante do Maranhão/MA,-5.56913,-46.747284,64,152.31930
1,Amarante/PI,-6.2459374,-42.8476238,1739,9875.63178
D1,Amarante/PI,-6.2459374,-42.8476238,36,204.44091
1,Amargosa/BA,-13.03793715,-39.60796443875596,4626,12293.05626
D1,Amargosa/BA,-13.03793715,-39.60796443875596,62,164.75778
1,Amaturá/AM,-3.3640509,-68.1994689,2624,21987.59846
D1,Amaturá/AM,-3.3640509,-68.1994689,19,159.20898
1,Americana/SP,-22.7392463,-47.3306032,28017,11464.99161
D1,Americana/SP,-22.7392463,-47.3306032,957,391.61927
1,Americano do Brasil/GO,-16.2515808,-49.9806104,1926,30964.63023
D1,Americano do Brasil/GO,-16.2515808,-49.9806104,26,418.00643
1,Ametista do Sul/RS,-27.3617341,-53.1826575,1770,23931.85506
D1,Ametista do Sul/RS,-27.3617341,-53.1826575,28,378.58302
1,Amontada/CE,-3.3634586,-39.8284791,3564,8064.26066
D1,Amontada/CE,-3.3634586,-39.8284791,62,140.28736
1,Amorinópolis/GO,-16.6211308,-51.0949921,646,21454.66622
D1,Amorinópolis/GO,-16.6211308,-51.0949921,14,464.96181
1,Amparo de São Francisco/SE,-10.1299754,-36.9269099,258,10813.07628
D1,Amparo de São Francisco/SE,-10.1299754,-36.9269099,5,209.55574
1,Amparo do Serra/MG,-20.5070255,-42.8028462,306,6590.56644
D1,Amparo do Serra/MG,-20.5070255,-42.8028462,11,236.91579
1,Amparo/PB,-7.56394725,-37.04652873235175,283,12500.00000
D1,Amparo/PB,-7.56394725,-37.04652873235175,4,176.67845
1,Amparo/SP,-22.70111,-46.76444,10139,13861.50796
D1,Amparo/SP,-22.70111,-46.76444,252,344.52116
1,Ampére/PR,-25.9168712,-53.4742414,5494,28223.56930
D1,Ampére/PR,-25.9168712,-53.4742414,68,349.32703
1,Amélia Rodrigues/BA,-12.4015388,-38.7516971,2813,11253.35040
D1,Amélia Rodrigues/BA,-12.4015388,-38.7516971,53,212.02544
1,América Dourada/BA,-11.4515262,-41.4357517,1075,6682.82979
D1,América Dourada/BA,-11.4515262,-41.4357517,14,87.03220
1,Américo Brasiliense/SP,-21.7297099,-48.1052092,6175,14863.40113
D1,Américo Brasiliense/SP,-21.7297099,-48.1052092,107,257.55205
1,Américo de Campos/SP,-20.298476,-49.735904,1288,21491.74036
D1,Américo de Campos/SP,-20.298476,-49.735904,38,634.07309
1,Anadia/AL,-9.6830208,-36.3052699,1699,9704.68955
D1,Anadia/AL,-9.6830208,-36.3052699,37,211.34403
1,Anagé/BA,-14.6134669,-41.1376308,1222,5756.27679
D1,Anagé/BA,-14.6134669,-41.1376308,31,146.02666
1,Anahy/PR,-24.6450861,-53.1337957,735,26496.03461
D1,Anahy/PR,-24.6450861,-53.1337957,15,540.73540
1,Anajatuba/MA,-3.26441,-44.6179916,1615,5944.05594
D1,Anajatuba/MA,-3.26441,-44.6179916,29,106.73537
1,Anajás/PA,-0.9878802,-49.9390114,1387,4609.35163
D1,Anajás/PA,-0.9878802,-49.9390114,23,76.43481
1,Analândia/SP,-22.128917,-47.661939,584,11417.39980
D1,Analândia/SP,-22.128917,-47.661939,5,97.75171
1,Anamã/AM,-3.5797356,-61.4049996,2477,17331.37420
D1,Anamã/AM,-3.5797356,-61.4049996,11,76.96613
1,Ananindeua/PA,-1.374035,-48.4016623,30411,5627.39402
D1,Ananindeua/PA,-1.374035,-48.4016623,862,159.50852
1,Ananás/TO,-6.3663053,-48.080238,2249,23836.77795
D1,Ananás/TO,-6.3663053,-48.080238,28,296.76736
1,Anapu/PA,-3.4668292,-51.2057035,2436,8310.58952
D1,Anapu/PA,-3.4668292,-51.2057035,69,235.39847
1,Anapurus/MA,-3.6751298,-43.1046001,832,5182.50903
D1,Anapurus/MA,-3.6751298,-43.1046001,15,93.43466
1,Anastácio/MS,-20.4832458,-55.8048448,3236,12772.33975
D1,Anastácio/MS,-20.4832458,-55.8048448,92,363.11967
1,Anaurilândia/MS,-22.185169,-52.719056,1150,12615.18210
D1,Anaurilândia/MS,-22.185169,-52.719056,16,175.51558
1,Anchieta/ES,-20.8057672,-40.6454564,9761,32230.47713
D1,Anchieta/ES,-20.8057672,-40.6454564,114,376.42397
1,Anchieta/SC,-26.5350527,-53.3293938,1211,22110.64451
D1,Anchieta/SC,-26.5350527,-53.3293938,12,219.09805
1,Andaraí/BA,-12.8059674,-41.3322919,1286,9800.33531
D1,Andaraí/BA,-12.8059674,-41.3322919,14,106.69105
1,Andirá/PR,-23.0494761,-50.2310027,5541,27952.37855
D1,Andirá/PR,-23.0494761,-50.2310027,99,499.41987
1,Andorinha/BA,-10.3445708,-39.8334411,1332,9239.73363
D1,Andorinha/BA,-10.3445708,-39.8334411,19,131.79800
1,Andradas/MG,-22.0680484,-46.5688976,7083,16983.98235
D1,Andradas/MG,-22.0680484,-46.5688976,137,328.50566
1,Andradina/SP,-20.896505,-51.3742765,12348,21570.44283
D1,Andradina/SP,-20.896505,-51.3742765,310,541.53201
1,Andrelândia/MG,-21.739722,-44.308889,206,1690.04840
D1,Andrelândia/MG,-21.739722,-44.308889,18,147.67413
1,André da Rocha/RS,-28.6309124,-51.5733328,235,17394.52258
D1,André da Rocha/RS,-28.6309124,-51.5733328,1,74.01925
1,Angatuba/SP,-23.4938938,-48.4110675,4232,16451.56274
D1,Angatuba/SP,-23.4938938,-48.4110675,88,342.09299
1,Angelim/PE,-8.8902038,-36.2872987,285,2521.90072
D1,Angelim/PE,-8.8902038,-36.2872987,15,132.73162
1,Angelina/SC,-27.5805287,-48.9838759,929,19825.01067
D1,Angelina/SC,-27.5805287,-48.9838759,6,128.04097
1,Angelândia/MG,-17.7253,-42.2728,407,4735.86223
D1,Angelândia/MG,-17.7253,-42.2728,4,46.54410
1,Angical do Piauí/PI,-6.0872666,-42.7366138,901,13291.04588
D1,Angical do Piauí/PI,-6.0872666,-42.7366138,12,177.01726
1,Angical/BA,-12.005623,-44.7000236,1099,7905.33736
D1,Angical/BA,-12.005623,-44.7000236,21,151.05740
1,Angico/TO,-6.3893733,-47.8656722,252,7251.79856
D1,Angico/TO,-6.3893733,-47.8656722,5,143.88489
1,Angicos/RN,-5.6666344,-36.6009064,1267,10833.68961
D1,Angicos/RN,-5.6666344,-36.6009064,30,256.51988
1,Angra dos Reis/RJ,-23.0063966,-44.316326,22862,10877.80902
D1,Angra dos Reis/RJ,-23.0063966,-44.316326,608,289.28825
1,Anguera/BA,-12.1509425,-39.2452469,641,5638.13880
D1,Anguera/BA,-12.1509425,-39.2452469,2,17.59170
1,Angélica/MS,-22.1588196,-53.7728504,2137,19285.26306
D1,Angélica/MS,-22.1588196,-53.7728504,23,207.56249
1,Anhanguera/GO,-18.3338749,-48.220363,232,19812.12639
D1,Anhanguera/GO,-18.3338749,-48.220363,7,597.77968
1,Anhembi/SP,-22.7891096,-48.1316776,445,6439.01027
D1,Anhembi/SP,-22.7891096,-48.1316776,14,202.57560
1,Anhumas/SP,-22.2956478,-51.3873401,407,9755.51294
D1,Anhumas/SP,-22.2956478,-51.3873401,9,215.72387
1,Anicuns/GO,-16.4606451,-49.9572265,6886,31140.05336
D1,Anicuns/GO,-16.4606451,-49.9572265,80,361.77814
1,Anita Garibaldi/SC,-27.6855032,-51.1293873,1988,29308.56553
D1,Anita Garibaldi/SC,-27.6855032,-51.1293873,12,176.91287
1,Anitápolis/SC,-27.9041185,-49.1287395,641,19888.30282
D1,Anitápolis/SC,-27.9041185,-49.1287395,6,186.16196
1,Anori/AM,-3.7435254,-61.6605203,2670,12171.21758
D1,Anori/AM,-3.7435254,-61.6605203,33,150.43078
1,Anta Gorda/RS,-28.9718745,-52.0069187,993,16714.35785
D1,Anta Gorda/RS,-28.9718745,-52.0069187,8,134.65747
1,Antas/BA,-10.4114649,-38.3308815,1421,7228.24152
D1,Antas/BA,-10.4114649,-38.3308815,14,71.21420
1,Antonina do Norte/CE,-6.7754187,-39.9879345,990,13374.76358
D1,Antonina do Norte/CE,-6.7754187,-39.9879345,26,351.25642
1,Antonina/PR,-25.4298854,-48.7125431,4472,23637.61298
D1,Antonina/PR,-25.4298854,-48.7125431,73,385.85549
1,Antônio Almeida/PI,-7.2186016,-44.1950248,409,12881.88976
D1,Antônio Almeida/PI,-7.2186016,-44.1950248,11,346.45669
1,Antônio Cardoso/BA,-12.4363122,-39.1200307,1063,9108.82605
D1,Antônio Cardoso/BA,-12.4363122,-39.1200307,12,102.82776
1,Antônio Carlos/MG,-21.318334,-43.746666,1861,16223.52018
D1,Antônio Carlos/MG,-21.318334,-43.746666,20,174.35272
1,Antônio Carlos/SC,-27.5168462,-48.7684715,2863,32862.71809
D1,Antônio Carlos/SC,-27.5168462,-48.7684715,29,332.87420
1,Antônio Dias/MG,-19.6525,-42.872778,826,8946.17134
D1,Antônio Dias/MG,-19.6525,-42.872778,29,314.09076
1,Antônio Gonçalves/BA,-10.5715409,-40.2748824,1071,8958.59473
D1,Antônio Gonçalves/BA,-10.5715409,-40.2748824,10,83.64701
1,Antônio João/MS,-22.1892837,-55.9508227,1171,12893.63576
D1,Antônio João/MS,-22.1892837,-55.9508227,21,231.22660
1,Antônio Martins/RN,-6.2155812,-37.8890129,978,13655.40352
D1,Antônio Martins/RN,-6.2155812,-37.8890129,7,97.73806
1,Antônio Olinto/PR,-25.9849006,-50.1974516,1239,16695.86309
D1,Antônio Olinto/PR,-25.9849006,-50.1974516,17,229.07964
1,Antônio Prado de Minas/MG,-21.0171988,-42.1101106,166,10526.31579
D1,Antônio Prado de Minas/MG,-21.0171988,-42.1101106,5,317.05770
1,Antônio Prado/RS,-28.8567806,-51.2801355,4901,37581.47381
D1,Antônio Prado/RS,-28.8567806,-51.2801355,35,268.38433
1,Anápolis/GO,-16.3332828,-48.9525756,70458,17768.82222
D1,Anápolis/GO,-16.3332828,-48.9525756,1933,487.48380
1,Anísio de Abreu/PI,-9.185643,-43.04941,291,2911.74705
D1,Anísio de Abreu/PI,-9.185643,-43.04941,15,150.09005
1,Aparecida d'Oeste/SP,-20.4498109,-50.8808706,1492,36196.02135
D1,Aparecida d'Oeste/SP,-20.4498109,-50.8808706,22,533.72149
1,Aparecida de Goiânia/GO,-16.8226769,-49.2452546,133417,22168.03690
D1,Aparecida de Goiânia/GO,-16.8226769,-49.2452546,1962,325.99810
1,Aparecida do Rio Doce/GO,-18.2980167,-51.1491312,555,22433.30639
D1,Aparecida do Rio Doce/GO,-18.2980167,-51.1491312,6,242.52223
1,Aparecida do Rio Negro/TO,-9.9513491,-47.9773786,400,8161.59967
D1,Aparecida do Rio Negro/TO,-9.9513491,-47.9773786,13,265.25199
1,Aparecida do Taboado/MS,-20.0840304,-51.1013943,5956,22572.57637
D1,Aparecida do Taboado/MS,-20.0840304,-51.1013943,72,272.87198
1,Aparecida/PB,-6.7859598, -38.0831353,1524,17967.46050
D1,Aparecida/PB,-6.7859598, -38.0831353,16,188.63476
1,Aparecida/SP,-22.851552,-45.2340924,2963,8182.59645
D1,Aparecida/SP,-22.851552,-45.2340924,124,342.43738
1,Aperibé/RJ,-21.6211928,-42.1028167,1730,14373.54603
D1,Aperibé/RJ,-21.6211928,-42.1028167,35,290.79428
1,Apiacá/ES,-21.152272,-41.569297,2347,31119.06656
D1,Apiacá/ES,-21.152272,-41.569297,40,530.36330
1,Apiacás/MT,-9.5678422,-57.394852,3078,29508.19672
D1,Apiacás/MT,-9.5678422,-57.394852,19,182.14936
1,Apiaí/SP,-24.5076527,-48.8461582,1794,7449.85673
D1,Apiaí/SP,-24.5076527,-48.8461582,104,431.87575
1,Apicum-Açu/MA,-1.5279295,-45.082278,676,3844.84131
D1,Apicum-Açu/MA,-1.5279295,-45.082278,11,62.56399
1,Apiúna/SC,-27.0374658,-49.3885037,1611,14710.98530
D1,Apiúna/SC,-27.0374658,-49.3885037,20,182.63172
1,Apodi/RN,-5.6631109,-37.796927,8596,23941.62210
D1,Apodi/RN,-5.6631109,-37.796927,106,295.23173
1,Aporá/BA,-11.6599747,-38.0794757,711,3985.42601
D1,Aporá/BA,-11.6599747,-38.0794757,21,117.71300
1,Aporé/GO,-18.9642193,-51.92804,919,21542.42850
D1,Aporé/GO,-18.9642193,-51.92804,11,257.85279
1,Apuarema/BA,-13.8517897,-39.7457126,883,12139.12565
D1,Apuarema/BA,-13.8517897,-39.7457126,12,164.97113
1,Apucarana/PR,-23.5525327,-51.4610764,20676,15043.87433
D1,Apucarana/PR,-23.5525327,-51.4610764,532,387.08363
1,Apuiarés/CE,-3.9460303,-39.4313298,1633,11077.19441
D1,Apuiarés/CE,-3.9460303,-39.4313298,27,183.15018
1,Apuí/AM,-7.1940195,-59.8830192,2168,9534.28031
D1,Apuí/AM,-7.1940195,-59.8830192,36,158.31831
1,Aquidabã/SE,-10.2837579,-37.0188687,2598,11919.61828
D1,Aquidabã/SE,-10.2837579,-37.0188687,44,201.87190
1,Aquidauana/MS,-20.473969,-55.7821375,7506,15577.78516
D1,Aquidauana/MS,-20.473969,-55.7821375,174,361.11572
1,Aquiraz/CE,-3.9063117,-38.387504,10032,12296.98091
D1,Aquiraz/CE,-3.9063117,-38.387504,105,128.70644
1,Arabutã/SC,-27.1587028,-52.1438142,632,14807.87254
D1,Arabutã/SC,-27.1587028,-52.1438142,10,234.30178
1,Aracaju/SE,-10.9162061,-37.0774655,151038,22455.37559
D1,Aracaju/SE,-10.9162061,-37.0774655,2560,380.60463
1,Aracati/CE,-4.558259,-37.767894,12255,16255.04032
D1,Aracati/CE,-4.558259,-37.767894,181,240.07852
1,Aracatu/BA,-14.4274236,-41.4604105,1293,9976.85185
D1,Aracatu/BA,-14.4274236,-41.4604105,23,177.46914
1,Araci/BA,-11.3356065,-38.9573261,4293,7819.24485
D1,Araci/BA,-11.3356065,-38.9573261,61,111.10504
1,Aracitaba/MG,-21.3425,-43.378611,109,5301.55642
D1,Aracitaba/MG,-21.3425,-43.378611,11,535.01946
1,Aracoiaba/CE,-4.3702577,-38.8084313,4876,18330.82707
D1,Aracoiaba/CE,-4.3702577,-38.8084313,38,142.85714
1,Aracruz/ES,-19.8245218,-40.2735025,33766,32175.86858
D1,Aracruz/ES,-19.8245218,-40.2735025,277,263.95533
1,Aragarças/GO,-15.8957166,-52.2514538,4446,21783.43949
D1,Aragarças/GO,-15.8957166,-52.2514538,84,411.56296
1,Aragoiânia/GO,-16.9146388,-49.4499148,2725,25514.98127
D1,Aragoiânia/GO,-16.9146388,-49.4499148,33,308.98876
1,Aragominas/TO,-7.1654101,-48.525488,866,15179.66696
D1,Aragominas/TO,-7.1654101,-48.525488,11,192.81332
1,Araguacema/TO,-8.8067391,-49.5560969,1173,16239.78956
D1,Araguacema/TO,-8.8067391,-49.5560969,20,276.89326
1,Araguaiana/MT,-15.729144,-51.834112,559,18244.12533
D1,Araguaiana/MT,-15.729144,-51.834112,8,261.09661
1,Araguainha/MT,-16.857016,-53.031778,61,6710.67107
D1,Araguainha/MT,-16.857016,-53.031778,1,110.01100
1,Araguanã/MA,-2.9508403,-45.6651986,854,5448.16587
D1,Araguanã/MA,-2.9508403,-45.6651986,5,31.89793
1,Araguanã/TO,-6.5799107,-48.6428482,619,10570.35519
D1,Araguanã/TO,-6.5799107,-48.6428482,16,273.22404
1,Araguapaz/GO,-15.0937927,-50.626417,1164,14932.64913
D1,Araguapaz/GO,-15.0937927,-50.626417,31,397.69083
1,Araguari/MG,-18.6511256,-48.1933764,29756,25140.03768
D1,Araguari/MG,-18.6511256,-48.1933764,507,428.35055
1,Araguatins/TO,-5.6522925,-48.1158973,3238,8853.52583
D1,Araguatins/TO,-5.6522925,-48.1158973,76,207.80357
1,Araguaçu/TO,-12.928934,-49.823134,1767,20990.73414
D1,Araguaçu/TO,-12.928934,-49.823134,25,296.98266
1,Araguaína/TO,-7.193241,-48.2018597,46806,25131.41292
D1,Araguaína/TO,-7.193241,-48.2018597,600,322.15630
1,Araioses/MA,-2.890914,-41.904993,687,1458.75358
D1,Araioses/MA,-2.890914,-41.904993,15,31.85051
1,Aral Moreira/MS,-22.951141,-55.6268421,579,4627.92742
D1,Aral Moreira/MS,-22.951141,-55.6268421,19,151.86636
1,Aramari/BA,-12.0907897,-38.4985065,1020,8854.93532
D1,Aramari/BA,-12.0907897,-38.4985065,14,121.53833
1,Arambaré/RS,-30.9132252,-51.4994625,375,10581.26411
D1,Arambaré/RS,-30.9132252,-51.4994625,10,282.16704
1,Arame/MA,-4.8858769,-46.0102484,1708,5203.35110
D1,Arame/MA,-4.8858769,-46.0102484,42,127.95126
1,Aramina/SP,-20.0876144,-47.789201,392,6890.49042
D1,Aramina/SP,-20.0876144,-47.789201,20,351.55563
1,Arandu/SP,-23.1345103,-49.0545651,663,10403.26377
D1,Arandu/SP,-23.1345103,-49.0545651,22,345.20634
1,Arantina/MG,-21.911667,-44.255833,559,20115.14933
D1,Arantina/MG,-21.911667,-44.255833,7,251.88917
1,Arapeí/SP,-22.6738889,-44.4477778,270,11011.41925
D1,Arapeí/SP,-22.6738889,-44.4477778,7,285.48124
1,Arapiraca/AL,-9.754866,-36.661471,36034,15378.83735
D1,Arapiraca/AL,-9.754866,-36.661471,562,239.85421
1,Arapoema/TO,-7.6575001,-49.0641484,615,9332.32170
D1,Arapoema/TO,-7.6575001,-49.0641484,12,182.09408
1,Araponga/MG,-20.666667,-42.520556,989,11680.64249
D1,Araponga/MG,-20.666667,-42.520556,15,177.15838
1,Arapongas/PR,-23.415296,-51.42592,27828,21990.59623
D1,Arapongas/PR,-23.415296,-51.42592,631,498.63685
1,Araporã/MG,-18.4318188,-49.188313,2732,39073.22654
D1,Araporã/MG,-18.4318188,-49.188313,43,614.98856
1,Arapoti/PR,-24.1457957,-49.8224605,5492,19283.70787
D1,Arapoti/PR,-24.1457957,-49.8224605,70,245.78652
1,Araputanga/MT,-15.4710868,-58.346796,3609,21132.45111
D1,Araputanga/MT,-15.4710868,-58.346796,56,327.90725
1,Arapuá/MG,-19.034444,-46.155556,453,15973.20169
D1,Arapuá/MG,-19.034444,-46.155556,3,105.78279
1,Arapuã/PR,-24.3079525,-51.7901941,831,28159.94578
D1,Arapuã/PR,-24.3079525,-51.7901941,9,304.98136
1,Araquari/SC,-26.3703324,-48.7210994,6805,16642.21081
D1,Araquari/SC,-26.3703324,-48.7210994,95,232.33064
1,Arara/PB,-6.8271895,-35.7605703,1160,8521.26644
D1,Arara/PB,-6.8271895,-35.7605703,31,227.72350
1,Araranguá/SC,-28.9348832,-49.4858389,17763,25560.84786
D1,Araranguá/SC,-28.9348832,-49.4858389,278,400.04029
1,Araraquara/SP,-21.7886713,-48.1773096,54145,22509.58253
D1,Araraquara/SP,-21.7886713,-48.1773096,628,261.07707
1,Araras/SP,-22.3569477,-47.3838889,19997,14624.21109
D1,Araras/SP,-22.3569477,-47.3838889,444,324.70619
1,Ararendá/CE,-4.7504395,-40.8303611,1847,16816.89884
D1,Ararendá/CE,-4.7504395,-40.8303611,22,200.30957
1,Arari/MA,-3.4547602,-44.7772723,1271,4234.69048
D1,Arari/MA,-3.4547602,-44.7772723,35,116.61225
1,Araricá/RS,-29.6168543,-50.929121,1670,28595.89041
D1,Araricá/RS,-29.6168543,-50.929121,29,496.57534
1,Araripe/CE,-7.212861,-40.1359222,1784,8218.54701
D1,Araripe/CE,-7.212861,-40.1359222,28,128.99065
1,Araripina/PE,-7.5768582,-40.5038509,9922,11631.75109
D1,Araripina/PE,-7.5768582,-40.5038509,181,212.18978
1,Araruama/RJ,-22.8733203,-42.3428897,10457,7682.81304
D1,Araruama/RJ,-22.8733203,-42.3428897,507,372.49557
1,Araruna/PB,-6.5321155,-35.7397595,949,4604.56089
D1,Araruna/PB,-6.5321155,-35.7397595,18,87.33624
1,Araruna/PR,-23.9320308,-52.4976047,3372,24035.92558
D1,Araruna/PR,-23.9320308,-52.4976047,43,306.50795
1,Arataca/BA,-15.2617424,-39.4122943,956,8767.42480
D1,Arataca/BA,-15.2617424,-39.4122943,16,146.73514
1,Aratiba/RS,-27.3955734,-52.3024325,924,15036.61513
D1,Aratiba/RS,-27.3955734,-52.3024325,8,130.18714
1,Aratuba/CE,-4.4195958,-39.0463737,2035,17305.89336
D1,Aratuba/CE,-4.4195958,-39.0463737,14,119.05774
1,Aratuípe/BA,-13.077137,-39.0010786,1134,12816.45570
D1,Aratuípe/BA,-13.077137,-39.0010786,12,135.62387
1,Araucária/PR,-25.5861107,-49.4051209,43619,29368.71305
D1,Araucária/PR,-25.5861107,-49.4051209,574,386.47473
1,Arauá/SE,-11.2644014,-37.6181058,1412,14349.59350
D1,Arauá/SE,-11.2644014,-37.6181058,23,233.73984
1,Araxá/MG,-19.5928536,-46.940241,34679,31990.81206
D1,Araxá/MG,-19.5928536,-46.940241,291,268.44276
1,Araçagi/PB,-6.8519969,-35.3835602,2609,15477.24981
D1,Araçagi/PB,-6.8519969,-35.3835602,28,166.10310
1,Araçariguama/SP,-23.438611,-47.061389,2735,11716.57456
D1,Araçariguama/SP,-23.438611,-47.061389,75,321.29546
1,Araçatuba/SP,-21.207992,-50.4390225,44107,22140.95678
D1,Araçatuba/SP,-21.207992,-50.4390225,986,494.95507
1,Araçaí/MG,-19.200833,-44.2475,276,11694.91525
D1,Araçaí/MG,-19.200833,-44.2475,2,84.74576
1,Araçoiaba da Serra/SP,-23.5045367,-47.6168158,3285,9282.54542
D1,Araçoiaba da Serra/SP,-23.5045367,-47.6168158,100,282.57368
1,Araçoiaba/PE,-7.7856903,-35.0898881,1100,5254.10776
D1,Araçoiaba/PE,-7.7856903,-35.0898881,33,157.62323
1,Araçu/GO,-16.3561579,-49.6815269,1446,41913.04348
D1,Araçu/GO,-16.3561579,-49.6815269,21,608.69565
1,Araçuaí/MG,-16.8484451,-42.0661868,3452,9402.15171
D1,Araçuaí/MG,-16.8484451,-42.0661868,61,166.14463
1,Araçás/BA,-12.2139176,-38.2026159,897,7330.22800
D1,Araçás/BA,-12.2139176,-38.2026159,16,130.75100
1,Araújos/MG,-19.948055,-45.165556,947,9944.34527
D1,Araújos/MG,-19.948055,-45.165556,15,157.51339
1,Arceburgo/MG,-21.364444,-46.939722,2266,20618.74431
D1,Arceburgo/MG,-21.364444,-46.939722,35,318.47134
1,Arco-Íris/SP,-21.7741308,-50.4668814,534,30427.35043
D1,Arco-Íris/SP,-21.7741308,-50.4668814,9,512.82051
1,Arcos/MG,-20.282223,-45.539444,10137,24932.36263
D1,Arcos/MG,-20.282223,-45.539444,146,359.09292
1,Arcoverde/PE,-8.415192,-37.057748,10410,13825.61923
D1,Arcoverde/PE,-8.415192,-37.057748,141,187.26343
1,Areado/MG,-21.3582771,-46.1476688,3026,19793.30194
D1,Areado/MG,-21.3582771,-46.1476688,35,228.93773
1,Areal/RJ,-22.2314922,-43.1056264,1963,15380.39646
D1,Areal/RJ,-22.2314922,-43.1056264,53,415.26287
1,Arealva/SP,-22.0301906,-48.9111936,1759,20300.05770
D1,Arealva/SP,-22.0301906,-48.9111936,24,276.97634
1,Areia Branca/RN,-4.9506652,-37.1263312,4019,14274.04461
D1,Areia Branca/RN,-4.9506652,-37.1263312,118,419.09362
1,Areia Branca/SE,-10.7591455,-37.3148072,2382,12653.38645
D1,Areia Branca/SE,-10.7591455,-37.3148072,50,265.60425
1,Areia de Baraúnas/PB,-7.1233949,-36.9446216,373,17719.71496
D1,Areia de Baraúnas/PB,-7.1233949,-36.9446216,7,332.54157
1,Areia/PB,-6.9680243,-35.6994783,2821,12541.67963
D1,Areia/PB,-6.9680243,-35.6994783,37,164.49562
1,Areial/PB,-7.0501306,-35.9245244,560,7938.75815
D1,Areial/PB,-7.0501306,-35.9245244,13,184.29260
1,Areias/SP,-22.5800929,-44.6975127,362,9267.79314
D1,Areias/SP,-22.5800929,-44.6975127,3,76.80492
1,Areiópolis/SP,-22.6758064,-48.6673653,2015,18013.58841
D1,Areiópolis/SP,-22.6758064,-48.6673653,30,268.19238
1,Arenápolis/MT,-14.4610369,-56.8432806,2741,29162.67688
D1,Arenápolis/MT,-14.4610369,-56.8432806,43,457.49548
1,Arenópolis/GO,-16.3859286,-51.55937,855,34727.86353
D1,Arenópolis/GO,-16.3859286,-51.55937,10,406.17384
1,Argirita/MG,-21.612761,-42.8371922,593,22118.61246
D1,Argirita/MG,-21.612761,-42.8371922,14,522.19321
1,Aricanduva/MG,-17.8678,-42.5569,373,7031.10273
1,Arinos/MG,-15.917223,-46.106111,2670,14957.98319
D1,Arinos/MG,-15.917223,-46.106111,32,179.27171
1,Aripuanã/MT,-10.175806,-59.4439663,5652,24502.53609
D1,Aripuanã/MT,-10.175806,-59.4439663,56,242.77106
1,Ariquemes/RO,-9.9076522,-63.033069,30607,27537.15766
D1,Ariquemes/RO,-9.9076522,-63.033069,551,495.73542
1,Ariranha do Ivaí/PR,-24.3834527,-51.5876772,635,31342.54689
D1,Ariranha do Ivaí/PR,-24.3834527,-51.5876772,5,246.79171
1,Ariranha/SP,-21.18716,-48.790418,1034,10496.39630
D1,Ariranha/SP,-21.18716,-48.790418,35,355.29388
1,Armazém/SC,-28.2624996,-49.0190126,1754,19834.89766
D1,Armazém/SC,-28.2624996,-49.0190126,36,407.10166
1,Armação dos Búzios/RJ,-22.7597805,-41.8875267,8678,24751.85396
D1,Armação dos Búzios/RJ,-22.7597805,-41.8875267,81,231.03252
1,Arneiroz/CE,-6.3235099,-40.1603859,834,10626.91131
D1,Arneiroz/CE,-6.3235099,-40.1603859,21,267.58410
1,Aroazes/PI,-6.1108814,-41.7886137,699,12012.37326
D1,Aroazes/PI,-6.1108814,-41.7886137,15,257.77625
1,Aroeiras do Itaim/PI,-7.2797031,-41.5629681,188,7369.65896
D1,Aroeiras do Itaim/PI,-7.2797031,-41.5629681,2,78.40063
1,Aroeiras/PB,-7.5462904,-35.7080002,2767,14501.33641
D1,Aroeiras/PB,-7.5462904,-35.7080002,20,104.81631
1,Arraial do Cabo/RJ,-22.9662839,-42.024427,2782,9024.55640
D1,Arraial do Cabo/RJ,-22.9662839,-42.024427,52,168.68330
1,Arraial/PI,-6.6541632,-42.5335332,172,3649.48016
D1,Arraial/PI,-6.6541632,-42.5335332,3,63.65372
1,Arraias/TO,-12.9287788,-46.9437231,1559,14844.79147
D1,Arraias/TO,-12.9287788,-46.9437231,13,123.78595
1,Arroio Grande/RS,-32.2384246,-53.0866661,3189,17536.43112
D1,Arroio Grande/RS,-32.2384246,-53.0866661,62,340.94034
1,Arroio Trinta/SC,-26.9301976,-51.334928,1196,33718.63547
D1,Arroio Trinta/SC,-26.9301976,-51.334928,15,422.89259
1,Arroio do Meio/RS,-29.4020392,-51.9444993,5240,24809.43137
D1,Arroio do Meio/RS,-29.4020392,-51.9444993,56,265.13896
1,Arroio do Padre/RS,-31.4428773,-52.4228985,449,15138.23331
D1,Arroio do Padre/RS,-31.4428773,-52.4228985,4,134.86177
1,Arroio do Sal/RS,-29.549852,-49.8874395,3445,32862.73013
D1,Arroio do Sal/RS,-29.549852,-49.8874395,43,410.18792
1,Arroio do Tigre/RS,-29.334158,-53.0888935,2619,19469.22391
D1,Arroio do Tigre/RS,-29.334158,-53.0888935,25,185.84597
1,Arroio dos Ratos/RS,-30.0894524,-51.7265541,2255,15879.16344
D1,Arroio dos Ratos/RS,-30.0894524,-51.7265541,49,345.04612
1,Artur Nogueira/SP,-22.572737,-47.172679,8353,14850.56981
D1,Artur Nogueira/SP,-22.572737,-47.172679,155,275.57025
1,Aruanã/GO,-14.9162439,-51.0715692,1705,16489.36170
D1,Aruanã/GO,-14.9162439,-51.0715692,23,222.43714
1,Arujá/SP,-23.396266,-46.3175449,11396,12326.26307
D1,Arujá/SP,-23.396266,-46.3175449,360,389.38704
1,Arvoredo/SC,-27.0752908,-52.4571847,455,20421.90305
D1,Arvoredo/SC,-27.0752908,-52.4571847,5,224.41652
1,Arvorezinha/RS,-28.87369,-52.17808,1592,15275.37901
D1,Arvorezinha/RS,-28.87369,-52.17808,32,307.04279
1,Arês/RN,-6.1969216,-35.1642968,1449,9975.21685
D1,Arês/RN,-6.1969216,-35.1642968,27,185.87361
1,Ascurra/SC,-26.9569975,-49.3767752,2238,27901.75789
D1,Ascurra/SC,-26.9569975,-49.3767752,14,174.54183
1,Aspásia/SP,-20.160028,-50.728046,487,26831.95592
D1,Aspásia/SP,-20.160028,-50.728046,10,550.96419
1,Assaré/CE,-6.8746791,-39.8741385,2871,12197.81620
D1,Assaré/CE,-6.8746791,-39.8741385,51,216.68012
1,Assaí/PR,-23.3736041,-50.8454929,3133,21180.36777
D1,Assaí/PR,-23.3736041,-50.8454929,64,432.66631
1,Assis Brasil/AC,-10.9409203,-69.5672108,2007,26238.72402
D1,Assis Brasil/AC,-10.9409203,-69.5672108,25,326.84011
1,Assis Chateaubriand/PR,-24.4054826,-53.5120468,9239,27739.74659
D1,Assis Chateaubriand/PR,-24.4054826,-53.5120468,142,426.34961
1,Assis/SP,-22.6620892,-50.420623,20636,19510.62703
D1,Assis/SP,-22.6620892,-50.420623,463,437.75055
1,Assunção do Piauí/PI,-5.8610212,-41.0485091,410,5203.70605
D1,Assunção do Piauí/PI,-5.8610212,-41.0485091,10,126.91966
1,Assunção/PB,-7.073396,-36.7274003,671,16498.64765
D1,Assunção/PB,-7.073396,-36.7274003,6,147.52889
1,Astolfo Dutra/MG,-21.3132636,-42.8624102,2186,15224.96169
D1,Astolfo Dutra/MG,-21.3132636,-42.8624102,30,208.94275
1,Astorga/PR,-23.2350184,-51.6647074,8822,33538.62530
D1,Astorga/PR,-23.2350184,-51.6647074,106,402.98054
1,Atalaia do Norte/AM,-4.3658547,-70.1908742,3913,18751.19801
D1,Atalaia do Norte/AM,-4.3658547,-70.1908742,11,52.71229
1,Atalaia/AL,-9.5029595,-36.0219316,1871,3935.63315
D1,Atalaia/AL,-9.5029595,-36.0219316,58,122.00252
1,Atalaia/PR,-23.1513833,-52.0529697,1160,29966.41695
D1,Atalaia/PR,-23.1513833,-52.0529697,26,671.66107
1,Atalanta/SC,-27.421916,-49.778863,915,28782.63605
D1,Atalanta/SC,-27.421916,-49.778863,12,377.47719
1,Ataléia/MG,-18.04432,-41.1110524,1530,12243.91805
D1,Ataléia/MG,-18.04432,-41.1110524,12,96.03073
1,Atibaia/SP,-23.1177393,-46.5547861,13023,8958.02666
D1,Atibaia/SP,-23.1177393,-46.5547861,362,249.00604
1,Atilio Vivacqua/ES,-20.9139369,-41.1947519,2789,22730.23635
D1,Atilio Vivacqua/ES,-20.9139369,-41.1947519,37,301.54849
1,Augustinópolis/TO,-5.4662267,-47.8897519,2180,11552.72920
D1,Augustinópolis/TO,-5.4662267,-47.8897519,32,169.58135
1,Augusto Corrêa/PA,-1.0229335,-46.6404029,3000,6391.54612
D1,Augusto Corrêa/PA,-1.0229335,-46.6404029,55,117.17835
1,Augusto Pestana/RS,-28.5148413,-53.9906433,1882,28754.77464
D1,Augusto Pestana/RS,-28.5148413,-53.9906433,16,244.46142
1,Augusto de Lima/MG,-18.1092963,-44.2651945,327,6765.98386
D1,Augusto de Lima/MG,-18.1092963,-44.2651945,11,227.60190
1,Aurelino Leal/BA,-14.3167137,-39.3256107,1303,11760.98926
D1,Aurelino Leal/BA,-14.3167137,-39.3256107,40,361.04342
1,Auriflama/SP,-20.6840418,-50.5554616,2238,14612.17028
D1,Auriflama/SP,-20.6840418,-50.5554616,85,554.97519
1,Aurilândia/GO,-16.6772599,-50.4641231,1230,41000.00000
D1,Aurilândia/GO,-16.6772599,-50.4641231,16,533.33333
1,Aurora do Pará/PA,-2.1323199,-47.558436,2074,6440.99379
D1,Aurora do Pará/PA,-2.1323199,-47.558436,20,62.11180
1,Aurora do Tocantins/TO,-12.71045,-46.407604,566,14859.54319
D1,Aurora do Tocantins/TO,-12.71045,-46.407604,8,210.02888
1,Aurora/CE,-6.9426019,-38.9693765,2471,10058.20817
D1,Aurora/CE,-6.9426019,-38.9693765,44,179.10205
1,Aurora/SC,-27.3166417,-49.6368502,1479,26006.68191
D1,Aurora/SC,-27.3166417,-49.6368502,21,369.26323
1,Autazes/AM,-3.5833283,-59.1301518,4040,9852.45702
D1,Autazes/AM,-3.5833283,-59.1301518,102,248.75015
1,Avanhandava/SP,-21.4603331,-49.9465156,1643,11683.14016
D1,Avanhandava/SP,-21.4603331,-49.9465156,48,341.32120
1,Avaré/SP,-23.1045215,-48.9259103,14826,16151.73436
D1,Avaré/SP,-23.1045215,-48.9259103,310,337.72006
1,Avaí/SP,-22.1564662,-49.3316395,825,15090.54326
D1,Avaí/SP,-22.1564662,-49.3316395,14,256.08195
1,Aveiro/PA,-3.6049239,-55.3310742,1140,6942.32994
D1,Aveiro/PA,-3.6049239,-55.3310742,15,91.34645
1,Avelino Lopes/PI,-10.1346855,-43.9489525,529,4656.28026
D1,Avelino Lopes/PI,-10.1346855,-43.9489525,23,202.44697
1,Avelinópolis/GO,-16.4672409,-49.7578661,385,16034.98542
D1,Avelinópolis/GO,-16.4672409,-49.7578661,18,749.68763
1,Axixá do Tocantins/TO,-5.612747,-47.77007,1258,12814.50545
D1,Axixá do Tocantins/TO,-5.612747,-47.77007,24,244.47387
1,Axixá/MA,-2.8379465,-44.0561053,192,1569.39676
D1,Axixá/MA,-2.8379465,-44.0561053,7,57.21759
1,Açailândia/MA,-4.9514278,-47.4844564,6635,5831.27532
D1,Açailândia/MA,-4.9514278,-47.4844564,294,258.38658
1,Açu/RN,-5.5836157,-36.9139541,10377,17665.08350
D1,Açu/RN,-5.5836157,-36.9139541,169,287.69385
1,Açucena/MG,-19.073056,-42.546666,848,9147.78857
D1,Açucena/MG,-19.073056,-42.546666,39,420.71197
1,Babaçulândia/TO,-7.2034355,-47.761613,903,8464.56693
D1,Babaçulândia/TO,-7.2034355,-47.761613,8,74.99063
1,Bacabal/MA,-4.2318132,-44.781167,5752,5473.19543
D1,Bacabal/MA,-4.2318132,-44.781167,230,218.85169
1,Bacabeira/MA,-2.9775747,-44.3155943,577,3307.34839
D1,Bacabeira/MA,-2.9775747,-44.3155943,10,57.31973
1,Bacuri/MA,-1.728894,-45.1417148,876,4677.98782
D1,Bacuri/MA,-1.728894,-45.1417148,4,21.36067
1,Bacurituba/MA,-2.7082587,-44.7381309,117,2054.07303
D1,Bacurituba/MA,-2.7082587,-44.7381309,1,17.55618
1,Bady Bassitt/SP,-20.9178969,-49.4517911,4467,24798.75645
D1,Bady Bassitt/SP,-20.9178969,-49.4517911,100,555.15461
1,Baependi/MG,-21.959162,-44.8899249,3031,15746.27253
D1,Baependi/MG,-21.959162,-44.8899249,38,197.41285
1,Bagre/PA,-1.8994498,-50.2103844,1325,4144.89943
D1,Bagre/PA,-1.8994498,-50.2103844,13,40.66694
1,Bagé/RS,-31.3314264,-54.1062808,23604,19424.28282
D1,Bagé/RS,-31.3314264,-54.1062808,335,275.67932
1,Baianópolis/BA,-12.3067564,-44.5383591,1256,8984.90593
D1,Baianópolis/BA,-12.3067564,-44.5383591,26,185.99328
1,Baixa Grande do Ribeiro/PI,-7.862861,-45.2113289,2672,22738.49034
D1,Baixa Grande do Ribeiro/PI,-7.862861,-45.2113289,36,306.35691
1,Baixa Grande/BA,-11.9630941,-40.1657537,1347,6592.92252
D1,Baixa Grande/BA,-11.9630941,-40.1657537,25,122.36308
1,Baixio/CE,-6.7303544,-38.7170095,837,13247.86325
D1,Baixio/CE,-6.7303544,-38.7170095,17,269.07249
1,Baixo Guandu/ES,-19.5138322,-41.0182089,9438,30189.04136
D1,Baixo Guandu/ES,-19.5138322,-41.0182089,103,329.46294
1,Baião/PA,-2.7903479,-49.6702845,938,1896.71210
D1,Baião/PA,-2.7903479,-49.6702845,39,78.86116
1,Balbinos/SP,-21.9006253,-49.3583966,642,10478.21120
D1,Balbinos/SP,-21.9006253,-49.3583966,4,65.28480
1,Baldim/MG,-19.2913568,-43.9558262,780,10025.70694
D1,Baldim/MG,-19.2913568,-43.9558262,24,308.48329
1,Baliza/GO,-16.1978119,-52.542789,785,14488.74123
D1,Baliza/GO,-16.1978119,-52.542789,11,203.02695
1,Balneário Arroio do Silva/SC,-28.9815269,-49.4189932,3657,26534.61036
D1,Balneário Arroio do Silva/SC,-28.9815269,-49.4189932,64,464.37382
1,Balneário Barra do Sul/SC,-26.459842,-48.6061471,2198,19501.37521
D1,Balneário Barra do Sul/SC,-26.459842,-48.6061471,52,461.36101
1,Balneário Camboriú/SC,-26.9924395,-48.6339782,36261,24299.22199
D1,Balneário Camboriú/SC,-26.9924395,-48.6339782,488,327.01857
1,Balneário Gaivota/SC,-29.1553098,-49.5808712,3173,27502.81702
D1,Balneário Gaivota/SC,-29.1553098,-49.5808712,40,346.71058
1,Balneário Pinhal/RS,-30.2482978,-50.234585,3616,24691.02083
D1,Balneário Pinhal/RS,-30.2482978,-50.234585,62,423.35268
1,Balneário Piçarras/SC,-26.7638889,-48.6716667,7218,29600.16404
D1,Balneário Piçarras/SC,-26.7638889,-48.6716667,71,291.16260
1,Balneário Rincão/SC,-28.8235718,-49.2241642,2387,18181.12575
D1,Balneário Rincão/SC,-28.8235718,-49.2241642,54,411.30322
1,Balsa Nova/PR,-25.5842234,-49.6312741,3021,22820.66777
D1,Balsa Nova/PR,-25.5842234,-49.6312741,36,271.94440
1,Balsas/MA,-7.53214,-46.037163,16179,16687.81137
D1,Balsas/MA,-7.53214,-46.037163,236,243.42193
1,Bambuí/MG,-20.0131996,-45.9777034,6155,25684.35987
D1,Bambuí/MG,-20.0131996,-45.9777034,42,175.26289
1,Banabuiú/CE,-5.3046404,-38.919766,2775,15153.16988
D1,Banabuiú/CE,-5.3046404,-38.919766,22,120.13324
1,Bananal/SP,-22.6828195,-44.3221095,1142,10345.13996
D1,Bananal/SP,-22.6828195,-44.3221095,6,54.35275
1,Bananeiras/PB,-6.7537682,-35.6338343,2031,9571.15928
D1,Bananeiras/PB,-6.7537682,-35.6338343,29,136.66352
1,Bandeira do Sul/MG,-21.728056,-46.385555,1270,21866.39118
D1,Bandeira do Sul/MG,-21.728056,-46.385555,16,275.48209
1,Bandeira/MG,-15.884444,-40.559167,678,14309.83537
D1,Bandeira/MG,-15.884444,-40.559167,12,253.27142
1,Bandeirante/SC,-26.7677402,-53.6397596,744,28418.64018
D1,Bandeirante/SC,-26.7677402,-53.6397596,7,267.37968
1,Bandeirantes do Tocantins/TO,-7.7635698,-48.579148,635,17488.29524
D1,Bandeirantes do Tocantins/TO,-7.7635698,-48.579148,8,220.32498
1,Bandeirantes/MS,-19.9179623,-54.3646768,778,10685.34542
D1,Bandeirantes/MS,-19.9179623,-54.3646768,12,164.81253
1,Bandeirantes/PR,-23.107788,-50.370407,9188,29580.50288
D1,Bandeirantes/PR,-23.107788,-50.370407,161,518.33489
1,Bannach/PA,-7.3508505,-50.4064531,656,20253.16456
D1,Bannach/PA,-7.3508505,-50.4064531,3,92.62118
1,Banzaê/BA,-10.5827616,-38.6122305,1295,9772.84733
D1,Banzaê/BA,-10.5827616,-38.6122305,12,90.55920
1,Baraúna/PB,-6.643394,-36.2531932,784,15577.19054
D1,Baraúna/PB,-6.643394,-36.2531932,9,178.81979
1,Baraúna/RN,-5.0775002,-37.61752,1757,6035.31190
D1,Baraúna/RN,-5.0775002,-37.61752,32,109.92031
1,Barbacena/MG,-21.2254524,-43.7735087,15709,11296.48140
D1,Barbacena/MG,-21.2254524,-43.7735087,349,250.96900
1,Barbalha/CE,-7.3121067,-39.3036427,9470,15357.91898
D1,Barbalha/CE,-7.3121067,-39.3036427,205,332.45759
1,Barbosa Ferraz/PR,-24.0287182,-52.00811,3264,28918.22451
D1,Barbosa Ferraz/PR,-24.0287182,-52.00811,52,460.70701
1,Barbosa/SP,-21.265661,-49.951816,907,12041.95433
D1,Barbosa/SP,-21.265661,-49.951816,23,305.36378
1,Barcarena/PA,-1.5107945,-48.6190679,14190,10971.67776
D1,Barcarena/PA,-1.5107945,-48.6190679,257,198.71185
1,Barcelona/RN,-5.9514918,-35.9260284,433,10854.85084
D1,Barcelona/RN,-5.9514918,-35.9260284,10,250.68940
1,Barcelos/AM,-0.9729214,-62.925635,5310,19119.97696
D1,Barcelos/AM,-0.9729214,-62.925635,60,216.04494
1,Bariri/SP,-22.0746355,-48.7394852,5066,14133.46725
D1,Bariri/SP,-22.0746355,-48.7394852,146,407.32061
1,Barra Bonita/SC,-26.6526364,-53.4419581,473,29107.69231
D1,Barra Bonita/SC,-26.6526364,-53.4419581,2,123.07692
1,Barra Bonita/SP,-22.490859,-48.558349,5389,14917.64706
D1,Barra Bonita/SP,-22.490859,-48.558349,128,354.32526
1,Barra D'Alcântara/PI,-6.5209258,-42.1071089,164,4148.74779
D1,Barra D'Alcântara/PI,-6.5209258,-42.1071089,5,126.48621
1,Barra Funda/RS,-27.9230048,-53.0401045,998,38938.74366
D1,Barra Funda/RS,-27.9230048,-53.0401045,14,546.23488
1,Barra Longa/MG,-20.2833541,-43.0423516,594,12110.09174
D1,Barra Longa/MG,-20.2833541,-43.0423516,13,265.03568
1,Barra Mansa/RJ,-22.5394843,-44.1735129,45969,24816.31639
D1,Barra Mansa/RJ,-22.5394843,-44.1735129,742,400.56792
1,Barra Velha/SC,-26.6338203,-48.6835001,6461,21156.55391
D1,Barra Velha/SC,-26.6338203,-48.6835001,143,468.25371
1,Barra da Estiva/BA,-13.6269662,-41.3278287,3566,17655.21339
D1,Barra da Estiva/BA,-13.6269662,-41.3278287,36,178.23547
1,Barra de Guabiraba/PE,-8.4173522,-35.6626669,865,5911.70038
D1,Barra de Guabiraba/PE,-8.4173522,-35.6626669,21,143.52105
1,Barra de Santa Rosa/PB,-6.7218007,-36.0564638,1746,11187.28776
D1,Barra de Santa Rosa/PB,-6.7218007,-36.0564638,16,102.51810
1,Barra de Santana/PB,-7.5230865,-35.9988518,1131,13564.40393
D1,Barra de Santana/PB,-7.5230865,-35.9988518,8,95.94627
1,Barra de Santo Antônio/AL,-9.4038098,-35.5117693,608,3752.85476
D1,Barra de Santo Antônio/AL,-9.4038098,-35.5117693,33,203.69113
1,Barra de São Francisco/ES,-18.7570902,-40.8916119,10915,24094.39085
D1,Barra de São Francisco/ES,-18.7570902,-40.8916119,257,567.31639
1,Barra de São Miguel/AL,-9.8261357,-35.8837777,936,11097.93692
D1,Barra de São Miguel/AL,-9.8261357,-35.8837777,10,118.56770
1,Barra de São Miguel/PB,-7.7528088,-36.3170996,1319,21640.68909
D1,Barra de São Miguel/PB,-7.7528088,-36.3170996,10,164.06891
1,Barra do Bugres/MT,-15.0683712,-57.1853688,6021,16892.99141
D1,Barra do Bugres/MT,-15.0683712,-57.1853688,102,286.17923
1,Barra do Chapéu/SP,-24.472203,-49.023784,459,7921.98826
D1,Barra do Chapéu/SP,-24.472203,-49.023784,12,207.11080
1,Barra do Choça/BA,-14.8638173,-40.5761637,2820,9146.63812
D1,Barra do Choça/BA,-14.8638173,-40.5761637,40,129.73955
1,Barra do Corda/MA,-5.496823,-45.248496,5876,6610.04556
D1,Barra do Corda/MA,-5.496823,-45.248496,78,87.74397
1,Barra do Garças/MT,-15.8916033,-52.2615413,14596,23655.63515
D1,Barra do Garças/MT,-15.8916033,-52.2615413,405,656.38067
1,Barra do Guarita/RS,-27.1888016,-53.7147086,135,4133.49663
D1,Barra do Guarita/RS,-27.1888016,-53.7147086,8,244.94795
1,Barra do Jacaré/PR,-23.1151788,-50.1813945,662,23804.38691
D1,Barra do Jacaré/PR,-23.1151788,-50.1813945,7,251.70802
1,Barra do Mendes/BA,-11.8053298,-42.057037,1071,8158.13528
D1,Barra do Mendes/BA,-11.8053298,-42.057037,20,152.34613
1,Barra do Ouro/TO,-7.7113784,-47.6743925,178,3809.11620
D1,Barra do Ouro/TO,-7.7113784,-47.6743925,8,171.19623
1,Barra do Piraí/RJ,-22.4703403,-43.8263256,11004,10880.07594
D1,Barra do Piraí/RJ,-22.4703403,-43.8263256,437,432.07862
1,Barra do Quaraí/RS,-30.208947,-57.5505128,1027,24233.12883
D1,Barra do Quaraí/RS,-30.208947,-57.5505128,9,212.36432
1,Barra do Ribeiro/RS,-30.2930206,-51.301437,2156,15831.98708
D1,Barra do Ribeiro/RS,-30.2930206,-51.301437,57,418.56367
1,Barra do Rio Azul/RS,-27.4101581,-52.4117471,209,12893.27576
D1,Barra do Rio Azul/RS,-27.4101581,-52.4117471,1,61.69031
1,Barra do Rocha/BA,-14.2090974,-39.6004395,672,12184.95014
D1,Barra do Rocha/BA,-14.2090974,-39.6004395,8,145.05893
1,Barra do Turvo/SP,-24.756421,-48.5056942,787,10347.09440
D1,Barra do Turvo/SP,-24.756421,-48.5056942,25,328.68788
1,Barra dos Coqueiros/SE,-10.9075694,-37.0386249,8431,26817.01072
D1,Barra dos Coqueiros/SE,-10.9075694,-37.0386249,107,340.34161
1,Barra/BA,-11.0892702,-43.1420453,3228,5952.97372
D1,Barra/BA,-11.0892702,-43.1420453,71,130.93592
1,Barracão/PR,-26.252395,-53.6349576,2648,25591.95902
D1,Barracão/PR,-26.252395,-53.6349576,39,376.92085
1,Barracão/RS,-27.6728964,-51.4582928,858,16383.42563
D1,Barracão/RS,-27.6728964,-51.4582928,18,343.70823
1,Barras/PI,-4.2446153,-42.2920241,5946,12571.35608
D1,Barras/PI,-4.2446153,-42.2920241,105,221.99670
1,Barreira/CE,-4.2883361,-38.641094,2106,9271.40656
D1,Barreira/CE,-4.2883361,-38.641094,53,233.32600
1,Barreiras do Piauí/PI,-9.9224524,-45.4763776,114,3396.90107
D1,Barreiras do Piauí/PI,-9.9224524,-45.4763776,4,119.18951
1,Barreiras/BA,-12.1440031,-44.9967406,24314,15346.64714
D1,Barreiras/BA,-12.1440031,-44.9967406,354,223.43971
1,Barreirinha/AM,-2.798863,-57.067897,3754,11403.74860
D1,Barreirinha/AM,-2.798863,-57.067897,69,209.60540
1,Barreirinhas/MA,-2.7541271,-42.8259693,2795,4374.63806
D1,Barreirinhas/MA,-2.7541271,-42.8259693,46,71.99762
1,Barreiros/PE,-8.8159644,-35.1831905,1426,3326.64583
D1,Barreiros/PE,-8.8159644,-35.1831905,67,156.30103
1,Barretos/SP,-20.5531437,-48.5697509,24467,19803.95966
D1,Barretos/SP,-20.5531437,-48.5697509,633,512.35977
1,Barrinha/SP,-21.1898849,-48.1550642,1750,5218.11730
D1,Barrinha/SP,-21.1898849,-48.1550642,90,268.36032
1,Barro Alto/BA,-11.7618025,-41.9094904,1160,7646.16703
D1,Barro Alto/BA,-11.7618025,-41.9094904,17,112.05590
1,Barro Alto/GO,-14.9696025,-48.9190985,2241,19247.61659
D1,Barro Alto/GO,-14.9696025,-48.9190985,24,206.13244
1,Barro Duro/PI,-5.8180139,-42.5106589,810,11535.17516
D1,Barro Duro/PI,-5.8180139,-42.5106589,12,170.89148
1,Barro Preto/BA,-14.8068289,-39.4727588,753,14175.45181
D1,Barro Preto/BA,-14.8068289,-39.4727588,14,263.55422
1,Barro/CE,-7.1713587,-38.7742136,2532,11088.72734
D1,Barro/CE,-7.1713587,-38.7742136,49,214.59227
1,Barrocas/BA,-11.5165,-39.099282894736845,1049,6465.33128
D1,Barrocas/BA,-11.5165,-39.099282894736845,29,178.73652
1,Barrolândia/TO,-9.837246,-48.7264346,834,14711.58935
D1,Barrolândia/TO,-9.837246,-48.7264346,21,370.43570
1,Barroquinha/CE,-3.0200371,-41.1339229,1601,10624.46081
D1,Barroquinha/CE,-3.0200371,-41.1339229,27,179.17579
1,Barros Cassal/RS,-29.094938,-52.5832366,1532,13718.99346
D1,Barros Cassal/RS,-29.094938,-52.5832366,16,143.27931
1,Barroso/MG,-21.187222,-43.976111,5378,25632.71531
D1,Barroso/MG,-21.187222,-43.976111,72,343.16763
1,Barueri/SP,-23.5112184,-46.8764612,41405,14803.14904
D1,Barueri/SP,-23.5112184,-46.8764612,1250,446.90101
1,Barão de Antonina/SP,-23.6295651,-49.5632104,868,24624.11348
D1,Barão de Antonina/SP,-23.6295651,-49.5632104,11,312.05674
1,Barão de Cocais/MG,-19.9452437,-43.4870298,6784,20414.05874
D1,Barão de Cocais/MG,-19.9452437,-43.4870298,84,252.76842
1,Barão de Cotegipe/RS,-27.6214694,-52.3765316,1066,16112.45466
D1,Barão de Cotegipe/RS,-27.6214694,-52.3765316,11,166.26360
1,Barão de Grajaú/MA,-6.7542591,-43.0263477,481,2528.11942
D1,Barão de Grajaú/MA,-6.7542591,-43.0263477,6,31.53579
1,Barão de Melgaço/MT,-16.195776,-55.9668049,1079,13214.94182
D1,Barão de Melgaço/MT,-16.195776,-55.9668049,18,220.45315
1,Barão de Monte Alto/MG,-21.244722,-42.2375,387,7286.76332
D1,Barão de Monte Alto/MG,-21.244722,-42.2375,16,301.26153
1,Barão do Triunfo/RS,-30.3909877,-51.7375349,730,9668.87417
D1,Barão do Triunfo/RS,-30.3909877,-51.7375349,9,119.20530
1,Barão/RS,-29.372474,-51.494908,1292,20731.70732
D1,Barão/RS,-29.372474,-51.494908,15,240.69320
1,Bastos/SP,-21.9222474,-50.7317727,2361,11268.61397
D1,Bastos/SP,-21.9222474,-50.7317727,72,343.64261
1,Bataguassu/MS,-21.715899,-52.422058,4331,18336.15580
D1,Bataguassu/MS,-21.715899,-52.422058,53,224.38611
1,Batalha/AL,-9.6733809,-37.1265481,1264,6854.66377
D1,Batalha/AL,-9.6733809,-37.1265481,23,124.72885
1,Batalha/PI,-4.022391,-42.0780926,1453,5391.26563
D1,Batalha/PI,-4.022391,-42.0780926,40,148.41750
1,Batatais/SP,-20.892867,-47.592149,6789,10701.78757
D1,Batatais/SP,-20.892867,-47.592149,209,329.45553
1,Batayporã/MS,-22.2976466,-53.2685608,1780,15657.98733
D1,Batayporã/MS,-22.2976466,-53.2685608,30,263.89866
1,Baturité/CE,-4.3290203,-38.8821055,5285,14628.94788
D1,Baturité/CE,-4.3290203,-38.8821055,92,254.65718
1,Bauru/SP,-22.3218102,-49.0705863,75015,19652.55982
D1,Bauru/SP,-22.3218102,-49.0705863,1414,370.44217
1,Bayeux/PB,-7.1301631,-34.936532,10816,11091.17198
D1,Bayeux/PB,-7.1301631,-34.936532,270,276.86912
1,Baía Formosa/RN,-6.3691885,-35.0063741,730,7788.32818
D1,Baía Formosa/RN,-6.3691885,-35.0063741,10,106.68943
1,Baía da Traição/PB,-6.691258,-34.9371244,1621,17625.31260
D1,Baía da Traição/PB,-6.691258,-34.9371244,13,141.35044
1,Bebedouro/SP,-20.949077,-48.479083,5134,6614.95645
D1,Bebedouro/SP,-20.949077,-48.479083,342,440.65351
1,Beberibe/CE,-4.1810469,-38.1298101,8512,15671.54561
D1,Beberibe/CE,-4.1810469,-38.1298101,142,261.43791
1,Bela Cruz/CE,-3.0529129,-40.167582,4049,12325.34778
D1,Bela Cruz/CE,-3.0529129,-40.167582,77,234.39165
1,Bela Vista da Caroba/PR,-25.8792818,-53.6672545,712,20916.56874
D1,Bela Vista da Caroba/PR,-25.8792818,-53.6672545,9,264.39483
1,Bela Vista de Goiás/GO,-16.9692949,-48.9513071,5064,16333.37634
D1,Bela Vista de Goiás/GO,-16.9692949,-48.9513071,91,293.51051
1,Bela Vista de Minas/MG,-19.8289721,-43.0973688,1308,12737.36488
D1,Bela Vista de Minas/MG,-19.8289721,-43.0973688,25,243.45116
1,Bela Vista do Maranhão/MA,-3.7416367,-45.2514192,244,2150.34811
D1,Bela Vista do Maranhão/MA,-3.7416367,-45.2514192,19,167.44514
1,Bela Vista do Paraíso/PR,-22.9948493,-51.1907996,3751,24357.14286
D1,Bela Vista do Paraíso/PR,-22.9948493,-51.1907996,82,532.46753
1,Bela Vista do Piauí/PI,-7.9716353,-41.8715061,324,8011.86944
D1,Bela Vista do Piauí/PI,-7.9716353,-41.8715061,7,173.09594
1,Bela Vista do Toldo/SC,-26.274625,-50.466354,103,1612.90323
D1,Bela Vista do Toldo/SC,-26.274625,-50.466354,5,78.29627
1,Bela Vista/MS,-22.107327,-56.5317344,2709,10904.91909
D1,Bela Vista/MS,-22.107327,-56.5317344,42,169.06851
1,Belford Roxo/RJ,-22.7667284,-43.4033603,48371,9388.07039
D1,Belford Roxo/RJ,-22.7667284,-43.4033603,1016,197.19004
1,Belmiro Braga/MG,-21.9486291,-43.413564,782,22852.13326
D1,Belmiro Braga/MG,-21.9486291,-43.413564,5,146.11338
1,Belmonte/BA,-15.8630837,-38.8792845,1627,6911.63976
D1,Belmonte/BA,-15.8630837,-38.8792845,32,135.93883
1,Belmonte/SC,-26.8448262,-53.578916,592,21828.90855
D1,Belmonte/SC,-26.8448262,-53.578916,5,184.36578
1,Belo Campo/BA,-15.0338286,-41.2585109,1165,6847.70470
D1,Belo Campo/BA,-15.0338286,-41.2585109,22,129.31288
1,Belo Horizonte/MG,-19.9227318,-43.9450948,409080,16164.69113
D1,Belo Horizonte/MG,-19.9227318,-43.9450948,7859,310.54637
1,Belo Jardim/PE,-8.3338293,-36.4176419,8416,10939.81542
D1,Belo Jardim/PE,-8.3338293,-36.4176419,137,178.08397
1,Belo Monte/AL,-9.8269944,-37.2787165,600,8932.55918
D1,Belo Monte/AL,-9.8269944,-37.2787165,9,133.98839
1,Belo Oriente/MG,-19.2232523,-42.4807033,3371,12358.39718
D1,Belo Oriente/MG,-19.2232523,-42.4807033,83,304.28566
1,Belo Vale/MG,-20.407778,-44.024167,1723,22309.98317
D1,Belo Vale/MG,-20.407778,-44.024167,15,194.22504
1,Belterra/PA,-2.636091,-54.937392,2878,16038.78734
D1,Belterra/PA,-2.636091,-54.937392,50,278.64467
1,Belágua/MA,-3.1604031,-43.5085052,446,5879.25125
D1,Belágua/MA,-3.1604031,-43.5085052,4,52.72871
1,Belém de Maria/PE,-8.6242497,-35.8388934,517,4248.50029
D1,Belém de Maria/PE,-8.6242497,-35.8388934,9,73.95842
1,Belém do Brejo do Cruz/PB,-6.1880727,-37.5332267,821,11160.95704
D1,Belém do Brejo do Cruz/PB,-6.1880727,-37.5332267,8,108.75476
1,Belém do Piauí/PI,-7.3767305,-40.9712156,625,17327.41891
D1,Belém do Piauí/PI,-7.3767305,-40.9712156,8,221.79096
1,Belém do São Francisco/PE,-8.7517707,-38.9625715,1477,7124.93970
D1,Belém do São Francisco/PE,-8.7517707,-38.9625715,16,77.18283
1,Belém/AL,-9.5715351,-36.492841,211,4992.90109
D1,Belém/AL,-9.5715351,-36.492841,8,189.30431
1,Belém/PA,-1.45056,-48.4682453,141175,9371.55641
D1,Belém/PA,-1.45056,-48.4682453,5357,355.61132
1,Belém/PB,-6.6967586,-35.5369626,3069,17306.71629
D1,Belém/PB,-6.6967586,-35.5369626,48,270.68178
1,Beneditinos/PI,-5.4565671,-42.3605061,1482,14142.57086
D1,Beneditinos/PI,-5.4565671,-42.3605061,41,391.25871
1,Benedito Leite/MA,-7.2173453,-44.5523331,339,6007.44285
D1,Benedito Leite/MA,-7.2173453,-44.5523331,2,35.44214
1,Benedito Novo/SC,-26.7840657,-49.3629511,1511,12701.74849
D1,Benedito Novo/SC,-26.7840657,-49.3629511,24,201.74849
1,Benevides/PA,-1.3555577,-48.252235,6336,9780.79654
D1,Benevides/PA,-1.3555577,-48.252235,116,179.06761
1,Benjamin Constant do Sul/RS,-27.5105555,-52.6007689,207,10758.83576
D1,Benjamin Constant do Sul/RS,-27.5105555,-52.6007689,3,155.92516
1,Benjamin Constant/AM,-4.3782748,-70.0290603,3991,8893.98970
D1,Benjamin Constant/AM,-4.3782748,-70.0290603,88,196.10902
1,Bento Fernandes/RN,-5.6926846,-35.8207423,237,4268.73199
D1,Bento Fernandes/RN,-5.6926846,-35.8207423,3,54.03458
1,Bento Gonçalves/RS,-29.1654014,-51.5197627,37110,30148.67170
D1,Bento Gonçalves/RS,-29.1654014,-51.5197627,462,375.33512
1,Bento de Abreu/SP,-21.2707225,-50.8120444,635,20970.93791
D1,Bento de Abreu/SP,-21.2707225,-50.8120444,5,165.12550
1,Bequimão/MA,-2.4495376,-44.7884889,571,2678.61331
D1,Bequimão/MA,-2.4495376,-44.7884889,28,131.35057
1,Berilo/MG,-16.9515764,-42.4643732,472,3995.59807
D1,Berilo/MG,-16.9515764,-42.4643732,2,16.93050
1,Berizal/MG,-15.6118785,-41.7417382,332,6928.21369
D1,Berizal/MG,-15.6118785,-41.7417382,3,62.60434
1,Bernardino Batista/PB,-6.4532173,-38.5495418,445,12461.49538
D1,Bernardino Batista/PB,-6.4532173,-38.5495418,3,84.01008
1,Bernardino de Campos/SP,-23.0140216,-49.4760724,2049,18347.06304
D1,Bernardino de Campos/SP,-23.0140216,-49.4760724,39,349.21203
1,Bernardo Sayão/TO,-7.8794244,-48.8968905,997,22460.01352
D1,Bernardo Sayão/TO,-7.8794244,-48.8968905,13,292.85875
1,Bernardo do Mearim/MA,-4.6315929,-44.7617508,577,9455.91609
D1,Bernardo do Mearim/MA,-4.6315929,-44.7617508,7,114.71649
1,Bertioga/SP,-23.848568,-46.139586,9204,13912.99090
D1,Bertioga/SP,-23.848568,-46.139586,196,296.27838
1,Bertolínia/PI,-7.6372159,-43.9540611,1141,20700.29028
D1,Bertolínia/PI,-7.6372159,-43.9540611,12,217.70682
1,Bertópolis/MG,-17.063333,-40.573889,725,15730.09330
D1,Bertópolis/MG,-17.063333,-40.573889,6,130.18008
1,Beruri/AM,-3.9007135,-61.3717319,2896,14124.76223
D1,Beruri/AM,-3.9007135,-61.3717319,35,170.70673
1,Betim/MG,-19.968056,-44.198333,48590,10797.20193
D1,Betim/MG,-19.968056,-44.198333,1439,319.76072
1,Betânia do Piauí/PI,-8.1460635,-40.7961387,183,2944.96299
D1,Betânia do Piauí/PI,-8.1460635,-40.7961387,4,64.37078
1,Betânia/PE,-8.2742779,-38.0351767,698,5448.44274
D1,Betânia/PE,-8.2742779,-38.0351767,19,148.31005
1,Bezerros/PE,-8.2372132,-35.7558262,8239,13515.41995
D1,Bezerros/PE,-8.2372132,-35.7558262,130,213.25459
1,Bias Fortes/MG,-21.605833,-43.756944,368,11212.67520
D1,Bias Fortes/MG,-21.605833,-43.756944,4,121.87690
1,Bicas/MG,-21.7213723,-43.0604327,3617,24753.62716
D1,Bicas/MG,-21.7213723,-43.0604327,54,369.55927
1,Biguaçu/SC,-27.4961277,-48.6542432,16727,23736.00488
D1,Biguaçu/SC,-27.4961277,-48.6542432,183,259.68129
1,Bilac/SP,-21.403962,-50.47464,965,11772.59973
D1,Bilac/SP,-21.403962,-50.47464,24,292.79005
1,Biquinhas/MG,-18.783611,-45.502222,425,17123.28767
D1,Biquinhas/MG,-18.783611,-45.502222,4,161.16035
1,Birigui/SP,-21.2908491,-50.34144,28406,22527.63811
D1,Birigui/SP,-21.2908491,-50.34144,638,505.97174
1,Biritiba Mirim/SP,-23.5697765,-46.0407456,1579,4746.73080
D1,Biritiba Mirim/SP,-23.5697765,-46.0407456,119,357.73335
1,Biritinga/BA,-11.6227908,-38.8066738,974,6091.68804
D1,Biritinga/BA,-11.6227908,-38.8066738,10,62.54300
1,Bituruna/PR,-26.161281,-51.5533319,2589,15776.00390
D1,Bituruna/PR,-26.161281,-51.5533319,37,225.45853
1,Blumenau/SC,-26.9195567,-49.0658025,95535,26072.68202
D1,Blumenau/SC,-26.9195567,-49.0658025,787,214.78202
1,Boa Esperança do Iguaçu/PR,-25.6362851,-53.2139114,484,19860.48420
D1,Boa Esperança do Iguaçu/PR,-25.6362851,-53.2139114,1,41.03406
1,Boa Esperança do Sul/SP,-21.9930206,-48.3917372,2618,17325.12739
D1,Boa Esperança do Sul/SP,-21.9930206,-48.3917372,26,172.06009
1,Boa Esperança/ES,-18.5395472,-40.2904088,4388,28971.34557
D1,Boa Esperança/ES,-18.5395472,-40.2904088,53,349.92737
1,Boa Esperança/MG,-21.0901253,-45.5660195,8265,20504.61447
D1,Boa Esperança/MG,-21.0901253,-45.5660195,152,377.09636
1,Boa Esperança/PR,-24.2411024,-52.7860277,1438,36031.06991
D1,Boa Esperança/PR,-24.2411024,-52.7860277,20,501.12754
1,Boa Hora/PI,-4.4094627,-42.1255341,607,8863.90187
D1,Boa Hora/PI,-4.4094627,-42.1255341,7,102.21963
1,Boa Nova/BA,-14.365907,-40.2063056,1243,10324.77781
D1,Boa Nova/BA,-14.365907,-40.2063056,23,191.04577
1,Boa Ventura de São Roque/PR,-24.88177,-51.5441292,1134,17877.97572
D1,Boa Ventura de São Roque/PR,-24.88177,-51.5441292,10,157.65411
1,Boa Ventura/PB,-7.4202462,-38.2156782,938,17873.47561
D1,Boa Ventura/PB,-7.4202462,-38.2156782,12,228.65854
1,Boa Viagem/CE,-5.1261877,-39.7300055,5425,9921.36064
D1,Boa Viagem/CE,-5.1261877,-39.7300055,123,224.94514
1,Boa Vista da Aparecida/PR,-25.4357216,-53.4067721,1761,23405.10367
D1,Boa Vista da Aparecida/PR,-25.4357216,-53.4067721,39,518.34131
1,Boa Vista das Missões/RS,-27.6677983,-53.3127622,569,27264.01533
D1,Boa Vista das Missões/RS,-27.6677983,-53.3127622,7,335.40968
1,Boa Vista do Buricá/RS,-27.6687782,-54.1111913,1645,24508.34327
D1,Boa Vista do Buricá/RS,-27.6687782,-54.1111913,13,193.68296
1,Boa Vista do Cadeado/RS,-28.5783827,-53.8123759,451,18288.72668
D1,Boa Vista do Cadeado/RS,-28.5783827,-53.8123759,5,202.75750
1,Boa Vista do Gurupi/MA,-1.7981168,-46.3071882,16,188.36826
D1,Boa Vista do Gurupi/MA,-1.7981168,-46.3071882,5,58.86508
1,Boa Vista do Incra/RS,-28.8195551,-53.3866624,754,28691.01979
D1,Boa Vista do Incra/RS,-28.8195551,-53.3866624,5,190.25875
1,Boa Vista do Ramos/AM,-2.9716927,-57.5869819,1667,8318.36327
D1,Boa Vista do Ramos/AM,-2.9716927,-57.5869819,14,69.86028
1,Boa Vista do Sul/RS,-29.3510488,-51.6779679,597,21529.02993
D1,Boa Vista do Sul/RS,-29.3510488,-51.6779679,5,180.31013
1,Boa Vista do Tupim/BA,-12.6605988,-40.6083594,310,1676.49127
D1,Boa Vista do Tupim/BA,-12.6605988,-40.6083594,14,75.71251
1,Boa Vista/PB,-7.2620711,-36.2415161,1505,20850.65115
D1,Boa Vista/PB,-7.2620711,-36.2415161,17,235.52231
1,Boa Vista/RR,2.8208478,-60.6719582,120546,27610.73865
D1,Boa Vista/RR,2.8208478,-60.6719582,1621,371.28571
1,Boca da Mata/AL,-9.6452054,-36.2116658,2547,9285.79241
D1,Boca da Mata/AL,-9.6452054,-36.2116658,50,182.28882
1,Boca do Acre/AM,-8.7553487,-67.3930873,4179,11954.34521
D1,Boca do Acre/AM,-8.7553487,-67.3930873,32,91.53842
1,Bocaina de Minas/MG,-22.167778,-44.394722,633,12441.03774
D1,Bocaina de Minas/MG,-22.167778,-44.394722,7,137.57862
1,Bocaina do Sul/SC,-27.745494,-49.942279,785,22422.16510
D1,Bocaina do Sul/SC,-27.745494,-49.942279,5,142.81634
1,Bocaina/PI,-6.9445939,-41.3224599,451,10002.21779
D1,Bocaina/PI,-6.9445939,-41.3224599,11,243.95653
1,Bocaina/SP,-22.1421831,-48.522276,2369,18844.96062
D1,Bocaina/SP,-22.1421831,-48.522276,37,294.32822
1,Bocaiúva do Sul/PR,-25.206591,-49.114131,3154,23700.03006
D1,Bocaiúva do Sul/PR,-25.206591,-49.114131,30,225.42831
1,Bocaiúva/MG,-17.1160208,-43.8122678,4411,8731.02274
D1,Bocaiúva/MG,-17.1160208,-43.8122678,75,148.45312
1,Bodocó/PE,-7.777592,-39.933797,2681,6944.69628
D1,Bodocó/PE,-7.777592,-39.933797,45,116.56521
1,Bodoquena/MS,-20.5508775,-56.6769653,628,8049.21815
D1,Bodoquena/MS,-20.5508775,-56.6769653,23,294.79621
1,Bodó/RN,-5.9866104,-36.4134824,502,23122.98480
D1,Bodó/RN,-5.9866104,-36.4134824,2,92.12345
1,Bofete/SP,-23.1019554,-48.2610535,2044,16882.79508
D1,Bofete/SP,-23.1019554,-48.2610535,29,239.53085
1,Boituva/SP,-23.2838893,-47.6738231,7012,11075.65945
D1,Boituva/SP,-23.2838893,-47.6738231,210,331.70115
1,Bom Conselho/PE,-9.169191,-36.685683,3525,7197.54977
D1,Bom Conselho/PE,-9.169191,-36.685683,88,179.68351
1,Bom Despacho/MG,-19.7375242,-45.2517288,11126,21630.76445
D1,Bom Despacho/MG,-19.7375242,-45.2517288,128,248.85294
1,Bom Jardim da Serra/SC,-28.3380324,-49.625588,1014,21120.59988
D1,Bom Jardim da Serra/SC,-28.3380324,-49.625588,8,166.63195
1,Bom Jardim de Goiás/GO,-16.2062659,-52.172793,2085,23395.42190
D1,Bom Jardim de Goiás/GO,-16.2062659,-52.172793,31,347.84560
1,Bom Jardim de Minas/MG,-21.9476466,-44.1906033,1278,19832.40223
D1,Bom Jardim de Minas/MG,-21.9476466,-44.1906033,7,108.62818
1,Bom Jardim/MA,-3.54129,-45.606004,1997,4753.63009
D1,Bom Jardim/MA,-3.54129,-45.606004,58,138.06237
1,Bom Jardim/PE,-7.7961572,-35.5871696,2657,6636.19561
D1,Bom Jardim/PE,-7.7961572,-35.5871696,73,182.32679
1,Bom Jardim/RJ,-22.1515328,-42.4186683,4274,15385.72303
D1,Bom Jardim/RJ,-22.1515328,-42.4186683,60,215.99050
1,Bom Jesus da Lapa/BA,-13.250571,-43.410754,7450,10619.94840
D1,Bom Jesus da Lapa/BA,-13.250571,-43.410754,105,149.67713
1,Bom Jesus da Penha/MG,-21.0165299,-46.5226644,1227,28735.36300
D1,Bom Jesus da Penha/MG,-21.0165299,-46.5226644,21,491.80328
1,Bom Jesus da Serra/BA,-14.3724084,-40.5047119,599,6132.26863
D1,Bom Jesus da Serra/BA,-14.3724084,-40.5047119,12,122.85012
1,Bom Jesus das Selvas/MA,-4.4878075,-46.8526639,4445,12665.62188
D1,Bom Jesus das Selvas/MA,-4.4878075,-46.8526639,44,125.37398
1,Bom Jesus de Goiás/GO,-18.2174587,-49.739721,5461,20948.25271
D1,Bom Jesus de Goiás/GO,-18.2174587,-49.739721,122,467.98880
1,Bom Jesus do Amparo/MG,-19.7045132,-43.4752911,640,10352.63669
D1,Bom Jesus do Amparo/MG,-19.7045132,-43.4752911,8,129.40796
1,Bom Jesus do Araguaia/MT,-12.1725897,-51.5074425,1130,16544.65593
D1,Bom Jesus do Araguaia/MT,-12.1725897,-51.5074425,17,248.90190
1,Bom Jesus do Galho/MG,-19.8283191,-42.3162256,1026,6936.18172
D1,Bom Jesus do Galho/MG,-19.8283191,-42.3162256,42,283.93726
1,Bom Jesus do Itabapoana/RJ,-21.1341025,-41.680095,7570,20291.64210
D1,Bom Jesus do Itabapoana/RJ,-21.1341025,-41.680095,125,335.06675
1,Bom Jesus do Norte/ES,-21.1254776,-41.6711646,2432,24349.21906
D1,Bom Jesus do Norte/ES,-21.1254776,-41.6711646,32,320.38446
1,Bom Jesus do Oeste/SC,-26.6929713,-53.0967453,364,17041.19850
D1,Bom Jesus do Oeste/SC,-26.6929713,-53.0967453,6,280.89888
1,Bom Jesus do Sul/PR,-26.1922507,-53.6002033,1314,37845.62212
D1,Bom Jesus do Sul/PR,-26.1922507,-53.6002033,9,259.21659
1,Bom Jesus do Tocantins/PA,-5.0471796,-48.5978362,1219,7065.02840
D1,Bom Jesus do Tocantins/PA,-5.0471796,-48.5978362,29,168.07697
1,Bom Jesus do Tocantins/TO,-8.96306,-48.165043,195,3808.59375
D1,Bom Jesus do Tocantins/TO,-8.96306,-48.165043,3,58.59375
1,Bom Jesus dos Perdões/SP,-23.1353864,-46.4648052,2525,9526.14502
D1,Bom Jesus dos Perdões/SP,-23.1353864,-46.4648052,36,135.81831
1,Bom Jesus/PB,-6.8156725,-38.6551841,396,15301.39104
D1,Bom Jesus/PB,-6.8156725,-38.6551841,4,154.55951
1,Bom Jesus/PI,-9.0711644,-44.3583926,3857,15075.82864
D1,Bom Jesus/PI,-9.0711644,-44.3583926,52,203.25203
1,Bom Jesus/RN,-5.9887544,-35.5821149,1371,13281.02296
D1,Bom Jesus/RN,-5.9887544,-35.5821149,20,193.74213
1,Bom Jesus/RS,-28.6692723,-50.4346894,1843,16353.14996
D1,Bom Jesus/RS,-28.6692723,-50.4346894,26,230.70098
1,Bom Jesus/SC,-26.7350604,-52.3916519,784,25257.73196
D1,Bom Jesus/SC,-26.7350604,-52.3916519,12,386.59794
1,Bom Lugar/MA,-4.3728019,-45.0366054,656,3957.05151
D1,Bom Lugar/MA,-4.3728019,-45.0366054,7,42.22464
1,Bom Princípio do Piauí/PI,-3.1912777,-41.6430185,241,4250.44092
D1,Bom Princípio do Piauí/PI,-3.1912777,-41.6430185,13,229.27690
1,Bom Princípio/RS,-29.489788,-51.3566782,3534,24463.51931
D1,Bom Princípio/RS,-29.489788,-51.3566782,35,242.28160
1,Bom Progresso/RS,-27.5490948,-53.8655601,308,16576.96448
D1,Bom Progresso/RS,-27.5490948,-53.8655601,3,161.46394
1,Bom Repouso/MG,-22.4657069,-46.1485376,2225,21136.12615
D1,Bom Repouso/MG,-22.4657069,-46.1485376,33,313.47962
1,Bom Retiro do Sul/RS,-29.6000007,-51.9359243,2109,16942.48072
D1,Bom Retiro do Sul/RS,-29.6000007,-51.9359243,40,321.33676
1,Bom Retiro/SC,-27.798993,-49.486994,1250,12311.63203
D1,Bom Retiro/SC,-27.798993,-49.486994,22,216.68472
1,Bom Sucesso de Itararé/SP,-24.3190016,-49.1446207,527,13132.31996
D1,Bom Sucesso de Itararé/SP,-24.3190016,-49.1446207,7,174.43309
1,Bom Sucesso do Sul/PR,-26.0749256,-52.8348629,992,30579.53144
D1,Bom Sucesso do Sul/PR,-26.0749256,-52.8348629,10,308.26141
1,Bom Sucesso/MG,-21.0323516,-44.7598082,2140,12150.80627
D1,Bom Sucesso/MG,-21.0323516,-44.7598082,30,170.33841
1,Bom Sucesso/PB,-6.4458948,-37.9297662,712,14421.71359
D1,Bom Sucesso/PB,-6.4458948,-37.9297662,5,101.27608
1,Bom Sucesso/PR,-23.7088019,-51.7651297,2477,34872.58905
D1,Bom Sucesso/PR,-23.7088019,-51.7651297,22,309.72828
1,Bombinhas/SC,-27.1519159,-48.4875691,4637,22198.28618
D1,Bombinhas/SC,-27.1519159,-48.4875691,76,363.82785
1,Bonfim do Piauí/PI,-9.1648678,-42.8734415,518,9087.71930
D1,Bonfim do Piauí/PI,-9.1648678,-42.8734415,9,157.89474
1,Bonfim/MG,-20.3266626, -44.2386157,885,12915.93695
D1,Bonfim/MG,-20.3266626, -44.2386157,20,291.88558
1,Bonfim/RR,3.3613818,-59.8427241,2896,22801.35422
D1,Bonfim/RR,3.3613818,-59.8427241,36,283.44225
1,Bonfinópolis de Minas/MG,-16.5660011,-45.98645,960,17787.65981
D1,Bonfinópolis de Minas/MG,-16.5660011,-45.98645,14,259.40337
1,Bonfinópolis/GO,-16.6172709,-48.9615701,606,5988.14229
D1,Bonfinópolis/GO,-16.6172709,-48.9615701,37,365.61265
1,Boninal/BA,-12.7095183,-41.8299984,919,6330.07301
D1,Boninal/BA,-12.7095183,-41.8299984,9,61.99201
1,Bonito de Minas/MG,-15.3191266,-44.7544,379,3295.07912
D1,Bonito de Minas/MG,-15.3191266,-44.7544,4,34.77656
1,Bonito de Santa Fé/PB,-7.3143332,-38.5146677,819,6754.08214
D1,Bonito de Santa Fé/PB,-7.3143332,-38.5146677,14,115.45440
1,Bonito/BA,-11.9665473,-41.2649896,1351,7947.52633
D1,Bonito/BA,-11.9665473,-41.2649896,15,88.24048
1,Bonito/MS,-21.1264766,-56.4902208,4937,22039.19468
D1,Bonito/MS,-21.1264766,-56.4902208,80,357.12691
1,Bonito/PA,-1.3605722,-47.3049907,527,3142.70380
D1,Bonito/PA,-1.3605722,-47.3049907,18,107.34093
1,Bonito/PE,-8.4721161,-35.7314591,2449,6427.65282
D1,Bonito/PE,-8.4721161,-35.7314591,47,123.35634
1,Bonópolis/GO,-13.649331,-49.8329113,735,16051.53964
D1,Bonópolis/GO,-13.649331,-49.8329113,5,109.19415
1,Boqueirão do Leão/RS,-29.30332,-52.4296817,714,9283.57821
D1,Boqueirão do Leão/RS,-29.30332,-52.4296817,35,455.07736
1,Boqueirão do Piauí/PI,-4.4850148,-42.1095161,884,13720.31662
D1,Boqueirão do Piauí/PI,-4.4850148,-42.1095161,14,217.29008
1,Boqueirão/PB,-7.487004,-36.130887,2461,13722.53820
D1,Boqueirão/PB,-7.487004,-36.130887,48,267.64804
1,Boquim/SE,-11.1450175,-37.6204228,3602,13350.63010
D1,Boquim/SE,-11.1450175,-37.6204228,76,281.69014
1,Boquira/BA,-12.8184859,-42.7270883,1060,4933.44503
D1,Boquira/BA,-12.8184859,-42.7270883,25,116.35484
1,Boracéia/SP,-22.195355,-48.7801925,1051,21392.22471
D1,Boracéia/SP,-22.195355,-48.7801925,26,529.20822
1,Borba/AM,-4.3934778,-59.5947721,3547,8379.79588
D1,Borba/AM,-4.3934778,-59.5947721,71,167.73767
1,Borborema/PB,-6.8066718,-35.5990191,476,8962.53060
D1,Borborema/PB,-6.8066718,-35.5990191,14,263.60384
1,Borborema/SP,-21.6212706,-49.074135,3585,22023.59012
D1,Borborema/SP,-21.6212706,-49.074135,58,356.30913
1,Borda da Mata/MG,-22.274167,-46.165278,5255,26528.34570
D1,Borda da Mata/MG,-22.274167,-46.165278,64,323.08547
1,Borebi/SP,-22.5700178,-48.9714871,300,11057.86952
D1,Borebi/SP,-22.5700178,-48.9714871,4,147.43826
1,Borrazópolis/PR,-23.9393362,-51.5850786,1935,30763.11606
D1,Borrazópolis/PR,-23.9393362,-51.5850786,36,572.33704
1,Borá/SP,-22.2701088,-50.544407,203,24195.47080
D1,Borá/SP,-22.2701088,-50.544407,1,119.18951
1,Bossoroca/RS,-28.7278885,-54.9120278,824,13431.13284
D1,Bossoroca/RS,-28.7278885,-54.9120278,22,358.59821
1,Botelhos/MG,-21.65,-46.394722,3685,24686.80914
D1,Botelhos/MG,-21.65,-46.394722,35,234.47444
1,Botucatu/SP,-22.8879628,-48.4410712,44357,29627.03215
D1,Botucatu/SP,-22.8879628,-48.4410712,373,249.13504
1,Botumirim/MG,-16.862778,-43.011111,845,13500.55919
D1,Botumirim/MG,-16.862778,-43.011111,5,79.88497
1,Botuporã/BA,-13.3744752,-42.5198469,703,6995.02488
D1,Botuporã/BA,-13.3744752,-42.5198469,8,79.60199
1,Botuverá/SC,-27.200749,-49.068892,1630,30207.56116
D1,Botuverá/SC,-27.200749,-49.068892,12,222.38695
1,Bozano/RS,-28.3669953,-53.7705165,587,27965.69795
D1,Bozano/RS,-28.3669953,-53.7705165,8,381.13387
1,Braga/RS,-27.617348,-53.740514,686,20972.17976
D1,Braga/RS,-27.617348,-53.740514,11,336.28860
1,Braganey/PR,-24.8179919,-53.118506,1292,24203.82166
D1,Braganey/PR,-24.8179919,-53.118506,15,281.00412
1,Bragança Paulista/SP,-22.9520235,-46.5418586,35033,20327.13263
D1,Bragança Paulista/SP,-22.9520235,-46.5418586,628,364.38328
1,Bragança/PA,-1.0573967,-46.7635406,6945,5337.29884
D1,Bragança/PA,-1.0573967,-46.7635406,195,149.85936
1,Branquinha/AL,-9.2478057,-36.0152009,1095,10502.58968
D1,Branquinha/AL,-9.2478057,-36.0152009,16,153.46250
1,Brasil Novo/PA,-3.3055853,-52.539198,4239,28482.16085
D1,Brasil Novo/PA,-3.3055853,-52.539198,48,322.51562
1,Brasileira/PI,-4.131182,-41.7824969,739,8835.48541
D1,Brasileira/PI,-4.131182,-41.7824969,21,251.07604
1,Brasilândia de Minas/MG,-17.0096469,-46.0087183,2989,17634.21829
D1,Brasilândia de Minas/MG,-17.0096469,-46.0087183,31,182.89086
1,Brasilândia do Sul/PR,-24.1975793,-53.527551,906,35938.11979
D1,Brasilândia do Sul/PR,-24.1975793,-53.527551,13,515.66839
1,Brasilândia do Tocantins/TO,-8.3886619,-48.4842729,258,11616.38901
D1,Brasilândia do Tocantins/TO,-8.3886619,-48.4842729,6,270.14858
1,Brasilândia/MS,-21.255575,-52.0365617,2052,17338.40304
D1,Brasilândia/MS,-21.255575,-52.0365617,27,228.13688
1,Brasiléia/AC,-11.0010413,-68.7487894,3597,13261.80732
D1,Brasiléia/AC,-11.0010413,-68.7487894,46,169.59776
1,Brasnorte/MT,-12.1227151,-58.0050109,3369,16377.42453
D1,Brasnorte/MT,-12.1227151,-58.0050109,44,213.89335
1,Brasília de Minas/MG,-16.2075114,-44.430559,2182,6722.11953
D1,Brasília de Minas/MG,-16.2075114,-44.430559,18,55.45287
1,Brasília/DF,-15.7934036,-47.8823172,779959,25206.11119
D1,Brasília/DF,-15.7934036,-47.8823172,11725,378.91947
1,Brazabrantes/GO,-16.4291635,-49.3858216,831,21799.58027
D1,Brazabrantes/GO,-16.4291635,-49.3858216,8,209.86359
1,Brazópolis/MG,-22.4742842,-45.6165577,1807,12580.06126
D1,Brazópolis/MG,-22.4742842,-45.6165577,38,264.55026
1,Braço do Norte/SC,-28.2728633,-49.1622712,12592,36717.79320
D1,Braço do Norte/SC,-28.2728633,-49.1622712,119,346.99948
1,Braço do Trombudo/SC,-27.358578,-49.882145,1245,32814.97101
D1,Braço do Trombudo/SC,-27.358578,-49.882145,8,210.85925
1,Braúna/SP,-21.5015319,-50.3175246,630,10871.44090
D1,Braúna/SP,-21.5015319,-50.3175246,26,448.66264
1,Braúnas/MG,-19.055556,-42.716111,438,9246.35845
D1,Braúnas/MG,-19.055556,-42.716111,11,232.21448
1,Brejetuba/ES,-20.1465817,-41.2902303,2899,23285.14056
D1,Brejetuba/ES,-20.1465817,-41.2902303,20,160.64257
1,Brejinho de Nazaré/TO,-11.0205883,-48.5722906,1188,21444.04332
D1,Brejinho de Nazaré/TO,-11.0205883,-48.5722906,20,361.01083
1,Brejinho/PE,-7.3482153,-37.28538,1019,13606.62305
D1,Brejinho/PE,-7.3482153,-37.28538,22,293.76419
1,Brejinho/RN,-6.1957907,-35.3583019,1752,13609.88115
D1,Brejinho/RN,-6.1957907,-35.3583019,20,155.36394
1,Brejo Alegre/SP,-21.1671191,-50.1850393,780,26794.91584
D1,Brejo Alegre/SP,-21.1671191,-50.1850393,14,480.93439
1,Brejo Grande do Araguaia/PA,-5.7011449,-48.4037308,1129,15345.92905
D1,Brejo Grande do Araguaia/PA,-5.7011449,-48.4037308,6,81.55498
1,Brejo Grande/SE,-10.4287358,-36.4667918,602,7170.08099
D1,Brejo Grande/SE,-10.4287358,-36.4667918,13,154.83564
1,Brejo Santo/CE,-7.4909841,-38.9859152,10172,20264.96663
D1,Brejo Santo/CE,-7.4909841,-38.9859152,158,314.77239
1,Brejo da Madre de Deus/PE,-8.1409718,-36.3712527,3886,7517.02259
D1,Brejo da Madre de Deus/PE,-8.1409718,-36.3712527,62,119.93191
1,Brejo de Areia/MA,-4.3316785,-45.5833334,412,4660.10632
D1,Brejo de Areia/MA,-4.3316785,-45.5833334,11,124.42031
1,Brejo do Cruz/PB,-6.32926065,-37.48746163303929,2066,14460.69854
D1,Brejo do Cruz/PB,-6.32926065,-37.48746163303929,25,174.98425
1,Brejo do Piauí/PI,-8.207583,-42.8359849,161,4210.25105
D1,Brejo do Piauí/PI,-8.207583,-42.8359849,5,130.75314
1,Brejo dos Santos/PB,-6.3769367,-37.8243125,1357,20944.59021
D1,Brejo dos Santos/PB,-6.3769367,-37.8243125,8,123.47585
1,Brejo/MA,-3.6804397,-42.7529313,1079,2924.11924
D1,Brejo/MA,-3.6804397,-42.7529313,20,54.20054
1,Brejolândia/BA,-12.4843845,-43.9611861,223,2088.99297
D1,Brejolândia/BA,-12.4843845,-43.9611861,12,112.41218
1,Brejão/PE,-9.029146,-36.566034,618,6881.19363
D1,Brejão/PE,-9.029146,-36.566034,9,100.21156
1,Brejões/BA,-13.1033754,-39.7909837,1166,8237.37195
D1,Brejões/BA,-13.1033754,-39.7909837,16,113.03426
1,Breu Branco/PA,-3.7785073,-49.5684795,1617,2357.24594
D1,Breu Branco/PA,-3.7785073,-49.5684795,73,106.41865
1,Breves/PA,-1.68036,-50.479085,5158,4946.29843
D1,Breves/PA,-1.68036,-50.479085,127,121.78750
1,Britânia/GO,-15.2427599,-51.1602061,827,14221.84007
D1,Britânia/GO,-15.2427599,-51.1602061,10,171.96905
1,Brochier/RS,-29.556766,-51.5963047,1148,22369.44661
D1,Brochier/RS,-29.556766,-51.5963047,8,155.88465
1,Brodowski/SP,-20.984532,-47.657217,4111,16055.45792
D1,Brodowski/SP,-20.984532,-47.657217,86,335.87190
1,Brotas de Macaúbas/BA,-12.0019007,-42.6257506,517,4829.51892
D1,Brotas de Macaúbas/BA,-12.0019007,-42.6257506,9,84.07286
1,Brotas/SP,-22.2840884,-48.1267265,6466,26007.56174
D1,Brotas/SP,-22.2840884,-48.1267265,76,305.68739
1,Brumadinho/MG,-20.143611,-44.2,6859,16644.82625
D1,Brumadinho/MG,-20.143611,-44.2,107,259.65832
1,Brumado/BA,-14.29507325,-41.659307508575985,11321,16779.80672
D1,Brumado/BA,-14.29507325,-41.659307508575985,207,306.81212
1,Brunópolis/SC,-27.310953,-50.837585,645,27825.71182
D1,Brunópolis/SC,-27.310953,-50.837585,9,388.26575
1,Brusque/SC,-27.0964628,-48.9136323,41721,29674.17512
D1,Brusque/SC,-27.0964628,-48.9136323,356,253.20597
1,Brás Pires/MG,-20.8483109,-43.2430524,655,15393.65452
D1,Brás Pires/MG,-20.8483109,-43.2430524,11,258.51939
1,Bueno Brandão/MG,-22.441976,-46.3517971,1996,18175.19577
D1,Bueno Brandão/MG,-22.441976,-46.3517971,36,327.80914
1,Buenos Aires/PE,-7.7218931,-35.326587,692,5232.90986
D1,Buenos Aires/PE,-7.7218931,-35.326587,25,189.05021
1,Buenópolis/MG,-17.8756607,-44.1749365,799,7725.77838
D1,Buenópolis/MG,-17.8756607,-44.1749365,19,183.71688
1,Buerarema/BA,-14.9571177,-39.3008035,1577,8632.10904
D1,Buerarema/BA,-14.9571177,-39.3008035,52,284.63517
1,Bugre/MG,-19.4257687,-42.2556,378,9487.95181
D1,Bugre/MG,-19.4257687,-42.2556,13,326.30522
1,Bujari/AC,-9.8309656,-67.9520886,1596,15096.48127
D1,Bujari/AC,-9.8309656,-67.9520886,17,160.80212
1,Bujaru/PA,-1.5169239,-48.0410699,1892,6366.72612
D1,Bujaru/PA,-1.5169239,-48.0410699,43,144.69832
1,Buri/SP,-23.79849,-48.598924,3580,17855.36160
D1,Buri/SP,-23.79849,-48.598924,105,523.69077
1,Buritama/SP,-21.0664017,-50.1448077,5140,29516.48099
D1,Buritama/SP,-21.0664017,-50.1448077,87,499.59802
1,Buriti Alegre/GO,-18.1377879,-49.0404411,1635,17183.39464
D1,Buriti Alegre/GO,-18.1377879,-49.0404411,39,409.87914
1,Buriti Bravo/MA,-5.8391884,-43.8367876,2313,9640.31176
D1,Buriti Bravo/MA,-5.8391884,-43.8367876,21,87.52553
1,Buriti de Goiás/GO,-16.180644,-50.4287479,689,27962.66234
D1,Buriti de Goiás/GO,-16.180644,-50.4287479,9,365.25974
1,Buriti do Tocantins/TO,-5.3187439,-48.2256609,1654,14204.74064
D1,Buriti do Tocantins/TO,-5.3187439,-48.2256609,27,231.87908
1,Buriti dos Lopes/PI,-3.1776723,-41.8707444,1494,7533.27955
D1,Buriti dos Lopes/PI,-3.1776723,-41.8707444,37,186.56716
1,Buriti dos Montes/PI,-5.3136171,-41.0971256,723,8729.77542
D1,Buriti dos Montes/PI,-5.3136171,-41.0971256,10,120.74378
1,Buriti/MA,-3.9430944,-42.9244281,1169,4042.74450
D1,Buriti/MA,-3.9430944,-42.9244281,9,31.12464
1,Buriticupu/MA,-4.3227472,-46.4516989,4618,6274.88280
D1,Buriticupu/MA,-4.3227472,-46.4516989,82,111.42061
1,Buritinópolis/GO,-14.4589282,-46.4293104,496,15158.92421
D1,Buritinópolis/GO,-14.4589282,-46.4293104,4,122.24939
1,Buritirama/BA,-10.7148421,-43.6362327,1318,6166.37036
D1,Buritirama/BA,-10.7148421,-43.6362327,25,116.96454
1,Buritirana/MA,-5.5897455,-47.0148915,451,2909.11436
D1,Buritirana/MA,-5.5897455,-47.0148915,27,174.15984
1,Buritis/MG,-15.621389,-46.423889,5687,22586.28222
D1,Buritis/MG,-15.621389,-46.423889,56,222.40756
1,Buritis/RO,-10.2054937,-63.8281954,10694,26055.60022
D1,Buritis/RO,-10.2054937,-63.8281954,100,243.64691
1,Buritizal/SP,-20.1933264,-47.7097165,361,7939.30064
D1,Buritizal/SP,-20.1933264,-47.7097165,10,219.92523
1,Buritizeiro/MG,-17.3667765,-44.9647781,2735,9704.08743
D1,Buritizeiro/MG,-17.3667765,-44.9647781,43,152.56883
1,Butiá/RS,-30.1256795,-51.9692224,3392,16180.89014
D1,Butiá/RS,-30.1256795,-51.9692224,67,319.61074
1,Buíque/PE,-8.6239732,-37.157296,2766,4652.80581
D1,Buíque/PE,-8.6239732,-37.157296,54,90.83569
1,Bálsamo/SP,-20.7343722,-49.5807484,2541,27592.57248
D1,Bálsamo/SP,-20.7343722,-49.5807484,74,803.56173
0,CASO SEM LOCALIZAÇÃO DEFINIDA/BA,-13.415069300066518,-38.14174656569957,18796,126.37611
D0,CASO SEM LOCALIZAÇÃO DEFINIDA/BA,-13.415069300066518,-38.14174656569957,349,2.34652
0,CASO SEM LOCALIZAÇÃO DEFINIDA/CE,-3.3445126297392798,-38.624961942434304,16903,185.09478
0,CASO SEM LOCALIZAÇÃO DEFINIDA/ES,-20.30989267097039,-39.81745156645774,8831,219.75041
D0,CASO SEM LOCALIZAÇÃO DEFINIDA/ES,-20.30989267097039,-39.81745156645774,277,6.89286
0,CASO SEM LOCALIZAÇÃO DEFINIDA/MG,-19.97049116501593,-43.8852149072783,4266,20.15231
D0,CASO SEM LOCALIZAÇÃO DEFINIDA/MG,-19.97049116501593,-43.8852149072783,415,1.96043
0,CASO SEM LOCALIZAÇÃO DEFINIDA/PR,-25.69415946385943,-48.10141676336737,11299,98.81968
D0,CASO SEM LOCALIZAÇÃO DEFINIDA/PR,-25.69415946385943,-48.10141676336737,240,2.09901
0,CASO SEM LOCALIZAÇÃO DEFINIDA/RR,2.813328208465927,-60.663338675861986,3569,589.17626
D0,CASO SEM LOCALIZAÇÃO DEFINIDA/RR,2.813328208465927,-60.663338675861986,23,3.79688
0,CASO SEM LOCALIZAÇÃO DEFINIDA/SP,-24.30968974555485,-46.21366504207253,128,0.27875
1,Caapiranga/AM,-3.3188884,-61.2096404,1006,7461.80092
D1,Caapiranga/AM,-3.3188884,-61.2096404,23,170.59783
1,Caaporã/PB,-7.510234,-34.9154114,2741,12414.51153
D1,Caaporã/PB,-7.510234,-34.9154114,39,176.63843
1,Caarapó/MS,-22.6349267,-54.8240903,6233,20103.20916
D1,Caarapó/MS,-22.6349267,-54.8240903,64,206.41832
1,Caatiba/BA,-14.9782759,-40.4092325,1000,16046.21309
D1,Caatiba/BA,-14.9782759,-40.4092325,16,256.73941
1,Cabaceiras do Paraguaçu/BA,-12.5377868,-39.1901339,1464,7701.20989
D1,Cabaceiras do Paraguaçu/BA,-12.5377868,-39.1901339,8,42.08311
1,Cabaceiras/PB,-7.4899156,-36.2860501,659,11541.15587
D1,Cabaceiras/PB,-7.4899156,-36.2860501,5,87.56567
1,Cabeceira Grande/MG,-16.0297,-47.0906,975,13879.00356
D1,Cabeceira Grande/MG,-16.0297,-47.0906,8,113.87900
1,Cabeceiras do Piauí/PI,-4.4733665,-42.3098716,759,7112.73545
D1,Cabeceiras do Piauí/PI,-4.4733665,-42.3098716,18,168.68147
1,Cabeceiras/GO,-15.7995459,-46.9264991,1211,14954.30971
D1,Cabeceiras/GO,-15.7995459,-46.9264991,18,222.27711
1,Cabedelo/PB,-6.97324,-34.8351609,13238,18972.95515
D1,Cabedelo/PB,-6.97324,-34.8351609,218,312.44178
1,Cabixi/RO,-13.4956065,-60.5424442,1774,35010.85455
D1,Cabixi/RO,-13.4956065,-60.5424442,22,434.18196
1,Cabo Frio/RJ,-22.8804369,-42.0189227,27863,11903.34804
D1,Cabo Frio/RJ,-22.8804369,-42.0189227,993,424.21938
1,Cabo Verde/MG,-21.4743338,-46.3964995,2122,15077.44778
D1,Cabo Verde/MG,-21.4743338,-46.3964995,14,99.47421
1,Cabo de Santo Agostinho/PE,-8.2838945,-35.0320984,12772,6058.93850
D1,Cabo de Santo Agostinho/PE,-8.2838945,-35.0320984,555,263.28773
1,Cabreúva/SP,-23.3075813,-47.1324417,6684,13072.56014
D1,Cabreúva/SP,-23.3075813,-47.1324417,150,293.36984
1,Cabrobó/PE,-8.5083701,-39.3106961,4601,13229.62793
D1,Cabrobó/PE,-8.5083701,-39.3106961,34,97.76295
1,Cabrália Paulista/SP,-22.4562909,-49.3385645,929,22003.78967
D1,Cabrália Paulista/SP,-22.4562909,-49.3385645,9,213.16911
1,Cacaulândia/RO,-10.3380043,-62.9007231,1879,29792.29428
D1,Cacaulândia/RO,-10.3380043,-62.9007231,17,269.54178
1,Cacequi/RS,-29.8838059,-54.8273443,1484,12073.87519
D1,Cacequi/RS,-29.8838059,-54.8273443,18,146.44862
1,Cachoeira Alta/GO,-18.7618269,-50.9432431,3508,27314.49038
D1,Cachoeira Alta/GO,-18.7618269,-50.9432431,33,256.94931
1,Cachoeira Dourada/GO,-18.4934204,-49.481062,1686,21082.90609
D1,Cachoeira Dourada/GO,-18.4934204,-49.481062,33,412.65475
1,Cachoeira Dourada/MG,-18.517136,-49.5002062,578,21250.00000
D1,Cachoeira Dourada/MG,-18.517136,-49.5002062,2,73.52941
1,Cachoeira Grande/MA,-2.9290492,-44.0573223,446,4682.90634
D1,Cachoeira Grande/MA,-2.9290492,-44.0573223,8,83.99832
1,Cachoeira Paulista/SP,-22.666498,-45.015384,4115,12164.83874
D1,Cachoeira Paulista/SP,-22.666498,-45.015384,66,195.11041
1,Cachoeira da Prata/MG,-19.524723,-44.453056,226,6312.84916
D1,Cachoeira da Prata/MG,-19.524723,-44.453056,15,418.99441
1,Cachoeira de Goiás/GO,-16.6688414,-50.6435997,398,29790.41916
D1,Cachoeira de Goiás/GO,-16.6688414,-50.6435997,6,449.10180
1,Cachoeira de Minas/MG,-22.3554043,-45.7796324,2225,19166.16418
D1,Cachoeira de Minas/MG,-22.3554043,-45.7796324,21,180.89413
1,Cachoeira de Pajeú/MG,-15.965833,-41.496666,666,7032.73495
D1,Cachoeira de Pajeú/MG,-15.965833,-41.496666,11,116.15628
1,Cachoeira do Arari/PA,-1.0143572,-48.9621089,623,2557.99630
D1,Cachoeira do Arari/PA,-1.0143572,-48.9621089,26,106.75426
1,Cachoeira do Piriá/PA,-1.7599443,-46.5446954,1590,4503.35627
D1,Cachoeira do Piriá/PA,-1.7599443,-46.5446954,12,33.98759
1,Cachoeira do Sul/RS,-30.0474778,-52.8905413,21630,26522.95468
D1,Cachoeira do Sul/RS,-30.0474778,-52.8905413,241,295.51697
1,Cachoeira dos Índios/PB,-6.9259193,-38.6742159,1426,13759.16635
D1,Cachoeira dos Índios/PB,-6.9259193,-38.6742159,24,231.57082
1,Cachoeira/BA,-12.5998256,-38.9665918,2325,6907.51359
D1,Cachoeira/BA,-12.5998256,-38.9665918,33,98.04213
1,Cachoeiras de Macacu/RJ,-22.4626861,-42.6534414,4531,7595.72185
D1,Cachoeiras de Macacu/RJ,-22.4626861,-42.6534414,119,199.49038
1,Cachoeirinha/PE,-8.4906364,-36.2338963,995,4825.88030
D1,Cachoeirinha/PE,-8.4906364,-36.2338963,37,179.45485
1,Cachoeirinha/RS,-29.9493353,-51.0898927,21209,16049.91524
D1,Cachoeirinha/RS,-29.9493353,-51.0898927,539,407.88836
1,Cachoeirinha/TO,-6.118647,-47.9208885,129,5625.81771
D1,Cachoeirinha/TO,-6.118647,-47.9208885,2,87.22198
1,Cachoeiro de Itapemirim/ES,-20.848084,-41.11129,50328,23720.37781
D1,Cachoeiro de Itapemirim/ES,-20.848084,-41.11129,721,339.81864
1,Cacimba de Areia/PB,-7.1288513,-37.1575194,340,9169.36354
D1,Cacimba de Areia/PB,-7.1288513,-37.1575194,5,134.84358
1,Cacimba de Dentro/PB,-6.6425101,-35.7929304,1494,8701.72986
D1,Cacimba de Dentro/PB,-6.6425101,-35.7929304,39,227.15359
1,Cacimbas/PB,-7.2125451,-37.0593398,460,6366.78201
D1,Cacimbas/PB,-7.2125451,-37.0593398,10,138.40830
1,Cacimbinhas/AL,-9.401212,-36.991082,1029,9423.07692
D1,Cacimbinhas/AL,-9.401212,-36.991082,13,119.04762
1,Cacique Doble/RS,-27.7700117,-51.6616409,1246,24513.08283
D1,Cacique Doble/RS,-27.7700117,-51.6616409,14,275.42790
1,Cacoal/RO,-11.4333,-61.4420502,26464,30623.95853
D1,Cacoal/RO,-11.4333,-61.4420502,346,400.38882
1,Caconde/SP,-21.527995,-46.643659,2884,15154.22206
D1,Caconde/SP,-21.527995,-46.643659,46,241.71089
1,Caculé/BA,-14.4990734,-42.2233006,3260,13927.45760
D1,Caculé/BA,-14.4990734,-42.2233006,30,128.16679
1,Caetanos/BA,-14.3387456,-40.9085971,819,5582.44155
D1,Caetanos/BA,-14.3387456,-40.9085971,13,88.61018
1,Caetanópolis/MG,-19.2947496,-44.4138386,1684,14188.22142
D1,Caetanópolis/MG,-19.2947496,-44.4138386,21,176.93150
1,Caetité/BA,-14.0691776,-42.4852428,5043,9852.68834
D1,Caetité/BA,-14.0691776,-42.4852428,51,99.64051
1,Caeté/MG,-19.897777,-43.670278,2936,6472.09241
D1,Caeté/MG,-19.897777,-43.670278,83,182.96447
1,Caetés/PE,-8.7728788,-36.6255835,2616,9000.51608
D1,Caetés/PE,-8.7728788,-36.6255835,28,96.33580
1,Cafarnaum/BA,-11.691399,-41.468823,1171,6300.78020
D1,Cafarnaum/BA,-11.691399,-41.468823,24,129.13640
1,Cafeara/PR,-22.78905,-51.714195,856,28792.46552
D1,Cafeara/PR,-22.78905,-51.714195,13,437.26875
1,Cafelândia/PR,-24.6176963,-53.3218057,5087,27083.00059
D1,Cafelândia/PR,-24.6176963,-53.3218057,48,255.55023
1,Cafelândia/SP,-21.8054355,-49.6030627,876,4889.21136
D1,Cafelândia/SP,-21.8054355,-49.6030627,60,334.87749
1,Cafezal do Sul/PR,-23.900508,-53.512418,1078,27119.49686
D1,Cafezal do Sul/PR,-23.900508,-53.512418,10,251.57233
1,Caiabu/SP,-22.0143038,-51.2356597,329,7842.66985
D1,Caiabu/SP,-22.0143038,-51.2356597,8,190.70322
1,Caiana/MG,-20.695555,-41.924723,274,4906.87679
D1,Caiana/MG,-20.695555,-41.924723,7,125.35817
1,Caiapônia/GO,-16.9538779,-51.8090761,3485,18053.25321
D1,Caiapônia/GO,-16.9538779,-51.8090761,46,238.29258
1,Caibaté/RS,-28.290475,-54.645407,534,11120.36651
D1,Caibaté/RS,-28.290475,-54.645407,8,166.59725
1,Caibi/SC,-27.0751925,-53.2502133,1285,21024.21466
D1,Caibi/SC,-27.0751925,-53.2502133,18,294.50262
1,Caicó/RN,-6.4594544,-37.0971911,17956,26126.93886
D1,Caicó/RN,-6.4594544,-37.0971911,182,264.81972
1,Caieiras/SP,-23.3644621,-46.7484765,11524,11076.08320
D1,Caieiras/SP,-23.3644621,-46.7484765,352,338.31840
1,Cairu/BA,-13.4860505,-39.0455744,1825,9777.13490
D1,Cairu/BA,-13.4860505,-39.0455744,19,101.78935
1,Caiuá/SP,-21.8319357,-51.9887179,506,8409.50640
D1,Caiuá/SP,-21.8319357,-51.9887179,12,199.43493
1,Caiçara do Norte/RN,-5.0645017,-36.0561226,690,10499.08704
D1,Caiçara do Norte/RN,-5.0645017,-36.0561226,12,182.59282
1,Caiçara do Rio do Vento/RN,-5.757968,-36.00089,735,19626.16822
D1,Caiçara do Rio do Vento/RN,-5.757968,-36.00089,8,213.61816
1,Caiçara/PB,-6.6146866,-35.4681434,1085,15107.21248
D1,Caiçara/PB,-6.6146866,-35.4681434,15,208.85547
1,Caiçara/RS,-27.2750478,-53.4310053,1072,23009.22945
D1,Caiçara/RS,-27.2750478,-53.4310053,12,257.56600
1,Cajamar/SP,-23.3561111,-46.8769444,5628,7120.98590
D1,Cajamar/SP,-23.3561111,-46.8769444,258,326.44178
1,Cajapió/MA,-2.8778715,-44.6746871,394,3500.66637
D1,Cajapió/MA,-2.8778715,-44.6746871,7,62.19458
1,Cajari/MA,-3.3213076,-45.0118757,431,2207.87869
D1,Cajari/MA,-3.3213076,-45.0118757,8,40.98151
1,Cajati/SP,-24.7272376,-48.1077914,6216,21855.77160
D1,Cajati/SP,-24.7272376,-48.1077914,109,383.24953
1,Cajazeiras do Piauí/PI,-6.794271,-42.3935024,83,2314.55661
D1,Cajazeiras do Piauí/PI,-6.794271,-42.3935024,2,55.77245
1,Cajazeiras/PB,-6.8897849,-38.5570389,15270,24402.32677
D1,Cajazeiras/PB,-6.8897849,-38.5570389,187,298.83661
1,Cajazeirinhas/PB,-6.961442,-37.7993733,331,10289.08921
D1,Cajazeirinhas/PB,-6.961442,-37.7993733,1,31.08486
1,Cajobi/SP,-20.8776238,-48.8106972,2097,19691.98986
D1,Cajobi/SP,-20.8776238,-48.8106972,38,356.84102
1,Cajueiro da Praia/PI,-2.931114,-41.340801,499,6477.15472
D1,Cajueiro da Praia/PI,-2.931114,-41.340801,21,272.58567
1,Cajueiro/AL,-9.399589,-36.1524309,828,3869.70136
D1,Cajueiro/AL,-9.399589,-36.1524309,34,158.90078
1,Cajuri/MG,-20.7901414,-42.7954489,734,18530.67407
D1,Cajuri/MG,-20.7901414,-42.7954489,9,227.21535
1,Cajuru/SP,-21.2759978,-47.3046035,2048,7695.48717
D1,Cajuru/SP,-21.2759978,-47.3046035,77,289.33228
1,Caldas Brandão/PB,-7.1027959,-35.3254676,952,15665.62449
D1,Caldas Brandão/PB,-7.1027959,-35.3254676,12,197.46585
1,Caldas Novas/GO,-17.745,-48.625,19514,20501.56015
D1,Caldas Novas/GO,-17.745,-48.625,337,354.05482
1,Caldas/MG,-21.923611,-46.386111,1878,12863.01370
D1,Caldas/MG,-21.923611,-46.386111,43,294.52055
1,Caldazinha/GO,-16.7116649,-49.0012601,1210,31025.64103
D1,Caldazinha/GO,-16.7116649,-49.0012601,12,307.69231
1,Caldeirão Grande do Piauí/PI,-7.3310393,-40.6374433,551,9522.98652
D1,Caldeirão Grande do Piauí/PI,-7.3310393,-40.6374433,2,34.56619
1,Caldeirão Grande/BA,-11.0208483,-40.3041387,639,4750.22302
D1,Caldeirão Grande/BA,-11.0208483,-40.3041387,6,44.60303
1,Califórnia/PR,-23.6672543,-51.3554556,2162,25020.25229
D1,Califórnia/PR,-23.6672543,-51.3554556,42,486.05485
1,Calmon/SC,-26.6023644,-51.0992893,73,2195.48872
D1,Calmon/SC,-26.6023644,-51.0992893,7,210.52632
1,Calumbi/PE,-7.9389746,-38.1516871,1192,20752.08914
D1,Calumbi/PE,-7.9389746,-38.1516871,6,104.45682
1,Calçado/PE,-8.7413446,-36.3351787,814,7411.45407
D1,Calçado/PE,-8.7413446,-36.3351787,9,81.94482
1,Calçoene/AP,2.4981757,-50.9539503,2639,22961.80284
D1,Calçoene/AP,2.4981757,-50.9539503,15,130.51423
1,Camacan/BA,-15.4166631,-39.4930088,3537,11045.18627
D1,Camacan/BA,-15.4166631,-39.4930088,98,306.03004
1,Camacho/MG,-20.625556,-45.156667,356,12539.62663
D1,Camacho/MG,-20.625556,-45.156667,2,70.44734
1,Camalaú/PB,-7.885031,-36.824191,898,14847.88360
D1,Camalaú/PB,-7.885031,-36.824191,8,132.27513
1,Camamu/BA,-13.9438142,-39.1060917,2939,8291.95350
D1,Camamu/BA,-13.9438142,-39.1060917,64,180.56653
1,Camanducaia/MG,-22.755278,-46.144444,4784,21913.79231
D1,Camanducaia/MG,-22.755278,-46.144444,87,398.51587
1,Camapuã/MS,-19.5291747,-54.0434641,1774,12972.57770
D1,Camapuã/MS,-19.5291747,-54.0434641,37,270.56673
1,Camaquã/RS,-30.8524752,-51.8075619,11968,17946.79543
D1,Camaquã/RS,-30.8524752,-51.8075619,186,278.91911
1,Camaragibe/PE,-8.0213832,-34.9810768,11602,7253.74347
D1,Camaragibe/PE,-8.0213832,-34.9810768,473,295.72666
1,Camargo/RS,-28.5865661,-52.2031474,679,24690.90909
D1,Camargo/RS,-28.5865661,-52.2031474,8,290.90909
1,Camaçari/BA,-12.6998188,-38.3260762,32369,10468.35787
D1,Camaçari/BA,-12.6998188,-38.3260762,675,218.29966
1,Cambará do Sul/RS,-29.0489517,-50.145412,423,6626.97791
D1,Cambará do Sul/RS,-29.0489517,-50.145412,12,187.99937
1,Cambará/PR,-23.042273,-50.075281,6080,23778.79463
D1,Cambará/PR,-23.042273,-50.075281,74,289.41296
1,Cambira/PR,-23.600265,-51.581045,2629,32998.61930
D1,Cambira/PR,-23.600265,-51.581045,32,401.65683
1,Camboriú/SC,-27.0273601,-48.6535657,18432,21142.70639
D1,Camboriú/SC,-27.0273601,-48.6535657,208,238.58957
1,Cambuci/RJ,-21.5749919,-41.9107833,2925,18845.43522
D1,Cambuci/RJ,-21.5749919,-41.9107833,49,315.70131
1,Cambuquira/MG,-21.853056,-45.2953619,1737,13559.71897
D1,Cambuquira/MG,-21.853056,-45.2953619,38,296.64325
1,Cambuí/MG,-22.6122501,-46.0572137,8037,26729.41333
D1,Cambuí/MG,-22.6122501,-46.0572137,65,216.17667
1,Cambé/PR,-23.2782035,-51.2779583,22484,20794.25855
D1,Cambé/PR,-23.2782035,-51.2779583,381,352.36668
1,Cametá/PA,-2.242949,-49.497885,11375,8078.03201
D1,Cametá/PA,-2.242949,-49.497885,312,221.56888
1,Camocim de São Félix/PE,-8.3616757,-35.7638903,1023,5375.15763
D1,Camocim de São Félix/PE,-8.3616757,-35.7638903,21,110.34048
1,Camocim/CE,-2.9009918,-40.8427389,7667,11952.23471
D1,Camocim/CE,-2.9009918,-40.8427389,167,260.33953
1,Campanha/MG,-21.8361108,-45.401986,3782,22438.44557
D1,Campanha/MG,-21.8361108,-45.401986,69,409.37407
1,Campanário/MG,-18.2398144,-41.7271768,365,9761.96844
