type,name,lat,lon,total,total_per_100k_inhabitants
1,Abadia de Goiás/GO,-16.7572644,-49.4412205,786,8774.27997
D1,Abadia de Goiás/GO,-16.7572644,-49.4412205,9,100.46885
1,Abadia dos Dourados/MG,-18.4911191,-47.4063589,110,1570.08279
D1,Abadia dos Dourados/MG,-18.4911191,-47.4063589,1,14.27348
1,Abadiânia/GO,-16.1940946,-48.7067767,201,982.35668
D1,Abadiânia/GO,-16.1940946,-48.7067767,14,68.42285
1,Abaetetuba/PA,-1.721828,-48.878843,5427,3411.49107
D1,Abaetetuba/PA,-1.721828,-48.878843,124,77.94820
1,Abaeté/MG,-19.1566833,-45.4481213,363,1561.29032
D1,Abaeté/MG,-19.1566833,-45.4481213,5,21.50538
1,Abaiara/CE,-7.3607808,-39.0487878,168,1417.36269
D1,Abaiara/CE,-7.3607808,-39.0487878,4,33.74673
1,Abaré/BA,-8.7239913,-39.1139689,164,806.01563
D1,Abaré/BA,-8.7239913,-39.1139689,1,4.91473
1,Abatiá/PR,-23.3052967,-50.3102532,178,2402.80778
D1,Abatiá/PR,-23.3052967,-50.3102532,1,13.49892
1,Abaíra/BA,-13.2503296,-41.6640342,147,1687.71527
D1,Abaíra/BA,-13.2503296,-41.6640342,2,22.96211
1,Abdon Batista/SC,-27.612419,-51.022992,160,6279.43485
D1,Abdon Batista/SC,-27.612419,-51.022992,1,39.24647
1,Abel Figueiredo/PA,-4.953001,-48.3958485,442,5904.35480
D1,Abel Figueiredo/PA,-4.953001,-48.3958485,2,26.71654
1,Abelardo Luz/SC,-26.5705893,-52.3280339,733,4081.29176
D1,Abelardo Luz/SC,-26.5705893,-52.3280339,17,94.65479
1,Abre Campo/MG,-20.2976097,-42.4764741,235,1747.99167
D1,Abre Campo/MG,-20.2976097,-42.4764741,2,14.87652
1,Abreu e Lima/PE,-7.900719,-34.898389,1336,1331.39338
D1,Abreu e Lima/PE,-7.900719,-34.898389,145,144.50003
1,Abreulândia/TO,-9.6221526,-49.1558343,106,4086.35312
D1,Abreulândia/TO,-9.6221526,-49.1558343,4,154.20200
1,Acaiaca/MG,-20.3621646,-43.1444162,96,2403.60541
D1,Acaiaca/MG,-20.3621646,-43.1444162,3,75.11267
1,Acajutiba/BA,-11.6609659,-38.0186381,251,1652.72931
D1,Acajutiba/BA,-11.6609659,-38.0186381,6,39.50747
1,Acarape/CE,-4.2237866,-38.7071663,1965,13068.63528
D1,Acarape/CE,-4.2237866,-38.7071663,14,93.10987
1,Acaraú/CE,-2.8869514,-40.1194713,2770,4389.57911
D1,Acaraú/CE,-2.8869514,-40.1194713,58,91.91176
1,Acari/RN,-6.4364689,-36.6394777,334,3003.32704
D1,Acari/RN,-6.4364689,-36.6394777,7,62.94398
1,Acará/PA,-1.961388,-48.1987043,879,1578.97573
D1,Acará/PA,-1.961388,-48.1987043,16,28.74131
1,Acauã/PI,-8.219542,-41.083059,115,1619.26218
D1,Acauã/PI,-8.219542,-41.083059,1,14.08054
1,Aceguá/RS,-31.8695131,-54.1615593,57,1153.37920
1,Acopiara/CE,-6.0936464,-39.4543204,1401,2571.53870
D1,Acopiara/CE,-6.0936464,-39.4543204,60,110.13014
1,Acorizal/MT,-15.2001544,-56.3668953,219,4105.73678
D1,Acorizal/MT,-15.2001544,-56.3668953,7,131.23360
1,Acrelândia/AC,-10.0759167,-67.0526898,584,3770.17431
D1,Acrelândia/AC,-10.0759167,-67.0526898,14,90.38089
1,Acreúna/GO,-17.3959899,-50.3749031,1050,4657.14539
D1,Acreúna/GO,-17.3959899,-50.3749031,27,119.75517
1,Adamantina/SP,-21.6866517,-51.0762975,845,2406.65319
D1,Adamantina/SP,-21.6866517,-51.0762975,20,56.96221
1,Adelândia/GO,-16.4155077,-50.1665834,92,3656.59777
D1,Adelândia/GO,-16.4155077,-50.1665834,2,79.49126
1,Adolfo/SP,-21.2356597,-49.6441918,162,4558.24423
D1,Adolfo/SP,-21.2356597,-49.6441918,5,140.68655
1,Adrianópolis/PR,-24.6557863,-48.9912769,528,9014.85402
D1,Adrianópolis/PR,-24.6557863,-48.9912769,7,119.51511
1,Adustina/BA,-10.5358875,-38.114479,172,1004.32092
D1,Adustina/BA,-10.5358875,-38.114479,4,23.35630
1,Afogados da Ingazeira/PE,-7.750429,-37.6356375,1958,5234.73425
D1,Afogados da Ingazeira/PE,-7.750429,-37.6356375,26,69.51128
1,Afonso Bezerra/RN,-5.4745,-36.57625071327935,217,1967.54012
D1,Afonso Bezerra/RN,-5.4745,-36.57625071327935,11,99.73706
1,Afonso Cláudio/ES,-20.077841,-41.12606,1829,6005.58201
D1,Afonso Cláudio/ES,-20.077841,-41.12606,33,108.35659
1,Afonso Cunha/MA,-4.1326105,-43.3230026,152,2310.73275
D1,Afonso Cunha/MA,-4.1326105,-43.3230026,2,30.40438
1,Afrânio/PE,-8.5198919,-41.0070197,474,2392.73094
D1,Afrânio/PE,-8.5198919,-41.0070197,6,30.28773
1,Afuá/PA,-0.1535664,-50.3879223,2563,6477.62024
D1,Afuá/PA,-0.1535664,-50.3879223,11,27.80095
1,Agrestina/PE,-8.4558021,-35.9442663,685,2732.89447
D1,Agrestina/PE,-8.4558021,-35.9442663,33,131.65769
1,Agricolândia/PI,-5.7967843,-42.6605131,73,1422.72462
1,Agrolândia/SC,-27.4122212,-49.8295774,446,4049.75938
D1,Agrolândia/SC,-27.4122212,-49.8295774,6,54.48107
1,Agronômica/SC,-27.2660744,-49.7104753,249,4519.87657
D1,Agronômica/SC,-27.2660744,-49.7104753,6,108.91269
1,Aguanil/MG,-20.9424533,-45.3927152,160,3538.25741
D1,Aguanil/MG,-20.9424533,-45.3927152,3,66.34233
1,Aguaí/SP,-22.0592036,-46.979384,671,1830.93211
D1,Aguaí/SP,-22.0592036,-46.979384,15,40.92993
1,Agudo/RS,-29.6423259,-53.2494005,278,1695.01860
D1,Agudo/RS,-29.6423259,-53.2494005,3,18.29157
1,Agudos do Sul/PR,-25.9890808,-49.3328175,239,2523.75924
D1,Agudos do Sul/PR,-25.9890808,-49.3328175,1,10.55966
1,Agudos/SP,-22.471162,-48.987822,1100,2941.09783
D1,Agudos/SP,-22.471162,-48.987822,19,50.80078
1,Aguiar/PB,-7.0928404,-38.1727215,61,1083.48135
D1,Aguiar/PB,-7.0928404,-38.1727215,1,17.76199
1,Aguiarnópolis/TO,-6.5600452,-47.4721189,467,6775.97214
D1,Aguiarnópolis/TO,-6.5600452,-47.4721189,9,130.58619
1,Aimorés/MG,-19.4917754,-41.0615603,855,3400.81938
D1,Aimorés/MG,-19.4917754,-41.0615603,14,55.68593
1,Aiquara/BA,-14.126918,-39.8887574,345,7812.50000
D1,Aiquara/BA,-14.126918,-39.8887574,6,135.86957
1,Aiuaba/CE,-6.5710836,-40.1212278,89,508.77494
D1,Aiuaba/CE,-6.5710836,-40.1212278,1,5.71657
1,Aiuruoca/MG,-21.9759554,-44.6036637,37,619.14324
D1,Aiuruoca/MG,-21.9759554,-44.6036637,4,66.93440
1,Ajuricaba/RS,-28.239654,-53.7693013,433,6197.22341
D1,Ajuricaba/RS,-28.239654,-53.7693013,4,57.24918
1,Alagoa Grande/PB,-7.0415212,-35.6285322,1772,6230.88013
D1,Alagoa Grande/PB,-7.0415212,-35.6285322,30,105.48894
1,Alagoa Nova/PB,-7.0653703,-35.76695977336711,465,2222.64710
D1,Alagoa Nova/PB,-7.0653703,-35.76695977336711,10,47.79886
1,Alagoa/MG,-22.1697202,-44.6400042,127,4765.47842
1,Alagoinha do Piauí/PI,-7.0090952,-40.939675,159,2074.36399
D1,Alagoinha do Piauí/PI,-7.0090952,-40.939675,5,65.23157
1,Alagoinha/PB,-6.97063215,-35.51490901897793,1123,7712.91209
D1,Alagoinha/PB,-6.97063215,-35.51490901897793,16,109.89011
1,Alagoinha/PE,-8.50355635,-36.77701174370496,355,2412.01250
D1,Alagoinha/PE,-8.50355635,-36.77701174370496,12,81.53282
1,Alagoinhas/BA,-12.133526,-38.420772,7182,4714.85685
D1,Alagoinhas/BA,-12.133526,-38.420772,102,66.96121
1,Alambari/SP,-23.550338,-47.897971,135,2202.64317
D1,Alambari/SP,-23.550338,-47.897971,4,65.26350
1,Albertina/MG,-20.66164,-43.784039,75,2490.86682
D1,Albertina/MG,-20.66164,-43.784039,5,166.05779
1,Alcantil/PB,-7.7425491,-36.0609604,100,1815.21147
D1,Alcantil/PB,-7.7425491,-36.0609604,1,18.15211
1,Alcinópolis/MS,-18.3264121,-53.7094463,65,1199.92616
D1,Alcinópolis/MS,-18.3264121,-53.7094463,2,36.92080
1,Alcobaça/BA,-17.5215875,-39.1965474,884,3930.63584
D1,Alcobaça/BA,-17.5215875,-39.1965474,15,66.69631
1,Alcântara/MA,-2.4038956,-44.4154241,202,913.53111
D1,Alcântara/MA,-2.4038956,-44.4154241,8,36.17945
1,Alcântaras/CE,-3.586247,-40.5457641,615,5220.26993
D1,Alcântaras/CE,-3.586247,-40.5457641,4,33.95298
1,Aldeias Altas/MA,-4.6291957,-43.4708622,947,3539.26075
D1,Aldeias Altas/MA,-4.6291957,-43.4708622,11,41.11074
1,Alecrim/RS,-27.6566142,-54.7653195,68,1166.98129
D1,Alecrim/RS,-27.6566142,-54.7653195,2,34.32298
1,Alegre/ES,-20.7625787,-41.5318886,982,3276.06339
D1,Alegre/ES,-20.7625787,-41.5318886,24,80.06672
1,Alegrete do Piauí/PI,-7.2440138,-40.8602296,352,7157.38105
D1,Alegrete do Piauí/PI,-7.2440138,-40.8602296,3,61.00041
1,Alegrete/RS,-29.790166,-55.794862,2332,3193.29572
D1,Alegrete/RS,-29.790166,-55.794862,42,57.51219
1,Alegria/RS,-27.8332103,-54.0574959,186,5512.74452
D1,Alegria/RS,-27.8332103,-54.0574959,1,29.63841
1,Alenquer/PA,-1.946229,-54.738355,1644,2879.56281
D1,Alenquer/PA,-1.946229,-54.738355,30,52.54677
1,Alexandria/RN,-6.414779,-38.0135516,404,2980.88984
D1,Alexandria/RN,-6.414779,-38.0135516,9,66.40596
1,Alexânia/GO,-16.0834049,-48.5077803,1500,5355.23027
D1,Alexânia/GO,-16.0834049,-48.5077803,25,89.25384
1,Alfenas/MG,-21.4297405,-45.9479419,3087,3835.06845
D1,Alfenas/MG,-21.4297405,-45.9479419,65,80.75136
1,Alfredo Chaves/ES,-20.624970400000002,-40.75006690147988,1432,9784.09401
D1,Alfredo Chaves/ES,-20.624970400000002,-40.75006690147988,18,122.98442
1,Alfredo Marcondes/SP,-21.9527,-51.413956,112,2676.86424
D1,Alfredo Marcondes/SP,-21.9527,-51.413956,4,95.60229
1,Alfredo Vasconcelos/MG,-21.145833,-43.776389,104,1489.75791
D1,Alfredo Vasconcelos/MG,-21.145833,-43.776389,3,42.97379
1,Alfredo Wagner/SC,-27.6961513,-49.3326734,465,4610.35098
D1,Alfredo Wagner/SC,-27.6961513,-49.3326734,1,9.91473
1,Algodão de Jandaíra/PB,-6.9040175,-36.0089879,42,1629.80210
1,Alhandra/PB,-7.4304246,-34.9106103,785,3979.31769
D1,Alhandra/PB,-7.4304246,-34.9106103,19,96.31470
1,Aliança do Tocantins/TO,-11.3055927,-48.9409096,213,3984.28732
D1,Aliança do Tocantins/TO,-11.3055927,-48.9409096,4,74.82230
1,Aliança/PE,-7.60398,-35.222696,413,1075.60486
D1,Aliança/PE,-7.60398,-35.222696,30,78.13110
1,Almadina/BA,-14.70466,-39.6381994,387,7212.07603
D1,Almadina/BA,-14.70466,-39.6381994,6,111.81513
1,Almas/TO,-11.5681309,-47.1702803,133,1905.71715
D1,Almas/TO,-11.5681309,-47.1702803,2,28.65740
1,Almeirim/PA,-1.5290377,-52.5788111,275,807.01960
D1,Almeirim/PA,-1.5290377,-52.5788111,18,52.82310
1,Almenara/MG,-16.1740678,-40.6904907,1624,3853.54626
D1,Almenara/MG,-16.1740678,-40.6904907,19,45.08459
1,Almino Afonso/RN,-6.1544208,-37.7649018,91,1932.05945
D1,Almino Afonso/RN,-6.1544208,-37.7649018,3,63.69427
1,Almirante Tamandaré do Sul/RS,-28.1141129,-52.9134874,68,3488.96870
1,Almirante Tamandaré/PR,-25.3133048,-49.2997838,4176,3478.81141
D1,Almirante Tamandaré/PR,-25.3133048,-49.2997838,103,85.80402
1,Aloândia/GO,-17.7277983,-49.4809338,145,7301.10775
D1,Aloândia/GO,-17.7277983,-49.4809338,5,251.76234
1,Alpercata/MG,-18.9803616,-41.9827637,304,4088.21947
D1,Alpercata/MG,-18.9803616,-41.9827637,11,147.92899
1,Alpestre/RS,-27.2512339,-53.0349646,128,2109.77419
D1,Alpestre/RS,-27.2512339,-53.0349646,2,32.96522
1,Alpinópolis/MG,-20.863611,-46.387777,195,977.05181
D1,Alpinópolis/MG,-20.863611,-46.387777,5,25.05261
1,Alta Floresta D'Oeste/RO,-11.9296917,-61.9961284,1658,7294.96656
D1,Alta Floresta D'Oeste/RO,-11.9296917,-61.9961284,20,87.99718
1,Alta Floresta/MT,-9.8715018,-56.0839881,2278,4384.22602
D1,Alta Floresta/MT,-9.8715018,-56.0839881,29,55.81324
1,Altair/SP,-20.5238955,-49.0606135,55,1313.90349
D1,Altair/SP,-20.5238955,-49.0606135,4,95.55662
1,Altamira do Maranhão/MA,-4.1643006,-45.4674574,274,3345.95189
D1,Altamira do Maranhão/MA,-4.1643006,-45.4674574,6,73.26902
1,Altamira do Paraná/PR,-24.799114,-52.7128633,26,1545.77883
D1,Altamira do Paraná/PR,-24.799114,-52.7128633,2,118.90606
1,Altamira/PA,-3.204065,-52.209961,6549,5647.19882
D1,Altamira/PA,-3.204065,-52.209961,137,118.13502
1,Altaneira/CE,-6.9980933,-39.7385742,237,3098.03922
D1,Altaneira/CE,-6.9980933,-39.7385742,6,78.43137
1,Alterosa/MG,-21.249166,-46.143055,182,1253.70256
D1,Alterosa/MG,-21.249166,-46.143055,4,27.55390
1,Altinho/PE,-8.4904095,-36.0607494,628,2732.33554
D1,Altinho/PE,-8.4904095,-36.0607494,12,52.21023
1,Altinópolis/SP,-21.021364,-47.3712,321,1981.11461
D1,Altinópolis/SP,-21.021364,-47.3712,8,49.37357
1,Alto Alegre do Maranhão/MA,-4.2055693,-44.4525287,396,1421.49472
D1,Alto Alegre do Maranhão/MA,-4.2055693,-44.4525287,18,64.61340
1,Alto Alegre do Pindaré/MA,-3.6698186,-45.8462153,1575,4930.65773
D1,Alto Alegre do Pindaré/MA,-3.6698186,-45.8462153,25,78.26441
1,Alto Alegre dos Parecis/RO,-12.1314515,-61.856265,390,2942.28593
D1,Alto Alegre dos Parecis/RO,-12.1314515,-61.856265,11,82.98755
1,Alto Alegre/RR,2.98858,-61.307167,857,5572.17165
D1,Alto Alegre/RR,2.98858,-61.307167,19,123.53706
1,Alto Alegre/RS,-31.780844700000003,-52.81311114489171,27,1673.89957
1,Alto Alegre/SP,-21.5820592,-50.1661976,126,3082.19178
D1,Alto Alegre/SP,-21.5820592,-50.1661976,3,73.38552
1,Alto Araguaia/MT,-17.3156528,-53.2169365,474,2445.18958
D1,Alto Araguaia/MT,-17.3156528,-53.2169365,8,41.26902
1,Alto Bela Vista/SC,-27.4320737,-51.905771,41,2128.76428
D1,Alto Bela Vista/SC,-27.4320737,-51.905771,1,51.92108
1,Alto Boa Vista/MT,-11.6723985,-51.3744431,100,1441.75317
D1,Alto Boa Vista/MT,-11.6723985,-51.3744431,3,43.25260
1,Alto Caparaó/MG,-20.4405661,-41.8683799,198,3359.34849
D1,Alto Caparaó/MG,-20.4405661,-41.8683799,4,67.86563
1,Alto Feliz/RS,-29.3785943,-51.3123751,87,2865.61265
1,Alto Garças/MT,-16.9469683,-53.529427,322,2649.98766
D1,Alto Garças/MT,-16.9469683,-53.529427,15,123.44663
1,Alto Horizonte/GO,-14.1954948,-49.3366993,214,3239.96972
D1,Alto Horizonte/GO,-14.1954948,-49.3366993,2,30.28009
1,Alto Jequitibá/MG,-20.423611,-41.966111,319,3842.91049
D1,Alto Jequitibá/MG,-20.423611,-41.966111,7,84.32719
1,Alto Longá/PI,-5.2549051,-42.2072388,299,2085.22212
D1,Alto Longá/PI,-5.2549051,-42.2072388,6,41.84392
1,Alto Paraguai/MT,-14.513712,-56.4936374,354,3085.50510
D1,Alto Paraguai/MT,-14.513712,-56.4936374,9,78.44504
1,Alto Paraná/PR,-23.131247,-52.318893,314,2113.19739
D1,Alto Paraná/PR,-23.131247,-52.318893,2,13.45986
1,Alto Paraíso de Goiás/GO,-14.1304779,-47.5100161,372,4838.70968
1,Alto Paraíso/PR,-23.508137,-53.728537,46,1713.22160
1,Alto Paraíso/RO,-9.7240103,-63.3188123,598,2737.21792
D1,Alto Paraíso/RO,-9.7240103,-63.3188123,9,41.19559
1,Alto Parnaíba/MA,-9.112506,-45.9310154,530,4727.07813
D1,Alto Parnaíba/MA,-9.112506,-45.9310154,4,35.67606
1,Alto Piquiri/PR,-24.0239021,-53.4417448,245,2505.62487
D1,Alto Piquiri/PR,-24.0239021,-53.4417448,5,51.13520
1,Alto Rio Doce/MG,-21.0239537,-43.4133507,153,1408.96952
D1,Alto Rio Doce/MG,-21.0239537,-43.4133507,10,92.08951
1,Alto Rio Novo/ES,-19.0577208,-41.0171518,442,5613.41123
D1,Alto Rio Novo/ES,-19.0577208,-41.0171518,14,177.80036
1,Alto Santo/CE,-5.5190371,-38.2719351,537,3122.81926
D1,Alto Santo/CE,-5.5190371,-38.2719351,13,75.59898
1,Alto Taquari/MT,-17.8269099,-53.2831736,589,5290.57756
D1,Alto Taquari/MT,-17.8269099,-53.2831736,7,62.87613
1,Alto do Rodrigues/RN,-5.290868,-36.7616726,706,4793.59044
D1,Alto do Rodrigues/RN,-5.290868,-36.7616726,19,129.00598
1,Altos/PI,-5.0393915,-42.4611694,2268,5585.51902
D1,Altos/PI,-5.0393915,-42.4611694,33,81.27078
1,Altônia/PR,-23.8722004,-53.894037,443,1997.65512
D1,Altônia/PR,-23.8722004,-53.894037,5,22.54690
1,Alumínio/SP,-23.5203479,-47.2575256,499,2658.92258
D1,Alumínio/SP,-23.5203479,-47.2575256,13,69.27053
1,Alvarenga/MG,-19.4175,-41.728334,183,4760.66597
D1,Alvarenga/MG,-19.4175,-41.728334,2,52.02914
1,Alvarães/AM,-3.214786,-64.8143124,1655,10203.45253
D1,Alvarães/AM,-3.214786,-64.8143124,29,178.79162
1,Alvinlândia/SP,-22.4431852,-49.7643596,45,1390.17609
1,Alvinópolis/MG,-20.1105199,-43.0601805,235,1549.21221
D1,Alvinópolis/MG,-20.1105199,-43.0601805,2,13.18478
1,Alvorada D'Oeste/RO,-11.346271,-62.284697,306,2169.28966
D1,Alvorada D'Oeste/RO,-11.346271,-62.284697,8,56.71346
1,Alvorada de Minas/MG,-18.7318587,-43.3641479,81,2246.87933
D1,Alvorada de Minas/MG,-18.7318587,-43.3641479,1,27.73925
1,Alvorada do Gurguéia/PI,-8.4465288,-43.8655915,109,2001.83655
D1,Alvorada do Gurguéia/PI,-8.4465288,-43.8655915,5,91.82736
1,Alvorada do Norte/GO,-14.483911,-46.4959897,358,4112.57898
D1,Alvorada do Norte/GO,-14.483911,-46.4959897,1,11.48765
1,Alvorada do Sul/PR,-22.7807269,-51.2307721,247,2147.26593
D1,Alvorada do Sul/PR,-22.7807269,-51.2307721,7,60.85369
1,Alvorada/RS,-29.9981184,-51.0772509,9228,4366.17586
D1,Alvorada/RS,-29.9981184,-51.0772509,249,117.81294
1,Alvorada/TO,-12.478465,-49.124926,598,7122.43926
D1,Alvorada/TO,-12.478465,-49.124926,10,119.10434
1,Além Paraíba/MG,-21.8760576,-42.6810473,1139,3217.42324
D1,Além Paraíba/MG,-21.8760576,-42.6810473,32,90.39293
1,Amajari/RR,3.6523869,-61.4194315,600,4550.62571
D1,Amajari/RR,3.6523869,-61.4194315,16,121.35002
1,Amambai/MS,-23.1082701,-55.2284854,1460,3665.94687
D1,Amambai/MS,-23.1082701,-55.2284854,26,65.28399
1,Amaporã/PR,-23.094272,-52.786597,63,994.94630
1,Amapá do Maranhão/MA,-1.6762114,-46.0109669,5,71.37759
1,Amapá/AP,2.0529997,-50.7930003,1041,11331.22891
D1,Amapá/AP,2.0529997,-50.7930003,7,76.19462
1,Amaraji/PE,-8.373925,-35.4536527,368,1609.09488
D1,Amaraji/PE,-8.373925,-35.4536527,24,104.94097
1,Amaral Ferrador/RS,-30.8750633,-52.2542051,108,1524.34721
D1,Amaral Ferrador/RS,-30.8750633,-52.2542051,2,28.22865
1,Amaralina/GO,-13.9236199,-49.2962411,17,442.13264
1,Amarante do Maranhão/MA,-5.56913,-46.747284,1156,2770.25570
D1,Amarante do Maranhão/MA,-5.56913,-46.747284,31,74.28886
1,Amarante/PI,-6.2459374,-42.8476238,782,4442.17223
D1,Amarante/PI,-6.2459374,-42.8476238,14,79.52738
1,Amargosa/BA,-13.03793715,-39.60796443875596,908,2425.14890
D1,Amargosa/BA,-13.03793715,-39.60796443875596,18,48.07564
1,Amaturá/AM,-3.3640509,-68.1994689,1232,10497.61418
D1,Amaturá/AM,-3.3640509,-68.1994689,10,85.20791
1,Americana/SP,-22.7392463,-47.3306032,8946,3696.41927
D1,Americana/SP,-22.7392463,-47.3306032,235,97.10022
1,Americano do Brasil/GO,-16.2515808,-49.9806104,162,2628.16353
D1,Americano do Brasil/GO,-16.2515808,-49.9806104,4,64.89293
1,Ametista do Sul/RS,-27.3617341,-53.1826575,188,2539.51101
D1,Ametista do Sul/RS,-27.3617341,-53.1826575,1,13.50804
1,Amontada/CE,-3.3634586,-39.8284791,1051,2397.95569
D1,Amontada/CE,-3.3634586,-39.8284791,21,47.91348
1,Amorinópolis/GO,-16.6211308,-51.0949921,97,3160.63864
D1,Amorinópolis/GO,-16.6211308,-51.0949921,1,32.58390
1,Amparo de São Francisco/SE,-10.1299754,-36.9269099,76,3193.27731
D1,Amparo de São Francisco/SE,-10.1299754,-36.9269099,2,84.03361
1,Amparo do Serra/MG,-20.5070255,-42.8028462,69,1474.98931
D1,Amparo do Serra/MG,-20.5070255,-42.8028462,3,64.12997
1,Amparo/PB,-7.56394725,-37.04652873235175,31,1377.16570
1,Amparo/SP,-22.70111,-46.76444,1905,2621.18690
D1,Amparo/SP,-22.70111,-46.76444,38,52.28614
1,Ampére/PR,-25.9168712,-53.4742414,426,2205.99658
D1,Ampére/PR,-25.9168712,-53.4742414,8,41.42717
1,Amélia Rodrigues/BA,-12.4015388,-38.7516971,863,3445.38486
D1,Amélia Rodrigues/BA,-12.4015388,-38.7516971,15,59.88502
1,América Dourada/BA,-11.4515262,-41.4357517,356,2212.55438
D1,América Dourada/BA,-11.4515262,-41.4357517,2,12.43008
1,Américo Brasiliense/SP,-21.7297099,-48.1052092,1190,2900.17547
D1,Américo Brasiliense/SP,-21.7297099,-48.1052092,20,48.74244
1,Américo de Campos/SP,-20.298476,-49.735904,389,6503.92911
D1,Américo de Campos/SP,-20.298476,-49.735904,12,200.63535
1,Anadia/AL,-9.6830208,-36.3052699,560,3195.25277
D1,Anadia/AL,-9.6830208,-36.3052699,10,57.05809
1,Anagé/BA,-14.6134669,-41.1376308,330,1527.28283
D1,Anagé/BA,-14.6134669,-41.1376308,7,32.39691
1,Anahy/PR,-24.6450861,-53.1337957,75,2690.10043
D1,Anahy/PR,-24.6450861,-53.1337957,1,35.86801
1,Anajatuba/MA,-3.26441,-44.6179916,363,1345.04224
D1,Anajatuba/MA,-3.26441,-44.6179916,10,37.05351
1,Anajás/PA,-0.9878802,-49.9390114,1001,3371.73269
D1,Anajás/PA,-0.9878802,-49.9390114,11,37.05201
1,Analândia/SP,-22.128917,-47.661939,86,1700.94937
D1,Analândia/SP,-22.128917,-47.661939,2,39.55696
1,Anamã/AM,-3.5797356,-61.4049996,1354,9701.92032
D1,Anamã/AM,-3.5797356,-61.4049996,1,7.16538
1,Ananindeua/PA,-1.374035,-48.4016623,11849,2212.50422
D1,Ananindeua/PA,-1.374035,-48.4016623,394,73.56964
1,Ananás/TO,-6.3663053,-48.080238,778,8196.37590
D1,Ananás/TO,-6.3663053,-48.080238,16,168.56300
1,Anapu/PA,-3.4668292,-51.2057035,1107,3869.68225
D1,Anapu/PA,-3.4668292,-51.2057035,23,80.39990
1,Anapurus/MA,-3.6751298,-43.1046001,821,5165.47125
D1,Anapurus/MA,-3.6751298,-43.1046001,6,37.75009
1,Anastácio/MS,-20.4832458,-55.8048448,1228,4865.87154
D1,Anastácio/MS,-20.4832458,-55.8048448,34,134.72283
1,Anaurilândia/MS,-22.185169,-52.719056,112,1234.02380
D1,Anaurilândia/MS,-22.185169,-52.719056,3,33.05421
1,Anchieta/ES,-20.8057672,-40.6454564,2166,7273.58205
D1,Anchieta/ES,-20.8057672,-40.6454564,36,120.89056
1,Anchieta/SC,-26.5350527,-53.3293938,166,2987.22332
D1,Anchieta/SC,-26.5350527,-53.3293938,4,71.98128
1,Andaraí/BA,-12.8059674,-41.3322919,391,2977.45964
D1,Andaraí/BA,-12.8059674,-41.3322919,2,15.22997
1,Andirá/PR,-23.0494761,-50.2310027,679,3407.60815
D1,Andirá/PR,-23.0494761,-50.2310027,4,20.07427
1,Andorinha/BA,-10.3445708,-39.8334411,393,2709.78418
D1,Andorinha/BA,-10.3445708,-39.8334411,7,48.26588
1,Andradas/MG,-22.0680484,-46.5688976,777,1876.99295
D1,Andradas/MG,-22.0680484,-46.5688976,21,50.72954
1,Andradina/SP,-20.896505,-51.3742765,2463,4305.79350
D1,Andradina/SP,-20.896505,-51.3742765,91,159.08535
1,Andrelândia/MG,-21.739722,-44.308889,151,1237.09651
D1,Andrelândia/MG,-21.739722,-44.308889,2,16.38538
1,André da Rocha/RS,-28.6309124,-51.5733328,50,3723.00819
1,Angatuba/SP,-23.4938938,-48.4110675,478,1876.05479
D1,Angatuba/SP,-23.4938938,-48.4110675,13,51.02241
1,Angelim/PE,-8.8902038,-36.2872987,91,810.61821
D1,Angelim/PE,-8.8902038,-36.2872987,3,26.72368
1,Angelina/SC,-27.5805287,-48.9838759,245,5165.50706
1,Angelândia/MG,-17.7253,-42.2728,35,409.02185
1,Angical do Piauí/PI,-6.0872666,-42.7366138,212,3125.46071
D1,Angical do Piauí/PI,-6.0872666,-42.7366138,5,73.71370
1,Angical/BA,-12.005623,-44.7000236,285,2044.76969
D1,Angical/BA,-12.005623,-44.7000236,5,35.87315
1,Angico/TO,-6.3893733,-47.8656722,172,4979.73364
D1,Angico/TO,-6.3893733,-47.8656722,3,86.85582
1,Angicos/RN,-5.6666344,-36.6009064,194,1657.41136
D1,Angicos/RN,-5.6666344,-36.6009064,6,51.26015
1,Angra dos Reis/RJ,-23.0063966,-44.316326,9082,4386.50722
D1,Angra dos Reis/RJ,-23.0063966,-44.316326,292,141.03282
1,Anguera/BA,-12.1509425,-39.2452469,138,1221.56325
1,Angélica/MS,-22.1588196,-53.7728504,287,2625.32016
D1,Angélica/MS,-22.1588196,-53.7728504,5,45.73729
1,Anhanguera/GO,-18.3338749,-48.220363,22,1896.55172
D1,Anhanguera/GO,-18.3338749,-48.220363,2,172.41379
1,Anhembi/SP,-22.7891096,-48.1316776,46,674.58572
D1,Anhembi/SP,-22.7891096,-48.1316776,1,14.66491
1,Anhumas/SP,-22.2956478,-51.3873401,134,3233.59073
D1,Anhumas/SP,-22.2956478,-51.3873401,1,24.13127
1,Anicuns/GO,-16.4606451,-49.9572265,1023,4654.01938
D1,Anicuns/GO,-16.4606451,-49.9572265,17,77.33952
1,Anita Garibaldi/SC,-27.6855032,-51.1293873,557,8006.32457
D1,Anita Garibaldi/SC,-27.6855032,-51.1293873,3,43.12204
1,Anitápolis/SC,-27.9041185,-49.1287395,175,5421.31351
1,Anori/AM,-3.7435254,-61.6605203,1387,6458.07143
D1,Anori/AM,-3.7435254,-61.6605203,21,97.77902
1,Anta Gorda/RS,-28.9718745,-52.0069187,338,5670.18957
D1,Anta Gorda/RS,-28.9718745,-52.0069187,1,16.77571
1,Antas/BA,-10.4114649,-38.3308815,647,3321.52575
1,Antonina do Norte/CE,-6.7754187,-39.9879345,82,1111.41231
D1,Antonina do Norte/CE,-6.7754187,-39.9879345,2,27.10762
1,Antonina/PR,-25.4298854,-48.7125431,1366,7208.82368
D1,Antonina/PR,-25.4298854,-48.7125431,34,179.42899
1,Antônio Almeida/PI,-7.2186016,-44.1950248,259,8170.34700
D1,Antônio Almeida/PI,-7.2186016,-44.1950248,3,94.63722
1,Antônio Cardoso/BA,-12.4363122,-39.1200307,128,1096.17196
D1,Antônio Cardoso/BA,-12.4363122,-39.1200307,4,34.25537
1,Antônio Carlos/MG,-21.318334,-43.746666,211,1841.34741
D1,Antônio Carlos/MG,-21.318334,-43.746666,3,26.18029
1,Antônio Carlos/SC,-27.5168462,-48.7684715,793,9207.01266
D1,Antônio Carlos/SC,-27.5168462,-48.7684715,14,162.54499
1,Antônio Dias/MG,-19.6525,-42.872778,165,1778.97574
D1,Antônio Dias/MG,-19.6525,-42.872778,5,53.90836
1,Antônio Gonçalves/BA,-10.5715409,-40.2748824,356,2997.13757
D1,Antônio Gonçalves/BA,-10.5715409,-40.2748824,1,8.41893
1,Antônio João/MS,-22.1892837,-55.9508227,161,1784.92239
D1,Antônio João/MS,-22.1892837,-55.9508227,4,44.34590
1,Antônio Martins/RN,-6.2155812,-37.8890129,116,1621.47051
D1,Antônio Martins/RN,-6.2155812,-37.8890129,1,13.97819
1,Antônio Olinto/PR,-25.9849006,-50.1974516,136,1831.15659
D1,Antônio Olinto/PR,-25.9849006,-50.1974516,1,13.46439
1,Antônio Prado de Minas/MG,-21.0171988,-42.1101106,103,6490.23314
D1,Antônio Prado de Minas/MG,-21.0171988,-42.1101106,3,189.03592
1,Antônio Prado/RS,-28.8567806,-51.2801355,1024,7849.75086
D1,Antônio Prado/RS,-28.8567806,-51.2801355,11,84.32350
1,Anápolis/GO,-16.3332828,-48.9525756,17090,4362.23109
D1,Anápolis/GO,-16.3332828,-48.9525756,427,108.99196
1,Anísio de Abreu/PI,-9.185643,-43.04941,211,2123.16361
D1,Anísio de Abreu/PI,-9.185643,-43.04941,2,20.12477
1,Aparecida d'Oeste/SP,-20.4498109,-50.8808706,364,8754.20875
D1,Aparecida d'Oeste/SP,-20.4498109,-50.8808706,9,216.45022
1,Aparecida de Goiânia/GO,-16.8226769,-49.2452546,41179,6977.76482
D1,Aparecida de Goiânia/GO,-16.8226769,-49.2452546,609,103.19480
1,Aparecida do Rio Doce/GO,-18.2980167,-51.1491312,111,4486.66128
D1,Aparecida do Rio Doce/GO,-18.2980167,-51.1491312,3,121.26112
1,Aparecida do Rio Negro/TO,-9.9513491,-47.9773786,128,2640.26403
D1,Aparecida do Rio Negro/TO,-9.9513491,-47.9773786,2,41.25413
1,Aparecida do Taboado/MS,-20.0840304,-51.1013943,1194,4580.15267
D1,Aparecida do Taboado/MS,-20.0840304,-51.1013943,20,76.71948
1,Aparecida/PB,-6.7859598, -38.0831353,564,6701.52091
D1,Aparecida/PB,-6.7859598, -38.0831353,7,83.17490
1,Aparecida/SP,-22.851552,-45.2340924,873,2412.60191
D1,Aparecida/SP,-22.851552,-45.2340924,23,63.56225
1,Aperibé/RJ,-21.6211928,-42.1028167,253,2125.87178
D1,Aperibé/RJ,-21.6211928,-42.1028167,9,75.62390
1,Apiacá/ES,-21.152272,-41.569297,380,5030.44745
D1,Apiacá/ES,-21.152272,-41.569297,9,119.14218
1,Apiacás/MT,-9.5678422,-57.394852,178,1731.01235
D1,Apiacás/MT,-9.5678422,-57.394852,1,9.72479
1,Apiaí/SP,-24.5076527,-48.8461582,366,1510.77355
D1,Apiaí/SP,-24.5076527,-48.8461582,9,37.15017
1,Apicum-Açu/MA,-1.5279295,-45.082278,199,1142.82433
D1,Apicum-Açu/MA,-1.5279295,-45.082278,3,17.22851
1,Apiúna/SC,-27.0374658,-49.3885037,453,4175.88496
D1,Apiúna/SC,-27.0374658,-49.3885037,9,82.96460
1,Apodi/RN,-5.6631109,-37.796927,3265,9101.29899
D1,Apodi/RN,-5.6631109,-37.796927,45,125.43904
1,Aporá/BA,-11.6599747,-38.0794757,299,1680.90848
D1,Aporá/BA,-11.6599747,-38.0794757,8,44.97414
1,Aporé/GO,-18.9642193,-51.92804,165,3898.86578
D1,Aporé/GO,-18.9642193,-51.92804,3,70.88847
1,Apuarema/BA,-13.8517897,-39.7457126,477,6532.45686
D1,Apuarema/BA,-13.8517897,-39.7457126,7,95.86415
1,Apucarana/PR,-23.5525327,-51.4610764,2615,1919.49146
D1,Apucarana/PR,-23.5525327,-51.4610764,103,75.60521
1,Apuiarés/CE,-3.9460303,-39.4313298,263,1792.52999
D1,Apuiarés/CE,-3.9460303,-39.4313298,11,74.97274
1,Apuí/AM,-7.1940195,-59.8830192,614,2746.09777
D1,Apuí/AM,-7.1940195,-59.8830192,9,40.25225
1,Aquidabã/SE,-10.2837579,-37.0188687,1058,4879.84872
D1,Aquidabã/SE,-10.2837579,-37.0188687,19,87.63433
1,Aquidauana/MS,-20.473969,-55.7821375,2962,6167.10737
D1,Aquidauana/MS,-20.473969,-55.7821375,80,166.56603
1,Aquiraz/CE,-3.9063117,-38.387504,1449,1790.32557
D1,Aquiraz/CE,-3.9063117,-38.387504,40,49.42238
1,Arabutã/SC,-27.1587028,-52.1438142,167,3913.75674
D1,Arabutã/SC,-27.1587028,-52.1438142,2,46.87134
1,Aracaju/SE,-10.9162061,-37.0774655,63821,9598.47077
D1,Aracaju/SE,-10.9162061,-37.0774655,943,141.82413
1,Aracati/CE,-4.558259,-37.767894,2459,3279.75992
D1,Aracati/CE,-4.558259,-37.767894,59,78.69290
1,Aracatu/BA,-14.4274236,-41.4604105,456,3495.59218
D1,Aracatu/BA,-14.4274236,-41.4604105,7,53.66041
1,Araci/BA,-11.3356065,-38.9573261,1542,2821.69521
D1,Araci/BA,-11.3356065,-38.9573261,18,32.93808
1,Aracitaba/MG,-21.3425,-43.378611,67,3254.00680
D1,Aracitaba/MG,-21.3425,-43.378611,5,242.83633
1,Aracoiaba/CE,-4.3702577,-38.8084313,919,3463.35029
D1,Aracoiaba/CE,-4.3702577,-38.8084313,17,64.06633
1,Aracruz/ES,-19.8245218,-40.2735025,8620,8360.73365
D1,Aracruz/ES,-19.8245218,-40.2735025,112,108.63134
1,Aragarças/GO,-15.8957166,-52.2514538,1161,5726.82879
D1,Aragarças/GO,-15.8957166,-52.2514538,20,98.65338
1,Aragoiânia/GO,-16.9146388,-49.4499148,459,4373.09451
D1,Aragoiânia/GO,-16.9146388,-49.4499148,4,38.10976
1,Aragominas/TO,-7.1654101,-48.525488,342,5967.54493
D1,Aragominas/TO,-7.1654101,-48.525488,7,122.14273
1,Araguacema/TO,-8.8067391,-49.5560969,95,1327.74284
D1,Araguacema/TO,-8.8067391,-49.5560969,1,13.97624
1,Araguaiana/MT,-15.729144,-51.834112,69,2219.36314
D1,Araguaiana/MT,-15.729144,-51.834112,2,64.32937
1,Araguainha/MT,-16.857016,-53.031778,6,634.24947
1,Araguanã/MA,-2.9508403,-45.6651986,569,3658.92869
D1,Araguanã/MA,-2.9508403,-45.6651986,4,25.72182
1,Araguanã/TO,-6.5799107,-48.6428482,182,3141.72277
D1,Araguanã/TO,-6.5799107,-48.6428482,11,189.88434
1,Araguapaz/GO,-15.0937927,-50.626417,204,2621.09726
D1,Araguapaz/GO,-15.0937927,-50.626417,7,89.93961
1,Araguari/MG,-18.6511256,-48.1933764,5820,4939.52896
D1,Araguari/MG,-18.6511256,-48.1933764,123,104.39211
1,Araguatins/TO,-5.6522925,-48.1158973,1144,3162.84213
D1,Araguatins/TO,-5.6522925,-48.1158973,30,82.94166
1,Araguaçu/TO,-12.928934,-49.823134,577,6814.69233
D1,Araguaçu/TO,-12.928934,-49.823134,9,106.29503
1,Araguaína/TO,-7.193241,-48.2018597,18632,10160.26742
D1,Araguaína/TO,-7.193241,-48.2018597,246,134.14694
1,Araioses/MA,-2.890914,-41.904993,589,1259.32736
D1,Araioses/MA,-2.890914,-41.904993,10,21.38077
1,Aral Moreira/MS,-22.951141,-55.6268421,245,1986.70127
D1,Aral Moreira/MS,-22.951141,-55.6268421,6,48.65391
1,Aramari/BA,-12.0907897,-38.4985065,238,2076.60763
D1,Aramari/BA,-12.0907897,-38.4985065,6,52.35145
1,Arambaré/RS,-30.9132252,-51.4994625,59,1656.37282
D1,Arambaré/RS,-30.9132252,-51.4994625,2,56.14823
1,Arame/MA,-4.8858769,-46.0102484,958,2923.94091
D1,Arame/MA,-4.8858769,-46.0102484,22,67.14687
1,Aramina/SP,-20.0876144,-47.789201,139,2458.00177
D1,Aramina/SP,-20.0876144,-47.789201,5,88.41733
1,Arandu/SP,-23.1345103,-49.0545651,93,1461.11548
D1,Arandu/SP,-23.1345103,-49.0545651,5,78.55460
1,Arantina/MG,-21.911667,-44.255833,35,1255.83064
D1,Arantina/MG,-21.911667,-44.255833,2,71.76175
1,Arapeí/SP,-22.6738889,-44.4477778,38,1544.71545
D1,Arapeí/SP,-22.6738889,-44.4477778,1,40.65041
1,Arapiraca/AL,-9.754866,-36.661471,14608,6268.26348
D1,Arapiraca/AL,-9.754866,-36.661471,189,81.09952
1,Arapoema/TO,-7.6575001,-49.0641484,160,2418.37969
D1,Arapoema/TO,-7.6575001,-49.0641484,4,60.45949
1,Araponga/MG,-20.666667,-42.520556,162,1916.47936
1,Arapongas/PR,-23.415296,-51.42592,5499,4405.89696
D1,Arapongas/PR,-23.415296,-51.42592,167,133.80338
1,Araporã/MG,-18.4318188,-49.188313,1036,14947.33805
D1,Araporã/MG,-18.4318188,-49.188313,10,144.27932
1,Arapoti/PR,-24.1457957,-49.8224605,989,3494.69965
D1,Arapoti/PR,-24.1457957,-49.8224605,5,17.66784
1,Araputanga/MT,-15.4710868,-58.346796,680,4011.56274
D1,Araputanga/MT,-15.4710868,-58.346796,11,64.89293
1,Arapuá/MG,-19.034444,-46.155556,50,1763.66843
1,Arapuã/PR,-24.3079525,-51.7901941,96,3190.42871
D1,Arapuã/PR,-24.3079525,-51.7901941,2,66.46726
1,Araquari/SC,-26.3703324,-48.7210994,1633,4131.66684
D1,Araquari/SC,-26.3703324,-48.7210994,22,55.66238
1,Arara/PB,-6.8271895,-35.7605703,284,2097.17915
D1,Arara/PB,-6.8271895,-35.7605703,9,66.45990
1,Araranguá/SC,-28.9348832,-49.4858389,5884,8544.00511
D1,Araranguá/SC,-28.9348832,-49.4858389,91,132.13876
1,Araraquara/SP,-21.7886713,-48.1773096,8294,3479.91726
D1,Araraquara/SP,-21.7886713,-48.1773096,94,39.43962
1,Araras/SP,-22.3569477,-47.3838889,6623,4887.60645
D1,Araras/SP,-22.3569477,-47.3838889,98,72.32152
1,Ararendá/CE,-4.7504395,-40.8303611,436,3978.46519
D1,Ararendá/CE,-4.7504395,-40.8303611,9,82.12428
1,Arari/MA,-3.4547602,-44.7772723,373,1246.15796
D1,Arari/MA,-3.4547602,-44.7772723,10,33.40906
1,Araricá/RS,-29.6168543,-50.929121,435,7537.68844
D1,Araricá/RS,-29.6168543,-50.929121,9,155.95217
1,Araripe/CE,-7.212861,-40.1359222,321,1482.40510
D1,Araripe/CE,-7.212861,-40.1359222,5,23.09042
1,Araripina/PE,-7.5768582,-40.5038509,3312,3902.71493
D1,Araripina/PE,-7.5768582,-40.5038509,53,62.45287
1,Araruama/RJ,-22.8733203,-42.3428897,2518,1875.00465
D1,Araruama/RJ,-22.8733203,-42.3428897,99,73.71940
1,Araruna/PB,-6.5321155,-35.7397595,489,2389.67893
D1,Araruna/PB,-6.5321155,-35.7397595,15,73.30303
1,Araruna/PR,-23.9320308,-52.4976047,524,3742.85714
D1,Araruna/PR,-23.9320308,-52.4976047,11,78.57143
1,Arataca/BA,-15.2617424,-39.4122943,284,2591.00447
D1,Arataca/BA,-15.2617424,-39.4122943,10,91.23255
1,Aratiba/RS,-27.3955734,-52.3024325,211,3409.27452
D1,Aratiba/RS,-27.3955734,-52.3024325,4,64.63080
1,Aratuba/CE,-4.4195958,-39.0463737,277,2347.05982
D1,Aratuba/CE,-4.4195958,-39.0463737,2,16.94628
1,Aratuípe/BA,-13.077137,-39.0010786,195,2206.63121
D1,Aratuípe/BA,-13.077137,-39.0010786,6,67.89634
1,Araucária/PR,-25.5861107,-49.4051209,11325,7745.49633
D1,Araucária/PR,-25.5861107,-49.4051209,133,90.96256
1,Arauá/SE,-11.2644014,-37.6181058,495,4976.37479
D1,Arauá/SE,-11.2644014,-37.6181058,11,110.58611
1,Araxá/MG,-19.5928536,-46.940241,3730,3475.03657
D1,Araxá/MG,-19.5928536,-46.940241,43,40.06074
1,Araçagi/PB,-6.8519969,-35.3835602,619,3658.17623
D1,Araçagi/PB,-6.8519969,-35.3835602,7,41.36871
1,Araçariguama/SP,-23.438611,-47.061389,593,2594.05074
D1,Araçariguama/SP,-23.438611,-47.061389,15,65.61680
1,Araçatuba/SP,-21.207992,-50.4390225,11740,5925.43242
D1,Araçatuba/SP,-21.207992,-50.4390225,227,114.57182
1,Araçaí/MG,-19.200833,-44.2475,11,467.28972
1,Araçoiaba da Serra/SP,-23.5045367,-47.6168158,1020,2933.05728
D1,Araçoiaba da Serra/SP,-23.5045367,-47.6168158,21,60.38647
1,Araçoiaba/PE,-7.7856903,-35.0898881,204,983.93865
D1,Araçoiaba/PE,-7.7856903,-35.0898881,20,96.46457
1,Araçu/GO,-16.3561579,-49.6815269,164,4704.53242
D1,Araçu/GO,-16.3561579,-49.6815269,4,114.74469
1,Araçuaí/MG,-16.8484451,-42.0661868,328,893.44084
D1,Araçuaí/MG,-16.8484451,-42.0661868,10,27.23905
1,Araçás/BA,-12.2139176,-38.2026159,445,3645.15072
D1,Araçás/BA,-12.2139176,-38.2026159,6,49.14810
1,Araújos/MG,-19.948055,-45.165556,251,2669.92873
D1,Araújos/MG,-19.948055,-45.165556,1,10.63717
1,Arceburgo/MG,-21.364444,-46.939722,244,2242.02885
D1,Arceburgo/MG,-21.364444,-46.939722,3,27.56593
1,Arco-Íris/SP,-21.7741308,-50.4668814,36,2030.45685
D1,Arco-Íris/SP,-21.7741308,-50.4668814,3,169.20474
1,Arcos/MG,-20.282223,-45.539444,1309,3241.70381
D1,Arcos/MG,-20.282223,-45.539444,17,42.10005
1,Arcoverde/PE,-8.415192,-37.057748,3191,4264.78843
D1,Arcoverde/PE,-8.415192,-37.057748,76,101.57440
1,Areado/MG,-21.3582771,-46.1476688,171,1126.40801
D1,Areado/MG,-21.3582771,-46.1476688,3,19.76154
1,Areal/RJ,-22.2314922,-43.1056264,328,2588.99676
D1,Areal/RJ,-22.2314922,-43.1056264,9,71.03955
1,Arealva/SP,-22.0301906,-48.9111936,255,2960.64089
D1,Arealva/SP,-22.0301906,-48.9111936,2,23.22071
1,Areia Branca/RN,-4.9506652,-37.1263312,1042,3725.81972
D1,Areia Branca/RN,-4.9506652,-37.1263312,56,200.23599
1,Areia Branca/SE,-10.7591455,-37.3148072,954,5105.42652
D1,Areia Branca/SE,-10.7591455,-37.3148072,22,117.73520
1,Areia de Baraúnas/PB,-7.1233949,-36.9446216,14,661.62571
1,Areia/PB,-6.9680243,-35.6994783,615,2714.51271
D1,Areia/PB,-6.9680243,-35.6994783,6,26.48305
1,Areial/PB,-7.0501306,-35.9245244,108,1536.92899
D1,Areial/PB,-7.0501306,-35.9245244,4,56.92330
1,Areias/SP,-22.5800929,-44.6975127,63,1617.04312
1,Areiópolis/SP,-22.6758064,-48.6673653,234,2097.15003
D1,Areiópolis/SP,-22.6758064,-48.6673653,4,35.84872
1,Arenápolis/MT,-14.4610369,-56.8432806,595,6261.83961
D1,Arenápolis/MT,-14.4610369,-56.8432806,7,73.66870
1,Arenópolis/GO,-16.3859286,-51.55937,32,1261.82965
1,Argirita/MG,-21.612761,-42.8371922,131,4844.67456
D1,Argirita/MG,-21.612761,-42.8371922,5,184.91124
1,Aricanduva/MG,-17.8678,-42.5569,18,341.62080
1,Arinos/MG,-15.917223,-46.106111,168,940.54417
D1,Arinos/MG,-15.917223,-46.106111,4,22.39391
1,Aripuanã/MT,-10.175806,-59.4439663,1052,4631.50480
D1,Aripuanã/MT,-10.175806,-59.4439663,16,70.44114
1,Ariquemes/RO,-9.9076522,-63.033069,8855,8085.05976
D1,Ariquemes/RO,-9.9076522,-63.033069,158,144.26194
1,Ariranha do Ivaí/PR,-24.3834527,-51.5876772,42,2032.91384
D1,Ariranha do Ivaí/PR,-24.3834527,-51.5876772,1,48.40271
1,Ariranha/SP,-21.18716,-48.790418,217,2223.13288
D1,Ariranha/SP,-21.18716,-48.790418,11,112.69337
1,Armazém/SC,-28.2624996,-49.0190126,671,7660.69186
D1,Armazém/SC,-28.2624996,-49.0190126,6,68.50097
1,Armação dos Búzios/RJ,-22.7597805,-41.8875267,1768,5128.05639
D1,Armação dos Búzios/RJ,-22.7597805,-41.8875267,22,63.81066
1,Arneiroz/CE,-6.3235099,-40.1603859,72,917.89903
D1,Arneiroz/CE,-6.3235099,-40.1603859,6,76.49159
1,Aroazes/PI,-6.1108814,-41.7886137,157,2694.35387
D1,Aroazes/PI,-6.1108814,-41.7886137,5,85.80745
1,Aroeiras do Itaim/PI,-7.2797031,-41.5629681,92,3606.42885
D1,Aroeiras do Itaim/PI,-7.2797031,-41.5629681,1,39.20031
1,Aroeiras/PB,-7.5462904,-35.7080002,305,1595.52208
D1,Aroeiras/PB,-7.5462904,-35.7080002,3,15.69366
1,Arraial do Cabo/RJ,-22.9662839,-42.024427,407,1330.36969
D1,Arraial do Cabo/RJ,-22.9662839,-42.024427,9,29.41849
1,Arraial/PI,-6.6541632,-42.5335332,83,1758.47458
D1,Arraial/PI,-6.6541632,-42.5335332,1,21.18644
1,Arraias/TO,-12.9287788,-46.9437231,174,1651.79419
1,Arroio Grande/RS,-32.2384246,-53.0866661,511,2801.84231
D1,Arroio Grande/RS,-32.2384246,-53.0866661,5,27.41529
1,Arroio Trinta/SC,-26.9301976,-51.334928,224,6311.63708
D1,Arroio Trinta/SC,-26.9301976,-51.334928,2,56.35390
1,Arroio do Meio/RS,-29.4020392,-51.9444993,1028,4902.94272
D1,Arroio do Meio/RS,-29.4020392,-51.9444993,9,42.92460
1,Arroio do Padre/RS,-31.4428773,-52.4228985,72,2439.85090
1,Arroio do Sal/RS,-29.549852,-49.8874395,449,4368.12920
D1,Arroio do Sal/RS,-29.549852,-49.8874395,10,97.28573
1,Arroio do Tigre/RS,-29.334158,-53.0888935,266,1983.15067
D1,Arroio do Tigre/RS,-29.334158,-53.0888935,3,22.36636
1,Arroio dos Ratos/RS,-30.0894524,-51.7265541,350,2468.78747
D1,Arroio dos Ratos/RS,-30.0894524,-51.7265541,16,112.85886
1,Artur Nogueira/SP,-22.572737,-47.172679,1595,2882.18287
D1,Artur Nogueira/SP,-22.572737,-47.172679,41,74.08746
1,Aruanã/GO,-14.9162439,-51.0715692,201,1988.13056
D1,Aruanã/GO,-14.9162439,-51.0715692,1,9.89120
1,Arujá/SP,-23.396266,-46.3175449,3237,3551.01638
D1,Arujá/SP,-23.396266,-46.3175449,118,129.44700
1,Arvoredo/SC,-27.0752908,-52.4571847,85,3804.83438
D1,Arvoredo/SC,-27.0752908,-52.4571847,1,44.76276
1,Arvorezinha/RS,-28.87369,-52.17808,349,3348.36419
D1,Arvorezinha/RS,-28.87369,-52.17808,9,86.34750
1,Arês/RN,-6.1969216,-35.1642968,395,2739.82104
D1,Arês/RN,-6.1969216,-35.1642968,11,76.29881
1,Ascurra/SC,-26.9569975,-49.3767752,584,7320.13036
D1,Ascurra/SC,-26.9569975,-49.3767752,2,25.06894
1,Aspásia/SP,-20.160028,-50.728046,58,3190.31903
D1,Aspásia/SP,-20.160028,-50.728046,2,110.01100
1,Assaré/CE,-6.8746791,-39.8741385,932,3969.67374
D1,Assaré/CE,-6.8746791,-39.8741385,13,55.37099
1,Assaí/PR,-23.3736041,-50.8454929,463,3096.16156
D1,Assaí/PR,-23.3736041,-50.8454929,15,100.30761
1,Assis Brasil/AC,-10.9409203,-69.5672108,771,10233.60765
D1,Assis Brasil/AC,-10.9409203,-69.5672108,9,119.45846
1,Assis Chateaubriand/PR,-24.4054826,-53.5120468,1539,4616.07678
D1,Assis Chateaubriand/PR,-24.4054826,-53.5120468,21,62.98740
1,Assis/SP,-22.6620892,-50.420623,2573,2448.44748
D1,Assis/SP,-22.6620892,-50.420623,44,41.87007
1,Assunção do Piauí/PI,-5.8610212,-41.0485091,154,1958.54000
D1,Assunção do Piauí/PI,-5.8610212,-41.0485091,3,38.15338
1,Assunção/PB,-7.073396,-36.7274003,66,1638.12360
1,Astolfo Dutra/MG,-21.3132636,-42.8624102,705,4940.43448
D1,Astolfo Dutra/MG,-21.3132636,-42.8624102,12,84.09250
1,Astorga/PR,-23.2350184,-51.6647074,1118,4265.71025
D1,Astorga/PR,-23.2350184,-51.6647074,19,72.49418
1,Atalaia do Norte/AM,-4.3658547,-70.1908742,1733,8495.93097
D1,Atalaia do Norte/AM,-4.3658547,-70.1908742,5,24.51221
1,Atalaia/AL,-9.5029595,-36.0219316,663,1399.76776
D1,Atalaia/AL,-9.5029595,-36.0219316,26,54.89285
1,Atalaia/PR,-23.1513833,-52.0529697,142,3658.85081
D1,Atalaia/PR,-23.1513833,-52.0529697,3,77.29967
1,Atalanta/SC,-27.421916,-49.778863,94,2942.09703
1,Ataléia/MG,-18.04432,-41.1110524,336,2650.26029
D1,Ataléia/MG,-18.04432,-41.1110524,4,31.55072
1,Atibaia/SP,-23.1177393,-46.5547861,3908,2712.23141
D1,Atibaia/SP,-23.1177393,-46.5547861,84,58.29771
1,Atilio Vivacqua/ES,-20.9139369,-41.1947519,826,6823.62660
D1,Atilio Vivacqua/ES,-20.9139369,-41.1947519,14,115.65469
1,Augustinópolis/TO,-5.4662267,-47.8897519,809,4339.43035
D1,Augustinópolis/TO,-5.4662267,-47.8897519,11,59.00338
1,Augusto Corrêa/PA,-1.0229335,-46.6404029,1484,3193.38943
D1,Augusto Corrêa/PA,-1.0229335,-46.6404029,22,47.34135
1,Augusto Pestana/RS,-28.5148413,-53.9906433,99,1499.54559
D1,Augusto Pestana/RS,-28.5148413,-53.9906433,2,30.29385
1,Augusto de Lima/MG,-18.1092963,-44.2651945,108,2226.34508
D1,Augusto de Lima/MG,-18.1092963,-44.2651945,2,41.22861
1,Aurelino Leal/BA,-14.3167137,-39.3256107,640,5664.21807
D1,Aurelino Leal/BA,-14.3167137,-39.3256107,16,141.60545
1,Auriflama/SP,-20.6840418,-50.5554616,761,4989.18246
D1,Auriflama/SP,-20.6840418,-50.5554616,14,91.78522
1,Aurilândia/GO,-16.6772599,-50.4641231,66,2158.27338
D1,Aurilândia/GO,-16.6772599,-50.4641231,2,65.40222
1,Aurora do Pará/PA,-2.1323199,-47.558436,706,2222.01240
D1,Aurora do Pará/PA,-2.1323199,-47.558436,8,25.17861
1,Aurora do Tocantins/TO,-12.71045,-46.407604,78,2061.85567
1,Aurora/CE,-6.9426019,-38.9693765,903,3669.24015
D1,Aurora/CE,-6.9426019,-38.9693765,24,97.52133
1,Aurora/SC,-27.3166417,-49.6368502,226,3976.77283
D1,Aurora/SC,-27.3166417,-49.6368502,4,70.38536
1,Autazes/AM,-3.5833283,-59.1301518,1769,4390.66766
D1,Autazes/AM,-3.5833283,-59.1301518,44,109.20824
1,Avanhandava/SP,-21.4603331,-49.9465156,292,2106.93412
D1,Avanhandava/SP,-21.4603331,-49.9465156,10,72.15528
1,Avaré/SP,-23.1045215,-48.9259103,1362,1492.89723
D1,Avaré/SP,-23.1045215,-48.9259103,24,26.30656
1,Avaí/SP,-22.1564662,-49.3316395,141,2593.81898
D1,Avaí/SP,-22.1564662,-49.3316395,3,55.18764
1,Aveiro/PA,-3.6049239,-55.3310742,455,2773.71373
D1,Aveiro/PA,-3.6049239,-55.3310742,5,30.48037
1,Avelino Lopes/PI,-10.1346855,-43.9489525,176,1553.94667
D1,Avelino Lopes/PI,-10.1346855,-43.9489525,15,132.43864
1,Avelinópolis/GO,-16.4672409,-49.7578661,143,5936.07306
D1,Avelinópolis/GO,-16.4672409,-49.7578661,2,83.02200
1,Axixá do Tocantins/TO,-5.612747,-47.77007,584,5967.09921
D1,Axixá do Tocantins/TO,-5.612747,-47.77007,5,51.08818
1,Axixá/MA,-2.8379465,-44.0561053,142,1165.55857
D1,Axixá/MA,-2.8379465,-44.0561053,3,24.62448
1,Açailândia/MA,-4.9514278,-47.4844564,3741,3307.07826
D1,Açailândia/MA,-4.9514278,-47.4844564,104,91.93695
1,Açu/RN,-5.5836157,-36.9139541,2486,4258.01589
D1,Açu/RN,-5.5836157,-36.9139541,84,143.87503
1,Açucena/MG,-19.073056,-42.546666,177,1889.41076
D1,Açucena/MG,-19.073056,-42.546666,6,64.04782
1,Babaçulândia/TO,-7.2034355,-47.761613,432,4050.25314
D1,Babaçulândia/TO,-7.2034355,-47.761613,4,37.50234
1,Bacabal/MA,-4.2318132,-44.781167,3702,3532.77985
D1,Bacabal/MA,-4.2318132,-44.781167,74,70.61743
1,Bacabeira/MA,-2.9775747,-44.3155943,166,962.20728
D1,Bacabeira/MA,-2.9775747,-44.3155943,3,17.38929
1,Bacuri/MA,-1.728894,-45.1417148,429,2299.77485
D1,Bacuri/MA,-1.728894,-45.1417148,4,21.44312
1,Bacurituba/MA,-2.7082587,-44.7381309,93,1640.21164
1,Bady Bassitt/SP,-20.9178969,-49.4517911,1291,7268.73487
D1,Bady Bassitt/SP,-20.9178969,-49.4517911,23,129.49721
1,Baependi/MG,-21.959162,-44.8899249,409,2130.31929
D1,Baependi/MG,-21.959162,-44.8899249,8,41.66884
1,Bagre/PA,-1.8994498,-50.2103844,535,1707.90104
D1,Bagre/PA,-1.8994498,-50.2103844,11,35.11572
1,Bagé/RS,-31.3314264,-54.1062808,3096,2551.61330
D1,Bagé/RS,-31.3314264,-54.1062808,64,52.74653
1,Baianópolis/BA,-12.3067564,-44.5383591,185,1328.16426
D1,Baianópolis/BA,-12.3067564,-44.5383591,2,14.35853
1,Baixa Grande do Ribeiro/PI,-7.862861,-45.2113289,1571,13460.71459
D1,Baixa Grande do Ribeiro/PI,-7.862861,-45.2113289,15,128.52369
1,Baixa Grande/BA,-11.9630941,-40.1657537,372,1819.15986
D1,Baixa Grande/BA,-11.9630941,-40.1657537,3,14.67064
1,Baixio/CE,-6.7303544,-38.7170095,128,2030.77899
D1,Baixio/CE,-6.7303544,-38.7170095,3,47.59638
1,Baixo Guandu/ES,-19.5138322,-41.0182089,2044,6565.59167
D1,Baixo Guandu/ES,-19.5138322,-41.0182089,35,112.42451
1,Baião/PA,-2.7903479,-49.6702845,457,943.06527
D1,Baião/PA,-2.7903479,-49.6702845,15,30.95400
1,Balbinos/SP,-21.9006253,-49.3583966,261,4398.38220
D1,Balbinos/SP,-21.9006253,-49.3583966,3,50.55612
1,Baldim/MG,-19.2913568,-43.9558262,229,2934.76868
D1,Baldim/MG,-19.2913568,-43.9558262,5,64.07792
1,Baliza/GO,-16.1978119,-52.542789,76,1439.39394
1,Balneário Arroio do Silva/SC,-28.9815269,-49.4189932,1048,7803.42517
D1,Balneário Arroio do Silva/SC,-28.9815269,-49.4189932,17,126.58228
1,Balneário Barra do Sul/SC,-26.459842,-48.6061471,834,7557.77073
D1,Balneário Barra do Sul/SC,-26.459842,-48.6061471,15,135.93113
1,Balneário Camboriú/SC,-26.9924395,-48.6339782,15612,10708.11271
D1,Balneário Camboriú/SC,-26.9924395,-48.6339782,160,109.74238
1,Balneário Gaivota/SC,-29.1553098,-49.5808712,735,6527.53108
D1,Balneário Gaivota/SC,-29.1553098,-49.5808712,11,97.69094
1,Balneário Pinhal/RS,-30.2482978,-50.234585,564,3926.75625
D1,Balneário Pinhal/RS,-30.2482978,-50.234585,14,97.47267
1,Balneário Piçarras/SC,-26.7638889,-48.6716667,2292,9641.59515
D1,Balneário Piçarras/SC,-26.7638889,-48.6716667,17,71.51270
1,Balneário Rincão/SC,-28.8235718,-49.2241642,841,6496.21505
D1,Balneário Rincão/SC,-28.8235718,-49.2241642,20,154.48787
1,Balsa Nova/PR,-25.5842234,-49.6312741,547,4178.12405
D1,Balsa Nova/PR,-25.5842234,-49.6312741,11,84.02078
1,Balsas/MA,-7.53214,-46.037163,7073,7373.16140
D1,Balsas/MA,-7.53214,-46.037163,87,90.69207
1,Bambuí/MG,-20.0131996,-45.9777034,190,795.04561
D1,Bambuí/MG,-20.0131996,-45.9777034,1,4.18445
1,Banabuiú/CE,-5.3046404,-38.919766,661,3620.72743
D1,Banabuiú/CE,-5.3046404,-38.919766,4,21.91060
1,Bananal/SP,-22.6828195,-44.3221095,224,2037.66033
D1,Bananal/SP,-22.6828195,-44.3221095,1,9.09670
1,Bananeiras/PB,-6.7537682,-35.6338343,582,2736.37689
D1,Bananeiras/PB,-6.7537682,-35.6338343,2,9.40336
1,Bandeira do Sul/MG,-21.728056,-46.385555,77,1332.64105
D1,Bandeira do Sul/MG,-21.728056,-46.385555,3,51.92108
1,Bandeira/MG,-15.884444,-40.559167,389,8161.98070
D1,Bandeira/MG,-15.884444,-40.559167,5,104.90978
1,Bandeirante/SC,-26.7677402,-53.6397596,44,1661.63142
1,Bandeirantes do Tocantins/TO,-7.7635698,-48.579148,149,4148.10690
D1,Bandeirantes do Tocantins/TO,-7.7635698,-48.579148,2,55.67929
1,Bandeirantes/MS,-19.9179623,-54.3646768,228,3137.90256
D1,Bandeirantes/MS,-19.9179623,-54.3646768,4,55.05092
1,Bandeirantes/PR,-23.107788,-50.370407,1568,5023.86979
D1,Bandeirantes/PR,-23.107788,-50.370407,42,134.56794
1,Bannach/PA,-7.3508505,-50.4064531,121,3709.38075
D1,Bannach/PA,-7.3508505,-50.4064531,2,61.31208
1,Banzaê/BA,-10.5827616,-38.6122305,684,5166.16314
D1,Banzaê/BA,-10.5827616,-38.6122305,4,30.21148
1,Baraúna/PB,-6.643394,-36.2531932,155,3122.48187
1,Baraúna/RN,-5.0775002,-37.61752,648,2254.14826
D1,Baraúna/RN,-5.0775002,-37.61752,16,55.65798
1,Barbacena/MG,-21.2254524,-43.7735087,2621,1896.47188
D1,Barbacena/MG,-21.2254524,-43.7735087,43,31.11343
1,Barbalha/CE,-7.3121067,-39.3036427,2506,4092.89867
D1,Barbalha/CE,-7.3121067,-39.3036427,58,94.72790
1,Barbosa Ferraz/PR,-24.0287182,-52.00811,350,3063.18922
D1,Barbosa Ferraz/PR,-24.0287182,-52.00811,4,35.00788
1,Barbosa/SP,-21.265661,-49.951816,190,2544.18854
D1,Barbosa/SP,-21.265661,-49.951816,3,40.17140
1,Barcarena/PA,-1.5107945,-48.6190679,4729,3722.83058
D1,Barcarena/PA,-1.5107945,-48.6190679,127,99.97874
1,Barcelona/RN,-5.9514918,-35.9260284,41,1026.53981
D1,Barcelona/RN,-5.9514918,-35.9260284,5,125.18778
1,Barcelos/AM,-0.9729214,-62.925635,3369,12189.73877
D1,Barcelos/AM,-0.9729214,-62.925635,33,119.40082
1,Bariri/SP,-22.0746355,-48.7394852,1419,3990.66314
D1,Bariri/SP,-22.0746355,-48.7394852,32,89.99381
1,Barra Bonita/SC,-26.6526364,-53.4419581,49,2967.89824
1,Barra Bonita/SP,-22.490859,-48.558349,1349,3734.15269
D1,Barra Bonita/SP,-22.490859,-48.558349,28,77.50651
1,Barra D'Alcântara/PI,-6.5209258,-42.1071089,64,1619.43320
D1,Barra D'Alcântara/PI,-6.5209258,-42.1071089,1,25.30364
1,Barra Funda/RS,-27.9230048,-53.0401045,206,8075.26460
D1,Barra Funda/RS,-27.9230048,-53.0401045,3,117.60094
1,Barra Longa/MG,-20.2833541,-43.0423516,120,2392.82154
1,Barra Mansa/RJ,-22.5394843,-44.1735129,6623,3583.23460
D1,Barra Mansa/RJ,-22.5394843,-44.1735129,232,125.51871
1,Barra Velha/SC,-26.6338203,-48.6835001,1806,6048.22505
D1,Barra Velha/SC,-26.6338203,-48.6835001,33,110.51574
1,Barra da Estiva/BA,-13.6269662,-41.3278287,909,4457.63044
D1,Barra da Estiva/BA,-13.6269662,-41.3278287,4,19.61554
1,Barra de Guabiraba/PE,-8.4173522,-35.6626669,210,1447.27774
D1,Barra de Guabiraba/PE,-8.4173522,-35.6626669,11,75.80979
1,Barra de Santa Rosa/PB,-6.7218007,-36.0564638,374,2413.37033
D1,Barra de Santa Rosa/PB,-6.7218007,-36.0564638,2,12.90572
1,Barra de Santana/PB,-7.5230865,-35.9988518,238,2850.64080
D1,Barra de Santana/PB,-7.5230865,-35.9988518,3,35.93245
1,Barra de Santo Antônio/AL,-9.4038098,-35.5117693,146,908.63829
D1,Barra de Santo Antônio/AL,-9.4038098,-35.5117693,15,93.35325
1,Barra de São Francisco/ES,-18.7570902,-40.8916119,1857,4128.59334
D1,Barra de São Francisco/ES,-18.7570902,-40.8916119,55,122.27929
1,Barra de São Miguel/AL,-9.8261357,-35.8837777,202,2411.07663
D1,Barra de São Miguel/AL,-9.8261357,-35.8837777,5,59.68011
1,Barra de São Miguel/PB,-7.7528088,-36.3170996,138,2275.35037
D1,Barra de São Miguel/PB,-7.7528088,-36.3170996,1,16.48805
1,Barra do Bugres/MT,-15.0683712,-57.1853688,1338,3789.61679
D1,Barra do Bugres/MT,-15.0683712,-57.1853688,26,73.63979
1,Barra do Chapéu/SP,-24.472203,-49.023784,76,1319.44444
1,Barra do Choça/BA,-14.8638173,-40.5761637,858,2749.20696
D1,Barra do Choça/BA,-14.8638173,-40.5761637,9,28.83784
1,Barra do Corda/MA,-5.496823,-45.248496,4085,4616.23650
D1,Barra do Corda/MA,-5.496823,-45.248496,47,53.11215
1,Barra do Garças/MT,-15.8916033,-52.2615413,3867,6325.34555
D1,Barra do Garças/MT,-15.8916033,-52.2615413,134,219.18705
1,Barra do Guarita/RS,-27.1888016,-53.7147086,65,1995.70157
1,Barra do Jacaré/PR,-23.1151788,-50.1813945,66,2373.24703
1,Barra do Mendes/BA,-11.8053298,-42.057037,517,3737.43946
D1,Barra do Mendes/BA,-11.8053298,-42.057037,6,43.37454
1,Barra do Ouro/TO,-7.7113784,-47.6743925,84,1813.47150
D1,Barra do Ouro/TO,-7.7113784,-47.6743925,5,107.94473
1,Barra do Piraí/RJ,-22.4703403,-43.8263256,2501,2482.03724
D1,Barra do Piraí/RJ,-22.4703403,-43.8263256,105,104.20388
1,Barra do Quaraí/RS,-30.208947,-57.5505128,156,3690.56068
D1,Barra do Quaraí/RS,-30.208947,-57.5505128,1,23.65744
1,Barra do Ribeiro/RS,-30.2930206,-51.301437,386,2847.44762
D1,Barra do Ribeiro/RS,-30.2930206,-51.301437,27,199.17380
1,Barra do Rio Azul/RS,-27.4101581,-52.4117471,20,1208.45921
D1,Barra do Rio Azul/RS,-27.4101581,-52.4117471,1,60.42296
1,Barra do Rocha/BA,-14.2090974,-39.6004395,181,3225.23165
D1,Barra do Rocha/BA,-14.2090974,-39.6004395,3,53.45688
1,Barra do Turvo/SP,-24.756421,-48.5056942,258,3380.50314
D1,Barra do Turvo/SP,-24.756421,-48.5056942,7,91.71908
1,Barra dos Coqueiros/SE,-10.9075694,-37.0386249,2697,8719.68962
D1,Barra dos Coqueiros/SE,-10.9075694,-37.0386249,33,106.69253
1,Barra/BA,-11.0892702,-43.1420453,683,1266.92636
D1,Barra/BA,-11.0892702,-43.1420453,13,24.11426
1,Barracão/PR,-26.252395,-53.6349576,346,3355.31420
D1,Barracão/PR,-26.252395,-53.6349576,7,67.88208
1,Barracão/RS,-27.6728964,-51.4582928,172,3272.45053
D1,Barracão/RS,-27.6728964,-51.4582928,4,76.10350
1,Barras/PI,-4.2446153,-42.2920241,3244,6875.06623
D1,Barras/PI,-4.2446153,-42.2920241,61,129.27837
1,Barreira/CE,-4.2883361,-38.641094,379,1678.99703
D1,Barreira/CE,-4.2883361,-38.641094,21,93.03150
1,Barreiras do Piauí/PI,-9.9224524,-45.4763776,41,1223.15036
D1,Barreiras do Piauí/PI,-9.9224524,-45.4763776,1,29.83294
1,Barreiras/BA,-12.1440031,-44.9967406,7674,4888.67654
D1,Barreiras/BA,-12.1440031,-44.9967406,107,68.16372
1,Barreirinha/AM,-2.798863,-57.067897,1571,4836.37595
D1,Barreirinha/AM,-2.798863,-57.067897,27,83.12040
1,Barreirinhas/MA,-2.7541271,-42.8259693,1365,2159.22932
D1,Barreirinhas/MA,-2.7541271,-42.8259693,27,42.71003
1,Barreiros/PE,-8.8159644,-35.1831905,368,860.53690
D1,Barreiros/PE,-8.8159644,-35.1831905,41,95.87504
1,Barretos/SP,-20.5531437,-48.5697509,6516,5304.76338
D1,Barretos/SP,-20.5531437,-48.5697509,160,130.25816
1,Barrinha/SP,-21.1898849,-48.1550642,850,2561.78421
D1,Barrinha/SP,-21.1898849,-48.1550642,34,102.47137
1,Barro Alto/BA,-11.7618025,-41.9094904,522,3467.51694
D1,Barro Alto/BA,-11.7618025,-41.9094904,4,26.57101
1,Barro Alto/GO,-14.9696025,-48.9190985,638,5592.56662
D1,Barro Alto/GO,-14.9696025,-48.9190985,8,70.12623
1,Barro Duro/PI,-5.8180139,-42.5106589,467,6645.79479
D1,Barro Duro/PI,-5.8180139,-42.5106589,7,99.61577
1,Barro Preto/BA,-14.8068289,-39.4727588,328,6020.55800
D1,Barro Preto/BA,-14.8068289,-39.4727588,6,110.13216
1,Barro/CE,-7.1713587,-38.7742136,499,2192.63556
D1,Barro/CE,-7.1713587,-38.7742136,10,43.94059
1,Barrocas/BA,-11.5165,-39.099282894736845,240,1490.22043
D1,Barrocas/BA,-11.5165,-39.099282894736845,4,24.83701
1,Barrolândia/TO,-9.837246,-48.7264346,249,4406.29977
D1,Barrolândia/TO,-9.837246,-48.7264346,4,70.78393
1,Barroquinha/CE,-3.0200371,-41.1339229,821,5457.32518
D1,Barroquinha/CE,-3.0200371,-41.1339229,20,132.94337
1,Barros Cassal/RS,-29.094938,-52.5832366,250,2235.73600
D1,Barros Cassal/RS,-29.094938,-52.5832366,2,17.88589
1,Barroso/MG,-21.187222,-43.976111,379,1813.65746
D1,Barroso/MG,-21.187222,-43.976111,3,14.35613
1,Barueri/SP,-23.5112184,-46.8764612,12413,4481.51865
D1,Barueri/SP,-23.5112184,-46.8764612,470,169.68612
1,Barão de Antonina/SP,-23.6295651,-49.5632104,27,771.86964
D1,Barão de Antonina/SP,-23.6295651,-49.5632104,1,28.58776
1,Barão de Cocais/MG,-19.9452437,-43.4870298,1146,3486.88614
D1,Barão de Cocais/MG,-19.9452437,-43.4870298,9,27.38392
1,Barão de Cotegipe/RS,-27.6214694,-52.3765316,306,4622.35650
D1,Barão de Cotegipe/RS,-27.6214694,-52.3765316,4,60.42296
1,Barão de Grajaú/MA,-6.7542591,-43.0263477,27,142.67597
D1,Barão de Grajaú/MA,-6.7542591,-43.0263477,1,5.28430
1,Barão de Melgaço/MT,-16.195776,-55.9668049,142,1739.34346
D1,Barão de Melgaço/MT,-16.195776,-55.9668049,6,73.49339
1,Barão de Monte Alto/MG,-21.244722,-42.2375,118,2203.95966
D1,Barão de Monte Alto/MG,-21.244722,-42.2375,5,93.38812
1,Barão do Triunfo/RS,-30.3909877,-51.7375349,175,2327.43716
D1,Barão do Triunfo/RS,-30.3909877,-51.7375349,1,13.29964
1,Barão/RS,-29.372474,-51.494908,220,3547.24282
D1,Barão/RS,-29.372474,-51.494908,3,48.37149
1,Bastos/SP,-21.9222474,-50.7317727,280,1336.32415
D1,Bastos/SP,-21.9222474,-50.7317727,7,33.40810
1,Bataguassu/MS,-21.715899,-52.422058,1450,6216.50589
D1,Bataguassu/MS,-21.715899,-52.422058,12,51.44695
1,Batalha/AL,-9.6733809,-37.1265481,663,3615.44334
D1,Batalha/AL,-9.6733809,-37.1265481,12,65.43789
1,Batalha/PI,-4.022391,-42.0780926,496,1843.52351
D1,Batalha/PI,-4.022391,-42.0780926,12,44.60138
1,Batatais/SP,-20.892867,-47.592149,1033,1640.20324
D1,Batatais/SP,-20.892867,-47.592149,34,53.98539
1,Batayporã/MS,-22.2976466,-53.2685608,369,3251.38779
D1,Batayporã/MS,-22.2976466,-53.2685608,7,61.67944
1,Baturité/CE,-4.3290203,-38.8821055,792,2203.61147
D1,Baturité/CE,-4.3290203,-38.8821055,33,91.81714
1,Bauru/SP,-22.3218102,-49.0705863,20010,5275.54924
D1,Bauru/SP,-22.3218102,-49.0705863,323,85.15754
1,Bayeux/PB,-7.1301631,-34.936532,2701,2778.72082
D1,Bayeux/PB,-7.1301631,-34.936532,130,133.74073
1,Baía Formosa/RN,-6.3691885,-35.0063741,198,2124.00772
D1,Baía Formosa/RN,-6.3691885,-35.0063741,6,64.36387
1,Baía da Traição/PB,-6.691258,-34.9371244,928,10202.28672
D1,Baía da Traição/PB,-6.691258,-34.9371244,8,87.95075
1,Bebedouro/SP,-20.949077,-48.479083,1897,2446.00606
D1,Bebedouro/SP,-20.949077,-48.479083,40,51.57630
1,Beberibe/CE,-4.1810469,-38.1298101,1328,2461.58409
D1,Beberibe/CE,-4.1810469,-38.1298101,31,57.46168
1,Bela Cruz/CE,-3.0529129,-40.167582,1375,4202.06589
D1,Bela Cruz/CE,-3.0529129,-40.167582,24,73.34515
1,Bela Vista da Caroba/PR,-25.8792818,-53.6672545,66,1909.16980
D1,Bela Vista da Caroba/PR,-25.8792818,-53.6672545,1,28.92682
1,Bela Vista de Goiás/GO,-16.9692949,-48.9513071,1251,4102.71547
D1,Bela Vista de Goiás/GO,-16.9692949,-48.9513071,22,72.15007
1,Bela Vista de Minas/MG,-19.8289721,-43.0973688,252,2455.66166
D1,Bela Vista de Minas/MG,-19.8289721,-43.0973688,5,48.72345
1,Bela Vista do Maranhão/MA,-3.7416367,-45.2514192,155,1374.23530
D1,Bela Vista do Maranhão/MA,-3.7416367,-45.2514192,8,70.92827
1,Bela Vista do Paraíso/PR,-22.9948493,-51.1907996,479,3110.59160
D1,Bela Vista do Paraíso/PR,-22.9948493,-51.1907996,8,51.95143
1,Bela Vista do Piauí/PI,-7.9716353,-41.8715061,195,4838.70968
D1,Bela Vista do Piauí/PI,-7.9716353,-41.8715061,3,74.44169
1,Bela Vista do Toldo/SC,-26.274625,-50.466354,25,392.95819
D1,Bela Vista do Toldo/SC,-26.274625,-50.466354,1,15.71833
1,Bela Vista/MS,-22.107327,-56.5317344,185,747.92804
D1,Bela Vista/MS,-22.107327,-56.5317344,7,28.29998
1,Belford Roxo/RJ,-22.7667284,-43.4033603,15530,3026.59427
D1,Belford Roxo/RJ,-22.7667284,-43.4033603,391,76.20080
1,Belmiro Braga/MG,-21.9486291,-43.413564,58,1693.43066
D1,Belmiro Braga/MG,-21.9486291,-43.413564,3,87.59124
1,Belmonte/BA,-15.8630837,-38.8792845,641,2734.99168
D1,Belmonte/BA,-15.8630837,-38.8792845,6,25.60055
1,Belmonte/SC,-26.8448262,-53.578916,64,2362.49539
1,Belo Campo/BA,-15.0338286,-41.2585109,245,1431.99486
D1,Belo Campo/BA,-15.0338286,-41.2585109,3,17.53463
1,Belo Horizonte/MG,-19.9227318,-43.9450948,73980,2933.89341
D1,Belo Horizonte/MG,-19.9227318,-43.9450948,2002,79.39517
1,Belo Jardim/PE,-8.3338293,-36.4176419,1437,1873.85085
D1,Belo Jardim/PE,-8.3338293,-36.4176419,41,53.46408
1,Belo Monte/AL,-9.8269944,-37.2787165,189,2816.69151
D1,Belo Monte/AL,-9.8269944,-37.2787165,5,74.51565
1,Belo Oriente/MG,-19.2232523,-42.4807033,1206,4467.65948
D1,Belo Oriente/MG,-19.2232523,-42.4807033,22,81.49959
1,Belo Vale/MG,-20.407778,-44.024167,212,2746.46975
D1,Belo Vale/MG,-20.407778,-44.024167,6,77.73028
1,Belterra/PA,-2.636091,-54.937392,564,3161.61220
D1,Belterra/PA,-2.636091,-54.937392,14,78.47974
1,Belágua/MA,-3.1604031,-43.5085052,279,3706.16366
D1,Belágua/MA,-3.1604031,-43.5085052,1,13.28374
1,Belém de Maria/PE,-8.6242497,-35.8388934,113,932.18941
D1,Belém de Maria/PE,-8.6242497,-35.8388934,3,24.74839
1,Belém do Brejo do Cruz/PB,-6.1880727,-37.5332267,333,4531.22874
D1,Belém do Brejo do Cruz/PB,-6.1880727,-37.5332267,5,68.03647
1,Belém do Piauí/PI,-7.3767305,-40.9712156,229,6384.16504
D1,Belém do Piauí/PI,-7.3767305,-40.9712156,4,111.51380
1,Belém do São Francisco/PE,-8.7517707,-38.9625715,185,892.42644
1,Belém/AL,-9.5715351,-36.492841,73,1704.01494
D1,Belém/AL,-9.5715351,-36.492841,3,70.02801
1,Belém/PA,-1.45056,-48.4682453,60946,4064.03933
D1,Belém/PA,-1.45056,-48.4682453,2503,166.90661
1,Belém/PB,-6.6967586,-35.5369626,1190,6721.26518
D1,Belém/PB,-6.6967586,-35.5369626,19,107.31432
1,Beneditinos/PI,-5.4565671,-42.3605061,401,3828.89334
D1,Beneditinos/PI,-5.4565671,-42.3605061,15,143.22544
1,Benedito Leite/MA,-7.2173453,-44.5523331,231,4097.19759
D1,Benedito Leite/MA,-7.2173453,-44.5523331,2,35.47357
1,Benedito Novo/SC,-26.7840657,-49.3629511,483,4101.91083
D1,Benedito Novo/SC,-26.7840657,-49.3629511,5,42.46285
1,Benevides/PA,-1.3555577,-48.252235,2283,3580.16560
D1,Benevides/PA,-1.3555577,-48.252235,51,79.97742
1,Benjamin Constant do Sul/RS,-27.5105555,-52.6007689,120,6128.70276
1,Benjamin Constant/AM,-4.3782748,-70.0290603,1943,4422.44224
D1,Benjamin Constant/AM,-4.3782748,-70.0290603,46,104.70013
1,Bento Fernandes/RN,-5.6926846,-35.8207423,40,723.98190
D1,Bento Fernandes/RN,-5.6926846,-35.8207423,2,36.19910
1,Bento Gonçalves/RS,-29.1654014,-51.5197627,7689,6312.65240
D1,Bento Gonçalves/RS,-29.1654014,-51.5197627,150,123.14968
1,Bento de Abreu/SP,-21.2707225,-50.8120444,70,2329.45092
1,Bequimão/MA,-2.4495376,-44.7884889,246,1154.98380
D1,Bequimão/MA,-2.4495376,-44.7884889,12,56.34067
1,Berilo/MG,-16.9515764,-42.4643732,10,84.23181
1,Berizal/MG,-15.6118785,-41.7417382,24,503.77834
1,Bernardino Batista/PB,-6.4532173,-38.5495418,162,4581.44796
1,Bernardino de Campos/SP,-23.0140216,-49.4760724,158,1416.02438
D1,Bernardino de Campos/SP,-23.0140216,-49.4760724,6,53.77308
1,Bernardo Sayão/TO,-7.8794244,-48.8968905,122,2742.80576
D1,Bernardo Sayão/TO,-7.8794244,-48.8968905,4,89.92806
1,Bernardo do Mearim/MA,-4.6315929,-44.7617508,140,2305.28569
D1,Bernardo do Mearim/MA,-4.6315929,-44.7617508,3,49.39898
1,Bertioga/SP,-23.848568,-46.139586,2627,4058.83534
D1,Bertioga/SP,-23.848568,-46.139586,54,83.43247
1,Bertolínia/PI,-7.6372159,-43.9540611,567,10295.98693
D1,Bertolínia/PI,-7.6372159,-43.9540611,6,108.95224
1,Bertópolis/MG,-17.063333,-40.573889,200,4341.21988
1,Beruri/AM,-3.9007135,-61.3717319,1281,6375.35460
D1,Beruri/AM,-3.9007135,-61.3717319,16,79.62972
1,Betim/MG,-19.968056,-44.198333,12344,2775.27969
D1,Betim/MG,-19.968056,-44.198333,353,79.36437
1,Betânia do Piauí/PI,-8.1460635,-40.7961387,88,1417.06924
D1,Betânia do Piauí/PI,-8.1460635,-40.7961387,2,32.20612
1,Betânia/PE,-8.2742779,-38.0351767,155,1214.25774
D1,Betânia/PE,-8.2742779,-38.0351767,2,15.66784
1,Bezerros/PE,-8.2372132,-35.7558262,1933,3175.09855
D1,Bezerros/PE,-8.2372132,-35.7558262,74,121.55059
1,Bias Fortes/MG,-21.605833,-43.756944,57,1712.22589
D1,Bias Fortes/MG,-21.605833,-43.756944,2,60.07810
1,Bicas/MG,-21.7213723,-43.0604327,367,2521.64353
D1,Bicas/MG,-21.7213723,-43.0604327,10,68.70963
1,Biguaçu/SC,-27.4961277,-48.6542432,6341,9125.57925
D1,Biguaçu/SC,-27.4961277,-48.6542432,62,89.22661
1,Bilac/SP,-21.403962,-50.47464,247,3042.99618
D1,Bilac/SP,-21.403962,-50.47464,5,61.59911
1,Biquinhas/MG,-18.783611,-45.502222,28,1120.89672
1,Birigui/SP,-21.2908491,-50.34144,5340,4276.00234
D1,Birigui/SP,-21.2908491,-50.34144,139,111.30418
1,Biritiba Mirim/SP,-23.5697765,-46.0407456,576,1748.84625
D1,Biritiba Mirim/SP,-23.5697765,-46.0407456,35,106.26670
1,Biritinga/BA,-11.6227908,-38.8066738,126,788.28829
D1,Biritinga/BA,-11.6227908,-38.8066738,2,12.51251
1,Bituruna/PR,-26.161281,-51.5533319,136,829.26829
D1,Bituruna/PR,-26.161281,-51.5533319,1,6.09756
1,Blumenau/SC,-26.9195567,-49.0658025,28452,7862.81798
D1,Blumenau/SC,-26.9195567,-49.0658025,279,77.10271
1,Boa Esperança do Iguaçu/PR,-25.6362851,-53.2139114,92,3724.69636
1,Boa Esperança do Sul/SP,-21.9930206,-48.3917372,320,2130.77640
D1,Boa Esperança do Sul/SP,-21.9930206,-48.3917372,8,53.26941
1,Boa Esperança/ES,-18.5395472,-40.2904088,584,3869.59979
D1,Boa Esperança/ES,-18.5395472,-40.2904088,21,139.14657
1,Boa Esperança/MG,-21.0901253,-45.5660195,741,1842.41279
D1,Boa Esperança/MG,-21.0901253,-45.5660195,20,49.72774
1,Boa Esperança/PR,-24.2411024,-52.7860277,110,2718.06276
D1,Boa Esperança/PR,-24.2411024,-52.7860277,2,49.41932
1,Boa Hora/PI,-4.4094627,-42.1255341,191,2802.64123
1,Boa Nova/BA,-14.365907,-40.2063056,244,1979.07373
D1,Boa Nova/BA,-14.365907,-40.2063056,5,40.55479
1,Boa Ventura de São Roque/PR,-24.88177,-51.5441292,102,1602.51375
D1,Boa Ventura de São Roque/PR,-24.88177,-51.5441292,2,31.42184
1,Boa Ventura/PB,-7.4202462,-38.2156782,146,2751.08347
D1,Boa Ventura/PB,-7.4202462,-38.2156782,3,56.52911
1,Boa Viagem/CE,-5.1261877,-39.7300055,1602,2935.30242
D1,Boa Viagem/CE,-5.1261877,-39.7300055,41,75.12322
1,Boa Vista da Aparecida/PR,-25.4357216,-53.4067721,307,4071.61804
D1,Boa Vista da Aparecida/PR,-25.4357216,-53.4067721,8,106.10080
1,Boa Vista das Missões/RS,-27.6677983,-53.3127622,13,621.41491
1,Boa Vista do Buricá/RS,-27.6687782,-54.1111913,290,4320.61979
D1,Boa Vista do Buricá/RS,-27.6687782,-54.1111913,4,59.59476
1,Boa Vista do Cadeado/RS,-28.5783827,-53.8123759,68,2755.26742
1,Boa Vista do Gurupi/MA,-1.7981168,-46.3071882,14,167.02458
D1,Boa Vista do Gurupi/MA,-1.7981168,-46.3071882,3,35.79098
1,Boa Vista do Incra/RS,-28.8195551,-53.3866624,64,2446.48318
D1,Boa Vista do Incra/RS,-28.8195551,-53.3866624,1,38.22630
1,Boa Vista do Ramos/AM,-2.9716927,-57.5869819,639,3255.88505
D1,Boa Vista do Ramos/AM,-2.9716927,-57.5869819,9,45.85754
1,Boa Vista do Sul/RS,-29.3510488,-51.6779679,120,4319.65443
D1,Boa Vista do Sul/RS,-29.3510488,-51.6779679,1,35.99712
1,Boa Vista do Tupim/BA,-12.6605988,-40.6083594,137,739.30171
D1,Boa Vista do Tupim/BA,-12.6605988,-40.6083594,2,10.79273
1,Boa Vista/PB,-7.2620711,-36.2415161,173,2424.32735
D1,Boa Vista/PB,-7.2620711,-36.2415161,2,28.02691
1,Boa Vista/RR,2.8208478,-60.6719582,53098,12652.86475
D1,Boa Vista/RR,2.8208478,-60.6719582,586,139.63951
1,Boca da Mata/AL,-9.6452054,-36.2116658,1293,4726.56821
D1,Boca da Mata/AL,-9.6452054,-36.2116658,25,91.38763
1,Boca do Acre/AM,-8.7553487,-67.3930873,2110,6092.10336
D1,Boca do Acre/AM,-8.7553487,-67.3930873,18,51.97055
1,Bocaina de Minas/MG,-22.167778,-44.394722,54,1061.11220
D1,Bocaina de Minas/MG,-22.167778,-44.394722,2,39.30045
1,Bocaina do Sul/SC,-27.745494,-49.942279,283,8113.53211
D1,Bocaina do Sul/SC,-27.745494,-49.942279,3,86.00917
1,Bocaina/PI,-6.9445939,-41.3224599,179,3973.36293
D1,Bocaina/PI,-6.9445939,-41.3224599,3,66.59267
1,Bocaina/SP,-22.1421831,-48.522276,288,2312.88146
D1,Bocaina/SP,-22.1421831,-48.522276,5,40.15419
1,Bocaiúva do Sul/PR,-25.206591,-49.114131,607,4623.35288
D1,Bocaiúva do Sul/PR,-25.206591,-49.114131,5,38.08363
1,Bocaiúva/MG,-17.1160208,-43.8122678,640,1273.47978
D1,Bocaiúva/MG,-17.1160208,-43.8122678,8,15.91850
1,Bodocó/PE,-7.777592,-39.933797,1167,3040.80463
D1,Bodocó/PE,-7.777592,-39.933797,13,33.87357
1,Bodoquena/MS,-20.5508775,-56.6769653,88,1122.73539
D1,Bodoquena/MS,-20.5508775,-56.6769653,2,25.51671
1,Bodó/RN,-5.9866104,-36.4134824,53,2412.38052
1,Bofete/SP,-23.1019554,-48.2610535,227,1904.20267
D1,Bofete/SP,-23.1019554,-48.2610535,4,33.55423
1,Boituva/SP,-23.2838893,-47.6738231,2065,3321.53772
D1,Boituva/SP,-23.2838893,-47.6738231,33,53.08026
1,Bom Conselho/PE,-9.169191,-36.685683,956,1960.34203
D1,Bom Conselho/PE,-9.169191,-36.685683,28,57.41588
1,Bom Despacho/MG,-19.7375242,-45.2517288,1600,3135.53343
D1,Bom Despacho/MG,-19.7375242,-45.2517288,29,56.83154
1,Bom Jardim da Serra/SC,-28.3380324,-49.625588,477,9995.80889
D1,Bom Jardim da Serra/SC,-28.3380324,-49.625588,2,41.91115
1,Bom Jardim de Goiás/GO,-16.2062659,-52.172793,187,2108.46770
D1,Bom Jardim de Goiás/GO,-16.2062659,-52.172793,4,45.10091
1,Bom Jardim de Minas/MG,-21.9476466,-44.1906033,92,1424.36910
1,Bom Jardim/MA,-3.54129,-45.606004,998,2386.30386
D1,Bom Jardim/MA,-3.54129,-45.606004,29,69.34149
1,Bom Jardim/PE,-7.7961572,-35.5871696,793,1983.34292
D1,Bom Jardim/PE,-7.7961572,-35.5871696,34,85.03614
1,Bom Jardim/RJ,-22.1515328,-42.4186683,509,1843.13441
D1,Bom Jardim/RJ,-22.1515328,-42.4186683,5,18.10545
1,Bom Jesus da Lapa/BA,-13.250571,-43.410754,1364,1958.02590
D1,Bom Jesus da Lapa/BA,-13.250571,-43.410754,18,25.83905
1,Bom Jesus da Penha/MG,-21.0165299,-46.5226644,127,2992.45994
D1,Bom Jesus da Penha/MG,-21.0165299,-46.5226644,1,23.56268
1,Bom Jesus da Serra/BA,-14.3724084,-40.5047119,204,2076.75863
1,Bom Jesus das Selvas/MA,-4.4878075,-46.8526639,1945,5626.75384
D1,Bom Jesus das Selvas/MA,-4.4878075,-46.8526639,18,52.07279
1,Bom Jesus de Goiás/GO,-18.2174587,-49.739721,1110,4327.82283
D1,Bom Jesus de Goiás/GO,-18.2174587,-49.739721,32,124.76606
1,Bom Jesus do Amparo/MG,-19.7045132,-43.4752911,72,1173.97685
D1,Bom Jesus do Amparo/MG,-19.7045132,-43.4752911,2,32.61047
1,Bom Jesus do Araguaia/MT,-12.1725897,-51.5074425,244,3638.53266
D1,Bom Jesus do Araguaia/MT,-12.1725897,-51.5074425,1,14.91202
1,Bom Jesus do Galho/MG,-19.8283191,-42.3162256,222,1493.74243
D1,Bom Jesus do Galho/MG,-19.8283191,-42.3162256,8,53.82856
1,Bom Jesus do Itabapoana/RJ,-21.1341025,-41.680095,1316,3537.34914
D1,Bom Jesus do Itabapoana/RJ,-21.1341025,-41.680095,30,80.63866
1,Bom Jesus do Norte/ES,-21.1254776,-41.6711646,648,6504.71793
D1,Bom Jesus do Norte/ES,-21.1254776,-41.6711646,13,130.49588
1,Bom Jesus do Oeste/SC,-26.6929713,-53.0967453,67,3132.30482
D1,Bom Jesus do Oeste/SC,-26.6929713,-53.0967453,1,46.75082
1,Bom Jesus do Sul/PR,-26.1922507,-53.6002033,109,3108.95608
D1,Bom Jesus do Sul/PR,-26.1922507,-53.6002033,2,57.04507
1,Bom Jesus do Tocantins/PA,-5.0471796,-48.5978362,432,2523.65931
D1,Bom Jesus do Tocantins/PA,-5.0471796,-48.5978362,5,29.20902
1,Bom Jesus do Tocantins/TO,-8.96306,-48.165043,102,2036.74121
1,Bom Jesus dos Perdões/SP,-23.1353864,-46.4648052,600,2309.02444
D1,Bom Jesus dos Perdões/SP,-23.1353864,-46.4648052,5,19.24187
1,Bom Jesus/PB,-6.8156725,-38.6551841,76,2951.45631
D1,Bom Jesus/PB,-6.8156725,-38.6551841,3,116.50485
1,Bom Jesus/PI,-9.0711644,-44.3583926,2004,7893.80392
D1,Bom Jesus/PI,-9.0711644,-44.3583926,24,94.53657
1,Bom Jesus/RN,-5.9887544,-35.5821149,338,3292.10091
D1,Bom Jesus/RN,-5.9887544,-35.5821149,6,58.43966
1,Bom Jesus/RS,-28.6692723,-50.4346894,371,3280.57299
D1,Bom Jesus/RS,-28.6692723,-50.4346894,9,79.58263
1,Bom Jesus/SC,-26.7350604,-52.3916519,143,4677.78868
D1,Bom Jesus/SC,-26.7350604,-52.3916519,3,98.13543
1,Bom Lugar/MA,-4.3728019,-45.0366054,306,1861.54033
D1,Bom Lugar/MA,-4.3728019,-45.0366054,5,30.41733
1,Bom Princípio do Piauí/PI,-3.1912777,-41.6430185,44,778.62325
D1,Bom Princípio do Piauí/PI,-3.1912777,-41.6430185,3,53.08795
1,Bom Princípio/RS,-29.489788,-51.3566782,741,5198.17608
D1,Bom Princípio/RS,-29.489788,-51.3566782,9,63.13574
1,Bom Progresso/RS,-27.5490948,-53.8655601,30,1579.77883
1,Bom Repouso/MG,-22.4657069,-46.1485376,220,2087.88080
D1,Bom Repouso/MG,-22.4657069,-46.1485376,8,75.92294
1,Bom Retiro do Sul/RS,-29.6000007,-51.9359243,476,3841.80791
D1,Bom Retiro do Sul/RS,-29.6000007,-51.9359243,8,64.56820
1,Bom Retiro/SC,-27.798993,-49.486994,308,3061.63022
D1,Bom Retiro/SC,-27.798993,-49.486994,6,59.64215
1,Bom Sucesso de Itararé/SP,-24.3190016,-49.1446207,44,1104.41767
D1,Bom Sucesso de Itararé/SP,-24.3190016,-49.1446207,2,50.20080
1,Bom Sucesso do Sul/PR,-26.0749256,-52.8348629,119,3657.03749
D1,Bom Sucesso do Sul/PR,-26.0749256,-52.8348629,2,61.46281
1,Bom Sucesso/MG,-21.0323516,-44.7598082,124,704.26535
D1,Bom Sucesso/MG,-21.0323516,-44.7598082,1,5.67956
1,Bom Sucesso/PB,-6.4458948,-37.9297662,64,1291.36400
1,Bom Sucesso/PR,-23.7088019,-51.7651297,197,2787.20996
D1,Bom Sucesso/PR,-23.7088019,-51.7651297,2,28.29655
1,Bombinhas/SC,-27.1519159,-48.4875691,2403,11817.06418
D1,Bombinhas/SC,-27.1519159,-48.4875691,20,98.35259
1,Bonfim do Piauí/PI,-9.1648678,-42.8734415,155,2726.47318
D1,Bonfim do Piauí/PI,-9.1648678,-42.8734415,2,35.18030
1,Bonfim/MG,-20.3266626, -44.2386157,142,2069.97085
D1,Bonfim/MG,-20.3266626, -44.2386157,2,29.15452
1,Bonfim/RR,3.3613818,-59.8427241,1342,10687.26607
D1,Bonfim/RR,3.3613818,-59.8427241,15,119.45528
1,Bonfinópolis de Minas/MG,-16.5660011,-45.98645,196,3600.29390
D1,Bonfinópolis de Minas/MG,-16.5660011,-45.98645,9,165.31962
1,Bonfinópolis/GO,-16.6172709,-48.9615701,391,3941.92963
D1,Bonfinópolis/GO,-16.6172709,-48.9615701,10,100.81661
1,Boninal/BA,-12.7095183,-41.8299984,297,2055.93244
D1,Boninal/BA,-12.7095183,-41.8299984,2,13.84466
1,Bonito de Minas/MG,-15.3191266,-44.7544,6,52.77509
1,Bonito de Santa Fé/PB,-7.3143332,-38.5146677,321,2670.10481
D1,Bonito de Santa Fé/PB,-7.3143332,-38.5146677,11,91.49892
1,Bonito/BA,-11.9665473,-41.2649896,416,2463.87112
D1,Bonito/BA,-11.9665473,-41.2649896,3,17.76830
1,Bonito/MS,-21.1264766,-56.4902208,1245,5610.63542
D1,Bonito/MS,-21.1264766,-56.4902208,18,81.11762
1,Bonito/PA,-1.3605722,-47.3049907,310,1875.37810
D1,Bonito/PA,-1.3605722,-47.3049907,10,60.49607
1,Bonito/PE,-8.4721161,-35.7314591,427,1120.23507
D1,Bonito/PE,-8.4721161,-35.7314591,28,73.45804
1,Bonópolis/GO,-13.649331,-49.8329113,87,1936.34543
D1,Bonópolis/GO,-13.649331,-49.8329113,1,22.25684
1,Boqueirão do Leão/RS,-29.30332,-52.4296817,174,2259.15347
D1,Boqueirão do Leão/RS,-29.30332,-52.4296817,3,38.95092
1,Boqueirão do Piauí/PI,-4.4850148,-42.1095161,245,3812.63617
D1,Boqueirão do Piauí/PI,-4.4850148,-42.1095161,2,31.12356
1,Boqueirão/PB,-7.487004,-36.130887,899,5030.77784
D1,Boqueirão/PB,-7.487004,-36.130887,11,61.55568
1,Boquim/SE,-11.1450175,-37.6204228,922,3427.63672
D1,Boquim/SE,-11.1450175,-37.6204228,24,89.22265
1,Boquira/BA,-12.8184859,-42.7270883,298,1386.23994
D1,Boquira/BA,-12.8184859,-42.7270883,4,18.60725
1,Boracéia/SP,-22.195355,-48.7801925,196,4026.29417
D1,Boracéia/SP,-22.195355,-48.7801925,2,41.08463
1,Borba/AM,-4.3934778,-59.5947721,1090,2610.90352
D1,Borba/AM,-4.3934778,-59.5947721,31,74.25505
1,Borborema/PB,-6.8066718,-35.5990191,96,1815.77454
D1,Borborema/PB,-6.8066718,-35.5990191,1,18.91432
1,Borborema/SP,-21.6212706,-49.074135,383,2369.46300
D1,Borborema/SP,-21.6212706,-49.074135,11,68.05246
1,Borda da Mata/MG,-22.274167,-46.165278,506,2579.78995
D1,Borda da Mata/MG,-22.274167,-46.165278,18,91.77118
1,Borebi/SP,-22.5700178,-48.9714871,69,2571.74804
D1,Borebi/SP,-22.5700178,-48.9714871,2,74.54342
1,Borrazópolis/PR,-23.9393362,-51.5850786,342,5311.38376
D1,Borrazópolis/PR,-23.9393362,-51.5850786,8,124.24289
1,Borá/SP,-22.2701088,-50.544407,10,1193.31742
1,Bossoroca/RS,-28.7278885,-54.9120278,115,1853.34408
D1,Bossoroca/RS,-28.7278885,-54.9120278,2,32.23207
1,Botelhos/MG,-21.65,-46.394722,224,1498.42799
D1,Botelhos/MG,-21.65,-46.394722,3,20.06823
1,Botucatu/SP,-22.8879628,-48.4410712,4965,3351.78559
D1,Botucatu/SP,-22.8879628,-48.4410712,67,45.23054
1,Botumirim/MG,-16.862778,-43.011111,29,461.19593
1,Botuporã/BA,-13.3744752,-42.5198469,47,464.01422
D1,Botuporã/BA,-13.3744752,-42.5198469,1,9.87264
1,Botuverá/SC,-27.200749,-49.068892,525,9864.71251
D1,Botuverá/SC,-27.200749,-49.068892,2,37.57986
1,Bozano/RS,-28.3669953,-53.7705165,51,2415.91663
1,Braga/RS,-27.617348,-53.740514,39,1177.89188
D1,Braga/RS,-27.617348,-53.740514,1,30.20236
1,Braganey/PR,-24.8179919,-53.118506,104,1932.36715
D1,Braganey/PR,-24.8179919,-53.118506,2,37.16091
1,Bragança Paulista/SP,-22.9520235,-46.5418586,5614,3292.03145
D1,Bragança Paulista/SP,-22.9520235,-46.5418586,104,60.98526
1,Bragança/PA,-1.0573967,-46.7635406,3065,2377.55403
D1,Bragança/PA,-1.0573967,-46.7635406,100,77.57109
1,Branquinha/AL,-9.2478057,-36.0152009,277,2648.18356
D1,Branquinha/AL,-9.2478057,-36.0152009,6,57.36138
1,Brasil Novo/PA,-3.3055853,-52.539198,820,5472.86925
D1,Brasil Novo/PA,-3.3055853,-52.539198,17,113.46192
1,Brasileira/PI,-4.131182,-41.7824969,260,3114.89158
D1,Brasileira/PI,-4.131182,-41.7824969,5,59.90176
1,Brasilândia de Minas/MG,-17.0096469,-46.0087183,546,3260.09076
D1,Brasilândia de Minas/MG,-17.0096469,-46.0087183,2,11.94172
1,Brasilândia do Sul/PR,-24.1975793,-53.527551,111,4294.00387
D1,Brasilândia do Sul/PR,-24.1975793,-53.527551,1,38.68472
1,Brasilândia do Tocantins/TO,-8.3886619,-48.4842729,69,3120.75984
D1,Brasilândia do Tocantins/TO,-8.3886619,-48.4842729,1,45.22840
1,Brasilândia/MS,-21.255575,-52.0365617,221,1864.50688
D1,Brasilândia/MS,-21.255575,-52.0365617,5,42.18341
1,Brasiléia/AC,-11.0010413,-68.7487894,1425,5336.67890
D1,Brasiléia/AC,-11.0010413,-68.7487894,24,89.88091
1,Brasnorte/MT,-12.1227151,-58.0050109,512,2542.20457
D1,Brasnorte/MT,-12.1227151,-58.0050109,5,24.82622
1,Brasília de Minas/MG,-16.2075114,-44.430559,404,1246.72119
D1,Brasília de Minas/MG,-16.2075114,-44.430559,5,15.42972
1,Brasília/DF,-15.7934036,-47.8823172,262928,8606.06144
D1,Brasília/DF,-15.7934036,-47.8823172,4406,144.21555
1,Brazabrantes/GO,-16.4291635,-49.3858216,186,4965.29632
D1,Brazabrantes/GO,-16.4291635,-49.3858216,2,53.39028
1,Brazópolis/MG,-22.4742842,-45.6165577,338,2345.59334
D1,Brazópolis/MG,-22.4742842,-45.6165577,6,41.63775
1,Braço do Norte/SC,-28.2728633,-49.1622712,4630,13667.49321
D1,Braço do Norte/SC,-28.2728633,-49.1622712,38,112.17381
1,Braço do Trombudo/SC,-27.358578,-49.882145,308,8171.92889
D1,Braço do Trombudo/SC,-27.358578,-49.882145,3,79.59671
1,Braúna/SP,-21.5015319,-50.3175246,156,2717.29664
D1,Braúna/SP,-21.5015319,-50.3175246,7,121.92998
1,Braúnas/MG,-19.055556,-42.716111,39,817.78151
D1,Braúnas/MG,-19.055556,-42.716111,2,41.93751
1,Brejetuba/ES,-20.1465817,-41.2902303,821,6606.58244
D1,Brejetuba/ES,-20.1465817,-41.2902303,2,16.09399
1,Brejinho de Nazaré/TO,-11.0205883,-48.5722906,118,2138.06849
D1,Brejinho de Nazaré/TO,-11.0205883,-48.5722906,5,90.59612
1,Brejinho/PE,-7.3482153,-37.28538,307,4099.89316
D1,Brejinho/PE,-7.3482153,-37.28538,3,40.06410
1,Brejinho/RN,-6.1957907,-35.3583019,454,3550.48096
D1,Brejinho/RN,-6.1957907,-35.3583019,4,31.28177
1,Brejo Alegre/SP,-21.1671191,-50.1850393,135,4672.89720
D1,Brejo Alegre/SP,-21.1671191,-50.1850393,6,207.68432
1,Brejo Grande do Araguaia/PA,-5.7011449,-48.4037308,619,8401.19435
D1,Brejo Grande do Araguaia/PA,-5.7011449,-48.4037308,2,27.14441
1,Brejo Grande/SE,-10.4287358,-36.4667918,213,2549.98204
D1,Brejo Grande/SE,-10.4287358,-36.4667918,8,95.77397
1,Brejo Santo/CE,-7.4909841,-38.9859152,3080,6179.52731
D1,Brejo Santo/CE,-7.4909841,-38.9859152,27,54.17118
1,Brejo da Madre de Deus/PE,-8.1409718,-36.3712527,1163,2270.37579
D1,Brejo da Madre de Deus/PE,-8.1409718,-36.3712527,32,62.46950
1,Brejo de Areia/MA,-4.3316785,-45.5833334,248,2751.27579
D1,Brejo de Areia/MA,-4.3316785,-45.5833334,2,22.18771
1,Brejo do Cruz/PB,-6.32926065,-37.48746163303929,1021,7187.10404
D1,Brejo do Cruz/PB,-6.32926065,-37.48746163303929,12,84.47135
1,Brejo do Piauí/PI,-8.207583,-42.8359849,28,727.65073
D1,Brejo do Piauí/PI,-8.207583,-42.8359849,2,51.97505
1,Brejo dos Santos/PB,-6.3769367,-37.8243125,114,1763.61386
D1,Brejo dos Santos/PB,-6.3769367,-37.8243125,2,30.94059
1,Brejo/MA,-3.6804397,-42.7529313,705,1923.54915
D1,Brejo/MA,-3.6804397,-42.7529313,18,49.11189
1,Brejolândia/BA,-12.4843845,-43.9611861,122,1148.99228
D1,Brejolândia/BA,-12.4843845,-43.9611861,7,65.92579
1,Brejão/PE,-9.029146,-36.566034,60,667.63102
D1,Brejão/PE,-9.029146,-36.566034,3,33.38155
1,Brejões/BA,-13.1033754,-39.7909837,312,2193.78428
D1,Brejões/BA,-13.1033754,-39.7909837,3,21.09408
1,Breu Branco/PA,-3.7785073,-49.5684795,403,598.52670
D1,Breu Branco/PA,-3.7785073,-49.5684795,26,38.61463
1,Breves/PA,-1.68036,-50.479085,3511,3392.36886
D1,Breves/PA,-1.68036,-50.479085,98,94.68873
1,Britânia/GO,-15.2427599,-51.1602061,256,4416.07728
D1,Britânia/GO,-15.2427599,-51.1602061,1,17.25030
1,Brochier/RS,-29.556766,-51.5963047,105,2057.21003
1,Brodowski/SP,-20.984532,-47.657217,940,3718.79574
D1,Brodowski/SP,-20.984532,-47.657217,25,98.90414
1,Brotas de Macaúbas/BA,-12.0019007,-42.6257506,49,483.71175
1,Brotas/SP,-22.2840884,-48.1267265,259,1051.30703
D1,Brotas/SP,-22.2840884,-48.1267265,7,28.41370
1,Brumadinho/MG,-20.143611,-44.2,1781,4379.57999
D1,Brumadinho/MG,-20.143611,-44.2,23,56.55830
1,Brumado/BA,-14.29507325,-41.659307508575985,4021,5971.63437
D1,Brumado/BA,-14.29507325,-41.659307508575985,38,56.43425
1,Brunópolis/SC,-27.310953,-50.837585,64,2702.70270
1,Brusque/SC,-27.0964628,-48.9136323,13789,10014.59812
D1,Brusque/SC,-27.0964628,-48.9136323,112,81.34274
1,Brás Pires/MG,-20.8483109,-43.2430524,91,2119.72979
D1,Brás Pires/MG,-20.8483109,-43.2430524,4,93.17494
1,Bueno Brandão/MG,-22.441976,-46.3517971,195,1774.17887
D1,Bueno Brandão/MG,-22.441976,-46.3517971,6,54.59012
1,Buenos Aires/PE,-7.7218931,-35.326587,68,515.54208
D1,Buenos Aires/PE,-7.7218931,-35.326587,10,75.81501
1,Buenópolis/MG,-17.8756607,-44.1749365,106,1023.85782
D1,Buenópolis/MG,-17.8756607,-44.1749365,3,28.97711
1,Buerarema/BA,-14.9571177,-39.3008035,770,4206.27117
D1,Buerarema/BA,-14.9571177,-39.3008035,26,142.02994
1,Bugre/MG,-19.4257687,-42.2556,257,6452.42280
D1,Bugre/MG,-19.4257687,-42.2556,6,150.64022
1,Bujari/AC,-9.8309656,-67.9520886,501,4808.06142
D1,Bujari/AC,-9.8309656,-67.9520886,8,76.77543
1,Bujaru/PA,-1.5169239,-48.0410699,777,2640.43226
D1,Bujaru/PA,-1.5169239,-48.0410699,23,78.15951
1,Buri/SP,-23.79849,-48.598924,445,2228.90058
D1,Buri/SP,-23.79849,-48.598924,12,60.10518
1,Buritama/SP,-21.0664017,-50.1448077,990,5728.83514
D1,Buritama/SP,-21.0664017,-50.1448077,25,144.66755
1,Buriti Alegre/GO,-18.1377879,-49.0404411,430,4533.95192
D1,Buriti Alegre/GO,-18.1377879,-49.0404411,9,94.89667
1,Buriti Bravo/MA,-5.8391884,-43.8367876,1019,4256.65232
D1,Buriti Bravo/MA,-5.8391884,-43.8367876,10,41.77284
1,Buriti de Goiás/GO,-16.180644,-50.4287479,120,4846.52666
D1,Buriti de Goiás/GO,-16.180644,-50.4287479,1,40.38772
1,Buriti do Tocantins/TO,-5.3187439,-48.2256609,314,2731.14726
D1,Buriti do Tocantins/TO,-5.3187439,-48.2256609,1,8.69792
1,Buriti dos Lopes/PI,-3.1776723,-41.8707444,816,4119.75564
D1,Buriti dos Lopes/PI,-3.1776723,-41.8707444,12,60.58464
1,Buriti dos Montes/PI,-5.3136171,-41.0971256,315,3811.71346
D1,Buriti dos Montes/PI,-5.3136171,-41.0971256,2,24.20136
1,Buriti/MA,-3.9430944,-42.9244281,701,2434.19682
D1,Buriti/MA,-3.9430944,-42.9244281,4,13.88985
1,Buriticupu/MA,-4.3227472,-46.4516989,2637,3613.17019
D1,Buriticupu/MA,-4.3227472,-46.4516989,19,26.03346
1,Buritinópolis/GO,-14.4589282,-46.4293104,61,1858.05666
1,Buritirama/BA,-10.7148421,-43.6362327,541,2542.77120
D1,Buritirama/BA,-10.7148421,-43.6362327,10,47.00132
1,Buritirana/MA,-5.5897455,-47.0148915,243,1571.08683
D1,Buritirana/MA,-5.5897455,-47.0148915,9,58.18840
1,Buritis/MG,-15.621389,-46.423889,525,2098.90857
D1,Buritis/MG,-15.621389,-46.423889,6,23.98753
1,Buritis/RO,-10.2054937,-63.8281954,1443,3575.67648
D1,Buritis/RO,-10.2054937,-63.8281954,16,39.64714
1,Buritizal/SP,-20.1933264,-47.7097165,86,1905.18387
D1,Buritizal/SP,-20.1933264,-47.7097165,3,66.45990
1,Buritizeiro/MG,-17.3667765,-44.9647781,423,1504.21393
D1,Buritizeiro/MG,-17.3667765,-44.9647781,10,35.56061
1,Butiá/RS,-30.1256795,-51.9692224,674,3216.87667
D1,Butiá/RS,-30.1256795,-51.9692224,24,114.54754
1,Buíque/PE,-8.6239732,-37.157296,847,1437.56683
D1,Buíque/PE,-8.6239732,-37.157296,13,22.06419
1,Bálsamo/SP,-20.7343722,-49.5807484,689,7539.11807
D1,Bálsamo/SP,-20.7343722,-49.5807484,27,295.43714
0,CASO SEM LOCALIZAÇÃO DEFINIDA/AL,-9.931093434363673,-35.609611600637464,8,0.23971
D0,CASO SEM LOCALIZAÇÃO DEFINIDA/AL,-9.931093434363673,-35.609611600637464,8,0.23971
0,CASO SEM LOCALIZAÇÃO DEFINIDA/BA,-13.415069300066518,-38.14174656569957,16117,108.36368
D0,CASO SEM LOCALIZAÇÃO DEFINIDA/BA,-13.415069300066518,-38.14174656569957,99,0.66563
0,CASO SEM LOCALIZAÇÃO DEFINIDA/CE,-3.3445126297392798,-38.624961942434304,7150,78.29543
D0,CASO SEM LOCALIZAÇÃO DEFINIDA/CE,-3.3445126297392798,-38.624961942434304,3,0.03285
0,CASO SEM LOCALIZAÇÃO DEFINIDA/ES,-20.30989267097039,-39.81745156645774,2100,52.25635
D0,CASO SEM LOCALIZAÇÃO DEFINIDA/ES,-20.30989267097039,-39.81745156645774,65,1.61746
0,CASO SEM LOCALIZAÇÃO DEFINIDA/GO,-16.701590966270153,-49.164524059025034,96,1.36784
0,CASO SEM LOCALIZAÇÃO DEFINIDA/MG,-19.97049116501593,-43.8852149072783,11074,52.31286
D0,CASO SEM LOCALIZAÇÃO DEFINIDA/MG,-19.97049116501593,-43.8852149072783,283,1.33687
0,CASO SEM LOCALIZAÇÃO DEFINIDA/MS,-20.391549234908513,-54.645156949758444,1316,47.35540
D0,CASO SEM LOCALIZAÇÃO DEFINIDA/MS,-20.391549234908513,-54.645156949758444,13,0.46780
0,CASO SEM LOCALIZAÇÃO DEFINIDA/MT,-15.54791153961863,-56.17143998972475,1081,31.02341
D0,CASO SEM LOCALIZAÇÃO DEFINIDA/MT,-15.54791153961863,-56.17143998972475,72,2.06631
0,CASO SEM LOCALIZAÇÃO DEFINIDA/PB,-7.1049355696146606,-34.68696690234351,838,20.85549
D0,CASO SEM LOCALIZAÇÃO DEFINIDA/PB,-7.1049355696146606,-34.68696690234351,11,0.27376
0,CASO SEM LOCALIZAÇÃO DEFINIDA/PE,-8.121628543819208,-34.57313921302556,1450,15.17201
D0,CASO SEM LOCALIZAÇÃO DEFINIDA/PE,-8.121628543819208,-34.57313921302556,29,0.30344
0,CASO SEM LOCALIZAÇÃO DEFINIDA/PR,-25.69415946385943,-48.10141676336737,3884,33.96899
D0,CASO SEM LOCALIZAÇÃO DEFINIDA/PR,-25.69415946385943,-48.10141676336737,76,0.66469
0,CASO SEM LOCALIZAÇÃO DEFINIDA/RJ,-23.210238986465157,-43.12864305824042,4067,23.55641
D0,CASO SEM LOCALIZAÇÃO DEFINIDA/RJ,-23.210238986465157,-43.12864305824042,164,0.94990
0,CASO SEM LOCALIZAÇÃO DEFINIDA/RN,-5.749310788669161,-34.95302586257457,1702,48.53354
D0,CASO SEM LOCALIZAÇÃO DEFINIDA/RN,-5.749310788669161,-34.95302586257457,24,0.68437
0,CASO SEM LOCALIZAÇÃO DEFINIDA/RR,2.813328208465927,-60.663338675861986,2110,348.32219
D0,CASO SEM LOCALIZAÇÃO DEFINIDA/RR,2.813328208465927,-60.663338675861986,12,1.98098
0,CASO SEM LOCALIZAÇÃO DEFINIDA/RS,-30.50647488532064,-49.906261466443524,4229,37.17071
D0,CASO SEM LOCALIZAÇÃO DEFINIDA/RS,-30.50647488532064,-49.906261466443524,38,0.33400
0,CASO SEM LOCALIZAÇÃO DEFINIDA/SC,-27.675643660562308,-48.18313219398259,11546,161.14922
0,CASO SEM LOCALIZAÇÃO DEFINIDA/SP,-24.30968974555485,-46.21366504207253,14015,30.52110
D0,CASO SEM LOCALIZAÇÃO DEFINIDA/SP,-24.30968974555485,-46.21366504207253,285,0.62066
0,CASO SEM LOCALIZAÇÃO DEFINIDA/TO,-10.213012114749148,-48.40023803990334,555,35.28590
D0,CASO SEM LOCALIZAÇÃO DEFINIDA/TO,-10.213012114749148,-48.40023803990334,7,0.44505
1,Caapiranga/AM,-3.3188884,-61.2096404,447,3365.20364
D1,Caapiranga/AM,-3.3188884,-61.2096404,9,67.75578
1,Caaporã/PB,-7.510234,-34.9154114,1135,5169.66522
D1,Caaporã/PB,-7.510234,-34.9154114,19,86.54065
1,Caarapó/MS,-22.6349267,-54.8240903,1487,4860.58902
D1,Caarapó/MS,-22.6349267,-54.8240903,16,52.29955
1,Caatiba/BA,-14.9782759,-40.4092325,449,6920.46856
D1,Caatiba/BA,-14.9782759,-40.4092325,4,61.65228
1,Cabaceiras do Paraguaçu/BA,-12.5377868,-39.1901339,187,988.84247
D1,Cabaceiras do Paraguaçu/BA,-12.5377868,-39.1901339,1,5.28793
1,Cabaceiras/PB,-7.4899156,-36.2860501,206,3638.93305
1,Cabeceira Grande/MG,-16.0297,-47.0906,88,1259.30166
D1,Cabeceira Grande/MG,-16.0297,-47.0906,2,28.62049
1,Cabeceiras do Piauí/PI,-4.4733665,-42.3098716,262,2464.72248
D1,Cabeceiras do Piauí/PI,-4.4733665,-42.3098716,7,65.85136
1,Cabeceiras/GO,-15.7995459,-46.9264991,107,1329.85334
D1,Cabeceiras/GO,-15.7995459,-46.9264991,3,37.28561
1,Cabedelo/PB,-6.97324,-34.8351609,4292,6241.36577
D1,Cabedelo/PB,-6.97324,-34.8351609,94,136.69347
1,Cabixi/RO,-13.4956065,-60.5424442,305,5878.95143
D1,Cabixi/RO,-13.4956065,-60.5424442,8,154.20200
1,Cabo Frio/RJ,-22.8804369,-42.0189227,5675,2463.34285
D1,Cabo Frio/RJ,-22.8804369,-42.0189227,243,105.47882
1,Cabo Verde/MG,-21.4743338,-46.3964995,148,1051.50977
D1,Cabo Verde/MG,-21.4743338,-46.3964995,3,21.31439
1,Cabo de Santo Agostinho/PE,-8.2838945,-35.0320984,2662,1274.02558
D1,Cabo de Santo Agostinho/PE,-8.2838945,-35.0320984,302,144.53634
1,Cabreúva/SP,-23.3075813,-47.1324417,1963,3892.60148
D1,Cabreúva/SP,-23.3075813,-47.1324417,48,95.18333
1,Cabrobó/PE,-8.5083701,-39.3106961,776,2249.07979
D1,Cabrobó/PE,-8.5083701,-39.3106961,6,17.38979
1,Cabrália Paulista/SP,-22.4562909,-49.3385645,123,2898.89229
1,Cacaulândia/RO,-10.3380043,-62.9007231,170,2711.75626
1,Cacequi/RS,-29.8838059,-54.8273443,92,740.56186
D1,Cacequi/RS,-29.8838059,-54.8273443,2,16.09917
1,Cachoeira Alta/GO,-18.7618269,-50.9432431,817,6450.33949
D1,Cachoeira Alta/GO,-18.7618269,-50.9432431,12,94.74183
1,Cachoeira Dourada/GO,-18.4934204,-49.481062,183,2278.67015
D1,Cachoeira Dourada/GO,-18.4934204,-49.481062,3,37.35525
1,Cachoeira Dourada/MG,-18.517136,-49.5002062,53,1958.61050
1,Cachoeira Grande/MA,-2.9290492,-44.0573223,187,1972.99008
D1,Cachoeira Grande/MA,-2.9290492,-44.0573223,4,42.20300
1,Cachoeira Paulista/SP,-22.666498,-45.015384,590,1756.94589
D1,Cachoeira Paulista/SP,-22.666498,-45.015384,19,56.57961
1,Cachoeira da Prata/MG,-19.524723,-44.453056,120,3341.68755
D1,Cachoeira da Prata/MG,-19.524723,-44.453056,2,55.69479
1,Cachoeira de Goiás/GO,-16.6688414,-50.6435997,26,1937.40686
1,Cachoeira de Minas/MG,-22.3554043,-45.7796324,278,2400.89818
D1,Cachoeira de Minas/MG,-22.3554043,-45.7796324,3,25.90897
1,Cachoeira de Pajeú/MG,-15.965833,-41.496666,293,3103.15611
D1,Cachoeira de Pajeú/MG,-15.965833,-41.496666,3,31.77293
1,Cachoeira do Arari/PA,-1.0143572,-48.9621089,338,1404.58777
D1,Cachoeira do Arari/PA,-1.0143572,-48.9621089,13,54.02261
1,Cachoeira do Piriá/PA,-1.7599443,-46.5446954,541,1563.17721
D1,Cachoeira do Piriá/PA,-1.7599443,-46.5446954,3,8.66827
1,Cachoeira do Sul/RS,-30.0474778,-52.8905413,2163,2642.02568
D1,Cachoeira do Sul/RS,-30.0474778,-52.8905413,29,35.42244
1,Cachoeira dos Índios/PB,-6.9259193,-38.6742159,318,3085.88064
D1,Cachoeira dos Índios/PB,-6.9259193,-38.6742159,10,97.04027
1,Cachoeira/BA,-12.5998256,-38.9665918,611,1820.24012
D1,Cachoeira/BA,-12.5998256,-38.9665918,12,35.74940
1,Cachoeiras de Macacu/RJ,-22.4626861,-42.6534414,1147,1934.13487
D1,Cachoeiras de Macacu/RJ,-22.4626861,-42.6534414,45,75.88149
1,Cachoeirinha/PE,-8.4906364,-36.2338963,320,1560.89947
D1,Cachoeirinha/PE,-8.4906364,-36.2338963,22,107.31184
1,Cachoeirinha/RS,-29.9493353,-51.0898927,5897,4493.29473
D1,Cachoeirinha/RS,-29.9493353,-51.0898927,148,112.77050
1,Cachoeirinha/TO,-6.118647,-47.9208885,85,3721.54116
D1,Cachoeirinha/TO,-6.118647,-47.9208885,2,87.56567
1,Cachoeiro de Itapemirim/ES,-20.848084,-41.11129,13859,6581.06549
D1,Cachoeiro de Itapemirim/ES,-20.848084,-41.11129,271,128.68668
1,Cacimba de Areia/PB,-7.1288513,-37.1575194,19,514.20839
1,Cacimba de Dentro/PB,-6.6425101,-35.7929304,699,4069.15823
D1,Cacimba de Dentro/PB,-6.6425101,-35.7929304,17,98.96379
1,Cacimbas/PB,-7.2125451,-37.0593398,93,1291.84609
D1,Cacimbas/PB,-7.2125451,-37.0593398,4,55.56327
1,Cacimbinhas/AL,-9.401212,-36.991082,354,3250.98723
D1,Cacimbinhas/AL,-9.401212,-36.991082,3,27.55074
1,Cacique Doble/RS,-27.7700117,-51.6616409,179,3527.78873
D1,Cacique Doble/RS,-27.7700117,-51.6616409,1,19.70832
1,Cacoal/RO,-11.4333,-61.4420502,5090,5925.97767
D1,Cacoal/RO,-11.4333,-61.4420502,73,84.98946
1,Caconde/SP,-21.527995,-46.643659,394,2072.70240
D1,Caconde/SP,-21.527995,-46.643659,2,10.52133
1,Caculé/BA,-14.4990734,-42.2233006,252,1081.96299
D1,Caculé/BA,-14.4990734,-42.2233006,4,17.17402
1,Caetanos/BA,-14.3387456,-40.9085971,257,1759.30997
D1,Caetanos/BA,-14.3387456,-40.9085971,2,13.69113
1,Caetanópolis/MG,-19.2947496,-44.4138386,314,2672.56788
D1,Caetanópolis/MG,-19.2947496,-44.4138386,3,25.53409
1,Caetité/BA,-14.0691776,-42.4852428,761,1489.79072
D1,Caetité/BA,-14.0691776,-42.4852428,5,9.78838
1,Caeté/MG,-19.897777,-43.670278,812,1802.56177
D1,Caeté/MG,-19.897777,-43.670278,25,55.49759
1,Caetés/PE,-8.7728788,-36.6255835,859,2971.90700
D1,Caetés/PE,-8.7728788,-36.6255835,10,34.59729
1,Cafarnaum/BA,-11.691399,-41.468823,471,2544.15816
D1,Cafarnaum/BA,-11.691399,-41.468823,10,54.01610
1,Cafeara/PR,-22.78905,-51.714195,114,3859.17400
D1,Cafeara/PR,-22.78905,-51.714195,2,67.70481
1,Cafelândia/PR,-24.6176963,-53.3218057,923,5001.08366
D1,Cafelândia/PR,-24.6176963,-53.3218057,6,32.50975
1,Cafelândia/SP,-21.8054355,-49.6030627,461,2583.64625
D1,Cafelândia/SP,-21.8054355,-49.6030627,14,78.46214
1,Cafezal do Sul/PR,-23.900508,-53.512418,86,2145.17336
D1,Cafezal do Sul/PR,-23.900508,-53.512418,1,24.94388
1,Caiabu/SP,-22.0143038,-51.2356597,42,1001.66945
D1,Caiabu/SP,-22.0143038,-51.2356597,2,47.69855
1,Caiana/MG,-20.695555,-41.924723,60,1082.83703
D1,Caiana/MG,-20.695555,-41.924723,2,36.09457
1,Caiapônia/GO,-16.9538779,-51.8090761,322,1685.24624
D1,Caiapônia/GO,-16.9538779,-51.8090761,4,20.93474
1,Caibaté/RS,-28.290475,-54.645407,28,580.55152
D1,Caibaté/RS,-28.290475,-54.645407,3,62.20195
1,Caibi/SC,-27.0751925,-53.2502133,189,3083.19739
D1,Caibi/SC,-27.0751925,-53.2502133,2,32.62643
1,Caicó/RN,-6.4594544,-37.0971911,5943,8695.84303
D1,Caicó/RN,-6.4594544,-37.0971911,66,96.57170
1,Caieiras/SP,-23.3644621,-46.7484765,3715,3614.69229
D1,Caieiras/SP,-23.3644621,-46.7484765,116,112.86792
1,Cairu/BA,-13.4860505,-39.0455744,729,3956.15130
D1,Cairu/BA,-13.4860505,-39.0455744,8,43.41455
1,Caiuá/SP,-21.8319357,-51.9887179,141,2371.34208
D1,Caiuá/SP,-21.8319357,-51.9887179,2,33.63606
1,Caiçara do Norte/RN,-5.0645017,-36.0561226,128,1950.92212
D1,Caiçara do Norte/RN,-5.0645017,-36.0561226,3,45.72474
1,Caiçara do Rio do Vento/RN,-5.757968,-36.00089,110,2960.96904
D1,Caiçara do Rio do Vento/RN,-5.757968,-36.00089,2,53.83580
1,Caiçara/PB,-6.6146866,-35.4681434,478,6647.19789
D1,Caiçara/PB,-6.6146866,-35.4681434,10,139.06272
1,Caiçara/RS,-27.2750478,-53.4310053,270,5744.68085
D1,Caiçara/RS,-27.2750478,-53.4310053,3,63.82979
1,Cajamar/SP,-23.3561111,-46.8769444,1950,2502.11718
D1,Cajamar/SP,-23.3561111,-46.8769444,84,107.78351
1,Cajapió/MA,-2.8778715,-44.6746871,51,454.70756
D1,Cajapió/MA,-2.8778715,-44.6746871,2,17.83167
1,Cajari/MA,-3.3213076,-45.0118757,132,678.62835
D1,Cajari/MA,-3.3213076,-45.0118757,4,20.56450
1,Cajati/SP,-24.7272376,-48.1077914,2269,7963.07995
D1,Cajati/SP,-24.7272376,-48.1077914,48,168.45652
1,Cajazeiras do Piauí/PI,-6.794271,-42.3935024,24,671.70445
D1,Cajazeiras do Piauí/PI,-6.794271,-42.3935024,1,27.98769
1,Cajazeiras/PB,-6.8897849,-38.5570389,3677,5903.12896
D1,Cajazeiras/PB,-6.8897849,-38.5570389,71,113.98481
1,Cajazeirinhas/PB,-6.961442,-37.7993733,65,2028.08112
1,Cajobi/SP,-20.8776238,-48.8106972,332,3133.25783
D1,Cajobi/SP,-20.8776238,-48.8106972,7,66.06267
1,Cajueiro da Praia/PI,-2.931114,-41.340801,445,5798.80115
D1,Cajueiro da Praia/PI,-2.931114,-41.340801,10,130.31014
1,Cajueiro/AL,-9.399589,-36.1524309,389,1823.63696
D1,Cajueiro/AL,-9.399589,-36.1524309,16,75.00820
1,Cajuri/MG,-20.7901414,-42.7954489,103,2591.84701
1,Cajuru/SP,-21.2759978,-47.3046035,513,1943.69719
D1,Cajuru/SP,-21.2759978,-47.3046035,16,60.62213
1,Caldas Brandão/PB,-7.1027959,-35.3254676,357,5904.73040
D1,Caldas Brandão/PB,-7.1027959,-35.3254676,4,66.15944
1,Caldas Novas/GO,-17.745,-48.625,3441,3692.21855
D1,Caldas Novas/GO,-17.745,-48.625,67,71.89150
1,Caldas/MG,-21.923611,-46.386111,285,1959.97524
D1,Caldas/MG,-21.923611,-46.386111,8,55.01685
1,Caldazinha/GO,-16.7116649,-49.0012601,122,3170.47817
D1,Caldazinha/GO,-16.7116649,-49.0012601,2,51.97505
1,Caldeirão Grande do Piauí/PI,-7.3310393,-40.6374433,178,3079.05207
1,Caldeirão Grande/BA,-11.0208483,-40.3041387,479,3577.02935
D1,Caldeirão Grande/BA,-11.0208483,-40.3041387,3,22.40311
1,Califórnia/PR,-23.6672543,-51.3554556,387,4496.86265
D1,Califórnia/PR,-23.6672543,-51.3554556,8,92.95840
1,Calmon/SC,-26.6023644,-51.0992893,14,419.79010
D1,Calmon/SC,-26.6023644,-51.0992893,2,59.97001
1,Calumbi/PE,-7.9389746,-38.1516871,287,4993.90987
D1,Calumbi/PE,-7.9389746,-38.1516871,2,34.80077
1,Calçado/PE,-8.7413446,-36.3351787,193,1751.67907
D1,Calçado/PE,-8.7413446,-36.3351787,2,18.15211
1,Calçoene/AP,2.4981757,-50.9539503,1509,13346.89545
D1,Calçoene/AP,2.4981757,-50.9539503,9,79.60375
1,Camacan/BA,-15.4166631,-39.4930088,1780,5561.45723
D1,Camacan/BA,-15.4166631,-39.4930088,36,112.47891
1,Camacho/MG,-20.625556,-45.156667,41,1429.06936
1,Camalaú/PB,-7.885031,-36.824191,148,2453.98773
D1,Camalaú/PB,-7.885031,-36.824191,2,33.16200
1,Camamu/BA,-13.9438142,-39.1060917,1009,2851.73252
D1,Camamu/BA,-13.9438142,-39.1060917,26,73.48369
1,Camanducaia/MG,-22.755278,-46.144444,896,4109.90322
D1,Camanducaia/MG,-22.755278,-46.144444,12,55.04335
1,Camapuã/MS,-19.5291747,-54.0434641,267,1949.90141
D1,Camapuã/MS,-19.5291747,-54.0434641,6,43.81801
1,Camaquã/RS,-30.8524752,-51.8075619,3002,4515.77966
D1,Camaquã/RS,-30.8524752,-51.8075619,38,57.16177
1,Camaragibe/PE,-8.0213832,-34.9810768,2835,1784.15220
D1,Camaragibe/PE,-8.0213832,-34.9810768,223,140.34072
1,Camargo/RS,-28.5865661,-52.2031474,148,5397.52006
D1,Camargo/RS,-28.5865661,-52.2031474,1,36.46973
1,Camaçari/BA,-12.6998188,-38.3260762,8125,2670.04489
D1,Camaçari/BA,-12.6998188,-38.3260762,152,49.95038
1,Cambará do Sul/RS,-29.0489517,-50.145412,253,3949.42242
D1,Cambará do Sul/RS,-29.0489517,-50.145412,1,15.61037
1,Cambará/PR,-23.042273,-50.075281,617,2422.83829
D1,Cambará/PR,-23.042273,-50.075281,9,35.34124
1,Cambira/PR,-23.600265,-51.581045,291,3675.63471
D1,Cambira/PR,-23.600265,-51.581045,6,75.78628
1,Camboriú/SC,-27.0273601,-48.6535657,7152,8403.73656
D1,Camboriú/SC,-27.0273601,-48.6535657,81,95.17655
1,Cambuci/RJ,-21.5749919,-41.9107833,387,2494.52108
D1,Cambuci/RJ,-21.5749919,-41.9107833,7,45.12054
1,Cambuquira/MG,-21.853056,-45.2953619,125,975.64783
D1,Cambuquira/MG,-21.853056,-45.2953619,7,54.63628
1,Cambuí/MG,-22.6122501,-46.0572137,1016,3407.79500
D1,Cambuí/MG,-22.6122501,-46.0572137,12,40.24955
1,Cambé/PR,-23.2782035,-51.2779583,5171,4817.35777
D1,Cambé/PR,-23.2782035,-51.2779583,63,58.69146
1,Cametá/PA,-2.242949,-49.497885,5686,4079.96326
D1,Cametá/PA,-2.242949,-49.497885,114,81.80018
1,Camocim de São Félix/PE,-8.3616757,-35.7638903,314,1661.37566
D1,Camocim de São Félix/PE,-8.3616757,-35.7638903,10,52.91005
1,Camocim/CE,-2.9009918,-40.8427389,2628,4112.22558
D1,Camocim/CE,-2.9009918,-40.8427389,81,126.74668
1,Campanha/MG,-21.8361108,-45.401986,467,2786.06372
D1,Campanha/MG,-21.8361108,-45.401986,11,65.62463
1,Campanário/MG,-18.2398144,-41.7271768,63,1689.00804
1,Campestre da Serra/RS,-28.7966535,-51.0958149,86,2533.13697
1,Campestre de Goiás/GO,-16.7624179,-49.69497,216,5919.42998
D1,Campestre de Goiás/GO,-16.7624179,-49.69497,3,82.21431
1,Campestre do Maranhão/MA,-6.1729113,-47.3640512,551,3812.35730
D1,Campestre do Maranhão/MA,-6.1729113,-47.3640512,17,117.62264
1,Campestre/AL,-8.8481634,-35.5660033,106,1524.30256
D1,Campestre/AL,-8.8481634,-35.5660033,3,43.14064
1,Campestre/MG,-19.6142116,-43.219378,461,2189.60768
D1,Campestre/MG,-19.6142116,-43.219378,6,28.49815
1,Campina Grande do Sul/PR,-25.3046032,-49.0545355,2914,6670.48186
D1,Campina Grande do Sul/PR,-25.3046032,-49.0545355,55,125.90134
1,Campina Grande/PB,-7.2246743,-35.8771292,16099,3909.35560
D1,Campina Grande/PB,-7.2246743,-35.8771292,474,115.10246
1,Campina Verde/MG,-19.535277,-49.486389,208,1053.05792
D1,Campina Verde/MG,-19.535277,-49.486389,10,50.62778
1,Campina da Lagoa/PR,-24.5937926,-52.8038965,257,1830.09328
D1,Campina da Lagoa/PR,-24.5937926,-52.8038965,7,49.84690
1,Campina das Missões/RS,-27.9883295,-54.8411665,110,2037.79177
D1,Campina das Missões/RS,-27.9883295,-54.8411665,4,74.10152
1,Campina do Monte Alegre/SP,-23.5935653,-48.4801876,163,2691.10121
1,Campina do Simão/PR,-25.1086375,-51.8076658,15,388.70174
D1,Campina do Simão/PR,-25.1086375,-51.8076658,1,25.91345
1,Campinas do Piauí/PI,-7.6593687,-41.8814875,80,1423.48754
D1,Campinas do Piauí/PI,-7.6593687,-41.8814875,1,17.79359
1,Campinas do Sul/RS,-27.7167968,-52.6257885,257,4726.00221
D1,Campinas do Sul/RS,-27.7167968,-52.6257885,2,36.77823
1,Campinas/SP,-22.90556,-47.06083,47258,3893.41831
D1,Campinas/SP,-22.90556,-47.06083,1552,127.86375
1,Campinaçu/GO,-13.7869969,-48.5703841,126,3469.16300
1,Campinorte/GO,-14.3136699,-49.1510931,545,4269.82137
D1,Campinorte/GO,-14.3136699,-49.1510931,9,70.51081
1,Campinápolis/MT,-14.5403731,-52.7970626,511,3020.27307
D1,Campinápolis/MT,-14.5403731,-52.7970626,16,94.56824
1,Campo Alegre de Goiás/GO,-17.6337896,-47.779291,48,620.31533
D1,Campo Alegre de Goiás/GO,-17.6337896,-47.779291,1,12.92324
1,Campo Alegre de Lourdes/BA,-9.5160326,-43.0101338,202,700.90215
D1,Campo Alegre de Lourdes/BA,-9.5160326,-43.0101338,5,17.34906
1,Campo Alegre do Fidalgo/PI,-8.3753852,-41.8364191,53,1045.57112
D1,Campo Alegre do Fidalgo/PI,-8.3753852,-41.8364191,1,19.72776
1,Campo Alegre/AL,-9.7798607,-36.3575793,1665,2893.79008
D1,Campo Alegre/AL,-9.7798607,-36.3575793,29,50.40235
1,Campo Alegre/SC,-26.1941684,-49.2657484,530,4423.67081
D1,Campo Alegre/SC,-26.1941684,-49.2657484,18,150.23788
1,Campo Azul/MG,-16.5078525,-44.8133524,52,1359.83264
1,Campo Belo do Sul/SC,-27.8987563,-50.7586887,369,5307.82509
D1,Campo Belo do Sul/SC,-27.8987563,-50.7586887,7,100.69045
1,Campo Belo/MG,-20.8975,-45.277223,1634,3015.53907
D1,Campo Belo/MG,-20.8975,-45.277223,33,60.90134
1,Campo Bom/RS,-29.674694,-51.060601,5569,8017.79493
D1,Campo Bom/RS,-29.674694,-51.060601,90,129.57471
1,Campo Bonito/PR,-25.0328004,-52.992976,96,2551.15599
D1,Campo Bonito/PR,-25.0328004,-52.992976,2,53.14908
1,Campo Erê/SC,-26.3947432,-53.0790495,505,5999.04966
D1,Campo Erê/SC,-26.3947432,-53.0790495,4,47.51722
1,Campo Florido/MG,-19.760833,-48.572223,242,2926.59330
1,Campo Formoso/BA,-10.51055,-40.320031,1986,2778.12749
D1,Campo Formoso/BA,-10.51055,-40.320031,20,27.97711
1,Campo Grande do Piauí/PI,-7.1327559,-41.0381164,350,5867.56077
D1,Campo Grande do Piauí/PI,-7.1327559,-41.0381164,4,67.05784
1,Campo Grande/AL,-9.9725,-36.74791447368421,249,2602.69677
D1,Campo Grande/AL,-9.9725,-36.74791447368421,7,73.16818
1,Campo Grande/MS,-20.4640173,-54.6162947,65392,7216.92720
D1,Campo Grande/MS,-20.4640173,-54.6162947,1197,132.10579
1,Campo Grande/RN,-5.862063,-37.3134908,183,1892.45088
D1,Campo Grande/RN,-5.862063,-37.3134908,3,31.02378
1,Campo Largo do Piauí/PI,-3.8104731,-42.6288333,234,3200.65654
D1,Campo Largo do Piauí/PI,-3.8104731,-42.6288333,5,68.39010
1,Campo Largo/PR,-25.4597726,-49.5270851,7729,5773.72726
D1,Campo Largo/PR,-25.4597726,-49.5270851,143,106.82404
1,Campo Limpo Paulista/SP,-23.207791,-46.788919,1771,2070.35223
D1,Campo Limpo Paulista/SP,-23.207791,-46.788919,84,98.19852
1,Campo Limpo de Goiás/GO,-16.297101,-49.0894994,126,1586.90176
D1,Campo Limpo de Goiás/GO,-16.297101,-49.0894994,2,25.18892
1,Campo Magro/PR,-25.3691533,-49.4496921,1392,4680.56490
D1,Campo Magro/PR,-25.3691533,-49.4496921,35,117.68662
1,Campo Maior/PI,-4.8339574,-42.1739786,2920,6226.94219
D1,Campo Maior/PI,-4.8339574,-42.1739786,57,121.55332
1,Campo Mourão/PR,-24.046329,-52.37802,4056,4247.65416
D1,Campo Mourão/PR,-24.046329,-52.37802,58,60.74062
1,Campo Novo de Rondônia/RO,-10.5704235,-63.6199511,373,2614.60816
