type,name,lat,lon,total,total_per_100k_inhabitants
1,Abadia de Goiás/GO,-16.7572644,-49.4412205,1044,11654.38714
D1,Abadia de Goiás/GO,-16.7572644,-49.4412205,14,156.28489
1,Abadia dos Dourados/MG,-18.4911191,-47.4063589,307,4381.95832
D1,Abadia dos Dourados/MG,-18.4911191,-47.4063589,7,99.91436
1,Abadiânia/GO,-16.1940946,-48.7067767,280,1368.45706
D1,Abadiânia/GO,-16.1940946,-48.7067767,18,87.97224
1,Abaetetuba/PA,-1.721828,-48.878843,5932,3728.94141
D1,Abaetetuba/PA,-1.721828,-48.878843,131,82.34850
1,Abaeté/MG,-19.1566833,-45.4481213,626,2692.47312
D1,Abaeté/MG,-19.1566833,-45.4481213,14,60.21505
1,Abaiara/CE,-7.3607808,-39.0487878,264,2227.28423
D1,Abaiara/CE,-7.3607808,-39.0487878,6,50.62010
1,Abaré/BA,-8.7239913,-39.1139689,497,2442.62053
D1,Abaré/BA,-8.7239913,-39.1139689,1,4.91473
1,Abatiá/PR,-23.3052967,-50.3102532,300,4049.67603
D1,Abatiá/PR,-23.3052967,-50.3102532,4,53.99568
1,Abaíra/BA,-13.2503296,-41.6640342,240,2755.45350
D1,Abaíra/BA,-13.2503296,-41.6640342,7,80.36739
1,Abdon Batista/SC,-27.612419,-51.022992,192,7535.32182
D1,Abdon Batista/SC,-27.612419,-51.022992,1,39.24647
1,Abel Figueiredo/PA,-4.953001,-48.3958485,665,8883.24873
D1,Abel Figueiredo/PA,-4.953001,-48.3958485,5,66.79134
1,Abelardo Luz/SC,-26.5705893,-52.3280339,1030,5734.96659
D1,Abelardo Luz/SC,-26.5705893,-52.3280339,32,178.17372
1,Abre Campo/MG,-20.2976097,-42.4764741,526,3912.52603
D1,Abre Campo/MG,-20.2976097,-42.4764741,6,44.62957
1,Abreu e Lima/PE,-7.900719,-34.898389,1724,1718.05553
D1,Abreu e Lima/PE,-7.900719,-34.898389,159,158.45176
1,Abreulândia/TO,-9.6221526,-49.1558343,192,7401.69622
D1,Abreulândia/TO,-9.6221526,-49.1558343,4,154.20200
1,Acaiaca/MG,-20.3621646,-43.1444162,131,3279.91988
D1,Acaiaca/MG,-20.3621646,-43.1444162,5,125.18778
1,Acajutiba/BA,-11.6609659,-38.0186381,387,2548.23204
D1,Acajutiba/BA,-11.6609659,-38.0186381,9,59.26121
1,Acarape/CE,-4.2237866,-38.7071663,2107,14013.03538
D1,Acarape/CE,-4.2237866,-38.7071663,15,99.76057
1,Acaraú/CE,-2.8869514,-40.1194713,3422,5422.79412
D1,Acaraú/CE,-2.8869514,-40.1194713,68,107.75862
1,Acari/RN,-6.4364689,-36.6394777,553,4972.57441
D1,Acari/RN,-6.4364689,-36.6394777,8,71.93598
1,Acará/PA,-1.961388,-48.1987043,1002,1799.92455
D1,Acará/PA,-1.961388,-48.1987043,18,32.33397
1,Acauã/PI,-8.219542,-41.083059,150,2112.08110
D1,Acauã/PI,-8.219542,-41.083059,1,14.08054
1,Aceguá/RS,-31.8695131,-54.1615593,90,1821.12505
1,Acopiara/CE,-6.0936464,-39.4543204,1841,3379.15971
D1,Acopiara/CE,-6.0936464,-39.4543204,76,139.49817
1,Acorizal/MT,-15.2001544,-56.3668953,316,5924.25947
D1,Acorizal/MT,-15.2001544,-56.3668953,10,187.47657
1,Acrelândia/AC,-10.0759167,-67.0526898,1061,6849.58037
D1,Acrelândia/AC,-10.0759167,-67.0526898,21,135.57134
1,Acreúna/GO,-17.3959899,-50.3749031,1288,5712.76501
D1,Acreúna/GO,-17.3959899,-50.3749031,31,137.49667
1,Adamantina/SP,-21.6866517,-51.0762975,1685,4799.06582
D1,Adamantina/SP,-21.6866517,-51.0762975,39,111.07630
1,Adelândia/GO,-16.4155077,-50.1665834,100,3974.56280
D1,Adelândia/GO,-16.4155077,-50.1665834,2,79.49126
1,Adolfo/SP,-21.2356597,-49.6441918,262,7371.97524
D1,Adolfo/SP,-21.2356597,-49.6441918,6,168.82386
1,Adrianópolis/PR,-24.6557863,-48.9912769,935,15963.80400
D1,Adrianópolis/PR,-24.6557863,-48.9912769,16,273.17739
1,Adustina/BA,-10.5358875,-38.114479,457,2668.45732
D1,Adustina/BA,-10.5358875,-38.114479,8,46.71260
1,Afogados da Ingazeira/PE,-7.750429,-37.6356375,2523,6745.26789
D1,Afogados da Ingazeira/PE,-7.750429,-37.6356375,36,96.24639
1,Afonso Bezerra/RN,-5.4745,-36.57625071327935,294,2665.69952
D1,Afonso Bezerra/RN,-5.4745,-36.57625071327935,11,99.73706
1,Afonso Cláudio/ES,-20.077841,-41.12606,2704,8878.67345
D1,Afonso Cláudio/ES,-20.077841,-41.12606,44,144.47546
1,Afonso Cunha/MA,-4.1326105,-43.3230026,154,2341.13712
D1,Afonso Cunha/MA,-4.1326105,-43.3230026,2,30.40438
1,Afrânio/PE,-8.5198919,-41.0070197,578,2917.71832
D1,Afrânio/PE,-8.5198919,-41.0070197,9,45.43160
1,Afuá/PA,-0.1535664,-50.3879223,2727,6892.10706
D1,Afuá/PA,-0.1535664,-50.3879223,14,35.38302
1,Agrestina/PE,-8.4558021,-35.9442663,872,3478.95472
D1,Agrestina/PE,-8.4558021,-35.9442663,36,143.62657
1,Agricolândia/PI,-5.7967843,-42.6605131,96,1870.98032
1,Agrolândia/SC,-27.4122212,-49.8295774,653,5929.35622
D1,Agrolândia/SC,-27.4122212,-49.8295774,6,54.48107
1,Agronômica/SC,-27.2660744,-49.7104753,350,6353.24015
D1,Agronômica/SC,-27.2660744,-49.7104753,7,127.06480
1,Aguanil/MG,-20.9424533,-45.3927152,276,6103.49403
D1,Aguanil/MG,-20.9424533,-45.3927152,7,154.79876
1,Aguaí/SP,-22.0592036,-46.979384,1247,3402.64134
D1,Aguaí/SP,-22.0592036,-46.979384,27,73.67387
1,Agudo/RS,-29.6423259,-53.2494005,736,4487.53125
D1,Agudo/RS,-29.6423259,-53.2494005,7,42.68032
1,Agudos do Sul/PR,-25.9890808,-49.3328175,385,4065.46990
D1,Agudos do Sul/PR,-25.9890808,-49.3328175,2,21.11932
1,Agudos/SP,-22.471162,-48.987822,1796,4802.01064
D1,Agudos/SP,-22.471162,-48.987822,34,90.90666
1,Aguiar/PB,-7.0928404,-38.1727215,194,3445.82593
D1,Aguiar/PB,-7.0928404,-38.1727215,3,53.28597
1,Aguiarnópolis/TO,-6.5600452,-47.4721189,487,7066.16367
D1,Aguiarnópolis/TO,-6.5600452,-47.4721189,10,145.09576
1,Aimorés/MG,-19.4917754,-41.0615603,1275,5071.39732
D1,Aimorés/MG,-19.4917754,-41.0615603,31,123.30456
1,Aiquara/BA,-14.126918,-39.8887574,415,9397.64493
D1,Aiquara/BA,-14.126918,-39.8887574,9,203.80435
1,Aiuaba/CE,-6.5710836,-40.1212278,233,1331.96136
D1,Aiuaba/CE,-6.5710836,-40.1212278,3,17.14972
1,Aiuruoca/MG,-21.9759554,-44.6036637,78,1305.22088
D1,Aiuruoca/MG,-21.9759554,-44.6036637,5,83.66801
1,Ajuricaba/RS,-28.239654,-53.7693013,548,7843.13725
D1,Ajuricaba/RS,-28.239654,-53.7693013,12,171.74753
1,Alagoa Grande/PB,-7.0415212,-35.6285322,2121,7458.06815
D1,Alagoa Grande/PB,-7.0415212,-35.6285322,41,144.16822
1,Alagoa Nova/PB,-7.0653703,-35.76695977336711,661,3159.50480
D1,Alagoa Nova/PB,-7.0653703,-35.76695977336711,13,62.13852
1,Alagoa/MG,-22.1697202,-44.6400042,211,7917.44841
D1,Alagoa/MG,-22.1697202,-44.6400042,1,37.52345
1,Alagoinha do Piauí/PI,-7.0090952,-40.939675,238,3105.02283
D1,Alagoinha do Piauí/PI,-7.0090952,-40.939675,9,117.41683
1,Alagoinha/PB,-6.97063215,-35.51490901897793,1268,8708.79121
D1,Alagoinha/PB,-6.97063215,-35.51490901897793,16,109.89011
1,Alagoinha/PE,-8.50355635,-36.77701174370496,445,3023.50863
D1,Alagoinha/PE,-8.50355635,-36.77701174370496,13,88.32722
1,Alagoinhas/BA,-12.133526,-38.420772,9532,6257.59058
D1,Alagoinhas/BA,-12.133526,-38.420772,164,107.66312
1,Alambari/SP,-23.550338,-47.897971,239,3899.49421
D1,Alambari/SP,-23.550338,-47.897971,8,130.52700
1,Albertina/MG,-20.66164,-43.784039,144,4782.46430
D1,Albertina/MG,-20.66164,-43.784039,6,199.26935
1,Alcantil/PB,-7.7425491,-36.0609604,166,3013.25104
D1,Alcantil/PB,-7.7425491,-36.0609604,2,36.30423
1,Alcinópolis/MS,-18.3264121,-53.7094463,84,1550.67380
D1,Alcinópolis/MS,-18.3264121,-53.7094463,2,36.92080
1,Alcobaça/BA,-17.5215875,-39.1965474,1095,4868.83059
D1,Alcobaça/BA,-17.5215875,-39.1965474,16,71.14273
1,Alcântara/MA,-2.4038956,-44.4154241,203,918.05355
D1,Alcântara/MA,-2.4038956,-44.4154241,8,36.17945
1,Alcântaras/CE,-3.586247,-40.5457641,811,6883.96571
D1,Alcântaras/CE,-3.586247,-40.5457641,5,42.44122
1,Aldeias Altas/MA,-4.6291957,-43.4708622,973,3636.43159
D1,Aldeias Altas/MA,-4.6291957,-43.4708622,11,41.11074
1,Alecrim/RS,-27.6566142,-54.7653195,186,3192.03707
D1,Alecrim/RS,-27.6566142,-54.7653195,5,85.80745
1,Alegre/ES,-20.7625787,-41.5318886,1377,4593.82819
D1,Alegre/ES,-20.7625787,-41.5318886,32,106.75563
1,Alegrete do Piauí/PI,-7.2440138,-40.8602296,376,7645.38430
D1,Alegrete do Piauí/PI,-7.2440138,-40.8602296,4,81.33388
1,Alegrete/RS,-29.790166,-55.794862,3659,5010.40697
D1,Alegrete/RS,-29.790166,-55.794862,104,142.41113
1,Alegria/RS,-27.8332103,-54.0574959,267,7913.45584
D1,Alegria/RS,-27.8332103,-54.0574959,1,29.63841
1,Alenquer/PA,-1.946229,-54.738355,1927,3375.25398
D1,Alenquer/PA,-1.946229,-54.738355,55,96.33574
1,Alexandria/RN,-6.414779,-38.0135516,894,6596.32554
D1,Alexandria/RN,-6.414779,-38.0135516,9,66.40596
1,Alexânia/GO,-16.0834049,-48.5077803,1872,6683.32738
D1,Alexânia/GO,-16.0834049,-48.5077803,28,99.96430
1,Alfenas/MG,-21.4297405,-45.9479419,4399,5465.00360
D1,Alfenas/MG,-21.4297405,-45.9479419,98,121.74820
1,Alfredo Chaves/ES,-20.624970400000002,-40.75006690147988,1753,11977.31621
D1,Alfredo Chaves/ES,-20.624970400000002,-40.75006690147988,24,163.97923
1,Alfredo Marcondes/SP,-21.9527,-51.413956,167,3991.39579
D1,Alfredo Marcondes/SP,-21.9527,-51.413956,4,95.60229
1,Alfredo Vasconcelos/MG,-21.145833,-43.776389,152,2177.33849
D1,Alfredo Vasconcelos/MG,-21.145833,-43.776389,5,71.62298
1,Alfredo Wagner/SC,-27.6961513,-49.3326734,548,5433.27384
D1,Alfredo Wagner/SC,-27.6961513,-49.3326734,2,19.82947
1,Algodão de Jandaíra/PB,-6.9040175,-36.0089879,76,2949.16570
1,Alhandra/PB,-7.4304246,-34.9106103,997,5053.98692
D1,Alhandra/PB,-7.4304246,-34.9106103,22,111.52228
1,Aliança do Tocantins/TO,-11.3055927,-48.9409096,410,7669.28545
D1,Aliança do Tocantins/TO,-11.3055927,-48.9409096,10,187.05574
1,Aliança/PE,-7.60398,-35.222696,446,1161.54908
D1,Aliança/PE,-7.60398,-35.222696,31,80.73547
1,Almadina/BA,-14.70466,-39.6381994,545,10156.54119
D1,Almadina/BA,-14.70466,-39.6381994,9,167.72270
1,Almas/TO,-11.5681309,-47.1702803,157,2249.60596
D1,Almas/TO,-11.5681309,-47.1702803,3,42.98610
1,Almeirim/PA,-1.5290377,-52.5788111,2574,7553.70349
D1,Almeirim/PA,-1.5290377,-52.5788111,21,61.62695
1,Almenara/MG,-16.1740678,-40.6904907,2599,6167.09774
D1,Almenara/MG,-16.1740678,-40.6904907,27,64.06758
1,Almino Afonso/RN,-6.1544208,-37.7649018,241,5116.77282
D1,Almino Afonso/RN,-6.1544208,-37.7649018,7,148.61996
1,Almirante Tamandaré do Sul/RS,-28.1141129,-52.9134874,131,6721.39559
1,Almirante Tamandaré/PR,-25.3133048,-49.2997838,6149,5122.41651
D1,Almirante Tamandaré/PR,-25.3133048,-49.2997838,176,146.61657
1,Aloândia/GO,-17.7277983,-49.4809338,182,9164.14904
D1,Aloândia/GO,-17.7277983,-49.4809338,6,302.11480
1,Alpercata/MG,-18.9803616,-41.9827637,337,4532.00646
D1,Alpercata/MG,-18.9803616,-41.9827637,12,161.37708
1,Alpestre/RS,-27.2512339,-53.0349646,215,3543.76133
D1,Alpestre/RS,-27.2512339,-53.0349646,4,65.93044
1,Alpinópolis/MG,-20.863611,-46.387777,510,2555.36627
D1,Alpinópolis/MG,-20.863611,-46.387777,8,40.08418
1,Alta Floresta D'Oeste/RO,-11.9296917,-61.9961284,2617,11514.43154
D1,Alta Floresta D'Oeste/RO,-11.9296917,-61.9961284,36,158.39493
1,Alta Floresta/MT,-9.8715018,-56.0839881,5149,9909.73652
D1,Alta Floresta/MT,-9.8715018,-56.0839881,59,113.55107
1,Altair/SP,-20.5238955,-49.0606135,90,2150.02389
D1,Altair/SP,-20.5238955,-49.0606135,6,143.33493
1,Altamira do Maranhão/MA,-4.1643006,-45.4674574,276,3370.37489
D1,Altamira do Maranhão/MA,-4.1643006,-45.4674574,7,85.48052
1,Altamira do Paraná/PR,-24.799114,-52.7128633,71,4221.16528
D1,Altamira do Paraná/PR,-24.799114,-52.7128633,2,118.90606
1,Altamira/PA,-3.204065,-52.209961,9567,8249.61843
D1,Altamira/PA,-3.204065,-52.209961,191,164.69919
1,Altaneira/CE,-6.9980933,-39.7385742,286,3738.56209
D1,Altaneira/CE,-6.9980933,-39.7385742,10,130.71895
1,Alterosa/MG,-21.249166,-46.143055,466,3210.02962
D1,Alterosa/MG,-21.249166,-46.143055,24,165.32341
1,Altinho/PE,-8.4904095,-36.0607494,755,3284.89384
D1,Altinho/PE,-8.4904095,-36.0607494,14,60.91194
1,Altinópolis/SP,-21.021364,-47.3712,511,3153.73696
D1,Altinópolis/SP,-21.021364,-47.3712,16,98.74715
1,Alto Alegre do Maranhão/MA,-4.2055693,-44.4525287,585,2099.93539
D1,Alto Alegre do Maranhão/MA,-4.2055693,-44.4525287,19,68.20303
1,Alto Alegre do Pindaré/MA,-3.6698186,-45.8462153,1684,5271.89056
D1,Alto Alegre do Pindaré/MA,-3.6698186,-45.8462153,26,81.39498
1,Alto Alegre dos Parecis/RO,-12.1314515,-61.856265,701,5288.57035
D1,Alto Alegre dos Parecis/RO,-12.1314515,-61.856265,17,128.25349
1,Alto Alegre/RR,2.98858,-61.307167,1110,7217.16515
D1,Alto Alegre/RR,2.98858,-61.307167,23,149.54486
1,Alto Alegre/RS,-31.780844700000003,-52.81311114489171,81,5021.69870
1,Alto Alegre/SP,-21.5820592,-50.1661976,168,4109.58904
D1,Alto Alegre/SP,-21.5820592,-50.1661976,4,97.84736
1,Alto Araguaia/MT,-17.3156528,-53.2169365,828,4271.34382
D1,Alto Araguaia/MT,-17.3156528,-53.2169365,14,72.22079
1,Alto Bela Vista/SC,-27.4320737,-51.905771,99,5140.18692
D1,Alto Bela Vista/SC,-27.4320737,-51.905771,2,103.84216
1,Alto Boa Vista/MT,-11.6723985,-51.3744431,380,5478.66205
D1,Alto Boa Vista/MT,-11.6723985,-51.3744431,6,86.50519
1,Alto Caparaó/MG,-20.4405661,-41.8683799,268,4546.99695
D1,Alto Caparaó/MG,-20.4405661,-41.8683799,7,118.76485
1,Alto Feliz/RS,-29.3785943,-51.3123751,147,4841.89723
1,Alto Garças/MT,-16.9469683,-53.529427,404,3324.82923
D1,Alto Garças/MT,-16.9469683,-53.529427,19,156.36573
1,Alto Horizonte/GO,-14.1954948,-49.3366993,464,7024.98107
D1,Alto Horizonte/GO,-14.1954948,-49.3366993,3,45.42014
1,Alto Jequitibá/MG,-20.423611,-41.966111,433,5216.23901
D1,Alto Jequitibá/MG,-20.423611,-41.966111,9,108.42067
1,Alto Longá/PI,-5.2549051,-42.2072388,416,2901.17860
D1,Alto Longá/PI,-5.2549051,-42.2072388,11,76.71386
1,Alto Paraguai/MT,-14.513712,-56.4936374,382,3329.55635
D1,Alto Paraguai/MT,-14.513712,-56.4936374,13,113.30951
1,Alto Paraná/PR,-23.131247,-52.318893,564,3795.67939
D1,Alto Paraná/PR,-23.131247,-52.318893,10,67.29928
1,Alto Paraíso de Goiás/GO,-14.1304779,-47.5100161,464,6035.37981
D1,Alto Paraíso de Goiás/GO,-14.1304779,-47.5100161,1,13.00728
1,Alto Paraíso/PR,-23.508137,-53.728537,120,4469.27374
D1,Alto Paraíso/PR,-23.508137,-53.728537,1,37.24395
1,Alto Paraíso/RO,-9.7240103,-63.3188123,1146,5245.57147
D1,Alto Paraíso/RO,-9.7240103,-63.3188123,21,96.12304
1,Alto Parnaíba/MA,-9.112506,-45.9310154,647,5770.60293
D1,Alto Parnaíba/MA,-9.112506,-45.9310154,5,44.59508
1,Alto Piquiri/PR,-24.0239021,-53.4417448,388,3968.09163
D1,Alto Piquiri/PR,-24.0239021,-53.4417448,10,102.27040
1,Alto Rio Doce/MG,-21.0239537,-43.4133507,236,2173.31246
D1,Alto Rio Doce/MG,-21.0239537,-43.4133507,18,165.76112
1,Alto Rio Novo/ES,-19.0577208,-41.0171518,494,6273.81255
D1,Alto Rio Novo/ES,-19.0577208,-41.0171518,17,215.90043
1,Alto Santo/CE,-5.5190371,-38.2719351,663,3855.54780
D1,Alto Santo/CE,-5.5190371,-38.2719351,17,98.86020
1,Alto Taquari/MT,-17.8269099,-53.2831736,828,7437.34842
D1,Alto Taquari/MT,-17.8269099,-53.2831736,12,107.78766
1,Alto do Rodrigues/RN,-5.290868,-36.7616726,991,6728.68007
D1,Alto do Rodrigues/RN,-5.290868,-36.7616726,21,142.58555
1,Altos/PI,-5.0393915,-42.4611694,2974,7324.22116
D1,Altos/PI,-5.0393915,-42.4611694,46,113.28654
1,Altônia/PR,-23.8722004,-53.894037,783,3530.84416
D1,Altônia/PR,-23.8722004,-53.894037,11,49.60317
1,Alumínio/SP,-23.5203479,-47.2575256,797,4246.81622
D1,Alumínio/SP,-23.5203479,-47.2575256,22,117.22705
1,Alvarenga/MG,-19.4175,-41.728334,334,8688.86576
D1,Alvarenga/MG,-19.4175,-41.728334,3,78.04370
1,Alvarães/AM,-3.214786,-64.8143124,2470,15228.11344
D1,Alvarães/AM,-3.214786,-64.8143124,35,215.78298
1,Alvinlândia/SP,-22.4431852,-49.7643596,64,1977.13933
1,Alvinópolis/MG,-20.1105199,-43.0601805,338,2228.22862
D1,Alvinópolis/MG,-20.1105199,-43.0601805,5,32.96196
1,Alvorada D'Oeste/RO,-11.346271,-62.284697,635,4501.63051
D1,Alvorada D'Oeste/RO,-11.346271,-62.284697,14,99.24855
1,Alvorada de Minas/MG,-18.7318587,-43.3641479,154,4271.84466
D1,Alvorada de Minas/MG,-18.7318587,-43.3641479,1,27.73925
1,Alvorada do Gurguéia/PI,-8.4465288,-43.8655915,206,3783.28742
D1,Alvorada do Gurguéia/PI,-8.4465288,-43.8655915,5,91.82736
1,Alvorada do Norte/GO,-14.483911,-46.4959897,486,5582.99828
D1,Alvorada do Norte/GO,-14.483911,-46.4959897,2,22.97530
1,Alvorada do Sul/PR,-22.7807269,-51.2307721,482,4190.21125
D1,Alvorada do Sul/PR,-22.7807269,-51.2307721,10,86.93384
1,Alvorada/RS,-29.9981184,-51.0772509,13043,6171.22147
D1,Alvorada/RS,-29.9981184,-51.0772509,401,189.73088
1,Alvorada/TO,-12.478465,-49.124926,867,10326.34588
D1,Alvorada/TO,-12.478465,-49.124926,12,142.92520
1,Além Paraíba/MG,-21.8760576,-42.6810473,1880,5310.58445
D1,Além Paraíba/MG,-21.8760576,-42.6810473,73,206.20886
1,Amajari/RR,3.6523869,-61.4194315,778,5900.64467
D1,Amajari/RR,3.6523869,-61.4194315,18,136.51877
1,Amambai/MS,-23.1082701,-55.2284854,1848,4640.18480
D1,Amambai/MS,-23.1082701,-55.2284854,35,87.88229
1,Amaporã/PR,-23.094272,-52.786597,132,2084.64940
1,Amapá do Maranhão/MA,-1.6762114,-46.0109669,67,956.45967
1,Amapá/AP,2.0529997,-50.7930003,1119,12180.25471
D1,Amapá/AP,2.0529997,-50.7930003,9,97.96452
1,Amaraji/PE,-8.373925,-35.4536527,399,1744.64364
D1,Amaraji/PE,-8.373925,-35.4536527,25,109.31351
1,Amaral Ferrador/RS,-30.8750633,-52.2542051,164,2314.74947
D1,Amaral Ferrador/RS,-30.8750633,-52.2542051,4,56.45730
1,Amaralina/GO,-13.9236199,-49.2962411,28,728.21847
1,Amarante do Maranhão/MA,-5.56913,-46.747284,1209,2897.26569
D1,Amarante do Maranhão/MA,-5.56913,-46.747284,38,91.06377
1,Amarante/PI,-6.2459374,-42.8476238,1026,5828.22086
D1,Amarante/PI,-6.2459374,-42.8476238,20,113.61054
1,Amargosa/BA,-13.03793715,-39.60796443875596,1876,5010.54993
D1,Amargosa/BA,-13.03793715,-39.60796443875596,33,88.13867
1,Amaturá/AM,-3.3640509,-68.1994689,1863,15874.23313
D1,Amaturá/AM,-3.3640509,-68.1994689,15,127.81186
1,Americana/SP,-22.7392463,-47.3306032,11948,4936.82288
D1,Americana/SP,-22.7392463,-47.3306032,312,128.91603
1,Americano do Brasil/GO,-16.2515808,-49.9806104,285,4623.62103
D1,Americano do Brasil/GO,-16.2515808,-49.9806104,8,129.78585
1,Ametista do Sul/RS,-27.3617341,-53.1826575,363,4903.41753
D1,Ametista do Sul/RS,-27.3617341,-53.1826575,8,108.06430
1,Amontada/CE,-3.3634586,-39.8284791,1305,2977.48066
D1,Amontada/CE,-3.3634586,-39.8284791,24,54.75827
1,Amorinópolis/GO,-16.6211308,-51.0949921,132,4301.07527
D1,Amorinópolis/GO,-16.6211308,-51.0949921,1,32.58390
1,Amparo de São Francisco/SE,-10.1299754,-36.9269099,111,4663.86555
D1,Amparo de São Francisco/SE,-10.1299754,-36.9269099,3,126.05042
1,Amparo do Serra/MG,-20.5070255,-42.8028462,85,1817.01582
D1,Amparo do Serra/MG,-20.5070255,-42.8028462,3,64.12997
1,Amparo/PB,-7.56394725,-37.04652873235175,118,5242.11462
D1,Amparo/PB,-7.56394725,-37.04652873235175,2,88.84940
1,Amparo/SP,-22.70111,-46.76444,3029,4167.75596
D1,Amparo/SP,-22.70111,-46.76444,70,96.31658
1,Ampére/PR,-25.9168712,-53.4742414,745,3857.90482
D1,Ampére/PR,-25.9168712,-53.4742414,18,93.21112
1,Amélia Rodrigues/BA,-12.4015388,-38.7516971,1436,5732.99265
D1,Amélia Rodrigues/BA,-12.4015388,-38.7516971,27,107.79304
1,América Dourada/BA,-11.4515262,-41.4357517,476,2958.35923
D1,América Dourada/BA,-11.4515262,-41.4357517,2,12.43008
1,Américo Brasiliense/SP,-21.7297099,-48.1052092,2592,6317.02086
D1,Américo Brasiliense/SP,-21.7297099,-48.1052092,53,129.16748
1,Américo de Campos/SP,-20.298476,-49.735904,478,7991.97459
D1,Américo de Campos/SP,-20.298476,-49.735904,16,267.51379
1,Anadia/AL,-9.6830208,-36.3052699,853,4867.05466
D1,Anadia/AL,-9.6830208,-36.3052699,17,96.99874
1,Anagé/BA,-14.6134669,-41.1376308,531,2457.53691
D1,Anagé/BA,-14.6134669,-41.1376308,12,55.53756
1,Anahy/PR,-24.6450861,-53.1337957,167,5989.95696
D1,Anahy/PR,-24.6450861,-53.1337957,3,107.60402
1,Anajatuba/MA,-3.26441,-44.6179916,615,2278.79057
D1,Anajatuba/MA,-3.26441,-44.6179916,15,55.58026
1,Anajás/PA,-0.9878802,-49.9390114,1075,3620.99165
D1,Anajás/PA,-0.9878802,-49.9390114,12,40.42037
1,Analândia/SP,-22.128917,-47.661939,208,4113.92405
D1,Analândia/SP,-22.128917,-47.661939,3,59.33544
1,Anamã/AM,-3.5797356,-61.4049996,1526,10934.36515
D1,Anamã/AM,-3.5797356,-61.4049996,4,28.66151
1,Ananindeua/PA,-1.374035,-48.4016623,15263,2849.98329
D1,Ananindeua/PA,-1.374035,-48.4016623,473,88.32091
1,Ananás/TO,-6.3663053,-48.080238,1235,13010.95660
D1,Ananás/TO,-6.3663053,-48.080238,19,200.16856
1,Anapu/PA,-3.4668292,-51.2057035,1179,4121.36890
D1,Anapu/PA,-3.4668292,-51.2057035,25,87.39120
1,Anapurus/MA,-3.6751298,-43.1046001,827,5203.22134
D1,Anapurus/MA,-3.6751298,-43.1046001,10,62.91682
1,Anastácio/MS,-20.4832458,-55.8048448,1518,6014.97801
D1,Anastácio/MS,-20.4832458,-55.8048448,44,174.34719
1,Anaurilândia/MS,-22.185169,-52.719056,213,2346.84883
D1,Anaurilândia/MS,-22.185169,-52.719056,5,55.09035
1,Anchieta/ES,-20.8057672,-40.6454564,3067,10299.20414
D1,Anchieta/ES,-20.8057672,-40.6454564,42,141.03899
1,Anchieta/SC,-26.5350527,-53.3293938,343,6172.39518
D1,Anchieta/SC,-26.5350527,-53.3293938,4,71.98128
1,Andaraí/BA,-12.8059674,-41.3322919,573,4363.38715
D1,Andaraí/BA,-12.8059674,-41.3322919,5,38.07493
1,Andirá/PR,-23.0494761,-50.2310027,1197,6007.22674
D1,Andirá/PR,-23.0494761,-50.2310027,34,170.63134
1,Andorinha/BA,-10.3445708,-39.8334411,579,3992.27746
D1,Andorinha/BA,-10.3445708,-39.8334411,9,62.05613
1,Andradas/MG,-22.0680484,-46.5688976,1836,4435.21113
D1,Andradas/MG,-22.0680484,-46.5688976,43,103.87477
1,Andradina/SP,-20.896505,-51.3742765,3309,5784.76277
D1,Andradina/SP,-20.896505,-51.3742765,118,206.28649
1,Andrelândia/MG,-21.739722,-44.308889,206,1687.69458
D1,Andrelândia/MG,-21.739722,-44.308889,6,49.15615
1,André da Rocha/RS,-28.6309124,-51.5733328,68,5063.29114
1,Angatuba/SP,-23.4938938,-48.4110675,1196,4694.06178
D1,Angatuba/SP,-23.4938938,-48.4110675,25,98.12002
1,Angelim/PE,-8.8902038,-36.2872987,117,1042.22341
D1,Angelim/PE,-8.8902038,-36.2872987,4,35.63157
1,Angelina/SC,-27.5805287,-48.9838759,367,7737.71874
1,Angelândia/MG,-17.7253,-42.2728,80,934.90709
1,Angical do Piauí/PI,-6.0872666,-42.7366138,284,4186.93793
D1,Angical do Piauí/PI,-6.0872666,-42.7366138,6,88.45644
1,Angical/BA,-12.005623,-44.7000236,333,2389.15196
D1,Angical/BA,-12.005623,-44.7000236,5,35.87315
1,Angico/TO,-6.3893733,-47.8656722,189,5471.91662
D1,Angico/TO,-6.3893733,-47.8656722,3,86.85582
1,Angicos/RN,-5.6666344,-36.6009064,384,3280.64930
D1,Angicos/RN,-5.6666344,-36.6009064,9,76.89022
1,Angra dos Reis/RJ,-23.0063966,-44.316326,11276,5446.18535
D1,Angra dos Reis/RJ,-23.0063966,-44.316326,355,171.46114
1,Anguera/BA,-12.1509425,-39.2452469,276,2443.12649
D1,Anguera/BA,-12.1509425,-39.2452469,1,8.85191
1,Angélica/MS,-22.1588196,-53.7728504,472,4317.59971
D1,Angélica/MS,-22.1588196,-53.7728504,9,82.32711
1,Anhanguera/GO,-18.3338749,-48.220363,69,5948.27586
D1,Anhanguera/GO,-18.3338749,-48.220363,6,517.24138
1,Anhembi/SP,-22.7891096,-48.1316776,95,1393.16615
D1,Anhembi/SP,-22.7891096,-48.1316776,2,29.32981
1,Anhumas/SP,-22.2956478,-51.3873401,165,3981.66023
D1,Anhumas/SP,-22.2956478,-51.3873401,1,24.13127
1,Anicuns/GO,-16.4606451,-49.9572265,1847,8402.71143
D1,Anicuns/GO,-16.4606451,-49.9572265,38,172.87658
1,Anita Garibaldi/SC,-27.6855032,-51.1293873,705,10133.67831
D1,Anita Garibaldi/SC,-27.6855032,-51.1293873,5,71.87006
1,Anitápolis/SC,-27.9041185,-49.1287395,228,7063.19703
1,Anori/AM,-3.7435254,-61.6605203,1785,8311.21665
D1,Anori/AM,-3.7435254,-61.6605203,29,135.02817
1,Anta Gorda/RS,-28.9718745,-52.0069187,492,8253.64872
D1,Anta Gorda/RS,-28.9718745,-52.0069187,4,67.10284
1,Antas/BA,-10.4114649,-38.3308815,843,4327.73756
D1,Antas/BA,-10.4114649,-38.3308815,2,10.26747
1,Antonina do Norte/CE,-6.7754187,-39.9879345,112,1518.02657
D1,Antonina do Norte/CE,-6.7754187,-39.9879345,8,108.43047
1,Antonina/PR,-25.4298854,-48.7125431,1628,8591.48240
D1,Antonina/PR,-25.4298854,-48.7125431,42,221.64758
1,Antônio Almeida/PI,-7.2186016,-44.1950248,362,11419.55836
D1,Antônio Almeida/PI,-7.2186016,-44.1950248,9,283.91167
1,Antônio Cardoso/BA,-12.4363122,-39.1200307,264,2260.85467
D1,Antônio Cardoso/BA,-12.4363122,-39.1200307,5,42.81922
1,Antônio Carlos/MG,-21.318334,-43.746666,344,3002.00716
D1,Antônio Carlos/MG,-21.318334,-43.746666,6,52.36059
1,Antônio Carlos/SC,-27.5168462,-48.7684715,1242,14420.06270
D1,Antônio Carlos/SC,-27.5168462,-48.7684715,17,197.37606
1,Antônio Dias/MG,-19.6525,-42.872778,307,3309.97305
D1,Antônio Dias/MG,-19.6525,-42.872778,6,64.69003
1,Antônio Gonçalves/BA,-10.5715409,-40.2748824,522,4394.67924
D1,Antônio Gonçalves/BA,-10.5715409,-40.2748824,5,42.09463
1,Antônio João/MS,-22.1892837,-55.9508227,220,2439.02439
D1,Antônio João/MS,-22.1892837,-55.9508227,4,44.34590
1,Antônio Martins/RN,-6.2155812,-37.8890129,227,3173.05004
D1,Antônio Martins/RN,-6.2155812,-37.8890129,2,27.95639
1,Antônio Olinto/PR,-25.9849006,-50.1974516,214,2881.37875
D1,Antônio Olinto/PR,-25.9849006,-50.1974516,2,26.92877
1,Antônio Prado de Minas/MG,-21.0171988,-42.1101106,139,8758.66415
D1,Antônio Prado de Minas/MG,-21.0171988,-42.1101106,3,189.03592
1,Antônio Prado/RS,-28.8567806,-51.2801355,1323,10141.81679
D1,Antônio Prado/RS,-28.8567806,-51.2801355,12,91.98927
1,Anápolis/GO,-16.3332828,-48.9525756,23352,5960.60974
D1,Anápolis/GO,-16.3332828,-48.9525756,584,149.06629
1,Anísio de Abreu/PI,-9.185643,-43.04941,242,2435.09761
D1,Anísio de Abreu/PI,-9.185643,-43.04941,2,20.12477
1,Aparecida d'Oeste/SP,-20.4498109,-50.8808706,452,10870.61087
D1,Aparecida d'Oeste/SP,-20.4498109,-50.8808706,11,264.55026
1,Aparecida de Goiânia/GO,-16.8226769,-49.2452546,50536,8563.30467
D1,Aparecida de Goiânia/GO,-16.8226769,-49.2452546,826,139.96536
1,Aparecida do Rio Doce/GO,-18.2980167,-51.1491312,150,6063.05578
D1,Aparecida do Rio Doce/GO,-18.2980167,-51.1491312,3,121.26112
1,Aparecida do Rio Negro/TO,-9.9513491,-47.9773786,243,5012.37624
D1,Aparecida do Rio Negro/TO,-9.9513491,-47.9773786,4,82.50825
1,Aparecida do Taboado/MS,-20.0840304,-51.1013943,1691,6486.63163
D1,Aparecida do Taboado/MS,-20.0840304,-51.1013943,25,95.89934
1,Aparecida/PB,-6.7859598, -38.0831353,615,7307.50951
D1,Aparecida/PB,-6.7859598, -38.0831353,9,106.93916
1,Aparecida/SP,-22.851552,-45.2340924,1442,3985.07669
D1,Aparecida/SP,-22.851552,-45.2340924,38,105.01589
1,Aperibé/RJ,-21.6211928,-42.1028167,313,2630.03109
D1,Aperibé/RJ,-21.6211928,-42.1028167,10,84.02655
1,Apiacá/ES,-21.152272,-41.569297,472,6248.34525
D1,Apiacá/ES,-21.152272,-41.569297,13,172.09425
1,Apiacás/MT,-9.5678422,-57.394852,616,5990.46971
D1,Apiacás/MT,-9.5678422,-57.394852,2,19.44958
1,Apiaí/SP,-24.5076527,-48.8461582,740,3054.56947
D1,Apiaí/SP,-24.5076527,-48.8461582,26,107.32271
1,Apicum-Açu/MA,-1.5279295,-45.082278,271,1556.30851
D1,Apicum-Açu/MA,-1.5279295,-45.082278,3,17.22851
1,Apiúna/SC,-27.0374658,-49.3885037,586,5401.91740
D1,Apiúna/SC,-27.0374658,-49.3885037,11,101.40118
1,Apodi/RN,-5.6631109,-37.796927,4329,12067.23532
D1,Apodi/RN,-5.6631109,-37.796927,52,144.95178
1,Aporá/BA,-11.6599747,-38.0794757,377,2119.40634
D1,Aporá/BA,-11.6599747,-38.0794757,11,61.83944
1,Aporé/GO,-18.9642193,-51.92804,214,5056.71078
D1,Aporé/GO,-18.9642193,-51.92804,5,118.14745
1,Apuarema/BA,-13.8517897,-39.7457126,593,8121.06272
D1,Apuarema/BA,-13.8517897,-39.7457126,9,123.25390
1,Apucarana/PR,-23.5525327,-51.4610764,4451,3267.17266
D1,Apucarana/PR,-23.5525327,-51.4610764,148,108.63661
1,Apuiarés/CE,-3.9460303,-39.4313298,454,3094.32933
D1,Apuiarés/CE,-3.9460303,-39.4313298,13,88.60414
1,Apuí/AM,-7.1940195,-59.8830192,950,4248.84834
D1,Apuí/AM,-7.1940195,-59.8830192,19,84.97697
1,Aquidabã/SE,-10.2837579,-37.0188687,1404,6475.71606
D1,Aquidabã/SE,-10.2837579,-37.0188687,22,101.47133
1,Aquidauana/MS,-20.473969,-55.7821375,3526,7341.39791
D1,Aquidauana/MS,-20.473969,-55.7821375,92,191.55094
1,Aquiraz/CE,-3.9063117,-38.387504,3004,3711.62044
D1,Aquiraz/CE,-3.9063117,-38.387504,52,64.24909
1,Arabutã/SC,-27.1587028,-52.1438142,299,7007.26506
D1,Arabutã/SC,-27.1587028,-52.1438142,4,93.74268
1,Aracaju/SE,-10.9162061,-37.0774655,81729,12291.77570
D1,Aracaju/SE,-10.9162061,-37.0774655,1194,179.57372
1,Aracati/CE,-4.558259,-37.767894,3492,4657.55252
D1,Aracati/CE,-4.558259,-37.767894,81,108.03601
1,Aracatu/BA,-14.4274236,-41.4604105,554,4246.83787
D1,Aracatu/BA,-14.4274236,-41.4604105,8,61.32618
1,Araci/BA,-11.3356065,-38.9573261,2903,5312.17977
D1,Araci/BA,-11.3356065,-38.9573261,31,56.72669
1,Aracitaba/MG,-21.3425,-43.378611,70,3399.70860
D1,Aracitaba/MG,-21.3425,-43.378611,7,339.97086
1,Aracoiaba/CE,-4.3702577,-38.8084313,1213,4571.32090
D1,Aracoiaba/CE,-4.3702577,-38.8084313,20,75.37215
1,Aracruz/ES,-19.8245218,-40.2735025,11157,10821.42753
D1,Aracruz/ES,-19.8245218,-40.2735025,155,150.33802
1,Aragarças/GO,-15.8957166,-52.2514538,1564,7714.69442
D1,Aragarças/GO,-15.8957166,-52.2514538,29,143.04740
1,Aragoiânia/GO,-16.9146388,-49.4499148,650,6192.83537
D1,Aragoiânia/GO,-16.9146388,-49.4499148,6,57.16463
1,Aragominas/TO,-7.1654101,-48.525488,416,7258.76810
D1,Aragominas/TO,-7.1654101,-48.525488,7,122.14273
1,Araguacema/TO,-8.8067391,-49.5560969,282,3941.29979
D1,Araguacema/TO,-8.8067391,-49.5560969,5,69.88120
1,Araguaiana/MT,-15.729144,-51.834112,91,2926.98617
D1,Araguaiana/MT,-15.729144,-51.834112,1,32.16468
1,Araguainha/MT,-16.857016,-53.031778,16,1691.33192
1,Araguanã/MA,-2.9508403,-45.6651986,640,4115.49097
D1,Araguanã/MA,-2.9508403,-45.6651986,5,32.15227
1,Araguanã/TO,-6.5799107,-48.6428482,204,3521.49146
D1,Araguanã/TO,-6.5799107,-48.6428482,11,189.88434
1,Araguapaz/GO,-15.0937927,-50.626417,330,4240.01028
D1,Araguapaz/GO,-15.0937927,-50.626417,10,128.48516
1,Araguari/MG,-18.6511256,-48.1933764,9449,8019.52048
D1,Araguari/MG,-18.6511256,-48.1933764,243,206.23806
1,Araguatins/TO,-5.6522925,-48.1158973,1418,3920.37600
D1,Araguatins/TO,-5.6522925,-48.1158973,40,110.58889
1,Araguaçu/TO,-12.928934,-49.823134,675,7972.12708
D1,Araguaçu/TO,-12.928934,-49.823134,13,153.53726
1,Araguaína/TO,-7.193241,-48.2018597,22607,12327.88566
D1,Araguaína/TO,-7.193241,-48.2018597,286,155.95945
1,Araioses/MA,-2.890914,-41.904993,596,1274.29390
D1,Araioses/MA,-2.890914,-41.904993,10,21.38077
1,Aral Moreira/MS,-22.951141,-55.6268421,318,2578.65715
D1,Aral Moreira/MS,-22.951141,-55.6268421,8,64.87188
1,Aramari/BA,-12.0907897,-38.4985065,453,3952.53468
D1,Aramari/BA,-12.0907897,-38.4985065,10,87.25242
1,Arambaré/RS,-30.9132252,-51.4994625,107,3003.93038
D1,Arambaré/RS,-30.9132252,-51.4994625,2,56.14823
1,Arame/MA,-4.8858769,-46.0102484,979,2988.03565
D1,Arame/MA,-4.8858769,-46.0102484,26,79.35539
1,Aramina/SP,-20.0876144,-47.789201,195,3448.27586
D1,Aramina/SP,-20.0876144,-47.789201,7,123.78426
1,Arandu/SP,-23.1345103,-49.0545651,169,2655.14533
D1,Arandu/SP,-23.1345103,-49.0545651,7,109.97643
1,Arantina/MG,-21.911667,-44.255833,58,2081.09078
D1,Arantina/MG,-21.911667,-44.255833,2,71.76175
1,Arapeí/SP,-22.6738889,-44.4477778,153,6219.51220
D1,Arapeí/SP,-22.6738889,-44.4477778,2,81.30081
1,Arapiraca/AL,-9.754866,-36.661471,18009,7727.62576
D1,Arapiraca/AL,-9.754866,-36.661471,260,111.56548
1,Arapoema/TO,-7.6575001,-49.0641484,375,5668.07739
D1,Arapoema/TO,-7.6575001,-49.0641484,5,75.57437
1,Araponga/MG,-20.666667,-42.520556,241,2851.05880
D1,Araponga/MG,-20.666667,-42.520556,2,23.66024
1,Arapongas/PR,-23.415296,-51.42592,7830,6273.53577
D1,Arapongas/PR,-23.415296,-51.42592,253,202.70812
1,Araporã/MG,-18.4318188,-49.188313,1343,19376.71332
D1,Araporã/MG,-18.4318188,-49.188313,17,245.27485
1,Arapoti/PR,-24.1457957,-49.8224605,1815,6413.42756
D1,Arapoti/PR,-24.1457957,-49.8224605,22,77.73852
1,Araputanga/MT,-15.4710868,-58.346796,1213,7155.92000
D1,Araputanga/MT,-15.4710868,-58.346796,26,153.38328
1,Arapuá/MG,-19.034444,-46.155556,88,3104.05644
D1,Arapuá/MG,-19.034444,-46.155556,1,35.27337
1,Arapuã/PR,-24.3079525,-51.7901941,145,4818.87670
D1,Arapuã/PR,-24.3079525,-51.7901941,3,99.70090
1,Araquari/SC,-26.3703324,-48.7210994,2282,5773.70711
D1,Araquari/SC,-26.3703324,-48.7210994,36,91.08390
1,Arara/PB,-6.8271895,-35.7605703,382,2820.85364
D1,Arara/PB,-6.8271895,-35.7605703,11,81.22877
1,Araranguá/SC,-28.9348832,-49.4858389,7179,10424.44131
D1,Araranguá/SC,-28.9348832,-49.4858389,124,180.05721
1,Araraquara/SP,-21.7886713,-48.1773096,12762,5354.55800
D1,Araraquara/SP,-21.7886713,-48.1773096,270,113.28402
1,Araras/SP,-22.3569477,-47.3838889,9583,7072.01157
D1,Araras/SP,-22.3569477,-47.3838889,193,142.42912
1,Ararendá/CE,-4.7504395,-40.8303611,514,4690.20896
D1,Ararendá/CE,-4.7504395,-40.8303611,9,82.12428
1,Arari/MA,-3.4547602,-44.7772723,381,1272.88521
D1,Arari/MA,-3.4547602,-44.7772723,15,50.11359
1,Araricá/RS,-29.6168543,-50.929121,754,13065.32663
D1,Araricá/RS,-29.6168543,-50.929121,16,277.24831
1,Araripe/CE,-7.212861,-40.1359222,604,2789.32299
D1,Araripe/CE,-7.212861,-40.1359222,7,32.32659
1,Araripina/PE,-7.5768582,-40.5038509,4532,5340.30920
D1,Araripina/PE,-7.5768582,-40.5038509,79,93.09012
1,Araruama/RJ,-22.8733203,-42.3428897,3798,2828.14443
D1,Araruama/RJ,-22.8733203,-42.3428897,120,89.35685
1,Araruna/PB,-6.5321155,-35.7397595,551,2692.66481
D1,Araruna/PB,-6.5321155,-35.7397595,15,73.30303
1,Araruna/PR,-23.9320308,-52.4976047,756,5400.00000
D1,Araruna/PR,-23.9320308,-52.4976047,13,92.85714
1,Arataca/BA,-15.2617424,-39.4122943,383,3494.20673
D1,Arataca/BA,-15.2617424,-39.4122943,12,109.47906
1,Aratiba/RS,-27.3955734,-52.3024325,241,3894.00549
D1,Aratiba/RS,-27.3955734,-52.3024325,5,80.78850
1,Aratuba/CE,-4.4195958,-39.0463737,386,3270.63210
D1,Aratuba/CE,-4.4195958,-39.0463737,2,16.94628
1,Aratuípe/BA,-13.077137,-39.0010786,246,2783.75014
D1,Aratuípe/BA,-13.077137,-39.0010786,7,79.21240
1,Araucária/PR,-25.5861107,-49.4051209,15272,10444.96423
D1,Araucária/PR,-25.5861107,-49.4051209,191,130.63045
1,Arauá/SE,-11.2644014,-37.6181058,632,6353.67447
D1,Arauá/SE,-11.2644014,-37.6181058,12,120.63939
1,Araxá/MG,-19.5928536,-46.940241,6708,6249.47595
D1,Araxá/MG,-19.5928536,-46.940241,78,72.66832
1,Araçagi/PB,-6.8519969,-35.3835602,791,4674.66462
D1,Araçagi/PB,-6.8519969,-35.3835602,8,47.27853
1,Araçariguama/SP,-23.438611,-47.061389,866,3788.27647
D1,Araçariguama/SP,-23.438611,-47.061389,23,100.61242
1,Araçatuba/SP,-21.207992,-50.4390225,16574,8365.25698
D1,Araçatuba/SP,-21.207992,-50.4390225,357,180.18564
1,Araçaí/MG,-19.200833,-44.2475,33,1401.86916
1,Araçoiaba da Serra/SP,-23.5045367,-47.6168158,1486,4273.06188
D1,Araçoiaba da Serra/SP,-23.5045367,-47.6168158,33,94.89303
1,Araçoiaba/PE,-7.7856903,-35.0898881,281,1355.32726
D1,Araçoiaba/PE,-7.7856903,-35.0898881,20,96.46457
1,Araçu/GO,-16.3561579,-49.6815269,280,8032.12851
D1,Araçu/GO,-16.3561579,-49.6815269,8,229.48939
1,Araçuaí/MG,-16.8484451,-42.0661868,648,1765.09043
D1,Araçuaí/MG,-16.8484451,-42.0661868,16,43.58248
1,Araçás/BA,-12.2139176,-38.2026159,481,3940.03932
D1,Araçás/BA,-12.2139176,-38.2026159,7,57.33945
1,Araújos/MG,-19.948055,-45.165556,400,4254.86650
D1,Araújos/MG,-19.948055,-45.165556,2,21.27433
1,Arceburgo/MG,-21.364444,-46.939722,409,3758.15492
D1,Arceburgo/MG,-21.364444,-46.939722,7,64.32050
1,Arco-Íris/SP,-21.7741308,-50.4668814,64,3609.70107
D1,Arco-Íris/SP,-21.7741308,-50.4668814,5,282.00790
1,Arcos/MG,-20.282223,-45.539444,3046,7543.33829
D1,Arcos/MG,-20.282223,-45.539444,28,69.34126
1,Arcoverde/PE,-8.415192,-37.057748,4289,5732.27126
D1,Arcoverde/PE,-8.415192,-37.057748,87,116.27596
1,Areado/MG,-21.3582771,-46.1476688,419,2760.02898
D1,Areado/MG,-21.3582771,-46.1476688,8,52.69745
1,Areal/RJ,-22.2314922,-43.1056264,404,3188.88626
D1,Areal/RJ,-22.2314922,-43.1056264,20,157.86566
1,Arealva/SP,-22.0301906,-48.9111936,406,4713.80471
D1,Arealva/SP,-22.0301906,-48.9111936,4,46.44143
1,Areia Branca/RN,-4.9506652,-37.1263312,1512,5406.37180
D1,Areia Branca/RN,-4.9506652,-37.1263312,63,225.26549
1,Areia Branca/SE,-10.7591455,-37.3148072,1123,6009.84694
D1,Areia Branca/SE,-10.7591455,-37.3148072,25,133.79000
1,Areia de Baraúnas/PB,-7.1233949,-36.9446216,30,1417.76938
1,Areia/PB,-6.9680243,-35.6994783,893,3941.56073
D1,Areia/PB,-6.9680243,-35.6994783,15,66.20763
1,Areial/PB,-7.0501306,-35.9245244,166,2362.31678
D1,Areial/PB,-7.0501306,-35.9245244,6,85.38494
1,Areias/SP,-22.5800929,-44.6975127,190,4876.79671
D1,Areias/SP,-22.5800929,-44.6975127,1,25.66735
1,Areiópolis/SP,-22.6758064,-48.6673653,481,4310.80839
D1,Areiópolis/SP,-22.6758064,-48.6673653,6,53.77308
1,Arenápolis/MT,-14.4610369,-56.8432806,944,9934.75058
D1,Arenápolis/MT,-14.4610369,-56.8432806,13,136.81330
1,Arenópolis/GO,-16.3859286,-51.55937,83,3272.87066
D1,Arenópolis/GO,-16.3859286,-51.55937,1,39.43218
1,Argirita/MG,-21.612761,-42.8371922,212,7840.23669
D1,Argirita/MG,-21.612761,-42.8371922,5,184.91124
1,Aricanduva/MG,-17.8678,-42.5569,38,721.19947
1,Arinos/MG,-15.917223,-46.106111,212,1186.87717
D1,Arinos/MG,-15.917223,-46.106111,6,33.59086
1,Aripuanã/MT,-10.175806,-59.4439663,1563,6881.21863
D1,Aripuanã/MT,-10.175806,-59.4439663,23,101.25914
1,Ariquemes/RO,-9.9076522,-63.033069,14298,13054.79214
D1,Ariquemes/RO,-9.9076522,-63.033069,266,242.87136
1,Ariranha do Ivaí/PR,-24.3834527,-51.5876772,95,4598.25750
D1,Ariranha do Ivaí/PR,-24.3834527,-51.5876772,1,48.40271
1,Ariranha/SP,-21.18716,-48.790418,280,2868.55855
D1,Ariranha/SP,-21.18716,-48.790418,13,133.18308
1,Armazém/SC,-28.2624996,-49.0190126,1000,11416.82841
D1,Armazém/SC,-28.2624996,-49.0190126,9,102.75146
1,Armação dos Búzios/RJ,-22.7597805,-41.8875267,2964,8597.03570
D1,Armação dos Búzios/RJ,-22.7597805,-41.8875267,28,81.21356
1,Arneiroz/CE,-6.3235099,-40.1603859,114,1453.34013
D1,Arneiroz/CE,-6.3235099,-40.1603859,6,76.49159
1,Aroazes/PI,-6.1108814,-41.7886137,364,6246.78222
D1,Aroazes/PI,-6.1108814,-41.7886137,10,171.61490
1,Aroeiras do Itaim/PI,-7.2797031,-41.5629681,96,3763.23011
D1,Aroeiras do Itaim/PI,-7.2797031,-41.5629681,1,39.20031
1,Aroeiras/PB,-7.5462904,-35.7080002,688,3599.07931
D1,Aroeiras/PB,-7.5462904,-35.7080002,4,20.92488
1,Arraial do Cabo/RJ,-22.9662839,-42.024427,517,1689.92907
D1,Arraial do Cabo/RJ,-22.9662839,-42.024427,10,32.68722
1,Arraial/PI,-6.6541632,-42.5335332,116,2457.62712
D1,Arraial/PI,-6.6541632,-42.5335332,2,42.37288
1,Arraias/TO,-12.9287788,-46.9437231,287,2724.51111
D1,Arraias/TO,-12.9287788,-46.9437231,2,18.98614
1,Arroio Grande/RS,-32.2384246,-53.0866661,820,4496.10703
D1,Arroio Grande/RS,-32.2384246,-53.0866661,19,104.17809
1,Arroio Trinta/SC,-26.9301976,-51.334928,342,9636.51733
D1,Arroio Trinta/SC,-26.9301976,-51.334928,3,84.53085
1,Arroio do Meio/RS,-29.4020392,-51.9444993,1521,7254.25669
D1,Arroio do Meio/RS,-29.4020392,-51.9444993,14,66.77159
1,Arroio do Padre/RS,-31.4428773,-52.4228985,96,3253.13453
D1,Arroio do Padre/RS,-31.4428773,-52.4228985,1,33.88682
1,Arroio do Sal/RS,-29.549852,-49.8874395,701,6819.72955
D1,Arroio do Sal/RS,-29.549852,-49.8874395,19,184.84288
1,Arroio do Tigre/RS,-29.334158,-53.0888935,784,5845.07567
D1,Arroio do Tigre/RS,-29.334158,-53.0888935,9,67.09908
1,Arroio dos Ratos/RS,-30.0894524,-51.7265541,592,4175.77767
D1,Arroio dos Ratos/RS,-30.0894524,-51.7265541,21,148.12725
1,Artur Nogueira/SP,-22.572737,-47.172679,2224,4018.79292
D1,Artur Nogueira/SP,-22.572737,-47.172679,54,97.57860
1,Aruanã/GO,-14.9162439,-51.0715692,326,3224.53017
D1,Aruanã/GO,-14.9162439,-51.0715692,7,69.23838
1,Arujá/SP,-23.396266,-46.3175449,4393,4819.15816
D1,Arujá/SP,-23.396266,-46.3175449,141,154.67819
1,Arvoredo/SC,-27.0752908,-52.4571847,245,10966.87556
D1,Arvoredo/SC,-27.0752908,-52.4571847,3,134.28827
1,Arvorezinha/RS,-28.87369,-52.17808,589,5650.96421
D1,Arvorezinha/RS,-28.87369,-52.17808,16,153.50667
1,Arês/RN,-6.1969216,-35.1642968,551,3821.87695
D1,Arês/RN,-6.1969216,-35.1642968,17,117.91635
1,Ascurra/SC,-26.9569975,-49.3767752,913,11443.97092
D1,Ascurra/SC,-26.9569975,-49.3767752,5,62.67235
1,Aspásia/SP,-20.160028,-50.728046,68,3740.37404
D1,Aspásia/SP,-20.160028,-50.728046,2,110.01100
1,Assaré/CE,-6.8746791,-39.8741385,1051,4476.53122
D1,Assaré/CE,-6.8746791,-39.8741385,22,93.70474
1,Assaí/PR,-23.3736041,-50.8454929,812,5429.98529
D1,Assaí/PR,-23.3736041,-50.8454929,22,147.11783
1,Assis Brasil/AC,-10.9409203,-69.5672108,1237,16418.90098
D1,Assis Brasil/AC,-10.9409203,-69.5672108,15,199.09743
1,Assis Chateaubriand/PR,-24.4054826,-53.5120468,2447,7339.53209
D1,Assis Chateaubriand/PR,-24.4054826,-53.5120468,33,98.98020
1,Assis/SP,-22.6620892,-50.420623,4387,4174.63625
D1,Assis/SP,-22.6620892,-50.420623,87,82.78855
1,Assunção do Piauí/PI,-5.8610212,-41.0485091,206,2619.86519
D1,Assunção do Piauí/PI,-5.8610212,-41.0485091,4,50.87117
1,Assunção/PB,-7.073396,-36.7274003,226,5609.33234
D1,Assunção/PB,-7.073396,-36.7274003,1,24.82005
1,Astolfo Dutra/MG,-21.3132636,-42.8624102,834,5844.42887
D1,Astolfo Dutra/MG,-21.3132636,-42.8624102,13,91.10021
1,Astorga/PR,-23.2350184,-51.6647074,1718,6555.00019
D1,Astorga/PR,-23.2350184,-51.6647074,25,95.38708
1,Atalaia do Norte/AM,-4.3658547,-70.1908742,2468,12099.22541
D1,Atalaia do Norte/AM,-4.3658547,-70.1908742,7,34.31709
1,Atalaia/AL,-9.5029595,-36.0219316,789,1665.78697
D1,Atalaia/AL,-9.5029595,-36.0219316,30,63.33791
1,Atalaia/PR,-23.1513833,-52.0529697,254,6544.70497
D1,Atalaia/PR,-23.1513833,-52.0529697,8,206.13244
1,Atalanta/SC,-27.421916,-49.778863,152,4757.43349
D1,Atalanta/SC,-27.421916,-49.778863,2,62.59781
1,Ataléia/MG,-18.04432,-41.1110524,769,6065.62549
D1,Ataléia/MG,-18.04432,-41.1110524,6,47.32608
1,Atibaia/SP,-23.1177393,-46.5547861,6353,4409.11110
D1,Atibaia/SP,-23.1177393,-46.5547861,126,87.44656
1,Atilio Vivacqua/ES,-20.9139369,-41.1947519,1028,8492.35853
D1,Atilio Vivacqua/ES,-20.9139369,-41.1947519,16,132.17679
1,Augustinópolis/TO,-5.4662267,-47.8897519,1083,5809.15089
D1,Augustinópolis/TO,-5.4662267,-47.8897519,16,85.82310
1,Augusto Corrêa/PA,-1.0229335,-46.6404029,1626,3498.95634
D1,Augusto Corrêa/PA,-1.0229335,-46.6404029,29,62.40451
1,Augusto Pestana/RS,-28.5148413,-53.9906433,235,3559.52742
D1,Augusto Pestana/RS,-28.5148413,-53.9906433,2,30.29385
1,Augusto de Lima/MG,-18.1092963,-44.2651945,132,2721.08844
D1,Augusto de Lima/MG,-18.1092963,-44.2651945,4,82.45723
1,Aurelino Leal/BA,-14.3167137,-39.3256107,766,6779.36101
D1,Aurelino Leal/BA,-14.3167137,-39.3256107,20,177.00681
1,Auriflama/SP,-20.6840418,-50.5554616,1090,7146.13519
D1,Auriflama/SP,-20.6840418,-50.5554616,22,144.23392
1,Aurilândia/GO,-16.6772599,-50.4641231,147,4807.06344
D1,Aurilândia/GO,-16.6772599,-50.4641231,3,98.10334
1,Aurora do Pará/PA,-2.1323199,-47.558436,895,2816.85708
D1,Aurora do Pará/PA,-2.1323199,-47.558436,11,34.62059
1,Aurora do Tocantins/TO,-12.71045,-46.407604,136,3595.03040
D1,Aurora do Tocantins/TO,-12.71045,-46.407604,2,52.86809
1,Aurora/CE,-6.9426019,-38.9693765,1020,4144.65664
D1,Aurora/CE,-6.9426019,-38.9693765,25,101.58472
1,Aurora/SC,-27.3166417,-49.6368502,490,8622.20658
D1,Aurora/SC,-27.3166417,-49.6368502,10,175.96340
1,Autazes/AM,-3.5833283,-59.1301518,2520,6254.65376
D1,Autazes/AM,-3.5833283,-59.1301518,83,206.00645
1,Avanhandava/SP,-21.4603331,-49.9465156,451,3254.20304
D1,Avanhandava/SP,-21.4603331,-49.9465156,19,137.09503
1,Avaré/SP,-23.1045215,-48.9259103,3604,3950.36829
D1,Avaré/SP,-23.1045215,-48.9259103,68,74.53525
1,Avaí/SP,-22.1564662,-49.3316395,171,3145.69536
D1,Avaí/SP,-22.1564662,-49.3316395,3,55.18764
1,Aveiro/PA,-3.6049239,-55.3310742,547,3334.55255
D1,Aveiro/PA,-3.6049239,-55.3310742,6,36.57644
1,Avelino Lopes/PI,-10.1346855,-43.9489525,222,1960.09182
D1,Avelino Lopes/PI,-10.1346855,-43.9489525,17,150.09712
1,Avelinópolis/GO,-16.4672409,-49.7578661,212,8800.33209
D1,Avelinópolis/GO,-16.4672409,-49.7578661,5,207.55500
1,Axixá do Tocantins/TO,-5.612747,-47.77007,662,6764.07479
D1,Axixá do Tocantins/TO,-5.612747,-47.77007,8,81.74109
1,Axixá/MA,-2.8379465,-44.0561053,171,1403.59517
D1,Axixá/MA,-2.8379465,-44.0561053,4,32.83264
1,Açailândia/MA,-4.9514278,-47.4844564,4193,3706.65040
D1,Açailândia/MA,-4.9514278,-47.4844564,131,115.80520
1,Açu/RN,-5.5836157,-36.9139541,3460,5926.28117
D1,Açu/RN,-5.5836157,-36.9139541,97,166.14141
1,Açucena/MG,-19.073056,-42.546666,317,3383.85995
D1,Açucena/MG,-19.073056,-42.546666,10,106.74637
1,Babaçulândia/TO,-7.2034355,-47.761613,517,4847.17795
D1,Babaçulândia/TO,-7.2034355,-47.761613,4,37.50234
1,Bacabal/MA,-4.2318132,-44.781167,3877,3699.78051
D1,Bacabal/MA,-4.2318132,-44.781167,100,95.42895
1,Bacabeira/MA,-2.9775747,-44.3155943,239,1385.34663
D1,Bacabeira/MA,-2.9775747,-44.3155943,4,23.18572
1,Bacuri/MA,-1.728894,-45.1417148,429,2299.77485
D1,Bacuri/MA,-1.728894,-45.1417148,4,21.44312
1,Bacurituba/MA,-2.7082587,-44.7381309,106,1869.48854
D1,Bacurituba/MA,-2.7082587,-44.7381309,1,17.63668
1,Bady Bassitt/SP,-20.9178969,-49.4517911,1830,10303.47390
D1,Bady Bassitt/SP,-20.9178969,-49.4517911,26,146.38815
1,Baependi/MG,-21.959162,-44.8899249,860,4479.39997
D1,Baependi/MG,-21.959162,-44.8899249,10,52.08605
1,Bagre/PA,-1.8994498,-50.2103844,717,2288.90662
D1,Bagre/PA,-1.8994498,-50.2103844,11,35.11572
1,Bagé/RS,-31.3314264,-54.1062808,4694,3868.62818
D1,Bagé/RS,-31.3314264,-54.1062808,107,88.18560
1,Baianópolis/BA,-12.3067564,-44.5383591,243,1744.56171
D1,Baianópolis/BA,-12.3067564,-44.5383591,2,14.35853
1,Baixa Grande do Ribeiro/PI,-7.862861,-45.2113289,1778,15234.34153
D1,Baixa Grande do Ribeiro/PI,-7.862861,-45.2113289,17,145.66018
1,Baixa Grande/BA,-11.9630941,-40.1657537,464,2269.05961
D1,Baixa Grande/BA,-11.9630941,-40.1657537,4,19.56086
1,Baixio/CE,-6.7303544,-38.7170095,218,3458.67047
D1,Baixio/CE,-6.7303544,-38.7170095,5,79.32730
1,Baixo Guandu/ES,-19.5138322,-41.0182089,2584,8300.14133
D1,Baixo Guandu/ES,-19.5138322,-41.0182089,48,154.18219
1,Baião/PA,-2.7903479,-49.6702845,560,1155.61609
D1,Baião/PA,-2.7903479,-49.6702845,21,43.33560
1,Balbinos/SP,-21.9006253,-49.3583966,277,4668.01483
D1,Balbinos/SP,-21.9006253,-49.3583966,3,50.55612
1,Baldim/MG,-19.2913568,-43.9558262,310,3972.83096
D1,Baldim/MG,-19.2913568,-43.9558262,7,89.70909
1,Baliza/GO,-16.1978119,-52.542789,117,2215.90909
D1,Baliza/GO,-16.1978119,-52.542789,3,56.81818
1,Balneário Arroio do Silva/SC,-28.9815269,-49.4189932,1419,10565.89724
D1,Balneário Arroio do Silva/SC,-28.9815269,-49.4189932,31,230.82651
1,Balneário Barra do Sul/SC,-26.459842,-48.6061471,1059,9596.73765
D1,Balneário Barra do Sul/SC,-26.459842,-48.6061471,19,172.17943
1,Balneário Camboriú/SC,-26.9924395,-48.6339782,20029,13737.68828
D1,Balneário Camboriú/SC,-26.9924395,-48.6339782,231,158.44056
1,Balneário Gaivota/SC,-29.1553098,-49.5808712,945,8392.53996
D1,Balneário Gaivota/SC,-29.1553098,-49.5808712,15,133.21492
1,Balneário Pinhal/RS,-30.2482978,-50.234585,626,4358.42094
D1,Balneário Pinhal/RS,-30.2482978,-50.234585,21,146.20901
1,Balneário Piçarras/SC,-26.7638889,-48.6716667,3196,13444.38836
D1,Balneário Piçarras/SC,-26.7638889,-48.6716667,28,117.78563
1,Balneário Rincão/SC,-28.8235718,-49.2241642,1056,8156.95968
D1,Balneário Rincão/SC,-28.8235718,-49.2241642,23,177.66105
1,Balsa Nova/PR,-25.5842234,-49.6312741,862,6584.17354
D1,Balsa Nova/PR,-25.5842234,-49.6312741,12,91.65903
1,Balsas/MA,-7.53214,-46.037163,7725,8052.83074
D1,Balsas/MA,-7.53214,-46.037163,95,99.03158
1,Bambuí/MG,-20.0131996,-45.9777034,580,2426.98134
D1,Bambuí/MG,-20.0131996,-45.9777034,5,20.92225
1,Banabuiú/CE,-5.3046404,-38.919766,781,4278.04557
D1,Banabuiú/CE,-5.3046404,-38.919766,7,38.34356
1,Bananal/SP,-22.6828195,-44.3221095,612,5567.17911
D1,Bananal/SP,-22.6828195,-44.3221095,2,18.19340
1,Bananeiras/PB,-6.7537682,-35.6338343,774,3639.09916
D1,Bananeiras/PB,-6.7537682,-35.6338343,7,32.91175
1,Bandeira do Sul/MG,-21.728056,-46.385555,103,1782.62375
D1,Bandeira do Sul/MG,-21.728056,-46.385555,5,86.53513
1,Bandeira/MG,-15.884444,-40.559167,414,8686.52958
D1,Bandeira/MG,-15.884444,-40.559167,8,167.85564
1,Bandeirante/SC,-26.7677402,-53.6397596,149,5626.88822
D1,Bandeirante/SC,-26.7677402,-53.6397596,1,37.76435
1,Bandeirantes do Tocantins/TO,-7.7635698,-48.579148,252,7015.59020
D1,Bandeirantes do Tocantins/TO,-7.7635698,-48.579148,3,83.51893
1,Bandeirantes/MS,-19.9179623,-54.3646768,383,5271.12579
D1,Bandeirantes/MS,-19.9179623,-54.3646768,6,82.57638
1,Bandeirantes/PR,-23.107788,-50.370407,2053,6577.80911
D1,Bandeirantes/PR,-23.107788,-50.370407,53,169.81193
1,Bannach/PA,-7.3508505,-50.4064531,125,3832.00490
D1,Bannach/PA,-7.3508505,-50.4064531,2,61.31208
1,Banzaê/BA,-10.5827616,-38.6122305,764,5770.39275
D1,Banzaê/BA,-10.5827616,-38.6122305,4,30.21148
1,Baraúna/PB,-6.643394,-36.2531932,198,3988.71878
D1,Baraúna/PB,-6.643394,-36.2531932,3,60.43513
1,Baraúna/RN,-5.0775002,-37.61752,700,2435.03670
D1,Baraúna/RN,-5.0775002,-37.61752,17,59.13661
1,Barbacena/MG,-21.2254524,-43.7735087,3984,2882.69515
D1,Barbacena/MG,-21.2254524,-43.7735087,92,66.56826
1,Barbalha/CE,-7.3121067,-39.3036427,3095,5054.87685
D1,Barbalha/CE,-7.3121067,-39.3036427,59,96.36114
1,Barbosa Ferraz/PR,-24.0287182,-52.00811,539,4717.31140
D1,Barbosa Ferraz/PR,-24.0287182,-52.00811,6,52.51182
1,Barbosa/SP,-21.265661,-49.951816,283,3789.50187
D1,Barbosa/SP,-21.265661,-49.951816,6,80.34280
1,Barcarena/PA,-1.5107945,-48.6190679,6977,5492.53308
D1,Barcarena/PA,-1.5107945,-48.6190679,142,111.78726
1,Barcelona/RN,-5.9514918,-35.9260284,48,1201.80270
D1,Barcelona/RN,-5.9514918,-35.9260284,3,75.11267
1,Barcelos/AM,-0.9729214,-62.925635,3984,14414.93596
D1,Barcelos/AM,-0.9729214,-62.925635,52,188.14675
1,Bariri/SP,-22.0746355,-48.7394852,1918,5394.00416
D1,Bariri/SP,-22.0746355,-48.7394852,63,177.17532
1,Barra Bonita/SC,-26.6526364,-53.4419581,93,5632.94973
D1,Barra Bonita/SC,-26.6526364,-53.4419581,1,60.56935
1,Barra Bonita/SP,-22.490859,-48.558349,2260,6255.88219
D1,Barra Bonita/SP,-22.490859,-48.558349,51,141.17256
1,Barra D'Alcântara/PI,-6.5209258,-42.1071089,94,2378.54251
D1,Barra D'Alcântara/PI,-6.5209258,-42.1071089,3,75.91093
1,Barra Funda/RS,-27.9230048,-53.0401045,317,12426.49941
D1,Barra Funda/RS,-27.9230048,-53.0401045,5,196.00157
1,Barra Longa/MG,-20.2833541,-43.0423516,151,3010.96710
D1,Barra Longa/MG,-20.2833541,-43.0423516,2,39.88036
1,Barra Mansa/RJ,-22.5394843,-44.1735129,10498,5679.72169
D1,Barra Mansa/RJ,-22.5394843,-44.1735129,303,163.93177
1,Barra Velha/SC,-26.6338203,-48.6835001,2810,9410.58272
D1,Barra Velha/SC,-26.6338203,-48.6835001,58,194.23979
1,Barra da Estiva/BA,-13.6269662,-41.3278287,1181,5791.48686
D1,Barra da Estiva/BA,-13.6269662,-41.3278287,8,39.23107
1,Barra de Guabiraba/PE,-8.4173522,-35.6626669,332,2288.07719
D1,Barra de Guabiraba/PE,-8.4173522,-35.6626669,12,82.70159
1,Barra de Santa Rosa/PB,-6.7218007,-36.0564638,627,4045.94438
D1,Barra de Santa Rosa/PB,-6.7218007,-36.0564638,3,19.35859
1,Barra de Santana/PB,-7.5230865,-35.9988518,283,3389.62750
D1,Barra de Santana/PB,-7.5230865,-35.9988518,4,47.90993
1,Barra de Santo Antônio/AL,-9.4038098,-35.5117693,168,1045.55639
D1,Barra de Santo Antônio/AL,-9.4038098,-35.5117693,15,93.35325
1,Barra de São Francisco/ES,-18.7570902,-40.8916119,2659,5911.64766
D1,Barra de São Francisco/ES,-18.7570902,-40.8916119,82,182.30730
1,Barra de São Miguel/AL,-9.8261357,-35.8837777,247,2948.19766
D1,Barra de São Miguel/AL,-9.8261357,-35.8837777,6,71.61614
1,Barra de São Miguel/PB,-7.7528088,-36.3170996,240,3957.13108
D1,Barra de São Miguel/PB,-7.7528088,-36.3170996,1,16.48805
1,Barra do Bugres/MT,-15.0683712,-57.1853688,1816,5143.45597
D1,Barra do Bugres/MT,-15.0683712,-57.1853688,42,118.95658
1,Barra do Chapéu/SP,-24.472203,-49.023784,191,3315.97222
1,Barra do Choça/BA,-14.8638173,-40.5761637,1504,4819.12269
D1,Barra do Choça/BA,-14.8638173,-40.5761637,21,67.28828
1,Barra do Corda/MA,-5.496823,-45.248496,4517,5104.41622
D1,Barra do Corda/MA,-5.496823,-45.248496,48,54.24219
1,Barra do Garças/MT,-15.8916033,-52.2615413,5235,8563.01628
D1,Barra do Garças/MT,-15.8916033,-52.2615413,175,286.25174
1,Barra do Guarita/RS,-27.1888016,-53.7147086,97,2978.20080
D1,Barra do Guarita/RS,-27.1888016,-53.7147086,2,61.40620
1,Barra do Jacaré/PR,-23.1151788,-50.1813945,137,4926.28551
D1,Barra do Jacaré/PR,-23.1151788,-50.1813945,1,35.95829
1,Barra do Mendes/BA,-11.8053298,-42.057037,582,4207.33030
D1,Barra do Mendes/BA,-11.8053298,-42.057037,8,57.83272
1,Barra do Ouro/TO,-7.7113784,-47.6743925,103,2223.66149
D1,Barra do Ouro/TO,-7.7113784,-47.6743925,5,107.94473
1,Barra do Piraí/RJ,-22.4703403,-43.8263256,3783,3754.31702
D1,Barra do Piraí/RJ,-22.4703403,-43.8263256,164,162.75654
1,Barra do Quaraí/RS,-30.208947,-57.5505128,185,4376.62645
D1,Barra do Quaraí/RS,-30.208947,-57.5505128,2,47.31488
1,Barra do Ribeiro/RS,-30.2930206,-51.301437,765,5643.25760
D1,Barra do Ribeiro/RS,-30.2930206,-51.301437,36,265.56506
1,Barra do Rio Azul/RS,-27.4101581,-52.4117471,53,3202.41692
D1,Barra do Rio Azul/RS,-27.4101581,-52.4117471,1,60.42296
1,Barra do Rocha/BA,-14.2090974,-39.6004395,267,4757.66215
D1,Barra do Rocha/BA,-14.2090974,-39.6004395,3,53.45688
1,Barra do Turvo/SP,-24.756421,-48.5056942,329,4310.79665
D1,Barra do Turvo/SP,-24.756421,-48.5056942,10,131.02725
1,Barra dos Coqueiros/SE,-10.9075694,-37.0386249,3940,12738.44164
D1,Barra dos Coqueiros/SE,-10.9075694,-37.0386249,43,139.02360
1,Barra/BA,-11.0892702,-43.1420453,1212,2248.19143
D1,Barra/BA,-11.0892702,-43.1420453,17,31.53404
1,Barracão/PR,-26.252395,-53.6349576,748,7253.68503
D1,Barracão/PR,-26.252395,-53.6349576,14,135.76416
1,Barracão/RS,-27.6728964,-51.4582928,225,4280.82192
D1,Barracão/RS,-27.6728964,-51.4582928,6,114.15525
1,Barras/PI,-4.2446153,-42.2920241,3626,7684.64554
D1,Barras/PI,-4.2446153,-42.2920241,68,144.11360
1,Barreira/CE,-4.2883361,-38.641094,602,2666.90294
D1,Barreira/CE,-4.2883361,-38.641094,24,106.32171
1,Barreiras do Piauí/PI,-9.9224524,-45.4763776,43,1282.81623
D1,Barreiras do Piauí/PI,-9.9224524,-45.4763776,1,29.83294
1,Barreiras/BA,-12.1440031,-44.9967406,10017,6381.27090
D1,Barreiras/BA,-12.1440031,-44.9967406,117,74.53416
1,Barreirinha/AM,-2.798863,-57.067897,2146,6606.53265
D1,Barreirinha/AM,-2.798863,-57.067897,54,166.24080
1,Barreirinhas/MA,-2.7541271,-42.8259693,1474,2331.65130
D1,Barreirinhas/MA,-2.7541271,-42.8259693,29,45.87374
1,Barreiros/PE,-8.8159644,-35.1831905,474,1108.40894
D1,Barreiros/PE,-8.8159644,-35.1831905,43,100.55187
1,Barretos/SP,-20.5531437,-48.5697509,8478,6902.05401
D1,Barretos/SP,-20.5531437,-48.5697509,207,168.52149
1,Barrinha/SP,-21.1898849,-48.1550642,996,3001.80832
D1,Barrinha/SP,-21.1898849,-48.1550642,37,111.51296
1,Barro Alto/BA,-11.7618025,-41.9094904,587,3899.29587
D1,Barro Alto/BA,-11.7618025,-41.9094904,4,26.57101
1,Barro Alto/GO,-14.9696025,-48.9190985,1021,8949.85975
D1,Barro Alto/GO,-14.9696025,-48.9190985,10,87.65778
1,Barro Duro/PI,-5.8180139,-42.5106589,488,6944.64209
D1,Barro Duro/PI,-5.8180139,-42.5106589,7,99.61577
1,Barro Preto/BA,-14.8068289,-39.4727588,442,8113.06902
D1,Barro Preto/BA,-14.8068289,-39.4727588,7,128.48752
1,Barro/CE,-7.1713587,-38.7742136,582,2557.34247
D1,Barro/CE,-7.1713587,-38.7742136,14,61.51683
1,Barrocas/BA,-11.5165,-39.099282894736845,550,3415.08848
D1,Barrocas/BA,-11.5165,-39.099282894736845,6,37.25551
1,Barrolândia/TO,-9.837246,-48.7264346,470,8317.11202
D1,Barrolândia/TO,-9.837246,-48.7264346,7,123.87188
1,Barroquinha/CE,-3.0200371,-41.1339229,878,5836.21377
D1,Barroquinha/CE,-3.0200371,-41.1339229,21,139.59053
1,Barros Cassal/RS,-29.094938,-52.5832366,384,3434.09050
D1,Barros Cassal/RS,-29.094938,-52.5832366,3,26.82883
1,Barroso/MG,-21.187222,-43.976111,504,2411.82945
D1,Barroso/MG,-21.187222,-43.976111,9,43.06838
1,Barueri/SP,-23.5112184,-46.8764612,17370,6271.16564
D1,Barueri/SP,-23.5112184,-46.8764612,568,205.06748
1,Barão de Antonina/SP,-23.6295651,-49.5632104,62,1772.44140
D1,Barão de Antonina/SP,-23.6295651,-49.5632104,1,28.58776
1,Barão de Cocais/MG,-19.9452437,-43.4870298,2137,6502.16029
D1,Barão de Cocais/MG,-19.9452437,-43.4870298,19,57.81050
1,Barão de Cotegipe/RS,-27.6214694,-52.3765316,467,7054.38066
D1,Barão de Cotegipe/RS,-27.6214694,-52.3765316,5,75.52870
1,Barão de Grajaú/MA,-6.7542591,-43.0263477,223,1178.39780
D1,Barão de Grajaú/MA,-6.7542591,-43.0263477,1,5.28430
1,Barão de Melgaço/MT,-16.195776,-55.9668049,182,2229.29936
D1,Barão de Melgaço/MT,-16.195776,-55.9668049,8,97.99118
1,Barão de Monte Alto/MG,-21.244722,-42.2375,157,2932.38700
D1,Barão de Monte Alto/MG,-21.244722,-42.2375,7,130.74337
1,Barão do Triunfo/RS,-30.3909877,-51.7375349,283,3763.79838
D1,Barão do Triunfo/RS,-30.3909877,-51.7375349,3,39.89892
1,Barão/RS,-29.372474,-51.494908,364,5869.07449
D1,Barão/RS,-29.372474,-51.494908,6,96.74299
1,Bastos/SP,-21.9222474,-50.7317727,349,1665.63261
D1,Bastos/SP,-21.9222474,-50.7317727,12,57.27104
1,Bataguassu/MS,-21.715899,-52.422058,1751,7506.96677
D1,Bataguassu/MS,-21.715899,-52.422058,17,72.88317
1,Batalha/AL,-9.6733809,-37.1265481,771,4204.38434
D1,Batalha/AL,-9.6733809,-37.1265481,14,76.34420
1,Batalha/PI,-4.022391,-42.0780926,642,2386.17357
D1,Batalha/PI,-4.022391,-42.0780926,18,66.90206
1,Batatais/SP,-20.892867,-47.592149,1700,2699.26961
D1,Batatais/SP,-20.892867,-47.592149,53,84.15370
1,Batayporã/MS,-22.2976466,-53.2685608,538,4740.50577
D1,Batayporã/MS,-22.2976466,-53.2685608,11,96.92484
1,Baturité/CE,-4.3290203,-38.8821055,1246,3466.79280
D1,Baturité/CE,-4.3290203,-38.8821055,38,105.72883
1,Bauru/SP,-22.3218102,-49.0705863,27449,7236.80915
D1,Bauru/SP,-22.3218102,-49.0705863,476,125.49532
1,Bayeux/PB,-7.1301631,-34.936532,4693,4828.04029
D1,Bayeux/PB,-7.1301631,-34.936532,161,165.63275
1,Baía Formosa/RN,-6.3691885,-35.0063741,231,2478.00901
D1,Baía Formosa/RN,-6.3691885,-35.0063741,8,85.81849
1,Baía da Traição/PB,-6.691258,-34.9371244,1054,11587.51099
D1,Baía da Traição/PB,-6.691258,-34.9371244,9,98.94459
1,Bebedouro/SP,-20.949077,-48.479083,2934,3783.12166
D1,Bebedouro/SP,-20.949077,-48.479083,58,74.78564
1,Beberibe/CE,-4.1810469,-38.1298101,1951,3616.37843
D1,Beberibe/CE,-4.1810469,-38.1298101,35,64.87609
1,Bela Cruz/CE,-3.0529129,-40.167582,1950,5959.29344
D1,Bela Cruz/CE,-3.0529129,-40.167582,31,94.73749
1,Bela Vista da Caroba/PR,-25.8792818,-53.6672545,132,3818.33960
D1,Bela Vista da Caroba/PR,-25.8792818,-53.6672545,3,86.78045
1,Bela Vista de Goiás/GO,-16.9692949,-48.9513071,1593,5224.32113
D1,Bela Vista de Goiás/GO,-16.9692949,-48.9513071,31,101.66601
1,Bela Vista de Minas/MG,-19.8289721,-43.0973688,436,4248.68447
D1,Bela Vista de Minas/MG,-19.8289721,-43.0973688,9,87.70220
1,Bela Vista do Maranhão/MA,-3.7416367,-45.2514192,170,1507.22582
D1,Bela Vista do Maranhão/MA,-3.7416367,-45.2514192,9,79.79431
1,Bela Vista do Paraíso/PR,-22.9948493,-51.1907996,1178,7649.84739
D1,Bela Vista do Paraíso/PR,-22.9948493,-51.1907996,28,181.82999
1,Bela Vista do Piauí/PI,-7.9716353,-41.8715061,209,5186.10422
D1,Bela Vista do Piauí/PI,-7.9716353,-41.8715061,6,148.88337
1,Bela Vista do Toldo/SC,-26.274625,-50.466354,54,848.78969
D1,Bela Vista do Toldo/SC,-26.274625,-50.466354,1,15.71833
1,Bela Vista/MS,-22.107327,-56.5317344,428,1730.34162
D1,Bela Vista/MS,-22.107327,-56.5317344,12,48.51425
1,Belford Roxo/RJ,-22.7667284,-43.4033603,17486,3407.79314
D1,Belford Roxo/RJ,-22.7667284,-43.4033603,440,85.75026
1,Belmiro Braga/MG,-21.9486291,-43.413564,101,2948.90511
D1,Belmiro Braga/MG,-21.9486291,-43.413564,3,87.59124
1,Belmonte/BA,-15.8630837,-38.8792845,844,3601.14349
D1,Belmonte/BA,-15.8630837,-38.8792845,11,46.93433
1,Belmonte/SC,-26.8448262,-53.578916,188,6939.83020
D1,Belmonte/SC,-26.8448262,-53.578916,4,147.65596
1,Belo Campo/BA,-15.0338286,-41.2585109,446,2606.81513
D1,Belo Campo/BA,-15.0338286,-41.2585109,5,29.22438
1,Belo Horizonte/MG,-19.9227318,-43.9450948,125661,4983.45471
D1,Belo Horizonte/MG,-19.9227318,-43.9450948,2927,116.07875
1,Belo Jardim/PE,-8.3338293,-36.4176419,1924,2508.89981
D1,Belo Jardim/PE,-8.3338293,-36.4176419,47,61.28809
1,Belo Monte/AL,-9.8269944,-37.2787165,216,3219.07601
D1,Belo Monte/AL,-9.8269944,-37.2787165,6,89.41878
1,Belo Oriente/MG,-19.2232523,-42.4807033,1752,6490.33118
D1,Belo Oriente/MG,-19.2232523,-42.4807033,28,103.72675
1,Belo Vale/MG,-20.407778,-44.024167,329,4262.21013
D1,Belo Vale/MG,-20.407778,-44.024167,6,77.73028
1,Belterra/PA,-2.636091,-54.937392,571,3200.85207
D1,Belterra/PA,-2.636091,-54.937392,17,95.29682
1,Belágua/MA,-3.1604031,-43.5085052,281,3732.73114
D1,Belágua/MA,-3.1604031,-43.5085052,2,26.56748
1,Belém de Maria/PE,-8.6242497,-35.8388934,126,1039.43244
D1,Belém de Maria/PE,-8.6242497,-35.8388934,3,24.74839
1,Belém do Brejo do Cruz/PB,-6.1880727,-37.5332267,474,6449.85712
D1,Belém do Brejo do Cruz/PB,-6.1880727,-37.5332267,5,68.03647
1,Belém do Piauí/PI,-7.3767305,-40.9712156,383,10677.44633
D1,Belém do Piauí/PI,-7.3767305,-40.9712156,6,167.27070
1,Belém do São Francisco/PE,-8.7517707,-38.9625715,339,1635.31114
D1,Belém do São Francisco/PE,-8.7517707,-38.9625715,5,24.11963
1,Belém/AL,-9.5715351,-36.492841,81,1890.75630
D1,Belém/AL,-9.5715351,-36.492841,3,70.02801
1,Belém/PA,-1.45056,-48.4682453,79676,5313.00491
D1,Belém/PA,-1.45056,-48.4682453,3101,206.78282
1,Belém/PB,-6.6967586,-35.5369626,1419,8014.68512
D1,Belém/PB,-6.6967586,-35.5369626,24,135.55493
1,Beneditinos/PI,-5.4565671,-42.3605061,551,5261.14771
D1,Beneditinos/PI,-5.4565671,-42.3605061,19,181.41889
1,Benedito Leite/MA,-7.2173453,-44.5523331,260,4611.56438
D1,Benedito Leite/MA,-7.2173453,-44.5523331,2,35.47357
1,Benedito Novo/SC,-26.7840657,-49.3629511,747,6343.94904
D1,Benedito Novo/SC,-26.7840657,-49.3629511,10,84.92569
1,Benevides/PA,-1.3555577,-48.252235,2657,4166.66667
D1,Benevides/PA,-1.3555577,-48.252235,62,97.22745
1,Benjamin Constant do Sul/RS,-27.5105555,-52.6007689,139,7099.08069
1,Benjamin Constant/AM,-4.3782748,-70.0290603,2468,5617.38933
D1,Benjamin Constant/AM,-4.3782748,-70.0290603,66,150.22192
1,Bento Fernandes/RN,-5.6926846,-35.8207423,61,1104.07240
D1,Bento Fernandes/RN,-5.6926846,-35.8207423,2,36.19910
1,Bento Gonçalves/RS,-29.1654014,-51.5197627,10854,8911.11056
D1,Bento Gonçalves/RS,-29.1654014,-51.5197627,201,165.02057
1,Bento de Abreu/SP,-21.2707225,-50.8120444,168,5590.68220
1,Bequimão/MA,-2.4495376,-44.7884889,266,1248.88492
D1,Bequimão/MA,-2.4495376,-44.7884889,14,65.73079
1,Berilo/MG,-16.9515764,-42.4643732,10,84.23181
1,Berizal/MG,-15.6118785,-41.7417382,80,1679.26113
D1,Berizal/MG,-15.6118785,-41.7417382,1,20.99076
1,Bernardino Batista/PB,-6.4532173,-38.5495418,202,5712.66968
D1,Bernardino Batista/PB,-6.4532173,-38.5495418,1,28.28054
1,Bernardino de Campos/SP,-23.0140216,-49.4760724,291,2607.99426
D1,Bernardino de Campos/SP,-23.0140216,-49.4760724,6,53.77308
1,Bernardo Sayão/TO,-7.8794244,-48.8968905,194,4361.51079
D1,Bernardo Sayão/TO,-7.8794244,-48.8968905,4,89.92806
1,Bernardo do Mearim/MA,-4.6315929,-44.7617508,173,2848.67446
D1,Bernardo do Mearim/MA,-4.6315929,-44.7617508,3,49.39898
1,Bertioga/SP,-23.848568,-46.139586,3382,5225.34493
D1,Bertioga/SP,-23.848568,-46.139586,68,105.06312
1,Bertolínia/PI,-7.6372159,-43.9540611,594,10786.27202
D1,Bertolínia/PI,-7.6372159,-43.9540611,6,108.95224
1,Bertópolis/MG,-17.063333,-40.573889,226,4905.57847
1,Beruri/AM,-3.9007135,-61.3717319,1941,9660.08063
D1,Beruri/AM,-3.9007135,-61.3717319,31,154.28259
1,Betim/MG,-19.968056,-44.198333,19192,4314.90341
D1,Betim/MG,-19.968056,-44.198333,535,120.28310
1,Betânia do Piauí/PI,-8.1460635,-40.7961387,142,2286.63446
D1,Betânia do Piauí/PI,-8.1460635,-40.7961387,2,32.20612
1,Betânia/PE,-8.2742779,-38.0351767,242,1895.80885
D1,Betânia/PE,-8.2742779,-38.0351767,4,31.33568
1,Bezerros/PE,-8.2372132,-35.7558262,2635,4328.18660
D1,Bezerros/PE,-8.2372132,-35.7558262,80,131.40604
1,Bias Fortes/MG,-21.605833,-43.756944,75,2252.92881
D1,Bias Fortes/MG,-21.605833,-43.756944,2,60.07810
1,Bicas/MG,-21.7213723,-43.0604327,685,4706.60987
D1,Bicas/MG,-21.7213723,-43.0604327,21,144.29023
1,Biguaçu/SC,-27.4961277,-48.6542432,8871,12766.60047
D1,Biguaçu/SC,-27.4961277,-48.6542432,109,156.86613
1,Bilac/SP,-21.403962,-50.47464,527,6492.54651
D1,Bilac/SP,-21.403962,-50.47464,10,123.19823
1,Biquinhas/MG,-18.783611,-45.502222,28,1120.89672
1,Birigui/SP,-21.2908491,-50.34144,7914,6337.13156
D1,Birigui/SP,-21.2908491,-50.34144,213,170.55964
1,Biritiba Mirim/SP,-23.5697765,-46.0407456,796,2416.80836
D1,Biritiba Mirim/SP,-23.5697765,-46.0407456,48,145.73719
1,Biritinga/BA,-11.6227908,-38.8066738,251,1570.32032
D1,Biritinga/BA,-11.6227908,-38.8066738,3,18.76877
1,Bituruna/PR,-26.161281,-51.5533319,344,2097.56098
D1,Bituruna/PR,-26.161281,-51.5533319,4,24.39024
1,Blumenau/SC,-26.9195567,-49.0658025,39340,10871.75802
D1,Blumenau/SC,-26.9195567,-49.0658025,360,99.48736
1,Boa Esperança do Iguaçu/PR,-25.6362851,-53.2139114,109,4412.95547
1,Boa Esperança do Sul/SP,-21.9930206,-48.3917372,587,3908.64296
D1,Boa Esperança do Sul/SP,-21.9930206,-48.3917372,10,66.58676
1,Boa Esperança/ES,-18.5395472,-40.2904088,844,5592.36682
D1,Boa Esperança/ES,-18.5395472,-40.2904088,27,178.90273
1,Boa Esperança/MG,-21.0901253,-45.5660195,1451,3607.74758
D1,Boa Esperança/MG,-21.0901253,-45.5660195,42,104.42826
1,Boa Esperança/PR,-24.2411024,-52.7860277,207,5114.89993
D1,Boa Esperança/PR,-24.2411024,-52.7860277,5,123.54831
1,Boa Hora/PI,-4.4094627,-42.1255341,385,5649.30301
D1,Boa Hora/PI,-4.4094627,-42.1255341,5,73.36757
1,Boa Nova/BA,-14.365907,-40.2063056,527,4274.47482
D1,Boa Nova/BA,-14.365907,-40.2063056,9,72.99862
1,Boa Ventura de São Roque/PR,-24.88177,-51.5441292,231,3629.22231
D1,Boa Ventura de São Roque/PR,-24.88177,-51.5441292,5,78.55460
1,Boa Ventura/PB,-7.4202462,-38.2156782,207,3900.50876
D1,Boa Ventura/PB,-7.4202462,-38.2156782,4,75.37215
1,Boa Viagem/CE,-5.1261877,-39.7300055,2000,3664.54734
D1,Boa Viagem/CE,-5.1261877,-39.7300055,51,93.44596
1,Boa Vista da Aparecida/PR,-25.4357216,-53.4067721,465,6167.10875
D1,Boa Vista da Aparecida/PR,-25.4357216,-53.4067721,15,198.93899
1,Boa Vista das Missões/RS,-27.6677983,-53.3127622,68,3250.47801
D1,Boa Vista das Missões/RS,-27.6677983,-53.3127622,1,47.80115
1,Boa Vista do Buricá/RS,-27.6687782,-54.1111913,519,7732.41955
D1,Boa Vista do Buricá/RS,-27.6687782,-54.1111913,5,74.49344
1,Boa Vista do Cadeado/RS,-28.5783827,-53.8123759,113,4578.60616
1,Boa Vista do Gurupi/MA,-1.7981168,-46.3071882,14,167.02458
D1,Boa Vista do Gurupi/MA,-1.7981168,-46.3071882,3,35.79098
1,Boa Vista do Incra/RS,-28.8195551,-53.3866624,118,4510.70336
D1,Boa Vista do Incra/RS,-28.8195551,-53.3866624,1,38.22630
1,Boa Vista do Ramos/AM,-2.9716927,-57.5869819,813,4142.46408
D1,Boa Vista do Ramos/AM,-2.9716927,-57.5869819,11,56.04810
1,Boa Vista do Sul/RS,-29.3510488,-51.6779679,214,7703.38373
D1,Boa Vista do Sul/RS,-29.3510488,-51.6779679,2,71.99424
1,Boa Vista do Tupim/BA,-12.6605988,-40.6083594,159,858.02169
D1,Boa Vista do Tupim/BA,-12.6605988,-40.6083594,4,21.58545
1,Boa Vista/PB,-7.2620711,-36.2415161,342,4792.60090
D1,Boa Vista/PB,-7.2620711,-36.2415161,2,28.02691
1,Boa Vista/RR,2.8208478,-60.6719582,65247,15547.88253
D1,Boa Vista/RR,2.8208478,-60.6719582,959,228.52268
1,Boca da Mata/AL,-9.6452054,-36.2116658,1441,5267.58298
D1,Boca da Mata/AL,-9.6452054,-36.2116658,30,109.66516
1,Boca do Acre/AM,-8.7553487,-67.3930873,2316,6686.87744
D1,Boca do Acre/AM,-8.7553487,-67.3930873,21,60.63231
1,Bocaina de Minas/MG,-22.167778,-44.394722,83,1630.96876
D1,Bocaina de Minas/MG,-22.167778,-44.394722,2,39.30045
1,Bocaina do Sul/SC,-27.745494,-49.942279,321,9202.98165
D1,Bocaina do Sul/SC,-27.745494,-49.942279,3,86.00917
1,Bocaina/PI,-6.9445939,-41.3224599,217,4816.87014
D1,Bocaina/PI,-6.9445939,-41.3224599,3,66.59267
1,Bocaina/SP,-22.1421831,-48.522276,999,8022.80758
D1,Bocaina/SP,-22.1421831,-48.522276,20,160.61677
1,Bocaiúva do Sul/PR,-25.206591,-49.114131,788,6001.98035
D1,Bocaiúva do Sul/PR,-25.206591,-49.114131,4,30.46691
1,Bocaiúva/MG,-17.1160208,-43.8122678,1100,2188.79338
D1,Bocaiúva/MG,-17.1160208,-43.8122678,23,45.76568
1,Bodocó/PE,-7.777592,-39.933797,1376,3585.38746
D1,Bodocó/PE,-7.777592,-39.933797,19,49.50753
1,Bodoquena/MS,-20.5508775,-56.6769653,136,1735.13651
D1,Bodoquena/MS,-20.5508775,-56.6769653,3,38.27507
1,Bodó/RN,-5.9866104,-36.4134824,89,4050.97861
1,Bofete/SP,-23.1019554,-48.2610535,430,3607.07994
D1,Bofete/SP,-23.1019554,-48.2610535,5,41.94279
1,Boituva/SP,-23.2838893,-47.6738231,3193,5135.91765
D1,Boituva/SP,-23.2838893,-47.6738231,50,80.42464
1,Bom Conselho/PE,-9.169191,-36.685683,1179,2417.61847
D1,Bom Conselho/PE,-9.169191,-36.685683,35,71.76984
1,Bom Despacho/MG,-19.7375242,-45.2517288,2226,4362.31089
D1,Bom Despacho/MG,-19.7375242,-45.2517288,44,86.22717
1,Bom Jardim da Serra/SC,-28.3380324,-49.625588,520,10896.89858
D1,Bom Jardim da Serra/SC,-28.3380324,-49.625588,3,62.86672
1,Bom Jardim de Goiás/GO,-16.2062659,-52.172793,454,5118.95366
D1,Bom Jardim de Goiás/GO,-16.2062659,-52.172793,9,101.47705
1,Bom Jardim de Minas/MG,-21.9476466,-44.1906033,152,2353.30547
D1,Bom Jardim de Minas/MG,-21.9476466,-44.1906033,1,15.48227
1,Bom Jardim/MA,-3.54129,-45.606004,1073,2565.63531
D1,Bom Jardim/MA,-3.54129,-45.606004,35,83.68801
1,Bom Jardim/PE,-7.7961572,-35.5871696,906,2265.96303
D1,Bom Jardim/PE,-7.7961572,-35.5871696,39,97.54146
1,Bom Jardim/RJ,-22.1515328,-42.4186683,713,2581.83662
D1,Bom Jardim/RJ,-22.1515328,-42.4186683,17,61.55852
1,Bom Jesus da Lapa/BA,-13.250571,-43.410754,2063,2961.44239
D1,Bom Jesus da Lapa/BA,-13.250571,-43.410754,23,33.01657
1,Bom Jesus da Penha/MG,-21.0165299,-46.5226644,201,4736.09802
D1,Bom Jesus da Penha/MG,-21.0165299,-46.5226644,3,70.68803
1,Bom Jesus da Serra/BA,-14.3724084,-40.5047119,349,3552.88608
D1,Bom Jesus da Serra/BA,-14.3724084,-40.5047119,6,61.08114
1,Bom Jesus das Selvas/MA,-4.4878075,-46.8526639,2173,6286.34247
D1,Bom Jesus das Selvas/MA,-4.4878075,-46.8526639,19,54.96572
1,Bom Jesus de Goiás/GO,-18.2174587,-49.739721,1672,6519.02682
D1,Bom Jesus de Goiás/GO,-18.2174587,-49.739721,49,191.04803
1,Bom Jesus do Amparo/MG,-19.7045132,-43.4752911,110,1793.57574
D1,Bom Jesus do Amparo/MG,-19.7045132,-43.4752911,3,48.91570
1,Bom Jesus do Araguaia/MT,-12.1725897,-51.5074425,394,5875.33552
D1,Bom Jesus do Araguaia/MT,-12.1725897,-51.5074425,2,29.82404
1,Bom Jesus do Galho/MG,-19.8283191,-42.3162256,325,2186.78509
D1,Bom Jesus do Galho/MG,-19.8283191,-42.3162256,11,74.01426
1,Bom Jesus do Itabapoana/RJ,-21.1341025,-41.680095,2119,5695.77722
D1,Bom Jesus do Itabapoana/RJ,-21.1341025,-41.680095,43,115.58208
1,Bom Jesus do Norte/ES,-21.1254776,-41.6711646,738,7408.15097
D1,Bom Jesus do Norte/ES,-21.1254776,-41.6711646,17,170.64846
1,Bom Jesus do Oeste/SC,-26.6929713,-53.0967453,104,4862.08509
D1,Bom Jesus do Oeste/SC,-26.6929713,-53.0967453,2,93.50164
1,Bom Jesus do Sul/PR,-26.1922507,-53.6002033,194,5533.37136
D1,Bom Jesus do Sul/PR,-26.1922507,-53.6002033,3,85.56760
1,Bom Jesus do Tocantins/PA,-5.0471796,-48.5978362,527,3078.63068
D1,Bom Jesus do Tocantins/PA,-5.0471796,-48.5978362,13,75.94345
1,Bom Jesus do Tocantins/TO,-8.96306,-48.165043,115,2296.32588
D1,Bom Jesus do Tocantins/TO,-8.96306,-48.165043,1,19.96805
1,Bom Jesus dos Perdões/SP,-23.1353864,-46.4648052,968,3725.22609
D1,Bom Jesus dos Perdões/SP,-23.1353864,-46.4648052,10,38.48374
1,Bom Jesus/PB,-6.8156725,-38.6551841,94,3650.48544
D1,Bom Jesus/PB,-6.8156725,-38.6551841,3,116.50485
1,Bom Jesus/PI,-9.0711644,-44.3583926,2330,9177.92571
D1,Bom Jesus/PI,-9.0711644,-44.3583926,27,106.35365
1,Bom Jesus/RN,-5.9887544,-35.5821149,520,5064.77062
D1,Bom Jesus/RN,-5.9887544,-35.5821149,10,97.39944
1,Bom Jesus/RS,-28.6692723,-50.4346894,490,4332.83226
D1,Bom Jesus/RS,-28.6692723,-50.4346894,12,106.11018
1,Bom Jesus/SC,-26.7350604,-52.3916519,293,9584.56003
D1,Bom Jesus/SC,-26.7350604,-52.3916519,4,130.84724
1,Bom Lugar/MA,-4.3728019,-45.0366054,345,2098.79547
D1,Bom Lugar/MA,-4.3728019,-45.0366054,6,36.50079
1,Bom Princípio do Piauí/PI,-3.1912777,-41.6430185,65,1150.23890
D1,Bom Princípio do Piauí/PI,-3.1912777,-41.6430185,3,53.08795
1,Bom Princípio/RS,-29.489788,-51.3566782,1125,7891.96773
D1,Bom Princípio/RS,-29.489788,-51.3566782,19,133.28657
1,Bom Progresso/RS,-27.5490948,-53.8655601,50,2632.96472
D1,Bom Progresso/RS,-27.5490948,-53.8655601,1,52.65929
1,Bom Repouso/MG,-22.4657069,-46.1485376,315,2989.46569
D1,Bom Repouso/MG,-22.4657069,-46.1485376,10,94.90367
1,Bom Retiro do Sul/RS,-29.6000007,-51.9359243,780,6295.39952
D1,Bom Retiro do Sul/RS,-29.6000007,-51.9359243,15,121.06538
1,Bom Retiro/SC,-27.798993,-49.486994,489,4860.83499
D1,Bom Retiro/SC,-27.798993,-49.486994,8,79.52286
1,Bom Sucesso de Itararé/SP,-24.3190016,-49.1446207,70,1757.02811
D1,Bom Sucesso de Itararé/SP,-24.3190016,-49.1446207,4,100.40161
1,Bom Sucesso do Sul/PR,-26.0749256,-52.8348629,234,7191.14935
D1,Bom Sucesso do Sul/PR,-26.0749256,-52.8348629,4,122.92563
1,Bom Sucesso/MG,-21.0323516,-44.7598082,252,1431.24894
D1,Bom Sucesso/MG,-21.0323516,-44.7598082,4,22.71824
1,Bom Sucesso/PB,-6.4458948,-37.9297662,134,2703.79338
1,Bom Sucesso/PR,-23.7088019,-51.7651297,432,6112.05433
D1,Bom Sucesso/PR,-23.7088019,-51.7651297,9,127.33447
1,Bombinhas/SC,-27.1519159,-48.4875691,2982,14664.37177
D1,Bombinhas/SC,-27.1519159,-48.4875691,35,172.11704
1,Bonfim do Piauí/PI,-9.1648678,-42.8734415,189,3324.53826
D1,Bonfim do Piauí/PI,-9.1648678,-42.8734415,2,35.18030
1,Bonfim/MG,-20.3266626, -44.2386157,225,3279.88338
D1,Bonfim/MG,-20.3266626, -44.2386157,5,72.88630
1,Bonfim/RR,3.3613818,-59.8427241,1687,13434.73760
D1,Bonfim/RR,3.3613818,-59.8427241,23,183.16477
1,Bonfinópolis de Minas/MG,-16.5660011,-45.98645,288,5290.22777
D1,Bonfinópolis de Minas/MG,-16.5660011,-45.98645,10,183.68846
1,Bonfinópolis/GO,-16.6172709,-48.9615701,410,4133.48120
D1,Bonfinópolis/GO,-16.6172709,-48.9615701,12,120.97994
1,Boninal/BA,-12.7095183,-41.8299984,461,3191.19479
D1,Boninal/BA,-12.7095183,-41.8299984,5,34.61166
1,Bonito de Minas/MG,-15.3191266,-44.7544,14,123.14188
1,Bonito de Santa Fé/PB,-7.3143332,-38.5146677,338,2811.51223
D1,Bonito de Santa Fé/PB,-7.3143332,-38.5146677,11,91.49892
1,Bonito/BA,-11.9665473,-41.2649896,536,3174.60317
D1,Bonito/BA,-11.9665473,-41.2649896,5,29.61384
1,Bonito/MS,-21.1264766,-56.4902208,1616,7282.55971
D1,Bonito/MS,-21.1264766,-56.4902208,23,103.65029
1,Bonito/PA,-1.3605722,-47.3049907,322,1947.97338
D1,Bonito/PA,-1.3605722,-47.3049907,12,72.59528
1,Bonito/PE,-8.4721161,-35.7314591,532,1395.70270
D1,Bonito/PE,-8.4721161,-35.7314591,28,73.45804
1,Bonópolis/GO,-13.649331,-49.8329113,96,2136.65702
D1,Bonópolis/GO,-13.649331,-49.8329113,1,22.25684
1,Boqueirão do Leão/RS,-29.30332,-52.4296817,405,5258.37445
D1,Boqueirão do Leão/RS,-29.30332,-52.4296817,18,233.70553
1,Boqueirão do Piauí/PI,-4.4850148,-42.1095161,356,5539.99378
D1,Boqueirão do Piauí/PI,-4.4850148,-42.1095161,7,108.93246
1,Boqueirão/PB,-7.487004,-36.130887,1078,6032.45663
D1,Boqueirão/PB,-7.487004,-36.130887,19,106.32345
1,Boquim/SE,-11.1450175,-37.6204228,1344,4996.46827
D1,Boquim/SE,-11.1450175,-37.6204228,28,104.09309
1,Boquira/BA,-12.8184859,-42.7270883,353,1642.08959
D1,Boquira/BA,-12.8184859,-42.7270883,5,23.25906
1,Boracéia/SP,-22.195355,-48.7801925,399,8196.38455
D1,Boracéia/SP,-22.195355,-48.7801925,8,164.33854
1,Borba/AM,-4.3934778,-59.5947721,1505,3604.96311
D1,Borba/AM,-4.3934778,-59.5947721,44,105.39427
1,Borborema/PB,-6.8066718,-35.5990191,124,2345.37545
D1,Borborema/PB,-6.8066718,-35.5990191,3,56.74295
1,Borborema/SP,-21.6212706,-49.074135,685,4237.81242
D1,Borborema/SP,-21.6212706,-49.074135,19,117.54516
1,Borda da Mata/MG,-22.274167,-46.165278,816,4160.29367
D1,Borda da Mata/MG,-22.274167,-46.165278,25,127.45998
1,Borebi/SP,-22.5700178,-48.9714871,106,3950.80134
D1,Borebi/SP,-22.5700178,-48.9714871,2,74.54342
1,Borrazópolis/PR,-23.9393362,-51.5850786,445,6911.01103
D1,Borrazópolis/PR,-23.9393362,-51.5850786,12,186.36434
1,Borá/SP,-22.2701088,-50.544407,30,3579.95227
D1,Borá/SP,-22.2701088,-50.544407,1,119.33174
1,Bossoroca/RS,-28.7278885,-54.9120278,139,2240.12893
D1,Bossoroca/RS,-28.7278885,-54.9120278,11,177.27639
1,Botelhos/MG,-21.65,-46.394722,469,3137.33360
D1,Botelhos/MG,-21.65,-46.394722,4,26.75764
1,Botucatu/SP,-22.8879628,-48.4410712,8937,6033.21407
D1,Botucatu/SP,-22.8879628,-48.4410712,121,81.68501
1,Botumirim/MG,-16.862778,-43.011111,121,1924.30025
D1,Botumirim/MG,-16.862778,-43.011111,1,15.90331
1,Botuporã/BA,-13.3744752,-42.5198469,170,1678.34929
D1,Botuporã/BA,-13.3744752,-42.5198469,3,29.61793
1,Botuverá/SC,-27.200749,-49.068892,725,13622.69823
D1,Botuverá/SC,-27.200749,-49.068892,6,112.73957
1,Bozano/RS,-28.3669953,-53.7705165,166,7863.57177
D1,Bozano/RS,-28.3669953,-53.7705165,4,189.48366
1,Braga/RS,-27.617348,-53.740514,105,3171.24736
D1,Braga/RS,-27.617348,-53.740514,3,90.60707
1,Braganey/PR,-24.8179919,-53.118506,255,4738.01561
D1,Braganey/PR,-24.8179919,-53.118506,3,55.74136
1,Bragança Paulista/SP,-22.9520235,-46.5418586,9230,5412.44217
D1,Bragança Paulista/SP,-22.9520235,-46.5418586,191,112.00178
1,Bragança/PA,-1.0573967,-46.7635406,3317,2573.03318
D1,Bragança/PA,-1.0573967,-46.7635406,108,83.77678
1,Branquinha/AL,-9.2478057,-36.0152009,342,3269.59847
D1,Branquinha/AL,-9.2478057,-36.0152009,8,76.48184
1,Brasil Novo/PA,-3.3055853,-52.539198,1041,6947.87426
D1,Brasil Novo/PA,-3.3055853,-52.539198,22,146.83308
1,Brasileira/PI,-4.131182,-41.7824969,343,4109.26081
D1,Brasileira/PI,-4.131182,-41.7824969,6,71.88211
1,Brasilândia de Minas/MG,-17.0096469,-46.0087183,685,4090.04060
D1,Brasilândia de Minas/MG,-17.0096469,-46.0087183,7,41.79604
1,Brasilândia do Sul/PR,-24.1975793,-53.527551,204,7891.68279
D1,Brasilândia do Sul/PR,-24.1975793,-53.527551,2,77.36944
1,Brasilândia do Tocantins/TO,-8.3886619,-48.4842729,91,4115.78471
D1,Brasilândia do Tocantins/TO,-8.3886619,-48.4842729,1,45.22840
1,Brasilândia/MS,-21.255575,-52.0365617,325,2741.92188
D1,Brasilândia/MS,-21.255575,-52.0365617,6,50.62010
1,Brasiléia/AC,-11.0010413,-68.7487894,1974,7392.70467
D1,Brasiléia/AC,-11.0010413,-68.7487894,27,101.11602
1,Brasnorte/MT,-12.1227151,-58.0050109,1064,5283.01887
D1,Brasnorte/MT,-12.1227151,-58.0050109,14,69.51341
1,Brasília de Minas/MG,-16.2075114,-44.430559,558,1721.95649
D1,Brasília de Minas/MG,-16.2075114,-44.430559,5,15.42972
1,Brasília/DF,-15.7934036,-47.8823172,324576,10623.90083
D1,Brasília/DF,-15.7934036,-47.8823172,5274,172.62661
1,Brazabrantes/GO,-16.4291635,-49.3858216,299,7981.84730
D1,Brazabrantes/GO,-16.4291635,-49.3858216,2,53.39028
1,Brazópolis/MG,-22.4742842,-45.6165577,517,3587.78626
D1,Brazópolis/MG,-22.4742842,-45.6165577,18,124.91325
1,Braço do Norte/SC,-28.2728633,-49.1622712,5765,17017.94781
D1,Braço do Norte/SC,-28.2728633,-49.1622712,49,144.64518
1,Braço do Trombudo/SC,-27.358578,-49.882145,421,11170.07164
D1,Braço do Trombudo/SC,-27.358578,-49.882145,3,79.59671
1,Braúna/SP,-21.5015319,-50.3175246,260,4528.82773
D1,Braúna/SP,-21.5015319,-50.3175246,9,156.76711
1,Braúnas/MG,-19.055556,-42.716111,110,2306.56322
D1,Braúnas/MG,-19.055556,-42.716111,3,62.90627
1,Brejetuba/ES,-20.1465817,-41.2902303,1200,9656.39334
D1,Brejetuba/ES,-20.1465817,-41.2902303,6,48.28197
1,Brejinho de Nazaré/TO,-11.0205883,-48.5722906,215,3895.63327
D1,Brejinho de Nazaré/TO,-11.0205883,-48.5722906,7,126.83457
1,Brejinho/PE,-7.3482153,-37.28538,353,4714.20940
D1,Brejinho/PE,-7.3482153,-37.28538,4,53.41880
1,Brejinho/RN,-6.1957907,-35.3583019,645,5044.18550
D1,Brejinho/RN,-6.1957907,-35.3583019,6,46.92266
1,Brejo Alegre/SP,-21.1671191,-50.1850393,198,6853.58255
D1,Brejo Alegre/SP,-21.1671191,-50.1850393,8,276.91243
1,Brejo Grande do Araguaia/PA,-5.7011449,-48.4037308,721,9785.55917
D1,Brejo Grande do Araguaia/PA,-5.7011449,-48.4037308,5,67.86102
1,Brejo Grande/SE,-10.4287358,-36.4667918,244,2921.10619
D1,Brejo Grande/SE,-10.4287358,-36.4667918,9,107.74572
1,Brejo Santo/CE,-7.4909841,-38.9859152,4273,8573.09097
D1,Brejo Santo/CE,-7.4909841,-38.9859152,47,94.29798
1,Brejo da Madre de Deus/PE,-8.1409718,-36.3712527,1447,2824.79258
D1,Brejo da Madre de Deus/PE,-8.1409718,-36.3712527,38,74.18253
1,Brejo de Areia/MA,-4.3316785,-45.5833334,279,3095.18527
D1,Brejo de Areia/MA,-4.3316785,-45.5833334,7,77.65698
1,Brejo do Cruz/PB,-6.32926065,-37.48746163303929,1190,8376.74222
D1,Brejo do Cruz/PB,-6.32926065,-37.48746163303929,15,105.58919
1,Brejo do Piauí/PI,-8.207583,-42.8359849,55,1429.31393
D1,Brejo do Piauí/PI,-8.207583,-42.8359849,3,77.96258
1,Brejo dos Santos/PB,-6.3769367,-37.8243125,288,4455.44554
D1,Brejo dos Santos/PB,-6.3769367,-37.8243125,4,61.88119
1,Brejo/MA,-3.6804397,-42.7529313,750,2046.32889
D1,Brejo/MA,-3.6804397,-42.7529313,18,49.11189
1,Brejolândia/BA,-12.4843845,-43.9611861,128,1205.50009
D1,Brejolândia/BA,-12.4843845,-43.9611861,7,65.92579
1,Brejão/PE,-9.029146,-36.566034,135,1502.16980
D1,Brejão/PE,-9.029146,-36.566034,4,44.50873
1,Brejões/BA,-13.1033754,-39.7909837,456,3206.30010
D1,Brejões/BA,-13.1033754,-39.7909837,7,49.21952
1,Breu Branco/PA,-3.7785073,-49.5684795,476,706.94469
D1,Breu Branco/PA,-3.7785073,-49.5684795,31,46.04052
1,Breves/PA,-1.68036,-50.479085,3609,3487.05760
D1,Breves/PA,-1.68036,-50.479085,102,98.55358
1,Britânia/GO,-15.2427599,-51.1602061,375,6468.86321
D1,Britânia/GO,-15.2427599,-51.1602061,2,34.50060
1,Brochier/RS,-29.556766,-51.5963047,274,5368.33856
D1,Brochier/RS,-29.556766,-51.5963047,1,19.59248
1,Brodowski/SP,-20.984532,-47.657217,1379,5455.55248
D1,Brodowski/SP,-20.984532,-47.657217,35,138.46580
1,Brotas de Macaúbas/BA,-12.0019007,-42.6257506,54,533.07009
1,Brotas/SP,-22.2840884,-48.1267265,310,1258.32116
D1,Brotas/SP,-22.2840884,-48.1267265,12,48.70921
1,Brumadinho/MG,-20.143611,-44.2,2306,5670.58476
D1,Brumadinho/MG,-20.143611,-44.2,34,83.60793
1,Brumado/BA,-14.29507325,-41.659307508575985,6098,9056.21148
D1,Brumado/BA,-14.29507325,-41.659307508575985,81,120.29405
1,Brunópolis/SC,-27.310953,-50.837585,147,6207.77027
D1,Brunópolis/SC,-27.310953,-50.837585,3,126.68919
1,Brusque/SC,-27.0964628,-48.9136323,19155,13911.78671
D1,Brusque/SC,-27.0964628,-48.9136323,164,119.10901
1,Brás Pires/MG,-20.8483109,-43.2430524,111,2585.60447
D1,Brás Pires/MG,-20.8483109,-43.2430524,5,116.46867
1,Bueno Brandão/MG,-22.441976,-46.3517971,373,3393.68574
D1,Bueno Brandão/MG,-22.441976,-46.3517971,10,90.98353
1,Buenos Aires/PE,-7.7218931,-35.326587,145,1099.31766
D1,Buenos Aires/PE,-7.7218931,-35.326587,14,106.14102
1,Buenópolis/MG,-17.8756607,-44.1749365,183,1767.60359
D1,Buenópolis/MG,-17.8756607,-44.1749365,6,57.95422
1,Buerarema/BA,-14.9571177,-39.3008035,1107,6047.19764
D1,Buerarema/BA,-14.9571177,-39.3008035,33,180.26876
1,Bugre/MG,-19.4257687,-42.2556,286,7180.51720
D1,Bugre/MG,-19.4257687,-42.2556,9,225.96033
1,Bujari/AC,-9.8309656,-67.9520886,844,8099.80806
D1,Bujari/AC,-9.8309656,-67.9520886,9,86.37236
1,Bujaru/PA,-1.5169239,-48.0410699,1004,3411.83267
D1,Bujaru/PA,-1.5169239,-48.0410699,27,91.75247
1,Buri/SP,-23.79849,-48.598924,1182,5920.36063
D1,Buri/SP,-23.79849,-48.598924,22,110.19284
1,Buritama/SP,-21.0664017,-50.1448077,1352,7823.62132
D1,Buritama/SP,-21.0664017,-50.1448077,36,208.32128
1,Buriti Alegre/GO,-18.1377879,-49.0404411,638,6727.11936
D1,Buriti Alegre/GO,-18.1377879,-49.0404411,20,210.88148
1,Buriti Bravo/MA,-5.8391884,-43.8367876,1080,4511.46664
D1,Buriti Bravo/MA,-5.8391884,-43.8367876,10,41.77284
1,Buriti de Goiás/GO,-16.180644,-50.4287479,132,5331.17932
D1,Buriti de Goiás/GO,-16.180644,-50.4287479,1,40.38772
1,Buriti do Tocantins/TO,-5.3187439,-48.2256609,451,3922.76246
D1,Buriti do Tocantins/TO,-5.3187439,-48.2256609,2,17.39584
1,Buriti dos Lopes/PI,-3.1776723,-41.8707444,939,4740.74822
D1,Buriti dos Lopes/PI,-3.1776723,-41.8707444,15,75.73080
1,Buriti dos Montes/PI,-5.3136171,-41.0971256,377,4561.95547
D1,Buriti dos Montes/PI,-5.3136171,-41.0971256,2,24.20136
1,Buriti/MA,-3.9430944,-42.9244281,737,2559.20550
D1,Buriti/MA,-3.9430944,-42.9244281,6,20.83478
1,Buriticupu/MA,-4.3227472,-46.4516989,2694,3691.27057
D1,Buriticupu/MA,-4.3227472,-46.4516989,33,45.21601
1,Buritinópolis/GO,-14.4589282,-46.4293104,98,2985.07463
1,Buritirama/BA,-10.7148421,-43.6362327,620,2914.08159
D1,Buritirama/BA,-10.7148421,-43.6362327,15,70.50197
1,Buritirana/MA,-5.5897455,-47.0148915,253,1635.74061
D1,Buritirana/MA,-5.5897455,-47.0148915,20,129.30756
1,Buritis/MG,-15.621389,-46.423889,821,3282.29321
D1,Buritis/MG,-15.621389,-46.423889,10,39.97921
1,Buritis/RO,-10.2054937,-63.8281954,3707,9185.74685
D1,Buritis/RO,-10.2054937,-63.8281954,38,94.16196
1,Buritizal/SP,-20.1933264,-47.7097165,118,2614.08950
D1,Buritizal/SP,-20.1933264,-47.7097165,4,88.61320
1,Buritizeiro/MG,-17.3667765,-44.9647781,640,2275.87924
D1,Buritizeiro/MG,-17.3667765,-44.9647781,15,53.34092
1,Butiá/RS,-30.1256795,-51.9692224,795,3794.38717
D1,Butiá/RS,-30.1256795,-51.9692224,31,147.95724
1,Buíque/PE,-8.6239732,-37.157296,1456,2471.18926
D1,Buíque/PE,-8.6239732,-37.157296,23,39.03664
1,Bálsamo/SP,-20.7343722,-49.5807484,917,10033.92056
D1,Bálsamo/SP,-20.7343722,-49.5807484,32,350.14772
0,CASO SEM LOCALIZAÇÃO DEFINIDA/AC,-9.884083190922777,-67.85119819780795,513,58.16755
D0,CASO SEM LOCALIZAÇÃO DEFINIDA/AC,-9.884083190922777,-67.85119819780795,12,1.36064
0,CASO SEM LOCALIZAÇÃO DEFINIDA/AL,-9.931093434363673,-35.609611600637464,1076,32.24108
D0,CASO SEM LOCALIZAÇÃO DEFINIDA/AL,-9.931093434363673,-35.609611600637464,22,0.65920
0,CASO SEM LOCALIZAÇÃO DEFINIDA/AM,-3.07518492149711,-60.16169212873594,962,23.21094
D0,CASO SEM LOCALIZAÇÃO DEFINIDA/AM,-3.07518492149711,-60.16169212873594,36,0.86860
0,CASO SEM LOCALIZAÇÃO DEFINIDA/AP,2.677150600275196,-50.477785111870624,775,91.63670
D0,CASO SEM LOCALIZAÇÃO DEFINIDA/AP,2.677150600275196,-50.477785111870624,5,0.59120
0,CASO SEM LOCALIZAÇÃO DEFINIDA/BA,-13.415069300066518,-38.14174656569957,14153,95.15860
D0,CASO SEM LOCALIZAÇÃO DEFINIDA/BA,-13.415069300066518,-38.14174656569957,261,1.75485
0,CASO SEM LOCALIZAÇÃO DEFINIDA/CE,-3.3445126297392798,-38.624961942434304,15794,172.95078
D0,CASO SEM LOCALIZAÇÃO DEFINIDA/CE,-3.3445126297392798,-38.624961942434304,238,2.60620
0,CASO SEM LOCALIZAÇÃO DEFINIDA/ES,-20.30989267097039,-39.81745156645774,5285,131.51183
D0,CASO SEM LOCALIZAÇÃO DEFINIDA/ES,-20.30989267097039,-39.81745156645774,165,4.10586
0,CASO SEM LOCALIZAÇÃO DEFINIDA/GO,-16.701590966270153,-49.164524059025034,3010,42.88755
D0,CASO SEM LOCALIZAÇÃO DEFINIDA/GO,-16.701590966270153,-49.164524059025034,135,1.92353
0,CASO SEM LOCALIZAÇÃO DEFINIDA/MA,-2.171256551718846,-43.98946796681719,799,11.29300
D0,CASO SEM LOCALIZAÇÃO DEFINIDA/MA,-2.171256551718846,-43.98946796681719,35,0.49469
0,CASO SEM LOCALIZAÇÃO DEFINIDA/MG,-19.97049116501593,-43.8852149072783,15638,73.87290
D0,CASO SEM LOCALIZAÇÃO DEFINIDA/MG,-19.97049116501593,-43.8852149072783,452,2.13522
0,CASO SEM LOCALIZAÇÃO DEFINIDA/MS,-20.391549234908513,-54.645156949758444,1254,45.12437
D0,CASO SEM LOCALIZAÇÃO DEFINIDA/MS,-20.391549234908513,-54.645156949758444,31,1.11551
0,CASO SEM LOCALIZAÇÃO DEFINIDA/MT,-15.54791153961863,-56.17143998972475,5058,145.15854
D0,CASO SEM LOCALIZAÇÃO DEFINIDA/MT,-15.54791153961863,-56.17143998972475,183,5.25188
0,CASO SEM LOCALIZAÇÃO DEFINIDA/PA,-0.09317078214359542,-48.0050231510481,2801,32.55892
D0,CASO SEM LOCALIZAÇÃO DEFINIDA/PA,-0.09317078214359542,-48.0050231510481,48,0.55795
0,CASO SEM LOCALIZAÇÃO DEFINIDA/PB,-7.1049355696146606,-34.68696690234351,1403,34.91677
D0,CASO SEM LOCALIZAÇÃO DEFINIDA/PB,-7.1049355696146606,-34.68696690234351,43,1.07015
0,CASO SEM LOCALIZAÇÃO DEFINIDA/PE,-8.121628543819208,-34.57313921302556,2139,22.38133
D0,CASO SEM LOCALIZAÇÃO DEFINIDA/PE,-8.121628543819208,-34.57313921302556,53,0.55456
0,CASO SEM LOCALIZAÇÃO DEFINIDA/PI,-2.683810218391744,-41.470898009352254,1155,35.28628
D0,CASO SEM LOCALIZAÇÃO DEFINIDA/PI,-2.683810218391744,-41.470898009352254,23,0.70267
0,CASO SEM LOCALIZAÇÃO DEFINIDA/PR,-25.69415946385943,-48.10141676336737,11573,101.21605
D0,CASO SEM LOCALIZAÇÃO DEFINIDA/PR,-25.69415946385943,-48.10141676336737,302,2.64126
0,CASO SEM LOCALIZAÇÃO DEFINIDA/RJ,-23.210238986465157,-43.12864305824042,2950,17.08665
D0,CASO SEM LOCALIZAÇÃO DEFINIDA/RJ,-23.210238986465157,-43.12864305824042,109,0.63134
0,CASO SEM LOCALIZAÇÃO DEFINIDA/RN,-5.749310788669161,-34.95302586257457,1418,40.43511
D0,CASO SEM LOCALIZAÇÃO DEFINIDA/RN,-5.749310788669161,-34.95302586257457,30,0.85547
0,CASO SEM LOCALIZAÇÃO DEFINIDA/RO,-8.681174926655274,-63.9216949899276,1203,67.68980
D0,CASO SEM LOCALIZAÇÃO DEFINIDA/RO,-8.681174926655274,-63.9216949899276,34,1.91309
0,CASO SEM LOCALIZAÇÃO DEFINIDA/RR,2.813328208465927,-60.663338675861986,2759,455.46016
D0,CASO SEM LOCALIZAÇÃO DEFINIDA/RR,2.813328208465927,-60.663338675861986,20,3.30163
0,CASO SEM LOCALIZAÇÃO DEFINIDA/RS,-30.50647488532064,-49.906261466443524,7206,63.33698
D0,CASO SEM LOCALIZAÇÃO DEFINIDA/RS,-30.50647488532064,-49.906261466443524,298,2.61926
0,CASO SEM LOCALIZAÇÃO DEFINIDA/SC,-27.675643660562308,-48.18313219398259,5440,75.92688
D0,CASO SEM LOCALIZAÇÃO DEFINIDA/SC,-27.675643660562308,-48.18313219398259,126,1.75860
0,CASO SEM LOCALIZAÇÃO DEFINIDA/SE,-11.03002091978736,-36.89283180376513,810,35.23737
D0,CASO SEM LOCALIZAÇÃO DEFINIDA/SE,-11.03002091978736,-36.89283180376513,23,1.00057
0,CASO SEM LOCALIZAÇÃO DEFINIDA/SP,-24.30968974555485,-46.21366504207253,17877,38.93156
D0,CASO SEM LOCALIZAÇÃO DEFINIDA/SP,-24.30968974555485,-46.21366504207253,659,1.43513
0,CASO SEM LOCALIZAÇÃO DEFINIDA/TO,-10.213012114749148,-48.40023803990334,1281,81.44368
D0,CASO SEM LOCALIZAÇÃO DEFINIDA/TO,-10.213012114749148,-48.40023803990334,20,1.27156
1,Caapiranga/AM,-3.3188884,-61.2096404,540,4065.34668
D1,Caapiranga/AM,-3.3188884,-61.2096404,20,150.56840
1,Caaporã/PB,-7.510234,-34.9154114,1344,6121.61239
D1,Caaporã/PB,-7.510234,-34.9154114,22,100.20496
1,Caarapó/MS,-22.6349267,-54.8240903,2231,7292.51790
D1,Caarapó/MS,-22.6349267,-54.8240903,18,58.83699
1,Caatiba/BA,-14.9782759,-40.4092325,569,8770.03699
D1,Caatiba/BA,-14.9782759,-40.4092325,7,107.89149
1,Cabaceiras do Paraguaçu/BA,-12.5377868,-39.1901339,328,1734.44027
D1,Cabaceiras do Paraguaçu/BA,-12.5377868,-39.1901339,2,10.57586
1,Cabaceiras/PB,-7.4899156,-36.2860501,280,4946.12259
D1,Cabaceiras/PB,-7.4899156,-36.2860501,1,17.66472
1,Cabeceira Grande/MG,-16.0297,-47.0906,172,2461.36234
D1,Cabeceira Grande/MG,-16.0297,-47.0906,3,42.93074
1,Cabeceiras do Piauí/PI,-4.4733665,-42.3098716,340,3198.49483
D1,Cabeceiras do Piauí/PI,-4.4733665,-42.3098716,8,75.25870
1,Cabeceiras/GO,-15.7995459,-46.9264991,187,2324.13622
D1,Cabeceiras/GO,-15.7995459,-46.9264991,5,62.14268
1,Cabedelo/PB,-6.97324,-34.8351609,5948,8649.49758
D1,Cabedelo/PB,-6.97324,-34.8351609,122,177.41068
1,Cabixi/RO,-13.4956065,-60.5424442,497,9579.79954
D1,Cabixi/RO,-13.4956065,-60.5424442,10,192.75251
1,Cabo Frio/RJ,-22.8804369,-42.0189227,7957,3453.88883
D1,Cabo Frio/RJ,-22.8804369,-42.0189227,362,157.13306
1,Cabo Verde/MG,-21.4743338,-46.3964995,276,1960.92362
D1,Cabo Verde/MG,-21.4743338,-46.3964995,5,35.52398
1,Cabo de Santo Agostinho/PE,-8.2838945,-35.0320984,3311,1584.63512
D1,Cabo de Santo Agostinho/PE,-8.2838945,-35.0320984,326,156.02267
1,Cabreúva/SP,-23.3075813,-47.1324417,2502,4961.43092
D1,Cabreúva/SP,-23.3075813,-47.1324417,55,109.06423
1,Cabrobó/PE,-8.5083701,-39.3106961,1184,3431.58566
D1,Cabrobó/PE,-8.5083701,-39.3106961,12,34.77958
1,Cabrália Paulista/SP,-22.4562909,-49.3385645,164,3865.18972
D1,Cabrália Paulista/SP,-22.4562909,-49.3385645,2,47.13646
1,Cacaulândia/RO,-10.3380043,-62.9007231,489,7800.28713
D1,Cacaulândia/RO,-10.3380043,-62.9007231,7,111.66055
1,Cacequi/RS,-29.8838059,-54.8273443,137,1102.79321
D1,Cacequi/RS,-29.8838059,-54.8273443,4,32.19834
1,Cachoeira Alta/GO,-18.7618269,-50.9432431,977,7713.56387
D1,Cachoeira Alta/GO,-18.7618269,-50.9432431,13,102.63698
1,Cachoeira Dourada/GO,-18.4934204,-49.481062,269,3349.52061
D1,Cachoeira Dourada/GO,-18.4934204,-49.481062,4,49.80700
1,Cachoeira Dourada/MG,-18.517136,-49.5002062,120,4434.58980
1,Cachoeira Grande/MA,-2.9290492,-44.0573223,196,2067.94682
D1,Cachoeira Grande/MA,-2.9290492,-44.0573223,5,52.75375
1,Cachoeira Paulista/SP,-22.666498,-45.015384,1208,3597.27227
D1,Cachoeira Paulista/SP,-22.666498,-45.015384,26,77.42473
1,Cachoeira da Prata/MG,-19.524723,-44.453056,183,5096.07352
D1,Cachoeira da Prata/MG,-19.524723,-44.453056,2,55.69479
1,Cachoeira de Goiás/GO,-16.6688414,-50.6435997,37,2757.07899
1,Cachoeira de Minas/MG,-22.3554043,-45.7796324,409,3532.25667
D1,Cachoeira de Minas/MG,-22.3554043,-45.7796324,5,43.18162
1,Cachoeira de Pajeú/MG,-15.965833,-41.496666,293,3103.15611
D1,Cachoeira de Pajeú/MG,-15.965833,-41.496666,5,52.95488
1,Cachoeira do Arari/PA,-1.0143572,-48.9621089,349,1450.29920
D1,Cachoeira do Arari/PA,-1.0143572,-48.9621089,14,58.17819
1,Cachoeira do Piriá/PA,-1.7599443,-46.5446954,636,1837.67228
D1,Cachoeira do Piriá/PA,-1.7599443,-46.5446954,3,8.66827
1,Cachoeira do Sul/RS,-30.0474778,-52.8905413,4022,4912.72643
D1,Cachoeira do Sul/RS,-30.0474778,-52.8905413,57,69.62342
1,Cachoeira dos Índios/PB,-6.9259193,-38.6742159,449,4357.10820
D1,Cachoeira dos Índios/PB,-6.9259193,-38.6742159,12,116.44833
1,Cachoeira/BA,-12.5998256,-38.9665918,1023,3047.63607
D1,Cachoeira/BA,-12.5998256,-38.9665918,17,50.64498
1,Cachoeiras de Macacu/RJ,-22.4626861,-42.6534414,2032,3426.47084
D1,Cachoeiras de Macacu/RJ,-22.4626861,-42.6534414,63,106.23409
1,Cachoeirinha/PE,-8.4906364,-36.2338963,344,1677.96693
D1,Cachoeirinha/PE,-8.4906364,-36.2338963,22,107.31184
1,Cachoeirinha/RS,-29.9493353,-51.0898927,8399,6399.72569
D1,Cachoeirinha/RS,-29.9493353,-51.0898927,234,178.29930
1,Cachoeirinha/TO,-6.118647,-47.9208885,116,5078.80911
D1,Cachoeirinha/TO,-6.118647,-47.9208885,2,87.56567
1,Cachoeiro de Itapemirim/ES,-20.848084,-41.11129,18688,8874.15772
D1,Cachoeiro de Itapemirim/ES,-20.848084,-41.11129,366,173.79825
1,Cacimba de Areia/PB,-7.1288513,-37.1575194,25,676.58999
D1,Cacimba de Areia/PB,-7.1288513,-37.1575194,1,27.06360
1,Cacimba de Dentro/PB,-6.6425101,-35.7929304,781,4546.51298
D1,Cacimba de Dentro/PB,-6.6425101,-35.7929304,18,104.78519
1,Cacimbas/PB,-7.2125451,-37.0593398,167,2319.76663
D1,Cacimbas/PB,-7.2125451,-37.0593398,6,83.34491
1,Cacimbinhas/AL,-9.401212,-36.991082,416,3820.36918
D1,Cacimbinhas/AL,-9.401212,-36.991082,5,45.91790
1,Cacique Doble/RS,-27.7700117,-51.6616409,243,4789.12101
D1,Cacique Doble/RS,-27.7700117,-51.6616409,3,59.12495
1,Cacoal/RO,-11.4333,-61.4420502,8519,9918.15398
D1,Cacoal/RO,-11.4333,-61.4420502,129,150.18686
1,Caconde/SP,-21.527995,-46.643659,740,3892.89284
D1,Caconde/SP,-21.527995,-46.643659,6,31.56400
1,Caculé/BA,-14.4990734,-42.2233006,850,3649.47834
D1,Caculé/BA,-14.4990734,-42.2233006,9,38.64154
1,Caetanos/BA,-14.3387456,-40.9085971,441,3018.89376
D1,Caetanos/BA,-14.3387456,-40.9085971,5,34.22782
1,Caetanópolis/MG,-19.2947496,-44.4138386,596,5072.77215
D1,Caetanópolis/MG,-19.2947496,-44.4138386,4,34.04545
1,Caetité/BA,-14.0691776,-42.4852428,1402,2744.66044
D1,Caetité/BA,-14.0691776,-42.4852428,10,19.57675
1,Caeté/MG,-19.897777,-43.670278,1057,2346.43816
D1,Caeté/MG,-19.897777,-43.670278,32,71.03692
1,Caetés/PE,-8.7728788,-36.6255835,949,3283.28259
D1,Caetés/PE,-8.7728788,-36.6255835,11,38.05702
1,Cafarnaum/BA,-11.691399,-41.468823,703,3797.33160
D1,Cafarnaum/BA,-11.691399,-41.468823,11,59.41771
1,Cafeara/PR,-22.78905,-51.714195,191,6465.80907
D1,Cafeara/PR,-22.78905,-51.714195,2,67.70481
1,Cafelândia/PR,-24.6176963,-53.3218057,1179,6388.16645
D1,Cafelândia/PR,-24.6176963,-53.3218057,6,32.50975
1,Cafelândia/SP,-21.8054355,-49.6030627,587,3289.80553
D1,Cafelândia/SP,-21.8054355,-49.6030627,23,128.90209
1,Cafezal do Sul/PR,-23.900508,-53.512418,148,3691.69369
D1,Cafezal do Sul/PR,-23.900508,-53.512418,1,24.94388
1,Caiabu/SP,-22.0143038,-51.2356597,57,1359.40854
D1,Caiabu/SP,-22.0143038,-51.2356597,4,95.39709
1,Caiana/MG,-20.695555,-41.924723,99,1786.68110
D1,Caiana/MG,-20.695555,-41.924723,2,36.09457
1,Caiapônia/GO,-16.9538779,-51.8090761,697,3647.87774
D1,Caiapônia/GO,-16.9538779,-51.8090761,17,88.97263
1,Caibaté/RS,-28.290475,-54.645407,104,2156.33423
D1,Caibaté/RS,-28.290475,-54.645407,4,82.93593
1,Caibi/SC,-27.0751925,-53.2502133,428,6982.05546
D1,Caibi/SC,-27.0751925,-53.2502133,5,81.56607
1,Caicó/RN,-6.4594544,-37.0971911,8222,12030.49325
D1,Caicó/RN,-6.4594544,-37.0971911,96,140.46793
1,Caieiras/SP,-23.3644621,-46.7484765,4950,4816.34639
D1,Caieiras/SP,-23.3644621,-46.7484765,144,140.11189
1,Cairu/BA,-13.4860505,-39.0455744,956,5188.03929
D1,Cairu/BA,-13.4860505,-39.0455744,9,48.84137
1,Caiuá/SP,-21.8319357,-51.9887179,180,3027.24521
D1,Caiuá/SP,-21.8319357,-51.9887179,3,50.45409
1,Caiçara do Norte/RN,-5.0645017,-36.0561226,213,3246.45633
D1,Caiçara do Norte/RN,-5.0645017,-36.0561226,4,60.96632
1,Caiçara do Rio do Vento/RN,-5.757968,-36.00089,148,3983.84926
D1,Caiçara do Rio do Vento/RN,-5.757968,-36.00089,5,134.58950
1,Caiçara/PB,-6.6146866,-35.4681434,525,7300.79266
D1,Caiçara/PB,-6.6146866,-35.4681434,10,139.06272
1,Caiçara/RS,-27.2750478,-53.4310053,346,7361.70213
D1,Caiçara/RS,-27.2750478,-53.4310053,5,106.38298
1,Cajamar/SP,-23.3561111,-46.8769444,2490,3195.01116
D1,Cajamar/SP,-23.3561111,-46.8769444,101,129.59684
1,Cajapió/MA,-2.8778715,-44.6746871,63,561.69757
D1,Cajapió/MA,-2.8778715,-44.6746871,3,26.74750
1,Cajari/MA,-3.3213076,-45.0118757,132,678.62835
D1,Cajari/MA,-3.3213076,-45.0118757,4,20.56450
1,Cajati/SP,-24.7272376,-48.1077914,2648,9293.18453
D1,Cajati/SP,-24.7272376,-48.1077914,56,196.53260
1,Cajazeiras do Piauí/PI,-6.794271,-42.3935024,28,783.65519
D1,Cajazeiras do Piauí/PI,-6.794271,-42.3935024,1,27.98769
1,Cajazeiras/PB,-6.8897849,-38.5570389,5465,8773.61974
D1,Cajazeiras/PB,-6.8897849,-38.5570389,96,154.12031
1,Cajazeirinhas/PB,-6.961442,-37.7993733,103,3213.72855
1,Cajobi/SP,-20.8776238,-48.8106972,515,4860.32465
D1,Cajobi/SP,-20.8776238,-48.8106972,16,151.00038
1,Cajueiro da Praia/PI,-2.931114,-41.340801,452,5890.01824
D1,Cajueiro da Praia/PI,-2.931114,-41.340801,12,156.37217
1,Cajueiro/AL,-9.399589,-36.1524309,447,2095.54170
D1,Cajueiro/AL,-9.399589,-36.1524309,18,84.38423
1,Cajuri/MG,-20.7901414,-42.7954489,198,4982.38551
D1,Cajuri/MG,-20.7901414,-42.7954489,1,25.16356
1,Cajuru/SP,-21.2759978,-47.3046035,555,2102.83030
D1,Cajuru/SP,-21.2759978,-47.3046035,18,68.19990
1,Caldas Brandão/PB,-7.1027959,-35.3254676,394,6516.70526
D1,Caldas Brandão/PB,-7.1027959,-35.3254676,6,99.23917
1,Caldas Novas/GO,-17.745,-48.625,5810,6234.17314
D1,Caldas Novas/GO,-17.745,-48.625,106,113.73879
1,Caldas/MG,-21.923611,-46.386111,437,3005.29537
D1,Caldas/MG,-21.923611,-46.386111,13,89.40238
1,Caldazinha/GO,-16.7116649,-49.0012601,169,4391.89189
D1,Caldazinha/GO,-16.7116649,-49.0012601,2,51.97505
1,Caldeirão Grande do Piauí/PI,-7.3310393,-40.6374433,222,3840.16606
D1,Caldeirão Grande do Piauí/PI,-7.3310393,-40.6374433,2,34.59609
1,Caldeirão Grande/BA,-11.0208483,-40.3041387,531,3965.34986
D1,Caldeirão Grande/BA,-11.0208483,-40.3041387,6,44.80621
1,Califórnia/PR,-23.6672543,-51.3554556,585,6797.58308
D1,Califórnia/PR,-23.6672543,-51.3554556,9,104.57820
1,Calmon/SC,-26.6023644,-51.0992893,20,599.70015
D1,Calmon/SC,-26.6023644,-51.0992893,2,59.97001
1,Calumbi/PE,-7.9389746,-38.1516871,373,6490.34279
D1,Calumbi/PE,-7.9389746,-38.1516871,2,34.80077
1,Calçado/PE,-8.7413446,-36.3351787,267,2423.30732
D1,Calçado/PE,-8.7413446,-36.3351787,2,18.15211
1,Calçoene/AP,2.4981757,-50.9539503,1556,13762.60393
D1,Calçoene/AP,2.4981757,-50.9539503,9,79.60375
1,Camacan/BA,-15.4166631,-39.4930088,2104,6573.76742
D1,Camacan/BA,-15.4166631,-39.4930088,49,153.09629
1,Camacho/MG,-20.625556,-45.156667,49,1707.91216
D1,Camacho/MG,-20.625556,-45.156667,1,34.85535
1,Camalaú/PB,-7.885031,-36.824191,273,4526.61250
D1,Camalaú/PB,-7.885031,-36.824191,5,82.90499
1,Camamu/BA,-13.9438142,-39.1060917,1768,4996.89107
D1,Camamu/BA,-13.9438142,-39.1060917,34,96.09406
1,Camanducaia/MG,-22.755278,-46.144444,2010,9219.76056
D1,Camanducaia/MG,-22.755278,-46.144444,26,119.26058
1,Camapuã/MS,-19.5291747,-54.0434641,438,3198.71467
D1,Camapuã/MS,-19.5291747,-54.0434641,8,58.42401
1,Camaquã/RS,-30.8524752,-51.8075619,3744,5631.93839
D1,Camaquã/RS,-30.8524752,-51.8075619,67,100.78522
1,Camaragibe/PE,-8.0213832,-34.9810768,3585,2256.15013
D1,Camaragibe/PE,-8.0213832,-34.9810768,249,156.70331
1,Camargo/RS,-28.5865661,-52.2031474,254,9263.31145
D1,Camargo/RS,-28.5865661,-52.2031474,2,72.93946
1,Camaçari/BA,-12.6998188,-38.3260762,16796,5519.51680
D1,Camaçari/BA,-12.6998188,-38.3260762,319,104.83007
1,Cambará do Sul/RS,-29.0489517,-50.145412,276,4308.46082
D1,Cambará do Sul/RS,-29.0489517,-50.145412,3,46.83110
1,Cambará/PR,-23.042273,-50.075281,1212,4759.28689
D1,Cambará/PR,-23.042273,-50.075281,13,51.04846
1,Cambira/PR,-23.600265,-51.581045,430,5431.35026
D1,Cambira/PR,-23.600265,-51.581045,10,126.31047
1,Camboriú/SC,-27.0273601,-48.6535657,9676,11369.48475
D1,Camboriú/SC,-27.0273601,-48.6535657,109,128.07708
1,Cambuci/RJ,-21.5749919,-41.9107833,509,3280.90757
D1,Cambuci/RJ,-21.5749919,-41.9107833,10,64.45791
1,Cambuquira/MG,-21.853056,-45.2953619,222,1732.75055
D1,Cambuquira/MG,-21.853056,-45.2953619,7,54.63628
1,Cambuí/MG,-22.6122501,-46.0572137,1563,5242.50352
D1,Cambuí/MG,-22.6122501,-46.0572137,22,73.79084
1,Cambé/PR,-23.2782035,-51.2779583,7656,7132.40980
D1,Cambé/PR,-23.2782035,-51.2779583,116,108.06682
1,Cametá/PA,-2.242949,-49.497885,6165,4423.66752
D1,Cametá/PA,-2.242949,-49.497885,146,104.76163
1,Camocim de São Félix/PE,-8.3616757,-35.7638903,356,1883.59788
D1,Camocim de São Félix/PE,-8.3616757,-35.7638903,11,58.20106
1,Camocim/CE,-2.9009918,-40.8427389,3111,4868.01133
D1,Camocim/CE,-2.9009918,-40.8427389,95,148.65351
1,Campanha/MG,-21.8361108,-45.401986,848,5059.06216
D1,Campanha/MG,-21.8361108,-45.401986,18,107.38575
1,Campanário/MG,-18.2398144,-41.7271768,101,2707.77480
D1,Campanário/MG,-18.2398144,-41.7271768,1,26.80965
1,Campestre da Serra/RS,-28.7966535,-51.0958149,122,3593.51988
