type,name,lat,lon,total
1,Abaetetuba/PA,-1.721828,-48.878843,9
1,Abaeté/MG,-19.1566833,-45.4481213,1
1,Abaíra/BA,-13.2503296,-41.6640342,1
1,Abreu e Lima/PE,-7.900719,-34.898389,31
D1,Abreu e Lima/PE,-7.900719,-34.898389,1
1,Acajutiba/BA,-11.6609659,-38.0186381,1
1,Acarape/CE,-4.2237866,-38.7071663,5
D1,Acarape/CE,-4.2237866,-38.7071663,1
1,Acaraú/CE,-2.8869514,-40.1194713,5
D1,Acaraú/CE,-2.8869514,-40.1194713,1
1,Acari/RN,-6.4364689,-36.6394777,1
1,Acará/PA,-1.961388,-48.1987043,2
1,Acopiara/CE,-6.0936464,-39.4543204,2
1,Acrelândia/AC,-10.0759167,-67.0526898,12
1,Adamantina/SP,-21.6866517,-51.0762975,2
1,Adustina/BA,-10.5358875,-38.114479,1
D1,Adustina/BA,-10.5358875,-38.114479,1
1,Afonso Cláudio/ES,-20.077841,-41.12606,3
D1,Afonso Cláudio/ES,-20.077841,-41.12606,1
1,Afuá/PA,-0.1535664,-50.3879223,1
1,Agrestina/PE,-8.4558021,-35.9442663,1
D1,Agrestina/PE,-8.4558021,-35.9442663,1
1,Aguaí/SP,-22.0592036,-46.979384,1
1,Agudos/SP,-22.471162,-48.987822,11
D1,Agudos/SP,-22.471162,-48.987822,1
1,Aiquara/BA,-14.126918,-39.8887574,1
1,Ajuricaba/RS,-28.239654,-53.7693013,1
1,Alagoa Grande/PB,-7.0415212,-35.6285322,1
1,Alagoa Nova/PB,-7.0653703,-35.76695977336711,1
1,Alagoinha/PE,-8.50355635,-36.77701174370496,1
1,Alagoinhas/BA,-12.133526,-38.420772,7
1,Alambari/SP,-23.550338,-47.897971,1
1,Alcinópolis/MS,-18.3264121,-53.7094463,1
1,Alcântara/MA,-2.4038956,-44.4154241,1
1,Alcântaras/CE,-3.586247,-40.5457641,3
1,Alegre/ES,-20.7625787,-41.5318886,2
1,Alegrete/RS,-29.790166,-55.794862,1
1,Alenquer/PA,-1.946229,-54.738355,1
1,Alexandria/RN,-6.414779,-38.0135516,1
D1,Alexandria/RN,-6.414779,-38.0135516,1
1,Alfenas/MG,-21.4297405,-45.9479419,2
1,Alfredo Chaves/ES,-20.624970400000002,-40.75006690147988,16
1,Aliança/PE,-7.60398,-35.222696,5
D1,Aliança/PE,-7.60398,-35.222696,1
1,Almadina/BA,-14.70466,-39.6381994,1
1,Almeirim/PA,-1.5290377,-52.5788111,1
1,Almenara/MG,-16.1740678,-40.6904907,5
1,Almirante Tamandaré/PR,-25.3133048,-49.2997838,6
1,Aloândia/GO,-17.7277983,-49.4809338,1
1,Alpercata/MG,-18.9803616,-41.9827637,1
1,Alta Floresta/MT,-9.8715018,-56.0839881,1
1,Altamira do Maranhão/MA,-4.1643006,-45.4674574,1
D1,Altamira do Maranhão/MA,-4.1643006,-45.4674574,1
1,Altamira/PA,-3.204065,-52.209961,9
1,Altinho/PE,-8.4904095,-36.0607494,1
1,Alto Alegre do Pindaré/MA,-3.6698186,-45.8462153,1
1,Alto Alegre/RR,2.98858,-61.307167,2
D1,Alto Alegre/RR,2.98858,-61.307167,1
1,Alto Paraná/PR,-23.131247,-52.318893,4
1,Alto Paraíso/RO,-9.7240103,-63.3188123,1
1,Alto Santo/CE,-5.5190371,-38.2719351,4
D1,Alto Santo/CE,-5.5190371,-38.2719351,1
1,Alto do Rodrigues/RN,-5.290868,-36.7616726,1
1,Altos/PI,-5.0393915,-42.4611694,1
1,Alvorada do Gurguéia/PI,-8.4465288,-43.8655915,1
1,Alvorada/RS,-29.9981184,-51.0772509,11
D1,Alvorada/RS,-29.9981184,-51.0772509,1
1,Além Paraíba/MG,-21.8760576,-42.6810473,1
1,Amaporã/PR,-23.094272,-52.786597,7
1,Amaraji/PE,-8.373925,-35.4536527,1
D1,Amaraji/PE,-8.373925,-35.4536527,1
1,Amaturá/AM,-3.3640509,-68.1994689,12
1,Americana/SP,-22.7392463,-47.3306032,33
D1,Americana/SP,-22.7392463,-47.3306032,3
1,Amontada/CE,-3.3634586,-39.8284791,1
1,Amparo/SP,-22.70111,-46.76444,8
1,Amélia Rodrigues/BA,-12.4015388,-38.7516971,5
1,Américo Brasiliense/SP,-21.7297099,-48.1052092,5
1,Anadia/AL,-9.6830208,-36.3052699,1
D1,Anadia/AL,-9.6830208,-36.3052699,1
1,Anajatuba/MA,-3.26441,-44.6179916,3
D1,Anajatuba/MA,-3.26441,-44.6179916,1
1,Anamã/AM,-3.5797356,-61.4049996,1
1,Ananindeua/PA,-1.374035,-48.4016623,172
D1,Ananindeua/PA,-1.374035,-48.4016623,8
1,Anapu/PA,-3.4668292,-51.2057035,5
1,Anchieta/ES,-20.8057672,-40.6454564,7
1,Andradina/SP,-20.896505,-51.3742765,5
1,Angatuba/SP,-23.4938938,-48.4110675,2
D1,Angatuba/SP,-23.4938938,-48.4110675,1
1,Angical do Piauí/PI,-6.0872666,-42.7366138,1
1,Angra dos Reis/RJ,-23.0063966,-44.316326,11
1,Anhanguera/GO,-18.3338749,-48.220363,1
1,Anita Garibaldi/SC,-27.6855032,-51.1293873,1
1,Anori/AM,-3.7435254,-61.6605203,17
1,Anta Gorda/RS,-28.9718745,-52.0069187,2
1,Antônio Carlos/SC,-27.5168462,-48.7684715,11
D1,Antônio Carlos/SC,-27.5168462,-48.7684715,3
1,Anápolis/GO,-16.3332828,-48.9525756,39
1,Anísio de Abreu/PI,-9.185643,-43.04941,1
1,Aparecida de Goiânia/GO,-16.8226769,-49.2452546,22
D1,Aparecida de Goiânia/GO,-16.8226769,-49.2452546,2
1,Aparecida/SP,-22.851552,-45.2340924,1
1,Aperibé/RJ,-21.6211928,-42.1028167,2
1,Apiacá/ES,-21.152272,-41.569297,3
1,Apiaí/SP,-24.5076527,-48.8461582,1
1,Apodi/RN,-5.6631109,-37.796927,7
D1,Apodi/RN,-5.6631109,-37.796927,1
1,Apucarana/PR,-23.5525327,-51.4610764,14
D1,Apucarana/PR,-23.5525327,-51.4610764,2
1,Apuiarés/CE,-3.9460303,-39.4313298,1
1,Aquiraz/CE,-3.9063117,-38.387504,53
1,Arabutã/SC,-27.1587028,-52.1438142,5
1,Aracaju/SE,-10.9162061,-37.0774655,99
D1,Aracaju/SE,-10.9162061,-37.0774655,6
1,Aracati/CE,-4.558259,-37.767894,11
D1,Aracati/CE,-4.558259,-37.767894,1
1,Araci/BA,-11.3356065,-38.9573261,1
D1,Araci/BA,-11.3356065,-38.9573261,1
1,Aracoiaba/CE,-4.3702577,-38.8084313,3
1,Aracruz/ES,-19.8245218,-40.2735025,13
D1,Aracruz/ES,-19.8245218,-40.2735025,1
1,Aragoiânia/GO,-16.9146388,-49.4499148,1
1,Araguari/MG,-18.6511256,-48.1933764,7
1,Araguaína/TO,-7.193241,-48.2018597,20
1,Arandu/SP,-23.1345103,-49.0545651,9
D1,Arandu/SP,-23.1345103,-49.0545651,2
1,Arapiraca/AL,-9.754866,-36.661471,4
1,Arapongas/PR,-23.415296,-51.42592,14
D1,Arapongas/PR,-23.415296,-51.42592,1
1,Araranguá/SC,-28.9348832,-49.4858389,4
1,Araraquara/SP,-21.7886713,-48.1773096,49
D1,Araraquara/SP,-21.7886713,-48.1773096,3
1,Araras/SP,-22.3569477,-47.3838889,10
1,Ararendá/CE,-4.7504395,-40.8303611,1
D1,Ararendá/CE,-4.7504395,-40.8303611,1
1,Arari/MA,-3.4547602,-44.7772723,3
D1,Arari/MA,-3.4547602,-44.7772723,1
1,Araripe/CE,-7.212861,-40.1359222,1
1,Araruama/RJ,-22.8733203,-42.3428897,19
D1,Araruama/RJ,-22.8733203,-42.3428897,1
1,Araruna/PR,-23.9320308,-52.4976047,10
D1,Araruna/PR,-23.9320308,-52.4976047,1
1,Araucária/PR,-25.5861107,-49.4051209,6
1,Araxá/MG,-19.5928536,-46.940241,3
1,Araçariguama/SP,-23.438611,-47.061389,2
D1,Araçariguama/SP,-23.438611,-47.061389,1
1,Araçatuba/SP,-21.207992,-50.4390225,54
D1,Araçatuba/SP,-21.207992,-50.4390225,2
1,Araçoiaba da Serra/SP,-23.5045367,-47.6168158,2
1,Araçoiaba/PE,-7.7856903,-35.0898881,2
1,Arceburgo/MG,-21.364444,-46.939722,1
1,Arcos/MG,-20.282223,-45.539444,7
1,Arcoverde/PE,-8.415192,-37.057748,11
D1,Arcoverde/PE,-8.415192,-37.057748,3
1,Areal/RJ,-22.2314922,-43.1056264,1
1,Areia Branca/RN,-4.9506652,-37.1263312,4
1,Areia/PB,-6.9680243,-35.6994783,1
1,Areiópolis/SP,-22.6758064,-48.6673653,3
1,Aripuanã/MT,-10.175806,-59.4439663,2
D1,Aripuanã/MT,-10.175806,-59.4439663,1
1,Ariquemes/RO,-9.9076522,-63.033069,48
1,Armazém/SC,-28.2624996,-49.0190126,2
1,Armação dos Búzios/RJ,-22.7597805,-41.8875267,7
1,Arneiroz/CE,-6.3235099,-40.1603859,2
1,Arraial do Cabo/RJ,-22.9662839,-42.024427,4
D1,Arraial do Cabo/RJ,-22.9662839,-42.024427,1
1,Arroio do Meio/RS,-29.4020392,-51.9444993,5
1,Arroio do Sal/RS,-29.549852,-49.8874395,2
D1,Arroio do Sal/RS,-29.549852,-49.8874395,1
1,Arroio dos Ratos/RS,-30.0894524,-51.7265541,3
1,Artur Nogueira/SP,-22.572737,-47.172679,1
1,Arujá/SP,-23.396266,-46.3175449,37
D1,Arujá/SP,-23.396266,-46.3175449,1
1,Arvorezinha/RS,-28.87369,-52.17808,1
1,Assaí/PR,-23.3736041,-50.8454929,1
1,Assis Chateaubriand/PR,-24.4054826,-53.5120468,9
1,Assis/SP,-22.6620892,-50.420623,7
D1,Assis/SP,-22.6620892,-50.420623,1
1,Atibaia/SP,-23.1177393,-46.5547861,23
D1,Atibaia/SP,-23.1177393,-46.5547861,1
1,Augusto Corrêa/PA,-1.0229335,-46.6404029,4
1,Aurelino Leal/BA,-14.3167137,-39.3256107,1
1,Aurora do Pará/PA,-2.1323199,-47.558436,3
1,Aurora/SC,-27.3166417,-49.6368502,1
1,Autazes/AM,-3.5833283,-59.1301518,3
1,Avaré/SP,-23.1045215,-48.9259103,11
D1,Avaré/SP,-23.1045215,-48.9259103,1
1,Avaí/SP,-22.1564662,-49.3316395,1
1,Açailândia/MA,-4.9514278,-47.4844564,11
1,Açu/RN,-5.5836157,-36.9139541,29
D1,Açu/RN,-5.5836157,-36.9139541,1
1,Bacabal/MA,-4.2318132,-44.781167,9
D1,Bacabal/MA,-4.2318132,-44.781167,1
1,Bacabeira/MA,-2.9775747,-44.3155943,5
1,Bady Bassitt/SP,-20.9178969,-49.4517911,2
1,Bagé/RS,-31.3314264,-54.1062808,29
1,Balneário Arroio do Silva/SC,-28.9815269,-49.4189932,4
D1,Balneário Arroio do Silva/SC,-28.9815269,-49.4189932,1
1,Balneário Barra do Sul/SC,-26.459842,-48.6061471,1
1,Balneário Camboriú/SC,-26.9924395,-48.6339782,66
D1,Balneário Camboriú/SC,-26.9924395,-48.6339782,2
1,Balneário Gaivota/SC,-29.1553098,-49.5808712,2
D1,Balneário Gaivota/SC,-29.1553098,-49.5808712,1
1,Balneário Piçarras/SC,-26.7638889,-48.6716667,3
1,Balsa Nova/PR,-25.5842234,-49.6312741,5
1,Balsas/MA,-7.53214,-46.037163,4
1,Banabuiú/CE,-5.3046404,-38.919766,1
1,Bandeirantes/PR,-23.107788,-50.370407,3
D1,Bandeirantes/PR,-23.107788,-50.370407,1
1,Barbacena/MG,-21.2254524,-43.7735087,5
1,Barbalha/CE,-7.3121067,-39.3036427,3
1,Barcarena/PA,-1.5107945,-48.6190679,8
D1,Barcarena/PA,-1.5107945,-48.6190679,1
1,Barcelona/RN,-5.9514918,-35.9260284,1
1,Barcelos/AM,-0.9729214,-62.925635,1
D1,Barcelos/AM,-0.9729214,-62.925635,1
1,Bariri/SP,-22.0746355,-48.7394852,1
1,Barra Bonita/SP,-22.490859,-48.558349,3
1,Barra Mansa/RJ,-22.5394843,-44.1735129,20
D1,Barra Mansa/RJ,-22.5394843,-44.1735129,1
1,Barra Velha/SC,-26.6338203,-48.6835001,1
1,Barra de Santo Antônio/AL,-9.4038098,-35.5117693,1
1,Barra de São Miguel/PB,-7.7528088,-36.3170996,1
1,Barra do Choça/BA,-14.8638173,-40.5761637,1
1,Barra do Garças/MT,-15.8916033,-52.2615413,3
D1,Barra do Garças/MT,-15.8916033,-52.2615413,1
1,Barra do Piraí/RJ,-22.4703403,-43.8263256,16
D1,Barra do Piraí/RJ,-22.4703403,-43.8263256,3
1,Barra do Rocha/BA,-14.2090974,-39.6004395,3
1,Barra do Turvo/SP,-24.756421,-48.5056942,1
1,Barra dos Coqueiros/SE,-10.9075694,-37.0386249,1
1,Barra/BA,-11.0892702,-43.1420453,2
1,Barracão/PR,-26.252395,-53.6349576,1
1,Barreira/CE,-4.2883361,-38.641094,1
1,Barreiras/BA,-12.1440031,-44.9967406,1
1,Barreirinhas/MA,-2.7541271,-42.8259693,2
1,Barretos/SP,-20.5531437,-48.5697509,19
D1,Barretos/SP,-20.5531437,-48.5697509,2
1,Barrinha/SP,-21.1898849,-48.1550642,1
1,Barro Alto/GO,-14.9696025,-48.9190985,1
1,Barro Preto/BA,-14.8068289,-39.4727588,1
1,Barroquinha/CE,-3.0200371,-41.1339229,1
1,Barueri/SP,-23.5112184,-46.8764612,219
D1,Barueri/SP,-23.5112184,-46.8764612,13
1,Bataguassu/MS,-21.715899,-52.422058,2
1,Batatais/SP,-20.892867,-47.592149,1
1,Batayporã/MS,-22.2976466,-53.2685608,6
D1,Batayporã/MS,-22.2976466,-53.2685608,2
1,Baturité/CE,-4.3290203,-38.8821055,4
1,Bauru/SP,-22.3218102,-49.0705863,69
D1,Bauru/SP,-22.3218102,-49.0705863,6
1,Bayeux/PB,-7.1301631,-34.936532,15
D1,Bayeux/PB,-7.1301631,-34.936532,1
1,Baía Formosa/RN,-6.3691885,-35.0063741,1
1,Bebedouro/SP,-20.949077,-48.479083,3
1,Beberibe/CE,-4.1810469,-38.1298101,7
1,Bela Cruz/CE,-3.0529129,-40.167582,5
1,Bela Vista de Goiás/GO,-16.9692949,-48.9513071,1
1,Belford Roxo/RJ,-22.7667284,-43.4033603,117
D1,Belford Roxo/RJ,-22.7667284,-43.4033603,8
1,Belmiro Braga/MG,-21.9486291,-43.413564,1
D1,Belmiro Braga/MG,-21.9486291,-43.413564,1
1,Belmonte/BA,-15.8630837,-38.8792845,2
D1,Belmonte/BA,-15.8630837,-38.8792845,1
1,Belo Horizonte/MG,-19.9227318,-43.9450948,528
D1,Belo Horizonte/MG,-19.9227318,-43.9450948,11
1,Belo Jardim/PE,-8.3338293,-36.4176419,5
D1,Belo Jardim/PE,-8.3338293,-36.4176419,1
1,Belo Oriente/MG,-19.2232523,-42.4807033,1
1,Belo Vale/MG,-20.407778,-44.024167,1
D1,Belo Vale/MG,-20.407778,-44.024167,1
1,Belém/PA,-1.45056,-48.4682453,1095
D1,Belém/PA,-1.45056,-48.4682453,59
1,Benevides/PA,-1.3555577,-48.252235,11
D1,Benevides/PA,-1.3555577,-48.252235,1
1,Benjamin Constant/AM,-4.3782748,-70.0290603,10
1,Bento Fernandes/RN,-5.6926846,-35.8207423,2
1,Bento Gonçalves/RS,-29.1654014,-51.5197627,17
1,Beruri/AM,-3.9007135,-61.3717319,5
D1,Beruri/AM,-3.9007135,-61.3717319,1
1,Betim/MG,-19.968056,-44.198333,13
1,Betânia do Piauí/PI,-8.1460635,-40.7961387,1
1,Bezerros/PE,-8.2372132,-35.7558262,1
1,Bicas/MG,-21.7213723,-43.0604327,1
1,Biguaçu/SC,-27.4961277,-48.6542432,3
1,Bilac/SP,-21.403962,-50.47464,1
1,Birigui/SP,-21.2908491,-50.34144,11
1,Biritiba-Mirim/SP,-23.5697765,-46.0407456,2
1,Blumenau/SC,-26.9195567,-49.0658025,90
1,Boa Esperança/ES,-18.5395472,-40.2904088,1
1,Boa Esperança/MG,-21.0901253,-45.5660195,9
1,Boa Viagem/CE,-5.1261877,-39.7300055,1
1,Boa Vista da Aparecida/PR,-25.4357216,-53.4067721,1
1,Boa Vista/RR,2.8208478,-60.6719582,356
D1,Boa Vista/RR,2.8208478,-60.6719582,3
1,Boca da Mata/AL,-9.6452054,-36.2116658,1
1,Boca do Acre/AM,-8.7553487,-67.3930873,1
D1,Boca do Acre/AM,-8.7553487,-67.3930873,1
1,Boituva/SP,-23.2838893,-47.6738231,7
1,Bom Conselho/PE,-9.169191,-36.685683,2
D1,Bom Conselho/PE,-9.169191,-36.685683,1
1,Bom Despacho/MG,-19.7375242,-45.2517288,1
1,Bom Jardim/PE,-7.7961572,-35.5871696,3
D1,Bom Jardim/PE,-7.7961572,-35.5871696,1
1,Bom Jardim/RJ,-22.1515328,-42.4186683,4
D1,Bom Jardim/RJ,-22.1515328,-42.4186683,1
1,Bom Jesus de Goiás/GO,-18.2174587,-49.739721,2
1,Bom Jesus do Itabapoana/RJ,-21.1341025,-41.680095,7
D1,Bom Jesus do Itabapoana/RJ,-21.1341025,-41.680095,1
1,Bom Jesus do Norte/ES,-21.1254776,-41.6711646,8
1,Bom Jesus dos Perdões/SP,-23.1353864,-46.4648052,1
1,Bom Jesus/PB,-6.8156725,-38.6551841,1
1,Bom Jesus/PI,-9.0711644,-44.3583926,2
1,Bom Princípio do Piauí/PI,-3.1912777,-41.6430185,1
D1,Bom Princípio do Piauí/PI,-3.1912777,-41.6430185,1
1,Bom Retiro do Sul/RS,-29.6000007,-51.9359243,4
1,Bonfim do Piauí/PI,-9.1648678,-42.8734415,1
1,Bonfim/MG,-20.3266626, -44.2386157,1
D1,Bonfim/MG,-20.3266626, -44.2386157,1
1,Bonfim/RR,3.3613818,-59.8427241,4
1,Bonito/PE,-8.4721161,-35.7314591,2
D1,Bonito/PE,-8.4721161,-35.7314591,1
1,Boqueirão/PB,-7.487004,-36.130887,1
1,Borborema/SP,-21.6212706,-49.074135,1
1,Borda da Mata/MG,-22.274167,-46.165278,2
1,Borebi/SP,-22.5700178,-48.9714871,2
1,Botelhos/MG,-21.65,-46.394722,1
1,Botucatu/SP,-22.8879628,-48.4410712,38
D1,Botucatu/SP,-22.8879628,-48.4410712,2
1,Botuverá/SC,-27.200749,-49.068892,3
1,Bragança Paulista/SP,-22.9520235,-46.5418586,39
D1,Bragança Paulista/SP,-22.9520235,-46.5418586,9
1,Bragança/PA,-1.0573967,-46.7635406,13
D1,Bragança/PA,-1.0573967,-46.7635406,1
1,Brasília de Minas/MG,-16.2075114,-44.430559,2
1,Brasília/DF,-15.7934036,-47.8823172,1253
D1,Brasília/DF,-15.7934036,-47.8823172,27
1,Braço do Norte/SC,-28.2728633,-49.1622712,28
D1,Braço do Norte/SC,-28.2728633,-49.1622712,2
1,Brejetuba/ES,-20.1465817,-41.2902303,1
1,Brejo Santo/CE,-7.4909841,-38.9859152,2
1,Brejo do Cruz/PB,-6.32926065,-37.48746163303929,1
D1,Brejo do Cruz/PB,-6.32926065,-37.48746163303929,1
1,Breves/PA,-1.68036,-50.479085,11
D1,Breves/PA,-1.68036,-50.479085,1
1,Brodowski/SP,-20.984532,-47.657217,4
1,Brumado/BA,-14.29507325,-41.659307508575985,8
1,Brusque/SC,-27.0964628,-48.9136323,37
1,Buerarema/BA,-14.9571177,-39.3008035,7
1,Bujari/AC,-9.8309656,-67.9520886,1
1,Bujaru/PA,-1.5169239,-48.0410699,3
1,Buritama/SP,-21.0664017,-50.1448077,4
1,Buritis/RO,-10.2054937,-63.8281954,1
0,CASO SEM LOCALIZAÇÃO DEFINIDA/AC,-9.884083190922777,-67.85119819780795,45
0,CASO SEM LOCALIZAÇÃO DEFINIDA/AL,-9.931093434363673,-35.609611600637464,68
D0,CASO SEM LOCALIZAÇÃO DEFINIDA/AL,-9.931093434363673,-35.609611600637464,5
0,CASO SEM LOCALIZAÇÃO DEFINIDA/AM,-3.07518492149711,-60.16169212873594,639
D0,CASO SEM LOCALIZAÇÃO DEFINIDA/AM,-3.07518492149711,-60.16169212873594,49
0,CASO SEM LOCALIZAÇÃO DEFINIDA/AP,2.677150600275196,-50.477785111870624,109
D0,CASO SEM LOCALIZAÇÃO DEFINIDA/AP,2.677150600275196,-50.477785111870624,1
0,CASO SEM LOCALIZAÇÃO DEFINIDA/BA,-13.415069300066518,-38.14174656569957,148
D0,CASO SEM LOCALIZAÇÃO DEFINIDA/BA,-13.415069300066518,-38.14174656569957,2
0,CASO SEM LOCALIZAÇÃO DEFINIDA/CE,-3.3445126297392798,-38.624961942434304,1183
D0,CASO SEM LOCALIZAÇÃO DEFINIDA/CE,-3.3445126297392798,-38.624961942434304,35
0,CASO SEM LOCALIZAÇÃO DEFINIDA/ES,-20.30989267097039,-39.81745156645774,208
D0,CASO SEM LOCALIZAÇÃO DEFINIDA/ES,-20.30989267097039,-39.81745156645774,1
0,CASO SEM LOCALIZAÇÃO DEFINIDA/GO,-16.701590966270153,-49.164524059025034,68
D0,CASO SEM LOCALIZAÇÃO DEFINIDA/GO,-16.701590966270153,-49.164524059025034,1
0,CASO SEM LOCALIZAÇÃO DEFINIDA/MA,-2.171256551718846,-43.98946796681719,187
0,CASO SEM LOCALIZAÇÃO DEFINIDA/MG,-19.97049116501593,-43.8852149072783,81
D0,CASO SEM LOCALIZAÇÃO DEFINIDA/MG,-19.97049116501593,-43.8852149072783,3
0,CASO SEM LOCALIZAÇÃO DEFINIDA/MS,-20.391549234908513,-54.645156949758444,17
0,CASO SEM LOCALIZAÇÃO DEFINIDA/MT,-15.54791153961863,-56.17143998972475,8
0,CASO SEM LOCALIZAÇÃO DEFINIDA/PA,-0.09317078214359542,-48.0050231510481,238
D0,CASO SEM LOCALIZAÇÃO DEFINIDA/PA,-0.09317078214359542,-48.0050231510481,5
0,CASO SEM LOCALIZAÇÃO DEFINIDA/PB,-7.1049355696146606,-34.68696690234351,44
0,CASO SEM LOCALIZAÇÃO DEFINIDA/PE,-8.121628543819208,-34.57313921302556,1870
D0,CASO SEM LOCALIZAÇÃO DEFINIDA/PE,-8.121628543819208,-34.57313921302556,68
0,CASO SEM LOCALIZAÇÃO DEFINIDA/PR,-25.69415946385943,-48.10141676336737,16
D0,CASO SEM LOCALIZAÇÃO DEFINIDA/PR,-25.69415946385943,-48.10141676336737,3
0,CASO SEM LOCALIZAÇÃO DEFINIDA/RJ,-23.210238986465157,-43.12864305824042,283
D0,CASO SEM LOCALIZAÇÃO DEFINIDA/RJ,-23.210238986465157,-43.12864305824042,30
0,CASO SEM LOCALIZAÇÃO DEFINIDA/RN,-5.749310788669161,-34.95302586257457,52
D0,CASO SEM LOCALIZAÇÃO DEFINIDA/RN,-5.749310788669161,-34.95302586257457,5
0,CASO SEM LOCALIZAÇÃO DEFINIDA/RO,-8.681174926655274,-63.9216949899276,74
D0,CASO SEM LOCALIZAÇÃO DEFINIDA/RO,-8.681174926655274,-63.9216949899276,5
0,CASO SEM LOCALIZAÇÃO DEFINIDA/RS,-30.50647488532064,-49.906261466443524,42
0,CASO SEM LOCALIZAÇÃO DEFINIDA/SC,-27.675643660562308,-48.18313219398259,120
0,CASO SEM LOCALIZAÇÃO DEFINIDA/SE,-11.03002091978736,-36.89283180376513,5
0,CASO SEM LOCALIZAÇÃO DEFINIDA/SP,-24.30968974555485,-46.21366504207253,774
D0,CASO SEM LOCALIZAÇÃO DEFINIDA/SP,-24.30968974555485,-46.21366504207253,33
1,Caapiranga/AM,-3.3188884,-61.2096404,1
1,Caaporã/PB,-7.510234,-34.9154114,1
1,Cabedelo/PB,-6.97324,-34.8351609,16
D1,Cabedelo/PB,-6.97324,-34.8351609,2
1,Cabo Frio/RJ,-22.8804369,-42.0189227,26
D1,Cabo Frio/RJ,-22.8804369,-42.0189227,3
1,Cabo de Santo Agostinho/PE,-8.2838945,-35.0320984,33
D1,Cabo de Santo Agostinho/PE,-8.2838945,-35.0320984,12
1,Cabreúva/SP,-23.3075813,-47.1324417,1
1,Cachoeira Grande/MA,-2.9290492,-44.0573223,4
1,Cachoeira Paulista/SP,-22.666498,-45.015384,3
1,Cachoeira do Arari/PA,-1.0143572,-48.9621089,5
1,Cachoeira do Sul/RS,-30.0474778,-52.8905413,2
1,Cachoeira/BA,-12.5998256,-38.9665918,1
1,Cachoeiras de Macacu/RJ,-22.4626861,-42.6534414,9
D1,Cachoeiras de Macacu/RJ,-22.4626861,-42.6534414,1
1,Cachoeirinha/PE,-8.4906364,-36.2338963,8
1,Cachoeirinha/RS,-29.9493353,-51.0898927,9
1,Cachoeiro de Itapemirim/ES,-20.848084,-41.11129,8
1,Caeté/MG,-19.897777,-43.670278,2
1,Caiabu/SP,-22.0143038,-51.2356597,1
D1,Caiabu/SP,-22.0143038,-51.2356597,1
1,Caicó/RN,-6.4594544,-37.0971911,1
1,Caieiras/SP,-23.3644621,-46.7484765,61
D1,Caieiras/SP,-23.3644621,-46.7484765,10
1,Cajamar/SP,-23.3561111,-46.8769444,20
D1,Cajamar/SP,-23.3561111,-46.8769444,3
1,Cajapió/MA,-2.8778715,-44.6746871,1
1,Cajati/SP,-24.7272376,-48.1077914,4
1,Cajazeiras/PB,-6.8897849,-38.5570389,4
D1,Cajazeiras/PB,-6.8897849,-38.5570389,1
1,Cajuru/SP,-21.2759978,-47.3046035,2
1,Caldas Novas/GO,-17.745,-48.625,1
1,Caldeirão Grande/BA,-11.0208483,-40.3041387,1
1,Camacan/BA,-15.4166631,-39.4930088,1
1,Camanducaia/MG,-22.755278,-46.144444,2
1,Camaquã/RS,-30.8524752,-51.8075619,1
1,Camaragibe/PE,-8.0213832,-34.9810768,118
D1,Camaragibe/PE,-8.0213832,-34.9810768,14
1,Camaçari/BA,-12.6998188,-38.3260762,35
D1,Camaçari/BA,-12.6998188,-38.3260762,1
1,Camboriú/SC,-27.0273601,-48.6535657,63
D1,Camboriú/SC,-27.0273601,-48.6535657,3
1,Cambuquira/MG,-21.853056,-45.2953619,2
1,Cambuí/MG,-22.6122501,-46.0572137,8
1,Cambé/PR,-23.2782035,-51.2779583,6
1,Cametá/PA,-2.242949,-49.497885,6
D1,Cametá/PA,-2.242949,-49.497885,1
1,Camocim de São Félix/PE,-8.3616757,-35.7638903,1
1,Camocim/CE,-2.9009918,-40.8427389,1
1,Campestre da Serra/RS,-28.7966535,-51.0958149,1
1,Campestre de Goiás/GO,-16.7624179,-49.69497,1
1,Campina Grande do Sul/PR,-25.3046032,-49.0545355,5
1,Campina Grande/PB,-7.2246743,-35.8771292,39
D1,Campina Grande/PB,-7.2246743,-35.8771292,2
1,Campina da Lagoa/PR,-24.5937926,-52.8038965,1
D1,Campina da Lagoa/PR,-24.5937926,-52.8038965,1
1,Campinas do Sul/RS,-27.7167968,-52.6257885,1
1,Campinas/SP,-22.90556,-47.06083,256
D1,Campinas/SP,-22.90556,-47.06083,11
1,Campinorte/GO,-14.3136699,-49.1510931,1
1,Campo Alegre de Lourdes/BA,-9.5160326,-43.0101338,2
1,Campo Belo/MG,-20.8975,-45.277223,3
1,Campo Bom/RS,-29.674694,-51.060601,4
1,Campo Formoso/BA,-10.51055,-40.320031,1
1,Campo Grande/MS,-20.4640173,-54.6162947,110
D1,Campo Grande/MS,-20.4640173,-54.6162947,2
1,Campo Largo/PR,-25.4597726,-49.5270851,18
D1,Campo Largo/PR,-25.4597726,-49.5270851,2
1,Campo Limpo Paulista/SP,-23.207791,-46.788919,10
D1,Campo Limpo Paulista/SP,-23.207791,-46.788919,2
1,Campo Magro/PR,-25.3691533,-49.4496921,1
1,Campo Maior/PI,-4.8339574,-42.1739786,3
1,Campo Mourão/PR,-24.046329,-52.37802,27
D1,Campo Mourão/PR,-24.046329,-52.37802,4
1,Campo Novo do Parecis/MT,-13.658735,-57.890723,1
1,Campo Redondo/RN,-6.2420373,-36.1830606,1
1,Campos Altos/MG,-19.696389,-46.171389,1
1,Campos Gerais/MG,-21.2333342,-45.7584127,1
1,Campos Sales/CE,-7.0742675,-40.3740367,1
1,Campos do Jordão/SP,-22.7395263,-45.5912829,3
1,Campos dos Goytacazes/RJ,-21.7558619,-41.3326895,8
D1,Campos dos Goytacazes/RJ,-21.7558619,-41.3326895,1
1,Cananéia/SP,-25.0104609,-47.9315628,4
1,Canarana/BA,-11.6870151,-41.7683675,2
1,Canarana/MT,-13.5564602,-52.2691167,1
1,Canavieiras/BA,-15.61621745,-39.08485321304444,9
1,Canaã dos Carajás/PA,-6.5296837,-49.8516592,2
D1,Canaã dos Carajás/PA,-6.5296837,-49.8516592,1
1,Candeias/BA,-12.6693806,-38.5406462,5
1,Candelária/RS,-29.668391,-52.789495,2
1,Canelinha/SC,-27.2660341,-48.7666708,1
1,Canguaretama/RN,-6.3751942,-35.137463,11
D1,Canguaretama/RN,-6.3751942,-35.137463,3
1,Canguçu/RS,-31.398276,-52.6773522,2
1,Canindé/CE,-4.3547946,-39.3108516,11
1,Canoas/RS,-29.9216045,-51.1799525,21
D1,Canoas/RS,-29.9216045,-51.1799525,1
1,Cansanção/BA,-10.6671448,-39.498199,1
1,Cantagalo/RJ,-21.9811325,-42.3682522,1
1,Cantanhede/MA,-3.6355005,-44.3778738,1
1,Canto do Buriti/PI,-8.1112473,-42.944844,1
1,Cantá/RR,2.60994,-60.605827,4
1,Canutama/AM,-6.5330019,-64.3834966,1
1,Capanema/PA,-1.1933054,-47.1828679,13
1,Capela do Alto/SP,-23.4704798,-47.7352309,1
1,Capela/AL,-9.415041,-36.082583,1
1,Capela/SE,-10.50494,-37.0552566,1
1,Capim Grosso/BA,-11.3793228,-40.0112095,2
D1,Capim Grosso/BA,-11.3793228,-40.0112095,1
1,Capistrano/CE,-4.4644692,-38.8956734,2
D1,Capistrano/CE,-4.4644692,-38.8956734,1
1,Capitão Poço/PA,-1.7447162,-47.0638495,2
1,Capitólio/MG,-20.6142437,-46.0487652,1
1,Capivari de Baixo/SC,-28.449773,-48.963144,3
1,Capoeiras/PE,-8.7386788,-36.6268109,1
1,Capão Bonito/SP,-24.0048759,-48.3489848,1
1,Capão da Canoa/RS,-29.7542937,-50.0215684,7
1,Capão do Leão/RS,-31.766133,-52.5013148,1
1,Caracol/PI,-9.2804898,-43.3284924,1
1,Caraguatatuba/SP,-23.62028,-45.41306,18
D1,Caraguatatuba/SP,-23.62028,-45.41306,2
1,Carangola/MG,-20.733056,-42.029445,1
1,Carapebus/RJ,-22.1869969,-41.6633764,1
1,Carapicuíba/SP,-23.5234673,-46.8406808,149
D1,Carapicuíba/SP,-23.5234673,-46.8406808,7
1,Carauari/AM,-4.8766426,-66.8961433,4
D1,Carauari/AM,-4.8766426,-66.8961433,2
1,Carazinho/RS,-28.2981634,-52.7942363,8
1,Caraúbas/RN,-5.7889323,-37.5548751,1
1,Careiro da Várzea/AM,-3.197024,-59.8259104,3
1,Careiro/AM,-3.8185277,-60.3616505,16
D1,Careiro/AM,-3.8185277,-60.3616505,2
1,Cariacica/ES,-20.263202,-40.416549,167
D1,Cariacica/ES,-20.263202,-40.416549,4
1,Caridade/CE,-4.2316487,-39.1946515,6
D1,Caridade/CE,-4.2316487,-39.1946515,1
1,Cariri do Tocantins/TO,-11.8882727,-49.1604216,1
1,Cariré/CE,-3.948584,-40.476028,2
1,Cariús/CE,-6.5348688,-39.4966658,1
D1,Cariús/CE,-6.5348688,-39.4966658,1
1,Carlos Barbosa/RS,-29.2978372,-51.5005613,6
1,Carlos Chagas/MG,-21.744351,-43.3908675,1
1,Carmo da Cachoeira/MG,-21.460556,-45.223334,1
1,Carmo do Cajuru/MG,-20.184444,-44.770834,2
1,Carmo do Rio Verde/GO,-15.3549139,-49.707975,3
1,Carnaubais/RN,-5.3383681,-36.8335566,1
1,Carnaubal/CE,-4.1611842,-40.9412317,1
1,Carnaíba/PE,-7.805964,-37.7947314,1
D1,Carnaíba/PE,-7.805964,-37.7947314,1
1,Carnaúba dos Dantas/RN,-6.5560588,-36.5930811,1
D1,Carnaúba dos Dantas/RN,-6.5560588,-36.5930811,1
1,Caroebe/RR,0.8812315,-59.6932274,3
1,Carpina/PE,-7.8459151,-35.2538861,4
1,Caruaru/PE,-8.2829702,-35.9722852,17
D1,Caruaru/PE,-8.2829702,-35.9722852,3
1,Cascavel/CE,-4.129666,-38.241178,11
D1,Cascavel/CE,-4.129666,-38.241178,1
1,Cascavel/PR,-24.9554996,-53.4560544,69
D1,Cascavel/PR,-24.9554996,-53.4560544,4
1,Casimiro de Abreu/RJ,-22.4809932,-42.2039976,14
1,Castanhal/PA,-1.2927031,-47.9223903,48
1,Castelo do Piauí/PI,-5.3230426,-41.5546185,2
1,Castelo/ES,-20.6034476,-41.2033505,4
1,Castilho/SP,-20.8695636,-51.4877792,2
1,Castro Alves/BA,-12.7616941,-39.4281088,1
1,Castro/PR,-24.794072,-49.9972914,2
1,Cataguases/MG,-21.387426,-42.6957219,3
D1,Cataguases/MG,-21.387426,-42.6957219,1
1,Catalão/GO,-18.1702546,-47.9447082,1
1,Catanduva/SP,-21.1331035,-48.9712817,10
D1,Catanduva/SP,-21.1331035,-48.9712817,3
1,Catanduvas/SC,-27.0689719,-51.660158,3
1,Catarina/CE,-6.1341578,-39.8795321,1
1,Catende/PE,-8.6900588,-35.748470825,3
D1,Catende/PE,-8.6900588,-35.748470825,1
1,Catu/BA,-12.351274,-38.379108,4
D1,Catu/BA,-12.351274,-38.379108,1
1,Caucaia/CE,-3.7300563,-38.6593082,181
D1,Caucaia/CE,-3.7300563,-38.6593082,8
1,Caxias do Sul/RS,-29.1684796,-51.1793861,45
1,Caxias/MA,-4.8654201,-43.353664,13
1,Caçador/SC,-26.77567,-51.0120041,5
1,Caçapava/SP,-23.099204,-45.707645,9
1,Ceará-Mirim/RN,-5.633588,-35.4248407,10
D1,Ceará-Mirim/RN,-5.633588,-35.4248407,1
1,Cedral/SP,-20.9028433,-49.2699665,1
1,Centralina/MG,-18.5843349,-49.1954739,1
1,Ceres/GO,-15.3103568,-49.6032054,4
1,Cerro Corá/RN,-6.0412685,-36.3464694,1
D1,Cerro Corá/RN,-6.0412685,-36.3464694,1
1,Cerro Grande do Sul/RS,-30.5962963,-51.7517196,1
1,Chapada/RS,-28.0587829,-53.0657459,2
1,Chapadinha/MA,-3.7416803,-43.3548006,6
1,Chapadão do Sul/MS,-18.7949051,-52.6199512,9
1,Chapecó/SC,-27.0922364,-52.6166878,11
1,Charqueadas/RS,-29.955012,-51.6249195,2
1,Chavantes/SP,-23.0406405,-49.7071698,1
1,Chopinzinho/PR,-25.8566167,-52.5294107,1
1,Chorozinho/CE,-4.3010895,-38.4976923,3
1,Chã Grande/PE,-8.238271,-35.457148,4
1,Chã de Alegria/PE,-7.9959409,-35.2134636,4
1,Cianorte/PR,-23.662036,-52.6103989,15
D1,Cianorte/PR,-23.662036,-52.6103989,1
1,Cidade Ocidental/GO,-16.1000758,-47.9445014,5
1,Cidreira/RS,-30.1657063,-50.218331,2
D1,Cidreira/RS,-30.1657063,-50.218331,1
1,Coaraci/BA,-14.6407979,-39.5496765,9
1,Coari/AM,-4.0885957,-63.1431166,2
1,Cocal do Sul/SC,-28.6007346,-49.3248697,1
D1,Cocal do Sul/SC,-28.6007346,-49.3248697,1
1,Codajás/AM,-3.8413202,-62.0603444,1
1,Codó/MA,-4.455623,-43.892354,1
1,Colares/PA,-0.936423,-48.280254,1
1,Colatina/ES,-19.5346732,-40.6287836,19
1,Colinas/MA,-6.0332631,-44.2528542,4
1,Colombo/PR,-25.2925439,-49.2243472,10
1,Colônia do Gurguéia/PI,-8.183697,-43.793999,2
1,Conceição das Alagoas/MG,-19.9194009,-48.3803414,2
1,Conceição de Macabu/RJ,-22.0849986,-41.8679947,2
1,Conceição do Araguaia/PA,-8.2696905,-49.2676864,1
1,Conceição do Coité/BA,-11.5629384,-39.2839543,2
1,Conceição do Jacuípe/BA,-12.326831,-38.768433,1
1,Conchas/SP,-23.0133538,-48.0077595,1
D1,Conchas/SP,-23.0133538,-48.0077595,1
1,Concórdia do Pará/PA,-1.9924056,-47.9450474,1
1,Concórdia/SC,-27.2312011,-52.0231024,15
1,Condado/PE,-7.587868,-35.09994,1
1,Conde/BA,-11.8129758,-37.6138705,1
1,Conde/PB,-7.2600359,-34.9053524,5
D1,Conde/PB,-7.2600359,-34.9053524,1
1,Confresa/MT,-10.643695,-51.569873,1
1,Congo/PB,-7.80963435,-36.641233278035656,1
1,Conquista D'Oeste/MT,-14.5381171,-59.5443775,1
1,Conselheiro Lafaiete/MG,-20.6596107,-43.785743,12
1,Contagem/MG,-19.9132749,-44.0840953,45
D1,Contagem/MG,-19.9132749,-44.0840953,2
1,Contenda/PR,-25.678811,-49.535044,1
1,Coração de Maria/BA,-12.2484345,-38.7499274,1
1,Cordeirópolis/SP,-22.4768324,-47.4550551,1
1,Coreaú/CE,-3.5519794,-40.6528409,21
1,Coremas/PB,-7.0175897,-37.9465062,1
1,Cornélio Procópio/PR,-23.1825218,-50.6499263,1
1,Coromandel/MG,-18.473889,-47.200278,5
1,Coronel Fabriciano/MG,-19.5200067,-42.6282686,6
1,Coronel João Pessoa/RN,-6.2607103,-38.4424915,1
1,Correntes/PE,-9.1295585,-36.3287438,1
1,Corumbá/MS,-19.0016365,-57.6534316,4
1,Cotia/SP,-23.603889,-46.918889,117
D1,Cotia/SP,-23.603889,-46.918889,10
1,Couto Magalhães/TO,-8.360583,-49.1773955,1
1,Coxim/MS,-18.504915,-54.7450251,1
1,Coxixola/PB,-7.6272915,-36.606013,1
1,Crateús/CE,-5.1782451,-40.6696545,13
1,Crato/CE,-7.2369112,-39.4149236,4
1,Cravinhos/SP,-21.340278,-47.729444,8
D1,Cravinhos/SP,-21.340278,-47.729444,1
1,Cravolândia/BA,-13.3576247,-39.8153954,2
1,Criciúma/SC,-28.6789941,-49.3695627,48
D1,Criciúma/SC,-28.6789941,-49.3695627,4
1,Croatá/CE,-4.4156199,-40.9048081,1
1,Cruz das Almas/BA,-12.6722649,-39.1053665,2
1,Cruz do Espírito Santo/PB,-7.139022,-35.085721,2
1,Cruzeiro do Sul/AC,-7.6307956,-72.6703869,5
1,Cruzeiro do Sul/PR,-22.9623678,-52.1625688,1
1,Cruzeiro do Sul/RS,-29.5139742,-51.9917068,3
1,Cruzeiro/SP,-22.5783685,-44.9642044,3
D1,Cruzeiro/SP,-22.5783685,-44.9642044,1
1,Cubatão/SP,-23.8857982,-46.4241869,30
1,Cuiabá/MT,-15.5986686,-56.0991301,124
D1,Cuiabá/MT,-15.5986686,-56.0991301,1
1,Cupira/PE,-8.6053148,-35.9530366,1
1,Curaçá/BA,-8.9925655,-39.9053169,8
1,Curionópolis/PA,-6.0990443,-49.6059039,1
D1,Curionópolis/PA,-6.0990443,-49.6059039,1
1,Curitiba/PR,-25.4295963,-49.2712724,401
D1,Curitiba/PR,-25.4295963,-49.2712724,14
1,Currais Novos/RN,-6.2626676,-36.5173039,2
1,Curralinho/PA,-1.8137876,-49.7980165,3
1,Cururupu/MA,-1.824255,-44.872996,1
D1,Cururupu/MA,-1.824255,-44.872996,1
1,Curuçá/PA,-0.7276792,-47.856568,3
1,Custódia/PE,-8.0861426,-37.6401873,1
D1,Custódia/PE,-8.0861426,-37.6401873,1
1,Cáceres/MT,-16.0658939,-57.6852775,4
D1,Cáceres/MT,-16.0658939,-57.6852775,1
1,Davinópolis/MA,-5.5265775,-47.3942217,2
D1,Davinópolis/MA,-5.5265775,-47.3942217,1
1,Delmiro Gouveia/AL,-9.3841161,-37.997756,1
1,Demerval Lobão/PI,-5.3640643,-42.673993,2
1,Diadema/SP,-23.681347,-46.62052,170
D1,Diadema/SP,-23.681347,-46.62052,11
1,Dianópolis/TO,-11.624008,-46.819787,1
1,Dias d'Ávila/BA,-12.6107233,-38.3028518,5
1,Divinésia/MG,-20.990277,-43.003889,1
1,Divinópolis/MG,-20.1434559,-44.89125,58
D1,Divinópolis/MG,-20.1434559,-44.89125,1
1,Dobrada/SP,-21.5180904,-48.3938897,1
1,Dois Irmãos/RS,-29.58356,-51.089776,3
1,Dois Vizinhos/PR,-25.7464681,-53.0554369,1
1,Dom Pedrito/RS,-30.983755,-54.6746483,1
1,Domingos Martins/ES,-20.3646483,-40.6585797,7
1,Dourados/MS,-22.2206145,-54.812208,11
1,Dracena/SP,-21.4835523,-51.5334408,4
D1,Dracena/SP,-21.4835523,-51.5334408,2
1,Duartina/SP,-22.414562,-49.408355,1
1,Duque de Caxias/RJ,-22.7896225,-43.309929,278
D1,Duque de Caxias/RJ,-22.7896225,-43.309929,63
1,Eldorado do Sul/RS,-29.9984639,-51.3091977,2
1,Eldorado/SP,-24.522583,-48.1093489,1
D1,Eldorado/SP,-24.522583,-48.1093489,1
1,Elias Fausto/SP,-23.0416538,-47.3718002,1
1,Embu das Artes/SP,-23.6495294,-46.8528497,79
D1,Embu das Artes/SP,-23.6495294,-46.8528497,7
1,Embu-Guaçu/SP,-23.8317997,-46.8156204,15
D1,Embu-Guaçu/SP,-23.8317997,-46.8156204,3
1,Encantado/RS,-29.2392716,-51.8744817,6
1,Encanto/RN,-6.1107477,-38.3050953,4
D1,Encanto/RN,-6.1107477,-38.3050953,1
1,Encruzilhada do Sul/RS,-30.53619325,-52.51564721101029,2
D1,Encruzilhada do Sul/RS,-30.53619325,-52.51564721101029,1
1,Engenheiro Coelho/SP,-22.4896659,-47.2119005,1
1,Erechim/RS,-27.6350143,-52.2737288,5
1,Ererê/CE,-6.0311304,-38.3482173,1
1,Ernestina/RS,-28.498434,-52.5702451,1
1,Escada/PE,-8.3594071,-35.2232683,3
1,Esmeraldas/MG,-19.7613111,-44.3145945,1
1,Espera Feliz/MG,-20.6494192,-41.9080693,5
1,Esperantina/PI,-3.8950963,-42.2370595,4
1,Espinosa/MG,-14.9232007,-42.8093337,1
D1,Espinosa/MG,-14.9232007,-42.8093337,1
1,Espumoso/RS,-28.7256962,-52.8453751,4
1,Espírito Santo do Dourado/MG,-22.046666,-45.950833,1
1,Espírito Santo do Pinhal/SP,-22.190871,-46.74767,1
1,Esteio/RS,-29.8511627,-51.1778852,7
1,Estiva Gerbi/SP,-22.2754831,-46.9525448,1
1,Estiva/MG,-22.4638686,-46.0182101,1
1,Estrela d'Oeste/SP,-20.2860692,-50.3986216,1
1,Estrela/RS,-29.5010545,-51.962226,6
1,Estância Velha/RS,-29.6529666,-51.1719687,3
1,Estância/SE,-11.2682255,-37.4378341,14
1,Euclides da Cunha/BA,-10.5060835,-39.0129875,1
1,Eunápolis/BA,-16.3722412,-39.575704,16
1,Eusébio/CE,-3.8889838,-38.4546585,38
D1,Eusébio/CE,-3.8889838,-38.4546585,4
1,Extrema/MG,-22.8549109,-46.3190079,20
D1,Extrema/MG,-22.8549109,-46.3190079,1
1,Extremoz/RN,-5.7092903,-35.3058914,9
1,Faina/GO,-15.4458005,-50.3633826,1
1,Farias Brito/CE,-6.9272823,-39.5714222,1
D1,Farias Brito/CE,-6.9272823,-39.5714222,1
1,Farroupilha/RS,-29.22647,-51.3468188,10
1,Fartura/SP,-23.390039,-49.5109023,1
1,Faxinal/PR,-24.001065,-51.3223237,1
1,Fazenda Rio Grande/PR,-25.645841,-49.3126653,14
1,Feira Nova/PE,-7.9481471,-35.3871681,2
1,Feira de Santana/BA,-12.2578934,-38.9598047,66
D1,Feira de Santana/BA,-12.2578934,-38.9598047,1
1,Fernando Pedroza/RN,-5.6972558,-36.5316864,1
1,Fernando de Noronha/PE,-3.8561012,-32.4248189,28
1,Fernandópolis/SP,-20.2825647,-50.2500762,8
1,Ferraz de Vasconcelos/SP,-23.541056,-46.37097,67
D1,Ferraz de Vasconcelos/SP,-23.541056,-46.37097,3
1,Ferreiros/PE,-7.449667,-35.2426004,1
1,Ferros/MG,-19.234984,-43.019542,5
1,Flores da Cunha/RS,-29.030129,-51.1833349,1
1,Floresta Azul/BA,-14.8602238,-39.6561384,2
1,Floresta/PR,-23.6144046,-52.0819003,2
1,Floriano Peixoto/RS,-27.8603248,-52.0856015,1
1,Floriano/PI,-6.7726534,-43.0070616,4
1,Florianópolis/SC,-27.5973002,-48.5496098,252
D1,Florianópolis/SC,-27.5973002,-48.5496098,4
1,Fonte Boa/AM,-2.55,-66.91321428571428,2
1,Formiga/MG,-20.4648425,-45.4266753,1
1,Formosa/GO,-15.5492443,-47.3301212,4
1,Forquilhinha/SC,-28.7487602,-49.4737661,1
1,Fortaleza/CE,-3.7304512,-38.5217989,4063
D1,Fortaleza/CE,-3.7304512,-38.5217989,228
1,Fortim/CE,-4.451256,-37.798056,1
1,Foz do Iguaçu/PR,-25.5401479,-54.5858139,42
1,Franca/SP,-20.5381768,-47.4009795,6
1,Francinópolis/PI,-6.3962771,-42.2635654,2
1,Francisco Beltrão/PR,-26.0790979,-53.0533527,3
1,Francisco Morato/SP,-23.2817308,-46.7448996,49
D1,Francisco Morato/SP,-23.2817308,-46.7448996,2
1,Franco da Rocha/SP,-23.3328038,-46.724446,94
D1,Franco da Rocha/SP,-23.3328038,-46.724446,9
1,Frei Miguelinho/PE,-7.9433019,-35.920939,3
1,Frutal/MG,-20.0220064,-48.9280076,2
1,Fundão/ES,-19.9332174,-40.4049674,14
1,Gameleira/PE,-8.579803,-35.384573,1
D1,Gameleira/PE,-8.579803,-35.384573,1
1,Gandu/BA,-13.7448138,-39.4844732,1
1,Garanhuns/PE,-8.8905889,-36.4930896,7
D1,Garanhuns/PE,-8.8905889,-36.4930896,2
1,Garibaldi/RS,-29.2562253,-51.5269167,10
D1,Garibaldi/RS,-29.2562253,-51.5269167,1
1,Garopaba/SC,-28.0274798,-48.6240197,2
1,Garrafão do Norte/PA,-1.9282256,-47.0513157,1
1,Garça/SP,-22.2125766,-49.6547994,1
1,Gaspar/SC,-26.9307306,-48.9566824,8
D1,Gaspar/SC,-26.9307306,-48.9566824,1
1,Getúlio Vargas/RS,-27.8871493,-52.2257967,1
1,Glorinha/RS,-29.8790534,-50.7869437,1
1,Glória do Goitá/PE,-7.999959,-35.2866116,6
D1,Glória do Goitá/PE,-7.999959,-35.2866116,3
1,Goiana/PE,-7.560603,-34.99591,10
D1,Goiana/PE,-7.560603,-34.99591,3
1,Goiandira/GO,-18.1357087,-48.0866307,2
D1,Goiandira/GO,-18.1357087,-48.0866307,1
1,Goianira/GO,-16.5001973,-49.4254788,1
1,Goianá/MG,-21.5375,-43.2014,2
1,Goianésia do Pará/PA,-3.8380998,-49.0977992,4
1,Goianésia/GO,-15.3118269,-49.1162001,27
D1,Goianésia/GO,-15.3118269,-49.1162001,2
1,Goiatuba/GO,-18.0154577,-49.3640591,1
1,Goioerê/PR,-24.1851885,-53.0250623,4
1,Goiânia/GO,-16.680882,-49.2532691,273
D1,Goiânia/GO,-16.680882,-49.2532691,11
1,Gongogi/BA,-14.3240248,-39.4665106,4
D1,Gongogi/BA,-14.3240248,-39.4665106,2
1,Governador Celso Ramos/SC,-27.317161,-48.557608,3
1,Governador Edison Lobão/MA,-5.7456705,-47.363091,1
1,Governador Nunes Freire/MA,-2.1303959,-45.8900498,1
1,Governador Valadares/MG,-18.8539497,-41.9458753,14
D1,Governador Valadares/MG,-18.8539497,-41.9458753,2
1,Granja/CE,-3.1212057,-40.8284124,2
1,Gravatal/SC,-28.3300703,-49.0362296,11
1,Gravataí/RS,-29.9440222,-50.9930938,18
1,Gravatá/PE,-8.1993049,-35.5631137,4
1,Graça/CE,-4.0453849,-40.7527195,4
1,Groaíras/CE,-3.9157768,-40.3855093,4
1,Guabiruba/SC,-27.0864326,-48.9781319,2
1,Guairaçá/PR,-22.9352304,-52.6865101,3
D1,Guairaçá/PR,-22.9352304,-52.6865101,1
1,Guaiúba/CE,-4.0412656,-38.6369079,1
1,Guapimirim/RJ,-22.5266308,-42.9790687,5
1,Guapó/GO,-16.8308602,-49.5343721,1
1,Guarabira/PB,-6.8513982,-35.4915582,3
1,Guaraci/PR,-22.970394,-51.6479769,3
1,Guaraciaba do Norte/CE,-4.1632924,-40.7495985,1
1,Guaramirim/SC,-26.468753,-49.002628,1
1,Guaraniaçu/PR,-25.10035,-52.867811,5
1,Guaranésia/MG,-21.3024827,-46.7956962,1
1,Guarapari/ES,-20.6718755,-40.4984617,17
1,Guarapuava/PR,-25.3950986,-51.4622016,3
1,Guararapes/SP,-21.2537115,-50.6441746,5
1,Guararema/SP,-23.4133724,-46.0379249,3
1,Guaratinguetá/SP,-22.8057839,-45.1908926,1
1,Guaratuba/PR,-25.8806192,-48.5750905,1
1,Guarujá/SP,-23.9927768,-46.2558332,108
D1,Guarujá/SP,-23.9927768,-46.2558332,3
1,Guarulhos/SP,-23.4430602,-46.524459,455
D1,Guarulhos/SP,-23.4430602,-46.524459,51
1,Guaxupé/MG,-21.3087615,-46.7190609,3
1,Guaçuí/ES,-20.7726679,-41.6750657,6
1,Guaíba/RS,-30.1130731,-51.329442,2
1,Guaíra/PR,-24.0851924,-54.2567519,12
D1,Guaíra/PR,-24.0851924,-54.2567519,1
1,Guaíra/SP,-20.3245873,-48.3148818,1
1,Guimarânia/MG,-18.8442251,-46.7925141,1
1,Gurinhém/PB,-7.1244757,-35.424854,1
1,Gurupi/TO,-11.72794,-49.068046,1
1,Guzolândia/SP,-20.6491637,-50.6622974,1
1,Harmonia/RS,-29.549989,-51.422308,5
1,Herval d'Oeste/SC,-27.17361,-51.4903659,2
1,Hidrolândia/CE,-4.4084745,-40.4065472,2
1,Holambra/SP,-22.6332028,-47.0545305,1
1,Horizonte/CE,-4.0964618,-38.4965574,22
D1,Horizonte/CE,-4.0964618,-38.4965574,2
1,Hortolândia/SP,-22.85833,-47.22,14
1,Ibaiti/PR,-23.8452962,-50.1905666,1
1,Ibaretama/CE,-4.8194345,-38.8208476,1
D1,Ibaretama/CE,-4.8194345,-38.8208476,1
1,Ibateguara/AL,-8.9737196,-35.9279963,1
D1,Ibateguara/AL,-8.9737196,-35.9279963,1
1,Ibema/PR,-25.1192916,-53.0071928,11
1,Ibicaraí/BA,-14.8625311,-39.5890865,2
1,Ibicuitinga/CE,-4.9751759,-38.6368754,1
1,Ibimirim/PE,-8.5379259,-37.6941375,1
1,Ibiporã/PR,-23.265941,-51.052243,1
1,Ibirapuitã/RS,-28.6226503,-52.5170577,4
1,Ibirataia/BA,-14.0689024,-39.6394008,3
1,Ibiraçu/ES,-19.8309496,-40.3686594,2
1,Ibirité/MG,-20.0214251,-44.0621506,5
1,Ibirá/SP,-21.0815104,-49.2424619,1
1,Ibiúna/SP,-23.6548363,-47.2210116,5
1,Ibotirama/BA,-12.1829519,-43.2181138,2
1,Icapuí/CE,-4.7158474,-37.3535365,2
1,Icó/CE,-6.4003992,-38.8575946,5
1,Ielmo Marinho/RN,-5.8227944,-35.551993,1
1,Iepê/SP,-22.660165,-51.077881,1
D1,Iepê/SP,-22.660165,-51.077881,1
1,Igaracy/PB,-7.1819802,-38.1487395,1
1,Igarapava/SP,-20.0411471,-47.7477444,2
1,Igarapé-Açu/PA,-1.128244,-47.6199021,4
1,Igarassu/PE,-7.8354423,-34.9061125,29
D1,Igarassu/PE,-7.8354423,-34.9061125,7
1,Igaratá/SP,-23.2063475,-46.156934,2
1,Iguaba Grande/RJ,-22.8388498,-42.2286746,12
D1,Iguaba Grande/RJ,-22.8388498,-42.2286746,3
1,Iguape/SP,-24.7042692,-47.5563733,4
1,Iguatu/CE,-6.361934,-39.2972233,20
D1,Iguatu/CE,-6.361934,-39.2972233,4
1,Ilha Comprida/SP,-24.7445292,-47.5525529,13
D1,Ilha Comprida/SP,-24.7445292,-47.5525529,1
1,Ilha Grande/PI,-2.8520082,-41.8166904,1
1,Ilha Solteira/SP,-20.4281001,-51.3410871,1
1,Ilha de Itamaracá/PE,-7.747664,-34.830319,5
1,Ilhabela/SP,-23.816628,-45.368685,4
1,Ilhota/SC,-26.9022824,-48.8284968,1
1,Ilhéus/BA,-14.792599,-39.0453843,149
D1,Ilhéus/BA,-14.792599,-39.0453843,4
1,Imbaú/PR,-24.447597,-50.7557188,2
1,Imbituba/SC,-28.241827,-48.6643444,17
1,Imbé/RS,-29.975269,-50.128068,1
1,Imperatriz/MA,-5.5269279,-47.478115,88
D1,Imperatriz/MA,-5.5269279,-47.478115,3
1,Inajá/PE,-8.9011209,-37.8244194,1
1,Indaial/SC,-26.900011,-49.2370602,5
D1,Indaial/SC,-26.900011,-49.2370602,1
1,Indaiatuba/SP,-23.09028,-47.21806,14
D1,Indaiatuba/SP,-23.09028,-47.21806,3
1,Independência/CE,-5.3958538,-40.3108896,3
D1,Independência/CE,-5.3958538,-40.3108896,1
1,Indiaroba/SE,-11.5250972,-37.5075262,1
1,Inhangapi/PA,-1.4283738,-47.9108608,2
1,Inhuma/PI,-6.6694502,-41.7096008,1
1,Inhumas/GO,-16.3610569,-49.500111,3
1,Ipaba/MG,-19.411389,-42.42,2
1,Ipanguaçu/RN,-5.5090713,-36.8594421,4
D1,Ipanguaçu/RN,-5.5090713,-36.8594421,1
1,Ipaporanga/CE,-4.903227,-40.760079,2
1,Ipatinga/MG,-19.4777807,-42.5270802,13
1,Ipaumirim/CE,-6.7883197,-38.7172034,1
1,Ipiaçu/MG,-18.6934499,-49.9439567,1
1,Ipiaú/BA,-14.1318211,-39.7373177,16
D1,Ipiaú/BA,-14.1318211,-39.7373177,1
1,Ipiranga do Norte/MT,-12.2408004,-56.1531011,1
1,Ipirá/BA,-12.1578337,-39.7416605,4
1,Ipojuca/PE,-8.3980773,-35.0611068,14
D1,Ipojuca/PE,-8.3980773,-35.0611068,3
1,Ipubi/PE,-7.6535334,-40.1494078,2
1,Ipueiras/CE,-4.5427141,-40.7168461,2
D1,Ipueiras/CE,-4.5427141,-40.7168461,1
1,Ipuiúna/MG,-22.0993203,-46.1896557,1
1,Ipumirim/SC,-27.0762287,-52.135736,8
1,Iracema/CE,-5.8106219,-38.3028294,2
1,Iracemápolis/SP,-22.583234,-47.522963,1
1,Iranduba/AM,-3.2758203,-60.1867429,50
D1,Iranduba/AM,-3.2758203,-60.1867429,5
1,Irani/SC,-27.0230476,-51.9010675,6
1,Irati/SC,-26.6577742,-52.8929851,1
1,Irecê/BA,-11.3034853,-41.8557902,1
1,Iretama/PR,-24.4212538,-52.1023538,1
D1,Iretama/PR,-24.4212538,-52.1023538,1
1,Irupi/ES,-20.3469751,-41.639688,1
1,Itabaiana/PB,-7.331674,-35.331723,2
1,Itabaiana/SE,-10.6856197,-37.4270517,4
1,Itabaianinha/SE,-11.2760142,-37.78666,7
D1,Itabaianinha/SE,-11.2760142,-37.78666,1
1,Itabela/BA,-16.5743392,-39.561961,1
1,Itaberaba/BA,-12.524182,-40.305897,1
1,Itabira/MG,-19.6186264,-43.2267011,8
D1,Itabira/MG,-19.6186264,-43.2267011,1
1,Itaboraí/RJ,-22.7496231,-42.8557428,64
D1,Itaboraí/RJ,-22.7496231,-42.8557428,7
1,Itabuna/BA,-14.7869879,-39.2788778,114
D1,Itabuna/BA,-14.7869879,-39.2788778,3
1,Itacaré/BA,-14.2781298,-38.9951418,1
1,Itacoatiara/AM,-3.1477898,-58.4461041,60
D1,Itacoatiara/AM,-3.1477898,-58.4461041,6
1,Itagi/BA,-14.1627902,-40.0069366,1
1,Itagibá/BA,-14.2891521,-39.8452592,6
D1,Itagibá/BA,-14.2891521,-39.8452592,1
1,Itaguara/MG,-20.391389,-44.488055,1
1,Itaguaru/GO,-15.7613695,-49.6337242,2
1,Itaguaí/RJ,-22.8629597,-43.775322,22
D1,Itaguaí/RJ,-22.8629597,-43.775322,3
1,Itaitinga/CE,-3.965768,-38.529763,31
D1,Itaitinga/CE,-3.965768,-38.529763,1
1,Itaituba/PA,-4.2625218,-55.9878139,6
1,Itaiçaba/CE,-4.68054,-37.8239968,1
1,Itaiópolis/SC,-26.3391899,-49.9071983,1
1,Itajaí/SC,-26.9117879,-48.6669852,45
D1,Itajaí/SC,-26.9117879,-48.6669852,3
1,Itajobi/SP,-21.312294,-49.0596336,1
1,Itajubá/MG,-22.4238234,-45.4524156,8
1,Itajuípe/BA,-14.6744381,-39.3759427,8
1,Itamaraju/BA,-17.0363103,-39.527994,1
1,Itambé/PE,-7.4108509,-35.10967,1
1,Itanhandu/MG,-22.2957913,-44.9366732,4
1,Itanhaém/SP,-24.1848847,-46.7921572,9
D1,Itanhaém/SP,-24.1848847,-46.7921572,2
1,Itaobim/MG,-16.5614934,-41.502275,1
1,Itapajé/CE,-3.6841324,-39.5851265,1
1,Itapebi/BA,-15.9691891,-39.5320541,5
1,Itapecerica da Serra/SP,-23.7176303,-46.8492435,75
D1,Itapecerica da Serra/SP,-23.7176303,-46.8492435,6
1,Itapecerica/MG,-20.472778,-45.125556,7
1,Itapema/SC,-27.09472,-48.6137778,11
D1,Itapema/SC,-27.09472,-48.6137778,1
1,Itapemirim/ES,-21.0105534,-40.8351239,3
1,Itaperuna/RJ,-21.2048,-41.88801,3
1,Itaperuçu/PR,-25.21926,-49.345427,1
1,Itapetim/PE,-7.377514,-37.1887321,1
D1,Itapetim/PE,-7.377514,-37.1887321,1
1,Itapetinga/BA,-15.2454478,-40.2460053,7
D1,Itapetinga/BA,-15.2454478,-40.2460053,2
1,Itapetininga/SP,-23.588607,-48.048326,9
D1,Itapetininga/SP,-23.588607,-48.048326,1
1,Itapeva/MG,-22.7071665,-46.23015850595238,1
1,Itapeva/SP,-23.9849105,-48.8803886,1
1,Itapevi/SP,-23.54888,-46.933889,80
D1,Itapevi/SP,-23.54888,-46.933889,11
1,Itapipoca/CE,-3.499329,-39.583571,7
1,Itapira/SP,-22.436111,-46.821667,15
D1,Itapira/SP,-22.436111,-46.821667,3
1,Itapiranga/SC,-27.1719977,-53.7118734,1
1,Itapissuma/PE,-7.767983,-34.897136,2
1,Itapiúna/CE,-4.5654191,-38.9211537,1
1,Itaporanga d'Ajuda/SE,-10.9961671,-37.3045841,2
D1,Itaporanga d'Ajuda/SE,-10.9961671,-37.3045841,1
1,Itapororoca/PB,-6.8283007,-35.244782,3
1,Itapé/BA,-14.8970856,-39.4246637,1
D1,Itapé/BA,-14.8970856,-39.4246637,1
1,Itaquaquecetuba/SP,-23.4754492,-46.3514033,75
D1,Itaquaquecetuba/SP,-23.4754492,-46.3514033,6
1,Itarantim/BA,-15.6520917,-40.0599067,1
1,Itararé/SP,-24.1145368,-49.3352464,1
1,Itarema/CE,-2.9224558,-39.9129042,2
1,Itariri/SP,-24.2900711,-47.176151,1
1,Itatiaia/RJ,-22.4955278,-44.5633108,3
1,Itatiba/SP,-22.9965861,-46.8412042,5
D1,Itatiba/SP,-22.9965861,-46.8412042,1
1,Itatim/BA,-12.7073174,-39.6974476,1
1,Itatinga/SP,-23.1042417,-48.6134874,1
1,Itatira/CE,-4.5305423,-39.621054,1
1,Itaubal/AP,0.6027524,-50.6998737,1
1,Itaueira/PI,-7.5991089,-43.0278778,1
D1,Itaueira/PI,-7.5991089,-43.0278778,1
1,Itaúna/MG,-20.075556,-44.576389,1
1,Itirapina/SP,-22.2884106,-47.81616583161232,1
1,Itororó/BA,-15.1155552,-40.0638651,4
1,Itu/SP,-23.2638828,-47.298892,9
D1,Itu/SP,-23.2638828,-47.298892,1
1,Ituberá/BA,-13.7360764,-39.1481058,1
1,Ituiutaba/MG,-18.9691887,-49.4639335,2
1,Itumbiara/GO,-18.4135862,-49.2172596,10
1,Itupeva/SP,-23.1531055,-47.0580347,4
D1,Itupeva/SP,-23.1531055,-47.0580347,1
1,Ituporanga/SC,-27.4096219,-49.6014812,2
1,Ivaiporã/PR,-24.2433517,-51.6719268,6
D1,Ivaiporã/PR,-24.2433517,-51.6719268,1
1,Ivoti/RS,-29.5934057,-51.1599403,5
D1,Ivoti/RS,-29.5934057,-51.1599403,1
1,Içara/SC,-28.7116553,-49.2971441,8
1,Jaboatão dos Guararapes/PE,-8.1752476,-34.9468716,261
D1,Jaboatão dos Guararapes/PE,-8.1752476,-34.9468716,35
1,Jaborandi/SP,-20.6921079,-48.4144076,1
1,Jaborá/SC,-27.1743246,-51.7348631,3
1,Jaboticabal/SP,-21.252037,-48.325223,14
D1,Jaboticabal/SP,-21.252037,-48.325223,3
1,Jaboticatubas/MG,-19.521667,-43.745277,2
1,Jacarezinho/PR,-23.159115,-49.973889,1
1,Jacareí/SP,-23.30528,-45.96583,28
D1,Jacareí/SP,-23.30528,-45.96583,1
1,Jaci/SP,-20.8844434,-49.5710544,8
1,Jaciara/MT,-15.9520115,-54.9762106,1
1,Jaguapitã/PR,-23.1102516,-51.5327741,1
1,Jaguaquara/BA,-13.5294974,-39.9693081,5
1,Jaguaretama/CE,-5.6092417,-38.7630077,1
1,Jaguaribe/CE,-5.8854585,-38.6212957,12
D1,Jaguaribe/CE,-5.8854585,-38.6212957,2
1,Jaguariúna/SP,-22.70374,-46.985062,5
1,Jaguaruana/CE,-4.831508,-37.780997,3
1,Jaguaruna/SC,-28.6237365,-49.0288664,4
1,Jales/SP,-20.2671767,-50.5492435,3
1,Janaúba/MG,-15.8019291,-43.309246,3
1,Jandira/SP,-23.5282044,-46.9019554,32
D1,Jandira/SP,-23.5282044,-46.9019554,3
1,Japeri/RJ,-22.6427642,-43.6533831,15
D1,Japeri/RJ,-22.6427642,-43.6533831,1
1,Japurá/PR,-23.469273,-52.55572,1
1,Jaraguá do Sul/SC,-26.4897432,-49.0778063,13
1,Jaraguá/GO,-15.7528866,-49.3344033,1
1,Jardim/CE,-7.5838966,-39.279713,1
1,Jardinópolis/SP,-21.0255126,-47.7706807,5
1,Jarinu/SP,-23.0949584,-46.7148636,1
D1,Jarinu/SP,-23.0949584,-46.7148636,1
1,Jaru/RO,-10.431826,-62.478769,1
1,Jataizinho/PR,-23.257815,-50.977748,2
1,Jataí/GO,-17.8783829,-51.7204241,6
1,Jataúba/PE,-7.9860545,-36.4980118,1
1,Jatobá/PE,-9.1832353,-38.2672047,1
1,Jaçanã/RN,-6.4290483,-36.2035537,2
1,Jaú/SP,-22.293585,-48.559193,5
1,Jeceaba/MG,-20.5353816,-43.983346,1
1,Jequié/BA,-13.8604033,-40.0719627,26
1,Jerônimo Monteiro/ES,-20.7882214,-41.3921464,1
1,Ji-Paraná/RO,-10.8778148,-61.9277854,20
D1,Ji-Paraná/RO,-10.8778148,-61.9277854,2
1,Joanópolis/SP,-22.930004,-46.275208,1
1,Joaçaba/SC,-27.1737204,-51.5065214,7
1,Joinville/SC,-26.3044898,-48.8486726,127
D1,Joinville/SC,-26.3044898,-48.8486726,2
1,José Bonifácio/SP,-23.564090999999998,-46.434766582997995,2
1,José de Freitas/PI,-4.7578357,-42.5763777,1
1,João Alfredo/PE,-7.8608755,-35.591575,5
1,João Câmara/RN,-5.5349637,-35.8150811,1
1,João Monlevade/MG,-19.809444,-43.173334,4
1,João Neiva/ES,-19.756346,-40.3848345,3
1,João Pessoa/PB,-7.1215981,-34.882028,313
D1,João Pessoa/PB,-7.1215981,-34.882028,28
1,Juazeiro do Norte/CE,-7.2153453,-39.3153336,10
1,Juazeiro/BA,-9.4336959,-40.5068201,8
D1,Juazeiro/BA,-9.4336959,-40.5068201,1
1,Jucati/PE,-8.7065829,-36.4870496,1
1,Jucás/CE,-6.5224934,-39.5247183,3
1,Juiz de Fora/MG,-21.7609533,-43.3501129,120
D1,Juiz de Fora/MG,-21.7609533,-43.3501129,3
1,Junco do Maranhão/MA,-1.8799132,-46.0726685,1
1,Junco do Seridó/PB,-6.9922083,-36.7143267,3
D1,Junco do Seridó/PB,-6.9922083,-36.7143267,1
1,Jundiaí/SP,-23.1887866,-46.8845122,78
D1,Jundiaí/SP,-23.1887866,-46.8845122,13
1,Junqueirópolis/SP,-21.5109531,-51.4351505,1
1,Jupi/PE,-8.7114677,-36.417448,1
1,Juquitiba/SP,-23.932346,-47.0714217,1
D1,Juquitiba/SP,-23.932346,-47.0714217,1
1,Juquiá/SP,-24.3172209,-47.6355618,1
1,Jurema/PE,-8.7189103,-36.137365,1
1,Juruti/PA,-2.1571381,-56.0900977,5
D1,Juruti/PA,-2.1571381,-56.0900977,2
1,Juruá/AM,-3.4746666,-66.0622335,1
1,Jussara/PR,-23.621931,-52.46931,1
D1,Jussara/PR,-23.621931,-52.46931,1
1,Jutaí/AM,-2.7471478,-66.7721255,1
1,Ladário/MS,-19.008842,-57.5972924,1
1,Lagarto/SE,-10.9141791,-37.6715308,2
1,Lages/SC,-27.8165664,-50.325883,13
1,Lago da Pedra/MA,-4.5627272,-45.1298628,2
D1,Lago da Pedra/MA,-4.5627272,-45.1298628,1
1,Lagoa Dourada/MG,-20.914444,-44.077778,1
1,Lagoa Santa/MG,-19.6357376,-43.8966132,3
1,Lagoa da Prata/MG,-20.022778,-45.5440462,15
1,Lagoa de Itaenga/PE,-7.9335596,-35.2919789,1
1,Lagoa de Pedras/RN,-6.1527678,-35.4368516,1
D1,Lagoa de Pedras/RN,-6.1527678,-35.4368516,1
1,Lagoa do Barro do Piauí/PI,-8.4798938,-41.5295775,1
1,Lagoa do Carro/PE,-7.843834,-35.310783,2
D1,Lagoa do Carro/PE,-7.843834,-35.310783,1
1,Lagoa dos Gatos/PE,-8.6537614,-35.9045124,1
D1,Lagoa dos Gatos/PE,-8.6537614,-35.9045124,1
1,Laguna/SC,-28.483118,-48.7811993,6
1,Laje/BA,-13.1809956,-39.4222968,1
1,Lajeado/RS,-29.4671522,-51.9624046,43
D1,Lajeado/RS,-29.4671522,-51.9624046,2
1,Lajes Pintadas/RN,-6.1497352,-36.1166085,1
1,Lambari D'Oeste/MT,-15.3188455,-58.0046244,1
1,Lapa/PR,-25.76709,-49.716777,3
1,Laranjal Paulista/SP,-23.050564,-47.837549,5
D1,Laranjal Paulista/SP,-23.050564,-47.837549,2
1,Laranjal do Jari/AP,-0.8419994,-52.516,15
1,Lauro de Freitas/BA,-12.89242,-38.3127691,41
D1,Lauro de Freitas/BA,-12.89242,-38.3127691,4
1,Lavras da Mangabeira/CE,-6.7519554,-38.9634019,1
1,Lavras/MG,-21.2425512,-44.9991978,7
1,Lavrinhas/SP,-22.570047,-44.902359,1
D1,Lavrinhas/SP,-22.570047,-44.902359,1
1,Leme/SP,-22.185833,-47.39,6
D1,Leme/SP,-22.185833,-47.39,3
1,Lençóis Paulista/SP,-22.6029897,-48.8031367,5
D1,Lençóis Paulista/SP,-22.6029897,-48.8031367,1
1,Leopoldina/MG,-21.5314282,-42.6403534,1
1,Leópolis/PR,-23.0789091,-50.7501808,1
1,Licínio de Almeida/BA,-14.684215,-42.509527,1
1,Limeira/SP,-22.5615068,-47.401766,18
D1,Limeira/SP,-22.5615068,-47.401766,1
1,Limoeiro de Anadia/AL,-9.7389667,-36.5015847,1
D1,Limoeiro de Anadia/AL,-9.7389667,-36.5015847,1
1,Limoeiro do Ajuru/PA,-1.8866440500000001,-49.495701348909165,3
1,Limoeiro do Norte/CE,-5.1455607,-38.0984936,14
D1,Limoeiro do Norte/CE,-5.1455607,-38.0984936,2
1,Limoeiro/PE,-7.872599,-35.440154,10
D1,Limoeiro/PE,-7.872599,-35.440154,3
1,Lindóia do Sul/SC,-27.0524132,-52.0831626,6
1,Linhares/ES,-19.3816944,-40.0612213,34
D1,Linhares/ES,-19.3816944,-40.0612213,1
1,Lins/SP,-21.6741873,-49.7518932,11
D1,Lins/SP,-21.6741873,-49.7518932,3
1,Livramento de Nossa Senhora/BA,-13.6505468,-41.8412103,1
1,Londrina/PR,-23.3112878,-51.1595023,93
D1,Londrina/PR,-23.3112878,-51.1595023,12
1,Lorena/SP,-22.7367652,-45.1070876,1
1,Louveira/SP,-23.08639,-46.95056,8
1,Lucas do Rio Verde/MT,-13.0655935,-55.9198356,1
D1,Lucas do Rio Verde/MT,-13.0655935,-55.9198356,1
1,Lucélia/SP,-21.7211293,-51.0188,3
D1,Lucélia/SP,-21.7211293,-51.0188,2
1,Luzilândia/PI,-3.4648887,-42.3689528,1
1,Luziânia/GO,-16.2535456,-47.9500276,11
D1,Luziânia/GO,-16.2535456,-47.9500276,2
1,Luís Correia/PI,-2.8818164,-41.6658458,3
1,Luís Eduardo Magalhães/BA,-12.0869117,-45.7834163,2
1,Luís Gomes/RN,-6.4141793,-38.3872939,1
1,Lábrea/AM,-7.2613683,-64.7924505,17
1,Macaparana/PE,-7.54122565,-35.449102477927944,3
D1,Macaparana/PE,-7.54122565,-35.449102477927944,2
1,Macapá/AP,0.0401529,-51.0569588,542
D1,Macapá/AP,0.0401529,-51.0569588,16
1,Macatuba/SP,-22.50022,-48.710229,1
1,Macaé/RJ,-22.3712958,-41.7866922,40
D1,Macaé/RJ,-22.3712958,-41.7866922,8
1,Macaíba/RN,-5.8561372,-35.3523774,11
1,Maceió/AL,-9.6476843,-35.7339264,427
D1,Maceió/AL,-9.6476843,-35.7339264,18
1,Machado/MG,-21.6762861,-45.9211696,2
1,Machados/PE,-7.6876999,-35.5126635,2
D1,Machados/PE,-7.6876999,-35.5126635,1
1,Mafra/SC,-26.1150943,-49.8035982,2
1,Magé/RJ,-22.6604221,-43.0426162,55
D1,Magé/RJ,-22.6604221,-43.0426162,4
1,Mairinque/SP,-23.5401247,-47.1846323,1
1,Mairiporã/SP,-23.3186111,-46.5866667,19
D1,Mairiporã/SP,-23.3186111,-46.5866667,4
1,Manacapuru/AM,-3.2996768,-60.6213528,247
D1,Manacapuru/AM,-3.2996768,-60.6213528,14
1,Manaquiri/AM,-3.4305885,-60.4593078,2
1,Manaus/AM,-3.1316333,-59.9825041,2481
D1,Manaus/AM,-3.1316333,-59.9825041,207
1,Mandaguari/PR,-23.5224849,-51.6787511,1
1,Mandaguaçu/PR,-23.3485076,-52.0966215,1
1,Mandirituba/PR,-25.7772457,-49.3279107,3
1,Mangaratiba/RJ,-22.9600193,-44.04111,6
D1,Mangaratiba/RJ,-22.9600193,-44.04111,2
1,Manhuaçu/MG,-20.2574434,-42.0340769,3
1,Manicoré/AM,-5.804618,-61.289483,3
D1,Manicoré/AM,-5.804618,-61.289483,1
1,Manoel Emídio/PI,-8.0054022,-43.8730321,1
1,Manoel Ribas/PR,-24.5177239,-51.6685729,1
D1,Manoel Ribas/PR,-24.5177239,-51.6685729,1
1,Marabá/PA,-5.3462821,-49.1007401,13
D1,Marabá/PA,-5.3462821,-49.1007401,2
1,Maracanaú/CE,-3.8779438,-38.6247697,109
D1,Maracanaú/CE,-3.8779438,-38.6247697,9
1,Maragogi/AL,-9.0118278,-35.222512,1
1,Maragogipe/BA,-12.7766206,-38.9174729,5
1,Maranguape/CE,-3.8922967,-38.6835427,37
D1,Maranguape/CE,-3.8922967,-38.6835427,2
1,Marapanim/PA,-0.7134493,-47.6985381,4
1,Maratá/RS,-29.549349,-51.5546411,1
1,Marau/RS,-28.4493053,-52.2002156,45
D1,Marau/RS,-28.4493053,-52.2002156,1
1,Maraã/AM,-1.8535579,-65.5897749,7
1,Marechal Cândido Rondon/PR,-24.5570477,-54.0571457,2
1,Marechal Deodoro/AL,-9.709715,-35.896731,12
D1,Marechal Deodoro/AL,-9.709715,-35.896731,2
1,Marechal Floriano/ES,-20.4124966,-40.6749858,1
1,Mariana/MG,-20.3781468,-43.4174862,15
D1,Mariana/MG,-20.3781468,-43.4174862,1
1,Maribondo/AL,-9.5808649,-36.3040574,2
D1,Maribondo/AL,-9.5808649,-36.3040574,1
1,Maricá/RJ,-22.9196772,-42.8184375,44
D1,Maricá/RJ,-22.9196772,-42.8184375,7
1,Maringá/PR,-23.425269,-51.9382078,53
D1,Maringá/PR,-23.425269,-51.9382078,5
1,Maripá de Minas/MG,-21.6975,-42.959167,1
1,Marituba/PA,-1.3595306,-48.3361504,25
D1,Marituba/PA,-1.3595306,-48.3361504,1
1,Marizópolis/PB,-6.8440704,-38.3473088,1
D1,Marizópolis/PB,-6.8440704,-38.3473088,1
1,Mariópolis/PR,-26.3517858,-52.5491536,2
1,Marliéria/MG,-19.711867,-42.7343059,3
1,Martinho Campos/MG,-19.331945,-45.236666,1
1,Martinópolis/SP,-22.146153,-51.170949,1
1,Marumbi/PR,-23.7070343,-51.6408276,2
1,Marília/SP,-22.217108,-49.95006,9
D1,Marília/SP,-22.217108,-49.95006,1
1,Massapê/CE,-3.5239058,-40.3423107,6
D1,Massapê/CE,-3.5239058,-40.3423107,1
1,Massaranduba/SC,-26.610868,-49.005351,1
D1,Massaranduba/SC,-26.610868,-49.005351,1
1,Mata Roma/MA,-3.6210147,-43.1156951,1
1,Matinha/MA,-3.102212,-45.032208,4
1,Matinhos/PR,-25.8187344,-48.5342813,2
1,Matozinhos/MG,-19.5576547,-44.0816035,1
1,Matão/SP,-21.6033611,-48.3660603,3
1,Mauriti/CE,-7.3870095,-38.7737751,2
1,Mauá/SP,-23.6669527,-46.4616922,138
D1,Mauá/SP,-23.6669527,-46.4616922,8
1,Maués/AM,-3.3795798,-57.7196072,38
D1,Maués/AM,-3.3795798,-57.7196072,5
1,Mazagão/AP,-0.1160565,-51.2861759,9
1,Medeiros Neto/BA,-17.3714581,-40.2224736,1
1,Medianeira/PR,-25.2954233,-54.0940666,4
1,Meleiro/SC,-28.8303183,-49.6349851,1
1,Mendes/RJ,-22.5269113,-43.7332604,1
1,Mesquita/RJ,-22.783092,-43.4293599,100
D1,Mesquita/RJ,-22.783092,-43.4293599,10
1,Miguel Alves/PI,-4.1730384,-42.8955677,2
1,Miguel Pereira/RJ,-22.4539417,-43.4691978,7
D1,Miguel Pereira/RJ,-22.4539417,-43.4691978,1
1,Miguelópolis/SP,-20.179612,-48.030997,1
1,Milagres do Maranhão/MA,-3.5815605,-42.6080355,1
1,Milagres/CE,-7.3106846,-38.9447146,2
1,Minas do Leão/RS,-30.1334499,-52.0455962,2
1,Mineiros do Tietê/SP,-22.4133188,-48.450554,4
D1,Mineiros do Tietê/SP,-22.4133188,-48.450554,1
1,Mineiros/GO,-17.5653879,-52.5536721,4
1,Miracatu/SP,-24.2839078,-47.4535128,3
D1,Miracatu/SP,-24.2839078,-47.4535128,2
1,Miranda do Norte/MA,-3.5653459,-44.5809128,4
1,Miranda/MS,-20.2401082,-56.3844728,1
1,Mirandópolis/SP,-21.1328313,-51.1029422,5
D1,Mirandópolis/SP,-21.1328313,-51.1029422,2
1,Mirante/BA,-14.2401367,-40.7661915,1
1,Mirassol d'Oeste/MT,-15.675947,-58.0951397,6
D1,Mirassol d'Oeste/MT,-15.675947,-58.0951397,1
1,Mirassol/SP,-20.8141411,-49.507449,6
1,Mirinzal/MA,-2.0664539,-44.7837348,1
D1,Mirinzal/MA,-2.0664539,-44.7837348,1
1,Mococa/SP,-21.464731,-47.002405,2
D1,Mococa/SP,-21.464731,-47.002405,1
1,Mogi Guaçu/SP,-22.372222,-46.9425,14
D1,Mogi Guaçu/SP,-22.372222,-46.9425,1
1,Mogi Mirim/SP,-22.433009,-46.9581629,4
1,Mogi das Cruzes/SP,-23.5234284,-46.1926671,149
D1,Mogi das Cruzes/SP,-23.5234284,-46.1926671,8
1,Mombaça/CE,-5.7450899,-39.6293519,6
D1,Mombaça/CE,-5.7450899,-39.6293519,1
1,Mongaguá/SP,-24.0959454,-46.6234361,8
D1,Mongaguá/SP,-24.0959454,-46.6234361,1
1,Montanhas/RN,-6.4866542,-35.2853577,1
1,Monte Alegre/PA,-1.9989108,-54.0727694,3
1,Monte Alegre/RN,-6.069901,-35.333635,4
1,Monte Alto/SP,-21.265545,-48.497066,12
D1,Monte Alto/SP,-21.265545,-48.497066,1
1,Monte Azul Paulista/SP,-20.90649,-48.638717,1
1,Monte Azul/MG,-15.1531999,-42.8711742,1
1,Monte Carmelo/MG,-18.7260939,-47.4958859,5
1,Monte Mor/SP,-22.945043,-47.312182,2
1,Montenegro/RS,-29.6826112,-51.4687455,3
1,Montes Claros/MG,-16.7273538,-43.8717676,6
D1,Montes Claros/MG,-16.7273538,-43.8717676,1
1,Montividiu/GO,-17.4439339,-51.172815,1
1,Monção/MA,-3.4842036,-45.2515472,1
1,Moreno/PE,-8.108706,-35.08354,11
D1,Moreno/PE,-8.108706,-35.08354,2
1,Morpará/BA,-11.5628341,-43.2768414,2
1,Morretes/PR,-25.4770051,-48.8321911,1
1,Morro Agudo/SP,-20.7276692,-48.052795,1
1,Morro da Fumaça/SC,-28.6522275,-49.2133979,2
1,Morro da Garça/MG,-18.5435188,-44.6030199,1
D1,Morro da Garça/MG,-18.5435188,-44.6030199,1
1,Morros/MA,-2.8652201,-44.0390477,2
1,Morungaba/SP,-22.88,-46.79167,5
1,Mossoró/RN,-5.1904332,-37.3443872,111
D1,Mossoró/RN,-5.1904332,-37.3443872,9
1,Muaná/PA,-1.5317443,-49.2223565,1
1,Mucajaí/RR,2.4486084,-60.9199986,2
1,Mucugê/BA,-13.0053,-41.370271,1
1,Mulungu/CE,-5.8359648,-39.3777574,2
1,Mundo Novo/MS,-23.9378876,-54.2859489,2
1,Munhoz/MG,-22.613056,-46.360556,3
1,Muriaé/MG,-21.130556,-42.366389,7
1,Murici/AL,-9.306823,-35.942798,7
1,Muzambinho/MG,-21.3727087,-46.51927,1
1,Muçum/RS,-29.1666714,-51.8747726,2
1,Mário Campos/MG,-20.0511,-44.1858,1
1,Mãe do Rio/PA,-2.0458692,-47.5522076,1
1,Nanuque/MG,-17.8391113,-40.3537221,2
D1,Nanuque/MG,-17.8391113,-40.3537221,1
1,Natal/RN,-5.805398,-35.2080905,370
D1,Natal/RN,-5.805398,-35.2080905,9
1,Navegantes/SC,-26.8898813,-48.6495828,19
1,Naviraí/MS,-23.0622152,-54.2018319,1
1,Nazareno/MG,-21.2134896,-44.649049590000004,1
1,Nazaré Paulista/SP,-23.1819309,-46.3992986,3
D1,Nazaré Paulista/SP,-23.1819309,-46.3992986,1
1,Nazaré da Mata/PE,-7.7452689,-35.2286396,2
1,Nazária/PI,-5.3512851,-42.8152823,2
1,Nerópolis/GO,-16.4069816,-49.219438,2
1,Nhamundá/AM,-2.1921521,-56.7111308,1
1,Nhandeara/SP,-20.6942747,-50.0406162,1
1,Nicolau Vergueiro/RS,-28.5361987,-52.4631712,1
1,Nilo Peçanha/BA,-13.6015675,-39.1043356,1
1,Nilópolis/RJ,-22.8080114,-43.4138222,47
D1,Nilópolis/RJ,-22.8080114,-43.4138222,3
1,Niterói/RJ,-22.8832371,-43.1154552,254
D1,Niterói/RJ,-22.8832371,-43.1154552,17
1,Nossa Senhora da Glória/SE,-10.2188811,-37.4199759,2
1,Nossa Senhora do Socorro/SE,-10.8553115,-37.1264863,6
1,Nova Andradina/MS,-22.2477565,-53.3480621,11
1,Nova Bréscia/RS,-29.2158737,-52.0290188,1
1,Nova Esperança/PR,-23.1818437,-52.1999852,5
1,Nova Friburgo/RJ,-22.2800004,-42.5325303,43
D1,Nova Friburgo/RJ,-22.2800004,-42.5325303,3
1,Nova Glória/GO,-15.1481798,-49.577239,1
1,Nova Iguaçu/RJ,-22.7592175,-43.4508728,283
D1,Nova Iguaçu/RJ,-22.7592175,-43.4508728,23
1,Nova Ipixuna/PA,-4.916221,-49.082194,1
1,Nova Lima/MG,-19.9854089,-43.8470691,51
1,Nova Londrina/PR,-22.7633621,-52.9875908,2
1,Nova Monte Verde/MT,-9.9796694,-57.467331,1
1,Nova Mutum/MT,-13.8255015,-56.0849262,1
1,Nova Odessa/SP,-22.783186,-47.294059,3
D1,Nova Odessa/SP,-22.783186,-47.294059,1
1,Nova Olinda do Norte/AM,-3.8926889,-59.0953046,3
1,Nova Olinda/CE,-7.0934174,-39.6789815,2
1,Nova Palma/RS,-29.4711081,-53.4693751,1
1,Nova Prata/RS,-28.784398,-51.6105402,1
1,Nova Serrana/MG,-19.875834,-44.984166,1
D1,Nova Serrana/MG,-19.875834,-44.984166,1
1,Nova Soure/BA,-11.2409332,-38.4774123,1
1,Nova Timboteua/PA,-1.2052428,-47.3935775,2
1,Nova Trento/SC,-27.2862616,-48.9302652,1
1,Nova Veneza/GO,-16.3709074,-49.3212061,1
1,Nova Veneza/SC,-28.637371,-49.4997634,2
1,Nova Venécia/ES,-18.7063456,-40.3969786,4
1,Novo Airão/AM,-2.6260236,-60.9434406,2
D1,Novo Airão/AM,-2.6260236,-60.9434406,1
1,Novo Aripuanã/AM,-5.125929,-60.373179,4
1,Novo Cruzeiro/MG,-19.4730937,-42.537897,1
D1,Novo Cruzeiro/MG,-19.4730937,-42.537897,1
1,Novo Gama/GO,-16.0496528,-48.0304615,1
1,Novo Hamburgo/RS,-29.6905705,-51.1429035,26
D1,Novo Hamburgo/RS,-29.6905705,-51.1429035,2
1,Novo Oriente/CE,-5.5350339,-40.7748902,2
1,Novo Progresso/PA,-7.0374884,-55.4185904,2
1,Não-Me-Toque/RS,-28.4575507,-52.8196547,4
1,Nísia Floresta/RN,-6.0902674,-35.2085026,5
D1,Nísia Floresta/RN,-6.0902674,-35.2085026,1
1,Ocara/CE,-4.4910653,-38.5964829,5
1,Oeiras do Pará/PA,-2.0040813,-49.8596065,5
1,Oeiras/PI,-7.0109909,-42.1299376,2
1,Oiapoque/AP,3.8432128,-51.8350798,7
1,Olho d'Água das Flores/AL,-9.5318374,-37.2939052,1
1,Olinda/PE,-7.9986401,-34.8459552,281
D1,Olinda/PE,-7.9986401,-34.8459552,28
1,Oliveira dos Brejinhos/BA,-12.3193308,-42.8914271,1
1,Olímpia/SP,-20.736634,-48.910625,4
1,Orleans/SC,-28.3572698,-49.2872434,4
1,Orlândia/SP,-20.720278,-47.886667,4
1,Orocó/PE,-8.6147294,-39.6036682,1
1,Osasco/SP,-23.5324859,-46.7916801,470
D1,Osasco/SP,-23.5324859,-46.7916801,48
1,Osório/RS,-29.8890328,-50.2730224,2
1,Ourinhos/SP,-22.9777918,-49.868204,15
D1,Ourinhos/SP,-22.9777918,-49.868204,1
1,Ouro Fino/MG,-22.283056,-46.369167,2
D1,Ouro Fino/MG,-22.283056,-46.369167,1
1,Ouro Preto do Oeste/RO,-10.7223354,-62.2533413,7
1,Ourém/PA,-1.5489964,-47.1174572,2
1,Pacajus/CE,-4.171073,-38.464988,9
1,Pacajá/PA,-3.8354195,-50.6399248,2
1,Pacaraima/RR,4.4791253,-61.1471016,18
1,Pacatuba/CE,-3.9841,-38.6180383,25
D1,Pacatuba/CE,-3.9841,-38.6180383,1
1,Pacatuba/SE,-10.4506594,-36.6473212,2
1,Pacoti/CE,-4.2253561,-38.9208352,1
1,Paiçandu/PR,-23.4575884,-52.048988,1
1,Palhoça/SC,-27.6447774,-48.6646323,23
D1,Palhoça/SC,-27.6447774,-48.6646323,1
1,Palma Sola/SC,-26.3482487,-53.2775974,1
1,Palmares/PE,-8.684226,-35.589032,4
D1,Palmares/PE,-8.684226,-35.589032,3
1,Palmas/PR,-26.483868,-51.988812,1
1,Palmas/TO,-10.1835604,-48.3337793,31
D1,Palmas/TO,-10.1835604,-48.3337793,1
1,Palmeira dos Índios/AL,-9.4112877,-36.6293905,6
1,Palmeira/PR,-25.4269718,-49.9987787,2
1,Palmeiras/BA,-12.5151234,-41.5746054,1
1,Palmital/SP,-22.786384,-50.2198965,1
1,Panelas/PE,-8.661211,-36.012539,1
D1,Panelas/PE,-8.661211,-36.012539,1
1,Papanduva/SC,-26.4065885,-50.1457369,2
1,Paracambi/RJ,-22.6109158,-43.7096912,17
D1,Paracambi/RJ,-22.6109158,-43.7096912,1
1,Paracatu/MG,-17.2174056,-46.8707514,10
1,Paracuru/CE,-3.41436,-39.030028,4
1,Paragominas/PA,-2.99564,-47.3548942,3
1,Paraisópolis/MG,-22.5541683,-45.7800024,4
D1,Paraisópolis/MG,-22.5541683,-45.7800024,2
1,Paramirim/BA,-13.4437218,-42.2419768,1
1,Paranacity/PR,-22.9304971,-52.1523164,5
1,Paranaguá/PR,-25.5121904,-48.5251854,12
D1,Paranaguá/PR,-25.5121904,-48.5251854,2
1,Paranaiguara/GO,-18.9137048,-50.6536307,1
1,Paranavaí/PR,-23.08165,-52.461724,14
D1,Paranavaí/PR,-23.08165,-52.461724,2
1,Paranaíba/MS,-19.6751971,-51.1874986,2
1,Paraty/RJ,-23.2196461,-44.7154196,5
D1,Paraty/RJ,-23.2196461,-44.7154196,1
1,Parauapebas/PA,-6.0696846,-49.8903283,45
D1,Parauapebas/PA,-6.0696846,-49.8903283,4
1,Paraí/RS,-28.5966772,-51.7851426,2
1,Paraíba do Sul/RJ,-22.1636384,-43.2916915,5
1,Paraíso das Águas/MS,-19.0219279,-53.0122646,1
1,Paraíso do Tocantins/TO,-10.1752474,-48.886759,1
D1,Paraíso do Tocantins/TO,-10.1752474,-48.886759,1
1,Paraúna/GO,-16.9495937,-50.4473008,3
D1,Paraúna/GO,-16.9495937,-50.4473008,1
1,Pareci Novo/RS,-29.6386722,-51.3961969,1
1,Parintins/AM,-2.6344567,-56.7319324,55
D1,Parintins/AM,-2.6344567,-56.7319324,3
1,Paripueira/AL,-9.463133,-35.551977,1
D1,Paripueira/AL,-9.463133,-35.551977,1
1,Pariquera-Açu/SP,-24.7146891,-47.8802361,12
D1,Pariquera-Açu/SP,-24.7146891,-47.8802361,1
1,Parnamirim/RN,-5.9153334,-35.2679913,93
D1,Parnamirim/RN,-5.9153334,-35.2679913,1
1,Parnaíba/PI,-2.9147515,-41.7661953,14
D1,Parnaíba/PI,-2.9147515,-41.7661953,3
1,Pará de Minas/MG,-19.8599637,-44.6075313,5
1,Passa e Fica/RN,-6.4356697,-35.6434459,1
1,Passira/PE,-7.976317,-35.5817327,1
1,Passo Fundo/RS,-28.2616138,-52.4089048,101
D1,Passo Fundo/RS,-28.2616138,-52.4089048,6
1,Passos/MG,-20.719162,-46.6094507,1
1,Pato Branco/PR,-26.2295984,-52.6712474,14
D1,Pato Branco/PR,-26.2295984,-52.6712474,1
1,Patos de Minas/MG,-18.6041453,-46.5096698,14
D1,Patos de Minas/MG,-18.6041453,-46.5096698,1
1,Patos/PB,-7.0258285,-37.2766817,11
D1,Patos/PB,-7.0258285,-37.2766817,2
1,Patrocínio/MG,-18.9408294,-46.9926624,19
D1,Patrocínio/MG,-18.9408294,-46.9926624,1
1,Paty do Alferes/RJ,-22.4272703,-43.4219523,2
1,Pau dos Ferros/RN,-6.1124964,-38.2062628,3
1,Paudalho/PE,-7.90287,-35.171639,14
D1,Paudalho/PE,-7.90287,-35.171639,7
1,Paulista/PE,-7.9340069,-34.868407,193
D1,Paulista/PE,-7.9340069,-34.868407,14
1,Paulistânia/SP,-22.5769873,-49.4028157,1
1,Paulo Afonso/BA,-9.3991006,-38.226711,3
1,Paulo Lopes/SC,-27.964968,-48.6830299,2
1,Paulínia/SP,-22.7630391,-47.1532213,11
D1,Paulínia/SP,-22.7630391,-47.1532213,1
1,Paço do Lumiar/MA,-2.5210576,-44.1063031,69
D1,Paço do Lumiar/MA,-2.5210576,-44.1063031,5
1,Peabiru/PR,-23.9142123,-52.3455598,2
1,Pederneiras/SP,-22.351086,-48.778113,2
D1,Pederneiras/SP,-22.351086,-48.778113,1
1,Pedra Bela/SP,-22.7950193,-46.4431811,1
1,Pedra Branca do Amapari/AP,0.7771833,-51.9523218,1
1,Pedra Branca/CE,-5.455674,-39.7166286,1
D1,Pedra Branca/CE,-5.455674,-39.7166286,1
1,Pedra/PE,-8.4995589,-36.944377,1
1,Pedras Grandes/SC,-28.4357866,-49.1864128,2
D1,Pedras Grandes/SC,-28.4357866,-49.1864128,1
1,Pedras de Fogo/PB,-7.3988977,-35.112176,2
1,Pedreiras/MA,-4.5687989,-44.6003029,1
1,Pedro Canário/ES,-18.2998272,-39.9558844,3
1,Pedro II/PI,-4.425845,-41.448184,3
D1,Pedro II/PI,-4.425845,-41.448184,1
1,Pedro de Toledo/SP,-24.2769071,-47.23393,2
1,Pelotas/RS,-31.7699736,-52.3410161,13
1,Penha/SC,-26.775418,-48.6465251,4
D1,Penha/SC,-26.775418,-48.6465251,1
1,Pentecoste/CE,-3.7952282,-39.2713219,4
1,Penápolis/SP,-21.4192406,-50.0765588,1
D1,Penápolis/SP,-21.4192406,-50.0765588,1
1,Perdões/MG,-21.0919737,-45.0903543,1
1,Pereiro/CE,-6.046269,-38.4604192,3
1,Peritiba/SC,-27.3736365,-51.9050311,1
1,Peruíbe/SP,-24.3218105,-46.9977452,13
1,Pescaria Brava/SC,-28.3845591,-48.8658054,1
1,Pesqueira/PE,-8.3579952,-36.6971741,1
1,Petrolina/PE,-9.3817334,-40.4968875,11
1,Petrópolis/RJ,-22.519963,-43.192613,77
D1,Petrópolis/RJ,-22.519963,-43.192613,8
1,Piaçabuçu/AL,-10.4066897,-36.433654,2
1,Picos/PI,-7.0823544,-41.4685053,6
D1,Picos/PI,-7.0823544,-41.4685053,1
1,Piedade/SP,-23.7074096,-47.4252319,6
1,Pilar do Sul/SP,-23.8121684,-47.7201865,3
1,Pilar/AL,-9.6016711,-35.9511275,3
1,Pimenteiras/PI,-6.2366098,-41.4192948,1
1,Pindamonhangaba/SP,-22.9340165,-45.462938,7
D1,Pindamonhangaba/SP,-22.9340165,-45.462938,1
1,Pindorama/SP,-21.1853,-48.90861,4
1,Pindoretama/CE,-4.0265183,-38.3066829,3
D1,Pindoretama/CE,-4.0265183,-38.3066829,1
1,Pinhais/PR,-25.4443488,-49.1900307,20
D1,Pinhais/PR,-25.4443488,-49.1900307,1
1,Pinhal de São Bento/PR,-26.0326418,-53.4837511,1
1,Pinhalzinho/SP,-22.7824349,-46.5901718,1
1,Pinheiral/RJ,-22.5129436,-44.001435,5
1,Pinhão/PR,-25.6960895,-51.6566366,2
1,Piracaia/SP,-23.052545,-46.359374,2
D1,Piracaia/SP,-23.052545,-46.359374,1
1,Piracicaba/SP,-22.72528,-47.64917,41
D1,Piracicaba/SP,-22.72528,-47.64917,4
1,Piracuruca/PI,-3.9304804,-41.7150099,7
D1,Piracuruca/PI,-3.9304804,-41.7150099,2
1,Piraju/SP,-23.1897822,-49.3840493,6
1,Pirajuí/SP,-21.9957877,-49.4549675,1
1,Pirapetinga/MG,-21.656903,-42.345955,1
1,Pirapora do Bom Jesus/SP,-23.3972146,-47.0025661,2
1,Pirapora/MG,-17.3493765,-44.9507904,2
1,Piraquara/PR,-25.4423273,-49.0604473,3
1,Pirassununga/SP,-21.9980468,-47.4280861,5
1,Piratini/RS,-31.448451,-53.1039931,1
1,Piratininga/SP,-22.4136363,-49.1351479,4
1,Piraí/RJ,-22.6287489,-43.8981758,3
1,Pires do Rio/GO,-17.3006277,-48.2793037,3
D1,Pires do Rio/GO,-17.3006277,-48.2793037,1
1,Piripiri/PI,-4.2732339,-41.7785173,1
1,Piripá/BA,-14.9419863,-41.7149815,1
1,Pitangueiras/SP,-21.013203,-48.220951,1
D1,Pitangueiras/SP,-21.013203,-48.220951,1
1,Piumhi/MG,-20.4675258,-45.9576125,2
D1,Piumhi/MG,-20.4675258,-45.9576125,1
1,Piúma/ES,-20.8375312,-40.7271589,3
1,Planaltina do Paraná/PR,-23.0228724,-52.9160307,4
1,Planaltina/GO,-15.4571536,-47.6089024,1
D1,Planaltina/GO,-15.4571536,-47.6089024,1
1,Plácido de Castro/AC,-10.3239154,-67.1824196,22
D1,Plácido de Castro/AC,-10.3239154,-67.1824196,1
1,Pojuca/BA,-12.4260268,-38.3266573,1
1,Pombal/PB,-6.7711315,-37.7988646,2
1,Pombos/PE,-8.1398585,-35.396437,7
D1,Pombos/PE,-8.1398585,-35.396437,1
1,Pomerode/SC,-26.7356218,-49.1770095,3
1,Ponta Grossa/PR,-25.0891685,-50.1601812,11
1,Ponta Porã/MS,-22.5286917,-55.723426,1
1,Ponta de Pedras/PA,-1.395873,-48.866073,3
D1,Ponta de Pedras/PA,-1.395873,-48.866073,1
1,Pontal do Araguaia/MT,-15.9045099,-52.257365,1
1,Pontal/SP,-21.0239714,-48.0393457,4
D1,Pontal/SP,-21.0239714,-48.0393457,1
1,Pontes e Lacerda/MT,-15.2315171,-59.3349512,1
1,Pontão/RS,-28.0599735,-52.6779378,1
1,Populina/SP,-19.9427771,-50.5372875,1
1,Porciúncula/RJ,-20.9627278,-42.0405703,1
1,Porteiras/CE,-7.5341572,-39.1153149,1
1,Porto Acre/AC,-9.5879722,-67.53307,1
1,Porto Alegre/RS,-30.0324999,-51.2303767,425
D1,Porto Alegre/RS,-30.0324999,-51.2303767,12
1,Porto Belo/SC,-27.1542415,-48.5424395,6
D1,Porto Belo/SC,-27.1542415,-48.5424395,1
1,Porto Calvo/AL,-9.051948,-35.398653,1
1,Porto Feliz/SP,-23.2137274,-47.5190176,7
1,Porto Ferreira/SP,-21.8529134,-47.4794943,2
D1,Porto Ferreira/SP,-21.8529134,-47.4794943,1
1,Porto Firme/MG,-20.672778,-43.084444,1
1,Porto Grande/AP,0.7028371,-51.4041605,7
1,Porto Real do Colégio/AL,-10.186833,-36.8357056,1
1,Porto Real/RJ,-22.4198366,-44.2897974,3
1,Porto Seguro/BA,-16.443473,-39.064251,18
1,Porto Velho/RO,-8.7494525,-63.8735438,207
D1,Porto Velho/RO,-8.7494525,-63.8735438,3
1,Porto da Folha/SE,-9.9152762,-37.2791369,2
1,Porto de Moz/PA,-1.7502089,-52.235556,2
1,Potiretama/CE,-5.7226924,-38.154107,1
1,Pouso Alegre/MG,-22.2343858,-45.9327241,24
D1,Pouso Alegre/MG,-22.2343858,-45.9327241,2
1,Pouso Redondo/SC,-27.2567443,-49.9331593,1
D1,Pouso Redondo/SC,-27.2567443,-49.9331593,1
1,Poá/SP,-23.5249082,-46.3445663,35
D1,Poá/SP,-23.5249082,-46.3445663,3
1,Poço Branco/RN,-5.6224378,-35.6615774,1
1,Poços de Caldas/MG,-21.7900318,-46.5647928,14
D1,Poços de Caldas/MG,-21.7900318,-46.5647928,1
1,Poção/PE,-8.186709,-36.7023901,1
1,Prado/BA,-17.336357,-39.222721,4
1,Praia Grande/SP,-24.005833,-46.402778,92
D1,Praia Grande/SP,-24.005833,-46.402778,13
1,Pratânia/SP,-22.809027,-48.6656779,2
1,Presidente Alves/SP,-22.09991,-49.438133,1
1,Presidente Castello Branco/SC,-27.2217868,-51.8089482,2
1,Presidente Dutra/MA,-5.289801,-44.49498,1
1,Presidente Figueiredo/AM,-2.0486359,-60.0236658,19
D1,Presidente Figueiredo/AM,-2.0486359,-60.0236658,1
1,Presidente Juscelino/MA,-2.9262742,-44.0653783,4
1,Presidente Juscelino/MG,-18.6388028,-44.0604419,1
1,Presidente Kennedy/ES,-21.1000137,-41.0436113,3
D1,Presidente Kennedy/ES,-21.1000137,-41.0436113,1
1,Presidente Prudente/SP,-22.1225167,-51.3882528,13
D1,Presidente Prudente/SP,-22.1225167,-51.3882528,2
1,Presidente Venceslau/SP,-21.877116,-51.8451047,11
D1,Presidente Venceslau/SP,-21.877116,-51.8451047,6
1,Primavera do Leste/MT,-15.5614127,-54.2993946,6
1,Primavera/PA,-0.9406522,-47.116728,1
1,Primeiro de Maio/PR,-22.851714,-51.029251,2
D1,Primeiro de Maio/PR,-22.851714,-51.029251,1
1,Professor Jamil/GO,-17.25316,-49.2442452,6
D1,Professor Jamil/GO,-17.25316,-49.2442452,1
1,Promissão/SP,-21.5404913,-49.8574709,3
1,Propriá/SE,-10.212427,-36.8372254,2
1,Quaraí/RS,-30.3818093,-56.4526576,2
1,Quatiguá/PR,-23.5669626,-49.9160315,2
D1,Quatiguá/PR,-23.5669626,-49.9160315,1
1,Quatipuru/PA,-0.8948725,-47.0049317,2
1,Quatis/RJ,-22.4066444,-44.2577453,3
1,Quatro Barras/PR,-25.3708987,-49.0745672,1
1,Quatá/SP,-22.2470977,-50.7003624,2
1,Queimadas/PB,-7.3640404,-35.9016644,1
1,Queimados/RJ,-22.7156978,-43.555754,38
D1,Queimados/RJ,-22.7156978,-43.555754,3
1,Querência do Norte/PR,-23.083758,-53.483022,2
1,Querência/MT,-12.5942311,-52.2081922,1
1,Quintana/SP,-22.0705513,-50.308652,1
1,Quipapá/PE,-8.8269434,-36.011622,1
1,Quissamã/RJ,-22.107205,-41.4723411,3
1,Quitandinha/PR,-25.8737269,-49.4977717,2
1,Quiterianópolis/CE,-5.8458117,-40.7021812,1
1,Quixaba/PE,-7.7185273,-37.8484398,1
D1,Quixaba/PE,-7.7185273,-37.8484398,1
1,Quixadá/CE,-4.9706021,-39.0158403,22
1,Quixelô/CE,-6.2511238,-39.1995458,1
1,Quixeramobim/CE,-5.1983553,-39.2955573,11
D1,Quixeramobim/CE,-5.1983553,-39.2955573,1
1,Quixeré/CE,-5.0742841,-37.9892825,3
1,Ramilândia/PR,-25.1190203,-54.0301175,1
1,Rancharia/SP,-22.2294981,-50.8922333,3
1,Rancho Queimado/SC,-27.6731108,-49.0126867,2
1,Raposa/MA,-2.4459454,-44.1193757,11
D1,Raposa/MA,-2.4459454,-44.1193757,2
1,Recife/PE,-8.0641931,-34.8781517,1647
D1,Recife/PE,-8.0641931,-34.8781517,152
1,Redenção/CE,-4.2243979,-38.7278461,6
1,Redenção/PA,-8.025294,-50.031687,1
1,Registro/SP,-24.497942,-47.844895,6
D1,Registro/SP,-24.497942,-47.844895,2
1,Reriutaba/CE,-4.1418352,-40.5824356,2
1,Resende/RJ,-22.4683626,-44.4463494,16
D1,Resende/RJ,-22.4683626,-44.4463494,4
1,Riachão do Poço/PB,-7.1474817,-35.264755,1
D1,Riachão do Poço/PB,-7.1474817,-35.264755,1
1,Rialma/GO,-15.3144819,-49.5813991,6
1,Ribeira do Piauí/PI,-7.6912987,-42.7130999,1
1,Ribeira do Pombal/BA,-10.837299,-38.538152,1
1,Ribeirão Pires/SP,-23.7129388,-46.4150871,44
D1,Ribeirão Pires/SP,-23.7129388,-46.4150871,2
1,Ribeirão Preto/SP,-21.178333,-47.8066671,95
D1,Ribeirão Preto/SP,-21.178333,-47.8066671,5
1,Ribeirão das Neves/MG,-19.7672898,-44.0875436,4
1,Ribeirão/PE,-8.5066761,-35.3747339,2
1,Rincão/SP,-21.5881095,-48.0724258,1
D1,Rincão/SP,-21.5881095,-48.0724258,1
1,Rinópolis/SP,-21.7283596,-50.7227246,1
1,Rio Bonito/RJ,-22.7108378,-42.6271864,17
D1,Rio Bonito/RJ,-22.7108378,-42.6271864,3
1,Rio Branco do Sul/PR,-25.1885374,-49.3119082,4
1,Rio Branco/AC,-9.9765362,-67.8220778,191
D1,Rio Branco/AC,-9.9765362,-67.8220778,10
1,Rio Branco/MT,-15.2398109,-58.1160774,2
1,Rio Claro/SP,-22.4100108,-47.5603933,16
D1,Rio Claro/SP,-22.4100108,-47.5603933,7
1,Rio Formoso/PE,-8.6606291,-35.1550736,1
1,Rio Grande da Serra/SP,-23.743724,-46.397084,12
1,Rio Grande do Piauí/PI,-7.7767595,-43.140007,1
1,Rio Grande/RS,-32.0334252,-52.0991297,4
1,Rio Largo/AL,-9.477829,-35.839435,8
1,Rio Negrinho/SC,-26.3147216,-49.4674965,1
1,Rio Negro/PR,-26.1047668,-49.7982766,2
1,Rio Novo do Sul/ES,-20.8641487,-40.9384378,3
1,Rio Pardo/RS,-29.9820554,-52.3702447,1
1,Rio Preto da Eva/AM,-2.6990647,-59.7012494,16
D1,Rio Preto da Eva/AM,-2.6990647,-59.7012494,1
1,Rio Real/BA,-11.4869788,-37.9317491,1
1,Rio Rufino/SC,-27.861691,-49.7806323,1
1,Rio Verde de Mato Grosso/MS,-18.9169208,-54.8410727,1
1,Rio Verde/GO,-17.7921255,-50.9191219,14
D1,Rio Verde/GO,-17.7921255,-50.9191219,1
1,Rio das Flores/RJ,-22.1683478,-43.5858689,2
1,Rio das Ostras/RJ,-22.5269448,-41.944972,26
D1,Rio das Ostras/RJ,-22.5269448,-41.944972,6
1,Rio de Janeiro/RJ,-22.9110137,-43.2093727,4481
D1,Rio de Janeiro/RJ,-22.9110137,-43.2093727,367
1,Rio do Pires/BA,-13.1252598,-42.2901946,2
1,Rio do Sul/SC,-27.2162607,-49.643654,2
1,Rolante/RS,-29.6527945,-50.5769391,1
1,Rolim de Moura/RO,-11.727071,-61.771411,3
1,Rolândia/PR,-23.3119901,-51.3674145,3
1,Rondon do Pará/PA,-4.7804416,-48.06983,1
D1,Rondon do Pará/PA,-4.7804416,-48.06983,1
1,Rondonópolis/MT,-16.4603533,-54.6397099,36
D1,Rondonópolis/MT,-16.4603533,-54.6397099,2
1,Rorainópolis/RR,0.9387308,-60.4236464,11
1,Rosário do Sul/RS,-30.2527151,-54.9179382,1
1,Rosário/MA,-2.9405903,-44.2491088,9
1,Russas/CE,-4.9354279,-37.9783838,17
D1,Russas/CE,-4.9354279,-37.9783838,1
1,Sabará/MG,-19.8900372,-43.8107916,10
1,Salesópolis/SP,-23.528805,-45.84653,1
D1,Salesópolis/SP,-23.528805,-45.84653,1
1,Salete/SC,-26.9841895,-50.0076168,2
1,Salgueiro/PE,-8.073734,-39.12469,8
1,Salinópolis/PA,-0.6259282,-47.3442819,4
1,Salitre/CE,-7.285445,-40.457306,1
D1,Salitre/CE,-7.285445,-40.457306,1
1,Salto de Pirapora/SP,-23.6492626,-47.5729991,8
1,Salto/SP,-23.1989983,-47.2913682,6
1,Salvador do Sul/RS,-29.4395698,-51.5103295,1
1,Salvador/BA,-12.9822499,-38.4812772,1308
D1,Salvador/BA,-12.9822499,-38.4812772,38
1,Salvaterra/PA,-0.758444,-48.513921,2
1,Sananduva/RS,-27.9499376,-51.8074435,4
1,Sangão/SC,-28.6397512,-49.1266106,2
1,Sant'Ana do Livramento/RS,-30.8894097,-55.5317694,9
1,Santa Branca/SP,-23.3974353,-45.8842294,2
D1,Santa Branca/SP,-23.3974353,-45.8842294,1
1,Santa Bárbara d'Oeste/SP,-22.7552511,-47.4144958,2
D1,Santa Bárbara d'Oeste/SP,-22.7552511,-47.4144958,1
1,Santa Bárbara do Pará/PA,-1.226144,-48.295101,7
1,Santa Cecília/SC,-26.9658952,-50.4182571,1
1,Santa Clara do Sul/RS,-29.4686024,-52.0868635,1
1,Santa Cruz Cabrália/BA,-16.2815556,-39.0239196,7
1,Santa Cruz da Conceição/SP,-22.1378975,-47.4555647,1
1,Santa Cruz de Monte Castelo/PR,-22.9582028,-53.294859,2
1,Santa Cruz do Arari/PA,-0.661019,-49.177139,4
1,Santa Cruz do Capibaribe/PE,-7.948019,-36.206092,3
1,Santa Cruz do Rio Pardo/SP,-22.9060715,-49.6277378,7
1,Santa Cruz do Sul/RS,-29.7141799,-52.4284533,1
1,Santa Cruz/RN,-6.224752,-36.019297,4
1,Santa Fé/PR,-23.039993,-51.808014,7
D1,Santa Fé/PR,-23.039993,-51.808014,1
1,Santa Gertrudes/SP,-22.4590897,-47.532034,1
1,Santa Helena de Goiás/GO,-17.8115199,-50.5976641,1
1,Santa Inês/MA,-3.6647821,-45.3826869,3
1,Santa Isabel do Rio Negro/AM,-0.4160389,-65.0153096,1
1,Santa Isabel/SP,-23.3194222,-46.2271903,7
D1,Santa Isabel/SP,-23.3194222,-46.2271903,3
1,Santa Izabel do Pará/PA,-1.36673365,-48.12907400561336,23
D1,Santa Izabel do Pará/PA,-1.36673365,-48.12907400561336,1
1,Santa Leopoldina/ES,-20.0987046,-40.5269434,1
1,Santa Luzia do Norte/AL,-9.6037,-35.823196,1
1,Santa Luzia/BA,-15.4307844,-39.3303259,2
1,Santa Luzia/MG,-19.7702097,-43.8505291,8
1,Santa Lúcia/SP,-21.6861811,-48.0836814,3
1,Santa Maria da Vitória/BA,-13.3901477,-44.2013167,1
1,Santa Maria de Itabira/MG,-19.4483453,-43.1167817,1
1,Santa Maria de Jetibá/ES,-20.025296,-40.743931,4
D1,Santa Maria de Jetibá/ES,-20.025296,-40.743931,1
1,Santa Maria do Pará/PA,-1.3455478,-47.5782981,1
1,Santa Maria/RS,-29.6860512,-53.8069214,22
1,Santa Mônica/PR,-23.1085921,-53.1103971,7
D1,Santa Mônica/PR,-23.1085921,-53.1103971,1
1,Santa Quitéria/CE,-4.3336553,-40.1544913,4
D1,Santa Quitéria/CE,-4.3336553,-40.1544913,1
1,Santa Rita do Passa Quatro/SP,-21.7103738,-47.4777943,1
D1,Santa Rita do Passa Quatro/SP,-21.7103738,-47.4777943,1
1,Santa Rita/MA,-3.1411146,-44.3270285,14
1,Santa Rita/PB,-7.128465,-34.9846186,37
D1,Santa Rita/PB,-7.128465,-34.9846186,6
1,Santa Rosa do Sul/SC,-29.1354955,-49.7154188,1
1,Santa Rosa/RS,-27.8643546,-54.4779287,4
1,Santa Teresa/ES,-19.936339,-40.597945,4
1,Santa Teresinha/BA,-12.5760936,-40.7581616,2
1,Santa Terezinha de Itaipu/PR,-25.4390809,-54.4019902,1
1,Santana de Parnaíba/SP,-23.4446715,-46.9167722,80
D1,Santana de Parnaíba/SP,-23.4446715,-46.9167722,2
1,Santana do Acaraú/CE,-3.4596492,-40.2090987,4
1,Santana do Itararé/PR,-23.7566225,-49.6292826,1
1,Santana do Paraíso/MG,-19.3652914,-42.5494833,3
1,Santana/AP,-0.0307068,-51.1789666,103
D1,Santana/AP,-0.0307068,-51.1789666,4
1,Santarém/PA,-2.438489,-54.699611,39
D1,Santarém/PA,-2.438489,-54.699611,5
1,Santiago/RS,-29.189675,-54.866624,1
1,Santo Amaro da Imperatriz/SC,-27.6865324,-48.7769405,3
1,Santo André/SP,-23.6573395,-46.5322504,339
D1,Santo André/SP,-23.6573395,-46.5322504,18
1,Santo Antônio da Alegria/SP,-21.0893048,-47.1523426,1
D1,Santo Antônio da Alegria/SP,-21.0893048,-47.1523426,1
1,Santo Antônio da Patrulha/RS,-29.826768,-50.517489,2
1,Santo Antônio de Pádua/RJ,-21.5389992,-42.1799978,1
1,Santo Antônio do Aracanguá/SP,-20.9354866,-50.4953504,1
1,Santo Antônio do Caiuá/PR,-22.7365132,-52.3446998,3
D1,Santo Antônio do Caiuá/PR,-22.7365132,-52.3446998,1
1,Santo Antônio do Descoberto/GO,-15.9465415,-48.2616527,3
1,Santo Antônio do Içá/AM,-3.095443,-67.946279,11
1,Santo Antônio do Monte/MG,-20.086944,-45.290555,3
1,Santo Antônio do Pinhal/SP,-22.8250504,-45.6674063,1
1,Santo Antônio do Tauá/PA,-1.1522,-48.131446,21
1,Santo Antônio/RN,-6.3124831,-35.4815907,6
1,Santo Cristo/RS,-27.826259,-54.661963,1
1,Santos Dumont/MG,-21.455867,-43.5522107,3
D1,Santos Dumont/MG,-21.455867,-43.5522107,1
1,Santos/SP,-23.960833,-46.333889,419
D1,Santos/SP,-23.960833,-46.333889,25
1,Sapiranga/RS,-29.6392382,-51.0068586,7
1,Sapucaia do Sul/RS,-29.8197019,-51.1608722,8
1,Sapucaia/RJ,-21.9946569,-42.9137975,3
D1,Sapucaia/RJ,-21.9946569,-42.9137975,2
1,Sapé/PB,-7.093591,-35.227975,13
D1,Sapé/PB,-7.093591,-35.227975,1
1,Saquarema/RJ,-22.9257974,-42.507633,6
1,Sarandi/PR,-23.444117,-51.876016,2
1,Sarandi/RS,-27.942,-52.923085,1
1,Sarzedo/MG,-20.0353,-44.1453,1
1,Satuba/AL,-9.569113,-35.822697,3
1,Schroeder/SC,-26.411571,-49.074041,1
1,Seara/SC,-27.1528578,-52.3096985,1
1,Selvíria/MS,-20.3638312,-51.4183823,1
1,Senador Amaral/MG,-22.5654695,-46.17769167394954,4
1,Senador Canedo/GO,-16.7013233,-49.0914921,6
1,Senador Guiomard/AC,-9.9765,-67.31913961038961,2
1,Senador Pompeu/CE,-5.5874386,-39.3730901,4
1,Senador Sá/CE,-3.3528,-40.4644057,1
1,Senhora do Porto/MG,-18.8905778,-43.0844887,1
1,Serafina Corrêa/RS,-28.7120266,-51.9343269,8
D1,Serafina Corrêa/RS,-28.7120266,-51.9343269,1
1,Seropédica/RJ,-22.7438887,-43.6991998,8
1,Serra Branca/PB,-7.4815274,-36.6634581,1
1,Serra Negra do Norte/RN,-6.6627568,-37.4010583,1
1,Serra Negra/SP,-22.61222,-46.70056,1
1,Serra Preta/BA,-12.1589615,-39.3320929,1
1,Serra Talhada/PE,-7.9867805,-38.2920294,4
1,Serra de São Bento/RN,-6.4169271,-35.70478,1
1,Serra do Navio/AP,1.637,-52.272340909090914,2
1,Serra do Ramalho/BA,-13.5442363,-43.5773151,1
1,Serra do Salitre/MG,-19.1101839,-46.6809858,1
1,Serra/ES,-20.1252961,-40.3064477,388
D1,Serra/ES,-20.1252961,-40.3064477,19
1,Serrana/SP,-21.2066883,-47.6053774,2
D1,Serrana/SP,-21.2066883,-47.6053774,2
1,Serrinha/BA,-11.66199,-39.0034021,4
1,Sertaneja/PR,-23.0367627,-50.816802,1
1,Sertânia/PE,-8.068467,-37.268393,1
D1,Sertânia/PE,-8.068467,-37.268393,1
1,Sertãozinho/SP,-21.1375782,-47.9913741,10
D1,Sertãozinho/SP,-21.1375782,-47.9913741,2
1,Sete Lagoas/MG,-19.466111,-44.246944,6
1,Siderópolis/SC,-28.597588,-49.4250007,7
1,Sidrolândia/MS,-20.9361042,-54.9640262,1
1,Silva Jardim/RJ,-22.6504534,-42.3919146,4
1,Silves/AM,-2.8372614,-58.2105199,2
1,Silvânia/GO,-16.6599718,-48.608326,1
1,Simão Dias/SE,-10.7388301,-37.809016,4
D1,Simão Dias/SE,-10.7388301,-37.809016,1
1,Simões Filho/BA,-12.7867839,-38.4030365,6
1,Sinop/MT,-11.8508224,-55.5175957,20
D1,Sinop/MT,-11.8508224,-55.5175957,1
1,Siqueira Campos/PR,-23.687481,-49.830416,2
D1,Siqueira Campos/PR,-23.687481,-49.830416,1
1,Sirinhaém/PE,-8.5922963,-35.1151914,3
1,Sobral/CE,-3.6879135,-40.3456372,79
D1,Sobral/CE,-3.6879135,-40.3456372,2
1,Sobrália/MG,-19.2345745,-42.0978033,1
1,Socorro/SP,-22.5902619,-46.5249112,1
1,Soledade/RS,-28.8272467,-52.5109157,2
1,Solonópole/CE,-5.7329092,-39.0098669,1
D1,Solonópole/CE,-5.7329092,-39.0098669,1
1,Sombrio/SC,-29.107985,-49.632776,11
D1,Sombrio/SC,-29.107985,-49.632776,1
1,Sonora/MS,-17.5852028,-54.7548288,11
1,Sooretama/ES,-19.1918129,-40.1037067,2
1,Sorocaba/SP,-23.501667,-47.458056,79
D1,Sorocaba/SP,-23.501667,-47.458056,15
1,Sousa/PB,-6.7662029,-38.2319607,6
1,Sumaré/SP,-22.8217964,-47.267105,9
1,Sumidouro/RJ,-22.0498059,-42.6742601,2
1,Surubim/PE,-7.8424353,-35.7539722,1
1,Suzano/SP,-23.5427842,-46.3108391,109
D1,Suzano/SP,-23.5427842,-46.3108391,10
1,Sátiro Dias/BA,-11.6033746,-38.581456,1
1,São Benedito do Rio Preto/MA,-3.3306675,-43.5264074,1
1,São Benedito/CE,-4.0479952,-40.8643488,1
1,São Bento do Sul/SC,-26.2483669,-49.3820672,2
1,São Bento do Una/PE,-8.5207092,-36.4445546,1
1,São Bento/PB,-6.4878082,-37.4494675,1
1,São Bernardo do Campo/SP,-23.7080345,-46.5506747,463
D1,São Bernardo do Campo/SP,-23.7080345,-46.5506747,31
1,São Brás do Suaçuí/MG,-20.625,-43.948889,2
1,São Caetano de Odivelas/PA,-0.747293,-48.024622,1
1,São Caetano do Sul/SP,-23.6195923,-46.5688323,131
D1,São Caetano do Sul/SP,-23.6195923,-46.5688323,9
1,São Caitano/PE,-8.3304491,-36.135359,4
1,São Carlos/SP,-22.0183367,-47.890932,12
D1,São Carlos/SP,-22.0183367,-47.890932,2
1,São Cristóvão/SE,-11.0136465,-37.2071134,4
1,São Domingos do Sul/RS,-28.5297239,-51.8905306,3
1,São Domingos/BA,-11.4636112,-39.526527,1
1,São Domingos/SC,-26.5593237,-52.5311718,5
1,São Fidélis/RJ,-21.6482101,-41.7480548,3
1,São Francisco de Itabapoana/RJ,-21.4743369,-41.1118362,2
D1,São Francisco de Itabapoana/RJ,-21.4743369,-41.1118362,1
1,São Francisco do Brejão/MA,-5.124869,-47.3871865,1
1,São Francisco do Conde/BA,-12.628108,-38.6811326,3
1,São Francisco do Sul/SC,-26.2495087,-48.6308087,2
1,São Francisco/MG,-15.948889,-44.864444,1
D1,São Francisco/MG,-15.948889,-44.864444,1
1,São Gabriel da Palha/ES,-19.0148349,-40.539464,3
1,São Gabriel/RS,-30.334214,-54.3227149,1
1,São Geraldo da Piedade/MG,-18.8449508,-42.2886336,1
D1,São Geraldo da Piedade/MG,-18.8449508,-42.2886336,1
1,São Geraldo do Araguaia/PA,-6.394715,-48.559169,1
1,São Gonçalo do Amarante/CE,-3.6099755,-38.9687182,9
D1,São Gonçalo do Amarante/CE,-3.6099755,-38.9687182,1
1,São Gonçalo do Amarante/RN,-5.7932331,-35.3286312,41
D1,São Gonçalo do Amarante/RN,-5.7932331,-35.3286312,2
1,São Gonçalo/RJ,-22.8219014,-43.0309252,158
D1,São Gonçalo/RJ,-22.8219014,-43.0309252,18
1,São Gotardo/MG,-19.3168844,-46.0476596,2
1,São Joaquim da Barra/SP,-20.5814993,-47.8608238,2
1,São Jorge/RS,-28.5006499,-51.7050503,2
1,São José da Coroa Grande/PE,-8.889375,-35.151461,1
D1,São José da Coroa Grande/PE,-8.889375,-35.151461,1
1,São José da Lapa/MG,-19.6988548,-43.9583194,2
1,São José da Vitória/BA,-15.0790716,-39.3365369,1
1,São José de Mipibu/RN,-6.0746867,-35.2370184,5
1,São José de Ribamar/MA,-2.5609115,-44.0559509,135
D1,São José de Ribamar/MA,-2.5609115,-44.0559509,6
1,São José do Calçado/ES,-21.0271161,-41.654069,2
1,São José do Divino/PI,-3.8108544,-41.8297546,3
D1,São José do Divino/PI,-3.8108544,-41.8297546,1
1,São José do Egito/PE,-7.469447,-37.273974,1
1,São José do Piauí/PI,-6.8725567,-41.4772864,1
1,São José do Rio Pardo/SP,-21.595288,-46.887303,3
1,São José do Rio Preto/SP,-20.8125851,-49.3804212,76
D1,São José do Rio Preto/SP,-20.8125851,-49.3804212,8
1,São José dos Campos/SP,-23.1805011,-45.8872969,174
D1,São José dos Campos/SP,-23.1805011,-45.8872969,5
1,São José dos Pinhais/PR,-25.533816,-49.2072163,19
1,São José dos Quatro Marcos/MT,-15.627584,-58.177217,6
1,São José/SC,-27.6162335,-48.6270136,48
D1,São José/SC,-27.6162335,-48.6270136,1
1,São João Batista/MA,-2.9582059,-44.7984816,1
1,São João Nepomuceno/MG,-21.5359158,-43.0151428,1
1,São João da Barra/RJ,-21.6348588,-41.0487079,1
1,São João da Boa Vista/SP,-21.9778137,-46.7881722,8
1,São João de Meriti/RJ,-22.8043744,-43.3724125,128
D1,São João de Meriti/RJ,-22.8043744,-43.3724125,10
1,São João de Pirabas/PA,-0.7733201,-47.1770631,1
1,São João del Rei/MG,-21.1335755,-44.2588086,5
1,São João do Araguaia/PA,-5.3617017,-48.7911109,1
1,São João do Caiuá/PR,-22.8544849,-52.3371114,7
D1,São João do Caiuá/PR,-22.8544849,-52.3371114,1
1,São João do Ivaí/PR,-23.9914063,-51.8232148,6
D1,São João do Ivaí/PR,-23.9914063,-51.8232148,1
1,São João do Jaguaribe/CE,-5.2719441,-38.271993,1
1,São João do Rio do Peixe/PB,-6.7291053,-38.4478745,4
1,São João dos Patos/MA,-6.4934,-43.703623,1
1,São Leopoldo/RS,-29.7544405,-51.1516497,27
D1,São Leopoldo/RS,-29.7544405,-51.1516497,1
1,São Lourenço da Mata/PE,-7.9959607,-35.039335,89
D1,São Lourenço da Mata/PE,-7.9959607,-35.039335,20
1,São Lourenço da Serra/SP,-23.8535923,-46.9440587,4
D1,São Lourenço da Serra/SP,-23.8535923,-46.9440587,1
1,São Lourenço do Oeste/SC,-26.35566,-52.849837,2
1,São Lourenço do Sul/RS,-31.3660131,-51.9799711,2
1,São Lourenço/MG,-22.116389,-45.054167,4
1,São Ludgero/SC,-28.3243832,-49.174819,6
D1,São Ludgero/SC,-28.3243832,-49.174819,1
1,São Luiz/RR,1.0170607,-60.0371719,1
1,São Luís de Montes Belos/GO,-16.5210639,-50.3726281,2
1,São Luís do Curu/CE,-3.6721635,-39.2411444,4
D1,São Luís do Curu/CE,-3.6721635,-39.2411444,1
1,São Luís/MA,-2.5634605,-44.2448718,1754
D1,São Luís/MA,-2.5634605,-44.2448718,87
1,São Manoel do Paraná/PR,-23.394137,-52.645376,1
1,São Manuel/SP,-22.732081,-48.572316,6
D1,São Manuel/SP,-22.732081,-48.572316,1
1,São Mateus/ES,-18.7157663,-39.8492211,12
D1,São Mateus/ES,-18.7157663,-39.8492211,1
1,São Miguel Arcanjo/SP,-23.8807771,-47.9963492,4
1,São Miguel do Gostoso/RN,-5.1230207,-35.6353882,1
1,São Miguel do Guamá/PA,-1.6116804,-47.4757551,11
D1,São Miguel do Guamá/PA,-1.6116804,-47.4757551,1
1,São Miguel dos Campos/AL,-9.7831115,-36.0967804,1
1,São Miguel dos Milagres/AL,-9.267217,-35.376312,1
D1,São Miguel dos Milagres/AL,-9.267217,-35.376312,1
1,São Miguel/RN,-6.2121764,-38.4977377,2
1,São Paulo de Olivença/AM,-3.4650627,-68.9468462,19
1,São Paulo/SP,-23.5506507,-46.6333824,13098
D1,São Paulo/SP,-23.5506507,-46.6333824,1099
1,São Pedro da Aldeia/RJ,-22.8384835,-42.1031604,16
D1,São Pedro da Aldeia/RJ,-22.8384835,-42.1031604,2
1,São Pedro de Alcântara/SC,-27.5676985,-48.8047973,1
1,São Pedro/RN,-5.8965573,-35.6340558,1
1,São Pedro/SP,-22.5512765,-47.9072359,1
1,São Rafael/RN,-5.8022027,-36.8835945,3
D1,São Rafael/RN,-5.8022027,-36.8835945,1
1,São Raimundo Nonato/PI,-9.0150522,-42.6886909,15
1,São Roque do Canaã/ES,-19.7385942,-40.6598575,2
1,São Roque/SP,-23.5304843,-47.1355473,18
D1,São Roque/SP,-23.5304843,-47.1355473,1
1,São Sebastião da Boa Vista/PA,-1.7182884,-49.5319955,7
1,São Sebastião da Grama/SP,-21.7118854,-46.8284162,1
1,São Sebastião do Alto/RJ,-21.9568272,-42.134815,1
1,São Sebastião do Caí/RS,-29.5911777,-51.3778772,2
1,São Sebastião do Paraíso/MG,-20.9124331,-46.9823296,2
D1,São Sebastião do Paraíso/MG,-20.9124331,-46.9823296,1
1,São Sebastião/AL,-9.9315057,-36.5439245,1
1,São Sebastião/SP,-23.8027866,-45.4070527,15
D1,São Sebastião/SP,-23.8027866,-45.4070527,2
1,São Tomás de Aquino/MG,-20.784444,-47.098055,2
D1,São Tomás de Aquino/MG,-20.784444,-47.098055,1
1,São Vicente Ferrer/PE,-7.589691,-35.480844,1
1,São Vicente/SP,-23.9603686,-46.3847024,103
D1,São Vicente/SP,-23.9603686,-46.3847024,1
1,Sítio Novo do Tocantins/TO,-5.6028662,-47.6349901,1
1,Tabatinga/AM,-4.2327349,-69.9263372,42
D1,Tabatinga/AM,-4.2327349,-69.9263372,3
1,Tabaí/RS,-29.6877843,-51.7180847,4
1,Tabira/PE,-7.583661,-37.537735,1
D1,Tabira/PE,-7.583661,-37.537735,1
1,Taboão da Serra/SP,-23.6121912,-46.7790539,152
D1,Taboão da Serra/SP,-23.6121912,-46.7790539,13
1,Tabuleiro do Norte/CE,-5.2440865,-38.1284605,4
1,Taiaçu/SP,-21.143144,-48.511203,2
1,Tailândia/PA,-2.936096,-48.9523366,2
1,Taipu/RN,-5.6228594,-35.5991764,1
D1,Taipu/RN,-5.6228594,-35.5991764,1
1,Tamandaré/PE,-8.7500009,-35.1045787,2
1,Tamboara/PR,-23.1995071,-52.5000131,1
1,Tanabi/SP,-20.6251635,-49.6519879,1
1,Tangará da Serra/MT,-14.6213903,-57.4907268,5
1,Tangará/SC,-27.0997957,-51.2477143,2
D1,Tangará/SC,-27.0997957,-51.2477143,1
1,Tanguá/RJ,-22.7353777,-42.7202272,11
D1,Tanguá/RJ,-22.7353777,-42.7202272,6
1,Tapauá/AM,-5.6232283,-63.1879157,2
1,Tapejara/RS,-28.069233,-52.0117161,2
1,Taperoá/BA,-13.537334,-39.0986475,7
1,Taperoá/PB,-7.206294,-36.824499,1
D1,Taperoá/PB,-7.206294,-36.824499,1
1,Taquara/RS,-29.6465318,-50.7805672,1
1,Taquari/RS,-29.79433,-51.865346,11
1,Taquaritinga/SP,-21.407486,-48.5054848,1
1,Taquarituba/SP,-23.5337307,-49.2452541,1
1,Tarabai/SP,-22.3038726,-51.5628675,2
1,Tatuí/SP,-23.3514733,-47.8552438,8
1,Taubaté/SP,-23.031448,-45.5612792,9
1,Tauá/CE,-6.0031372,-40.2947268,14
1,Tefé/AM,-3.3485276,-64.7102278,17
D1,Tefé/AM,-3.3485276,-64.7102278,1
1,Teixeira de Freitas/BA,-17.5376644,-39.7458096,9
1,Telêmaco Borba/PR,-24.3282939,-50.6318021,11
1,Tenente Ananias/RN,-6.4641549,-38.1791844,2
D1,Tenente Ananias/RN,-6.4641549,-38.1791844,2
1,Teresina/PI,-5.0896403,-42.809588,223
D1,Teresina/PI,-5.0896403,-42.809588,8
1,Teresópolis/RJ,-22.4164578,-42.975194,32
D1,Teresópolis/RJ,-22.4164578,-42.975194,1
1,Terra Alta/PA,-1.0397924,-47.9091595,2
1,Terra Boa/PR,-23.768329,-52.447002,2
D1,Terra Boa/PR,-23.768329,-52.447002,1
1,Terra Rica/PR,-22.7264874,-52.6202541,1
1,Terra Roxa/SP,-20.787015,-48.331442,1
1,Teutônia/RS,-29.4816568,-51.813752,1
1,Teófilo Otoni/MG,-17.8579267,-41.5081533,1
1,Tianguá/CE,-3.7307332,-41.0004019,4
D1,Tianguá/CE,-3.7307332,-41.0004019,1
1,Tibau/RN,-4.8349636,-37.2542651,2
1,Tijucas/SC,-27.239404,-48.6353696,4
1,Timbaúba/PE,-7.5118822,-35.316076,5
D1,Timbaúba/PE,-7.5118822,-35.316076,2
1,Timbé do Sul/SC,-28.8300122,-49.8466056,1
1,Timbó/SC,-26.8282737,-49.270641,4
1,Timon/MA,-5.1023325,-42.8449518,13
1,Timóteo/MG,-19.5771395,-42.6436108,8
1,Tio Hugo/RS,-28.5768433,-52.5969066,2
D1,Tio Hugo/RS,-28.5768433,-52.5969066,1
1,Tocantinópolis/TO,-6.3280931,-47.4217673,1
1,Toledo/MG,-22.7433969,-46.3735044,4
1,Toledo/PR,-24.7222438,-53.7402476,1
1,Tomar do Geru/SE,-11.3752475,-37.8413399,1
1,Tomé-Açu/PA,-2.4166306,-48.1522907,1
1,Tonantins/AM,-2.86261,-67.7735482,13
1,Toritama/PE,-8.0083743,-36.058776,1
1,Torres/RS,-29.3373663,-49.7299648,10
1,Touros/RN,-5.1998625,-35.4595051,1
D1,Touros/RN,-5.1998625,-35.4595051,1
1,Tracuateua/PA,-1.0765338,-46.9030822,1
1,Tracunhaém/PE,-7.8027253,-35.238498,2
1,Trairi/CE,-3.2741504,-39.2649188,3
1,Tramandaí/RS,-29.9855339,-50.1316076,2
1,Treze de Maio/SC,-28.5574415,-49.1447586,3
1,Trindade/GO,-16.6549924,-49.4876203,7
1,Trindade/PE,-7.759,-40.26472,1
1,Triunfo/PE,-7.8362959,-38.1042617,2
1,Triunfo/RS,-29.9407972,-51.7191859,5
1,Trizidela do Vale/MA,-4.5694816,-44.6144214,2
1,Três Cachoeiras/RS,-29.4521243,-49.9190608,1
1,Três Lagoas/MS,-20.7866799,-51.7061247,39
D1,Três Lagoas/MS,-20.7866799,-51.7061247,3
1,Três Marias/MG,-18.204795,-45.247289,1
1,Três Pontas/MG,-21.3686224,-45.5122937,2
D1,Três Pontas/MG,-21.3686224,-45.5122937,1
1,Três Rios/RJ,-22.1167884,-43.2087226,8
1,Tubarão/SC,-28.471488,-49.014132,34
D1,Tubarão/SC,-28.471488,-49.014132,2
1,Tucumã/PA,-6.7517239,-51.1507941,1
1,Tucunduva/RS,-27.6581837,-54.4416605,1
1,Tucuruí/PA,-3.7738509,-49.6708204,6
1,Tuiuti/SP,-22.819324,-46.6937627,1
1,Tuntum/MA,-5.2630885,-44.6448502,2
1,Tupaciguara/MG,-18.5932122,-48.6999014,3
1,Tupanatinga/PE,-8.7542378,-37.3398733,3
1,Tupandi/RS,-29.4779269,-51.4209232,1
1,Tuparetama/PE,-7.6010116,-37.3114417,1
1,Tupã/SP,-21.9348631,-50.5135113,2
1,Tupãssi/PR,-24.6345,-53.509125,1
1,Tururu/CE,-3.5985489,-39.4358101,1
1,Ubatuba/SP,-23.433162,-45.083415,4
1,Ubatã/BA,-14.212002,-39.5245924,5
1,Uberaba/MG,-19.750833,-47.936666,37
D1,Uberaba/MG,-19.750833,-47.936666,3
1,Uberlândia/MG,-18.9188041,-48.2767837,92
D1,Uberlândia/MG,-18.9188041,-48.2767837,6
1,Ubá/MG,-21.12,-42.942777,4
1,Umirim/CE,-3.6777738,-39.348725,1
D1,Umirim/CE,-3.6777738,-39.348725,1
1,Umuarama/PR,-23.7617057,-53.3079895,4
1,Una/BA,-15.2921699,-39.0744599,3
1,Unaí/MG,-16.3628767,-46.892413,2
1,União da Vitória/PR,-26.228596,-51.0869796,6
1,União do Sul/MT,-11.5308712,-54.3695643,1
1,União dos Palmares/AL,-9.1576807,-36.0342251,1
1,União/PI,-4.5892553,-42.8593348,4
1,Urbano Santos/MA,-3.2036233,-43.3929106,3
1,Uruburetama/CE,-3.6235302,-39.5050697,3
1,Uruguaiana/RS,-29.7564894,-57.0867197,3
1,Uruoca/CE,-3.3147591,-40.558957,1
1,Urupá/RO,-11.1256535,-62.3704203,1
1,Urussanga/SC,-28.5191381,-49.3201776,3
D1,Urussanga/SC,-28.5191381,-49.3201776,1
1,Uruçuca/BA,-14.5913092,-39.2862094,14
D1,Uruçuca/BA,-14.5913092,-39.2862094,4
1,Utinga/BA,-12.0781018,-41.090787,1
D1,Utinga/BA,-12.0781018,-41.090787,1
1,Vacaria/RS,-28.5102901,-50.9356044,4
D1,Vacaria/RS,-28.5102901,-50.9356044,1
1,Valente/BA,-11.4127335,-39.4627304,1
1,Valença/BA,-13.3723582,-39.0694243,4
1,Valença/RJ,-22.2461028,-43.6996917,5
1,Valinhos/SP,-22.97056,-46.99583,18
D1,Valinhos/SP,-22.97056,-46.99583,3
1,Valparaíso de Goiás/GO,-16.0686394,-47.9764907,7
D1,Valparaíso de Goiás/GO,-16.0686394,-47.9764907,1
1,Vargem Bonita/SC,-27.005456,-51.740238,1
1,Vargem Grande Paulista/SP,-23.599338,-47.022038,14
D1,Vargem Grande Paulista/SP,-23.599338,-47.022038,3
1,Vargem Grande/MA,-3.5443611,-43.9149128,3
1,Varginha/MG,-21.5565914,-45.4340674,12
D1,Varginha/MG,-21.5565914,-45.4340674,1
1,Varzelândia/MG,-15.701667,-44.027223,1
D1,Varzelândia/MG,-15.701667,-44.027223,1
1,Vassouras/RJ,-22.4040394,-43.6633853,3
1,Vazante/MG,-17.9896107,-46.9003899,2
1,Venda Nova do Imigrante/ES,-20.3325787,-41.1295842,10
1,Venâncio Aires/RS,-29.614306,-52.193159,6
D1,Venâncio Aires/RS,-29.614306,-52.193159,1
1,Vera Cruz/BA,-12.9608153,-38.6099216,1
1,Veranópolis/RS,-28.9351293,-51.5516741,1
1,Vertentes/PE,-7.906103,-35.9894975,1
1,Verê/PR,-25.8812309,-52.9081757,3
1,Viamão/RS,-30.0819338,-51.0261927,19
1,Viana/ES,-20.3914471,-40.4966587,17
D1,Viana/ES,-20.3914471,-40.4966587,1
1,Viana/MA,-3.2099341,-45.0002456,2
1,Vianópolis/GO,-16.7475869,-48.5131735,1
1,Victor Graeff/RS,-28.563163,-52.749535,2
1,Vidal Ramos/SC,-27.3908814,-49.3615664,1
1,Videira/SC,-27.00544,-51.1533733,2
1,Vigia/PA,-0.8546027,-48.1432873,25
D1,Vigia/PA,-0.8546027,-48.1432873,1
1,Vila Bela da Santíssima Trindade/MT,-15.009904,-59.961115,1
1,Vila Maria/RS,-28.53429,-52.1548439,1
1,Vila Valério/ES,-18.9984033,-40.3894342,2
1,Vila Velha/ES,-20.3297293,-40.2920284,451
D1,Vila Velha/ES,-20.3297293,-40.2920284,10
1,Vilhena/RO,-12.7368536,-60.1465555,1
1,Vinhedo/SP,-23.0295183,-46.9756292,21
D1,Vinhedo/SP,-23.0295183,-46.9756292,1
1,Viseu/PA,-1.204892,-46.1392244,2
D1,Viseu/PA,-1.204892,-46.1392244,1
1,Vista Alegre do Alto/SP,-21.171293,-48.6299172,1
1,Vitorino Freire/MA,-4.2885303,-45.2417582,1
1,Vitorino/PR,-26.2647687,-52.7804392,1
1,Vitória da Conquista/BA,-14.8567487,-40.8414804,25
D1,Vitória da Conquista/BA,-14.8567487,-40.8414804,1
1,Vitória de Santo Antão/PE,-8.1209019,-35.2944858,35
D1,Vitória de Santo Antão/PE,-8.1209019,-35.2944858,7
1,Vitória do Jari/AP,-0.9310733,-52.4241059,2
1,Vitória do Mearim/MA,-3.4606064,-44.8719539,6
1,Vitória/ES,-20.3200917,-40.3376682,356
D1,Vitória/ES,-20.3200917,-40.3376682,11
1,Viçosa do Ceará/CE,-3.5667684,-41.091504,1
D1,Viçosa do Ceará/CE,-3.5667684,-41.091504,1
1,Viçosa/AL,-9.3728032,-36.2432636,1
D1,Viçosa/AL,-9.3728032,-36.2432636,1
1,Volta Redonda/RJ,-22.5225497,-44.1040128,181
D1,Volta Redonda/RJ,-22.5225497,-44.1040128,6
1,Votorantim/SP,-23.5466667,-47.4377778,8
D1,Votorantim/SP,-23.5466667,-47.4377778,2
1,Votuporanga/SP,-20.4252506,-49.97226,9
1,Várzea Alegre/CE,-6.7936089,-39.2989333,3
1,Várzea Grande/MT,-15.645816,-56.132218,12
1,Várzea Grande/PI,-6.5460829,-42.2480401,1
1,Várzea Paulista/SP,-23.2113889,-46.8283333,10
D1,Várzea Paulista/SP,-23.2113889,-46.8283333,2
1,Xaxim/SC,-26.9605363,-52.5335505,1
1,Xexéu/PE,-8.8036743,-35.6244442,1
1,Xinguara/PA,-7.0998514,-49.9416632,2
1,Zé Doca/MA,-3.270145,-45.655344,6
D1,Zé Doca/MA,-3.270145,-45.655344,1
1,Água Branca/PI,-5.8913922,-42.6361148,4
1,Água Fria/BA,-11.8784691,-38.7663706,1
D1,Água Fria/BA,-11.8784691,-38.7663706,1
1,Águas Lindas de Goiás/GO,-15.7392283,-48.2793357,6
1,Águas Mornas/SC,-27.696316,-48.8247831,1
1,Águas de Lindóia/SP,-22.4718855,-46.6291034,2
D1,Águas de Lindóia/SP,-22.4718855,-46.6291034,1
1,Águas de São Pedro/SP,-22.6000681,-47.8750887,1
1,Óbidos/PA,-1.901072,-55.520812,2
D1,Óbidos/PA,-1.901072,-55.520812,1
