type,name,lat,lon,total,total_per_100k_inhabitants
1,Abadia de Goiás/GO,-16.7572644,-49.4412205,1919,20954.35685
D1,Abadia de Goiás/GO,-16.7572644,-49.4412205,40,436.77659
1,Abadia dos Dourados/MG,-18.4911191,-47.4063589,582,8288.23697
D1,Abadia dos Dourados/MG,-18.4911191,-47.4063589,17,242.09627
1,Abadiânia/GO,-16.1940946,-48.7067767,546,2615.81948
D1,Abadiânia/GO,-16.1940946,-48.7067767,44,210.79864
1,Abaetetuba/PA,-1.721828,-48.878843,9444,5886.34933
D1,Abaetetuba/PA,-1.721828,-48.878843,226,140.86351
1,Abaeté/MG,-19.1566833,-45.4481213,1665,7157.28840
D1,Abaeté/MG,-19.1566833,-45.4481213,42,180.54421
1,Abaiara/CE,-7.3607808,-39.0487878,631,5273.71500
D1,Abaiara/CE,-7.3607808,-39.0487878,17,142.08107
1,Abaré/BA,-8.7239913,-39.1139689,1038,5040.30300
D1,Abaré/BA,-8.7239913,-39.1139689,11,53.41362
1,Abatiá/PR,-23.3052967,-50.3102532,1121,15230.97826
D1,Abatiá/PR,-23.3052967,-50.3102532,20,271.73913
1,Abaíra/BA,-13.2503296,-41.6640342,299,3444.30365
D1,Abaíra/BA,-13.2503296,-41.6640342,12,138.23292
1,Abdon Batista/SC,-27.612419,-51.022992,408,16101.02605
D1,Abdon Batista/SC,-27.612419,-51.022992,4,157.85320
1,Abel Figueiredo/PA,-4.953001,-48.3958485,1075,14264.86200
D1,Abel Figueiredo/PA,-4.953001,-48.3958485,11,145.96603
1,Abelardo Luz/SC,-26.5705893,-52.3280339,1923,10674.43797
D1,Abelardo Luz/SC,-26.5705893,-52.3280339,55,305.30114
1,Abre Campo/MG,-20.2976097,-42.4764741,1281,9535.50692
D1,Abre Campo/MG,-20.2976097,-42.4764741,16,119.10079
1,Abreu e Lima/PE,-7.900719,-34.898389,3494,3469.78093
D1,Abreu e Lima/PE,-7.900719,-34.898389,245,243.30175
1,Abreulândia/TO,-9.6221526,-49.1558343,321,12303.56458
D1,Abreulândia/TO,-9.6221526,-49.1558343,6,229.97317
1,Acaiaca/MG,-20.3621646,-43.1444162,234,5857.32165
D1,Acaiaca/MG,-20.3621646,-43.1444162,12,300.37547
1,Acajutiba/BA,-11.6609659,-38.0186381,574,3772.84080
D1,Acajutiba/BA,-11.6609659,-38.0186381,20,131.45787
1,Acarape/CE,-4.2237866,-38.7071663,2830,18692.20608
D1,Acarape/CE,-4.2237866,-38.7071663,31,204.75561
1,Acaraú/CE,-2.8869514,-40.1194713,5262,8279.31273
D1,Acaraú/CE,-2.8869514,-40.1194713,113,177.79596
1,Acari/RN,-6.4364689,-36.6394777,1121,10093.64308
D1,Acari/RN,-6.4364689,-36.6394777,19,171.07870
1,Acará/PA,-1.961388,-48.1987043,1782,3196.75660
D1,Acará/PA,-1.961388,-48.1987043,39,69.96269
1,Acauã/PI,-8.219542,-41.083059,213,2991.99326
D1,Acauã/PI,-8.219542,-41.083059,1,14.04692
1,Aceguá/RS,-31.8695131,-54.1615593,380,7628.99016
D1,Aceguá/RS,-31.8695131,-54.1615593,7,140.53403
1,Acopiara/CE,-6.0936464,-39.4543204,4080,7460.63964
D1,Acopiara/CE,-6.0936464,-39.4543204,151,276.11681
1,Acorizal/MT,-15.2001544,-56.3668953,803,15125.25899
D1,Acorizal/MT,-15.2001544,-56.3668953,22,414.39066
1,Acrelândia/AC,-10.0759167,-67.0526898,1796,11424.20966
D1,Acrelândia/AC,-10.0759167,-67.0526898,37,235.35399
1,Acreúna/GO,-17.3959899,-50.3749031,2679,11796.56539
D1,Acreúna/GO,-17.3959899,-50.3749031,61,268.60414
1,Adamantina/SP,-21.6866517,-51.0762975,3905,11108.58248
D1,Adamantina/SP,-21.6866517,-51.0762975,134,381.19079
1,Adelândia/GO,-16.4155077,-50.1665834,233,9264.41352
D1,Adelândia/GO,-16.4155077,-50.1665834,4,159.04573
1,Adolfo/SP,-21.2356597,-49.6441918,622,17545.83921
D1,Adolfo/SP,-21.2356597,-49.6441918,19,535.96615
1,Adrianópolis/PR,-24.6557863,-48.9912769,1413,24374.67656
D1,Adrianópolis/PR,-24.6557863,-48.9912769,29,500.25875
1,Adustina/BA,-10.5358875,-38.114479,1091,6339.70597
D1,Adustina/BA,-10.5358875,-38.114479,27,156.89465
1,Afogados da Ingazeira/PE,-7.750429,-37.6356375,5236,13945.56011
D1,Afogados da Ingazeira/PE,-7.750429,-37.6356375,74,197.09157
1,Afonso Bezerra/RN,-5.4745,-36.57625071327935,799,7247.82293
D1,Afonso Bezerra/RN,-5.4745,-36.57625071327935,18,163.28012
1,Afonso Cláudio/ES,-20.077841,-41.12606,3757,12388.70936
D1,Afonso Cláudio/ES,-20.077841,-41.12606,63,207.74253
1,Afonso Cunha/MA,-4.1326105,-43.3230026,267,4026.54200
D1,Afonso Cunha/MA,-4.1326105,-43.3230026,3,45.24204
1,Afrânio/PE,-8.5198919,-41.0070197,970,4854.61188
D1,Afrânio/PE,-8.5198919,-41.0070197,15,75.07132
1,Afuá/PA,-0.1535664,-50.3879223,3094,7752.44300
D1,Afuá/PA,-0.1535664,-50.3879223,16,40.09020
1,Agrestina/PE,-8.4558021,-35.9442663,1761,6977.02060
D1,Agrestina/PE,-8.4558021,-35.9442663,67,265.45166
1,Agricolândia/PI,-5.7967843,-42.6605131,598,11672.84794
D1,Agricolândia/PI,-5.7967843,-42.6605131,8,156.15850
1,Agrolândia/SC,-27.4122212,-49.8295774,1728,15483.87097
D1,Agrolândia/SC,-27.4122212,-49.8295774,29,259.85663
1,Agronômica/SC,-27.2660744,-49.7104753,684,12280.07181
D1,Agronômica/SC,-27.2660744,-49.7104753,14,251.34650
1,Aguanil/MG,-20.9424533,-45.3927152,698,15317.09458
D1,Aguanil/MG,-20.9424533,-45.3927152,8,175.55409
1,Aguaí/SP,-22.0592036,-46.979384,3606,9750.95319
D1,Aguaí/SP,-22.0592036,-46.979384,111,300.15413
1,Agudo/RS,-29.6423259,-53.2494005,1930,11808.61478
D1,Agudo/RS,-29.6423259,-53.2494005,31,189.67205
1,Agudos do Sul/PR,-25.9890808,-49.3328175,767,8017.14226
D1,Agudos do Sul/PR,-25.9890808,-49.3328175,30,313.57792
1,Agudos/SP,-22.471162,-48.987822,4772,12697.56798
D1,Agudos/SP,-22.471162,-48.987822,110,292.69331
1,Aguiar/PB,-7.0928404,-38.1727215,537,9551.76094
D1,Aguiar/PB,-7.0928404,-38.1727215,5,88.93632
1,Aguiarnópolis/TO,-6.5600452,-47.4721189,703,9973.04582
D1,Aguiarnópolis/TO,-6.5600452,-47.4721189,14,198.60973
1,Aimorés/MG,-19.4917754,-41.0615603,2113,8412.96385
D1,Aimorés/MG,-19.4917754,-41.0615603,78,310.55901
1,Aiquara/BA,-14.126918,-39.8887574,504,11488.48872
D1,Aiquara/BA,-14.126918,-39.8887574,12,273.53545
1,Aiuaba/CE,-6.5710836,-40.1212278,818,4651.95632
D1,Aiuaba/CE,-6.5710836,-40.1212278,11,62.55687
1,Aiuruoca/MG,-21.9759554,-44.6036637,350,5883.34174
D1,Aiuruoca/MG,-21.9759554,-44.6036637,10,168.09548
1,Ajuricaba/RS,-28.239654,-53.7693013,1349,19407.27953
D1,Ajuricaba/RS,-28.239654,-53.7693013,30,431.59258
1,Alagoa Grande/PB,-7.0415212,-35.6285322,4164,14670.23675
D1,Alagoa Grande/PB,-7.0415212,-35.6285322,72,253.66404
1,Alagoa Nova/PB,-7.0653703,-35.76695977336711,1788,8517.53049
D1,Alagoa Nova/PB,-7.0653703,-35.76695977336711,33,157.20274
1,Alagoa/MG,-22.1697202,-44.6400042,446,16785.84870
D1,Alagoa/MG,-22.1697202,-44.6400042,8,301.09146
1,Alagoinha do Piauí/PI,-7.0090952,-40.939675,393,5118.52045
D1,Alagoinha do Piauí/PI,-7.0090952,-40.939675,10,130.24225
1,Alagoinha/PB,-6.97063215,-35.51490901897793,2093,14307.19803
D1,Alagoinha/PB,-6.97063215,-35.51490901897793,25,170.89343
1,Alagoinha/PE,-8.50355635,-36.77701174370496,1433,9683.74105
D1,Alagoinha/PE,-8.50355635,-36.77701174370496,28,189.21476
1,Alagoinhas/BA,-12.133526,-38.420772,14561,9515.56302
D1,Alagoinhas/BA,-12.133526,-38.420772,322,210.42588
1,Alambari/SP,-23.550338,-47.897971,680,10913.17606
D1,Alambari/SP,-23.550338,-47.897971,12,192.58546
1,Albertina/MG,-20.66164,-43.784039,268,8888.88889
D1,Albertina/MG,-20.66164,-43.784039,10,331.67496
1,Alcantil/PB,-7.7425491,-36.0609604,690,12484.16863
D1,Alcantil/PB,-7.7425491,-36.0609604,8,144.74398
1,Alcinópolis/MS,-18.3264121,-53.7094463,420,7651.66697
D1,Alcinópolis/MS,-18.3264121,-53.7094463,11,200.40080
1,Alcobaça/BA,-17.5215875,-39.1965474,1750,7774.66791
D1,Alcobaça/BA,-17.5215875,-39.1965474,30,133.28002
1,Alcântara/MA,-2.4038956,-44.4154241,336,1518.57543
D1,Alcântara/MA,-2.4038956,-44.4154241,19,85.87183
1,Alcântaras/CE,-3.586247,-40.5457641,1821,15372.27756
D1,Alcântaras/CE,-3.586247,-40.5457641,22,185.71670
1,Aldeias Altas/MA,-4.6291957,-43.4708622,977,3621.33511
D1,Aldeias Altas/MA,-4.6291957,-43.4708622,14,51.89221
1,Alecrim/RS,-27.6566142,-54.7653195,315,5516.63748
D1,Alecrim/RS,-27.6566142,-54.7653195,12,210.15762
1,Alegre/ES,-20.7625787,-41.5318886,3387,11339.51589
D1,Alegre/ES,-20.7625787,-41.5318886,69,231.00874
1,Alegrete do Piauí/PI,-7.2440138,-40.8602296,525,10668.56330
D1,Alegrete do Piauí/PI,-7.2440138,-40.8602296,7,142.24751
1,Alegrete/RS,-29.790166,-55.794862,11113,15329.75598
D1,Alegrete/RS,-29.790166,-55.794862,293,404.17696
1,Alegria/RS,-27.8332103,-54.0574959,396,12047.45969
D1,Alegria/RS,-27.8332103,-54.0574959,4,121.69151
1,Alenquer/PA,-1.946229,-54.738355,3647,6354.76564
D1,Alenquer/PA,-1.946229,-54.738355,143,249.17233
1,Alexandria/RN,-6.414779,-38.0135516,1908,14103.03792
D1,Alexandria/RN,-6.414779,-38.0135516,32,236.52894
1,Alexânia/GO,-16.0834049,-48.5077803,3683,12986.60085
D1,Alexânia/GO,-16.0834049,-48.5077803,92,324.40056
1,Alfenas/MG,-21.4297405,-45.9479419,10877,13432.87269
D1,Alfenas/MG,-21.4297405,-45.9479419,205,253.17081
1,Alfredo Chaves/ES,-20.624970400000002,-40.75006690147988,2760,18813.90593
D1,Alfredo Chaves/ES,-20.624970400000002,-40.75006690147988,40,272.66530
1,Alfredo Marcondes/SP,-21.9527,-51.413956,268,6379.43347
D1,Alfredo Marcondes/SP,-21.9527,-51.413956,14,333.25399
1,Alfredo Vasconcelos/MG,-21.145833,-43.776389,632,8961.99660
D1,Alfredo Vasconcelos/MG,-21.145833,-43.776389,15,212.70562
1,Alfredo Wagner/SC,-27.6961513,-49.3326734,1103,10882.00474
D1,Alfredo Wagner/SC,-27.6961513,-49.3326734,7,69.06077
1,Algodão de Jandaíra/PB,-6.9040175,-36.0089879,278,10741.88563
D1,Algodão de Jandaíra/PB,-6.9040175,-36.0089879,1,38.63988
1,Alhandra/PB,-7.4304246,-34.9106103,2474,12454.06494
D1,Alhandra/PB,-7.4304246,-34.9106103,39,196.32520
1,Aliança do Tocantins/TO,-11.3055927,-48.9409096,747,14086.36621
D1,Aliança do Tocantins/TO,-11.3055927,-48.9409096,22,414.85951
1,Aliança/PE,-7.60398,-35.222696,702,1827.74422
D1,Aliança/PE,-7.60398,-35.222696,65,169.23558
1,Almadina/BA,-14.70466,-39.6381994,644,12213.16139
D1,Almadina/BA,-14.70466,-39.6381994,11,208.60990
1,Almas/TO,-11.5681309,-47.1702803,239,3461.25996
D1,Almas/TO,-11.5681309,-47.1702803,5,72.41130
1,Almeirim/PA,-1.5290377,-52.5788111,3769,11070.96698
D1,Almeirim/PA,-1.5290377,-52.5788111,49,143.93138
1,Almenara/MG,-16.1740678,-40.6904907,4550,10736.19632
D1,Almenara/MG,-16.1740678,-40.6904907,53,125.05899
1,Almino Afonso/RN,-6.1544208,-37.7649018,509,10864.46105
D1,Almino Afonso/RN,-6.1544208,-37.7649018,13,277.48132
1,Almirante Tamandaré do Sul/RS,-28.1141129,-52.9134874,333,17209.30233
D1,Almirante Tamandaré do Sul/RS,-28.1141129,-52.9134874,7,361.75711
1,Almirante Tamandaré/PR,-25.3133048,-49.2997838,11043,9094.87729
D1,Almirante Tamandaré/PR,-25.3133048,-49.2997838,426,350.84830
1,Aloândia/GO,-17.7277983,-49.4809338,328,16599.19028
D1,Aloândia/GO,-17.7277983,-49.4809338,11,556.68016
1,Alpercata/MG,-18.9803616,-41.9827637,514,6901.18153
D1,Alpercata/MG,-18.9803616,-41.9827637,20,268.52846
1,Alpestre/RS,-27.2512339,-53.0349646,607,10314.35854
D1,Alpestre/RS,-27.2512339,-53.0349646,14,237.89295
1,Alpinópolis/MG,-20.863611,-46.387777,1880,9372.35156
D1,Alpinópolis/MG,-20.863611,-46.387777,45,224.33820
1,Alta Floresta D'Oeste/RO,-11.9296917,-61.9961284,4152,18440.22029
D1,Alta Floresta D'Oeste/RO,-11.9296917,-61.9961284,66,293.12489
1,Alta Floresta/MT,-9.8715018,-56.0839881,10474,20101.71769
D1,Alta Floresta/MT,-9.8715018,-56.0839881,147,282.12264
1,Altair/SP,-20.5238955,-49.0606135,316,7504.15578
D1,Altair/SP,-20.5238955,-49.0606135,17,403.70458
1,Altamira do Maranhão/MA,-4.1643006,-45.4674574,401,4860.60606
D1,Altamira do Maranhão/MA,-4.1643006,-45.4674574,14,169.69697
1,Altamira do Paraná/PR,-24.799114,-52.7128633,281,19664.10077
D1,Altamira do Paraná/PR,-24.799114,-52.7128633,12,839.74808
1,Altamira/PA,-3.204065,-52.209961,14591,12436.92465
D1,Altamira/PA,-3.204065,-52.209961,312,265.93931
1,Altaneira/CE,-6.9980933,-39.7385742,687,8908.19502
D1,Altaneira/CE,-6.9980933,-39.7385742,16,207.46888
1,Alterosa/MG,-21.249166,-46.143055,811,5567.76054
D1,Alterosa/MG,-21.249166,-46.143055,37,254.01620
1,Altinho/PE,-8.4904095,-36.0607494,1377,5987.99791
D1,Altinho/PE,-8.4904095,-36.0607494,30,130.45747
1,Altinópolis/SP,-21.021364,-47.3712,1033,6368.28802
D1,Altinópolis/SP,-21.021364,-47.3712,55,339.06664
1,Alto Alegre do Maranhão/MA,-4.2055693,-44.4525287,1389,4949.04867
D1,Alto Alegre do Maranhão/MA,-4.2055693,-44.4525287,29,103.32787
1,Alto Alegre do Pindaré/MA,-3.6698186,-45.8462153,2287,7154.25282
D1,Alto Alegre do Pindaré/MA,-3.6698186,-45.8462153,47,147.02662
1,Alto Alegre dos Parecis/RO,-12.1314515,-61.856265,1491,11237.56406
D1,Alto Alegre dos Parecis/RO,-12.1314515,-61.856265,45,339.16189
1,Alto Alegre/RR,2.98858,-61.307167,1627,10669.55210
D1,Alto Alegre/RR,2.98858,-61.307167,37,242.63886
1,Alto Alegre/RS,-31.780844700000003,-52.81311114489171,211,13270.44025
D1,Alto Alegre/RS,-31.780844700000003,-52.81311114489171,2,125.78616
1,Alto Alegre/SP,-21.5820592,-50.1661976,401,9833.25159
D1,Alto Alegre/SP,-21.5820592,-50.1661976,21,514.95831
1,Alto Araguaia/MT,-17.3156528,-53.2169365,1607,8151.56741
D1,Alto Araguaia/MT,-17.3156528,-53.2169365,29,147.10358
1,Alto Bela Vista/SC,-27.4320737,-51.905771,199,10391.64491
D1,Alto Bela Vista/SC,-27.4320737,-51.905771,3,156.65796
1,Alto Boa Vista/MT,-11.6723985,-51.3744431,942,13282.57191
D1,Alto Boa Vista/MT,-11.6723985,-51.3744431,18,253.80711
1,Alto Caparaó/MG,-20.4405661,-41.8683799,439,7393.06164
D1,Alto Caparaó/MG,-20.4405661,-41.8683799,9,151.56618
1,Alto Feliz/RS,-29.3785943,-51.3123751,316,10384.48899
D1,Alto Feliz/RS,-29.3785943,-51.3123751,2,65.72461
1,Alto Garças/MT,-16.9469683,-53.529427,1157,9388.94750
D1,Alto Garças/MT,-16.9469683,-53.529427,42,340.82610
1,Alto Horizonte/GO,-14.1954948,-49.3366993,1170,17216.00942
D1,Alto Horizonte/GO,-14.1954948,-49.3366993,14,206.00353
1,Alto Jequitibá/MG,-20.423611,-41.966111,993,11984.06951
D1,Alto Jequitibá/MG,-20.423611,-41.966111,11,132.75404
1,Alto Longá/PI,-5.2549051,-42.2072388,711,4947.46364
D1,Alto Longá/PI,-5.2549051,-42.2072388,15,104.37687
1,Alto Paraguai/MT,-14.513712,-56.4936374,925,7983.08449
D1,Alto Paraguai/MT,-14.513712,-56.4936374,29,250.28049
1,Alto Paraná/PR,-23.131247,-52.318893,1291,8638.34058
D1,Alto Paraná/PR,-23.131247,-52.318893,26,173.97123
1,Alto Paraíso de Goiás/GO,-14.1304779,-47.5100161,916,11817.82996
D1,Alto Paraíso de Goiás/GO,-14.1304779,-47.5100161,8,103.21249
1,Alto Paraíso/PR,-23.508137,-53.728537,372,14144.48669
D1,Alto Paraíso/PR,-23.508137,-53.728537,9,342.20532
1,Alto Paraíso/RO,-9.7240103,-63.3188123,1891,8495.82173
D1,Alto Paraíso/RO,-9.7240103,-63.3188123,50,224.63833
1,Alto Parnaíba/MA,-9.112506,-45.9310154,1021,9089.29048
D1,Alto Parnaíba/MA,-9.112506,-45.9310154,11,97.92575
1,Alto Piquiri/PR,-24.0239021,-53.4417448,1115,11468.83357
D1,Alto Piquiri/PR,-24.0239021,-53.4417448,27,277.72063
1,Alto Rio Doce/MG,-21.0239537,-43.4133507,575,5362.30533
D1,Alto Rio Doce/MG,-21.0239537,-43.4133507,29,270.44670
1,Alto Rio Novo/ES,-19.0577208,-41.0171518,787,9948.17343
D1,Alto Rio Novo/ES,-19.0577208,-41.0171518,24,303.37505
1,Alto Santo/CE,-5.5190371,-38.2719351,1944,12091.80817
D1,Alto Santo/CE,-5.5190371,-38.2719351,35,217.70231
1,Alto Taquari/MT,-17.8269099,-53.2831736,1642,14387.10243
D1,Alto Taquari/MT,-17.8269099,-53.2831736,29,254.09621
1,Alto do Rodrigues/RN,-5.290868,-36.7616726,2575,17255.24358
D1,Alto do Rodrigues/RN,-5.290868,-36.7616726,41,274.74368
1,Altos/PI,-5.0393915,-42.4611694,4822,11853.19928
D1,Altos/PI,-5.0393915,-42.4611694,95,233.52425
1,Altônia/PR,-23.8722004,-53.894037,1580,7087.42655
D1,Altônia/PR,-23.8722004,-53.894037,41,183.91423
1,Alumínio/SP,-23.5203479,-47.2575256,1635,8649.42073
D1,Alumínio/SP,-23.5203479,-47.2575256,53,280.37878
1,Alvarenga/MG,-19.4175,-41.728334,514,13587.10019
D1,Alvarenga/MG,-19.4175,-41.728334,4,105.73619
1,Alvarães/AM,-3.214786,-64.8143124,2908,17736.03318
D1,Alvarães/AM,-3.214786,-64.8143124,46,280.55623
1,Alvinlândia/SP,-22.4431852,-49.7643596,144,4429.40634
D1,Alvinlândia/SP,-22.4431852,-49.7643596,9,276.83790
1,Alvinópolis/MG,-20.1105199,-43.0601805,858,5668.97919
D1,Alvinópolis/MG,-20.1105199,-43.0601805,23,151.96564
1,Alvorada D'Oeste/RO,-11.346271,-62.284697,1166,8444.99167
D1,Alvorada D'Oeste/RO,-11.346271,-62.284697,29,210.03839
1,Alvorada de Minas/MG,-18.7318587,-43.3641479,288,7988.90430
D1,Alvorada de Minas/MG,-18.7318587,-43.3641479,3,83.21775
1,Alvorada do Gurguéia/PI,-8.4465288,-43.8655915,453,8283.04992
D1,Alvorada do Gurguéia/PI,-8.4465288,-43.8655915,11,201.13366
1,Alvorada do Norte/GO,-14.483911,-46.4959897,847,9681.10641
D1,Alvorada do Norte/GO,-14.483911,-46.4959897,12,137.15853
1,Alvorada do Sul/PR,-22.7807269,-51.2307721,864,7449.56027
D1,Alvorada do Sul/PR,-22.7807269,-51.2307721,31,267.28746
1,Alvorada/RS,-29.9981184,-51.0772509,22877,10773.15024
D1,Alvorada/RS,-29.9981184,-51.0772509,803,378.14572
1,Alvorada/TO,-12.478465,-49.124926,1532,18279.44159
D1,Alvorada/TO,-12.478465,-49.124926,28,334.08901
1,Além Paraíba/MG,-21.8760576,-42.6810473,3734,10536.71200
D1,Além Paraíba/MG,-21.8760576,-42.6810473,163,459.95824
1,Amajari/RR,3.6523869,-61.4194315,1181,8708.79729
D1,Amajari/RR,3.6523869,-61.4194315,21,154.85584
1,Amambai/MS,-23.1082701,-55.2284854,3345,8311.17847
D1,Amambai/MS,-23.1082701,-55.2284854,84,208.71121
1,Amaporã/PR,-23.094272,-52.786597,465,7259.95316
D1,Amaporã/PR,-23.094272,-52.786597,8,124.90242
1,Amapá do Maranhão/MA,-1.6762114,-46.0109669,172,2440.75493
D1,Amapá do Maranhão/MA,-1.6762114,-46.0109669,6,85.14261
1,Amapá/AP,2.0529997,-50.7930003,1413,15250.94441
D1,Amapá/AP,2.0529997,-50.7930003,13,140.31301
1,Amaraji/PE,-8.373925,-35.4536527,689,3007.42034
D1,Amaraji/PE,-8.373925,-35.4536527,48,209.51550
1,Amaral Ferrador/RS,-30.8750633,-52.2542051,311,4358.18386
D1,Amaral Ferrador/RS,-30.8750633,-52.2542051,10,140.13453
1,Amaralina/GO,-13.9236199,-49.2962411,138,3561.29032
D1,Amaralina/GO,-13.9236199,-49.2962411,2,51.61290
1,Amarante do Maranhão/MA,-5.56913,-46.747284,1624,3865.10222
D1,Amarante do Maranhão/MA,-5.56913,-46.747284,53,126.13942
1,Amarante/PI,-6.2459374,-42.8476238,1589,9023.79465
D1,Amarante/PI,-6.2459374,-42.8476238,35,198.76200
1,Amargosa/BA,-13.03793715,-39.60796443875596,3232,8588.66360
D1,Amargosa/BA,-13.03793715,-39.60796443875596,57,151.47086
1,Amaturá/AM,-3.3640509,-68.1994689,2398,20093.84951
D1,Amaturá/AM,-3.3640509,-68.1994689,18,150.82956
1,Americana/SP,-22.7392463,-47.3306032,27029,11060.68666
D1,Americana/SP,-22.7392463,-47.3306032,843,344.96870
1,Americano do Brasil/GO,-16.2515808,-49.9806104,867,13938.90675
D1,Americano do Brasil/GO,-16.2515808,-49.9806104,24,385.85209
1,Ametista do Sul/RS,-27.3617341,-53.1826575,952,12871.82261
D1,Ametista do Sul/RS,-27.3617341,-53.1826575,24,324.49973
1,Amontada/CE,-3.3634586,-39.8284791,2947,6668.17513
D1,Amontada/CE,-3.3634586,-39.8284791,57,128.97387
1,Amorinópolis/GO,-16.6211308,-51.0949921,390,12952.50747
D1,Amorinópolis/GO,-16.6211308,-51.0949921,7,232.48090
1,Amparo de São Francisco/SE,-10.1299754,-36.9269099,256,10729.25398
D1,Amparo de São Francisco/SE,-10.1299754,-36.9269099,5,209.55574
1,Amparo do Serra/MG,-20.5070255,-42.8028462,170,3661.42580
D1,Amparo do Serra/MG,-20.5070255,-42.8028462,8,172.30239
1,Amparo/PB,-7.56394725,-37.04652873235175,178,7862.19081
D1,Amparo/PB,-7.56394725,-37.04652873235175,4,176.67845
1,Amparo/SP,-22.70111,-46.76444,7716,10548.90970
D1,Amparo/SP,-22.70111,-46.76444,138,188.66635
1,Ampére/PR,-25.9168712,-53.4742414,2539,13043.25491
D1,Ampére/PR,-25.9168712,-53.4742414,58,297.95541
1,Amélia Rodrigues/BA,-12.4015388,-38.7516971,2406,9625.15502
D1,Amélia Rodrigues/BA,-12.4015388,-38.7516971,48,192.02304
1,América Dourada/BA,-11.4515262,-41.4357517,955,5936.83949
D1,América Dourada/BA,-11.4515262,-41.4357517,13,80.81562
1,Américo Brasiliense/SP,-21.7297099,-48.1052092,4319,10395.95619
D1,Américo Brasiliense/SP,-21.7297099,-48.1052092,97,233.48177
1,Américo de Campos/SP,-20.298476,-49.735904,1170,19522.77657
D1,Américo de Campos/SP,-20.298476,-49.735904,35,584.01468
1,Anadia/AL,-9.6830208,-36.3052699,1509,8619.40938
D1,Anadia/AL,-9.6830208,-36.3052699,32,182.78403
1,Anagé/BA,-14.6134669,-41.1376308,1145,5393.56541
D1,Anagé/BA,-14.6134669,-41.1376308,30,141.31612
1,Anahy/PR,-24.6450861,-53.1337957,408,14708.00288
D1,Anahy/PR,-24.6450861,-53.1337957,10,360.49027
1,Anajatuba/MA,-3.26441,-44.6179916,1185,4361.42805
D1,Anajatuba/MA,-3.26441,-44.6179916,27,99.37431
1,Anajás/PA,-0.9878802,-49.9390114,1364,4532.91682
D1,Anajás/PA,-0.9878802,-49.9390114,22,73.11156
1,Analândia/SP,-22.128917,-47.661939,380,7429.13001
D1,Analândia/SP,-22.128917,-47.661939,5,97.75171
1,Anamã/AM,-3.5797356,-61.4049996,2021,14140.77806
D1,Anamã/AM,-3.5797356,-61.4049996,10,69.96921
1,Ananindeua/PA,-1.374035,-48.4016623,26043,4819.11882
D1,Ananindeua/PA,-1.374035,-48.4016623,826,152.84691
1,Ananás/TO,-6.3663053,-48.080238,1679,17795.44250
D1,Ananás/TO,-6.3663053,-48.080238,27,286.16852
1,Anapu/PA,-3.4668292,-51.2057035,1762,6011.18996
D1,Anapu/PA,-3.4668292,-51.2057035,48,163.75546
1,Anapurus/MA,-3.6751298,-43.1046001,832,5182.50903
D1,Anapurus/MA,-3.6751298,-43.1046001,15,93.43466
1,Anastácio/MS,-20.4832458,-55.8048448,2648,10451.53142
D1,Anastácio/MS,-20.4832458,-55.8048448,87,343.38491
1,Anaurilândia/MS,-22.185169,-52.719056,563,6175.95437
D1,Anaurilândia/MS,-22.185169,-52.719056,15,164.54585
1,Anchieta/ES,-20.8057672,-40.6454564,5449,17992.40548
D1,Anchieta/ES,-20.8057672,-40.6454564,92,303.78075
1,Anchieta/SC,-26.5350527,-53.3293938,710,12963.30108
D1,Anchieta/SC,-26.5350527,-53.3293938,11,200.83988
1,Andaraí/BA,-12.8059674,-41.3322919,948,7224.50846
D1,Andaraí/BA,-12.8059674,-41.3322919,10,76.20790
1,Andirá/PR,-23.0494761,-50.2310027,2653,13383.44347
D1,Andirá/PR,-23.0494761,-50.2310027,89,448.97341
1,Andorinha/BA,-10.3445708,-39.8334411,966,6700.88790
D1,Andorinha/BA,-10.3445708,-39.8334411,17,117.92453
1,Andradas/MG,-22.0680484,-46.5688976,4098,9826.39555
D1,Andradas/MG,-22.0680484,-46.5688976,124,297.33359
1,Andradina/SP,-20.896505,-51.3742765,6866,11994.06062
D1,Andradina/SP,-20.896505,-51.3742765,279,487.37881
1,Andrelândia/MG,-21.739722,-44.308889,206,1690.04840
D1,Andrelândia/MG,-21.739722,-44.308889,15,123.06178
1,André da Rocha/RS,-28.6309124,-51.5733328,120,8882.30940
D1,André da Rocha/RS,-28.6309124,-51.5733328,1,74.01925
1,Angatuba/SP,-23.4938938,-48.4110675,3185,12381.43368
D1,Angatuba/SP,-23.4938938,-48.4110675,77,299.33136
1,Angelim/PE,-8.8902038,-36.2872987,233,2061.76445
D1,Angelim/PE,-8.8902038,-36.2872987,12,106.18529
1,Angelina/SC,-27.5805287,-48.9838759,575,12270.59326
D1,Angelina/SC,-27.5805287,-48.9838759,2,42.68032
1,Angelândia/MG,-17.7253,-42.2728,271,3153.36281
D1,Angelândia/MG,-17.7253,-42.2728,4,46.54410
1,Angical do Piauí/PI,-6.0872666,-42.7366138,892,13158.28293
D1,Angical do Piauí/PI,-6.0872666,-42.7366138,12,177.01726
1,Angical/BA,-12.005623,-44.7000236,768,5524.38498
D1,Angical/BA,-12.005623,-44.7000236,19,136.67098
1,Angico/TO,-6.3893733,-47.8656722,239,6877.69784
D1,Angico/TO,-6.3893733,-47.8656722,5,143.88489
1,Angicos/RN,-5.6666344,-36.6009064,1125,9619.49551
D1,Angicos/RN,-5.6666344,-36.6009064,24,205.21590
1,Angra dos Reis/RJ,-23.0063966,-44.316326,17231,8198.56212
D1,Angra dos Reis/RJ,-23.0063966,-44.316326,546,259.78846
1,Anguera/BA,-12.1509425,-39.2452469,514,4521.06606
D1,Anguera/BA,-12.1509425,-39.2452469,2,17.59170
1,Angélica/MS,-22.1588196,-53.7728504,1416,12778.63009
D1,Angélica/MS,-22.1588196,-53.7728504,21,189.51358
1,Anhanguera/GO,-18.3338749,-48.220363,99,8454.31255
D1,Anhanguera/GO,-18.3338749,-48.220363,7,597.77968
1,Anhembi/SP,-22.7891096,-48.1316776,334,4832.87513
D1,Anhembi/SP,-22.7891096,-48.1316776,10,144.69686
1,Anhumas/SP,-22.2956478,-51.3873401,384,9204.21860
D1,Anhumas/SP,-22.2956478,-51.3873401,7,167.78523
1,Anicuns/GO,-16.4606451,-49.9572265,3357,15181.11518
D1,Anicuns/GO,-16.4606451,-49.9572265,70,316.55587
1,Anita Garibaldi/SC,-27.6855032,-51.1293873,1220,17986.14183
D1,Anita Garibaldi/SC,-27.6855032,-51.1293873,10,147.42739
1,Anitápolis/SC,-27.9041185,-49.1287395,361,11200.74465
D1,Anitápolis/SC,-27.9041185,-49.1287395,5,155.13497
1,Anori/AM,-3.7435254,-61.6605203,1927,8784.24579
D1,Anori/AM,-3.7435254,-61.6605203,33,150.43078
1,Anta Gorda/RS,-28.9718745,-52.0069187,659,11092.40869
D1,Anta Gorda/RS,-28.9718745,-52.0069187,6,100.99310
1,Antas/BA,-10.4114649,-38.3308815,1317,6699.22173
D1,Antas/BA,-10.4114649,-38.3308815,13,66.12747
1,Antonina do Norte/CE,-6.7754187,-39.9879345,824,11132.12645
D1,Antonina do Norte/CE,-6.7754187,-39.9879345,27,364.76628
1,Antonina/PR,-25.4298854,-48.7125431,2586,13668.79856
D1,Antonina/PR,-25.4298854,-48.7125431,73,385.85549
1,Antônio Almeida/PI,-7.2186016,-44.1950248,406,12787.40157
D1,Antônio Almeida/PI,-7.2186016,-44.1950248,10,314.96063
1,Antônio Cardoso/BA,-12.4363122,-39.1200307,635,5441.30249
D1,Antônio Cardoso/BA,-12.4363122,-39.1200307,11,94.25878
1,Antônio Carlos/MG,-21.318334,-43.746666,833,7261.79060
D1,Antônio Carlos/MG,-21.318334,-43.746666,17,148.19981
1,Antônio Carlos/SC,-27.5168462,-48.7684715,1684,19329.66024
D1,Antônio Carlos/SC,-27.5168462,-48.7684715,27,309.91736
1,Antônio Dias/MG,-19.6525,-42.872778,606,6563.41384
D1,Antônio Dias/MG,-19.6525,-42.872778,27,292.42933
1,Antônio Gonçalves/BA,-10.5715409,-40.2748824,916,7662.06608
D1,Antônio Gonçalves/BA,-10.5715409,-40.2748824,10,83.64701
1,Antônio João/MS,-22.1892837,-55.9508227,545,6000.88086
D1,Antônio João/MS,-22.1892837,-55.9508227,18,198.19423
1,Antônio Martins/RN,-6.2155812,-37.8890129,692,9662.10556
D1,Antônio Martins/RN,-6.2155812,-37.8890129,7,97.73806
1,Antônio Olinto/PR,-25.9849006,-50.1974516,559,7532.67754
D1,Antônio Olinto/PR,-25.9849006,-50.1974516,15,202.12909
1,Antônio Prado de Minas/MG,-21.0171988,-42.1101106,166,10526.31579
D1,Antônio Prado de Minas/MG,-21.0171988,-42.1101106,5,317.05770
1,Antônio Prado/RS,-28.8567806,-51.2801355,2790,21394.06487
D1,Antônio Prado/RS,-28.8567806,-51.2801355,33,253.04808
1,Anápolis/GO,-16.3332828,-48.9525756,50020,12614.55743
D1,Anápolis/GO,-16.3332828,-48.9525756,1748,440.82860
1,Anísio de Abreu/PI,-9.185643,-43.04941,291,2911.74705
D1,Anísio de Abreu/PI,-9.185643,-43.04941,14,140.08405
1,Aparecida d'Oeste/SP,-20.4498109,-50.8808706,846,20524.01747
D1,Aparecida d'Oeste/SP,-20.4498109,-50.8808706,19,460.94129
1,Aparecida de Goiânia/GO,-16.8226769,-49.2452546,90781,15083.80909
D1,Aparecida de Goiânia/GO,-16.8226769,-49.2452546,1754,291.43765
1,Aparecida do Rio Doce/GO,-18.2980167,-51.1491312,271,10953.92078
D1,Aparecida do Rio Doce/GO,-18.2980167,-51.1491312,5,202.10186
1,Aparecida do Rio Negro/TO,-9.9513491,-47.9773786,392,7998.36768
D1,Aparecida do Rio Negro/TO,-9.9513491,-47.9773786,13,265.25199
1,Aparecida do Taboado/MS,-20.0840304,-51.1013943,3654,13848.25286
D1,Aparecida do Taboado/MS,-20.0840304,-51.1013943,62,234.97309
1,Aparecida/PB,-6.7859598, -38.0831353,1012,11931.14831
D1,Aparecida/PB,-6.7859598, -38.0831353,14,165.05541
1,Aparecida/SP,-22.851552,-45.2340924,2885,7967.19229
D1,Aparecida/SP,-22.851552,-45.2340924,116,320.34465
1,Aperibé/RJ,-21.6211928,-42.1028167,1242,10319.04287
D1,Aperibé/RJ,-21.6211928,-42.1028167,32,265.86906
1,Apiacá/ES,-21.152272,-41.569297,999,13245.82339
D1,Apiacá/ES,-21.152272,-41.569297,38,503.84513
1,Apiacás/MT,-9.5678422,-57.394852,2069,19835.10689
D1,Apiacás/MT,-9.5678422,-57.394852,18,172.56255
1,Apiaí/SP,-24.5076527,-48.8461582,1776,7375.10901
D1,Apiaí/SP,-24.5076527,-48.8461582,85,352.97537
1,Apicum-Açu/MA,-1.5279295,-45.082278,550,3128.19929
D1,Apicum-Açu/MA,-1.5279295,-45.082278,11,62.56399
1,Apiúna/SC,-27.0374658,-49.3885037,911,8318.87499
D1,Apiúna/SC,-27.0374658,-49.3885037,18,164.36855
1,Apodi/RN,-5.6631109,-37.796927,6679,18602.38414
D1,Apodi/RN,-5.6631109,-37.796927,97,270.16488
1,Aporá/BA,-11.6599747,-38.0794757,673,3772.42152
D1,Aporá/BA,-11.6599747,-38.0794757,19,106.50224
1,Aporé/GO,-18.9642193,-51.92804,429,10056.25879
D1,Aporé/GO,-18.9642193,-51.92804,11,257.85279
1,Apuarema/BA,-13.8517897,-39.7457126,777,10681.88067
D1,Apuarema/BA,-13.8517897,-39.7457126,11,151.22354
1,Apucarana/PR,-23.5525327,-51.4610764,10999,8002.88130
D1,Apucarana/PR,-23.5525327,-51.4610764,464,337.60678
1,Apuiarés/CE,-3.9460303,-39.4313298,1380,9361.00936
D1,Apuiarés/CE,-3.9460303,-39.4313298,25,169.58350
1,Apuí/AM,-7.1940195,-59.8830192,1490,6552.61885
D1,Apuí/AM,-7.1940195,-59.8830192,32,140.72738
1,Aquidabã/SE,-10.2837579,-37.0188687,2409,11052.48669
D1,Aquidabã/SE,-10.2837579,-37.0188687,40,183.51991
1,Aquidauana/MS,-20.473969,-55.7821375,5684,11796.44695
D1,Aquidauana/MS,-20.473969,-55.7821375,167,346.58808
1,Aquiraz/CE,-3.9063117,-38.387504,7047,8638.04072
D1,Aquiraz/CE,-3.9063117,-38.387504,94,115.22291
1,Arabutã/SC,-27.1587028,-52.1438142,424,9934.39550
D1,Arabutã/SC,-27.1587028,-52.1438142,10,234.30178
1,Aracaju/SE,-10.9162061,-37.0774655,127956,19023.68966
D1,Aracaju/SE,-10.9162061,-37.0774655,2420,359.79031
1,Aracati/CE,-4.558259,-37.767894,8052,10680.17827
D1,Aracati/CE,-4.558259,-37.767894,166,220.18251
1,Aracatu/BA,-14.4274236,-41.4604105,914,7052.46914
D1,Aracatu/BA,-14.4274236,-41.4604105,18,138.88889
1,Araci/BA,-11.3356065,-38.9573261,3792,6906.72641
D1,Araci/BA,-11.3356065,-38.9573261,54,98.35528
1,Aracitaba/MG,-21.3425,-43.378611,91,4426.07004
D1,Aracitaba/MG,-21.3425,-43.378611,11,535.01946
1,Aracoiaba/CE,-4.3702577,-38.8084313,4297,16154.13534
D1,Aracoiaba/CE,-4.3702577,-38.8084313,35,131.57895
1,Aracruz/ES,-19.8245218,-40.2735025,17835,16995.10206
D1,Aracruz/ES,-19.8245218,-40.2735025,237,225.83903
1,Aragarças/GO,-15.8957166,-52.2514538,3290,16119.54924
D1,Aragarças/GO,-15.8957166,-52.2514538,78,382.16561
1,Aragoiânia/GO,-16.9146388,-49.4499148,1566,14662.92135
D1,Aragoiânia/GO,-16.9146388,-49.4499148,29,271.53558
1,Aragominas/TO,-7.1654101,-48.525488,573,10043.82121
D1,Aragominas/TO,-7.1654101,-48.525488,11,192.81332
1,Araguacema/TO,-8.8067391,-49.5560969,782,10826.52637
D1,Araguacema/TO,-8.8067391,-49.5560969,18,249.20393
1,Araguaiana/MT,-15.729144,-51.834112,407,13283.28982
D1,Araguaiana/MT,-15.729144,-51.834112,8,261.09661
1,Araguainha/MT,-16.857016,-53.031778,29,3190.31903
D1,Araguainha/MT,-16.857016,-53.031778,1,110.01100
1,Araguanã/MA,-2.9508403,-45.6651986,810,5167.46411
D1,Araguanã/MA,-2.9508403,-45.6651986,5,31.89793
1,Araguanã/TO,-6.5799107,-48.6428482,584,9972.67760
D1,Araguanã/TO,-6.5799107,-48.6428482,16,273.22404
1,Araguapaz/GO,-15.0937927,-50.626417,716,9185.37524
D1,Araguapaz/GO,-15.0937927,-50.626417,29,372.03335
1,Araguari/MG,-18.6511256,-48.1933764,19659,16609.35612
D1,Araguari/MG,-18.6511256,-48.1933764,461,389.48640
1,Araguatins/TO,-5.6522925,-48.1158973,2554,6983.29369
D1,Araguatins/TO,-5.6522925,-48.1158973,71,194.13228
1,Araguaçu/TO,-12.928934,-49.823134,961,11416.01330
D1,Araguaçu/TO,-12.928934,-49.823134,22,261.34474
1,Araguaína/TO,-7.193241,-48.2018597,37474,20120.80861
D1,Araguaína/TO,-7.193241,-48.2018597,539,289.40374
1,Araioses/MA,-2.890914,-41.904993,686,1456.63022
D1,Araioses/MA,-2.890914,-41.904993,15,31.85051
1,Aral Moreira/MS,-22.951141,-55.6268421,560,4476.06107
D1,Aral Moreira/MS,-22.951141,-55.6268421,16,127.88746
1,Aramari/BA,-12.0907897,-38.4985065,681,5911.97153
D1,Aramari/BA,-12.0907897,-38.4985065,13,112.85702
1,Arambaré/RS,-30.9132252,-51.4994625,230,6489.84199
D1,Arambaré/RS,-30.9132252,-51.4994625,9,253.95034
1,Arame/MA,-4.8858769,-46.0102484,1563,4761.61462
D1,Arame/MA,-4.8858769,-46.0102484,42,127.95126
1,Aramina/SP,-20.0876144,-47.789201,367,6451.04588
D1,Aramina/SP,-20.0876144,-47.789201,18,316.40007
1,Arandu/SP,-23.1345103,-49.0545651,657,10309.11659
D1,Arandu/SP,-23.1345103,-49.0545651,21,329.51514
1,Arantina/MG,-21.911667,-44.255833,249,8960.05757
D1,Arantina/MG,-21.911667,-44.255833,6,215.90500
1,Arapeí/SP,-22.6738889,-44.4477778,270,11011.41925
D1,Arapeí/SP,-22.6738889,-44.4477778,4,163.13214
1,Arapiraca/AL,-9.754866,-36.661471,31132,13286.72821
D1,Arapiraca/AL,-9.754866,-36.661471,529,225.77024
1,Arapoema/TO,-7.6575001,-49.0641484,523,7936.26707
D1,Arapoema/TO,-7.6575001,-49.0641484,12,182.09408
1,Araponga/MG,-20.666667,-42.520556,689,8137.47490
D1,Araponga/MG,-20.666667,-42.520556,13,153.53726
1,Arapongas/PR,-23.415296,-51.42592,14355,11343.79075
D1,Arapongas/PR,-23.415296,-51.42592,577,455.96428
1,Araporã/MG,-18.4318188,-49.188313,2063,29505.14874
D1,Araporã/MG,-18.4318188,-49.188313,41,586.38444
1,Arapoti/PR,-24.1457957,-49.8224605,3257,11436.09551
D1,Arapoti/PR,-24.1457957,-49.8224605,66,231.74157
1,Araputanga/MT,-15.4710868,-58.346796,2164,12671.27298
D1,Araputanga/MT,-15.4710868,-58.346796,55,322.05176
1,Arapuá/MG,-19.034444,-46.155556,289,10190.40903
D1,Arapuá/MG,-19.034444,-46.155556,3,105.78279
1,Arapuã/PR,-24.3079525,-51.7901941,318,10776.00813
D1,Arapuã/PR,-24.3079525,-51.7901941,7,237.20773
1,Araquari/SC,-26.3703324,-48.7210994,4362,10667.64490
D1,Araquari/SC,-26.3703324,-48.7210994,89,217.65713
1,Arara/PB,-6.8271895,-35.7605703,1046,7683.83163
D1,Arara/PB,-6.8271895,-35.7605703,29,213.03166
1,Araranguá/SC,-28.9348832,-49.4858389,11277,16227.53371
D1,Araranguá/SC,-28.9348832,-49.4858389,252,362.62645
1,Araraquara/SP,-21.7886713,-48.1773096,24692,10265.15120
D1,Araraquara/SP,-21.7886713,-48.1773096,528,219.50429
1,Araras/SP,-22.3569477,-47.3838889,18433,13480.42621
D1,Araras/SP,-22.3569477,-47.3838889,401,293.25942
1,Ararendá/CE,-4.7504395,-40.8303611,1424,12965.49212
D1,Ararendá/CE,-4.7504395,-40.8303611,22,200.30957
1,Arari/MA,-3.4547602,-44.7772723,1077,3588.32545
D1,Arari/MA,-3.4547602,-44.7772723,34,113.28047
1,Araricá/RS,-29.6168543,-50.929121,1035,17722.60274
D1,Araricá/RS,-29.6168543,-50.929121,27,462.32877
1,Araripe/CE,-7.212861,-40.1359222,1379,6352.78942
D1,Araripe/CE,-7.212861,-40.1359222,23,105.95660
1,Araripina/PE,-7.5768582,-40.5038509,7786,9127.67728
D1,Araripina/PE,-7.5768582,-40.5038509,164,192.26035
1,Araruama/RJ,-22.8733203,-42.3428897,7440,5466.20723
D1,Araruama/RJ,-22.8733203,-42.3428897,484,355.59735
1,Araruna/PB,-6.5321155,-35.7397595,718,3483.74575
D1,Araruna/PB,-6.5321155,-35.7397595,17,82.48423
1,Araruna/PR,-23.9320308,-52.4976047,2175,15503.59969
D1,Araruna/PR,-23.9320308,-52.4976047,37,263.73940
1,Arataca/BA,-15.2617424,-39.4122943,791,7254.21864
D1,Arataca/BA,-15.2617424,-39.4122943,15,137.56420
1,Aratiba/RS,-27.3955734,-52.3024325,456,7420.66721
D1,Aratiba/RS,-27.3955734,-52.3024325,7,113.91375
1,Aratuba/CE,-4.4195958,-39.0463737,1680,14286.92916
D1,Aratuba/CE,-4.4195958,-39.0463737,12,102.04949
1,Aratuípe/BA,-13.077137,-39.0010786,492,5560.57866
D1,Aratuípe/BA,-13.077137,-39.0010786,12,135.62387
1,Araucária/PR,-25.5861107,-49.4051209,29053,19561.41178
D1,Araucária/PR,-25.5861107,-49.4051209,521,350.78978
1,Arauá/SE,-11.2644014,-37.6181058,1292,13130.08130
D1,Arauá/SE,-11.2644014,-37.6181058,22,223.57724
1,Araxá/MG,-19.5928536,-46.940241,15057,13889.83700
D1,Araxá/MG,-19.5928536,-46.940241,241,222.31857
1,Araçagi/PB,-6.8519969,-35.3835602,1748,10369.57940
D1,Araçagi/PB,-6.8519969,-35.3835602,25,148.30634
1,Araçariguama/SP,-23.438611,-47.061389,2164,9270.44510
D1,Araçariguama/SP,-23.438611,-47.061389,71,304.15971
1,Araçatuba/SP,-21.207992,-50.4390225,30494,15307.46448
D1,Araçatuba/SP,-21.207992,-50.4390225,928,465.84007
1,Araçaí/MG,-19.200833,-44.2475,104,4406.77966
D1,Araçaí/MG,-19.200833,-44.2475,1,42.37288
1,Araçoiaba da Serra/SP,-23.5045367,-47.6168158,3092,8737.17822
D1,Araçoiaba da Serra/SP,-23.5045367,-47.6168158,86,243.01337
1,Araçoiaba/PE,-7.7856903,-35.0898881,698,3333.97019
D1,Araçoiaba/PE,-7.7856903,-35.0898881,33,157.62323
1,Araçu/GO,-16.3561579,-49.6815269,516,14956.52174
D1,Araçu/GO,-16.3561579,-49.6815269,20,579.71014
1,Araçuaí/MG,-16.8484451,-42.0661868,2062,5616.23315
D1,Araçuaí/MG,-16.8484451,-42.0661868,53,144.35517
1,Araçás/BA,-12.2139176,-38.2026159,718,5867.45117
D1,Araçás/BA,-12.2139176,-38.2026159,17,138.92294
1,Araújos/MG,-19.948055,-45.165556,947,9944.34527
D1,Araújos/MG,-19.948055,-45.165556,14,147.01250
1,Arceburgo/MG,-21.364444,-46.939722,1283,11674.24932
D1,Arceburgo/MG,-21.364444,-46.939722,34,309.37216
1,Arco-Íris/SP,-21.7741308,-50.4668814,165,9401.70940
D1,Arco-Íris/SP,-21.7741308,-50.4668814,8,455.84046
1,Arcos/MG,-20.282223,-45.539444,6323,15551.67495
D1,Arcos/MG,-20.282223,-45.539444,140,344.33568
1,Arcoverde/PE,-8.415192,-37.057748,7284,9673.94913
D1,Arcoverde/PE,-8.415192,-37.057748,135,179.29477
1,Areado/MG,-21.3582771,-46.1476688,1239,8104.39560
D1,Areado/MG,-21.3582771,-46.1476688,31,202.77342
1,Areal/RJ,-22.2314922,-43.1056264,1656,12975.00588
D1,Areal/RJ,-22.2314922,-43.1056264,51,399.59257
1,Arealva/SP,-22.0301906,-48.9111936,1010,11656.08771
D1,Arealva/SP,-22.0301906,-48.9111936,20,230.81362
1,Areia Branca/RN,-4.9506652,-37.1263312,2998,10647.81929
D1,Areia Branca/RN,-4.9506652,-37.1263312,98,348.06080
1,Areia Branca/SE,-10.7591455,-37.3148072,2104,11176.62683
D1,Areia Branca/SE,-10.7591455,-37.3148072,48,254.98008
1,Areia de Baraúnas/PB,-7.1233949,-36.9446216,222,10546.31829
D1,Areia de Baraúnas/PB,-7.1233949,-36.9446216,4,190.02375
1,Areia/PB,-6.9680243,-35.6994783,2052,9122.83822
D1,Areia/PB,-6.9680243,-35.6994783,34,151.15814
1,Areial/PB,-7.0501306,-35.9245244,397,5628.01248
D1,Areial/PB,-7.0501306,-35.9245244,12,170.11625
1,Areias/SP,-22.5800929,-44.6975127,367,9395.80133
D1,Areias/SP,-22.5800929,-44.6975127,2,51.20328
1,Areiópolis/SP,-22.6758064,-48.6673653,1410,12605.04202
D1,Areiópolis/SP,-22.6758064,-48.6673653,21,187.73467
1,Arenápolis/MT,-14.4610369,-56.8432806,1917,20395.78679
D1,Arenápolis/MT,-14.4610369,-56.8432806,39,414.93776
1,Arenópolis/GO,-16.3859286,-51.55937,408,16571.89277
D1,Arenópolis/GO,-16.3859286,-51.55937,8,324.93907
1,Argirita/MG,-21.612761,-42.8371922,283,10555.76278
D1,Argirita/MG,-21.612761,-42.8371922,9,335.69564
1,Aricanduva/MG,-17.8678,-42.5569,162,3053.72290
1,Arinos/MG,-15.917223,-46.106111,1353,7579.83193
D1,Arinos/MG,-15.917223,-46.106111,30,168.06723
1,Aripuanã/MT,-10.175806,-59.4439663,3261,14137.07894
D1,Aripuanã/MT,-10.175806,-59.4439663,49,212.42468
1,Ariquemes/RO,-9.9076522,-63.033069,22685,20409.72397
D1,Ariquemes/RO,-9.9076522,-63.033069,500,449.85065
1,Ariranha do Ivaí/PR,-24.3834527,-51.5876772,179,8835.14314
D1,Ariranha do Ivaí/PR,-24.3834527,-51.5876772,4,197.43337
1,Ariranha/SP,-21.18716,-48.790418,1013,10283.21998
D1,Ariranha/SP,-21.18716,-48.790418,29,294.38636
1,Armazém/SC,-28.2624996,-49.0190126,1464,16555.46760
D1,Armazém/SC,-28.2624996,-49.0190126,35,395.79328
1,Armação dos Búzios/RJ,-22.7597805,-41.8875267,5706,16274.95722
D1,Armação dos Búzios/RJ,-22.7597805,-41.8875267,74,211.06674
1,Arneiroz/CE,-6.3235099,-40.1603859,668,8511.72273
D1,Arneiroz/CE,-6.3235099,-40.1603859,17,216.61570
1,Aroazes/PI,-6.1108814,-41.7886137,604,10379.79034
D1,Aroazes/PI,-6.1108814,-41.7886137,12,206.22100
1,Aroeiras do Itaim/PI,-7.2797031,-41.5629681,172,6742.45394
D1,Aroeiras do Itaim/PI,-7.2797031,-41.5629681,2,78.40063
1,Aroeiras/PB,-7.5462904,-35.7080002,2007,10518.31665
D1,Aroeiras/PB,-7.5462904,-35.7080002,16,83.85305
1,Arraial do Cabo/RJ,-22.9662839,-42.024427,924,2997.37243
D1,Arraial do Cabo/RJ,-22.9662839,-42.024427,44,142.73202
1,Arraial/PI,-6.6541632,-42.5335332,170,3607.04435
D1,Arraial/PI,-6.6541632,-42.5335332,3,63.65372
1,Arraias/TO,-12.9287788,-46.9437231,1134,10797.94325
D1,Arraias/TO,-12.9287788,-46.9437231,13,123.78595
1,Arroio Grande/RS,-32.2384246,-53.0866661,2130,11712.95023
D1,Arroio Grande/RS,-32.2384246,-53.0866661,54,296.94803
1,Arroio Trinta/SC,-26.9301976,-51.334928,626,17648.71723
D1,Arroio Trinta/SC,-26.9301976,-51.334928,14,394.69975
1,Arroio do Meio/RS,-29.4020392,-51.9444993,3200,15150.79778
D1,Arroio do Meio/RS,-29.4020392,-51.9444993,49,231.99659
1,Arroio do Padre/RS,-31.4428773,-52.4228985,258,8698.58395
D1,Arroio do Padre/RS,-31.4428773,-52.4228985,4,134.86177
1,Arroio do Sal/RS,-29.549852,-49.8874395,1201,11456.64409
D1,Arroio do Sal/RS,-29.549852,-49.8874395,40,381.57016
1,Arroio do Tigre/RS,-29.334158,-53.0888935,1268,9426.10764
D1,Arroio do Tigre/RS,-29.334158,-53.0888935,22,163.54445
1,Arroio dos Ratos/RS,-30.0894524,-51.7265541,1166,8210.68939
D1,Arroio dos Ratos/RS,-30.0894524,-51.7265541,38,267.58679
1,Artur Nogueira/SP,-22.572737,-47.172679,5570,9902.75037
D1,Artur Nogueira/SP,-22.572737,-47.172679,145,257.79153
1,Aruanã/GO,-14.9162439,-51.0715692,785,7591.87621
D1,Aruanã/GO,-14.9162439,-51.0715692,18,174.08124
1,Arujá/SP,-23.396266,-46.3175449,8509,9203.59534
D1,Arujá/SP,-23.396266,-46.3175449,335,362.34627
1,Arvoredo/SC,-27.0752908,-52.4571847,357,16023.33932
D1,Arvoredo/SC,-27.0752908,-52.4571847,5,224.41652
1,Arvorezinha/RS,-28.87369,-52.17808,902,8654.76876
D1,Arvorezinha/RS,-28.87369,-52.17808,28,268.66244
1,Arês/RN,-6.1969216,-35.1642968,1142,7861.76511
D1,Arês/RN,-6.1969216,-35.1642968,25,172.10519
1,Ascurra/SC,-26.9569975,-49.3767752,1338,16681.21182
D1,Ascurra/SC,-26.9569975,-49.3767752,13,162.07455
1,Aspásia/SP,-20.160028,-50.728046,212,11680.44077
D1,Aspásia/SP,-20.160028,-50.728046,8,440.77135
1,Assaré/CE,-6.8746791,-39.8741385,2361,10031.01500
D1,Assaré/CE,-6.8746791,-39.8741385,45,191.18834
1,Assaí/PR,-23.3736041,-50.8454929,1554,10505.67875
D1,Assaí/PR,-23.3736041,-50.8454929,54,365.06220
1,Assis Brasil/AC,-10.9409203,-69.5672108,1827,23885.47523
D1,Assis Brasil/AC,-10.9409203,-69.5672108,24,313.76651
1,Assis Chateaubriand/PR,-24.4054826,-53.5120468,5285,15868.01177
D1,Assis Chateaubriand/PR,-24.4054826,-53.5120468,125,375.30775
1,Assis/SP,-22.6620892,-50.420623,12290,11619.77158
D1,Assis/SP,-22.6620892,-50.420623,411,388.58634
1,Assunção do Piauí/PI,-5.8610212,-41.0485091,345,4378.72827
D1,Assunção do Piauí/PI,-5.8610212,-41.0485091,8,101.53573
1,Assunção/PB,-7.073396,-36.7274003,423,10400.78682
D1,Assunção/PB,-7.073396,-36.7274003,5,122.94074
1,Astolfo Dutra/MG,-21.3132636,-42.8624102,1451,10105.86433
D1,Astolfo Dutra/MG,-21.3132636,-42.8624102,28,195.01323
1,Astorga/PR,-23.2350184,-51.6647074,3618,13754.56204
D1,Astorga/PR,-23.2350184,-51.6647074,91,345.95499
1,Atalaia do Norte/AM,-4.3658547,-70.1908742,2842,13618.93809
D1,Atalaia do Norte/AM,-4.3658547,-70.1908742,10,47.92026
1,Atalaia/AL,-9.5029595,-36.0219316,1255,2639.88220
D1,Atalaia/AL,-9.5029595,-36.0219316,53,111.48507
1,Atalaia/PR,-23.1513833,-52.0529697,447,11547.40377
D1,Atalaia/PR,-23.1513833,-52.0529697,23,594.16172
1,Atalanta/SC,-27.421916,-49.778863,514,16168.60648
D1,Atalanta/SC,-27.421916,-49.778863,11,346.02076
1,Ataléia/MG,-18.04432,-41.1110524,1200,9603.07298
D1,Ataléia/MG,-18.04432,-41.1110524,10,80.02561
1,Atibaia/SP,-23.1177393,-46.5547861,12705,8739.28655
D1,Atibaia/SP,-23.1177393,-46.5547861,282,193.97708
1,Atilio Vivacqua/ES,-20.9139369,-41.1947519,1721,14026.07987
D1,Atilio Vivacqua/ES,-20.9139369,-41.1947519,30,244.49878
1,Augustinópolis/TO,-5.4662267,-47.8897519,1849,9798.62215
D1,Augustinópolis/TO,-5.4662267,-47.8897519,32,169.58135
1,Augusto Corrêa/PA,-1.0229335,-46.6404029,2036,4337.72930
D1,Augusto Corrêa/PA,-1.0229335,-46.6404029,52,110.78680
1,Augusto Pestana/RS,-28.5148413,-53.9906433,918,14025.97403
D1,Augusto Pestana/RS,-28.5148413,-53.9906433,13,198.62490
1,Augusto de Lima/MG,-18.1092963,-44.2651945,315,6517.69088
D1,Augusto de Lima/MG,-18.1092963,-44.2651945,11,227.60190
1,Aurelino Leal/BA,-14.3167137,-39.3256107,1055,9522.52008
D1,Aurelino Leal/BA,-14.3167137,-39.3256107,34,306.88690
1,Auriflama/SP,-20.6840418,-50.5554616,2119,13835.20501
D1,Auriflama/SP,-20.6840418,-50.5554616,74,483.15487
1,Aurilândia/GO,-16.6772599,-50.4641231,376,12533.33333
D1,Aurilândia/GO,-16.6772599,-50.4641231,12,400.00000
1,Aurora do Pará/PA,-2.1323199,-47.558436,1813,5630.43478
D1,Aurora do Pará/PA,-2.1323199,-47.558436,15,46.58385
1,Aurora do Tocantins/TO,-12.71045,-46.407604,299,7849.82935
D1,Aurora do Tocantins/TO,-12.71045,-46.407604,6,157.52166
1,Aurora/CE,-6.9426019,-38.9693765,1905,7754.30455
D1,Aurora/CE,-6.9426019,-38.9693765,38,154.67904
1,Aurora/SC,-27.3166417,-49.6368502,913,16054.15861
D1,Aurora/SC,-27.3166417,-49.6368502,17,298.92738
1,Autazes/AM,-3.5833283,-59.1301518,2907,7089.37934
D1,Autazes/AM,-3.5833283,-59.1301518,95,231.67906
1,Avanhandava/SP,-21.4603331,-49.9465156,1228,8732.13397
D1,Avanhandava/SP,-21.4603331,-49.9465156,43,305.76691
1,Avaré/SP,-23.1045215,-48.9259103,11782,12835.54122
D1,Avaré/SP,-23.1045215,-48.9259103,278,302.85864
1,Avaí/SP,-22.1564662,-49.3316395,492,8999.45125
D1,Avaí/SP,-22.1564662,-49.3316395,12,219.49881
1,Aveiro/PA,-3.6049239,-55.3310742,849,5170.20888
D1,Aveiro/PA,-3.6049239,-55.3310742,14,85.25668
1,Avelino Lopes/PI,-10.1346855,-43.9489525,488,4295.39653
D1,Avelino Lopes/PI,-10.1346855,-43.9489525,19,167.23880
1,Avelinópolis/GO,-16.4672409,-49.7578661,347,14452.31154
D1,Avelinópolis/GO,-16.4672409,-49.7578661,17,708.03832
1,Axixá do Tocantins/TO,-5.612747,-47.77007,1052,10716.10472
D1,Axixá do Tocantins/TO,-5.612747,-47.77007,21,213.91464
1,Axixá/MA,-2.8379465,-44.0561053,192,1569.39676
D1,Axixá/MA,-2.8379465,-44.0561053,8,65.39153
1,Açailândia/MA,-4.9514278,-47.4844564,5820,5114.99960
D1,Açailândia/MA,-4.9514278,-47.4844564,245,215.32215
1,Açu/RN,-5.5836157,-36.9139541,8329,14178.71065
D1,Açu/RN,-5.5836157,-36.9139541,148,251.94491
1,Açucena/MG,-19.073056,-42.546666,808,8716.28910
D1,Açucena/MG,-19.073056,-42.546666,37,399.13700
1,Babaçulândia/TO,-7.2034355,-47.761613,885,8295.83802
D1,Babaçulândia/TO,-7.2034355,-47.761613,8,74.99063
1,Bacabal/MA,-4.2318132,-44.781167,5631,5358.06040
D1,Bacabal/MA,-4.2318132,-44.781167,203,193.16041
1,Bacabeira/MA,-2.9775747,-44.3155943,398,2281.32523
D1,Bacabeira/MA,-2.9775747,-44.3155943,10,57.31973
1,Bacuri/MA,-1.728894,-45.1417148,629,3358.96614
D1,Bacuri/MA,-1.728894,-45.1417148,4,21.36067
1,Bacurituba/MA,-2.7082587,-44.7381309,117,2054.07303
D1,Bacurituba/MA,-2.7082587,-44.7381309,2,35.11236
1,Bady Bassitt/SP,-20.9178969,-49.4517911,4163,23111.08644
D1,Bady Bassitt/SP,-20.9178969,-49.4517911,84,466.32987
1,Baependi/MG,-21.959162,-44.8899249,1694,8800.45717
D1,Baependi/MG,-21.959162,-44.8899249,32,166.24240
1,Bagre/PA,-1.8994498,-50.2103844,947,2962.43001
D1,Bagre/PA,-1.8994498,-50.2103844,12,37.53871
1,Bagé/RS,-31.3314264,-54.1062808,11618,9560.72351
D1,Bagé/RS,-31.3314264,-54.1062808,293,241.11654
1,Baianópolis/BA,-12.3067564,-44.5383591,940,6724.37227
D1,Baianópolis/BA,-12.3067564,-44.5383591,20,143.07175
1,Baixa Grande do Ribeiro/PI,-7.862861,-45.2113289,2668,22704.45069
D1,Baixa Grande do Ribeiro/PI,-7.862861,-45.2113289,33,280.82716
1,Baixa Grande/BA,-11.9630941,-40.1657537,1011,4948.36278
D1,Baixa Grande/BA,-11.9630941,-40.1657537,19,92.99594
1,Baixio/CE,-6.7303544,-38.7170095,716,11332.70022
D1,Baixio/CE,-6.7303544,-38.7170095,14,221.58911
1,Baixo Guandu/ES,-19.5138322,-41.0182089,3937,12593.16124
D1,Baixo Guandu/ES,-19.5138322,-41.0182089,83,265.48956
1,Baião/PA,-2.7903479,-49.6702845,819,1656.08444
D1,Baião/PA,-2.7903479,-49.6702845,38,76.83908
1,Balbinos/SP,-21.9006253,-49.3583966,371,6055.16566
D1,Balbinos/SP,-21.9006253,-49.3583966,4,65.28480
1,Baldim/MG,-19.2913568,-43.9558262,674,8663.23907
D1,Baldim/MG,-19.2913568,-43.9558262,22,282.77635
1,Baliza/GO,-16.1978119,-52.542789,513,9468.43854
D1,Baliza/GO,-16.1978119,-52.542789,10,184.56995
1,Balneário Arroio do Silva/SC,-28.9815269,-49.4189932,2195,15926.57089
D1,Balneário Arroio do Silva/SC,-28.9815269,-49.4189932,59,428.09462
1,Balneário Barra do Sul/SC,-26.459842,-48.6061471,1583,14044.89398
D1,Balneário Barra do Sul/SC,-26.459842,-48.6061471,47,416.99938
1,Balneário Camboriú/SC,-26.9924395,-48.6339782,27919,18709.08080
D1,Balneário Camboriú/SC,-26.9924395,-48.6339782,418,280.11017
1,Balneário Gaivota/SC,-29.1553098,-49.5808712,1395,12091.53159
D1,Balneário Gaivota/SC,-29.1553098,-49.5808712,38,329.37505
1,Balneário Pinhal/RS,-30.2482978,-50.234585,1146,7825.19631
D1,Balneário Pinhal/RS,-30.2482978,-50.234585,54,368.72653
1,Balneário Piçarras/SC,-26.7638889,-48.6716667,5480,22472.83166
D1,Balneário Piçarras/SC,-26.7638889,-48.6716667,61,250.15378
1,Balneário Rincão/SC,-28.8235718,-49.2241642,1523,11600.27420
D1,Balneário Rincão/SC,-28.8235718,-49.2241642,52,396.06977
1,Balsa Nova/PR,-25.5842234,-49.6312741,1737,13121.31742
D1,Balsa Nova/PR,-25.5842234,-49.6312741,35,264.39039
1,Balsas/MA,-7.53214,-46.037163,13872,14308.25881
D1,Balsas/MA,-7.53214,-46.037163,208,214.54137
1,Bambuí/MG,-20.0131996,-45.9777034,2110,8804.87398
D1,Bambuí/MG,-20.0131996,-45.9777034,33,137.70656
1,Banabuiú/CE,-5.3046404,-38.919766,2329,12717.74150
D1,Banabuiú/CE,-5.3046404,-38.919766,22,120.13324
1,Bananal/SP,-22.6828195,-44.3221095,1134,10272.66963
D1,Bananal/SP,-22.6828195,-44.3221095,4,36.23517
1,Bananeiras/PB,-6.7537682,-35.6338343,1585,7469.36852
D1,Bananeiras/PB,-6.7537682,-35.6338343,27,127.23845
1,Bandeira do Sul/MG,-21.728056,-46.385555,691,11897.38292
D1,Bandeira do Sul/MG,-21.728056,-46.385555,15,258.26446
1,Bandeira/MG,-15.884444,-40.559167,478,10088.64500
D1,Bandeira/MG,-15.884444,-40.559167,10,211.05952
1,Bandeirante/SC,-26.7677402,-53.6397596,434,16577.54011
D1,Bandeirante/SC,-26.7677402,-53.6397596,6,229.18258
1,Bandeirantes do Tocantins/TO,-7.7635698,-48.579148,522,14376.20490
D1,Bandeirantes do Tocantins/TO,-7.7635698,-48.579148,8,220.32498
1,Bandeirantes/MS,-19.9179623,-54.3646768,644,8844.93888
D1,Bandeirantes/MS,-19.9179623,-54.3646768,11,151.07815
1,Bandeirantes/PR,-23.107788,-50.370407,5360,17256.36650
D1,Bandeirantes/PR,-23.107788,-50.370407,144,463.60388
1,Bannach/PA,-7.3508505,-50.4064531,655,20222.29083
D1,Bannach/PA,-7.3508505,-50.4064531,3,92.62118
1,Banzaê/BA,-10.5827616,-38.6122305,1195,9018.18731
D1,Banzaê/BA,-10.5827616,-38.6122305,9,67.91940
1,Baraúna/PB,-6.643394,-36.2531932,716,14226.10769
D1,Baraúna/PB,-6.643394,-36.2531932,9,178.81979
1,Baraúna/RN,-5.0775002,-37.61752,1709,5870.43144
D1,Baraúna/RN,-5.0775002,-37.61752,29,99.61528
1,Barbacena/MG,-21.2254524,-43.7735087,9464,6805.64644
D1,Barbacena/MG,-21.2254524,-43.7735087,304,218.60910
1,Barbalha/CE,-7.3121067,-39.3036427,7092,11501.41092
D1,Barbalha/CE,-7.3121067,-39.3036427,165,267.58782
1,Barbosa Ferraz/PR,-24.0287182,-52.00811,1336,11836.62621
D1,Barbosa Ferraz/PR,-24.0287182,-52.00811,41,363.24976
1,Barbosa/SP,-21.265661,-49.951816,772,10249.60170
D1,Barbosa/SP,-21.265661,-49.951816,20,265.53372
1,Barcarena/PA,-1.5107945,-48.6190679,11992,9272.18885
D1,Barcarena/PA,-1.5107945,-48.6190679,239,184.79429
1,Barcelona/RN,-5.9514918,-35.9260284,202,5063.92580
D1,Barcelona/RN,-5.9514918,-35.9260284,7,175.48258
1,Barcelos/AM,-0.9729214,-62.925635,4491,16170.96356
D1,Barcelos/AM,-0.9729214,-62.925635,60,216.04494
1,Bariri/SP,-22.0746355,-48.7394852,3204,8938.73452
D1,Bariri/SP,-22.0746355,-48.7394852,132,368.26247
1,Barra Bonita/SC,-26.6526364,-53.4419581,202,12430.76923
D1,Barra Bonita/SC,-26.6526364,-53.4419581,2,123.07692
1,Barra Bonita/SP,-22.490859,-48.558349,4857,13444.98270
D1,Barra Bonita/SP,-22.490859,-48.558349,118,326.64360
1,Barra D'Alcântara/PI,-6.5209258,-42.1071089,154,3895.77536
D1,Barra D'Alcântara/PI,-6.5209258,-42.1071089,4,101.18897
1,Barra Funda/RS,-27.9230048,-53.0401045,625,24385.48576
D1,Barra Funda/RS,-27.9230048,-53.0401045,14,546.23488
1,Barra Longa/MG,-20.2833541,-43.0423516,432,8807.33945
D1,Barra Longa/MG,-20.2833541,-43.0423516,11,224.26096
1,Barra Mansa/RJ,-22.5394843,-44.1735129,32143,17352.36481
D1,Barra Mansa/RJ,-22.5394843,-44.1735129,670,361.69880
1,Barra Velha/SC,-26.6338203,-48.6835001,5024,16451.09532
D1,Barra Velha/SC,-26.6338203,-48.6835001,129,422.41069
1,Barra da Estiva/BA,-13.6269662,-41.3278287,2833,14026.14120
D1,Barra da Estiva/BA,-13.6269662,-41.3278287,33,163.38251
1,Barra de Guabiraba/PE,-8.4173522,-35.6626669,448,3061.78239
D1,Barra de Guabiraba/PE,-8.4173522,-35.6626669,16,109.34937
1,Barra de Santa Rosa/PB,-6.7218007,-36.0564638,1724,11046.32537
D1,Barra de Santa Rosa/PB,-6.7218007,-36.0564638,13,83.29596
1,Barra de Santana/PB,-7.5230865,-35.9988518,701,8407.29192
D1,Barra de Santana/PB,-7.5230865,-35.9988518,7,83.95299
1,Barra de Santo Antônio/AL,-9.4038098,-35.5117693,466,2876.36566
D1,Barra de Santo Antônio/AL,-9.4038098,-35.5117693,32,197.51867
1,Barra de São Francisco/ES,-18.7570902,-40.8916119,5405,11931.30394
D1,Barra de São Francisco/ES,-18.7570902,-40.8916119,225,496.67778
1,Barra de São Miguel/AL,-9.8261357,-35.8837777,640,7588.33294
D1,Barra de São Miguel/AL,-9.8261357,-35.8837777,8,94.85416
1,Barra de São Miguel/PB,-7.7528088,-36.3170996,678,11123.87203
D1,Barra de São Miguel/PB,-7.7528088,-36.3170996,7,114.84824
1,Barra do Bugres/MT,-15.0683712,-57.1853688,3690,10352.95438
D1,Barra do Bugres/MT,-15.0683712,-57.1853688,87,244.09405
1,Barra do Chapéu/SP,-24.472203,-49.023784,448,7732.13669
D1,Barra do Chapéu/SP,-24.472203,-49.023784,6,103.55540
1,Barra do Choça/BA,-14.8638173,-40.5761637,2303,7469.75447
D1,Barra do Choça/BA,-14.8638173,-40.5761637,35,113.52210
1,Barra do Corda/MA,-5.496823,-45.248496,5830,6558.29912
D1,Barra do Corda/MA,-5.496823,-45.248496,74,83.24428
1,Barra do Garças/MT,-15.8916033,-52.2615413,10573,17135.58718
D1,Barra do Garças/MT,-15.8916033,-52.2615413,381,617.48404
1,Barra do Guarita/RS,-27.1888016,-53.7147086,116,3551.74525
D1,Barra do Guarita/RS,-27.1888016,-53.7147086,8,244.94795
1,Barra do Jacaré/PR,-23.1151788,-50.1813945,270,9708.73786
D1,Barra do Jacaré/PR,-23.1151788,-50.1813945,7,251.70802
1,Barra do Mendes/BA,-11.8053298,-42.057037,836,6368.06825
D1,Barra do Mendes/BA,-11.8053298,-42.057037,16,121.87690
1,Barra do Ouro/TO,-7.7113784,-47.6743925,167,3573.72138
D1,Barra do Ouro/TO,-7.7113784,-47.6743925,7,149.79670
1,Barra do Piraí/RJ,-22.4703403,-43.8263256,7602,7516.38834
D1,Barra do Piraí/RJ,-22.4703403,-43.8263256,393,388.57414
1,Barra do Quaraí/RS,-30.208947,-57.5505128,621,14653.13827
D1,Barra do Quaraí/RS,-30.208947,-57.5505128,9,212.36432
1,Barra do Ribeiro/RS,-30.2930206,-51.301437,1143,8393.30298
D1,Barra do Ribeiro/RS,-30.2930206,-51.301437,51,374.50433
1,Barra do Rio Azul/RS,-27.4101581,-52.4117471,118,7279.45713
D1,Barra do Rio Azul/RS,-27.4101581,-52.4117471,1,61.69031
1,Barra do Rocha/BA,-14.2090974,-39.6004395,412,7470.53490
D1,Barra do Rocha/BA,-14.2090974,-39.6004395,7,126.92656
1,Barra do Turvo/SP,-24.756421,-48.5056942,735,9663.42361
D1,Barra do Turvo/SP,-24.756421,-48.5056942,21,276.09782
1,Barra dos Coqueiros/SE,-10.9075694,-37.0386249,7059,22453.00423
D1,Barra dos Coqueiros/SE,-10.9075694,-37.0386249,99,314.89551
1,Barra/BA,-11.0892702,-43.1420453,2272,4189.94929
D1,Barra/BA,-11.0892702,-43.1420453,66,121.71508
1,Barracão/PR,-26.252395,-53.6349576,1349,13037.59544
D1,Barracão/PR,-26.252395,-53.6349576,35,338.26230
1,Barracão/RS,-27.6728964,-51.4582928,542,10349.43670
D1,Barracão/RS,-27.6728964,-51.4582928,16,305.51843
1,Barras/PI,-4.2446153,-42.2920241,5257,11114.63487
D1,Barras/PI,-4.2446153,-42.2920241,94,198.73990
1,Barreira/CE,-4.2883361,-38.641094,1602,7052.60841
D1,Barreira/CE,-4.2883361,-38.641094,51,224.52124
1,Barreiras do Piauí/PI,-9.9224524,-45.4763776,113,3367.10369
D1,Barreiras do Piauí/PI,-9.9224524,-45.4763776,4,119.18951
1,Barreiras/BA,-12.1440031,-44.9967406,19958,12597.20259
D1,Barreiras/BA,-12.1440031,-44.9967406,330,208.29125
1,Barreirinha/AM,-2.798863,-57.067897,2438,7406.05729
D1,Barreirinha/AM,-2.798863,-57.067897,63,191.37884
1,Barreirinhas/MA,-2.7541271,-42.8259693,2657,4158.64519
D1,Barreirinhas/MA,-2.7541271,-42.8259693,48,75.12795
1,Barreiros/PE,-8.8159644,-35.1831905,812,1894.27518
D1,Barreiros/PE,-8.8159644,-35.1831905,67,156.30103
1,Barretos/SP,-20.5531437,-48.5697509,17781,14392.21019
D1,Barretos/SP,-20.5531437,-48.5697509,587,475.12667
1,Barrinha/SP,-21.1898849,-48.1550642,1711,5101.82783
D1,Barrinha/SP,-21.1898849,-48.1550642,72,214.68825
1,Barro Alto/BA,-11.7618025,-41.9094904,929,6123.52515
D1,Barro Alto/BA,-11.7618025,-41.9094904,13,85.68980
1,Barro Alto/GO,-14.9696025,-48.9190985,1719,14764.23602
D1,Barro Alto/GO,-14.9696025,-48.9190985,24,206.13244
1,Barro Duro/PI,-5.8180139,-42.5106589,708,10082.59755
D1,Barro Duro/PI,-5.8180139,-42.5106589,12,170.89148
1,Barro Preto/BA,-14.8068289,-39.4727588,653,12292.92169
D1,Barro Preto/BA,-14.8068289,-39.4727588,12,225.90361
1,Barro/CE,-7.1713587,-38.7742136,1904,8338.44267
D1,Barro/CE,-7.1713587,-38.7742136,45,197.07454
1,Barrocas/BA,-11.5165,-39.099282894736845,910,5608.62866
D1,Barrocas/BA,-11.5165,-39.099282894736845,26,160.24653
1,Barrolândia/TO,-9.837246,-48.7264346,801,14129.47610
D1,Barrolândia/TO,-9.837246,-48.7264346,20,352.79591
1,Barroquinha/CE,-3.0200371,-41.1339229,1340,8892.42816
D1,Barroquinha/CE,-3.0200371,-41.1339229,25,165.90351
1,Barros Cassal/RS,-29.094938,-52.5832366,857,7674.39778
D1,Barros Cassal/RS,-29.094938,-52.5832366,14,125.36939
1,Barroso/MG,-21.187222,-43.976111,2106,10037.65311
D1,Barroso/MG,-21.187222,-43.976111,59,281.20681
1,Barueri/SP,-23.5112184,-46.8764612,34966,12501.07256
D1,Barueri/SP,-23.5112184,-46.8764612,1172,419.01439
1,Barão de Antonina/SP,-23.6295651,-49.5632104,518,14695.03546
D1,Barão de Antonina/SP,-23.6295651,-49.5632104,10,283.68794
1,Barão de Cocais/MG,-19.9452437,-43.4870298,4907,14765.88830
D1,Barão de Cocais/MG,-19.9452437,-43.4870298,74,222.67694
1,Barão de Cotegipe/RS,-27.6214694,-52.3765316,822,12424.42563
D1,Barão de Cotegipe/RS,-27.6214694,-52.3765316,10,151.14873
1,Barão de Grajaú/MA,-6.7542591,-43.0263477,479,2517.60748
D1,Barão de Grajaú/MA,-6.7542591,-43.0263477,4,21.02386
1,Barão de Melgaço/MT,-16.195776,-55.9668049,498,6099.20392
D1,Barão de Melgaço/MT,-16.195776,-55.9668049,17,208.20576
1,Barão de Monte Alto/MG,-21.244722,-42.2375,344,6477.12295
D1,Barão de Monte Alto/MG,-21.244722,-42.2375,13,244.77500
1,Barão do Triunfo/RS,-30.3909877,-51.7375349,501,6635.76159
D1,Barão do Triunfo/RS,-30.3909877,-51.7375349,6,79.47020
1,Barão/RS,-29.372474,-51.494908,762,12227.21438
D1,Barão/RS,-29.372474,-51.494908,12,192.55456
1,Bastos/SP,-21.9222474,-50.7317727,2090,9975.18137
D1,Bastos/SP,-21.9222474,-50.7317727,47,224.32226
1,Bataguassu/MS,-21.715899,-52.422058,3486,14758.67909
D1,Bataguassu/MS,-21.715899,-52.422058,50,211.68501
1,Batalha/AL,-9.6733809,-37.1265481,1133,6144.25163
D1,Batalha/AL,-9.6733809,-37.1265481,20,108.45987
1,Batalha/PI,-4.022391,-42.0780926,1323,4908.90876
D1,Batalha/PI,-4.022391,-42.0780926,34,126.15487
1,Batatais/SP,-20.892867,-47.592149,6401,10090.16678
D1,Batatais/SP,-20.892867,-47.592149,173,272.70721
1,Batayporã/MS,-22.2976466,-53.2685608,1099,9667.48768
D1,Batayporã/MS,-22.2976466,-53.2685608,26,228.71217
1,Baturité/CE,-4.3290203,-38.8821055,4226,11697.62228
D1,Baturité/CE,-4.3290203,-38.8821055,87,240.81712
1,Bauru/SP,-22.3218102,-49.0705863,53356,13978.29743
D1,Bauru/SP,-22.3218102,-49.0705863,1235,323.54744
1,Bayeux/PB,-7.1301631,-34.936532,8518,8734.70811
D1,Bayeux/PB,-7.1301631,-34.936532,251,257.38574
1,Baía Formosa/RN,-6.3691885,-35.0063741,518,5526.51232
D1,Baía Formosa/RN,-6.3691885,-35.0063741,9,96.02048
1,Baía da Traição/PB,-6.691258,-34.9371244,1325,14406.87181
D1,Baía da Traição/PB,-6.691258,-34.9371244,12,130.47733
1,Bebedouro/SP,-20.949077,-48.479083,4581,5902.43777
D1,Bebedouro/SP,-20.949077,-48.479083,247,318.24976
1,Beberibe/CE,-4.1810469,-38.1298101,5697,10488.81524
D1,Beberibe/CE,-4.1810469,-38.1298101,131,241.18568
1,Bela Cruz/CE,-3.0529129,-40.167582,3524,10727.22292
D1,Bela Cruz/CE,-3.0529129,-40.167582,73,222.21546
1,Bela Vista da Caroba/PR,-25.8792818,-53.6672545,199,5846.06345
D1,Bela Vista da Caroba/PR,-25.8792818,-53.6672545,7,205.64042
1,Bela Vista de Goiás/GO,-16.9692949,-48.9513071,3669,11833.95691
D1,Bela Vista de Goiás/GO,-16.9692949,-48.9513071,85,274.15817
1,Bela Vista de Minas/MG,-19.8289721,-43.0973688,1014,9874.37920
D1,Bela Vista de Minas/MG,-19.8289721,-43.0973688,24,233.71312
1,Bela Vista do Maranhão/MA,-3.7416367,-45.2514192,226,1991.71587
D1,Bela Vista do Maranhão/MA,-3.7416367,-45.2514192,20,176.25804
1,Bela Vista do Paraíso/PR,-22.9948493,-51.1907996,2167,14071.42857
D1,Bela Vista do Paraíso/PR,-22.9948493,-51.1907996,75,487.01299
1,Bela Vista do Piauí/PI,-7.9716353,-41.8715061,284,7022.74975
D1,Bela Vista do Piauí/PI,-7.9716353,-41.8715061,6,148.36795
1,Bela Vista do Toldo/SC,-26.274625,-50.466354,90,1409.33292
D1,Bela Vista do Toldo/SC,-26.274625,-50.466354,4,62.63702
1,Bela Vista/MS,-22.107327,-56.5317344,1131,4552.77353
D1,Bela Vista/MS,-22.107327,-56.5317344,33,132.83955
1,Belford Roxo/RJ,-22.7667284,-43.4033603,23820,4623.09724
D1,Belford Roxo/RJ,-22.7667284,-43.4033603,930,180.49876
1,Belmiro Braga/MG,-21.9486291,-43.413564,219,6399.76622
D1,Belmiro Braga/MG,-21.9486291,-43.413564,3,87.66803
1,Belmonte/BA,-15.8630837,-38.8792845,1233,5237.89295
D1,Belmonte/BA,-15.8630837,-38.8792845,26,110.45030
1,Belmonte/SC,-26.8448262,-53.578916,342,12610.61947
D1,Belmonte/SC,-26.8448262,-53.578916,5,184.36578
1,Belo Campo/BA,-15.0338286,-41.2585109,987,5801.44595
D1,Belo Campo/BA,-15.0338286,-41.2585109,18,105.80145
1,Belo Horizonte/MG,-19.9227318,-43.9450948,285563,11283.94860
D1,Belo Horizonte/MG,-19.9227318,-43.9450948,6784,268.06802
1,Belo Jardim/PE,-8.3338293,-36.4176419,4560,5927.46653
D1,Belo Jardim/PE,-8.3338293,-36.4176419,129,167.68491
1,Belo Monte/AL,-9.8269944,-37.2787165,555,8262.61724
D1,Belo Monte/AL,-9.8269944,-37.2787165,9,133.98839
1,Belo Oriente/MG,-19.2232523,-42.4807033,2780,10191.73663
D1,Belo Oriente/MG,-19.2232523,-42.4807033,71,260.29255
1,Belo Vale/MG,-20.407778,-44.024167,1059,13712.28797
D1,Belo Vale/MG,-20.407778,-44.024167,12,155.38003
1,Belterra/PA,-2.636091,-54.937392,1661,9256.57601
D1,Belterra/PA,-2.636091,-54.937392,36,200.62416
1,Belágua/MA,-3.1604031,-43.5085052,413,5444.23939
D1,Belágua/MA,-3.1604031,-43.5085052,4,52.72871
1,Belém de Maria/PE,-8.6242497,-35.8388934,306,2514.58624
D1,Belém de Maria/PE,-8.6242497,-35.8388934,6,49.30561
1,Belém do Brejo do Cruz/PB,-6.1880727,-37.5332267,544,7395.32355
D1,Belém do Brejo do Cruz/PB,-6.1880727,-37.5332267,6,81.56607
1,Belém do Piauí/PI,-7.3767305,-40.9712156,490,13584.69642
D1,Belém do Piauí/PI,-7.3767305,-40.9712156,8,221.79096
1,Belém do São Francisco/PE,-8.7517707,-38.9625715,1024,4939.70092
D1,Belém do São Francisco/PE,-8.7517707,-38.9625715,13,62.71105
1,Belém/AL,-9.5715351,-36.492841,128,3028.86891
D1,Belém/AL,-9.5715351,-36.492841,7,165.64127
1,Belém/PA,-1.45056,-48.4682453,106377,7061.57645
D1,Belém/PA,-1.45056,-48.4682453,5137,341.00716
1,Belém/PB,-6.6967586,-35.5369626,2430,13703.26510
D1,Belém/PB,-6.6967586,-35.5369626,45,253.76417
1,Beneditinos/PI,-5.4565671,-42.3605061,1322,12615.70761
D1,Beneditinos/PI,-5.4565671,-42.3605061,40,381.71581
1,Benedito Leite/MA,-7.2173453,-44.5523331,316,5599.85823
D1,Benedito Leite/MA,-7.2173453,-44.5523331,2,35.44214
1,Benedito Novo/SC,-26.7840657,-49.3629511,1095,9204.77471
D1,Benedito Novo/SC,-26.7840657,-49.3629511,20,168.12374
1,Benevides/PA,-1.3555577,-48.252235,4139,6389.31769
D1,Benevides/PA,-1.3555577,-48.252235,106,163.63075
1,Benjamin Constant do Sul/RS,-27.5105555,-52.6007689,189,9823.28482
D1,Benjamin Constant do Sul/RS,-27.5105555,-52.6007689,2,103.95010
1,Benjamin Constant/AM,-4.3782748,-70.0290603,2716,6052.63744
D1,Benjamin Constant/AM,-4.3782748,-70.0290603,88,196.10902
1,Bento Fernandes/RN,-5.6926846,-35.8207423,184,3314.12104
D1,Bento Fernandes/RN,-5.6926846,-35.8207423,3,54.03458
1,Bento Gonçalves/RS,-29.1654014,-51.5197627,22111,17963.27890
D1,Bento Gonçalves/RS,-29.1654014,-51.5197627,394,320.09099
1,Bento de Abreu/SP,-21.2707225,-50.8120444,363,11988.11096
D1,Bento de Abreu/SP,-21.2707225,-50.8120444,5,165.12550
1,Bequimão/MA,-2.4495376,-44.7884889,283,1327.57893
D1,Bequimão/MA,-2.4495376,-44.7884889,25,117.27729
1,Berilo/MG,-16.9515764,-42.4643732,153,1295.18327
D1,Berilo/MG,-16.9515764,-42.4643732,1,8.46525
1,Berizal/MG,-15.6118785,-41.7417382,251,5237.89649
D1,Berizal/MG,-15.6118785,-41.7417382,1,20.86811
1,Bernardino Batista/PB,-6.4532173,-38.5495418,308,8625.03500
D1,Bernardino Batista/PB,-6.4532173,-38.5495418,1,28.00336
1,Bernardino de Campos/SP,-23.0140216,-49.4760724,912,8166.18911
D1,Bernardino de Campos/SP,-23.0140216,-49.4760724,32,286.53295
1,Bernardo Sayão/TO,-7.8794244,-48.8968905,651,14665.46519
D1,Bernardo Sayão/TO,-7.8794244,-48.8968905,13,292.85875
1,Bernardo do Mearim/MA,-4.6315929,-44.7617508,322,5276.95837
D1,Bernardo do Mearim/MA,-4.6315929,-44.7617508,6,98.32842
1,Bertioga/SP,-23.848568,-46.139586,6184,9347.88524
D1,Bertioga/SP,-23.848568,-46.139586,165,249.41802
1,Bertolínia/PI,-7.6372159,-43.9540611,911,16527.57620
D1,Bertolínia/PI,-7.6372159,-43.9540611,12,217.70682
1,Bertópolis/MG,-17.063333,-40.573889,489,10609.67672
D1,Bertópolis/MG,-17.063333,-40.573889,5,108.48340
1,Beruri/AM,-3.9007135,-61.3717319,2294,11188.60655
D1,Beruri/AM,-3.9007135,-61.3717319,34,165.82939
1,Betim/MG,-19.968056,-44.198333,32257,7167.83994
D1,Betim/MG,-19.968056,-44.198333,1351,300.20621
1,Betânia do Piauí/PI,-8.1460635,-40.7961387,180,2896.68491
D1,Betânia do Piauí/PI,-8.1460635,-40.7961387,2,32.18539
1,Betânia/PE,-8.2742779,-38.0351767,514,4012.17704
D1,Betânia/PE,-8.2742779,-38.0351767,17,132.69846
1,Bezerros/PE,-8.2372132,-35.7558262,4010,6578.08399
D1,Bezerros/PE,-8.2372132,-35.7558262,129,211.61417
1,Bias Fortes/MG,-21.605833,-43.756944,119,3625.83790
D1,Bias Fortes/MG,-21.605833,-43.756944,4,121.87690
1,Bicas/MG,-21.7213723,-43.0604327,1544,10566.65754
D1,Bicas/MG,-21.7213723,-43.0604327,46,314.80975
1,Biguaçu/SC,-27.4961277,-48.6542432,11736,16653.65895
D1,Biguaçu/SC,-27.4961277,-48.6542432,171,242.65301
1,Bilac/SP,-21.403962,-50.47464,958,11687.20264
D1,Bilac/SP,-21.403962,-50.47464,23,280.59046
1,Biquinhas/MG,-18.783611,-45.502222,176,7091.05560
D1,Biquinhas/MG,-18.783611,-45.502222,4,161.16035
1,Birigui/SP,-21.2908491,-50.34144,18125,14374.19703
D1,Birigui/SP,-21.2908491,-50.34144,602,477.42161
1,Biritiba Mirim/SP,-23.5697765,-46.0407456,1551,4662.55824
D1,Biritiba Mirim/SP,-23.5697765,-46.0407456,103,309.63475
1,Biritinga/BA,-11.6227908,-38.8066738,609,3808.86860
D1,Biritinga/BA,-11.6227908,-38.8066738,7,43.78010
1,Bituruna/PR,-26.161281,-51.5533319,1434,8738.04156
D1,Bituruna/PR,-26.161281,-51.5533319,21,127.96295
1,Blumenau/SC,-26.9195567,-49.0658025,60686,16561.95929
D1,Blumenau/SC,-26.9195567,-49.0658025,664,181.21380
1,Boa Esperança do Iguaçu/PR,-25.6362851,-53.2139114,189,7755.43701
1,Boa Esperança do Sul/SP,-21.9930206,-48.3917372,1745,11547.87903
D1,Boa Esperança do Sul/SP,-21.9930206,-48.3917372,21,138.97161
1,Boa Esperança/ES,-18.5395472,-40.2904088,1777,11732.47062
D1,Boa Esperança/ES,-18.5395472,-40.2904088,47,310.31295
1,Boa Esperança/MG,-21.0901253,-45.5660195,4999,12402.00456
D1,Boa Esperança/MG,-21.0901253,-45.5660195,144,357.24918
1,Boa Esperança/PR,-24.2411024,-52.7860277,494,12377.85016
D1,Boa Esperança/PR,-24.2411024,-52.7860277,17,425.95841
1,Boa Hora/PI,-4.4094627,-42.1255341,596,8703.27103
D1,Boa Hora/PI,-4.4094627,-42.1255341,7,102.21963
1,Boa Nova/BA,-14.365907,-40.2063056,1037,8613.67223
D1,Boa Nova/BA,-14.365907,-40.2063056,20,166.12675
1,Boa Ventura de São Roque/PR,-24.88177,-51.5441292,568,8954.75327
D1,Boa Ventura de São Roque/PR,-24.88177,-51.5441292,8,126.12329
1,Boa Ventura/PB,-7.4202462,-38.2156782,769,14653.20122
D1,Boa Ventura/PB,-7.4202462,-38.2156782,12,228.65854
1,Boa Viagem/CE,-5.1261877,-39.7300055,4293,7851.13387
D1,Boa Viagem/CE,-5.1261877,-39.7300055,119,217.62985
1,Boa Vista da Aparecida/PR,-25.4357216,-53.4067721,1114,14805.95428
D1,Boa Vista da Aparecida/PR,-25.4357216,-53.4067721,34,451.88729
1,Boa Vista das Missões/RS,-27.6677983,-53.3127622,257,12314.32678
D1,Boa Vista das Missões/RS,-27.6677983,-53.3127622,7,335.40968
1,Boa Vista do Buricá/RS,-27.6687782,-54.1111913,909,13542.90822
D1,Boa Vista do Buricá/RS,-27.6687782,-54.1111913,11,163.88558
1,Boa Vista do Cadeado/RS,-28.5783827,-53.8123759,219,8880.77859
D1,Boa Vista do Cadeado/RS,-28.5783827,-53.8123759,4,162.20600
1,Boa Vista do Gurupi/MA,-1.7981168,-46.3071882,15,176.59524
D1,Boa Vista do Gurupi/MA,-1.7981168,-46.3071882,4,47.09206
1,Boa Vista do Incra/RS,-28.8195551,-53.3866624,314,11948.24962
D1,Boa Vista do Incra/RS,-28.8195551,-53.3866624,4,152.20700
1,Boa Vista do Ramos/AM,-2.9716927,-57.5869819,1000,4990.01996
D1,Boa Vista do Ramos/AM,-2.9716927,-57.5869819,13,64.87026
1,Boa Vista do Sul/RS,-29.3510488,-51.6779679,336,12116.84097
D1,Boa Vista do Sul/RS,-29.3510488,-51.6779679,4,144.24811
1,Boa Vista do Tupim/BA,-12.6605988,-40.6083594,290,1568.33054
D1,Boa Vista do Tupim/BA,-12.6605988,-40.6083594,11,59.48840
1,Boa Vista/PB,-7.2620711,-36.2415161,860,11914.65780
D1,Boa Vista/PB,-7.2620711,-36.2415161,15,207.81380
1,Boa Vista/RR,2.8208478,-60.6719582,96839,22180.71376
D1,Boa Vista/RR,2.8208478,-60.6719582,1530,350.44240
1,Boca da Mata/AL,-9.6452054,-36.2116658,1921,7003.53640
D1,Boca da Mata/AL,-9.6452054,-36.2116658,45,164.05994
1,Boca do Acre/AM,-8.7553487,-67.3930873,2675,7652.03959
D1,Boca do Acre/AM,-8.7553487,-67.3930873,27,77.23554
1,Bocaina de Minas/MG,-22.167778,-44.394722,200,3930.81761
D1,Bocaina de Minas/MG,-22.167778,-44.394722,7,137.57862
1,Bocaina do Sul/SC,-27.745494,-49.942279,401,11453.87032
D1,Bocaina do Sul/SC,-27.745494,-49.942279,3,85.68980
1,Bocaina/PI,-6.9445939,-41.3224599,368,8161.45487
D1,Bocaina/PI,-6.9445939,-41.3224599,9,199.60080
1,Bocaina/SP,-22.1421831,-48.522276,1361,10826.50545
D1,Bocaina/SP,-22.1421831,-48.522276,35,278.41858
1,Bocaiúva do Sul/PR,-25.206591,-49.114131,2204,16561.46679
D1,Bocaiúva do Sul/PR,-25.206591,-49.114131,28,210.39976
1,Bocaiúva/MG,-17.1160208,-43.8122678,2769,5480.88914
D1,Bocaiúva/MG,-17.1160208,-43.8122678,69,136.57687
1,Bodocó/PE,-7.777592,-39.933797,2185,5659.88862
D1,Bodocó/PE,-7.777592,-39.933797,41,106.20386
1,Bodoquena/MS,-20.5508775,-56.6769653,609,7805.69085
D1,Bodoquena/MS,-20.5508775,-56.6769653,18,230.71007
1,Bodó/RN,-5.9866104,-36.4134824,195,8982.03593
D1,Bodó/RN,-5.9866104,-36.4134824,1,46.06172
1,Bofete/SP,-23.1019554,-48.2610535,971,8020.15363
D1,Bofete/SP,-23.1019554,-48.2610535,22,181.71306
1,Boituva/SP,-23.2838893,-47.6738231,6656,10513.34702
D1,Boituva/SP,-23.2838893,-47.6738231,191,301.69010
1,Bom Conselho/PE,-9.169191,-36.685683,2339,4775.90607
D1,Bom Conselho/PE,-9.169191,-36.685683,71,144.97192
1,Bom Despacho/MG,-19.7375242,-45.2517288,6015,11694.14418
D1,Bom Despacho/MG,-19.7375242,-45.2517288,108,209.96967
1,Bom Jardim da Serra/SC,-28.3380324,-49.625588,722,15038.53364
D1,Bom Jardim da Serra/SC,-28.3380324,-49.625588,8,166.63195
1,Bom Jardim de Goiás/GO,-16.2062659,-52.172793,1335,14979.80251
D1,Bom Jardim de Goiás/GO,-16.2062659,-52.172793,17,190.75404
1,Bom Jardim de Minas/MG,-21.9476466,-44.1906033,558,8659.21788
D1,Bom Jardim de Minas/MG,-21.9476466,-44.1906033,3,46.55493
1,Bom Jardim/MA,-3.54129,-45.606004,1479,3520.59034
D1,Bom Jardim/MA,-3.54129,-45.606004,55,130.92121
1,Bom Jardim/PE,-7.7961572,-35.5871696,1796,4485.73855
D1,Bom Jardim/PE,-7.7961572,-35.5871696,71,177.33154
1,Bom Jardim/RJ,-22.1515328,-42.4186683,2023,7282.47957
D1,Bom Jardim/RJ,-22.1515328,-42.4186683,51,183.59192
1,Bom Jesus da Lapa/BA,-13.250571,-43.410754,6178,8806.71694
D1,Bom Jesus da Lapa/BA,-13.250571,-43.410754,97,138.27315
1,Bom Jesus da Penha/MG,-21.0165299,-46.5226644,720,16861.82670
D1,Bom Jesus da Penha/MG,-21.0165299,-46.5226644,17,398.12646
1,Bom Jesus da Serra/BA,-14.3724084,-40.5047119,486,4975.42998
D1,Bom Jesus da Serra/BA,-14.3724084,-40.5047119,9,92.13759
1,Bom Jesus das Selvas/MA,-4.4878075,-46.8526639,3701,10545.66178
D1,Bom Jesus das Selvas/MA,-4.4878075,-46.8526639,39,111.12694
1,Bom Jesus de Goiás/GO,-18.2174587,-49.739721,3241,12432.39096
D1,Bom Jesus de Goiás/GO,-18.2174587,-49.739721,115,441.13698
1,Bom Jesus do Amparo/MG,-19.7045132,-43.4752911,301,4868.97444
D1,Bom Jesus do Amparo/MG,-19.7045132,-43.4752911,8,129.40796
1,Bom Jesus do Araguaia/MT,-12.1725897,-51.5074425,1098,16076.13470
D1,Bom Jesus do Araguaia/MT,-12.1725897,-51.5074425,17,248.90190
1,Bom Jesus do Galho/MG,-19.8283191,-42.3162256,805,5442.13088
D1,Bom Jesus do Galho/MG,-19.8283191,-42.3162256,35,236.61439
1,Bom Jesus do Itabapoana/RJ,-21.1341025,-41.680095,4390,11767.54409
D1,Bom Jesus do Itabapoana/RJ,-21.1341025,-41.680095,110,294.85874
1,Bom Jesus do Norte/ES,-21.1254776,-41.6711646,1276,12775.33040
D1,Bom Jesus do Norte/ES,-21.1254776,-41.6711646,30,300.36043
1,Bom Jesus do Oeste/SC,-26.6929713,-53.0967453,185,8661.04869
D1,Bom Jesus do Oeste/SC,-26.6929713,-53.0967453,6,280.89888
1,Bom Jesus do Sul/PR,-26.1922507,-53.6002033,507,14602.53456
D1,Bom Jesus do Sul/PR,-26.1922507,-53.6002033,6,172.81106
1,Bom Jesus do Tocantins/PA,-5.0471796,-48.5978362,787,4561.26116
D1,Bom Jesus do Tocantins/PA,-5.0471796,-48.5978362,26,150.68970
1,Bom Jesus do Tocantins/TO,-8.96306,-48.165043,176,3437.50000
D1,Bom Jesus do Tocantins/TO,-8.96306,-48.165043,3,58.59375
1,Bom Jesus dos Perdões/SP,-23.1353864,-46.4648052,2480,9356.37214
D1,Bom Jesus dos Perdões/SP,-23.1353864,-46.4648052,29,109.40919
1,Bom Jesus/PB,-6.8156725,-38.6551841,194,7496.13601
D1,Bom Jesus/PB,-6.8156725,-38.6551841,3,115.91963
1,Bom Jesus/PI,-9.0711644,-44.3583926,3812,14899.93746
D1,Bom Jesus/PI,-9.0711644,-44.3583926,48,187.61726
1,Bom Jesus/RN,-5.9887544,-35.5821149,989,9580.54829
D1,Bom Jesus/RN,-5.9887544,-35.5821149,18,174.36792
1,Bom Jesus/RS,-28.6692723,-50.4346894,1012,8979.59184
D1,Bom Jesus/RS,-28.6692723,-50.4346894,24,212.95475
1,Bom Jesus/SC,-26.7350604,-52.3916519,530,17074.74227
D1,Bom Jesus/SC,-26.7350604,-52.3916519,10,322.16495
1,Bom Lugar/MA,-4.3728019,-45.0366054,534,3221.13645
D1,Bom Lugar/MA,-4.3728019,-45.0366054,7,42.22464
1,Bom Princípio do Piauí/PI,-3.1912777,-41.6430185,142,2504.40917
D1,Bom Princípio do Piauí/PI,-3.1912777,-41.6430185,13,229.27690
1,Bom Princípio/RS,-29.489788,-51.3566782,2211,15305.27482
D1,Bom Princípio/RS,-29.489788,-51.3566782,34,235.35927
1,Bom Progresso/RS,-27.5490948,-53.8655601,189,10172.22820
D1,Bom Progresso/RS,-27.5490948,-53.8655601,3,161.46394
1,Bom Repouso/MG,-22.4657069,-46.1485376,1222,11608.24546
D1,Bom Repouso/MG,-22.4657069,-46.1485376,28,265.98271
1,Bom Retiro do Sul/RS,-29.6000007,-51.9359243,1071,8603.79177
D1,Bom Retiro do Sul/RS,-29.6000007,-51.9359243,37,297.23650
1,Bom Retiro/SC,-27.798993,-49.486994,910,8962.86812
D1,Bom Retiro/SC,-27.798993,-49.486994,21,206.83542
1,Bom Sucesso de Itararé/SP,-24.3190016,-49.1446207,259,6454.02442
D1,Bom Sucesso de Itararé/SP,-24.3190016,-49.1446207,6,149.51408
1,Bom Sucesso do Sul/PR,-26.0749256,-52.8348629,530,16337.85450
D1,Bom Sucesso do Sul/PR,-26.0749256,-52.8348629,9,277.43527
1,Bom Sucesso/MG,-21.0323516,-44.7598082,1284,7290.48376
D1,Bom Sucesso/MG,-21.0323516,-44.7598082,27,153.30457
1,Bom Sucesso/PB,-6.4458948,-37.9297662,508,10289.64958
D1,Bom Sucesso/PB,-6.4458948,-37.9297662,4,81.02086
1,Bom Sucesso/PR,-23.7088019,-51.7651297,1312,18471.06856
D1,Bom Sucesso/PR,-23.7088019,-51.7651297,20,281.57117
1,Bombinhas/SC,-27.1519159,-48.4875691,3713,17774.90545
D1,Bombinhas/SC,-27.1519159,-48.4875691,65,311.16856
1,Bonfim do Piauí/PI,-9.1648678,-42.8734415,487,8543.85965
D1,Bonfim do Piauí/PI,-9.1648678,-42.8734415,8,140.35088
1,Bonfim/MG,-20.3266626, -44.2386157,491,7165.79101
D1,Bonfim/MG,-20.3266626, -44.2386157,18,262.69702
1,Bonfim/RR,3.3613818,-59.8427241,2515,19801.59043
D1,Bonfim/RR,3.3613818,-59.8427241,34,267.69546
1,Bonfinópolis de Minas/MG,-16.5660011,-45.98645,600,11117.28738
D1,Bonfinópolis de Minas/MG,-16.5660011,-45.98645,13,240.87456
1,Bonfinópolis/GO,-16.6172709,-48.9615701,521,5148.22134
D1,Bonfinópolis/GO,-16.6172709,-48.9615701,33,326.08696
1,Boninal/BA,-12.7095183,-41.8299984,674,4642.51274
D1,Boninal/BA,-12.7095183,-41.8299984,8,55.10401
1,Bonito de Minas/MG,-15.3191266,-44.7544,110,956.35542
1,Bonito de Santa Fé/PB,-7.3143332,-38.5146677,563,4642.91605
D1,Bonito de Santa Fé/PB,-7.3143332,-38.5146677,14,115.45440
1,Bonito/BA,-11.9665473,-41.2649896,1054,6200.36473
D1,Bonito/BA,-11.9665473,-41.2649896,14,82.35779
1,Bonito/MS,-21.1264766,-56.4902208,3224,14392.21463
D1,Bonito/MS,-21.1264766,-56.4902208,76,339.27057
1,Bonito/PA,-1.3605722,-47.3049907,405,2415.17085
D1,Bonito/PA,-1.3605722,-47.3049907,15,89.45077
1,Bonito/PE,-8.4721161,-35.7314591,1152,3023.54269
D1,Bonito/PE,-8.4721161,-35.7314591,46,120.73174
1,Bonópolis/GO,-13.649331,-49.8329113,347,7578.07382
D1,Bonópolis/GO,-13.649331,-49.8329113,3,65.51649
1,Boqueirão do Leão/RS,-29.30332,-52.4296817,626,8139.38370
D1,Boqueirão do Leão/RS,-29.30332,-52.4296817,32,416.07073
1,Boqueirão do Piauí/PI,-4.4850148,-42.1095161,821,12742.51125
D1,Boqueirão do Piauí/PI,-4.4850148,-42.1095161,10,155.20720
1,Boqueirão/PB,-7.487004,-36.130887,2331,12997.65808
D1,Boqueirão/PB,-7.487004,-36.130887,44,245.34404
1,Boquim/SE,-11.1450175,-37.6204228,2690,9970.34841
D1,Boquim/SE,-11.1450175,-37.6204228,68,252.03855
1,Boquira/BA,-12.8184859,-42.7270883,890,4142.23215
D1,Boquira/BA,-12.8184859,-42.7270883,20,93.08387
1,Boracéia/SP,-22.195355,-48.7801925,998,20313.45410
D1,Boracéia/SP,-22.195355,-48.7801925,24,488.49990
1,Borba/AM,-4.3934778,-59.5947721,2513,5936.96844
D1,Borba/AM,-4.3934778,-59.5947721,70,165.37517
1,Borborema/PB,-6.8066718,-35.5990191,391,7362.07870
D1,Borborema/PB,-6.8066718,-35.5990191,14,263.60384
1,Borborema/SP,-21.6212706,-49.074135,1713,10523.40582
D1,Borborema/SP,-21.6212706,-49.074135,53,325.59282
1,Borda da Mata/MG,-22.274167,-46.165278,2015,10172.14397
D1,Borda da Mata/MG,-22.274167,-46.165278,57,287.74799
1,Borebi/SP,-22.5700178,-48.9714871,281,10357.53778
D1,Borebi/SP,-22.5700178,-48.9714871,4,147.43826
1,Borrazópolis/PR,-23.9393362,-51.5850786,930,14785.37361
D1,Borrazópolis/PR,-23.9393362,-51.5850786,30,476.94754
1,Borá/SP,-22.2701088,-50.544407,126,15017.87843
D1,Borá/SP,-22.2701088,-50.544407,1,119.18951
1,Bossoroca/RS,-28.7278885,-54.9120278,478,7791.36104
D1,Bossoroca/RS,-28.7278885,-54.9120278,22,358.59821
1,Botelhos/MG,-21.65,-46.394722,1887,12641.52207
D1,Botelhos/MG,-21.65,-46.394722,34,227.77517
1,Botucatu/SP,-22.8879628,-48.4410712,18870,12603.69495
D1,Botucatu/SP,-22.8879628,-48.4410712,329,219.74646
1,Botumirim/MG,-16.862778,-43.011111,246,3930.34031
D1,Botumirim/MG,-16.862778,-43.011111,4,63.90797
1,Botuporã/BA,-13.3744752,-42.5198469,457,4547.26368
D1,Botuporã/BA,-13.3744752,-42.5198469,5,49.75124
1,Botuverá/SC,-27.200749,-49.068892,975,18068.93996
D1,Botuverá/SC,-27.200749,-49.068892,10,185.32246
1,Bozano/RS,-28.3669953,-53.7705165,280,13339.68556
D1,Bozano/RS,-28.3669953,-53.7705165,8,381.13387
1,Braga/RS,-27.617348,-53.740514,428,13084.68358
D1,Braga/RS,-27.617348,-53.740514,9,275.14522
1,Braganey/PR,-24.8179919,-53.118506,621,11633.57063
D1,Braganey/PR,-24.8179919,-53.118506,8,149.86886
1,Bragança Paulista/SP,-22.9520235,-46.5418586,23029,13362.07397
D1,Bragança Paulista/SP,-22.9520235,-46.5418586,586,340.01369
1,Bragança/PA,-1.0573967,-46.7635406,4437,3409.87688
D1,Bragança/PA,-1.0573967,-46.7635406,177,136.02619
1,Branquinha/AL,-9.2478057,-36.0152009,713,6838.67255
D1,Branquinha/AL,-9.2478057,-36.0152009,14,134.27969
1,Brasil Novo/PA,-3.3055853,-52.539198,2174,14607.27004
D1,Brasil Novo/PA,-3.3055853,-52.539198,43,288.92024
1,Brasileira/PI,-4.131182,-41.7824969,638,7627.92922
D1,Brasileira/PI,-4.131182,-41.7824969,16,191.29603
1,Brasilândia de Minas/MG,-17.0096469,-46.0087183,1854,10938.05310
D1,Brasilândia de Minas/MG,-17.0096469,-46.0087183,28,165.19174
1,Brasilândia do Sul/PR,-24.1975793,-53.527551,426,16898.05633
D1,Brasilândia do Sul/PR,-24.1975793,-53.527551,10,396.66799
1,Brasilândia do Tocantins/TO,-8.3886619,-48.4842729,255,11481.31472
D1,Brasilândia do Tocantins/TO,-8.3886619,-48.4842729,6,270.14858
1,Brasilândia/MS,-21.255575,-52.0365617,1276,10781.58006
D1,Brasilândia/MS,-21.255575,-52.0365617,25,211.23785
1,Brasiléia/AC,-11.0010413,-68.7487894,2999,11057.03646
D1,Brasiléia/AC,-11.0010413,-68.7487894,44,162.22394
1,Brasnorte/MT,-12.1227151,-58.0050109,2148,10441.88421
D1,Brasnorte/MT,-12.1227151,-58.0050109,40,194.44850
1,Brasília de Minas/MG,-16.2075114,-44.430559,1477,4550.21565
D1,Brasília de Minas/MG,-16.2075114,-44.430559,9,27.72643
1,Brasília/DF,-15.7934036,-47.8823172,507861,16412.65866
D1,Brasília/DF,-15.7934036,-47.8823172,10633,343.62906
1,Brazabrantes/GO,-16.4291635,-49.3858216,617,16185.72928
D1,Brazabrantes/GO,-16.4291635,-49.3858216,4,104.93179
1,Brazópolis/MG,-22.4742842,-45.6165577,925,6439.71039
D1,Brazópolis/MG,-22.4742842,-45.6165577,32,222.77917
1,Braço do Norte/SC,-28.2728633,-49.1622712,9000,26243.65778
D1,Braço do Norte/SC,-28.2728633,-49.1622712,108,314.92389
1,Braço do Trombudo/SC,-27.358578,-49.882145,749,19741.69742
D1,Braço do Trombudo/SC,-27.358578,-49.882145,7,184.50185
1,Braúna/SP,-21.5015319,-50.3175246,623,10750.64711
D1,Braúna/SP,-21.5015319,-50.3175246,24,414.15013
1,Braúnas/MG,-19.055556,-42.716111,261,5509.81634
D1,Braúnas/MG,-19.055556,-42.716111,11,232.21448
1,Brejetuba/ES,-20.1465817,-41.2902303,1803,14481.92771
D1,Brejetuba/ES,-20.1465817,-41.2902303,16,128.51406
1,Brejinho de Nazaré/TO,-11.0205883,-48.5722906,664,11985.55957
D1,Brejinho de Nazaré/TO,-11.0205883,-48.5722906,17,306.85921
1,Brejinho/PE,-7.3482153,-37.28538,849,11336.62705
D1,Brejinho/PE,-7.3482153,-37.28538,21,280.41127
1,Brejinho/RN,-6.1957907,-35.3583019,1518,11792.12305
D1,Brejinho/RN,-6.1957907,-35.3583019,17,132.05935
1,Brejo Alegre/SP,-21.1671191,-50.1850393,402,13809.68739
D1,Brejo Alegre/SP,-21.1671191,-50.1850393,13,446.58193
1,Brejo Grande do Araguaia/PA,-5.7011449,-48.4037308,903,12274.02474
D1,Brejo Grande do Araguaia/PA,-5.7011449,-48.4037308,4,54.36999
1,Brejo Grande/SE,-10.4287358,-36.4667918,462,5502.62030
D1,Brejo Grande/SE,-10.4287358,-36.4667918,13,154.83564
1,Brejo Santo/CE,-7.4909841,-38.9859152,8426,16786.53252
D1,Brejo Santo/CE,-7.4909841,-38.9859152,155,308.79570
1,Brejo da Madre de Deus/PE,-8.1409718,-36.3712527,2413,4667.67255
D1,Brejo da Madre de Deus/PE,-8.1409718,-36.3712527,53,102.52244
1,Brejo de Areia/MA,-4.3316785,-45.5833334,320,3619.50006
D1,Brejo de Areia/MA,-4.3316785,-45.5833334,11,124.42031
1,Brejo do Cruz/PB,-6.32926065,-37.48746163303929,1964,13746.76279
D1,Brejo do Cruz/PB,-6.32926065,-37.48746163303929,24,167.98488
1,Brejo do Piauí/PI,-8.207583,-42.8359849,158,4131.79916
D1,Brejo do Piauí/PI,-8.207583,-42.8359849,4,104.60251
1,Brejo dos Santos/PB,-6.3769367,-37.8243125,756,11668.46736
D1,Brejo dos Santos/PB,-6.3769367,-37.8243125,8,123.47585
1,Brejo/MA,-3.6804397,-42.7529313,959,2598.91599
D1,Brejo/MA,-3.6804397,-42.7529313,19,51.49051
1,Brejolândia/BA,-12.4843845,-43.9611861,154,1442.62295
D1,Brejolândia/BA,-12.4843845,-43.9611861,11,103.04450
1,Brejão/PE,-9.029146,-36.566034,494,5500.50106
D1,Brejão/PE,-9.029146,-36.566034,9,100.21156
1,Brejões/BA,-13.1033754,-39.7909837,873,6167.43200
D1,Brejões/BA,-13.1033754,-39.7909837,12,84.77570
1,Breu Branco/PA,-3.7785073,-49.5684795,950,1384.90021
D1,Breu Branco/PA,-3.7785073,-49.5684795,54,78.72064
1,Breves/PA,-1.68036,-50.479085,4085,3917.33794
D1,Breves/PA,-1.68036,-50.479085,120,115.07480
1,Britânia/GO,-15.2427599,-51.1602061,701,12055.03009
D1,Britânia/GO,-15.2427599,-51.1602061,8,137.57524
1,Brochier/RS,-29.556766,-51.5963047,623,12139.51676
D1,Brochier/RS,-29.556766,-51.5963047,5,97.42790
1,Brodowski/SP,-20.984532,-47.657217,2869,11204.84280
D1,Brodowski/SP,-20.984532,-47.657217,78,304.62800
1,Brotas de Macaúbas/BA,-12.0019007,-42.6257506,324,3026.62307
D1,Brotas de Macaúbas/BA,-12.0019007,-42.6257506,8,74.73143
1,Brotas/SP,-22.2840884,-48.1267265,2236,8993.64492
D1,Brotas/SP,-22.2840884,-48.1267265,69,277.53198
1,Brumadinho/MG,-20.143611,-44.2,4241,10291.69093
D1,Brumadinho/MG,-20.143611,-44.2,90,218.40419
1,Brumado/BA,-14.29507325,-41.659307508575985,9742,14439.43796
D1,Brumado/BA,-14.29507325,-41.659307508575985,200,296.43683
1,Brunópolis/SC,-27.310953,-50.837585,334,14408.97325
D1,Brunópolis/SC,-27.310953,-50.837585,8,345.12511
1,Brusque/SC,-27.0964628,-48.9136323,30531,21715.25708
D1,Brusque/SC,-27.0964628,-48.9136323,320,227.60087
1,Brás Pires/MG,-20.8483109,-43.2430524,322,7567.56757
D1,Brás Pires/MG,-20.8483109,-43.2430524,8,188.01410
1,Bueno Brandão/MG,-22.441976,-46.3517971,1005,9151.33855
D1,Bueno Brandão/MG,-22.441976,-46.3517971,30,273.17429
1,Buenos Aires/PE,-7.7218931,-35.326587,396,2994.55535
D1,Buenos Aires/PE,-7.7218931,-35.326587,25,189.05021
1,Buenópolis/MG,-17.8756607,-44.1749365,305,2949.13943
D1,Buenópolis/MG,-17.8756607,-44.1749365,13,125.70102
1,Buerarema/BA,-14.9571177,-39.3008035,1411,7723.46598
D1,Buerarema/BA,-14.9571177,-39.3008035,47,257.26641
1,Bugre/MG,-19.4257687,-42.2556,373,9362.44980
D1,Bugre/MG,-19.4257687,-42.2556,13,326.30522
1,Bujari/AC,-9.8309656,-67.9520886,1140,10783.20091
D1,Bujari/AC,-9.8309656,-67.9520886,17,160.80212
1,Bujaru/PA,-1.5169239,-48.0410699,1461,4916.37783
D1,Bujaru/PA,-1.5169239,-48.0410699,40,134.60309
1,Buri/SP,-23.79849,-48.598924,2657,13251.87032
D1,Buri/SP,-23.79849,-48.598924,93,463.84040
1,Buritama/SP,-21.0664017,-50.1448077,2700,15504.76628
D1,Buritama/SP,-21.0664017,-50.1448077,75,430.68795
1,Buriti Alegre/GO,-18.1377879,-49.0404411,1188,12485.54913
D1,Buriti Alegre/GO,-18.1377879,-49.0404411,35,367.84025
1,Buriti Bravo/MA,-5.8391884,-43.8367876,1782,7427.16626
D1,Buriti Bravo/MA,-5.8391884,-43.8367876,20,83.35765
1,Buriti de Goiás/GO,-16.180644,-50.4287479,322,13068.18182
D1,Buriti de Goiás/GO,-16.180644,-50.4287479,9,365.25974
1,Buriti do Tocantins/TO,-5.3187439,-48.2256609,1179,10125.38647
D1,Buriti do Tocantins/TO,-5.3187439,-48.2256609,22,188.93851
1,Buriti dos Lopes/PI,-3.1776723,-41.8707444,1348,6797.09560
D1,Buriti dos Lopes/PI,-3.1776723,-41.8707444,34,171.44010
1,Buriti dos Montes/PI,-5.3136171,-41.0971256,718,8669.40353
D1,Buriti dos Montes/PI,-5.3136171,-41.0971256,10,120.74378
1,Buriti/MA,-3.9430944,-42.9244281,931,3219.67077
D1,Buriti/MA,-3.9430944,-42.9244281,8,27.66634
1,Buriticupu/MA,-4.3227472,-46.4516989,3856,5239.48638
D1,Buriticupu/MA,-4.3227472,-46.4516989,79,107.34425
1,Buritinópolis/GO,-14.4589282,-46.4293104,218,6662.59169
D1,Buritinópolis/GO,-14.4589282,-46.4293104,3,91.68704
1,Buritirama/BA,-10.7148421,-43.6362327,875,4093.75877
D1,Buritirama/BA,-10.7148421,-43.6362327,23,107.60737
1,Buritirana/MA,-5.5897455,-47.0148915,448,2889.76327
D1,Buritirana/MA,-5.5897455,-47.0148915,24,154.80875
1,Buritis/MG,-15.621389,-46.423889,2799,11116.40653
D1,Buritis/MG,-15.621389,-46.423889,48,190.63505
1,Buritis/RO,-10.2054937,-63.8281954,5077,12369.95346
D1,Buritis/RO,-10.2054937,-63.8281954,77,187.60812
1,Buritizal/SP,-20.1933264,-47.7097165,352,7741.36793
D1,Buritizal/SP,-20.1933264,-47.7097165,10,219.92523
1,Buritizeiro/MG,-17.3667765,-44.9647781,1694,6010.50241
D1,Buritizeiro/MG,-17.3667765,-44.9647781,36,127.73205
1,Butiá/RS,-30.1256795,-51.9692224,2531,12073.65358
D1,Butiá/RS,-30.1256795,-51.9692224,58,276.67796
1,Buíque/PE,-8.6239732,-37.157296,2608,4387.02732
D1,Buíque/PE,-8.6239732,-37.157296,48,80.74283
1,Bálsamo/SP,-20.7343722,-49.5807484,1812,19676.40352
D1,Bálsamo/SP,-20.7343722,-49.5807484,67,727.54914
0,CASO SEM LOCALIZAÇÃO DEFINIDA/BA,-13.415069300066518,-38.14174656569957,11651,78.33625
D0,CASO SEM LOCALIZAÇÃO DEFINIDA/BA,-13.415069300066518,-38.14174656569957,294,1.97673
0,CASO SEM LOCALIZAÇÃO DEFINIDA/CE,-3.3445126297392798,-38.624961942434304,10295,112.73447
0,CASO SEM LOCALIZAÇÃO DEFINIDA/ES,-20.30989267097039,-39.81745156645774,4850,120.68730
D0,CASO SEM LOCALIZAÇÃO DEFINIDA/ES,-20.30989267097039,-39.81745156645774,241,5.99704
0,CASO SEM LOCALIZAÇÃO DEFINIDA/GO,-16.701590966270153,-49.164524059025034,360,5.12941
D0,CASO SEM LOCALIZAÇÃO DEFINIDA/GO,-16.701590966270153,-49.164524059025034,5,0.07124
0,CASO SEM LOCALIZAÇÃO DEFINIDA/MG,-19.97049116501593,-43.8852149072783,4266,20.15231
D0,CASO SEM LOCALIZAÇÃO DEFINIDA/MG,-19.97049116501593,-43.8852149072783,375,1.77148
0,CASO SEM LOCALIZAÇÃO DEFINIDA/MT,-15.54791153961863,-56.17143998972475,3899,111.89663
D0,CASO SEM LOCALIZAÇÃO DEFINIDA/MT,-15.54791153961863,-56.17143998972475,255,7.31819
0,CASO SEM LOCALIZAÇÃO DEFINIDA/PA,-0.09317078214359542,-48.0050231510481,126,1.46463
D0,CASO SEM LOCALIZAÇÃO DEFINIDA/PA,-0.09317078214359542,-48.0050231510481,1,0.01162
0,CASO SEM LOCALIZAÇÃO DEFINIDA/PI,-2.683810218391744,-41.470898009352254,176,5.37696
D0,CASO SEM LOCALIZAÇÃO DEFINIDA/PI,-2.683810218391744,-41.470898009352254,1,0.03055
0,CASO SEM LOCALIZAÇÃO DEFINIDA/PR,-25.69415946385943,-48.10141676336737,40338,352.79125
D0,CASO SEM LOCALIZAÇÃO DEFINIDA/PR,-25.69415946385943,-48.10141676336737,1176,10.28515
0,CASO SEM LOCALIZAÇÃO DEFINIDA/RR,2.813328208465927,-60.663338675861986,3230,533.21359
D0,CASO SEM LOCALIZAÇÃO DEFINIDA/RR,2.813328208465927,-60.663338675861986,19,3.13655
0,CASO SEM LOCALIZAÇÃO DEFINIDA/SP,-24.30968974555485,-46.21366504207253,128,0.27875
1,Caapiranga/AM,-3.3188884,-61.2096404,695,5155.02151
D1,Caapiranga/AM,-3.3188884,-61.2096404,22,163.18054
1,Caaporã/PB,-7.510234,-34.9154114,2174,9846.46044
D1,Caaporã/PB,-7.510234,-34.9154114,35,158.52167
1,Caarapó/MS,-22.6349267,-54.8240903,4084,13172.06902
D1,Caarapó/MS,-22.6349267,-54.8240903,57,183.84132
1,Caatiba/BA,-14.9782759,-40.4092325,955,15324.13350
D1,Caatiba/BA,-14.9782759,-40.4092325,15,240.69320
1,Cabaceiras do Paraguaçu/BA,-12.5377868,-39.1901339,789,4150.44713
D1,Cabaceiras do Paraguaçu/BA,-12.5377868,-39.1901339,5,26.30195
1,Cabaceiras/PB,-7.4899156,-36.2860501,466,8161.12084
D1,Cabaceiras/PB,-7.4899156,-36.2860501,4,70.05254
1,Cabeceira Grande/MG,-16.0297,-47.0906,536,7629.89324
D1,Cabeceira Grande/MG,-16.0297,-47.0906,7,99.64413
1,Cabeceiras do Piauí/PI,-4.4733665,-42.3098716,682,6391.15359
D1,Cabeceiras do Piauí/PI,-4.4733665,-42.3098716,15,140.56789
1,Cabeceiras/GO,-15.7995459,-46.9264991,484,5976.78439
D1,Cabeceiras/GO,-15.7995459,-46.9264991,17,209.92838
1,Cabedelo/PB,-6.97324,-34.8351609,9760,13988.21894
D1,Cabedelo/PB,-6.97324,-34.8351609,202,289.51027
1,Cabixi/RO,-13.4956065,-60.5424442,926,18275.11348
D1,Cabixi/RO,-13.4956065,-60.5424442,21,414.44642
1,Cabo Frio/RJ,-22.8804369,-42.0189227,17704,7563.32318
D1,Cabo Frio/RJ,-22.8804369,-42.0189227,861,367.82768
1,Cabo Verde/MG,-21.4743338,-46.3964995,761,5407.13372
D1,Cabo Verde/MG,-21.4743338,-46.3964995,9,63.94770
1,Cabo de Santo Agostinho/PE,-8.2838945,-35.0320984,10040,4762.89873
D1,Cabo de Santo Agostinho/PE,-8.2838945,-35.0320984,523,248.10717
1,Cabreúva/SP,-23.3075813,-47.1324417,4947,9675.33738
D1,Cabreúva/SP,-23.3075813,-47.1324417,137,267.94446
1,Cabrobó/PE,-8.5083701,-39.3106961,2452,7050.43418
D1,Cabrobó/PE,-8.5083701,-39.3106961,29,83.38605
1,Cabrália Paulista/SP,-22.4562909,-49.3385645,459,10871.62482
D1,Cabrália Paulista/SP,-22.4562909,-49.3385645,9,213.16911
1,Cacaulândia/RO,-10.3380043,-62.9007231,938,14872.36404
D1,Cacaulândia/RO,-10.3380043,-62.9007231,15,237.83098
1,Cacequi/RS,-29.8838059,-54.8273443,815,6630.86811
D1,Cacequi/RS,-29.8838059,-54.8273443,12,97.63241
1,Cachoeira Alta/GO,-18.7618269,-50.9432431,1917,14926.41906
D1,Cachoeira Alta/GO,-18.7618269,-50.9432431,25,194.65857
1,Cachoeira Dourada/GO,-18.4934204,-49.481062,931,11641.86570
D1,Cachoeira Dourada/GO,-18.4934204,-49.481062,33,412.65475
1,Cachoeira Dourada/MG,-18.517136,-49.5002062,179,6580.88235
D1,Cachoeira Dourada/MG,-18.517136,-49.5002062,2,73.52941
1,Cachoeira Grande/MA,-2.9290492,-44.0573223,327,3433.43133
D1,Cachoeira Grande/MA,-2.9290492,-44.0573223,8,83.99832
1,Cachoeira Paulista/SP,-22.666498,-45.015384,2744,8111.86330
D1,Cachoeira Paulista/SP,-22.666498,-45.015384,44,130.07361
1,Cachoeira da Prata/MG,-19.524723,-44.453056,226,6312.84916
D1,Cachoeira da Prata/MG,-19.524723,-44.453056,13,363.12849
1,Cachoeira de Goiás/GO,-16.6688414,-50.6435997,134,10029.94012
D1,Cachoeira de Goiás/GO,-16.6688414,-50.6435997,5,374.25150
1,Cachoeira de Minas/MG,-22.3554043,-45.7796324,1116,9613.23111
D1,Cachoeira de Minas/MG,-22.3554043,-45.7796324,20,172.28013
1,Cachoeira de Pajeú/MG,-15.965833,-41.496666,537,5670.53854
D1,Cachoeira de Pajeú/MG,-15.965833,-41.496666,11,116.15628
1,Cachoeira do Arari/PA,-1.0143572,-48.9621089,592,2430.71238
D1,Cachoeira do Arari/PA,-1.0143572,-48.9621089,25,102.64833
1,Cachoeira do Piriá/PA,-1.7599443,-46.5446954,960,2719.00756
D1,Cachoeira do Piriá/PA,-1.7599443,-46.5446954,7,19.82610
1,Cachoeira do Sul/RS,-30.0474778,-52.8905413,11103,13614.62625
D1,Cachoeira do Sul/RS,-30.0474778,-52.8905413,198,242.78988
1,Cachoeira dos Índios/PB,-6.9259193,-38.6742159,935,9021.61328
D1,Cachoeira dos Índios/PB,-6.9259193,-38.6742159,17,164.02933
1,Cachoeira/BA,-12.5998256,-38.9665918,1760,5228.91351
D1,Cachoeira/BA,-12.5998256,-38.9665918,31,92.10018
1,Cachoeiras de Macacu/RJ,-22.4626861,-42.6534414,3466,5810.36679
D1,Cachoeiras de Macacu/RJ,-22.4626861,-42.6534414,109,182.72648
1,Cachoeirinha/PE,-8.4906364,-36.2338963,648,3142.88486
D1,Cachoeirinha/PE,-8.4906364,-36.2338963,34,164.90445
1,Cachoeirinha/RS,-29.9493353,-51.0898927,15855,11998.27461
D1,Cachoeirinha/RS,-29.9493353,-51.0898927,467,353.40235
1,Cachoeirinha/TO,-6.118647,-47.9208885,128,5582.20672
D1,Cachoeirinha/TO,-6.118647,-47.9208885,2,87.22198
1,Cachoeiro de Itapemirim/ES,-20.848084,-41.11129,30377,14317.15778
D1,Cachoeiro de Itapemirim/ES,-20.848084,-41.11129,629,296.45759
1,Cacimba de Areia/PB,-7.1288513,-37.1575194,76,2049.62244
D1,Cacimba de Areia/PB,-7.1288513,-37.1575194,4,107.87487
1,Cacimba de Dentro/PB,-6.6425101,-35.7929304,1243,7239.79265
D1,Cacimba de Dentro/PB,-6.6425101,-35.7929304,35,203.85579
1,Cacimbas/PB,-7.2125451,-37.0593398,268,3709.34256
D1,Cacimbas/PB,-7.2125451,-37.0593398,8,110.72664
1,Cacimbinhas/AL,-9.401212,-36.991082,906,8296.70330
D1,Cacimbinhas/AL,-9.401212,-36.991082,12,109.89011
1,Cacique Doble/RS,-27.7700117,-51.6616409,632,12433.60220
D1,Cacique Doble/RS,-27.7700117,-51.6616409,12,236.08105
1,Cacoal/RO,-11.4333,-61.4420502,14980,17334.75282
D1,Cacoal/RO,-11.4333,-61.4420502,306,354.10109
1,Caconde/SP,-21.527995,-46.643659,1453,7634.91146
D1,Caconde/SP,-21.527995,-46.643659,39,204.92880
1,Caculé/BA,-14.4990734,-42.2233006,2707,11564.91648
D1,Caculé/BA,-14.4990734,-42.2233006,21,89.71675
1,Caetanos/BA,-14.3387456,-40.9085971,782,5330.24334
D1,Caetanos/BA,-14.3387456,-40.9085971,11,74.97785
1,Caetanópolis/MG,-19.2947496,-44.4138386,1175,9899.73882
D1,Caetanópolis/MG,-19.2947496,-44.4138386,20,168.50619
1,Caetité/BA,-14.0691776,-42.4852428,4005,7824.71085
D1,Caetité/BA,-14.0691776,-42.4852428,42,82.05689
1,Caeté/MG,-19.897777,-43.670278,2161,4763.68927
D1,Caeté/MG,-19.897777,-43.670278,73,160.92055
1,Caetés/PE,-8.7728788,-36.6255835,1811,6230.86186
D1,Caetés/PE,-8.7728788,-36.6255835,23,79.13298
1,Cafarnaum/BA,-11.691399,-41.468823,923,4966.37073
D1,Cafarnaum/BA,-11.691399,-41.468823,23,123.75572
1,Cafeara/PR,-22.78905,-51.714195,439,14766.22940
D1,Cafeara/PR,-22.78905,-51.714195,11,369.99664
1,Cafelândia/PR,-24.6176963,-53.3218057,2770,14747.37795
D1,Cafelândia/PR,-24.6176963,-53.3218057,35,186.33871
1,Cafelândia/SP,-21.8054355,-49.6030627,830,4632.47195
D1,Cafelândia/SP,-21.8054355,-49.6030627,48,267.90199
1,Cafezal do Sul/PR,-23.900508,-53.512418,458,11522.01258
D1,Cafezal do Sul/PR,-23.900508,-53.512418,7,176.10063
1,Caiabu/SP,-22.0143038,-51.2356597,319,7604.29082
D1,Caiabu/SP,-22.0143038,-51.2356597,7,166.86532
1,Caiana/MG,-20.695555,-41.924723,190,3402.57880
D1,Caiana/MG,-20.695555,-41.924723,7,125.35817
1,Caiapônia/GO,-16.9538779,-51.8090761,1577,8169.29134
D1,Caiapônia/GO,-16.9538779,-51.8090761,43,222.75176
1,Caibaté/RS,-28.290475,-54.645407,424,8829.65431
D1,Caibaté/RS,-28.290475,-54.645407,7,145.77259
1,Caibi/SC,-27.0751925,-53.2502133,714,11681.93717
D1,Caibi/SC,-27.0751925,-53.2502133,16,261.78010
1,Caicó/RN,-6.4594544,-37.0971911,12420,18071.76323
D1,Caicó/RN,-6.4594544,-37.0971911,154,224.07822
1,Caieiras/SP,-23.3644621,-46.7484765,9652,9276.84441
D1,Caieiras/SP,-23.3644621,-46.7484765,329,316.21237
1,Cairu/BA,-13.4860505,-39.0455744,1560,8357.44134
D1,Cairu/BA,-13.4860505,-39.0455744,16,85.71735
1,Caiuá/SP,-21.8319357,-51.9887179,408,6780.78777
D1,Caiuá/SP,-21.8319357,-51.9887179,10,166.19578
1,Caiçara do Norte/RN,-5.0645017,-36.0561226,539,8201.46074
D1,Caiçara do Norte/RN,-5.0645017,-36.0561226,12,182.59282
1,Caiçara do Rio do Vento/RN,-5.757968,-36.00089,374,9986.64887
D1,Caiçara do Rio do Vento/RN,-5.757968,-36.00089,8,213.61816
1,Caiçara/PB,-6.6146866,-35.4681434,828,11528.82206
D1,Caiçara/PB,-6.6146866,-35.4681434,14,194.93177
1,Caiçara/RS,-27.2750478,-53.4310053,650,13951.49174
D1,Caiçara/RS,-27.2750478,-53.4310053,10,214.63833
1,Cajamar/SP,-23.3561111,-46.8769444,5433,6874.25665
D1,Cajamar/SP,-23.3561111,-46.8769444,233,294.80983
1,Cajapió/MA,-2.8778715,-44.6746871,179,1590.40426
D1,Cajapió/MA,-2.8778715,-44.6746871,7,62.19458
1,Cajari/MA,-3.3213076,-45.0118757,282,1444.59813
D1,Cajari/MA,-3.3213076,-45.0118757,9,46.10420
1,Cajati/SP,-24.7272376,-48.1077914,4689,16486.76207
D1,Cajati/SP,-24.7272376,-48.1077914,103,362.15323
1,Cajazeiras do Piauí/PI,-6.794271,-42.3935024,81,2258.78416
D1,Cajazeiras do Piauí/PI,-6.794271,-42.3935024,1,27.88622
1,Cajazeiras/PB,-6.8897849,-38.5570389,10055,16068.46075
D1,Cajazeiras/PB,-6.8897849,-38.5570389,160,255.68908
1,Cajazeirinhas/PB,-6.961442,-37.7993733,212,6589.99067
D1,Cajazeirinhas/PB,-6.961442,-37.7993733,1,31.08486
1,Cajobi/SP,-20.8776238,-48.8106972,1099,10320.21786
D1,Cajobi/SP,-20.8776238,-48.8106972,32,300.49770
1,Cajueiro da Praia/PI,-2.931114,-41.340801,489,6347.35202
D1,Cajueiro da Praia/PI,-2.931114,-41.340801,20,259.60540
1,Cajueiro/AL,-9.399589,-36.1524309,642,3000.42062
D1,Cajueiro/AL,-9.399589,-36.1524309,31,144.88012
1,Cajuri/MG,-20.7901414,-42.7954489,430,10855.84448
D1,Cajuri/MG,-20.7901414,-42.7954489,7,176.72305
1,Cajuru/SP,-21.2759978,-47.3046035,1994,7492.57881
D1,Cajuru/SP,-21.2759978,-47.3046035,57,214.18104
1,Caldas Brandão/PB,-7.1027959,-35.3254676,616,10136.58055
D1,Caldas Brandão/PB,-7.1027959,-35.3254676,10,164.55488
1,Caldas Novas/GO,-17.745,-48.625,12585,13221.89887
D1,Caldas Novas/GO,-17.745,-48.625,299,314.13173
1,Caldas/MG,-21.923611,-46.386111,1034,7082.19178
D1,Caldas/MG,-21.923611,-46.386111,39,267.12329
1,Caldazinha/GO,-16.7116649,-49.0012601,396,10153.84615
D1,Caldazinha/GO,-16.7116649,-49.0012601,11,282.05128
1,Caldeirão Grande do Piauí/PI,-7.3310393,-40.6374433,470,8123.05565
D1,Caldeirão Grande do Piauí/PI,-7.3310393,-40.6374433,2,34.56619
1,Caldeirão Grande/BA,-11.0208483,-40.3041387,570,4237.28814
D1,Caldeirão Grande/BA,-11.0208483,-40.3041387,6,44.60303
1,Califórnia/PR,-23.6672543,-51.3554556,1315,15218.14605
D1,Califórnia/PR,-23.6672543,-51.3554556,39,451.33665
1,Calmon/SC,-26.6023644,-51.0992893,50,1503.75940
D1,Calmon/SC,-26.6023644,-51.0992893,7,210.52632
1,Calumbi/PE,-7.9389746,-38.1516871,782,13614.20613
D1,Calumbi/PE,-7.9389746,-38.1516871,5,87.04735
1,Calçado/PE,-8.7413446,-36.3351787,539,4907.58445
D1,Calçado/PE,-8.7413446,-36.3351787,7,63.73486
1,Calçoene/AP,2.4981757,-50.9539503,1682,14634.99521
D1,Calçoene/AP,2.4981757,-50.9539503,11,95.71043
1,Camacan/BA,-15.4166631,-39.4930088,3048,9518.15882
D1,Camacan/BA,-15.4166631,-39.4930088,87,271.67973
1,Camacho/MG,-20.625556,-45.156667,202,7115.18140
D1,Camacho/MG,-20.625556,-45.156667,2,70.44734
1,Camalaú/PB,-7.885031,-36.824191,461,7622.35450
D1,Camalaú/PB,-7.885031,-36.824191,7,115.74074
1,Camamu/BA,-13.9438142,-39.1060917,2501,7056.20133
D1,Camamu/BA,-13.9438142,-39.1060917,58,163.63842
1,Camanducaia/MG,-22.755278,-46.144444,3488,15977.28001
D1,Camanducaia/MG,-22.755278,-46.144444,72,329.80624
1,Camapuã/MS,-19.5291747,-54.0434641,932,6815.35649
D1,Camapuã/MS,-19.5291747,-54.0434641,32,234.00366
1,Camaquã/RS,-30.8524752,-51.8075619,7538,11303.72192
D1,Camaquã/RS,-30.8524752,-51.8075619,151,226.43433
1,Camaragibe/PE,-8.0213832,-34.9810768,7797,4874.80071
D1,Camaragibe/PE,-8.0213832,-34.9810768,442,276.34499
1,Camargo/RS,-28.5865661,-52.2031474,440,16000.00000
D1,Camargo/RS,-28.5865661,-52.2031474,8,290.90909
1,Camaçari/BA,-12.6998188,-38.3260762,25063,8105.54708
D1,Camaçari/BA,-12.6998188,-38.3260762,625,202.12931
1,Cambará do Sul/RS,-29.0489517,-50.145412,352,5514.64828
D1,Cambará do Sul/RS,-29.0489517,-50.145412,10,156.66614
1,Cambará/PR,-23.042273,-50.075281,3083,12057.56971
D1,Cambará/PR,-23.042273,-50.075281,65,254.21409
1,Cambira/PR,-23.600265,-51.581045,1146,14384.33538
D1,Cambira/PR,-23.600265,-51.581045,26,326.34618
1,Camboriú/SC,-27.0273601,-48.6535657,14595,16741.41708
D1,Camboriú/SC,-27.0273601,-48.6535657,176,201.88348
1,Cambuci/RJ,-21.5749919,-41.9107833,1676,10798.27331
D1,Cambuci/RJ,-21.5749919,-41.9107833,40,257.71535
1,Cambuquira/MG,-21.853056,-45.2953619,874,6822.79469
D1,Cambuquira/MG,-21.853056,-45.2953619,28,218.57923
1,Cambuí/MG,-22.6122501,-46.0572137,4191,13938.40628
D1,Cambuí/MG,-22.6122501,-46.0572137,61,202.87349
1,Cambé/PR,-23.2782035,-51.2779583,13402,12394.79866
D1,Cambé/PR,-23.2782035,-51.2779583,328,303.34980
1,Cametá/PA,-2.242949,-49.497885,10004,7104.40723
D1,Cametá/PA,-2.242949,-49.497885,275,195.29308
1,Camocim de São Félix/PE,-8.3616757,-35.7638903,635,3336.48592
D1,Camocim de São Félix/PE,-8.3616757,-35.7638903,20,105.08617
1,Camocim/CE,-2.9009918,-40.8427389,6315,9844.57574
D1,Camocim/CE,-2.9009918,-40.8427389,163,254.10386
