type,name,lat,lon,total,total_per_100k_inhabitants
1,Abadia de Goiás/GO,-16.7572644,-49.4412205,6,68.39166
1,Abadia dos Dourados/MG,-18.4911191,-47.4063589,5,71.54099
1,Abadiânia/GO,-16.1940946,-48.7067767,2,9.97904
1,Abaetetuba/PA,-1.721828,-48.878843,1556,986.69609
D1,Abaetetuba/PA,-1.721828,-48.878843,51,32.34030
1,Abaeté/MG,-19.1566833,-45.4481213,1,4.30348
1,Abaiara/CE,-7.3607808,-39.0487878,1,8.52006
1,Abatiá/PR,-23.3052967,-50.3102532,1,13.41022
1,Abaíra/BA,-13.2503296,-41.6640342,4,45.77183
1,Abdon Batista/SC,-27.612419,-51.022992,1,39.01678
1,Abel Figueiredo/PA,-4.953001,-48.3958485,18,242.13075
D1,Abel Figueiredo/PA,-4.953001,-48.3958485,1,13.45171
1,Abelardo Luz/SC,-26.5705893,-52.3280339,3,16.75603
1,Abreu e Lima/PE,-7.900719,-34.898389,313,313.03130
D1,Abreu e Lima/PE,-7.900719,-34.898389,38,38.00380
1,Abreulândia/TO,-9.6221526,-49.1558343,2,77.54944
1,Acajutiba/BA,-11.6609659,-38.0186381,3,19.79022
1,Acarape/CE,-4.2237866,-38.7071663,23,154.06256
D1,Acarape/CE,-4.2237866,-38.7071663,2,13.39674
1,Acaraú/CE,-2.8869514,-40.1194713,312,498.07634
D1,Acaraú/CE,-2.8869514,-40.1194713,13,20.75318
1,Acari/RN,-6.4364689,-36.6394777,3,26.93966
1,Acará/PA,-1.961388,-48.1987043,30,53.96557
D1,Acará/PA,-1.961388,-48.1987043,7,12.59197
1,Acopiara/CE,-6.0936464,-39.4543204,50,92.13193
D1,Acopiara/CE,-6.0936464,-39.4543204,2,3.68528
1,Acorizal/MT,-15.2001544,-56.3668953,9,166.69754
1,Acrelândia/AC,-10.0759167,-67.0526898,158,1035.65810
D1,Acrelândia/AC,-10.0759167,-67.0526898,1,6.55480
1,Adamantina/SP,-21.6866517,-51.0762975,38,108.36090
D1,Adamantina/SP,-21.6866517,-51.0762975,2,5.70321
1,Adolfo/SP,-21.2356597,-49.6441918,3,84.22235
1,Adustina/BA,-10.5358875,-38.114479,3,17.60563
D1,Adustina/BA,-10.5358875,-38.114479,1,5.86854
1,Afogados da Ingazeira/PE,-7.750429,-37.6356375,8,21.47132
1,Afonso Bezerra/RN,-5.4745,-36.57625071327935,10,90.62075
D1,Afonso Bezerra/RN,-5.4745,-36.57625071327935,1,9.06208
1,Afonso Cláudio/ES,-20.077841,-41.12606,68,222.32394
D1,Afonso Cláudio/ES,-20.077841,-41.12606,6,19.61682
1,Afonso Cunha/MA,-4.1326105,-43.3230026,7,107.29614
1,Afrânio/PE,-8.5198919,-41.0070197,15,76.39419
1,Afuá/PA,-0.1535664,-50.3879223,155,395.22668
D1,Afuá/PA,-0.1535664,-50.3879223,2,5.09970
1,Agrestina/PE,-8.4558021,-35.9442663,27,108.49910
D1,Agrestina/PE,-8.4558021,-35.9442663,5,20.09243
1,Agrolândia/SC,-27.4122212,-49.8295774,5,46.02356
1,Agronômica/SC,-27.2660744,-49.7104753,10,183.55360
D1,Agronômica/SC,-27.2660744,-49.7104753,1,18.35536
1,Aguaí/SP,-22.0592036,-46.979384,21,57.84327
D1,Aguaí/SP,-22.0592036,-46.979384,3,8.26332
1,Agudo/RS,-29.6423259,-53.2494005,1,6.07497
1,Agudos do Sul/PR,-25.9890808,-49.3328175,11,117.38342
1,Agudos/SP,-22.471162,-48.987822,22,59.11754
D1,Agudos/SP,-22.471162,-48.987822,1,2.68716
1,Aguiar/PB,-7.0928404,-38.1727215,1,17.73050
1,Aguiarnópolis/TO,-6.5600452,-47.4721189,31,460.41883
D1,Aguiarnópolis/TO,-6.5600452,-47.4721189,1,14.85222
1,Aimorés/MG,-19.4917754,-41.0615603,21,83.44260
1,Aiquara/BA,-14.126918,-39.8887574,4,89.96851
D1,Aiquara/BA,-14.126918,-39.8887574,1,22.49213
1,Aiuaba/CE,-6.5710836,-40.1212278,3,17.24237
1,Ajuricaba/RS,-28.239654,-53.7693013,2,28.47380
1,Alagoa Grande/PB,-7.0415212,-35.6285322,74,259.68557
D1,Alagoa Grande/PB,-7.0415212,-35.6285322,1,3.50926
1,Alagoa Nova/PB,-7.0653703,-35.76695977336711,21,100.72426
D1,Alagoa Nova/PB,-7.0653703,-35.76695977336711,1,4.79639
1,Alagoinha do Piauí/PI,-7.0090952,-40.939675,1,13.07019
1,Alagoinha/PB,-6.97063215,-35.51490901897793,98,676.37518
1,Alagoinha/PE,-8.50355635,-36.77701174370496,12,81.98961
1,Alagoinhas/BA,-12.133526,-38.420772,58,38.25958
D1,Alagoinhas/BA,-12.133526,-38.420772,2,1.31930
1,Alambari/SP,-23.550338,-47.897971,4,66.39004
1,Alcantil/PB,-7.7425491,-36.0609604,1,18.20830
1,Alcinópolis/MS,-18.3264121,-53.7094463,1,18.71608
1,Alcântara/MA,-2.4038956,-44.4154241,19,85.98452
1,Alcântaras/CE,-3.586247,-40.5457641,58,495.13403
D1,Alcântaras/CE,-3.586247,-40.5457641,1,8.53679
1,Aldeias Altas/MA,-4.6291957,-43.4708622,9,33.92130
1,Alecrim/RS,-27.6566142,-54.7653195,2,33.61345
1,Alegre/ES,-20.7625787,-41.5318886,11,36.56429
1,Alegrete/RS,-29.790166,-55.794862,9,12.23009
1,Alenquer/PA,-1.946229,-54.738355,66,116.21969
D1,Alenquer/PA,-1.946229,-54.738355,1,1.76090
1,Alexandria/RN,-6.414779,-38.0135516,5,36.82699
D1,Alexandria/RN,-6.414779,-38.0135516,1,7.36540
1,Alexânia/GO,-16.0834049,-48.5077803,4,14.46498
1,Alfenas/MG,-21.4297405,-45.9479419,13,16.25081
1,Alfredo Chaves/ES,-20.624970400000002,-40.75006690147988,69,472.57037
D1,Alfredo Chaves/ES,-20.624970400000002,-40.75006690147988,2,13.69769
1,Alfredo Marcondes/SP,-21.9527,-51.413956,2,48.00768
D1,Alfredo Marcondes/SP,-21.9527,-51.413956,1,24.00384
1,Alfredo Vasconcelos/MG,-21.145833,-43.776389,2,28.95613
D1,Alfredo Vasconcelos/MG,-21.145833,-43.776389,1,14.47807
1,Alhandra/PB,-7.4304246,-34.9106103,126,643.25097
D1,Alhandra/PB,-7.4304246,-34.9106103,4,20.42067
1,Aliança do Tocantins/TO,-11.3055927,-48.9409096,3,55.65863
1,Aliança/PE,-7.60398,-35.222696,66,171.93769
D1,Aliança/PE,-7.60398,-35.222696,13,33.86651
1,Almadina/BA,-14.70466,-39.6381994,2,36.60322
1,Almeirim/PA,-1.5290377,-52.5788111,18,52.77200
D1,Almeirim/PA,-1.5290377,-52.5788111,1,2.93178
1,Almenara/MG,-16.1740678,-40.6904907,10,23.86863
1,Almino Afonso/RN,-6.1544208,-37.7649018,1,21.11932
1,Almirante Tamandaré/PR,-25.3133048,-49.2997838,21,17.70314
1,Aloândia/GO,-17.7277983,-49.4809338,1,50.12531
1,Alpercata/MG,-18.9803616,-41.9827637,3,40.40948
1,Alpestre/RS,-27.2512339,-53.0349646,10,159.79546
1,Alpinópolis/MG,-20.863611,-46.387777,1,5.03702
1,Alta Floresta D'Oeste/RO,-11.9296917,-61.9961284,3,13.07474
1,Alta Floresta/MT,-9.8715018,-56.0839881,32,61.79754
D1,Alta Floresta/MT,-9.8715018,-56.0839881,1,1.93117
1,Altair/SP,-20.5238955,-49.0606135,1,24.03846
1,Altamira do Maranhão/MA,-4.1643006,-45.4674574,1,12.30315
D1,Altamira do Maranhão/MA,-4.1643006,-45.4674574,1,12.30315
1,Altamira do Paraná/PR,-24.799114,-52.7128633,1,51.49331
1,Altamira/PA,-3.204065,-52.209961,368,321.13374
D1,Altamira/PA,-3.204065,-52.209961,3,2.61794
1,Alterosa/MG,-21.249166,-46.143055,1,6.91276
1,Altinho/PE,-8.4904095,-36.0607494,13,56.59063
1,Altinópolis/SP,-21.021364,-47.3712,3,18.53683
1,Alto Alegre do Maranhão/MA,-4.2055693,-44.4525287,151,558.16360
D1,Alto Alegre do Maranhão/MA,-4.2055693,-44.4525287,3,11.08934
1,Alto Alegre do Pindaré/MA,-3.6698186,-45.8462153,75,234.96977
1,Alto Alegre dos Parecis/RO,-12.1314515,-61.856265,4,30.20920
1,Alto Alegre/RR,2.98858,-61.307167,59,380.39974
D1,Alto Alegre/RR,2.98858,-61.307167,3,19.34236
1,Alto Alegre/SP,-21.5820592,-50.1661976,1,24.39619
D1,Alto Alegre/SP,-21.5820592,-50.1661976,1,24.39619
1,Alto Araguaia/MT,-17.3156528,-53.2169365,10,52.50998
D1,Alto Araguaia/MT,-17.3156528,-53.2169365,1,5.25100
1,Alto Bela Vista/SC,-27.4320737,-51.905771,4,206.50490
1,Alto Boa Vista/MT,-11.6723985,-51.3744431,1,14.65846
D1,Alto Boa Vista/MT,-11.6723985,-51.3744431,1,14.65846
1,Alto Garças/MT,-16.9469683,-53.529427,1,8.31255
1,Alto Jequitibá/MG,-20.423611,-41.966111,8,96.18853
D1,Alto Jequitibá/MG,-20.423611,-41.966111,1,12.02357
1,Alto Longá/PI,-5.2549051,-42.2072388,10,69.91051
1,Alto Paraguai/MT,-14.513712,-56.4936374,1,8.80592
1,Alto Paraná/PR,-23.131247,-52.318893,9,60.93433
1,Alto Paraíso/PR,-23.508137,-53.728537,1,36.48304
1,Alto Paraíso/RO,-9.7240103,-63.3188123,7,32.66754
D1,Alto Paraíso/RO,-9.7240103,-63.3188123,1,4.66679
1,Alto Parnaíba/MA,-9.112506,-45.9310154,14,125.11171
1,Alto Rio Doce/MG,-21.0239537,-43.4133507,1,9.09091
1,Alto Rio Novo/ES,-19.0577208,-41.0171518,1,12.76161
D1,Alto Rio Novo/ES,-19.0577208,-41.0171518,1,12.76161
1,Alto Santo/CE,-5.5190371,-38.2719351,21,122.47755
D1,Alto Santo/CE,-5.5190371,-38.2719351,1,5.83226
1,Alto do Rodrigues/RN,-5.290868,-36.7616726,37,254.66309
D1,Alto do Rodrigues/RN,-5.290868,-36.7616726,4,27.53114
1,Altos/PI,-5.0393915,-42.4611694,53,130.78669
D1,Altos/PI,-5.0393915,-42.4611694,1,2.46767
1,Alumínio/SP,-23.5203479,-47.2575256,12,64.41915
D1,Alumínio/SP,-23.5203479,-47.2575256,1,5.36826
1,Alvarenga/MG,-19.4175,-41.728334,21,537.49680
1,Alvarães/AM,-3.214786,-64.8143124,172,1072.25235
D1,Alvarães/AM,-3.214786,-64.8143124,7,43.63818
1,Alvorada D'Oeste/RO,-11.346271,-62.284697,3,20.81743
1,Alvorada do Gurguéia/PI,-8.4465288,-43.8655915,1,18.45359
1,Alvorada do Sul/PR,-22.7807269,-51.2307721,6,52.60389
1,Alvorada/RS,-29.9981184,-51.0772509,55,26.15249
D1,Alvorada/RS,-29.9981184,-51.0772509,3,1.42650
1,Alvorada/TO,-12.478465,-49.124926,8,95.10223
1,Além Paraíba/MG,-21.8760576,-42.6810473,44,124.42735
D1,Além Paraíba/MG,-21.8760576,-42.6810473,1,2.82789
1,Amajari/RR,3.6523869,-61.4194315,29,226.63332
D1,Amajari/RR,3.6523869,-61.4194315,2,15.62988
1,Amambai/MS,-23.1082701,-55.2284854,5,12.69164
1,Amaporã/PR,-23.094272,-52.786597,18,287.67780
1,Amapá do Maranhão/MA,-1.6762114,-46.0109669,2,28.72738
1,Amapá/AP,2.0529997,-50.7930003,64,702.60182
D1,Amapá/AP,2.0529997,-50.7930003,3,32.93446
1,Amaraji/PE,-8.373925,-35.4536527,42,183.97652
D1,Amaraji/PE,-8.373925,-35.4536527,8,35.04315
1,Amaralina/GO,-13.9236199,-49.2962411,2,52.46590
1,Amarante do Maranhão/MA,-5.56913,-46.747284,203,489.92398
D1,Amarante do Maranhão/MA,-5.56913,-46.747284,1,2.41342
1,Amarante/PI,-6.2459374,-42.8476238,6,34.09478
1,Amargosa/BA,-13.03793715,-39.60796443875596,10,26.85213
D1,Amargosa/BA,-13.03793715,-39.60796443875596,1,2.68521
1,Amaturá/AM,-3.3640509,-68.1994689,273,2366.50485
D1,Amaturá/AM,-3.3640509,-68.1994689,6,52.01110
1,Americana/SP,-22.7392463,-47.3306032,111,46.32779
D1,Americana/SP,-22.7392463,-47.3306032,6,2.50420
1,Ametista do Sul/RS,-27.3617341,-53.1826575,4,53.98839
1,Amontada/CE,-3.3634586,-39.8284791,109,250.85151
D1,Amontada/CE,-3.3634586,-39.8284791,4,9.20556
1,Amorinópolis/GO,-16.6211308,-51.0949921,2,63.97953
1,Amparo de São Francisco/SE,-10.1299754,-36.9269099,4,168.49200
1,Amparo/PB,-7.56394725,-37.04652873235175,12,536.19303
1,Amparo/SP,-22.70111,-46.76444,35,48.47981
D1,Amparo/SP,-22.70111,-46.76444,1,1.38514
1,Ampére/PR,-25.9168712,-53.4742414,6,31.32832
D1,Ampére/PR,-25.9168712,-53.4742414,1,5.22139
1,Amélia Rodrigues/BA,-12.4015388,-38.7516971,16,63.73994
1,Américo Brasiliense/SP,-21.7297099,-48.1052092,37,91.34900
D1,Américo Brasiliense/SP,-21.7297099,-48.1052092,2,4.93778
1,Américo de Campos/SP,-20.298476,-49.735904,3,50.25967
1,Anadia/AL,-9.6830208,-36.3052699,29,165.28926
D1,Anadia/AL,-9.6830208,-36.3052699,1,5.69963
1,Anagé/BA,-14.6134669,-41.1376308,1,4.54442
D1,Anagé/BA,-14.6134669,-41.1376308,1,4.54442
1,Anahy/PR,-24.6450861,-53.1337957,5,178.50768
1,Anajatuba/MA,-3.26441,-44.6179916,59,220.12461
D1,Anajatuba/MA,-3.26441,-44.6179916,4,14.92370
1,Anajás/PA,-0.9878802,-49.9390114,119,406.46241
D1,Anajás/PA,-0.9878802,-49.9390114,2,6.83130
1,Anamã/AM,-3.5797356,-61.4049996,178,1307.47760
1,Ananindeua/PA,-1.374035,-48.4016623,2624,494.53635
D1,Ananindeua/PA,-1.374035,-48.4016623,239,45.04352
1,Ananás/TO,-6.3663053,-48.080238,2,20.94460
1,Anapu/PA,-3.4668292,-51.2057035,91,326.28182
D1,Anapu/PA,-3.4668292,-51.2057035,1,3.58551
1,Anapurus/MA,-3.6751298,-43.1046001,190,1207.72947
D1,Anapurus/MA,-3.6751298,-43.1046001,1,6.35647
1,Anastácio/MS,-20.4832458,-55.8048448,1,3.97852
1,Anchieta/ES,-20.8057672,-40.6454564,114,389.57045
D1,Anchieta/ES,-20.8057672,-40.6454564,1,3.41728
1,Anchieta/SC,-26.5350527,-53.3293938,7,124.15750
1,Andirá/PR,-23.0494761,-50.2310027,7,34.94583
1,Andradas/MG,-22.0680484,-46.5688976,4,9.73781
D1,Andradas/MG,-22.0680484,-46.5688976,1,2.43445
1,Andradina/SP,-20.896505,-51.3742765,40,69.98268
D1,Andradina/SP,-20.896505,-51.3742765,4,6.99827
1,Andrelândia/MG,-21.739722,-44.308889,10,81.80628
1,Angatuba/SP,-23.4938938,-48.4110675,19,75.31314
D1,Angatuba/SP,-23.4938938,-48.4110675,2,7.92770
1,Angelim/PE,-8.8902038,-36.2872987,3,26.90583
1,Angical do Piauí/PI,-6.0872666,-42.7366138,5,73.65940
1,Angico/TO,-6.3893733,-47.8656722,1,29.12904
1,Angicos/RN,-5.6666344,-36.6009064,5,42.68397
1,Angra dos Reis/RJ,-23.0063966,-44.316326,685,336.13858
D1,Angra dos Reis/RJ,-23.0063966,-44.316326,30,14.72140
1,Anguera/BA,-12.1509425,-39.2452469,17,151.50165
1,Anhanguera/GO,-18.3338749,-48.220363,1,87.03220
1,Anhembi/SP,-22.7891096,-48.1316776,2,29.74420
1,Anhumas/SP,-22.2956478,-51.3873401,2,48.60267
1,Anita Garibaldi/SC,-27.6855032,-51.1293873,2,28.03869
1,Anori/AM,-3.7435254,-61.6605203,336,1599.23846
D1,Anori/AM,-3.7435254,-61.6605203,3,14.27891
1,Anta Gorda/RS,-28.9718745,-52.0069187,5,83.59806
1,Antonina do Norte/CE,-6.7754187,-39.9879345,2,27.19978
1,Antônio Cardoso/BA,-12.4363122,-39.1200307,2,17.11889
1,Antônio Carlos/SC,-27.5168462,-48.7684715,20,234.93481
D1,Antônio Carlos/SC,-27.5168462,-48.7684715,4,46.98696
1,Antônio Martins/RN,-6.2155812,-37.8890129,2,27.99160
1,Antônio Prado/RS,-28.8567806,-51.2801355,2,15.32567
1,Anápolis/GO,-16.3332828,-48.9525756,149,38.50895
D1,Anápolis/GO,-16.3332828,-48.9525756,2,0.51690
1,Anísio de Abreu/PI,-9.185643,-43.04941,16,161.94332
1,Aparecida de Goiânia/GO,-16.8226769,-49.2452546,401,69.35568
D1,Aparecida de Goiânia/GO,-16.8226769,-49.2452546,10,1.72957
1,Aparecida do Rio Doce/GO,-18.2980167,-51.1491312,1,40.42037
1,Aparecida/PB,-6.7859598, -38.0831353,4,47.92141
1,Aparecida/SP,-22.851552,-45.2340924,5,13.82858
1,Aperibé/RJ,-21.6211928,-42.1028167,10,85.04125
1,Apiacá/ES,-21.152272,-41.569297,13,171.79860
1,Apiaí/SP,-24.5076527,-48.8461582,2,8.20546
1,Apicum-Açu/MA,-1.5279295,-45.082278,73,423.45844
D1,Apicum-Açu/MA,-1.5279295,-45.082278,1,5.80080
1,Apodi/RN,-5.6631109,-37.796927,208,580.27619
D1,Apodi/RN,-5.6631109,-37.796927,5,13.94895
1,Aporá/BA,-11.6599747,-38.0794757,5,28.19920
1,Apuarema/BA,-13.8517897,-39.7457126,1,13.64256
1,Apucarana/PR,-23.5525327,-51.4610764,36,26.66746
D1,Apucarana/PR,-23.5525327,-51.4610764,3,2.22229
1,Apuiarés/CE,-3.9460303,-39.4313298,20,136.98630
D1,Apuiarés/CE,-3.9460303,-39.4313298,6,41.09589
1,Apuí/AM,-7.1940195,-59.8830192,27,122.87808
1,Aquidabã/SE,-10.2837579,-37.0188687,15,69.56360
D1,Aquidabã/SE,-10.2837579,-37.0188687,1,4.63757
1,Aquiraz/CE,-3.9063117,-38.387504,214,266.59690
D1,Aquiraz/CE,-3.9063117,-38.387504,13,16.19514
1,Arabutã/SC,-27.1587028,-52.1438142,26,609.32740
1,Aracaju/SE,-10.9162061,-37.0774655,3784,575.93990
D1,Aracaju/SE,-10.9162061,-37.0774655,65,9.89326
1,Aracati/CE,-4.558259,-37.767894,116,155.60653
D1,Aracati/CE,-4.558259,-37.767894,8,10.73148
1,Aracatu/BA,-14.4274236,-41.4604105,4,30.45299
1,Araci/BA,-11.3356065,-38.9573261,5,9.19473
D1,Araci/BA,-11.3356065,-38.9573261,1,1.83895
1,Aracoiaba/CE,-4.3702577,-38.8084313,93,351.35441
D1,Aracoiaba/CE,-4.3702577,-38.8084313,1,3.77800
1,Aracruz/ES,-19.8245218,-40.2735025,104,102.74649
D1,Aracruz/ES,-19.8245218,-40.2735025,12,11.85536
1,Aragarças/GO,-15.8957166,-52.2514538,63,313.15240
1,Aragoiânia/GO,-16.9146388,-49.4499148,2,19.40241
1,Aragominas/TO,-7.1654101,-48.525488,5,86.83571
1,Araguanã/MA,-2.9508403,-45.6651986,176,1140.93090
1,Araguanã/TO,-6.5799107,-48.6428482,2,34.91011
1,Araguapaz/GO,-15.0937927,-50.626417,1,12.87001
D1,Araguapaz/GO,-15.0937927,-50.626417,1,12.87001
1,Araguari/MG,-18.6511256,-48.1933764,21,17.90785
D1,Araguari/MG,-18.6511256,-48.1933764,1,0.85275
1,Araguatins/TO,-5.6522925,-48.1158973,63,176.16957
D1,Araguatins/TO,-5.6522925,-48.1158973,10,27.96342
1,Araguaçu/TO,-12.928934,-49.823134,2,23.48245
D1,Araguaçu/TO,-12.928934,-49.823134,1,11.74122
1,Araguaína/TO,-7.193241,-48.2018597,1517,840.58292
D1,Araguaína/TO,-7.193241,-48.2018597,18,9.97396
1,Araioses/MA,-2.890914,-41.904993,117,251.93798
D1,Araioses/MA,-2.890914,-41.904993,2,4.30663
1,Arame/MA,-4.8858769,-46.0102484,39,119.26241
1,Arandu/SP,-23.1345103,-49.0545651,10,157.30691
D1,Arandu/SP,-23.1345103,-49.0545651,2,31.46138
1,Arantina/MG,-21.911667,-44.255833,2,71.55635
1,Arapiraca/AL,-9.754866,-36.661471,323,139.37613
D1,Arapiraca/AL,-9.754866,-36.661471,11,4.74656
1,Arapongas/PR,-23.415296,-51.42592,21,17.06942
D1,Arapongas/PR,-23.415296,-51.42592,1,0.81283
1,Araporã/MG,-18.4318188,-49.188313,2,29.11632
1,Araquari/SC,-26.3703324,-48.7210994,26,68.18957
1,Arara/PB,-6.8271895,-35.7605703,13,96.51076
1,Araranguá/SC,-28.9348832,-49.4858389,66,96.73448
D1,Araranguá/SC,-28.9348832,-49.4858389,2,2.93135
1,Araraquara/SP,-21.7886713,-48.1773096,217,91.92111
D1,Araraquara/SP,-21.7886713,-48.1773096,4,1.69440
1,Araras/SP,-22.3569477,-47.3838889,102,75.98558
D1,Araras/SP,-22.3569477,-47.3838889,3,2.23487
1,Ararendá/CE,-4.7504395,-40.8303611,2,18.28989
D1,Ararendá/CE,-4.7504395,-40.8303611,1,9.14495
1,Arari/MA,-3.4547602,-44.7772723,55,184.26695
D1,Arari/MA,-3.4547602,-44.7772723,2,6.70062
1,Araripe/CE,-7.212861,-40.1359222,2,9.25926
1,Araripina/PE,-7.5768582,-40.5038509,43,50.93700
D1,Araripina/PE,-7.5768582,-40.5038509,3,3.55374
1,Araruama/RJ,-22.8733203,-42.3428897,109,82.32628
D1,Araruama/RJ,-22.8733203,-42.3428897,26,19.63746
1,Araruna/PB,-6.5321155,-35.7397595,2,9.84640
1,Araruna/PR,-23.9320308,-52.4976047,16,114.53114
D1,Araruna/PR,-23.9320308,-52.4976047,1,7.15820
1,Arataca/BA,-15.2617424,-39.4122943,2,18.15047
1,Aratuba/CE,-4.4195958,-39.0463737,12,101.29147
1,Aratuípe/BA,-13.077137,-39.0010786,2,22.66289
1,Araucária/PR,-25.5861107,-49.4051209,58,40.32174
1,Arauá/SE,-11.2644014,-37.6181058,4,39.77725
D1,Arauá/SE,-11.2644014,-37.6181058,3,29.83294
1,Araxá/MG,-19.5928536,-46.940241,107,100.72579
D1,Araxá/MG,-19.5928536,-46.940241,2,1.88273
1,Araçagi/PB,-6.8519969,-35.3835602,27,158.94508
1,Araçariguama/SP,-23.438611,-47.061389,12,53.65766
D1,Araçariguama/SP,-23.438611,-47.061389,1,4.47147
1,Araças/BA,-12.2139176,-38.2026159,1,8.21220
1,Araçatuba/SP,-21.207992,-50.4390225,154,78.16624
D1,Araçatuba/SP,-21.207992,-50.4390225,4,2.03029
1,Araçoiaba da Serra/SP,-23.5045367,-47.6168158,38,111.28683
D1,Araçoiaba da Serra/SP,-23.5045367,-47.6168158,1,2.92860
1,Araçoiaba/PE,-7.7856903,-35.0898881,30,146.17034
D1,Araçoiaba/PE,-7.7856903,-35.0898881,3,14.61703
1,Araçuaí/MG,-16.8484451,-42.0661868,2,5.44840
1,Arceburgo/MG,-21.364444,-46.939722,5,46.41664
1,Arcos/MG,-20.282223,-45.539444,13,32.42542
1,Arcoverde/PE,-8.415192,-37.057748,105,141.24674
D1,Arcoverde/PE,-8.415192,-37.057748,12,16.14248
1,Areal/RJ,-22.2314922,-43.1056264,14,111.35857
1,Arealva/SP,-22.0301906,-48.9111936,1,11.68224
1,Areia Branca/RN,-4.9506652,-37.1263312,198,712.89695
D1,Areia Branca/RN,-4.9506652,-37.1263312,16,57.60783
1,Areia Branca/SE,-10.7591455,-37.3148072,41,221.11962
1,Areia de Baraúnas/PB,-7.1233949,-36.9446216,1,46.99248
1,Areia/PB,-6.9680243,-35.6994783,50,219.11565
D1,Areia/PB,-6.9680243,-35.6994783,1,4.38231
1,Areial/PB,-7.0501306,-35.9245244,8,114.31838
1,Areiópolis/SP,-22.6758064,-48.6673653,10,89.85533
D1,Areiópolis/SP,-22.6758064,-48.6673653,2,17.97107
1,Aripuanã/MT,-10.175806,-59.4439663,7,31.31431
D1,Aripuanã/MT,-10.175806,-59.4439663,1,4.47347
1,Ariquemes/RO,-9.9076522,-63.033069,320,296.67263
D1,Ariquemes/RO,-9.9076522,-63.033069,4,3.70841
1,Ariranha/SP,-21.18716,-48.790418,2,20.68680
1,Armazém/SC,-28.2624996,-49.0190126,26,299.74637
1,Armação dos Búzios/RJ,-22.7597805,-41.8875267,39,115.14615
D1,Armação dos Búzios/RJ,-22.7597805,-41.8875267,1,2.95247
1,Arneiroz/CE,-6.3235099,-40.1603859,19,242.34694
1,Aroazes/PI,-6.1108814,-41.7886137,1,17.13796
1,Aroeiras/PB,-7.5462904,-35.7080002,22,114.86451
1,Arraial do Cabo/RJ,-22.9662839,-42.024427,38,125.21006
D1,Arraial do Cabo/RJ,-22.9662839,-42.024427,4,13.18001
1,Arroio do Meio/RS,-29.4020392,-51.9444993,94,451.81447
1,Arroio do Sal/RS,-29.549852,-49.8874395,10,99.35420
D1,Arroio do Sal/RS,-29.549852,-49.8874395,1,9.93542
1,Arroio dos Ratos/RS,-30.0894524,-51.7265541,8,56.53311
D1,Arroio dos Ratos/RS,-30.0894524,-51.7265541,1,7.06664
1,Artur Nogueira/SP,-22.572737,-47.172679,21,38.59727
1,Arujá/SP,-23.396266,-46.3175449,238,264.96259
D1,Arujá/SP,-23.396266,-46.3175449,19,21.15248
1,Arvoredo/SC,-27.0752908,-52.4571847,10,446.42857
D1,Arvoredo/SC,-27.0752908,-52.4571847,1,44.64286
1,Arvorezinha/RS,-28.87369,-52.17808,1,9.59325
1,Arês/RN,-6.1969216,-35.1642968,5,34.95037
1,Ascurra/SC,-26.9569975,-49.3767752,1,12.60398
1,Assaré/CE,-6.8746791,-39.8741385,3,12.81121
1,Assaí/PR,-23.3736041,-50.8454929,3,19.84258
1,Assis Brasil/AC,-10.9409203,-69.5672108,23,310.09842
D1,Assis Brasil/AC,-10.9409203,-69.5672108,2,26.96508
1,Assis Chateaubriand/PR,-24.4054826,-53.5120468,26,77.93298
1,Assis/SP,-22.6620892,-50.420623,54,51.73108
D1,Assis/SP,-22.6620892,-50.420623,5,4.78991
1,Assunção/PB,-7.073396,-36.7274003,5,125.31328
1,Astolfo Dutra/MG,-21.3132636,-42.8624102,9,63.47415
1,Atalaia do Norte/AM,-4.3658547,-70.1908742,8,40.15863
1,Atalaia/AL,-9.5029595,-36.0219316,149,315.77832
D1,Atalaia/AL,-9.5029595,-36.0219316,3,6.35795
1,Atalanta/SC,-27.421916,-49.778863,3,93.45794
1,Atibaia/SP,-23.1177393,-46.5547861,83,58.13913
D1,Atibaia/SP,-23.1177393,-46.5547861,5,3.50236
1,Atilio Vivacqua/ES,-20.9139369,-41.1947519,3,25.13405
1,Augustinópolis/TO,-5.4662267,-47.8897519,36,195.52466
D1,Augustinópolis/TO,-5.4662267,-47.8897519,2,10.86248
1,Augusto Corrêa/PA,-1.0229335,-46.6404029,149,323.92713
D1,Augusto Corrêa/PA,-1.0229335,-46.6404029,3,6.52202
1,Aurelino Leal/BA,-14.3167137,-39.3256107,4,34.68910
1,Auriflama/SP,-20.6840418,-50.5554616,3,19.75114
1,Aurora do Pará/PA,-2.1323199,-47.558436,89,284.00026
D1,Aurora do Pará/PA,-2.1323199,-47.558436,3,9.57304
1,Aurora do Tocantins/TO,-12.71045,-46.407604,2,53.23396
1,Aurora/CE,-6.9426019,-38.9693765,5,20.28068
D1,Aurora/CE,-6.9426019,-38.9693765,1,4.05614
1,Aurora/SC,-27.3166417,-49.6368502,4,70.43494
1,Autazes/AM,-3.5833283,-59.1301518,510,1289.01807
D1,Autazes/AM,-3.5833283,-59.1301518,22,55.60470
1,Avanhandava/SP,-21.4603331,-49.9465156,1,7.32654
1,Avaré/SP,-23.1045215,-48.9259103,54,59.56649
D1,Avaré/SP,-23.1045215,-48.9259103,5,5.51542
1,Avaí/SP,-22.1564662,-49.3316395,2,37.01647
1,Aveiro/PA,-3.6049239,-55.3310742,1,6.10203
1,Avelino Lopes/PI,-10.1346855,-43.9489525,1,8.85818
1,Avelinópolis/GO,-16.4672409,-49.7578661,1,41.37360
1,Axixá do Tocantins/TO,-5.612747,-47.77007,35,358.75359
D1,Axixá do Tocantins/TO,-5.612747,-47.77007,2,20.50021
1,Axixá/MA,-2.8379465,-44.0561053,15,123.66035
D1,Axixá/MA,-2.8379465,-44.0561053,1,8.24402
1,Açailândia/MA,-4.9514278,-47.4844564,737,655.43154
D1,Açailândia/MA,-4.9514278,-47.4844564,3,2.66797
1,Açu/RN,-5.5836157,-36.9139541,113,194.77050
D1,Açu/RN,-5.5836157,-36.9139541,4,6.89453
1,Açucena/MG,-19.073056,-42.546666,4,42.23865
D1,Açucena/MG,-19.073056,-42.546666,1,10.55966
1,Babaçulândia/TO,-7.2034355,-47.761613,2,18.75469
1,Bacabal/MA,-4.2318132,-44.781167,305,290.61735
D1,Bacabal/MA,-4.2318132,-44.781167,2,1.90569
1,Bacabeira/MA,-2.9775747,-44.3155943,99,580.47493
D1,Bacabeira/MA,-2.9775747,-44.3155943,2,11.72677
1,Bacuri/MA,-1.728894,-45.1417148,80,430.52416
1,Bacurituba/MA,-2.7082587,-44.7381309,8,141.74344
1,Bady Bassitt/SP,-20.9178969,-49.4517911,29,165.69535
D1,Bady Bassitt/SP,-20.9178969,-49.4517911,4,22.85453
1,Baependi/MG,-21.959162,-44.8899249,1,5.22248
1,Bagre/PA,-1.8994498,-50.2103844,79,257.55550
D1,Bagre/PA,-1.8994498,-50.2103844,5,16.30098
1,Bagé/RS,-31.3314264,-54.1062808,47,38.79712
1,Baianópolis/BA,-12.3067564,-44.5383591,1,7.20617
1,Baixa Grande do Ribeiro/PI,-7.862861,-45.2113289,8,69.04885
D1,Baixa Grande do Ribeiro/PI,-7.862861,-45.2113289,1,8.63111
1,Baixo Guandu/ES,-19.5138322,-41.0182089,83,267.75921
D1,Baixo Guandu/ES,-19.5138322,-41.0182089,3,9.67804
1,Baião/PA,-2.7903479,-49.6702845,120,252.91911
D1,Baião/PA,-2.7903479,-49.6702845,6,12.64596
1,Balneário Arroio do Silva/SC,-28.9815269,-49.4189932,25,191.26310
D1,Balneário Arroio do Silva/SC,-28.9815269,-49.4189932,1,7.65052
1,Balneário Barra do Sul/SC,-26.459842,-48.6061471,10,92.63548
1,Balneário Camboriú/SC,-26.9924395,-48.6339782,362,254.40107
D1,Balneário Camboriú/SC,-26.9924395,-48.6339782,2,1.40553
1,Balneário Gaivota/SC,-29.1553098,-49.5808712,8,72.86638
D1,Balneário Gaivota/SC,-29.1553098,-49.5808712,1,9.10830
1,Balneário Pinhal/RS,-30.2482978,-50.234585,4,28.43332
1,Balneário Piçarras/SC,-26.7638889,-48.6716667,29,125.28621
1,Balneário Rincão/SC,-28.8235718,-49.2241642,4,31.34796
1,Balsa Nova/PR,-25.5842234,-49.6312741,5,38.63689
1,Balsas/MA,-7.53214,-46.037163,231,243.44747
1,Banabuiú/CE,-5.3046404,-38.919766,57,313.23845
D1,Banabuiú/CE,-5.3046404,-38.919766,1,5.49541
1,Bananal/SP,-22.6828195,-44.3221095,3,27.40978
1,Bananeiras/PB,-6.7537682,-35.6338343,17,79.74482
1,Bandeirantes do Tocantins/TO,-7.7635698,-48.579148,6,168.87138
1,Bandeirantes/PR,-23.107788,-50.370407,10,31.88064
D1,Bandeirantes/PR,-23.107788,-50.370407,1,3.18806
1,Bannach/PA,-7.3508505,-50.4064531,10,304.32136
D1,Bannach/PA,-7.3508505,-50.4064531,1,30.43214
1,Banzaê/BA,-10.5827616,-38.6122305,1,7.55915
1,Baraúna/PB,-6.643394,-36.2531932,7,143.09076
1,Baraúna/RN,-5.0775002,-37.61752,72,253.75344
D1,Baraúna/RN,-5.0775002,-37.61752,3,10.57306
1,Barbacena/MG,-21.2254524,-43.7735087,266,193.71800
D1,Barbacena/MG,-21.2254524,-43.7735087,4,2.91305
1,Barbalha/CE,-7.3121067,-39.3036427,34,55.93853
D1,Barbalha/CE,-7.3121067,-39.3036427,2,3.29050
1,Barcarena/PA,-1.5107945,-48.6190679,721,578.28040
D1,Barcarena/PA,-1.5107945,-48.6190679,60,48.12320
1,Barcelona/RN,-5.9514918,-35.9260284,2,50.02501
1,Barcelos/AM,-0.9729214,-62.925635,430,1563.52265
D1,Barcelos/AM,-0.9729214,-62.925635,13,47.26929
1,Bariri/SP,-22.0746355,-48.7394852,10,28.35753
D1,Bariri/SP,-22.0746355,-48.7394852,1,2.83575
1,Barra Bonita/SP,-22.490859,-48.558349,26,71.97033
D1,Barra Bonita/SP,-22.490859,-48.558349,1,2.76809
1,Barra Mansa/RJ,-22.5394843,-44.1735129,148,80.25508
D1,Barra Mansa/RJ,-22.5394843,-44.1735129,13,7.04943
1,Barra Velha/SC,-26.6338203,-48.6835001,18,61.71146
1,Barra de Guabiraba/PE,-8.4173522,-35.6626669,19,132.08203
D1,Barra de Guabiraba/PE,-8.4173522,-35.6626669,2,13.90337
1,Barra de Santa Rosa/PB,-6.7218007,-36.0564638,4,26.00104
1,Barra de Santana/PB,-7.5230865,-35.9988518,13,155.52100
1,Barra de Santo Antônio/AL,-9.4038098,-35.5117693,16,100.42681
D1,Barra de Santo Antônio/AL,-9.4038098,-35.5117693,2,12.55335
1,Barra de São Francisco/ES,-18.7570902,-40.8916119,91,203.80739
D1,Barra de São Francisco/ES,-18.7570902,-40.8916119,2,4.47928
1,Barra de São Miguel/AL,-9.8261357,-35.8837777,19,228.31050
D1,Barra de São Miguel/AL,-9.8261357,-35.8837777,1,12.01634
1,Barra de São Miguel/PB,-7.7528088,-36.3170996,2,33.13453
D1,Barra de São Miguel/PB,-7.7528088,-36.3170996,1,16.56726
1,Barra do Choça/BA,-14.8638173,-40.5761637,7,22.14980
1,Barra do Corda/MA,-5.496823,-45.248496,592,671.11051
D1,Barra do Corda/MA,-5.496823,-45.248496,10,11.33633
1,Barra do Garças/MT,-15.8916033,-52.2615413,67,109.81446
D1,Barra do Garças/MT,-15.8916033,-52.2615413,3,4.91707
1,Barra do Mendes/BA,-11.8053298,-42.057037,1,7.21241
1,Barra do Ouro/TO,-7.7113784,-47.6743925,2,43.56349
1,Barra do Piraí/RJ,-22.4703403,-43.8263256,125,124.53424
D1,Barra do Piraí/RJ,-22.4703403,-43.8263256,15,14.94411
1,Barra do Ribeiro/RS,-30.2930206,-51.301437,1,7.41235
1,Barra do Rocha/BA,-14.2090974,-39.6004395,4,70.00350
1,Barra do Turvo/SP,-24.756421,-48.5056942,8,104.45228
D1,Barra do Turvo/SP,-24.756421,-48.5056942,1,13.05653
1,Barra dos Coqueiros/SE,-10.9075694,-37.0386249,145,476.86388
D1,Barra dos Coqueiros/SE,-10.9075694,-37.0386249,1,3.28872
1,Barra/BA,-11.0892702,-43.1420453,3,5.59931
1,Barracão/PR,-26.252395,-53.6349576,4,38.92944
1,Barras/PI,-4.2446153,-42.2920241,127,269.83385
D1,Barras/PI,-4.2446153,-42.2920241,2,4.24935
1,Barreira/CE,-4.2883361,-38.641094,38,169.45373
D1,Barreira/CE,-4.2883361,-38.641094,6,26.75585
1,Barreiras do Piauí/PI,-9.9224524,-45.4763776,1,29.86858
1,Barreiras/BA,-12.1440031,-44.9967406,49,31.52362
1,Barreirinha/AM,-2.798863,-57.067897,260,811.46032
D1,Barreirinha/AM,-2.798863,-57.067897,3,9.36300
1,Barreirinhas/MA,-2.7541271,-42.8259693,179,286.27175
1,Barreiros/PE,-8.8159644,-35.1831905,125,293.02140
D1,Barreiros/PE,-8.8159644,-35.1831905,10,23.44171
1,Barretos/SP,-20.5531437,-48.5697509,187,153.15566
D1,Barretos/SP,-20.5531437,-48.5697509,10,8.19014
1,Barrinha/SP,-21.1898849,-48.1550642,14,42.66732
D1,Barrinha/SP,-21.1898849,-48.1550642,1,3.04767
1,Barro Alto/GO,-14.9696025,-48.9190985,7,62.68470
D1,Barro Alto/GO,-14.9696025,-48.9190985,1,8.95496
1,Barro Duro/PI,-5.8180139,-42.5106589,11,156.42776
1,Barro Preto/BA,-14.8068289,-39.4727588,4,71.54355
1,Barro/CE,-7.1713587,-38.7742136,3,13.22751
1,Barrocas/BA,-11.5165,-39.099282894736845,7,43.81024
1,Barrolândia/TO,-9.837246,-48.7264346,6,106.53409
D1,Barrolândia/TO,-9.837246,-48.7264346,1,17.75568
1,Barroquinha/CE,-3.0200371,-41.1339229,48,319.63774
1,Barros Cassal/RS,-29.094938,-52.5832366,2,17.85874
D1,Barros Cassal/RS,-29.094938,-52.5832366,1,8.92937
1,Barroso/MG,-21.187222,-43.976111,2,9.61076
1,Barueri/SP,-23.5112184,-46.8764612,1107,403.74642
D1,Barueri/SP,-23.5112184,-46.8764612,115,41.94294
1,Barão de Antonina/SP,-23.6295651,-49.5632104,1,28.82675
1,Barão de Cocais/MG,-19.9452437,-43.4870298,2,6.15669
1,Barão de Cotegipe/RS,-27.6214694,-52.3765316,8,120.79118
1,Barão de Grajaú/MA,-6.7542591,-43.0263477,1,5.31350
1,Bastos/SP,-21.9222474,-50.7317727,1,4.77259
1,Bataguassu/MS,-21.715899,-52.422058,10,43.43294
1,Batalha/AL,-9.6733809,-37.1265481,9,49.36376
D1,Batalha/AL,-9.6733809,-37.1265481,1,5.48486
1,Batalha/PI,-4.022391,-42.0780926,56,208.51175
D1,Batalha/PI,-4.022391,-42.0780926,2,7.44685
1,Batatais/SP,-20.892867,-47.592149,10,15.99795
D1,Batatais/SP,-20.892867,-47.592149,1,1.59980
1,Batayporã/MS,-22.2976466,-53.2685608,6,52.96143
D1,Batayporã/MS,-22.2976466,-53.2685608,2,17.65381
1,Baturité/CE,-4.3290203,-38.8821055,45,125.87413
D1,Baturité/CE,-4.3290203,-38.8821055,8,22.37762
1,Bauru/SP,-22.3218102,-49.0705863,276,73.24491
D1,Bauru/SP,-22.3218102,-49.0705863,15,3.98070
1,Bayeux/PB,-7.1301631,-34.936532,291,300.37159
D1,Bayeux/PB,-7.1301631,-34.936532,19,19.61189
1,Baía Formosa/RN,-6.3691885,-35.0063741,4,43.14529
1,Baía da Traição/PB,-6.691258,-34.9371244,42,467.02991
D1,Baía da Traição/PB,-6.691258,-34.9371244,1,11.11976
1,Bebedouro/SP,-20.949077,-48.479083,19,24.51739
D1,Bebedouro/SP,-20.949077,-48.479083,1,1.29039
1,Beberibe/CE,-4.1810469,-38.1298101,64,119.46316
D1,Beberibe/CE,-4.1810469,-38.1298101,11,20.53273
1,Bela Cruz/CE,-3.0529129,-40.167582,202,619.80301
D1,Bela Cruz/CE,-3.0529129,-40.167582,6,18.40999
1,Bela Vista de Goiás/GO,-16.9692949,-48.9513071,28,93.41118
D1,Bela Vista de Goiás/GO,-16.9692949,-48.9513071,1,3.33611
1,Bela Vista de Minas/MG,-19.8289721,-43.0973688,2,19.50268
1,Bela Vista do Maranhão/MA,-3.7416367,-45.2514192,57,508.51994
1,Bela Vista do Paraíso/PR,-22.9948493,-51.1907996,3,19.48432
1,Bela Vista do Piauí/PI,-7.9716353,-41.8715061,1,24.90660
1,Bela Vista/MS,-22.107327,-56.5317344,2,8.12051
1,Belford Roxo/RJ,-22.7667284,-43.4033603,601,117.63416
D1,Belford Roxo/RJ,-22.7667284,-43.4033603,96,18.79015
1,Belmiro Braga/MG,-21.9486291,-43.413564,3,87.48906
D1,Belmiro Braga/MG,-21.9486291,-43.413564,1,29.16302
1,Belmonte/BA,-15.8630837,-38.8792845,5,21.43347
D1,Belmonte/BA,-15.8630837,-38.8792845,1,4.28669
1,Belo Horizonte/MG,-19.9227318,-43.9450948,1766,70.30059
D1,Belo Horizonte/MG,-19.9227318,-43.9450948,48,1.91077
1,Belo Jardim/PE,-8.3338293,-36.4176419,29,37.93875
D1,Belo Jardim/PE,-8.3338293,-36.4176419,1,1.30823
1,Belo Monte/AL,-9.8269944,-37.2787165,2,29.83294
1,Belo Oriente/MG,-19.2232523,-42.4807033,4,14.98127
1,Belo Vale/MG,-20.407778,-44.024167,1,12.96176
D1,Belo Vale/MG,-20.407778,-44.024167,1,12.96176
1,Belterra/PA,-2.636091,-54.937392,17,95.87187
D1,Belterra/PA,-2.636091,-54.937392,3,16.91857
1,Belágua/MA,-3.1604031,-43.5085052,39,522.15825
1,Belém de Maria/PE,-8.6242497,-35.8388934,1,8.28295
1,Belém do Brejo do Cruz/PB,-6.1880727,-37.5332267,1,13.62027
1,Belém do Piauí/PI,-7.3767305,-40.9712156,5,140.21312
D1,Belém do Piauí/PI,-7.3767305,-40.9712156,1,28.04262
1,Belém do São Francisco/PE,-8.7517707,-38.9625715,2,9.64832
1,Belém/AL,-9.5715351,-36.492841,3,69.06077
D1,Belém/AL,-9.5715351,-36.492841,1,23.02026
1,Belém/PA,-1.45056,-48.4682453,11509,770.99572
D1,Belém/PA,-1.45056,-48.4682453,1311,87.82478
1,Belém/PB,-6.6967586,-35.5369626,29,164.06427
1,Beneditinos/PI,-5.4565671,-42.3605061,2,19.10767
1,Benedito Leite/MA,-7.2173453,-44.5523331,2,35.51136
1,Benedito Novo/SC,-26.7840657,-49.3629511,5,42.91109
1,Benevides/PA,-1.3555577,-48.252235,751,1197.06075
D1,Benevides/PA,-1.3555577,-48.252235,23,36.66098
1,Benjamin Constant do Sul/RS,-27.5105555,-52.6007689,17,852.55767
1,Benjamin Constant/AM,-4.3782748,-70.0290603,785,1826.26093
D1,Benjamin Constant/AM,-4.3782748,-70.0290603,19,44.20249
1,Bento Fernandes/RN,-5.6926846,-35.8207423,2,36.38348
1,Bento Gonçalves/RS,-29.1654014,-51.5197627,590,489.81354
D1,Bento Gonçalves/RS,-29.1654014,-51.5197627,11,9.13212
1,Bequimão/MA,-2.4495376,-44.7884889,84,394.73684
D1,Bequimão/MA,-2.4495376,-44.7884889,5,23.49624
1,Bernardo do Mearim/MA,-4.6315929,-44.7617508,25,413.70180
1,Bertioga/SP,-23.848568,-46.139586,49,77.47158
D1,Bertioga/SP,-23.848568,-46.139586,5,7.90526
1,Bertolínia/PI,-7.6372159,-43.9540611,1,18.17851
1,Beruri/AM,-3.9007135,-61.3717319,230,1168.75858
D1,Beruri/AM,-3.9007135,-61.3717319,5,25.40780
1,Betim/MG,-19.968056,-44.198333,105,23.89949
D1,Betim/MG,-19.968056,-44.198333,5,1.13807
1,Betânia do Piauí/PI,-8.1460635,-40.7961387,1,16.11604
1,Betânia/PE,-8.2742779,-38.0351767,7,55.03577
D1,Betânia/PE,-8.2742779,-38.0351767,1,7.86225
1,Bezerros/PE,-8.2372132,-35.7558262,38,62.50206
D1,Bezerros/PE,-8.2372132,-35.7558262,2,3.28958
1,Bicas/MG,-21.7213723,-43.0604327,3,20.69822
1,Biguaçu/SC,-27.4961277,-48.6542432,18,26.28466
1,Bilac/SP,-21.403962,-50.47464,1,12.44710
1,Biquinhas/MG,-18.783611,-45.502222,1,39.76143
1,Birigui/SP,-21.2908491,-50.34144,54,43.67589
D1,Birigui/SP,-21.2908491,-50.34144,1,0.80881
1,Biritiba-Mirim/SP,-23.5697765,-46.0407456,34,104.30088
D1,Biritiba-Mirim/SP,-23.5697765,-46.0407456,2,6.13535
1,Blumenau/SC,-26.9195567,-49.0658025,607,169.93329
D1,Blumenau/SC,-26.9195567,-49.0658025,4,1.11982
1,Boa Esperança do Sul/SP,-21.9930206,-48.3917372,12,80.41279
1,Boa Esperança/ES,-18.5395472,-40.2904088,66,438.91734
D1,Boa Esperança/ES,-18.5395472,-40.2904088,3,19.95079
1,Boa Esperança/MG,-21.0901253,-45.5660195,29,72.27054
D1,Boa Esperança/MG,-21.0901253,-45.5660195,2,4.98418
1,Boa Hora/PI,-4.4094627,-42.1255341,2,29.49417
1,Boa Ventura/PB,-7.4202462,-38.2156782,1,18.63586
1,Boa Viagem/CE,-5.1261877,-39.7300055,37,67.92730
D1,Boa Viagem/CE,-5.1261877,-39.7300055,7,12.85111
1,Boa Vista da Aparecida/PR,-25.4357216,-53.4067721,10,131.73495
1,Boa Vista das Missões/RS,-27.6677983,-53.3127622,1,47.66444
1,Boa Vista do Gurupi/MA,-1.7981168,-46.3071882,10,107.67740
D1,Boa Vista do Gurupi/MA,-1.7981168,-46.3071882,2,21.53548
1,Boa Vista do Ramos/AM,-2.9716927,-57.5869819,62,322.79898
D1,Boa Vista do Ramos/AM,-2.9716927,-57.5869819,2,10.41287
1,Boa Vista do Sul/RS,-29.3510488,-51.6779679,12,431.18936
D1,Boa Vista do Sul/RS,-29.3510488,-51.6779679,1,35.93245
1,Boa Vista do Tupim/BA,-12.6605988,-40.6083594,4,21.53316
1,Boa Vista/PB,-7.2620711,-36.2415161,26,368.74202
1,Boa Vista/RR,2.8208478,-60.6719582,2357,590.41163
D1,Boa Vista/RR,2.8208478,-60.6719582,86,21.54238
1,Boca da Mata/AL,-9.6452054,-36.2116658,26,95.30442
D1,Boca da Mata/AL,-9.6452054,-36.2116658,2,7.33111
1,Boca do Acre/AM,-8.7553487,-67.3930873,377,1098.86907
D1,Boca do Acre/AM,-8.7553487,-67.3930873,5,14.57386
1,Bocaina de Minas/MG,-22.167778,-44.394722,2,39.29273
1,Bocaina/PI,-6.9445939,-41.3224599,4,88.88889
1,Bocaina/SP,-22.1421831,-48.522276,9,72.99862
D1,Bocaina/SP,-22.1421831,-48.522276,1,8.11096
1,Bocaiúva/MG,-17.1160208,-43.8122678,4,8.00336
1,Bodocó/PE,-7.777592,-39.933797,5,13.10753
1,Bofete/SP,-23.1019554,-48.2610535,5,42.62575
D1,Bofete/SP,-23.1019554,-48.2610535,1,8.52515
1,Boituva/SP,-23.2838893,-47.6738231,56,91.80779
D1,Boituva/SP,-23.2838893,-47.6738231,3,4.91827
1,Bom Conselho/PE,-9.169191,-36.685683,74,152.40763
D1,Bom Conselho/PE,-9.169191,-36.685683,1,2.05956
1,Bom Despacho/MG,-19.7375242,-45.2517288,6,11.85654
D1,Bom Despacho/MG,-19.7375242,-45.2517288,1,1.97609
1,Bom Jardim de Goiás/GO,-16.2062659,-52.172793,1,11.31094
1,Bom Jardim/MA,-3.54129,-45.606004,34,81.67187
D1,Bom Jardim/MA,-3.54129,-45.606004,2,4.80423
1,Bom Jardim/PE,-7.7961572,-35.5871696,38,96.97836
D1,Bom Jardim/PE,-7.7961572,-35.5871696,10,25.52062
1,Bom Jardim/RJ,-22.1515328,-42.4186683,14,51.00925
D1,Bom Jardim/RJ,-22.1515328,-42.4186683,2,7.28704
1,Bom Jesus da Lapa/BA,-13.250571,-43.410754,6,8.67704
1,Bom Jesus da Serra/BA,-14.3724084,-40.5047119,3,30.36437
1,Bom Jesus das Selvas/MA,-4.4878075,-46.8526639,135,396.73210
1,Bom Jesus de Goiás/GO,-18.2174587,-49.739721,4,15.86294
1,Bom Jesus do Araguaia/MT,-12.1725897,-51.5074425,2,30.39514
1,Bom Jesus do Itabapoana/RJ,-21.1341025,-41.680095,58,156.35109
D1,Bom Jesus do Itabapoana/RJ,-21.1341025,-41.680095,2,5.39142
1,Bom Jesus do Norte/ES,-21.1254776,-41.6711646,26,261.67472
1,Bom Jesus do Tocantins/PA,-5.0471796,-48.5978362,13,76.55615
1,Bom Jesus dos Perdões/SP,-23.1353864,-46.4648052,15,58.94373
1,Bom Jesus/PB,-6.8156725,-38.6551841,1,39.04725
1,Bom Jesus/PI,-9.0711644,-44.3583926,55,218.43600
1,Bom Jesus/RN,-5.9887544,-35.5821149,4,39.17728
D1,Bom Jesus/RN,-5.9887544,-35.5821149,1,9.79432
1,Bom Jesus/RS,-28.6692723,-50.4346894,32,281.96317
1,Bom Lugar/MA,-4.3728019,-45.0366054,26,159.56794
1,Bom Princípio do Piauí/PI,-3.1912777,-41.6430185,1,17.76199
D1,Bom Princípio do Piauí/PI,-3.1912777,-41.6430185,1,17.76199
1,Bom Princípio/RS,-29.489788,-51.3566782,26,184.98755
1,Bom Progresso/RS,-27.5490948,-53.8655601,4,205.97322
1,Bom Repouso/MG,-22.4657069,-46.1485376,3,28.44411
1,Bom Retiro do Sul/RS,-29.6000007,-51.9359243,55,446.13887
D1,Bom Retiro do Sul/RS,-29.6000007,-51.9359243,1,8.11162
1,Bombinhas/SC,-27.1519159,-48.4875691,10,50.58425
1,Bonfim do Piauí/PI,-9.1648678,-42.8734415,1,17.63668
1,Bonfim/MG,-20.3266626, -44.2386157,1,14.56028
D1,Bonfim/MG,-20.3266626, -44.2386157,1,14.56028
1,Bonfim/RR,3.3613818,-59.8427241,76,612.45870
D1,Bonfim/RR,3.3613818,-59.8427241,2,16.11733
1,Bonfinópolis de Minas/MG,-16.5660011,-45.98645,1,18.20499
1,Bonfinópolis/GO,-16.6172709,-48.9615701,2,20.60581
1,Bonito/MS,-21.1264766,-56.4902208,45,204.76884
1,Bonito/PA,-1.3605722,-47.3049907,93,571.04261
D1,Bonito/PA,-1.3605722,-47.3049907,2,12.28049
1,Bonito/PE,-8.4721161,-35.7314591,36,94.40394
D1,Bonito/PE,-8.4721161,-35.7314591,8,20.97865
1,Boqueirão/PB,-7.487004,-36.130887,13,73.01730
D1,Boqueirão/PB,-7.487004,-36.130887,1,5.61672
1,Boquim/SE,-11.1450175,-37.6204228,19,70.85322
1,Boquira/BA,-12.8184859,-42.7270883,6,27.89660
1,Boracéia/SP,-22.195355,-48.7801925,4,82.93593
1,Borba/AM,-4.3934778,-59.5947721,208,505.33272
D1,Borba/AM,-4.3934778,-59.5947721,11,26.72433
1,Borborema/PB,-6.8066718,-35.5990191,1,19.00057
1,Borborema/SP,-21.6212706,-49.074135,10,62.32083
1,Borda da Mata/MG,-22.274167,-46.165278,4,20.60581
1,Borebi/SP,-22.5700178,-48.9714871,3,113.07953
1,Botelhos/MG,-21.65,-46.394722,4,26.71832
1,Botucatu/SP,-22.8879628,-48.4410712,261,178.16064
D1,Botucatu/SP,-22.8879628,-48.4410712,7,4.77825
1,Botuverá/SC,-27.200749,-49.068892,5,95.31071
1,Braga/RS,-27.617348,-53.740514,2,59.64808
1,Braganey/PR,-24.8179919,-53.118506,6,110.55832
D1,Braganey/PR,-24.8179919,-53.118506,1,18.42639
1,Bragança Paulista/SP,-22.9520235,-46.5418586,214,126.87647
D1,Bragança Paulista/SP,-22.9520235,-46.5418586,12,7.11457
1,Bragança/PA,-1.0573967,-46.7635406,695,544.30400
D1,Bragança/PA,-1.0573967,-46.7635406,31,24.27831
1,Branquinha/AL,-9.2478057,-36.0152009,9,85.76329
1,Brasil Novo/PA,-3.3055853,-52.539198,39,258.51783
D1,Brasil Novo/PA,-3.3055853,-52.539198,1,6.62866
1,Brasileira/PI,-4.131182,-41.7824969,1,12.00624
1,Brasilândia/MS,-21.255575,-52.0365617,15,126.34771
D1,Brasilândia/MS,-21.255575,-52.0365617,2,16.84636
1,Brasiléia/AC,-11.0010413,-68.7487894,35,133.19126
D1,Brasiléia/AC,-11.0010413,-68.7487894,2,7.61093
1,Brasília de Minas/MG,-16.2075114,-44.430559,7,21.64034
1,Brasília/DF,-15.7934036,-47.8823172,9474,314.20093
D1,Brasília/DF,-15.7934036,-47.8823172,162,5.37266
1,Brazópolis/MG,-22.4742842,-45.6165577,7,48.41275
1,Braço do Norte/SC,-28.2728633,-49.1622712,110,328.84903
D1,Braço do Norte/SC,-28.2728633,-49.1622712,2,5.97907
1,Brejetuba/ES,-20.1465817,-41.2902303,5,40.30958
1,Brejinho de Nazaré/TO,-11.0205883,-48.5722906,1,18.19174
1,Brejinho/PE,-7.3482153,-37.28538,2,26.71297
1,Brejinho/RN,-6.1957907,-35.3583019,7,55.12245
1,Brejo Alegre/SP,-21.1671191,-50.1850393,1,34.90401
1,Brejo Grande do Araguaia/PA,-5.7011449,-48.4037308,7,94.85095
1,Brejo Grande/SE,-10.4287358,-36.4667918,2,24.07029
1,Brejo Santo/CE,-7.4909841,-38.9859152,23,46.48625
D1,Brejo Santo/CE,-7.4909841,-38.9859152,3,6.06342
1,Brejo da Madre de Deus/PE,-8.1409718,-36.3712527,77,151.74806
D1,Brejo da Madre de Deus/PE,-8.1409718,-36.3712527,2,3.94151
1,Brejo de Areia/MA,-4.3316785,-45.5833334,3,32.65128
1,Brejo do Cruz/PB,-6.32926065,-37.48746163303929,4,28.32460
D1,Brejo do Cruz/PB,-6.32926065,-37.48746163303929,1,7.08115
1,Brejo/MA,-3.6804397,-42.7529313,69,189.57606
D1,Brejo/MA,-3.6804397,-42.7529313,6,16.48488
1,Breu Branco/PA,-3.7785073,-49.5684795,53,80.24710
D1,Breu Branco/PA,-3.7785073,-49.5684795,7,10.59867
1,Breves/PA,-1.68036,-50.479085,492,479.06057
D1,Breves/PA,-1.68036,-50.479085,57,55.50092
1,Britânia/GO,-15.2427599,-51.1602061,2,34.60806
1,Brochier/RS,-29.556766,-51.5963047,2,39.41663
1,Brodowski/SP,-20.984532,-47.657217,17,68.16633
D1,Brodowski/SP,-20.984532,-47.657217,1,4.00978
1,Brotas/SP,-22.2840884,-48.1267265,4,16.39143
1,Brumadinho/MG,-20.143611,-44.2,16,39.89726
1,Brumado/BA,-14.29507325,-41.659307508575985,26,38.69336
1,Brusque/SC,-27.0964628,-48.9136323,121,89.81391
1,Bueno Brandão/MG,-22.441976,-46.3517971,3,27.27025
D1,Bueno Brandão/MG,-22.441976,-46.3517971,1,9.09008
1,Buenos Aires/PE,-7.7218931,-35.326587,14,106.42341
D1,Buenos Aires/PE,-7.7218931,-35.326587,3,22.80502
1,Buerarema/BA,-14.9571177,-39.3008035,38,207.09575
D1,Buerarema/BA,-14.9571177,-39.3008035,3,16.34966
1,Bugre/MG,-19.4257687,-42.2556,1,25.11301
1,Bujari/AC,-9.8309656,-67.9520886,43,418.85837
D1,Bujari/AC,-9.8309656,-67.9520886,1,9.74089
1,Bujaru/PA,-1.5169239,-48.0410699,115,394.75491
D1,Bujaru/PA,-1.5169239,-48.0410699,14,48.05712
1,Buri/SP,-23.79849,-48.598924,5,25.15344
1,Buritama/SP,-21.0664017,-50.1448077,16,93.32711
1,Buriti Bravo/MA,-5.8391884,-43.8367876,5,20.93452
1,Buriti do Tocantins/TO,-5.3187439,-48.2256609,12,105.74551
1,Buriti dos Lopes/PI,-3.1776723,-41.8707444,18,90.99641
D1,Buriti dos Lopes/PI,-3.1776723,-41.8707444,1,5.05536
1,Buriti dos Montes/PI,-5.3136171,-41.0971256,2,24.26007
D1,Buriti dos Montes/PI,-5.3136171,-41.0971256,1,12.13003
1,Buriti/MA,-3.9430944,-42.9244281,87,303.36844
1,Buriticupu/MA,-4.3227472,-46.4516989,470,649.54808
1,Buritirana/MA,-5.5897455,-47.0148915,109,706.41607
D1,Buritirana/MA,-5.5897455,-47.0148915,2,12.96176
1,Buritis/RO,-10.2054937,-63.8281954,17,42.87083
D1,Buritis/RO,-10.2054937,-63.8281954,1,2.52181
1,Butiá/RS,-30.1256795,-51.9692224,2,9.55064
1,Buíque/PE,-8.6239732,-37.157296,20,34.25948
D1,Buíque/PE,-8.6239732,-37.157296,1,1.71297
1,Bálsamo/SP,-20.7343722,-49.5807484,2,22.05558
0,CASO SEM LOCALIZAÇÃO DEFINIDA/AC,-9.884083190922777,-67.85119819780795,231,26.19241
D0,CASO SEM LOCALIZAÇÃO DEFINIDA/AC,-9.884083190922777,-67.85119819780795,7,0.79371
0,CASO SEM LOCALIZAÇÃO DEFINIDA/AL,-9.931093434363673,-35.609611600637464,647,19.38660
D0,CASO SEM LOCALIZAÇÃO DEFINIDA/AL,-9.931093434363673,-35.609611600637464,3,0.08989
0,CASO SEM LOCALIZAÇÃO DEFINIDA/AP,2.677150600275196,-50.477785111870624,844,99.79532
D0,CASO SEM LOCALIZAÇÃO DEFINIDA/AP,2.677150600275196,-50.477785111870624,8,0.94593
0,CASO SEM LOCALIZAÇÃO DEFINIDA/BA,-13.415069300066518,-38.14174656569957,1279,8.59944
D0,CASO SEM LOCALIZAÇÃO DEFINIDA/BA,-13.415069300066518,-38.14174656569957,32,0.21515
0,CASO SEM LOCALIZAÇÃO DEFINIDA/CE,-3.3445126297392798,-38.624961942434304,10797,118.23158
D0,CASO SEM LOCALIZAÇÃO DEFINIDA/CE,-3.3445126297392798,-38.624961942434304,97,1.06219
0,CASO SEM LOCALIZAÇÃO DEFINIDA/ES,-20.30989267097039,-39.81745156645774,835,20.77812
D0,CASO SEM LOCALIZAÇÃO DEFINIDA/ES,-20.30989267097039,-39.81745156645774,26,0.64698
0,CASO SEM LOCALIZAÇÃO DEFINIDA/GO,-16.701590966270153,-49.164524059025034,79,1.12562
D0,CASO SEM LOCALIZAÇÃO DEFINIDA/GO,-16.701590966270153,-49.164524059025034,3,0.04275
0,CASO SEM LOCALIZAÇÃO DEFINIDA/MG,-19.97049116501593,-43.8852149072783,558,2.63596
D0,CASO SEM LOCALIZAÇÃO DEFINIDA/MG,-19.97049116501593,-43.8852149072783,11,0.05196
0,CASO SEM LOCALIZAÇÃO DEFINIDA/MS,-20.391549234908513,-54.645156949758444,62,2.23103
D0,CASO SEM LOCALIZAÇÃO DEFINIDA/MS,-20.391549234908513,-54.645156949758444,1,0.03598
0,CASO SEM LOCALIZAÇÃO DEFINIDA/MT,-15.54791153961863,-56.17143998972475,380,10.90554
D0,CASO SEM LOCALIZAÇÃO DEFINIDA/MT,-15.54791153961863,-56.17143998972475,11,0.31569
0,CASO SEM LOCALIZAÇÃO DEFINIDA/PA,-0.09317078214359542,-48.0050231510481,156,1.81335
D0,CASO SEM LOCALIZAÇÃO DEFINIDA/PA,-0.09317078214359542,-48.0050231510481,42,0.48821
0,CASO SEM LOCALIZAÇÃO DEFINIDA/PB,-7.1049355696146606,-34.68696690234351,851,21.17902
D0,CASO SEM LOCALIZAÇÃO DEFINIDA/PB,-7.1049355696146606,-34.68696690234351,19,0.47286
0,CASO SEM LOCALIZAÇÃO DEFINIDA/PE,-8.121628543819208,-34.57313921302556,1221,12.77588
D0,CASO SEM LOCALIZAÇÃO DEFINIDA/PE,-8.121628543819208,-34.57313921302556,80,0.83708
0,CASO SEM LOCALIZAÇÃO DEFINIDA/PR,-25.69415946385943,-48.10141676336737,237,2.07277
D0,CASO SEM LOCALIZAÇÃO DEFINIDA/PR,-25.69415946385943,-48.10141676336737,8,0.06997
0,CASO SEM LOCALIZAÇÃO DEFINIDA/RJ,-23.210238986465157,-43.12864305824042,4467,25.87324
0,CASO SEM LOCALIZAÇÃO DEFINIDA/RN,-5.749310788669161,-34.95302586257457,957,27.28942
D0,CASO SEM LOCALIZAÇÃO DEFINIDA/RN,-5.749310788669161,-34.95302586257457,40,1.14062
0,CASO SEM LOCALIZAÇÃO DEFINIDA/RR,2.813328208465927,-60.663338675861986,238,39.28942
D0,CASO SEM LOCALIZAÇÃO DEFINIDA/RR,2.813328208465927,-60.663338675861986,3,0.49524
0,CASO SEM LOCALIZAÇÃO DEFINIDA/RS,-30.50647488532064,-49.906261466443524,399,3.50700
D0,CASO SEM LOCALIZAÇÃO DEFINIDA/RS,-30.50647488532064,-49.906261466443524,2,0.01758
0,CASO SEM LOCALIZAÇÃO DEFINIDA/SC,-27.675643660562308,-48.18313219398259,299,4.17319
D0,CASO SEM LOCALIZAÇÃO DEFINIDA/SC,-27.675643660562308,-48.18313219398259,2,0.02791
0,CASO SEM LOCALIZAÇÃO DEFINIDA/SP,-24.30968974555485,-46.21366504207253,5660,12.32604
D0,CASO SEM LOCALIZAÇÃO DEFINIDA/SP,-24.30968974555485,-46.21366504207253,257,0.55968
0,CASO SEM LOCALIZAÇÃO DEFINIDA/TO,-10.213012114749148,-48.40023803990334,370,23.52394
D0,CASO SEM LOCALIZAÇÃO DEFINIDA/TO,-10.213012114749148,-48.40023803990334,1,0.06358
1,Caapiranga/AM,-3.3188884,-61.2096404,81,619.21871
D1,Caapiranga/AM,-3.3188884,-61.2096404,2,15.28935
1,Caaporã/PB,-7.510234,-34.9154114,323,1479.75078
D1,Caaporã/PB,-7.510234,-34.9154114,4,18.32509
1,Caarapó/MS,-22.6349267,-54.8240903,3,9.94233
1,Cabaceiras do Paraguaçu/BA,-12.5377868,-39.1901339,1,5.31717
1,Cabaceiras/PB,-7.4899156,-36.2860501,1,17.82214
1,Cabeceiras do Piauí/PI,-4.4733665,-42.3098716,1,9.44644
1,Cabeceiras/GO,-15.7995459,-46.9264991,1,12.51095
D1,Cabeceiras/GO,-15.7995459,-46.9264991,1,12.51095
1,Cabedelo/PB,-6.97324,-34.8351609,691,1020.13700
D1,Cabedelo/PB,-6.97324,-34.8351609,7,10.33424
1,Cabo Frio/RJ,-22.8804369,-42.0189227,311,137.29169
D1,Cabo Frio/RJ,-22.8804369,-42.0189227,17,7.50469
1,Cabo de Santo Agostinho/PE,-8.2838945,-35.0320984,605,292.20277
D1,Cabo de Santo Agostinho/PE,-8.2838945,-35.0320984,86,41.53626
1,Cabreúva/SP,-23.3075813,-47.1324417,49,98.57767
D1,Cabreúva/SP,-23.3075813,-47.1324417,4,8.04716
1,Cabrobó/PE,-8.5083701,-39.3106961,3,8.76655
D1,Cabrobó/PE,-8.5083701,-39.3106961,1,2.92218
1,Cacaulândia/RO,-10.3380043,-62.9007231,2,32.10273
1,Cachoeira Dourada/GO,-18.4934204,-49.481062,2,24.79236
1,Cachoeira Dourada/MG,-18.517136,-49.5002062,2,74.29421
1,Cachoeira Grande/MA,-2.9290492,-44.0573223,15,159.04994
D1,Cachoeira Grande/MA,-2.9290492,-44.0573223,2,21.20666
1,Cachoeira Paulista/SP,-22.666498,-45.015384,6,18.00342
1,Cachoeira de Minas/MG,-22.3554043,-45.7796324,1,8.66026
1,Cachoeira de Pajeú/MG,-15.965833,-41.496666,1,10.62473
1,Cachoeira do Arari/PA,-1.0143572,-48.9621089,61,256.65839
D1,Cachoeira do Arari/PA,-1.0143572,-48.9621089,9,37.86763
1,Cachoeira do Piriá/PA,-1.7599443,-46.5446954,12,35.39823
1,Cachoeira do Sul/RS,-30.0474778,-52.8905413,25,30.41326
1,Cachoeira dos Índios/PB,-6.9259193,-38.6742159,5,48.80906
D1,Cachoeira dos Índios/PB,-6.9259193,-38.6742159,1,9.76181
1,Cachoeira/BA,-12.5998256,-38.9665918,5,14.93875
1,Cachoeiras de Macacu/RJ,-22.4626861,-42.6534414,108,183.24652
D1,Cachoeiras de Macacu/RJ,-22.4626861,-42.6534414,10,16.96727
1,Cachoeirinha/PE,-8.4906364,-36.2338963,31,152.10991
D1,Cachoeirinha/PE,-8.4906364,-36.2338963,3,14.72031
1,Cachoeirinha/RS,-29.9493353,-51.0898927,85,65.23758
1,Cachoeirinha/TO,-6.118647,-47.9208885,8,351.64835
1,Cachoeiro de Itapemirim/ES,-20.848084,-41.11129,256,122.50445
D1,Cachoeiro de Itapemirim/ES,-20.848084,-41.11129,11,5.26386
1,Cacimba de Areia/PB,-7.1288513,-37.1575194,1,27.15915
1,Cacimba de Dentro/PB,-6.6425101,-35.7929304,24,139.64043
1,Cacimbas/PB,-7.2125451,-37.0593398,2,27.88234
1,Cacimbinhas/AL,-9.401212,-36.991082,7,64.46859
D1,Cacimbinhas/AL,-9.401212,-36.991082,1,9.20980
1,Cacique Doble/RS,-27.7700117,-51.6616409,2,39.48667
1,Cacoal/RO,-11.4333,-61.4420502,51,59.74765
1,Caconde/SP,-21.527995,-46.643659,1,5.26732
1,Caculé/BA,-14.4990734,-42.2233006,1,4.31593
1,Caetanos/BA,-14.3387456,-40.9085971,2,13.75327
1,Caetanópolis/MG,-19.2947496,-44.4138386,3,25.80867
1,Caetité/BA,-14.0691776,-42.4852428,2,3.92349
1,Caeté/MG,-19.897777,-43.670278,7,15.65365
1,Caetés/PE,-8.7728788,-36.6255835,29,100.90817
D1,Caetés/PE,-8.7728788,-36.6255835,2,6.95918
1,Cafeara/PR,-22.78905,-51.714195,1,34.08316
1,Cafelândia/PR,-24.6176963,-53.3218057,2,11.03753
1,Caiabu/SP,-22.0143038,-51.2356597,1,23.86065
D1,Caiabu/SP,-22.0143038,-51.2356597,1,23.86065
1,Caiapônia/GO,-16.9538779,-51.8090761,1,5.28737
1,Caibi/SC,-27.0751925,-53.2502133,6,97.59271
1,Caicó/RN,-6.4594544,-37.0971911,34,50.03532
D1,Caicó/RN,-6.4594544,-37.0971911,1,1.47163
1,Caieiras/SP,-23.3644621,-46.7484765,289,284.81325
D1,Caieiras/SP,-23.3644621,-46.7484765,31,30.55090
1,Cairu/BA,-13.4860505,-39.0455744,16,88.02817
1,Caiçara do Norte/RN,-5.0645017,-36.0561226,5,76.34753
1,Caiçara do Rio do Vento/RN,-5.757968,-36.00089,7,190.01086
D1,Caiçara do Rio do Vento/RN,-5.757968,-36.00089,1,27.14441
1,Caiçara/PB,-6.6146866,-35.4681434,22,305.51312
D1,Caiçara/PB,-6.6146866,-35.4681434,1,13.88696
1,Cajamar/SP,-23.3561111,-46.8769444,244,317.70420
D1,Cajamar/SP,-23.3561111,-46.8769444,22,28.64546
1,Cajapió/MA,-2.8778715,-44.6746871,4,35.78778
D1,Cajapió/MA,-2.8778715,-44.6746871,1,8.94694
1,Cajari/MA,-3.3213076,-45.0118757,112,577.94520
1,Cajati/SP,-24.7272376,-48.1077914,17,59.54674
1,Cajazeiras do Piauí/PI,-6.794271,-42.3935024,1,28.09778
1,Cajazeiras/PB,-6.8897849,-38.5570389,77,124.20757
D1,Cajazeiras/PB,-6.8897849,-38.5570389,5,8.06543
1,Cajazeirinhas/PB,-6.961442,-37.7993733,1,31.31851
1,Cajobi/SP,-20.8776238,-48.8106972,4,37.94346
D1,Cajobi/SP,-20.8776238,-48.8106972,1,9.48587
1,Cajueiro/AL,-9.399589,-36.1524309,17,79.94733
D1,Cajueiro/AL,-9.399589,-36.1524309,1,4.70278
1,Cajuri/MG,-20.7901414,-42.7954489,1,25.08151
1,Cajuru/SP,-21.2759978,-47.3046035,4,15.28643
D1,Cajuru/SP,-21.2759978,-47.3046035,1,3.82161
1,Caldas Brandão/PB,-7.1027959,-35.3254676,15,249.41802
1,Caldas Novas/GO,-17.745,-48.625,12,13.16338
D1,Caldas Novas/GO,-17.745,-48.625,1,1.09695
1,Caldas/MG,-21.923611,-46.386111,14,96.68508
1,Caldeirão Grande do Piauí/PI,-7.3310393,-40.6374433,3,51.93906
1,Caldeirão Grande/BA,-11.0208483,-40.3041387,3,22.51069
1,Calçado/PE,-8.7413446,-36.3351787,1,9.04732
1,Calçoene/AP,2.4981757,-50.9539503,60,539.71395
D1,Calçoene/AP,2.4981757,-50.9539503,1,8.99523
1,Camacan/BA,-15.4166631,-39.4930088,45,140.67775
1,Camamu/BA,-13.9438142,-39.1060917,6,16.98947
1,Camanducaia/MG,-22.755278,-46.144444,52,238.86082
D1,Camanducaia/MG,-22.755278,-46.144444,1,4.59348
1,Camapuã/MS,-19.5291747,-54.0434641,2,14.58683
1,Camaquã/RS,-30.8524752,-51.8075619,13,19.61938
1,Camaragibe/PE,-8.0213832,-34.9810768,867,549.33218
D1,Camaragibe/PE,-8.0213832,-34.9810768,62,39.28327
1,Camargo/RS,-28.5865661,-52.2031474,6,219.53897
1,Camaçari/BA,-12.6998188,-38.3260762,186,62.17991
D1,Camaçari/BA,-12.6998188,-38.3260762,4,1.33720
1,Cambará/PR,-23.042273,-50.075281,1,3.94322
1,Camboriú/SC,-27.0273601,-48.6535657,131,157.85225
D1,Camboriú/SC,-27.0273601,-48.6535657,5,6.02489
1,Cambuci/RJ,-21.5749919,-41.9107833,32,206.38504
1,Cambuquira/MG,-21.853056,-45.2953619,3,23.41189
1,Cambuí/MG,-22.6122501,-46.0572137,36,121.82329
1,Cambé/PR,-23.2782035,-51.2779583,39,36.60837
D1,Cambé/PR,-23.2782035,-51.2779583,1,0.93868
1,Cametá/PA,-2.242949,-49.497885,1179,855.02937
D1,Cametá/PA,-2.242949,-49.497885,38,27.55820
1,Camocim de São Félix/PE,-8.3616757,-35.7638903,24,127.89768
D1,Camocim de São Félix/PE,-8.3616757,-35.7638903,1,5.32907
1,Camocim/CE,-2.9009918,-40.8427389,116,182.21517
D1,Camocim/CE,-2.9009918,-40.8427389,7,10.99574
1,Campanha/MG,-21.8361108,-45.401986,1,6.00060
1,Campestre de Goiás/GO,-16.7624179,-49.69497,1,27.54821
1,Campestre do Maranhão/MA,-6.1729113,-47.3640512,79,549.60345
D1,Campestre do Maranhão/MA,-6.1729113,-47.3640512,1,6.95701
1,Campestre/AL,-8.8481634,-35.5660033,14,201.84544
D1,Campestre/AL,-8.8481634,-35.5660033,2,28.83506
1,Campestre/MG,-19.6142116,-43.219378,1,4.74947
1,Campina Grande do Sul/PR,-25.3046032,-49.0545355,33,76.23360
D1,Campina Grande do Sul/PR,-25.3046032,-49.0545355,3,6.93033
1,Campina Grande/PB,-7.2246743,-35.8771292,1288,314.35259
D1,Campina Grande/PB,-7.2246743,-35.8771292,15,3.66094
1,Campina Verde/MG,-19.535277,-49.486389,3,15.19372
1,Campina da Lagoa/PR,-24.5937926,-52.8038965,1,7.04126
D1,Campina da Lagoa/PR,-24.5937926,-52.8038965,1,7.04126
1,Campina do Monte Alegre/SP,-23.5935653,-48.4801876,2,33.20053
1,Campinas do Piauí/PI,-7.6593687,-41.8814875,1,17.81578
1,Campinas do Sul/RS,-27.7167968,-52.6257885,4,73.34067
1,Campinas/SP,-22.90556,-47.06083,1627,135.12470
D1,Campinas/SP,-22.90556,-47.06083,69,5.73055
1,Campinorte/GO,-14.3136699,-49.1510931,3,23.76049
1,Campo Alegre de Goiás/GO,-17.6337896,-47.779291,2,26.35393
1,Campo Alegre de Lourdes/BA,-9.5160326,-43.0101338,9,31.25217
1,Campo Alegre do Fidalgo/PI,-8.3753852,-41.8364191,1,19.82161
1,Campo Alegre/AL,-9.7798607,-36.3575793,21,36.80143
D1,Campo Alegre/AL,-9.7798607,-36.3575793,1,1.75245
1,Campo Belo/MG,-20.8975,-45.277223,5,9.25429
1,Campo Bom/RS,-29.674694,-51.060601,6,8.99388
1,Campo Bonito/PR,-25.0328004,-52.992976,8,208.71380
1,Campo Erê/SC,-26.3947432,-53.0790495,1,11.72883
1,Campo Formoso/BA,-10.51055,-40.320031,1,1.40438
1,Campo Grande do Piauí/PI,-7.1327559,-41.0381164,17,286.05082
1,Campo Grande/AL,-9.9725,-36.74791447368421,10,104.62440
D1,Campo Grande/AL,-9.9725,-36.74791447368421,1,10.46244
1,Campo Grande/MS,-20.4640173,-54.6162947,278,31.02741
D1,Campo Grande/MS,-20.4640173,-54.6162947,6,0.66966
1,Campo Largo do Piauí/PI,-3.8104731,-42.6288333,1,13.73815
1,Campo Largo/PR,-25.4597726,-49.5270851,37,28.02988
D1,Campo Largo/PR,-25.4597726,-49.5270851,2,1.51513
1,Campo Limpo Paulista/SP,-23.207791,-46.788919,68,80.33077
D1,Campo Limpo Paulista/SP,-23.207791,-46.788919,8,9.45068
1,Campo Magro/PR,-25.3691533,-49.4496921,2,6.82175
1,Campo Maior/PI,-4.8339574,-42.1739786,130,277.58205
D1,Campo Maior/PI,-4.8339574,-42.1739786,3,6.40574
1,Campo Mourão/PR,-24.046329,-52.37802,50,52.70981
D1,Campo Mourão/PR,-24.046329,-52.37802,4,4.21678
1,Campo Novo de Rondônia/RO,-10.5704235,-63.6199511,1,7.07264
D1,Campo Novo de Rondônia/RO,-10.5704235,-63.6199511,1,7.07264
1,Campo Novo do Parecis/MT,-13.658735,-57.890723,9,25.45249
1,Campo Novo/RS,-28.91500235,-52.331375687737626,1,22.30152
1,Campo Redondo/RN,-6.2420373,-36.1830606,4,35.66016
1,Campo Verde/MT,-15.5430787,-55.1590511,23,52.22406
1,Campo do Brito/SE,-10.7496246,-37.4942276,8,44.17693
1,Campo do Tenente/PR,-25.9814143,-49.684518,1,12.54548
1,Campos Altos/MG,-19.696389,-46.171389,4,25.87155
1,Campos Belos/GO,-13.0349839,-46.768112,17,85.48298
D1,Campos Belos/GO,-13.0349839,-46.768112,1,5.02841
1,Campos Gerais/MG,-21.2333342,-45.7584127,4,13.90144
1,Campos Lindos/TO,-7.9740597,-46.8023881,1,9.88533
1,Campos Novos Paulista/SP,-22.601952,-49.998726,1,20.14099
1,Campos Novos/SC,-27.3962904,-51.2224397,3,8.27723
1,Campos Sales/CE,-7.0742675,-40.3740367,29,105.73908
1,Campos de Júlio/MT,-13.7223646,-59.2645296,1,14.51168
1,Campos do Jordão/SP,-22.7395263,-45.5912829,31,59.51467
D1,Campos do Jordão/SP,-22.7395263,-45.5912829,1,1.91983
1,Campos dos Goytacazes/RJ,-21.7558619,-41.3326895,662,130.43101
D1,Campos dos Goytacazes/RJ,-21.7558619,-41.3326895,26,5.12267
1,Camutanga/PE,-7.4092965,-35.2738166,18,210.50170
D1,Camutanga/PE,-7.4092965,-35.2738166,3,35.08362
1,Cana Verde/MG,-21.021308,-45.1817881,6,107.08549
1,Cananéia/SP,-25.0104609,-47.9315628,15,119.61722
D1,Cananéia/SP,-25.0104609,-47.9315628,2,15.94896
1,Canapi/AL,-9.1173572,-37.6011704,3,16.92811
D1,Canapi/AL,-9.1173572,-37.6011704,1,5.64270
1,Canarana/BA,-11.6870151,-41.7683675,5,19.10147
1,Canarana/MT,-13.5564602,-52.2691167,4,18.53654
1,Canas/SP,-22.7029347,-45.0526508,1,19.46283
1,Canavieiras/BA,-15.61621745,-39.08485321304444,25,80.38844
D1,Canavieiras/BA,-15.61621745,-39.08485321304444,1,3.21554
1,Canaã dos Carajás/PA,-6.5296837,-49.8516592,813,2192.26102
D1,Canaã dos Carajás/PA,-6.5296837,-49.8516592,12,32.35810
1,Candeias do Jamari/RO,-8.7949939,-63.7018851,76,284.71884
D1,Candeias do Jamari/RO,-8.7949939,-63.7018851,2,7.49260
1,Candeias/BA,-12.6693806,-38.5406462,158,181.45069
D1,Candeias/BA,-12.6693806,-38.5406462,1,1.14842
1,Candeias/MG,-20.7676161,-45.2763777,4,26.87089
1,Candelária/RS,-29.668391,-52.789495,7,22.31787
1,Candiota/RS,-31.5451894,-53.719538,1,10.43406
1,Canela/RS,-29.3624657,-50.8134204,4,8.88928
D1,Canela/RS,-29.3624657,-50.8134204,1,2.22232
1,Canelinha/SC,-27.2660341,-48.7666708,3,24.50980
1,Canguaretama/RN,-6.3751942,-35.137463,52,151.70965
D1,Canguaretama/RN,-6.3751942,-35.137463,7,20.42245
1,Canguçu/RS,-31.398276,-52.6773522,16,28.54849
1,Canhoba/SE,-10.1373681,-36.9710796,1,24.95010
1,Canhotinho/PE,-8.876519,-36.197935,10,40.31608
D1,Canhotinho/PE,-8.876519,-36.197935,1,4.03161
1,Canindé de São Francisco/SE,-9.6597475,-37.7904456,31,103.67893
D1,Canindé de São Francisco/SE,-9.6597475,-37.7904456,2,6.68896
1,Canindé/CE,-4.3547946,-39.3108516,298,387.02807
D1,Canindé/CE,-4.3547946,-39.3108516,9,11.68877
1,Canoas/RS,-29.9216045,-51.1799525,103,29.71588
D1,Canoas/RS,-29.9216045,-51.1799525,6,1.73102
1,Canoinhas/SC,-26.176591,-50.395001,28,51.46964
1,Cansanção/BA,-10.6671448,-39.498199,5,14.35379
1,Cantagalo/RJ,-21.9811325,-42.3682522,7,34.70157
D1,Cantagalo/RJ,-21.9811325,-42.3682522,1,4.95737
1,Cantanhede/MA,-3.6355005,-44.3778738,105,477.38122
D1,Cantanhede/MA,-3.6355005,-44.3778738,1,4.54649
1,Canto do Buriti/PI,-8.1112473,-42.944844,4,18.87950
D1,Canto do Buriti/PI,-8.1112473,-42.944844,1,4.71988
1,Cantá/RR,2.60994,-60.605827,106,578.12926
D1,Cantá/RR,2.60994,-60.605827,3,16.36215
1,Canudos do Vale/RS,-29.3240418,-52.2348494,4,233.10023
1,Canutama/AM,-6.5330019,-64.3834966,27,172.75577
1,Canápolis/MG,-18.7228793,-49.2016329,1,8.23045
1,Capanema/PA,-1.1933054,-47.1828679,319,462.13800
D1,Capanema/PA,-1.1933054,-47.1828679,32,46.35867
1,Capanema/PR,-25.6704878,-53.8083036,4,20.91613
1,Caparaó/MG,-20.5232726,-41.9049984,1,18.38911
1,Capela de Santana/RS,-29.6926603,-51.3206659,1,8.37521
1,Capela do Alto Alegre/BA,-11.6703944,-39.8362745,2,17.18656
1,Capela do Alto/SP,-23.4704798,-47.7352309,34,164.20361
1,Capela/AL,-9.415041,-36.082583,70,410.48496
1,Capela/SE,-10.50494,-37.0552566,23,67.22591
1,Capetinga/MG,-20.6193382,-47.0577418,1,14.45087
1,Capim Branco/MG,-19.548333,-44.133056,2,20.50441
1,Capim Grosso/BA,-11.3793228,-40.0112095,16,52.18185
D1,Capim Grosso/BA,-11.3793228,-40.0112095,3,9.78410
1,Capim/PB,-6.9174091,-35.1720326,34,521.23256
D1,Capim/PB,-6.9174091,-35.1720326,1,15.33037
1,Capinzal do Norte/MA,-4.7304006,-44.3249063,75,685.93378
1,Capinzal/SC,-27.3440651,-51.6110403,2,8.75350
1,Capinópolis/MG,-18.682778,-49.569723,1,6.18314
1,Capistrano/CE,-4.4644692,-38.8956734,103,580.67426
D1,Capistrano/CE,-4.4644692,-38.8956734,4,22.55046
1,Capitão Enéas/MG,-16.3236018,-43.7154584,8,52.51411
1,Capitão Gervásio Oliveira/PI,-8.4954657,-41.8169342,2,48.78049
1,Capitão Leônidas Marques/PR,-25.481645,-53.611238,2,12.67427
1,Capitão Poço/PA,-1.7447162,-47.0638495,250,460.37972
D1,Capitão Poço/PA,-1.7447162,-47.0638495,14,25.78126
1,Capitão/RS,-29.2718294,-51.9869716,7,253.89917
1,Capitólio/MG,-20.6142437,-46.0487652,2,23.16960
D1,Capitólio/MG,-20.6142437,-46.0487652,1,11.58480
1,Capivari de Baixo/SC,-28.449773,-48.963144,24,96.49793
1,Capivari/SP,-22.995144,-47.50715,3,5.37943
1,Capixaba/AC,-10.5741345,-67.6759719,36,306.82690
1,Capoeiras/PE,-8.7386788,-36.6268109,7,34.91620
D1,Capoeiras/PE,-8.7386788,-36.6268109,1,4.98803
1,Capão Bonito/SP,-24.0048759,-48.3489848,17,36.06432
D1,Capão Bonito/SP,-24.0048759,-48.3489848,4,8.48572
1,Capão da Canoa/RS,-29.7542937,-50.0215684,13,24.50565
D1,Capão da Canoa/RS,-29.7542937,-50.0215684,1,1.88505
1,Capão do Leão/RS,-31.766133,-52.5013148,1,3.94415
1,Caracaraí/RR,1.827598,-61.125389,16,72.97273
1,Caracol/PI,-9.2804898,-43.3284924,2,18.32173
1,Caraguatatuba/SP,-23.62028,-45.41306,151,124.24711
D1,Caraguatatuba/SP,-23.62028,-45.41306,4,3.29131
1,Carambeí/PR,-24.9513298,-50.1171293,1,4.27077
1,Carandaí/MG,-20.9523934,-43.8043903,2,7.84283
1,Carangola/MG,-20.733056,-42.029445,60,181.81818
1,Carapebus/RJ,-22.1869969,-41.6633764,14,85.88430
D1,Carapebus/RJ,-22.1869969,-41.6633764,1,6.13459
1,Carapicuíba/SP,-23.5234673,-46.8406808,964,240.44277
D1,Carapicuíba/SP,-23.5234673,-46.8406808,76,18.95607
1,Caratinga/MG,-19.7900887,-42.140533,23,24.98316
1,Carauari/AM,-4.8766426,-66.8961433,217,766.94706
D1,Carauari/AM,-4.8766426,-66.8961433,2,7.06864
1,Carazinho/RS,-28.2981634,-52.7942363,40,64.40187
1,Caraíbas/BA,-14.72496,-41.2566163,1,11.17194
1,Caraúbas do Piauí/PI,-3.4757229,-41.8431178,2,34.08316
1,Caraúbas/RN,-5.7889323,-37.5548751,33,161.03060
1,Carbonita/MG,-17.5308667,-43.0136207,1,10.63264
1,Cardeal da Silva/BA,-11.9428154,-37.9494462,4,43.03389
1,Cardoso Moreira/RJ,-21.4894916,-41.6152776,18,140.37277
1,Cardoso/SP,-20.080447,-49.9139767,1,8.11293
1,Careaçu/MG,-22.0440585,-45.6949091,1,14.79947
1,Careiro da Várzea/AM,-3.197024,-59.8259104,50,165.42597
D1,Careiro da Várzea/AM,-3.197024,-59.8259104,1,3.30852
1,Careiro/AM,-3.8185277,-60.3616505,642,1695.31807
D1,Careiro/AM,-3.8185277,-60.3616505,13,34.32887
1,Cariacica/ES,-20.263202,-40.416549,1699,445.59844
D1,Cariacica/ES,-20.263202,-40.416549,88,23.07985
1,Caridade/CE,-4.2316487,-39.1946515,34,150.79611
D1,Caridade/CE,-4.2316487,-39.1946515,7,31.04626
1,Carira/SE,-10.358303,-37.701473,4,18.11430
1,Cariri do Tocantins/TO,-11.8882727,-49.1604216,50,1141.03149
D1,Cariri do Tocantins/TO,-11.8882727,-49.1604216,1,22.82063
1,Caririaçu/CE,-7.0417053,-39.2835527,11,40.79362
D1,Caririaçu/CE,-7.0417053,-39.2835527,1,3.70851
1,Cariré/CE,-3.948584,-40.476028,67,363.18300
1,Cariús/CE,-6.5348688,-39.4966658,2,10.69576
D1,Cariús/CE,-6.5348688,-39.4966658,1,5.34788
1,Carlos Barbosa/RS,-29.2978372,-51.5005613,148,496.09493
D1,Carlos Barbosa/RS,-29.2978372,-51.5005613,1,3.35199
1,Carlos Chagas/MG,-21.744351,-43.3908675,1,5.30870
1,Carmo da Cachoeira/MG,-21.460556,-45.223334,1,8.21693
1,Carmo da Mata/MG,-20.558334,-44.8703774,1,8.71384
1,Carmo do Cajuru/MG,-20.184444,-44.770834,39,173.50298
D1,Carmo do Cajuru/MG,-20.184444,-44.770834,2,8.89759
1,Carmo do Paranaíba/MG,-18.9992327,-46.306916,5,16.48587
1,Carmo do Rio Claro/MG,-20.973315,-46.1186754,1,4.71143
1,Carmo do Rio Verde/GO,-15.3549139,-49.707975,3,29.75600
1,Carmo/RJ,-21.9341749,-42.6091737,21,111.14051
1,Carmolândia/TO,-7.033804,-48.3951295,1,38.75969
1,Carmópolis de Minas/MG,-20.541224,-44.6350611,13,67.16611
1,Carmópolis/SE,-10.64835,-36.98493,14,84.16496
D1,Carmópolis/SE,-10.64835,-36.98493,1,6.01178
1,Carnaubais/RN,-5.3383681,-36.8335566,11,102.23999
1,Carnaubal/CE,-4.1611842,-40.9412317,24,136.31716
1,Carnaubeira da Penha/PE,-8.3192809,-38.7435891,4,30.93102
D1,Carnaubeira da Penha/PE,-8.3192809,-38.7435891,1,7.73276
1,Carnaíba/PE,-7.805964,-37.7947314,14,71.60759
D1,Carnaíba/PE,-7.805964,-37.7947314,4,20.45931
1,Carnaúba dos Dantas/RN,-6.5560588,-36.5930811,2,24.44988
D1,Carnaúba dos Dantas/RN,-6.5560588,-36.5930811,1,12.22494
1,Carneiros/AL,-9.4832948,-37.3757121,10,110.12003
1,Caroebe/RR,0.8812315,-59.6932274,54,531.02567
D1,Caroebe/RR,0.8812315,-59.6932274,1,9.83381
1,Carolina/MA,-7.3313437,-47.4738762,31,127.45662
1,Carpina/PE,-7.8459151,-35.2538861,107,127.92769
D1,Carpina/PE,-7.8459151,-35.2538861,17,20.32496
1,Carrapateira/PB,-7.0395225,-38.3432281,1,37.60812
1,Caruaru/PE,-8.2829702,-35.9722852,335,92.76746
D1,Caruaru/PE,-8.2829702,-35.9722852,33,9.13829
1,Carutapera/MA,-1.2016638,-46.0205618,81,340.23607
D1,Carutapera/MA,-1.2016638,-46.0205618,9,37.80401
1,Casa Branca/SP,-21.7743137,-47.0852175,3,9.87492
1,Casca/RS,-28.5634054,-51.9741902,5,55.36485
1,Cascalho Rico/MG,-18.579344,-47.875774,1,32.52033
1,Cascavel/CE,-4.129666,-38.241178,159,221.62441
D1,Cascavel/CE,-4.129666,-38.241178,14,19.51410
1,Cascavel/PR,-24.9554996,-53.4560544,407,123.91385
D1,Cascavel/PR,-24.9554996,-53.4560544,7,2.13120
1,Caseara/TO,-9.273159,-49.9576837,1,18.62544
1,Caseiros/RS,-28.2721149,-51.6873536,2,62.46096
1,Casimiro de Abreu/RJ,-22.4809932,-42.2039976,104,235.37932
D1,Casimiro de Abreu/RJ,-22.4809932,-42.2039976,6,13.57958
1,Casinhas/PE,-7.744698,-35.7250923,4,27.89206
1,Casserengue/PB,-6.779538,-35.817875,7,93.73326
1,Castanhal/PA,-1.2927031,-47.9223903,670,333.67697
D1,Castanhal/PA,-1.2927031,-47.9223903,78,38.84598
1,Castelo do Piauí/PI,-5.3230426,-41.5546185,9,45.64820
1,Castelo/ES,-20.6034476,-41.2033505,19,50.62077
D1,Castelo/ES,-20.6034476,-41.2033505,1,2.66425
1,Castilho/SP,-20.8695636,-51.4877792,5,23.80272
D1,Castilho/SP,-20.8695636,-51.4877792,1,4.76054
1,Castro Alves/BA,-12.7616941,-39.4281088,17,64.72738
D1,Castro Alves/BA,-12.7616941,-39.4281088,1,3.80749
1,Castro/PR,-24.794072,-49.9972914,4,5.59566
1,Cataguases/MG,-21.387426,-42.6957219,37,49.25256
D1,Cataguases/MG,-21.387426,-42.6957219,2,2.66230
1,Catalão/GO,-18.1702546,-47.9447082,19,17.45954
1,Catanduva/SP,-21.1331035,-48.9712817,109,89.44544
D1,Catanduva/SP,-21.1331035,-48.9712817,8,6.56480
1,Catanduvas/SC,-27.0689719,-51.660158,13,119.69432
1,Catarina/CE,-6.1341578,-39.8795321,15,72.47077
1,Catas Altas/MG,-20.0744,-43.4075,8,148.80952
1,Catende/PE,-8.6900588,-35.748470825,95,221.48652
D1,Catende/PE,-8.6900588,-35.748470825,8,18.65150
1,Catiguá/SP,-21.0491485,-49.0578923,1,12.81394
1,Catingueira/PB,-7.120081,-37.60638,3,60.82725
1,Catolé do Rocha/PB,-6.340625,-37.746967,38,124.40254
D1,Catolé do Rocha/PB,-6.340625,-37.746967,2,6.54750
1,Catu/BA,-12.351274,-38.379108,18,32.90436
D1,Catu/BA,-12.351274,-38.379108,1,1.82802
1,Catuji/MG,-17.3024568,-41.5168387,5,79.22675
1,Catunda/CE,-4.6494224,-40.2002603,4,38.67724
1,Caturaí/GO,-16.4473559,-49.4919149,1,19.72387
1,Caturité/PB,-7.4199652,-36.0207132,11,226.71063
1,Caucaia/CE,-3.7300563,-38.6593082,1304,360.81904
D1,Caucaia/CE,-3.7300563,-38.6593082,78,21.58273
1,Caxambu do Sul/SC,-27.1615046,-52.8796675,27,741.35091
D1,Caxambu do Sul/SC,-27.1615046,-52.8796675,1,27.45744
1,Caxambu/MG,-21.9770359,-44.9318289,8,36.94126
D1,Caxambu/MG,-21.9770359,-44.9318289,1,4.61766
1,Caxias do Sul/RS,-29.1684796,-51.1793861,150,29.35961
D1,Caxias do Sul/RS,-29.1684796,-51.1793861,4,0.78292
1,Caxias/MA,-4.8654201,-43.353664,96,58.22416
D1,Caxias/MA,-4.8654201,-43.353664,3,1.81951
1,Caçador/SC,-26.77567,-51.0120041,20,25.44691
D1,Caçador/SC,-26.77567,-51.0120041,1,1.27235
1,Caçapava do Sul/RS,-30.5113286,-53.4916761,9,26.76660
D1,Caçapava do Sul/RS,-30.5113286,-53.4916761,1,2.97407
1,Caçapava/SP,-23.099204,-45.707645,44,46.67791
D1,Caçapava/SP,-23.099204,-45.707645,3,3.18258
1,Caçu/GO,-18.5637222,-51.1369685,12,74.95784
1,Caém/BA,-11.0909658,-40.4322187,3,32.56268
1,Ceará-Mirim/RN,-5.633588,-35.4248407,78,106.12678
D1,Ceará-Mirim/RN,-5.633588,-35.4248407,7,9.52420
1,Cedral/MA,-2.000269,-44.528114,16,149.88290
1,Cedral/SP,-20.9028433,-49.2699665,3,32.47808
1,Cedro de São João/SE,-10.2506778,-36.8816067,28,474.81770
1,Cedro/CE,-6.6065382,-39.0599487,6,23.47693
D1,Cedro/CE,-6.6065382,-39.0599487,1,3.91282
1,Cedro/PE,-7.7186318,-39.2363385,3,25.40866
1,Centenário do Sul/PR,-22.821497,-51.5951456,4,36.94468
1,Central do Maranhão/MA,-2.1967253,-44.8290757,6,69.18021
1,Centralina/MG,-18.5843349,-49.1954739,9,86.95652
D1,Centralina/MG,-18.5843349,-49.1954739,1,9.66184
1,Centro Novo do Maranhão/MA,-2.1361032,-46.1248528,81,374.61844
D1,Centro Novo do Maranhão/MA,-2.1361032,-46.1248528,2,9.24984
1,Centro do Guilherme/MA,-2.4511749,-46.039127,20,148.61049
1,Cerejeiras/RO,-13.186987,-60.816836,2,12.25265
D1,Cerejeiras/RO,-13.186987,-60.816836,1,6.12632
1,Ceres/GO,-15.3103568,-49.6032054,3,13.51899
1,Cerqueira César/SP,-23.0353135,-49.1650519,5,25.01876
1,Cerquilho/SP,-23.1626556,-47.7433878,13,26.55825
D1,Cerquilho/SP,-23.1626556,-47.7433878,2,4.08589
1,Cerro Corá/RN,-6.0412685,-36.3464694,1,8.94534
D1,Cerro Corá/RN,-6.0412685,-36.3464694,1,8.94534
1,Cerro Grande do Sul/RS,-30.5962963,-51.7517196,1,8.17060
D1,Cerro Grande do Sul/RS,-30.5962963,-51.7517196,1,8.17060
1,Cesário Lange/SP,-23.226035,-47.954453,7,38.57174
D1,Cesário Lange/SP,-23.226035,-47.954453,1,5.51025
1,Chalé/MG,-20.0419748,-41.6914563,1,17.53156
1,Chapada dos Guimarães/MT,-15.464343,-55.749857,10,50.62778
D1,Chapada dos Guimarães/MT,-15.464343,-55.749857,1,5.06278
1,Chapada/RS,-28.0587829,-53.0657459,3,32.36595
1,Chapadinha/MA,-3.7416803,-43.3548006,846,1061.81362
D1,Chapadinha/MA,-3.7416803,-43.3548006,4,5.02040
1,Chapadão do Céu/GO,-18.3951972,-52.6670783,11,108.19317
1,Chapadão do Sul/MS,-18.7949051,-52.6199512,11,43.61964
1,Chapecó/SC,-27.0922364,-52.6166878,877,397.97247
D1,Chapecó/SC,-27.0922364,-52.6166878,4,1.81515
1,Charqueada/SP,-22.50958,-47.775468,53,308.31879
D1,Charqueada/SP,-22.50958,-47.775468,3,17.45201
1,Charqueadas/RS,-29.955012,-51.6249195,11,26.96806
1,Chaval/CE,-3.0339874,-41.2438452,8,61.21356
D1,Chaval/CE,-3.0339874,-41.2438452,3,22.95508
1,Chavantes/SP,-23.0406405,-49.7071698,1,8.05283
1,Chaves/PA,-0.164154,-49.987006,15,63.24577
D1,Chaves/PA,-0.164154,-49.987006,1,4.21638
1,Chiador/MG,-22.002778,-43.057222,16,595.45962
1,Chopinzinho/PR,-25.8566167,-52.5294107,3,15.58118
1,Chorozinho/CE,-4.3010895,-38.4976923,68,335.57047
D1,Chorozinho/CE,-4.3010895,-38.4976923,4,19.73944
1,Choró/CE,-4.8435726,-39.1393071,48,355.00333
D1,Choró/CE,-4.8435726,-39.1393071,2,14.79181
1,Chácara/MG,-21.6727567,-43.2206851,1,31.70577
1,Chã Grande/PE,-8.238271,-35.457148,76,350.26270
D1,Chã Grande/PE,-8.238271,-35.457148,5,23.04360
1,Chã Preta/AL,-9.255605,-36.298334,2,27.35604
1,Chã de Alegria/PE,-7.9959409,-35.2134636,57,421.66001
D1,Chã de Alegria/PE,-7.9959409,-35.2134636,3,22.19263
1,Cianorte/PR,-23.662036,-52.6103989,57,68.99056
D1,Cianorte/PR,-23.662036,-52.6103989,1,1.21036
1,Cidade Gaúcha/PR,-23.3816558,-52.9444098,2,15.80778
D1,Cidade Gaúcha/PR,-23.3816558,-52.9444098,1,7.90389
1,Cidade Ocidental/GO,-16.1000758,-47.9445014,23,32.22372
1,Cidelândia/MA,-5.174655,-47.7833531,74,503.50412
1,Cidreira/RS,-30.1657063,-50.218331,4,24.60933
D1,Cidreira/RS,-30.1657063,-50.218331,1,6.15233
1,Cipó/BA,-11.0990534,-38.5153006,1,5.78035
1,Ciríaco/RS,-28.3429139,-51.8763682,1,21.06594
1,Cláudio/MG,-20.4448485,-44.7655217,3,10.48328
1,Coaraci/BA,-14.6407979,-39.5496765,35,205.96716
D1,Coaraci/BA,-14.6407979,-39.5496765,2,11.76955
1,Coari/AM,-4.0885957,-63.1431166,1875,2203.36792
D1,Coari/AM,-4.0885957,-63.1431166,52,61.10674
1,Cocal de Telha/PI,-4.5553648,-41.9722429,26,531.58863
1,Cocal do Sul/SC,-28.6007346,-49.3248697,16,95.90026
D1,Cocal do Sul/SC,-28.6007346,-49.3248697,1,5.99377
1,Cocal dos Alves/PI,-3.59964,-41.444741,2,32.50447
1,Cocal/PI,-3.4691882,-41.555851,13,46.78447
D1,Cocal/PI,-3.4691882,-41.555851,1,3.59881
1,Cocalzinho de Goiás/GO,-15.7762854,-48.7730427,15,74.11067
1,Cocos/BA,-14.1811222,-44.5382117,8,42.60532
1,Codajás/AM,-3.8413202,-62.0603444,49,171.10731
D1,Codajás/AM,-3.8413202,-62.0603444,1,3.49199
1,Codó/MA,-4.455623,-43.892354,746,607.20012
D1,Codó/MA,-4.455623,-43.892354,3,2.44182
1,Coelho Neto/MA,-4.2535154,-43.0149321,242,489.53171
D1,Coelho Neto/MA,-4.2535154,-43.0149321,2,4.04572
1,Coité do Nóia/AL,-9.633484,-36.584493,6,56.11147
1,Coivaras/PI,-5.0927005,-42.2052489,2,49.75124
1,Colares/PA,-0.936423,-48.280254,38,314.43939
D1,Colares/PA,-0.936423,-48.280254,4,33.09888
1,Colatina/ES,-19.5346732,-40.6287836,281,229.38963
D1,Colatina/ES,-19.5346732,-40.6287836,3,2.44900
1,Colina/SP,-20.711443,-48.53867,8,43.31817
D1,Colina/SP,-20.711443,-48.53867,1,5.41477
1,Colinas do Tocantins/TO,-8.0612688,-48.4716768,74,208.89792
D1,Colinas do Tocantins/TO,-8.0612688,-48.4716768,1,2.82294
1,Colinas/MA,-6.0332631,-44.2528542,78,189.42154
1,Colinas/RS,-29.3866023,-51.8697911,12,492.20673
1,Colméia/TO,-8.734098,-48.7510897,1,12.18769
1,Colombo/PR,-25.2925439,-49.2243472,45,18.46336
1,Colorado/PR,-22.8385097,-51.9730135,4,16.65834
1,Colorado/RS,-28.525842,-52.99282,2,62.99213
1,Colíder/MT,-10.8094999,-55.4540386,3,8.97183
1,Colônia Leopoldina/AL,-8.918058,-35.721414,35,161.30519
1,Colônia do Gurguéia/PI,-8.183697,-43.793999,4,61.69031
D1,Colônia do Gurguéia/PI,-8.183697,-43.793999,1,15.42258
1,Colônia do Piauí/PI,-7.2320268,-42.1777122,3,39.18495
1,Comendador Levy Gasparian/RJ,-22.028685,-43.204655,10,116.80878
1,Comercinho/MG,-16.2965093,-41.7930954,1,14.43210
1,Conceição da Barra/ES,-18.5841421,-39.7371844,12,38.63117
1,Conceição da Feira/BA,-12.5013001,-39.0002166,6,26.57101
1,Conceição das Alagoas/MG,-19.9194009,-48.3803414,2,7.17026
1,Conceição de Macabu/RJ,-22.0849986,-41.8679947,38,163.59566
1,Conceição do Almeida/BA,-12.7772763,-39.1692214,3,17.39433
1,Conceição do Araguaia/PA,-8.2696905,-49.2676864,33,68.94535
1,Conceição do Castelo/ES,-20.3601311,-41.2470343,17,133.61629
D1,Conceição do Castelo/ES,-20.3601311,-41.2470343,1,7.85978
1,Conceição do Coité/BA,-11.5629384,-39.2839543,10,15.01231
1,Conceição do Jacuípe/BA,-12.326831,-38.768433,7,21.11423
1,Conceição do Lago-Açu/MA,-3.8410056,-44.8930565,39,240.19215
D1,Conceição do Lago-Açu/MA,-3.8410056,-44.8930565,1,6.15877
1,Conceição do Mato Dentro/MG,-19.037222,-43.425278,1,5.60475
1,Conceição do Rio Verde/MG,-21.881078,-45.0868526,2,14.66491
1,Conceição dos Ouros/MG,-22.413056,-45.797777,2,17.18508
1,Conceição/PB,-7.5565059,-38.5053706,4,21.07260
1,Conchal/SP,-22.337512,-47.172927,5,17.82531
1,Conchas/SP,-23.0133538,-48.0077595,8,44.70273
D1,Conchas/SP,-23.0133538,-48.0077595,1,5.58784
1,Concórdia do Pará/PA,-1.9924056,-47.9450474,103,309.14221
D1,Concórdia do Pará/PA,-1.9924056,-47.9450474,2,6.00276
1,Concórdia/SC,-27.2312011,-52.0231024,839,1124.04711
D1,Concórdia/SC,-27.2312011,-52.0231024,7,9.37822
1,Condado/PB,-6.9092101,-37.5966375,38,571.08506
1,Condado/PE,-7.587868,-35.09994,86,325.49866
D1,Condado/PE,-7.587868,-35.09994,13,49.20329
1,Conde/BA,-11.8129758,-37.6138705,2,7.74084
1,Conde/PB,-7.2600359,-34.9053524,90,364.81557
D1,Conde/PB,-7.2600359,-34.9053524,2,8.10701
1,Condeúba/BA,-14.902227,-41.971829,3,17.39433
1,Condor/RS,-28.2058277,-53.4844696,7,103.65763
1,Confresa/MT,-10.643695,-51.569873,49,158.40688
1,Congo/PB,-7.80963435,-36.641233278035656,11,229.83702
D1,Congo/PB,-7.80963435,-36.641233278035656,1,20.89427
1,Congonhal/MG,-22.1532505,-46.0404698,1,8.36820
1,Congonhas/MG,-20.5015168,-43.8564586,14,25.56517
1,Congonhinhas/PR,-23.5497241,-50.5520182,1,11.34044
1,Conquista D'Oeste/MT,-14.5381171,-59.5443775,4,99.05894
1,Conselheiro Lafaiete/MG,-20.6596107,-43.785743,27,20.99713
1,Conselheiro Pena/MG,-19.1720883,-41.471995,1,4.36281
1,Contagem/MG,-19.9132749,-44.0840953,222,33.44104
D1,Contagem/MG,-19.9132749,-44.0840953,10,1.50635
1,Contenda/PR,-25.678811,-49.535044,3,16.14292
D1,Contenda/PR,-25.678811,-49.535044,1,5.38097
1,Coqueiral/MG,-21.1898365,-45.4409829,1,10.91822
1,Coqueiro Seco/AL,-9.637147,-35.799377,32,547.47648
1,Coração de Maria/BA,-12.2484345,-38.7499274,4,17.69520
1,Corbélia/PR,-24.7951117,-53.2961804,4,23.43155
1,Cordeiro/RJ,-22.0287681,-42.3607442,20,91.21591
1,Cordeirópolis/SP,-22.4768324,-47.4550551,45,183.46380
1,Cordilheira Alta/SC,-26.9853947,-52.603549,3,67.37031
1,Coreaú/CE,-3.5519794,-40.6528409,133,574.86169
D1,Coreaú/CE,-3.5519794,-40.6528409,1,4.32227
1,Coremas/PB,-7.0175897,-37.9465062,15,97.11881
1,Corinto/MG,-18.363056,-44.456111,23,96.91964
1,Cornélio Procópio/PR,-23.1825218,-50.6499263,59,123.31487
D1,Cornélio Procópio/PR,-23.1825218,-50.6499263,1,2.09008
1,Coroados/SP,-21.3554634,-50.2853589,11,181.57808
D1,Coroados/SP,-21.3554634,-50.2853589,1,16.50710
1,Coroatá/MA,-4.1282283,-44.1360269,169,258.82137
D1,Coroatá/MA,-4.1282283,-44.1360269,1,1.53149
1,Coromandel/MG,-18.473889,-47.200278,7,25.02324
1,Coronel Bicaco/RS,-27.7174002,-53.705821,3,40.95563
1,Coronel Domingos Soares/PR,-26.22394,-52.0314509,14,186.74136
1,Coronel Fabriciano/MG,-19.5200067,-42.6282686,63,57.34832
1,Coronel Freitas/SC,-26.9058932,-52.7028055,3,30.05711
1,Coronel João Pessoa/RN,-6.2607103,-38.4424915,2,40.71661
D1,Coronel João Pessoa/RN,-6.2607103,-38.4424915,1,20.35831
1,Coronel João Sá/BA,-10.2856387,-37.9259435,3,18.87386
1,Coronel Macedo/SP,-23.6304001,-49.313234,1,21.36296
1,Coronel Pacheco/MG,-21.5878865,-43.2615975,1,32.40441
1,Coronel Vivida/PR,-25.9803771,-52.5654277,1,4.82300
1,Corrente/PI,-10.4401356,-45.1627472,23,86.32337
1,Correntes/PE,-9.1295585,-36.3287438,5,27.46197
D1,Correntes/PE,-9.1295585,-36.3287438,1,5.49239
1,Cortês/PE,-8.4724921,-35.5431197,30,238.51169
D1,Cortês/PE,-8.4724921,-35.5431197,5,39.75195
1,Corumbaíba/GO,-18.1348982,-48.564223,1,10.28489
D1,Corumbaíba/GO,-18.1348982,-48.564223,1,10.28489
1,Corumbá de Goiás/GO,-15.9268355,-48.8074659,2,18.00180
1,Corumbá/MS,-19.0016365,-57.6534316,24,21.53722
1,Corupá/SC,-26.42464,-49.245968,4,25.14300
1,Coruripe/AL,-10.1249963,-36.1760623,121,212.53052
D1,Coruripe/AL,-10.1249963,-36.1760623,6,10.53870
1,Cosmorama/SP,-20.475472,-49.782747,3,41.05652
D1,Cosmorama/SP,-20.475472,-49.782747,1,13.68551
1,Cosmópolis/SP,-22.6437398,-47.1972086,22,30.44898
D1,Cosmópolis/SP,-22.6437398,-47.1972086,1,1.38404
1,Costa Marques/RO,-12.4367165,-64.2279765,1,5.45524
1,Cotia/SP,-23.603889,-46.918889,547,219.49360
D1,Cotia/SP,-23.603889,-46.918889,43,17.25452
1,Cotriguaçu/MT,-9.9034364,-58.5658915,2,10.12658
D1,Cotriguaçu/MT,-9.9034364,-58.5658915,1,5.06329
1,Couto Magalhães/TO,-8.360583,-49.1773955,13,232.64137
1,Couto de Magalhães de Minas/MG,-18.073016,-43.4718628,1,22.67574
1,Coxilha/RS,-28.1254442,-52.2979903,21,761.97388
1,Coxim/MS,-18.504915,-54.7450251,7,20.86874
1,Coxixola/PB,-7.6272915,-36.606013,4,208.22488
1,Crateús/CE,-5.1782451,-40.6696545,95,126.54181
D1,Crateús/CE,-5.1782451,-40.6696545,5,6.66010
1,Crato/CE,-7.2369112,-39.4149236,40,30.27482
1,Cravinhos/SP,-21.340278,-47.729444,20,56.67007
D1,Cravinhos/SP,-21.340278,-47.729444,1,2.83350
1,Cravolândia/BA,-13.3576247,-39.8153954,2,37.39017
1,Craíbas/AL,-9.6168038,-36.7684669,37,152.77262
1,Criciúma/SC,-28.6789941,-49.3695627,373,173.33841
D1,Criciúma/SC,-28.6789941,-49.3695627,9,4.18243
1,Crissiumal/RS,-27.4982242,-54.1024643,1,7.43605
1,Cristalina/GO,-16.7676079,-47.6131281,7,11.86501
D1,Cristalina/GO,-16.7676079,-47.6131281,1,1.69500
1,Cristina/MG,-22.212222,-45.264167,2,19.52744
1,Cristino Castro/PI,-8.8163934,-44.2211062,1,9.59417
D1,Cristino Castro/PI,-8.8163934,-44.2211062,1,9.59417
1,Cristinápolis/SE,-11.4757019,-37.7555212,10,55.94719
1,Cristópolis/BA,-12.2349301,-44.4160811,4,28.75629
1,Crisólita/MG,-17.2391664,-40.9132444,1,14.91647
1,Crisópolis/BA,-11.5105813,-38.1506278,2,9.47733
1,Crixás do Tocantins/TO,-11.1039404,-48.918827,1,58.07201
1,Croatá/CE,-4.4156199,-40.9048081,1,5.53618
1,Cromínia/GO,-17.2891983,-49.3749654,1,28.68617
1,Cruz Alta/RS,-28.645056,-53.6058047,11,18.24243
D1,Cruz Alta/RS,-28.645056,-53.6058047,1,1.65840
1,Cruz das Almas/BA,-12.6722649,-39.1053665,15,23.71954
1,Cruz do Espírito Santo/PB,-7.139022,-35.085721,100,577.40054
D1,Cruz do Espírito Santo/PB,-7.139022,-35.085721,6,34.64403
1,Cruz/CE,-2.918128,-40.175981,128,515.56773
D1,Cruz/CE,-2.918128,-40.175981,5,20.13936
1,Cruzaltense/RS,-27.667414,-52.6487833,7,381.88762
1,Cruzeiro do Iguaçu/PR,-25.6142278,-53.1299075,6,141.11007
1,Cruzeiro do Oeste/PR,-23.7839582,-53.0709425,4,19.10950
1,Cruzeiro do Sul/AC,-7.6307956,-72.6703869,628,710.60016
D1,Cruzeiro do Sul/AC,-7.6307956,-72.6703869,7,7.92070
1,Cruzeiro do Sul/PR,-22.9623678,-52.1625688,6,134.25822
1,Cruzeiro do Sul/RS,-29.5139742,-51.9917068,46,372.52996
D1,Cruzeiro do Sul/RS,-29.5139742,-51.9917068,2,16.19695
1,Cruzeiro/SP,-22.5783685,-44.9642044,24,29.18359
D1,Cruzeiro/SP,-22.5783685,-44.9642044,2,2.43197
1,Cruzeta/RN,-6.4113343,-36.7872964,11,137.53438
1,Cruzília/MG,-21.838333,-44.808056,3,19.45904
1,Cubati/PB,-6.8647974,-36.3525993,1,12.82545
1,Cubatão/SP,-23.8857982,-46.4241869,323,247.12138
D1,Cubatão/SP,-23.8857982,-46.4241869,28,21.42229
1,Cuiabá/MT,-15.5986686,-56.0991301,620,101.21672
D1,Cuiabá/MT,-15.5986686,-56.0991301,8,1.30602
1,Cuitegi/PB,-6.8962776,-35.5228851,40,587.97589
D1,Cuitegi/PB,-6.8962776,-35.5228851,1,14.69940
1,Cuité de Mamanguape/PB,-6.912922,-35.250219,5,78.70297
1,Cuité/PB,-6.4855072,-36.1478606,10,49.16904
1,Cujubim/RO,-9.3687919,-62.5832107,18,71.38608
D1,Cujubim/RO,-9.3687919,-62.5832107,1,3.96589
1,Cumaru do Norte/PA,-7.8122669,-50.7677675,20,148.44504
1,Cumaru/PE,-8.0065285,-35.6991651,21,192.55456
1,Cumbe/SE,-10.3552462,-37.1828788,1,25.08151
1,Cunha Porã/SC,-26.8927163,-53.1716516,16,144.32618
1,Cunha/SP,-23.07753,-44.9567436,5,23.20509
1,Cupira/PE,-8.6053148,-35.9530366,30,124.44518
D1,Cupira/PE,-8.6053148,-35.9530366,3,12.44452
1,Curaçá/BA,-8.9925655,-39.9053169,33,95.10086
1,Curimatá/PI,-10.0349005,-44.3033114,6,52.68704
1,Curionópolis/PA,-6.0990443,-49.6059039,228,1271.68275
D1,Curionópolis/PA,-6.0990443,-49.6059039,6,33.46534
1,Curitiba/PR,-25.4295963,-49.2712724,921,47.64356
D1,Curitiba/PR,-25.4295963,-49.2712724,42,2.17267
1,Curitibanos/SC,-27.2917869,-50.5768954,1,2.51604
1,Currais Novos/RN,-6.2626676,-36.5173039,23,51.35533
D1,Currais Novos/RN,-6.2626676,-36.5173039,1,2.23284
1,Curral Novo do Piauí/PI,-7.8316503,-40.9006904,1,18.71608
1,Curral de Cima/PB,-6.7174163,-35.266704,7,133.92003
1,Curralinho/PA,-1.8137876,-49.7980165,86,249.65165
D1,Curralinho/PA,-1.8137876,-49.7980165,4,11.61170
1,Curralinhos/PI,-5.6190404,-42.8280018,3,67.52194
1,Cururupu/MA,-1.824255,-44.872996,56,171.28001
D1,Cururupu/MA,-1.824255,-44.872996,1,3.05857
1,Curuá/PA,-1.887754,-55.116842,15,104.21733
1,Curuçá/PA,-0.7276792,-47.856568,303,756.25218
D1,Curuçá/PA,-0.7276792,-47.856568,35,87.35586
1,Curvelo/MG,-18.7571926,-44.4305993,47,58.65542
1,Curvelândia/MT,-15.6108629,-57.9188924,4,76.64304
D1,Curvelândia/MT,-15.6108629,-57.9188924,1,19.16076
1,Custódia/PE,-8.0861426,-37.6401873,48,129.34170
D1,Custódia/PE,-8.0861426,-37.6401873,7,18.86233
1,Cutias/AP,0.9708625,-50.8000608,108,1805.11449
D1,Cutias/AP,0.9708625,-50.8000608,1,16.71402
1,Cáceres/MT,-16.0658939,-57.6852775,22,23.31101
D1,Cáceres/MT,-16.0658939,-57.6852775,3,3.17877
1,Cândido Mendes/MA,-1.4531117,-45.7273136,19,94.16196
1,Cândido Mota/SP,-22.7434964,-50.38924,4,12.78772
1,Cândido Rodrigues/SP,-21.3255615,-48.6308798,3,107.41139
1,Cândido Sales/BA,-15.5037649,-41.2391141,4,15.87995
1,Céu Azul/PR,-25.1484973,-53.8494214,9,76.49809
1,Cícero Dantas/BA,-10.5932265,-38.3834411,1,3.07550
1,Córrego Novo/MG,-19.832223,-42.395833,1,36.08805
1,Córrego do Bom Jesus/MG,-22.630556,-46.019723,8,215.98272
1,Córrego do Ouro/GO,-16.2960629,-50.5512216,1,42.97379
1,Damião/PB,-6.64317595,-35.933835193092264,1,18.76173
1,Darcinópolis/TO,-6.7085964,-47.7524283,113,1853.37051
1,Davinópolis/MA,-5.5265775,-47.3942217,69,534.55222
D1,Davinópolis/MA,-5.5265775,-47.3942217,3,23.24140
1,Delfim Moreira/MG,-22.5086783,-45.2792398,7,87.22741
1,Delfinópolis/MG,-20.344749,-46.8546425,1,14.05679
1,Delmiro Gouveia/AL,-9.3841161,-37.997756,17,32.68225
D1,Delmiro Gouveia/AL,-9.3841161,-37.997756,2,3.84497
1,Delta/MG,-19.9769,-47.7711,1,9.49397
1,Demerval Lobão/PI,-5.3640643,-42.673993,38,275.02352
D1,Demerval Lobão/PI,-5.3640643,-42.673993,1,7.23746
1,Denise/MT,-14.7252735,-57.0480299,1,10.56859
1,Deodápolis/MS,-22.276272,-54.168163,4,30.95017
1,Deputado Irapuan Pinheiro/CE,-5.9173532,-39.2672104,4,41.55844
1,Derrubadas/RS,-27.2657279,-53.8618488,1,35.65062
1,Descalvado/SP,-21.9090404,-47.6203241,7,20.76042
D1,Descalvado/SP,-21.9090404,-47.6203241,1,2.96577
1,Descanso/SC,-26.8246854,-53.5017586,2,24.24242
1,Descoberto/MG,-21.459444,-42.967223,1,19.94813
1,Desterro/PB,-7.2889695,-37.0880761,6,72.31529
1,Diadema/SP,-23.681347,-46.62052,1113,262.57184
D1,Diadema/SP,-23.681347,-46.62052,72,16.98578
1,Diamante do Norte/PR,-22.6565442,-52.8589113,1,19.65795
1,Diamante do Sul/PR,-25.0436147,-52.6800923,7,203.54754
1,Diamantina/MG,-18.2440862,-43.6006487,9,18.85883
1,Dianópolis/TO,-11.624008,-46.819787,1,4.51692
1,Dias d'Ávila/BA,-12.6107233,-38.3028518,62,76.45920
D1,Dias d'Ávila/BA,-12.6107233,-38.3028518,2,2.46643
1,Dionísio Cerqueira/SC,-26.2604681,-53.6346379,1,6.45245
D1,Dionísio Cerqueira/SC,-26.2604681,-53.6346379,1,6.45245
1,Dionísio/MG,-19.841944,-42.776945,5,64.69142
1,Dirceu Arcoverde/PI,-9.3413101,-42.4362055,24,342.31921
1,Divina Pastora/SE,-10.6783231,-37.1482727,3,58.38848
1,Divino das Laranjeiras/MG,-18.7775,-41.479167,1,20.08435
1,Divino de São Lourenço/ES,-20.6201409,-41.6834749,3,69.70260
1,Divino/MG,-20.6151497,-42.1474733,3,15.05193
1,Divinolândia/SP,-21.6604584,-46.7371151,1,8.97183
1,Divinésia/MG,-20.990277,-43.003889,1,29.26544
1,Divinópolis do Tocantins/TO,-9.8015722,-49.2143531,2,28.98551
1,Divinópolis/MG,-20.1434559,-44.89125,165,69.26080
D1,Divinópolis/MG,-20.1434559,-44.89125,2,0.83952
1,Divisa Alegre/MG,-15.7207751,-41.3442809,1,14.73622
1,Divisa Nova/MG,-21.5126801,-46.1926626,1,16.63617
1,Dobrada/SP,-21.5180904,-48.3938897,4,44.79785
1,Dois Córregos/SP,-22.3697554,-48.3845315,4,14.64397
D1,Dois Córregos/SP,-22.3697554,-48.3845315,2,7.32198
1,Dois Irmãos/RS,-29.58356,-51.089776,6,18.36491
1,Dois Riachos/AL,-9.384645,-37.096502,6,54.17607
1,Dois Vizinhos/PR,-25.7464681,-53.0554369,1,2.46057
1,Dolcinópolis/SP,-20.1230736,-50.513261,2,94.56265
1,Dom Aquino/MT,-15.809899,-54.922298,3,36.68379
1,Dom Basílio/BA,-13.7589818,-41.7715676,2,16.39479
1,Dom Cavati/MG,-19.3744152,-42.1067301,1,19.71609
1,Dom Eliseu/PA,-4.2928111,-47.5559083,263,440.39585
D1,Dom Eliseu/PA,-4.2928111,-47.5559083,3,5.02353
1,Dom Expedito Lopes/PI,-6.9644926,-41.648155,9,130.35921
1,Dom Feliciano/RS,-30.70214,-52.1080845,3,19.46283
1,Dom Inocêncio/PI,-9.0009167,-41.974038,2,20.92926
1,Dom Pedrito/RS,-30.983755,-54.6746483,18,46.80066
D1,Dom Pedrito/RS,-30.983755,-54.6746483,1,2.60004
1,Dom Pedro/MA,-5.0389999,-44.4377854,35,149.89293
1,Domingos Martins/ES,-20.3646483,-40.6585797,95,280.64993
1,Domingos Mourão/PI,-4.2544732,-41.2722903,1,22.96211
1,Dona Inês/PB,-6.6032239,-35.627146,2,19.13326
1,Dores do Indaiá/MG,-19.4636451,-45.60166,1,7.41675
1,Dormentes/PE,-8.441163,-40.766168,17,89.90903
1,Douradina/MS,-22.0402812,-54.6118292,38,641.45847
1,Douradina/PR,-23.3847331,-53.2932989,2,22.86498
1,Dourado/SP,-22.1124638,-48.3151079,2,22.54029
1,Dourados/MS,-22.2206145,-54.812208,236,105.85381
D1,Dourados/MS,-22.2206145,-54.812208,1,0.44853
1,Doutor Camargo/PR,-23.5575611,-52.2185546,2,33.45041
1,Doutor Maurício Cardoso/RS,-27.5067264,-54.3626756,4,87.93141
D1,Doutor Maurício Cardoso/RS,-27.5067264,-54.3626756,2,43.96571
1,Doutor Pedrinho/SC,-26.716408,-49.482726,12,295.27559
1,Doutor Ricardo/RS,-29.0901549,-51.9894847,3,151.28593
1,Doutor Severiano/RN,-6.0948339,-38.3748,6,84.79367
1,Dracena/SP,-21.4835523,-51.5334408,28,59.83801
D1,Dracena/SP,-21.4835523,-51.5334408,2,4.27414
1,Duartina/SP,-22.414562,-49.408355,2,16.07071
1,Duas Barras/RJ,-22.0522519,-42.5194705,1,8.70171
1,Duas Estradas/PB,-6.6883382,-35.4175255,17,472.74750
1,Dueré/TO,-11.341631,-49.271566,5,106.70081
1,Dumont/SP,-21.2391417,-47.9747665,4,40.53506
1,Duque Bacelar/MA,-4.1542795,-42.946096,33,290.77452
1,Duque de Caxias/RJ,-22.7896225,-43.309929,1358,147.67354
D1,Duque de Caxias/RJ,-22.7896225,-43.309929,235,25.55470
1,Dário Meira/BA,-14.4332181,-39.9028712,9,84.03361
1,Ecoporanga/ES,-18.3720918,-40.8321351,52,226.84640
D1,Ecoporanga/ES,-18.3720918,-40.8321351,4,17.44972
1,Edéia/GO,-17.3407253,-49.9292351,2,16.16554
1,Eirunepé/AM,-6.6567654,-69.866161,141,399.73918
1,Eldorado do Carajás/PA,-6.1029246,-49.3572487,9,26.62092
D1,Eldorado do Carajás/PA,-6.1029246,-49.3572487,1,2.95788
1,Eldorado do Sul/RS,-29.9984639,-51.3091977,12,29.06625
D1,Eldorado do Sul/RS,-29.9984639,-51.3091977,1,2.42219
1,Eldorado/SP,-24.522583,-48.1093489,3,19.36233
D1,Eldorado/SP,-24.522583,-48.1093489,1,6.45411
1,Elesbão Veloso/PI,-6.2032654,-42.1376937,22,150.66429
D1,Elesbão Veloso/PI,-6.2032654,-42.1376937,1,6.84838
1,Elias Fausto/SP,-23.0416538,-47.3718002,4,22.50731
D1,Elias Fausto/SP,-23.0416538,-47.3718002,1,5.62683
1,Elisiário/SP,-21.1673392,-49.1111015,1,27.38976
1,Elói Mendes/MG,-21.6094466,-45.5660211,6,21.37057
1,Emas/PB,-7.1071447,-37.7155578,1,28.39296
1,Embu das Artes/SP,-23.6495294,-46.8528497,501,183.02975
D1,Embu das Artes/SP,-23.6495294,-46.8528497,41,14.97848
1,Embu-Guaçu/SP,-23.8317997,-46.8156204,116,167.18311
D1,Embu-Guaçu/SP,-23.8317997,-46.8156204,10,14.41234
1,Emilianópolis/SP,-21.831436,-51.483168,4,124.45551
1,Encantado/RS,-29.2392716,-51.8744817,40,176.16489
D1,Encantado/RS,-29.2392716,-51.8744817,2,8.80824
1,Encanto/RN,-6.1107477,-38.3050953,14,248.31501
D1,Encanto/RN,-6.1107477,-38.3050953,2,35.47357
1,Encruzilhada do Sul/RS,-30.53619325,-52.51564721101029,2,7.72887
D1,Encruzilhada do Sul/RS,-30.53619325,-52.51564721101029,1,3.86444
1,Encruzilhada/BA,-15.5322113,-40.9072488,2,11.76056
1,Engenheiro Coelho/SP,-22.4896659,-47.2119005,14,67.39518
1,Engenheiro Navarro/MG,-17.286622,-43.9515719,1,13.80834
1,Engenheiro Paulo de Frontin/RJ,-22.5504556,-43.6783403,12,85.70204
D1,Engenheiro Paulo de Frontin/RJ,-22.5504556,-43.6783403,2,14.28367
1,Entre Rios/BA,-11.9423743,-38.0836985,3,7.18047
1,Entre Rios/SC,-26.7236463,-52.5638445,68,2123.00968
D1,Entre Rios/SC,-26.7236463,-52.5638445,1,31.22073
1,Entre-Ijuís/RS,-28.361628,-54.2670019,4,47.19764
1,Epitaciolândia/AC,-11.0289439,-68.7411519,59,320.46059
1,Erebango/RS,-27.8542708,-52.3029274,5,167.16817
1,Erechim/RS,-27.6350143,-52.2737288,124,117.13363
D1,Erechim/RS,-27.6350143,-52.2737288,1,0.94463
1,Ererê/CE,-6.0311304,-38.3482173,25,347.31870
D1,Ererê/CE,-6.0311304,-38.3482173,3,41.67824
1,Ernestina/RS,-28.498434,-52.5702451,2,63.13131
1,Erval Grande/RS,-27.3910282,-52.5703742,8,164.64293
1,Ervália/MG,-20.8400156,-42.653352,3,15.87722
1,Escada/PE,-8.3594071,-35.2232683,131,190.19964
D1,Escada/PE,-8.3594071,-35.2232683,15,21.77858
1,Esmeralda/RS,-28.0543707,-51.1921896,1,30.46923
1,Esmeraldas/MG,-19.7613111,-44.3145945,10,14.17394
1,Espera Feliz/MG,-20.6494192,-41.9080693,20,80.15711
1,Esperantina/PI,-3.8950963,-42.2370595,141,354.83303
D1,Esperantina/PI,-3.8950963,-42.2370595,2,5.03309
1,Esperantina/TO,-5.3658232,-48.5368181,10,90.94216
1,Esperantinópolis/MA,-4.8751875,-44.8801032,164,951.22093
D1,Esperantinópolis/MA,-4.8751875,-44.8801032,4,23.20051
1,Esperança do Sul/RS,-27.3617442,-53.9909736,12,410.11620
D1,Esperança do Sul/RS,-27.3617442,-53.9909736,1,34.17635
1,Esperança/PB,-7.018517,-35.852193,55,166.63132
1,Espigão D'Oeste/RO,-11.532175,-61.0130935,19,58.68907
D1,Espigão D'Oeste/RO,-11.532175,-61.0130935,1,3.08890
1,Espinosa/MG,-14.9232007,-42.8093337,4,12.65142
D1,Espinosa/MG,-14.9232007,-42.8093337,1,3.16286
1,Esplanada/BA,-11.800614,-37.9453,2,5.37100
1,Espumoso/RS,-28.7256962,-52.8453751,11,70.56710
D1,Espumoso/RS,-28.7256962,-52.8453751,1,6.41519
1,Espírito Santo do Dourado/MG,-22.046666,-45.950833,3,63.93862
1,Espírito Santo do Pinhal/SP,-22.190871,-46.74767,14,31.58132
1,Espírito Santo/RN,-6.3317917,-35.3096508,2,19.03855
1,Estação/RS,-27.9128965,-52.2606058,10,167.84156
1,Esteio/RS,-29.8511627,-51.1778852,30,36.05683
D1,Esteio/RS,-29.8511627,-51.1778852,1,1.20189
1,Estiva Gerbi/SP,-22.2754831,-46.9525448,2,17.69285
1,Estiva/MG,-22.4638686,-46.0182101,9,79.26722
1,Estreito/MA,-6.5583016,-47.4432212,181,431.50718
D1,Estreito/MA,-6.5583016,-47.4432212,1,2.38402
1,Estrela Dalva/MG,-21.741666,-42.460833,10,426.80324
D1,Estrela Dalva/MG,-21.741666,-42.460833,1,42.68032
1,Estrela d'Oeste/SP,-20.2860692,-50.3986216,1,11.87790
1,Estrela de Alagoas/AL,-9.3888972,-36.7616833,3,16.47899
1,Estrela do Sul/MG,-18.7420499,-47.6900736,1,12.53447
1,Estrela/RS,-29.5010545,-51.962226,141,413.29581
D1,Estrela/RS,-29.5010545,-51.962226,1,2.93118
1,Estância Velha/RS,-29.6529666,-51.1719687,25,49.97801
1,Estância/SE,-11.2682255,-37.4378341,160,231.26735
D1,Estância/SE,-11.2682255,-37.4378341,4,5.78168
1,Euclides da Cunha Paulista/SP,-22.55452,-52.592779,1,10.67122
1,Euclides da Cunha/BA,-10.5060835,-39.0129875,3,4.95172
1,Eugenópolis/MG,-21.0968165,-42.1850985,3,26.60754
1,Eunápolis/BA,-16.3722412,-39.575704,117,103.19280
1,Eusébio/CE,-3.8889838,-38.4546585,575,1072.40106
D1,Eusébio/CE,-3.8889838,-38.4546585,13,24.24559
1,Extrema/MG,-22.8549109,-46.3190079,80,220.84196
D1,Extrema/MG,-22.8549109,-46.3190079,3,8.28157
1,Extremoz/RN,-5.7092903,-35.3058914,96,335.86398
D1,Extremoz/RN,-5.7092903,-35.3058914,2,6.99717
1,Fagundes/PB,-7.3577473,-35.7839735,7,62.20563
1,Faina/GO,-15.4458005,-50.3633826,1,15.08978
1,Faria Lemos/MG,-20.8051202,-42.0127393,4,123.41870
D1,Faria Lemos/MG,-20.8051202,-42.0127393,1,30.85467
1,Farias Brito/CE,-6.9272823,-39.5714222,33,169.66581
D1,Farias Brito/CE,-6.9272823,-39.5714222,3,15.42416
1,Faro/PA,-1.1091625500000002,-57.800250715708856,1,13.90047
1,Farroupilha/RS,-29.22647,-51.3468188,246,340.10314
D1,Farroupilha/RS,-29.22647,-51.3468188,4,5.53013
1,Fartura do Piauí/PI,-9.4839171,-42.7906894,3,56.52911
1,Fartura/SP,-23.390039,-49.5109023,8,49.88775
D1,Fartura/SP,-23.390039,-49.5109023,1,6.23597
1,Faxinal dos Guedes/SC,-26.8476897,-52.2604154,20,187.49414
1,Faxinal/PR,-24.001065,-51.3223237,2,11.59353
1,Faxinalzinho/RS,-27.4240501,-52.6738684,9,388.76890
1,Fazenda Rio Grande/PR,-25.645841,-49.3126653,58,57.87903
D1,Fazenda Rio Grande/PR,-25.645841,-49.3126653,4,3.99166
1,Fazenda Vilanova/RS,-29.588511,-51.821714,4,88.24178
1,Feijó/AC,-8.1648652,-70.3539579,7,20.12651
D1,Feijó/AC,-8.1648652,-70.3539579,1,2.87522
1,Feira Grande/AL,-9.8944239,-36.6793255,14,63.15979
1,Feira Nova do Maranhão/MA,-6.965082,-46.678577,10,117.59172
D1,Feira Nova do Maranhão/MA,-6.965082,-46.678577,1,11.75917
1,Feira Nova/PE,-7.9481471,-35.3871681,101,456.37341
D1,Feira Nova/PE,-7.9481471,-35.3871681,7,31.62984
1,Feira Nova/SE,-10.2629878,-37.3131265,3,53.72493
1,Feira de Santana/BA,-12.2578934,-38.9598047,426,69.28271
D1,Feira de Santana/BA,-12.2578934,-38.9598047,5,0.81318
1,Felipe Guerra/RN,-5.5979694,-37.6961704,34,568.08688
1,Feliz Deserto/AL,-10.292494,-36.3028583,4,84.13967
D1,Feliz Deserto/AL,-10.292494,-36.3028583,1,21.03492
1,Feliz/RS,-29.4508908,-51.307713,8,59.05367
1,Fernandes Pinheiro/PR,-25.4148066,-50.5489837,1,17.71165
1,Fernando Falcão/MA,-6.1512461,-44.9022436,40,386.10039
1,Fernando Pedroza/RN,-5.6972558,-36.5316864,3,98.23183
1,Fernando Prestes/SP,-21.266061,-48.687384,2,34.58413
1,Fernando de Noronha/PE,-3.8561012,-32.4248189,42,1372.10062
1,Fernandópolis/SP,-20.2825647,-50.2500762,50,72.34215
1,Ferraz de Vasconcelos/SP,-23.541056,-46.37097,383,197.14221
D1,Ferraz de Vasconcelos/SP,-23.541056,-46.37097,40,20.58926
1,Ferreira Gomes/AP,0.8580838,-51.1814,85,1092.54499
D1,Ferreira Gomes/AP,0.8580838,-51.1814,2,25.70694
1,Ferreiros/PE,-7.449667,-35.2426004,65,536.17091
D1,Ferreiros/PE,-7.449667,-35.2426004,5,41.24392
1,Ferros/MG,-19.234984,-43.019542,6,61.09980
1,Fervedouro/MG,-20.7292242,-42.2785942,3,27.25786
1,Figueira/PR,-23.8481018,-50.4059875,2,25.74003
1,Figueirópolis/TO,-12.1347916,-49.1737141,6,114.00342
D1,Figueirópolis/TO,-12.1347916,-49.1737141,1,19.00057
1,Filadélfia/TO,-7.3395833,-47.496372,15,169.37669
1,Firminópolis/GO,-16.5753264,-50.3011286,2,15.04664
1,Flexeiras/AL,-9.2788679,-35.7235246,17,132.91634
D1,Flexeiras/AL,-9.2788679,-35.7235246,1,7.81861
1,Floreal/SP,-20.6767063,-50.1455638,2,68.56359
1,Flores da Cunha/RS,-29.030129,-51.1833349,11,35.77818
1,Flores/PE,-7.862025,-37.9742806,1,4.42008
1,Floresta Azul/BA,-14.8602238,-39.6561384,5,47.04111
1,Floresta do Araguaia/PA,-7.5597065,-49.7032829,2,9.85028
1,Floresta/PE,-8.5998918,-38.5706775,11,33.46211
D1,Floresta/PE,-8.5998918,-38.5706775,2,6.08402
1,Floresta/PR,-23.6144046,-52.0819003,2,29.52465
1,Florestal/MG,-19.8878705,-44.4314766,2,26.80606
1,Florestópolis/PR,-22.8663942,-51.3905121,2,18.96094
1,Floriano Peixoto/RS,-27.8603248,-52.0856015,7,396.37599
1,Floriano/PI,-6.7726534,-43.0070616,74,123.46709
D1,Floriano/PI,-6.7726534,-43.0070616,2,3.33695
1,Florianópolis/SC,-27.5973002,-48.5496098,644,128.54984
D1,Florianópolis/SC,-27.5973002,-48.5496098,7,1.39728
1,Florânia/RN,-6.1268685,-36.8183238,2,21.93945
1,Flórida Paulista/SP,-21.614061,-51.1729548,4,27.32240
1,Fonte Boa/AM,-2.55,-66.91321428571428,264,1499.23335
D1,Fonte Boa/AM,-2.55,-66.91321428571428,7,39.75240
1,Fontoura Xavier/RS,-28.981655,-52.344455,6,58.22981
1,Formiga/MG,-20.4648425,-45.4266753,14,20.68466
1,Formigueiro/RS,-29.9982245,-53.5029931,25,375.15006
1,Formosa da Serra Negra/MA,-6.4437601,-46.1905789,26,136.20410
1,Formosa/GO,-15.5492443,-47.3301212,24,19.73408
1,Formoso do Araguaia/TO,-11.8059989,-49.5257153,28,151.84382
D1,Formoso do Araguaia/TO,-11.8059989,-49.5257153,1,5.42299
1,Forquilha/CE,-3.799447,-40.263405,14,57.80824
D1,Forquilha/CE,-3.799447,-40.263405,2,8.25832
1,Forquilhinha/SC,-28.7487602,-49.4737661,24,89.57564
1,Fortaleza dos Nogueiras/MA,-6.9643779,-46.1703933,21,166.25762
1,Fortaleza/CE,-3.7304512,-38.5217989,21705,813.12174
D1,Fortaleza/CE,-3.7304512,-38.5217989,1877,70.31695
1,Fortim/CE,-4.451256,-37.798056,24,145.63107
1,Fortuna/MA,-5.7331469,-44.154276,24,154.32099
1,Foz do Iguaçu/PR,-25.5401479,-54.5858139,125,48.34991
D1,Foz do Iguaçu/PR,-25.5401479,-54.5858139,2,0.77360
1,Foz do Jordão/PR,-25.7377144,-52.1209188,2,43.01075
1,Fraiburgo/SC,-27.023288,-50.919978,15,41.16017
1,Franca/SP,-20.5381768,-47.4009795,72,20.38580
D1,Franca/SP,-20.5381768,-47.4009795,2,0.56627
1,Francinópolis/PI,-6.3962771,-42.2635654,8,149.58863
1,Francisco Alves/PR,-24.0694395,-53.844348,1,16.53986
1,Francisco Ayres/PI,-6.6217571,-42.6941944,2,45.99816
1,Francisco Badaró/MG,-16.9917524,-42.350899,1,9.67867
1,Francisco Beltrão/PR,-26.0790979,-53.0533527,17,18.66225
D1,Francisco Beltrão/PR,-26.0790979,-53.0533527,2,2.19556
1,Francisco Morato/SP,-23.2817308,-46.7448996,374,212.68852
D1,Francisco Morato/SP,-23.2817308,-46.7448996,19,10.80503
1,Francisco Santos/PI,-6.9944754,-41.1345548,3,32.19230
1,Franco da Rocha/SP,-23.3328038,-46.724446,383,247.91409
D1,Franco da Rocha/SP,-23.3328038,-46.724446,37,23.94993
1,Frecheirinha/CE,-3.755572,-40.818019,24,170.55145
D1,Frecheirinha/CE,-3.755572,-40.818019,3,21.31893
1,Frederico Westphalen/RS,-27.35711,-53.3964117,29,92.61329
D1,Frederico Westphalen/RS,-27.35711,-53.3964117,1,3.19356
1,Frei Inocêncio/MG,-18.563076,-41.9064881,7,72.83321
1,Frei Miguelinho/PE,-7.9433019,-35.920939,38,245.84331
D1,Frei Miguelinho/PE,-7.9433019,-35.920939,3,19.40868
1,Frei Paulo/SE,-10.549956,-37.5356071,13,84.30063
D1,Frei Paulo/SE,-10.549956,-37.5356071,1,6.48466
1,Fronteira/MG,-20.286111,-49.202778,1,5.52395
1,Fronteiras/PI,-7.088607,-40.6147253,5,43.01075
1,Frutal/MG,-20.0220064,-48.9280076,10,16.80785
D1,Frutal/MG,-20.0220064,-48.9280076,1,1.68079
1,Frutuoso Gomes/RN,-6.1585113,-37.8408614,4,98.32842
1,Fundão/ES,-19.9332174,-40.4049674,127,590.45051
D1,Fundão/ES,-19.9332174,-40.4049674,8,37.19373
1,Fátima do Sul/MS,-22.3750499,-54.516698,61,317.89046
1,Fátima/BA,-10.5944103,-38.2118405,1,5.58971
1,Fátima/TO,-10.7575656,-48.9031328,9,234.68057
1,Gado Bravo/PB,-7.5830516,-35.7914371,23,276.57528
D1,Gado Bravo/PB,-7.5830516,-35.7914371,1,12.02501
1,Galinhos/RN,-5.0923928,-36.2744827,1,35.89375
1,Gameleira de Goiás/GO,-16.4853739,-48.64541,2,52.38345
