type,name,lat,lon,total,total_per_100k_inhabitants
1,Abadia de Goiás/GO,-16.7572644,-49.4412205,1084,12100.91538
D1,Abadia de Goiás/GO,-16.7572644,-49.4412205,17,189.77450
1,Abadia dos Dourados/MG,-18.4911191,-47.4063589,324,4624.60748
D1,Abadia dos Dourados/MG,-18.4911191,-47.4063589,10,142.73480
1,Abadiânia/GO,-16.1940946,-48.7067767,288,1407.55584
D1,Abadiânia/GO,-16.1940946,-48.7067767,19,92.85959
1,Abaetetuba/PA,-1.721828,-48.878843,6015,3781.11642
D1,Abaetetuba/PA,-1.721828,-48.878843,131,82.34850
1,Abaeté/MG,-19.1566833,-45.4481213,692,2976.34409
D1,Abaeté/MG,-19.1566833,-45.4481213,16,68.81720
1,Abaiara/CE,-7.3607808,-39.0487878,286,2412.89125
D1,Abaiara/CE,-7.3607808,-39.0487878,7,59.05678
1,Abaré/BA,-8.7239913,-39.1139689,533,2619.55079
D1,Abaré/BA,-8.7239913,-39.1139689,2,9.82946
1,Abatiá/PR,-23.3052967,-50.3102532,328,4427.64579
D1,Abatiá/PR,-23.3052967,-50.3102532,4,53.99568
1,Abaíra/BA,-13.2503296,-41.6640342,241,2766.93456
D1,Abaíra/BA,-13.2503296,-41.6640342,7,80.36739
1,Abdon Batista/SC,-27.612419,-51.022992,208,8163.26531
D1,Abdon Batista/SC,-27.612419,-51.022992,1,39.24647
1,Abel Figueiredo/PA,-4.953001,-48.3958485,699,9337.42987
D1,Abel Figueiredo/PA,-4.953001,-48.3958485,5,66.79134
1,Abelardo Luz/SC,-26.5705893,-52.3280339,1068,5946.54788
D1,Abelardo Luz/SC,-26.5705893,-52.3280339,35,194.87751
1,Abre Campo/MG,-20.2976097,-42.4764741,615,4574.53139
D1,Abre Campo/MG,-20.2976097,-42.4764741,6,44.62957
1,Abreu e Lima/PE,-7.900719,-34.898389,1803,1796.78313
D1,Abreu e Lima/PE,-7.900719,-34.898389,162,161.44141
1,Abreulândia/TO,-9.6221526,-49.1558343,200,7710.10023
D1,Abreulândia/TO,-9.6221526,-49.1558343,4,154.20200
1,Acaiaca/MG,-20.3621646,-43.1444162,146,3655.48322
D1,Acaiaca/MG,-20.3621646,-43.1444162,5,125.18778
1,Acajutiba/BA,-11.6609659,-38.0186381,420,2765.52314
D1,Acajutiba/BA,-11.6609659,-38.0186381,11,72.43037
1,Acarape/CE,-4.2237866,-38.7071663,2142,14245.81006
D1,Acarape/CE,-4.2237866,-38.7071663,15,99.76057
1,Acaraú/CE,-2.8869514,-40.1194713,3735,5918.80071
D1,Acaraú/CE,-2.8869514,-40.1194713,69,109.34331
1,Acari/RN,-6.4364689,-36.6394777,606,5449.15026
D1,Acari/RN,-6.4364689,-36.6394777,9,80.92797
1,Acará/PA,-1.961388,-48.1987043,1029,1848.42552
D1,Acará/PA,-1.961388,-48.1987043,21,37.72297
1,Acauã/PI,-8.219542,-41.083059,155,2182.48381
D1,Acauã/PI,-8.219542,-41.083059,1,14.08054
1,Aceguá/RS,-31.8695131,-54.1615593,101,2043.70700
1,Acopiara/CE,-6.0936464,-39.4543204,1968,3612.26850
D1,Acopiara/CE,-6.0936464,-39.4543204,79,145.00468
1,Acorizal/MT,-15.2001544,-56.3668953,341,6392.95088
D1,Acorizal/MT,-15.2001544,-56.3668953,11,206.22422
1,Acrelândia/AC,-10.0759167,-67.0526898,1211,7817.94706
D1,Acrelândia/AC,-10.0759167,-67.0526898,21,135.57134
1,Acreúna/GO,-17.3959899,-50.3749031,1290,5721.63577
D1,Acreúna/GO,-17.3959899,-50.3749031,32,141.93205
1,Adamantina/SP,-21.6866517,-51.0762975,1792,5103.81362
D1,Adamantina/SP,-21.6866517,-51.0762975,48,136.70929
1,Adelândia/GO,-16.4155077,-50.1665834,104,4133.54531
D1,Adelândia/GO,-16.4155077,-50.1665834,2,79.49126
1,Adolfo/SP,-21.2356597,-49.6441918,286,8047.27068
D1,Adolfo/SP,-21.2356597,-49.6441918,7,196.96117
1,Adrianópolis/PR,-24.6557863,-48.9912769,972,16595.52672
D1,Adrianópolis/PR,-24.6557863,-48.9912769,19,324.39816
1,Adustina/BA,-10.5358875,-38.114479,497,2902.02032
D1,Adustina/BA,-10.5358875,-38.114479,9,52.55168
1,Afogados da Ingazeira/PE,-7.750429,-37.6356375,2697,7210.45877
D1,Afogados da Ingazeira/PE,-7.750429,-37.6356375,39,104.26692
1,Afonso Bezerra/RN,-5.4745,-36.57625071327935,306,2774.50358
D1,Afonso Bezerra/RN,-5.4745,-36.57625071327935,11,99.73706
1,Afonso Cláudio/ES,-20.077841,-41.12606,2812,9233.29503
D1,Afonso Cláudio/ES,-20.077841,-41.12606,44,144.47546
1,Afonso Cunha/MA,-4.1326105,-43.3230026,155,2356.33931
D1,Afonso Cunha/MA,-4.1326105,-43.3230026,2,30.40438
1,Afrânio/PE,-8.5198919,-41.0070197,589,2973.24584
D1,Afrânio/PE,-8.5198919,-41.0070197,9,45.43160
1,Afuá/PA,-0.1535664,-50.3879223,2747,6942.65423
D1,Afuá/PA,-0.1535664,-50.3879223,14,35.38302
1,Agrestina/PE,-8.4558021,-35.9442663,923,3682.42569
D1,Agrestina/PE,-8.4558021,-35.9442663,36,143.62657
1,Agricolândia/PI,-5.7967843,-42.6605131,100,1948.93783
1,Agrolândia/SC,-27.4122212,-49.8295774,694,6301.64351
D1,Agrolândia/SC,-27.4122212,-49.8295774,7,63.56125
1,Agronômica/SC,-27.2660744,-49.7104753,377,6843.34725
D1,Agronômica/SC,-27.2660744,-49.7104753,8,145.21692
1,Aguanil/MG,-20.9424533,-45.3927152,291,6435.20566
D1,Aguanil/MG,-20.9424533,-45.3927152,7,154.79876
1,Aguaí/SP,-22.0592036,-46.979384,1379,3762.82471
D1,Aguaí/SP,-22.0592036,-46.979384,29,79.13119
1,Agudo/RS,-29.6423259,-53.2494005,789,4810.68228
D1,Agudo/RS,-29.6423259,-53.2494005,7,42.68032
1,Agudos do Sul/PR,-25.9890808,-49.3328175,399,4213.30517
D1,Agudos do Sul/PR,-25.9890808,-49.3328175,5,52.79831
1,Agudos/SP,-22.471162,-48.987822,1947,5205.74316
D1,Agudos/SP,-22.471162,-48.987822,45,120.31764
1,Aguiar/PB,-7.0928404,-38.1727215,219,3889.87567
D1,Aguiar/PB,-7.0928404,-38.1727215,3,53.28597
1,Aguiarnópolis/TO,-6.5600452,-47.4721189,495,7182.24028
D1,Aguiarnópolis/TO,-6.5600452,-47.4721189,11,159.60534
1,Aimorés/MG,-19.4917754,-41.0615603,1377,5477.10910
D1,Aimorés/MG,-19.4917754,-41.0615603,32,127.28213
1,Aiquara/BA,-14.126918,-39.8887574,432,9782.60870
D1,Aiquara/BA,-14.126918,-39.8887574,9,203.80435
1,Aiuaba/CE,-6.5710836,-40.1212278,271,1549.19111
D1,Aiuaba/CE,-6.5710836,-40.1212278,7,40.01601
1,Aiuruoca/MG,-21.9759554,-44.6036637,79,1321.95448
D1,Aiuruoca/MG,-21.9759554,-44.6036637,5,83.66801
1,Ajuricaba/RS,-28.239654,-53.7693013,559,8000.57249
D1,Ajuricaba/RS,-28.239654,-53.7693013,14,200.37212
1,Alagoa Grande/PB,-7.0415212,-35.6285322,2190,7700.69271
D1,Alagoa Grande/PB,-7.0415212,-35.6285322,41,144.16822
1,Alagoa Nova/PB,-7.0653703,-35.76695977336711,667,3188.18412
D1,Alagoa Nova/PB,-7.0653703,-35.76695977336711,13,62.13852
1,Alagoa/MG,-22.1697202,-44.6400042,234,8780.48780
D1,Alagoa/MG,-22.1697202,-44.6400042,1,37.52345
1,Alagoinha do Piauí/PI,-7.0090952,-40.939675,239,3118.06915
D1,Alagoinha do Piauí/PI,-7.0090952,-40.939675,9,117.41683
1,Alagoinha/PB,-6.97063215,-35.51490901897793,1284,8818.68132
D1,Alagoinha/PB,-6.97063215,-35.51490901897793,16,109.89011
1,Alagoinha/PE,-8.50355635,-36.77701174370496,450,3057.48064
D1,Alagoinha/PE,-8.50355635,-36.77701174370496,13,88.32722
1,Alagoinhas/BA,-12.133526,-38.420772,9780,6420.39822
D1,Alagoinhas/BA,-12.133526,-38.420772,174,114.22794
1,Alambari/SP,-23.550338,-47.897971,246,4013.70534
D1,Alambari/SP,-23.550338,-47.897971,8,130.52700
1,Albertina/MG,-20.66164,-43.784039,151,5014.94520
D1,Albertina/MG,-20.66164,-43.784039,6,199.26935
1,Alcantil/PB,-7.7425491,-36.0609604,176,3194.77219
D1,Alcantil/PB,-7.7425491,-36.0609604,4,72.60846
1,Alcinópolis/MS,-18.3264121,-53.7094463,91,1679.89662
D1,Alcinópolis/MS,-18.3264121,-53.7094463,2,36.92080
1,Alcobaça/BA,-17.5215875,-39.1965474,1119,4975.54469
D1,Alcobaça/BA,-17.5215875,-39.1965474,16,71.14273
1,Alcântara/MA,-2.4038956,-44.4154241,206,931.62084
D1,Alcântara/MA,-2.4038956,-44.4154241,9,40.70188
1,Alcântaras/CE,-3.586247,-40.5457641,835,7087.68356
D1,Alcântaras/CE,-3.586247,-40.5457641,5,42.44122
1,Aldeias Altas/MA,-4.6291957,-43.4708622,973,3636.43159
D1,Aldeias Altas/MA,-4.6291957,-43.4708622,11,41.11074
1,Alecrim/RS,-27.6566142,-54.7653195,209,3586.75133
D1,Alecrim/RS,-27.6566142,-54.7653195,5,85.80745
1,Alegre/ES,-20.7625787,-41.5318886,1445,4820.68390
D1,Alegre/ES,-20.7625787,-41.5318886,33,110.09174
1,Alegrete do Piauí/PI,-7.2440138,-40.8602296,377,7665.71777
D1,Alegrete do Piauí/PI,-7.2440138,-40.8602296,4,81.33388
1,Alegrete/RS,-29.790166,-55.794862,4335,5936.07931
D1,Alegrete/RS,-29.790166,-55.794862,136,186.22994
1,Alegria/RS,-27.8332103,-54.0574959,277,8209.83995
D1,Alegria/RS,-27.8332103,-54.0574959,1,29.63841
1,Alenquer/PA,-1.946229,-54.738355,2039,3571.42857
D1,Alenquer/PA,-1.946229,-54.738355,68,119.10600
1,Alexandria/RN,-6.414779,-38.0135516,941,6943.11223
D1,Alexandria/RN,-6.414779,-38.0135516,10,73.78440
1,Alexânia/GO,-16.0834049,-48.5077803,1956,6983.22028
D1,Alexânia/GO,-16.0834049,-48.5077803,30,107.10461
1,Alfenas/MG,-21.4297405,-45.9479419,4792,5953.23875
D1,Alfenas/MG,-21.4297405,-45.9479419,103,127.95985
1,Alfredo Chaves/ES,-20.624970400000002,-40.75006690147988,1792,12243.78245
D1,Alfredo Chaves/ES,-20.624970400000002,-40.75006690147988,24,163.97923
1,Alfredo Marcondes/SP,-21.9527,-51.413956,176,4206.50096
D1,Alfredo Marcondes/SP,-21.9527,-51.413956,6,143.40344
1,Alfredo Vasconcelos/MG,-21.145833,-43.776389,165,2363.55823
D1,Alfredo Vasconcelos/MG,-21.145833,-43.776389,5,71.62298
1,Alfredo Wagner/SC,-27.6961513,-49.3326734,583,5780.28951
D1,Alfredo Wagner/SC,-27.6961513,-49.3326734,4,39.65893
1,Algodão de Jandaíra/PB,-6.9040175,-36.0089879,80,3104.38494
1,Alhandra/PB,-7.4304246,-34.9106103,1056,5353.06940
D1,Alhandra/PB,-7.4304246,-34.9106103,22,111.52228
1,Aliança do Tocantins/TO,-11.3055927,-48.9409096,441,8249.15825
D1,Aliança do Tocantins/TO,-11.3055927,-48.9409096,11,205.76132
1,Aliança/PE,-7.60398,-35.222696,455,1184.98841
D1,Aliança/PE,-7.60398,-35.222696,32,83.33984
1,Almadina/BA,-14.70466,-39.6381994,558,10398.80731
D1,Almadina/BA,-14.70466,-39.6381994,9,167.72270
1,Almas/TO,-11.5681309,-47.1702803,162,2321.24946
D1,Almas/TO,-11.5681309,-47.1702803,3,42.98610
1,Almeirim/PA,-1.5290377,-52.5788111,2793,8196.38455
D1,Almeirim/PA,-1.5290377,-52.5788111,26,76.30004
1,Almenara/MG,-16.1740678,-40.6904907,2741,6504.04575
D1,Almenara/MG,-16.1740678,-40.6904907,27,64.06758
1,Almino Afonso/RN,-6.1544208,-37.7649018,258,5477.70701
D1,Almino Afonso/RN,-6.1544208,-37.7649018,7,148.61996
1,Almirante Tamandaré do Sul/RS,-28.1141129,-52.9134874,136,6977.93740
D1,Almirante Tamandaré do Sul/RS,-28.1141129,-52.9134874,1,51.30836
1,Almirante Tamandaré/PR,-25.3133048,-49.2997838,6609,5505.61891
D1,Almirante Tamandaré/PR,-25.3133048,-49.2997838,204,169.94194
1,Aloândia/GO,-17.7277983,-49.4809338,183,9214.50151
D1,Aloândia/GO,-17.7277983,-49.4809338,6,302.11480
1,Alpercata/MG,-18.9803616,-41.9827637,337,4532.00646
D1,Alpercata/MG,-18.9803616,-41.9827637,12,161.37708
1,Alpestre/RS,-27.2512339,-53.0349646,233,3840.44833
D1,Alpestre/RS,-27.2512339,-53.0349646,4,65.93044
1,Alpinópolis/MG,-20.863611,-46.387777,570,2855.99759
D1,Alpinópolis/MG,-20.863611,-46.387777,10,50.10522
1,Alta Floresta D'Oeste/RO,-11.9296917,-61.9961284,2781,12236.00845
D1,Alta Floresta D'Oeste/RO,-11.9296917,-61.9961284,41,180.39423
1,Alta Floresta/MT,-9.8715018,-56.0839881,5575,10729.61373
D1,Alta Floresta/MT,-9.8715018,-56.0839881,68,130.87242
1,Altair/SP,-20.5238955,-49.0606135,94,2245.58051
D1,Altair/SP,-20.5238955,-49.0606135,6,143.33493
1,Altamira do Maranhão/MA,-4.1643006,-45.4674574,277,3382.58640
D1,Altamira do Maranhão/MA,-4.1643006,-45.4674574,8,97.69203
1,Altamira do Paraná/PR,-24.799114,-52.7128633,79,4696.78954
D1,Altamira do Paraná/PR,-24.799114,-52.7128633,2,118.90606
1,Altamira/PA,-3.204065,-52.209961,10158,8759.23738
D1,Altamira/PA,-3.204065,-52.209961,200,172.45988
1,Altaneira/CE,-6.9980933,-39.7385742,292,3816.99346
D1,Altaneira/CE,-6.9980933,-39.7385742,11,143.79085
1,Alterosa/MG,-21.249166,-46.143055,477,3285.80285
D1,Alterosa/MG,-21.249166,-46.143055,24,165.32341
1,Altinho/PE,-8.4904095,-36.0607494,774,3367.56004
D1,Altinho/PE,-8.4904095,-36.0607494,15,65.26279
1,Altinópolis/SP,-21.021364,-47.3712,512,3159.90866
D1,Altinópolis/SP,-21.021364,-47.3712,16,98.74715
1,Alto Alegre do Maranhão/MA,-4.2055693,-44.4525287,622,2232.75181
D1,Alto Alegre do Maranhão/MA,-4.2055693,-44.4525287,21,75.38230
1,Alto Alegre do Pindaré/MA,-3.6698186,-45.8462153,1698,5315.71862
D1,Alto Alegre do Pindaré/MA,-3.6698186,-45.8462153,28,87.65614
1,Alto Alegre dos Parecis/RO,-12.1314515,-61.856265,736,5552.62165
D1,Alto Alegre dos Parecis/RO,-12.1314515,-61.856265,17,128.25349
1,Alto Alegre/RR,2.98858,-61.307167,1127,7327.69831
D1,Alto Alegre/RR,2.98858,-61.307167,23,149.54486
1,Alto Alegre/RS,-31.780844700000003,-52.81311114489171,88,5455.67266
1,Alto Alegre/SP,-21.5820592,-50.1661976,176,4305.28376
D1,Alto Alegre/SP,-21.5820592,-50.1661976,4,97.84736
1,Alto Araguaia/MT,-17.3156528,-53.2169365,876,4518.95796
D1,Alto Araguaia/MT,-17.3156528,-53.2169365,15,77.37942
1,Alto Bela Vista/SC,-27.4320737,-51.905771,103,5347.87124
D1,Alto Bela Vista/SC,-27.4320737,-51.905771,2,103.84216
1,Alto Boa Vista/MT,-11.6723985,-51.3744431,402,5795.84775
D1,Alto Boa Vista/MT,-11.6723985,-51.3744431,6,86.50519
1,Alto Caparaó/MG,-20.4405661,-41.8683799,283,4801.49304
D1,Alto Caparaó/MG,-20.4405661,-41.8683799,7,118.76485
1,Alto Feliz/RS,-29.3785943,-51.3123751,153,5039.52569
1,Alto Garças/MT,-16.9469683,-53.529427,425,3497.65451
D1,Alto Garças/MT,-16.9469683,-53.529427,20,164.59551
1,Alto Horizonte/GO,-14.1954948,-49.3366993,521,7887.96366
D1,Alto Horizonte/GO,-14.1954948,-49.3366993,4,60.56018
1,Alto Jequitibá/MG,-20.423611,-41.966111,441,5312.61294
D1,Alto Jequitibá/MG,-20.423611,-41.966111,9,108.42067
1,Alto Longá/PI,-5.2549051,-42.2072388,437,3047.63233
D1,Alto Longá/PI,-5.2549051,-42.2072388,11,76.71386
1,Alto Paraguai/MT,-14.513712,-56.4936374,417,3634.62041
D1,Alto Paraguai/MT,-14.513712,-56.4936374,13,113.30951
1,Alto Paraná/PR,-23.131247,-52.318893,581,3910.08816
D1,Alto Paraná/PR,-23.131247,-52.318893,12,80.75914
1,Alto Paraíso de Goiás/GO,-14.1304779,-47.5100161,472,6139.43809
D1,Alto Paraíso de Goiás/GO,-14.1304779,-47.5100161,2,26.01457
1,Alto Paraíso/PR,-23.508137,-53.728537,129,4804.46927
D1,Alto Paraíso/PR,-23.508137,-53.728537,1,37.24395
1,Alto Paraíso/RO,-9.7240103,-63.3188123,1294,5923.01002
D1,Alto Paraíso/RO,-9.7240103,-63.3188123,26,119.00947
1,Alto Parnaíba/MA,-9.112506,-45.9310154,650,5797.35997
D1,Alto Parnaíba/MA,-9.112506,-45.9310154,5,44.59508
1,Alto Piquiri/PR,-24.0239021,-53.4417448,409,4182.85948
D1,Alto Piquiri/PR,-24.0239021,-53.4417448,10,102.27040
1,Alto Rio Doce/MG,-21.0239537,-43.4133507,245,2256.19302
D1,Alto Rio Doce/MG,-21.0239537,-43.4133507,19,174.97007
1,Alto Rio Novo/ES,-19.0577208,-41.0171518,525,6667.51334
D1,Alto Rio Novo/ES,-19.0577208,-41.0171518,17,215.90043
1,Alto Santo/CE,-5.5190371,-38.2719351,675,3925.33147
D1,Alto Santo/CE,-5.5190371,-38.2719351,18,104.67551
1,Alto Taquari/MT,-17.8269099,-53.2831736,892,8012.21593
D1,Alto Taquari/MT,-17.8269099,-53.2831736,14,125.75227
1,Alto do Rodrigues/RN,-5.290868,-36.7616726,1046,7102.11841
D1,Alto do Rodrigues/RN,-5.290868,-36.7616726,23,156.16513
1,Altos/PI,-5.0393915,-42.4611694,3128,7703.48479
D1,Altos/PI,-5.0393915,-42.4611694,52,128.06305
1,Altônia/PR,-23.8722004,-53.894037,801,3612.01299
D1,Altônia/PR,-23.8722004,-53.894037,13,58.62193
1,Alumínio/SP,-23.5203479,-47.2575256,844,4497.25582
D1,Alumínio/SP,-23.5203479,-47.2575256,23,122.55555
1,Alvarenga/MG,-19.4175,-41.728334,334,8688.86576
D1,Alvarenga/MG,-19.4175,-41.728334,3,78.04370
1,Alvarães/AM,-3.214786,-64.8143124,2552,15733.66215
D1,Alvarães/AM,-3.214786,-64.8143124,35,215.78298
1,Alvinlândia/SP,-22.4431852,-49.7643596,79,2440.53136
1,Alvinópolis/MG,-20.1105199,-43.0601805,382,2518.29389
D1,Alvinópolis/MG,-20.1105199,-43.0601805,5,32.96196
1,Alvorada D'Oeste/RO,-11.346271,-62.284697,658,4664.68170
D1,Alvorada D'Oeste/RO,-11.346271,-62.284697,16,113.42691
1,Alvorada de Minas/MG,-18.7318587,-43.3641479,178,4937.58669
D1,Alvorada de Minas/MG,-18.7318587,-43.3641479,1,27.73925
1,Alvorada do Gurguéia/PI,-8.4465288,-43.8655915,210,3856.74931
D1,Alvorada do Gurguéia/PI,-8.4465288,-43.8655915,6,110.19284
1,Alvorada do Norte/GO,-14.483911,-46.4959897,505,5801.26364
D1,Alvorada do Norte/GO,-14.483911,-46.4959897,2,22.97530
1,Alvorada do Sul/PR,-22.7807269,-51.2307721,565,4911.76215
D1,Alvorada do Sul/PR,-22.7807269,-51.2307721,12,104.32061
1,Alvorada/RS,-29.9981184,-51.0772509,14029,6637.74178
D1,Alvorada/RS,-29.9981184,-51.0772509,443,209.60294
1,Alvorada/TO,-12.478465,-49.124926,926,11029.06146
D1,Alvorada/TO,-12.478465,-49.124926,13,154.83564
1,Além Paraíba/MG,-21.8760576,-42.6810473,2007,5669.33137
D1,Além Paraíba/MG,-21.8760576,-42.6810473,80,225.98232
1,Amajari/RR,3.6523869,-61.4194315,804,6097.83845
D1,Amajari/RR,3.6523869,-61.4194315,18,136.51877
1,Amambai/MS,-23.1082701,-55.2284854,1885,4733.08894
D1,Amambai/MS,-23.1082701,-55.2284854,35,87.88229
1,Amaporã/PR,-23.094272,-52.786597,145,2289.95578
1,Amapá do Maranhão/MA,-1.6762114,-46.0109669,77,1099.21485
1,Amapá/AP,2.0529997,-50.7930003,1158,12604.76761
D1,Amapá/AP,2.0529997,-50.7930003,9,97.96452
1,Amaraji/PE,-8.373925,-35.4536527,408,1783.99650
D1,Amaraji/PE,-8.373925,-35.4536527,26,113.68605
1,Amaral Ferrador/RS,-30.8750633,-52.2542051,164,2314.74947
D1,Amaral Ferrador/RS,-30.8750633,-52.2542051,4,56.45730
1,Amaralina/GO,-13.9236199,-49.2962411,40,1040.31209
1,Amarante do Maranhão/MA,-5.56913,-46.747284,1244,2981.14021
D1,Amarante do Maranhão/MA,-5.56913,-46.747284,39,93.46018
1,Amarante/PI,-6.2459374,-42.8476238,1044,5930.47035
D1,Amarante/PI,-6.2459374,-42.8476238,21,119.29107
1,Amargosa/BA,-13.03793715,-39.60796443875596,1971,5264.28247
D1,Amargosa/BA,-13.03793715,-39.60796443875596,37,98.82215
1,Amaturá/AM,-3.3640509,-68.1994689,1931,16453.64690
D1,Amaturá/AM,-3.3640509,-68.1994689,17,144.85344
1,Americana/SP,-22.7392463,-47.3306032,12659,5230.60268
D1,Americana/SP,-22.7392463,-47.3306032,323,133.46115
1,Americano do Brasil/GO,-16.2515808,-49.9806104,303,4915.63920
D1,Americano do Brasil/GO,-16.2515808,-49.9806104,10,162.23232
1,Ametista do Sul/RS,-27.3617341,-53.1826575,405,5470.75510
D1,Ametista do Sul/RS,-27.3617341,-53.1826575,10,135.08037
1,Amontada/CE,-3.3634586,-39.8284791,1397,3187.38735
D1,Amontada/CE,-3.3634586,-39.8284791,24,54.75827
1,Amorinópolis/GO,-16.6211308,-51.0949921,135,4398.82698
D1,Amorinópolis/GO,-16.6211308,-51.0949921,1,32.58390
1,Amparo de São Francisco/SE,-10.1299754,-36.9269099,112,4705.88235
D1,Amparo de São Francisco/SE,-10.1299754,-36.9269099,3,126.05042
1,Amparo do Serra/MG,-20.5070255,-42.8028462,90,1923.89910
D1,Amparo do Serra/MG,-20.5070255,-42.8028462,3,64.12997
1,Amparo/PB,-7.56394725,-37.04652873235175,125,5553.08752
D1,Amparo/PB,-7.56394725,-37.04652873235175,3,133.27410
1,Amparo/SP,-22.70111,-46.76444,3174,4367.26887
D1,Amparo/SP,-22.70111,-46.76444,82,112.82799
1,Ampére/PR,-25.9168712,-53.4742414,797,4127.18140
D1,Ampére/PR,-25.9168712,-53.4742414,20,103.56791
1,Amélia Rodrigues/BA,-12.4015388,-38.7516971,1547,6176.14181
D1,Amélia Rodrigues/BA,-12.4015388,-38.7516971,30,119.77004
1,América Dourada/BA,-11.4515262,-41.4357517,477,2964.57427
D1,América Dourada/BA,-11.4515262,-41.4357517,2,12.43008
1,Américo Brasiliense/SP,-21.7297099,-48.1052092,2684,6541.23611
D1,Américo Brasiliense/SP,-21.7297099,-48.1052092,56,136.47885
1,Américo de Campos/SP,-20.298476,-49.735904,500,8359.80605
D1,Américo de Campos/SP,-20.298476,-49.735904,17,284.23341
1,Anadia/AL,-9.6830208,-36.3052699,901,5140.93347
D1,Anadia/AL,-9.6830208,-36.3052699,17,96.99874
1,Anagé/BA,-14.6134669,-41.1376308,574,2656.54649
D1,Anagé/BA,-14.6134669,-41.1376308,13,60.16569
1,Anahy/PR,-24.6450861,-53.1337957,200,7173.60115
D1,Anahy/PR,-24.6450861,-53.1337957,3,107.60402
1,Anajatuba/MA,-3.26441,-44.6179916,625,2315.84408
D1,Anajatuba/MA,-3.26441,-44.6179916,16,59.28561
1,Anajás/PA,-0.9878802,-49.9390114,1175,3957.82808
D1,Anajás/PA,-0.9878802,-49.9390114,14,47.15710
1,Analândia/SP,-22.128917,-47.661939,210,4153.48101
D1,Analândia/SP,-22.128917,-47.661939,3,59.33544
1,Anamã/AM,-3.5797356,-61.4049996,1555,11142.16108
D1,Anamã/AM,-3.5797356,-61.4049996,4,28.66151
1,Ananindeua/PA,-1.374035,-48.4016623,15830,2955.85635
D1,Ananindeua/PA,-1.374035,-48.4016623,500,93.36249
1,Ananás/TO,-6.3663053,-48.080238,1253,13200.58997
D1,Ananás/TO,-6.3663053,-48.080238,19,200.16856
1,Anapu/PA,-3.4668292,-51.2057035,1220,4264.69046
D1,Anapu/PA,-3.4668292,-51.2057035,26,90.88685
1,Anapurus/MA,-3.6751298,-43.1046001,827,5203.22134
D1,Anapurus/MA,-3.6751298,-43.1046001,10,62.91682
1,Anastácio/MS,-20.4832458,-55.8048448,1529,6058.56481
D1,Anastácio/MS,-20.4832458,-55.8048448,46,182.27206
1,Anaurilândia/MS,-22.185169,-52.719056,226,2490.08374
D1,Anaurilândia/MS,-22.185169,-52.719056,7,77.12649
1,Anchieta/ES,-20.8057672,-40.6454564,3373,11326.77390
D1,Anchieta/ES,-20.8057672,-40.6454564,44,147.75513
1,Anchieta/SC,-26.5350527,-53.3293938,361,6496.31096
D1,Anchieta/SC,-26.5350527,-53.3293938,4,71.98128
1,Andaraí/BA,-12.8059674,-41.3322919,583,4439.53701
D1,Andaraí/BA,-12.8059674,-41.3322919,5,38.07493
1,Andirá/PR,-23.0494761,-50.2310027,1239,6218.00662
D1,Andirá/PR,-23.0494761,-50.2310027,42,210.77989
1,Andorinha/BA,-10.3445708,-39.8334411,594,4095.70434
D1,Andorinha/BA,-10.3445708,-39.8334411,9,62.05613
1,Andradas/MG,-22.0680484,-46.5688976,2030,4903.85544
D1,Andradas/MG,-22.0680484,-46.5688976,48,115.95323
1,Andradina/SP,-20.896505,-51.3742765,3589,6274.25614
D1,Andradina/SP,-20.896505,-51.3742765,119,208.03468
1,Andrelândia/MG,-21.739722,-44.308889,206,1687.69458
D1,Andrelândia/MG,-21.739722,-44.308889,6,49.15615
1,André da Rocha/RS,-28.6309124,-51.5733328,69,5137.75130
1,Angatuba/SP,-23.4938938,-48.4110675,1366,5361.27792
D1,Angatuba/SP,-23.4938938,-48.4110675,32,125.59363
1,Angelim/PE,-8.8902038,-36.2872987,118,1051.13130
D1,Angelim/PE,-8.8902038,-36.2872987,4,35.63157
1,Angelina/SC,-27.5805287,-48.9838759,395,8328.06241
D1,Angelina/SC,-27.5805287,-48.9838759,1,21.08370
1,Angelândia/MG,-17.7253,-42.2728,80,934.90709
1,Angical do Piauí/PI,-6.0872666,-42.7366138,294,4334.36533
D1,Angical do Piauí/PI,-6.0872666,-42.7366138,6,88.45644
1,Angical/BA,-12.005623,-44.7000236,346,2482.42216
D1,Angical/BA,-12.005623,-44.7000236,6,43.04778
1,Angico/TO,-6.3893733,-47.8656722,196,5674.58020
D1,Angico/TO,-6.3893733,-47.8656722,3,86.85582
1,Angicos/RN,-5.6666344,-36.6009064,393,3357.53951
D1,Angicos/RN,-5.6666344,-36.6009064,9,76.89022
1,Angra dos Reis/RJ,-23.0063966,-44.316326,11403,5507.52497
D1,Angra dos Reis/RJ,-23.0063966,-44.316326,358,172.91011
1,Anguera/BA,-12.1509425,-39.2452469,292,2584.75702
D1,Anguera/BA,-12.1509425,-39.2452469,1,8.85191
1,Angélica/MS,-22.1588196,-53.7728504,495,4527.99122
D1,Angélica/MS,-22.1588196,-53.7728504,9,82.32711
1,Anhanguera/GO,-18.3338749,-48.220363,70,6034.48276
D1,Anhanguera/GO,-18.3338749,-48.220363,6,517.24138
1,Anhembi/SP,-22.7891096,-48.1316776,100,1466.49069
D1,Anhembi/SP,-22.7891096,-48.1316776,2,29.32981
1,Anhumas/SP,-22.2956478,-51.3873401,168,4054.05405
D1,Anhumas/SP,-22.2956478,-51.3873401,2,48.26255
1,Anicuns/GO,-16.4606451,-49.9572265,1986,9035.07575
D1,Anicuns/GO,-16.4606451,-49.9572265,43,195.62349
1,Anita Garibaldi/SC,-27.6855032,-51.1293873,730,10493.02860
D1,Anita Garibaldi/SC,-27.6855032,-51.1293873,5,71.87006
1,Anitápolis/SC,-27.9041185,-49.1287395,273,8457.24907
D1,Anitápolis/SC,-27.9041185,-49.1287395,1,30.97893
1,Anori/AM,-3.7435254,-61.6605203,1804,8399.68338
D1,Anori/AM,-3.7435254,-61.6605203,29,135.02817
1,Anta Gorda/RS,-28.9718745,-52.0069187,496,8320.75155
D1,Anta Gorda/RS,-28.9718745,-52.0069187,4,67.10284
1,Antas/BA,-10.4114649,-38.3308815,898,4610.09292
D1,Antas/BA,-10.4114649,-38.3308815,3,15.40120
1,Antonina do Norte/CE,-6.7754187,-39.9879345,123,1667.11846
D1,Antonina do Norte/CE,-6.7754187,-39.9879345,8,108.43047
1,Antonina/PR,-25.4298854,-48.7125431,1686,8897.56715
D1,Antonina/PR,-25.4298854,-48.7125431,44,232.20223
1,Antônio Almeida/PI,-7.2186016,-44.1950248,363,11451.10410
D1,Antônio Almeida/PI,-7.2186016,-44.1950248,9,283.91167
1,Antônio Cardoso/BA,-12.4363122,-39.1200307,280,2397.87617
D1,Antônio Cardoso/BA,-12.4363122,-39.1200307,5,42.81922
1,Antônio Carlos/MG,-21.318334,-43.746666,355,3098.00157
D1,Antônio Carlos/MG,-21.318334,-43.746666,6,52.36059
1,Antônio Carlos/SC,-27.5168462,-48.7684715,1348,15650.76048
D1,Antônio Carlos/SC,-27.5168462,-48.7684715,17,197.37606
1,Antônio Dias/MG,-19.6525,-42.872778,322,3471.69811
D1,Antônio Dias/MG,-19.6525,-42.872778,7,75.47170
1,Antônio Gonçalves/BA,-10.5715409,-40.2748824,526,4428.35494
D1,Antônio Gonçalves/BA,-10.5715409,-40.2748824,5,42.09463
1,Antônio João/MS,-22.1892837,-55.9508227,233,2583.14856
D1,Antônio João/MS,-22.1892837,-55.9508227,4,44.34590
1,Antônio Martins/RN,-6.2155812,-37.8890129,232,3242.94101
D1,Antônio Martins/RN,-6.2155812,-37.8890129,2,27.95639
1,Antônio Olinto/PR,-25.9849006,-50.1974516,226,3042.95139
D1,Antônio Olinto/PR,-25.9849006,-50.1974516,2,26.92877
1,Antônio Prado de Minas/MG,-21.0171988,-42.1101106,144,9073.72401
D1,Antônio Prado de Minas/MG,-21.0171988,-42.1101106,4,252.04789
1,Antônio Prado/RS,-28.8567806,-51.2801355,1423,10908.39402
D1,Antônio Prado/RS,-28.8567806,-51.2801355,14,107.32081
1,Anápolis/GO,-16.3332828,-48.9525756,24481,6248.78756
D1,Anápolis/GO,-16.3332828,-48.9525756,644,164.38132
1,Anísio de Abreu/PI,-9.185643,-43.04941,243,2445.15999
D1,Anísio de Abreu/PI,-9.185643,-43.04941,2,20.12477
1,Aparecida d'Oeste/SP,-20.4498109,-50.8808706,486,11688.31169
D1,Aparecida d'Oeste/SP,-20.4498109,-50.8808706,11,264.55026
1,Aparecida de Goiânia/GO,-16.8226769,-49.2452546,51661,8753.93547
D1,Aparecida de Goiânia/GO,-16.8226769,-49.2452546,888,150.47124
1,Aparecida do Rio Doce/GO,-18.2980167,-51.1491312,153,6184.31690
D1,Aparecida do Rio Doce/GO,-18.2980167,-51.1491312,2,80.84074
1,Aparecida do Rio Negro/TO,-9.9513491,-47.9773786,259,5342.40924
D1,Aparecida do Rio Negro/TO,-9.9513491,-47.9773786,5,103.13531
1,Aparecida do Taboado/MS,-20.0840304,-51.1013943,1787,6854.88511
D1,Aparecida do Taboado/MS,-20.0840304,-51.1013943,25,95.89934
1,Aparecida/PB,-6.7859598, -38.0831353,624,7414.44867
D1,Aparecida/PB,-6.7859598, -38.0831353,9,106.93916
1,Aparecida/SP,-22.851552,-45.2340924,1642,4537.79190
D1,Aparecida/SP,-22.851552,-45.2340924,43,118.83377
1,Aperibé/RJ,-21.6211928,-42.1028167,327,2747.66826
D1,Aperibé/RJ,-21.6211928,-42.1028167,13,109.23452
1,Apiacá/ES,-21.152272,-41.569297,515,6817.58009
D1,Apiacá/ES,-21.152272,-41.569297,15,198.57029
1,Apiacás/MT,-9.5678422,-57.394852,824,8013.22571
D1,Apiacás/MT,-9.5678422,-57.394852,5,48.62394
1,Apiaí/SP,-24.5076527,-48.8461582,795,3281.59828
D1,Apiaí/SP,-24.5076527,-48.8461582,29,119.70610
1,Apicum-Açu/MA,-1.5279295,-45.082278,285,1636.70821
D1,Apicum-Açu/MA,-1.5279295,-45.082278,3,17.22851
1,Apiúna/SC,-27.0374658,-49.3885037,622,5733.77581
D1,Apiúna/SC,-27.0374658,-49.3885037,12,110.61947
1,Apodi/RN,-5.6631109,-37.796927,4222,11768.96917
D1,Apodi/RN,-5.6631109,-37.796927,53,147.73931
1,Aporá/BA,-11.6599747,-38.0794757,384,2158.75871
D1,Aporá/BA,-11.6599747,-38.0794757,12,67.46121
1,Aporé/GO,-18.9642193,-51.92804,239,5647.44802
D1,Aporé/GO,-18.9642193,-51.92804,5,118.14745
1,Apuarema/BA,-13.8517897,-39.7457126,595,8148.45248
D1,Apuarema/BA,-13.8517897,-39.7457126,9,123.25390
1,Apucarana/PR,-23.5525327,-51.4610764,4591,3369.93702
D1,Apucarana/PR,-23.5525327,-51.4610764,153,112.30677
1,Apuiarés/CE,-3.9460303,-39.4313298,550,3748.63686
D1,Apuiarés/CE,-3.9460303,-39.4313298,13,88.60414
1,Apuí/AM,-7.1940195,-59.8830192,1029,4602.17362
D1,Apuí/AM,-7.1940195,-59.8830192,19,84.97697
1,Aquidabã/SE,-10.2837579,-37.0188687,1439,6637.14773
D1,Aquidabã/SE,-10.2837579,-37.0188687,24,110.69600
1,Aquidauana/MS,-20.473969,-55.7821375,3620,7537.11299
D1,Aquidauana/MS,-20.473969,-55.7821375,94,195.71509
1,Aquiraz/CE,-3.9063117,-38.387504,3295,4071.16822
D1,Aquiraz/CE,-3.9063117,-38.387504,55,67.95577
1,Arabutã/SC,-27.1587028,-52.1438142,310,7265.05742
D1,Arabutã/SC,-27.1587028,-52.1438142,4,93.74268
1,Aracaju/SE,-10.9162061,-37.0774655,84726,12742.51475
D1,Aracaju/SE,-10.9162061,-37.0774655,1254,188.59752
1,Aracati/CE,-4.558259,-37.767894,3720,4961.65388
D1,Aracati/CE,-4.558259,-37.767894,81,108.03601
1,Aracatu/BA,-14.4274236,-41.4604105,592,4538.13722
D1,Aracatu/BA,-14.4274236,-41.4604105,9,68.99195
1,Araci/BA,-11.3356065,-38.9573261,2961,5418.31357
D1,Araci/BA,-11.3356065,-38.9573261,31,56.72669
1,Aracitaba/MG,-21.3425,-43.378611,70,3399.70860
D1,Aracitaba/MG,-21.3425,-43.378611,7,339.97086
1,Aracoiaba/CE,-4.3702577,-38.8084313,1314,4951.95025
D1,Aracoiaba/CE,-4.3702577,-38.8084313,21,79.14076
1,Aracruz/ES,-19.8245218,-40.2735025,11396,11053.23906
D1,Aracruz/ES,-19.8245218,-40.2735025,156,151.30794
1,Aragarças/GO,-15.8957166,-52.2514538,1591,7847.87649
D1,Aragarças/GO,-15.8957166,-52.2514538,34,167.71075
1,Aragoiânia/GO,-16.9146388,-49.4499148,717,6831.17378
D1,Aragoiânia/GO,-16.9146388,-49.4499148,6,57.16463
1,Aragominas/TO,-7.1654101,-48.525488,423,7380.91084
D1,Aragominas/TO,-7.1654101,-48.525488,8,139.59169
1,Araguacema/TO,-8.8067391,-49.5560969,327,4570.23061
D1,Araguacema/TO,-8.8067391,-49.5560969,9,125.78616
1,Araguaiana/MT,-15.729144,-51.834112,96,3087.80959
D1,Araguaiana/MT,-15.729144,-51.834112,1,32.16468
1,Araguainha/MT,-16.857016,-53.031778,16,1691.33192
1,Araguanã/MA,-2.9508403,-45.6651986,644,4141.21278
D1,Araguanã/MA,-2.9508403,-45.6651986,5,32.15227
1,Araguanã/TO,-6.5799107,-48.6428482,208,3590.54031
D1,Araguanã/TO,-6.5799107,-48.6428482,11,189.88434
1,Araguapaz/GO,-15.0937927,-50.626417,357,4586.92021
D1,Araguapaz/GO,-15.0937927,-50.626417,14,179.87922
1,Araguari/MG,-18.6511256,-48.1933764,9753,8277.53024
D1,Araguari/MG,-18.6511256,-48.1933764,262,222.36367
1,Araguatins/TO,-5.6522925,-48.1158973,1465,4050.31794
D1,Araguatins/TO,-5.6522925,-48.1158973,41,113.35361
1,Araguaçu/TO,-12.928934,-49.823134,691,8161.09602
D1,Araguaçu/TO,-12.928934,-49.823134,14,165.34782
1,Araguaína/TO,-7.193241,-48.2018597,23352,12734.14367
D1,Araguaína/TO,-7.193241,-48.2018597,296,161.41258
1,Araioses/MA,-2.890914,-41.904993,597,1276.43198
D1,Araioses/MA,-2.890914,-41.904993,10,21.38077
1,Aral Moreira/MS,-22.951141,-55.6268421,323,2619.20208
D1,Aral Moreira/MS,-22.951141,-55.6268421,8,64.87188
1,Aramari/BA,-12.0907897,-38.4985065,473,4127.03953
D1,Aramari/BA,-12.0907897,-38.4985065,10,87.25242
1,Arambaré/RS,-30.9132252,-51.4994625,108,3032.00449
D1,Arambaré/RS,-30.9132252,-51.4994625,3,84.22235
1,Arame/MA,-4.8858769,-46.0102484,979,2988.03565
D1,Arame/MA,-4.8858769,-46.0102484,26,79.35539
1,Aramina/SP,-20.0876144,-47.789201,198,3501.32626
D1,Aramina/SP,-20.0876144,-47.789201,7,123.78426
1,Arandu/SP,-23.1345103,-49.0545651,198,3110.76198
D1,Arandu/SP,-23.1345103,-49.0545651,7,109.97643
1,Arantina/MG,-21.911667,-44.255833,64,2296.37603
D1,Arantina/MG,-21.911667,-44.255833,2,71.76175
1,Arapeí/SP,-22.6738889,-44.4477778,165,6707.31707
D1,Arapeí/SP,-22.6738889,-44.4477778,2,81.30081
1,Arapiraca/AL,-9.754866,-36.661471,18806,8069.61686
D1,Arapiraca/AL,-9.754866,-36.661471,276,118.43105
1,Arapoema/TO,-7.6575001,-49.0641484,387,5849.45586
D1,Arapoema/TO,-7.6575001,-49.0641484,5,75.57437
1,Araponga/MG,-20.666667,-42.520556,252,2981.19011
D1,Araponga/MG,-20.666667,-42.520556,2,23.66024
1,Arapongas/PR,-23.415296,-51.42592,8165,6541.94375
D1,Arapongas/PR,-23.415296,-51.42592,270,216.32882
1,Araporã/MG,-18.4318188,-49.188313,1396,20141.39374
D1,Araporã/MG,-18.4318188,-49.188313,18,259.70278
1,Arapoti/PR,-24.1457957,-49.8224605,1875,6625.44170
D1,Arapoti/PR,-24.1457957,-49.8224605,24,84.80565
1,Araputanga/MT,-15.4710868,-58.346796,1249,7368.29686
D1,Araputanga/MT,-15.4710868,-58.346796,30,176.98071
1,Arapuá/MG,-19.034444,-46.155556,94,3315.69665
D1,Arapuá/MG,-19.034444,-46.155556,1,35.27337
1,Arapuã/PR,-24.3079525,-51.7901941,152,5051.51213
D1,Arapuã/PR,-24.3079525,-51.7901941,4,132.93453
1,Araquari/SC,-26.3703324,-48.7210994,2444,6183.58466
D1,Araquari/SC,-26.3703324,-48.7210994,41,103.73444
1,Arara/PB,-6.8271895,-35.7605703,400,2953.77345
D1,Arara/PB,-6.8271895,-35.7605703,11,81.22877
1,Araranguá/SC,-28.9348832,-49.4858389,7477,10857.15945
D1,Araranguá/SC,-28.9348832,-49.4858389,138,200.38625
1,Araraquara/SP,-21.7886713,-48.1773096,13361,5605.88070
D1,Araraquara/SP,-21.7886713,-48.1773096,291,122.09500
1,Araras/SP,-22.3569477,-47.3838889,10078,7437.30905
D1,Araras/SP,-22.3569477,-47.3838889,207,152.76076
1,Ararendá/CE,-4.7504395,-40.8303611,540,4927.45688
D1,Ararendá/CE,-4.7504395,-40.8303611,9,82.12428
1,Arari/MA,-3.4547602,-44.7772723,381,1272.88521
D1,Arari/MA,-3.4547602,-44.7772723,15,50.11359
1,Araricá/RS,-29.6168543,-50.929121,827,14330.27205
D1,Araricá/RS,-29.6168543,-50.929121,20,346.56039
1,Araripe/CE,-7.212861,-40.1359222,613,2830.88575
D1,Araripe/CE,-7.212861,-40.1359222,7,32.32659
1,Araripina/PE,-7.5768582,-40.5038509,4737,5581.87217
D1,Araripina/PE,-7.5768582,-40.5038509,83,97.80354
1,Araruama/RJ,-22.8733203,-42.3428897,3926,2923.45841
D1,Araruama/RJ,-22.8733203,-42.3428897,124,92.33542
1,Araruna/PB,-6.5321155,-35.7397595,564,2756.19411
D1,Araruna/PB,-6.5321155,-35.7397595,15,73.30303
1,Araruna/PR,-23.9320308,-52.4976047,794,5671.42857
D1,Araruna/PR,-23.9320308,-52.4976047,13,92.85714
1,Arataca/BA,-15.2617424,-39.4122943,408,3722.28811
D1,Arataca/BA,-15.2617424,-39.4122943,12,109.47906
1,Aratiba/RS,-27.3955734,-52.3024325,287,4637.25965
D1,Aratiba/RS,-27.3955734,-52.3024325,5,80.78850
1,Aratuba/CE,-4.4195958,-39.0463737,423,3584.13828
D1,Aratuba/CE,-4.4195958,-39.0463737,3,25.41942
1,Aratuípe/BA,-13.077137,-39.0010786,251,2840.33043
D1,Aratuípe/BA,-13.077137,-39.0010786,7,79.21240
1,Araucária/PR,-25.5861107,-49.4051209,16461,11258.15585
D1,Araucária/PR,-25.5861107,-49.4051209,212,144.99296
1,Arauá/SE,-11.2644014,-37.6181058,653,6564.79341
D1,Arauá/SE,-11.2644014,-37.6181058,12,120.63939
1,Araxá/MG,-19.5928536,-46.940241,7208,6715.29855
D1,Araxá/MG,-19.5928536,-46.940241,94,87.57465
1,Araçagi/PB,-6.8519969,-35.3835602,824,4869.68855
D1,Araçagi/PB,-6.8519969,-35.3835602,9,53.18835
1,Araçariguama/SP,-23.438611,-47.061389,904,3954.50569
D1,Araçariguama/SP,-23.438611,-47.061389,25,109.36133
1,Araçatuba/SP,-21.207992,-50.4390225,17811,8989.59769
D1,Araçatuba/SP,-21.207992,-50.4390225,401,202.39339
1,Araçaí/MG,-19.200833,-44.2475,44,1869.15888
1,Araçoiaba da Serra/SP,-23.5045367,-47.6168158,1568,4508.85668
D1,Araçoiaba da Serra/SP,-23.5045367,-47.6168158,33,94.89303
1,Araçoiaba/PE,-7.7856903,-35.0898881,292,1408.38277
D1,Araçoiaba/PE,-7.7856903,-35.0898881,21,101.28780
1,Araçu/GO,-16.3561579,-49.6815269,310,8892.71371
D1,Araçu/GO,-16.3561579,-49.6815269,9,258.17556
1,Araçuaí/MG,-16.8484451,-42.0661868,715,1947.59207
D1,Araçuaí/MG,-16.8484451,-42.0661868,16,43.58248
1,Araçás/BA,-12.2139176,-38.2026159,493,4038.33552
D1,Araçás/BA,-12.2139176,-38.2026159,7,57.33945
1,Araújos/MG,-19.948055,-45.165556,464,4935.64514
D1,Araújos/MG,-19.948055,-45.165556,3,31.91150
1,Arceburgo/MG,-21.364444,-46.939722,419,3850.04135
D1,Arceburgo/MG,-21.364444,-46.939722,7,64.32050
1,Arco-Íris/SP,-21.7741308,-50.4668814,65,3666.10265
D1,Arco-Íris/SP,-21.7741308,-50.4668814,5,282.00790
1,Arcos/MG,-20.282223,-45.539444,3438,8514.11590
D1,Arcos/MG,-20.282223,-45.539444,37,91.62952
1,Arcoverde/PE,-8.415192,-37.057748,4340,5800.43303
D1,Arcoverde/PE,-8.415192,-37.057748,87,116.27596
1,Areado/MG,-21.3582771,-46.1476688,433,2852.24952
D1,Areado/MG,-21.3582771,-46.1476688,10,65.87181
1,Areal/RJ,-22.2314922,-43.1056264,427,3370.43176
D1,Areal/RJ,-22.2314922,-43.1056264,21,165.75894
1,Arealva/SP,-22.0301906,-48.9111936,440,5108.55683
D1,Arealva/SP,-22.0301906,-48.9111936,5,58.05178
1,Areia Branca/RN,-4.9506652,-37.1263312,1584,5663.81807
D1,Areia Branca/RN,-4.9506652,-37.1263312,66,235.99242
1,Areia Branca/SE,-10.7591455,-37.3148072,1153,6170.39495
D1,Areia Branca/SE,-10.7591455,-37.3148072,25,133.79000
1,Areia de Baraúnas/PB,-7.1233949,-36.9446216,42,1984.87713
1,Areia/PB,-6.9680243,-35.6994783,970,4281.42655
D1,Areia/PB,-6.9680243,-35.6994783,17,75.03531
1,Areial/PB,-7.0501306,-35.9245244,173,2461.93255
D1,Areial/PB,-7.0501306,-35.9245244,6,85.38494
1,Areias/SP,-22.5800929,-44.6975127,195,5005.13347
D1,Areias/SP,-22.5800929,-44.6975127,1,25.66735
1,Areiópolis/SP,-22.6758064,-48.6673653,532,4767.87955
D1,Areiópolis/SP,-22.6758064,-48.6673653,6,53.77308
1,Arenápolis/MT,-14.4610369,-56.8432806,999,10513.57609
D1,Arenápolis/MT,-14.4610369,-56.8432806,14,147.33740
1,Arenópolis/GO,-16.3859286,-51.55937,112,4416.40379
D1,Arenópolis/GO,-16.3859286,-51.55937,1,39.43218
1,Argirita/MG,-21.612761,-42.8371922,220,8136.09467
D1,Argirita/MG,-21.612761,-42.8371922,5,184.91124
1,Aricanduva/MG,-17.8678,-42.5569,47,892.00987
1,Arinos/MG,-15.917223,-46.106111,251,1405.21778
D1,Arinos/MG,-15.917223,-46.106111,7,39.18934
1,Aripuanã/MT,-10.175806,-59.4439663,1656,7290.65774
D1,Aripuanã/MT,-10.175806,-59.4439663,28,123.27199
1,Ariquemes/RO,-9.9076522,-63.033069,15010,13704.88391
D1,Ariquemes/RO,-9.9076522,-63.033069,292,266.61067
1,Ariranha do Ivaí/PR,-24.3834527,-51.5876772,103,4985.47919
D1,Ariranha do Ivaí/PR,-24.3834527,-51.5876772,2,96.80542
1,Ariranha/SP,-21.18716,-48.790418,295,3022.23133
D1,Ariranha/SP,-21.18716,-48.790418,13,133.18308
1,Armazém/SC,-28.2624996,-49.0190126,1119,12775.43099
D1,Armazém/SC,-28.2624996,-49.0190126,10,114.16828
1,Armação dos Búzios/RJ,-22.7597805,-41.8875267,3016,8747.86089
D1,Armação dos Búzios/RJ,-22.7597805,-41.8875267,29,84.11405
1,Arneiroz/CE,-6.3235099,-40.1603859,137,1746.55788
D1,Arneiroz/CE,-6.3235099,-40.1603859,7,89.24018
1,Aroazes/PI,-6.1108814,-41.7886137,402,6898.91883
D1,Aroazes/PI,-6.1108814,-41.7886137,10,171.61490
1,Aroeiras do Itaim/PI,-7.2797031,-41.5629681,97,3802.43042
D1,Aroeiras do Itaim/PI,-7.2797031,-41.5629681,1,39.20031
1,Aroeiras/PB,-7.5462904,-35.7080002,728,3808.32810
D1,Aroeiras/PB,-7.5462904,-35.7080002,4,20.92488
1,Arraial do Cabo/RJ,-22.9662839,-42.024427,529,1729.15373
D1,Arraial do Cabo/RJ,-22.9662839,-42.024427,11,35.95594
1,Arraial/PI,-6.6541632,-42.5335332,121,2563.55932
D1,Arraial/PI,-6.6541632,-42.5335332,2,42.37288
1,Arraias/TO,-12.9287788,-46.9437231,336,3189.67154
D1,Arraias/TO,-12.9287788,-46.9437231,2,18.98614
1,Arroio Grande/RS,-32.2384246,-53.0866661,828,4539.97149
D1,Arroio Grande/RS,-32.2384246,-53.0866661,20,109.66115
1,Arroio Trinta/SC,-26.9301976,-51.334928,356,10030.99465
D1,Arroio Trinta/SC,-26.9301976,-51.334928,5,140.88476
1,Arroio do Meio/RS,-29.4020392,-51.9444993,1864,8890.16073
D1,Arroio do Meio/RS,-29.4020392,-51.9444993,16,76.31039
1,Arroio do Padre/RS,-31.4428773,-52.4228985,105,3558.11589
D1,Arroio do Padre/RS,-31.4428773,-52.4228985,1,33.88682
1,Arroio do Sal/RS,-29.549852,-49.8874395,756,7354.80105
D1,Arroio do Sal/RS,-29.549852,-49.8874395,21,204.30003
1,Arroio do Tigre/RS,-29.334158,-53.0888935,836,6232.75926
D1,Arroio do Tigre/RS,-29.334158,-53.0888935,11,82.00999
1,Arroio dos Ratos/RS,-30.0894524,-51.7265541,653,4606.05206
D1,Arroio dos Ratos/RS,-30.0894524,-51.7265541,21,148.12725
1,Artur Nogueira/SP,-22.572737,-47.172679,2396,4329.59884
D1,Artur Nogueira/SP,-22.572737,-47.172679,59,106.61366
1,Aruanã/GO,-14.9162439,-51.0715692,334,3303.65974
D1,Aruanã/GO,-14.9162439,-51.0715692,7,69.23838
1,Arujá/SP,-23.396266,-46.3175449,4590,5035.26882
D1,Arujá/SP,-23.396266,-46.3175449,150,164.55127
1,Arvoredo/SC,-27.0752908,-52.4571847,255,11414.50313
D1,Arvoredo/SC,-27.0752908,-52.4571847,3,134.28827
1,Arvorezinha/RS,-28.87369,-52.17808,598,5737.31171
D1,Arvorezinha/RS,-28.87369,-52.17808,18,172.69500
1,Arês/RN,-6.1969216,-35.1642968,586,4064.64590
D1,Arês/RN,-6.1969216,-35.1642968,18,124.85260
1,Ascurra/SC,-26.9569975,-49.3767752,924,11581.85009
D1,Ascurra/SC,-26.9569975,-49.3767752,5,62.67235
1,Aspásia/SP,-20.160028,-50.728046,69,3795.37954
D1,Aspásia/SP,-20.160028,-50.728046,3,165.01650
1,Assaré/CE,-6.8746791,-39.8741385,1057,4502.08706
D1,Assaré/CE,-6.8746791,-39.8741385,24,102.22336
1,Assaí/PR,-23.3736041,-50.8454929,879,5878.02595
D1,Assaí/PR,-23.3736041,-50.8454929,23,153.80500
1,Assis Brasil/AC,-10.9409203,-69.5672108,1312,17414.38811
D1,Assis Brasil/AC,-10.9409203,-69.5672108,16,212.37059
1,Assis Chateaubriand/PR,-24.4054826,-53.5120468,2616,7846.43071
D1,Assis Chateaubriand/PR,-24.4054826,-53.5120468,33,98.98020
1,Assis/SP,-22.6620892,-50.420623,4940,4700.86690
D1,Assis/SP,-22.6620892,-50.420623,104,98.96562
1,Assunção do Piauí/PI,-5.8610212,-41.0485091,217,2759.76091
D1,Assunção do Piauí/PI,-5.8610212,-41.0485091,4,50.87117
1,Assunção/PB,-7.073396,-36.7274003,230,5708.61256
D1,Assunção/PB,-7.073396,-36.7274003,1,24.82005
1,Astolfo Dutra/MG,-21.3132636,-42.8624102,852,5970.56762
D1,Astolfo Dutra/MG,-21.3132636,-42.8624102,13,91.10021
1,Astorga/PR,-23.2350184,-51.6647074,1899,7245.60266
D1,Astorga/PR,-23.2350184,-51.6647074,27,103.01805
1,Atalaia do Norte/AM,-4.3658547,-70.1908742,2506,12285.51819
D1,Atalaia do Norte/AM,-4.3658547,-70.1908742,7,34.31709
1,Atalaia/AL,-9.5029595,-36.0219316,855,1805.13037
D1,Atalaia/AL,-9.5029595,-36.0219316,31,65.44917
1,Atalaia/PR,-23.1513833,-52.0529697,279,7188.86885
D1,Atalaia/PR,-23.1513833,-52.0529697,11,283.43211
1,Atalanta/SC,-27.421916,-49.778863,177,5539.90610
D1,Atalanta/SC,-27.421916,-49.778863,2,62.59781
1,Ataléia/MG,-18.04432,-41.1110524,828,6530.99858
D1,Ataléia/MG,-18.04432,-41.1110524,6,47.32608
1,Atibaia/SP,-23.1177393,-46.5547861,6919,4801.92660
D1,Atibaia/SP,-23.1177393,-46.5547861,137,95.08078
1,Atilio Vivacqua/ES,-20.9139369,-41.1947519,1074,8872.36679
D1,Atilio Vivacqua/ES,-20.9139369,-41.1947519,17,140.43784
1,Augustinópolis/TO,-5.4662267,-47.8897519,1134,6082.71201
D1,Augustinópolis/TO,-5.4662267,-47.8897519,16,85.82310
1,Augusto Corrêa/PA,-1.0229335,-46.6404029,1647,3544.14581
D1,Augusto Corrêa/PA,-1.0229335,-46.6404029,29,62.40451
1,Augusto Pestana/RS,-28.5148413,-53.9906433,258,3907.90669
D1,Augusto Pestana/RS,-28.5148413,-53.9906433,2,30.29385
1,Augusto de Lima/MG,-18.1092963,-44.2651945,138,2844.77427
D1,Augusto de Lima/MG,-18.1092963,-44.2651945,4,82.45723
1,Aurelino Leal/BA,-14.3167137,-39.3256107,776,6867.86441
D1,Aurelino Leal/BA,-14.3167137,-39.3256107,21,185.85716
1,Auriflama/SP,-20.6840418,-50.5554616,1199,7860.74871
D1,Auriflama/SP,-20.6840418,-50.5554616,24,157.34610
1,Aurilândia/GO,-16.6772599,-50.4641231,160,5232.17789
D1,Aurilândia/GO,-16.6772599,-50.4641231,3,98.10334
1,Aurora do Pará/PA,-2.1323199,-47.558436,911,2867.21430
D1,Aurora do Pará/PA,-2.1323199,-47.558436,11,34.62059
1,Aurora do Tocantins/TO,-12.71045,-46.407604,139,3674.33254
D1,Aurora do Tocantins/TO,-12.71045,-46.407604,2,52.86809
1,Aurora/CE,-6.9426019,-38.9693765,1048,4258.43153
D1,Aurora/CE,-6.9426019,-38.9693765,25,101.58472
1,Aurora/SC,-27.3166417,-49.6368502,539,9484.42724
D1,Aurora/SC,-27.3166417,-49.6368502,11,193.55974
1,Autazes/AM,-3.5833283,-59.1301518,2560,6353.93398
D1,Autazes/AM,-3.5833283,-59.1301518,84,208.48846
1,Avanhandava/SP,-21.4603331,-49.9465156,466,3362.43596
D1,Avanhandava/SP,-21.4603331,-49.9465156,20,144.31056
1,Avaré/SP,-23.1045215,-48.9259103,3967,4348.25500
D1,Avaré/SP,-23.1045215,-48.9259103,72,78.91968
1,Avaí/SP,-22.1564662,-49.3316395,187,3440.02943
D1,Avaí/SP,-22.1564662,-49.3316395,3,55.18764
1,Aveiro/PA,-3.6049239,-55.3310742,554,3377.22507
D1,Aveiro/PA,-3.6049239,-55.3310742,7,42.67252
1,Avelino Lopes/PI,-10.1346855,-43.9489525,227,2004.23804
D1,Avelino Lopes/PI,-10.1346855,-43.9489525,17,150.09712
1,Avelinópolis/GO,-16.4672409,-49.7578661,221,9173.93109
D1,Avelinópolis/GO,-16.4672409,-49.7578661,8,332.08800
1,Axixá do Tocantins/TO,-5.612747,-47.77007,700,7152.34495
D1,Axixá do Tocantins/TO,-5.612747,-47.77007,10,102.17636
1,Axixá/MA,-2.8379465,-44.0561053,180,1477.46860
D1,Axixá/MA,-2.8379465,-44.0561053,4,32.83264
1,Açailândia/MA,-4.9514278,-47.4844564,4329,3826.87565
D1,Açailândia/MA,-4.9514278,-47.4844564,138,121.99326
1,Açu/RN,-5.5836157,-36.9139541,3653,6256.85119
D1,Açu/RN,-5.5836157,-36.9139541,102,174.70540
1,Açucena/MG,-19.073056,-42.546666,371,3960.29035
D1,Açucena/MG,-19.073056,-42.546666,10,106.74637
1,Babaçulândia/TO,-7.2034355,-47.761613,531,4978.43615
D1,Babaçulândia/TO,-7.2034355,-47.761613,4,37.50234
1,Bacabal/MA,-4.2318132,-44.781167,3972,3790.43802
D1,Bacabal/MA,-4.2318132,-44.781167,104,99.24611
1,Bacabeira/MA,-2.9775747,-44.3155943,252,1460.70021
D1,Bacabeira/MA,-2.9775747,-44.3155943,4,23.18572
1,Bacuri/MA,-1.728894,-45.1417148,429,2299.77485
D1,Bacuri/MA,-1.728894,-45.1417148,4,21.44312
1,Bacurituba/MA,-2.7082587,-44.7381309,111,1957.67196
D1,Bacurituba/MA,-2.7082587,-44.7381309,1,17.63668
1,Bady Bassitt/SP,-20.9178969,-49.4517911,1911,10759.52931
D1,Bady Bassitt/SP,-20.9178969,-49.4517911,28,157.64878
1,Baependi/MG,-21.959162,-44.8899249,904,4708.57857
D1,Baependi/MG,-21.959162,-44.8899249,10,52.08605
1,Bagre/PA,-1.8994498,-50.2103844,745,2378.29210
D1,Bagre/PA,-1.8994498,-50.2103844,11,35.11572
1,Bagé/RS,-31.3314264,-54.1062808,5028,4143.89912
D1,Bagé/RS,-31.3314264,-54.1062808,122,100.54807
1,Baianópolis/BA,-12.3067564,-44.5383591,247,1773.27877
D1,Baianópolis/BA,-12.3067564,-44.5383591,2,14.35853
1,Baixa Grande do Ribeiro/PI,-7.862861,-45.2113289,1808,15491.38891
D1,Baixa Grande do Ribeiro/PI,-7.862861,-45.2113289,17,145.66018
1,Baixa Grande/BA,-11.9630941,-40.1657537,477,2332.63240
D1,Baixa Grande/BA,-11.9630941,-40.1657537,5,24.45107
1,Baixio/CE,-6.7303544,-38.7170095,236,3744.24877
D1,Baixio/CE,-6.7303544,-38.7170095,5,79.32730
1,Baixo Guandu/ES,-19.5138322,-41.0182089,2680,8608.50572
D1,Baixo Guandu/ES,-19.5138322,-41.0182089,50,160.60645
1,Baião/PA,-2.7903479,-49.6702845,589,1215.46049
D1,Baião/PA,-2.7903479,-49.6702845,21,43.33560
1,Balbinos/SP,-21.9006253,-49.3583966,283,4769.12706
D1,Balbinos/SP,-21.9006253,-49.3583966,3,50.55612
1,Baldim/MG,-19.2913568,-43.9558262,326,4177.88030
D1,Baldim/MG,-19.2913568,-43.9558262,7,89.70909
1,Baliza/GO,-16.1978119,-52.542789,123,2329.54545
D1,Baliza/GO,-16.1978119,-52.542789,4,75.75758
1,Balneário Arroio do Silva/SC,-28.9815269,-49.4189932,1480,11020.10424
D1,Balneário Arroio do Silva/SC,-28.9815269,-49.4189932,31,230.82651
1,Balneário Barra do Sul/SC,-26.459842,-48.6061471,1101,9977.34481
D1,Balneário Barra do Sul/SC,-26.459842,-48.6061471,20,181.24150
1,Balneário Camboriú/SC,-26.9924395,-48.6339782,20494,14056.62707
D1,Balneário Camboriú/SC,-26.9924395,-48.6339782,247,169.41480
1,Balneário Gaivota/SC,-29.1553098,-49.5808712,993,8818.82771
D1,Balneário Gaivota/SC,-29.1553098,-49.5808712,17,150.97691
1,Balneário Pinhal/RS,-30.2482978,-50.234585,631,4393.23261
D1,Balneário Pinhal/RS,-30.2482978,-50.234585,21,146.20901
1,Balneário Piçarras/SC,-26.7638889,-48.6716667,3372,14184.75517
D1,Balneário Piçarras/SC,-26.7638889,-48.6716667,31,130.40552
1,Balneário Rincão/SC,-28.8235718,-49.2241642,1087,8396.41588
D1,Balneário Rincão/SC,-28.8235718,-49.2241642,25,193.10984
1,Balsa Nova/PR,-25.5842234,-49.6312741,953,7279.25451
D1,Balsa Nova/PR,-25.5842234,-49.6312741,15,114.57379
1,Balsas/MA,-7.53214,-46.037163,7794,8124.75894
D1,Balsas/MA,-7.53214,-46.037163,99,103.20133
1,Bambuí/MG,-20.0131996,-45.9777034,751,3142.52239
D1,Bambuí/MG,-20.0131996,-45.9777034,6,25.10670
1,Banabuiú/CE,-5.3046404,-38.919766,793,4343.77739
D1,Banabuiú/CE,-5.3046404,-38.919766,7,38.34356
1,Bananal/SP,-22.6828195,-44.3221095,613,5576.27581
D1,Bananal/SP,-22.6828195,-44.3221095,2,18.19340
1,Bananeiras/PB,-6.7537682,-35.6338343,813,3822.46462
D1,Bananeiras/PB,-6.7537682,-35.6338343,7,32.91175
1,Bandeira do Sul/MG,-21.728056,-46.385555,112,1938.38699
D1,Bandeira do Sul/MG,-21.728056,-46.385555,5,86.53513
1,Bandeira/MG,-15.884444,-40.559167,419,8791.43936
D1,Bandeira/MG,-15.884444,-40.559167,8,167.85564
1,Bandeirante/SC,-26.7677402,-53.6397596,161,6080.06042
D1,Bandeirante/SC,-26.7677402,-53.6397596,1,37.76435
1,Bandeirantes do Tocantins/TO,-7.7635698,-48.579148,253,7043.42984
D1,Bandeirantes do Tocantins/TO,-7.7635698,-48.579148,3,83.51893
1,Bandeirantes/MS,-19.9179623,-54.3646768,395,5436.27856
D1,Bandeirantes/MS,-19.9179623,-54.3646768,7,96.33911
1,Bandeirantes/PR,-23.107788,-50.370407,2127,6814.90500
D1,Bandeirantes/PR,-23.107788,-50.370407,54,173.01592
1,Bannach/PA,-7.3508505,-50.4064531,125,3832.00490
D1,Bannach/PA,-7.3508505,-50.4064531,2,61.31208
1,Banzaê/BA,-10.5827616,-38.6122305,778,5876.13293
D1,Banzaê/BA,-10.5827616,-38.6122305,4,30.21148
1,Baraúna/PB,-6.643394,-36.2531932,198,3988.71878
D1,Baraúna/PB,-6.643394,-36.2531932,3,60.43513
1,Baraúna/RN,-5.0775002,-37.61752,715,2487.21606
D1,Baraúna/RN,-5.0775002,-37.61752,17,59.13661
1,Barbacena/MG,-21.2254524,-43.7735087,4146,2999.91317
D1,Barbacena/MG,-21.2254524,-43.7735087,94,68.01540
1,Barbalha/CE,-7.3121067,-39.3036427,3148,5141.43856
D1,Barbalha/CE,-7.3121067,-39.3036427,61,99.62762
1,Barbosa Ferraz/PR,-24.0287182,-52.00811,551,4822.33503
D1,Barbosa Ferraz/PR,-24.0287182,-52.00811,6,52.51182
1,Barbosa/SP,-21.265661,-49.951816,291,3896.62560
D1,Barbosa/SP,-21.265661,-49.951816,7,93.73326
1,Barcarena/PA,-1.5107945,-48.6190679,7501,5905.04381
D1,Barcarena/PA,-1.5107945,-48.6190679,145,114.14896
1,Barcelona/RN,-5.9514918,-35.9260284,51,1276.91537
D1,Barcelona/RN,-5.9514918,-35.9260284,3,75.11267
1,Barcelos/AM,-0.9729214,-62.925635,3994,14451.11803
D1,Barcelos/AM,-0.9729214,-62.925635,52,188.14675
1,Bariri/SP,-22.0746355,-48.7394852,2027,5700.54559
D1,Bariri/SP,-22.0746355,-48.7394852,69,194.04916
1,Barra Bonita/SC,-26.6526364,-53.4419581,97,5875.22714
D1,Barra Bonita/SC,-26.6526364,-53.4419581,1,60.56935
1,Barra Bonita/SP,-22.490859,-48.558349,2311,6397.05475
D1,Barra Bonita/SP,-22.490859,-48.558349,55,152.24492
1,Barra D'Alcântara/PI,-6.5209258,-42.1071089,99,2505.06073
D1,Barra D'Alcântara/PI,-6.5209258,-42.1071089,3,75.91093
1,Barra Funda/RS,-27.9230048,-53.0401045,338,13249.70600
D1,Barra Funda/RS,-27.9230048,-53.0401045,5,196.00157
1,Barra Longa/MG,-20.2833541,-43.0423516,162,3230.30907
D1,Barra Longa/MG,-20.2833541,-43.0423516,2,39.88036
1,Barra Mansa/RJ,-22.5394843,-44.1735129,10845,5867.45873
D1,Barra Mansa/RJ,-22.5394843,-44.1735129,310,167.71897
1,Barra Velha/SC,-26.6338203,-48.6835001,2974,9959.81246
D1,Barra Velha/SC,-26.6338203,-48.6835001,60,200.93771
1,Barra da Estiva/BA,-13.6269662,-41.3278287,1206,5914.08395
D1,Barra da Estiva/BA,-13.6269662,-41.3278287,8,39.23107
1,Barra de Guabiraba/PE,-8.4173522,-35.6626669,332,2288.07719
D1,Barra de Guabiraba/PE,-8.4173522,-35.6626669,12,82.70159
1,Barra de Santa Rosa/PB,-6.7218007,-36.0564638,638,4116.92586
D1,Barra de Santa Rosa/PB,-6.7218007,-36.0564638,3,19.35859
1,Barra de Santana/PB,-7.5230865,-35.9988518,284,3401.60498
D1,Barra de Santana/PB,-7.5230865,-35.9988518,4,47.90993
1,Barra de Santo Antônio/AL,-9.4038098,-35.5117693,179,1114.01543
D1,Barra de Santo Antônio/AL,-9.4038098,-35.5117693,15,93.35325
1,Barra de São Francisco/ES,-18.7570902,-40.8916119,2860,6358.52287
D1,Barra de São Francisco/ES,-18.7570902,-40.8916119,89,197.87012
1,Barra de São Miguel/AL,-9.8261357,-35.8837777,257,3067.55789
D1,Barra de São Miguel/AL,-9.8261357,-35.8837777,6,71.61614
1,Barra de São Miguel/PB,-7.7528088,-36.3170996,254,4187.96373
D1,Barra de São Miguel/PB,-7.7528088,-36.3170996,1,16.48805
1,Barra do Bugres/MT,-15.0683712,-57.1853688,1876,5313.39394
D1,Barra do Bugres/MT,-15.0683712,-57.1853688,44,124.62118
1,Barra do Chapéu/SP,-24.472203,-49.023784,199,3454.86111
1,Barra do Choça/BA,-14.8638173,-40.5761637,1568,5024.19174
D1,Barra do Choça/BA,-14.8638173,-40.5761637,21,67.28828
1,Barra do Corda/MA,-5.496823,-45.248496,4611,5210.64051
D1,Barra do Corda/MA,-5.496823,-45.248496,48,54.24219
1,Barra do Garças/MT,-15.8916033,-52.2615413,5388,8813.28208
D1,Barra do Garças/MT,-15.8916033,-52.2615413,182,297.70181
1,Barra do Guarita/RS,-27.1888016,-53.7147086,101,3101.01320
D1,Barra do Guarita/RS,-27.1888016,-53.7147086,2,61.40620
1,Barra do Jacaré/PR,-23.1151788,-50.1813945,138,4962.24380
D1,Barra do Jacaré/PR,-23.1151788,-50.1813945,1,35.95829
1,Barra do Mendes/BA,-11.8053298,-42.057037,583,4214.55939
D1,Barra do Mendes/BA,-11.8053298,-42.057037,9,65.06181
1,Barra do Ouro/TO,-7.7113784,-47.6743925,106,2288.42832
D1,Barra do Ouro/TO,-7.7113784,-47.6743925,5,107.94473
1,Barra do Piraí/RJ,-22.4703403,-43.8263256,3877,3847.60430
D1,Barra do Piraí/RJ,-22.4703403,-43.8263256,165,163.74896
1,Barra do Quaraí/RS,-30.208947,-57.5505128,187,4423.94133
D1,Barra do Quaraí/RS,-30.208947,-57.5505128,2,47.31488
1,Barra do Ribeiro/RS,-30.2930206,-51.301437,834,6152.25730
D1,Barra do Ribeiro/RS,-30.2930206,-51.301437,39,287.69549
1,Barra do Rio Azul/RS,-27.4101581,-52.4117471,56,3383.68580
D1,Barra do Rio Azul/RS,-27.4101581,-52.4117471,1,60.42296
1,Barra do Rocha/BA,-14.2090974,-39.6004395,292,5203.13614
D1,Barra do Rocha/BA,-14.2090974,-39.6004395,3,53.45688
1,Barra do Turvo/SP,-24.756421,-48.5056942,329,4310.79665
D1,Barra do Turvo/SP,-24.756421,-48.5056942,10,131.02725
1,Barra dos Coqueiros/SE,-10.9075694,-37.0386249,4186,13533.78597
D1,Barra dos Coqueiros/SE,-10.9075694,-37.0386249,44,142.25671
1,Barra/BA,-11.0892702,-43.1420453,1277,2368.76275
D1,Barra/BA,-11.0892702,-43.1420453,22,40.80876
1,Barracão/PR,-26.252395,-53.6349576,793,7690.06982
D1,Barracão/PR,-26.252395,-53.6349576,17,164.85648
1,Barracão/RS,-27.6728964,-51.4582928,227,4318.87367
D1,Barracão/RS,-27.6728964,-51.4582928,7,133.18113
1,Barras/PI,-4.2446153,-42.2920241,3695,7830.87846
D1,Barras/PI,-4.2446153,-42.2920241,71,150.47155
1,Barreira/CE,-4.2883361,-38.641094,670,2968.14779
D1,Barreira/CE,-4.2883361,-38.641094,24,106.32171
1,Barreiras do Piauí/PI,-9.9224524,-45.4763776,47,1402.14797
D1,Barreiras do Piauí/PI,-9.9224524,-45.4763776,1,29.83294
1,Barreiras/BA,-12.1440031,-44.9967406,10301,6562.19143
D1,Barreiras/BA,-12.1440031,-44.9967406,120,76.44529
1,Barreirinha/AM,-2.798863,-57.067897,2181,6714.28132
D1,Barreirinha/AM,-2.798863,-57.067897,57,175.47640
1,Barreirinhas/MA,-2.7541271,-42.8259693,1480,2341.14241
D1,Barreirinhas/MA,-2.7541271,-42.8259693,29,45.87374
1,Barreiros/PE,-8.8159644,-35.1831905,519,1213.63764
D1,Barreiros/PE,-8.8159644,-35.1831905,43,100.55187
1,Barretos/SP,-20.5531437,-48.5697509,8744,7118.60819
D1,Barretos/SP,-20.5531437,-48.5697509,222,180.73319
1,Barrinha/SP,-21.1898849,-48.1550642,1024,3086.19650
D1,Barrinha/SP,-21.1898849,-48.1550642,38,114.52682
1,Barro Alto/BA,-11.7618025,-41.9094904,592,3932.50963
D1,Barro Alto/BA,-11.7618025,-41.9094904,4,26.57101
1,Barro Alto/GO,-14.9696025,-48.9190985,1087,9528.40112
D1,Barro Alto/GO,-14.9696025,-48.9190985,11,96.42356
1,Barro Duro/PI,-5.8180139,-42.5106589,508,7229.25857
D1,Barro Duro/PI,-5.8180139,-42.5106589,7,99.61577
1,Barro Preto/BA,-14.8068289,-39.4727588,448,8223.20117
D1,Barro Preto/BA,-14.8068289,-39.4727588,7,128.48752
1,Barro/CE,-7.1713587,-38.7742136,589,2588.10089
D1,Barro/CE,-7.1713587,-38.7742136,14,61.51683
1,Barrocas/BA,-11.5165,-39.099282894736845,591,3669.66781
D1,Barrocas/BA,-11.5165,-39.099282894736845,9,55.88327
1,Barrolândia/TO,-9.837246,-48.7264346,536,9485.04689
D1,Barrolândia/TO,-9.837246,-48.7264346,9,159.26385
1,Barroquinha/CE,-3.0200371,-41.1339229,881,5856.15528
D1,Barroquinha/CE,-3.0200371,-41.1339229,21,139.59053
1,Barros Cassal/RS,-29.094938,-52.5832366,419,3747.09354
D1,Barros Cassal/RS,-29.094938,-52.5832366,4,35.77178
1,Barroso/MG,-21.187222,-43.976111,533,2550.60535
D1,Barroso/MG,-21.187222,-43.976111,10,47.85376
1,Barueri/SP,-23.5112184,-46.8764612,18461,6665.05405
D1,Barueri/SP,-23.5112184,-46.8764612,590,213.01023
1,Barão de Antonina/SP,-23.6295651,-49.5632104,82,2344.19668
D1,Barão de Antonina/SP,-23.6295651,-49.5632104,1,28.58776
1,Barão de Cocais/MG,-19.9452437,-43.4870298,2399,7299.33670
D1,Barão de Cocais/MG,-19.9452437,-43.4870298,28,85.19443
1,Barão de Cotegipe/RS,-27.6214694,-52.3765316,484,7311.17825
D1,Barão de Cotegipe/RS,-27.6214694,-52.3765316,6,90.63444
1,Barão de Grajaú/MA,-6.7542591,-43.0263477,235,1241.80934
D1,Barão de Grajaú/MA,-6.7542591,-43.0263477,2,10.56859
1,Barão de Melgaço/MT,-16.195776,-55.9668049,184,2253.79716
D1,Barão de Melgaço/MT,-16.195776,-55.9668049,9,110.24008
1,Barão de Monte Alto/MG,-21.244722,-42.2375,163,3044.45275
D1,Barão de Monte Alto/MG,-21.244722,-42.2375,7,130.74337
1,Barão do Triunfo/RS,-30.3909877,-51.7375349,304,4043.09084
D1,Barão do Triunfo/RS,-30.3909877,-51.7375349,4,53.19856
1,Barão/RS,-29.372474,-51.494908,371,5981.94131
D1,Barão/RS,-29.372474,-51.494908,7,112.86682
1,Bastos/SP,-21.9222474,-50.7317727,377,1799.26502
D1,Bastos/SP,-21.9222474,-50.7317727,12,57.27104
1,Bataguassu/MS,-21.715899,-52.422058,1788,7665.59486
D1,Bataguassu/MS,-21.715899,-52.422058,17,72.88317
1,Batalha/AL,-9.6733809,-37.1265481,782,4264.36907
D1,Batalha/AL,-9.6733809,-37.1265481,15,81.79736
1,Batalha/PI,-4.022391,-42.0780926,673,2501.39379
D1,Batalha/PI,-4.022391,-42.0780926,21,78.05241
1,Batatais/SP,-20.892867,-47.592149,1760,2794.53795
D1,Batatais/SP,-20.892867,-47.592149,56,88.91712
1,Batayporã/MS,-22.2976466,-53.2685608,546,4810.99656
D1,Batayporã/MS,-22.2976466,-53.2685608,11,96.92484
1,Baturité/CE,-4.3290203,-38.8821055,1326,3689.37982
D1,Baturité/CE,-4.3290203,-38.8821055,40,111.29351
1,Bauru/SP,-22.3218102,-49.0705863,28457,7502.56395
D1,Bauru/SP,-22.3218102,-49.0705863,515,135.77750
1,Bayeux/PB,-7.1301631,-34.936532,4970,5113.01092
D1,Bayeux/PB,-7.1301631,-34.936532,173,177.97805
1,Baía Formosa/RN,-6.3691885,-35.0063741,236,2531.64557
D1,Baía Formosa/RN,-6.3691885,-35.0063741,8,85.81849
1,Baía da Traição/PB,-6.691258,-34.9371244,1061,11664.46790
D1,Baía da Traição/PB,-6.691258,-34.9371244,9,98.94459
1,Bebedouro/SP,-20.949077,-48.479083,2968,3826.96151
D1,Bebedouro/SP,-20.949077,-48.479083,60,77.36445
1,Beberibe/CE,-4.1810469,-38.1298101,2079,3853.63955
D1,Beberibe/CE,-4.1810469,-38.1298101,36,66.72969
1,Bela Cruz/CE,-3.0529129,-40.167582,2056,6283.23452
D1,Bela Cruz/CE,-3.0529129,-40.167582,32,97.79353
1,Bela Vista da Caroba/PR,-25.8792818,-53.6672545,139,4020.82731
D1,Bela Vista da Caroba/PR,-25.8792818,-53.6672545,3,86.78045
1,Bela Vista de Goiás/GO,-16.9692949,-48.9513071,1684,5522.76007
D1,Bela Vista de Goiás/GO,-16.9692949,-48.9513071,36,118.06375
1,Bela Vista de Minas/MG,-19.8289721,-43.0973688,448,4365.62074
D1,Bela Vista de Minas/MG,-19.8289721,-43.0973688,9,87.70220
1,Bela Vista do Maranhão/MA,-3.7416367,-45.2514192,173,1533.82392
D1,Bela Vista do Maranhão/MA,-3.7416367,-45.2514192,9,79.79431
1,Bela Vista do Paraíso/PR,-22.9948493,-51.1907996,1337,8682.38197
D1,Bela Vista do Paraíso/PR,-22.9948493,-51.1907996,34,220.79356
1,Bela Vista do Piauí/PI,-7.9716353,-41.8715061,212,5260.54591
D1,Bela Vista do Piauí/PI,-7.9716353,-41.8715061,6,148.88337
1,Bela Vista do Toldo/SC,-26.274625,-50.466354,55,864.50802
D1,Bela Vista do Toldo/SC,-26.274625,-50.466354,1,15.71833
1,Bela Vista/MS,-22.107327,-56.5317344,487,1968.87002
D1,Bela Vista/MS,-22.107327,-56.5317344,12,48.51425
1,Belford Roxo/RJ,-22.7667284,-43.4033603,17730,3455.34555
D1,Belford Roxo/RJ,-22.7667284,-43.4033603,449,87.50424
1,Belmiro Braga/MG,-21.9486291,-43.413564,116,3386.86131
D1,Belmiro Braga/MG,-21.9486291,-43.413564,3,87.59124
1,Belmonte/BA,-15.8630837,-38.8792845,852,3635.27755
D1,Belmonte/BA,-15.8630837,-38.8792845,13,55.46785
1,Belmonte/SC,-26.8448262,-53.578916,194,7161.31414
D1,Belmonte/SC,-26.8448262,-53.578916,4,147.65596
1,Belo Campo/BA,-15.0338286,-41.2585109,483,2823.07557
D1,Belo Campo/BA,-15.0338286,-41.2585109,6,35.06926
1,Belo Horizonte/MG,-19.9227318,-43.9450948,132376,5249.75769
D1,Belo Horizonte/MG,-19.9227318,-43.9450948,3050,120.95668
1,Belo Jardim/PE,-8.3338293,-36.4176419,2010,2621.04398
D1,Belo Jardim/PE,-8.3338293,-36.4176419,47,61.28809
1,Belo Monte/AL,-9.8269944,-37.2787165,227,3383.01043
D1,Belo Monte/AL,-9.8269944,-37.2787165,6,89.41878
1,Belo Oriente/MG,-19.2232523,-42.4807033,1857,6879.30651
D1,Belo Oriente/MG,-19.2232523,-42.4807033,32,118.54486
1,Belo Vale/MG,-20.407778,-44.024167,359,4650.86151
D1,Belo Vale/MG,-20.407778,-44.024167,6,77.73028
1,Belterra/PA,-2.636091,-54.937392,808,4529.40187
D1,Belterra/PA,-2.636091,-54.937392,17,95.29682
1,Belágua/MA,-3.1604031,-43.5085052,281,3732.73114
D1,Belágua/MA,-3.1604031,-43.5085052,2,26.56748
1,Belém de Maria/PE,-8.6242497,-35.8388934,128,1055.93136
D1,Belém de Maria/PE,-8.6242497,-35.8388934,3,24.74839
1,Belém do Brejo do Cruz/PB,-6.1880727,-37.5332267,476,6477.07171
D1,Belém do Brejo do Cruz/PB,-6.1880727,-37.5332267,5,68.03647
1,Belém do Piauí/PI,-7.3767305,-40.9712156,383,10677.44633
D1,Belém do Piauí/PI,-7.3767305,-40.9712156,6,167.27070
1,Belém do São Francisco/PE,-8.7517707,-38.9625715,362,1746.26146
D1,Belém do São Francisco/PE,-8.7517707,-38.9625715,7,33.76749
1,Belém/AL,-9.5715351,-36.492841,81,1890.75630
D1,Belém/AL,-9.5715351,-36.492841,3,70.02801
1,Belém/PA,-1.45056,-48.4682453,82995,5534.32455
D1,Belém/PA,-1.45056,-48.4682453,3292,219.51920
1,Belém/PB,-6.6967586,-35.5369626,1455,8218.01751
D1,Belém/PB,-6.6967586,-35.5369626,28,158.14742
1,Beneditinos/PI,-5.4565671,-42.3605061,570,5442.56660
D1,Beneditinos/PI,-5.4565671,-42.3605061,20,190.96725
1,Benedito Leite/MA,-7.2173453,-44.5523331,261,4629.30117
D1,Benedito Leite/MA,-7.2173453,-44.5523331,2,35.47357
1,Benedito Novo/SC,-26.7840657,-49.3629511,805,6836.51805
D1,Benedito Novo/SC,-26.7840657,-49.3629511,11,93.41826
1,Benevides/PA,-1.3555577,-48.252235,2692,4221.55313
D1,Benevides/PA,-1.3555577,-48.252235,65,101.93200
1,Benjamin Constant do Sul/RS,-27.5105555,-52.6007689,140,7150.15322
1,Benjamin Constant/AM,-4.3782748,-70.0290603,2528,5753.95471
D1,Benjamin Constant/AM,-4.3782748,-70.0290603,67,152.49801
1,Bento Fernandes/RN,-5.6926846,-35.8207423,64,1158.37104
D1,Bento Fernandes/RN,-5.6926846,-35.8207423,2,36.19910
1,Bento Gonçalves/RS,-29.1654014,-51.5197627,11379,9342.13443
D1,Bento Gonçalves/RS,-29.1654014,-51.5197627,212,174.05154
1,Bento de Abreu/SP,-21.2707225,-50.8120444,189,6289.51747
1,Bequimão/MA,-2.4495376,-44.7884889,266,1248.88492
D1,Bequimão/MA,-2.4495376,-44.7884889,14,65.73079
1,Berilo/MG,-16.9515764,-42.4643732,10,84.23181
1,Berizal/MG,-15.6118785,-41.7417382,88,1847.18724
D1,Berizal/MG,-15.6118785,-41.7417382,1,20.99076
1,Bernardino Batista/PB,-6.4532173,-38.5495418,207,5854.07240
1,Bernardino de Campos/SP,-23.0140216,-49.4760724,302,2706.57824
D1,Bernardino de Campos/SP,-23.0140216,-49.4760724,6,53.77308
1,Bernardo Sayão/TO,-7.8794244,-48.8968905,244,5485.61151
D1,Bernardo Sayão/TO,-7.8794244,-48.8968905,4,89.92806
1,Bernardo do Mearim/MA,-4.6315929,-44.7617508,195,3210.93364
D1,Bernardo do Mearim/MA,-4.6315929,-44.7617508,3,49.39898
1,Bertioga/SP,-23.848568,-46.139586,3443,5319.59273
D1,Bertioga/SP,-23.848568,-46.139586,68,105.06312
1,Bertolínia/PI,-7.6372159,-43.9540611,602,10931.54167
D1,Bertolínia/PI,-7.6372159,-43.9540611,6,108.95224
1,Bertópolis/MG,-17.063333,-40.573889,235,5100.93336
1,Beruri/AM,-3.9007135,-61.3717319,1969,9799.43264
D1,Beruri/AM,-3.9007135,-61.3717319,31,154.28259
1,Betim/MG,-19.968056,-44.198333,19805,4452.72312
D1,Betim/MG,-19.968056,-44.198333,565,127.02795
1,Betânia do Piauí/PI,-8.1460635,-40.7961387,146,2351.04670
D1,Betânia do Piauí/PI,-8.1460635,-40.7961387,2,32.20612
1,Betânia/PE,-8.2742779,-38.0351767,253,1981.98198
D1,Betânia/PE,-8.2742779,-38.0351767,5,39.16960
1,Bezerros/PE,-8.2372132,-35.7558262,2693,4423.45598
D1,Bezerros/PE,-8.2372132,-35.7558262,81,133.04862
1,Bias Fortes/MG,-21.605833,-43.756944,85,2553.31932
D1,Bias Fortes/MG,-21.605833,-43.756944,2,60.07810
1,Bicas/MG,-21.7213723,-43.0604327,714,4905.86780
D1,Bicas/MG,-21.7213723,-43.0604327,22,151.16119
1,Biguaçu/SC,-27.4961277,-48.6542432,9274,13346.57341
D1,Biguaçu/SC,-27.4961277,-48.6542432,117,168.37924
1,Bilac/SP,-21.403962,-50.47464,559,6886.78083
D1,Bilac/SP,-21.403962,-50.47464,11,135.51805
1,Biquinhas/MG,-18.783611,-45.502222,74,2962.36990
1,Birigui/SP,-21.2908491,-50.34144,8557,6852.01348
D1,Birigui/SP,-21.2908491,-50.34144,219,175.36414
1,Biritiba Mirim/SP,-23.5697765,-46.0407456,821,2492.71314
D1,Biritiba Mirim/SP,-23.5697765,-46.0407456,50,151.80957
1,Biritinga/BA,-11.6227908,-38.8066738,260,1626.62663
D1,Biritinga/BA,-11.6227908,-38.8066738,3,18.76877
1,Bituruna/PR,-26.161281,-51.5533319,447,2725.60976
D1,Bituruna/PR,-26.161281,-51.5533319,4,24.39024
1,Blumenau/SC,-26.9195567,-49.0658025,40325,11143.96651
D1,Blumenau/SC,-26.9195567,-49.0658025,387,106.94892
1,Boa Esperança do Iguaçu/PR,-25.6362851,-53.2139114,114,4615.38462
1,Boa Esperança do Sul/SP,-21.9930206,-48.3917372,606,4035.15781
D1,Boa Esperança do Sul/SP,-21.9930206,-48.3917372,10,66.58676
1,Boa Esperança/ES,-18.5395472,-40.2904088,887,5877.28598
D1,Boa Esperança/ES,-18.5395472,-40.2904088,28,185.52876
1,Boa Esperança/MG,-21.0901253,-45.5660195,1746,4341.23176
D1,Boa Esperança/MG,-21.0901253,-45.5660195,44,109.40103
1,Boa Esperança/PR,-24.2411024,-52.7860277,217,5361.99654
D1,Boa Esperança/PR,-24.2411024,-52.7860277,5,123.54831
1,Boa Hora/PI,-4.4094627,-42.1255341,398,5840.05869
D1,Boa Hora/PI,-4.4094627,-42.1255341,5,73.36757
1,Boa Nova/BA,-14.365907,-40.2063056,563,4566.46930
D1,Boa Nova/BA,-14.365907,-40.2063056,11,89.22054
1,Boa Ventura de São Roque/PR,-24.88177,-51.5441292,251,3943.44069
D1,Boa Ventura de São Roque/PR,-24.88177,-51.5441292,5,78.55460
1,Boa Ventura/PB,-7.4202462,-38.2156782,212,3994.72395
D1,Boa Ventura/PB,-7.4202462,-38.2156782,4,75.37215
1,Boa Viagem/CE,-5.1261877,-39.7300055,2096,3840.44561
D1,Boa Viagem/CE,-5.1261877,-39.7300055,52,95.27823
1,Boa Vista da Aparecida/PR,-25.4357216,-53.4067721,503,6671.08753
D1,Boa Vista da Aparecida/PR,-25.4357216,-53.4067721,16,212.20159
1,Boa Vista das Missões/RS,-27.6677983,-53.3127622,79,3776.29063
D1,Boa Vista das Missões/RS,-27.6677983,-53.3127622,2,95.60229
1,Boa Vista do Buricá/RS,-27.6687782,-54.1111913,542,8075.08939
D1,Boa Vista do Buricá/RS,-27.6687782,-54.1111913,7,104.29082
1,Boa Vista do Cadeado/RS,-28.5783827,-53.8123759,122,4943.27391
D1,Boa Vista do Cadeado/RS,-28.5783827,-53.8123759,1,40.51864
1,Boa Vista do Gurupi/MA,-1.7981168,-46.3071882,14,167.02458
D1,Boa Vista do Gurupi/MA,-1.7981168,-46.3071882,3,35.79098
1,Boa Vista do Incra/RS,-28.8195551,-53.3866624,141,5389.90826
D1,Boa Vista do Incra/RS,-28.8195551,-53.3866624,1,38.22630
1,Boa Vista do Ramos/AM,-2.9716927,-57.5869819,815,4152.65464
D1,Boa Vista do Ramos/AM,-2.9716927,-57.5869819,11,56.04810
1,Boa Vista do Sul/RS,-29.3510488,-51.6779679,228,8207.34341
D1,Boa Vista do Sul/RS,-29.3510488,-51.6779679,2,71.99424
1,Boa Vista do Tupim/BA,-12.6605988,-40.6083594,162,874.21078
D1,Boa Vista do Tupim/BA,-12.6605988,-40.6083594,4,21.58545
1,Boa Vista/PB,-7.2620711,-36.2415161,373,5227.01794
D1,Boa Vista/PB,-7.2620711,-36.2415161,4,56.05381
1,Boa Vista/RR,2.8208478,-60.6719582,66611,15872.91375
D1,Boa Vista/RR,2.8208478,-60.6719582,991,236.14805
1,Boca da Mata/AL,-9.6452054,-36.2116658,1450,5300.48253
D1,Boca da Mata/AL,-9.6452054,-36.2116658,32,116.97617
1,Boca do Acre/AM,-8.7553487,-67.3930873,2354,6796.59304
D1,Boca do Acre/AM,-8.7553487,-67.3930873,22,63.51956
1,Bocaina de Minas/MG,-22.167778,-44.394722,94,1847.12124
D1,Bocaina de Minas/MG,-22.167778,-44.394722,2,39.30045
1,Bocaina do Sul/SC,-27.745494,-49.942279,340,9747.70642
D1,Bocaina do Sul/SC,-27.745494,-49.942279,3,86.00917
1,Bocaina/PI,-6.9445939,-41.3224599,217,4816.87014
D1,Bocaina/PI,-6.9445939,-41.3224599,3,66.59267
1,Bocaina/SP,-22.1421831,-48.522276,1025,8231.60938
D1,Bocaina/SP,-22.1421831,-48.522276,21,168.64761
1,Bocaiúva do Sul/PR,-25.206591,-49.114131,810,6169.54833
D1,Bocaiúva do Sul/PR,-25.206591,-49.114131,4,30.46691
1,Bocaiúva/MG,-17.1160208,-43.8122678,1246,2479.30595
D1,Bocaiúva/MG,-17.1160208,-43.8122678,27,53.72493
1,Bodocó/PE,-7.777592,-39.933797,1402,3653.13461
D1,Bodocó/PE,-7.777592,-39.933797,19,49.50753
1,Bodoquena/MS,-20.5508775,-56.6769653,151,1926.51187
D1,Bodoquena/MS,-20.5508775,-56.6769653,3,38.27507
1,Bodó/RN,-5.9866104,-36.4134824,89,4050.97861
1,Bofete/SP,-23.1019554,-48.2610535,460,3858.73668
D1,Bofete/SP,-23.1019554,-48.2610535,8,67.10846
1,Boituva/SP,-23.2838893,-47.6738231,3403,5473.70114
D1,Boituva/SP,-23.2838893,-47.6738231,53,85.25012
1,Bom Conselho/PE,-9.169191,-36.685683,1188,2436.07357
D1,Bom Conselho/PE,-9.169191,-36.685683,37,75.87098
1,Bom Despacho/MG,-19.7375242,-45.2517288,2292,4491.65164
D1,Bom Despacho/MG,-19.7375242,-45.2517288,45,88.18688
1,Bom Jardim da Serra/SC,-28.3380324,-49.625588,527,11043.58759
D1,Bom Jardim da Serra/SC,-28.3380324,-49.625588,3,62.86672
1,Bom Jardim de Goiás/GO,-16.2062659,-52.172793,478,5389.55914
D1,Bom Jardim de Goiás/GO,-16.2062659,-52.172793,8,90.20183
1,Bom Jardim de Minas/MG,-21.9476466,-44.1906033,178,2755.84456
D1,Bom Jardim de Minas/MG,-21.9476466,-44.1906033,1,15.48227
1,Bom Jardim/MA,-3.54129,-45.606004,1092,2611.06595
D1,Bom Jardim/MA,-3.54129,-45.606004,36,86.07910
1,Bom Jardim/PE,-7.7961572,-35.5871696,917,2293.47473
D1,Bom Jardim/PE,-7.7961572,-35.5871696,39,97.54146
1,Bom Jardim/RJ,-22.1515328,-42.4186683,743,2690.46929
D1,Bom Jardim/RJ,-22.1515328,-42.4186683,17,61.55852
1,Bom Jesus da Lapa/BA,-13.250571,-43.410754,2172,3117.91220
D1,Bom Jesus da Lapa/BA,-13.250571,-43.410754,29,41.62958
1,Bom Jesus da Penha/MG,-21.0165299,-46.5226644,232,5466.54100
D1,Bom Jesus da Penha/MG,-21.0165299,-46.5226644,4,94.25071
1,Bom Jesus da Serra/BA,-14.3724084,-40.5047119,376,3827.75120
D1,Bom Jesus da Serra/BA,-14.3724084,-40.5047119,6,61.08114
1,Bom Jesus das Selvas/MA,-4.4878075,-46.8526639,2187,6326.84352
D1,Bom Jesus das Selvas/MA,-4.4878075,-46.8526639,19,54.96572
1,Bom Jesus de Goiás/GO,-18.2174587,-49.739721,1811,7060.97941
D1,Bom Jesus de Goiás/GO,-18.2174587,-49.739721,58,226.13849
1,Bom Jesus do Amparo/MG,-19.7045132,-43.4752911,126,2054.45948
D1,Bom Jesus do Amparo/MG,-19.7045132,-43.4752911,3,48.91570
1,Bom Jesus do Araguaia/MT,-12.1725897,-51.5074425,487,7262.15330
D1,Bom Jesus do Araguaia/MT,-12.1725897,-51.5074425,3,44.73606
1,Bom Jesus do Galho/MG,-19.8283191,-42.3162256,359,2415.55645
D1,Bom Jesus do Galho/MG,-19.8283191,-42.3162256,11,74.01426
1,Bom Jesus do Itabapoana/RJ,-21.1341025,-41.680095,2215,5953.82093
D1,Bom Jesus do Itabapoana/RJ,-21.1341025,-41.680095,45,120.95799
1,Bom Jesus do Norte/ES,-21.1254776,-41.6711646,747,7498.49428
D1,Bom Jesus do Norte/ES,-21.1254776,-41.6711646,17,170.64846
1,Bom Jesus do Oeste/SC,-26.6929713,-53.0967453,108,5049.08836
D1,Bom Jesus do Oeste/SC,-26.6929713,-53.0967453,3,140.25245
1,Bom Jesus do Sul/PR,-26.1922507,-53.6002033,206,5875.64176
D1,Bom Jesus do Sul/PR,-26.1922507,-53.6002033,3,85.56760
1,Bom Jesus do Tocantins/PA,-5.0471796,-48.5978362,558,3259.72660
D1,Bom Jesus do Tocantins/PA,-5.0471796,-48.5978362,13,75.94345
1,Bom Jesus do Tocantins/TO,-8.96306,-48.165043,115,2296.32588
D1,Bom Jesus do Tocantins/TO,-8.96306,-48.165043,1,19.96805
1,Bom Jesus dos Perdões/SP,-23.1353864,-46.4648052,1020,3925.34154
D1,Bom Jesus dos Perdões/SP,-23.1353864,-46.4648052,10,38.48374
1,Bom Jesus/PB,-6.8156725,-38.6551841,98,3805.82524
D1,Bom Jesus/PB,-6.8156725,-38.6551841,3,116.50485
1,Bom Jesus/PI,-9.0711644,-44.3583926,2371,9339.42569
D1,Bom Jesus/PI,-9.0711644,-44.3583926,27,106.35365
1,Bom Jesus/RN,-5.9887544,-35.5821149,545,5308.26921
D1,Bom Jesus/RN,-5.9887544,-35.5821149,11,107.13938
1,Bom Jesus/RS,-28.6692723,-50.4346894,495,4377.04483
D1,Bom Jesus/RS,-28.6692723,-50.4346894,13,114.95269
1,Bom Jesus/SC,-26.7350604,-52.3916519,301,9846.25450
D1,Bom Jesus/SC,-26.7350604,-52.3916519,5,163.55904
1,Bom Lugar/MA,-4.3728019,-45.0366054,352,2141.37973
D1,Bom Lugar/MA,-4.3728019,-45.0366054,6,36.50079
1,Bom Princípio do Piauí/PI,-3.1912777,-41.6430185,79,1397.98266
D1,Bom Princípio do Piauí/PI,-3.1912777,-41.6430185,4,70.78393
1,Bom Princípio/RS,-29.489788,-51.3566782,1171,8214.66152
D1,Bom Princípio/RS,-29.489788,-51.3566782,19,133.28657
1,Bom Progresso/RS,-27.5490948,-53.8655601,85,4476.04002
D1,Bom Progresso/RS,-27.5490948,-53.8655601,1,52.65929
1,Bom Repouso/MG,-22.4657069,-46.1485376,332,3150.80194
D1,Bom Repouso/MG,-22.4657069,-46.1485376,11,104.39404
1,Bom Retiro do Sul/RS,-29.6000007,-51.9359243,812,6553.67232
D1,Bom Retiro do Sul/RS,-29.6000007,-51.9359243,17,137.20743
1,Bom Retiro/SC,-27.798993,-49.486994,525,5218.68787
D1,Bom Retiro/SC,-27.798993,-49.486994,12,119.28429
1,Bom Sucesso de Itararé/SP,-24.3190016,-49.1446207,72,1807.22892
D1,Bom Sucesso de Itararé/SP,-24.3190016,-49.1446207,4,100.40161
1,Bom Sucesso do Sul/PR,-26.0749256,-52.8348629,252,7744.31469
D1,Bom Sucesso do Sul/PR,-26.0749256,-52.8348629,4,122.92563
1,Bom Sucesso/MG,-21.0323516,-44.7598082,269,1527.80144
D1,Bom Sucesso/MG,-21.0323516,-44.7598082,4,22.71824
1,Bom Sucesso/PB,-6.4458948,-37.9297662,140,2824.85876
1,Bom Sucesso/PR,-23.7088019,-51.7651297,453,6409.16808
D1,Bom Sucesso/PR,-23.7088019,-51.7651297,9,127.33447
1,Bombinhas/SC,-27.1519159,-48.4875691,3041,14954.51193
D1,Bombinhas/SC,-27.1519159,-48.4875691,35,172.11704
1,Bonfim do Piauí/PI,-9.1648678,-42.8734415,203,3570.80035
D1,Bonfim do Piauí/PI,-9.1648678,-42.8734415,3,52.77045
1,Bonfim/MG,-20.3266626, -44.2386157,241,3513.11953
D1,Bonfim/MG,-20.3266626, -44.2386157,6,87.46356
1,Bonfim/RR,3.3613818,-59.8427241,1800,14334.63407
D1,Bonfim/RR,3.3613818,-59.8427241,24,191.12845
1,Bonfinópolis de Minas/MG,-16.5660011,-45.98645,294,5400.44085
D1,Bonfinópolis de Minas/MG,-16.5660011,-45.98645,10,183.68846
1,Bonfinópolis/GO,-16.6172709,-48.9615701,413,4163.72618
D1,Bonfinópolis/GO,-16.6172709,-48.9615701,12,120.97994
1,Boninal/BA,-12.7095183,-41.8299984,491,3398.86474
D1,Boninal/BA,-12.7095183,-41.8299984,6,41.53399
1,Bonito de Minas/MG,-15.3191266,-44.7544,38,334.24224
1,Bonito de Santa Fé/PB,-7.3143332,-38.5146677,344,2861.42073
D1,Bonito de Santa Fé/PB,-7.3143332,-38.5146677,11,91.49892
1,Bonito/BA,-11.9665473,-41.2649896,564,3340.44065
D1,Bonito/BA,-11.9665473,-41.2649896,6,35.53660
1,Bonito/MS,-21.1264766,-56.4902208,1718,7742.22623
D1,Bonito/MS,-21.1264766,-56.4902208,24,108.15683
1,Bonito/PA,-1.3605722,-47.3049907,325,1966.12220
D1,Bonito/PA,-1.3605722,-47.3049907,12,72.59528
1,Bonito/PE,-8.4721161,-35.7314591,545,1429.80822
D1,Bonito/PE,-8.4721161,-35.7314591,28,73.45804
1,Bonópolis/GO,-13.649331,-49.8329113,99,2203.42755
D1,Bonópolis/GO,-13.649331,-49.8329113,1,22.25684
1,Boqueirão do Leão/RS,-29.30332,-52.4296817,415,5388.21085
D1,Boqueirão do Leão/RS,-29.30332,-52.4296817,24,311.60737
1,Boqueirão do Piauí/PI,-4.4850148,-42.1095161,362,5633.36446
D1,Boqueirão do Piauí/PI,-4.4850148,-42.1095161,7,108.93246
1,Boqueirão/PB,-7.487004,-36.130887,1082,6054.84051
D1,Boqueirão/PB,-7.487004,-36.130887,21,117.51539
1,Boquim/SE,-11.1450175,-37.6204228,1387,5156.32551
D1,Boquim/SE,-11.1450175,-37.6204228,30,111.52831
1,Boquira/BA,-12.8184859,-42.7270883,369,1716.51858
D1,Boquira/BA,-12.8184859,-42.7270883,5,23.25906
1,Boracéia/SP,-22.195355,-48.7801925,611,12551.35579
D1,Boracéia/SP,-22.195355,-48.7801925,9,184.88085
1,Borba/AM,-4.3934778,-59.5947721,1515,3628.91636
D1,Borba/AM,-4.3934778,-59.5947721,44,105.39427
1,Borborema/PB,-6.8066718,-35.5990191,127,2402.11840
D1,Borborema/PB,-6.8066718,-35.5990191,3,56.74295
1,Borborema/SP,-21.6212706,-49.074135,703,4349.17100
D1,Borborema/SP,-21.6212706,-49.074135,22,136.10492
1,Borda da Mata/MG,-22.274167,-46.165278,839,4277.55685
D1,Borda da Mata/MG,-22.274167,-46.165278,25,127.45998
1,Borebi/SP,-22.5700178,-48.9714871,110,4099.88818
D1,Borebi/SP,-22.5700178,-48.9714871,2,74.54342
1,Borrazópolis/PR,-23.9393362,-51.5850786,449,6973.13247
D1,Borrazópolis/PR,-23.9393362,-51.5850786,13,201.89470
1,Borá/SP,-22.2701088,-50.544407,38,4534.60621
D1,Borá/SP,-22.2701088,-50.544407,1,119.33174
1,Bossoroca/RS,-28.7278885,-54.9120278,142,2288.47703
D1,Bossoroca/RS,-28.7278885,-54.9120278,13,209.50846
1,Botelhos/MG,-21.65,-46.394722,585,3913.30524
D1,Botelhos/MG,-21.65,-46.394722,5,33.44705
1,Botucatu/SP,-22.8879628,-48.4410712,9431,6366.70492
D1,Botucatu/SP,-22.8879628,-48.4410712,133,89.78600
1,Botumirim/MG,-16.862778,-43.011111,130,2067.43003
D1,Botumirim/MG,-16.862778,-43.011111,1,15.90331
1,Botuporã/BA,-13.3744752,-42.5198469,174,1717.83987
D1,Botuporã/BA,-13.3744752,-42.5198469,3,29.61793
1,Botuverá/SC,-27.200749,-49.068892,740,13904.54716
D1,Botuverá/SC,-27.200749,-49.068892,7,131.52950
1,Bozano/RS,-28.3669953,-53.7705165,180,8526.76457
D1,Bozano/RS,-28.3669953,-53.7705165,5,236.85457
1,Braga/RS,-27.617348,-53.740514,111,3352.46149
D1,Braga/RS,-27.617348,-53.740514,3,90.60707
1,Braganey/PR,-24.8179919,-53.118506,272,5053.88331
D1,Braganey/PR,-24.8179919,-53.118506,4,74.32181
1,Bragança Paulista/SP,-22.9520235,-46.5418586,9490,5564.90533
D1,Bragança Paulista/SP,-22.9520235,-46.5418586,225,131.93927
1,Bragança/PA,-1.0573967,-46.7635406,3317,2573.03318
D1,Bragança/PA,-1.0573967,-46.7635406,108,83.77678
1,Branquinha/AL,-9.2478057,-36.0152009,353,3374.76099
D1,Branquinha/AL,-9.2478057,-36.0152009,9,86.04207
1,Brasil Novo/PA,-3.3055853,-52.539198,1097,7321.63118
D1,Brasil Novo/PA,-3.3055853,-52.539198,23,153.50731
1,Brasileira/PI,-4.131182,-41.7824969,366,4384.80891
D1,Brasileira/PI,-4.131182,-41.7824969,7,83.86247
1,Brasilândia de Minas/MG,-17.0096469,-46.0087183,701,4185.57440
D1,Brasilândia de Minas/MG,-17.0096469,-46.0087183,7,41.79604
1,Brasilândia do Sul/PR,-24.1975793,-53.527551,237,9168.27853
D1,Brasilândia do Sul/PR,-24.1975793,-53.527551,7,270.79304
1,Brasilândia do Tocantins/TO,-8.3886619,-48.4842729,104,4703.75396
D1,Brasilândia do Tocantins/TO,-8.3886619,-48.4842729,1,45.22840
1,Brasilândia/MS,-21.255575,-52.0365617,374,3155.31933
D1,Brasilândia/MS,-21.255575,-52.0365617,9,75.93014
1,Brasiléia/AC,-11.0010413,-68.7487894,2043,7651.11228
D1,Brasiléia/AC,-11.0010413,-68.7487894,28,104.86106
1,Brasnorte/MT,-12.1227151,-58.0050109,1192,5918.57001
D1,Brasnorte/MT,-12.1227151,-58.0050109,17,84.40914
1,Brasília de Minas/MG,-16.2075114,-44.430559,590,1820.70668
D1,Brasília de Minas/MG,-16.2075114,-44.430559,5,15.42972
1,Brasília/DF,-15.7934036,-47.8823172,335153,10970.10326
D1,Brasília/DF,-15.7934036,-47.8823172,5610,183.62443
1,Brazabrantes/GO,-16.4291635,-49.3858216,306,8168.71329
D1,Brazabrantes/GO,-16.4291635,-49.3858216,2,53.39028
1,Brazópolis/MG,-22.4742842,-45.6165577,534,3705.75989
D1,Brazópolis/MG,-22.4742842,-45.6165577,19,131.85288
1,Braço do Norte/SC,-28.2728633,-49.1622712,6091,17980.28102
D1,Braço do Norte/SC,-28.2728633,-49.1622712,52,153.50100
1,Braço do Trombudo/SC,-27.358578,-49.882145,461,12231.36110
D1,Braço do Trombudo/SC,-27.358578,-49.882145,3,79.59671
1,Braúna/SP,-21.5015319,-50.3175246,282,4912.03623
D1,Braúna/SP,-21.5015319,-50.3175246,9,156.76711
1,Braúnas/MG,-19.055556,-42.716111,122,2558.18830
D1,Braúnas/MG,-19.055556,-42.716111,3,62.90627
1,Brejetuba/ES,-20.1465817,-41.2902303,1259,10131.16601
D1,Brejetuba/ES,-20.1465817,-41.2902303,9,72.42295
1,Brejinho de Nazaré/TO,-11.0205883,-48.5722906,246,4457.32923
D1,Brejinho de Nazaré/TO,-11.0205883,-48.5722906,7,126.83457
1,Brejinho/PE,-7.3482153,-37.28538,356,4754.27350
D1,Brejinho/PE,-7.3482153,-37.28538,4,53.41880
1,Brejinho/RN,-6.1957907,-35.3583019,655,5122.38993
D1,Brejinho/RN,-6.1957907,-35.3583019,6,46.92266
1,Brejo Alegre/SP,-21.1671191,-50.1850393,215,7442.02146
D1,Brejo Alegre/SP,-21.1671191,-50.1850393,8,276.91243
1,Brejo Grande do Araguaia/PA,-5.7011449,-48.4037308,720,9771.98697
D1,Brejo Grande do Araguaia/PA,-5.7011449,-48.4037308,4,54.28882
1,Brejo Grande/SE,-10.4287358,-36.4667918,248,2968.99318
D1,Brejo Grande/SE,-10.4287358,-36.4667918,10,119.71747
1,Brejo Santo/CE,-7.4909841,-38.9859152,4716,9461.89960
D1,Brejo Santo/CE,-7.4909841,-38.9859152,59,118.37406
1,Brejo da Madre de Deus/PE,-8.1409718,-36.3712527,1472,2873.59688
D1,Brejo da Madre de Deus/PE,-8.1409718,-36.3712527,41,80.03904
1,Brejo de Areia/MA,-4.3316785,-45.5833334,280,3106.27912
D1,Brejo de Areia/MA,-4.3316785,-45.5833334,7,77.65698
1,Brejo do Cruz/PB,-6.32926065,-37.48746163303929,1215,8552.72420
D1,Brejo do Cruz/PB,-6.32926065,-37.48746163303929,17,119.66775
1,Brejo do Piauí/PI,-8.207583,-42.8359849,58,1507.27651
D1,Brejo do Piauí/PI,-8.207583,-42.8359849,3,77.96258
1,Brejo dos Santos/PB,-6.3769367,-37.8243125,297,4594.67822
D1,Brejo dos Santos/PB,-6.3769367,-37.8243125,4,61.88119
1,Brejo/MA,-3.6804397,-42.7529313,760,2073.61327
D1,Brejo/MA,-3.6804397,-42.7529313,18,49.11189
1,Brejolândia/BA,-12.4843845,-43.9611861,129,1214.91806
D1,Brejolândia/BA,-12.4843845,-43.9611861,7,65.92579
1,Brejão/PE,-9.029146,-36.566034,136,1513.29698
D1,Brejão/PE,-9.029146,-36.566034,4,44.50873
1,Brejões/BA,-13.1033754,-39.7909837,468,3290.67642
D1,Brejões/BA,-13.1033754,-39.7909837,7,49.21952
1,Breu Branco/PA,-3.7785073,-49.5684795,530,787.14430
D1,Breu Branco/PA,-3.7785073,-49.5684795,31,46.04052
1,Breves/PA,-1.68036,-50.479085,3635,3512.17910
D1,Breves/PA,-1.68036,-50.479085,102,98.55358
1,Britânia/GO,-15.2427599,-51.1602061,388,6693.11713
D1,Britânia/GO,-15.2427599,-51.1602061,2,34.50060
1,Brochier/RS,-29.556766,-51.5963047,299,5858.15047
D1,Brochier/RS,-29.556766,-51.5963047,1,19.59248
1,Brodowski/SP,-20.984532,-47.657217,1449,5732.48408
D1,Brodowski/SP,-20.984532,-47.657217,36,142.42196
1,Brotas de Macaúbas/BA,-12.0019007,-42.6257506,56,552.81343
D1,Brotas de Macaúbas/BA,-12.0019007,-42.6257506,1,9.87167
1,Brotas/SP,-22.2840884,-48.1267265,320,1298.91216
D1,Brotas/SP,-22.2840884,-48.1267265,13,52.76831
1,Brumadinho/MG,-20.143611,-44.2,2377,5845.17779
D1,Brumadinho/MG,-20.143611,-44.2,38,93.44415
1,Brumado/BA,-14.29507325,-41.659307508575985,6498,9650.25618
D1,Brumado/BA,-14.29507325,-41.659307508575985,98,145.54095
1,Brunópolis/SC,-27.310953,-50.837585,151,6376.68919
D1,Brunópolis/SC,-27.310953,-50.837585,3,126.68919
1,Brusque/SC,-27.0964628,-48.9136323,19766,14355.54038
D1,Brusque/SC,-27.0964628,-48.9136323,171,124.19293
1,Brás Pires/MG,-20.8483109,-43.2430524,111,2585.60447
D1,Brás Pires/MG,-20.8483109,-43.2430524,5,116.46867
1,Bueno Brandão/MG,-22.441976,-46.3517971,412,3748.52152
D1,Bueno Brandão/MG,-22.441976,-46.3517971,12,109.18024
1,Buenos Aires/PE,-7.7218931,-35.326587,159,1205.45868
D1,Buenos Aires/PE,-7.7218931,-35.326587,15,113.72252
1,Buenópolis/MG,-17.8756607,-44.1749365,201,1941.46624
D1,Buenópolis/MG,-17.8756607,-44.1749365,6,57.95422
1,Buerarema/BA,-14.9571177,-39.3008035,1126,6150.98875
D1,Buerarema/BA,-14.9571177,-39.3008035,34,185.73145
1,Bugre/MG,-19.4257687,-42.2556,318,7983.93171
D1,Bugre/MG,-19.4257687,-42.2556,9,225.96033
1,Bujari/AC,-9.8309656,-67.9520886,902,8656.42994
D1,Bujari/AC,-9.8309656,-67.9520886,10,95.96929
1,Bujaru/PA,-1.5169239,-48.0410699,1040,3534.16930
D1,Bujaru/PA,-1.5169239,-48.0410699,27,91.75247
1,Buri/SP,-23.79849,-48.598924,1339,6706.73679
D1,Buri/SP,-23.79849,-48.598924,23,115.20160
1,Buritama/SP,-21.0664017,-50.1448077,1414,8182.39685
D1,Buritama/SP,-21.0664017,-50.1448077,38,219.89468
1,Buriti Alegre/GO,-18.1377879,-49.0404411,657,6927.45677
D1,Buriti Alegre/GO,-18.1377879,-49.0404411,21,221.42556
1,Buriti Bravo/MA,-5.8391884,-43.8367876,1081,4515.64393
D1,Buriti Bravo/MA,-5.8391884,-43.8367876,10,41.77284
1,Buriti de Goiás/GO,-16.180644,-50.4287479,139,5613.89338
D1,Buriti de Goiás/GO,-16.180644,-50.4287479,1,40.38772
1,Buriti do Tocantins/TO,-5.3187439,-48.2256609,467,4061.92920
D1,Buriti do Tocantins/TO,-5.3187439,-48.2256609,2,17.39584
1,Buriti dos Lopes/PI,-3.1776723,-41.8707444,993,5013.37911
D1,Buriti dos Lopes/PI,-3.1776723,-41.8707444,16,80.77952
1,Buriti dos Montes/PI,-5.3136171,-41.0971256,433,5239.59342
D1,Buriti dos Montes/PI,-5.3136171,-41.0971256,3,36.30203
1,Buriti/MA,-3.9430944,-42.9244281,741,2573.09535
D1,Buriti/MA,-3.9430944,-42.9244281,6,20.83478
1,Buriticupu/MA,-4.3227472,-46.4516989,2730,3740.59713
D1,Buriticupu/MA,-4.3227472,-46.4516989,33,45.21601
1,Buritinópolis/GO,-14.4589282,-46.4293104,113,3441.97380
1,Buritirama/BA,-10.7148421,-43.6362327,634,2979.88344
D1,Buritirama/BA,-10.7148421,-43.6362327,15,70.50197
1,Buritirana/MA,-5.5897455,-47.0148915,278,1797.37506
D1,Buritirana/MA,-5.5897455,-47.0148915,20,129.30756
1,Buritis/MG,-15.621389,-46.423889,885,3538.16016
D1,Buritis/MG,-15.621389,-46.423889,11,43.97713
1,Buritis/RO,-10.2054937,-63.8281954,3818,9460.79889
D1,Buritis/RO,-10.2054937,-63.8281954,45,111.50758
1,Buritizal/SP,-20.1933264,-47.7097165,130,2879.92911
D1,Buritizal/SP,-20.1933264,-47.7097165,5,110.76650
1,Buritizeiro/MG,-17.3667765,-44.9647781,683,2428.78987
D1,Buritizeiro/MG,-17.3667765,-44.9647781,15,53.34092
1,Butiá/RS,-30.1256795,-51.9692224,812,3875.52501
D1,Butiá/RS,-30.1256795,-51.9692224,33,157.50286
1,Buíque/PE,-8.6239732,-37.157296,1536,2606.96889
D1,Buíque/PE,-8.6239732,-37.157296,25,42.43113
1,Bálsamo/SP,-20.7343722,-49.5807484,993,10865.52139
D1,Bálsamo/SP,-20.7343722,-49.5807484,32,350.14772
0,CASO SEM LOCALIZAÇÃO DEFINIDA/AC,-9.884083190922777,-67.85119819780795,548,62.13610
D0,CASO SEM LOCALIZAÇÃO DEFINIDA/AC,-9.884083190922777,-67.85119819780795,7,0.79371
0,CASO SEM LOCALIZAÇÃO DEFINIDA/AL,-9.931093434363673,-35.609611600637464,703,21.06457
D0,CASO SEM LOCALIZAÇÃO DEFINIDA/AL,-9.931093434363673,-35.609611600637464,25,0.74910
0,CASO SEM LOCALIZAÇÃO DEFINIDA/AP,2.677150600275196,-50.477785111870624,596,70.47158
D0,CASO SEM LOCALIZAÇÃO DEFINIDA/AP,2.677150600275196,-50.477785111870624,5,0.59120
0,CASO SEM LOCALIZAÇÃO DEFINIDA/BA,-13.415069300066518,-38.14174656569957,13872,93.26928
D0,CASO SEM LOCALIZAÇÃO DEFINIDA/BA,-13.415069300066518,-38.14174656569957,179,1.20352
0,CASO SEM LOCALIZAÇÃO DEFINIDA/CE,-3.3445126297392798,-38.624961942434304,13061,143.02331
D0,CASO SEM LOCALIZAÇÃO DEFINIDA/CE,-3.3445126297392798,-38.624961942434304,265,2.90186
0,CASO SEM LOCALIZAÇÃO DEFINIDA/ES,-20.30989267097039,-39.81745156645774,5561,138.37980
D0,CASO SEM LOCALIZAÇÃO DEFINIDA/ES,-20.30989267097039,-39.81745156645774,189,4.70307
0,CASO SEM LOCALIZAÇÃO DEFINIDA/GO,-16.701590966270153,-49.164524059025034,7576,107.94554
D0,CASO SEM LOCALIZAÇÃO DEFINIDA/GO,-16.701590966270153,-49.164524059025034,249,3.54784
0,CASO SEM LOCALIZAÇÃO DEFINIDA/MG,-19.97049116501593,-43.8852149072783,18191,85.93311
D0,CASO SEM LOCALIZAÇÃO DEFINIDA/MG,-19.97049116501593,-43.8852149072783,262,1.23767
0,CASO SEM LOCALIZAÇÃO DEFINIDA/MS,-20.391549234908513,-54.645156949758444,1256,45.19634
D0,CASO SEM LOCALIZAÇÃO DEFINIDA/MS,-20.391549234908513,-54.645156949758444,60,2.15906
0,CASO SEM LOCALIZAÇÃO DEFINIDA/MT,-15.54791153961863,-56.17143998972475,5074,145.61772
D0,CASO SEM LOCALIZAÇÃO DEFINIDA/MT,-15.54791153961863,-56.17143998972475,204,5.85456
0,CASO SEM LOCALIZAÇÃO DEFINIDA/PA,-0.09317078214359542,-48.0050231510481,2858,33.22149
D0,CASO SEM LOCALIZAÇÃO DEFINIDA/PA,-0.09317078214359542,-48.0050231510481,100,1.16240
0,CASO SEM LOCALIZAÇÃO DEFINIDA/PB,-7.1049355696146606,-34.68696690234351,1672,41.61143
D0,CASO SEM LOCALIZAÇÃO DEFINIDA/PB,-7.1049355696146606,-34.68696690234351,50,1.24436
0,CASO SEM LOCALIZAÇÃO DEFINIDA/PI,-2.683810218391744,-41.470898009352254,1149,35.10297
D0,CASO SEM LOCALIZAÇÃO DEFINIDA/PI,-2.683810218391744,-41.470898009352254,49,1.49699
0,CASO SEM LOCALIZAÇÃO DEFINIDA/PR,-25.69415946385943,-48.10141676336737,16524,144.51690
D0,CASO SEM LOCALIZAÇÃO DEFINIDA/PR,-25.69415946385943,-48.10141676336737,410,3.58581
0,CASO SEM LOCALIZAÇÃO DEFINIDA/RJ,-23.210238986465157,-43.12864305824042,2980,17.26041
D0,CASO SEM LOCALIZAÇÃO DEFINIDA/RJ,-23.210238986465157,-43.12864305824042,190,1.10050
0,CASO SEM LOCALIZAÇÃO DEFINIDA/RN,-5.749310788669161,-34.95302586257457,1429,40.74879
D0,CASO SEM LOCALIZAÇÃO DEFINIDA/RN,-5.749310788669161,-34.95302586257457,33,0.94101
0,CASO SEM LOCALIZAÇÃO DEFINIDA/RR,2.813328208465927,-60.663338675861986,2778,458.59671
D0,CASO SEM LOCALIZAÇÃO DEFINIDA/RR,2.813328208465927,-60.663338675861986,14,2.31114
0,CASO SEM LOCALIZAÇÃO DEFINIDA/RS,-30.50647488532064,-49.906261466443524,6133,53.90587
D0,CASO SEM LOCALIZAÇÃO DEFINIDA/RS,-30.50647488532064,-49.906261466443524,193,1.69637
0,CASO SEM LOCALIZAÇÃO DEFINIDA/SC,-27.675643660562308,-48.18313219398259,7486,104.48320
D0,CASO SEM LOCALIZAÇÃO DEFINIDA/SC,-27.675643660562308,-48.18313219398259,187,2.60999
0,CASO SEM LOCALIZAÇÃO DEFINIDA/SP,-24.30968974555485,-46.21366504207253,18851,41.05268
D0,CASO SEM LOCALIZAÇÃO DEFINIDA/SP,-24.30968974555485,-46.21366504207253,599,1.30447
0,CASO SEM LOCALIZAÇÃO DEFINIDA/TO,-10.213012114749148,-48.40023803990334,1002,63.70536
D0,CASO SEM LOCALIZAÇÃO DEFINIDA/TO,-10.213012114749148,-48.40023803990334,25,1.58946
1,Caapiranga/AM,-3.3188884,-61.2096404,540,4065.34668
D1,Caapiranga/AM,-3.3188884,-61.2096404,20,150.56840
1,Caaporã/PB,-7.510234,-34.9154114,1354,6167.16010
D1,Caaporã/PB,-7.510234,-34.9154114,22,100.20496
1,Caarapó/MS,-22.6349267,-54.8240903,2301,7521.32841
D1,Caarapó/MS,-22.6349267,-54.8240903,19,62.10571
1,Caatiba/BA,-14.9782759,-40.4092325,581,8954.99383
D1,Caatiba/BA,-14.9782759,-40.4092325,7,107.89149
1,Cabaceiras do Paraguaçu/BA,-12.5377868,-39.1901339,358,1893.07810
D1,Cabaceiras do Paraguaçu/BA,-12.5377868,-39.1901339,3,15.86378
1,Cabaceiras/PB,-7.4899156,-36.2860501,283,4999.11676
D1,Cabaceiras/PB,-7.4899156,-36.2860501,1,17.66472
1,Cabeceira Grande/MG,-16.0297,-47.0906,195,2790.49800
D1,Cabeceira Grande/MG,-16.0297,-47.0906,3,42.93074
1,Cabeceiras do Piauí/PI,-4.4733665,-42.3098716,363,3414.86359
D1,Cabeceiras do Piauí/PI,-4.4733665,-42.3098716,8,75.25870
1,Cabeceiras/GO,-15.7995459,-46.9264991,209,2597.56401
D1,Cabeceiras/GO,-15.7995459,-46.9264991,8,99.42829
1,Cabedelo/PB,-6.97324,-34.8351609,6228,9056.66962
D1,Cabedelo/PB,-6.97324,-34.8351609,128,186.13579
1,Cabixi/RO,-13.4956065,-60.5424442,515,9926.75405
D1,Cabixi/RO,-13.4956065,-60.5424442,13,250.57826
1,Cabo Frio/RJ,-22.8804369,-42.0189227,8288,3597.56574
D1,Cabo Frio/RJ,-22.8804369,-42.0189227,368,159.73747
1,Cabo Verde/MG,-21.4743338,-46.3964995,283,2010.65719
D1,Cabo Verde/MG,-21.4743338,-46.3964995,5,35.52398
1,Cabo de Santo Agostinho/PE,-8.2838945,-35.0320984,3525,1687.05490
D1,Cabo de Santo Agostinho/PE,-8.2838945,-35.0320984,334,159.85144
1,Cabreúva/SP,-23.3075813,-47.1324417,2644,5243.01493
D1,Cabreúva/SP,-23.3075813,-47.1324417,55,109.06423
1,Cabrobó/PE,-8.5083701,-39.3106961,1217,3527.22952
D1,Cabrobó/PE,-8.5083701,-39.3106961,12,34.77958
1,Cabrália Paulista/SP,-22.4562909,-49.3385645,176,4148.00848
D1,Cabrália Paulista/SP,-22.4562909,-49.3385645,2,47.13646
1,Cacaulândia/RO,-10.3380043,-62.9007231,560,8932.84415
D1,Cacaulândia/RO,-10.3380043,-62.9007231,8,127.61206
1,Cacequi/RS,-29.8838059,-54.8273443,137,1102.79321
D1,Cacequi/RS,-29.8838059,-54.8273443,4,32.19834
1,Cachoeira Alta/GO,-18.7618269,-50.9432431,984,7768.82994
D1,Cachoeira Alta/GO,-18.7618269,-50.9432431,13,102.63698
1,Cachoeira Dourada/GO,-18.4934204,-49.481062,302,3760.42834
D1,Cachoeira Dourada/GO,-18.4934204,-49.481062,7,87.16225
1,Cachoeira Dourada/MG,-18.517136,-49.5002062,120,4434.58980
1,Cachoeira Grande/MA,-2.9290492,-44.0573223,200,2110.14982
D1,Cachoeira Grande/MA,-2.9290492,-44.0573223,5,52.75375
1,Cachoeira Paulista/SP,-22.666498,-45.015384,1301,3874.21459
D1,Cachoeira Paulista/SP,-22.666498,-45.015384,27,80.40261
1,Cachoeira da Prata/MG,-19.524723,-44.453056,189,5263.15789
D1,Cachoeira da Prata/MG,-19.524723,-44.453056,3,83.54219
1,Cachoeira de Goiás/GO,-16.6688414,-50.6435997,36,2682.56334
1,Cachoeira de Minas/MG,-22.3554043,-45.7796324,429,3704.98316
D1,Cachoeira de Minas/MG,-22.3554043,-45.7796324,5,43.18162
1,Cachoeira de Pajeú/MG,-15.965833,-41.496666,293,3103.15611
D1,Cachoeira de Pajeú/MG,-15.965833,-41.496666,5,52.95488
1,Cachoeira do Arari/PA,-1.0143572,-48.9621089,350,1454.45479
D1,Cachoeira do Arari/PA,-1.0143572,-48.9621089,15,62.33378
1,Cachoeira do Piriá/PA,-1.7599443,-46.5446954,653,1886.79245
D1,Cachoeira do Piriá/PA,-1.7599443,-46.5446954,3,8.66827
1,Cachoeira do Sul/RS,-30.0474778,-52.8905413,4500,5496.58601
D1,Cachoeira do Sul/RS,-30.0474778,-52.8905413,66,80.61659
1,Cachoeira dos Índios/PB,-6.9259193,-38.6742159,481,4667.63707
D1,Cachoeira dos Índios/PB,-6.9259193,-38.6742159,13,126.15235
1,Cachoeira/BA,-12.5998256,-38.9665918,1052,3134.03045
D1,Cachoeira/BA,-12.5998256,-38.9665918,17,50.64498
1,Cachoeiras de Macacu/RJ,-22.4626861,-42.6534414,2047,3451.76467
D1,Cachoeiras de Macacu/RJ,-22.4626861,-42.6534414,63,106.23409
1,Cachoeirinha/PE,-8.4906364,-36.2338963,349,1702.35598
D1,Cachoeirinha/PE,-8.4906364,-36.2338963,22,107.31184
1,Cachoeirinha/RS,-29.9493353,-51.0898927,9182,6996.34258
D1,Cachoeirinha/RS,-29.9493353,-51.0898927,257,195.82444
1,Cachoeirinha/TO,-6.118647,-47.9208885,116,5078.80911
D1,Cachoeirinha/TO,-6.118647,-47.9208885,2,87.56567
1,Cachoeiro de Itapemirim/ES,-20.848084,-41.11129,19434,9228.40224
D1,Cachoeiro de Itapemirim/ES,-20.848084,-41.11129,376,178.54684
1,Cacimba de Areia/PB,-7.1288513,-37.1575194,26,703.65359
D1,Cacimba de Areia/PB,-7.1288513,-37.1575194,1,27.06360
1,Cacimba de Dentro/PB,-6.6425101,-35.7929304,796,4633.83397
D1,Cacimba de Dentro/PB,-6.6425101,-35.7929304,19,110.60659
1,Cacimbas/PB,-7.2125451,-37.0593398,181,2514.23809
D1,Cacimbas/PB,-7.2125451,-37.0593398,6,83.34491
1,Cacimbinhas/AL,-9.401212,-36.991082,424,3893.83782
D1,Cacimbinhas/AL,-9.401212,-36.991082,6,55.10148
1,Cacique Doble/RS,-27.7700117,-51.6616409,245,4828.53764
D1,Cacique Doble/RS,-27.7700117,-51.6616409,4,78.83327
1,Cacoal/RO,-11.4333,-61.4420502,9079,10570.12795
D1,Cacoal/RO,-11.4333,-61.4420502,135,157.17230
1,Caconde/SP,-21.527995,-46.643659,767,4034.93082
D1,Caconde/SP,-21.527995,-46.643659,7,36.82466
1,Caculé/BA,-14.4990734,-42.2233006,936,4018.71968
D1,Caculé/BA,-14.4990734,-42.2233006,9,38.64154
1,Caetanos/BA,-14.3387456,-40.9085971,458,3135.26835
D1,Caetanos/BA,-14.3387456,-40.9085971,5,34.22782
1,Caetanópolis/MG,-19.2947496,-44.4138386,619,5268.53349
D1,Caetanópolis/MG,-19.2947496,-44.4138386,4,34.04545
1,Caetité/BA,-14.0691776,-42.4852428,1500,2936.51260
D1,Caetité/BA,-14.0691776,-42.4852428,13,25.44978
1,Caeté/MG,-19.897777,-43.670278,1132,2512.93094
D1,Caeté/MG,-19.897777,-43.670278,32,71.03692
1,Caetés/PE,-8.7728788,-36.6255835,961,3324.79934
D1,Caetés/PE,-8.7728788,-36.6255835,11,38.05702
1,Cafarnaum/BA,-11.691399,-41.468823,706,3813.53643
D1,Cafarnaum/BA,-11.691399,-41.468823,12,64.81932
1,Cafeara/PR,-22.78905,-51.714195,198,6702.77590
D1,Cafeara/PR,-22.78905,-51.714195,3,101.55721
1,Cafelândia/PR,-24.6176963,-53.3218057,1228,6653.66277
D1,Cafelândia/PR,-24.6176963,-53.3218057,8,43.34634
1,Cafelândia/SP,-21.8054355,-49.6030627,603,3379.47655
D1,Cafelândia/SP,-21.8054355,-49.6030627,25,140.11097
1,Cafezal do Sul/PR,-23.900508,-53.512418,161,4015.96408
D1,Cafezal do Sul/PR,-23.900508,-53.512418,1,24.94388
1,Caiabu/SP,-22.0143038,-51.2356597,61,1454.80563
D1,Caiabu/SP,-22.0143038,-51.2356597,4,95.39709
1,Caiana/MG,-20.695555,-41.924723,106,1913.01209
D1,Caiana/MG,-20.695555,-41.924723,2,36.09457
1,Caiapônia/GO,-16.9538779,-51.8090761,751,3930.49668
D1,Caiapônia/GO,-16.9538779,-51.8090761,18,94.20631
1,Caibaté/RS,-28.290475,-54.645407,107,2218.53618
D1,Caibaté/RS,-28.290475,-54.645407,6,124.40390
1,Caibi/SC,-27.0751925,-53.2502133,455,7422.51223
D1,Caibi/SC,-27.0751925,-53.2502133,7,114.19250
1,Caicó/RN,-6.4594544,-37.0971911,8160,11939.77437
D1,Caicó/RN,-6.4594544,-37.0971911,97,141.93114
1,Caieiras/SP,-23.3644621,-46.7484765,5154,5014.83824
D1,Caieiras/SP,-23.3644621,-46.7484765,151,146.92289
1,Cairu/BA,-13.4860505,-39.0455744,972,5274.86840
D1,Cairu/BA,-13.4860505,-39.0455744,9,48.84137
1,Caiuá/SP,-21.8319357,-51.9887179,186,3128.15338
D1,Caiuá/SP,-21.8319357,-51.9887179,3,50.45409
1,Caiçara do Norte/RN,-5.0645017,-36.0561226,223,3398.87212
D1,Caiçara do Norte/RN,-5.0645017,-36.0561226,4,60.96632
1,Caiçara do Rio do Vento/RN,-5.757968,-36.00089,167,4495.28937
D1,Caiçara do Rio do Vento/RN,-5.757968,-36.00089,5,134.58950
1,Caiçara/PB,-6.6146866,-35.4681434,541,7523.29301
D1,Caiçara/PB,-6.6146866,-35.4681434,11,152.96899
1,Caiçara/RS,-27.2750478,-53.4310053,366,7787.23404
D1,Caiçara/RS,-27.2750478,-53.4310053,6,127.65957
1,Cajamar/SP,-23.3561111,-46.8769444,2630,3374.65035
D1,Cajamar/SP,-23.3561111,-46.8769444,105,134.72939
1,Cajapió/MA,-2.8778715,-44.6746871,65,579.52924
D1,Cajapió/MA,-2.8778715,-44.6746871,3,26.74750
1,Cajari/MA,-3.3213076,-45.0118757,132,678.62835
D1,Cajari/MA,-3.3213076,-45.0118757,4,20.56450
1,Cajati/SP,-24.7272376,-48.1077914,2684,9419.52692
D1,Cajati/SP,-24.7272376,-48.1077914,58,203.55162
1,Cajazeiras do Piauí/PI,-6.794271,-42.3935024,28,783.65519
D1,Cajazeiras do Piauí/PI,-6.794271,-42.3935024,1,27.98769
1,Cajazeiras/PB,-6.8897849,-38.5570389,5620,9022.45982
D1,Cajazeiras/PB,-6.8897849,-38.5570389,99,158.93657
1,Cajazeirinhas/PB,-6.961442,-37.7993733,104,3244.92980
1,Cajobi/SP,-20.8776238,-48.8106972,542,5115.13779
D1,Cajobi/SP,-20.8776238,-48.8106972,18,169.87542
1,Cajueiro da Praia/PI,-2.931114,-41.340801,460,5994.26635
D1,Cajueiro da Praia/PI,-2.931114,-41.340801,12,156.37217
1,Cajueiro/AL,-9.399589,-36.1524309,456,2137.73381
D1,Cajueiro/AL,-9.399589,-36.1524309,18,84.38423
1,Cajuri/MG,-20.7901414,-42.7954489,198,4982.38551
D1,Cajuri/MG,-20.7901414,-42.7954489,1,25.16356
1,Cajuru/SP,-21.2759978,-47.3046035,558,2114.19695
D1,Cajuru/SP,-21.2759978,-47.3046035,18,68.19990
1,Caldas Brandão/PB,-7.1027959,-35.3254676,411,6797.88290
D1,Caldas Brandão/PB,-7.1027959,-35.3254676,6,99.23917
1,Caldas Novas/GO,-17.745,-48.625,6064,6506.71703
D1,Caldas Novas/GO,-17.745,-48.625,117,125.54187
1,Caldas/MG,-21.923611,-46.386111,469,3225.36277
D1,Caldas/MG,-21.923611,-46.386111,13,89.40238
1,Caldazinha/GO,-16.7116649,-49.0012601,177,4599.79210
D1,Caldazinha/GO,-16.7116649,-49.0012601,2,51.97505
1,Caldeirão Grande do Piauí/PI,-7.3310393,-40.6374433,234,4047.74261
D1,Caldeirão Grande do Piauí/PI,-7.3310393,-40.6374433,2,34.59609
1,Caldeirão Grande/BA,-11.0208483,-40.3041387,532,3972.81756
D1,Caldeirão Grande/BA,-11.0208483,-40.3041387,6,44.80621
1,Califórnia/PR,-23.6672543,-51.3554556,610,7088.07809
D1,Califórnia/PR,-23.6672543,-51.3554556,9,104.57820
1,Calmon/SC,-26.6023644,-51.0992893,20,599.70015
D1,Calmon/SC,-26.6023644,-51.0992893,2,59.97001
1,Calumbi/PE,-7.9389746,-38.1516871,373,6490.34279
D1,Calumbi/PE,-7.9389746,-38.1516871,2,34.80077
1,Calçado/PE,-8.7413446,-36.3351787,284,2577.60029
D1,Calçado/PE,-8.7413446,-36.3351787,2,18.15211
1,Calçoene/AP,2.4981757,-50.9539503,1559,13789.13851
D1,Calçoene/AP,2.4981757,-50.9539503,9,79.60375
1,Camacan/BA,-15.4166631,-39.4930088,2124,6636.25570
D1,Camacan/BA,-15.4166631,-39.4930088,49,153.09629
1,Camacho/MG,-20.625556,-45.156667,49,1707.91216
D1,Camacho/MG,-20.625556,-45.156667,1,34.85535
1,Camalaú/PB,-7.885031,-36.824191,285,4725.58448
D1,Camalaú/PB,-7.885031,-36.824191,5,82.90499
1,Camamu/BA,-13.9438142,-39.1060917,1796,5076.02736
D1,Camamu/BA,-13.9438142,-39.1060917,35,98.92035
1,Camanducaia/MG,-22.755278,-46.144444,2088,9577.54231
D1,Camanducaia/MG,-22.755278,-46.144444,31,142.19531
1,Camapuã/MS,-19.5291747,-54.0434641,454,3315.56270
D1,Camapuã/MS,-19.5291747,-54.0434641,12,87.63602
1,Camaquã/RS,-30.8524752,-51.8075619,3963,5961.37068
D1,Camaquã/RS,-30.8524752,-51.8075619,75,112.81928
1,Camaragibe/PE,-8.0213832,-34.9810768,3734,2349.92039
D1,Camaragibe/PE,-8.0213832,-34.9810768,256,161.10863
1,Camargo/RS,-28.5865661,-52.2031474,260,9482.12983
D1,Camargo/RS,-28.5865661,-52.2031474,4,145.87892
1,Camaçari/BA,-12.6998188,-38.3260762,17645,5798.51595
D1,Camaçari/BA,-12.6998188,-38.3260762,391,128.49078
1,Cambará do Sul/RS,-29.0489517,-50.145412,276,4308.46082
D1,Cambará do Sul/RS,-29.0489517,-50.145412,4,62.44146
1,Cambará/PR,-23.042273,-50.075281,1382,5426.84363
D1,Cambará/PR,-23.042273,-50.075281,13,51.04846
1,Cambira/PR,-23.600265,-51.581045,470,5936.59214
D1,Cambira/PR,-23.600265,-51.581045,11,138.94152
1,Camboriú/SC,-27.0273601,-48.6535657,10074,11837.14235
D1,Camboriú/SC,-27.0273601,-48.6535657,112,131.60214
1,Cambuci/RJ,-21.5749919,-41.9107833,550,3545.18499
D1,Cambuci/RJ,-21.5749919,-41.9107833,10,64.45791
1,Cambuquira/MG,-21.853056,-45.2953619,251,1959.10084
D1,Cambuquira/MG,-21.853056,-45.2953619,8,62.44146
1,Cambuí/MG,-22.6122501,-46.0572137,1707,5725.49809
D1,Cambuí/MG,-22.6122501,-46.0572137,27,90.56148
1,Cambé/PR,-23.2782035,-51.2779583,7852,7315.00545
D1,Cambé/PR,-23.2782035,-51.2779583,124,115.51970
1,Cametá/PA,-2.242949,-49.497885,6335,4545.65024
D1,Cametá/PA,-2.242949,-49.497885,146,104.76163
1,Camocim de São Félix/PE,-8.3616757,-35.7638903,365,1931.21693
D1,Camocim de São Félix/PE,-8.3616757,-35.7638903,11,58.20106
1,Camocim/CE,-2.9009918,-40.8427389,3418,5348.39689
D1,Camocim/CE,-2.9009918,-40.8427389,98,153.34783
1,Campanha/MG,-21.8361108,-45.401986,885,5279.79955
D1,Campanha/MG,-21.8361108,-45.401986,19,113.35163
1,Campanário/MG,-18.2398144,-41.7271768,127,3404.82574
D1,Campanário/MG,-18.2398144,-41.7271768,1,26.80965
1,Campestre da Serra/RS,-28.7966535,-51.0958149,126,3711.34021
1,Campestre de Goiás/GO,-16.7624179,-49.69497,335,9180.59742
D1,Campestre de Goiás/GO,-16.7624179,-49.69497,7,191.83338
1,Campestre do Maranhão/MA,-6.1729113,-47.3640512,763,5279.18079
D1,Campestre do Maranhão/MA,-6.1729113,-47.3640512,28,193.73141
1,Campestre/AL,-8.8481634,-35.5660033,193,2775.38108
D1,Campestre/AL,-8.8481634,-35.5660033,6,86.28128
1,Campestre/MG,-19.6142116,-43.219378,663,3149.04531
D1,Campestre/MG,-19.6142116,-43.219378,9,42.74722
1,Campina Grande do Sul/PR,-25.3046032,-49.0545355,3734,8547.55637
