type,name,lat,lon,total,total_per_100k_inhabitants
1,Abadia de Goiás/GO,-16.7572644,-49.4412205,84,957.48319
1,Abadia dos Dourados/MG,-18.4911191,-47.4063589,5,71.54099
1,Abadiânia/GO,-16.1940946,-48.7067767,66,329.30845
D1,Abadiânia/GO,-16.1940946,-48.7067767,4,19.95809
1,Abaetetuba/PA,-1.721828,-48.878843,2390,1515.55505
D1,Abaetetuba/PA,-1.721828,-48.878843,103,65.31472
1,Abaeté/MG,-19.1566833,-45.4481213,22,94.67659
1,Abaiara/CE,-7.3607808,-39.0487878,27,230.04175
D1,Abaiara/CE,-7.3607808,-39.0487878,1,8.52006
1,Abaré/BA,-8.7239913,-39.1139689,5,24.89296
1,Abatiá/PR,-23.3052967,-50.3102532,52,697.33137
1,Abaíra/BA,-13.2503296,-41.6640342,5,57.21478
1,Abdon Batista/SC,-27.612419,-51.022992,49,1911.82208
1,Abel Figueiredo/PA,-4.953001,-48.3958485,96,1291.36400
D1,Abel Figueiredo/PA,-4.953001,-48.3958485,1,13.45171
1,Abelardo Luz/SC,-26.5705893,-52.3280339,85,474.75424
D1,Abelardo Luz/SC,-26.5705893,-52.3280339,3,16.75603
1,Abre Campo/MG,-20.2976097,-42.4764741,9,66.89460
1,Abreu e Lima/PE,-7.900719,-34.898389,531,531.05311
D1,Abreu e Lima/PE,-7.900719,-34.898389,65,65.00650
1,Abreulândia/TO,-9.6221526,-49.1558343,7,271.42303
D1,Abreulândia/TO,-9.6221526,-49.1558343,2,77.54944
1,Acaiaca/MG,-20.3621646,-43.1444162,11,275.41312
D1,Acaiaca/MG,-20.3621646,-43.1444162,1,25.03756
1,Acajutiba/BA,-11.6609659,-38.0186381,41,270.46639
D1,Acajutiba/BA,-11.6609659,-38.0186381,2,13.19348
1,Acarape/CE,-4.2237866,-38.7071663,755,5057.27108
D1,Acarape/CE,-4.2237866,-38.7071663,13,87.07884
1,Acaraú/CE,-2.8869514,-40.1194713,1955,3120.95912
D1,Acaraú/CE,-2.8869514,-40.1194713,47,75.03073
1,Acari/RN,-6.4364689,-36.6394777,36,323.27586
D1,Acari/RN,-6.4364689,-36.6394777,2,17.95977
1,Acará/PA,-1.961388,-48.1987043,591,1063.12173
D1,Acará/PA,-1.961388,-48.1987043,13,23.38508
1,Acauã/PI,-8.219542,-41.083059,15,211.74478
1,Acopiara/CE,-6.0936464,-39.4543204,355,654.13672
D1,Acopiara/CE,-6.0936464,-39.4543204,19,35.01013
1,Acorizal/MT,-15.2001544,-56.3668953,60,1111.31691
D1,Acorizal/MT,-15.2001544,-56.3668953,1,18.52195
1,Acrelândia/AC,-10.0759167,-67.0526898,222,1455.16518
D1,Acrelândia/AC,-10.0759167,-67.0526898,3,19.66439
1,Acreúna/GO,-17.3959899,-50.3749031,107,478.40472
D1,Acreúna/GO,-17.3959899,-50.3749031,2,8.94214
1,Adamantina/SP,-21.6866517,-51.0762975,79,225.27661
D1,Adamantina/SP,-21.6866517,-51.0762975,5,14.25801
1,Adelândia/GO,-16.4155077,-50.1665834,36,1430.84261
1,Adolfo/SP,-21.2356597,-49.6441918,27,758.00112
D1,Adolfo/SP,-21.2356597,-49.6441918,2,56.14823
1,Adrianópolis/PR,-24.6557863,-48.9912769,59,996.79000
D1,Adrianópolis/PR,-24.6557863,-48.9912769,2,33.78949
1,Adustina/BA,-10.5358875,-38.114479,44,258.21596
D1,Adustina/BA,-10.5358875,-38.114479,1,5.86854
1,Afogados da Ingazeira/PE,-7.750429,-37.6356375,138,370.38031
D1,Afogados da Ingazeira/PE,-7.750429,-37.6356375,4,10.73566
1,Afonso Bezerra/RN,-5.4745,-36.57625071327935,54,489.35206
D1,Afonso Bezerra/RN,-5.4745,-36.57625071327935,4,36.24830
1,Afonso Cláudio/ES,-20.077841,-41.12606,429,1402.60250
D1,Afonso Cláudio/ES,-20.077841,-41.12606,10,32.69470
1,Afonso Cunha/MA,-4.1326105,-43.3230026,101,1548.12998
D1,Afonso Cunha/MA,-4.1326105,-43.3230026,1,15.32802
1,Afrânio/PE,-8.5198919,-41.0070197,67,341.22740
D1,Afrânio/PE,-8.5198919,-41.0070197,1,5.09295
1,Afuá/PA,-0.1535664,-50.3879223,1014,2585.54745
D1,Afuá/PA,-0.1535664,-50.3879223,8,20.39880
1,Agrestina/PE,-8.4558021,-35.9442663,261,1048.82459
D1,Agrestina/PE,-8.4558021,-35.9442663,18,72.33273
1,Agricolândia/PI,-5.7967843,-42.6605131,11,214.04943
1,Agrolândia/SC,-27.4122212,-49.8295774,29,266.93667
D1,Agrolândia/SC,-27.4122212,-49.8295774,2,18.40943
1,Agronômica/SC,-27.2660744,-49.7104753,20,367.10720
D1,Agronômica/SC,-27.2660744,-49.7104753,2,36.71072
1,Aguanil/MG,-20.9424533,-45.3927152,7,156.04102
1,Aguaí/SP,-22.0592036,-46.979384,89,245.14530
D1,Aguaí/SP,-22.0592036,-46.979384,4,11.01777
1,Agudo/RS,-29.6423259,-53.2494005,2,12.14993
1,Agudos do Sul/PR,-25.9890808,-49.3328175,39,416.17757
1,Agudos/SP,-22.471162,-48.987822,163,438.00720
D1,Agudos/SP,-22.471162,-48.987822,3,8.06148
1,Aguiar/PB,-7.0928404,-38.1727215,19,336.87943
1,Aguiarnópolis/TO,-6.5600452,-47.4721189,203,3015.00074
D1,Aguiarnópolis/TO,-6.5600452,-47.4721189,4,59.40888
1,Aimorés/MG,-19.4917754,-41.0615603,113,449.00068
1,Aiquara/BA,-14.126918,-39.8887574,39,877.19298
D1,Aiquara/BA,-14.126918,-39.8887574,1,22.49213
1,Aiuaba/CE,-6.5710836,-40.1212278,9,51.72711
D1,Aiuaba/CE,-6.5710836,-40.1212278,1,5.74746
1,Ajuricaba/RS,-28.239654,-53.7693013,4,56.94761
1,Alagoa Grande/PB,-7.0415212,-35.6285322,547,1919.56766
D1,Alagoa Grande/PB,-7.0415212,-35.6285322,10,35.09264
1,Alagoa Nova/PB,-7.0653703,-35.76695977336711,204,978.46419
D1,Alagoa Nova/PB,-7.0653703,-35.76695977336711,6,28.77836
1,Alagoinha do Piauí/PI,-7.0090952,-40.939675,26,339.82486
1,Alagoinha/PB,-6.97063215,-35.51490901897793,577,3982.33142
D1,Alagoinha/PB,-6.97063215,-35.51490901897793,3,20.70536
1,Alagoinha/PE,-8.50355635,-36.77701174370496,82,560.26237
D1,Alagoinha/PE,-8.50355635,-36.77701174370496,1,6.83247
1,Alagoinhas/BA,-12.133526,-38.420772,833,549.48679
D1,Alagoinhas/BA,-12.133526,-38.420772,15,9.89472
1,Alambari/SP,-23.550338,-47.897971,25,414.93776
1,Albertina/MG,-20.66164,-43.784039,2,66.51147
1,Alcantil/PB,-7.7425491,-36.0609604,22,400.58267
1,Alcinópolis/MS,-18.3264121,-53.7094463,2,37.43215
D1,Alcinópolis/MS,-18.3264121,-53.7094463,1,18.71608
1,Alcobaça/BA,-17.5215875,-39.1965474,132,587.44993
D1,Alcobaça/BA,-17.5215875,-39.1965474,1,4.45038
1,Alcântara/MA,-2.4038956,-44.4154241,34,153.86704
D1,Alcântara/MA,-2.4038956,-44.4154241,5,22.62751
1,Alcântaras/CE,-3.586247,-40.5457641,321,2740.31074
D1,Alcântaras/CE,-3.586247,-40.5457641,3,25.61038
1,Aldeias Altas/MA,-4.6291957,-43.4708622,117,440.97693
1,Alecrim/RS,-27.6566142,-54.7653195,2,33.61345
1,Alegre/ES,-20.7625787,-41.5318886,162,538.49222
D1,Alegre/ES,-20.7625787,-41.5318886,10,33.24026
1,Alegrete do Piauí/PI,-7.2440138,-40.8602296,8,162.76704
1,Alegrete/RS,-29.790166,-55.794862,106,144.04327
D1,Alegrete/RS,-29.790166,-55.794862,6,8.15339
1,Alegria/RS,-27.8332103,-54.0574959,7,202.07852
1,Alenquer/PA,-1.946229,-54.738355,691,1216.78494
D1,Alenquer/PA,-1.946229,-54.738355,18,31.69628
1,Alexandria/RN,-6.414779,-38.0135516,19,139.94255
D1,Alexandria/RN,-6.414779,-38.0135516,2,14.73079
1,Alexânia/GO,-16.0834049,-48.5077803,96,347.15944
D1,Alexânia/GO,-16.0834049,-48.5077803,3,10.84873
1,Alfenas/MG,-21.4297405,-45.9479419,86,107.50538
1,Alfredo Chaves/ES,-20.624970400000002,-40.75006690147988,200,1369.76919
D1,Alfredo Chaves/ES,-20.624970400000002,-40.75006690147988,3,20.54654
1,Alfredo Marcondes/SP,-21.9527,-51.413956,6,144.02304
D1,Alfredo Marcondes/SP,-21.9527,-51.413956,1,24.00384
1,Alfredo Vasconcelos/MG,-21.145833,-43.776389,11,159.25872
D1,Alfredo Vasconcelos/MG,-21.145833,-43.776389,1,14.47807
1,Alfredo Wagner/SC,-27.6961513,-49.3326734,13,129.53368
1,Algodão de Jandaíra/PB,-6.9040175,-36.0089879,4,155.82392
1,Alhandra/PB,-7.4304246,-34.9106103,397,2026.75107
D1,Alhandra/PB,-7.4304246,-34.9106103,13,66.36716
1,Aliança do Tocantins/TO,-11.3055927,-48.9409096,11,204.08163
1,Aliança/PE,-7.60398,-35.222696,274,713.80191
D1,Aliança/PE,-7.60398,-35.222696,20,52.10233
1,Almadina/BA,-14.70466,-39.6381994,53,969.98536
D1,Almadina/BA,-14.70466,-39.6381994,1,18.30161
1,Almas/TO,-11.5681309,-47.1702803,9,127.56910
D1,Almas/TO,-11.5681309,-47.1702803,1,14.17434
1,Almeirim/PA,-1.5290377,-52.5788111,150,439.76663
D1,Almeirim/PA,-1.5290377,-52.5788111,17,49.84022
1,Almenara/MG,-16.1740678,-40.6904907,258,615.81058
D1,Almenara/MG,-16.1740678,-40.6904907,1,2.38686
1,Almino Afonso/RN,-6.1544208,-37.7649018,15,316.78986
1,Almirante Tamandaré/PR,-25.3133048,-49.2997838,343,289.15135
D1,Almirante Tamandaré/PR,-25.3133048,-49.2997838,5,4.21503
1,Aloândia/GO,-17.7277983,-49.4809338,1,50.12531
1,Alpercata/MG,-18.9803616,-41.9827637,91,1225.75431
1,Alpestre/RS,-27.2512339,-53.0349646,15,239.69319
1,Alpinópolis/MG,-20.863611,-46.387777,10,50.37022
D1,Alpinópolis/MG,-20.863611,-46.387777,3,15.11107
1,Alta Floresta D'Oeste/RO,-11.9296917,-61.9961284,155,675.52844
1,Alta Floresta/MT,-9.8715018,-56.0839881,227,438.37627
D1,Alta Floresta/MT,-9.8715018,-56.0839881,6,11.58704
1,Altair/SP,-20.5238955,-49.0606135,4,96.15385
D1,Altair/SP,-20.5238955,-49.0606135,1,24.03846
1,Altamira do Maranhão/MA,-4.1643006,-45.4674574,176,2165.35433
D1,Altamira do Maranhão/MA,-4.1643006,-45.4674574,5,61.51575
1,Altamira do Paraná/PR,-24.799114,-52.7128633,1,51.49331
1,Altamira/PA,-3.204065,-52.209961,2250,1963.45358
D1,Altamira/PA,-3.204065,-52.209961,64,55.84935
1,Altaneira/CE,-6.9980933,-39.7385742,3,39.54653
1,Alterosa/MG,-21.249166,-46.143055,12,82.95313
1,Altinho/PE,-8.4904095,-36.0607494,263,1144.87202
D1,Altinho/PE,-8.4904095,-36.0607494,4,17.41250
1,Altinópolis/SP,-21.021364,-47.3712,41,253.33663
D1,Altinópolis/SP,-21.021364,-47.3712,2,12.35788
1,Alto Alegre do Maranhão/MA,-4.2055693,-44.4525287,321,1186.55972
D1,Alto Alegre do Maranhão/MA,-4.2055693,-44.4525287,11,40.66092
1,Alto Alegre do Pindaré/MA,-3.6698186,-45.8462153,1186,3715.65525
D1,Alto Alegre do Pindaré/MA,-3.6698186,-45.8462153,3,9.39879
1,Alto Alegre dos Parecis/RO,-12.1314515,-61.856265,60,453.13798
D1,Alto Alegre dos Parecis/RO,-12.1314515,-61.856265,1,7.55230
1,Alto Alegre/RR,2.98858,-61.307167,308,1985.81560
D1,Alto Alegre/RR,2.98858,-61.307167,7,45.13217
1,Alto Alegre/SP,-21.5820592,-50.1661976,10,243.96194
D1,Alto Alegre/SP,-21.5820592,-50.1661976,1,24.39619
1,Alto Araguaia/MT,-17.3156528,-53.2169365,66,346.56585
D1,Alto Araguaia/MT,-17.3156528,-53.2169365,3,15.75299
1,Alto Bela Vista/SC,-27.4320737,-51.905771,6,309.75736
1,Alto Boa Vista/MT,-11.6723985,-51.3744431,38,557.02140
D1,Alto Boa Vista/MT,-11.6723985,-51.3744431,2,29.31692
1,Alto Caparaó/MG,-20.4405661,-41.8683799,7,119.71951
1,Alto Feliz/RS,-29.3785943,-51.3123751,8,264.20079
1,Alto Garças/MT,-16.9469683,-53.529427,95,789.69244
1,Alto Horizonte/GO,-14.1954948,-49.3366993,28,436.54506
1,Alto Jequitibá/MG,-20.423611,-41.966111,24,288.56559
D1,Alto Jequitibá/MG,-20.423611,-41.966111,1,12.02357
1,Alto Longá/PI,-5.2549051,-42.2072388,48,335.57047
D1,Alto Longá/PI,-5.2549051,-42.2072388,1,6.99105
1,Alto Paraguai/MT,-14.513712,-56.4936374,36,317.01303
1,Alto Paraná/PR,-23.131247,-52.318893,19,128.63913
1,Alto Paraíso de Goiás/GO,-14.1304779,-47.5100161,51,668.94019
1,Alto Paraíso/PR,-23.508137,-53.728537,1,36.48304
1,Alto Paraíso/RO,-9.7240103,-63.3188123,93,434.01157
D1,Alto Paraíso/RO,-9.7240103,-63.3188123,4,18.66716
1,Alto Parnaíba/MA,-9.112506,-45.9310154,84,750.67024
D1,Alto Parnaíba/MA,-9.112506,-45.9310154,1,8.93655
1,Alto Piquiri/PR,-24.0239021,-53.4417448,22,223.66816
D1,Alto Piquiri/PR,-24.0239021,-53.4417448,1,10.16673
1,Alto Rio Doce/MG,-21.0239537,-43.4133507,57,518.18182
D1,Alto Rio Doce/MG,-21.0239537,-43.4133507,1,9.09091
1,Alto Rio Novo/ES,-19.0577208,-41.0171518,55,701.88872
D1,Alto Rio Novo/ES,-19.0577208,-41.0171518,5,63.80807
1,Alto Santo/CE,-5.5190371,-38.2719351,133,775.69112
D1,Alto Santo/CE,-5.5190371,-38.2719351,4,23.32906
1,Alto Taquari/MT,-17.8269099,-53.2831736,12,110.62967
D1,Alto Taquari/MT,-17.8269099,-53.2831736,1,9.21914
1,Alto do Rodrigues/RN,-5.290868,-36.7616726,206,1417.85395
D1,Alto do Rodrigues/RN,-5.290868,-36.7616726,9,61.94508
1,Altos/PI,-5.0393915,-42.4611694,567,1399.17086
D1,Altos/PI,-5.0393915,-42.4611694,8,19.74139
1,Altônia/PR,-23.8722004,-53.894037,17,77.07653
1,Alumínio/SP,-23.5203479,-47.2575256,58,311.35924
D1,Alumínio/SP,-23.5203479,-47.2575256,4,21.47305
1,Alvarenga/MG,-19.4175,-41.728334,107,2738.67417
D1,Alvarenga/MG,-19.4175,-41.728334,1,25.59509
1,Alvarães/AM,-3.214786,-64.8143124,1037,6464.68425
D1,Alvarães/AM,-3.214786,-64.8143124,13,81.04233
1,Alvinlândia/SP,-22.4431852,-49.7643596,2,62.07325
1,Alvinópolis/MG,-20.1105199,-43.0601805,12,78.93179
1,Alvorada D'Oeste/RO,-11.346271,-62.284697,29,201.23517
D1,Alvorada D'Oeste/RO,-11.346271,-62.284697,1,6.93914
1,Alvorada de Minas/MG,-18.7318587,-43.3641479,26,721.02052
D1,Alvorada de Minas/MG,-18.7318587,-43.3641479,1,27.73156
1,Alvorada do Gurguéia/PI,-8.4465288,-43.8655915,11,202.98948
1,Alvorada do Norte/GO,-14.483911,-46.4959897,31,357.96767
1,Alvorada do Sul/PR,-22.7807269,-51.2307721,13,113.97510
D1,Alvorada do Sul/PR,-22.7807269,-51.2307721,2,17.53463
1,Alvorada/RS,-29.9981184,-51.0772509,728,346.16390
D1,Alvorada/RS,-29.9981184,-51.0772509,17,8.08350
1,Alvorada/TO,-12.478465,-49.124926,25,297.19448
1,Além Paraíba/MG,-21.8760576,-42.6810473,215,607.99729
D1,Além Paraíba/MG,-21.8760576,-42.6810473,10,28.27894
1,Amajari/RR,3.6523869,-61.4194315,202,1578.61832
D1,Amajari/RR,3.6523869,-61.4194315,3,23.44483
1,Amambai/MS,-23.1082701,-55.2284854,31,78.68819
D1,Amambai/MS,-23.1082701,-55.2284854,2,5.07666
1,Amaporã/PR,-23.094272,-52.786597,22,351.60620
1,Amapá do Maranhão/MA,-1.6762114,-46.0109669,3,43.09107
1,Amapá/AP,2.0529997,-50.7930003,357,3919.20079
D1,Amapá/AP,2.0529997,-50.7930003,4,43.91261
1,Amaraji/PE,-8.373925,-35.4536527,115,503.74524
D1,Amaraji/PE,-8.373925,-35.4536527,18,78.84708
1,Amaralina/GO,-13.9236199,-49.2962411,3,78.69885
1,Amarante do Maranhão/MA,-5.56913,-46.747284,589,1421.50356
D1,Amarante do Maranhão/MA,-5.56913,-46.747284,11,26.54760
1,Amarante/PI,-6.2459374,-42.8476238,22,125.01421
D1,Amarante/PI,-6.2459374,-42.8476238,1,5.68246
1,Amargosa/BA,-13.03793715,-39.60796443875596,84,225.55785
D1,Amargosa/BA,-13.03793715,-39.60796443875596,3,8.05564
1,Amaturá/AM,-3.3640509,-68.1994689,464,4022.19140
D1,Amaturá/AM,-3.3640509,-68.1994689,8,69.34813
1,Americana/SP,-22.7392463,-47.3306032,1043,435.31430
D1,Americana/SP,-22.7392463,-47.3306032,42,17.52943
1,Americano do Brasil/GO,-16.2515808,-49.9806104,56,916.38030
D1,Americano do Brasil/GO,-16.2515808,-49.9806104,1,16.36393
1,Ametista do Sul/RS,-27.3617341,-53.1826575,18,242.94777
1,Amontada/CE,-3.3634586,-39.8284791,692,1592.56191
D1,Amontada/CE,-3.3634586,-39.8284791,15,34.52085
1,Amorinópolis/GO,-16.6211308,-51.0949921,2,63.97953
1,Amparo de São Francisco/SE,-10.1299754,-36.9269099,22,926.70598
1,Amparo do Serra/MG,-20.5070255,-42.8028462,3,63.65372
1,Amparo/PB,-7.56394725,-37.04652873235175,12,536.19303
1,Amparo/SP,-22.70111,-46.76444,213,295.03428
D1,Amparo/SP,-22.70111,-46.76444,8,11.08110
1,Ampére/PR,-25.9168712,-53.4742414,8,41.77109
D1,Ampére/PR,-25.9168712,-53.4742414,1,5.22139
1,Amélia Rodrigues/BA,-12.4015388,-38.7516971,132,525.85451
D1,Amélia Rodrigues/BA,-12.4015388,-38.7516971,1,3.98375
1,América Dourada/BA,-11.4515262,-41.4357517,73,453.58519
1,Américo Brasiliense/SP,-21.7297099,-48.1052092,168,414.77385
D1,Américo Brasiliense/SP,-21.7297099,-48.1052092,2,4.93778
1,Américo de Campos/SP,-20.298476,-49.735904,50,837.66125
1,Anadia/AL,-9.6830208,-36.3052699,287,1635.79367
D1,Anadia/AL,-9.6830208,-36.3052699,2,11.39926
1,Anagé/BA,-14.6134669,-41.1376308,29,131.78823
D1,Anagé/BA,-14.6134669,-41.1376308,1,4.54442
1,Anahy/PR,-24.6450861,-53.1337957,16,571.22456
1,Anajatuba/MA,-3.26441,-44.6179916,255,951.38604
D1,Anajatuba/MA,-3.26441,-44.6179916,6,22.38555
1,Anajás/PA,-0.9878802,-49.9390114,393,1342.35065
D1,Anajás/PA,-0.9878802,-49.9390114,11,37.57216
1,Analândia/SP,-22.128917,-47.661939,11,220.22022
1,Anamã/AM,-3.5797356,-61.4049996,352,2585.57367
1,Ananindeua/PA,-1.374035,-48.4016623,4826,909.53980
D1,Ananindeua/PA,-1.374035,-48.4016623,338,63.70171
1,Ananás/TO,-6.3663053,-48.080238,53,555.03194
D1,Ananás/TO,-6.3663053,-48.080238,1,10.47230
1,Anapu/PA,-3.4668292,-51.2057035,541,1939.76336
D1,Anapu/PA,-3.4668292,-51.2057035,7,25.09860
1,Anapurus/MA,-3.6751298,-43.1046001,661,4201.62726
D1,Anapurus/MA,-3.6751298,-43.1046001,6,38.13883
1,Anastácio/MS,-20.4832458,-55.8048448,7,27.84961
D1,Anastácio/MS,-20.4832458,-55.8048448,1,3.97852
1,Anaurilândia/MS,-22.185169,-52.719056,1,11.06807
1,Anchieta/ES,-20.8057672,-40.6454564,390,1332.74100
D1,Anchieta/ES,-20.8057672,-40.6454564,12,41.00742
1,Anchieta/SC,-26.5350527,-53.3293938,9,159.63107
1,Andaraí/BA,-12.8059674,-41.3322919,8,60.86890
1,Andirá/PR,-23.0494761,-50.2310027,57,284.55893
D1,Andirá/PR,-23.0494761,-50.2310027,1,4.99226
1,Andorinha/BA,-10.3445708,-39.8334411,24,164.43988
D1,Andorinha/BA,-10.3445708,-39.8334411,1,6.85166
1,Andradas/MG,-22.0680484,-46.5688976,34,82.77138
D1,Andradas/MG,-22.0680484,-46.5688976,1,2.43445
1,Andradina/SP,-20.896505,-51.3742765,78,136.46622
D1,Andradina/SP,-20.896505,-51.3742765,5,8.74783
1,Andrelândia/MG,-21.739722,-44.308889,17,139.07068
1,André da Rocha/RS,-28.6309124,-51.5733328,1,75.01875
1,Angatuba/SP,-23.4938938,-48.4110675,96,380.52957
D1,Angatuba/SP,-23.4938938,-48.4110675,2,7.92770
1,Angelim/PE,-8.8902038,-36.2872987,25,224.21525
D1,Angelim/PE,-8.8902038,-36.2872987,1,8.96861
1,Angelina/SC,-27.5805287,-48.9838759,19,395.75089
1,Angical do Piauí/PI,-6.0872666,-42.7366138,39,574.54331
D1,Angical do Piauí/PI,-6.0872666,-42.7366138,2,29.46376
1,Angical/BA,-12.005623,-44.7000236,1,7.15461
1,Angico/TO,-6.3893733,-47.8656722,10,291.29042
1,Angicos/RN,-5.6666344,-36.6009064,81,691.48028
D1,Angicos/RN,-5.6666344,-36.6009064,2,17.07359
1,Angra dos Reis/RJ,-23.0063966,-44.316326,2434,1194.39605
D1,Angra dos Reis/RJ,-23.0063966,-44.316326,91,44.65491
1,Anguera/BA,-12.1509425,-39.2452469,31,276.26771
1,Angélica/MS,-22.1588196,-53.7728504,12,111.31725
1,Anhanguera/GO,-18.3338749,-48.220363,3,261.09661
1,Anhembi/SP,-22.7891096,-48.1316776,3,44.61630
1,Anhumas/SP,-22.2956478,-51.3873401,9,218.71203
1,Anicuns/GO,-16.4606451,-49.9572265,152,695.65217
1,Anita Garibaldi/SC,-27.6855032,-51.1293873,28,392.54171
1,Anitápolis/SC,-27.9041185,-49.1287395,8,247.52475
1,Anori/AM,-3.7435254,-61.6605203,639,3041.40885
D1,Anori/AM,-3.7435254,-61.6605203,11,52.35602
1,Anta Gorda/RS,-28.9718745,-52.0069187,13,217.35496
1,Antas/BA,-10.4114649,-38.3308815,24,124.41035
1,Antonina do Norte/CE,-6.7754187,-39.9879345,12,163.19869
1,Antonina/PR,-25.4298854,-48.7125431,50,263.43519
D1,Antonina/PR,-25.4298854,-48.7125431,1,5.26870
1,Antônio Almeida/PI,-7.2186016,-44.1950248,24,758.53350
1,Antônio Cardoso/BA,-12.4363122,-39.1200307,16,136.95113
1,Antônio Carlos/MG,-21.318334,-43.746666,17,148.53648
1,Antônio Carlos/SC,-27.5168462,-48.7684715,94,1104.19359
D1,Antônio Carlos/SC,-27.5168462,-48.7684715,4,46.98696
1,Antônio Dias/MG,-19.6525,-42.872778,32,343.42134
D1,Antônio Dias/MG,-19.6525,-42.872778,1,10.73192
1,Antônio Gonçalves/BA,-10.5715409,-40.2748824,33,279.70843
1,Antônio João/MS,-22.1892837,-55.9508227,1,11.16570
1,Antônio Martins/RN,-6.2155812,-37.8890129,3,41.98740
D1,Antônio Martins/RN,-6.2155812,-37.8890129,1,13.99580
1,Antônio Olinto/PR,-25.9849006,-50.1974516,9,121.06538
1,Antônio Prado/RS,-28.8567806,-51.2801355,15,114.94253
1,Anápolis/GO,-16.3332828,-48.9525756,1376,355.62631
D1,Anápolis/GO,-16.3332828,-48.9525756,22,5.68589
1,Anísio de Abreu/PI,-9.185643,-43.04941,48,485.82996
1,Aparecida d'Oeste/SP,-20.4498109,-50.8808706,12,285.98665
1,Aparecida de Goiânia/GO,-16.8226769,-49.2452546,4158,719.15445
D1,Aparecida de Goiânia/GO,-16.8226769,-49.2452546,78,13.49063
1,Aparecida do Rio Doce/GO,-18.2980167,-51.1491312,26,1050.92967
D1,Aparecida do Rio Doce/GO,-18.2980167,-51.1491312,1,40.42037
1,Aparecida do Rio Negro/TO,-9.9513491,-47.9773786,4,83.42023
1,Aparecida do Taboado/MS,-20.0840304,-51.1013943,46,178.67547
D1,Aparecida do Taboado/MS,-20.0840304,-51.1013943,1,3.88425
1,Aparecida/PB,-6.7859598, -38.0831353,37,443.27303
D1,Aparecida/PB,-6.7859598, -38.0831353,1,11.98035
1,Aparecida/SP,-22.851552,-45.2340924,44,121.69151
1,Aperibé/RJ,-21.6211928,-42.1028167,98,833.40420
D1,Aperibé/RJ,-21.6211928,-42.1028167,3,25.51237
1,Apiacá/ES,-21.152272,-41.569297,58,766.48606
D1,Apiacá/ES,-21.152272,-41.569297,2,26.43055
1,Apiacás/MT,-9.5678422,-57.394852,4,39.47498
D1,Apiacás/MT,-9.5678422,-57.394852,1,9.86875
1,Apiaí/SP,-24.5076527,-48.8461582,49,201.03389
D1,Apiaí/SP,-24.5076527,-48.8461582,2,8.20546
1,Apicum-Açu/MA,-1.5279295,-45.082278,197,1142.75770
D1,Apicum-Açu/MA,-1.5279295,-45.082278,3,17.40240
1,Apiúna/SC,-27.0374658,-49.3885037,17,158.24258
1,Apodi/RN,-5.6631109,-37.796927,894,2494.07170
D1,Apodi/RN,-5.6631109,-37.796927,14,39.05705
1,Aporá/BA,-11.6599747,-38.0794757,43,242.51311
D1,Aporá/BA,-11.6599747,-38.0794757,2,11.27968
1,Apuarema/BA,-13.8517897,-39.7457126,102,1391.54161
1,Apucarana/PR,-23.5525327,-51.4610764,200,148.15254
D1,Apucarana/PR,-23.5525327,-51.4610764,11,8.14839
1,Apuiarés/CE,-3.9460303,-39.4313298,150,1027.39726
D1,Apuiarés/CE,-3.9460303,-39.4313298,10,68.49315
1,Apuí/AM,-7.1940195,-59.8830192,69,314.02175
1,Aquidabã/SE,-10.2837579,-37.0188687,221,1024.90377
D1,Aquidabã/SE,-10.2837579,-37.0188687,6,27.82544
1,Aquidauana/MS,-20.473969,-55.7821375,12,25.06737
1,Aquiraz/CE,-3.9063117,-38.387504,773,962.98788
D1,Aquiraz/CE,-3.9063117,-38.387504,25,31.14450
1,Arabutã/SC,-27.1587028,-52.1438142,44,1031.16944
1,Aracaju/SE,-10.9162061,-37.0774655,20560,3129.31403
D1,Aracaju/SE,-10.9162061,-37.0774655,410,62.40364
1,Aracati/CE,-4.558259,-37.767894,885,1187.17051
D1,Aracati/CE,-4.558259,-37.767894,40,53.65742
1,Aracatu/BA,-14.4274236,-41.4604105,17,129.42520
1,Araci/BA,-11.3356065,-38.9573261,408,750.28963
D1,Araci/BA,-11.3356065,-38.9573261,3,5.51684
1,Aracoiaba/CE,-4.3702577,-38.8084313,522,1972.11833
D1,Aracoiaba/CE,-4.3702577,-38.8084313,10,37.78004
1,Aracruz/ES,-19.8245218,-40.2735025,1471,1453.27010
D1,Aracruz/ES,-19.8245218,-40.2735025,36,35.56609
1,Aragarças/GO,-15.8957166,-52.2514538,77,382.74182
D1,Aragarças/GO,-15.8957166,-52.2514538,2,9.94135
1,Aragoiânia/GO,-16.9146388,-49.4499148,34,329.84090
D1,Aragoiânia/GO,-16.9146388,-49.4499148,1,9.70120
1,Aragominas/TO,-7.1654101,-48.525488,45,781.52136
1,Araguacema/TO,-8.8067391,-49.5560969,1,14.11233
1,Araguaiana/MT,-15.729144,-51.834112,11,354.83871
1,Araguainha/MT,-16.857016,-53.031778,1,106.95187
1,Araguanã/MA,-2.9508403,-45.6651986,427,2768.05393
D1,Araguanã/MA,-2.9508403,-45.6651986,2,12.96512
1,Araguanã/TO,-6.5799107,-48.6428482,43,750.56729
D1,Araguanã/TO,-6.5799107,-48.6428482,1,17.45505
1,Araguapaz/GO,-15.0937927,-50.626417,4,51.48005
D1,Araguapaz/GO,-15.0937927,-50.626417,1,12.87001
1,Araguari/MG,-18.6511256,-48.1933764,890,758.95179
D1,Araguari/MG,-18.6511256,-48.1933764,13,11.08581
1,Araguatins/TO,-5.6522925,-48.1158973,265,741.03073
D1,Araguatins/TO,-5.6522925,-48.1158973,17,47.53782
1,Araguaçu/TO,-12.928934,-49.823134,116,1361.98192
D1,Araguaçu/TO,-12.928934,-49.823134,1,11.74122
1,Araguaína/TO,-7.193241,-48.2018597,4992,2766.11071
D1,Araguaína/TO,-7.193241,-48.2018597,74,41.00404
1,Araioses/MA,-2.890914,-41.904993,458,986.21878
D1,Araioses/MA,-2.890914,-41.904993,8,17.22653
1,Aral Moreira/MS,-22.951141,-55.6268421,18,148.16034
1,Aramari/BA,-12.0907897,-38.4985065,15,131.61358
1,Arambaré/RS,-30.9132252,-51.4994625,2,55.85032
D1,Arambaré/RS,-30.9132252,-51.4994625,1,27.92516
1,Arame/MA,-4.8858769,-46.0102484,157,480.10764
D1,Arame/MA,-4.8858769,-46.0102484,4,12.23204
1,Aramina/SP,-20.0876144,-47.789201,17,302.49110
D1,Aramina/SP,-20.0876144,-47.789201,1,17.79359
1,Arandu/SP,-23.1345103,-49.0545651,14,220.22967
D1,Arandu/SP,-23.1345103,-49.0545651,2,31.46138
1,Arantina/MG,-21.911667,-44.255833,4,143.11270
D1,Arantina/MG,-21.911667,-44.255833,1,35.77818
1,Arapeí/SP,-22.6738889,-44.4477778,1,40.50223
D1,Arapeí/SP,-22.6738889,-44.4477778,1,40.50223
1,Arapiraca/AL,-9.754866,-36.661471,4010,1730.33524
D1,Arapiraca/AL,-9.754866,-36.661471,60,25.89030
1,Arapoema/TO,-7.6575001,-49.0641484,20,301.06879
D1,Arapoema/TO,-7.6575001,-49.0641484,2,30.10688
1,Arapongas/PR,-23.415296,-51.42592,338,274.73644
D1,Arapongas/PR,-23.415296,-51.42592,12,9.75396
1,Araporã/MG,-18.4318188,-49.188313,70,1019.07119
D1,Araporã/MG,-18.4318188,-49.188313,2,29.11632
1,Arapoti/PR,-24.1457957,-49.8224605,96,341.45474
D1,Arapoti/PR,-24.1457957,-49.8224605,1,3.55682
1,Araputanga/MT,-15.4710868,-58.346796,53,315.06361
D1,Araputanga/MT,-15.4710868,-58.346796,2,11.88919
1,Arapuá/MG,-19.034444,-46.155556,17,599.85886
1,Arapuã/PR,-24.3079525,-51.7901941,11,358.53977
D1,Arapuã/PR,-24.3079525,-51.7901941,1,32.59452
1,Araquari/SC,-26.3703324,-48.7210994,156,409.13740
D1,Araquari/SC,-26.3703324,-48.7210994,1,2.62268
1,Arara/PB,-6.8271895,-35.7605703,130,965.10765
D1,Arara/PB,-6.8271895,-35.7605703,3,22.27171
1,Araranguá/SC,-28.9348832,-49.4858389,171,250.63024
D1,Araranguá/SC,-28.9348832,-49.4858389,3,4.39702
1,Araraquara/SP,-21.7886713,-48.1773096,1273,539.24227
D1,Araraquara/SP,-21.7886713,-48.1773096,15,6.35399
1,Araras/SP,-22.3569477,-47.3838889,638,475.28234
D1,Araras/SP,-22.3569477,-47.3838889,23,17.13400
1,Ararendá/CE,-4.7504395,-40.8303611,21,192.04390
D1,Ararendá/CE,-4.7504395,-40.8303611,2,18.28989
1,Arari/MA,-3.4547602,-44.7772723,163,546.10024
D1,Arari/MA,-3.4547602,-44.7772723,4,13.40123
1,Araricá/RS,-29.6168543,-50.929121,18,315.90032
D1,Araricá/RS,-29.6168543,-50.929121,2,35.10004
1,Araripe/CE,-7.212861,-40.1359222,106,490.74074
D1,Araripe/CE,-7.212861,-40.1359222,1,4.62963
1,Araripina/PE,-7.5768582,-40.5038509,283,335.23656
D1,Araripina/PE,-7.5768582,-40.5038509,7,8.29207
1,Araruama/RJ,-22.8733203,-42.3428897,407,307.40181
D1,Araruama/RJ,-22.8733203,-42.3428897,39,29.45619
1,Araruna/PB,-6.5321155,-35.7397595,149,733.55652
D1,Araruna/PB,-6.5321155,-35.7397595,4,19.69279
1,Araruna/PR,-23.9320308,-52.4976047,46,329.27702
D1,Araruna/PR,-23.9320308,-52.4976047,3,21.47459
1,Arataca/BA,-15.2617424,-39.4122943,8,72.60187
1,Aratiba/RS,-27.3955734,-52.3024325,11,176.42342
1,Aratuba/CE,-4.4195958,-39.0463737,130,1097.32422
D1,Aratuba/CE,-4.4195958,-39.0463737,1,8.44096
1,Aratuípe/BA,-13.077137,-39.0010786,6,67.98867
D1,Aratuípe/BA,-13.077137,-39.0010786,1,11.33144
1,Araucária/PR,-25.5861107,-49.4051209,780,542.25788
D1,Araucária/PR,-25.5861107,-49.4051209,10,6.95202
1,Arauá/SE,-11.2644014,-37.6181058,118,1173.42880
D1,Arauá/SE,-11.2644014,-37.6181058,5,49.72156
1,Araxá/MG,-19.5928536,-46.940241,295,277.70195
D1,Araxá/MG,-19.5928536,-46.940241,6,5.64818
1,Araçagi/PB,-6.8519969,-35.3835602,345,2030.96486
D1,Araçagi/PB,-6.8519969,-35.3835602,2,11.77371
1,Araçariguama/SP,-23.438611,-47.061389,106,473.97603
D1,Araçariguama/SP,-23.438611,-47.061389,2,8.94294
1,Araças/BA,-12.2139176,-38.2026159,14,114.97085
1,Araçatuba/SP,-21.207992,-50.4390225,1516,769.48065
D1,Araçatuba/SP,-21.207992,-50.4390225,44,22.33321
1,Araçaí/MG,-19.200833,-44.2475,1,42.60758
1,Araçoiaba da Serra/SP,-23.5045367,-47.6168158,132,386.57529
D1,Araçoiaba da Serra/SP,-23.5045367,-47.6168158,4,11.71440
1,Araçoiaba/PE,-7.7856903,-35.0898881,68,331.31943
D1,Araçoiaba/PE,-7.7856903,-35.0898881,10,48.72345
1,Araçu/GO,-16.3561579,-49.6815269,8,227.14367
1,Araçuaí/MG,-16.8484451,-42.0661868,13,35.41462
1,Araújos/MG,-19.948055,-45.165556,12,129.40796
1,Arceburgo/MG,-21.364444,-46.939722,10,92.83327
1,Arcos/MG,-20.282223,-45.539444,77,192.05827
D1,Arcos/MG,-20.282223,-45.539444,1,2.49426
1,Arcoverde/PE,-8.415192,-37.057748,410,551.53488
D1,Arcoverde/PE,-8.415192,-37.057748,24,32.28497
1,Areal/RJ,-22.2314922,-43.1056264,99,787.46421
D1,Areal/RJ,-22.2314922,-43.1056264,1,7.95418
1,Arealva/SP,-22.0301906,-48.9111936,9,105.14019
1,Areia Branca/RN,-4.9506652,-37.1263312,598,2153.09282
D1,Areia Branca/RN,-4.9506652,-37.1263312,43,154.82106
1,Areia Branca/SE,-10.7591455,-37.3148072,297,1601.76896
D1,Areia Branca/SE,-10.7591455,-37.3148072,10,53.93161
1,Areia de Baraúnas/PB,-7.1233949,-36.9446216,2,93.98496
1,Areia/PB,-6.9680243,-35.6994783,203,889.60954
D1,Areia/PB,-6.9680243,-35.6994783,1,4.38231
1,Areial/PB,-7.0501306,-35.9245244,34,485.85310
D1,Areial/PB,-7.0501306,-35.9245244,1,14.28980
1,Areias/SP,-22.5800929,-44.6975127,3,77.20021
1,Areiópolis/SP,-22.6758064,-48.6673653,25,224.63833
D1,Areiópolis/SP,-22.6758064,-48.6673653,3,26.95660
1,Arenápolis/MT,-14.4610369,-56.8432806,70,728.63537
D1,Arenápolis/MT,-14.4610369,-56.8432806,1,10.40908
1,Argirita/MG,-21.612761,-42.8371922,1,36.67033
1,Aricanduva/MG,-17.8678,-42.5569,1,19.11680
1,Arinos/MG,-15.917223,-46.106111,33,184.61538
1,Aripuanã/MT,-10.175806,-59.4439663,89,398.13904
D1,Aripuanã/MT,-10.175806,-59.4439663,2,8.94694
1,Ariquemes/RO,-9.9076522,-63.033069,1702,1577.92756
D1,Ariquemes/RO,-9.9076522,-63.033069,27,25.03175
1,Ariranha/SP,-21.18716,-48.790418,57,589.57385
1,Armazém/SC,-28.2624996,-49.0190126,49,564.90662
1,Armação dos Búzios/RJ,-22.7597805,-41.8875267,190,560.96841
D1,Armação dos Búzios/RJ,-22.7597805,-41.8875267,10,29.52465
1,Arneiroz/CE,-6.3235099,-40.1603859,38,484.69388
D1,Arneiroz/CE,-6.3235099,-40.1603859,2,25.51020
1,Aroazes/PI,-6.1108814,-41.7886137,16,274.20737
D1,Aroazes/PI,-6.1108814,-41.7886137,1,17.13796
1,Aroeiras do Itaim/PI,-7.2797031,-41.5629681,2,78.40063
1,Aroeiras/PB,-7.5462904,-35.7080002,109,569.10145
1,Arraial do Cabo/RJ,-22.9662839,-42.024427,86,283.37013
D1,Arraial do Cabo/RJ,-22.9662839,-42.024427,5,16.47501
1,Arraias/TO,-12.9287788,-46.9437231,8,75.70739
1,Arroio Grande/RS,-32.2384246,-53.0866661,7,38.26600
1,Arroio Trinta/SC,-26.9301976,-51.334928,31,873.23944
1,Arroio do Meio/RS,-29.4020392,-51.9444993,162,778.65898
1,Arroio do Sal/RS,-29.549852,-49.8874395,13,129.16046
D1,Arroio do Sal/RS,-29.549852,-49.8874395,2,19.87084
1,Arroio do Tigre/RS,-29.334158,-53.0888935,2,14.95551
1,Arroio dos Ratos/RS,-30.0894524,-51.7265541,28,197.86588
D1,Arroio dos Ratos/RS,-30.0894524,-51.7265541,2,14.13328
1,Artur Nogueira/SP,-22.572737,-47.172679,120,220.55580
D1,Artur Nogueira/SP,-22.572737,-47.172679,2,3.67593
1,Aruanã/GO,-14.9162439,-51.0715692,9,91.13924
1,Arujá/SP,-23.396266,-46.3175449,699,778.18846
D1,Arujá/SP,-23.396266,-46.3175449,45,50.09797
1,Arvoredo/SC,-27.0752908,-52.4571847,27,1205.35714
D1,Arvoredo/SC,-27.0752908,-52.4571847,1,44.64286
1,Arvorezinha/RS,-28.87369,-52.17808,10,95.93246
D1,Arvorezinha/RS,-28.87369,-52.17808,1,9.59325
1,Arês/RN,-6.1969216,-35.1642968,135,943.66000
1,Ascurra/SC,-26.9569975,-49.3767752,30,378.11949
1,Aspásia/SP,-20.160028,-50.728046,20,1097.69484
1,Assaré/CE,-6.8746791,-39.8741385,133,567.96345
D1,Assaré/CE,-6.8746791,-39.8741385,3,12.81121
1,Assaí/PR,-23.3736041,-50.8454929,30,198.42582
D1,Assaí/PR,-23.3736041,-50.8454929,7,46.29936
1,Assis Brasil/AC,-10.9409203,-69.5672108,224,3020.08898
D1,Assis Brasil/AC,-10.9409203,-69.5672108,5,67.41270
1,Assis Chateaubriand/PR,-24.4054826,-53.5120468,133,398.65715
D1,Assis Chateaubriand/PR,-24.4054826,-53.5120468,2,5.99484
1,Assis/SP,-22.6620892,-50.420623,306,293.14276
D1,Assis/SP,-22.6620892,-50.420623,14,13.41176
1,Assunção do Piauí/PI,-5.8610212,-41.0485091,55,700.99414
D1,Assunção do Piauí/PI,-5.8610212,-41.0485091,1,12.74535
1,Assunção/PB,-7.073396,-36.7274003,27,676.69173
1,Astolfo Dutra/MG,-21.3132636,-42.8624102,33,232.73856
D1,Astolfo Dutra/MG,-21.3132636,-42.8624102,2,14.10537
1,Astorga/PR,-23.2350184,-51.6647074,54,206.80939
D1,Astorga/PR,-23.2350184,-51.6647074,2,7.65961
1,Atalaia do Norte/AM,-4.3658547,-70.1908742,634,3182.57116
D1,Atalaia do Norte/AM,-4.3658547,-70.1908742,4,20.07931
1,Atalaia/AL,-9.5029595,-36.0219316,450,953.69291
D1,Atalaia/AL,-9.5029595,-36.0219316,11,23.31249
1,Atalaia/PR,-23.1513833,-52.0529697,4,102.77492
1,Atalanta/SC,-27.421916,-49.778863,6,186.91589
1,Ataléia/MG,-18.04432,-41.1110524,43,334.16226
D1,Ataléia/MG,-18.04432,-41.1110524,2,15.54243
1,Atibaia/SP,-23.1177393,-46.5547861,343,240.26170
D1,Atibaia/SP,-23.1177393,-46.5547861,13,9.10613
1,Atilio Vivacqua/ES,-20.9139369,-41.1947519,139,1164.54424
D1,Atilio Vivacqua/ES,-20.9139369,-41.1947519,2,16.75603
1,Augustinópolis/TO,-5.4662267,-47.8897519,317,1721.70324
D1,Augustinópolis/TO,-5.4662267,-47.8897519,4,21.72496
1,Augusto Corrêa/PA,-1.0229335,-46.6404029,841,1828.34036
D1,Augusto Corrêa/PA,-1.0229335,-46.6404029,18,39.13214
1,Augusto de Lima/MG,-18.1092963,-44.2651945,14,287.53337
1,Aurelino Leal/BA,-14.3167137,-39.3256107,172,1491.63125
D1,Aurelino Leal/BA,-14.3167137,-39.3256107,1,8.67227
1,Auriflama/SP,-20.6840418,-50.5554616,74,487.19468
D1,Auriflama/SP,-20.6840418,-50.5554616,2,13.16742
1,Aurilândia/GO,-16.6772599,-50.4641231,15,480.76923
1,Aurora do Pará/PA,-2.1323199,-47.558436,381,1215.77637
D1,Aurora do Pará/PA,-2.1323199,-47.558436,6,19.14608
1,Aurora do Tocantins/TO,-12.71045,-46.407604,10,266.16982
1,Aurora/CE,-6.9426019,-38.9693765,88,356.94005
D1,Aurora/CE,-6.9426019,-38.9693765,6,24.33682
1,Aurora/SC,-27.3166417,-49.6368502,17,299.34848
1,Autazes/AM,-3.5833283,-59.1301518,1073,2711.99292
D1,Autazes/AM,-3.5833283,-59.1301518,32,80.87957
1,Avanhandava/SP,-21.4603331,-49.9465156,11,80.59198
1,Avaré/SP,-23.1045215,-48.9259103,161,177.59638
D1,Avaré/SP,-23.1045215,-48.9259103,10,11.03083
1,Avaí/SP,-22.1564662,-49.3316395,16,296.13178
1,Aveiro/PA,-3.6049239,-55.3310742,196,1195.99707
D1,Aveiro/PA,-3.6049239,-55.3310742,4,24.40810
1,Avelino Lopes/PI,-10.1346855,-43.9489525,6,53.14908
D1,Avelino Lopes/PI,-10.1346855,-43.9489525,1,8.85818
1,Avelinópolis/GO,-16.4672409,-49.7578661,13,537.85685
1,Axixá do Tocantins/TO,-5.612747,-47.77007,108,1107.01107
D1,Axixá do Tocantins/TO,-5.612747,-47.77007,3,30.75031
1,Axixá/MA,-2.8379465,-44.0561053,90,741.96208
D1,Axixá/MA,-2.8379465,-44.0561053,2,16.48805
1,Açailândia/MA,-4.9514278,-47.4844564,2691,2393.16999
D1,Açailândia/MA,-4.9514278,-47.4844564,62,55.13807
1,Açu/RN,-5.5836157,-36.9139541,585,1008.32515
D1,Açu/RN,-5.5836157,-36.9139541,27,46.53808
1,Açucena/MG,-19.073056,-42.546666,26,274.55121
D1,Açucena/MG,-19.073056,-42.546666,1,10.55966
1,Babaçulândia/TO,-7.2034355,-47.761613,37,346.96174
1,Bacabal/MA,-4.2318132,-44.781167,2517,2398.30775
D1,Bacabal/MA,-4.2318132,-44.781167,32,30.49100
1,Bacabeira/MA,-2.9775747,-44.3155943,128,750.51305
D1,Bacabeira/MA,-2.9775747,-44.3155943,1,5.86338
1,Bacuri/MA,-1.728894,-45.1417148,371,1996.55581
D1,Bacuri/MA,-1.728894,-45.1417148,2,10.76310
1,Bacurituba/MA,-2.7082587,-44.7381309,19,336.64068
1,Bady Bassitt/SP,-20.9178969,-49.4517911,172,982.74483
D1,Bady Bassitt/SP,-20.9178969,-49.4517911,8,45.70906
1,Baependi/MG,-21.959162,-44.8899249,5,26.11239
1,Bagre/PA,-1.8994498,-50.2103844,204,665.08004
D1,Bagre/PA,-1.8994498,-50.2103844,8,26.08157
1,Bagé/RS,-31.3314264,-54.1062808,161,132.90079
1,Baianópolis/BA,-12.3067564,-44.5383591,3,21.61851
1,Baixa Grande do Ribeiro/PI,-7.862861,-45.2113289,114,983.94614
D1,Baixa Grande do Ribeiro/PI,-7.862861,-45.2113289,3,25.89332
1,Baixa Grande/BA,-11.9630941,-40.1657537,2,9.77135
1,Baixio/CE,-6.7303544,-38.7170095,17,270.35623
1,Baixo Guandu/ES,-19.5138322,-41.0182089,283,912.96213
D1,Baixo Guandu/ES,-19.5138322,-41.0182089,9,29.03413
1,Baião/PA,-2.7903479,-49.6702845,240,505.83822
D1,Baião/PA,-2.7903479,-49.6702845,13,27.39957
1,Baldim/MG,-19.2913568,-43.9558262,8,102.22336
1,Balneário Arroio do Silva/SC,-28.9815269,-49.4189932,71,543.18721
D1,Balneário Arroio do Silva/SC,-28.9815269,-49.4189932,1,7.65052
1,Balneário Barra do Sul/SC,-26.459842,-48.6061471,63,583.60352
1,Balneário Camboriú/SC,-26.9924395,-48.6339782,2712,1905.89972
D1,Balneário Camboriú/SC,-26.9924395,-48.6339782,27,18.97467
1,Balneário Gaivota/SC,-29.1553098,-49.5808712,18,163.94936
D1,Balneário Gaivota/SC,-29.1553098,-49.5808712,3,27.32489
1,Balneário Pinhal/RS,-30.2482978,-50.234585,11,78.19164
1,Balneário Piçarras/SC,-26.7638889,-48.6716667,157,678.27364
D1,Balneário Piçarras/SC,-26.7638889,-48.6716667,1,4.32021
1,Balneário Rincão/SC,-28.8235718,-49.2241642,25,195.92476
D1,Balneário Rincão/SC,-28.8235718,-49.2241642,2,15.67398
1,Balsa Nova/PR,-25.5842234,-49.6312741,109,842.28421
D1,Balsa Nova/PR,-25.5842234,-49.6312741,2,15.45476
1,Balsas/MA,-7.53214,-46.037163,1506,1587.15103
D1,Balsas/MA,-7.53214,-46.037163,10,10.53885
1,Bambuí/MG,-20.0131996,-45.9777034,8,33.57254
1,Banabuiú/CE,-5.3046404,-38.919766,297,1632.13717
D1,Banabuiú/CE,-5.3046404,-38.919766,1,5.49541
1,Bananal/SP,-22.6828195,-44.3221095,15,137.04888
1,Bananeiras/PB,-6.7537682,-35.6338343,97,455.01454
D1,Bananeiras/PB,-6.7537682,-35.6338343,1,4.69087
1,Bandeira do Sul/MG,-21.728056,-46.385555,1,17.40341
1,Bandeira/MG,-15.884444,-40.559167,193,4025.02607
D1,Bandeira/MG,-15.884444,-40.559167,1,20.85506
1,Bandeirante/SC,-26.7677402,-53.6397596,1,37.34130
1,Bandeirantes do Tocantins/TO,-7.7635698,-48.579148,15,422.17844
1,Bandeirantes/MS,-19.9179623,-54.3646768,11,162.05068
1,Bandeirantes/PR,-23.107788,-50.370407,59,188.09577
D1,Bandeirantes/PR,-23.107788,-50.370407,3,9.56419
1,Bannach/PA,-7.3508505,-50.4064531,66,2008.52100
D1,Bannach/PA,-7.3508505,-50.4064531,3,91.29641
1,Banzaê/BA,-10.5827616,-38.6122305,34,257.01111
1,Baraúna/PB,-6.643394,-36.2531932,120,2452.98446
1,Baraúna/RN,-5.0775002,-37.61752,245,863.46655
D1,Baraúna/RN,-5.0775002,-37.61752,9,31.71918
1,Barbacena/MG,-21.2254524,-43.7735087,413,300.77269
D1,Barbacena/MG,-21.2254524,-43.7735087,6,4.36958
1,Barbalha/CE,-7.3121067,-39.3036427,562,924.63105
D1,Barbalha/CE,-7.3121067,-39.3036427,20,32.90502
1,Barbosa Ferraz/PR,-24.0287182,-52.00811,21,181.53527
D1,Barbosa Ferraz/PR,-24.0287182,-52.00811,1,8.64454
1,Barbosa/SP,-21.265661,-49.951816,9,121.58876
1,Barcarena/PA,-1.5107945,-48.6190679,2305,1848.73276
D1,Barcarena/PA,-1.5107945,-48.6190679,103,82.61149
1,Barcelona/RN,-5.9514918,-35.9260284,21,525.26263
1,Barcelos/AM,-0.9729214,-62.925635,1510,5490.50978
D1,Barcelos/AM,-0.9729214,-62.925635,24,87.26638
1,Bariri/SP,-22.0746355,-48.7394852,111,314.76860
D1,Bariri/SP,-22.0746355,-48.7394852,2,5.67151
1,Barra Bonita/SP,-22.490859,-48.558349,193,534.24127
D1,Barra Bonita/SP,-22.490859,-48.558349,5,13.84045
1,Barra D'Alcântara/PI,-6.5209258,-42.1071089,1,25.31005
1,Barra Funda/RS,-27.9230048,-53.0401045,1,39.38558
1,Barra Longa/MG,-20.2833541,-43.0423516,55,1071.91581
1,Barra Mansa/RJ,-22.5394843,-44.1735129,663,359.52107
D1,Barra Mansa/RJ,-22.5394843,-44.1735129,37,20.06377
1,Barra Velha/SC,-26.6338203,-48.6835001,126,431.98025
1,Barra da Estiva/BA,-13.6269662,-41.3278287,4,19.41936
1,Barra de Guabiraba/PE,-8.4173522,-35.6626669,120,834.20229
D1,Barra de Guabiraba/PE,-8.4173522,-35.6626669,8,55.61349
1,Barra de Santa Rosa/PB,-6.7218007,-36.0564638,30,195.00780
1,Barra de Santana/PB,-7.5230865,-35.9988518,70,837.42074
1,Barra de Santo Antônio/AL,-9.4038098,-35.5117693,100,627.66759
D1,Barra de Santo Antônio/AL,-9.4038098,-35.5117693,7,43.93673
1,Barra de São Francisco/ES,-18.7570902,-40.8916119,242,541.99328
D1,Barra de São Francisco/ES,-18.7570902,-40.8916119,7,15.67749
1,Barra de São Miguel/AL,-9.8261357,-35.8837777,105,1261.71593
D1,Barra de São Miguel/AL,-9.8261357,-35.8837777,5,60.08171
1,Barra de São Miguel/PB,-7.7528088,-36.3170996,12,198.80716
D1,Barra de São Miguel/PB,-7.7528088,-36.3170996,1,16.56726
1,Barra do Bugres/MT,-15.0683712,-57.1853688,86,245.95321
D1,Barra do Bugres/MT,-15.0683712,-57.1853688,3,8.57976
1,Barra do Chapéu/SP,-24.472203,-49.023784,14,244.58421
1,Barra do Choça/BA,-14.8638173,-40.5761637,151,477.80274
D1,Barra do Choça/BA,-14.8638173,-40.5761637,2,6.32851
1,Barra do Corda/MA,-5.496823,-45.248496,1987,2252.52800
D1,Barra do Corda/MA,-5.496823,-45.248496,16,18.13812
1,Barra do Garças/MT,-15.8916033,-52.2615413,385,631.02341
D1,Barra do Garças/MT,-15.8916033,-52.2615413,33,54.08772
1,Barra do Guarita/RS,-27.1888016,-53.7147086,11,338.66995
1,Barra do Jacaré/PR,-23.1151788,-50.1813945,1,35.95829
1,Barra do Mendes/BA,-11.8053298,-42.057037,3,21.63722
1,Barra do Ouro/TO,-7.7113784,-47.6743925,11,239.59922
D1,Barra do Ouro/TO,-7.7113784,-47.6743925,2,43.56349
1,Barra do Piraí/RJ,-22.4703403,-43.8263256,488,486.18168
D1,Barra do Piraí/RJ,-22.4703403,-43.8263256,27,26.89940
1,Barra do Ribeiro/RS,-30.2930206,-51.301437,31,229.78282
D1,Barra do Ribeiro/RS,-30.2930206,-51.301437,2,14.82470
1,Barra do Rio Azul/RS,-27.4101581,-52.4117471,2,118.34320
1,Barra do Rocha/BA,-14.2090974,-39.6004395,11,192.50963
1,Barra do Turvo/SP,-24.756421,-48.5056942,18,235.01763
D1,Barra do Turvo/SP,-24.756421,-48.5056942,1,13.05653
1,Barra dos Coqueiros/SE,-10.9075694,-37.0386249,711,2338.27737
D1,Barra dos Coqueiros/SE,-10.9075694,-37.0386249,11,36.17588
1,Barra/BA,-11.0892702,-43.1420453,36,67.19176
1,Barracão/PR,-26.252395,-53.6349576,20,194.64720
1,Barracão/RS,-27.6728964,-51.4582928,17,322.27488
1,Barras/PI,-4.2446153,-42.2920241,894,1899.46033
D1,Barras/PI,-4.2446153,-42.2920241,20,42.49352
1,Barreira/CE,-4.2883361,-38.641094,286,1275.36232
D1,Barreira/CE,-4.2883361,-38.641094,17,75.80825
1,Barreiras do Piauí/PI,-9.9224524,-45.4763776,2,59.73716
1,Barreiras/BA,-12.1440031,-44.9967406,619,398.22696
D1,Barreiras/BA,-12.1440031,-44.9967406,6,3.86004
1,Barreirinha/AM,-2.798863,-57.067897,702,2190.94285
D1,Barreirinha/AM,-2.798863,-57.067897,8,24.96801
1,Barreirinhas/MA,-2.7541271,-42.8259693,364,582.13920
D1,Barreirinhas/MA,-2.7541271,-42.8259693,18,28.78710
1,Barreiros/PE,-8.8159644,-35.1831905,238,557.91275
D1,Barreiros/PE,-8.8159644,-35.1831905,35,82.04599
1,Barretos/SP,-20.5531437,-48.5697509,1417,1160.54317
D1,Barretos/SP,-20.5531437,-48.5697509,50,40.95071
1,Barrinha/SP,-21.1898849,-48.1550642,154,469.34049
D1,Barrinha/SP,-21.1898849,-48.1550642,6,18.28599
1,Barro Alto/BA,-11.7618025,-41.9094904,5,33.48738
1,Barro Alto/GO,-14.9696025,-48.9190985,41,367.15322
1,Barro Duro/PI,-5.8180139,-42.5106589,69,981.22867
D1,Barro Duro/PI,-5.8180139,-42.5106589,1,14.22071
1,Barro Preto/BA,-14.8068289,-39.4727588,82,1466.64282
D1,Barro Preto/BA,-14.8068289,-39.4727588,2,35.77178
1,Barro/CE,-7.1713587,-38.7742136,40,176.36684
D1,Barro/CE,-7.1713587,-38.7742136,7,30.86420
1,Barrocas/BA,-11.5165,-39.099282894736845,42,262.86143
1,Barrolândia/TO,-9.837246,-48.7264346,38,674.71591
D1,Barrolândia/TO,-9.837246,-48.7264346,1,17.75568
1,Barroquinha/CE,-3.0200371,-41.1339229,631,4201.90451
D1,Barroquinha/CE,-3.0200371,-41.1339229,11,73.25032
1,Barros Cassal/RS,-29.094938,-52.5832366,2,17.85874
D1,Barros Cassal/RS,-29.094938,-52.5832366,1,8.92937
1,Barroso/MG,-21.187222,-43.976111,40,192.21528
1,Barueri/SP,-23.5112184,-46.8764612,2587,943.53386
D1,Barueri/SP,-23.5112184,-46.8764612,241,87.89782
1,Barão de Antonina/SP,-23.6295651,-49.5632104,10,288.26751
1,Barão de Cocais/MG,-19.9452437,-43.4870298,157,483.29998
1,Barão de Cotegipe/RS,-27.6214694,-52.3765316,62,936.13166
D1,Barão de Cotegipe/RS,-27.6214694,-52.3765316,2,30.19780
1,Barão de Grajaú/MA,-6.7542591,-43.0263477,13,69.07545
D1,Barão de Grajaú/MA,-6.7542591,-43.0263477,1,5.31350
1,Barão de Melgaço/MT,-16.195776,-55.9668049,50,583.83933
D1,Barão de Melgaço/MT,-16.195776,-55.9668049,1,11.67679
1,Barão de Monte Alto/MG,-21.244722,-42.2375,15,277.93218
1,Barão do Triunfo/RS,-30.3909877,-51.7375349,1,13.35648
1,Barão/RS,-29.372474,-51.494908,9,145.84346
D1,Barão/RS,-29.372474,-51.494908,1,16.20483
1,Bastos/SP,-21.9222474,-50.7317727,20,95.45173
1,Bataguassu/MS,-21.715899,-52.422058,300,1302.98819
1,Batalha/AL,-9.6733809,-37.1265481,223,1223.12418
D1,Batalha/AL,-9.6733809,-37.1265481,6,32.90917
1,Batalha/PI,-4.022391,-42.0780926,183,681.38660
D1,Batalha/PI,-4.022391,-42.0780926,5,18.61712
1,Batatais/SP,-20.892867,-47.592149,87,139.18218
D1,Batatais/SP,-20.892867,-47.592149,1,1.59980
1,Batayporã/MS,-22.2976466,-53.2685608,46,406.03760
D1,Batayporã/MS,-22.2976466,-53.2685608,3,26.48071
1,Baturité/CE,-4.3290203,-38.8821055,463,1295.10490
D1,Baturité/CE,-4.3290203,-38.8821055,25,69.93007
1,Bauru/SP,-22.3218102,-49.0705863,2032,539.25237
D1,Bauru/SP,-22.3218102,-49.0705863,42,11.14596
1,Bayeux/PB,-7.1301631,-34.936532,1071,1105.49133
D1,Bayeux/PB,-7.1301631,-34.936532,57,58.83567
1,Baía Formosa/RN,-6.3691885,-35.0063741,51,550.10247
D1,Baía Formosa/RN,-6.3691885,-35.0063741,2,21.57265
1,Baía da Traição/PB,-6.691258,-34.9371244,301,3347.04770
D1,Baía da Traição/PB,-6.691258,-34.9371244,3,33.35928
1,Bebedouro/SP,-20.949077,-48.479083,156,201.30071
D1,Bebedouro/SP,-20.949077,-48.479083,7,9.03272
1,Beberibe/CE,-4.1810469,-38.1298101,497,927.70612
D1,Beberibe/CE,-4.1810469,-38.1298101,26,48.53191
1,Bela Cruz/CE,-3.0529129,-40.167582,1014,3111.28839
D1,Bela Cruz/CE,-3.0529129,-40.167582,14,42.95664
1,Bela Vista de Goiás/GO,-16.9692949,-48.9513071,138,460.38365
D1,Bela Vista de Goiás/GO,-16.9692949,-48.9513071,3,10.00834
1,Bela Vista de Minas/MG,-19.8289721,-43.0973688,11,107.26475
D1,Bela Vista de Minas/MG,-19.8289721,-43.0973688,1,9.75134
1,Bela Vista do Maranhão/MA,-3.7416367,-45.2514192,111,990.27567
D1,Bela Vista do Maranhão/MA,-3.7416367,-45.2514192,2,17.84280
1,Bela Vista do Paraíso/PR,-22.9948493,-51.1907996,29,188.34838
D1,Bela Vista do Paraíso/PR,-22.9948493,-51.1907996,3,19.48432
1,Bela Vista do Piauí/PI,-7.9716353,-41.8715061,1,24.90660
1,Bela Vista do Toldo/SC,-26.274625,-50.466354,2,31.56068
1,Bela Vista/MS,-22.107327,-56.5317344,4,16.24102
1,Belford Roxo/RJ,-22.7667284,-43.4033603,1581,309.45027
D1,Belford Roxo/RJ,-22.7667284,-43.4033603,188,36.79738
1,Belmiro Braga/MG,-21.9486291,-43.413564,8,233.30417
D1,Belmiro Braga/MG,-21.9486291,-43.413564,2,58.32604
1,Belmonte/BA,-15.8630837,-38.8792845,127,544.41015
D1,Belmonte/BA,-15.8630837,-38.8792845,1,4.28669
1,Belmonte/SC,-26.8448262,-53.578916,1,36.95492
1,Belo Horizonte/MG,-19.9227318,-43.9450948,10618,422.67930
D1,Belo Horizonte/MG,-19.9227318,-43.9450948,249,9.91214
1,Belo Jardim/PE,-8.3338293,-36.4176419,445,582.16356
D1,Belo Jardim/PE,-8.3338293,-36.4176419,17,22.23996
1,Belo Monte/AL,-9.8269944,-37.2787165,18,268.49642
D1,Belo Monte/AL,-9.8269944,-37.2787165,1,14.91647
1,Belo Oriente/MG,-19.2232523,-42.4807033,156,584.26966
D1,Belo Oriente/MG,-19.2232523,-42.4807033,6,22.47191
1,Belo Vale/MG,-20.407778,-44.024167,28,362.92936
D1,Belo Vale/MG,-20.407778,-44.024167,1,12.96176
1,Belterra/PA,-2.636091,-54.937392,86,484.99887
D1,Belterra/PA,-2.636091,-54.937392,7,39.47665
1,Belágua/MA,-3.1604031,-43.5085052,158,2115.41036
D1,Belágua/MA,-3.1604031,-43.5085052,1,13.38867
1,Belém de Maria/PE,-8.6242497,-35.8388934,37,306.46898
1,Belém do Brejo do Cruz/PB,-6.1880727,-37.5332267,13,177.06347
1,Belém do Piauí/PI,-7.3767305,-40.9712156,12,336.51150
D1,Belém do Piauí/PI,-7.3767305,-40.9712156,1,28.04262
1,Belém do São Francisco/PE,-8.7517707,-38.9625715,11,53.06575
1,Belém/AL,-9.5715351,-36.492841,34,782.68877
D1,Belém/AL,-9.5715351,-36.492841,1,23.02026
1,Belém/PA,-1.45056,-48.4682453,21928,1468.97159
D1,Belém/PA,-1.45056,-48.4682453,1990,133.31145
1,Belém/PB,-6.6967586,-35.5369626,490,2772.12039
D1,Belém/PB,-6.6967586,-35.5369626,5,28.28694
1,Beneditinos/PI,-5.4565671,-42.3605061,42,401.26111
D1,Beneditinos/PI,-5.4565671,-42.3605061,3,28.66151
1,Benedito Leite/MA,-7.2173453,-44.5523331,28,497.15909
1,Benedito Novo/SC,-26.7840657,-49.3629511,33,283.21318
1,Benevides/PA,-1.3555577,-48.252235,1346,2145.46440
D1,Benevides/PA,-1.3555577,-48.252235,51,81.29174
1,Benjamin Constant do Sul/RS,-27.5105555,-52.6007689,26,1303.91174
1,Benjamin Constant/AM,-4.3782748,-70.0290603,1477,3436.16229
D1,Benjamin Constant/AM,-4.3782748,-70.0290603,27,62.81407
1,Bento Fernandes/RN,-5.6926846,-35.8207423,16,291.06786
D1,Bento Fernandes/RN,-5.6926846,-35.8207423,1,18.19174
1,Bento Gonçalves/RS,-29.1654014,-51.5197627,1634,1356.53444
D1,Bento Gonçalves/RS,-29.1654014,-51.5197627,43,35.69827
1,Bento de Abreu/SP,-21.2707225,-50.8120444,9,302.01342
1,Bequimão/MA,-2.4495376,-44.7884889,179,841.16541
D1,Bequimão/MA,-2.4495376,-44.7884889,9,42.29323
1,Berilo/MG,-16.9515764,-42.4643732,5,41.90412
1,Bernardino Batista/PB,-6.4532173,-38.5495418,3,85.68980
1,Bernardino de Campos/SP,-23.0140216,-49.4760724,34,304.98744
1,Bernardo Sayão/TO,-7.8794244,-48.8968905,8,179.41242
1,Bernardo do Mearim/MA,-4.6315929,-44.7617508,48,794.30746
D1,Bernardo do Mearim/MA,-4.6315929,-44.7617508,2,33.09614
1,Bertioga/SP,-23.848568,-46.139586,755,1193.69476
D1,Bertioga/SP,-23.848568,-46.139586,19,30.04000
1,Bertolínia/PI,-7.6372159,-43.9540611,26,472.64134
1,Beruri/AM,-3.9007135,-61.3717319,479,2434.06677
D1,Beruri/AM,-3.9007135,-61.3717319,7,35.57091
1,Betim/MG,-19.968056,-44.198333,1515,344.83543
D1,Betim/MG,-19.968056,-44.198333,45,10.24264
1,Betânia do Piauí/PI,-8.1460635,-40.7961387,4,64.46414
1,Betânia/PE,-8.2742779,-38.0351767,21,165.10732
D1,Betânia/PE,-8.2742779,-38.0351767,1,7.86225
1,Bezerros/PE,-8.2372132,-35.7558262,339,557.58413
D1,Bezerros/PE,-8.2372132,-35.7558262,22,36.18540
1,Bias Fortes/MG,-21.605833,-43.756944,5,147.97277
1,Bicas/MG,-21.7213723,-43.0604327,26,179.38457
1,Biguaçu/SC,-27.4961277,-48.6542432,439,641.05372
D1,Biguaçu/SC,-27.4961277,-48.6542432,8,11.68207
1,Bilac/SP,-21.403962,-50.47464,13,161.81230
1,Biquinhas/MG,-18.783611,-45.502222,2,79.52286
1,Birigui/SP,-21.2908491,-50.34144,447,361.53933
D1,Birigui/SP,-21.2908491,-50.34144,17,13.74982
1,Biritiba-Mirim/SP,-23.5697765,-46.0407456,92,282.22590
D1,Biritiba-Mirim/SP,-23.5697765,-46.0407456,8,24.54138
1,Biritinga/BA,-11.6227908,-38.8066738,6,37.54928
1,Bituruna/PR,-26.161281,-51.5533319,29,176.94795
1,Blumenau/SC,-26.9195567,-49.0658025,2902,812.43229
D1,Blumenau/SC,-26.9195567,-49.0658025,15,4.19934
1,Boa Esperança do Sul/SP,-21.9930206,-48.3917372,27,180.92877
D1,Boa Esperança do Sul/SP,-21.9930206,-48.3917372,1,6.70107
1,Boa Esperança/ES,-18.5395472,-40.2904088,188,1250.24938
D1,Boa Esperança/ES,-18.5395472,-40.2904088,7,46.55184
1,Boa Esperança/MG,-21.0901253,-45.5660195,58,144.54108
D1,Boa Esperança/MG,-21.0901253,-45.5660195,5,12.46044
1,Boa Esperança/PR,-24.2411024,-52.7860277,16,389.76857
1,Boa Hora/PI,-4.4094627,-42.1255341,40,589.88350
1,Boa Nova/BA,-14.365907,-40.2063056,3,23.74733
1,Boa Ventura/PB,-7.4202462,-38.2156782,2,37.27171
1,Boa Viagem/CE,-5.1261877,-39.7300055,175,321.27777
D1,Boa Viagem/CE,-5.1261877,-39.7300055,12,22.03048
1,Boa Vista da Aparecida/PR,-25.4357216,-53.4067721,38,500.59281
D1,Boa Vista da Aparecida/PR,-25.4357216,-53.4067721,1,13.17349
1,Boa Vista das Missões/RS,-27.6677983,-53.3127622,3,142.99333
1,Boa Vista do Gurupi/MA,-1.7981168,-46.3071882,12,129.21288
D1,Boa Vista do Gurupi/MA,-1.7981168,-46.3071882,2,21.53548
1,Boa Vista do Ramos/AM,-2.9716927,-57.5869819,255,1327.64096
D1,Boa Vista do Ramos/AM,-2.9716927,-57.5869819,2,10.41287
1,Boa Vista do Sul/RS,-29.3510488,-51.6779679,13,467.12181
D1,Boa Vista do Sul/RS,-29.3510488,-51.6779679,1,35.93245
1,Boa Vista do Tupim/BA,-12.6605988,-40.6083594,8,43.06632
1,Boa Vista/PB,-7.2620711,-36.2415161,61,865.12551
D1,Boa Vista/PB,-7.2620711,-36.2415161,1,14.18239
1,Boa Vista/RR,2.8208478,-60.6719582,16568,4150.16545
D1,Boa Vista/RR,2.8208478,-60.6719582,318,79.65672
1,Boca da Mata/AL,-9.6452054,-36.2116658,641,2349.62062
D1,Boca da Mata/AL,-9.6452054,-36.2116658,11,40.32110
1,Boca do Acre/AM,-8.7553487,-67.3930873,709,2066.57339
D1,Boca do Acre/AM,-8.7553487,-67.3930873,10,29.14772
1,Bocaina de Minas/MG,-22.167778,-44.394722,5,98.23183
1,Bocaina do Sul/SC,-27.745494,-49.942279,1,28.78526
1,Bocaina/PI,-6.9445939,-41.3224599,42,933.33333
1,Bocaina/SP,-22.1421831,-48.522276,62,502.87939
D1,Bocaina/SP,-22.1421831,-48.522276,2,16.22192
1,Bocaiúva do Sul/PR,-25.206591,-49.114131,38,293.57231
D1,Bocaiúva do Sul/PR,-25.206591,-49.114131,1,7.72559
1,Bocaiúva/MG,-17.1160208,-43.8122678,75,150.06303
D1,Bocaiúva/MG,-17.1160208,-43.8122678,2,4.00168
1,Bodocó/PE,-7.777592,-39.933797,68,178.26247
D1,Bodocó/PE,-7.777592,-39.933797,3,7.86452
1,Bodoquena/MS,-20.5508775,-56.6769653,3,38.09524
1,Bodó/RN,-5.9866104,-36.4134824,3,134.95277
1,Bofete/SP,-23.1019554,-48.2610535,55,468.88321
D1,Bofete/SP,-23.1019554,-48.2610535,3,25.57545
1,Boituva/SP,-23.2838893,-47.6738231,331,542.64964
D1,Boituva/SP,-23.2838893,-47.6738231,9,14.75482
1,Bom Conselho/PE,-9.169191,-36.685683,246,506.65239
D1,Bom Conselho/PE,-9.169191,-36.685683,11,22.65519
1,Bom Despacho/MG,-19.7375242,-45.2517288,100,197.60893
D1,Bom Despacho/MG,-19.7375242,-45.2517288,2,3.95218
1,Bom Jardim da Serra/SC,-28.3380324,-49.625588,1,21.08370
1,Bom Jardim de Goiás/GO,-16.2062659,-52.172793,20,226.21875
1,Bom Jardim de Minas/MG,-21.9476466,-44.1906033,2,30.89280
1,Bom Jardim/MA,-3.54129,-45.606004,582,1398.03027
D1,Bom Jardim/MA,-3.54129,-45.606004,11,26.42325
1,Bom Jardim/PE,-7.7961572,-35.5871696,197,502.75623
D1,Bom Jardim/PE,-7.7961572,-35.5871696,14,35.72887
1,Bom Jardim/RJ,-22.1515328,-42.4186683,62,225.89813
D1,Bom Jardim/RJ,-22.1515328,-42.4186683,2,7.28704
1,Bom Jesus da Lapa/BA,-13.250571,-43.410754,77,111.35535
1,Bom Jesus da Serra/BA,-14.3724084,-40.5047119,38,384.61538
1,Bom Jesus das Selvas/MA,-4.4878075,-46.8526639,857,2518.51416
D1,Bom Jesus das Selvas/MA,-4.4878075,-46.8526639,4,11.75503
1,Bom Jesus de Goiás/GO,-18.2174587,-49.739721,57,226.04695
D1,Bom Jesus de Goiás/GO,-18.2174587,-49.739721,1,3.96574
1,Bom Jesus do Amparo/MG,-19.7045132,-43.4752911,6,98.63554
1,Bom Jesus do Araguaia/MT,-12.1725897,-51.5074425,33,501.51976
1,Bom Jesus do Galho/MG,-19.8283191,-42.3162256,8,53.56545
D1,Bom Jesus do Galho/MG,-19.8283191,-42.3162256,3,20.08704
1,Bom Jesus do Itabapoana/RJ,-21.1341025,-41.680095,176,474.44468
D1,Bom Jesus do Itabapoana/RJ,-21.1341025,-41.680095,3,8.08713
1,Bom Jesus do Norte/ES,-21.1254776,-41.6711646,126,1268.11594
D1,Bom Jesus do Norte/ES,-21.1254776,-41.6711646,2,20.12882
1,Bom Jesus do Sul/PR,-26.1922507,-53.6002033,4,112.96244
D1,Bom Jesus do Sul/PR,-26.1922507,-53.6002033,1,28.24061
1,Bom Jesus do Tocantins/PA,-5.0471796,-48.5978362,125,736.11684
1,Bom Jesus do Tocantins/TO,-8.96306,-48.165043,11,224.76502
1,Bom Jesus dos Perdões/SP,-23.1353864,-46.4648052,51,200.40868
1,Bom Jesus/PB,-6.8156725,-38.6551841,6,234.28348
1,Bom Jesus/PI,-9.0711644,-44.3583926,400,1588.62544
D1,Bom Jesus/PI,-9.0711644,-44.3583926,5,19.85782
1,Bom Jesus/RN,-5.9887544,-35.5821149,80,783.54554
D1,Bom Jesus/RN,-5.9887544,-35.5821149,1,9.79432
1,Bom Jesus/RS,-28.6692723,-50.4346894,58,511.05824
1,Bom Jesus/SC,-26.7350604,-52.3916519,36,1196.01329
1,Bom Lugar/MA,-4.3728019,-45.0366054,147,902.17258
1,Bom Princípio do Piauí/PI,-3.1912777,-41.6430185,17,301.95382
D1,Bom Princípio do Piauí/PI,-3.1912777,-41.6430185,1,17.76199
1,Bom Princípio/RS,-29.489788,-51.3566782,101,718.60548
1,Bom Progresso/RS,-27.5490948,-53.8655601,6,308.95984
1,Bom Repouso/MG,-22.4657069,-46.1485376,10,94.81369
1,Bom Retiro do Sul/RS,-29.6000007,-51.9359243,83,673.26411
D1,Bom Retiro do Sul/RS,-29.6000007,-51.9359243,1,8.11162
1,Bom Retiro/SC,-27.798993,-49.486994,2,20.06823
1,Bom Sucesso/MG,-21.0323516,-44.7598082,11,62.48935
1,Bom Sucesso/PB,-6.4458948,-37.9297662,7,140.70352
1,Bom Sucesso/PR,-23.7088019,-51.7651297,3,42.66212
D1,Bom Sucesso/PR,-23.7088019,-51.7651297,1,14.22071
1,Bombinhas/SC,-27.1519159,-48.4875691,405,2048.66205
1,Bonfim do Piauí/PI,-9.1648678,-42.8734415,11,194.00353
1,Bonfim/MG,-20.3266626, -44.2386157,13,189.28363
D1,Bonfim/MG,-20.3266626, -44.2386157,1,14.56028
1,Bonfim/RR,3.3613818,-59.8427241,234,1885.72810
D1,Bonfim/RR,3.3613818,-59.8427241,5,40.29334
1,Bonfinópolis de Minas/MG,-16.5660011,-45.98645,8,145.63991
D1,Bonfinópolis de Minas/MG,-16.5660011,-45.98645,1,18.20499
1,Bonfinópolis/GO,-16.6172709,-48.9615701,59,607.87142
D1,Bonfinópolis/GO,-16.6172709,-48.9615701,2,20.60581
1,Boninal/BA,-12.7095183,-41.8299984,5,34.79955
1,Bonito de Minas/MG,-15.3191266,-44.7544,3,26.71416
1,Bonito de Santa Fé/PB,-7.3143332,-38.5146677,6,50.34824
D1,Bonito de Santa Fé/PB,-7.3143332,-38.5146677,1,8.39137
1,Bonito/MS,-21.1264766,-56.4902208,96,436.84019
1,Bonito/PA,-1.3605722,-47.3049907,198,1215.76814
D1,Bonito/PA,-1.3605722,-47.3049907,6,36.84146
1,Bonito/PE,-8.4721161,-35.7314591,137,359.25945
D1,Bonito/PE,-8.4721161,-35.7314591,16,41.95731
1,Boqueirão do Leão/RS,-29.30332,-52.4296817,3,38.89033
1,Boqueirão do Piauí/PI,-4.4850148,-42.1095161,49,764.78851
D1,Boqueirão do Piauí/PI,-4.4850148,-42.1095161,1,15.60793
1,Boqueirão/PB,-7.487004,-36.130887,171,960.45832
D1,Boqueirão/PB,-7.487004,-36.130887,2,11.23343
1,Boquim/SE,-11.1450175,-37.6204228,150,559.36754
D1,Boquim/SE,-11.1450175,-37.6204228,8,29.83294
1,Boquira/BA,-12.8184859,-42.7270883,15,69.74149
1,Boracéia/SP,-22.195355,-48.7801925,18,373.21169
1,Borba/AM,-4.3934778,-59.5947721,562,1365.37013
D1,Borba/AM,-4.3934778,-59.5947721,19,46.16020
1,Borborema/PB,-6.8066718,-35.5990191,7,133.00399
1,Borborema/SP,-21.6212706,-49.074135,37,230.58706
1,Borda da Mata/MG,-22.274167,-46.165278,17,87.57470
1,Borebi/SP,-22.5700178,-48.9714871,12,452.31813
D1,Borebi/SP,-22.5700178,-48.9714871,1,37.69318
1,Borá/SP,-22.2701088,-50.544407,1,119.47431
1,Bossoroca/RS,-28.7278885,-54.9120278,3,47.77831
1,Botelhos/MG,-21.65,-46.394722,20,133.59161
D1,Botelhos/MG,-21.65,-46.394722,1,6.67958
1,Botucatu/SP,-22.8879628,-48.4410712,841,574.07319
D1,Botucatu/SP,-22.8879628,-48.4410712,18,12.28694
1,Botuporã/BA,-13.3744752,-42.5198469,2,19.58672
1,Botuverá/SC,-27.200749,-49.068892,22,419.36714
1,Braga/RS,-27.617348,-53.740514,3,89.47211
1,Braganey/PR,-24.8179919,-53.118506,32,589.64437
D1,Braganey/PR,-24.8179919,-53.118506,1,18.42639
1,Bragança Paulista/SP,-22.9520235,-46.5418586,776,460.07541
D1,Bragança Paulista/SP,-22.9520235,-46.5418586,20,11.85761
1,Bragança/PA,-1.0573967,-46.7635406,1884,1475.49457
D1,Bragança/PA,-1.0573967,-46.7635406,84,65.78638
1,Branquinha/AL,-9.2478057,-36.0152009,88,838.57442
D1,Branquinha/AL,-9.2478057,-36.0152009,3,28.58776
1,Brasil Novo/PA,-3.3055853,-52.539198,329,2180.82991
D1,Brasil Novo/PA,-3.3055853,-52.539198,6,39.77197
1,Brasileira/PI,-4.131182,-41.7824969,37,444.23100
1,Brasilândia de Minas/MG,-17.0096469,-46.0087183,28,169.30705
1,Brasilândia do Sul/PR,-24.1975793,-53.527551,6,226.32969
1,Brasilândia do Tocantins/TO,-8.3886619,-48.4842729,2,90.86779
1,Brasilândia/MS,-21.255575,-52.0365617,44,370.61995
D1,Brasilândia/MS,-21.255575,-52.0365617,2,16.84636
1,Brasiléia/AC,-11.0010413,-68.7487894,507,1929.37058
D1,Brasiléia/AC,-11.0010413,-68.7487894,7,26.63825
1,Brasnorte/MT,-12.1227151,-58.0050109,14,71.08403
1,Brasília de Minas/MG,-16.2075114,-44.430559,17,52.55511
1,Brasília/DF,-15.7934036,-47.8823172,72284,2397.26618
D1,Brasília/DF,-15.7934036,-47.8823172,930,30.84303
1,Brazabrantes/GO,-16.4291635,-49.3858216,17,459.08723
1,Brazópolis/MG,-22.4742842,-45.6165577,8,55.32886
1,Braço do Norte/SC,-28.2728633,-49.1622712,485,1449.92526
D1,Braço do Norte/SC,-28.2728633,-49.1622712,3,8.96861
1,Braço do Trombudo/SC,-27.358578,-49.882145,8,213.73230
1,Braúna/SP,-21.5015319,-50.3175246,28,492.43757
D1,Braúna/SP,-21.5015319,-50.3175246,2,35.17411
1,Braúnas/MG,-19.055556,-42.716111,5,104.14497
1,Brejetuba/ES,-20.1465817,-41.2902303,196,1580.13544
1,Brejinho de Nazaré/TO,-11.0205883,-48.5722906,22,400.21830
D1,Brejinho de Nazaré/TO,-11.0205883,-48.5722906,1,18.19174
1,Brejinho/PE,-7.3482153,-37.28538,29,387.33805
1,Brejinho/RN,-6.1957907,-35.3583019,91,716.59186
D1,Brejinho/RN,-6.1957907,-35.3583019,2,15.74927
1,Brejo Alegre/SP,-21.1671191,-50.1850393,5,174.52007
1,Brejo Grande do Araguaia/PA,-5.7011449,-48.4037308,55,745.25745
1,Brejo Grande/SE,-10.4287358,-36.4667918,17,204.59742
D1,Brejo Grande/SE,-10.4287358,-36.4667918,1,12.03514
1,Brejo Santo/CE,-7.4909841,-38.9859152,290,586.13093
D1,Brejo Santo/CE,-7.4909841,-38.9859152,5,10.10571
1,Brejo da Madre de Deus/PE,-8.1409718,-36.3712527,451,888.81006
D1,Brejo da Madre de Deus/PE,-8.1409718,-36.3712527,12,23.64905
1,Brejo de Areia/MA,-4.3316785,-45.5833334,105,1142.79495
1,Brejo do Cruz/PB,-6.32926065,-37.48746163303929,158,1118.82170
D1,Brejo do Cruz/PB,-6.32926065,-37.48746163303929,1,7.08115
1,Brejo do Piauí/PI,-8.207583,-42.8359849,3,77.41935
1,Brejo dos Santos/PB,-6.3769367,-37.8243125,14,217.08792
1,Brejo/MA,-3.6804397,-42.7529313,481,1321.53749
D1,Brejo/MA,-3.6804397,-42.7529313,11,30.22227
1,Brejão/PE,-9.029146,-36.566034,11,122.31736
1,Brejões/BA,-13.1033754,-39.7909837,11,76.94998
1,Breu Branco/PA,-3.7785073,-49.5684795,222,336.12936
D1,Breu Branco/PA,-3.7785073,-49.5684795,16,24.22554
1,Breves/PA,-1.68036,-50.479085,1404,1367.07530
D1,Breves/PA,-1.68036,-50.479085,74,72.05383
1,Britânia/GO,-15.2427599,-51.1602061,7,121.12822
1,Brochier/RS,-29.556766,-51.5963047,19,374.45802
1,Brodowski/SP,-20.984532,-47.657217,120,481.17406
D1,Brodowski/SP,-20.984532,-47.657217,2,8.01957
1,Brotas/SP,-22.2840884,-48.1267265,18,73.76142
1,Brumadinho/MG,-20.143611,-44.2,329,820.38750
1,Brumado/BA,-14.29507325,-41.659307508575985,251,373.53970
D1,Brumado/BA,-14.29507325,-41.659307508575985,3,4.46462
1,Brunópolis/SC,-27.310953,-50.837585,10,413.22314
1,Brusque/SC,-27.0964628,-48.9136323,785,582.67705
D1,Brusque/SC,-27.0964628,-48.9136323,7,5.19585
1,Brás Pires/MG,-20.8483109,-43.2430524,4,92.31479
1,Bueno Brandão/MG,-22.441976,-46.3517971,13,118.17108
D1,Bueno Brandão/MG,-22.441976,-46.3517971,3,27.27025
1,Buenos Aires/PE,-7.7218931,-35.326587,36,273.66021
D1,Buenos Aires/PE,-7.7218931,-35.326587,3,22.80502
1,Buenópolis/MG,-17.8756607,-44.1749365,78,752.53256
D1,Buenópolis/MG,-17.8756607,-44.1749365,1,9.64785
1,Buerarema/BA,-14.9571177,-39.3008035,152,828.38302
D1,Buerarema/BA,-14.9571177,-39.3008035,9,49.04899
1,Bugre/MG,-19.4257687,-42.2556,9,226.01708
1,Bujari/AC,-9.8309656,-67.9520886,267,2600.81823
D1,Bujari/AC,-9.8309656,-67.9520886,4,38.96357
1,Bujaru/PA,-1.5169239,-48.0410699,227,779.21186
D1,Bujaru/PA,-1.5169239,-48.0410699,22,75.51833
1,Buri/SP,-23.79849,-48.598924,56,281.71848
D1,Buri/SP,-23.79849,-48.598924,4,20.12275
1,Buritama/SP,-21.0664017,-50.1448077,63,367.47550
D1,Buritama/SP,-21.0664017,-50.1448077,4,23.33178
1,Buriti Alegre/GO,-18.1377879,-49.0404411,112,1184.05751
1,Buriti Bravo/MA,-5.8391884,-43.8367876,66,276.33562
1,Buriti de Goiás/GO,-16.180644,-50.4287479,16,643.08682
1,Buriti do Tocantins/TO,-5.3187439,-48.2256609,106,934.08530
1,Buriti dos Lopes/PI,-3.1776723,-41.8707444,392,1981.69961
D1,Buriti dos Lopes/PI,-3.1776723,-41.8707444,8,40.44285
1,Buriti dos Montes/PI,-5.3136171,-41.0971256,6,72.78020
D1,Buriti dos Montes/PI,-5.3136171,-41.0971256,1,12.13003
1,Buriti/MA,-3.9430944,-42.9244281,259,903.13132
1,Buriticupu/MA,-4.3227472,-46.4516989,1519,2099.28412
D1,Buriticupu/MA,-4.3227472,-46.4516989,4,5.52807
1,Buritinópolis/GO,-14.4589282,-46.4293104,4,121.50668
1,Buritirama/BA,-10.7148421,-43.6362327,46,217.24757
1,Buritirana/MA,-5.5897455,-47.0148915,209,1354.50421
D1,Buritirana/MA,-5.5897455,-47.0148915,6,38.88529
1,Buritis/MG,-15.621389,-46.423889,40,161.02411
1,Buritis/RO,-10.2054937,-63.8281954,179,451.40465
D1,Buritis/RO,-10.2054937,-63.8281954,3,7.56544
1,Buritizal/SP,-20.1933264,-47.7097165,7,156.21513
1,Buritizeiro/MG,-17.3667765,-44.9647781,62,220.98660
D1,Buritizeiro/MG,-17.3667765,-44.9647781,1,3.56430
1,Butiá/RS,-30.1256795,-51.9692224,55,262.64266
D1,Butiá/RS,-30.1256795,-51.9692224,1,4.77532
1,Buíque/PE,-8.6239732,-37.157296,96,164.44551
D1,Buíque/PE,-8.6239732,-37.157296,3,5.13892
1,Bálsamo/SP,-20.7343722,-49.5807484,55,606.52845
D1,Bálsamo/SP,-20.7343722,-49.5807484,1,11.02779
0,CASO SEM LOCALIZAÇÃO DEFINIDA/AC,-9.884083190922777,-67.85119819780795,180,20.40967
D0,CASO SEM LOCALIZAÇÃO DEFINIDA/AC,-9.884083190922777,-67.85119819780795,11,1.24726
0,CASO SEM LOCALIZAÇÃO DEFINIDA/AL,-9.931093434363673,-35.609611600637464,1087,32.57068
D0,CASO SEM LOCALIZAÇÃO DEFINIDA/AL,-9.931093434363673,-35.609611600637464,23,0.68917
0,CASO SEM LOCALIZAÇÃO DEFINIDA/AM,-3.07518492149711,-60.16169212873594,886,21.37723
D0,CASO SEM LOCALIZAÇÃO DEFINIDA/AM,-3.07518492149711,-60.16169212873594,9,0.21715
0,CASO SEM LOCALIZAÇÃO DEFINIDA/AP,2.677150600275196,-50.477785111870624,188,22.22929
D0,CASO SEM LOCALIZAÇÃO DEFINIDA/AP,2.677150600275196,-50.477785111870624,4,0.47296
0,CASO SEM LOCALIZAÇÃO DEFINIDA/BA,-13.415069300066518,-38.14174656569957,3700,24.87719
D0,CASO SEM LOCALIZAÇÃO DEFINIDA/BA,-13.415069300066518,-38.14174656569957,63,0.42358
0,CASO SEM LOCALIZAÇÃO DEFINIDA/CE,-3.3445126297392798,-38.624961942434304,2205,24.14565
D0,CASO SEM LOCALIZAÇÃO DEFINIDA/CE,-3.3445126297392798,-38.624961942434304,78,0.85413
0,CASO SEM LOCALIZAÇÃO DEFINIDA/ES,-20.30989267097039,-39.81745156645774,1592,39.61529
D0,CASO SEM LOCALIZAÇÃO DEFINIDA/ES,-20.30989267097039,-39.81745156645774,36,0.89582
0,CASO SEM LOCALIZAÇÃO DEFINIDA/GO,-16.701590966270153,-49.164524059025034,650,9.26143
D0,CASO SEM LOCALIZAÇÃO DEFINIDA/GO,-16.701590966270153,-49.164524059025034,29,0.41320
0,CASO SEM LOCALIZAÇÃO DEFINIDA/MA,-2.171256551718846,-43.98946796681719,878,12.40958
D0,CASO SEM LOCALIZAÇÃO DEFINIDA/MA,-2.171256551718846,-43.98946796681719,38,0.53709
0,CASO SEM LOCALIZAÇÃO DEFINIDA/MG,-19.97049116501593,-43.8852149072783,1455,6.87333
D0,CASO SEM LOCALIZAÇÃO DEFINIDA/MG,-19.97049116501593,-43.8852149072783,60,0.28344
0,CASO SEM LOCALIZAÇÃO DEFINIDA/MS,-20.391549234908513,-54.645156949758444,264,9.49987
D0,CASO SEM LOCALIZAÇÃO DEFINIDA/MS,-20.391549234908513,-54.645156949758444,6,0.21591
0,CASO SEM LOCALIZAÇÃO DEFINIDA/MT,-15.54791153961863,-56.17143998972475,134,3.84564
D0,CASO SEM LOCALIZAÇÃO DEFINIDA/MT,-15.54791153961863,-56.17143998972475,25,0.71747
0,CASO SEM LOCALIZAÇÃO DEFINIDA/PA,-0.09317078214359542,-48.0050231510481,2061,23.95714
D0,CASO SEM LOCALIZAÇÃO DEFINIDA/PA,-0.09317078214359542,-48.0050231510481,25,0.29060
0,CASO SEM LOCALIZAÇÃO DEFINIDA/PB,-7.1049355696146606,-34.68696690234351,687,17.09752
D0,CASO SEM LOCALIZAÇÃO DEFINIDA/PB,-7.1049355696146606,-34.68696690234351,52,1.29414
0,CASO SEM LOCALIZAÇÃO DEFINIDA/PE,-8.121628543819208,-34.57313921302556,601,6.28854
D0,CASO SEM LOCALIZAÇÃO DEFINIDA/PE,-8.121628543819208,-34.57313921302556,97,1.01496
0,CASO SEM LOCALIZAÇÃO DEFINIDA/PR,-25.69415946385943,-48.10141676336737,3253,28.45034
D0,CASO SEM LOCALIZAÇÃO DEFINIDA/PR,-25.69415946385943,-48.10141676336737,90,0.78713
0,CASO SEM LOCALIZAÇÃO DEFINIDA/RJ,-23.210238986465157,-43.12864305824042,2360,13.66932
D0,CASO SEM LOCALIZAÇÃO DEFINIDA/RJ,-23.210238986465157,-43.12864305824042,59,0.34173
0,CASO SEM LOCALIZAÇÃO DEFINIDA/RN,-5.749310788669161,-34.95302586257457,1203,34.30426
D0,CASO SEM LOCALIZAÇÃO DEFINIDA/RN,-5.749310788669161,-34.95302586257457,24,0.68437
0,CASO SEM LOCALIZAÇÃO DEFINIDA/RO,-8.681174926655274,-63.9216949899276,322,18.11813
D0,CASO SEM LOCALIZAÇÃO DEFINIDA/RO,-8.681174926655274,-63.9216949899276,19,1.06908
0,CASO SEM LOCALIZAÇÃO DEFINIDA/RR,2.813328208465927,-60.663338675861986,733,121.00482
D0,CASO SEM LOCALIZAÇÃO DEFINIDA/RR,2.813328208465927,-60.663338675861986,2,0.33016
0,CASO SEM LOCALIZAÇÃO DEFINIDA/RS,-30.50647488532064,-49.906261466443524,416,3.65642
D0,CASO SEM LOCALIZAÇÃO DEFINIDA/RS,-30.50647488532064,-49.906261466443524,33,0.29005
0,CASO SEM LOCALIZAÇÃO DEFINIDA/SC,-27.675643660562308,-48.18313219398259,1451,20.25182
D0,CASO SEM LOCALIZAÇÃO DEFINIDA/SC,-27.675643660562308,-48.18313219398259,20,0.27914
0,CASO SEM LOCALIZAÇÃO DEFINIDA/SE,-11.03002091978736,-36.89283180376513,590,25.66673
D0,CASO SEM LOCALIZAÇÃO DEFINIDA/SE,-11.03002091978736,-36.89283180376513,28,1.21808
0,CASO SEM LOCALIZAÇÃO DEFINIDA/SP,-24.30968974555485,-46.21366504207253,2671,5.81676
D0,CASO SEM LOCALIZAÇÃO DEFINIDA/SP,-24.30968974555485,-46.21366504207253,59,0.12849
0,CASO SEM LOCALIZAÇÃO DEFINIDA/TO,-10.213012114749148,-48.40023803990334,175,11.12619
D0,CASO SEM LOCALIZAÇÃO DEFINIDA/TO,-10.213012114749148,-48.40023803990334,4,0.25431
1,Caapiranga/AM,-3.3188884,-61.2096404,167,1276.66081
D1,Caapiranga/AM,-3.3188884,-61.2096404,4,30.57870
1,Caaporã/PB,-7.510234,-34.9154114,807,3697.08631
D1,Caaporã/PB,-7.510234,-34.9154114,9,41.23145
1,Caarapó/MS,-22.6349267,-54.8240903,55,182.27613
1,Caatiba/BA,-14.9782759,-40.4092325,73,1080.20124
1,Cabaceiras do Paraguaçu/BA,-12.5377868,-39.1901339,22,116.97772
D1,Cabaceiras do Paraguaçu/BA,-12.5377868,-39.1901339,1,5.31717
1,Cabaceiras/PB,-7.4899156,-36.2860501,19,338.62057
1,Cabeceira Grande/MG,-16.0297,-47.0906,5,71.95280
1,Cabeceiras do Piauí/PI,-4.4733665,-42.3098716,80,755.71510
1,Cabeceiras/GO,-15.7995459,-46.9264991,4,50.04379
D1,Cabeceiras/GO,-15.7995459,-46.9264991,1,12.51095
1,Cabedelo/PB,-6.97324,-34.8351609,2015,2974.78446
D1,Cabedelo/PB,-6.97324,-34.8351609,23,33.95536
1,Cabixi/RO,-13.4956065,-60.5424442,20,376.50602
D1,Cabixi/RO,-13.4956065,-60.5424442,2,37.65060
1,Cabo Frio/RJ,-22.8804369,-42.0189227,1040,459.11047
D1,Cabo Frio/RJ,-22.8804369,-42.0189227,56,24.72133
1,Cabo Verde/MG,-21.4743338,-46.3964995,4,28.41918
1,Cabo de Santo Agostinho/PE,-8.2838945,-35.0320984,1165,562.67146
D1,Cabo de Santo Agostinho/PE,-8.2838945,-35.0320984,180,86.93636
1,Cabreúva/SP,-23.3075813,-47.1324417,422,848.97499
D1,Cabreúva/SP,-23.3075813,-47.1324417,23,46.27115
1,Cabrobó/PE,-8.5083701,-39.3106961,170,496.77099
D1,Cabrobó/PE,-8.5083701,-39.3106961,2,5.84436
1,Cabrália Paulista/SP,-22.4562909,-49.3385645,26,609.75610
1,Cacaulândia/RO,-10.3380043,-62.9007231,15,240.77047
1,Cacequi/RS,-29.8838059,-54.8273443,2,15.92230
1,Cachoeira Alta/GO,-18.7618269,-50.9432431,62,496.63569
D1,Cachoeira Alta/GO,-18.7618269,-50.9432431,1,8.01025
1,Cachoeira Dourada/GO,-18.4934204,-49.481062,13,161.15037
1,Cachoeira Dourada/MG,-18.517136,-49.5002062,2,74.29421
1,Cachoeira Grande/MA,-2.9290492,-44.0573223,116,1229.98622
D1,Cachoeira Grande/MA,-2.9290492,-44.0573223,3,31.80999
1,Cachoeira Paulista/SP,-22.666498,-45.015384,61,183.03478
D1,Cachoeira Paulista/SP,-22.666498,-45.015384,1,3.00057
1,Cachoeira da Prata/MG,-19.524723,-44.453056,1,27.75465
1,Cachoeira de Goiás/GO,-16.6688414,-50.6435997,1,74.01925
1,Cachoeira de Minas/MG,-22.3554043,-45.7796324,13,112.58335
1,Cachoeira de Pajeú/MG,-15.965833,-41.496666,4,42.49894
1,Cachoeira do Arari/PA,-1.0143572,-48.9621089,200,841.50292
D1,Cachoeira do Arari/PA,-1.0143572,-48.9621089,10,42.07515
1,Cachoeira do Piriá/PA,-1.7599443,-46.5446954,317,935.10324
D1,Cachoeira do Piriá/PA,-1.7599443,-46.5446954,1,2.94985
1,Cachoeira do Sul/RS,-30.0474778,-52.8905413,125,152.06628
1,Cachoeira dos Índios/PB,-6.9259193,-38.6742159,48,468.56697
D1,Cachoeira dos Índios/PB,-6.9259193,-38.6742159,3,29.28544
1,Cachoeira/BA,-12.5998256,-38.9665918,140,418.28503
D1,Cachoeira/BA,-12.5998256,-38.9665918,1,2.98775
1,Cachoeiras de Macacu/RJ,-22.4626861,-42.6534414,362,614.21518
D1,Cachoeiras de Macacu/RJ,-22.4626861,-42.6534414,20,33.93454
1,Cachoeirinha/PE,-8.4906364,-36.2338963,174,853.77821
D1,Cachoeirinha/PE,-8.4906364,-36.2338963,11,53.97448
1,Cachoeirinha/RS,-29.9493353,-51.0898927,611,468.94307
D1,Cachoeirinha/RS,-29.9493353,-51.0898927,8,6.14001
1,Cachoeirinha/TO,-6.118647,-47.9208885,9,395.60440
1,Cachoeiro de Itapemirim/ES,-20.848084,-41.11129,2377,1137.47296
D1,Cachoeiro de Itapemirim/ES,-20.848084,-41.11129,84,40.19677
1,Cacimba de Areia/PB,-7.1288513,-37.1575194,7,190.11407
1,Cacimba de Dentro/PB,-6.6425101,-35.7929304,73,424.73963
1,Cacimbas/PB,-7.2125451,-37.0593398,39,543.70556
D1,Cacimbas/PB,-7.2125451,-37.0593398,1,13.94117
1,Cacimbinhas/AL,-9.401212,-36.991082,63,580.21735
D1,Cacimbinhas/AL,-9.401212,-36.991082,2,18.41960
1,Cacique Doble/RS,-27.7700117,-51.6616409,19,375.12340
1,Cacoal/RO,-11.4333,-61.4420502,398,466.26601
D1,Cacoal/RO,-11.4333,-61.4420502,5,5.85761
1,Caconde/SP,-21.527995,-46.643659,11,57.94048
1,Caculé/BA,-14.4990734,-42.2233006,5,21.57963
D1,Caculé/BA,-14.4990734,-42.2233006,1,4.31593
1,Caetanos/BA,-14.3387456,-40.9085971,7,48.13643
1,Caetanópolis/MG,-19.2947496,-44.4138386,16,137.64625
1,Caetité/BA,-14.0691776,-42.4852428,47,92.20206
1,Caeté/MG,-19.897777,-43.670278,88,196.78877
1,Caetés/PE,-8.7728788,-36.6255835,148,514.97964
D1,Caetés/PE,-8.7728788,-36.6255835,4,13.91837
1,Cafarnaum/BA,-11.691399,-41.468823,5,27.11938
1,Cafeara/PR,-22.78905,-51.714195,13,443.08112
1,Cafelândia/PR,-24.6176963,-53.3218057,53,292.49448
D1,Cafelândia/PR,-24.6176963,-53.3218057,1,5.51876
1,Cafelândia/SP,-21.8054355,-49.6030627,51,287.04902
D1,Cafelândia/SP,-21.8054355,-49.6030627,2,11.25682
1,Cafezal do Sul/PR,-23.900508,-53.512418,3,74.18398
1,Caiabu/SP,-22.0143038,-51.2356597,16,381.77046
D1,Caiabu/SP,-22.0143038,-51.2356597,1,23.86065
1,Caiana/MG,-20.695555,-41.924723,12,218.34061
D1,Caiana/MG,-20.695555,-41.924723,1,18.19505
1,Caiapônia/GO,-16.9538779,-51.8090761,8,42.29895
1,Caibaté/RS,-28.290475,-54.645407,1,20.63558
1,Caibi/SC,-27.0751925,-53.2502133,22,357.83995
D1,Caibi/SC,-27.0751925,-53.2502133,1,16.26545
1,Caicó/RN,-6.4594544,-37.0971911,453,666.64704
D1,Caicó/RN,-6.4594544,-37.0971911,11,16.18790
1,Caieiras/SP,-23.3644621,-46.7484765,777,765.74357
D1,Caieiras/SP,-23.3644621,-46.7484765,55,54.20321
1,Cairu/BA,-13.4860505,-39.0455744,69,379.62148
D1,Cairu/BA,-13.4860505,-39.0455744,3,16.50528
1,Caiuá/SP,-21.8319357,-51.9887179,4,68.09670
1,Caiçara do Norte/RN,-5.0645017,-36.0561226,56,855.09238
D1,Caiçara do Norte/RN,-5.0645017,-36.0561226,2,30.53901
1,Caiçara do Rio do Vento/RN,-5.757968,-36.00089,51,1384.36482
D1,Caiçara do Rio do Vento/RN,-5.757968,-36.00089,1,27.14441
1,Caiçara/PB,-6.6146866,-35.4681434,298,4138.31412
D1,Caiçara/PB,-6.6146866,-35.4681434,3,41.66088
1,Caiçara/RS,-27.2750478,-53.4310053,8,168.66962
1,Cajamar/SP,-23.3561111,-46.8769444,773,1006.49731
D1,Cajamar/SP,-23.3561111,-46.8769444,48,62.49919
1,Cajapió/MA,-2.8778715,-44.6746871,5,44.73472
D1,Cajapió/MA,-2.8778715,-44.6746871,2,17.89389
1,Cajari/MA,-3.3213076,-45.0118757,120,619.22700
D1,Cajari/MA,-3.3213076,-45.0118757,1,5.16022
1,Cajati/SP,-24.7272376,-48.1077914,206,721.56643
D1,Cajati/SP,-24.7272376,-48.1077914,2,7.00550
1,Cajazeiras do Piauí/PI,-6.794271,-42.3935024,4,112.39112
1,Cajazeiras/PB,-6.8897849,-38.5570389,794,1280.78977
D1,Cajazeiras/PB,-6.8897849,-38.5570389,22,35.48788
1,Cajazeirinhas/PB,-6.961442,-37.7993733,1,31.31851
1,Cajobi/SP,-20.8776238,-48.8106972,32,303.54771
D1,Cajobi/SP,-20.8776238,-48.8106972,1,9.48587
1,Cajueiro da Praia/PI,-2.931114,-41.340801,139,1818.89558
D1,Cajueiro da Praia/PI,-2.931114,-41.340801,3,39.25674
1,Cajueiro/AL,-9.399589,-36.1524309,150,705.41761
D1,Cajueiro/AL,-9.399589,-36.1524309,9,42.32506
1,Cajuri/MG,-20.7901414,-42.7954489,29,727.36393
1,Cajuru/SP,-21.2759978,-47.3046035,59,225.47483
D1,Cajuru/SP,-21.2759978,-47.3046035,2,7.64321
1,Caldas Brandão/PB,-7.1027959,-35.3254676,111,1845.69338
D1,Caldas Brandão/PB,-7.1027959,-35.3254676,2,33.25574
1,Caldas Novas/GO,-17.745,-48.625,139,152.47581
D1,Caldas Novas/GO,-17.745,-48.625,5,5.48474
1,Caldas/MG,-21.923611,-46.386111,22,151.93370
1,Caldazinha/GO,-16.7116649,-49.0012601,4,105.15247
1,Caldeirão Grande do Piauí/PI,-7.3310393,-40.6374433,25,432.82548
1,Caldeirão Grande/BA,-11.0208483,-40.3041387,56,420.19959
D1,Caldeirão Grande/BA,-11.0208483,-40.3041387,1,7.50356
1,Califórnia/PR,-23.6672543,-51.3554556,24,280.04667
D1,Califórnia/PR,-23.6672543,-51.3554556,2,23.33722
1,Calmon/SC,-26.6023644,-51.0992893,3,89.65929
1,Calumbi/PE,-7.9389746,-38.1516871,38,660.86957
D1,Calumbi/PE,-7.9389746,-38.1516871,1,17.39130
1,Calçado/PE,-8.7413446,-36.3351787,28,253.32489
D1,Calçado/PE,-8.7413446,-36.3351787,1,9.04732
1,Calçoene/AP,2.4981757,-50.9539503,697,6269.67707
D1,Calçoene/AP,2.4981757,-50.9539503,4,35.98093
1,Camacan/BA,-15.4166631,-39.4930088,448,1400.52520
D1,Camacan/BA,-15.4166631,-39.4930088,11,34.38790
1,Camalaú/PB,-7.885031,-36.824191,1,16.63063
1,Camamu/BA,-13.9438142,-39.1060917,374,1059.01008
D1,Camamu/BA,-13.9438142,-39.1060917,5,14.15789
1,Camanducaia/MG,-22.755278,-46.144444,125,574.18466
D1,Camanducaia/MG,-22.755278,-46.144444,2,9.18695
1,Camapuã/MS,-19.5291747,-54.0434641,10,72.93414
D1,Camapuã/MS,-19.5291747,-54.0434641,1,7.29341
1,Camaquã/RS,-30.8524752,-51.8075619,135,203.73976
D1,Camaquã/RS,-30.8524752,-51.8075619,7,10.56428
1,Camaragibe/PE,-8.0213832,-34.9810768,1397,885.14079
D1,Camaragibe/PE,-8.0213832,-34.9810768,118,74.76493
1,Camargo/RS,-28.5865661,-52.2031474,22,804.97622
1,Camaçari/BA,-12.6998188,-38.3260762,2399,801.98708
D1,Camaçari/BA,-12.6998188,-38.3260762,34,11.36622
1,Cambará do Sul/RS,-29.0489517,-50.145412,14,217.69554
1,Cambará/PR,-23.042273,-50.075281,56,220.82019
D1,Cambará/PR,-23.042273,-50.075281,1,3.94322
1,Cambira/PR,-23.600265,-51.581045,2,25.42912
1,Camboriú/SC,-27.0273601,-48.6535657,836,1007.36242
D1,Camboriú/SC,-27.0273601,-48.6535657,10,12.04979
1,Cambuci/RJ,-21.5749919,-41.9107833,68,438.56820
D1,Cambuci/RJ,-21.5749919,-41.9107833,1,6.44953
1,Cambuquira/MG,-21.853056,-45.2953619,3,23.41189
1,Cambuí/MG,-22.6122501,-46.0572137,64,216.57474
D1,Cambuí/MG,-22.6122501,-46.0572137,2,6.76796
1,Cambé/PR,-23.2782035,-51.2779583,231,216.83422
D1,Cambé/PR,-23.2782035,-51.2779583,11,10.32544
1,Cametá/PA,-2.242949,-49.497885,4041,2930.59685
D1,Cametá/PA,-2.242949,-49.497885,81,58.74248
1,Camocim de São Félix/PE,-8.3616757,-35.7638903,85,452.97096
D1,Camocim de São Félix/PE,-8.3616757,-35.7638903,3,15.98721
1,Camocim/CE,-2.9009918,-40.8427389,1969,3092.94545
D1,Camocim/CE,-2.9009918,-40.8427389,68,106.81579
1,Campanha/MG,-21.8361108,-45.401986,9,54.00540
D1,Campanha/MG,-21.8361108,-45.401986,1,6.00060
1,Campanário/MG,-18.2398144,-41.7271768,2,53.74899
1,Campestre da Serra/RS,-28.7966535,-51.0958149,14,413.22314
1,Campestre de Goiás/GO,-16.7624179,-49.69497,9,247.93388
1,Campestre do Maranhão/MA,-6.1729113,-47.3640512,189,1314.87408
D1,Campestre do Maranhão/MA,-6.1729113,-47.3640512,1,6.95701
1,Campestre/AL,-8.8481634,-35.5660033,46,663.20646
D1,Campestre/AL,-8.8481634,-35.5660033,3,43.25260
1,Campestre/MG,-19.6142116,-43.219378,16,75.99145
1,Campina Grande do Sul/PR,-25.3046032,-49.0545355,224,517.46442
D1,Campina Grande do Sul/PR,-25.3046032,-49.0545355,8,18.48087
1,Campina Grande/PB,-7.2246743,-35.8771292,8136,1985.69305
D1,Campina Grande/PB,-7.2246743,-35.8771292,151,36.85345
1,Campina Verde/MG,-19.535277,-49.486389,39,197.51836
D1,Campina Verde/MG,-19.535277,-49.486389,1,5.06457
1,Campina da Lagoa/PR,-24.5937926,-52.8038965,5,35.20631
D1,Campina da Lagoa/PR,-24.5937926,-52.8038965,1,7.04126
1,Campina das Missões/RS,-27.9883295,-54.8411665,1,18.26818
1,Campina do Monte Alegre/SP,-23.5935653,-48.4801876,44,730.41169
1,Campinas do Piauí/PI,-7.6593687,-41.8814875,10,178.15785
1,Campinas do Sul/RS,-27.7167968,-52.6257885,9,165.01650
1,Campinas/SP,-22.90556,-47.06083,11513,956.17126
D1,Campinas/SP,-22.90556,-47.06083,453,37.62230
1,Campinorte/GO,-14.3136699,-49.1510931,22,174.24362
1,Campinápolis/MT,-14.5403731,-52.7970626,68,425.53191
D1,Campinápolis/MT,-14.5403731,-52.7970626,6,37.54693
1,Campo Alegre de Goiás/GO,-17.6337896,-47.779291,2,26.35393
1,Campo Alegre de Lourdes/BA,-9.5160326,-43.0101338,45,156.26085
D1,Campo Alegre de Lourdes/BA,-9.5160326,-43.0101338,2,6.94493
1,Campo Alegre do Fidalgo/PI,-8.3753852,-41.8364191,3,59.46482
D1,Campo Alegre do Fidalgo/PI,-8.3753852,-41.8364191,1,19.82161
1,Campo Alegre/AL,-9.7798607,-36.3575793,790,1384.43475
D1,Campo Alegre/AL,-9.7798607,-36.3575793,10,17.52449
1,Campo Alegre/SC,-26.1941684,-49.2657484,7,58.44047
1,Campo Belo do Sul/SC,-27.8987563,-50.7586887,2,28.50627
1,Campo Belo/MG,-20.8975,-45.277223,231,427.54817
D1,Campo Belo/MG,-20.8975,-45.277223,4,7.40343
1,Campo Bom/RS,-29.674694,-51.060601,354,530.63917
D1,Campo Bom/RS,-29.674694,-51.060601,16,23.98369
1,Campo Bonito/PR,-25.0328004,-52.992976,30,782.67675
1,Campo Erê/SC,-26.3947432,-53.0790495,33,387.05137
1,Campo Florido/MG,-19.760833,-48.572223,21,257.63710
1,Campo Formoso/BA,-10.51055,-40.320031,255,358.11589
D1,Campo Formoso/BA,-10.51055,-40.320031,1,1.40438
1,Campo Grande do Piauí/PI,-7.1327559,-41.0381164,43,723.54030
D1,Campo Grande do Piauí/PI,-7.1327559,-41.0381164,1,16.82652
1,Campo Grande/AL,-9.9725,-36.74791447368421,112,1171.79326
D1,Campo Grande/AL,-9.9725,-36.74791447368421,1,10.46244
1,Campo Grande/MS,-20.4640173,-54.6162947,4470,498.89395
D1,Campo Grande/MS,-20.4640173,-54.6162947,35,3.90633
1,Campo Largo do Piauí/PI,-3.8104731,-42.6288333,40,549.52603
D1,Campo Largo do Piauí/PI,-3.8104731,-42.6288333,2,27.47630
1,Campo Largo/PR,-25.4597726,-49.5270851,756,572.71860
D1,Campo Largo/PR,-25.4597726,-49.5270851,13,9.84834
1,Campo Limpo Paulista/SP,-23.207791,-46.788919,319,376.84584
D1,Campo Limpo Paulista/SP,-23.207791,-46.788919,34,40.16539
1,Campo Limpo de Goiás/GO,-16.297101,-49.0894994,11,141.22480
1,Campo Magro/PR,-25.3691533,-49.4496921,82,279.69166
D1,Campo Magro/PR,-25.3691533,-49.4496921,2,6.82175
1,Campo Maior/PI,-4.8339574,-42.1739786,1060,2263.36131
D1,Campo Maior/PI,-4.8339574,-42.1739786,19,40.56968
1,Campo Mourão/PR,-24.046329,-52.37802,308,324.69244
D1,Campo Mourão/PR,-24.046329,-52.37802,8,8.43357
1,Campo Novo de Rondônia/RO,-10.5704235,-63.6199511,66,466.79397
D1,Campo Novo de Rondônia/RO,-10.5704235,-63.6199511,3,21.21791
1,Campo Novo do Parecis/MT,-13.658735,-57.890723,365,1032.23982
D1,Campo Novo do Parecis/MT,-13.658735,-57.890723,8,22.62443
1,Campo Novo/RS,-28.91500235,-52.331375687737626,6,133.80910
1,Campo Redondo/RN,-6.2420373,-36.1830606,65,579.47758
D1,Campo Redondo/RN,-6.2420373,-36.1830606,1,8.91504
1,Campo Verde/MT,-15.5430787,-55.1590511,521,1182.98858
D1,Campo Verde/MT,-15.5430787,-55.1590511,8,18.16489
1,Campo do Brito/SE,-10.7496246,-37.4942276,129,712.35297
D1,Campo do Brito/SE,-10.7496246,-37.4942276,3,16.56635
1,Campo do Meio/MG,-21.1072006,-45.8301735,5,42.90004
1,Campo do Tenente/PR,-25.9814143,-49.684518,20,250.90955
D1,Campo do Tenente/PR,-25.9814143,-49.684518,2,25.09095
1,Campos Altos/MG,-19.696389,-46.171389,36,232.84393
D1,Campos Altos/MG,-19.696389,-46.171389,1,6.46789
1,Campos Belos/GO,-13.0349839,-46.768112,39,196.10801
D1,Campos Belos/GO,-13.0349839,-46.768112,1,5.02841
1,Campos Borges/RS,-28.8852198,-52.999098,1,30.12048
1,Campos Gerais/MG,-21.2333342,-45.7584127,53,184.19406
D1,Campos Gerais/MG,-21.2333342,-45.7584127,1,3.47536
1,Campos Lindos/TO,-7.9740597,-46.8023881,3,29.65599
1,Campos Novos Paulista/SP,-22.601952,-49.998726,3,60.42296
1,Campos Novos/SC,-27.3962904,-51.2224397,182,502.15208
D1,Campos Novos/SC,-27.3962904,-51.2224397,2,5.51815
1,Campos Sales/CE,-7.0742675,-40.3740367,195,711.00416
D1,Campos Sales/CE,-7.0742675,-40.3740367,3,10.93853
1,Campos Verdes/GO,-14.2709062,-49.65746,6,280.24288
1,Campos de Júlio/MT,-13.7223646,-59.2645296,127,1842.98360
D1,Campos de Júlio/MT,-13.7223646,-59.2645296,2,29.02336
1,Campos do Jordão/SP,-22.7395263,-45.5912829,192,368.60697
D1,Campos do Jordão/SP,-22.7395263,-45.5912829,1,1.91983
1,Campos dos Goytacazes/RJ,-21.7558619,-41.3326895,2151,423.80228
D1,Campos dos Goytacazes/RJ,-21.7558619,-41.3326895,133,26.20442
1,Camutanga/PE,-7.4092965,-35.2738166,111,1298.09379
D1,Camutanga/PE,-7.4092965,-35.2738166,3,35.08362
1,Cana Verde/MG,-21.021308,-45.1817881,41,731.75085
D1,Cana Verde/MG,-21.021308,-45.1817881,1,17.84758
1,Canabrava do Norte/MT,-11.0516481,-51.8301897,28,590.34366
D1,Canabrava do Norte/MT,-11.0516481,-51.8301897,1,21.08370
1,Cananéia/SP,-25.0104609,-47.9315628,54,430.62201
D1,Cananéia/SP,-25.0104609,-47.9315628,3,23.92344
1,Canapi/AL,-9.1173572,-37.6011704,13,73.35515
D1,Canapi/AL,-9.1173572,-37.6011704,2,11.28541
1,Canarana/BA,-11.6870151,-41.7683675,44,168.09291
1,Canarana/MT,-13.5564602,-52.2691167,142,658.04718
D1,Canarana/MT,-13.5564602,-52.2691167,3,13.90241
1,Canas/SP,-22.7029347,-45.0526508,3,58.38848
1,Canavieiras/BA,-15.61621745,-39.08485321304444,58,186.50117
D1,Canavieiras/BA,-15.61621745,-39.08485321304444,3,9.64661
1,Canaã dos Carajás/PA,-6.5296837,-49.8516592,2334,6293.64972
D1,Canaã dos Carajás/PA,-6.5296837,-49.8516592,28,75.50222
1,Candeal/BA,-11.8053441,-39.1206515,22,266.40833
1,Candeias do Jamari/RO,-8.7949939,-63.7018851,742,2779.75499
D1,Candeias do Jamari/RO,-8.7949939,-63.7018851,13,48.70191
1,Candeias/BA,-12.6693806,-38.5406462,1039,1193.21053
D1,Candeias/BA,-12.6693806,-38.5406462,26,29.85897
1,Candeias/MG,-20.7676161,-45.2763777,32,214.96708
D1,Candeias/MG,-20.7676161,-45.2763777,1,6.71772
1,Candelária/RS,-29.668391,-52.789495,19,60.57708
1,Candiba/BA,-14.4125032,-42.8714102,15,104.75592
1,Candiota/RS,-31.5451894,-53.719538,8,83.47245
1,Candói/PR,-25.5711951,-52.051107,14,87.61499
1,Canela/RS,-29.3624657,-50.8134204,41,91.11516
D1,Canela/RS,-29.3624657,-50.8134204,1,2.22232
1,Canelinha/SC,-27.2660341,-48.7666708,157,1282.67974
1,Canguaretama/RN,-6.3751942,-35.137463,164,478.46890
D1,Canguaretama/RN,-6.3751942,-35.137463,13,37.92741
1,Canguçu/RS,-31.398276,-52.6773522,47,83.86118
D1,Canguçu/RS,-31.398276,-52.6773522,2,3.56856
1,Canhoba/SE,-10.1373681,-36.9710796,16,399.20160
1,Canhotinho/PE,-8.876519,-36.197935,116,467.66651
D1,Canhotinho/PE,-8.876519,-36.197935,7,28.22125
1,Canindé de São Francisco/SE,-9.6597475,-37.7904456,95,317.72575
D1,Canindé de São Francisco/SE,-9.6597475,-37.7904456,4,13.37793
1,Canindé/CE,-4.3547946,-39.3108516,1461,1897.47653
D1,Canindé/CE,-4.3547946,-39.3108516,54,70.13260
1,Canitar/SP,-23.0066616,-49.7840632,5,95.85890
1,Canoas/RS,-29.9216045,-51.1799525,931,268.59695
D1,Canoas/RS,-29.9216045,-51.1799525,37,10.67464
1,Canoinhas/SC,-26.176591,-50.395001,156,286.75943
D1,Canoinhas/SC,-26.176591,-50.395001,2,3.67640
1,Cansanção/BA,-10.6671448,-39.498199,82,235.40219
D1,Cansanção/BA,-10.6671448,-39.498199,2,5.74152
1,Cantagalo/PR,-25.3735238,-52.1238114,26,195.23917
D1,Cantagalo/PR,-25.3735238,-52.1238114,1,7.50920
1,Cantagalo/RJ,-21.9811325,-42.3682522,25,123.93417
D1,Cantagalo/RJ,-21.9811325,-42.3682522,1,4.95737
1,Cantanhede/MA,-3.6355005,-44.3778738,360,1636.73562
D1,Cantanhede/MA,-3.6355005,-44.3778738,2,9.09298
1,Canto do Buriti/PI,-8.1112473,-42.944844,129,608.86393
D1,Canto do Buriti/PI,-8.1112473,-42.944844,2,9.43975
1,Cantá/RR,2.60994,-60.605827,512,2792.47341
D1,Cantá/RR,2.60994,-60.605827,7,38.17835
1,Canudos do Vale/RS,-29.3240418,-52.2348494,4,233.10023
1,Canudos/BA,-9.8948692,-39.0266244,19,113.99088
D1,Canudos/BA,-9.8948692,-39.0266244,2,11.99904
1,Canutama/AM,-6.5330019,-64.3834966,143,914.96577
1,Canápolis/MG,-18.7228793,-49.2016329,28,230.45267
1,Capanema/PA,-1.1933054,-47.1828679,937,1357.43984
D1,Capanema/PA,-1.1933054,-47.1828679,58,84.02509
1,Capanema/PR,-25.6704878,-53.8083036,49,256.22255
1,Caparaó/MG,-20.5232726,-41.9049984,13,239.05848
D1,Caparaó/MG,-20.5232726,-41.9049984,2,36.77823
1,Capela Nova/MG,-20.9236773,-43.6179487,2,42.98302
1,Capela de Santana/RS,-29.6926603,-51.3206659,8,67.00168
1,Capela do Alto Alegre/BA,-11.6703944,-39.8362745,52,446.85056
1,Capela do Alto/SP,-23.4704798,-47.7352309,115,555.39457
1,Capela/AL,-9.415041,-36.082583,427,2503.95825
D1,Capela/AL,-9.415041,-36.082583,3,17.59221
1,Capela/SE,-10.50494,-37.0552566,366,1069.76880
D1,Capela/SE,-10.50494,-37.0552566,11,32.15152
1,Capelinha/MG,-17.693889,-42.518611,8,21.17298
1,Capetinga/MG,-20.6193382,-47.0577418,3,43.35260
1,Capim Branco/MG,-19.548333,-44.133056,17,174.28747
1,Capim Grosso/BA,-11.3793228,-40.0112095,226,737.06868
D1,Capim Grosso/BA,-11.3793228,-40.0112095,4,13.04546
1,Capim/PB,-6.9174091,-35.1720326,127,1946.95692
D1,Capim/PB,-6.9174091,-35.1720326,4,61.32148
1,Capinzal do Norte/MA,-4.7304006,-44.3249063,265,2423.63271
1,Capinzal/SC,-27.3440651,-51.6110403,94,411.41457
1,Capinópolis/MG,-18.682778,-49.569723,94,581.21561
1,Capistrano/CE,-4.4644692,-38.8956734,407,2294.50896
D1,Capistrano/CE,-4.4644692,-38.8956734,9,50.73853
1,Capitão Andrade/MG,-19.0675,-41.859722,3,54.86467
1,Capitão Enéas/MG,-16.3236018,-43.7154584,22,144.41381
D1,Capitão Enéas/MG,-16.3236018,-43.7154584,3,19.69279
1,Capitão Gervásio Oliveira/PI,-8.4954657,-41.8169342,7,170.73171
1,Capitão Leônidas Marques/PR,-25.481645,-53.611238,46,291.50824
1,Capitão Poço/PA,-1.7447162,-47.0638495,519,955.74830
D1,Capitão Poço/PA,-1.7447162,-47.0638495,26,47.87949
1,Capitão de Campos/PI,-4.4584198,-41.9415301,62,543.04984
1,Capitão/RS,-29.2718294,-51.9869716,17,616.61226
1,Capitólio/MG,-20.6142437,-46.0487652,2,23.16960
D1,Capitólio/MG,-20.6142437,-46.0487652,2,23.16960
1,Capivari de Baixo/SC,-28.449773,-48.963144,174,699.60999
1,Capivari do Sul/RS,-30.1437605,-50.5129169,1,21.45923
1,Capivari/SP,-22.995144,-47.50715,317,568.42634
D1,Capivari/SP,-22.995144,-47.50715,1,1.79314
1,Capixaba/AC,-10.5741345,-67.6759719,174,1482.99668
D1,Capixaba/AC,-10.5741345,-67.6759719,7,59.66079
1,Capoeiras/PE,-8.7386788,-36.6268109,73,364.12610
D1,Capoeiras/PE,-8.7386788,-36.6268109,3,14.96409
1,Capão Bonito/SP,-24.0048759,-48.3489848,173,367.00751
D1,Capão Bonito/SP,-24.0048759,-48.3489848,12,25.45717
1,Capão da Canoa/RS,-29.7542937,-50.0215684,123,231.86111
D1,Capão da Canoa/RS,-29.7542937,-50.0215684,4,7.54020
1,Capão do Cipó/RS,-28.9317296,-54.5555783,3,82.16927
1,Capão do Leão/RS,-31.766133,-52.5013148,17,67.05056
1,Caracaraí/RR,1.827598,-61.125389,278,1267.90112
D1,Caracaraí/RR,1.827598,-61.125389,4,18.24318
1,Caracol/MS,-22.0169949,-57.0298349,18,294.31001
1,Caracol/PI,-9.2804898,-43.3284924,37,338.95200
1,Caraguatatuba/SP,-23.62028,-45.41306,544,447.61873
D1,Caraguatatuba/SP,-23.62028,-45.41306,39,32.09031
1,Carambeí/PR,-24.9513298,-50.1171293,94,401.45206
D1,Carambeí/PR,-24.9513298,-50.1171293,4,17.08307
1,Caranaíba/MG,-20.8736914,-43.7379458,6,188.50141
1,Carandaí/MG,-20.9523934,-43.8043903,47,184.30650
D1,Carandaí/MG,-20.9523934,-43.8043903,3,11.76424
1,Carangola/MG,-20.733056,-42.029445,186,563.63636
D1,Carangola/MG,-20.733056,-42.029445,3,9.09091
1,Carapebus/RJ,-22.1869969,-41.6633764,160,981.53488
D1,Carapebus/RJ,-22.1869969,-41.6633764,4,24.53837
1,Carapicuíba/SP,-23.5234673,-46.8406808,3010,750.76011
D1,Carapicuíba/SP,-23.5234673,-46.8406808,183,45.64422
1,Caratinga/MG,-19.7900887,-42.140533,440,477.93878
D1,Caratinga/MG,-19.7900887,-42.140533,12,13.03469
1,Carauari/AM,-4.8766426,-66.8961433,588,2078.17912
D1,Carauari/AM,-4.8766426,-66.8961433,7,24.74023
1,Caravelas/BA,-17.7296514,-39.2660082,102,463.29942
1,Carazinho/RS,-28.2981634,-52.7942363,164,264.04766
D1,Carazinho/RS,-28.2981634,-52.7942363,5,8.05023
1,Caraá/RS,-29.7900698,-50.4302307,40,483.67594
D1,Caraá/RS,-29.7900698,-50.4302307,1,12.09190
1,Caraí/MG,-17.1884104,-41.6976554,37,156.21701
D1,Caraí/MG,-17.1884104,-41.6976554,1,4.22208
1,Caraíbas/BA,-14.72496,-41.2566163,7,78.20355
1,Caraúbas do Piauí/PI,-3.4757229,-41.8431178,51,869.12065
1,Caraúbas/PB,-7.7273231,-36.4923357,29,696.78039
1,Caraúbas/RN,-5.7889323,-37.5548751,177,863.70956
D1,Caraúbas/RN,-5.7889323,-37.5548751,1,4.87972
1,Carbonita/MG,-17.5308667,-43.0136207,4,42.53057
1,Cardeal da Silva/BA,-11.9428154,-37.9494462,8,86.06778
D1,Cardeal da Silva/BA,-11.9428154,-37.9494462,1,10.75847
1,Cardoso Moreira/RJ,-21.4894916,-41.6152776,152,1185.37004
1,Cardoso/SP,-20.080447,-49.9139767,32,259.61382
D1,Cardoso/SP,-20.080447,-49.9139767,2,16.22586
1,Careaçu/MG,-22.0440585,-45.6949091,4,59.19787
1,Careiro da Várzea/AM,-3.197024,-59.8259104,113,373.86270
D1,Careiro da Várzea/AM,-3.197024,-59.8259104,4,13.23408
1,Careiro/AM,-3.8185277,-60.3616505,992,2619.55689
D1,Careiro/AM,-3.8185277,-60.3616505,14,36.96955
1,Cariacica/ES,-20.263202,-40.416549,6988,1832.74978
D1,Cariacica/ES,-20.263202,-40.416549,266,69.76409
1,Caridade do Piauí/PI,-7.7331063,-40.9883665,9,177.61989
1,Caridade/CE,-4.2316487,-39.1946515,277,1228.54482
D1,Caridade/CE,-4.2316487,-39.1946515,14,62.09252
1,Carinhanha/BA,-14.298524,-43.772349,4,13.78455
1,Carira/SE,-10.358303,-37.701473,268,1213.65818
D1,Carira/SE,-10.358303,-37.701473,9,40.75718
1,Cariri do Tocantins/TO,-11.8882727,-49.1604216,63,1437.69968
D1,Cariri do Tocantins/TO,-11.8882727,-49.1604216,1,22.82063
1,Caririaçu/CE,-7.0417053,-39.2835527,213,789.91285
D1,Caririaçu/CE,-7.0417053,-39.2835527,4,14.83404
1,Cariré/CE,-3.948584,-40.476028,486,2634.43192
D1,Cariré/CE,-3.948584,-40.476028,10,54.20642
1,Cariús/CE,-6.5348688,-39.4966658,154,823.57345
D1,Cariús/CE,-6.5348688,-39.4966658,2,10.69576
1,Carlos Barbosa/RS,-29.2978372,-51.5005613,304,1019.00580
D1,Carlos Barbosa/RS,-29.2978372,-51.5005613,7,23.46395
1,Carlos Chagas/MG,-21.744351,-43.3908675,102,541.48750
D1,Carlos Chagas/MG,-21.744351,-43.3908675,2,10.61740
1,Carlópolis/PR,-23.4224762,-49.7194008,57,398.04469
1,Carmo da Cachoeira/MG,-21.460556,-45.223334,5,41.08463
1,Carmo da Mata/MG,-20.558334,-44.8703774,9,78.42454
1,Carmo de Minas/MG,-22.1216655,-45.1323836,6,40.37957
1,Carmo do Cajuru/MG,-20.184444,-44.770834,82,364.80114
D1,Carmo do Cajuru/MG,-20.184444,-44.770834,3,13.34638
1,Carmo do Paranaíba/MG,-18.9992327,-46.306916,94,309.93439
D1,Carmo do Paranaíba/MG,-18.9992327,-46.306916,2,6.59435
1,Carmo do Rio Claro/MG,-20.973315,-46.1186754,24,113.07420
D1,Carmo do Rio Claro/MG,-20.973315,-46.1186754,1,4.71143
1,Carmo do Rio Verde/GO,-15.3549139,-49.707975,12,119.02400
1,Carmo/RJ,-21.9341749,-42.6091737,75,396.93040
D1,Carmo/RJ,-21.9341749,-42.6091737,2,10.58481
1,Carmolândia/TO,-7.033804,-48.3951295,15,581.39535
D1,Carmolândia/TO,-7.033804,-48.3951295,1,38.75969
1,Carmésia/MG,-19.0854535,-43.1392003,5,189.96960
1,Carmópolis de Minas/MG,-20.541224,-44.6350611,111,573.49522
D1,Carmópolis de Minas/MG,-20.541224,-44.6350611,3,15.49987
1,Carmópolis/SE,-10.64835,-36.98493,150,901.76746
D1,Carmópolis/SE,-10.64835,-36.98493,6,36.07070
1,Carnaubais/RN,-5.3383681,-36.8335566,77,715.67990
D1,Carnaubais/RN,-5.3383681,-36.8335566,3,27.88363
1,Carnaubal/CE,-4.1611842,-40.9412317,196,1113.25684
D1,Carnaubal/CE,-4.1611842,-40.9412317,3,17.03965
1,Carnaubeira da Penha/PE,-8.3192809,-38.7435891,17,131.45685
D1,Carnaubeira da Penha/PE,-8.3192809,-38.7435891,1,7.73276
1,Carnaíba/PE,-7.805964,-37.7947314,58,296.66002
D1,Carnaíba/PE,-7.805964,-37.7947314,6,30.68897
1,Carnaúba dos Dantas/RN,-6.5560588,-36.5930811,27,330.07335
D1,Carnaúba dos Dantas/RN,-6.5560588,-36.5930811,2,24.44988
1,Carneirinho/MG,-19.6975,-50.688055,14,139.62302
1,Carneiros/AL,-9.4832948,-37.3757121,30,330.36009
1,Caroebe/RR,0.8812315,-59.6932274,490,4818.56623
D1,Caroebe/RR,0.8812315,-59.6932274,2,19.66762
1,Carolina/MA,-7.3313437,-47.4738762,160,657.84064
1,Carpina/PE,-7.8459151,-35.2538861,277,331.17729
D1,Carpina/PE,-7.8459151,-35.2538861,42,50.21461
1,Carrapateira/PB,-7.0395225,-38.3432281,27,1015.41933
1,Carrasco Bonito/TO,-5.3205734,-48.0376667,21,512.82051
1,Caruaru/PE,-8.2829702,-35.9722852,2630,728.29380
D1,Caruaru/PE,-8.2829702,-35.9722852,176,48.73753
1,Carutapera/MA,-1.2016638,-46.0205618,255,1071.11354
D1,Carutapera/MA,-1.2016638,-46.0205618,15,63.00668
1,Carvalhópolis/MG,-21.7773461,-45.8412117,1,27.94077
1,Casa Branca/SP,-21.7743137,-47.0852175,41,134.95721
D1,Casa Branca/SP,-21.7743137,-47.0852175,1,3.29164
1,Casa Nova/BA,-9.1736775,-40.9734475,160,222.31794
D1,Casa Nova/BA,-9.1736775,-40.9734475,5,6.94744
1,Casca/RS,-28.5634054,-51.9741902,22,243.60536
D1,Casca/RS,-28.5634054,-51.9741902,1,11.07297
1,Cascalho Rico/MG,-18.579344,-47.875774,12,390.24390
D1,Cascalho Rico/MG,-18.579344,-47.875774,1,32.52033
1,Cascavel/CE,-4.129666,-38.241178,1095,1526.28131
D1,Cascavel/CE,-4.129666,-38.241178,78,108.72141
1,Cascavel/PR,-24.9554996,-53.4560544,3672,1117.96477
D1,Cascavel/PR,-24.9554996,-53.4560544,73,22.22533
1,Caseara/TO,-9.273159,-49.9576837,6,111.75265
D1,Caseara/TO,-9.273159,-49.9576837,1,18.62544
1,Caseiros/RS,-28.2721149,-51.6873536,12,374.76577
1,Casimiro de Abreu/RJ,-22.4809932,-42.2039976,420,950.57034
D1,Casimiro de Abreu/RJ,-22.4809932,-42.2039976,10,22.63263
1,Casinhas/PE,-7.744698,-35.7250923,29,202.21742
D1,Casinhas/PE,-7.744698,-35.7250923,3,20.91904
1,Casserengue/PB,-6.779538,-35.817875,153,2048.74130
D1,Casserengue/PB,-6.779538,-35.817875,1,13.39047
1,Cassilândia/MS,-19.1128242,-51.7345354,28,127.62660
D1,Cassilândia/MS,-19.1128242,-51.7345354,2,9.11619
1,Castanhal/PA,-1.2927031,-47.9223903,1690,841.66281
D1,Castanhal/PA,-1.2927031,-47.9223903,173,86.15838
1,Castanheira/MT,-11.1391946,-58.6088547,13,148.92886
1,Castanheiras/RO,-11.4277212,-61.9486802,23,753.60419
1,Castelo do Piauí/PI,-5.3230426,-41.5546185,28,142.01664
D1,Castelo do Piauí/PI,-5.3230426,-41.5546185,3,15.21607
1,Castelo/ES,-20.6034476,-41.2033505,419,1116.32120
D1,Castelo/ES,-20.6034476,-41.2033505,11,29.30676
1,Castelândia/GO,-18.089062,-50.220798,5,145.56041
1,Castilho/SP,-20.8695636,-51.4877792,31,147.57688
D1,Castilho/SP,-20.8695636,-51.4877792,1,4.76054
1,Castro Alves/BA,-12.7616941,-39.4281088,104,395.97929
D1,Castro Alves/BA,-12.7616941,-39.4281088,3,11.42248
1,Castro/PR,-24.794072,-49.9972914,135,188.85345
1,Cataguases/MG,-21.387426,-42.6957219,146,194.34794
D1,Cataguases/MG,-21.387426,-42.6957219,7,9.31805
1,Catalão/GO,-18.1702546,-47.9447082,324,297.73118
D1,Catalão/GO,-18.1702546,-47.9447082,6,5.51354
1,Catanduva/SP,-21.1331035,-48.9712817,672,551.44344
D1,Catanduva/SP,-21.1331035,-48.9712817,33,27.07981
1,Catanduvas/PR,-25.2043528,-53.154826,46,451.46727
1,Catanduvas/SC,-27.0689719,-51.660158,35,322.25394
1,Catarina/CE,-6.1341578,-39.8795321,61,294.71447
D1,Catarina/CE,-6.1341578,-39.8795321,2,9.66277
1,Catas Altas da Noruega/MG,-20.690277,-43.4975,13,357.04477
1,Catas Altas/MG,-20.0744,-43.4075,20,372.02381
1,Catende/PE,-8.6900588,-35.748470825,435,1014.17514
D1,Catende/PE,-8.6900588,-35.748470825,27,62.94880
1,Catiguá/SP,-21.0491485,-49.0578923,54,691.95284
D1,Catiguá/SP,-21.0491485,-49.0578923,1,12.81394
1,Catingueira/PB,-7.120081,-37.60638,15,304.13625
D1,Catingueira/PB,-7.120081,-37.60638,2,40.55150
1,Catolândia/BA,-12.315088,-44.8616434,1,27.95639
1,Catolé do Rocha/PB,-6.340625,-37.746967,183,599.09644
D1,Catolé do Rocha/PB,-6.340625,-37.746967,8,26.19001
1,Catu/BA,-12.351274,-38.379108,467,853.68529
D1,Catu/BA,-12.351274,-38.379108,3,5.48406
1,Catuji/MG,-17.3024568,-41.5168387,9,142.60814
1,Catunda/CE,-4.6494224,-40.2002603,133,1286.01818
D1,Catunda/CE,-4.6494224,-40.2002603,2,19.33862
1,Caturama/BA,-13.3309299,-42.2927623,1,10.71926
1,Caturaí/GO,-16.4473559,-49.4919149,10,197.23866
1,Caturité/PB,-7.4199652,-36.0207132,63,1298.43364
1,Catuípe/RS,-28.255356,-54.013215,8,91.17848
1,Caucaia/CE,-3.7300563,-38.6593082,4349,1203.37576
D1,Caucaia/CE,-3.7300563,-38.6593082,303,83.84062
1,Cavalcante/GO,-13.7928414,-47.4568521,6,61.79833
1,Caxambu do Sul/SC,-27.1615046,-52.8796675,35,961.01043
D1,Caxambu do Sul/SC,-27.1615046,-52.8796675,1,27.45744
1,Caxambu/MG,-21.9770359,-44.9318289,18,83.11784
D1,Caxambu/MG,-21.9770359,-44.9318289,1,4.61766
1,Caxias do Sul/RS,-29.1684796,-51.1793861,1589,311.01612
D1,Caxias do Sul/RS,-29.1684796,-51.1793861,28,5.48046
1,Caxias/MA,-4.8654201,-43.353664,2078,1260.31053
D1,Caxias/MA,-4.8654201,-43.353664,32,19.40805
1,Caxingó/PI,-3.4208396,-41.8925637,63,1161.50442
1,Caçador/SC,-26.77567,-51.0120041,98,124.68987
D1,Caçador/SC,-26.77567,-51.0120041,4,5.08938
1,Caçapava do Sul/RS,-30.5113286,-53.4916761,223,663.21675
D1,Caçapava do Sul/RS,-30.5113286,-53.4916761,3,8.92220
1,Caçapava/SP,-23.099204,-45.707645,293,310.83246
D1,Caçapava/SP,-23.099204,-45.707645,9,9.54775
1,Caçu/GO,-18.5637222,-51.1369685,175,1093.13511
D1,Caçu/GO,-18.5637222,-51.1369685,4,24.98595
1,Caém/BA,-11.0909658,-40.4322187,33,358.18951
1,Ceará-Mirim/RN,-5.633588,-35.4248407,557,757.85406
D1,Ceará-Mirim/RN,-5.633588,-35.4248407,28,38.09679
1,Cedral/MA,-2.000269,-44.528114,96,899.29742
1,Cedral/SP,-20.9028433,-49.2699665,36,389.73693
D1,Cedral/SP,-20.9028433,-49.2699665,1,10.82603
1,Cedro de São João/SE,-10.2506778,-36.8816067,124,2102.76412
D1,Cedro de São João/SE,-10.2506778,-36.8816067,2,33.91555
1,Cedro/CE,-6.6065382,-39.0599487,100,391.28223
D1,Cedro/CE,-6.6065382,-39.0599487,5,19.56411
1,Cedro/PE,-7.7186318,-39.2363385,57,482.76446
D1,Cedro/PE,-7.7186318,-39.2363385,1,8.46955
1,Celso Ramos/SC,-27.6335797,-51.3368111,12,439.88270
1,Centenário do Sul/PR,-22.821497,-51.5951456,13,120.07019
1,Centenário/RS,-27.7633568,-51.989010104551,2,69.18021
1,Centenário/TO,-8.9586893,-47.3355181,1,34.42341
1,Central de Minas/MG,-18.7612885,-41.3071204,1,14.22071
D1,Central de Minas/MG,-18.7612885,-41.3071204,1,14.22071
1,Central do Maranhão/MA,-2.1967253,-44.8290757,16,184.48057
D1,Central do Maranhão/MA,-2.1967253,-44.8290757,1,11.53004
1,Central/BA,-11.135426,-42.1110123,3,17.37519
1,Centralina/MG,-18.5843349,-49.1954739,29,280.19324
D1,Centralina/MG,-18.5843349,-49.1954739,1,9.66184
1,Centro Novo do Maranhão/MA,-2.1361032,-46.1248528,331,1530.84821
D1,Centro Novo do Maranhão/MA,-2.1361032,-46.1248528,5,23.12460
1,Centro do Guilherme/MA,-2.4511749,-46.039127,51,378.95675
D1,Centro do Guilherme/MA,-2.4511749,-46.039127,1,7.43052
1,Cerejeiras/RO,-13.186987,-60.816836,43,263.43197
D1,Cerejeiras/RO,-13.186987,-60.816836,3,18.37897
1,Ceres/GO,-15.3103568,-49.6032054,143,644.40539
D1,Ceres/GO,-15.3103568,-49.6032054,1,4.50633
1,Cerqueira César/SP,-23.0353135,-49.1650519,24,120.09007
D1,Cerqueira César/SP,-23.0353135,-49.1650519,1,5.00375
1,Cerquilho/SP,-23.1626556,-47.7433878,84,171.60718
D1,Cerquilho/SP,-23.1626556,-47.7433878,7,14.30060
1,Cerro Azul/PR,-24.8245108,-49.2615181,39,219.35992
D1,Cerro Azul/PR,-24.8245108,-49.2615181,4,22.49845
1,Cerro Corá/RN,-6.0412685,-36.3464694,17,152.07085
D1,Cerro Corá/RN,-6.0412685,-36.3464694,1,8.94534
1,Cerro Grande do Sul/RS,-30.5962963,-51.7517196,3,24.51181
D1,Cerro Grande do Sul/RS,-30.5962963,-51.7517196,2,16.34120
1,Cerro Grande/RS,-27.6088939,-53.1663055,1,43.27131
1,Cerro Largo/RS,-28.147498,-54.7383681,4,28.30255
