type,name,lat,lon,total,total_per_100k_inhabitants
1,Abadia de Goiás/GO,-16.7572644,-49.4412205,709,7914.71311
D1,Abadia de Goiás/GO,-16.7572644,-49.4412205,7,78.14244
1,Abadia dos Dourados/MG,-18.4911191,-47.4063589,104,1484.44191
D1,Abadia dos Dourados/MG,-18.4911191,-47.4063589,1,14.27348
1,Abadiânia/GO,-16.1940946,-48.7067767,177,865.06036
D1,Abadiânia/GO,-16.1940946,-48.7067767,13,63.53551
1,Abaetetuba/PA,-1.721828,-48.878843,3551,2232.21021
D1,Abaetetuba/PA,-1.721828,-48.878843,118,74.17651
1,Abaeté/MG,-19.1566833,-45.4481213,110,473.11828
D1,Abaeté/MG,-19.1566833,-45.4481213,3,12.90323
1,Abaiara/CE,-7.3607808,-39.0487878,113,953.34514
D1,Abaiara/CE,-7.3607808,-39.0487878,3,25.31005
1,Abaré/BA,-8.7239913,-39.1139689,126,619.25591
1,Abatiá/PR,-23.3052967,-50.3102532,92,1241.90065
D1,Abatiá/PR,-23.3052967,-50.3102532,1,13.49892
1,Abaíra/BA,-13.2503296,-41.6640342,125,1435.13203
D1,Abaíra/BA,-13.2503296,-41.6640342,1,11.48106
1,Abdon Batista/SC,-27.612419,-51.022992,144,5651.49137
1,Abel Figueiredo/PA,-4.953001,-48.3958485,409,5463.53193
D1,Abel Figueiredo/PA,-4.953001,-48.3958485,2,26.71654
1,Abelardo Luz/SC,-26.5705893,-52.3280339,521,2900.89087
D1,Abelardo Luz/SC,-26.5705893,-52.3280339,9,50.11136
1,Abre Campo/MG,-20.2976097,-42.4764741,130,966.97411
D1,Abre Campo/MG,-20.2976097,-42.4764741,1,7.43826
1,Abreu e Lima/PE,-7.900719,-34.898389,959,955.69330
D1,Abreu e Lima/PE,-7.900719,-34.898389,126,125.56554
1,Abreulândia/TO,-9.6221526,-49.1558343,94,3623.74711
D1,Abreulândia/TO,-9.6221526,-49.1558343,4,154.20200
1,Acaiaca/MG,-20.3621646,-43.1444162,66,1652.47872
D1,Acaiaca/MG,-20.3621646,-43.1444162,2,50.07511
1,Acajutiba/BA,-11.6609659,-38.0186381,204,1343.25410
D1,Acajutiba/BA,-11.6609659,-38.0186381,6,39.50747
1,Acarape/CE,-4.2237866,-38.7071663,1928,12822.55919
D1,Acarape/CE,-4.2237866,-38.7071663,15,99.76057
1,Acaraú/CE,-2.8869514,-40.1194713,2712,4297.66734
D1,Acaraú/CE,-2.8869514,-40.1194713,58,91.91176
1,Acari/RN,-6.4364689,-36.6394777,193,1735.45544
D1,Acari/RN,-6.4364689,-36.6394777,7,62.94398
1,Acará/PA,-1.961388,-48.1987043,855,1535.86377
D1,Acará/PA,-1.961388,-48.1987043,15,26.94498
1,Acauã/PI,-8.219542,-41.083059,60,844.83244
1,Aceguá/RS,-31.8695131,-54.1615593,24,485.63335
1,Acopiara/CE,-6.0936464,-39.4543204,1314,2411.85000
D1,Acopiara/CE,-6.0936464,-39.4543204,51,93.61062
1,Acorizal/MT,-15.2001544,-56.3668953,198,3712.03600
D1,Acorizal/MT,-15.2001544,-56.3668953,7,131.23360
1,Acrelândia/AC,-10.0759167,-67.0526898,507,3273.07941
D1,Acrelândia/AC,-10.0759167,-67.0526898,11,71.01356
1,Acreúna/GO,-17.3959899,-50.3749031,1004,4453.11807
D1,Acreúna/GO,-17.3959899,-50.3749031,25,110.88441
1,Adamantina/SP,-21.6866517,-51.0762975,520,1481.01734
D1,Adamantina/SP,-21.6866517,-51.0762975,14,39.87354
1,Adelândia/GO,-16.4155077,-50.1665834,88,3497.61526
D1,Adelândia/GO,-16.4155077,-50.1665834,2,79.49126
1,Adolfo/SP,-21.2356597,-49.6441918,134,3770.39955
D1,Adolfo/SP,-21.2356597,-49.6441918,5,140.68655
1,Adrianópolis/PR,-24.6557863,-48.9912769,188,3209.83439
D1,Adrianópolis/PR,-24.6557863,-48.9912769,4,68.29435
1,Adustina/BA,-10.5358875,-38.114479,119,694.84994
D1,Adustina/BA,-10.5358875,-38.114479,3,17.51723
1,Afogados da Ingazeira/PE,-7.750429,-37.6356375,1360,3635.97476
D1,Afogados da Ingazeira/PE,-7.750429,-37.6356375,20,53.47022
1,Afonso Bezerra/RN,-5.4745,-36.57625071327935,183,1659.26195
D1,Afonso Bezerra/RN,-5.4745,-36.57625071327935,11,99.73706
1,Afonso Cláudio/ES,-20.077841,-41.12606,1203,3950.09030
D1,Afonso Cláudio/ES,-20.077841,-41.12606,21,68.95419
1,Afonso Cunha/MA,-4.1326105,-43.3230026,152,2310.73275
D1,Afonso Cunha/MA,-4.1326105,-43.3230026,2,30.40438
1,Afrânio/PE,-8.5198919,-41.0070197,249,1256.94094
D1,Afrânio/PE,-8.5198919,-41.0070197,2,10.09591
1,Afuá/PA,-0.1535664,-50.3879223,2284,5772.48717
D1,Afuá/PA,-0.1535664,-50.3879223,11,27.80095
1,Agrestina/PE,-8.4558021,-35.9442663,608,2425.69320
D1,Agrestina/PE,-8.4558021,-35.9442663,33,131.65769
1,Agricolândia/PI,-5.7967843,-42.6605131,65,1266.80959
1,Agrolândia/SC,-27.4122212,-49.8295774,248,2251.88414
D1,Agrolândia/SC,-27.4122212,-49.8295774,6,54.48107
1,Agronômica/SC,-27.2660744,-49.7104753,136,2468.68760
D1,Agronômica/SC,-27.2660744,-49.7104753,4,72.60846
1,Aguanil/MG,-20.9424533,-45.3927152,97,2145.06855
D1,Aguanil/MG,-20.9424533,-45.3927152,3,66.34233
1,Aguaí/SP,-22.0592036,-46.979384,379,1034.16285
D1,Aguaí/SP,-22.0592036,-46.979384,7,19.10063
1,Agudo/RS,-29.6423259,-53.2494005,97,591.42735
D1,Agudo/RS,-29.6423259,-53.2494005,1,6.09719
1,Agudos do Sul/PR,-25.9890808,-49.3328175,121,1277.71911
D1,Agudos do Sul/PR,-25.9890808,-49.3328175,1,10.55966
1,Agudos/SP,-22.471162,-48.987822,851,2275.34023
D1,Agudos/SP,-22.471162,-48.987822,17,45.45333
1,Aguiar/PB,-7.0928404,-38.1727215,47,834.81350
1,Aguiarnópolis/TO,-6.5600452,-47.4721189,442,6413.23273
D1,Aguiarnópolis/TO,-6.5600452,-47.4721189,9,130.58619
1,Aimorés/MG,-19.4917754,-41.0615603,484,1925.14220
D1,Aimorés/MG,-19.4917754,-41.0615603,8,31.82053
1,Aiquara/BA,-14.126918,-39.8887574,306,6929.34783
D1,Aiquara/BA,-14.126918,-39.8887574,4,90.57971
1,Aiuaba/CE,-6.5710836,-40.1212278,68,388.72692
D1,Aiuaba/CE,-6.5710836,-40.1212278,1,5.71657
1,Aiuruoca/MG,-21.9759554,-44.6036637,20,334.67202
D1,Aiuruoca/MG,-21.9759554,-44.6036637,4,66.93440
1,Ajuricaba/RS,-28.239654,-53.7693013,310,4436.81122
D1,Ajuricaba/RS,-28.239654,-53.7693013,2,28.62459
1,Alagoa Grande/PB,-7.0415212,-35.6285322,1693,5953.09258
D1,Alagoa Grande/PB,-7.0415212,-35.6285322,29,101.97264
1,Alagoa Nova/PB,-7.0653703,-35.76695977336711,413,1974.09302
D1,Alagoa Nova/PB,-7.0653703,-35.76695977336711,10,47.79886
1,Alagoa/MG,-22.1697202,-44.6400042,32,1200.75047
1,Alagoinha do Piauí/PI,-7.0090952,-40.939675,133,1735.15982
D1,Alagoinha do Piauí/PI,-7.0090952,-40.939675,4,52.18526
1,Alagoinha/PB,-6.97063215,-35.51490901897793,1089,7479.39560
D1,Alagoinha/PB,-6.97063215,-35.51490901897793,12,82.41758
1,Alagoinha/PE,-8.50355635,-36.77701174370496,227,1542.32912
D1,Alagoinha/PE,-8.50355635,-36.77701174370496,10,67.94401
1,Alagoinhas/BA,-12.133526,-38.420772,5926,3890.31491
D1,Alagoinhas/BA,-12.133526,-38.420772,89,58.42694
1,Alambari/SP,-23.550338,-47.897971,89,1452.11291
D1,Alambari/SP,-23.550338,-47.897971,4,65.26350
1,Albertina/MG,-20.66164,-43.784039,51,1693.78944
D1,Albertina/MG,-20.66164,-43.784039,5,166.05779
1,Alcantil/PB,-7.7425491,-36.0609604,84,1524.77764
1,Alcinópolis/MS,-18.3264121,-53.7094463,26,479.97046
D1,Alcinópolis/MS,-18.3264121,-53.7094463,2,36.92080
1,Alcobaça/BA,-17.5215875,-39.1965474,750,3334.81547
D1,Alcobaça/BA,-17.5215875,-39.1965474,13,57.80347
1,Alcântara/MA,-2.4038956,-44.4154241,202,913.53111
D1,Alcântara/MA,-2.4038956,-44.4154241,8,36.17945
1,Alcântaras/CE,-3.586247,-40.5457641,552,4685.51057
D1,Alcântaras/CE,-3.586247,-40.5457641,4,33.95298
1,Aldeias Altas/MA,-4.6291957,-43.4708622,945,3531.78607
D1,Aldeias Altas/MA,-4.6291957,-43.4708622,10,37.37340
1,Alecrim/RS,-27.6566142,-54.7653195,26,446.19873
D1,Alecrim/RS,-27.6566142,-54.7653195,1,17.16149
1,Alegre/ES,-20.7625787,-41.5318886,528,1761.46789
D1,Alegre/ES,-20.7625787,-41.5318886,21,70.05838
1,Alegrete do Piauí/PI,-7.2440138,-40.8602296,339,6893.04595
D1,Alegrete do Piauí/PI,-7.2440138,-40.8602296,3,61.00041
1,Alegrete/RS,-29.790166,-55.794862,1484,2032.09728
D1,Alegrete/RS,-29.790166,-55.794862,22,30.12543
1,Alegria/RS,-27.8332103,-54.0574959,96,2845.28749
1,Alenquer/PA,-1.946229,-54.738355,1543,2702.65536
D1,Alenquer/PA,-1.946229,-54.738355,30,52.54677
1,Alexandria/RN,-6.414779,-38.0135516,234,1726.55501
D1,Alexandria/RN,-6.414779,-38.0135516,5,36.89220
1,Alexânia/GO,-16.0834049,-48.5077803,1320,4712.60264
D1,Alexânia/GO,-16.0834049,-48.5077803,21,74.97322
1,Alfenas/MG,-21.4297405,-45.9479419,2218,2755.48488
D1,Alfenas/MG,-21.4297405,-45.9479419,59,73.29739
1,Alfredo Chaves/ES,-20.624970400000002,-40.75006690147988,724,4946.70675
D1,Alfredo Chaves/ES,-20.624970400000002,-40.75006690147988,7,47.82728
1,Alfredo Marcondes/SP,-21.9527,-51.413956,78,1864.24474
D1,Alfredo Marcondes/SP,-21.9527,-51.413956,3,71.70172
1,Alfredo Vasconcelos/MG,-21.145833,-43.776389,21,300.81650
D1,Alfredo Vasconcelos/MG,-21.145833,-43.776389,1,14.32460
1,Alfredo Wagner/SC,-27.6961513,-49.3326734,239,2369.62126
D1,Alfredo Wagner/SC,-27.6961513,-49.3326734,1,9.91473
1,Algodão de Jandaíra/PB,-6.9040175,-36.0089879,31,1202.94917
1,Alhandra/PB,-7.4304246,-34.9106103,730,3700.51199
D1,Alhandra/PB,-7.4304246,-34.9106103,19,96.31470
1,Aliança do Tocantins/TO,-11.3055927,-48.9409096,185,3460.53124
D1,Aliança do Tocantins/TO,-11.3055927,-48.9409096,3,56.11672
1,Aliança/PE,-7.60398,-35.222696,401,1044.35242
D1,Aliança/PE,-7.60398,-35.222696,30,78.13110
1,Almadina/BA,-14.70466,-39.6381994,371,6913.90235
D1,Almadina/BA,-14.70466,-39.6381994,7,130.45099
1,Almas/TO,-11.5681309,-47.1702803,99,1418.54134
D1,Almas/TO,-11.5681309,-47.1702803,2,28.65740
1,Almeirim/PA,-1.5290377,-52.5788111,268,786.47729
D1,Almeirim/PA,-1.5290377,-52.5788111,18,52.82310
1,Almenara/MG,-16.1740678,-40.6904907,969,2299.31424
D1,Almenara/MG,-16.1740678,-40.6904907,11,26.10161
1,Almino Afonso/RN,-6.1544208,-37.7649018,67,1422.50531
1,Almirante Tamandaré do Sul/RS,-28.1141129,-52.9134874,34,1744.48435
1,Almirante Tamandaré/PR,-25.3133048,-49.2997838,2573,2143.43433
D1,Almirante Tamandaré/PR,-25.3133048,-49.2997838,65,54.14817
1,Aloândia/GO,-17.7277983,-49.4809338,139,6998.99295
D1,Aloândia/GO,-17.7277983,-49.4809338,5,251.76234
1,Alpercata/MG,-18.9803616,-41.9827637,212,2850.99516
D1,Alpercata/MG,-18.9803616,-41.9827637,7,94.13663
1,Alpestre/RS,-27.2512339,-53.0349646,61,1005.43926
D1,Alpestre/RS,-27.2512339,-53.0349646,2,32.96522
1,Alpinópolis/MG,-20.863611,-46.387777,138,691.45205
D1,Alpinópolis/MG,-20.863611,-46.387777,4,20.04209
1,Alta Floresta D'Oeste/RO,-11.9296917,-61.9961284,957,4210.66526
D1,Alta Floresta D'Oeste/RO,-11.9296917,-61.9961284,13,57.19817
1,Alta Floresta/MT,-9.8715018,-56.0839881,1651,3177.50534
D1,Alta Floresta/MT,-9.8715018,-56.0839881,26,50.03945
1,Altair/SP,-20.5238955,-49.0606135,51,1218.34687
D1,Altair/SP,-20.5238955,-49.0606135,3,71.66746
1,Altamira do Maranhão/MA,-4.1643006,-45.4674574,274,3345.95189
D1,Altamira do Maranhão/MA,-4.1643006,-45.4674574,6,73.26902
1,Altamira do Paraná/PR,-24.799114,-52.7128633,20,1189.06064
D1,Altamira do Paraná/PR,-24.799114,-52.7128633,2,118.90606
1,Altamira/PA,-3.204065,-52.209961,5017,4326.15613
D1,Altamira/PA,-3.204065,-52.209961,128,110.37432
1,Altaneira/CE,-6.9980933,-39.7385742,180,2352.94118
D1,Altaneira/CE,-6.9980933,-39.7385742,2,26.14379
1,Alterosa/MG,-21.249166,-46.143055,28,192.87732
D1,Alterosa/MG,-21.249166,-46.143055,2,13.77695
1,Altinho/PE,-8.4904095,-36.0607494,539,2345.10964
D1,Altinho/PE,-8.4904095,-36.0607494,11,47.85938
1,Altinópolis/SP,-21.021364,-47.3712,242,1493.55058
D1,Altinópolis/SP,-21.021364,-47.3712,8,49.37357
1,Alto Alegre do Maranhão/MA,-4.2055693,-44.4525287,392,1407.13619
D1,Alto Alegre do Maranhão/MA,-4.2055693,-44.4525287,13,46.66523
1,Alto Alegre do Pindaré/MA,-3.6698186,-45.8462153,1504,4708.38681
D1,Alto Alegre do Pindaré/MA,-3.6698186,-45.8462153,24,75.13383
1,Alto Alegre dos Parecis/RO,-12.1314515,-61.856265,221,1667.29536
D1,Alto Alegre dos Parecis/RO,-12.1314515,-61.856265,9,67.89891
1,Alto Alegre/RR,2.98858,-61.307167,755,4908.97269
D1,Alto Alegre/RR,2.98858,-61.307167,17,110.53316
1,Alto Alegre/RS,-31.780844700000003,-52.81311114489171,17,1053.93676
1,Alto Alegre/SP,-21.5820592,-50.1661976,78,1908.02348
D1,Alto Alegre/SP,-21.5820592,-50.1661976,3,73.38552
1,Alto Araguaia/MT,-17.3156528,-53.2169365,440,2269.79623
D1,Alto Araguaia/MT,-17.3156528,-53.2169365,8,41.26902
1,Alto Bela Vista/SC,-27.4320737,-51.905771,32,1661.47456
D1,Alto Bela Vista/SC,-27.4320737,-51.905771,1,51.92108
1,Alto Boa Vista/MT,-11.6723985,-51.3744431,94,1355.24798
D1,Alto Boa Vista/MT,-11.6723985,-51.3744431,3,43.25260
1,Alto Caparaó/MG,-20.4405661,-41.8683799,60,1017.98439
D1,Alto Caparaó/MG,-20.4405661,-41.8683799,1,16.96641
1,Alto Feliz/RS,-29.3785943,-51.3123751,46,1515.15152
1,Alto Garças/MT,-16.9469683,-53.529427,294,2419.55395
D1,Alto Garças/MT,-16.9469683,-53.529427,12,98.75730
1,Alto Horizonte/GO,-14.1954948,-49.3366993,206,3118.84936
D1,Alto Horizonte/GO,-14.1954948,-49.3366993,2,30.28009
1,Alto Jequitibá/MG,-20.423611,-41.966111,126,1517.88941
D1,Alto Jequitibá/MG,-20.423611,-41.966111,4,48.18697
1,Alto Longá/PI,-5.2549051,-42.2072388,237,1652.83493
D1,Alto Longá/PI,-5.2549051,-42.2072388,6,41.84392
1,Alto Paraguai/MT,-14.513712,-56.4936374,321,2797.87327
D1,Alto Paraguai/MT,-14.513712,-56.4936374,9,78.44504
1,Alto Paraná/PR,-23.131247,-52.318893,191,1285.41625
D1,Alto Paraná/PR,-23.131247,-52.318893,1,6.72993
1,Alto Paraíso de Goiás/GO,-14.1304779,-47.5100161,332,4318.41831
1,Alto Paraíso/PR,-23.508137,-53.728537,12,446.92737
1,Alto Paraíso/RO,-9.7240103,-63.3188123,403,1844.64686
D1,Alto Paraíso/RO,-9.7240103,-63.3188123,8,36.61830
1,Alto Parnaíba/MA,-9.112506,-45.9310154,394,3514.09204
D1,Alto Parnaíba/MA,-9.112506,-45.9310154,4,35.67606
1,Alto Piquiri/PR,-24.0239021,-53.4417448,122,1247.69892
D1,Alto Piquiri/PR,-24.0239021,-53.4417448,4,40.90816
1,Alto Rio Doce/MG,-21.0239537,-43.4133507,83,764.34294
D1,Alto Rio Doce/MG,-21.0239537,-43.4133507,2,18.41790
1,Alto Rio Novo/ES,-19.0577208,-41.0171518,273,3467.10693
D1,Alto Rio Novo/ES,-19.0577208,-41.0171518,13,165.10033
1,Alto Santo/CE,-5.5190371,-38.2719351,502,2919.28355
D1,Alto Santo/CE,-5.5190371,-38.2719351,13,75.59898
1,Alto Taquari/MT,-17.8269099,-53.2831736,416,3736.63882
D1,Alto Taquari/MT,-17.8269099,-53.2831736,6,53.89383
1,Alto do Rodrigues/RN,-5.290868,-36.7616726,568,3856.59967
D1,Alto do Rodrigues/RN,-5.290868,-36.7616726,18,122.21619
1,Altos/PI,-5.0393915,-42.4611694,1913,4711.24246
D1,Altos/PI,-5.0393915,-42.4611694,29,71.41978
1,Altônia/PR,-23.8722004,-53.894037,230,1037.15729
D1,Altônia/PR,-23.8722004,-53.894037,3,13.52814
1,Alumínio/SP,-23.5203479,-47.2575256,315,1678.47818
D1,Alumínio/SP,-23.5203479,-47.2575256,9,47.95652
1,Alvarenga/MG,-19.4175,-41.728334,136,3537.98127
D1,Alvarenga/MG,-19.4175,-41.728334,1,26.01457
1,Alvarães/AM,-3.214786,-64.8143124,1367,8427.86683
D1,Alvarães/AM,-3.214786,-64.8143124,20,123.30456
1,Alvinlândia/SP,-22.4431852,-49.7643596,27,834.10565
1,Alvinópolis/MG,-20.1105199,-43.0601805,79,520.79900
D1,Alvinópolis/MG,-20.1105199,-43.0601805,1,6.59239
1,Alvorada D'Oeste/RO,-11.346271,-62.284697,161,1141.35829
D1,Alvorada D'Oeste/RO,-11.346271,-62.284697,7,49.62427
1,Alvorada de Minas/MG,-18.7318587,-43.3641479,60,1664.35506
D1,Alvorada de Minas/MG,-18.7318587,-43.3641479,1,27.73925
1,Alvorada do Gurguéia/PI,-8.4465288,-43.8655915,80,1469.23783
D1,Alvorada do Gurguéia/PI,-8.4465288,-43.8655915,4,73.46189
1,Alvorada do Norte/GO,-14.483911,-46.4959897,291,3342.90638
D1,Alvorada do Norte/GO,-14.483911,-46.4959897,1,11.48765
1,Alvorada do Sul/PR,-22.7807269,-51.2307721,143,1243.15396
D1,Alvorada do Sul/PR,-22.7807269,-51.2307721,5,43.46692
1,Alvorada/RS,-29.9981184,-51.0772509,6002,2839.81226
D1,Alvorada/RS,-29.9981184,-51.0772509,191,90.37057
1,Alvorada/TO,-12.478465,-49.124926,552,6574.55931
D1,Alvorada/TO,-12.478465,-49.124926,10,119.10434
1,Além Paraíba/MG,-21.8760576,-42.6810473,659,1861.52934
D1,Além Paraíba/MG,-21.8760576,-42.6810473,19,53.67080
1,Amajari/RR,3.6523869,-61.4194315,512,3883.20061
D1,Amajari/RR,3.6523869,-61.4194315,16,121.35002
1,Amambai/MS,-23.1082701,-55.2284854,414,1039.52192
D1,Amambai/MS,-23.1082701,-55.2284854,7,17.57646
1,Amaporã/PR,-23.094272,-52.786597,37,584.33354
1,Amapá do Maranhão/MA,-1.6762114,-46.0109669,5,71.37759
1,Amapá/AP,2.0529997,-50.7930003,836,9099.81496
D1,Amapá/AP,2.0529997,-50.7930003,4,43.53978
1,Amaraji/PE,-8.373925,-35.4536527,320,1399.21294
D1,Amaraji/PE,-8.373925,-35.4536527,24,104.94097
1,Amaral Ferrador/RS,-30.8750633,-52.2542051,38,536.34439
D1,Amaral Ferrador/RS,-30.8750633,-52.2542051,1,14.11433
1,Amaralina/GO,-13.9236199,-49.2962411,16,416.12484
1,Amarante do Maranhão/MA,-5.56913,-46.747284,1153,2763.06645
D1,Amarante do Maranhão/MA,-5.56913,-46.747284,27,64.70320
1,Amarante/PI,-6.2459374,-42.8476238,547,3107.24835
D1,Amarante/PI,-6.2459374,-42.8476238,9,51.12474
1,Amargosa/BA,-13.03793715,-39.60796443875596,562,1501.02828
D1,Amargosa/BA,-13.03793715,-39.60796443875596,15,40.06303
1,Amaturá/AM,-3.3640509,-68.1994689,1025,8733.81050
D1,Amaturá/AM,-3.3640509,-68.1994689,10,85.20791
1,Americana/SP,-22.7392463,-47.3306032,5995,2477.08848
D1,Americana/SP,-22.7392463,-47.3306032,179,73.96144
1,Americano do Brasil/GO,-16.2515808,-49.9806104,148,2401.03829
D1,Americano do Brasil/GO,-16.2515808,-49.9806104,3,48.66970
1,Ametista do Sul/RS,-27.3617341,-53.1826575,94,1269.75550
1,Amontada/CE,-3.3634586,-39.8284791,874,1994.11349
D1,Amontada/CE,-3.3634586,-39.8284791,20,45.63189
1,Amorinópolis/GO,-16.6211308,-51.0949921,77,2508.96057
D1,Amorinópolis/GO,-16.6211308,-51.0949921,1,32.58390
1,Amparo de São Francisco/SE,-10.1299754,-36.9269099,76,3193.27731
D1,Amparo de São Francisco/SE,-10.1299754,-36.9269099,2,84.03361
1,Amparo do Serra/MG,-20.5070255,-42.8028462,13,277.89654
D1,Amparo do Serra/MG,-20.5070255,-42.8028462,1,21.37666
1,Amparo/PB,-7.56394725,-37.04652873235175,22,977.34340
1,Amparo/SP,-22.70111,-46.76444,1336,1838.27070
D1,Amparo/SP,-22.70111,-46.76444,35,48.15829
1,Ampére/PR,-25.9168712,-53.4742414,211,1092.64150
D1,Ampére/PR,-25.9168712,-53.4742414,4,20.71358
1,Amélia Rodrigues/BA,-12.4015388,-38.7516971,623,2487.22453
D1,Amélia Rodrigues/BA,-12.4015388,-38.7516971,12,47.90802
1,América Dourada/BA,-11.4515262,-41.4357517,183,1137.35239
D1,América Dourada/BA,-11.4515262,-41.4357517,1,6.21504
1,Américo Brasiliense/SP,-21.7297099,-48.1052092,873,2127.60772
D1,Américo Brasiliense/SP,-21.7297099,-48.1052092,15,36.55683
1,Américo de Campos/SP,-20.298476,-49.735904,341,5701.38773
D1,Américo de Campos/SP,-20.298476,-49.735904,12,200.63535
1,Anadia/AL,-9.6830208,-36.3052699,511,2915.66815
D1,Anadia/AL,-9.6830208,-36.3052699,8,45.64647
1,Anagé/BA,-14.6134669,-41.1376308,180,833.06336
D1,Anagé/BA,-14.6134669,-41.1376308,5,23.14065
1,Anahy/PR,-24.6450861,-53.1337957,43,1542.32425
1,Anajatuba/MA,-3.26441,-44.6179916,358,1326.51549
D1,Anajatuba/MA,-3.26441,-44.6179916,10,37.05351
1,Anajás/PA,-0.9878802,-49.9390114,674,2270.27755
D1,Anajás/PA,-0.9878802,-49.9390114,11,37.05201
1,Analândia/SP,-22.128917,-47.661939,40,791.13924
D1,Analândia/SP,-22.128917,-47.661939,2,39.55696
1,Anamã/AM,-3.5797356,-61.4049996,969,6943.25021
D1,Anamã/AM,-3.5797356,-61.4049996,1,7.16538
1,Ananindeua/PA,-1.374035,-48.4016623,9614,1795.17391
D1,Ananindeua/PA,-1.374035,-48.4016623,373,69.64842
1,Ananás/TO,-6.3663053,-48.080238,501,5278.12895
D1,Ananás/TO,-6.3663053,-48.080238,11,115.88706
1,Anapu/PA,-3.4668292,-51.2057035,1042,3642.46513
D1,Anapu/PA,-3.4668292,-51.2057035,23,80.39990
1,Anapurus/MA,-3.6751298,-43.1046001,771,4850.88713
D1,Anapurus/MA,-3.6751298,-43.1046001,6,37.75009
1,Anastácio/MS,-20.4832458,-55.8048448,832,3296.74684
D1,Anastácio/MS,-20.4832458,-55.8048448,23,91.13603
1,Anaurilândia/MS,-22.185169,-52.719056,43,473.77699
D1,Anaurilândia/MS,-22.185169,-52.719056,1,11.01807
1,Anchieta/ES,-20.8057672,-40.6454564,1299,4362.13439
D1,Anchieta/ES,-20.8057672,-40.6454564,25,83.95178
1,Anchieta/SC,-26.5350527,-53.3293938,46,827.78478
D1,Anchieta/SC,-26.5350527,-53.3293938,1,17.99532
1,Andaraí/BA,-12.8059674,-41.3322919,62,472.12915
1,Andirá/PR,-23.0494761,-50.2310027,345,1731.40620
D1,Andirá/PR,-23.0494761,-50.2310027,4,20.07427
1,Andorinha/BA,-10.3445708,-39.8334411,133,917.05164
D1,Andorinha/BA,-10.3445708,-39.8334411,3,20.68538
1,Andradas/MG,-22.0680484,-46.5688976,568,1372.11325
D1,Andradas/MG,-22.0680484,-46.5688976,18,43.48246
1,Andradina/SP,-20.896505,-51.3742765,1721,3008.63606
D1,Andradina/SP,-20.896505,-51.3742765,56,97.89867
1,Andrelândia/MG,-21.739722,-44.308889,100,819.26921
1,André da Rocha/RS,-28.6309124,-51.5733328,37,2755.02606
1,Angatuba/SP,-23.4938938,-48.4110675,361,1416.85309
D1,Angatuba/SP,-23.4938938,-48.4110675,9,35.32321
1,Angelim/PE,-8.8902038,-36.2872987,80,712.63139
D1,Angelim/PE,-8.8902038,-36.2872987,3,26.72368
1,Angelina/SC,-27.5805287,-48.9838759,132,2783.04870
1,Angelândia/MG,-17.7253,-42.2728,19,222.04043
1,Angical do Piauí/PI,-6.0872666,-42.7366138,183,2697.92127
D1,Angical do Piauí/PI,-6.0872666,-42.7366138,4,58.97096
1,Angical/BA,-12.005623,-44.7000236,258,1851.05467
D1,Angical/BA,-12.005623,-44.7000236,4,28.69852
1,Angico/TO,-6.3893733,-47.8656722,72,2084.53966
D1,Angico/TO,-6.3893733,-47.8656722,1,28.95194
1,Angicos/RN,-5.6666344,-36.6009064,182,1554.89107
D1,Angicos/RN,-5.6666344,-36.6009064,5,42.71679
1,Angra dos Reis/RJ,-23.0063966,-44.316326,6802,3285.29202
D1,Angra dos Reis/RJ,-23.0063966,-44.316326,217,104.80864
1,Anguera/BA,-12.1509425,-39.2452469,105,929.45030
1,Angélica/MS,-22.1588196,-53.7728504,156,1427.00329
D1,Angélica/MS,-22.1588196,-53.7728504,4,36.58983
1,Anhanguera/GO,-18.3338749,-48.220363,18,1551.72414
D1,Anhanguera/GO,-18.3338749,-48.220363,2,172.41379
1,Anhembi/SP,-22.7891096,-48.1316776,26,381.28758
D1,Anhembi/SP,-22.7891096,-48.1316776,1,14.66491
1,Anhumas/SP,-22.2956478,-51.3873401,106,2557.91506
1,Anicuns/GO,-16.4606451,-49.9572265,832,3785.08712
D1,Anicuns/GO,-16.4606451,-49.9572265,18,81.88890
1,Anita Garibaldi/SC,-27.6855032,-51.1293873,316,4542.18772
D1,Anita Garibaldi/SC,-27.6855032,-51.1293873,2,28.74802
1,Anitápolis/SC,-27.9041185,-49.1287395,65,2013.63073
1,Anori/AM,-3.7435254,-61.6605203,1126,5242.81790
D1,Anori/AM,-3.7435254,-61.6605203,15,69.84216
1,Anta Gorda/RS,-28.9718745,-52.0069187,96,1610.46804
1,Antas/BA,-10.4114649,-38.3308815,457,2346.11633
1,Antonina do Norte/CE,-6.7754187,-39.9879345,59,799.67471
D1,Antonina do Norte/CE,-6.7754187,-39.9879345,1,13.55381
1,Antonina/PR,-25.4298854,-48.7125431,843,4448.78358
D1,Antonina/PR,-25.4298854,-48.7125431,21,110.82379
1,Antônio Almeida/PI,-7.2186016,-44.1950248,243,7665.61514
D1,Antônio Almeida/PI,-7.2186016,-44.1950248,2,63.09148
1,Antônio Cardoso/BA,-12.4363122,-39.1200307,92,787.87360
D1,Antônio Cardoso/BA,-12.4363122,-39.1200307,3,25.69153
1,Antônio Carlos/MG,-21.318334,-43.746666,78,680.68767
D1,Antônio Carlos/MG,-21.318334,-43.746666,2,17.45353
1,Antônio Carlos/SC,-27.5168462,-48.7684715,589,6838.49994
D1,Antônio Carlos/SC,-27.5168462,-48.7684715,13,150.93463
1,Antônio Dias/MG,-19.6525,-42.872778,124,1336.92722
D1,Antônio Dias/MG,-19.6525,-42.872778,4,43.12668
1,Antônio Gonçalves/BA,-10.5715409,-40.2748824,215,1810.06904
D1,Antônio Gonçalves/BA,-10.5715409,-40.2748824,1,8.41893
1,Antônio João/MS,-22.1892837,-55.9508227,92,1019.95565
D1,Antônio João/MS,-22.1892837,-55.9508227,1,11.08647
1,Antônio Martins/RN,-6.2155812,-37.8890129,54,754.82248
D1,Antônio Martins/RN,-6.2155812,-37.8890129,1,13.97819
1,Antônio Olinto/PR,-25.9849006,-50.1974516,111,1494.54692
D1,Antônio Olinto/PR,-25.9849006,-50.1974516,1,13.46439
1,Antônio Prado de Minas/MG,-21.0171988,-42.1101106,13,819.15564
D1,Antônio Prado de Minas/MG,-21.0171988,-42.1101106,1,63.01197
1,Antônio Prado/RS,-28.8567806,-51.2801355,774,5933.30778
D1,Antônio Prado/RS,-28.8567806,-51.2801355,11,84.32350
1,Anápolis/GO,-16.3332828,-48.9525756,14614,3730.23085
D1,Anápolis/GO,-16.3332828,-48.9525756,383,97.76094
1,Anísio de Abreu/PI,-9.185643,-43.04941,159,1599.91950
D1,Anísio de Abreu/PI,-9.185643,-43.04941,1,10.06239
1,Aparecida d'Oeste/SP,-20.4498109,-50.8808706,305,7335.25734
D1,Aparecida d'Oeste/SP,-20.4498109,-50.8808706,8,192.40019
1,Aparecida de Goiânia/GO,-16.8226769,-49.2452546,38424,6510.93119
D1,Aparecida de Goiânia/GO,-16.8226769,-49.2452546,566,95.90847
1,Aparecida do Rio Doce/GO,-18.2980167,-51.1491312,103,4163.29830
D1,Aparecida do Rio Doce/GO,-18.2980167,-51.1491312,2,80.84074
1,Aparecida do Rio Negro/TO,-9.9513491,-47.9773786,82,1691.41914
D1,Aparecida do Rio Negro/TO,-9.9513491,-47.9773786,1,20.62706
1,Aparecida do Taboado/MS,-20.0840304,-51.1013943,1080,4142.85166
D1,Aparecida do Taboado/MS,-20.0840304,-51.1013943,20,76.71948
1,Aparecida/PB,-6.7859598, -38.0831353,411,4883.55513
D1,Aparecida/PB,-6.7859598, -38.0831353,6,71.29278
1,Aparecida/SP,-22.851552,-45.2340924,607,1677.49067
D1,Aparecida/SP,-22.851552,-45.2340924,18,49.74437
1,Aperibé/RJ,-21.6211928,-42.1028167,213,1789.76557
D1,Aperibé/RJ,-21.6211928,-42.1028167,7,58.81859
1,Apiacá/ES,-21.152272,-41.569297,216,2859.41223
D1,Apiacá/ES,-21.152272,-41.569297,5,66.19010
1,Apiacás/MT,-9.5678422,-57.394852,71,690.45998
D1,Apiacás/MT,-9.5678422,-57.394852,1,9.72479
1,Apiaí/SP,-24.5076527,-48.8461582,170,701.72542
D1,Apiaí/SP,-24.5076527,-48.8461582,6,24.76678
1,Apicum-Açu/MA,-1.5279295,-45.082278,199,1142.82433
D1,Apicum-Açu/MA,-1.5279295,-45.082278,3,17.22851
1,Apiúna/SC,-27.0374658,-49.3885037,222,2046.46018
D1,Apiúna/SC,-27.0374658,-49.3885037,5,46.09145
1,Apodi/RN,-5.6631109,-37.796927,2785,7763.28260
D1,Apodi/RN,-5.6631109,-37.796927,39,108.71383
1,Aporá/BA,-11.6599747,-38.0794757,241,1354.84596
D1,Aporá/BA,-11.6599747,-38.0794757,6,33.73060
1,Aporé/GO,-18.9642193,-51.92804,143,3379.01701
D1,Aporé/GO,-18.9642193,-51.92804,3,70.88847
1,Apuarema/BA,-13.8517897,-39.7457126,466,6381.81320
D1,Apuarema/BA,-13.8517897,-39.7457126,7,95.86415
1,Apucarana/PR,-23.5525327,-51.4610764,1406,1032.04780
D1,Apucarana/PR,-23.5525327,-51.4610764,54,39.63768
1,Apuiarés/CE,-3.9460303,-39.4313298,253,1724.37296
D1,Apuiarés/CE,-3.9460303,-39.4313298,11,74.97274
1,Apuí/AM,-7.1940195,-59.8830192,340,1520.64046
D1,Apuí/AM,-7.1940195,-59.8830192,4,17.88989
1,Aquidabã/SE,-10.2837579,-37.0188687,729,3362.39103
D1,Aquidabã/SE,-10.2837579,-37.0188687,17,78.40967
1,Aquidauana/MS,-20.473969,-55.7821375,2206,4593.05836
D1,Aquidauana/MS,-20.473969,-55.7821375,64,133.25283
1,Aquiraz/CE,-3.9063117,-38.387504,1211,1496.26243
D1,Aquiraz/CE,-3.9063117,-38.387504,36,44.48014
1,Arabutã/SC,-27.1587028,-52.1438142,85,1992.03187
D1,Arabutã/SC,-27.1587028,-52.1438142,2,46.87134
1,Aracaju/SE,-10.9162061,-37.0774655,41254,6204.46738
D1,Aracaju/SE,-10.9162061,-37.0774655,842,126.63406
1,Aracati/CE,-4.558259,-37.767894,1992,2656.88563
D1,Aracati/CE,-4.558259,-37.767894,54,72.02401
1,Aracatu/BA,-14.4274236,-41.4604105,169,1295.51552
D1,Aracatu/BA,-14.4274236,-41.4604105,1,7.66577
1,Araci/BA,-11.3356065,-38.9573261,1288,2356.90236
D1,Araci/BA,-11.3356065,-38.9573261,15,27.44840
1,Aracitaba/MG,-21.3425,-43.378611,12,582.80719
D1,Aracitaba/MG,-21.3425,-43.378611,3,145.70180
1,Aracoiaba/CE,-4.3702577,-38.8084313,842,3173.16751
D1,Aracoiaba/CE,-4.3702577,-38.8084313,15,56.52911
1,Aracruz/ES,-19.8245218,-40.2735025,5199,5042.62810
D1,Aracruz/ES,-19.8245218,-40.2735025,85,82.44343
1,Aragarças/GO,-15.8957166,-52.2514538,834,4113.84600
D1,Aragarças/GO,-15.8957166,-52.2514538,19,93.72071
1,Aragoiânia/GO,-16.9146388,-49.4499148,417,3972.94207
D1,Aragoiânia/GO,-16.9146388,-49.4499148,4,38.10976
1,Aragominas/TO,-7.1654101,-48.525488,235,4100.50602
D1,Aragominas/TO,-7.1654101,-48.525488,3,52.34689
1,Araguacema/TO,-8.8067391,-49.5560969,55,768.69322
D1,Araguacema/TO,-8.8067391,-49.5560969,1,13.97624
1,Araguaiana/MT,-15.729144,-51.834112,60,1929.88099
D1,Araguaiana/MT,-15.729144,-51.834112,2,64.32937
1,Araguainha/MT,-16.857016,-53.031778,5,528.54123
1,Araguanã/MA,-2.9508403,-45.6651986,559,3594.62414
D1,Araguanã/MA,-2.9508403,-45.6651986,3,19.29136
1,Araguanã/TO,-6.5799107,-48.6428482,173,2986.36285
D1,Araguanã/TO,-6.5799107,-48.6428482,8,138.09770
1,Araguapaz/GO,-15.0937927,-50.626417,196,2518.30914
D1,Araguapaz/GO,-15.0937927,-50.626417,6,77.09110
1,Araguari/MG,-18.6511256,-48.1933764,4704,3992.36155
D1,Araguari/MG,-18.6511256,-48.1933764,103,87.41778
1,Araguatins/TO,-5.6522925,-48.1158973,1039,2872.54631
D1,Araguatins/TO,-5.6522925,-48.1158973,30,82.94166
1,Araguaçu/TO,-12.928934,-49.823134,539,6365.89111
D1,Araguaçu/TO,-12.928934,-49.823134,9,106.29503
1,Araguaína/TO,-7.193241,-48.2018597,16508,9002.02311
D1,Araguaína/TO,-7.193241,-48.2018597,234,127.60319
1,Araioses/MA,-2.890914,-41.904993,589,1259.32736
D1,Araioses/MA,-2.890914,-41.904993,10,21.38077
1,Aral Moreira/MS,-22.951141,-55.6268421,150,1216.34771
D1,Aral Moreira/MS,-22.951141,-55.6268421,3,24.32695
1,Aramari/BA,-12.0907897,-38.4985065,182,1587.99407
D1,Aramari/BA,-12.0907897,-38.4985065,4,34.90097
1,Arambaré/RS,-30.9132252,-51.4994625,39,1094.89051
D1,Arambaré/RS,-30.9132252,-51.4994625,1,28.07412
1,Arame/MA,-4.8858769,-46.0102484,951,2902.57600
D1,Arame/MA,-4.8858769,-46.0102484,16,48.83409
1,Aramina/SP,-20.0876144,-47.789201,135,2387.26790
D1,Aramina/SP,-20.0876144,-47.789201,5,88.41733
1,Arandu/SP,-23.1345103,-49.0545651,55,864.10055
D1,Arandu/SP,-23.1345103,-49.0545651,3,47.13276
1,Arantina/MG,-21.911667,-44.255833,23,825.26014
D1,Arantina/MG,-21.911667,-44.255833,2,71.76175
1,Arapeí/SP,-22.6738889,-44.4477778,7,284.55285
D1,Arapeí/SP,-22.6738889,-44.4477778,1,40.65041
1,Arapiraca/AL,-9.754866,-36.661471,12825,5503.18176
D1,Arapiraca/AL,-9.754866,-36.661471,172,73.80485
1,Arapoema/TO,-7.6575001,-49.0641484,140,2116.08222
D1,Arapoema/TO,-7.6575001,-49.0641484,3,45.34462
1,Araponga/MG,-20.666667,-42.520556,8,94.64096
1,Arapongas/PR,-23.415296,-51.42592,3736,2993.34989
D1,Arapongas/PR,-23.415296,-51.42592,115,92.14005
1,Araporã/MG,-18.4318188,-49.188313,988,14254.79729
D1,Araporã/MG,-18.4318188,-49.188313,9,129.85139
1,Arapoti/PR,-24.1457957,-49.8224605,442,1561.83746
D1,Arapoti/PR,-24.1457957,-49.8224605,2,7.06714
1,Araputanga/MT,-15.4710868,-58.346796,588,3468.82190
D1,Araputanga/MT,-15.4710868,-58.346796,7,41.29550
1,Arapuá/MG,-19.034444,-46.155556,37,1305.11464
1,Arapuã/PR,-24.3079525,-51.7901941,50,1661.68162
D1,Arapuã/PR,-24.3079525,-51.7901941,1,33.23363
1,Araquari/SC,-26.3703324,-48.7210994,1127,2851.43204
D1,Araquari/SC,-26.3703324,-48.7210994,16,40.48173
1,Arara/PB,-6.8271895,-35.7605703,258,1905.18387
D1,Arara/PB,-6.8271895,-35.7605703,7,51.69104
1,Araranguá/SC,-28.9348832,-49.4858389,3710,5387.19561
D1,Araranguá/SC,-28.9348832,-49.4858389,54,78.41201
1,Araraquara/SP,-21.7886713,-48.1773096,6334,2657.55919
D1,Araraquara/SP,-21.7886713,-48.1773096,76,31.88735
1,Araras/SP,-22.3569477,-47.3838889,5454,4024.91403
D1,Araras/SP,-22.3569477,-47.3838889,86,63.46582
1,Ararendá/CE,-4.7504395,-40.8303611,297,2710.10129
D1,Ararendá/CE,-4.7504395,-40.8303611,4,36.49968
1,Arari/MA,-3.4547602,-44.7772723,292,975.54457
D1,Arari/MA,-3.4547602,-44.7772723,10,33.40906
1,Araricá/RS,-29.6168543,-50.929121,162,2807.13914
D1,Araricá/RS,-29.6168543,-50.929121,6,103.96812
1,Araripe/CE,-7.212861,-40.1359222,250,1154.52110
D1,Araripe/CE,-7.212861,-40.1359222,4,18.47234
1,Araripina/PE,-7.5768582,-40.5038509,2546,3000.09427
D1,Araripina/PE,-7.5768582,-40.5038509,44,51.84766
1,Araruama/RJ,-22.8733203,-42.3428897,1959,1458.75064
D1,Araruama/RJ,-22.8733203,-42.3428897,81,60.31588
1,Araruna/PB,-6.5321155,-35.7397595,307,1500.26878
D1,Araruna/PB,-6.5321155,-35.7397595,8,39.09495
1,Araruna/PR,-23.9320308,-52.4976047,256,1828.57143
D1,Araruna/PR,-23.9320308,-52.4976047,9,64.28571
1,Arataca/BA,-15.2617424,-39.4122943,260,2372.04635
D1,Arataca/BA,-15.2617424,-39.4122943,9,82.10930
1,Aratiba/RS,-27.3955734,-52.3024325,45,727.09646
D1,Aratiba/RS,-27.3955734,-52.3024325,3,48.47310
1,Aratuba/CE,-4.4195958,-39.0463737,260,2203.01644
D1,Aratuba/CE,-4.4195958,-39.0463737,2,16.94628
1,Aratuípe/BA,-13.077137,-39.0010786,168,1901.09766
D1,Aratuípe/BA,-13.077137,-39.0010786,6,67.89634
1,Araucária/PR,-25.5861107,-49.4051209,6877,4703.37998
D1,Araucária/PR,-25.5861107,-49.4051209,86,58.81790
1,Arauá/SE,-11.2644014,-37.6181058,331,3327.63647
D1,Arauá/SE,-11.2644014,-37.6181058,9,90.47954
1,Araxá/MG,-19.5928536,-46.940241,2872,2675.68499
D1,Araxá/MG,-19.5928536,-46.940241,40,37.26581
1,Araçagi/PB,-6.8519969,-35.3835602,565,3339.04616
D1,Araçagi/PB,-6.8519969,-35.3835602,6,35.45890
1,Araçariguama/SP,-23.438611,-47.061389,447,1955.38058
D1,Araçariguama/SP,-23.438611,-47.061389,10,43.74453
1,Araçatuba/SP,-21.207992,-50.4390225,8221,4149.31686
D1,Araçatuba/SP,-21.207992,-50.4390225,190,95.89712
1,Araçaí/MG,-19.200833,-44.2475,5,212.40442
1,Araçoiaba da Serra/SP,-23.5045367,-47.6168158,719,2067.51783
D1,Araçoiaba da Serra/SP,-23.5045367,-47.6168158,15,43.13320
1,Araçoiaba/PE,-7.7856903,-35.0898881,176,848.88825
D1,Araçoiaba/PE,-7.7856903,-35.0898881,20,96.46457
1,Araçu/GO,-16.3561579,-49.6815269,87,2495.69707
D1,Araçu/GO,-16.3561579,-49.6815269,3,86.05852
1,Araçuaí/MG,-16.8484451,-42.0661868,139,378.62279
D1,Araçuaí/MG,-16.8484451,-42.0661868,2,5.44781
1,Araçás/BA,-12.2139176,-38.2026159,301,2465.59633
D1,Araçás/BA,-12.2139176,-38.2026159,5,40.95675
1,Araújos/MG,-19.948055,-45.165556,89,946.70780
D1,Araújos/MG,-19.948055,-45.165556,1,10.63717
1,Arceburgo/MG,-21.364444,-46.939722,128,1176.14628
D1,Arceburgo/MG,-21.364444,-46.939722,2,18.37729
1,Arco-Íris/SP,-21.7741308,-50.4668814,12,676.81895
1,Arcos/MG,-20.282223,-45.539444,637,1577.51362
D1,Arcos/MG,-20.282223,-45.539444,15,37.14710
1,Arcoverde/PE,-8.415192,-37.057748,2338,3124.74941
D1,Arcoverde/PE,-8.415192,-37.057748,59,78.85381
1,Areado/MG,-21.3582771,-46.1476688,27,177.85390
D1,Areado/MG,-21.3582771,-46.1476688,3,19.76154
1,Areal/RJ,-22.2314922,-43.1056264,296,2336.41171
D1,Areal/RJ,-22.2314922,-43.1056264,9,71.03955
1,Arealva/SP,-22.0301906,-48.9111936,158,1834.43632
D1,Arealva/SP,-22.0301906,-48.9111936,2,23.22071
1,Areia Branca/RN,-4.9506652,-37.1263312,893,3193.04895
D1,Areia Branca/RN,-4.9506652,-37.1263312,53,189.50906
1,Areia Branca/SE,-10.7591455,-37.3148072,795,4254.52210
D1,Areia Branca/SE,-10.7591455,-37.3148072,19,101.68040
1,Areia de Baraúnas/PB,-7.1233949,-36.9446216,13,614.36673
1,Areia/PB,-6.9680243,-35.6994783,542,2392.30226
D1,Areia/PB,-6.9680243,-35.6994783,5,22.06921
1,Areial/PB,-7.0501306,-35.9245244,100,1423.08240
D1,Areial/PB,-7.0501306,-35.9245244,2,28.46165
1,Areias/SP,-22.5800929,-44.6975127,57,1463.03901
1,Areiópolis/SP,-22.6758064,-48.6673653,151,1353.28912
D1,Areiópolis/SP,-22.6758064,-48.6673653,4,35.84872
1,Arenápolis/MT,-14.4610369,-56.8432806,439,4620.07998
D1,Arenápolis/MT,-14.4610369,-56.8432806,6,63.14460
1,Arenópolis/GO,-16.3859286,-51.55937,32,1261.82965
1,Argirita/MG,-21.612761,-42.8371922,85,3143.49112
D1,Argirita/MG,-21.612761,-42.8371922,3,110.94675
1,Aricanduva/MG,-17.8678,-42.5569,3,56.93680
1,Arinos/MG,-15.917223,-46.106111,132,738.99899
D1,Arinos/MG,-15.917223,-46.106111,3,16.79543
1,Aripuanã/MT,-10.175806,-59.4439663,843,3711.36744
D1,Aripuanã/MT,-10.175806,-59.4439663,15,66.03857
1,Ariquemes/RO,-9.9076522,-63.033069,6280,5733.95542
D1,Ariquemes/RO,-9.9076522,-63.033069,106,96.78332
1,Ariranha do Ivaí/PR,-24.3834527,-51.5876772,28,1355.27590
D1,Ariranha do Ivaí/PR,-24.3834527,-51.5876772,1,48.40271
1,Ariranha/SP,-21.18716,-48.790418,186,1905.54246
D1,Ariranha/SP,-21.18716,-48.790418,7,71.71396
1,Armazém/SC,-28.2624996,-49.0190126,425,4852.15207
D1,Armazém/SC,-28.2624996,-49.0190126,6,68.50097
1,Armação dos Búzios/RJ,-22.7597805,-41.8875267,601,1743.19111
D1,Armação dos Búzios/RJ,-22.7597805,-41.8875267,18,52.20872
1,Arneiroz/CE,-6.3235099,-40.1603859,63,803.16165
D1,Arneiroz/CE,-6.3235099,-40.1603859,4,50.99439
1,Aroazes/PI,-6.1108814,-41.7886137,133,2282.47812
D1,Aroazes/PI,-6.1108814,-41.7886137,4,68.64596
1,Aroeiras do Itaim/PI,-7.2797031,-41.5629681,91,3567.22854
D1,Aroeiras do Itaim/PI,-7.2797031,-41.5629681,1,39.20031
1,Aroeiras/PB,-7.5462904,-35.7080002,254,1328.72986
D1,Aroeiras/PB,-7.5462904,-35.7080002,1,5.23122
1,Arraial do Cabo/RJ,-22.9662839,-42.024427,266,869.47995
D1,Arraial do Cabo/RJ,-22.9662839,-42.024427,6,19.61233
1,Arraial/PI,-6.6541632,-42.5335332,68,1440.67797
D1,Arraial/PI,-6.6541632,-42.5335332,1,21.18644
1,Arraias/TO,-12.9287788,-46.9437231,151,1433.45358
1,Arroio Grande/RS,-32.2384246,-53.0866661,152,833.42472
D1,Arroio Grande/RS,-32.2384246,-53.0866661,2,10.96611
1,Arroio Trinta/SC,-26.9301976,-51.334928,123,3465.76500
1,Arroio do Meio/RS,-29.4020392,-51.9444993,717,3419.65946
D1,Arroio do Meio/RS,-29.4020392,-51.9444993,2,9.53880
1,Arroio do Padre/RS,-31.4428773,-52.4228985,22,745.51000
1,Arroio do Sal/RS,-29.549852,-49.8874395,182,1770.60025
D1,Arroio do Sal/RS,-29.549852,-49.8874395,6,58.37144
1,Arroio do Tigre/RS,-29.334158,-53.0888935,54,402.59450
D1,Arroio do Tigre/RS,-29.334158,-53.0888935,1,7.45545
1,Arroio dos Ratos/RS,-30.0894524,-51.7265541,237,1671.72180
D1,Arroio dos Ratos/RS,-30.0894524,-51.7265541,13,91.69782
1,Artur Nogueira/SP,-22.572737,-47.172679,1269,2293.09722
D1,Artur Nogueira/SP,-22.572737,-47.172679,30,54.21034
1,Aruanã/GO,-14.9162439,-51.0715692,163,1612.26508
D1,Aruanã/GO,-14.9162439,-51.0715692,1,9.89120
1,Arujá/SP,-23.396266,-46.3175449,2492,2733.74508
D1,Arujá/SP,-23.396266,-46.3175449,99,108.60384
1,Arvoredo/SC,-27.0752908,-52.4571847,75,3357.20680
D1,Arvoredo/SC,-27.0752908,-52.4571847,1,44.76276
1,Arvorezinha/RS,-28.87369,-52.17808,205,1966.80418
D1,Arvorezinha/RS,-28.87369,-52.17808,6,57.56500
1,Arês/RN,-6.1969216,-35.1642968,325,2254.28314
D1,Arês/RN,-6.1969216,-35.1642968,9,62.42630
1,Ascurra/SC,-26.9569975,-49.3767752,259,3246.42768
D1,Ascurra/SC,-26.9569975,-49.3767752,2,25.06894
1,Aspásia/SP,-20.160028,-50.728046,49,2695.26953
D1,Aspásia/SP,-20.160028,-50.728046,2,110.01100
1,Assaré/CE,-6.8746791,-39.8741385,623,2653.54800
D1,Assaré/CE,-6.8746791,-39.8741385,9,38.33376
1,Assaí/PR,-23.3736041,-50.8454929,370,2474.25438
D1,Assaí/PR,-23.3736041,-50.8454929,12,80.24609
1,Assis Brasil/AC,-10.9409203,-69.5672108,731,9702.68118
D1,Assis Brasil/AC,-10.9409203,-69.5672108,9,119.45846
1,Assis Chateaubriand/PR,-24.4054826,-53.5120468,657,1970.60588
D1,Assis Chateaubriand/PR,-24.4054826,-53.5120468,8,23.99520
1,Assis/SP,-22.6620892,-50.420623,1747,1662.43208
D1,Assis/SP,-22.6620892,-50.420623,29,27.59618
1,Assunção do Piauí/PI,-5.8610212,-41.0485091,140,1780.49091
D1,Assunção do Piauí/PI,-5.8610212,-41.0485091,2,25.43558
1,Assunção/PB,-7.073396,-36.7274003,47,1166.54257
1,Astolfo Dutra/MG,-21.3132636,-42.8624102,334,2340.57463
D1,Astolfo Dutra/MG,-21.3132636,-42.8624102,4,28.03083
1,Astorga/PR,-23.2350184,-51.6647074,578,2205.34931
D1,Astorga/PR,-23.2350184,-51.6647074,9,34.33935
1,Atalaia do Norte/AM,-4.3658547,-70.1908742,1490,7304.63771
D1,Atalaia do Norte/AM,-4.3658547,-70.1908742,4,19.60977
1,Atalaia/AL,-9.5029595,-36.0219316,640,1351.20870
D1,Atalaia/AL,-9.5029595,-36.0219316,23,48.55906
1,Atalaia/PR,-23.1513833,-52.0529697,102,2628.18861
D1,Atalaia/PR,-23.1513833,-52.0529697,3,77.29967
1,Atalanta/SC,-27.421916,-49.778863,58,1815.33646
1,Ataléia/MG,-18.04432,-41.1110524,195,1538.09749
D1,Ataléia/MG,-18.04432,-41.1110524,4,31.55072
1,Atibaia/SP,-23.1177393,-46.5547861,2604,1807.22892
D1,Atibaia/SP,-23.1177393,-46.5547861,66,45.80534
1,Atilio Vivacqua/ES,-20.9139369,-41.1947519,411,3395.29120
D1,Atilio Vivacqua/ES,-20.9139369,-41.1947519,9,74.34944
1,Augustinópolis/TO,-5.4662267,-47.8897519,728,3904.95092
D1,Augustinópolis/TO,-5.4662267,-47.8897519,10,53.63944
1,Augusto Corrêa/PA,-1.0229335,-46.6404029,1408,3029.84657
D1,Augusto Corrêa/PA,-1.0229335,-46.6404029,21,45.18947
1,Augusto Pestana/RS,-28.5148413,-53.9906433,59,893.66859
D1,Augusto Pestana/RS,-28.5148413,-53.9906433,2,30.29385
1,Augusto de Lima/MG,-18.1092963,-44.2651945,41,845.18656
1,Aurelino Leal/BA,-14.3167137,-39.3256107,489,4327.81662
D1,Aurelino Leal/BA,-14.3167137,-39.3256107,11,97.35375
1,Auriflama/SP,-20.6840418,-50.5554616,549,3599.29194
D1,Auriflama/SP,-20.6840418,-50.5554616,14,91.78522
1,Aurilândia/GO,-16.6772599,-50.4641231,65,2125.57227
D1,Aurilândia/GO,-16.6772599,-50.4641231,1,32.70111
1,Aurora do Pará/PA,-2.1323199,-47.558436,684,2152.77122
D1,Aurora do Pará/PA,-2.1323199,-47.558436,8,25.17861
1,Aurora do Tocantins/TO,-12.71045,-46.407604,57,1506.74068
1,Aurora/CE,-6.9426019,-38.9693765,652,2649.32954
D1,Aurora/CE,-6.9426019,-38.9693765,20,81.26778
1,Aurora/SC,-27.3166417,-49.6368502,121,2129.15714
D1,Aurora/SC,-27.3166417,-49.6368502,1,17.59634
1,Autazes/AM,-3.5833283,-59.1301518,1478,3668.40407
D1,Autazes/AM,-3.5833283,-59.1301518,37,91.83420
1,Avanhandava/SP,-21.4603331,-49.9465156,256,1847.17512
D1,Avanhandava/SP,-21.4603331,-49.9465156,8,57.72422
1,Avaré/SP,-23.1045215,-48.9259103,1003,1099.39495
D1,Avaré/SP,-23.1045215,-48.9259103,20,21.92213
1,Avaí/SP,-22.1564662,-49.3316395,126,2317.88079
D1,Avaí/SP,-22.1564662,-49.3316395,3,55.18764
1,Aveiro/PA,-3.6049239,-55.3310742,448,2731.04121
D1,Aveiro/PA,-3.6049239,-55.3310742,5,30.48037
1,Avelino Lopes/PI,-10.1346855,-43.9489525,86,759.31485
D1,Avelino Lopes/PI,-10.1346855,-43.9489525,8,70.63394
1,Avelinópolis/GO,-16.4672409,-49.7578661,117,4856.78705
D1,Avelinópolis/GO,-16.4672409,-49.7578661,1,41.51100
1,Axixá do Tocantins/TO,-5.612747,-47.77007,524,5354.04107
D1,Axixá do Tocantins/TO,-5.612747,-47.77007,4,40.87054
1,Axixá/MA,-2.8379465,-44.0561053,142,1165.55857
D1,Axixá/MA,-2.8379465,-44.0561053,3,24.62448
1,Açailândia/MA,-4.9514278,-47.4844564,3579,3163.86878
D1,Açailândia/MA,-4.9514278,-47.4844564,94,83.09686
1,Açu/RN,-5.5836157,-36.9139541,1949,3338.24335
D1,Açu/RN,-5.5836157,-36.9139541,75,128.45985
1,Açucena/MG,-19.073056,-42.546666,124,1323.65500
D1,Açucena/MG,-19.073056,-42.546666,4,42.69855
1,Babaçulândia/TO,-7.2034355,-47.761613,422,3956.49728
D1,Babaçulândia/TO,-7.2034355,-47.761613,4,37.50234
1,Bacabal/MA,-4.2318132,-44.781167,3579,3415.40223
D1,Bacabal/MA,-4.2318132,-44.781167,70,66.80027
1,Bacabeira/MA,-2.9775747,-44.3155943,155,898.44656
D1,Bacabeira/MA,-2.9775747,-44.3155943,3,17.38929
1,Bacuri/MA,-1.728894,-45.1417148,425,2278.33173
D1,Bacuri/MA,-1.728894,-45.1417148,3,16.08234
1,Bacurituba/MA,-2.7082587,-44.7381309,75,1322.75132
1,Bady Bassitt/SP,-20.9178969,-49.4517911,1040,5855.52615
D1,Bady Bassitt/SP,-20.9178969,-49.4517911,22,123.86690
1,Baependi/MG,-21.959162,-44.8899249,170,885.46278
D1,Baependi/MG,-21.959162,-44.8899249,6,31.25163
1,Bagre/PA,-1.8994498,-50.2103844,454,1449.32163
D1,Bagre/PA,-1.8994498,-50.2103844,10,31.92338
1,Bagé/RS,-31.3314264,-54.1062808,1812,1493.38608
D1,Bagé/RS,-31.3314264,-54.1062808,21,17.30745
1,Baianópolis/BA,-12.3067564,-44.5383591,158,1134.32407
D1,Baianópolis/BA,-12.3067564,-44.5383591,2,14.35853
1,Baixa Grande do Ribeiro/PI,-7.862861,-45.2113289,1453,12449.66155
D1,Baixa Grande do Ribeiro/PI,-7.862861,-45.2113289,13,111.38720
1,Baixa Grande/BA,-11.9630941,-40.1657537,121,591.71598
D1,Baixa Grande/BA,-11.9630941,-40.1657537,2,9.78043
1,Baixio/CE,-6.7303544,-38.7170095,113,1792.79708
D1,Baixio/CE,-6.7303544,-38.7170095,3,47.59638
1,Baixo Guandu/ES,-19.5138322,-41.0182089,1109,3562.25106
D1,Baixo Guandu/ES,-19.5138322,-41.0182089,23,73.87897
1,Baião/PA,-2.7903479,-49.6702845,418,862.58487
D1,Baião/PA,-2.7903479,-49.6702845,15,30.95400
1,Balbinos/SP,-21.9006253,-49.3583966,234,3943.37715
D1,Balbinos/SP,-21.9006253,-49.3583966,3,50.55612
1,Baldim/MG,-19.2913568,-43.9558262,140,1794.18172
D1,Baldim/MG,-19.2913568,-43.9558262,5,64.07792
1,Baliza/GO,-16.1978119,-52.542789,40,757.57576
1,Balneário Arroio do Silva/SC,-28.9815269,-49.4189932,636,4735.66642
D1,Balneário Arroio do Silva/SC,-28.9815269,-49.4189932,8,59.56813
1,Balneário Barra do Sul/SC,-26.459842,-48.6061471,541,4902.58269
D1,Balneário Barra do Sul/SC,-26.459842,-48.6061471,8,72.49660
1,Balneário Camboriú/SC,-26.9924395,-48.6339782,11383,7807.48443
D1,Balneário Camboriú/SC,-26.9924395,-48.6339782,113,77.50556
1,Balneário Gaivota/SC,-29.1553098,-49.5808712,419,3721.13677
D1,Balneário Gaivota/SC,-29.1553098,-49.5808712,8,71.04796
1,Balneário Pinhal/RS,-30.2482978,-50.234585,321,2234.90914
D1,Balneário Pinhal/RS,-30.2482978,-50.234585,5,34.81167
1,Balneário Piçarras/SC,-26.7638889,-48.6716667,1316,5535.92462
D1,Balneário Piçarras/SC,-26.7638889,-48.6716667,10,42.06630
1,Balneário Rincão/SC,-28.8235718,-49.2241642,509,3931.71636
D1,Balneário Rincão/SC,-28.8235718,-49.2241642,10,77.24394
1,Balsa Nova/PR,-25.5842234,-49.6312741,293,2238.00794
D1,Balsa Nova/PR,-25.5842234,-49.6312741,8,61.10602
1,Balsas/MA,-7.53214,-46.037163,6708,6992.67166
D1,Balsas/MA,-7.53214,-46.037163,82,85.47989
1,Bambuí/MG,-20.0131996,-45.9777034,86,359.86275
D1,Bambuí/MG,-20.0131996,-45.9777034,1,4.18445
1,Banabuiú/CE,-5.3046404,-38.919766,607,3324.93427
D1,Banabuiú/CE,-5.3046404,-38.919766,4,21.91060
1,Bananal/SP,-22.6828195,-44.3221095,152,1382.69808
D1,Bananal/SP,-22.6828195,-44.3221095,1,9.09670
1,Bananeiras/PB,-6.7537682,-35.6338343,484,2275.61239
D1,Bananeiras/PB,-6.7537682,-35.6338343,2,9.40336
1,Bandeira do Sul/MG,-21.728056,-46.385555,57,986.50052
D1,Bandeira do Sul/MG,-21.728056,-46.385555,1,17.30703
1,Bandeira/MG,-15.884444,-40.559167,202,4238.35501
D1,Bandeira/MG,-15.884444,-40.559167,1,20.98196
1,Bandeirante/SC,-26.7677402,-53.6397596,20,755.28701
1,Bandeirantes do Tocantins/TO,-7.7635698,-48.579148,91,2533.40757
D1,Bandeirantes do Tocantins/TO,-7.7635698,-48.579148,1,27.83964
1,Bandeirantes/MS,-19.9179623,-54.3646768,92,1266.17121
D1,Bandeirantes/MS,-19.9179623,-54.3646768,1,13.76273
1,Bandeirantes/PR,-23.107788,-50.370407,1122,3594.88642
D1,Bandeirantes/PR,-23.107788,-50.370407,38,121.75195
1,Bannach/PA,-7.3508505,-50.4064531,112,3433.47639
D1,Bannach/PA,-7.3508505,-50.4064531,2,61.31208
1,Banzaê/BA,-10.5827616,-38.6122305,599,4524.16918
D1,Banzaê/BA,-10.5827616,-38.6122305,3,22.65861
1,Baraúna/PB,-6.643394,-36.2531932,144,2900.88638
1,Baraúna/RN,-5.0775002,-37.61752,576,2003.68734
D1,Baraúna/RN,-5.0775002,-37.61752,15,52.17936
1,Barbacena/MG,-21.2254524,-43.7735087,1228,888.54158
D1,Barbacena/MG,-21.2254524,-43.7735087,23,16.64207
1,Barbalha/CE,-7.3121067,-39.3036427,2282,3727.05298
D1,Barbalha/CE,-7.3121067,-39.3036427,57,93.09466
1,Barbosa Ferraz/PR,-24.0287182,-52.00811,199,1741.64187
D1,Barbosa Ferraz/PR,-24.0287182,-52.00811,4,35.00788
1,Barbosa/SP,-21.265661,-49.951816,133,1780.93198
D1,Barbosa/SP,-21.265661,-49.951816,1,13.39047
1,Barcarena/PA,-1.5107945,-48.6190679,4538,3572.46885
D1,Barcarena/PA,-1.5107945,-48.6190679,116,91.31917
1,Barcelona/RN,-5.9514918,-35.9260284,36,901.35203
D1,Barcelona/RN,-5.9514918,-35.9260284,3,75.11267
1,Barcelos/AM,-0.9729214,-62.925635,2839,10272.08915
D1,Barcelos/AM,-0.9729214,-62.925635,28,101.30979
1,Bariri/SP,-22.0746355,-48.7394852,1189,3343.83261
D1,Bariri/SP,-22.0746355,-48.7394852,29,81.55689
1,Barra Bonita/SC,-26.6526364,-53.4419581,6,363.41611
1,Barra Bonita/SP,-22.490859,-48.558349,1091,3019.98561
D1,Barra Bonita/SP,-22.490859,-48.558349,24,66.43415
1,Barra D'Alcântara/PI,-6.5209258,-42.1071089,20,506.07287
D1,Barra D'Alcântara/PI,-6.5209258,-42.1071089,1,25.30364
1,Barra Funda/RS,-27.9230048,-53.0401045,132,5174.44140
D1,Barra Funda/RS,-27.9230048,-53.0401045,3,117.60094
1,Barra Longa/MG,-20.2833541,-43.0423516,91,1814.55633
1,Barra Mansa/RJ,-22.5394843,-44.1735129,4209,2277.19076
D1,Barra Mansa/RJ,-22.5394843,-44.1735129,187,101.17241
1,Barra Velha/SC,-26.6338203,-48.6835001,1235,4135.96785
D1,Barra Velha/SC,-26.6338203,-48.6835001,19,63.63027
1,Barra da Estiva/BA,-13.6269662,-41.3278287,223,1093.56610
1,Barra de Guabiraba/PE,-8.4173522,-35.6626669,196,1350.79256
D1,Barra de Guabiraba/PE,-8.4173522,-35.6626669,11,75.80979
1,Barra de Santa Rosa/PB,-6.7218007,-36.0564638,146,942.11783
D1,Barra de Santa Rosa/PB,-6.7218007,-36.0564638,2,12.90572
1,Barra de Santana/PB,-7.5230865,-35.9988518,105,1257.63564
D1,Barra de Santana/PB,-7.5230865,-35.9988518,2,23.95496
1,Barra de Santo Antônio/AL,-9.4038098,-35.5117693,136,846.40279
D1,Barra de Santo Antônio/AL,-9.4038098,-35.5117693,14,87.12970
1,Barra de São Francisco/ES,-18.7570902,-40.8916119,1216,2703.48385
D1,Barra de São Francisco/ES,-18.7570902,-40.8916119,43,95.60017
1,Barra de São Miguel/AL,-9.8261357,-35.8837777,165,1969.44378
D1,Barra de São Miguel/AL,-9.8261357,-35.8837777,5,59.68011
1,Barra de São Miguel/PB,-7.7528088,-36.3170996,86,1417.97197
D1,Barra de São Miguel/PB,-7.7528088,-36.3170996,1,16.48805
1,Barra do Bugres/MT,-15.0683712,-57.1853688,1101,3118.36180
D1,Barra do Bugres/MT,-15.0683712,-57.1853688,22,62.31059
1,Barra do Chapéu/SP,-24.472203,-49.023784,51,885.41667
1,Barra do Choça/BA,-14.8638173,-40.5761637,573,1836.00884
D1,Barra do Choça/BA,-14.8638173,-40.5761637,6,19.22522
1,Barra do Corda/MA,-5.496823,-45.248496,4082,4612.84636
D1,Barra do Corda/MA,-5.496823,-45.248496,45,50.85205
1,Barra do Garças/MT,-15.8916033,-52.2615413,2705,4424.63401
D1,Barra do Garças/MT,-15.8916033,-52.2615413,116,189.74401
1,Barra do Guarita/RS,-27.1888016,-53.7147086,62,1903.59226
1,Barra do Jacaré/PR,-23.1151788,-50.1813945,28,1006.83207
1,Barra do Mendes/BA,-11.8053298,-42.057037,95,686.76354
1,Barra do Ouro/TO,-7.7113784,-47.6743925,79,1705.52677
D1,Barra do Ouro/TO,-7.7113784,-47.6743925,5,107.94473
1,Barra do Piraí/RJ,-22.4703403,-43.8263256,1384,1373.50641
D1,Barra do Piraí/RJ,-22.4703403,-43.8263256,69,68.47684
1,Barra do Quaraí/RS,-30.208947,-57.5505128,132,3122.78211
D1,Barra do Quaraí/RS,-30.208947,-57.5505128,1,23.65744
1,Barra do Ribeiro/RS,-30.2930206,-51.301437,196,1445.85423
D1,Barra do Ribeiro/RS,-30.2930206,-51.301437,16,118.02892
1,Barra do Rio Azul/RS,-27.4101581,-52.4117471,18,1087.61329
1,Barra do Rocha/BA,-14.2090974,-39.6004395,127,2263.00784
D1,Barra do Rocha/BA,-14.2090974,-39.6004395,1,17.81896
1,Barra do Turvo/SP,-24.756421,-48.5056942,183,2397.79874
D1,Barra do Turvo/SP,-24.756421,-48.5056942,5,65.51363
1,Barra dos Coqueiros/SE,-10.9075694,-37.0386249,1495,4833.49499
D1,Barra dos Coqueiros/SE,-10.9075694,-37.0386249,27,87.29389
1,Barra/BA,-11.0892702,-43.1420453,480,890.37284
D1,Barra/BA,-11.0892702,-43.1420453,8,14.83955
1,Barracão/PR,-26.252395,-53.6349576,132,1280.06206
D1,Barracão/PR,-26.252395,-53.6349576,2,19.39488
1,Barracão/RS,-27.6728964,-51.4582928,89,1693.30289
D1,Barracão/RS,-27.6728964,-51.4582928,3,57.07763
1,Barras/PI,-4.2446153,-42.2920241,3015,6389.74250
D1,Barras/PI,-4.2446153,-42.2920241,57,120.80110
1,Barreira/CE,-4.2883361,-38.641094,356,1577.10539
D1,Barreira/CE,-4.2883361,-38.641094,20,88.60143
1,Barreiras do Piauí/PI,-9.9224524,-45.4763776,32,954.65394
D1,Barreiras do Piauí/PI,-9.9224524,-45.4763776,1,29.83294
1,Barreiras/BA,-12.1440031,-44.9967406,6215,3959.22918
D1,Barreiras/BA,-12.1440031,-44.9967406,98,62.43032
1,Barreirinha/AM,-2.798863,-57.067897,1382,4254.53314
D1,Barreirinha/AM,-2.798863,-57.067897,27,83.12040
1,Barreirinhas/MA,-2.7541271,-42.8259693,1309,2070.64555
D1,Barreirinhas/MA,-2.7541271,-42.8259693,26,41.12818
1,Barreiros/PE,-8.8159644,-35.1831905,354,827.79908
D1,Barreiros/PE,-8.8159644,-35.1831905,41,95.87504
1,Barretos/SP,-20.5531437,-48.5697509,5548,4516.70154
D1,Barretos/SP,-20.5531437,-48.5697509,152,123.74525
1,Barrinha/SP,-21.1898849,-48.1550642,809,2438.21579
D1,Barrinha/SP,-21.1898849,-48.1550642,32,96.44364
1,Barro Alto/BA,-11.7618025,-41.9094904,157,1042.91218
D1,Barro Alto/BA,-11.7618025,-41.9094904,1,6.64275
1,Barro Alto/GO,-14.9696025,-48.9190985,588,5154.27770
D1,Barro Alto/GO,-14.9696025,-48.9190985,7,61.36045
1,Barro Duro/PI,-5.8180139,-42.5106589,460,6546.17902
D1,Barro Duro/PI,-5.8180139,-42.5106589,7,99.61577
1,Barro Preto/BA,-14.8068289,-39.4727588,281,5157.85609
D1,Barro Preto/BA,-14.8068289,-39.4727588,6,110.13216
1,Barro/CE,-7.1713587,-38.7742136,425,1867.47517
D1,Barro/CE,-7.1713587,-38.7742136,9,39.54653
1,Barrocas/BA,-11.5165,-39.099282894736845,184,1142.50233
1,Barrolândia/TO,-9.837246,-48.7264346,231,4087.77208
D1,Barrolândia/TO,-9.837246,-48.7264346,4,70.78393
1,Barroquinha/CE,-3.0200371,-41.1339229,807,5364.26482
D1,Barroquinha/CE,-3.0200371,-41.1339229,20,132.94337
1,Barros Cassal/RS,-29.094938,-52.5832366,77,688.60669
D1,Barros Cassal/RS,-29.094938,-52.5832366,1,8.94294
1,Barroso/MG,-21.187222,-43.976111,202,966.64593
D1,Barroso/MG,-21.187222,-43.976111,2,9.57075
1,Barueri/SP,-23.5112184,-46.8764612,8908,3216.09346
D1,Barueri/SP,-23.5112184,-46.8764612,414,149.46820
1,Barão de Antonina/SP,-23.6295651,-49.5632104,25,714.69411
D1,Barão de Antonina/SP,-23.6295651,-49.5632104,1,28.58776
1,Barão de Cocais/MG,-19.9452437,-43.4870298,884,2689.70973
D1,Barão de Cocais/MG,-19.9452437,-43.4870298,6,18.25595
1,Barão de Cotegipe/RS,-27.6214694,-52.3765316,193,2915.40785
D1,Barão de Cotegipe/RS,-27.6214694,-52.3765316,3,45.31722
1,Barão de Grajaú/MA,-6.7542591,-43.0263477,19,100.40161
D1,Barão de Grajaú/MA,-6.7542591,-43.0263477,1,5.28430
1,Barão de Melgaço/MT,-16.195776,-55.9668049,135,1653.60118
D1,Barão de Melgaço/MT,-16.195776,-55.9668049,6,73.49339
1,Barão de Monte Alto/MG,-21.244722,-42.2375,65,1214.04557
D1,Barão de Monte Alto/MG,-21.244722,-42.2375,3,56.03287
1,Barão do Triunfo/RS,-30.3909877,-51.7375349,133,1768.85224
D1,Barão do Triunfo/RS,-30.3909877,-51.7375349,1,13.29964
1,Barão/RS,-29.372474,-51.494908,111,1789.74524
D1,Barão/RS,-29.372474,-51.494908,2,32.24766
1,Bastos/SP,-21.9222474,-50.7317727,196,935.42691
D1,Bastos/SP,-21.9222474,-50.7317727,6,28.63552
1,Bataguassu/MS,-21.715899,-52.422058,990,4244.37299
D1,Bataguassu/MS,-21.715899,-52.422058,7,30.01072
1,Batalha/AL,-9.6733809,-37.1265481,619,3375.50442
D1,Batalha/AL,-9.6733809,-37.1265481,11,59.98473
1,Batalha/PI,-4.022391,-42.0780926,446,1657.68445
D1,Batalha/PI,-4.022391,-42.0780926,10,37.16781
1,Batatais/SP,-20.892867,-47.592149,836,1327.40553
D1,Batatais/SP,-20.892867,-47.592149,24,38.10734
1,Batayporã/MS,-22.2976466,-53.2685608,256,2255.70535
D1,Batayporã/MS,-22.2976466,-53.2685608,5,44.05675
1,Baturité/CE,-4.3290203,-38.8821055,647,1800.17250
D1,Baturité/CE,-4.3290203,-38.8821055,32,89.03481
1,Bauru/SP,-22.3218102,-49.0705863,15557,4101.53521
D1,Bauru/SP,-22.3218102,-49.0705863,268,70.65703
1,Bayeux/PB,-7.1301631,-34.936532,2544,2617.20317
D1,Bayeux/PB,-7.1301631,-34.936532,122,125.51053
1,Baía Formosa/RN,-6.3691885,-35.0063741,192,2059.64385
D1,Baía Formosa/RN,-6.3691885,-35.0063741,6,64.36387
1,Baía da Traição/PB,-6.691258,-34.9371244,833,9157.87159
D1,Baía da Traição/PB,-6.691258,-34.9371244,7,76.95690
1,Bebedouro/SP,-20.949077,-48.479083,1514,1952.16298
D1,Bebedouro/SP,-20.949077,-48.479083,33,42.55045
1,Beberibe/CE,-4.1810469,-38.1298101,1003,1859.16328
D1,Beberibe/CE,-4.1810469,-38.1298101,30,55.60807
1,Bela Cruz/CE,-3.0529129,-40.167582,1259,3847.56433
D1,Bela Cruz/CE,-3.0529129,-40.167582,24,73.34515
1,Bela Vista da Caroba/PR,-25.8792818,-53.6672545,35,1012.43853
1,Bela Vista de Goiás/GO,-16.9692949,-48.9513071,1022,3351.69881
D1,Bela Vista de Goiás/GO,-16.9692949,-48.9513071,18,59.03188
1,Bela Vista de Minas/MG,-19.8289721,-43.0973688,119,1159.61801
D1,Bela Vista de Minas/MG,-19.8289721,-43.0973688,1,9.74469
1,Bela Vista do Maranhão/MA,-3.7416367,-45.2514192,137,1214.64669
D1,Bela Vista do Maranhão/MA,-3.7416367,-45.2514192,8,70.92827
1,Bela Vista do Paraíso/PR,-22.9948493,-51.1907996,227,1474.12170
D1,Bela Vista do Paraíso/PR,-22.9948493,-51.1907996,5,32.46964
1,Bela Vista do Piauí/PI,-7.9716353,-41.8715061,55,1364.76427
D1,Bela Vista do Piauí/PI,-7.9716353,-41.8715061,1,24.81390
1,Bela Vista do Toldo/SC,-26.274625,-50.466354,10,157.18328
D1,Bela Vista do Toldo/SC,-26.274625,-50.466354,1,15.71833
1,Bela Vista/MS,-22.107327,-56.5317344,84,339.59976
D1,Bela Vista/MS,-22.107327,-56.5317344,4,16.17142
1,Belford Roxo/RJ,-22.7667284,-43.4033603,11428,2227.16802
D1,Belford Roxo/RJ,-22.7667284,-43.4033603,348,67.82066
1,Belmiro Braga/MG,-21.9486291,-43.413564,32,934.30657
D1,Belmiro Braga/MG,-21.9486291,-43.413564,3,87.59124
1,Belmonte/BA,-15.8630837,-38.8792845,512,2184.57994
D1,Belmonte/BA,-15.8630837,-38.8792845,4,17.06703
1,Belmonte/SC,-26.8448262,-53.578916,6,221.48394
1,Belo Campo/BA,-15.0338286,-41.2585109,138,806.59302
D1,Belo Campo/BA,-15.0338286,-41.2585109,2,11.68975
1,Belo Horizonte/MG,-19.9227318,-43.9450948,53625,2126.65631
D1,Belo Horizonte/MG,-19.9227318,-43.9450948,1634,64.80105
1,Belo Jardim/PE,-8.3338293,-36.4176419,1356,1768.22669
D1,Belo Jardim/PE,-8.3338293,-36.4176419,41,53.46408
1,Belo Monte/AL,-9.8269944,-37.2787165,181,2697.46647
D1,Belo Monte/AL,-9.8269944,-37.2787165,4,59.61252
1,Belo Oriente/MG,-19.2232523,-42.4807033,836,3096.98452
D1,Belo Oriente/MG,-19.2232523,-42.4807033,12,44.45432
1,Belo Vale/MG,-20.407778,-44.024167,109,1412.10001
D1,Belo Vale/MG,-20.407778,-44.024167,3,38.86514
1,Belterra/PA,-2.636091,-54.937392,562,3150.40081
D1,Belterra/PA,-2.636091,-54.937392,14,78.47974
1,Belágua/MA,-3.1604031,-43.5085052,273,3626.46121
D1,Belágua/MA,-3.1604031,-43.5085052,1,13.28374
1,Belém de Maria/PE,-8.6242497,-35.8388934,99,816.69691
D1,Belém de Maria/PE,-8.6242497,-35.8388934,3,24.74839
1,Belém do Brejo do Cruz/PB,-6.1880727,-37.5332267,150,2041.09403
D1,Belém do Brejo do Cruz/PB,-6.1880727,-37.5332267,3,40.82188
1,Belém do Piauí/PI,-7.3767305,-40.9712156,135,3763.59074
D1,Belém do Piauí/PI,-7.3767305,-40.9712156,3,83.63535
1,Belém do São Francisco/PE,-8.7517707,-38.9625715,146,704.29329
1,Belém/AL,-9.5715351,-36.492841,60,1400.56022
D1,Belém/AL,-9.5715351,-36.492841,2,46.68534
1,Belém/PA,-1.45056,-48.4682453,49040,3270.11598
D1,Belém/PA,-1.45056,-48.4682453,2297,153.16999
1,Belém/PB,-6.6967586,-35.5369626,1136,6416.26659
D1,Belém/PB,-6.6967586,-35.5369626,18,101.66620
1,Beneditinos/PI,-5.4565671,-42.3605061,333,3179.60470
D1,Beneditinos/PI,-5.4565671,-42.3605061,10,95.48362
1,Benedito Leite/MA,-7.2173453,-44.5523331,201,3565.09400
D1,Benedito Leite/MA,-7.2173453,-44.5523331,2,35.47357
1,Benedito Novo/SC,-26.7840657,-49.3629511,250,2123.14225
D1,Benedito Novo/SC,-26.7840657,-49.3629511,2,16.98514
1,Benevides/PA,-1.3555577,-48.252235,2094,3283.77870
D1,Benevides/PA,-1.3555577,-48.252235,48,75.27286
1,Benjamin Constant do Sul/RS,-27.5105555,-52.6007689,108,5515.83248
1,Benjamin Constant/AM,-4.3782748,-70.0290603,1703,3876.18072
D1,Benjamin Constant/AM,-4.3782748,-70.0290603,46,104.70013
1,Bento Fernandes/RN,-5.6926846,-35.8207423,35,633.48416
D1,Bento Fernandes/RN,-5.6926846,-35.8207423,2,36.19910
1,Bento Gonçalves/RS,-29.1654014,-51.5197627,5016,4118.12517
D1,Bento Gonçalves/RS,-29.1654014,-51.5197627,123,100.98273
1,Bento de Abreu/SP,-21.2707225,-50.8120444,44,1464.22629
1,Bequimão/MA,-2.4495376,-44.7884889,235,1103.33818
D1,Bequimão/MA,-2.4495376,-44.7884889,12,56.34067
1,Berilo/MG,-16.9515764,-42.4643732,6,50.53908
1,Berizal/MG,-15.6118785,-41.7417382,8,167.92611
1,Bernardino Batista/PB,-6.4532173,-38.5495418,134,3789.59276
1,Bernardino de Campos/SP,-23.0140216,-49.4760724,123,1102.34809
D1,Bernardino de Campos/SP,-23.0140216,-49.4760724,3,26.88654
1,Bernardo Sayão/TO,-7.8794244,-48.8968905,76,1708.63309
D1,Bernardo Sayão/TO,-7.8794244,-48.8968905,3,67.44604
1,Bernardo do Mearim/MA,-4.6315929,-44.7617508,140,2305.28569
D1,Bernardo do Mearim/MA,-4.6315929,-44.7617508,3,49.39898
1,Bertioga/SP,-23.848568,-46.139586,2156,3331.11877
D1,Bertioga/SP,-23.848568,-46.139586,49,75.70724
1,Bertolínia/PI,-7.6372159,-43.9540611,519,9424.36898
D1,Bertolínia/PI,-7.6372159,-43.9540611,6,108.95224
1,Bertópolis/MG,-17.063333,-40.573889,123,2669.85023
1,Beruri/AM,-3.9007135,-61.3717319,1047,5210.76992
D1,Beruri/AM,-3.9007135,-61.3717319,12,59.72229
1,Betim/MG,-19.968056,-44.198333,8162,1835.04802
D1,Betim/MG,-19.968056,-44.198333,247,55.53257
1,Betânia do Piauí/PI,-8.1460635,-40.7961387,70,1127.21417
D1,Betânia do Piauí/PI,-8.1460635,-40.7961387,1,16.10306
1,Betânia/PE,-8.2742779,-38.0351767,124,971.40619
D1,Betânia/PE,-8.2742779,-38.0351767,2,15.66784
1,Bezerros/PE,-8.2372132,-35.7558262,1337,2196.12352
D1,Bezerros/PE,-8.2372132,-35.7558262,70,114.98029
1,Bias Fortes/MG,-21.605833,-43.756944,26,781.01532
D1,Bias Fortes/MG,-21.605833,-43.756944,1,30.03905
1,Bicas/MG,-21.7213723,-43.0604327,91,625.25766
D1,Bicas/MG,-21.7213723,-43.0604327,3,20.61289
1,Biguaçu/SC,-27.4961277,-48.6542432,4561,6563.91215
D1,Biguaçu/SC,-27.4961277,-48.6542432,44,63.32211
1,Bilac/SP,-21.403962,-50.47464,125,1539.97782
D1,Bilac/SP,-21.403962,-50.47464,2,24.63965
1,Biquinhas/MG,-18.783611,-45.502222,28,1120.89672
1,Birigui/SP,-21.2908491,-50.34144,3268,2616.84937
D1,Birigui/SP,-21.2908491,-50.34144,103,82.47720
1,Biritiba Mirim/SP,-23.5697765,-46.0407456,517,1569.71095
D1,Biritiba Mirim/SP,-23.5697765,-46.0407456,32,97.15812
1,Biritinga/BA,-11.6227908,-38.8066738,103,644.39439
D1,Biritinga/BA,-11.6227908,-38.8066738,1,6.25626
1,Bituruna/PR,-26.161281,-51.5533319,67,408.53659
D1,Bituruna/PR,-26.161281,-51.5533319,1,6.09756
1,Blumenau/SC,-26.9195567,-49.0658025,19535,5398.57125
D1,Blumenau/SC,-26.9195567,-49.0658025,188,51.95451
1,Boa Esperança do Iguaçu/PR,-25.6362851,-53.2139114,48,1943.31984
1,Boa Esperança do Sul/SP,-21.9930206,-48.3917372,236,1571.44760
D1,Boa Esperança do Sul/SP,-21.9930206,-48.3917372,6,39.95206
1,Boa Esperança/ES,-18.5395472,-40.2904088,421,2789.55738
D1,Boa Esperança/ES,-18.5395472,-40.2904088,16,106.01643
1,Boa Esperança/MG,-21.0901253,-45.5660195,438,1089.03752
D1,Boa Esperança/MG,-21.0901253,-45.5660195,20,49.72774
1,Boa Esperança/PR,-24.2411024,-52.7860277,43,1062.51544
1,Boa Hora/PI,-4.4094627,-42.1255341,145,2127.65957
1,Boa Nova/BA,-14.365907,-40.2063056,233,1889.85319
D1,Boa Nova/BA,-14.365907,-40.2063056,4,32.44383
1,Boa Ventura de São Roque/PR,-24.88177,-51.5441292,10,157.10919
1,Boa Ventura/PB,-7.4202462,-38.2156782,138,2600.33917
D1,Boa Ventura/PB,-7.4202462,-38.2156782,3,56.52911
1,Boa Viagem/CE,-5.1261877,-39.7300055,1474,2700.77139
D1,Boa Viagem/CE,-5.1261877,-39.7300055,37,67.79413
1,Boa Vista da Aparecida/PR,-25.4357216,-53.4067721,152,2015.91512
D1,Boa Vista da Aparecida/PR,-25.4357216,-53.4067721,4,53.05040
1,Boa Vista das Missões/RS,-27.6677983,-53.3127622,6,286.80688
1,Boa Vista do Buricá/RS,-27.6687782,-54.1111913,164,2443.38498
D1,Boa Vista do Buricá/RS,-27.6687782,-54.1111913,1,14.89869
1,Boa Vista do Cadeado/RS,-28.5783827,-53.8123759,18,729.33549
1,Boa Vista do Gurupi/MA,-1.7981168,-46.3071882,14,167.02458
D1,Boa Vista do Gurupi/MA,-1.7981168,-46.3071882,3,35.79098
1,Boa Vista do Incra/RS,-28.8195551,-53.3866624,26,993.88379
1,Boa Vista do Ramos/AM,-2.9716927,-57.5869819,507,2583.30786
D1,Boa Vista do Ramos/AM,-2.9716927,-57.5869819,6,30.57169
1,Boa Vista do Sul/RS,-29.3510488,-51.6779679,77,2771.77826
D1,Boa Vista do Sul/RS,-29.3510488,-51.6779679,1,35.99712
1,Boa Vista do Tupim/BA,-12.6605988,-40.6083594,112,604.39264
D1,Boa Vista do Tupim/BA,-12.6605988,-40.6083594,2,10.79273
1,Boa Vista/PB,-7.2620711,-36.2415161,151,2116.03139
D1,Boa Vista/PB,-7.2620711,-36.2415161,1,14.01345
1,Boa Vista/RR,2.8208478,-60.6719582,47027,11206.18989
D1,Boa Vista/RR,2.8208478,-60.6719582,529,126.05683
1,Boca da Mata/AL,-9.6452054,-36.2116658,1258,4598.62553
D1,Boca da Mata/AL,-9.6452054,-36.2116658,25,91.38763
1,Boca do Acre/AM,-8.7553487,-67.3930873,1588,4584.95741
D1,Boca do Acre/AM,-8.7553487,-67.3930873,14,40.42154
1,Bocaina de Minas/MG,-22.167778,-44.394722,17,334.05384
D1,Bocaina de Minas/MG,-22.167778,-44.394722,2,39.30045
1,Bocaina do Sul/SC,-27.745494,-49.942279,152,4357.79817
D1,Bocaina do Sul/SC,-27.745494,-49.942279,2,57.33945
1,Bocaina/PI,-6.9445939,-41.3224599,154,3418.42397
D1,Bocaina/PI,-6.9445939,-41.3224599,2,44.39512
1,Bocaina/SP,-22.1421831,-48.522276,203,1630.26020
D1,Bocaina/SP,-22.1421831,-48.522276,3,24.09252
1,Bocaiúva do Sul/PR,-25.206591,-49.114131,301,2292.63463
D1,Bocaiúva do Sul/PR,-25.206591,-49.114131,3,22.85018
1,Bocaiúva/MG,-17.1160208,-43.8122678,486,967.04871
D1,Bocaiúva/MG,-17.1160208,-43.8122678,7,13.92869
1,Bodocó/PE,-7.777592,-39.933797,347,904.16384
D1,Bodocó/PE,-7.777592,-39.933797,8,20.84528
1,Bodoquena/MS,-20.5508775,-56.6769653,64,816.53483
D1,Bodoquena/MS,-20.5508775,-56.6769653,1,12.75836
1,Bodó/RN,-5.9866104,-36.4134824,33,1502.04825
1,Bofete/SP,-23.1019554,-48.2610535,172,1442.83198
D1,Bofete/SP,-23.1019554,-48.2610535,4,33.55423
1,Boituva/SP,-23.2838893,-47.6738231,1355,2179.50780
D1,Boituva/SP,-23.2838893,-47.6738231,22,35.38684
1,Bom Conselho/PE,-9.169191,-36.685683,844,1730.67853
D1,Bom Conselho/PE,-9.169191,-36.685683,25,51.26417
1,Bom Despacho/MG,-19.7375242,-45.2517288,858,1681.42980
D1,Bom Despacho/MG,-19.7375242,-45.2517288,20,39.19417
1,Bom Jardim da Serra/SC,-28.3380324,-49.625588,319,6684.82816
D1,Bom Jardim da Serra/SC,-28.3380324,-49.625588,1,20.95557
1,Bom Jardim de Goiás/GO,-16.2062659,-52.172793,177,1995.71541
D1,Bom Jardim de Goiás/GO,-16.2062659,-52.172793,3,33.82568
1,Bom Jardim de Minas/MG,-21.9476466,-44.1906033,15,232.23409
1,Bom Jardim/MA,-3.54129,-45.606004,993,2374.34843
D1,Bom Jardim/MA,-3.54129,-45.606004,29,69.34149
1,Bom Jardim/PE,-7.7961572,-35.5871696,737,1843.28340
D1,Bom Jardim/PE,-7.7961572,-35.5871696,32,80.03401
1,Bom Jardim/RJ,-22.1515328,-42.4186683,234,847.33488
D1,Bom Jardim/RJ,-22.1515328,-42.4186683,5,18.10545
1,Bom Jesus da Lapa/BA,-13.250571,-43.410754,1038,1490.05197
D1,Bom Jesus da Lapa/BA,-13.250571,-43.410754,13,18.66154
1,Bom Jesus da Penha/MG,-21.0165299,-46.5226644,98,2309.14232
D1,Bom Jesus da Penha/MG,-21.0165299,-46.5226644,1,23.56268
1,Bom Jesus da Serra/BA,-14.3724084,-40.5047119,107,1089.28026
1,Bom Jesus das Selvas/MA,-4.4878075,-46.8526639,1875,5424.24856
D1,Bom Jesus das Selvas/MA,-4.4878075,-46.8526639,16,46.28692
1,Bom Jesus de Goiás/GO,-18.2174587,-49.739721,1034,4031.50343
D1,Bom Jesus de Goiás/GO,-18.2174587,-49.739721,29,113.06925
1,Bom Jesus do Amparo/MG,-19.7045132,-43.4752911,40,652.20936
D1,Bom Jesus do Amparo/MG,-19.7045132,-43.4752911,2,32.61047
1,Bom Jesus do Araguaia/MT,-12.1725897,-51.5074425,194,2892.93170
1,Bom Jesus do Galho/MG,-19.8283191,-42.3162256,156,1049.65684
D1,Bom Jesus do Galho/MG,-19.8283191,-42.3162256,6,40.37142
1,Bom Jesus do Itabapoana/RJ,-21.1341025,-41.680095,935,2513.23818
D1,Bom Jesus do Itabapoana/RJ,-21.1341025,-41.680095,23,61.82297
1,Bom Jesus do Norte/ES,-21.1254776,-41.6711646,373,3744.22807
D1,Bom Jesus do Norte/ES,-21.1254776,-41.6711646,8,80.30516
1,Bom Jesus do Oeste/SC,-26.6929713,-53.0967453,28,1309.02291
D1,Bom Jesus do Oeste/SC,-26.6929713,-53.0967453,1,46.75082
1,Bom Jesus do Sul/PR,-26.1922507,-53.6002033,31,884.19852
D1,Bom Jesus do Sul/PR,-26.1922507,-53.6002033,1,28.52253
1,Bom Jesus do Tocantins/PA,-5.0471796,-48.5978362,408,2383.45601
D1,Bom Jesus do Tocantins/PA,-5.0471796,-48.5978362,4,23.36722
1,Bom Jesus do Tocantins/TO,-8.96306,-48.165043,101,2016.77316
1,Bom Jesus dos Perdões/SP,-23.1353864,-46.4648052,394,1516.25938
D1,Bom Jesus dos Perdões/SP,-23.1353864,-46.4648052,3,11.54512
1,Bom Jesus/PB,-6.8156725,-38.6551841,59,2291.26214
D1,Bom Jesus/PB,-6.8156725,-38.6551841,1,38.83495
1,Bom Jesus/PI,-9.0711644,-44.3583926,1843,7259.62107
D1,Bom Jesus/PI,-9.0711644,-44.3583926,24,94.53657
1,Bom Jesus/RN,-5.9887544,-35.5821149,196,1909.02893
D1,Bom Jesus/RN,-5.9887544,-35.5821149,5,48.69972
1,Bom Jesus/RS,-28.6692723,-50.4346894,186,1644.70775
D1,Bom Jesus/RS,-28.6692723,-50.4346894,2,17.68503
1,Bom Jesus/SC,-26.7350604,-52.3916519,97,3173.04547
D1,Bom Jesus/SC,-26.7350604,-52.3916519,3,98.13543
1,Bom Lugar/MA,-4.3728019,-45.0366054,305,1855.45687
D1,Bom Lugar/MA,-4.3728019,-45.0366054,4,24.33386
1,Bom Princípio do Piauí/PI,-3.1912777,-41.6430185,43,760.92727
D1,Bom Princípio do Piauí/PI,-3.1912777,-41.6430185,3,53.08795
1,Bom Princípio/RS,-29.489788,-51.3566782,456,3198.87759
D1,Bom Princípio/RS,-29.489788,-51.3566782,5,35.07541
1,Bom Progresso/RS,-27.5490948,-53.8655601,14,737.23012
1,Bom Repouso/MG,-22.4657069,-46.1485376,118,1119.86334
D1,Bom Repouso/MG,-22.4657069,-46.1485376,5,47.45184
1,Bom Retiro do Sul/RS,-29.6000007,-51.9359243,281,2267.95803
D1,Bom Retiro do Sul/RS,-29.6000007,-51.9359243,4,32.28410
1,Bom Retiro/SC,-27.798993,-49.486994,123,1222.66402
D1,Bom Retiro/SC,-27.798993,-49.486994,5,49.70179
1,Bom Sucesso de Itararé/SP,-24.3190016,-49.1446207,9,225.90361
D1,Bom Sucesso de Itararé/SP,-24.3190016,-49.1446207,1,25.10040
1,Bom Sucesso do Sul/PR,-26.0749256,-52.8348629,37,1137.06208
1,Bom Sucesso/MG,-21.0323516,-44.7598082,62,352.13267
D1,Bom Sucesso/MG,-21.0323516,-44.7598082,1,5.67956
1,Bom Sucesso/PB,-6.4458948,-37.9297662,39,786.92494
1,Bom Sucesso/PR,-23.7088019,-51.7651297,142,2009.05490
D1,Bom Sucesso/PR,-23.7088019,-51.7651297,2,28.29655
1,Bombinhas/SC,-27.1519159,-48.4875691,1507,7410.86796
D1,Bombinhas/SC,-27.1519159,-48.4875691,10,49.17630
1,Bonfim do Piauí/PI,-9.1648678,-42.8734415,107,1882.14600
D1,Bonfim do Piauí/PI,-9.1648678,-42.8734415,2,35.18030
1,Bonfim/MG,-20.3266626, -44.2386157,76,1107.87172
D1,Bonfim/MG,-20.3266626, -44.2386157,2,29.15452
1,Bonfim/RR,3.3613818,-59.8427241,1230,9795.33328
D1,Bonfim/RR,3.3613818,-59.8427241,14,111.49160
1,Bonfinópolis de Minas/MG,-16.5660011,-45.98645,168,3085.96620
D1,Bonfinópolis de Minas/MG,-16.5660011,-45.98645,7,128.58193
1,Bonfinópolis/GO,-16.6172709,-48.9615701,376,3790.70471
D1,Bonfinópolis/GO,-16.6172709,-48.9615701,9,90.73495
1,Boninal/BA,-12.7095183,-41.8299984,27,186.90295
D1,Boninal/BA,-12.7095183,-41.8299984,1,6.92233
1,Bonito de Minas/MG,-15.3191266,-44.7544,6,52.77509
1,Bonito de Santa Fé/PB,-7.3143332,-38.5146677,234,1946.43154
D1,Bonito de Santa Fé/PB,-7.3143332,-38.5146677,9,74.86275
1,Bonito/BA,-11.9665473,-41.2649896,143,846.95570
D1,Bonito/BA,-11.9665473,-41.2649896,2,11.84553
1,Bonito/MS,-21.1264766,-56.4902208,684,3082.46958
D1,Bonito/MS,-21.1264766,-56.4902208,10,45.06534
1,Bonito/PA,-1.3605722,-47.3049907,283,1712.03872
D1,Bonito/PA,-1.3605722,-47.3049907,9,54.44646
1,Bonito/PE,-8.4721161,-35.7314591,381,999.55400
D1,Bonito/PE,-8.4721161,-35.7314591,28,73.45804
1,Bonópolis/GO,-13.649331,-49.8329113,86,1914.08858
D1,Bonópolis/GO,-13.649331,-49.8329113,1,22.25684
1,Boqueirão do Leão/RS,-29.30332,-52.4296817,127,1648.92236
D1,Boqueirão do Leão/RS,-29.30332,-52.4296817,3,38.95092
1,Boqueirão do Piauí/PI,-4.4850148,-42.1095161,166,2583.25552
D1,Boqueirão do Piauí/PI,-4.4850148,-42.1095161,1,15.56178
1,Boqueirão/PB,-7.487004,-36.130887,748,4185.78623
D1,Boqueirão/PB,-7.487004,-36.130887,8,44.76777
1,Boquim/SE,-11.1450175,-37.6204228,684,2542.84546
D1,Boquim/SE,-11.1450175,-37.6204228,20,74.35221
1,Boquira/BA,-12.8184859,-42.7270883,53,246.54603
D1,Boquira/BA,-12.8184859,-42.7270883,1,4.65181
1,Boracéia/SP,-22.195355,-48.7801925,151,3101.88989
D1,Boracéia/SP,-22.195355,-48.7801925,2,41.08463
1,Borba/AM,-4.3934778,-59.5947721,780,1868.35297
D1,Borba/AM,-4.3934778,-59.5947721,23,55.09246
1,Borborema/PB,-6.8066718,-35.5990191,61,1153.77341
1,Borborema/SP,-21.6212706,-49.074135,312,1930.21529
D1,Borborema/SP,-21.6212706,-49.074135,10,61.86587
1,Borda da Mata/MG,-22.274167,-46.165278,408,2080.14683
D1,Borda da Mata/MG,-22.274167,-46.165278,18,91.77118
1,Borebi/SP,-22.5700178,-48.9714871,50,1863.58554
D1,Borebi/SP,-22.5700178,-48.9714871,2,74.54342
1,Borrazópolis/PR,-23.9393362,-51.5850786,195,3028.42056
D1,Borrazópolis/PR,-23.9393362,-51.5850786,3,46.59109
1,Borá/SP,-22.2701088,-50.544407,5,596.65871
1,Bossoroca/RS,-28.7278885,-54.9120278,91,1466.55923
D1,Bossoroca/RS,-28.7278885,-54.9120278,1,16.11604
1,Botelhos/MG,-21.65,-46.394722,131,876.31280
D1,Botelhos/MG,-21.65,-46.394722,1,6.68941
1,Botucatu/SP,-22.8879628,-48.4410712,3026,2042.80024
D1,Botucatu/SP,-22.8879628,-48.4410712,52,35.10430
1,Botumirim/MG,-16.862778,-43.011111,6,95.41985
1,Botuporã/BA,-13.3744752,-42.5198469,16,157.96229
D1,Botuporã/BA,-13.3744752,-42.5198469,1,9.87264
1,Botuverá/SC,-27.200749,-49.068892,213,4002.25479
1,Bozano/RS,-28.3669953,-53.7705165,41,1942.20748
1,Braga/RS,-27.617348,-53.740514,21,634.24947
1,Braganey/PR,-24.8179919,-53.118506,58,1077.66630
D1,Braganey/PR,-24.8179919,-53.118506,2,37.16091
1,Bragança Paulista/SP,-22.9520235,-46.5418586,4564,2676.31485
D1,Bragança Paulista/SP,-22.9520235,-46.5418586,91,53.36211
1,Bragança/PA,-1.0573967,-46.7635406,2759,2140.18648
D1,Bragança/PA,-1.0573967,-46.7635406,96,74.46825
1,Branquinha/AL,-9.2478057,-36.0152009,273,2609.94264
D1,Branquinha/AL,-9.2478057,-36.0152009,6,57.36138
1,Brasil Novo/PA,-3.3055853,-52.539198,790,5272.64233
D1,Brasil Novo/PA,-3.3055853,-52.539198,16,106.78769
1,Brasileira/PI,-4.131182,-41.7824969,226,2707.55960
D1,Brasileira/PI,-4.131182,-41.7824969,2,23.96070
1,Brasilândia de Minas/MG,-17.0096469,-46.0087183,372,2221.16074
D1,Brasilândia de Minas/MG,-17.0096469,-46.0087183,1,5.97086
1,Brasilândia do Sul/PR,-24.1975793,-53.527551,45,1740.81238
D1,Brasilândia do Sul/PR,-24.1975793,-53.527551,1,38.68472
1,Brasilândia do Tocantins/TO,-8.3886619,-48.4842729,54,2442.33379
D1,Brasilândia do Tocantins/TO,-8.3886619,-48.4842729,1,45.22840
1,Brasilândia/MS,-21.255575,-52.0365617,119,1003.96524
D1,Brasilândia/MS,-21.255575,-52.0365617,4,33.74673
1,Brasiléia/AC,-11.0010413,-68.7487894,1223,4580.18126
D1,Brasiléia/AC,-11.0010413,-68.7487894,20,74.90076
1,Brasnorte/MT,-12.1227151,-58.0050109,337,1673.28699
D1,Brasnorte/MT,-12.1227151,-58.0050109,1,4.96524
1,Brasília de Minas/MG,-16.2075114,-44.430559,229,706.68107
D1,Brasília de Minas/MG,-16.2075114,-44.430559,5,15.42972
1,Brasília/DF,-15.7934036,-47.8823172,227581,7449.09659
D1,Brasília/DF,-15.7934036,-47.8823172,3915,128.14432
1,Brazabrantes/GO,-16.4291635,-49.3858216,166,4431.39349
D1,Brazabrantes/GO,-16.4291635,-49.3858216,2,53.39028
1,Brazópolis/MG,-22.4742842,-45.6165577,278,1929.21582
D1,Brazópolis/MG,-22.4742842,-45.6165577,3,20.81888
1,Braço do Norte/SC,-28.2728633,-49.1622712,3055,9018.18397
D1,Braço do Norte/SC,-28.2728633,-49.1622712,23,67.89467
1,Braço do Trombudo/SC,-27.358578,-49.882145,119,3157.33616
D1,Braço do Trombudo/SC,-27.358578,-49.882145,2,53.06447
1,Braúna/SP,-21.5015319,-50.3175246,114,1985.71677
D1,Braúna/SP,-21.5015319,-50.3175246,7,121.92998
1,Braúnas/MG,-19.055556,-42.716111,17,356.46886
D1,Braúnas/MG,-19.055556,-42.716111,2,41.93751
1,Brejetuba/ES,-20.1465817,-41.2902303,594,4779.91470
D1,Brejetuba/ES,-20.1465817,-41.2902303,1,8.04699
1,Brejinho de Nazaré/TO,-11.0205883,-48.5722906,94,1703.20710
D1,Brejinho de Nazaré/TO,-11.0205883,-48.5722906,4,72.47690
1,Brejinho/PE,-7.3482153,-37.28538,203,2711.00427
D1,Brejinho/PE,-7.3482153,-37.28538,2,26.70940
1,Brejinho/RN,-6.1957907,-35.3583019,272,2127.16040
D1,Brejinho/RN,-6.1957907,-35.3583019,3,23.46133
1,Brejo Alegre/SP,-21.1671191,-50.1850393,101,3496.01938
D1,Brejo Alegre/SP,-21.1671191,-50.1850393,6,207.68432
1,Brejo Grande do Araguaia/PA,-5.7011449,-48.4037308,517,7016.82953
D1,Brejo Grande do Araguaia/PA,-5.7011449,-48.4037308,2,27.14441
1,Brejo Grande/SE,-10.4287358,-36.4667918,175,2095.05567
D1,Brejo Grande/SE,-10.4287358,-36.4667918,7,83.80223
1,Brejo Santo/CE,-7.4909841,-38.9859152,2158,4329.68179
D1,Brejo Santo/CE,-7.4909841,-38.9859152,25,50.15850
1,Brejo da Madre de Deus/PE,-8.1409718,-36.3712527,1065,2079.06296
D1,Brejo da Madre de Deus/PE,-8.1409718,-36.3712527,29,56.61298
1,Brejo de Areia/MA,-4.3316785,-45.5833334,222,2462.83559
D1,Brejo de Areia/MA,-4.3316785,-45.5833334,2,22.18771
1,Brejo do Cruz/PB,-6.32926065,-37.48746163303929,675,4751.51345
D1,Brejo do Cruz/PB,-6.32926065,-37.48746163303929,9,63.35351
1,Brejo do Piauí/PI,-8.207583,-42.8359849,25,649.68815
1,Brejo dos Santos/PB,-6.3769367,-37.8243125,81,1253.09406
1,Brejo/MA,-3.6804397,-42.7529313,701,1912.63540
D1,Brejo/MA,-3.6804397,-42.7529313,18,49.11189
1,Brejolândia/BA,-12.4843845,-43.9611861,16,150.68751
D1,Brejolândia/BA,-12.4843845,-43.9611861,2,18.83594
1,Brejão/PE,-9.029146,-36.566034,39,433.96016
D1,Brejão/PE,-9.029146,-36.566034,2,22.25437
1,Brejões/BA,-13.1033754,-39.7909837,111,780.48095
D1,Brejões/BA,-13.1033754,-39.7909837,1,7.03136
1,Breu Branco/PA,-3.7785073,-49.5684795,327,485.65318
D1,Breu Branco/PA,-3.7785073,-49.5684795,21,31.18874
1,Breves/PA,-1.68036,-50.479085,3026,2923.75624
D1,Breves/PA,-1.68036,-50.479085,88,85.02662
1,Britânia/GO,-15.2427599,-51.1602061,195,3363.80887
D1,Britânia/GO,-15.2427599,-51.1602061,1,17.25030
1,Brochier/RS,-29.556766,-51.5963047,55,1077.58621
1,Brodowski/SP,-20.984532,-47.657217,654,2587.33236
D1,Brodowski/SP,-20.984532,-47.657217,22,87.03565
1,Brotas de Macaúbas/BA,-12.0019007,-42.6257506,6,59.23001
1,Brotas/SP,-22.2840884,-48.1267265,172,698.16529
D1,Brotas/SP,-22.2840884,-48.1267265,4,16.23640
1,Brumadinho/MG,-20.143611,-44.2,1320,3245.95485
D1,Brumadinho/MG,-20.143611,-44.2,16,39.34491
1,Brumado/BA,-14.29507325,-41.659307508575985,2927,4346.92211
D1,Brumado/BA,-14.29507325,-41.659307508575985,34,50.49380
1,Brunópolis/SC,-27.310953,-50.837585,35,1478.04054
1,Brusque/SC,-27.0964628,-48.9136323,8899,6463.11615
D1,Brusque/SC,-27.0964628,-48.9136323,62,45.02901
1,Brás Pires/MG,-20.8483109,-43.2430524,8,186.34987
D1,Brás Pires/MG,-20.8483109,-43.2430524,1,23.29373
1,Bueno Brandão/MG,-22.441976,-46.3517971,86,782.45838
D1,Bueno Brandão/MG,-22.441976,-46.3517971,6,54.59012
1,Buenos Aires/PE,-7.7218931,-35.326587,61,462.47157
D1,Buenos Aires/PE,-7.7218931,-35.326587,9,68.23351
1,Buenópolis/MG,-17.8756607,-44.1749365,93,898.29035
D1,Buenópolis/MG,-17.8756607,-44.1749365,2,19.31807
1,Buerarema/BA,-14.9571177,-39.3008035,578,3157.43472
D1,Buerarema/BA,-14.9571177,-39.3008035,23,125.64187
1,Bugre/MG,-19.4257687,-42.2556,69,1732.36254
D1,Bugre/MG,-19.4257687,-42.2556,1,25.10670
1,Bujari/AC,-9.8309656,-67.9520886,430,4126.67946
D1,Bujari/AC,-9.8309656,-67.9520886,8,76.77543
1,Bujaru/PA,-1.5169239,-48.0410699,688,2337.98892
D1,Bujaru/PA,-1.5169239,-48.0410699,23,78.15951
1,Buri/SP,-23.79849,-48.598924,326,1632.85750
D1,Buri/SP,-23.79849,-48.598924,10,50.08765
1,Buritama/SP,-21.0664017,-50.1448077,526,3043.80534
D1,Buritama/SP,-21.0664017,-50.1448077,15,86.80053
1,Buriti Alegre/GO,-18.1377879,-49.0404411,292,3078.86968
D1,Buriti Alegre/GO,-18.1377879,-49.0404411,8,84.35259
1,Buriti Bravo/MA,-5.8391884,-43.8367876,933,3897.40591
D1,Buriti Bravo/MA,-5.8391884,-43.8367876,3,12.53185
1,Buriti de Goiás/GO,-16.180644,-50.4287479,101,4079.15994
D1,Buriti de Goiás/GO,-16.180644,-50.4287479,1,40.38772
1,Buriti do Tocantins/TO,-5.3187439,-48.2256609,274,2383.23041
1,Buriti dos Lopes/PI,-3.1776723,-41.8707444,804,4059.17100
D1,Buriti dos Lopes/PI,-3.1776723,-41.8707444,12,60.58464
1,Buriti dos Montes/PI,-5.3136171,-41.0971256,207,2504.84027
D1,Buriti dos Montes/PI,-5.3136171,-41.0971256,2,24.20136
1,Buriti/MA,-3.9430944,-42.9244281,683,2371.69248
D1,Buriti/MA,-3.9430944,-42.9244281,2,6.94493
1,Buriticupu/MA,-4.3227472,-46.4516989,2576,3529.58908
D1,Buriticupu/MA,-4.3227472,-46.4516989,7,9.59127
1,Buritinópolis/GO,-14.4589282,-46.4293104,56,1705.75693
1,Buritirama/BA,-10.7148421,-43.6362327,396,1861.25212
D1,Buritirama/BA,-10.7148421,-43.6362327,8,37.60105
1,Buritirana/MA,-5.5897455,-47.0148915,241,1558.15607
D1,Buritirana/MA,-5.5897455,-47.0148915,6,38.79227
1,Buritis/MG,-15.621389,-46.423889,443,1771.07904
D1,Buritis/MG,-15.621389,-46.423889,3,11.99376
1,Buritis/RO,-10.2054937,-63.8281954,840,2081.47487
D1,Buritis/RO,-10.2054937,-63.8281954,11,27.25741
1,Buritizal/SP,-20.1933264,-47.7097165,66,1462.11786
D1,Buritizal/SP,-20.1933264,-47.7097165,3,66.45990
1,Buritizeiro/MG,-17.3667765,-44.9647781,347,1233.95327
D1,Buritizeiro/MG,-17.3667765,-44.9647781,7,24.89243
1,Butiá/RS,-30.1256795,-51.9692224,434,2071.40130
D1,Butiá/RS,-30.1256795,-51.9692224,20,95.45628
1,Buíque/PE,-8.6239732,-37.157296,618,1048.89764
D1,Buíque/PE,-8.6239732,-37.157296,9,15.27521
1,Bálsamo/SP,-20.7343722,-49.5807484,567,6204.17989
D1,Bálsamo/SP,-20.7343722,-49.5807484,26,284.49502
0,CASO SEM LOCALIZAÇÃO DEFINIDA/AL,-9.931093434363673,-35.609611600637464,8,0.23971
D0,CASO SEM LOCALIZAÇÃO DEFINIDA/AL,-9.931093434363673,-35.609611600637464,8,0.23971
0,CASO SEM LOCALIZAÇÃO DEFINIDA/BA,-13.415069300066518,-38.14174656569957,5785,38.89582
D0,CASO SEM LOCALIZAÇÃO DEFINIDA/BA,-13.415069300066518,-38.14174656569957,58,0.38997
0,CASO SEM LOCALIZAÇÃO DEFINIDA/CE,-3.3445126297392798,-38.624961942434304,4224,46.25453
0,CASO SEM LOCALIZAÇÃO DEFINIDA/ES,-20.30989267097039,-39.81745156645774,1672,41.60601
D0,CASO SEM LOCALIZAÇÃO DEFINIDA/ES,-20.30989267097039,-39.81745156645774,44,1.09490
0,CASO SEM LOCALIZAÇÃO DEFINIDA/GO,-16.701590966270153,-49.164524059025034,1795,25.57580
D0,CASO SEM LOCALIZAÇÃO DEFINIDA/GO,-16.701590966270153,-49.164524059025034,34,0.48444
0,CASO SEM LOCALIZAÇÃO DEFINIDA/MG,-19.97049116501593,-43.8852149072783,2839,13.41125
D0,CASO SEM LOCALIZAÇÃO DEFINIDA/MG,-19.97049116501593,-43.8852149072783,86,0.40626
0,CASO SEM LOCALIZAÇÃO DEFINIDA/MT,-15.54791153961863,-56.17143998972475,813,23.33213
D0,CASO SEM LOCALIZAÇÃO DEFINIDA/MT,-15.54791153961863,-56.17143998972475,56,1.60713
0,CASO SEM LOCALIZAÇÃO DEFINIDA/PA,-0.09317078214359542,-48.0050231510481,813,9.45034
D0,CASO SEM LOCALIZAÇÃO DEFINIDA/PA,-0.09317078214359542,-48.0050231510481,9,0.10462
0,CASO SEM LOCALIZAÇÃO DEFINIDA/PI,-2.683810218391744,-41.470898009352254,520,15.88646
D0,CASO SEM LOCALIZAÇÃO DEFINIDA/PI,-2.683810218391744,-41.470898009352254,9,0.27496
0,CASO SEM LOCALIZAÇÃO DEFINIDA/PR,-25.69415946385943,-48.10141676336737,2635,23.04539
D0,CASO SEM LOCALIZAÇÃO DEFINIDA/PR,-25.69415946385943,-48.10141676336737,55,0.48102
0,CASO SEM LOCALIZAÇÃO DEFINIDA/RN,-5.749310788669161,-34.95302586257457,401,11.43475
D0,CASO SEM LOCALIZAÇÃO DEFINIDA/RN,-5.749310788669161,-34.95302586257457,10,0.28516
0,CASO SEM LOCALIZAÇÃO DEFINIDA/RR,2.813328208465927,-60.663338675861986,1683,277.83235
D0,CASO SEM LOCALIZAÇÃO DEFINIDA/RR,2.813328208465927,-60.663338675861986,5,0.82541
0,CASO SEM LOCALIZAÇÃO DEFINIDA/SC,-27.675643660562308,-48.18313219398259,8232,114.89523
0,CASO SEM LOCALIZAÇÃO DEFINIDA/SP,-24.30968974555485,-46.21366504207253,200,0.43555
1,Caapiranga/AM,-3.3188884,-61.2096404,374,2815.62900
D1,Caapiranga/AM,-3.3188884,-61.2096404,9,67.75578
1,Caaporã/PB,-7.510234,-34.9154114,1026,4673.19517
D1,Caaporã/PB,-7.510234,-34.9154114,18,81.98588
1,Caarapó/MS,-22.6349267,-54.8240903,752,2458.07865
D1,Caarapó/MS,-22.6349267,-54.8240903,4,13.07489
1,Caatiba/BA,-14.9782759,-40.4092325,415,6396.42417
D1,Caatiba/BA,-14.9782759,-40.4092325,3,46.23921
1,Cabaceiras do Paraguaçu/BA,-12.5377868,-39.1901339,113,597.53583
D1,Cabaceiras do Paraguaçu/BA,-12.5377868,-39.1901339,1,5.28793
1,Cabaceiras/PB,-7.4899156,-36.2860501,140,2473.06130
1,Cabeceira Grande/MG,-16.0297,-47.0906,52,744.13280
D1,Cabeceira Grande/MG,-16.0297,-47.0906,2,28.62049
1,Cabeceiras do Piauí/PI,-4.4733665,-42.3098716,237,2229.53904
D1,Cabeceiras do Piauí/PI,-4.4733665,-42.3098716,7,65.85136
1,Cabeceiras/GO,-15.7995459,-46.9264991,77,956.99727
D1,Cabeceiras/GO,-15.7995459,-46.9264991,3,37.28561
1,Cabedelo/PB,-6.97324,-34.8351609,3625,5271.42379
D1,Cabedelo/PB,-6.97324,-34.8351609,85,123.60580
1,Cabixi/RO,-13.4956065,-60.5424442,141,2717.81033
D1,Cabixi/RO,-13.4956065,-60.5424442,5,96.37625
1,Cabo Frio/RJ,-22.8804369,-42.0189227,3433,1490.15965
D1,Cabo Frio/RJ,-22.8804369,-42.0189227,186,80.73688
1,Cabo Verde/MG,-21.4743338,-46.3964995,64,454.70693
D1,Cabo Verde/MG,-21.4743338,-46.3964995,1,7.10480
1,Cabo de Santo Agostinho/PE,-8.2838945,-35.0320984,2310,1105.55938
D1,Cabo de Santo Agostinho/PE,-8.2838945,-35.0320984,281,134.48580
1,Cabreúva/SP,-23.3075813,-47.1324417,1290,2558.05191
D1,Cabreúva/SP,-23.3075813,-47.1324417,41,81.30243
1,Cabrobó/PE,-8.5083701,-39.3106961,455,1318.72591
D1,Cabrobó/PE,-8.5083701,-39.3106961,5,14.49149
1,Cabrália Paulista/SP,-22.4562909,-49.3385645,102,2403.95946
1,Cacaulândia/RO,-10.3380043,-62.9007231,87,1387.78115
1,Cacequi/RS,-29.8838059,-54.8273443,60,482.97513
D1,Cacequi/RS,-29.8838059,-54.8273443,2,16.09917
1,Cachoeira Alta/GO,-18.7618269,-50.9432431,778,6142.42855
D1,Cachoeira Alta/GO,-18.7618269,-50.9432431,11,86.84668
1,Cachoeira Dourada/GO,-18.4934204,-49.481062,145,1805.50367
D1,Cachoeira Dourada/GO,-18.4934204,-49.481062,2,24.90350
1,Cachoeira Dourada/MG,-18.517136,-49.5002062,19,702.14339
1,Cachoeira Grande/MA,-2.9290492,-44.0573223,186,1962.43933
D1,Cachoeira Grande/MA,-2.9290492,-44.0573223,4,42.20300
1,Cachoeira Paulista/SP,-22.666498,-45.015384,435,1295.37536
D1,Cachoeira Paulista/SP,-22.666498,-45.015384,16,47.64599
1,Cachoeira da Prata/MG,-19.524723,-44.453056,76,2116.40212
D1,Cachoeira da Prata/MG,-19.524723,-44.453056,2,55.69479
1,Cachoeira de Goiás/GO,-16.6688414,-50.6435997,25,1862.89121
1,Cachoeira de Minas/MG,-22.3554043,-45.7796324,227,1960.44563
D1,Cachoeira de Minas/MG,-22.3554043,-45.7796324,3,25.90897
1,Cachoeira de Pajeú/MG,-15.965833,-41.496666,209,2213.51409
D1,Cachoeira de Pajeú/MG,-15.965833,-41.496666,2,21.18195
1,Cachoeira do Arari/PA,-1.0143572,-48.9621089,321,1333.94282
D1,Cachoeira do Arari/PA,-1.0143572,-48.9621089,13,54.02261
1,Cachoeira do Piriá/PA,-1.7599443,-46.5446954,537,1551.61952
D1,Cachoeira do Piriá/PA,-1.7599443,-46.5446954,3,8.66827
1,Cachoeira do Sul/RS,-30.0474778,-52.8905413,893,1090.76696
D1,Cachoeira do Sul/RS,-30.0474778,-52.8905413,7,8.55024
1,Cachoeira dos Índios/PB,-6.9259193,-38.6742159,272,2639.49539
D1,Cachoeira dos Índios/PB,-6.9259193,-38.6742159,9,87.33624
1,Cachoeira/BA,-12.5998256,-38.9665918,480,1429.97587
D1,Cachoeira/BA,-12.5998256,-38.9665918,12,35.74940
1,Cachoeiras de Macacu/RJ,-22.4626861,-42.6534414,808,1362.49431
D1,Cachoeiras de Macacu/RJ,-22.4626861,-42.6534414,40,67.45021
1,Cachoeirinha/PE,-8.4906364,-36.2338963,292,1424.32076
D1,Cachoeirinha/PE,-8.4906364,-36.2338963,22,107.31184
1,Cachoeirinha/RS,-29.9493353,-51.0898927,4483,3415.87931
D1,Cachoeirinha/RS,-29.9493353,-51.0898927,113,86.10180
1,Cachoeirinha/TO,-6.118647,-47.9208885,39,1707.53065
1,Cachoeiro de Itapemirim/ES,-20.848084,-41.11129,8615,4090.90693
D1,Cachoeiro de Itapemirim/ES,-20.848084,-41.11129,203,96.39630
1,Cacimba de Areia/PB,-7.1288513,-37.1575194,14,378.89039
1,Cacimba de Dentro/PB,-6.6425101,-35.7929304,405,2357.66678
D1,Cacimba de Dentro/PB,-6.6425101,-35.7929304,9,52.39260
1,Cacimbas/PB,-7.2125451,-37.0593398,68,944.57564
D1,Cacimbas/PB,-7.2125451,-37.0593398,2,27.78164
1,Cacimbinhas/AL,-9.401212,-36.991082,302,2773.44109
D1,Cacimbinhas/AL,-9.401212,-36.991082,3,27.55074
1,Cacique Doble/RS,-27.7700117,-51.6616409,111,2187.62318
1,Cacoal/RO,-11.4333,-61.4420502,2839,3305.27517
D1,Cacoal/RO,-11.4333,-61.4420502,41,47.73381
1,Caconde/SP,-21.527995,-46.643659,221,1162.60719
D1,Caconde/SP,-21.527995,-46.643659,1,5.26067
1,Caculé/BA,-14.4990734,-42.2233006,114,489.45945
D1,Caculé/BA,-14.4990734,-42.2233006,2,8.58701
1,Caetanos/BA,-14.3387456,-40.9085971,198,1355.42169
D1,Caetanos/BA,-14.3387456,-40.9085971,1,6.84556
1,Caetanópolis/MG,-19.2947496,-44.4138386,131,1114.98851
D1,Caetanópolis/MG,-19.2947496,-44.4138386,3,25.53409
1,Caetité/BA,-14.0691776,-42.4852428,348,681.27092
D1,Caetité/BA,-14.0691776,-42.4852428,5,9.78838
1,Caeté/MG,-19.897777,-43.670278,563,1249.80576
D1,Caeté/MG,-19.897777,-43.670278,21,46.61798
1,Caetés/PE,-8.7728788,-36.6255835,765,2646.69250
D1,Caetés/PE,-8.7728788,-36.6255835,8,27.67783
1,Cafarnaum/BA,-11.691399,-41.468823,315,1701.50705
D1,Cafarnaum/BA,-11.691399,-41.468823,5,27.00805
1,Cafeara/PR,-22.78905,-51.714195,93,3148.27353
D1,Cafeara/PR,-22.78905,-51.714195,1,33.85240
1,Cafelândia/PR,-24.6176963,-53.3218057,398,2156.48028
D1,Cafelândia/PR,-24.6176963,-53.3218057,2,10.83658
1,Cafelândia/SP,-21.8054355,-49.6030627,435,2437.93084
D1,Cafelândia/SP,-21.8054355,-49.6030627,12,67.25326
1,Cafezal do Sul/PR,-23.900508,-53.512418,37,922.92342
D1,Cafezal do Sul/PR,-23.900508,-53.512418,1,24.94388
1,Caiabu/SP,-22.0143038,-51.2356597,40,953.97090
D1,Caiabu/SP,-22.0143038,-51.2356597,2,47.69855
1,Caiana/MG,-20.695555,-41.924723,18,324.85111
D1,Caiana/MG,-20.695555,-41.924723,2,36.09457
1,Caiapônia/GO,-16.9538779,-51.8090761,249,1303.18731
D1,Caiapônia/GO,-16.9538779,-51.8090761,4,20.93474
1,Caibaté/RS,-28.290475,-54.645407,9,186.60585
D1,Caibaté/RS,-28.290475,-54.645407,2,41.46797
1,Caibi/SC,-27.0751925,-53.2502133,85,1386.62316
D1,Caibi/SC,-27.0751925,-53.2502133,2,32.62643
1,Caicó/RN,-6.4594544,-37.0971911,3627,5307.05412
D1,Caicó/RN,-6.4594544,-37.0971911,42,61.45472
1,Caieiras/SP,-23.3644621,-46.7484765,2773,2698.12698
D1,Caieiras/SP,-23.3644621,-46.7484765,105,102.16492
1,Cairu/BA,-13.4860505,-39.0455744,504,2735.11695
D1,Cairu/BA,-13.4860505,-39.0455744,6,32.56092
1,Caiuá/SP,-21.8319357,-51.9887179,61,1025.89976
D1,Caiuá/SP,-21.8319357,-51.9887179,1,16.81803
1,Caiçara do Norte/RN,-5.0645017,-36.0561226,121,1844.23106
D1,Caiçara do Norte/RN,-5.0645017,-36.0561226,3,45.72474
1,Caiçara do Rio do Vento/RN,-5.757968,-36.00089,94,2530.28264
D1,Caiçara do Rio do Vento/RN,-5.757968,-36.00089,1,26.91790
1,Caiçara/PB,-6.6146866,-35.4681434,458,6369.07245
D1,Caiçara/PB,-6.6146866,-35.4681434,10,139.06272
1,Caiçara/RS,-27.2750478,-53.4310053,126,2680.85106
D1,Caiçara/RS,-27.2750478,-53.4310053,3,63.82979
1,Cajamar/SP,-23.3561111,-46.8769444,1706,2189.03174
D1,Cajamar/SP,-23.3561111,-46.8769444,78,100.08469
1,Cajapió/MA,-2.8778715,-44.6746871,50,445.79173
D1,Cajapió/MA,-2.8778715,-44.6746871,2,17.83167
1,Cajari/MA,-3.3213076,-45.0118757,132,678.62835
D1,Cajari/MA,-3.3213076,-45.0118757,4,20.56450
1,Cajati/SP,-24.7272376,-48.1077914,1925,6755.80824
D1,Cajati/SP,-24.7272376,-48.1077914,35,122.83288
1,Cajazeiras do Piauí/PI,-6.794271,-42.3935024,21,587.74139
D1,Cajazeiras do Piauí/PI,-6.794271,-42.3935024,1,27.98769
1,Cajazeiras/PB,-6.8897849,-38.5570389,2995,4808.23259
D1,Cajazeiras/PB,-6.8897849,-38.5570389,59,94.71977
1,Cajazeirinhas/PB,-6.961442,-37.7993733,39,1216.84867
1,Cajobi/SP,-20.8776238,-48.8106972,238,2246.13062
D1,Cajobi/SP,-20.8776238,-48.8106972,7,66.06267
1,Cajueiro da Praia/PI,-2.931114,-41.340801,382,4977.84728
D1,Cajueiro da Praia/PI,-2.931114,-41.340801,10,130.31014
1,Cajueiro/AL,-9.399589,-36.1524309,373,1748.62876
D1,Cajueiro/AL,-9.399589,-36.1524309,15,70.32019
1,Cajuri/MG,-20.7901414,-42.7954489,65,1635.63161
1,Cajuru/SP,-21.2759978,-47.3046035,495,1875.49729
D1,Cajuru/SP,-21.2759978,-47.3046035,14,53.04437
1,Caldas Brandão/PB,-7.1027959,-35.3254676,337,5573.93318
D1,Caldas Brandão/PB,-7.1027959,-35.3254676,2,33.07972
1,Caldas Novas/GO,-17.745,-48.625,2371,2544.10061
D1,Caldas Novas/GO,-17.745,-48.625,57,61.16142
1,Caldas/MG,-21.923611,-46.386111,171,1175.98515
D1,Caldas/MG,-21.923611,-46.386111,4,27.50842
1,Caldazinha/GO,-16.7116649,-49.0012601,110,2858.62786
D1,Caldazinha/GO,-16.7116649,-49.0012601,2,51.97505
1,Caldeirão Grande do Piauí/PI,-7.3310393,-40.6374433,133,2300.64003
1,Caldeirão Grande/BA,-11.0208483,-40.3041387,236,1762.37772
D1,Caldeirão Grande/BA,-11.0208483,-40.3041387,2,14.93540
1,Califórnia/PR,-23.6672543,-51.3554556,171,1986.98582
D1,Califórnia/PR,-23.6672543,-51.3554556,4,46.47920
1,Calmon/SC,-26.6023644,-51.0992893,13,389.80510
D1,Calmon/SC,-26.6023644,-51.0992893,2,59.97001
1,Calumbi/PE,-7.9389746,-38.1516871,205,3567.07848
D1,Calumbi/PE,-7.9389746,-38.1516871,2,34.80077
1,Calçado/PE,-8.7413446,-36.3351787,126,1143.58323
D1,Calçado/PE,-8.7413446,-36.3351787,2,18.15211
1,Calçoene/AP,2.4981757,-50.9539503,1258,11126.83531
D1,Calçoene/AP,2.4981757,-50.9539503,5,44.22431
1,Camacan/BA,-15.4166631,-39.4930088,1584,4949.07205
D1,Camacan/BA,-15.4166631,-39.4930088,32,99.98125
1,Camacho/MG,-20.625556,-45.156667,6,209.13210
1,Camalaú/PB,-7.885031,-36.824191,35,580.33494
1,Camamu/BA,-13.9438142,-39.1060917,867,2450.39851
D1,Camamu/BA,-13.9438142,-39.1060917,25,70.65740
1,Camanducaia/MG,-22.755278,-46.144444,676,3100.77519
D1,Camanducaia/MG,-22.755278,-46.144444,11,50.45640
1,Camapuã/MS,-19.5291747,-54.0434641,93,679.17914
D1,Camapuã/MS,-19.5291747,-54.0434641,3,21.90900
1,Camaquã/RS,-30.8524752,-51.8075619,1906,2867.11393
D1,Camaquã/RS,-30.8524752,-51.8075619,27,40.61494
1,Camaragibe/PE,-8.0213832,-34.9810768,2400,1510.39339
D1,Camaragibe/PE,-8.0213832,-34.9810768,211,132.78875
1,Camargo/RS,-28.5865661,-52.2031474,99,3610.50328
D1,Camargo/RS,-28.5865661,-52.2031474,1,36.46973
1,Camaçari/BA,-12.6998188,-38.3260762,6838,2247.10978
D1,Camaçari/BA,-12.6998188,-38.3260762,136,44.69244
1,Cambará do Sul/RS,-29.0489517,-50.145412,117,1826.41274
1,Cambará/PR,-23.042273,-50.075281,342,1342.96709
D1,Cambará/PR,-23.042273,-50.075281,8,31.41443
1,Cambira/PR,-23.600265,-51.581045,119,1503.09461
D1,Cambira/PR,-23.600265,-51.581045,4,50.52419
1,Camboriú/SC,-27.0273601,-48.6535657,4581,5382.76247
D1,Camboriú/SC,-27.0273601,-48.6535657,57,66.97609
1,Cambuci/RJ,-21.5749919,-41.9107833,248,1598.55614
D1,Cambuci/RJ,-21.5749919,-41.9107833,7,45.12054
1,Cambuquira/MG,-21.853056,-45.2953619,58,452.70059
D1,Cambuquira/MG,-21.853056,-45.2953619,3,23.41555
1,Cambuí/MG,-22.6122501,-46.0572137,470,1576.44060
D1,Cambuí/MG,-22.6122501,-46.0572137,9,30.18716
1,Cambé/PR,-23.2782035,-51.2779583,2747,2559.13397
D1,Cambé/PR,-23.2782035,-51.2779583,44,40.99086
1,Cametá/PA,-2.242949,-49.497885,5213,3740.56428
D1,Cametá/PA,-2.242949,-49.497885,100,71.75454
1,Camocim de São Félix/PE,-8.3616757,-35.7638903,269,1423.28042
D1,Camocim de São Félix/PE,-8.3616757,-35.7638903,9,47.61905
1,Camocim/CE,-2.9009918,-40.8427389,2426,3796.14127
D1,Camocim/CE,-2.9009918,-40.8427389,81,126.74668
1,Campanha/MG,-21.8361108,-45.401986,232,1384.08304
D1,Campanha/MG,-21.8361108,-45.401986,7,41.76113
1,Campanário/MG,-18.2398144,-41.7271768,24,643.43164
1,Campestre da Serra/RS,-28.7966535,-51.0958149,53,1561.11929
1,Campestre de Goiás/GO,-16.7624179,-49.69497,185,5069.88216
D1,Campestre de Goiás/GO,-16.7624179,-49.69497,2,54.80954
1,Campestre do Maranhão/MA,-6.1729113,-47.3640512,543,3757.00547
D1,Campestre do Maranhão/MA,-6.1729113,-47.3640512,16,110.70366
1,Campestre/AL,-8.8481634,-35.5660033,96,1380.50043
D1,Campestre/AL,-8.8481634,-35.5660033,3,43.14064
1,Campestre/MG,-19.6142116,-43.219378,306,1453.40553
D1,Campestre/MG,-19.6142116,-43.219378,4,18.99877
1,Campina Grande do Sul/PR,-25.3046032,-49.0545355,1618,3703.78849
D1,Campina Grande do Sul/PR,-25.3046032,-49.0545355,26,59.51700
1,Campina Grande/PB,-7.2246743,-35.8771292,14359,3486.82757
D1,Campina Grande/PB,-7.2246743,-35.8771292,415,100.77536
1,Campina Verde/MG,-19.535277,-49.486389,162,820.17011
D1,Campina Verde/MG,-19.535277,-49.486389,7,35.43945
1,Campina da Lagoa/PR,-24.5937926,-52.8038965,78,555.43687
D1,Campina da Lagoa/PR,-24.5937926,-52.8038965,3,21.36296
1,Campina das Missões/RS,-27.9883295,-54.8411665,68,1259.72582
D1,Campina das Missões/RS,-27.9883295,-54.8411665,4,74.10152
1,Campina do Monte Alegre/SP,-23.5935653,-48.4801876,91,1502.39392
1,Campina do Simão/PR,-25.1086375,-51.8076658,13,336.87484
D1,Campina do Simão/PR,-25.1086375,-51.8076658,1,25.91345
1,Campinas do Piauí/PI,-7.6593687,-41.8814875,46,818.50534
D1,Campinas do Piauí/PI,-7.6593687,-41.8814875,1,17.79359
1,Campinas do Sul/RS,-27.7167968,-52.6257885,119,2188.30452
D1,Campinas do Sul/RS,-27.7167968,-52.6257885,2,36.77823
1,Campinas/SP,-22.90556,-47.06083,36561,3012.13058
D1,Campinas/SP,-22.90556,-47.06083,1369,112.78703
1,Campinaçu/GO,-13.7869969,-48.5703841,118,3248.89868
1,Campinorte/GO,-14.3136699,-49.1510931,422,3306.17361
D1,Campinorte/GO,-14.3136699,-49.1510931,7,54.84174
1,Campinápolis/MT,-14.5403731,-52.7970626,472,2789.76299
D1,Campinápolis/MT,-14.5403731,-52.7970626,15,88.65772
1,Campo Alegre de Goiás/GO,-17.6337896,-47.779291,40,516.92944
D1,Campo Alegre de Goiás/GO,-17.6337896,-47.779291,1,12.92324
1,Campo Alegre de Lourdes/BA,-9.5160326,-43.0101338,161,558.63983
D1,Campo Alegre de Lourdes/BA,-9.5160326,-43.0101338,4,13.87925
1,Campo Alegre do Fidalgo/PI,-8.3753852,-41.8364191,17,335.37187
D1,Campo Alegre do Fidalgo/PI,-8.3753852,-41.8364191,1,19.72776
1,Campo Alegre/AL,-9.7798607,-36.3575793,1484,2579.20990
D1,Campo Alegre/AL,-9.7798607,-36.3575793,28,48.66434
1,Campo Alegre/SC,-26.1941684,-49.2657484,227,1894.66656
D1,Campo Alegre/SC,-26.1941684,-49.2657484,8,66.77239
1,Campo Azul/MG,-16.5078525,-44.8133524,30,784.51883
1,Campo Belo do Sul/SC,-27.8987563,-50.7586887,191,2747.41082
D1,Campo Belo do Sul/SC,-27.8987563,-50.7586887,1,14.38435
1,Campo Belo/MG,-20.8975,-45.277223,1284,2369.61577
D1,Campo Belo/MG,-20.8975,-45.277223,31,57.21035
1,Campo Bom/RS,-29.674694,-51.060601,3599,5181.54856
D1,Campo Bom/RS,-29.674694,-51.060601,57,82.06398
1,Campo Bonito/PR,-25.0328004,-52.992976,58,1541.32341
1,Campo Erê/SC,-26.3947432,-53.0790495,175,2078.87859
D1,Campo Erê/SC,-26.3947432,-53.0790495,1,11.87931
1,Campo Florido/MG,-19.760833,-48.572223,233,2817.75305
1,Campo Formoso/BA,-10.51055,-40.320031,1210,1692.61544
D1,Campo Formoso/BA,-10.51055,-40.320031,13,18.18512
1,Campo Grande do Piauí/PI,-7.1327559,-41.0381164,326,5465.21375
D1,Campo Grande do Piauí/PI,-7.1327559,-41.0381164,4,67.05784
1,Campo Grande/AL,-9.9725,-36.74791447368421,231,2414.55002
D1,Campo Grande/AL,-9.9725,-36.74791447368421,7,73.16818
1,Campo Grande/MS,-20.4640173,-54.6162947,43571,4808.67285
D1,Campo Grande/MS,-20.4640173,-54.6162947,760,83.87669
1,Campo Grande/RN,-5.862063,-37.3134908,137,1416.75284
D1,Campo Grande/RN,-5.862063,-37.3134908,3,31.02378
1,Campo Largo do Piauí/PI,-3.8104731,-42.6288333,227,3104.91041
D1,Campo Largo do Piauí/PI,-3.8104731,-42.6288333,5,68.39010
1,Campo Largo/PR,-25.4597726,-49.5270851,4542,3392.97053
D1,Campo Largo/PR,-25.4597726,-49.5270851,94,70.22000
1,Campo Limpo Paulista/SP,-23.207791,-46.788919,1446,1690.41746
D1,Campo Limpo Paulista/SP,-23.207791,-46.788919,73,85.33919
1,Campo Limpo de Goiás/GO,-16.297101,-49.0894994,110,1385.39043
D1,Campo Limpo de Goiás/GO,-16.297101,-49.0894994,2,25.18892
1,Campo Magro/PR,-25.3691533,-49.4496921,654,2199.05851
D1,Campo Magro/PR,-25.3691533,-49.4496921,15,50.43712
1,Campo Maior/PI,-4.8339574,-42.1739786,2602,5548.80259
D1,Campo Maior/PI,-4.8339574,-42.1739786,54,115.15578
1,Campo Mourão/PR,-24.046329,-52.37802,2025,2120.68532
D1,Campo Mourão/PR,-24.046329,-52.37802,48,50.26810
1,Campo Novo de Rondônia/RO,-10.5704235,-63.6199511,188,1317.81859
D1,Campo Novo de Rondônia/RO,-10.5704235,-63.6199511,6,42.05804
1,Campo Novo do Parecis/MT,-13.658735,-57.890723,2999,8297.59566
D1,Campo Novo do Parecis/MT,-13.658735,-57.890723,30,83.00362
1,Campo Novo/RS,-28.91500235,-52.331375687737626,44,1005.48446
D1,Campo Novo/RS,-28.91500235,-52.331375687737626,1,22.85192
1,Campo Redondo/RN,-6.2420373,-36.1830606,237,2099.01692
D1,Campo Redondo/RN,-6.2420373,-36.1830606,4,35.42645
1,Campo Verde/MT,-15.5430787,-55.1590511,2651,5795.80236
D1,Campo Verde/MT,-15.5430787,-55.1590511,52,113.68605
1,Campo do Brito/SE,-10.7496246,-37.4942276,799,4385.77231
D1,Campo do Brito/SE,-10.7496246,-37.4942276,12,65.86892
1,Campo do Meio/MG,-21.1072006,-45.8301735,163,1399.02154
D1,Campo do Meio/MG,-21.1072006,-45.8301735,2,17.16591
1,Campo do Tenente/PR,-25.9814143,-49.684518,164,2038.53325
D1,Campo do Tenente/PR,-25.9814143,-49.684518,6,74.58048
1,Campos Altos/MG,-19.696389,-46.171389,167,1073.05789
D1,Campos Altos/MG,-19.696389,-46.171389,6,38.55298
1,Campos Belos/GO,-13.0349839,-46.768112,361,1804.36847
D1,Campos Belos/GO,-13.0349839,-46.768112,7,34.98775
1,Campos Borges/RS,-28.8852198,-52.999098,41,1244.30956
1,Campos Gerais/MG,-21.2333342,-45.7584127,236,818.25116
D1,Campos Gerais/MG,-21.2333342,-45.7584127,7,24.27016
1,Campos Lindos/TO,-7.9740597,-46.8023881,292,2831.65244
D1,Campos Lindos/TO,-7.9740597,-46.8023881,2,19.39488
1,Campos Novos Paulista/SP,-22.601952,-49.998726,127,2541.52491
D1,Campos Novos Paulista/SP,-22.601952,-49.998726,2,40.02401
1,Campos Novos/SC,-27.3962904,-51.2224397,1608,4398.73071
D1,Campos Novos/SC,-27.3962904,-51.2224397,16,43.76846
1,Campos Sales/CE,-7.0742675,-40.3740367,604,2198.76229
D1,Campos Sales/CE,-7.0742675,-40.3740367,8,29.12268
1,Campos Verdes/GO,-14.2709062,-49.65746,43,2349.72678
D1,Campos Verdes/GO,-14.2709062,-49.65746,1,54.64481
1,Campos de Júlio/MT,-13.7223646,-59.2645296,438,6195.19095
D1,Campos de Júlio/MT,-13.7223646,-59.2645296,6,84.86563
1,Campos do Jordão/SP,-22.7395263,-45.5912829,1093,2085.67885
D1,Campos do Jordão/SP,-22.7395263,-45.5912829,31,59.15466
1,Campos dos Goytacazes/RJ,-21.7558619,-41.3326895,9364,1831.88306
D1,Campos dos Goytacazes/RJ,-21.7558619,-41.3326895,467,91.35940
1,Camutanga/PE,-7.4092965,-35.2738166,214,2496.50023
D1,Camutanga/PE,-7.4092965,-35.2738166,7,81.66122
1,Cana Verde/MG,-21.021308,-45.1817881,94,1680.37183
D1,Cana Verde/MG,-21.021308,-45.1817881,2,35.75259
1,Canabrava do Norte/MT,-11.0516481,-51.8301897,68,1438.24027
D1,Canabrava do Norte/MT,-11.0516481,-51.8301897,2,42.30118
1,Cananéia/SP,-25.0104609,-47.9315628,219,1746.27223
D1,Cananéia/SP,-25.0104609,-47.9315628,9,71.76461
1,Canapi/AL,-9.1173572,-37.6011704,68,383.76884
D1,Canapi/AL,-9.1173572,-37.6011704,3,16.93098
1,Canarana/BA,-11.6870151,-41.7683675,443,1682.81102
D1,Canarana/BA,-11.6870151,-41.7683675,5,18.99335
1,Canarana/MT,-13.5564602,-52.2691167,821,3758.81330
D1,Canarana/MT,-13.5564602,-52.2691167,16,73.25337
1,Canas/SP,-22.7029347,-45.0526508,53,1018.44735
D1,Canas/SP,-22.7029347,-45.0526508,2,38.43198
1,Canavieira/PI,-7.6924041,-43.7190063,17,431.03448
D1,Canavieira/PI,-7.6924041,-43.7190063,1,25.35497
1,Canavieiras/BA,-15.61621745,-39.08485321304444,392,1268.36213
D1,Canavieiras/BA,-15.61621745,-39.08485321304444,20,64.71235
