type,name,lat,lon,total,total_per_100k_inhabitants
1,Abadia de Goiás/GO,-16.7572644,-49.4412205,845,9432.90913
D1,Abadia de Goiás/GO,-16.7572644,-49.4412205,12,133.95847
1,Abadia dos Dourados/MG,-18.4911191,-47.4063589,192,2740.50814
D1,Abadia dos Dourados/MG,-18.4911191,-47.4063589,2,28.54696
1,Abadiânia/GO,-16.1940946,-48.7067767,222,1084.99096
D1,Abadiânia/GO,-16.1940946,-48.7067767,17,83.08489
1,Abaetetuba/PA,-1.721828,-48.878843,5685,3573.67362
D1,Abaetetuba/PA,-1.721828,-48.878843,126,79.20543
1,Abaeté/MG,-19.1566833,-45.4481213,463,1991.39785
D1,Abaeté/MG,-19.1566833,-45.4481213,7,30.10753
1,Abaiara/CE,-7.3607808,-39.0487878,197,1662.02649
D1,Abaiara/CE,-7.3607808,-39.0487878,4,33.74673
1,Abaré/BA,-8.7239913,-39.1139689,315,1548.13977
D1,Abaré/BA,-8.7239913,-39.1139689,1,4.91473
1,Abatiá/PR,-23.3052967,-50.3102532,262,3536.71706
D1,Abatiá/PR,-23.3052967,-50.3102532,3,40.49676
1,Abaíra/BA,-13.2503296,-41.6640342,185,2123.99541
D1,Abaíra/BA,-13.2503296,-41.6640342,5,57.40528
1,Abdon Batista/SC,-27.612419,-51.022992,187,7339.08948
D1,Abdon Batista/SC,-27.612419,-51.022992,1,39.24647
1,Abel Figueiredo/PA,-4.953001,-48.3958485,514,6866.15015
D1,Abel Figueiredo/PA,-4.953001,-48.3958485,4,53.43308
1,Abelardo Luz/SC,-26.5705893,-52.3280339,827,4604.67706
D1,Abelardo Luz/SC,-26.5705893,-52.3280339,19,105.79065
1,Abre Campo/MG,-20.2976097,-42.4764741,337,2506.69444
D1,Abre Campo/MG,-20.2976097,-42.4764741,4,29.75305
1,Abreu e Lima/PE,-7.900719,-34.898389,1505,1499.81066
D1,Abreu e Lima/PE,-7.900719,-34.898389,155,154.46555
1,Abreulândia/TO,-9.6221526,-49.1558343,138,5319.96916
D1,Abreulândia/TO,-9.6221526,-49.1558343,4,154.20200
1,Acaiaca/MG,-20.3621646,-43.1444162,111,2779.16875
D1,Acaiaca/MG,-20.3621646,-43.1444162,4,100.15023
1,Acajutiba/BA,-11.6609659,-38.0186381,314,2067.55778
D1,Acajutiba/BA,-11.6609659,-38.0186381,7,46.09205
1,Acarape/CE,-4.2237866,-38.7071663,2007,13347.96488
D1,Acarape/CE,-4.2237866,-38.7071663,14,93.10987
1,Acaraú/CE,-2.8869514,-40.1194713,2950,4674.82252
D1,Acaraú/CE,-2.8869514,-40.1194713,59,93.49645
1,Acari/RN,-6.4364689,-36.6394777,439,3947.48674
D1,Acari/RN,-6.4364689,-36.6394777,7,62.94398
1,Acará/PA,-1.961388,-48.1987043,906,1627.47669
D1,Acará/PA,-1.961388,-48.1987043,16,28.74131
1,Acauã/PI,-8.219542,-41.083059,136,1914.95353
D1,Acauã/PI,-8.219542,-41.083059,1,14.08054
1,Aceguá/RS,-31.8695131,-54.1615593,66,1335.49170
1,Acopiara/CE,-6.0936464,-39.4543204,1482,2720.21439
D1,Acopiara/CE,-6.0936464,-39.4543204,66,121.14315
1,Acorizal/MT,-15.2001544,-56.3668953,277,5193.10086
D1,Acorizal/MT,-15.2001544,-56.3668953,7,131.23360
1,Acrelândia/AC,-10.0759167,-67.0526898,772,4983.86056
D1,Acrelândia/AC,-10.0759167,-67.0526898,14,90.38089
1,Acreúna/GO,-17.3959899,-50.3749031,1255,5566.39759
D1,Acreúna/GO,-17.3959899,-50.3749031,30,133.06130
1,Adamantina/SP,-21.6866517,-51.0762975,1221,3477.54265
D1,Adamantina/SP,-21.6866517,-51.0762975,32,91.13953
1,Adelândia/GO,-16.4155077,-50.1665834,93,3696.34340
D1,Adelândia/GO,-16.4155077,-50.1665834,2,79.49126
1,Adolfo/SP,-21.2356597,-49.6441918,237,6668.54249
D1,Adolfo/SP,-21.2356597,-49.6441918,6,168.82386
1,Adrianópolis/PR,-24.6557863,-48.9912769,632,10790.50709
D1,Adrianópolis/PR,-24.6557863,-48.9912769,9,153.66228
1,Adustina/BA,-10.5358875,-38.114479,294,1716.68808
D1,Adustina/BA,-10.5358875,-38.114479,4,23.35630
1,Afogados da Ingazeira/PE,-7.750429,-37.6356375,2065,5520.79991
D1,Afogados da Ingazeira/PE,-7.750429,-37.6356375,28,74.85830
1,Afonso Bezerra/RN,-5.4745,-36.57625071327935,251,2275.81830
D1,Afonso Bezerra/RN,-5.4745,-36.57625071327935,11,99.73706
1,Afonso Cláudio/ES,-20.077841,-41.12606,2308,7578.39435
D1,Afonso Cláudio/ES,-20.077841,-41.12606,38,124.77426
1,Afonso Cunha/MA,-4.1326105,-43.3230026,152,2310.73275
D1,Afonso Cunha/MA,-4.1326105,-43.3230026,2,30.40438
1,Afrânio/PE,-8.5198919,-41.0070197,556,2806.66330
D1,Afrânio/PE,-8.5198919,-41.0070197,9,45.43160
1,Afuá/PA,-0.1535664,-50.3879223,2685,6785.95800
D1,Afuá/PA,-0.1535664,-50.3879223,11,27.80095
1,Agrestina/PE,-8.4558021,-35.9442663,768,3064.03351
D1,Agrestina/PE,-8.4558021,-35.9442663,34,135.64732
1,Agricolândia/PI,-5.7967843,-42.6605131,77,1500.68213
1,Agrolândia/SC,-27.4122212,-49.8295774,528,4794.33397
D1,Agrolândia/SC,-27.4122212,-49.8295774,6,54.48107
1,Agronômica/SC,-27.2660744,-49.7104753,274,4973.67943
D1,Agronômica/SC,-27.2660744,-49.7104753,7,127.06480
1,Aguanil/MG,-20.9424533,-45.3927152,233,5152.58735
D1,Aguanil/MG,-20.9424533,-45.3927152,7,154.79876
1,Aguaí/SP,-22.0592036,-46.979384,1001,2731.39053
D1,Aguaí/SP,-22.0592036,-46.979384,21,57.30190
1,Agudo/RS,-29.6423259,-53.2494005,477,2908.35925
D1,Agudo/RS,-29.6423259,-53.2494005,4,24.38876
1,Agudos do Sul/PR,-25.9890808,-49.3328175,268,2829.98944
D1,Agudos do Sul/PR,-25.9890808,-49.3328175,2,21.11932
1,Agudos/SP,-22.471162,-48.987822,1406,3759.25777
D1,Agudos/SP,-22.471162,-48.987822,24,64.16941
1,Aguiar/PB,-7.0928404,-38.1727215,85,1509.76909
D1,Aguiar/PB,-7.0928404,-38.1727215,1,17.76199
1,Aguiarnópolis/TO,-6.5600452,-47.4721189,482,6993.61579
D1,Aguiarnópolis/TO,-6.5600452,-47.4721189,10,145.09576
1,Aimorés/MG,-19.4917754,-41.0615603,1094,4351.45778
D1,Aimorés/MG,-19.4917754,-41.0615603,29,115.34943
1,Aiquara/BA,-14.126918,-39.8887574,364,8242.75362
D1,Aiquara/BA,-14.126918,-39.8887574,6,135.86957
1,Aiuaba/CE,-6.5710836,-40.1212278,133,760.30412
D1,Aiuaba/CE,-6.5710836,-40.1212278,2,11.43314
1,Aiuruoca/MG,-21.9759554,-44.6036637,72,1204.81928
D1,Aiuruoca/MG,-21.9759554,-44.6036637,5,83.66801
1,Ajuricaba/RS,-28.239654,-53.7693013,525,7513.95449
D1,Ajuricaba/RS,-28.239654,-53.7693013,4,57.24918
1,Alagoa Grande/PB,-7.0415212,-35.6285322,1901,6684.48258
D1,Alagoa Grande/PB,-7.0415212,-35.6285322,31,109.00524
1,Alagoa Nova/PB,-7.0653703,-35.76695977336711,557,2662.39663
D1,Alagoa Nova/PB,-7.0653703,-35.76695977336711,11,52.57875
1,Alagoa/MG,-22.1697202,-44.6400042,158,5928.70544
1,Alagoinha do Piauí/PI,-7.0090952,-40.939675,222,2896.28180
D1,Alagoinha do Piauí/PI,-7.0090952,-40.939675,9,117.41683
1,Alagoinha/PB,-6.97063215,-35.51490901897793,1208,8296.70330
D1,Alagoinha/PB,-6.97063215,-35.51490901897793,16,109.89011
1,Alagoinha/PE,-8.50355635,-36.77701174370496,418,2840.05979
D1,Alagoinha/PE,-8.50355635,-36.77701174370496,12,81.53282
1,Alagoinhas/BA,-12.133526,-38.420772,8272,5430.42271
D1,Alagoinhas/BA,-12.133526,-38.420772,118,77.46493
1,Alambari/SP,-23.550338,-47.897971,194,3165.27982
D1,Alambari/SP,-23.550338,-47.897971,6,97.89525
1,Albertina/MG,-20.66164,-43.784039,98,3254.73265
D1,Albertina/MG,-20.66164,-43.784039,5,166.05779
1,Alcantil/PB,-7.7425491,-36.0609604,136,2468.68760
D1,Alcantil/PB,-7.7425491,-36.0609604,1,18.15211
1,Alcinópolis/MS,-18.3264121,-53.7094463,77,1421.45099
D1,Alcinópolis/MS,-18.3264121,-53.7094463,2,36.92080
1,Alcobaça/BA,-17.5215875,-39.1965474,979,4353.04580
D1,Alcobaça/BA,-17.5215875,-39.1965474,16,71.14273
1,Alcântara/MA,-2.4038956,-44.4154241,202,913.53111
D1,Alcântara/MA,-2.4038956,-44.4154241,8,36.17945
1,Alcântaras/CE,-3.586247,-40.5457641,705,5984.21187
D1,Alcântaras/CE,-3.586247,-40.5457641,5,42.44122
1,Aldeias Altas/MA,-4.6291957,-43.4708622,973,3636.43159
D1,Aldeias Altas/MA,-4.6291957,-43.4708622,11,41.11074
1,Alecrim/RS,-27.6566142,-54.7653195,86,1475.88811
D1,Alecrim/RS,-27.6566142,-54.7653195,2,34.32298
1,Alegre/ES,-20.7625787,-41.5318886,1211,4040.03336
D1,Alegre/ES,-20.7625787,-41.5318886,26,86.73895
1,Alegrete do Piauí/PI,-7.2440138,-40.8602296,362,7360.71574
D1,Alegrete do Piauí/PI,-7.2440138,-40.8602296,4,81.33388
1,Alegrete/RS,-29.790166,-55.794862,2837,3884.81131
D1,Alegrete/RS,-29.790166,-55.794862,58,79.42159
1,Alegria/RS,-27.8332103,-54.0574959,210,6224.06639
D1,Alegria/RS,-27.8332103,-54.0574959,1,29.63841
1,Alenquer/PA,-1.946229,-54.738355,1789,3133.53885
D1,Alenquer/PA,-1.946229,-54.738355,31,54.29833
1,Alexandria/RN,-6.414779,-38.0135516,758,5592.85767
D1,Alexandria/RN,-6.414779,-38.0135516,9,66.40596
1,Alexânia/GO,-16.0834049,-48.5077803,1652,5897.89361
D1,Alexânia/GO,-16.0834049,-48.5077803,27,96.39414
1,Alfenas/MG,-21.4297405,-45.9479419,3842,4773.02656
D1,Alfenas/MG,-21.4297405,-45.9479419,90,111.80958
1,Alfredo Chaves/ES,-20.624970400000002,-40.75006690147988,1607,10979.77590
D1,Alfredo Chaves/ES,-20.624970400000002,-40.75006690147988,22,150.31429
1,Alfredo Marcondes/SP,-21.9527,-51.413956,125,2987.57170
D1,Alfredo Marcondes/SP,-21.9527,-51.413956,4,95.60229
1,Alfredo Vasconcelos/MG,-21.145833,-43.776389,141,2019.76794
D1,Alfredo Vasconcelos/MG,-21.145833,-43.776389,5,71.62298
1,Alfredo Wagner/SC,-27.6961513,-49.3326734,540,5353.95598
D1,Alfredo Wagner/SC,-27.6961513,-49.3326734,1,9.91473
1,Algodão de Jandaíra/PB,-6.9040175,-36.0089879,53,2056.65503
1,Alhandra/PB,-7.4304246,-34.9106103,907,4597.75942
D1,Alhandra/PB,-7.4304246,-34.9106103,20,101.38389
1,Aliança do Tocantins/TO,-11.3055927,-48.9409096,314,5873.55032
D1,Aliança do Tocantins/TO,-11.3055927,-48.9409096,7,130.93902
1,Aliança/PE,-7.60398,-35.222696,423,1101.64857
D1,Aliança/PE,-7.60398,-35.222696,30,78.13110
1,Almadina/BA,-14.70466,-39.6381994,473,8814.75960
D1,Almadina/BA,-14.70466,-39.6381994,7,130.45099
1,Almas/TO,-11.5681309,-47.1702803,144,2063.33286
D1,Almas/TO,-11.5681309,-47.1702803,3,42.98610
1,Almeirim/PA,-1.5290377,-52.5788111,2178,6391.59526
D1,Almeirim/PA,-1.5290377,-52.5788111,18,52.82310
1,Almenara/MG,-16.1740678,-40.6904907,2146,5092.18613
D1,Almenara/MG,-16.1740678,-40.6904907,23,54.57609
1,Almino Afonso/RN,-6.1544208,-37.7649018,229,4861.99575
D1,Almino Afonso/RN,-6.1544208,-37.7649018,3,63.69427
1,Almirante Tamandaré do Sul/RS,-28.1141129,-52.9134874,91,4669.06106
1,Almirante Tamandaré/PR,-25.3133048,-49.2997838,4732,3941.98649
D1,Almirante Tamandaré/PR,-25.3133048,-49.2997838,127,105.79719
1,Aloândia/GO,-17.7277983,-49.4809338,161,8106.74723
D1,Aloândia/GO,-17.7277983,-49.4809338,5,251.76234
1,Alpercata/MG,-18.9803616,-41.9827637,331,4451.31791
D1,Alpercata/MG,-18.9803616,-41.9827637,12,161.37708
1,Alpestre/RS,-27.2512339,-53.0349646,151,2488.87424
D1,Alpestre/RS,-27.2512339,-53.0349646,3,49.44783
1,Alpinópolis/MG,-20.863611,-46.387777,427,2139.49294
D1,Alpinópolis/MG,-20.863611,-46.387777,5,25.05261
1,Alta Floresta D'Oeste/RO,-11.9296917,-61.9961284,2334,10269.27138
D1,Alta Floresta D'Oeste/RO,-11.9296917,-61.9961284,29,127.59592
1,Alta Floresta/MT,-9.8715018,-56.0839881,4024,7744.56783
D1,Alta Floresta/MT,-9.8715018,-56.0839881,47,90.45594
1,Altair/SP,-20.5238955,-49.0606135,58,1385.57095
D1,Altair/SP,-20.5238955,-49.0606135,4,95.55662
1,Altamira do Maranhão/MA,-4.1643006,-45.4674574,275,3358.16339
D1,Altamira do Maranhão/MA,-4.1643006,-45.4674574,7,85.48052
1,Altamira do Paraná/PR,-24.799114,-52.7128633,46,2734.83948
D1,Altamira do Paraná/PR,-24.799114,-52.7128633,2,118.90606
1,Altamira/PA,-3.204065,-52.209961,7807,6731.97148
D1,Altamira/PA,-3.204065,-52.209961,158,136.24331
1,Altaneira/CE,-6.9980933,-39.7385742,247,3228.75817
D1,Altaneira/CE,-6.9980933,-39.7385742,7,91.50327
1,Alterosa/MG,-21.249166,-46.143055,453,3120.47944
D1,Alterosa/MG,-21.249166,-46.143055,20,137.76951
1,Altinho/PE,-8.4904095,-36.0607494,669,2910.72050
D1,Altinho/PE,-8.4904095,-36.0607494,12,52.21023
1,Altinópolis/SP,-21.021364,-47.3712,477,2943.89928
D1,Altinópolis/SP,-21.021364,-47.3712,14,86.40375
1,Alto Alegre do Maranhão/MA,-4.2055693,-44.4525287,446,1600.97638
D1,Alto Alegre do Maranhão/MA,-4.2055693,-44.4525287,18,64.61340
1,Alto Alegre do Pindaré/MA,-3.6698186,-45.8462153,1621,5074.66425
D1,Alto Alegre do Pindaré/MA,-3.6698186,-45.8462153,25,78.26441
1,Alto Alegre dos Parecis/RO,-12.1314515,-61.856265,574,4330.44134
D1,Alto Alegre dos Parecis/RO,-12.1314515,-61.856265,16,120.70917
1,Alto Alegre/RR,2.98858,-61.307167,959,6235.37061
D1,Alto Alegre/RR,2.98858,-61.307167,21,136.54096
1,Alto Alegre/RS,-31.780844700000003,-52.81311114489171,32,1983.88097
1,Alto Alegre/SP,-21.5820592,-50.1661976,148,3620.35225
D1,Alto Alegre/SP,-21.5820592,-50.1661976,4,97.84736
1,Alto Araguaia/MT,-17.3156528,-53.2169365,616,3177.71473
D1,Alto Araguaia/MT,-17.3156528,-53.2169365,11,56.74491
1,Alto Bela Vista/SC,-27.4320737,-51.905771,65,3374.87020
D1,Alto Bela Vista/SC,-27.4320737,-51.905771,1,51.92108
1,Alto Boa Vista/MT,-11.6723985,-51.3744431,202,2912.34141
D1,Alto Boa Vista/MT,-11.6723985,-51.3744431,4,57.67013
1,Alto Caparaó/MG,-20.4405661,-41.8683799,253,4292.50085
D1,Alto Caparaó/MG,-20.4405661,-41.8683799,6,101.79844
1,Alto Feliz/RS,-29.3785943,-51.3123751,101,3326.74572
1,Alto Garças/MT,-16.9469683,-53.529427,356,2929.80002
D1,Alto Garças/MT,-16.9469683,-53.529427,16,131.67641
1,Alto Horizonte/GO,-14.1954948,-49.3366993,276,4178.65254
D1,Alto Horizonte/GO,-14.1954948,-49.3366993,3,45.42014
1,Alto Jequitibá/MG,-20.423611,-41.966111,398,4794.60306
D1,Alto Jequitibá/MG,-20.423611,-41.966111,9,108.42067
1,Alto Longá/PI,-5.2549051,-42.2072388,331,2308.38971
D1,Alto Longá/PI,-5.2549051,-42.2072388,7,48.81791
1,Alto Paraguai/MT,-14.513712,-56.4936374,371,3233.67907
D1,Alto Paraguai/MT,-14.513712,-56.4936374,11,95.87728
1,Alto Paraná/PR,-23.131247,-52.318893,425,2860.21940
D1,Alto Paraná/PR,-23.131247,-52.318893,4,26.91971
1,Alto Paraíso de Goiás/GO,-14.1304779,-47.5100161,432,5619.14672
1,Alto Paraíso/PR,-23.508137,-53.728537,70,2607.07635
1,Alto Paraíso/RO,-9.7240103,-63.3188123,736,3368.88360
D1,Alto Paraíso/RO,-9.7240103,-63.3188123,10,45.77287
1,Alto Parnaíba/MA,-9.112506,-45.9310154,595,5306.81413
D1,Alto Parnaíba/MA,-9.112506,-45.9310154,5,44.59508
1,Alto Piquiri/PR,-24.0239021,-53.4417448,326,3334.01514
D1,Alto Piquiri/PR,-24.0239021,-53.4417448,7,71.58928
1,Alto Rio Doce/MG,-21.0239537,-43.4133507,185,1703.65595
D1,Alto Rio Doce/MG,-21.0239537,-43.4133507,15,138.13427
1,Alto Rio Novo/ES,-19.0577208,-41.0171518,457,5803.91161
D1,Alto Rio Novo/ES,-19.0577208,-41.0171518,15,190.50038
1,Alto Santo/CE,-5.5190371,-38.2719351,614,3570.59781
D1,Alto Santo/CE,-5.5190371,-38.2719351,14,81.41428
1,Alto Taquari/MT,-17.8269099,-53.2831736,693,6224.73727
D1,Alto Taquari/MT,-17.8269099,-53.2831736,11,98.80535
1,Alto do Rodrigues/RN,-5.290868,-36.7616726,897,6090.43998
D1,Alto do Rodrigues/RN,-5.290868,-36.7616726,20,135.79576
1,Altos/PI,-5.0393915,-42.4611694,2491,6134.71247
D1,Altos/PI,-5.0393915,-42.4611694,35,86.19628
1,Altônia/PR,-23.8722004,-53.894037,620,2795.81530
D1,Altônia/PR,-23.8722004,-53.894037,5,22.54690
1,Alumínio/SP,-23.5203479,-47.2575256,611,3255.71482
D1,Alumínio/SP,-23.5203479,-47.2575256,20,106.57004
1,Alvarenga/MG,-19.4175,-41.728334,307,7986.47242
D1,Alvarenga/MG,-19.4175,-41.728334,3,78.04370
1,Alvarães/AM,-3.214786,-64.8143124,2181,13446.36252
D1,Alvarães/AM,-3.214786,-64.8143124,31,191.12207
1,Alvinlândia/SP,-22.4431852,-49.7643596,56,1729.99691
1,Alvinópolis/MG,-20.1105199,-43.0601805,282,1859.05465
D1,Alvinópolis/MG,-20.1105199,-43.0601805,3,19.77718
1,Alvorada D'Oeste/RO,-11.346271,-62.284697,472,3346.09386
D1,Alvorada D'Oeste/RO,-11.346271,-62.284697,9,63.80264
1,Alvorada de Minas/MG,-18.7318587,-43.3641479,132,3661.58114
D1,Alvorada de Minas/MG,-18.7318587,-43.3641479,1,27.73925
1,Alvorada do Gurguéia/PI,-8.4465288,-43.8655915,181,3324.15060
D1,Alvorada do Gurguéia/PI,-8.4465288,-43.8655915,5,91.82736
1,Alvorada do Norte/GO,-14.483911,-46.4959897,397,4560.59736
D1,Alvorada do Norte/GO,-14.483911,-46.4959897,2,22.97530
1,Alvorada do Sul/PR,-22.7807269,-51.2307721,330,2868.81683
D1,Alvorada do Sul/PR,-22.7807269,-51.2307721,8,69.54707
1,Alvorada/RS,-29.9981184,-51.0772509,10861,5138.82055
D1,Alvorada/RS,-29.9981184,-51.0772509,286,135.31928
1,Alvorada/TO,-12.478465,-49.124926,674,8027.63221
D1,Alvorada/TO,-12.478465,-49.124926,11,131.01477
1,Além Paraíba/MG,-21.8760576,-42.6810473,1532,4327.56137
D1,Além Paraíba/MG,-21.8760576,-42.6810473,51,144.06373
1,Amajari/RR,3.6523869,-61.4194315,688,5218.05082
D1,Amajari/RR,3.6523869,-61.4194315,16,121.35002
1,Amambai/MS,-23.1082701,-55.2284854,1712,4298.69934
D1,Amambai/MS,-23.1082701,-55.2284854,33,82.86044
1,Amaporã/PR,-23.094272,-52.786597,92,1452.93746
1,Amapá do Maranhão/MA,-1.6762114,-46.0109669,39,556.74518
1,Amapá/AP,2.0529997,-50.7930003,1073,11679.54719
D1,Amapá/AP,2.0529997,-50.7930003,7,76.19462
1,Amaraji/PE,-8.373925,-35.4536527,388,1696.54569
D1,Amaraji/PE,-8.373925,-35.4536527,24,104.94097
1,Amaral Ferrador/RS,-30.8750633,-52.2542051,159,2244.17784
D1,Amaral Ferrador/RS,-30.8750633,-52.2542051,2,28.22865
1,Amaralina/GO,-13.9236199,-49.2962411,18,468.14044
1,Amarante do Maranhão/MA,-5.56913,-46.747284,1175,2815.78758
D1,Amarante do Maranhão/MA,-5.56913,-46.747284,31,74.28886
1,Amarante/PI,-6.2459374,-42.8476238,895,5084.07180
D1,Amarante/PI,-6.2459374,-42.8476238,17,96.56896
1,Amargosa/BA,-13.03793715,-39.60796443875596,1275,3405.35776
D1,Amargosa/BA,-13.03793715,-39.60796443875596,19,50.74651
1,Amaturá/AM,-3.3640509,-68.1994689,1515,12908.99796
D1,Amaturá/AM,-3.3640509,-68.1994689,14,119.29107
1,Americana/SP,-22.7392463,-47.3306032,10239,4230.67706
D1,Americana/SP,-22.7392463,-47.3306032,262,108.25641
1,Americano do Brasil/GO,-16.2515808,-49.9806104,187,3033.74432
D1,Americano do Brasil/GO,-16.2515808,-49.9806104,4,64.89293
1,Ametista do Sul/RS,-27.3617341,-53.1826575,213,2877.21194
D1,Ametista do Sul/RS,-27.3617341,-53.1826575,2,27.01607
1,Amontada/CE,-3.3634586,-39.8284791,1152,2628.39672
D1,Amontada/CE,-3.3634586,-39.8284791,21,47.91348
1,Amorinópolis/GO,-16.6211308,-51.0949921,111,3616.81329
D1,Amorinópolis/GO,-16.6211308,-51.0949921,1,32.58390
1,Amparo de São Francisco/SE,-10.1299754,-36.9269099,77,3235.29412
D1,Amparo de São Francisco/SE,-10.1299754,-36.9269099,2,84.03361
1,Amparo do Serra/MG,-20.5070255,-42.8028462,74,1581.87260
D1,Amparo do Serra/MG,-20.5070255,-42.8028462,3,64.12997
1,Amparo/PB,-7.56394725,-37.04652873235175,59,2621.05731
D1,Amparo/PB,-7.56394725,-37.04652873235175,2,88.84940
1,Amparo/SP,-22.70111,-46.76444,2702,3717.81994
D1,Amparo/SP,-22.70111,-46.76444,49,67.42161
1,Ampére/PR,-25.9168712,-53.4742414,565,2925.79359
D1,Ampére/PR,-25.9168712,-53.4742414,14,72.49754
1,Amélia Rodrigues/BA,-12.4015388,-38.7516971,1122,4479.39955
D1,Amélia Rodrigues/BA,-12.4015388,-38.7516971,20,79.84669
1,América Dourada/BA,-11.4515262,-41.4357517,427,2653.82225
D1,América Dourada/BA,-11.4515262,-41.4357517,2,12.43008
1,Américo Brasiliense/SP,-21.7297099,-48.1052092,1828,4455.05947
D1,Américo Brasiliense/SP,-21.7297099,-48.1052092,34,82.86216
1,Américo de Campos/SP,-20.298476,-49.735904,416,6955.35864
D1,Américo de Campos/SP,-20.298476,-49.735904,14,234.07457
1,Anadia/AL,-9.6830208,-36.3052699,702,4005.47758
D1,Anadia/AL,-9.6830208,-36.3052699,11,62.76389
1,Anagé/BA,-14.6134669,-41.1376308,423,1957.69889
D1,Anagé/BA,-14.6134669,-41.1376308,9,41.65317
1,Anahy/PR,-24.6450861,-53.1337957,81,2905.30846
D1,Anahy/PR,-24.6450861,-53.1337957,3,107.60402
1,Anajatuba/MA,-3.26441,-44.6179916,421,1559.95257
D1,Anajatuba/MA,-3.26441,-44.6179916,14,51.87491
1,Anajás/PA,-0.9878802,-49.9390114,1052,3543.51927
D1,Anajás/PA,-0.9878802,-49.9390114,11,37.05201
1,Analândia/SP,-22.128917,-47.661939,179,3540.34810
D1,Analândia/SP,-22.128917,-47.661939,3,59.33544
1,Anamã/AM,-3.5797356,-61.4049996,1457,10439.95414
D1,Anamã/AM,-3.5797356,-61.4049996,4,28.66151
1,Ananindeua/PA,-1.374035,-48.4016623,13325,2488.11029
D1,Ananindeua/PA,-1.374035,-48.4016623,419,78.23776
1,Ananás/TO,-6.3663053,-48.080238,970,10219.13190
D1,Ananás/TO,-6.3663053,-48.080238,18,189.63338
1,Anapu/PA,-3.4668292,-51.2057035,1139,3981.54298
D1,Anapu/PA,-3.4668292,-51.2057035,23,80.39990
1,Anapurus/MA,-3.6751298,-43.1046001,824,5184.34629
D1,Anapurus/MA,-3.6751298,-43.1046001,7,44.04178
1,Anastácio/MS,-20.4832458,-55.8048448,1437,5694.02068
D1,Anastácio/MS,-20.4832458,-55.8048448,42,166.42232
1,Anaurilândia/MS,-22.185169,-52.719056,146,1608.63817
D1,Anaurilândia/MS,-22.185169,-52.719056,5,55.09035
1,Anchieta/ES,-20.8057672,-40.6454564,2543,8539.57487
D1,Anchieta/ES,-20.8057672,-40.6454564,41,137.68092
1,Anchieta/SC,-26.5350527,-53.3293938,243,4372.86306
D1,Anchieta/SC,-26.5350527,-53.3293938,4,71.98128
1,Andaraí/BA,-12.8059674,-41.3322919,528,4020.71276
D1,Andaraí/BA,-12.8059674,-41.3322919,3,22.84496
1,Andirá/PR,-23.0494761,-50.2310027,1001,5023.58727
D1,Andirá/PR,-23.0494761,-50.2310027,17,85.31567
1,Andorinha/BA,-10.3445708,-39.8334411,501,3454.45770
D1,Andorinha/BA,-10.3445708,-39.8334411,7,48.26588
1,Andradas/MG,-22.0680484,-46.5688976,1197,2891.58373
D1,Andradas/MG,-22.0680484,-46.5688976,25,60.39231
1,Andradina/SP,-20.896505,-51.3742765,2861,5001.57337
D1,Andradina/SP,-20.896505,-51.3742765,103,180.06363
1,Andrelândia/MG,-21.739722,-44.308889,181,1482.87727
D1,Andrelândia/MG,-21.739722,-44.308889,3,24.57808
1,André da Rocha/RS,-28.6309124,-51.5733328,55,4095.30901
1,Angatuba/SP,-23.4938938,-48.4110675,664,2606.06774
D1,Angatuba/SP,-23.4938938,-48.4110675,19,74.57122
1,Angelim/PE,-8.8902038,-36.2872987,112,997.68395
D1,Angelim/PE,-8.8902038,-36.2872987,4,35.63157
1,Angelina/SC,-27.5805287,-48.9838759,283,5966.68775
1,Angelândia/MG,-17.7253,-42.2728,53,619.37595
1,Angical do Piauí/PI,-6.0872666,-42.7366138,260,3833.11219
D1,Angical do Piauí/PI,-6.0872666,-42.7366138,6,88.45644
1,Angical/BA,-12.005623,-44.7000236,318,2281.53250
D1,Angical/BA,-12.005623,-44.7000236,5,35.87315
1,Angico/TO,-6.3893733,-47.8656722,180,5211.34916
D1,Angico/TO,-6.3893733,-47.8656722,3,86.85582
1,Angicos/RN,-5.6666344,-36.6009064,277,2366.51004
D1,Angicos/RN,-5.6666344,-36.6009064,6,51.26015
1,Angra dos Reis/RJ,-23.0063966,-44.316326,10686,5161.22177
D1,Angra dos Reis/RJ,-23.0063966,-44.316326,339,163.73331
1,Anguera/BA,-12.1509425,-39.2452469,203,1796.93724
1,Angélica/MS,-22.1588196,-53.7728504,394,3604.09806
D1,Angélica/MS,-22.1588196,-53.7728504,7,64.03220
1,Anhanguera/GO,-18.3338749,-48.220363,42,3620.68966
D1,Anhanguera/GO,-18.3338749,-48.220363,5,431.03448
1,Anhembi/SP,-22.7891096,-48.1316776,75,1099.86802
D1,Anhembi/SP,-22.7891096,-48.1316776,2,29.32981
1,Anhumas/SP,-22.2956478,-51.3873401,144,3474.90347
D1,Anhumas/SP,-22.2956478,-51.3873401,1,24.13127
1,Anicuns/GO,-16.4606451,-49.9572265,1238,5632.13685
D1,Anicuns/GO,-16.4606451,-49.9572265,23,104.63582
1,Anita Garibaldi/SC,-27.6855032,-51.1293873,630,9055.62743
D1,Anita Garibaldi/SC,-27.6855032,-51.1293873,3,43.12204
1,Anitápolis/SC,-27.9041185,-49.1287395,199,6164.80793
1,Anori/AM,-3.7435254,-61.6605203,1701,7920.10057
D1,Anori/AM,-3.7435254,-61.6605203,28,130.37203
1,Anta Gorda/RS,-28.9718745,-52.0069187,387,6492.19930
D1,Anta Gorda/RS,-28.9718745,-52.0069187,1,16.77571
1,Antas/BA,-10.4114649,-38.3308815,715,3670.61964
1,Antonina do Norte/CE,-6.7754187,-39.9879345,103,1396.04229
D1,Antonina do Norte/CE,-6.7754187,-39.9879345,7,94.87666
1,Antonina/PR,-25.4298854,-48.7125431,1477,7794.60658
D1,Antonina/PR,-25.4298854,-48.7125431,38,200.53829
1,Antônio Almeida/PI,-7.2186016,-44.1950248,276,8706.62461
D1,Antônio Almeida/PI,-7.2186016,-44.1950248,5,157.72871
1,Antônio Cardoso/BA,-12.4363122,-39.1200307,200,1712.76869
D1,Antônio Cardoso/BA,-12.4363122,-39.1200307,5,42.81922
1,Antônio Carlos/MG,-21.318334,-43.746666,312,2722.75068
D1,Antônio Carlos/MG,-21.318334,-43.746666,5,43.63382
1,Antônio Carlos/SC,-27.5168462,-48.7684715,933,10832.46256
D1,Antônio Carlos/SC,-27.5168462,-48.7684715,14,162.54499
1,Antônio Dias/MG,-19.6525,-42.872778,225,2425.87601
D1,Antônio Dias/MG,-19.6525,-42.872778,6,64.69003
1,Antônio Gonçalves/BA,-10.5715409,-40.2748824,464,3906.38155
D1,Antônio Gonçalves/BA,-10.5715409,-40.2748824,3,25.25678
1,Antônio João/MS,-22.1892837,-55.9508227,194,2150.77605
D1,Antônio João/MS,-22.1892837,-55.9508227,4,44.34590
1,Antônio Martins/RN,-6.2155812,-37.8890129,193,2697.79145
D1,Antônio Martins/RN,-6.2155812,-37.8890129,2,27.95639
1,Antônio Olinto/PR,-25.9849006,-50.1974516,150,2019.65800
D1,Antônio Olinto/PR,-25.9849006,-50.1974516,1,13.46439
1,Antônio Prado de Minas/MG,-21.0171988,-42.1101106,134,8443.60428
D1,Antônio Prado de Minas/MG,-21.0171988,-42.1101106,3,189.03592
1,Antônio Prado/RS,-28.8567806,-51.2801355,1146,8784.97509
D1,Antônio Prado/RS,-28.8567806,-51.2801355,12,91.98927
1,Anápolis/GO,-16.3332828,-48.9525756,19921,5084.84527
D1,Anápolis/GO,-16.3332828,-48.9525756,472,120.47824
1,Anísio de Abreu/PI,-9.185643,-43.04941,223,2243.91226
D1,Anísio de Abreu/PI,-9.185643,-43.04941,2,20.12477
1,Aparecida d'Oeste/SP,-20.4498109,-50.8808706,413,9932.65993
D1,Aparecida d'Oeste/SP,-20.4498109,-50.8808706,10,240.50024
1,Aparecida de Goiânia/GO,-16.8226769,-49.2452546,43820,7425.28120
D1,Aparecida de Goiânia/GO,-16.8226769,-49.2452546,658,111.49783
1,Aparecida do Rio Doce/GO,-18.2980167,-51.1491312,129,5214.22797
D1,Aparecida do Rio Doce/GO,-18.2980167,-51.1491312,2,80.84074
1,Aparecida do Rio Negro/TO,-9.9513491,-47.9773786,142,2929.04290
D1,Aparecida do Rio Negro/TO,-9.9513491,-47.9773786,3,61.88119
1,Aparecida do Taboado/MS,-20.0840304,-51.1013943,1400,5370.36327
D1,Aparecida do Taboado/MS,-20.0840304,-51.1013943,23,88.22740
1,Aparecida/PB,-6.7859598, -38.0831353,586,6962.92776
D1,Aparecida/PB,-6.7859598, -38.0831353,8,95.05703
1,Aparecida/SP,-22.851552,-45.2340924,1167,3225.09327
D1,Aparecida/SP,-22.851552,-45.2340924,33,91.19801
1,Aperibé/RJ,-21.6211928,-42.1028167,290,2436.77002
D1,Aperibé/RJ,-21.6211928,-42.1028167,10,84.02655
1,Apiacá/ES,-21.152272,-41.569297,436,5771.77654
D1,Apiacá/ES,-21.152272,-41.569297,11,145.61822
1,Apiacás/MT,-9.5678422,-57.394852,393,3821.84187
D1,Apiacás/MT,-9.5678422,-57.394852,1,9.72479
1,Apiaí/SP,-24.5076527,-48.8461582,538,2220.75456
D1,Apiaí/SP,-24.5076527,-48.8461582,20,82.55593
1,Apicum-Açu/MA,-1.5279295,-45.082278,213,1223.22403
D1,Apicum-Açu/MA,-1.5279295,-45.082278,3,17.22851
1,Apiúna/SC,-27.0374658,-49.3885037,498,4590.70796
D1,Apiúna/SC,-27.0374658,-49.3885037,11,101.40118
1,Apodi/RN,-5.6631109,-37.796927,4015,11191.94960
D1,Apodi/RN,-5.6631109,-37.796927,49,136.58917
1,Aporá/BA,-11.6599747,-38.0794757,336,1888.91387
D1,Aporá/BA,-11.6599747,-38.0794757,9,50.59591
1,Aporé/GO,-18.9642193,-51.92804,194,4584.12098
D1,Aporé/GO,-18.9642193,-51.92804,4,94.51796
1,Apuarema/BA,-13.8517897,-39.7457126,512,7011.77760
D1,Apuarema/BA,-13.8517897,-39.7457126,7,95.86415
1,Apucarana/PR,-23.5525327,-51.4610764,3805,2792.98853
D1,Apucarana/PR,-23.5525327,-51.4610764,129,94.69002
1,Apuiarés/CE,-3.9460303,-39.4313298,304,2071.97383
D1,Apuiarés/CE,-3.9460303,-39.4313298,12,81.78844
1,Apuí/AM,-7.1940195,-59.8830192,833,3725.56912
D1,Apuí/AM,-7.1940195,-59.8830192,17,76.03202
1,Aquidabã/SE,-10.2837579,-37.0188687,1311,6046.76906
D1,Aquidabã/SE,-10.2837579,-37.0188687,20,92.24667
1,Aquidauana/MS,-20.473969,-55.7821375,3245,6756.33471
D1,Aquidauana/MS,-20.473969,-55.7821375,84,174.89433
1,Aquiraz/CE,-3.9063117,-38.387504,1748,2159.75783
D1,Aquiraz/CE,-3.9063117,-38.387504,42,51.89349
1,Arabutã/SC,-27.1587028,-52.1438142,200,4687.13382
D1,Arabutã/SC,-27.1587028,-52.1438142,2,46.87134
1,Aracaju/SE,-10.9162061,-37.0774655,73702,11084.54102
D1,Aracaju/SE,-10.9162061,-37.0774655,1051,158.06698
1,Aracati/CE,-4.558259,-37.767894,2932,3910.63688
D1,Aracati/CE,-4.558259,-37.767894,69,92.03068
1,Aracatu/BA,-14.4274236,-41.4604105,483,3702.56803
D1,Aracatu/BA,-14.4274236,-41.4604105,8,61.32618
1,Araci/BA,-11.3356065,-38.9573261,2281,4173.98624
D1,Araci/BA,-11.3356065,-38.9573261,22,40.25765
1,Aracitaba/MG,-21.3425,-43.378611,68,3302.57407
D1,Aracitaba/MG,-21.3425,-43.378611,5,242.83633
1,Aracoiaba/CE,-4.3702577,-38.8084313,968,3648.01206
D1,Aracoiaba/CE,-4.3702577,-38.8084313,18,67.83493
1,Aracruz/ES,-19.8245218,-40.2735025,10371,10059.06829
D1,Aracruz/ES,-19.8245218,-40.2735025,132,128.02980
1,Aragarças/GO,-15.8957166,-52.2514538,1382,6816.94865
D1,Aragarças/GO,-15.8957166,-52.2514538,27,133.18206
1,Aragoiânia/GO,-16.9146388,-49.4499148,519,4944.74085
D1,Aragoiânia/GO,-16.9146388,-49.4499148,6,57.16463
1,Aragominas/TO,-7.1654101,-48.525488,389,6787.64614
D1,Aragominas/TO,-7.1654101,-48.525488,7,122.14273
1,Araguacema/TO,-8.8067391,-49.5560969,163,2278.12718
D1,Araguacema/TO,-8.8067391,-49.5560969,1,13.97624
1,Araguaiana/MT,-15.729144,-51.834112,83,2669.66870
D1,Araguaiana/MT,-15.729144,-51.834112,1,32.16468
1,Araguainha/MT,-16.857016,-53.031778,15,1585.62368
1,Araguanã/MA,-2.9508403,-45.6651986,581,3736.09414
D1,Araguanã/MA,-2.9508403,-45.6651986,4,25.72182
1,Araguanã/TO,-6.5799107,-48.6428482,189,3262.55826
D1,Araguanã/TO,-6.5799107,-48.6428482,11,189.88434
1,Araguapaz/GO,-15.0937927,-50.626417,206,2646.79430
D1,Araguapaz/GO,-15.0937927,-50.626417,7,89.93961
1,Araguari/MG,-18.6511256,-48.1933764,7568,6423.08508
D1,Araguari/MG,-18.6511256,-48.1933764,170,144.28177
1,Araguatins/TO,-5.6522925,-48.1158973,1298,3588.60934
D1,Araguatins/TO,-5.6522925,-48.1158973,33,91.23583
1,Araguaçu/TO,-12.928934,-49.823134,636,7511.51529
D1,Araguaçu/TO,-12.928934,-49.823134,12,141.72670
1,Araguaína/TO,-7.193241,-48.2018597,20451,11152.19134
D1,Araguaína/TO,-7.193241,-48.2018597,262,142.87194
1,Araioses/MA,-2.890914,-41.904993,589,1259.32736
D1,Araioses/MA,-2.890914,-41.904993,10,21.38077
1,Aral Moreira/MS,-22.951141,-55.6268421,284,2302.95167
D1,Aral Moreira/MS,-22.951141,-55.6268421,7,56.76289
1,Aramari/BA,-12.0907897,-38.4985065,337,2940.40660
D1,Aramari/BA,-12.0907897,-38.4985065,7,61.07669
1,Arambaré/RS,-30.9132252,-51.4994625,61,1712.52106
D1,Arambaré/RS,-30.9132252,-51.4994625,2,56.14823
1,Arame/MA,-4.8858769,-46.0102484,958,2923.94091
D1,Arame/MA,-4.8858769,-46.0102484,22,67.14687
1,Aramina/SP,-20.0876144,-47.789201,180,3183.02387
D1,Aramina/SP,-20.0876144,-47.789201,6,106.10080
1,Arandu/SP,-23.1345103,-49.0545651,120,1885.31029
D1,Arandu/SP,-23.1345103,-49.0545651,7,109.97643
1,Arantina/MG,-21.911667,-44.255833,47,1686.40115
D1,Arantina/MG,-21.911667,-44.255833,2,71.76175
1,Arapeí/SP,-22.6738889,-44.4477778,132,5365.85366
D1,Arapeí/SP,-22.6738889,-44.4477778,1,40.65041
1,Arapiraca/AL,-9.754866,-36.661471,15864,6807.21056
D1,Arapiraca/AL,-9.754866,-36.661471,214,91.82697
1,Arapoema/TO,-7.6575001,-49.0641484,248,3748.48851
D1,Arapoema/TO,-7.6575001,-49.0641484,4,60.45949
1,Araponga/MG,-20.666667,-42.520556,231,2732.75760
D1,Araponga/MG,-20.666667,-42.520556,1,11.83012
1,Arapongas/PR,-23.415296,-51.42592,6488,5198.30142
D1,Arapongas/PR,-23.415296,-51.42592,190,152.23139
1,Araporã/MG,-18.4318188,-49.188313,1128,16274.70783
D1,Araporã/MG,-18.4318188,-49.188313,10,144.27932
1,Arapoti/PR,-24.1457957,-49.8224605,1462,5166.07774
D1,Arapoti/PR,-24.1457957,-49.8224605,12,42.40283
1,Araputanga/MT,-15.4710868,-58.346796,1083,6389.00360
D1,Araputanga/MT,-15.4710868,-58.346796,19,112.08778
1,Arapuá/MG,-19.034444,-46.155556,74,2610.22928
1,Arapuã/PR,-24.3079525,-51.7901941,108,3589.23230
D1,Arapuã/PR,-24.3079525,-51.7901941,3,99.70090
1,Araquari/SC,-26.3703324,-48.7210994,1875,4743.95304
D1,Araquari/SC,-26.3703324,-48.7210994,28,70.84303
1,Arara/PB,-6.8271895,-35.7605703,320,2363.01876
D1,Arara/PB,-6.8271895,-35.7605703,9,66.45990
1,Araranguá/SC,-28.9348832,-49.4858389,6263,9094.34127
D1,Araranguá/SC,-28.9348832,-49.4858389,98,142.30328
1,Araraquara/SP,-21.7886713,-48.1773096,9907,4156.68439
D1,Araraquara/SP,-21.7886713,-48.1773096,139,58.32029
1,Araras/SP,-22.3569477,-47.3838889,7610,5615.98748
D1,Araras/SP,-22.3569477,-47.3838889,137,101.10253
1,Ararendá/CE,-4.7504395,-40.8303611,468,4270.46263
D1,Ararendá/CE,-4.7504395,-40.8303611,9,82.12428
1,Arari/MA,-3.4547602,-44.7772723,374,1249.49886
D1,Arari/MA,-3.4547602,-44.7772723,11,36.74997
1,Araricá/RS,-29.6168543,-50.929121,461,7988.21695
D1,Araricá/RS,-29.6168543,-50.929121,11,190.60821
1,Araripe/CE,-7.212861,-40.1359222,480,2216.68052
D1,Araripe/CE,-7.212861,-40.1359222,4,18.47234
1,Araripina/PE,-7.5768582,-40.5038509,3959,4665.11124
D1,Araripina/PE,-7.5768582,-40.5038509,64,75.41478
1,Araruama/RJ,-22.8733203,-42.3428897,3161,2353.80846
D1,Araruama/RJ,-22.8733203,-42.3428897,106,78.93189
1,Araruna/PB,-6.5321155,-35.7397595,533,2604.70117
D1,Araruna/PB,-6.5321155,-35.7397595,15,73.30303
1,Araruna/PR,-23.9320308,-52.4976047,641,4578.57143
D1,Araruna/PR,-23.9320308,-52.4976047,12,85.71429
1,Arataca/BA,-15.2617424,-39.4122943,338,3083.66025
D1,Arataca/BA,-15.2617424,-39.4122943,10,91.23255
1,Aratiba/RS,-27.3955734,-52.3024325,236,3813.21700
D1,Aratiba/RS,-27.3955734,-52.3024325,4,64.63080
1,Aratuba/CE,-4.4195958,-39.0463737,299,2533.46890
D1,Aratuba/CE,-4.4195958,-39.0463737,2,16.94628
1,Aratuípe/BA,-13.077137,-39.0010786,217,2455.58447
D1,Aratuípe/BA,-13.077137,-39.0010786,6,67.89634
1,Araucária/PR,-25.5861107,-49.4051209,12697,8683.84696
D1,Araucária/PR,-25.5861107,-49.4051209,157,107.37686
1,Arauá/SE,-11.2644014,-37.6181058,574,5770.58410
D1,Arauá/SE,-11.2644014,-37.6181058,12,120.63939
1,Araxá/MG,-19.5928536,-46.940241,5025,4681.51709
D1,Araxá/MG,-19.5928536,-46.940241,54,50.30884
1,Araçagi/PB,-6.8519969,-35.3835602,693,4095.50263
D1,Araçagi/PB,-6.8519969,-35.3835602,8,47.27853
1,Araçariguama/SP,-23.438611,-47.061389,731,3197.72528
D1,Araçariguama/SP,-23.438611,-47.061389,19,83.11461
1,Araçatuba/SP,-21.207992,-50.4390225,13706,6917.71523
D1,Araçatuba/SP,-21.207992,-50.4390225,271,136.77957
1,Araçaí/MG,-19.200833,-44.2475,23,977.06032
1,Araçoiaba da Serra/SP,-23.5045367,-47.6168158,1274,3663.44605
D1,Araçoiaba da Serra/SP,-23.5045367,-47.6168158,26,74.76421
1,Araçoiaba/PE,-7.7856903,-35.0898881,246,1186.51425
D1,Araçoiaba/PE,-7.7856903,-35.0898881,20,96.46457
1,Araçu/GO,-16.3561579,-49.6815269,166,4761.90476
D1,Araçu/GO,-16.3561579,-49.6815269,4,114.74469
1,Araçuaí/MG,-16.8484451,-42.0661868,548,1492.69993
D1,Araçuaí/MG,-16.8484451,-42.0661868,16,43.58248
1,Araçás/BA,-12.2139176,-38.2026159,460,3768.02097
D1,Araçás/BA,-12.2139176,-38.2026159,7,57.33945
1,Araújos/MG,-19.948055,-45.165556,339,3605.99936
D1,Araújos/MG,-19.948055,-45.165556,2,21.27433
1,Arceburgo/MG,-21.364444,-46.939722,375,3445.74106
D1,Arceburgo/MG,-21.364444,-46.939722,6,55.13186
1,Arco-Íris/SP,-21.7741308,-50.4668814,54,3045.68528
D1,Arco-Íris/SP,-21.7741308,-50.4668814,4,225.60632
1,Arcos/MG,-20.282223,-45.539444,1830,4531.94651
D1,Arcos/MG,-20.282223,-45.539444,20,49.52947
1,Arcoverde/PE,-8.415192,-37.057748,3845,5138.86290
D1,Arcoverde/PE,-8.415192,-37.057748,81,108.25693
1,Areado/MG,-21.3582771,-46.1476688,370,2437.25710
D1,Areado/MG,-21.3582771,-46.1476688,8,52.69745
1,Areal/RJ,-22.2314922,-43.1056264,375,2959.98106
D1,Areal/RJ,-22.2314922,-43.1056264,14,110.50596
1,Arealva/SP,-22.0301906,-48.9111936,337,3912.69012
D1,Arealva/SP,-22.0301906,-48.9111936,2,23.22071
1,Areia Branca/RN,-4.9506652,-37.1263312,1238,4426.64569
D1,Areia Branca/RN,-4.9506652,-37.1263312,60,214.53856
1,Areia Branca/SE,-10.7591455,-37.3148072,1062,5683.39934
D1,Areia Branca/SE,-10.7591455,-37.3148072,23,123.08680
1,Areia de Baraúnas/PB,-7.1233949,-36.9446216,16,756.14367
1,Areia/PB,-6.9680243,-35.6994783,697,3076.44774
D1,Areia/PB,-6.9680243,-35.6994783,8,35.31073
1,Areial/PB,-7.0501306,-35.9245244,153,2177.31607
D1,Areial/PB,-7.0501306,-35.9245244,5,71.15412
1,Areias/SP,-22.5800929,-44.6975127,159,4081.10883
D1,Areias/SP,-22.5800929,-44.6975127,1,25.66735
1,Areiópolis/SP,-22.6758064,-48.6673653,316,2832.04875
D1,Areiópolis/SP,-22.6758064,-48.6673653,5,44.81090
1,Arenápolis/MT,-14.4610369,-56.8432806,797,8387.70785
D1,Arenápolis/MT,-14.4610369,-56.8432806,10,105.24100
1,Arenópolis/GO,-16.3859286,-51.55937,36,1419.55836
1,Argirita/MG,-21.612761,-42.8371922,182,6730.76923
D1,Argirita/MG,-21.612761,-42.8371922,5,184.91124
1,Aricanduva/MG,-17.8678,-42.5569,23,436.51547
1,Arinos/MG,-15.917223,-46.106111,177,990.93047
D1,Arinos/MG,-15.917223,-46.106111,4,22.39391
1,Aripuanã/MT,-10.175806,-59.4439663,1363,6000.70441
D1,Aripuanã/MT,-10.175806,-59.4439663,20,88.05142
1,Ariquemes/RO,-9.9076522,-63.033069,11186,10213.37984
D1,Ariquemes/RO,-9.9076522,-63.033069,200,182.61005
1,Ariranha do Ivaí/PR,-24.3834527,-51.5876772,81,3920.61955
D1,Ariranha do Ivaí/PR,-24.3834527,-51.5876772,1,48.40271
1,Ariranha/SP,-21.18716,-48.790418,241,2469.00932
D1,Ariranha/SP,-21.18716,-48.790418,12,122.93822
1,Armazém/SC,-28.2624996,-49.0190126,833,9510.21806
D1,Armazém/SC,-28.2624996,-49.0190126,8,91.33463
1,Armação dos Búzios/RJ,-22.7597805,-41.8875267,2779,8060.44609
D1,Armação dos Búzios/RJ,-22.7597805,-41.8875267,23,66.71114
1,Arneiroz/CE,-6.3235099,-40.1603859,85,1083.63080
D1,Arneiroz/CE,-6.3235099,-40.1603859,6,76.49159
1,Aroazes/PI,-6.1108814,-41.7886137,192,3295.00601
D1,Aroazes/PI,-6.1108814,-41.7886137,5,85.80745
1,Aroeiras do Itaim/PI,-7.2797031,-41.5629681,93,3645.62917
D1,Aroeiras do Itaim/PI,-7.2797031,-41.5629681,1,39.20031
1,Aroeiras/PB,-7.5462904,-35.7080002,461,2411.59238
D1,Aroeiras/PB,-7.5462904,-35.7080002,3,15.69366
1,Arraial do Cabo/RJ,-22.9662839,-42.024427,478,1562.44893
D1,Arraial do Cabo/RJ,-22.9662839,-42.024427,9,29.41849
1,Arraial/PI,-6.6541632,-42.5335332,106,2245.76271
D1,Arraial/PI,-6.6541632,-42.5335332,1,21.18644
1,Arraias/TO,-12.9287788,-46.9437231,204,1936.58629
1,Arroio Grande/RS,-32.2384246,-53.0866661,765,4194.53887
D1,Arroio Grande/RS,-32.2384246,-53.0866661,8,43.86446
1,Arroio Trinta/SC,-26.9301976,-51.334928,281,7917.72330
D1,Arroio Trinta/SC,-26.9301976,-51.334928,3,84.53085
1,Arroio do Meio/RS,-29.4020392,-51.9444993,1173,5594.50565
D1,Arroio do Meio/RS,-29.4020392,-51.9444993,9,42.92460
1,Arroio do Padre/RS,-31.4428773,-52.4228985,82,2778.71908
D1,Arroio do Padre/RS,-31.4428773,-52.4228985,1,33.88682
1,Arroio do Sal/RS,-29.549852,-49.8874395,482,4689.17210
D1,Arroio do Sal/RS,-29.549852,-49.8874395,10,97.28573
1,Arroio do Tigre/RS,-29.334158,-53.0888935,491,3660.62775
D1,Arroio do Tigre/RS,-29.334158,-53.0888935,4,29.82181
1,Arroio dos Ratos/RS,-30.0894524,-51.7265541,390,2750.93461
D1,Arroio dos Ratos/RS,-30.0894524,-51.7265541,19,134.01989
1,Artur Nogueira/SP,-22.572737,-47.172679,1888,3411.63715
D1,Artur Nogueira/SP,-22.572737,-47.172679,47,84.92953
1,Aruanã/GO,-14.9162439,-51.0715692,234,2314.54006
D1,Aruanã/GO,-14.9162439,-51.0715692,4,39.56479
1,Arujá/SP,-23.396266,-46.3175449,3663,4018.34198
D1,Arujá/SP,-23.396266,-46.3175449,126,138.22307
1,Arvoredo/SC,-27.0752908,-52.4571847,151,6759.17637
D1,Arvoredo/SC,-27.0752908,-52.4571847,1,44.76276
1,Arvorezinha/RS,-28.87369,-52.17808,428,4106.30337
D1,Arvorezinha/RS,-28.87369,-52.17808,10,95.94167
1,Arês/RN,-6.1969216,-35.1642968,495,3433.44663
D1,Arês/RN,-6.1969216,-35.1642968,12,83.23507
1,Ascurra/SC,-26.9569975,-49.3767752,657,8235.14665
D1,Ascurra/SC,-26.9569975,-49.3767752,3,37.60341
1,Aspásia/SP,-20.160028,-50.728046,66,3630.36304
D1,Aspásia/SP,-20.160028,-50.728046,2,110.01100
1,Assaré/CE,-6.8746791,-39.8741385,988,4208.19491
D1,Assaré/CE,-6.8746791,-39.8741385,21,89.44544
1,Assaí/PR,-23.3736041,-50.8454929,559,3738.13027
D1,Assaí/PR,-23.3736041,-50.8454929,18,120.36913
1,Assis Brasil/AC,-10.9409203,-69.5672108,1036,13750.99549
D1,Assis Brasil/AC,-10.9409203,-69.5672108,12,159.27794
1,Assis Chateaubriand/PR,-24.4054826,-53.5120468,1883,5647.87043
D1,Assis Chateaubriand/PR,-24.4054826,-53.5120468,28,83.98320
1,Assis/SP,-22.6620892,-50.420623,3395,3230.65650
D1,Assis/SP,-22.6620892,-50.420623,60,57.09555
1,Assunção do Piauí/PI,-5.8610212,-41.0485091,197,2505.40506
D1,Assunção do Piauí/PI,-5.8610212,-41.0485091,4,50.87117
1,Assunção/PB,-7.073396,-36.7274003,146,3623.72797
D1,Assunção/PB,-7.073396,-36.7274003,1,24.82005
1,Astolfo Dutra/MG,-21.3132636,-42.8624102,767,5374.91240
D1,Astolfo Dutra/MG,-21.3132636,-42.8624102,13,91.10021
1,Astorga/PR,-23.2350184,-51.6647074,1301,4963.94368
D1,Astorga/PR,-23.2350184,-51.6647074,20,76.30966
1,Atalaia do Norte/AM,-4.3658547,-70.1908742,2288,11216.78596
D1,Atalaia do Norte/AM,-4.3658547,-70.1908742,5,24.51221
1,Atalaia/AL,-9.5029595,-36.0219316,716,1511.66473
D1,Atalaia/AL,-9.5029595,-36.0219316,28,59.11538
1,Atalaia/PR,-23.1513833,-52.0529697,159,4096.88225
D1,Atalaia/PR,-23.1513833,-52.0529697,3,77.29967
1,Atalanta/SC,-27.421916,-49.778863,119,3724.56964
1,Ataléia/MG,-18.04432,-41.1110524,621,4898.24894
D1,Ataléia/MG,-18.04432,-41.1110524,5,39.43840
1,Atibaia/SP,-23.1177393,-46.5547861,5292,3672.75554
D1,Atibaia/SP,-23.1177393,-46.5547861,102,70.79007
1,Atilio Vivacqua/ES,-20.9139369,-41.1947519,924,7633.20942
D1,Atilio Vivacqua/ES,-20.9139369,-41.1947519,14,115.65469
1,Augustinópolis/TO,-5.4662267,-47.8897519,948,5085.01851
D1,Augustinópolis/TO,-5.4662267,-47.8897519,12,64.36732
1,Augusto Corrêa/PA,-1.0229335,-46.6404029,1540,3313.89469
D1,Augusto Corrêa/PA,-1.0229335,-46.6404029,23,49.49323
1,Augusto Pestana/RS,-28.5148413,-53.9906433,149,2256.89185
D1,Augusto Pestana/RS,-28.5148413,-53.9906433,2,30.29385
1,Augusto de Lima/MG,-18.1092963,-44.2651945,123,2535.55968
D1,Augusto de Lima/MG,-18.1092963,-44.2651945,4,82.45723
1,Aurelino Leal/BA,-14.3167137,-39.3256107,726,6425.34738
D1,Aurelino Leal/BA,-14.3167137,-39.3256107,18,159.30613
1,Auriflama/SP,-20.6840418,-50.5554616,854,5598.89858
D1,Auriflama/SP,-20.6840418,-50.5554616,19,124.56566
1,Aurilândia/GO,-16.6772599,-50.4641231,69,2256.37672
D1,Aurilândia/GO,-16.6772599,-50.4641231,3,98.10334
1,Aurora do Pará/PA,-2.1323199,-47.558436,786,2473.79851
D1,Aurora do Pará/PA,-2.1323199,-47.558436,8,25.17861
1,Aurora do Tocantins/TO,-12.71045,-46.407604,128,3383.55802
D1,Aurora do Tocantins/TO,-12.71045,-46.407604,2,52.86809
1,Aurora/CE,-6.9426019,-38.9693765,958,3892.72653
D1,Aurora/CE,-6.9426019,-38.9693765,24,97.52133
1,Aurora/SC,-27.3166417,-49.6368502,297,5226.11297
D1,Aurora/SC,-27.3166417,-49.6368502,6,105.57804
1,Autazes/AM,-3.5833283,-59.1301518,2355,5845.12286
D1,Autazes/AM,-3.5833283,-59.1301518,71,176.22239
1,Avanhandava/SP,-21.4603331,-49.9465156,337,2431.63287
D1,Avanhandava/SP,-21.4603331,-49.9465156,13,93.80186
1,Avaré/SP,-23.1045215,-48.9259103,2334,2558.31287
D1,Avaré/SP,-23.1045215,-48.9259103,33,36.17152
1,Avaí/SP,-22.1564662,-49.3316395,151,2777.77778
D1,Avaí/SP,-22.1564662,-49.3316395,3,55.18764
1,Aveiro/PA,-3.6049239,-55.3310742,457,2785.90588
D1,Aveiro/PA,-3.6049239,-55.3310742,5,30.48037
1,Avelino Lopes/PI,-10.1346855,-43.9489525,200,1765.84849
D1,Avelino Lopes/PI,-10.1346855,-43.9489525,17,150.09712
1,Avelinópolis/GO,-16.4672409,-49.7578661,155,6434.20506
D1,Avelinópolis/GO,-16.4672409,-49.7578661,4,166.04400
1,Axixá do Tocantins/TO,-5.612747,-47.77007,627,6406.45755
D1,Axixá do Tocantins/TO,-5.612747,-47.77007,5,51.08818
1,Axixá/MA,-2.8379465,-44.0561053,154,1264.05647
D1,Axixá/MA,-2.8379465,-44.0561053,3,24.62448
1,Açailândia/MA,-4.9514278,-47.4844564,3896,3444.09968
D1,Açailândia/MA,-4.9514278,-47.4844564,105,92.82096
1,Açu/RN,-5.5836157,-36.9139541,2963,5075.02055
D1,Açu/RN,-5.5836157,-36.9139541,85,145.58783
1,Açucena/MG,-19.073056,-42.546666,222,2369.76943
D1,Açucena/MG,-19.073056,-42.546666,8,85.39710
1,Babaçulândia/TO,-7.2034355,-47.761613,469,4397.14982
D1,Babaçulândia/TO,-7.2034355,-47.761613,4,37.50234
1,Bacabal/MA,-4.2318132,-44.781167,3757,3585.26577
D1,Bacabal/MA,-4.2318132,-44.781167,79,75.38887
1,Bacabeira/MA,-2.9775747,-44.3155943,185,1072.33944
D1,Bacabeira/MA,-2.9775747,-44.3155943,3,17.38929
1,Bacuri/MA,-1.728894,-45.1417148,429,2299.77485
D1,Bacuri/MA,-1.728894,-45.1417148,4,21.44312
1,Bacurituba/MA,-2.7082587,-44.7381309,97,1710.75838
1,Bady Bassitt/SP,-20.9178969,-49.4517911,1537,8653.79202
D1,Bady Bassitt/SP,-20.9178969,-49.4517911,24,135.12753
1,Baependi/MG,-21.959162,-44.8899249,745,3880.41044
D1,Baependi/MG,-21.959162,-44.8899249,10,52.08605
1,Bagre/PA,-1.8994498,-50.2103844,612,1953.71109
D1,Bagre/PA,-1.8994498,-50.2103844,11,35.11572
1,Bagé/RS,-31.3314264,-54.1062808,3530,2909.30070
D1,Bagé/RS,-31.3314264,-54.1062808,82,67.58149
1,Baianópolis/BA,-12.3067564,-44.5383591,203,1457.39105
D1,Baianópolis/BA,-12.3067564,-44.5383591,2,14.35853
1,Baixa Grande do Ribeiro/PI,-7.862861,-45.2113289,1687,14454.63114
D1,Baixa Grande do Ribeiro/PI,-7.862861,-45.2113289,15,128.52369
1,Baixa Grande/BA,-11.9630941,-40.1657537,409,2000.09780
D1,Baixa Grande/BA,-11.9630941,-40.1657537,3,14.67064
1,Baixio/CE,-6.7303544,-38.7170095,154,2443.28098
D1,Baixio/CE,-6.7303544,-38.7170095,4,63.46184
1,Baixo Guandu/ES,-19.5138322,-41.0182089,2292,7362.19967
D1,Baixo Guandu/ES,-19.5138322,-41.0182089,39,125.27303
1,Baião/PA,-2.7903479,-49.6702845,488,1007.03688
D1,Baião/PA,-2.7903479,-49.6702845,20,41.27200
1,Balbinos/SP,-21.9006253,-49.3583966,274,4617.45871
D1,Balbinos/SP,-21.9006253,-49.3583966,3,50.55612
1,Baldim/MG,-19.2913568,-43.9558262,266,3408.94528
D1,Baldim/MG,-19.2913568,-43.9558262,6,76.89350
1,Baliza/GO,-16.1978119,-52.542789,99,1875.00000
1,Balneário Arroio do Silva/SC,-28.9815269,-49.4189932,1203,8957.55771
D1,Balneário Arroio do Silva/SC,-28.9815269,-49.4189932,20,148.92033
1,Balneário Barra do Sul/SC,-26.459842,-48.6061471,968,8772.08881
D1,Balneário Barra do Sul/SC,-26.459842,-48.6061471,18,163.11735
1,Balneário Camboriú/SC,-26.9924395,-48.6339782,17828,12228.04467
D1,Balneário Camboriú/SC,-26.9924395,-48.6339782,194,133.06264
1,Balneário Gaivota/SC,-29.1553098,-49.5808712,787,6989.34281
D1,Balneário Gaivota/SC,-29.1553098,-49.5808712,11,97.69094
1,Balneário Pinhal/RS,-30.2482978,-50.234585,587,4086.88993
D1,Balneário Pinhal/RS,-30.2482978,-50.234585,15,104.43501
1,Balneário Piçarras/SC,-26.7638889,-48.6716667,2786,11719.67020
D1,Balneário Piçarras/SC,-26.7638889,-48.6716667,22,92.54585
1,Balneário Rincão/SC,-28.8235718,-49.2241642,927,7160.51290
D1,Balneário Rincão/SC,-28.8235718,-49.2241642,22,169.93666
1,Balsa Nova/PR,-25.5842234,-49.6312741,634,4842.65200
D1,Balsa Nova/PR,-25.5842234,-49.6312741,11,84.02078
1,Balsas/MA,-7.53214,-46.037163,7341,7652.53469
D1,Balsas/MA,-7.53214,-46.037163,87,90.69207
1,Bambuí/MG,-20.0131996,-45.9777034,415,1736.54699
D1,Bambuí/MG,-20.0131996,-45.9777034,1,4.18445
1,Banabuiú/CE,-5.3046404,-38.919766,717,3927.47590
D1,Banabuiú/CE,-5.3046404,-38.919766,4,21.91060
1,Bananal/SP,-22.6828195,-44.3221095,432,3929.77349
D1,Bananal/SP,-22.6828195,-44.3221095,1,9.09670
1,Bananeiras/PB,-6.7537682,-35.6338343,663,3117.21284
D1,Bananeiras/PB,-6.7537682,-35.6338343,4,18.80671
1,Bandeira do Sul/MG,-21.728056,-46.385555,91,1574.93943
D1,Bandeira do Sul/MG,-21.728056,-46.385555,4,69.22811
1,Bandeira/MG,-15.884444,-40.559167,404,8476.71003
D1,Bandeira/MG,-15.884444,-40.559167,6,125.89173
1,Bandeirante/SC,-26.7677402,-53.6397596,83,3134.44109
D1,Bandeirante/SC,-26.7677402,-53.6397596,1,37.76435
1,Bandeirantes do Tocantins/TO,-7.7635698,-48.579148,226,6291.75947
D1,Bandeirantes do Tocantins/TO,-7.7635698,-48.579148,2,55.67929
1,Bandeirantes/MS,-19.9179623,-54.3646768,283,3894.85274
D1,Bandeirantes/MS,-19.9179623,-54.3646768,4,55.05092
1,Bandeirantes/PR,-23.107788,-50.370407,1826,5850.50143
D1,Bandeirantes/PR,-23.107788,-50.370407,48,153.79193
1,Bannach/PA,-7.3508505,-50.4064531,124,3801.34887
D1,Bannach/PA,-7.3508505,-50.4064531,2,61.31208
1,Banzaê/BA,-10.5827616,-38.6122305,713,5385.19637
D1,Banzaê/BA,-10.5827616,-38.6122305,4,30.21148
1,Baraúna/PB,-6.643394,-36.2531932,158,3182.91700
1,Baraúna/RN,-5.0775002,-37.61752,679,2361.98560
D1,Baraúna/RN,-5.0775002,-37.61752,17,59.13661
1,Barbacena/MG,-21.2254524,-43.7735087,3454,2499.20408
D1,Barbacena/MG,-21.2254524,-43.7735087,78,56.43831
1,Barbalha/CE,-7.3121067,-39.3036427,2733,4463.64408
D1,Barbalha/CE,-7.3121067,-39.3036427,59,96.36114
1,Barbosa Ferraz/PR,-24.0287182,-52.00811,485,4244.70506
D1,Barbosa Ferraz/PR,-24.0287182,-52.00811,6,52.51182
1,Barbosa/SP,-21.265661,-49.951816,241,3227.10230
D1,Barbosa/SP,-21.265661,-49.951816,4,53.56186
1,Barcarena/PA,-1.5107945,-48.6190679,6172,4858.80954
D1,Barcarena/PA,-1.5107945,-48.6190679,133,104.70215
1,Barcelona/RN,-5.9514918,-35.9260284,41,1026.53981
D1,Barcelona/RN,-5.9514918,-35.9260284,3,75.11267
1,Barcelos/AM,-0.9729214,-62.925635,3814,13799.84080
D1,Barcelos/AM,-0.9729214,-62.925635,48,173.67393
1,Bariri/SP,-22.0746355,-48.7394852,1645,4626.24445
D1,Bariri/SP,-22.0746355,-48.7394852,42,118.11688
1,Barra Bonita/SC,-26.6526364,-53.4419581,62,3755.29982
1,Barra Bonita/SP,-22.490859,-48.558349,1947,5389.47019
D1,Barra Bonita/SP,-22.490859,-48.558349,37,102.41931
1,Barra D'Alcântara/PI,-6.5209258,-42.1071089,73,1847.16599
D1,Barra D'Alcântara/PI,-6.5209258,-42.1071089,1,25.30364
1,Barra Funda/RS,-27.9230048,-53.0401045,269,10544.88436
D1,Barra Funda/RS,-27.9230048,-53.0401045,5,196.00157
1,Barra Longa/MG,-20.2833541,-43.0423516,137,2731.80459
D1,Barra Longa/MG,-20.2833541,-43.0423516,1,19.94018
1,Barra Mansa/RJ,-22.5394843,-44.1735129,9393,5081.88473
D1,Barra Mansa/RJ,-22.5394843,-44.1735129,284,153.65222
1,Barra Velha/SC,-26.6338203,-48.6835001,2398,8030.81045
D1,Barra Velha/SC,-26.6338203,-48.6835001,43,144.00536
1,Barra da Estiva/BA,-13.6269662,-41.3278287,1088,5335.42566
D1,Barra da Estiva/BA,-13.6269662,-41.3278287,8,39.23107
1,Barra de Guabiraba/PE,-8.4173522,-35.6626669,293,2019.29704
D1,Barra de Guabiraba/PE,-8.4173522,-35.6626669,11,75.80979
1,Barra de Santa Rosa/PB,-6.7218007,-36.0564638,542,3497.45112
D1,Barra de Santa Rosa/PB,-6.7218007,-36.0564638,3,19.35859
1,Barra de Santana/PB,-7.5230865,-35.9988518,265,3174.03282
D1,Barra de Santana/PB,-7.5230865,-35.9988518,3,35.93245
1,Barra de Santo Antônio/AL,-9.4038098,-35.5117693,155,964.65024
D1,Barra de Santo Antônio/AL,-9.4038098,-35.5117693,15,93.35325
1,Barra de São Francisco/ES,-18.7570902,-40.8916119,2170,4824.47364
D1,Barra de São Francisco/ES,-18.7570902,-40.8916119,66,146.73514
1,Barra de São Miguel/AL,-9.8261357,-35.8837777,222,2649.79709
D1,Barra de São Miguel/AL,-9.8261357,-35.8837777,5,59.68011
1,Barra de São Miguel/PB,-7.7528088,-36.3170996,203,3347.07337
D1,Barra de São Miguel/PB,-7.7528088,-36.3170996,1,16.48805
1,Barra do Bugres/MT,-15.0683712,-57.1853688,1617,4579.82836
D1,Barra do Bugres/MT,-15.0683712,-57.1853688,35,99.13048
1,Barra do Chapéu/SP,-24.472203,-49.023784,134,2326.38889
1,Barra do Choça/BA,-14.8638173,-40.5761637,1046,3351.59730
D1,Barra do Choça/BA,-14.8638173,-40.5761637,12,38.45045
1,Barra do Corda/MA,-5.496823,-45.248496,4184,4728.11102
D1,Barra do Corda/MA,-5.496823,-45.248496,48,54.24219
1,Barra do Garças/MT,-15.8916033,-52.2615413,4617,7552.13871
D1,Barra do Garças/MT,-15.8916033,-52.2615413,158,258.44443
1,Barra do Guarita/RS,-27.1888016,-53.7147086,88,2701.87289
1,Barra do Jacaré/PR,-23.1151788,-50.1813945,113,4063.28659
1,Barra do Mendes/BA,-11.8053298,-42.057037,546,3947.08306
D1,Barra do Mendes/BA,-11.8053298,-42.057037,7,50.60363
1,Barra do Ouro/TO,-7.7113784,-47.6743925,92,1986.18307
D1,Barra do Ouro/TO,-7.7113784,-47.6743925,5,107.94473
1,Barra do Piraí/RJ,-22.4703403,-43.8263256,3363,3337.50149
D1,Barra do Piraí/RJ,-22.4703403,-43.8263256,129,128.02191
1,Barra do Quaraí/RS,-30.208947,-57.5505128,164,3879.82020
D1,Barra do Quaraí/RS,-30.208947,-57.5505128,2,47.31488
1,Barra do Ribeiro/RS,-30.2930206,-51.301437,468,3452.34582
D1,Barra do Ribeiro/RS,-30.2930206,-51.301437,29,213.92741
1,Barra do Rio Azul/RS,-27.4101581,-52.4117471,39,2356.49547
D1,Barra do Rio Azul/RS,-27.4101581,-52.4117471,1,60.42296
1,Barra do Rocha/BA,-14.2090974,-39.6004395,212,3777.61939
D1,Barra do Rocha/BA,-14.2090974,-39.6004395,3,53.45688
1,Barra do Turvo/SP,-24.756421,-48.5056942,288,3773.58491
D1,Barra do Turvo/SP,-24.756421,-48.5056942,8,104.82180
1,Barra dos Coqueiros/SE,-10.9075694,-37.0386249,3282,10611.05723
D1,Barra dos Coqueiros/SE,-10.9075694,-37.0386249,38,122.85807
1,Barra/BA,-11.0892702,-43.1420453,1048,1943.98071
D1,Barra/BA,-11.0892702,-43.1420453,17,31.53404
1,Barracão/PR,-26.252395,-53.6349576,525,5091.15593
D1,Barracão/PR,-26.252395,-53.6349576,7,67.88208
1,Barracão/RS,-27.6728964,-51.4582928,181,3443.68341
D1,Barracão/RS,-27.6728964,-51.4582928,4,76.10350
1,Barras/PI,-4.2446153,-42.2920241,3382,7167.53205
D1,Barras/PI,-4.2446153,-42.2920241,61,129.27837
1,Barreira/CE,-4.2883361,-38.641094,409,1811.89917
D1,Barreira/CE,-4.2883361,-38.641094,22,97.46157
1,Barreiras do Piauí/PI,-9.9224524,-45.4763776,41,1223.15036
D1,Barreiras do Piauí/PI,-9.9224524,-45.4763776,1,29.83294
1,Barreiras/BA,-12.1440031,-44.9967406,9094,5793.27918
D1,Barreiras/BA,-12.1440031,-44.9967406,109,69.43781
1,Barreirinha/AM,-2.798863,-57.067897,1860,5726.07210
D1,Barreirinha/AM,-2.798863,-57.067897,44,135.45547
1,Barreirinhas/MA,-2.7541271,-42.8259693,1402,2217.75788
D1,Barreirinhas/MA,-2.7541271,-42.8259693,28,44.29188
1,Barreiros/PE,-8.8159644,-35.1831905,392,916.65887
D1,Barreiros/PE,-8.8159644,-35.1831905,42,98.21345
1,Barretos/SP,-20.5531437,-48.5697509,7642,6221.45515
D1,Barretos/SP,-20.5531437,-48.5697509,186,151.42511
1,Barrinha/SP,-21.1898849,-48.1550642,901,2715.49126
D1,Barrinha/SP,-21.1898849,-48.1550642,36,108.49910
1,Barro Alto/BA,-11.7618025,-41.9094904,562,3733.22705
D1,Barro Alto/BA,-11.7618025,-41.9094904,4,26.57101
1,Barro Alto/GO,-14.9696025,-48.9190985,726,6363.95512
D1,Barro Alto/GO,-14.9696025,-48.9190985,8,70.12623
1,Barro Duro/PI,-5.8180139,-42.5106589,471,6702.71809
D1,Barro Duro/PI,-5.8180139,-42.5106589,7,99.61577
1,Barro Preto/BA,-14.8068289,-39.4727588,401,7360.49927
D1,Barro Preto/BA,-14.8068289,-39.4727588,6,110.13216
1,Barro/CE,-7.1713587,-38.7742136,527,2315.66922
D1,Barro/CE,-7.1713587,-38.7742136,11,48.33465
1,Barrocas/BA,-11.5165,-39.099282894736845,323,2005.58833
D1,Barrocas/BA,-11.5165,-39.099282894736845,4,24.83701
1,Barrolândia/TO,-9.837246,-48.7264346,290,5131.83507
D1,Barrolândia/TO,-9.837246,-48.7264346,4,70.78393
1,Barroquinha/CE,-3.0200371,-41.1339229,840,5583.62138
D1,Barroquinha/CE,-3.0200371,-41.1339229,20,132.94337
1,Barros Cassal/RS,-29.094938,-52.5832366,264,2360.93722
D1,Barros Cassal/RS,-29.094938,-52.5832366,2,17.88589
1,Barroso/MG,-21.187222,-43.976111,462,2210.84366
D1,Barroso/MG,-21.187222,-43.976111,7,33.49763
1,Barueri/SP,-23.5112184,-46.8764612,14422,5206.83655
D1,Barueri/SP,-23.5112184,-46.8764612,508,183.40542
1,Barão de Antonina/SP,-23.6295651,-49.5632104,42,1200.68611
D1,Barão de Antonina/SP,-23.6295651,-49.5632104,1,28.58776
1,Barão de Cocais/MG,-19.9452437,-43.4870298,1423,4329.70243
D1,Barão de Cocais/MG,-19.9452437,-43.4870298,14,42.59721
1,Barão de Cotegipe/RS,-27.6214694,-52.3765316,348,5256.79758
D1,Barão de Cotegipe/RS,-27.6214694,-52.3765316,4,60.42296
1,Barão de Grajaú/MA,-6.7542591,-43.0263477,39,206.08751
D1,Barão de Grajaú/MA,-6.7542591,-43.0263477,1,5.28430
1,Barão de Melgaço/MT,-16.195776,-55.9668049,173,2119.05928
D1,Barão de Melgaço/MT,-16.195776,-55.9668049,7,85.74228
1,Barão de Monte Alto/MG,-21.244722,-42.2375,139,2596.18976
D1,Barão de Monte Alto/MG,-21.244722,-42.2375,6,112.06575
1,Barão do Triunfo/RS,-30.3909877,-51.7375349,207,2753.02567
D1,Barão do Triunfo/RS,-30.3909877,-51.7375349,3,39.89892
1,Barão/RS,-29.372474,-51.494908,268,4321.18671
D1,Barão/RS,-29.372474,-51.494908,4,64.49532
1,Bastos/SP,-21.9222474,-50.7317727,329,1570.18088
D1,Bastos/SP,-21.9222474,-50.7317727,12,57.27104
1,Bataguassu/MS,-21.715899,-52.422058,1593,6829.58199
D1,Bataguassu/MS,-21.715899,-52.422058,16,68.59593
1,Batalha/AL,-9.6733809,-37.1265481,692,3773.58491
D1,Batalha/AL,-9.6733809,-37.1265481,13,70.89105
1,Batalha/PI,-4.022391,-42.0780926,550,2044.22970
D1,Batalha/PI,-4.022391,-42.0780926,15,55.75172
1,Batatais/SP,-20.892867,-47.592149,1291,2049.85710
D1,Batatais/SP,-20.892867,-47.592149,48,76.21467
1,Batayporã/MS,-22.2976466,-53.2685608,444,3912.23896
D1,Batayporã/MS,-22.2976466,-53.2685608,10,88.11349
1,Baturité/CE,-4.3290203,-38.8821055,1013,2818.50811
D1,Baturité/CE,-4.3290203,-38.8821055,35,97.38182
1,Bauru/SP,-22.3218102,-49.0705863,24368,6424.51694
D1,Bauru/SP,-22.3218102,-49.0705863,396,104.40367
1,Bayeux/PB,-7.1301631,-34.936532,3703,3809.55320
D1,Bayeux/PB,-7.1301631,-34.936532,140,144.02848
1,Baía Formosa/RN,-6.3691885,-35.0063741,214,2295.64471
D1,Baía Formosa/RN,-6.3691885,-35.0063741,7,75.09118
1,Baía da Traição/PB,-6.691258,-34.9371244,996,10949.86807
D1,Baía da Traição/PB,-6.691258,-34.9371244,8,87.95075
1,Bebedouro/SP,-20.949077,-48.479083,2029,2616.20785
D1,Bebedouro/SP,-20.949077,-48.479083,53,68.33860
1,Beberibe/CE,-4.1810469,-38.1298101,1541,2856.40142
D1,Beberibe/CE,-4.1810469,-38.1298101,35,64.87609
1,Bela Cruz/CE,-3.0529129,-40.167582,1669,5100.54398
D1,Bela Cruz/CE,-3.0529129,-40.167582,25,76.40120
1,Bela Vista da Caroba/PR,-25.8792818,-53.6672545,85,2458.77929
D1,Bela Vista da Caroba/PR,-25.8792818,-53.6672545,1,28.92682
1,Bela Vista de Goiás/GO,-16.9692949,-48.9513071,1350,4427.39079
D1,Bela Vista de Goiás/GO,-16.9692949,-48.9513071,24,78.70917
1,Bela Vista de Minas/MG,-19.8289721,-43.0973688,345,3361.91775
D1,Bela Vista de Minas/MG,-19.8289721,-43.0973688,8,77.95751
1,Bela Vista do Maranhão/MA,-3.7416367,-45.2514192,159,1409.69944
D1,Bela Vista do Maranhão/MA,-3.7416367,-45.2514192,8,70.92827
1,Bela Vista do Paraíso/PR,-22.9948493,-51.1907996,723,4695.11007
D1,Bela Vista do Paraíso/PR,-22.9948493,-51.1907996,15,97.40892
1,Bela Vista do Piauí/PI,-7.9716353,-41.8715061,203,5037.22084
D1,Bela Vista do Piauí/PI,-7.9716353,-41.8715061,5,124.06948
1,Bela Vista do Toldo/SC,-26.274625,-50.466354,38,597.29645
D1,Bela Vista do Toldo/SC,-26.274625,-50.466354,1,15.71833
1,Bela Vista/MS,-22.107327,-56.5317344,317,1281.58480
D1,Bela Vista/MS,-22.107327,-56.5317344,9,36.38569
1,Belford Roxo/RJ,-22.7667284,-43.4033603,16802,3274.49047
D1,Belford Roxo/RJ,-22.7667284,-43.4033603,426,83.02184
1,Belmiro Braga/MG,-21.9486291,-43.413564,80,2335.76642
D1,Belmiro Braga/MG,-21.9486291,-43.413564,3,87.59124
1,Belmonte/BA,-15.8630837,-38.8792845,800,3413.40615
D1,Belmonte/BA,-15.8630837,-38.8792845,8,34.13406
1,Belmonte/SC,-26.8448262,-53.578916,89,3285.34515
D1,Belmonte/SC,-26.8448262,-53.578916,3,110.74197
1,Belo Campo/BA,-15.0338286,-41.2585109,317,1852.82600
D1,Belo Campo/BA,-15.0338286,-41.2585109,4,23.37951
1,Belo Horizonte/MG,-19.9227318,-43.9450948,99219,3934.81982
D1,Belo Horizonte/MG,-19.9227318,-43.9450948,2523,100.05695
1,Belo Jardim/PE,-8.3338293,-36.4176419,1668,2175.07531
D1,Belo Jardim/PE,-8.3338293,-36.4176419,43,56.07209
1,Belo Monte/AL,-9.8269944,-37.2787165,208,3099.85097
D1,Belo Monte/AL,-9.8269944,-37.2787165,6,89.41878
1,Belo Oriente/MG,-19.2232523,-42.4807033,1395,5167.81507
D1,Belo Oriente/MG,-19.2232523,-42.4807033,25,92.61317
1,Belo Vale/MG,-20.407778,-44.024167,279,3614.45783
D1,Belo Vale/MG,-20.407778,-44.024167,6,77.73028
1,Belterra/PA,-2.636091,-54.937392,566,3172.82359
D1,Belterra/PA,-2.636091,-54.937392,14,78.47974
1,Belágua/MA,-3.1604031,-43.5085052,279,3706.16366
D1,Belágua/MA,-3.1604031,-43.5085052,2,26.56748
1,Belém de Maria/PE,-8.6242497,-35.8388934,124,1022.93351
D1,Belém de Maria/PE,-8.6242497,-35.8388934,3,24.74839
1,Belém do Brejo do Cruz/PB,-6.1880727,-37.5332267,462,6286.56960
D1,Belém do Brejo do Cruz/PB,-6.1880727,-37.5332267,5,68.03647
1,Belém do Piauí/PI,-7.3767305,-40.9712156,355,9896.84974
D1,Belém do Piauí/PI,-7.3767305,-40.9712156,5,139.39225
1,Belém do São Francisco/PE,-8.7517707,-38.9625715,303,1461.64978
D1,Belém do São Francisco/PE,-8.7517707,-38.9625715,4,19.29571
1,Belém/AL,-9.5715351,-36.492841,75,1750.70028
D1,Belém/AL,-9.5715351,-36.492841,3,70.02801
1,Belém/PA,-1.45056,-48.4682453,69911,4661.84907
D1,Belém/PA,-1.45056,-48.4682453,2662,177.50915
1,Belém/PB,-6.6967586,-35.5369626,1314,7421.63231
D1,Belém/PB,-6.6967586,-35.5369626,19,107.31432
1,Beneditinos/PI,-5.4565671,-42.3605061,460,4392.24673
D1,Beneditinos/PI,-5.4565671,-42.3605061,15,143.22544
1,Benedito Leite/MA,-7.2173453,-44.5523331,253,4487.40688
D1,Benedito Leite/MA,-7.2173453,-44.5523331,2,35.47357
1,Benedito Novo/SC,-26.7840657,-49.3629511,573,4866.24204
D1,Benedito Novo/SC,-26.7840657,-49.3629511,7,59.44798
1,Benevides/PA,-1.3555577,-48.252235,2383,3736.98407
D1,Benevides/PA,-1.3555577,-48.252235,54,84.68197
1,Benjamin Constant do Sul/RS,-27.5105555,-52.6007689,131,6690.50051
1,Benjamin Constant/AM,-4.3782748,-70.0290603,2252,5125.75395
D1,Benjamin Constant/AM,-4.3782748,-70.0290603,60,136.56538
1,Bento Fernandes/RN,-5.6926846,-35.8207423,45,814.47964
D1,Bento Fernandes/RN,-5.6926846,-35.8207423,2,36.19910
1,Bento Gonçalves/RS,-29.1654014,-51.5197627,9015,7401.29553
D1,Bento Gonçalves/RS,-29.1654014,-51.5197627,160,131.35965
1,Bento de Abreu/SP,-21.2707225,-50.8120444,97,3227.95341
1,Bequimão/MA,-2.4495376,-44.7884889,264,1239.49481
D1,Bequimão/MA,-2.4495376,-44.7884889,13,61.03573
1,Berilo/MG,-16.9515764,-42.4643732,10,84.23181
1,Berizal/MG,-15.6118785,-41.7417382,67,1406.38119
1,Bernardino Batista/PB,-6.4532173,-38.5495418,189,5345.02262
1,Bernardino de Campos/SP,-23.0140216,-49.4760724,249,2231.58272
D1,Bernardino de Campos/SP,-23.0140216,-49.4760724,6,53.77308
1,Bernardo Sayão/TO,-7.8794244,-48.8968905,131,2945.14388
D1,Bernardo Sayão/TO,-7.8794244,-48.8968905,4,89.92806
1,Bernardo do Mearim/MA,-4.6315929,-44.7617508,173,2848.67446
D1,Bernardo do Mearim/MA,-4.6315929,-44.7617508,3,49.39898
1,Bertioga/SP,-23.848568,-46.139586,3040,4696.93926
D1,Bertioga/SP,-23.848568,-46.139586,59,91.15770
1,Bertolínia/PI,-7.6372159,-43.9540611,580,10532.05012
D1,Bertolínia/PI,-7.6372159,-43.9540611,6,108.95224
1,Bertópolis/MG,-17.063333,-40.573889,216,4688.51747
1,Beruri/AM,-3.9007135,-61.3717319,1848,9197.23287
D1,Beruri/AM,-3.9007135,-61.3717319,27,134.37516
1,Betim/MG,-19.968056,-44.198333,17211,3869.51869
D1,Betim/MG,-19.968056,-44.198333,428,96.22648
1,Betânia do Piauí/PI,-8.1460635,-40.7961387,124,1996.77939
D1,Betânia do Piauí/PI,-8.1460635,-40.7961387,2,32.20612
1,Betânia/PE,-8.2742779,-38.0351767,216,1692.12691
D1,Betânia/PE,-8.2742779,-38.0351767,3,23.50176
1,Bezerros/PE,-8.2372132,-35.7558262,2120,3482.26018
D1,Bezerros/PE,-8.2372132,-35.7558262,76,124.83574
1,Bias Fortes/MG,-21.605833,-43.756944,72,2162.81166
D1,Bias Fortes/MG,-21.605833,-43.756944,2,60.07810
1,Bicas/MG,-21.7213723,-43.0604327,484,3325.54624
D1,Bicas/MG,-21.7213723,-43.0604327,15,103.06445
1,Biguaçu/SC,-27.4961277,-48.6542432,7101,10219.32476
D1,Biguaçu/SC,-27.4961277,-48.6542432,75,107.93541
1,Bilac/SP,-21.403962,-50.47464,348,4287.29826
D1,Bilac/SP,-21.403962,-50.47464,6,73.91894
1,Biquinhas/MG,-18.783611,-45.502222,28,1120.89672
1,Birigui/SP,-21.2908491,-50.34144,6450,5164.83428
D1,Birigui/SP,-21.2908491,-50.34144,173,138.52966
1,Biritiba Mirim/SP,-23.5697765,-46.0407456,672,2040.32062
D1,Biritiba Mirim/SP,-23.5697765,-46.0407456,45,136.62861
1,Biritinga/BA,-11.6227908,-38.8066738,177,1107.35736
D1,Biritinga/BA,-11.6227908,-38.8066738,2,12.51251
1,Bituruna/PR,-26.161281,-51.5533319,204,1243.90244
D1,Bituruna/PR,-26.161281,-51.5533319,1,6.09756
1,Blumenau/SC,-26.9195567,-49.0658025,33033,9128.79468
D1,Blumenau/SC,-26.9195567,-49.0658025,313,86.49874
1,Boa Esperança do Iguaçu/PR,-25.6362851,-53.2139114,97,3927.12551
1,Boa Esperança do Sul/SP,-21.9930206,-48.3917372,475,3162.87122
D1,Boa Esperança do Sul/SP,-21.9930206,-48.3917372,8,53.26941
1,Boa Esperança/ES,-18.5395472,-40.2904088,688,4558.70660
D1,Boa Esperança/ES,-18.5395472,-40.2904088,24,159.02465
1,Boa Esperança/MG,-21.0901253,-45.5660195,1057,2628.11109
D1,Boa Esperança/MG,-21.0901253,-45.5660195,30,74.59161
1,Boa Esperança/PR,-24.2411024,-52.7860277,168,4151.22313
D1,Boa Esperança/PR,-24.2411024,-52.7860277,4,98.83865
1,Boa Hora/PI,-4.4094627,-42.1255341,301,4416.72781
D1,Boa Hora/PI,-4.4094627,-42.1255341,3,44.02054
1,Boa Nova/BA,-14.365907,-40.2063056,313,2538.72982
D1,Boa Nova/BA,-14.365907,-40.2063056,6,48.66575
1,Boa Ventura de São Roque/PR,-24.88177,-51.5441292,201,3157.89474
D1,Boa Ventura de São Roque/PR,-24.88177,-51.5441292,3,47.13276
1,Boa Ventura/PB,-7.4202462,-38.2156782,163,3071.41511
D1,Boa Ventura/PB,-7.4202462,-38.2156782,3,56.52911
1,Boa Viagem/CE,-5.1261877,-39.7300055,1756,3217.47256
D1,Boa Viagem/CE,-5.1261877,-39.7300055,45,82.45232
1,Boa Vista da Aparecida/PR,-25.4357216,-53.4067721,386,5119.36340
D1,Boa Vista da Aparecida/PR,-25.4357216,-53.4067721,12,159.15119
1,Boa Vista das Missões/RS,-27.6677983,-53.3127622,35,1673.04015
D1,Boa Vista das Missões/RS,-27.6677983,-53.3127622,1,47.80115
1,Boa Vista do Buricá/RS,-27.6687782,-54.1111913,308,4588.79619
D1,Boa Vista do Buricá/RS,-27.6687782,-54.1111913,4,59.59476
1,Boa Vista do Cadeado/RS,-28.5783827,-53.8123759,79,3200.97245
1,Boa Vista do Gurupi/MA,-1.7981168,-46.3071882,14,167.02458
D1,Boa Vista do Gurupi/MA,-1.7981168,-46.3071882,3,35.79098
1,Boa Vista do Incra/RS,-28.8195551,-53.3866624,102,3899.08257
D1,Boa Vista do Incra/RS,-28.8195551,-53.3866624,1,38.22630
1,Boa Vista do Ramos/AM,-2.9716927,-57.5869819,769,3918.27168
D1,Boa Vista do Ramos/AM,-2.9716927,-57.5869819,11,56.04810
1,Boa Vista do Sul/RS,-29.3510488,-51.6779679,126,4535.63715
D1,Boa Vista do Sul/RS,-29.3510488,-51.6779679,2,71.99424
1,Boa Vista do Tupim/BA,-12.6605988,-40.6083594,152,820.24715
D1,Boa Vista do Tupim/BA,-12.6605988,-40.6083594,3,16.18909
1,Boa Vista/PB,-7.2620711,-36.2415161,242,3391.25561
D1,Boa Vista/PB,-7.2620711,-36.2415161,2,28.02691
1,Boa Vista/RR,2.8208478,-60.6719582,58592,13962.04474
D1,Boa Vista/RR,2.8208478,-60.6719582,738,175.86000
1,Boca da Mata/AL,-9.6452054,-36.2116658,1333,4872.78842
D1,Boca da Mata/AL,-9.6452054,-36.2116658,27,98.69864
1,Boca do Acre/AM,-8.7553487,-67.3930873,2237,6458.78447
D1,Boca do Acre/AM,-8.7553487,-67.3930873,19,54.85780
1,Bocaina de Minas/MG,-22.167778,-44.394722,65,1277.26469
D1,Bocaina de Minas/MG,-22.167778,-44.394722,2,39.30045
1,Bocaina do Sul/SC,-27.745494,-49.942279,290,8314.22018
D1,Bocaina do Sul/SC,-27.745494,-49.942279,3,86.00917
1,Bocaina/PI,-6.9445939,-41.3224599,211,4683.68479
D1,Bocaina/PI,-6.9445939,-41.3224599,3,66.59267
1,Bocaina/SP,-22.1421831,-48.522276,786,6312.23900
D1,Bocaina/SP,-22.1421831,-48.522276,12,96.37006
1,Bocaiúva do Sul/PR,-25.206591,-49.114131,655,4988.95575
D1,Bocaiúva do Sul/PR,-25.206591,-49.114131,3,22.85018
1,Bocaiúva/MG,-17.1160208,-43.8122678,822,1635.62560
D1,Bocaiúva/MG,-17.1160208,-43.8122678,16,31.83699
1,Bodocó/PE,-7.777592,-39.933797,1262,3288.34228
D1,Bodocó/PE,-7.777592,-39.933797,16,41.69055
1,Bodoquena/MS,-20.5508775,-56.6769653,105,1339.62746
D1,Bodoquena/MS,-20.5508775,-56.6769653,2,25.51671
1,Bodó/RN,-5.9866104,-36.4134824,63,2867.54665
1,Bofete/SP,-23.1019554,-48.2610535,360,3019.88088
D1,Bofete/SP,-23.1019554,-48.2610535,4,33.55423
1,Boituva/SP,-23.2838893,-47.6738231,2716,4368.66656
D1,Boituva/SP,-23.2838893,-47.6738231,45,72.38218
1,Bom Conselho/PE,-9.169191,-36.685683,978,2005.45451
D1,Bom Conselho/PE,-9.169191,-36.685683,33,67.66871
1,Bom Despacho/MG,-19.7375242,-45.2517288,1951,3823.39108
D1,Bom Despacho/MG,-19.7375242,-45.2517288,36,70.54950
1,Bom Jardim da Serra/SC,-28.3380324,-49.625588,485,10163.45348
D1,Bom Jardim da Serra/SC,-28.3380324,-49.625588,3,62.86672
1,Bom Jardim de Goiás/GO,-16.2062659,-52.172793,257,2897.73368
D1,Bom Jardim de Goiás/GO,-16.2062659,-52.172793,4,45.10091
1,Bom Jardim de Minas/MG,-21.9476466,-44.1906033,119,1842.39046
D1,Bom Jardim de Minas/MG,-21.9476466,-44.1906033,1,15.48227
1,Bom Jardim/MA,-3.54129,-45.606004,1018,2434.12558
D1,Bom Jardim/MA,-3.54129,-45.606004,30,71.73258
1,Bom Jardim/PE,-7.7961572,-35.5871696,824,2060.87587
D1,Bom Jardim/PE,-7.7961572,-35.5871696,35,87.53720
1,Bom Jardim/RJ,-22.1515328,-42.4186683,644,2331.98146
D1,Bom Jardim/RJ,-22.1515328,-42.4186683,7,25.34762
1,Bom Jesus da Lapa/BA,-13.250571,-43.410754,1671,2398.72527
D1,Bom Jesus da Lapa/BA,-13.250571,-43.410754,19,27.27455
1,Bom Jesus da Penha/MG,-21.0165299,-46.5226644,163,3840.71631
D1,Bom Jesus da Penha/MG,-21.0165299,-46.5226644,2,47.12535
1,Bom Jesus da Serra/BA,-14.3724084,-40.5047119,292,2972.61529
D1,Bom Jesus da Serra/BA,-14.3724084,-40.5047119,1,10.18019
1,Bom Jesus das Selvas/MA,-4.4878075,-46.8526639,2055,5944.97642
D1,Bom Jesus das Selvas/MA,-4.4878075,-46.8526639,19,54.96572
1,Bom Jesus de Goiás/GO,-18.2174587,-49.739721,1207,4706.01996
D1,Bom Jesus de Goiás/GO,-18.2174587,-49.739721,34,132.56394
1,Bom Jesus do Amparo/MG,-19.7045132,-43.4752911,72,1173.97685
D1,Bom Jesus do Amparo/MG,-19.7045132,-43.4752911,3,48.91570
1,Bom Jesus do Araguaia/MT,-12.1725897,-51.5074425,334,4980.61438
D1,Bom Jesus do Araguaia/MT,-12.1725897,-51.5074425,1,14.91202
1,Bom Jesus do Galho/MG,-19.8283191,-42.3162256,288,1937.82802
D1,Bom Jesus do Galho/MG,-19.8283191,-42.3162256,9,60.55713
1,Bom Jesus do Itabapoana/RJ,-21.1341025,-41.680095,1891,5082.92342
D1,Bom Jesus do Itabapoana/RJ,-21.1341025,-41.680095,38,102.14230
1,Bom Jesus do Norte/ES,-21.1254776,-41.6711646,709,7117.04477
D1,Bom Jesus do Norte/ES,-21.1254776,-41.6711646,16,160.61032
1,Bom Jesus do Oeste/SC,-26.6929713,-53.0967453,88,4114.07200
D1,Bom Jesus do Oeste/SC,-26.6929713,-53.0967453,1,46.75082
1,Bom Jesus do Sul/PR,-26.1922507,-53.6002033,137,3907.58699
D1,Bom Jesus do Sul/PR,-26.1922507,-53.6002033,3,85.56760
1,Bom Jesus do Tocantins/PA,-5.0471796,-48.5978362,454,2652.17899
D1,Bom Jesus do Tocantins/PA,-5.0471796,-48.5978362,5,29.20902
1,Bom Jesus do Tocantins/TO,-8.96306,-48.165043,102,2036.74121
1,Bom Jesus dos Perdões/SP,-23.1353864,-46.4648052,853,3282.66307
D1,Bom Jesus dos Perdões/SP,-23.1353864,-46.4648052,6,23.09024
1,Bom Jesus/PB,-6.8156725,-38.6551841,79,3067.96117
D1,Bom Jesus/PB,-6.8156725,-38.6551841,3,116.50485
1,Bom Jesus/PI,-9.0711644,-44.3583926,2206,8689.48675
D1,Bom Jesus/PI,-9.0711644,-44.3583926,24,94.53657
1,Bom Jesus/RN,-5.9887544,-35.5821149,421,4100.51622
D1,Bom Jesus/RN,-5.9887544,-35.5821149,8,77.91955
1,Bom Jesus/RS,-28.6692723,-50.4346894,425,3758.06879
D1,Bom Jesus/RS,-28.6692723,-50.4346894,11,97.26766
1,Bom Jesus/SC,-26.7350604,-52.3916519,204,6673.20903
D1,Bom Jesus/SC,-26.7350604,-52.3916519,3,98.13543
1,Bom Lugar/MA,-4.3728019,-45.0366054,313,1904.12459
D1,Bom Lugar/MA,-4.3728019,-45.0366054,5,30.41733
1,Bom Princípio do Piauí/PI,-3.1912777,-41.6430185,47,831.71120
D1,Bom Princípio do Piauí/PI,-3.1912777,-41.6430185,3,53.08795
1,Bom Princípio/RS,-29.489788,-51.3566782,847,5941.77482
D1,Bom Princípio/RS,-29.489788,-51.3566782,11,77.16591
1,Bom Progresso/RS,-27.5490948,-53.8655601,34,1790.41601
1,Bom Repouso/MG,-22.4657069,-46.1485376,284,2695.26431
D1,Bom Repouso/MG,-22.4657069,-46.1485376,8,75.92294
1,Bom Retiro do Sul/RS,-29.6000007,-51.9359243,544,4390.63761
D1,Bom Retiro do Sul/RS,-29.6000007,-51.9359243,8,64.56820
1,Bom Retiro/SC,-27.798993,-49.486994,343,3409.54274
D1,Bom Retiro/SC,-27.798993,-49.486994,8,79.52286
1,Bom Sucesso de Itararé/SP,-24.3190016,-49.1446207,63,1581.32530
D1,Bom Sucesso de Itararé/SP,-24.3190016,-49.1446207,4,100.40161
1,Bom Sucesso do Sul/PR,-26.0749256,-52.8348629,170,5224.33927
D1,Bom Sucesso do Sul/PR,-26.0749256,-52.8348629,2,61.46281
1,Bom Sucesso/MG,-21.0323516,-44.7598082,205,1164.30965
D1,Bom Sucesso/MG,-21.0323516,-44.7598082,4,22.71824
1,Bom Sucesso/PB,-6.4458948,-37.9297662,86,1735.27038
1,Bom Sucesso/PR,-23.7088019,-51.7651297,348,4923.59932
D1,Bom Sucesso/PR,-23.7088019,-51.7651297,6,84.88964
1,Bombinhas/SC,-27.1519159,-48.4875691,2683,13194.00049
D1,Bombinhas/SC,-27.1519159,-48.4875691,27,132.77600
1,Bonfim do Piauí/PI,-9.1648678,-42.8734415,166,2919.96482
D1,Bonfim do Piauí/PI,-9.1648678,-42.8734415,2,35.18030
1,Bonfim/MG,-20.3266626, -44.2386157,185,2696.79300
D1,Bonfim/MG,-20.3266626, -44.2386157,3,43.73178
1,Bonfim/RR,3.3613818,-59.8427241,1452,11563.27148
D1,Bonfim/RR,3.3613818,-59.8427241,21,167.23740
1,Bonfinópolis de Minas/MG,-16.5660011,-45.98645,216,3967.67083
D1,Bonfinópolis de Minas/MG,-16.5660011,-45.98645,9,165.31962
1,Bonfinópolis/GO,-16.6172709,-48.9615701,401,4042.74624
D1,Bonfinópolis/GO,-16.6172709,-48.9615701,11,110.89828
1,Boninal/BA,-12.7095183,-41.8299984,376,2602.79662
D1,Boninal/BA,-12.7095183,-41.8299984,4,27.68933
1,Bonito de Minas/MG,-15.3191266,-44.7544,14,123.14188
1,Bonito de Santa Fé/PB,-7.3143332,-38.5146677,348,2894.69306
D1,Bonito de Santa Fé/PB,-7.3143332,-38.5146677,11,91.49892
1,Bonito/BA,-11.9665473,-41.2649896,469,2777.77778
D1,Bonito/BA,-11.9665473,-41.2649896,3,17.76830
1,Bonito/MS,-21.1264766,-56.4902208,1424,6417.30509
D1,Bonito/MS,-21.1264766,-56.4902208,23,103.65029
1,Bonito/PA,-1.3605722,-47.3049907,320,1935.87417
D1,Bonito/PA,-1.3605722,-47.3049907,10,60.49607
1,Bonito/PE,-8.4721161,-35.7314591,510,1337.98568
D1,Bonito/PE,-8.4721161,-35.7314591,28,73.45804
1,Bonópolis/GO,-13.649331,-49.8329113,95,2114.40018
D1,Bonópolis/GO,-13.649331,-49.8329113,1,22.25684
1,Boqueirão do Leão/RS,-29.30332,-52.4296817,204,2648.66269
D1,Boqueirão do Leão/RS,-29.30332,-52.4296817,6,77.90184
1,Boqueirão do Piauí/PI,-4.4850148,-42.1095161,319,4964.20791
D1,Boqueirão do Piauí/PI,-4.4850148,-42.1095161,5,77.80890
1,Boqueirão/PB,-7.487004,-36.130887,1007,5635.14270
D1,Boqueirão/PB,-7.487004,-36.130887,15,83.93956
1,Boquim/SE,-11.1450175,-37.6204228,1213,4509.46132
D1,Boquim/SE,-11.1450175,-37.6204228,27,100.37548
1,Boquira/BA,-12.8184859,-42.7270883,315,1465.32074
D1,Boquira/BA,-12.8184859,-42.7270883,5,23.25906
1,Boracéia/SP,-22.195355,-48.7801925,294,6039.44125
D1,Boracéia/SP,-22.195355,-48.7801925,3,61.62695
1,Borba/AM,-4.3934778,-59.5947721,1318,3157.03746
D1,Borba/AM,-4.3934778,-59.5947721,40,95.81297
1,Borborema/PB,-6.8066718,-35.5990191,106,2004.91772
D1,Borborema/PB,-6.8066718,-35.5990191,1,18.91432
1,Borborema/SP,-21.6212706,-49.074135,538,3328.38406
D1,Borborema/SP,-21.6212706,-49.074135,13,80.42564
1,Borda da Mata/MG,-22.274167,-46.165278,745,3798.30733
D1,Borda da Mata/MG,-22.274167,-46.165278,22,112.16478
1,Borebi/SP,-22.5700178,-48.9714871,84,3130.82370
D1,Borebi/SP,-22.5700178,-48.9714871,2,74.54342
1,Borrazópolis/PR,-23.9393362,-51.5850786,387,6010.25004
D1,Borrazópolis/PR,-23.9393362,-51.5850786,9,139.77326
1,Borá/SP,-22.2701088,-50.544407,16,1909.30788
1,Bossoroca/RS,-28.7278885,-54.9120278,121,1950.04029
D1,Bossoroca/RS,-28.7278885,-54.9120278,5,80.58018
1,Botelhos/MG,-21.65,-46.394722,357,2388.11961
D1,Botelhos/MG,-21.65,-46.394722,4,26.75764
1,Botucatu/SP,-22.8879628,-48.4410712,7091,4787.01141
D1,Botucatu/SP,-22.8879628,-48.4410712,93,62.78269
1,Botumirim/MG,-16.862778,-43.011111,94,1494.91094
D1,Botumirim/MG,-16.862778,-43.011111,1,15.90331
1,Botuporã/BA,-13.3744752,-42.5198469,116,1145.22658
D1,Botuporã/BA,-13.3744752,-42.5198469,2,19.74529
1,Botuverá/SC,-27.200749,-49.068892,598,11236.37730
D1,Botuverá/SC,-27.200749,-49.068892,3,56.36979
1,Bozano/RS,-28.3669953,-53.7705165,74,3505.44766
1,Braga/RS,-27.617348,-53.740514,80,2416.18846
D1,Braga/RS,-27.617348,-53.740514,2,60.40471
1,Braganey/PR,-24.8179919,-53.118506,173,3214.41843
D1,Braganey/PR,-24.8179919,-53.118506,2,37.16091
1,Bragança Paulista/SP,-22.9520235,-46.5418586,7260,4257.24053
D1,Bragança Paulista/SP,-22.9520235,-46.5418586,134,78.57717
1,Bragança/PA,-1.0573967,-46.7635406,3233,2507.87347
D1,Bragança/PA,-1.0573967,-46.7635406,102,79.12252
1,Branquinha/AL,-9.2478057,-36.0152009,299,2858.50860
D1,Branquinha/AL,-9.2478057,-36.0152009,8,76.48184
1,Brasil Novo/PA,-3.3055853,-52.539198,873,5826.60348
D1,Brasil Novo/PA,-3.3055853,-52.539198,18,120.13615
1,Brasileira/PI,-4.131182,-41.7824969,297,3558.16461
D1,Brasileira/PI,-4.131182,-41.7824969,5,59.90176
1,Brasilândia de Minas/MG,-17.0096469,-46.0087183,621,3707.90542
D1,Brasilândia de Minas/MG,-17.0096469,-46.0087183,7,41.79604
1,Brasilândia do Sul/PR,-24.1975793,-53.527551,132,5106.38298
D1,Brasilândia do Sul/PR,-24.1975793,-53.527551,1,38.68472
1,Brasilândia do Tocantins/TO,-8.3886619,-48.4842729,75,3392.13026
D1,Brasilândia do Tocantins/TO,-8.3886619,-48.4842729,1,45.22840
1,Brasilândia/MS,-21.255575,-52.0365617,258,2176.66414
D1,Brasilândia/MS,-21.255575,-52.0365617,5,42.18341
1,Brasiléia/AC,-11.0010413,-68.7487894,1791,6707.36274
D1,Brasiléia/AC,-11.0010413,-68.7487894,26,97.37098
1,Brasnorte/MT,-12.1227151,-58.0050109,817,4056.60377
D1,Brasnorte/MT,-12.1227151,-58.0050109,8,39.72195
1,Brasília de Minas/MG,-16.2075114,-44.430559,480,1481.25289
D1,Brasília de Minas/MG,-16.2075114,-44.430559,5,15.42972
1,Brasília/DF,-15.7934036,-47.8823172,286137,9365.72979
D1,Brasília/DF,-15.7934036,-47.8823172,4708,154.10050
1,Brazabrantes/GO,-16.4291635,-49.3858216,225,6006.40683
D1,Brazabrantes/GO,-16.4291635,-49.3858216,2,53.39028
1,Brazópolis/MG,-22.4742842,-45.6165577,457,3171.40874
D1,Brazópolis/MG,-22.4742842,-45.6165577,11,76.33588
1,Braço do Norte/SC,-28.2728633,-49.1622712,4987,14721.33664
D1,Braço do Norte/SC,-28.2728633,-49.1622712,43,126.93352
1,Braço do Trombudo/SC,-27.358578,-49.882145,318,8437.25126
D1,Braço do Trombudo/SC,-27.358578,-49.882145,3,79.59671
1,Braúna/SP,-21.5015319,-50.3175246,182,3170.17941
D1,Braúna/SP,-21.5015319,-50.3175246,7,121.92998
1,Braúnas/MG,-19.055556,-42.716111,81,1698.46928
D1,Braúnas/MG,-19.055556,-42.716111,3,62.90627
1,Brejetuba/ES,-20.1465817,-41.2902303,1012,8143.55838
D1,Brejetuba/ES,-20.1465817,-41.2902303,3,24.14098
1,Brejinho de Nazaré/TO,-11.0205883,-48.5722906,150,2717.88367
D1,Brejinho de Nazaré/TO,-11.0205883,-48.5722906,6,108.71535
1,Brejinho/PE,-7.3482153,-37.28538,324,4326.92308
D1,Brejinho/PE,-7.3482153,-37.28538,4,53.41880
1,Brejinho/RN,-6.1957907,-35.3583019,585,4574.95894
D1,Brejinho/RN,-6.1957907,-35.3583019,5,39.10221
1,Brejo Alegre/SP,-21.1671191,-50.1850393,175,6057.45933
D1,Brejo Alegre/SP,-21.1671191,-50.1850393,9,311.52648
1,Brejo Grande do Araguaia/PA,-5.7011449,-48.4037308,703,9541.25950
D1,Brejo Grande do Araguaia/PA,-5.7011449,-48.4037308,5,67.86102
1,Brejo Grande/SE,-10.4287358,-36.4667918,238,2849.27571
D1,Brejo Grande/SE,-10.4287358,-36.4667918,9,107.74572
1,Brejo Santo/CE,-7.4909841,-38.9859152,3303,6626.94113
D1,Brejo Santo/CE,-7.4909841,-38.9859152,32,64.20288
1,Brejo da Madre de Deus/PE,-8.1409718,-36.3712527,1263,2465.59297
D1,Brejo da Madre de Deus/PE,-8.1409718,-36.3712527,37,72.23036
1,Brejo de Areia/MA,-4.3316785,-45.5833334,267,2962.05902
D1,Brejo de Areia/MA,-4.3316785,-45.5833334,2,22.18771
1,Brejo do Cruz/PB,-6.32926065,-37.48746163303929,1090,7672.81430
D1,Brejo do Cruz/PB,-6.32926065,-37.48746163303929,13,91.51063
1,Brejo do Piauí/PI,-8.207583,-42.8359849,40,1039.50104
D1,Brejo do Piauí/PI,-8.207583,-42.8359849,3,77.96258
1,Brejo dos Santos/PB,-6.3769367,-37.8243125,180,2784.65347
D1,Brejo dos Santos/PB,-6.3769367,-37.8243125,4,61.88119
1,Brejo/MA,-3.6804397,-42.7529313,708,1931.73447
D1,Brejo/MA,-3.6804397,-42.7529313,18,49.11189
1,Brejolândia/BA,-12.4843845,-43.9611861,126,1186.66416
D1,Brejolândia/BA,-12.4843845,-43.9611861,7,65.92579
1,Brejão/PE,-9.029146,-36.566034,125,1390.89796
D1,Brejão/PE,-9.029146,-36.566034,3,33.38155
1,Brejões/BA,-13.1033754,-39.7909837,426,2995.35930
D1,Brejões/BA,-13.1033754,-39.7909837,7,49.21952
1,Breu Branco/PA,-3.7785073,-49.5684795,440,653.47829
D1,Breu Branco/PA,-3.7785073,-49.5684795,29,43.07016
1,Breves/PA,-1.68036,-50.479085,3570,3449.37534
D1,Breves/PA,-1.68036,-50.479085,101,97.58737
1,Britânia/GO,-15.2427599,-51.1602061,321,5537.34690
D1,Britânia/GO,-15.2427599,-51.1602061,1,17.25030
1,Brochier/RS,-29.556766,-51.5963047,138,2703.76176
1,Brodowski/SP,-20.984532,-47.657217,1145,4529.80971
D1,Brodowski/SP,-20.984532,-47.657217,28,110.77264
1,Brotas de Macaúbas/BA,-12.0019007,-42.6257506,52,513.32675
1,Brotas/SP,-22.2840884,-48.1267265,286,1160.90274
D1,Brotas/SP,-22.2840884,-48.1267265,10,40.59101
1,Brumadinho/MG,-20.143611,-44.2,2063,5073.03398
D1,Brumadinho/MG,-20.143611,-44.2,28,68.85359
1,Brumado/BA,-14.29507325,-41.659307508575985,4708,6991.90614
D1,Brumado/BA,-14.29507325,-41.659307508575985,46,68.31514
1,Brunópolis/SC,-27.310953,-50.837585,81,3420.60811
1,Brusque/SC,-27.0964628,-48.9136323,16366,11886.20732
D1,Brusque/SC,-27.0964628,-48.9136323,130,94.41568
1,Brás Pires/MG,-20.8483109,-43.2430524,98,2282.78593
D1,Brás Pires/MG,-20.8483109,-43.2430524,5,116.46867
1,Bueno Brandão/MG,-22.441976,-46.3517971,265,2411.06360
D1,Bueno Brandão/MG,-22.441976,-46.3517971,6,54.59012
1,Buenos Aires/PE,-7.7218931,-35.326587,82,621.68309
D1,Buenos Aires/PE,-7.7218931,-35.326587,12,90.97801
1,Buenópolis/MG,-17.8756607,-44.1749365,144,1390.90119
D1,Buenópolis/MG,-17.8756607,-44.1749365,5,48.29518
1,Buerarema/BA,-14.9571177,-39.3008035,947,5173.16727
D1,Buerarema/BA,-14.9571177,-39.3008035,27,147.49263
1,Bugre/MG,-19.4257687,-42.2556,286,7180.51720
D1,Bugre/MG,-19.4257687,-42.2556,8,200.85363
1,Bujari/AC,-9.8309656,-67.9520886,568,5451.05566
D1,Bujari/AC,-9.8309656,-67.9520886,8,76.77543
1,Bujaru/PA,-1.5169239,-48.0410699,871,2959.86679
D1,Bujaru/PA,-1.5169239,-48.0410699,26,88.35423
1,Buri/SP,-23.79849,-48.598924,736,3686.45129
D1,Buri/SP,-23.79849,-48.598924,15,75.13148
1,Buritama/SP,-21.0664017,-50.1448077,1210,7001.90961
D1,Buritama/SP,-21.0664017,-50.1448077,35,202.53458
1,Buriti Alegre/GO,-18.1377879,-49.0404411,491,5177.14045
D1,Buriti Alegre/GO,-18.1377879,-49.0404411,13,137.07296
1,Buriti Bravo/MA,-5.8391884,-43.8367876,1019,4256.65232
D1,Buriti Bravo/MA,-5.8391884,-43.8367876,10,41.77284
1,Buriti de Goiás/GO,-16.180644,-50.4287479,121,4886.91438
D1,Buriti de Goiás/GO,-16.180644,-50.4287479,1,40.38772
1,Buriti do Tocantins/TO,-5.3187439,-48.2256609,377,3279.11629
D1,Buriti do Tocantins/TO,-5.3187439,-48.2256609,1,8.69792
1,Buriti dos Lopes/PI,-3.1776723,-41.8707444,848,4281.31469
D1,Buriti dos Lopes/PI,-3.1776723,-41.8707444,12,60.58464
1,Buriti dos Montes/PI,-5.3136171,-41.0971256,326,3944.82091
D1,Buriti dos Montes/PI,-5.3136171,-41.0971256,2,24.20136
1,Buriti/MA,-3.9430944,-42.9244281,717,2489.75623
D1,Buriti/MA,-3.9430944,-42.9244281,5,17.36232
1,Buriticupu/MA,-4.3227472,-46.4516989,2658,3641.94401
D1,Buriticupu/MA,-4.3227472,-46.4516989,21,28.77382
1,Buritinópolis/GO,-14.4589282,-46.4293104,75,2284.49589
1,Buritirama/BA,-10.7148421,-43.6362327,592,2782.47791
D1,Buritirama/BA,-10.7148421,-43.6362327,15,70.50197
1,Buritirana/MA,-5.5897455,-47.0148915,244,1577.55221
D1,Buritirana/MA,-5.5897455,-47.0148915,10,64.65378
1,Buritis/MG,-15.621389,-46.423889,631,2522.68820
D1,Buritis/MG,-15.621389,-46.423889,8,31.98337
1,Buritis/RO,-10.2054937,-63.8281954,3030,7508.17722
D1,Buritis/RO,-10.2054937,-63.8281954,33,81.77223
1,Buritizal/SP,-20.1933264,-47.7097165,107,2370.40319
D1,Buritizal/SP,-20.1933264,-47.7097165,4,88.61320
1,Buritizeiro/MG,-17.3667765,-44.9647781,551,1959.38978
D1,Buritizeiro/MG,-17.3667765,-44.9647781,15,53.34092
1,Butiá/RS,-30.1256795,-51.9692224,768,3665.52119
D1,Butiá/RS,-30.1256795,-51.9692224,26,124.09317
1,Buíque/PE,-8.6239732,-37.157296,1145,1943.34595
D1,Buíque/PE,-8.6239732,-37.157296,14,23.76144
1,Bálsamo/SP,-20.7343722,-49.5807484,767,8392.60313
D1,Bálsamo/SP,-20.7343722,-49.5807484,31,339.20560
0,CASO SEM LOCALIZAÇÃO DEFINIDA/AL,-9.931093434363673,-35.609611600637464,658,19.71620
D0,CASO SEM LOCALIZAÇÃO DEFINIDA/AL,-9.931093434363673,-35.609611600637464,18,0.53935
0,CASO SEM LOCALIZAÇÃO DEFINIDA/BA,-13.415069300066518,-38.14174656569957,12565,84.48158
D0,CASO SEM LOCALIZAÇÃO DEFINIDA/BA,-13.415069300066518,-38.14174656569957,144,0.96819
0,CASO SEM LOCALIZAÇÃO DEFINIDA/CE,-3.3445126297392798,-38.624961942434304,18598,203.65573
D0,CASO SEM LOCALIZAÇÃO DEFINIDA/CE,-3.3445126297392798,-38.624961942434304,18,0.19711
0,CASO SEM LOCALIZAÇÃO DEFINIDA/ES,-20.30989267097039,-39.81745156645774,2491,61.98599
D0,CASO SEM LOCALIZAÇÃO DEFINIDA/ES,-20.30989267097039,-39.81745156645774,98,2.43863
0,CASO SEM LOCALIZAÇÃO DEFINIDA/GO,-16.701590966270153,-49.164524059025034,1842,26.24547
D0,CASO SEM LOCALIZAÇÃO DEFINIDA/GO,-16.701590966270153,-49.164524059025034,90,1.28235
0,CASO SEM LOCALIZAÇÃO DEFINIDA/MG,-19.97049116501593,-43.8852149072783,9151,43.22873
D0,CASO SEM LOCALIZAÇÃO DEFINIDA/MG,-19.97049116501593,-43.8852149072783,353,1.66755
0,CASO SEM LOCALIZAÇÃO DEFINIDA/MS,-20.391549234908513,-54.645156949758444,574,20.65502
D0,CASO SEM LOCALIZAÇÃO DEFINIDA/MS,-20.391549234908513,-54.645156949758444,6,0.21591
0,CASO SEM LOCALIZAÇÃO DEFINIDA/MT,-15.54791153961863,-56.17143998972475,1356,38.91558
D0,CASO SEM LOCALIZAÇÃO DEFINIDA/MT,-15.54791153961863,-56.17143998972475,89,2.55419
0,CASO SEM LOCALIZAÇÃO DEFINIDA/PA,-0.09317078214359542,-48.0050231510481,667,7.75323
D0,CASO SEM LOCALIZAÇÃO DEFINIDA/PA,-0.09317078214359542,-48.0050231510481,10,0.11624
0,CASO SEM LOCALIZAÇÃO DEFINIDA/PE,-8.121628543819208,-34.57313921302556,1927,20.16308
D0,CASO SEM LOCALIZAÇÃO DEFINIDA/PE,-8.121628543819208,-34.57313921302556,33,0.34529
0,CASO SEM LOCALIZAÇÃO DEFINIDA/PI,-2.683810218391744,-41.470898009352254,513,15.67261
D0,CASO SEM LOCALIZAÇÃO DEFINIDA/PI,-2.683810218391744,-41.470898009352254,9,0.27496
0,CASO SEM LOCALIZAÇÃO DEFINIDA/PR,-25.69415946385943,-48.10141676336737,4379,38.29820
D0,CASO SEM LOCALIZAÇÃO DEFINIDA/PR,-25.69415946385943,-48.10141676336737,84,0.73465
0,CASO SEM LOCALIZAÇÃO DEFINIDA/RJ,-23.210238986465157,-43.12864305824042,587,3.39995
D0,CASO SEM LOCALIZAÇÃO DEFINIDA/RJ,-23.210238986465157,-43.12864305824042,71,0.41124
0,CASO SEM LOCALIZAÇÃO DEFINIDA/RN,-5.749310788669161,-34.95302586257457,1146,32.67887
D0,CASO SEM LOCALIZAÇÃO DEFINIDA/RN,-5.749310788669161,-34.95302586257457,22,0.62734
0,CASO SEM LOCALIZAÇÃO DEFINIDA/RR,2.813328208465927,-60.663338675861986,2526,416.99614
D0,CASO SEM LOCALIZAÇÃO DEFINIDA/RR,2.813328208465927,-60.663338675861986,9,1.48573
0,CASO SEM LOCALIZAÇÃO DEFINIDA/RS,-30.50647488532064,-49.906261466443524,1922,16.89338
D0,CASO SEM LOCALIZAÇÃO DEFINIDA/RS,-30.50647488532064,-49.906261466443524,72,0.63284
0,CASO SEM LOCALIZAÇÃO DEFINIDA/SC,-27.675643660562308,-48.18313219398259,12882,179.79597
0,CASO SEM LOCALIZAÇÃO DEFINIDA/SP,-24.30968974555485,-46.21366504207253,11625,25.31629
D0,CASO SEM LOCALIZAÇÃO DEFINIDA/SP,-24.30968974555485,-46.21366504207253,258,0.56186
0,CASO SEM LOCALIZAÇÃO DEFINIDA/TO,-10.213012114749148,-48.40023803990334,272,17.29327
D0,CASO SEM LOCALIZAÇÃO DEFINIDA/TO,-10.213012114749148,-48.40023803990334,3,0.19073
1,Caapiranga/AM,-3.3188884,-61.2096404,521,3922.30671
D1,Caapiranga/AM,-3.3188884,-61.2096404,18,135.51156
1,Caaporã/PB,-7.510234,-34.9154114,1253,5707.12822
D1,Caaporã/PB,-7.510234,-34.9154114,19,86.54065
1,Caarapó/MS,-22.6349267,-54.8240903,1914,6256.33315
D1,Caarapó/MS,-22.6349267,-54.8240903,17,55.56827
1,Caatiba/BA,-14.9782759,-40.4092325,515,7937.73120
D1,Caatiba/BA,-14.9782759,-40.4092325,5,77.06535
1,Cabaceiras do Paraguaçu/BA,-12.5377868,-39.1901339,270,1427.74047
D1,Cabaceiras do Paraguaçu/BA,-12.5377868,-39.1901339,1,5.28793
1,Cabaceiras/PB,-7.4899156,-36.2860501,254,4486.83978
1,Cabeceira Grande/MG,-16.0297,-47.0906,116,1659.98855
D1,Cabeceira Grande/MG,-16.0297,-47.0906,3,42.93074
1,Cabeceiras do Piauí/PI,-4.4733665,-42.3098716,303,2850.42333
D1,Cabeceiras do Piauí/PI,-4.4733665,-42.3098716,7,65.85136
1,Cabeceiras/GO,-15.7995459,-46.9264991,120,1491.42431
D1,Cabeceiras/GO,-15.7995459,-46.9264991,3,37.28561
1,Cabedelo/PB,-6.97324,-34.8351609,5068,7369.81401
D1,Cabedelo/PB,-6.97324,-34.8351609,100,145.41859
1,Cabixi/RO,-13.4956065,-60.5424442,431,8307.63300
D1,Cabixi/RO,-13.4956065,-60.5424442,9,173.47726
1,Cabo Frio/RJ,-22.8804369,-42.0189227,7049,3059.75397
D1,Cabo Frio/RJ,-22.8804369,-42.0189227,293,127.18228
1,Cabo Verde/MG,-21.4743338,-46.3964995,231,1641.20782
D1,Cabo Verde/MG,-21.4743338,-46.3964995,3,21.31439
1,Cabo de Santo Agostinho/PE,-8.2838945,-35.0320984,2815,1347.25094
D1,Cabo de Santo Agostinho/PE,-8.2838945,-35.0320984,316,151.23669
1,Cabreúva/SP,-23.3075813,-47.1324417,2215,4392.31395
D1,Cabreúva/SP,-23.3075813,-47.1324417,53,105.09826
1,Cabrobó/PE,-8.5083701,-39.3106961,1071,3104.07791
D1,Cabrobó/PE,-8.5083701,-39.3106961,10,28.98299
1,Cabrália Paulista/SP,-22.4562909,-49.3385645,148,3488.09804
D1,Cabrália Paulista/SP,-22.4562909,-49.3385645,1,23.56823
1,Cacaulândia/RO,-10.3380043,-62.9007231,266,4243.10097
D1,Cacaulândia/RO,-10.3380043,-62.9007231,4,63.80603
1,Cacequi/RS,-29.8838059,-54.8273443,126,1014.24777
D1,Cacequi/RS,-29.8838059,-54.8273443,2,16.09917
1,Cachoeira Alta/GO,-18.7618269,-50.9432431,908,7168.79836
D1,Cachoeira Alta/GO,-18.7618269,-50.9432431,13,102.63698
1,Cachoeira Dourada/GO,-18.4934204,-49.481062,213,2652.22264
D1,Cachoeira Dourada/GO,-18.4934204,-49.481062,4,49.80700
1,Cachoeira Dourada/MG,-18.517136,-49.5002062,101,3732.44642
1,Cachoeira Grande/MA,-2.9290492,-44.0573223,190,2004.64233
D1,Cachoeira Grande/MA,-2.9290492,-44.0573223,4,42.20300
1,Cachoeira Paulista/SP,-22.666498,-45.015384,905,2694.97633
D1,Cachoeira Paulista/SP,-22.666498,-45.015384,23,68.49111
1,Cachoeira da Prata/MG,-19.524723,-44.453056,170,4734.05737
D1,Cachoeira da Prata/MG,-19.524723,-44.453056,2,55.69479
1,Cachoeira de Goiás/GO,-16.6688414,-50.6435997,31,2309.98510
1,Cachoeira de Minas/MG,-22.3554043,-45.7796324,359,3100.44045
D1,Cachoeira de Minas/MG,-22.3554043,-45.7796324,4,34.54530
1,Cachoeira de Pajeú/MG,-15.965833,-41.496666,293,3103.15611
D1,Cachoeira de Pajeú/MG,-15.965833,-41.496666,4,42.36391
1,Cachoeira do Arari/PA,-1.0143572,-48.9621089,340,1412.89894
D1,Cachoeira do Arari/PA,-1.0143572,-48.9621089,13,54.02261
1,Cachoeira do Piriá/PA,-1.7599443,-46.5446954,542,1566.06663
D1,Cachoeira do Piriá/PA,-1.7599443,-46.5446954,3,8.66827
1,Cachoeira do Sul/RS,-30.0474778,-52.8905413,2692,3288.17990
D1,Cachoeira do Sul/RS,-30.0474778,-52.8905413,34,41.52976
1,Cachoeira dos Índios/PB,-6.9259193,-38.6742159,372,3609.89811
D1,Cachoeira dos Índios/PB,-6.9259193,-38.6742159,11,106.74430
1,Cachoeira/BA,-12.5998256,-38.9665918,775,2308.81521
D1,Cachoeira/BA,-12.5998256,-38.9665918,14,41.70763
1,Cachoeiras de Macacu/RJ,-22.4626861,-42.6534414,1792,3021.76956
D1,Cachoeiras de Macacu/RJ,-22.4626861,-42.6534414,57,96.11655
1,Cachoeirinha/PE,-8.4906364,-36.2338963,334,1629.18882
D1,Cachoeirinha/PE,-8.4906364,-36.2338963,22,107.31184
1,Cachoeirinha/RS,-29.9493353,-51.0898927,6619,5043.43188
D1,Cachoeirinha/RS,-29.9493353,-51.0898927,164,124.96190
1,Cachoeirinha/TO,-6.118647,-47.9208885,113,4947.46060
D1,Cachoeirinha/TO,-6.118647,-47.9208885,2,87.56567
1,Cachoeiro de Itapemirim/ES,-20.848084,-41.11129,16437,7805.25099
D1,Cachoeiro de Itapemirim/ES,-20.848084,-41.11129,322,152.90447
1,Cacimba de Areia/PB,-7.1288513,-37.1575194,23,622.46279
D1,Cacimba de Areia/PB,-7.1288513,-37.1575194,1,27.06360
1,Cacimba de Dentro/PB,-6.6425101,-35.7929304,754,4389.33520
D1,Cacimba de Dentro/PB,-6.6425101,-35.7929304,18,104.78519
1,Cacimbas/PB,-7.2125451,-37.0593398,118,1639.11654
D1,Cacimbas/PB,-7.2125451,-37.0593398,6,83.34491
1,Cacimbinhas/AL,-9.401212,-36.991082,387,3554.04537
D1,Cacimbinhas/AL,-9.401212,-36.991082,3,27.55074
1,Cacique Doble/RS,-27.7700117,-51.6616409,190,3744.58021
D1,Cacique Doble/RS,-27.7700117,-51.6616409,1,19.70832
1,Cacoal/RO,-11.4333,-61.4420502,7523,8758.57171
D1,Cacoal/RO,-11.4333,-61.4420502,97,112.93121
1,Caconde/SP,-21.527995,-46.643659,602,3166.92093
D1,Caconde/SP,-21.527995,-46.643659,4,21.04266
1,Caculé/BA,-14.4990734,-42.2233006,546,2344.25314
D1,Caculé/BA,-14.4990734,-42.2233006,8,34.34803
1,Caetanos/BA,-14.3387456,-40.9085971,353,2416.48412
D1,Caetanos/BA,-14.3387456,-40.9085971,3,20.53669
1,Caetanópolis/MG,-19.2947496,-44.4138386,521,4434.41995
D1,Caetanópolis/MG,-19.2947496,-44.4138386,4,34.04545
1,Caetité/BA,-14.0691776,-42.4852428,1169,2288.52215
D1,Caetité/BA,-14.0691776,-42.4852428,8,15.66140
1,Caeté/MG,-19.897777,-43.670278,973,2159.96626
D1,Caeté/MG,-19.897777,-43.670278,29,64.37721
1,Caetés/PE,-8.7728788,-36.6255835,908,3141.43371
D1,Caetés/PE,-8.7728788,-36.6255835,10,34.59729
1,Cafarnaum/BA,-11.691399,-41.468823,666,3597.47205
D1,Cafarnaum/BA,-11.691399,-41.468823,10,54.01610
1,Cafeara/PR,-22.78905,-51.714195,145,4908.59851
D1,Cafeara/PR,-22.78905,-51.714195,2,67.70481
1,Cafelândia/PR,-24.6176963,-53.3218057,1010,5472.47508
D1,Cafelândia/PR,-24.6176963,-53.3218057,6,32.50975
1,Cafelândia/SP,-21.8054355,-49.6030627,532,2981.56140
D1,Cafelândia/SP,-21.8054355,-49.6030627,17,95.27546
1,Cafezal do Sul/PR,-23.900508,-53.512418,118,2943.37740
D1,Cafezal do Sul/PR,-23.900508,-53.512418,1,24.94388
1,Caiabu/SP,-22.0143038,-51.2356597,47,1120.91581
D1,Caiabu/SP,-22.0143038,-51.2356597,2,47.69855
1,Caiana/MG,-20.695555,-41.924723,80,1443.78271
D1,Caiana/MG,-20.695555,-41.924723,2,36.09457
1,Caiapônia/GO,-16.9538779,-51.8090761,491,2569.73884
D1,Caiapônia/GO,-16.9538779,-51.8090761,8,41.86947
1,Caibaté/RS,-28.290475,-54.645407,34,704.95542
D1,Caibaté/RS,-28.290475,-54.645407,3,62.20195
1,Caibi/SC,-27.0751925,-53.2502133,230,3752.03915
D1,Caibi/SC,-27.0751925,-53.2502133,2,32.62643
1,Caicó/RN,-6.4594544,-37.0971911,7203,10539.48466
D1,Caicó/RN,-6.4594544,-37.0971911,82,119.98303
1,Caieiras/SP,-23.3644621,-46.7484765,4444,4324.00876
D1,Caieiras/SP,-23.3644621,-46.7484765,134,130.38190
1,Cairu/BA,-13.4860505,-39.0455744,848,4601.94280
D1,Cairu/BA,-13.4860505,-39.0455744,8,43.41455
1,Caiuá/SP,-21.8319357,-51.9887179,158,2657.24857
D1,Caiuá/SP,-21.8319357,-51.9887179,2,33.63606
1,Caiçara do Norte/RN,-5.0645017,-36.0561226,161,2453.89422
D1,Caiçara do Norte/RN,-5.0645017,-36.0561226,3,45.72474
1,Caiçara do Rio do Vento/RN,-5.757968,-36.00089,118,3176.31225
D1,Caiçara do Rio do Vento/RN,-5.757968,-36.00089,3,80.75370
1,Caiçara/PB,-6.6146866,-35.4681434,507,7050.47977
D1,Caiçara/PB,-6.6146866,-35.4681434,10,139.06272
1,Caiçara/RS,-27.2750478,-53.4310053,276,5872.34043
D1,Caiçara/RS,-27.2750478,-53.4310053,3,63.82979
1,Cajamar/SP,-23.3561111,-46.8769444,2149,2757.46144
D1,Cajamar/SP,-23.3561111,-46.8769444,89,114.19919
1,Cajapió/MA,-2.8778715,-44.6746871,56,499.28673
D1,Cajapió/MA,-2.8778715,-44.6746871,2,17.83167
1,Cajari/MA,-3.3213076,-45.0118757,132,678.62835
D1,Cajari/MA,-3.3213076,-45.0118757,4,20.56450
1,Cajati/SP,-24.7272376,-48.1077914,2443,8573.73482
D1,Cajati/SP,-24.7272376,-48.1077914,49,171.96603
1,Cajazeiras do Piauí/PI,-6.794271,-42.3935024,25,699.69214
D1,Cajazeiras do Piauí/PI,-6.794271,-42.3935024,1,27.98769
1,Cajazeiras/PB,-6.8897849,-38.5570389,4257,6834.27250
D1,Cajazeiras/PB,-6.8897849,-38.5570389,76,122.01191
1,Cajazeirinhas/PB,-6.961442,-37.7993733,81,2527.30109
1,Cajobi/SP,-20.8776238,-48.8106972,414,3907.13477
D1,Cajobi/SP,-20.8776238,-48.8106972,10,94.37524
1,Cajueiro da Praia/PI,-2.931114,-41.340801,446,5811.83216
D1,Cajueiro da Praia/PI,-2.931114,-41.340801,10,130.31014
1,Cajueiro/AL,-9.399589,-36.1524309,408,1912.70920
D1,Cajueiro/AL,-9.399589,-36.1524309,18,84.38423
1,Cajuri/MG,-20.7901414,-42.7954489,160,4026.17011
D1,Cajuri/MG,-20.7901414,-42.7954489,1,25.16356
1,Cajuru/SP,-21.2759978,-47.3046035,537,2034.63039
D1,Cajuru/SP,-21.2759978,-47.3046035,17,64.41102
1,Caldas Brandão/PB,-7.1027959,-35.3254676,375,6202.44790
D1,Caldas Brandão/PB,-7.1027959,-35.3254676,5,82.69931
1,Caldas Novas/GO,-17.745,-48.625,4707,5050.64595
D1,Caldas Novas/GO,-17.745,-48.625,82,87.98661
1,Caldas/MG,-21.923611,-46.386111,367,2523.89794
D1,Caldas/MG,-21.923611,-46.386111,11,75.64817
1,Caldazinha/GO,-16.7116649,-49.0012601,133,3456.34096
D1,Caldazinha/GO,-16.7116649,-49.0012601,2,51.97505
1,Caldeirão Grande do Piauí/PI,-7.3310393,-40.6374433,195,3373.11884
D1,Caldeirão Grande do Piauí/PI,-7.3310393,-40.6374433,1,17.29805
1,Caldeirão Grande/BA,-11.0208483,-40.3041387,518,3868.26973
D1,Caldeirão Grande/BA,-11.0208483,-40.3041387,4,29.87081
1,Califórnia/PR,-23.6672543,-51.3554556,455,5287.00906
D1,Califórnia/PR,-23.6672543,-51.3554556,9,104.57820
1,Calmon/SC,-26.6023644,-51.0992893,17,509.74513
D1,Calmon/SC,-26.6023644,-51.0992893,2,59.97001
1,Calumbi/PE,-7.9389746,-38.1516871,329,5724.72594
D1,Calumbi/PE,-7.9389746,-38.1516871,2,34.80077
1,Calçado/PE,-8.7413446,-36.3351787,215,1951.35233
D1,Calçado/PE,-8.7413446,-36.3351787,2,18.15211
1,Calçoene/AP,2.4981757,-50.9539503,1527,13506.10295
D1,Calçoene/AP,2.4981757,-50.9539503,9,79.60375
1,Camacan/BA,-15.4166631,-39.4930088,1910,5967.63107
D1,Camacan/BA,-15.4166631,-39.4930088,44,137.47422
1,Camacho/MG,-20.625556,-45.156667,46,1603.34611
1,Camalaú/PB,-7.885031,-36.824191,215,3564.91461
D1,Camalaú/PB,-7.885031,-36.824191,3,49.74299
1,Camamu/BA,-13.9438142,-39.1060917,1384,3911.59347
D1,Camamu/BA,-13.9438142,-39.1060917,28,79.13628
1,Camanducaia/MG,-22.755278,-46.144444,1597,7325.35205
D1,Camanducaia/MG,-22.755278,-46.144444,19,87.15197
1,Camapuã/MS,-19.5291747,-54.0434641,327,2388.08150
D1,Camapuã/MS,-19.5291747,-54.0434641,8,58.42401
1,Camaquã/RS,-30.8524752,-51.8075619,3411,5131.02079
D1,Camaquã/RS,-30.8524752,-51.8075619,47,70.70008
1,Camaragibe/PE,-8.0213832,-34.9810768,3139,1975.46869
D1,Camaragibe/PE,-8.0213832,-34.9810768,236,148.52202
1,Camargo/RS,-28.5865661,-52.2031474,209,7622.17360
D1,Camargo/RS,-28.5865661,-52.2031474,2,72.93946
1,Camaçari/BA,-12.6998188,-38.3260762,10453,3435.07437
D1,Camaçari/BA,-12.6998188,-38.3260762,170,55.86555
1,Cambará do Sul/RS,-29.0489517,-50.145412,263,4105.52607
D1,Cambará do Sul/RS,-29.0489517,-50.145412,2,31.22073
1,Cambará/PR,-23.042273,-50.075281,815,3200.34556
D1,Cambará/PR,-23.042273,-50.075281,11,43.19485
1,Cambira/PR,-23.600265,-51.581045,330,4168.24555
D1,Cambira/PR,-23.600265,-51.581045,7,88.41733
1,Camboriú/SC,-27.0273601,-48.6535657,8282,9731.50814
D1,Camboriú/SC,-27.0273601,-48.6535657,94,110.45179
1,Cambuci/RJ,-21.5749919,-41.9107833,433,2791.02746
D1,Cambuci/RJ,-21.5749919,-41.9107833,8,51.56633
1,Cambuquira/MG,-21.853056,-45.2953619,179,1397.12769
D1,Cambuquira/MG,-21.853056,-45.2953619,7,54.63628
1,Cambuí/MG,-22.6122501,-46.0572137,1354,4541.49057
D1,Cambuí/MG,-22.6122501,-46.0572137,18,60.37432
1,Cambé/PR,-23.2782035,-51.2779583,6454,6012.61401
D1,Cambé/PR,-23.2782035,-51.2779583,81,75.46045
1,Cametá/PA,-2.242949,-49.497885,5872,4213.42671
D1,Cametá/PA,-2.242949,-49.497885,126,90.41072
1,Camocim de São Félix/PE,-8.3616757,-35.7638903,324,1714.28571
D1,Camocim de São Félix/PE,-8.3616757,-35.7638903,11,58.20106
1,Camocim/CE,-2.9009918,-40.8427389,2743,4292.17457
D1,Camocim/CE,-2.9009918,-40.8427389,85,133.00577
1,Campanha/MG,-21.8361108,-45.401986,723,4313.32777
D1,Campanha/MG,-21.8361108,-45.401986,12,71.59050
1,Campanário/MG,-18.2398144,-41.7271768,82,2198.39142
1,Campestre da Serra/RS,-28.7966535,-51.0958149,100,2945.50810
1,Campestre de Goiás/GO,-16.7624179,-49.69497,245,6714.16827
D1,Campestre de Goiás/GO,-16.7624179,-49.69497,4,109.61907
1,Campestre do Maranhão/MA,-6.1729113,-47.3640512,599,4144.46828
D1,Campestre do Maranhão/MA,-6.1729113,-47.3640512,17,117.62264
1,Campestre/AL,-8.8481634,-35.5660033,117,1682.48490
D1,Campestre/AL,-8.8481634,-35.5660033,4,57.52085
1,Campestre/MG,-19.6142116,-43.219378,539,2560.08359
D1,Campestre/MG,-19.6142116,-43.219378,7,33.24784
1,Campina Grande do Sul/PR,-25.3046032,-49.0545355,3286,7522.03273
D1,Campina Grande do Sul/PR,-25.3046032,-49.0545355,57,130.47957
1,Campina Grande/PB,-7.2246743,-35.8771292,18677,4535.37701
D1,Campina Grande/PB,-7.2246743,-35.8771292,547,132.82921
1,Campina Verde/MG,-19.535277,-49.486389,310,1569.46132
D1,Campina Verde/MG,-19.535277,-49.486389,13,65.81612
1,Campina da Lagoa/PR,-24.5937926,-52.8038965,367,2613.40169
D1,Campina da Lagoa/PR,-24.5937926,-52.8038965,10,71.20986
1,Campina das Missões/RS,-27.9883295,-54.8411665,220,4075.58355
D1,Campina das Missões/RS,-27.9883295,-54.8411665,6,111.15228
1,Campina do Monte Alegre/SP,-23.5935653,-48.4801876,187,3087.33697
1,Campina do Simão/PR,-25.1086375,-51.8076658,38,984.71107
D1,Campina do Simão/PR,-25.1086375,-51.8076658,1,25.91345
1,Campinas do Piauí/PI,-7.6593687,-41.8814875,107,1903.91459
D1,Campinas do Piauí/PI,-7.6593687,-41.8814875,1,17.79359
1,Campinas do Sul/RS,-27.7167968,-52.6257885,279,5130.56271
D1,Campinas do Sul/RS,-27.7167968,-52.6257885,3,55.16734
1,Campinas/SP,-22.90556,-47.06083,55449,4568.24563
D1,Campinas/SP,-22.90556,-47.06083,1775,146.23593
1,Campinaçu/GO,-13.7869969,-48.5703841,134,3689.42731
1,Campinorte/GO,-14.3136699,-49.1510931,700,5484.17424
D1,Campinorte/GO,-14.3136699,-49.1510931,9,70.51081
1,Campinápolis/MT,-14.5403731,-52.7970626,561,3315.79881
D1,Campinápolis/MT,-14.5403731,-52.7970626,17,100.47875
1,Campo Alegre de Goiás/GO,-17.6337896,-47.779291,79,1020.93564
D1,Campo Alegre de Goiás/GO,-17.6337896,-47.779291,3,38.76971
1,Campo Alegre de Lourdes/BA,-9.5160326,-43.0101338,267,926.43997
D1,Campo Alegre de Lourdes/BA,-9.5160326,-43.0101338,5,17.34906
1,Campo Alegre do Fidalgo/PI,-8.3753852,-41.8364191,56,1104.75439
D1,Campo Alegre do Fidalgo/PI,-8.3753852,-41.8364191,1,19.72776
1,Campo Alegre/AL,-9.7798607,-36.3575793,1894,3291.79485
D1,Campo Alegre/AL,-9.7798607,-36.3575793,41,71.25849
1,Campo Alegre/SC,-26.1941684,-49.2657484,638,5325.09807
D1,Campo Alegre/SC,-26.1941684,-49.2657484,21,175.27752
1,Campo Azul/MG,-16.5078525,-44.8133524,52,1359.83264
1,Campo Belo do Sul/SC,-27.8987563,-50.7586887,403,5796.89298
D1,Campo Belo do Sul/SC,-27.8987563,-50.7586887,8,115.07480
1,Campo Belo/MG,-20.8975,-45.277223,2233,4120.99066
D1,Campo Belo/MG,-20.8975,-45.277223,50,92.27476
1,Campo Bom/RS,-29.674694,-51.060601,6062,8727.57638
D1,Campo Bom/RS,-29.674694,-51.060601,97,139.65274
1,Campo Bonito/PR,-25.0328004,-52.992976,121,3215.51953
D1,Campo Bonito/PR,-25.0328004,-52.992976,2,53.14908
