type,name,lat,lon,total,total_per_100k_inhabitants
1,Abadia de Goiás/GO,-16.7572644,-49.4412205,18,205.17497
1,Abadia dos Dourados/MG,-18.4911191,-47.4063589,5,71.54099
1,Abadiânia/GO,-16.1940946,-48.7067767,20,99.79044
1,Abaetetuba/PA,-1.721828,-48.878843,2060,1306.29431
D1,Abaetetuba/PA,-1.721828,-48.878843,78,49.46163
1,Abaeté/MG,-19.1566833,-45.4481213,1,4.30348
1,Abaiara/CE,-7.3607808,-39.0487878,12,102.24078
D1,Abaiara/CE,-7.3607808,-39.0487878,1,8.52006
1,Abatiá/PR,-23.3052967,-50.3102532,15,201.15328
1,Abaíra/BA,-13.2503296,-41.6640342,4,45.77183
1,Abdon Batista/SC,-27.612419,-51.022992,9,351.15099
1,Abel Figueiredo/PA,-4.953001,-48.3958485,53,712.94054
D1,Abel Figueiredo/PA,-4.953001,-48.3958485,1,13.45171
1,Abelardo Luz/SC,-26.5705893,-52.3280339,10,55.85344
D1,Abelardo Luz/SC,-26.5705893,-52.3280339,1,5.58534
1,Abre Campo/MG,-20.2976097,-42.4764741,8,59.46187
1,Abreu e Lima/PE,-7.900719,-34.898389,418,418.04180
D1,Abreu e Lima/PE,-7.900719,-34.898389,51,51.00510
1,Abreulândia/TO,-9.6221526,-49.1558343,3,116.32416
1,Acajutiba/BA,-11.6609659,-38.0186381,5,32.98371
1,Acarape/CE,-4.2237866,-38.7071663,268,1795.16378
D1,Acarape/CE,-4.2237866,-38.7071663,9,60.28535
1,Acaraú/CE,-2.8869514,-40.1194713,1047,1671.42926
D1,Acaraú/CE,-2.8869514,-40.1194713,28,44.69916
1,Acari/RN,-6.4364689,-36.6394777,8,71.83908
1,Acará/PA,-1.961388,-48.1987043,225,404.74177
D1,Acará/PA,-1.961388,-48.1987043,9,16.18967
1,Acauã/PI,-8.219542,-41.083059,2,28.23264
1,Acopiara/CE,-6.0936464,-39.4543204,156,287.45163
D1,Acopiara/CE,-6.0936464,-39.4543204,10,18.42639
1,Acorizal/MT,-15.2001544,-56.3668953,13,240.78533
D1,Acorizal/MT,-15.2001544,-56.3668953,1,18.52195
1,Acrelândia/AC,-10.0759167,-67.0526898,178,1166.75406
D1,Acrelândia/AC,-10.0759167,-67.0526898,2,13.10960
1,Acreúna/GO,-17.3959899,-50.3749031,2,8.94214
1,Adamantina/SP,-21.6866517,-51.0762975,44,125.47051
D1,Adamantina/SP,-21.6866517,-51.0762975,3,8.55481
1,Adelândia/GO,-16.4155077,-50.1665834,2,79.49126
1,Adolfo/SP,-21.2356597,-49.6441918,4,112.29646
1,Adrianópolis/PR,-24.6557863,-48.9912769,4,67.57898
1,Adustina/BA,-10.5358875,-38.114479,5,29.34272
D1,Adustina/BA,-10.5358875,-38.114479,1,5.86854
1,Afogados da Ingazeira/PE,-7.750429,-37.6356375,28,75.14963
1,Afonso Bezerra/RN,-5.4745,-36.57625071327935,19,172.17943
D1,Afonso Bezerra/RN,-5.4745,-36.57625071327935,2,18.12415
1,Afonso Cláudio/ES,-20.077841,-41.12606,142,464.26470
D1,Afonso Cláudio/ES,-20.077841,-41.12606,7,22.88629
1,Afonso Cunha/MA,-4.1326105,-43.3230026,36,551.80871
1,Afrânio/PE,-8.5198919,-41.0070197,62,315.76267
D1,Afrânio/PE,-8.5198919,-41.0070197,1,5.09295
1,Afuá/PA,-0.1535664,-50.3879223,359,915.39599
D1,Afuá/PA,-0.1535664,-50.3879223,4,10.19940
1,Agrestina/PE,-8.4558021,-35.9442663,86,345.58971
D1,Agrestina/PE,-8.4558021,-35.9442663,7,28.12940
1,Agricolândia/PI,-5.7967843,-42.6605131,1,19.45904
1,Agrolândia/SC,-27.4122212,-49.8295774,11,101.25184
D1,Agrolândia/SC,-27.4122212,-49.8295774,2,18.40943
1,Agronômica/SC,-27.2660744,-49.7104753,12,220.26432
D1,Agronômica/SC,-27.2660744,-49.7104753,1,18.35536
1,Aguaí/SP,-22.0592036,-46.979384,50,137.72208
D1,Aguaí/SP,-22.0592036,-46.979384,4,11.01777
1,Agudo/RS,-29.6423259,-53.2494005,2,12.14993
1,Agudos do Sul/PR,-25.9890808,-49.3328175,16,170.73952
1,Agudos/SP,-22.471162,-48.987822,47,126.29656
D1,Agudos/SP,-22.471162,-48.987822,2,5.37432
1,Aguiar/PB,-7.0928404,-38.1727215,2,35.46099
1,Aguiarnópolis/TO,-6.5600452,-47.4721189,88,1306.99540
D1,Aguiarnópolis/TO,-6.5600452,-47.4721189,2,29.70444
1,Aimorés/MG,-19.4917754,-41.0615603,58,230.46052
1,Aiquara/BA,-14.126918,-39.8887574,9,202.42915
D1,Aiquara/BA,-14.126918,-39.8887574,1,22.49213
1,Aiuaba/CE,-6.5710836,-40.1212278,7,40.23220
1,Ajuricaba/RS,-28.239654,-53.7693013,2,28.47380
1,Alagoa Grande/PB,-7.0415212,-35.6285322,231,810.64009
D1,Alagoa Grande/PB,-7.0415212,-35.6285322,6,21.05559
1,Alagoa Nova/PB,-7.0653703,-35.76695977336711,95,455.65735
D1,Alagoa Nova/PB,-7.0653703,-35.76695977336711,2,9.59279
1,Alagoinha do Piauí/PI,-7.0090952,-40.939675,11,143.77206
1,Alagoinha/PB,-6.97063215,-35.51490901897793,202,1394.16109
D1,Alagoinha/PB,-6.97063215,-35.51490901897793,1,6.90179
1,Alagoinha/PE,-8.50355635,-36.77701174370496,24,163.97923
D1,Alagoinha/PE,-8.50355635,-36.77701174370496,1,6.83247
1,Alagoinhas/BA,-12.133526,-38.420772,197,129.95066
D1,Alagoinhas/BA,-12.133526,-38.420772,3,1.97894
1,Alambari/SP,-23.550338,-47.897971,6,99.58506
1,Alcantil/PB,-7.7425491,-36.0609604,4,72.83321
1,Alcinópolis/MS,-18.3264121,-53.7094463,1,18.71608
1,Alcobaça/BA,-17.5215875,-39.1965474,6,26.70227
1,Alcântara/MA,-2.4038956,-44.4154241,24,108.61203
D1,Alcântara/MA,-2.4038956,-44.4154241,4,18.10200
1,Alcântaras/CE,-3.586247,-40.5457641,137,1169.54072
D1,Alcântaras/CE,-3.586247,-40.5457641,2,17.07359
1,Aldeias Altas/MA,-4.6291957,-43.4708622,62,233.68008
1,Alecrim/RS,-27.6566142,-54.7653195,2,33.61345
1,Alegre/ES,-20.7625787,-41.5318886,47,156.22922
D1,Alegre/ES,-20.7625787,-41.5318886,2,6.64805
1,Alegrete/RS,-29.790166,-55.794862,19,25.81908
D1,Alegrete/RS,-29.790166,-55.794862,2,2.71780
1,Alenquer/PA,-1.946229,-54.738355,389,684.99181
D1,Alenquer/PA,-1.946229,-54.738355,14,24.65266
1,Alexandria/RN,-6.414779,-38.0135516,7,51.55778
D1,Alexandria/RN,-6.414779,-38.0135516,1,7.36540
1,Alexânia/GO,-16.0834049,-48.5077803,12,43.39493
1,Alfenas/MG,-21.4297405,-45.9479419,18,22.50113
1,Alfredo Chaves/ES,-20.624970400000002,-40.75006690147988,105,719.12883
D1,Alfredo Chaves/ES,-20.624970400000002,-40.75006690147988,3,20.54654
1,Alfredo Marcondes/SP,-21.9527,-51.413956,3,72.01152
D1,Alfredo Marcondes/SP,-21.9527,-51.413956,2,48.00768
1,Alfredo Vasconcelos/MG,-21.145833,-43.776389,3,43.43420
D1,Alfredo Vasconcelos/MG,-21.145833,-43.776389,1,14.47807
1,Alfredo Wagner/SC,-27.6961513,-49.3326734,1,9.96413
1,Alhandra/PB,-7.4304246,-34.9106103,236,1204.81928
D1,Alhandra/PB,-7.4304246,-34.9106103,7,35.73616
1,Aliança do Tocantins/TO,-11.3055927,-48.9409096,3,55.65863
1,Aliança/PE,-7.60398,-35.222696,104,270.93211
D1,Aliança/PE,-7.60398,-35.222696,17,44.28698
1,Almadina/BA,-14.70466,-39.6381994,5,91.50805
1,Almeirim/PA,-1.5290377,-52.5788111,46,134.86177
D1,Almeirim/PA,-1.5290377,-52.5788111,7,20.52244
1,Almenara/MG,-16.1740678,-40.6904907,24,57.28470
1,Almino Afonso/RN,-6.1544208,-37.7649018,5,105.59662
1,Almirante Tamandaré/PR,-25.3133048,-49.2997838,50,42.15034
1,Aloândia/GO,-17.7277983,-49.4809338,1,50.12531
1,Alpercata/MG,-18.9803616,-41.9827637,4,53.87931
1,Alpestre/RS,-27.2512339,-53.0349646,12,191.75455
1,Alpinópolis/MG,-20.863611,-46.387777,1,5.03702
1,Alta Floresta D'Oeste/RO,-11.9296917,-61.9961284,41,178.68817
1,Alta Floresta/MT,-9.8715018,-56.0839881,99,191.18613
D1,Alta Floresta/MT,-9.8715018,-56.0839881,3,5.79352
1,Altair/SP,-20.5238955,-49.0606135,1,24.03846
1,Altamira do Maranhão/MA,-4.1643006,-45.4674574,2,24.60630
D1,Altamira do Maranhão/MA,-4.1643006,-45.4674574,1,12.30315
1,Altamira do Paraná/PR,-24.799114,-52.7128633,1,51.49331
1,Altamira/PA,-3.204065,-52.209961,760,663.21099
D1,Altamira/PA,-3.204065,-52.209961,32,27.92467
1,Altaneira/CE,-6.9980933,-39.7385742,1,13.18218
1,Alterosa/MG,-21.249166,-46.143055,2,13.82552
1,Altinho/PE,-8.4904095,-36.0607494,73,317.77816
D1,Altinho/PE,-8.4904095,-36.0607494,2,8.70625
1,Altinópolis/SP,-21.021364,-47.3712,6,37.07365
1,Alto Alegre do Maranhão/MA,-4.2055693,-44.4525287,222,820.61139
D1,Alto Alegre do Maranhão/MA,-4.2055693,-44.4525287,7,25.87513
1,Alto Alegre do Pindaré/MA,-3.6698186,-45.8462153,124,388.48335
1,Alto Alegre dos Parecis/RO,-12.1314515,-61.856265,31,234.12129
D1,Alto Alegre dos Parecis/RO,-12.1314515,-61.856265,1,7.55230
1,Alto Alegre/RR,2.98858,-61.307167,130,838.16892
D1,Alto Alegre/RR,2.98858,-61.307167,3,19.34236
1,Alto Alegre/SP,-21.5820592,-50.1661976,1,24.39619
D1,Alto Alegre/SP,-21.5820592,-50.1661976,1,24.39619
1,Alto Araguaia/MT,-17.3156528,-53.2169365,12,63.01197
D1,Alto Araguaia/MT,-17.3156528,-53.2169365,2,10.50200
1,Alto Bela Vista/SC,-27.4320737,-51.905771,5,258.13113
1,Alto Boa Vista/MT,-11.6723985,-51.3744431,19,278.51070
D1,Alto Boa Vista/MT,-11.6723985,-51.3744431,1,14.65846
1,Alto Caparaó/MG,-20.4405661,-41.8683799,2,34.20558
1,Alto Garças/MT,-16.9469683,-53.529427,7,58.18786
1,Alto Jequitibá/MG,-20.423611,-41.966111,14,168.32993
D1,Alto Jequitibá/MG,-20.423611,-41.966111,1,12.02357
1,Alto Longá/PI,-5.2549051,-42.2072388,20,139.82103
D1,Alto Longá/PI,-5.2549051,-42.2072388,1,6.99105
1,Alto Paraguai/MT,-14.513712,-56.4936374,2,17.61184
1,Alto Paraná/PR,-23.131247,-52.318893,9,60.93433
1,Alto Paraíso de Goiás/GO,-14.1304779,-47.5100161,3,39.34942
1,Alto Paraíso/PR,-23.508137,-53.728537,1,36.48304
1,Alto Paraíso/RO,-9.7240103,-63.3188123,22,102.66940
D1,Alto Paraíso/RO,-9.7240103,-63.3188123,3,14.00037
1,Alto Parnaíba/MA,-9.112506,-45.9310154,47,420.01787
1,Alto Rio Doce/MG,-21.0239537,-43.4133507,26,236.36364
1,Alto Rio Novo/ES,-19.0577208,-41.0171518,8,102.09290
D1,Alto Rio Novo/ES,-19.0577208,-41.0171518,2,25.52323
1,Alto Santo/CE,-5.5190371,-38.2719351,51,297.44547
D1,Alto Santo/CE,-5.5190371,-38.2719351,3,17.49679
1,Alto do Rodrigues/RN,-5.290868,-36.7616726,93,640.09911
D1,Alto do Rodrigues/RN,-5.290868,-36.7616726,6,41.29672
1,Altos/PI,-5.0393915,-42.4611694,154,380.02172
D1,Altos/PI,-5.0393915,-42.4611694,4,9.87069
1,Alumínio/SP,-23.5203479,-47.2575256,16,85.89221
D1,Alumínio/SP,-23.5203479,-47.2575256,1,5.36826
1,Alvarenga/MG,-19.4175,-41.728334,68,1740.46583
1,Alvarães/AM,-3.214786,-64.8143124,427,2661.92881
D1,Alvarães/AM,-3.214786,-64.8143124,10,62.34025
1,Alvinlândia/SP,-22.4431852,-49.7643596,1,31.03662
1,Alvinópolis/MG,-20.1105199,-43.0601805,6,39.46589
1,Alvorada D'Oeste/RO,-11.346271,-62.284697,8,55.51315
D1,Alvorada D'Oeste/RO,-11.346271,-62.284697,1,6.93914
1,Alvorada de Minas/MG,-18.7318587,-43.3641479,2,55.46312
1,Alvorada do Gurguéia/PI,-8.4465288,-43.8655915,2,36.90718
1,Alvorada do Sul/PR,-22.7807269,-51.2307721,9,78.90584
D1,Alvorada do Sul/PR,-22.7807269,-51.2307721,2,17.53463
1,Alvorada/RS,-29.9981184,-51.0772509,141,67.04548
D1,Alvorada/RS,-29.9981184,-51.0772509,4,1.90200
1,Alvorada/TO,-12.478465,-49.124926,8,95.10223
1,Além Paraíba/MG,-21.8760576,-42.6810473,72,203.60839
D1,Além Paraíba/MG,-21.8760576,-42.6810473,2,5.65579
1,Amajari/RR,3.6523869,-61.4194315,50,390.74711
D1,Amajari/RR,3.6523869,-61.4194315,3,23.44483
1,Amambai/MS,-23.1082701,-55.2284854,6,15.22997
1,Amaporã/PR,-23.094272,-52.786597,18,287.67780
1,Amapá do Maranhão/MA,-1.6762114,-46.0109669,3,43.09107
1,Amapá/AP,2.0529997,-50.7930003,149,1635.74487
D1,Amapá/AP,2.0529997,-50.7930003,4,43.91261
1,Amaraji/PE,-8.373925,-35.4536527,84,367.95304
D1,Amaraji/PE,-8.373925,-35.4536527,12,52.56472
1,Amaralina/GO,-13.9236199,-49.2962411,3,78.69885
1,Amarante do Maranhão/MA,-5.56913,-46.747284,368,888.13805
D1,Amarante do Maranhão/MA,-5.56913,-46.747284,3,7.24026
1,Amarante/PI,-6.2459374,-42.8476238,7,39.77725
1,Amargosa/BA,-13.03793715,-39.60796443875596,18,48.33383
D1,Amargosa/BA,-13.03793715,-39.60796443875596,1,2.68521
1,Amaturá/AM,-3.3640509,-68.1994689,351,3042.64910
D1,Amaturá/AM,-3.3640509,-68.1994689,8,69.34813
1,Americana/SP,-22.7392463,-47.3306032,224,93.49032
D1,Americana/SP,-22.7392463,-47.3306032,11,4.59104
1,Ametista do Sul/RS,-27.3617341,-53.1826575,8,107.97678
1,Amontada/CE,-3.3634586,-39.8284791,378,869.92543
D1,Amontada/CE,-3.3634586,-39.8284791,13,29.91807
1,Amorinópolis/GO,-16.6211308,-51.0949921,2,63.97953
1,Amparo de São Francisco/SE,-10.1299754,-36.9269099,7,294.86099
1,Amparo do Serra/MG,-20.5070255,-42.8028462,1,21.21791
1,Amparo/PB,-7.56394725,-37.04652873235175,12,536.19303
1,Amparo/SP,-22.70111,-46.76444,88,121.89210
D1,Amparo/SP,-22.70111,-46.76444,5,6.92569
1,Ampére/PR,-25.9168712,-53.4742414,6,31.32832
D1,Ampére/PR,-25.9168712,-53.4742414,1,5.22139
1,Amélia Rodrigues/BA,-12.4015388,-38.7516971,41,163.33360
1,Américo Brasiliense/SP,-21.7297099,-48.1052092,74,182.69801
D1,Américo Brasiliense/SP,-21.7297099,-48.1052092,2,4.93778
1,Américo de Campos/SP,-20.298476,-49.735904,13,217.79192
1,Anadia/AL,-9.6830208,-36.3052699,97,552.86406
D1,Anadia/AL,-9.6830208,-36.3052699,1,5.69963
1,Anagé/BA,-14.6134669,-41.1376308,2,9.08884
D1,Anagé/BA,-14.6134669,-41.1376308,1,4.54442
1,Anahy/PR,-24.6450861,-53.1337957,7,249.91075
1,Anajatuba/MA,-3.26441,-44.6179916,108,402.93997
D1,Anajatuba/MA,-3.26441,-44.6179916,4,14.92370
1,Anajás/PA,-0.9878802,-49.9390114,211,720.70226
D1,Anajás/PA,-0.9878802,-49.9390114,7,23.90955
1,Analândia/SP,-22.128917,-47.661939,3,60.06006
1,Anamã/AM,-3.5797356,-61.4049996,237,1740.85500
1,Ananindeua/PA,-1.374035,-48.4016623,3598,678.10282
D1,Ananindeua/PA,-1.374035,-48.4016623,304,57.29385
1,Ananás/TO,-6.3663053,-48.080238,16,167.55681
1,Anapu/PA,-3.4668292,-51.2057035,276,989.60201
D1,Anapu/PA,-3.4668292,-51.2057035,4,14.34206
1,Anapurus/MA,-3.6751298,-43.1046001,384,2440.88482
D1,Anapurus/MA,-3.6751298,-43.1046001,3,19.06941
1,Anastácio/MS,-20.4832458,-55.8048448,2,7.95703
1,Anchieta/ES,-20.8057672,-40.6454564,212,724.46434
D1,Anchieta/ES,-20.8057672,-40.6454564,4,13.66914
1,Anchieta/SC,-26.5350527,-53.3293938,9,159.63107
1,Andaraí/BA,-12.8059674,-41.3322919,2,15.21723
1,Andirá/PR,-23.0494761,-50.2310027,22,109.82976
1,Andorinha/BA,-10.3445708,-39.8334411,2,13.70332
1,Andradas/MG,-22.0680484,-46.5688976,10,24.34452
D1,Andradas/MG,-22.0680484,-46.5688976,1,2.43445
1,Andradina/SP,-20.896505,-51.3742765,44,76.98095
D1,Andradina/SP,-20.896505,-51.3742765,5,8.74783
1,Andrelândia/MG,-21.739722,-44.308889,16,130.89005
1,Angatuba/SP,-23.4938938,-48.4110675,32,126.84319
D1,Angatuba/SP,-23.4938938,-48.4110675,2,7.92770
1,Angelim/PE,-8.8902038,-36.2872987,3,26.90583
1,Angical do Piauí/PI,-6.0872666,-42.7366138,10,147.31880
D1,Angical do Piauí/PI,-6.0872666,-42.7366138,1,14.73188
1,Angical/BA,-12.005623,-44.7000236,1,7.15461
1,Angico/TO,-6.3893733,-47.8656722,2,58.25808
1,Angicos/RN,-5.6666344,-36.6009064,14,119.51511
D1,Angicos/RN,-5.6666344,-36.6009064,2,17.07359
1,Angra dos Reis/RJ,-23.0063966,-44.316326,1492,732.14417
D1,Angra dos Reis/RJ,-23.0063966,-44.316326,58,28.46137
1,Anguera/BA,-12.1509425,-39.2452469,23,204.97282
1,Angélica/MS,-22.1588196,-53.7728504,4,37.10575
1,Anhanguera/GO,-18.3338749,-48.220363,1,87.03220
1,Anhembi/SP,-22.7891096,-48.1316776,2,29.74420
1,Anhumas/SP,-22.2956478,-51.3873401,3,72.90401
1,Anicuns/GO,-16.4606451,-49.9572265,16,73.22654
1,Anita Garibaldi/SC,-27.6855032,-51.1293873,2,28.03869
1,Anori/AM,-3.7435254,-61.6605203,528,2513.08901
D1,Anori/AM,-3.7435254,-61.6605203,9,42.83674
1,Anta Gorda/RS,-28.9718745,-52.0069187,7,117.03728
1,Antas/BA,-10.4114649,-38.3308815,2,10.36753
1,Antonina do Norte/CE,-6.7754187,-39.9879345,6,81.59935
1,Antonina/PR,-25.4298854,-48.7125431,10,52.68704
1,Antônio Cardoso/BA,-12.4363122,-39.1200307,5,42.79723
1,Antônio Carlos/MG,-21.318334,-43.746666,7,61.16208
1,Antônio Carlos/SC,-27.5168462,-48.7684715,33,387.64243
D1,Antônio Carlos/SC,-27.5168462,-48.7684715,4,46.98696
1,Antônio Dias/MG,-19.6525,-42.872778,14,150.24683
1,Antônio Gonçalves/BA,-10.5715409,-40.2748824,2,16.95203
1,Antônio Martins/RN,-6.2155812,-37.8890129,2,27.99160
1,Antônio Olinto/PR,-25.9849006,-50.1974516,2,26.90342
1,Antônio Prado/RS,-28.8567806,-51.2801355,3,22.98851
1,Anápolis/GO,-16.3332828,-48.9525756,352,90.97417
D1,Anápolis/GO,-16.3332828,-48.9525756,5,1.29225
1,Anísio de Abreu/PI,-9.185643,-43.04941,17,172.06478
1,Aparecida d'Oeste/SP,-20.4498109,-50.8808706,1,23.83222
1,Aparecida de Goiânia/GO,-16.8226769,-49.2452546,1057,182.81536
D1,Aparecida de Goiânia/GO,-16.8226769,-49.2452546,21,3.63209
1,Aparecida do Rio Doce/GO,-18.2980167,-51.1491312,12,485.04446
D1,Aparecida do Rio Doce/GO,-18.2980167,-51.1491312,1,40.42037
1,Aparecida do Taboado/MS,-20.0840304,-51.1013943,7,27.18975
1,Aparecida/PB,-6.7859598, -38.0831353,11,131.78387
1,Aparecida/SP,-22.851552,-45.2340924,9,24.89145
1,Aperibé/RJ,-21.6211928,-42.1028167,42,357.17323
1,Apiacá/ES,-21.152272,-41.569297,24,317.16664
1,Apiaí/SP,-24.5076527,-48.8461582,3,12.30820
1,Apicum-Açu/MA,-1.5279295,-45.082278,193,1119.55450
D1,Apicum-Açu/MA,-1.5279295,-45.082278,2,11.60160
1,Apiúna/SC,-27.0374658,-49.3885037,1,9.30839
1,Apodi/RN,-5.6631109,-37.796927,426,1188.45027
D1,Apodi/RN,-5.6631109,-37.796927,8,22.31831
1,Aporá/BA,-11.6599747,-38.0794757,31,174.83503
D1,Aporá/BA,-11.6599747,-38.0794757,1,5.63984
1,Apuarema/BA,-13.8517897,-39.7457126,1,13.64256
1,Apucarana/PR,-23.5525327,-51.4610764,56,41.48271
D1,Apucarana/PR,-23.5525327,-51.4610764,5,3.70381
1,Apuiarés/CE,-3.9460303,-39.4313298,99,678.08219
D1,Apuiarés/CE,-3.9460303,-39.4313298,8,54.79452
1,Apuí/AM,-7.1940195,-59.8830192,27,122.87808
1,Aquidabã/SE,-10.2837579,-37.0188687,34,157.67750
D1,Aquidabã/SE,-10.2837579,-37.0188687,1,4.63757
1,Aquidauana/MS,-20.473969,-55.7821375,1,2.08895
1,Aquiraz/CE,-3.9063117,-38.387504,514,640.33088
D1,Aquiraz/CE,-3.9063117,-38.387504,17,21.17826
1,Arabutã/SC,-27.1587028,-52.1438142,30,703.07007
1,Aracaju/SE,-10.9162061,-37.0774655,8193,1247.00729
D1,Aracaju/SE,-10.9162061,-37.0774655,149,22.67839
1,Aracati/CE,-4.558259,-37.767894,541,725.71666
D1,Aracati/CE,-4.558259,-37.767894,25,33.53589
1,Aracatu/BA,-14.4274236,-41.4604105,12,91.35896
1,Araci/BA,-11.3356065,-38.9573261,86,158.14929
D1,Araci/BA,-11.3356065,-38.9573261,1,1.83895
1,Aracoiaba/CE,-4.3702577,-38.8084313,293,1106.95531
D1,Aracoiaba/CE,-4.3702577,-38.8084313,1,3.77800
1,Aracruz/ES,-19.8245218,-40.2735025,295,291.44438
D1,Aracruz/ES,-19.8245218,-40.2735025,21,20.74689
1,Aragarças/GO,-15.8957166,-52.2514538,21,104.38413
1,Aragoiânia/GO,-16.9146388,-49.4499148,8,77.60962
1,Aragominas/TO,-7.1654101,-48.525488,32,555.74852
1,Araguanã/MA,-2.9508403,-45.6651986,294,1905.87320
D1,Araguanã/MA,-2.9508403,-45.6651986,2,12.96512
1,Araguanã/TO,-6.5799107,-48.6428482,22,384.01117
1,Araguapaz/GO,-15.0937927,-50.626417,2,25.74003
D1,Araguapaz/GO,-15.0937927,-50.626417,1,12.87001
1,Araguari/MG,-18.6511256,-48.1933764,78,66.51488
D1,Araguari/MG,-18.6511256,-48.1933764,1,0.85275
1,Araguatins/TO,-5.6522925,-48.1158973,118,329.96840
D1,Araguatins/TO,-5.6522925,-48.1158973,14,39.14879
1,Araguaçu/TO,-12.928934,-49.823134,5,58.70612
D1,Araguaçu/TO,-12.928934,-49.823134,1,11.74122
1,Araguaína/TO,-7.193241,-48.2018597,2907,1610.79404
D1,Araguaína/TO,-7.193241,-48.2018597,33,18.28559
1,Araioses/MA,-2.890914,-41.904993,233,501.72265
D1,Araioses/MA,-2.890914,-41.904993,2,4.30663
1,Aramari/BA,-12.0907897,-38.4985065,3,26.32272
1,Arame/MA,-4.8858769,-46.0102484,128,391.42534
D1,Arame/MA,-4.8858769,-46.0102484,1,3.05801
1,Aramina/SP,-20.0876144,-47.789201,1,17.79359
D1,Aramina/SP,-20.0876144,-47.789201,1,17.79359
1,Arandu/SP,-23.1345103,-49.0545651,12,188.76829
D1,Arandu/SP,-23.1345103,-49.0545651,2,31.46138
1,Arantina/MG,-21.911667,-44.255833,3,107.33453
1,Arapeí/SP,-22.6738889,-44.4477778,1,40.50223
D1,Arapeí/SP,-22.6738889,-44.4477778,1,40.50223
1,Arapiraca/AL,-9.754866,-36.661471,1440,621.36727
D1,Arapiraca/AL,-9.754866,-36.661471,25,10.78763
1,Arapoema/TO,-7.6575001,-49.0641484,3,45.16032
1,Arapongas/PR,-23.415296,-51.42592,42,34.13885
D1,Arapongas/PR,-23.415296,-51.42592,3,2.43849
1,Araporã/MG,-18.4318188,-49.188313,9,131.02344
1,Arapoti/PR,-24.1457957,-49.8224605,13,46.23866
1,Araputanga/MT,-15.4710868,-58.346796,9,53.50137
1,Arapuá/MG,-19.034444,-46.155556,3,105.85745
1,Araquari/SC,-26.3703324,-48.7210994,44,115.39773
1,Arara/PB,-6.8271895,-35.7605703,40,296.95620
1,Araranguá/SC,-28.9348832,-49.4858389,87,127.51363
D1,Araranguá/SC,-28.9348832,-49.4858389,2,2.93135
1,Araraquara/SP,-21.7886713,-48.1773096,568,240.60456
D1,Araraquara/SP,-21.7886713,-48.1773096,6,2.54160
1,Araras/SP,-22.3569477,-47.3838889,182,135.58211
D1,Araras/SP,-22.3569477,-47.3838889,3,2.23487
1,Ararendá/CE,-4.7504395,-40.8303611,5,45.72474
D1,Ararendá/CE,-4.7504395,-40.8303611,1,9.14495
1,Arari/MA,-3.4547602,-44.7772723,138,462.34254
D1,Arari/MA,-3.4547602,-44.7772723,2,6.70062
1,Araricá/RS,-29.6168543,-50.929121,2,35.10004
1,Araripe/CE,-7.212861,-40.1359222,15,69.44444
1,Araripina/PE,-7.5768582,-40.5038509,96,113.71982
D1,Araripina/PE,-7.5768582,-40.5038509,3,3.55374
1,Araruama/RJ,-22.8733203,-42.3428897,257,194.10876
D1,Araruama/RJ,-22.8733203,-42.3428897,29,21.90332
1,Araruna/PB,-6.5321155,-35.7397595,15,73.84797
D1,Araruna/PB,-6.5321155,-35.7397595,1,4.92320
1,Araruna/PR,-23.9320308,-52.4976047,19,136.00573
D1,Araruna/PR,-23.9320308,-52.4976047,2,14.31639
1,Arataca/BA,-15.2617424,-39.4122943,2,18.15047
1,Aratiba/RS,-27.3955734,-52.3024325,7,112.26945
1,Aratuba/CE,-4.4195958,-39.0463737,54,455.81160
D1,Aratuba/CE,-4.4195958,-39.0463737,1,8.44096
1,Aratuípe/BA,-13.077137,-39.0010786,1,11.33144
D1,Aratuípe/BA,-13.077137,-39.0010786,1,11.33144
1,Araucária/PR,-25.5861107,-49.4051209,146,101.49955
D1,Araucária/PR,-25.5861107,-49.4051209,2,1.39040
1,Arauá/SE,-11.2644014,-37.6181058,11,109.38743
D1,Arauá/SE,-11.2644014,-37.6181058,4,39.77725
1,Araxá/MG,-19.5928536,-46.940241,164,154.38345
D1,Araxá/MG,-19.5928536,-46.940241,4,3.76545
1,Araçagi/PB,-6.8519969,-35.3835602,111,653.44087
1,Araçariguama/SP,-23.438611,-47.061389,32,143.08710
D1,Araçariguama/SP,-23.438611,-47.061389,1,4.47147
1,Araças/BA,-12.2139176,-38.2026159,2,16.42441
1,Araçatuba/SP,-21.207992,-50.4390225,281,142.62801
D1,Araçatuba/SP,-21.207992,-50.4390225,9,4.56816
1,Araçoiaba da Serra/SP,-23.5045367,-47.6168158,62,181.57324
D1,Araçoiaba da Serra/SP,-23.5045367,-47.6168158,1,2.92860
1,Araçoiaba/PE,-7.7856903,-35.0898881,50,243.61723
D1,Araçoiaba/PE,-7.7856903,-35.0898881,7,34.10641
1,Araçuaí/MG,-16.8484451,-42.0661868,3,8.17261
1,Arceburgo/MG,-21.364444,-46.939722,6,55.69996
1,Arcos/MG,-20.282223,-45.539444,25,62.35658
1,Arcoverde/PE,-8.415192,-37.057748,180,242.13726
D1,Arcoverde/PE,-8.415192,-37.057748,19,25.55893
1,Areal/RJ,-22.2314922,-43.1056264,60,477.25103
D1,Areal/RJ,-22.2314922,-43.1056264,1,7.95418
1,Arealva/SP,-22.0301906,-48.9111936,1,11.68224
1,Areia Branca/RN,-4.9506652,-37.1263312,370,1332.18118
D1,Areia Branca/RN,-4.9506652,-37.1263312,31,111.61518
1,Areia Branca/SE,-10.7591455,-37.3148072,86,463.81189
D1,Areia Branca/SE,-10.7591455,-37.3148072,3,16.17948
1,Areia de Baraúnas/PB,-7.1233949,-36.9446216,1,46.99248
1,Areia/PB,-6.9680243,-35.6994783,105,460.14286
D1,Areia/PB,-6.9680243,-35.6994783,1,4.38231
1,Areial/PB,-7.0501306,-35.9245244,18,257.21635
D1,Areial/PB,-7.0501306,-35.9245244,1,14.28980
1,Areiópolis/SP,-22.6758064,-48.6673653,12,107.82640
D1,Areiópolis/SP,-22.6758064,-48.6673653,3,26.95660
1,Arenápolis/MT,-14.4610369,-56.8432806,13,135.31800
1,Arinos/MG,-15.917223,-46.106111,1,5.59441
1,Aripuanã/MT,-10.175806,-59.4439663,40,178.93889
D1,Aripuanã/MT,-10.175806,-59.4439663,1,4.47347
1,Ariquemes/RO,-9.9076522,-63.033069,730,676.78444
D1,Ariquemes/RO,-9.9076522,-63.033069,10,9.27102
1,Ariranha/SP,-21.18716,-48.790418,2,20.68680
1,Armazém/SC,-28.2624996,-49.0190126,27,311.27507
1,Armação dos Búzios/RJ,-22.7597805,-41.8875267,117,345.43844
D1,Armação dos Búzios/RJ,-22.7597805,-41.8875267,4,11.80986
1,Arneiroz/CE,-6.3235099,-40.1603859,28,357.14286
1,Aroazes/PI,-6.1108814,-41.7886137,4,68.55184
1,Aroeiras/PB,-7.5462904,-35.7080002,58,302.82462
1,Arraial do Cabo/RJ,-22.9662839,-42.024427,51,168.04508
D1,Arraial do Cabo/RJ,-22.9662839,-42.024427,4,13.18001
1,Arraias/TO,-12.9287788,-46.9437231,1,9.46342
1,Arroio Grande/RS,-32.2384246,-53.0866661,1,5.46657
1,Arroio Trinta/SC,-26.9301976,-51.334928,4,112.67606
1,Arroio do Meio/RS,-29.4020392,-51.9444993,133,639.26941
1,Arroio do Sal/RS,-29.549852,-49.8874395,11,109.28962
D1,Arroio do Sal/RS,-29.549852,-49.8874395,1,9.93542
1,Arroio dos Ratos/RS,-30.0894524,-51.7265541,9,63.59975
D1,Arroio dos Ratos/RS,-30.0894524,-51.7265541,1,7.06664
1,Artur Nogueira/SP,-22.572737,-47.172679,40,73.51860
D1,Artur Nogueira/SP,-22.572737,-47.172679,2,3.67593
1,Arujá/SP,-23.396266,-46.3175449,342,380.74457
D1,Arujá/SP,-23.396266,-46.3175449,27,30.05878
1,Arvoredo/SC,-27.0752908,-52.4571847,17,758.92857
D1,Arvoredo/SC,-27.0752908,-52.4571847,1,44.64286
1,Arvorezinha/RS,-28.87369,-52.17808,6,57.55948
1,Arês/RN,-6.1969216,-35.1642968,25,174.75185
1,Ascurra/SC,-26.9569975,-49.3767752,1,12.60398
1,Aspásia/SP,-20.160028,-50.728046,2,109.76948
1,Assaré/CE,-6.8746791,-39.8741385,21,89.67844
D1,Assaré/CE,-6.8746791,-39.8741385,2,8.54080
1,Assaí/PR,-23.3736041,-50.8454929,8,52.91355
D1,Assaí/PR,-23.3736041,-50.8454929,1,6.61419
1,Assis Brasil/AC,-10.9409203,-69.5672108,95,1280.84131
D1,Assis Brasil/AC,-10.9409203,-69.5672108,5,67.41270
1,Assis Chateaubriand/PR,-24.4054826,-53.5120468,51,152.86853
D1,Assis Chateaubriand/PR,-24.4054826,-53.5120468,2,5.99484
1,Assis/SP,-22.6620892,-50.420623,78,74.72266
D1,Assis/SP,-22.6620892,-50.420623,5,4.78991
1,Assunção/PB,-7.073396,-36.7274003,20,501.25313
1,Astolfo Dutra/MG,-21.3132636,-42.8624102,16,112.84294
D1,Astolfo Dutra/MG,-21.3132636,-42.8624102,1,7.05268
1,Atalaia do Norte/AM,-4.3658547,-70.1908742,253,1270.01657
D1,Atalaia do Norte/AM,-4.3658547,-70.1908742,1,5.01983
1,Atalaia/AL,-9.5029595,-36.0219316,345,731.16457
D1,Atalaia/AL,-9.5029595,-36.0219316,6,12.71591
1,Atalanta/SC,-27.421916,-49.778863,3,93.45794
1,Atibaia/SP,-23.1177393,-46.5547861,116,81.25468
D1,Atibaia/SP,-23.1177393,-46.5547861,5,3.50236
1,Atilio Vivacqua/ES,-20.9139369,-41.1947519,22,184.31635
D1,Atilio Vivacqua/ES,-20.9139369,-41.1947519,1,8.37802
1,Augustinópolis/TO,-5.4662267,-47.8897519,94,510.53661
D1,Augustinópolis/TO,-5.4662267,-47.8897519,4,21.72496
1,Augusto Corrêa/PA,-1.0229335,-46.6404029,272,591.33006
D1,Augusto Corrêa/PA,-1.0229335,-46.6404029,14,30.43611
1,Aurelino Leal/BA,-14.3167137,-39.3256107,32,277.51279
1,Auriflama/SP,-20.6840418,-50.5554616,8,52.66970
1,Aurora do Pará/PA,-2.1323199,-47.558436,178,568.00051
D1,Aurora do Pará/PA,-2.1323199,-47.558436,6,19.14608
1,Aurora do Tocantins/TO,-12.71045,-46.407604,6,159.70189
1,Aurora/CE,-6.9426019,-38.9693765,14,56.78592
D1,Aurora/CE,-6.9426019,-38.9693765,1,4.05614
1,Aurora/SC,-27.3166417,-49.6368502,5,88.04367
1,Autazes/AM,-3.5833283,-59.1301518,801,2024.51662
D1,Autazes/AM,-3.5833283,-59.1301518,27,68.24213
1,Avanhandava/SP,-21.4603331,-49.9465156,1,7.32654
1,Avaré/SP,-23.1045215,-48.9259103,84,92.65898
D1,Avaré/SP,-23.1045215,-48.9259103,7,7.72158
1,Avaí/SP,-22.1564662,-49.3316395,2,37.01647
1,Aveiro/PA,-3.6049239,-55.3310742,37,225.77496
1,Avelino Lopes/PI,-10.1346855,-43.9489525,3,26.57454
1,Avelinópolis/GO,-16.4672409,-49.7578661,1,41.37360
1,Axixá do Tocantins/TO,-5.612747,-47.77007,46,471.50472
D1,Axixá do Tocantins/TO,-5.612747,-47.77007,2,20.50021
1,Axixá/MA,-2.8379465,-44.0561053,43,354.49299
D1,Axixá/MA,-2.8379465,-44.0561053,1,8.24402
1,Açailândia/MA,-4.9514278,-47.4844564,1987,1767.08613
D1,Açailândia/MA,-4.9514278,-47.4844564,40,35.57295
1,Açu/RN,-5.5836157,-36.9139541,204,351.62108
D1,Açu/RN,-5.5836157,-36.9139541,9,15.51269
1,Açucena/MG,-19.073056,-42.546666,5,52.79831
D1,Açucena/MG,-19.073056,-42.546666,1,10.55966
1,Babaçulândia/TO,-7.2034355,-47.761613,8,75.01875
1,Bacabal/MA,-4.2318132,-44.781167,1215,1157.70517
D1,Bacabal/MA,-4.2318132,-44.781167,13,12.38697
1,Bacabeira/MA,-2.9775747,-44.3155943,114,668.42568
D1,Bacabeira/MA,-2.9775747,-44.3155943,1,5.86338
1,Bacuri/MA,-1.728894,-45.1417148,231,1243.13852
D1,Bacuri/MA,-1.728894,-45.1417148,1,5.38155
1,Bacurituba/MA,-2.7082587,-44.7381309,13,230.33310
1,Bady Bassitt/SP,-20.9178969,-49.4517911,39,222.83168
D1,Bady Bassitt/SP,-20.9178969,-49.4517911,4,22.85453
1,Baependi/MG,-21.959162,-44.8899249,2,10.44496
1,Bagre/PA,-1.8994498,-50.2103844,122,397.74394
D1,Bagre/PA,-1.8994498,-50.2103844,6,19.56118
1,Bagé/RS,-31.3314264,-54.1062808,75,61.91030
1,Baianópolis/BA,-12.3067564,-44.5383591,1,7.20617
1,Baixa Grande do Ribeiro/PI,-7.862861,-45.2113289,26,224.40877
D1,Baixa Grande do Ribeiro/PI,-7.862861,-45.2113289,1,8.63111
1,Baixio/CE,-6.7303544,-38.7170095,2,31.80662
1,Baixo Guandu/ES,-19.5138322,-41.0182089,136,438.73798
D1,Baixo Guandu/ES,-19.5138322,-41.0182089,7,22.58210
1,Baião/PA,-2.7903479,-49.6702845,175,368.84037
D1,Baião/PA,-2.7903479,-49.6702845,8,16.86127
1,Balneário Arroio do Silva/SC,-28.9815269,-49.4189932,36,275.41887
D1,Balneário Arroio do Silva/SC,-28.9815269,-49.4189932,1,7.65052
1,Balneário Barra do Sul/SC,-26.459842,-48.6061471,18,166.74386
1,Balneário Camboriú/SC,-26.9924395,-48.6339782,641,450.47261
D1,Balneário Camboriú/SC,-26.9924395,-48.6339782,4,2.81106
1,Balneário Gaivota/SC,-29.1553098,-49.5808712,8,72.86638
D1,Balneário Gaivota/SC,-29.1553098,-49.5808712,1,9.10830
1,Balneário Pinhal/RS,-30.2482978,-50.234585,7,49.75832
1,Balneário Piçarras/SC,-26.7638889,-48.6716667,69,298.09479
D1,Balneário Piçarras/SC,-26.7638889,-48.6716667,1,4.32021
1,Balneário Rincão/SC,-28.8235718,-49.2241642,6,47.02194
1,Balsa Nova/PR,-25.5842234,-49.6312741,5,38.63689
1,Balsas/MA,-7.53214,-46.037163,420,442.63176
D1,Balsas/MA,-7.53214,-46.037163,2,2.10777
1,Banabuiú/CE,-5.3046404,-38.919766,124,681.43101
D1,Banabuiú/CE,-5.3046404,-38.919766,1,5.49541
1,Bananal/SP,-22.6828195,-44.3221095,6,54.81955
1,Bananeiras/PB,-6.7537682,-35.6338343,48,225.16184
1,Bandeirantes do Tocantins/TO,-7.7635698,-48.579148,7,197.01661
1,Bandeirantes/PR,-23.107788,-50.370407,18,57.38515
D1,Bandeirantes/PR,-23.107788,-50.370407,1,3.18806
1,Bannach/PA,-7.3508505,-50.4064531,29,882.53195
D1,Bannach/PA,-7.3508505,-50.4064531,3,91.29641
1,Banzaê/BA,-10.5827616,-38.6122305,12,90.70980
1,Baraúna/PB,-6.643394,-36.2531932,70,1430.90760
1,Baraúna/RN,-5.0775002,-37.61752,114,401.77627
D1,Baraúna/RN,-5.0775002,-37.61752,7,24.67047
1,Barbacena/MG,-21.2254524,-43.7735087,315,229.40290
D1,Barbacena/MG,-21.2254524,-43.7735087,4,2.91305
1,Barbalha/CE,-7.3121067,-39.3036427,125,205.65637
D1,Barbalha/CE,-7.3121067,-39.3036427,2,3.29050
1,Barbosa/SP,-21.265661,-49.951816,1,13.50986
1,Barcarena/PA,-1.5107945,-48.6190679,1173,940.80847
D1,Barcarena/PA,-1.5107945,-48.6190679,90,72.18479
1,Barcelona/RN,-5.9514918,-35.9260284,5,125.06253
1,Barcelos/AM,-0.9729214,-62.925635,708,2574.35823
D1,Barcelos/AM,-0.9729214,-62.925635,20,72.72198
1,Bariri/SP,-22.0746355,-48.7394852,33,93.57985
D1,Bariri/SP,-22.0746355,-48.7394852,1,2.83575
1,Barra Bonita/SP,-22.490859,-48.558349,74,204.83862
D1,Barra Bonita/SP,-22.490859,-48.558349,2,5.53618
1,Barra Longa/MG,-20.2833541,-43.0423516,1,19.48938
1,Barra Mansa/RJ,-22.5394843,-44.1735129,283,153.46073
D1,Barra Mansa/RJ,-22.5394843,-44.1735129,23,12.47207
1,Barra Velha/SC,-26.6338203,-48.6835001,41,140.56500
1,Barra da Estiva/BA,-13.6269662,-41.3278287,1,4.85484
1,Barra de Guabiraba/PE,-8.4173522,-35.6626669,58,403.19778
D1,Barra de Guabiraba/PE,-8.4173522,-35.6626669,2,13.90337
1,Barra de Santa Rosa/PB,-6.7218007,-36.0564638,14,91.00364
1,Barra de Santana/PB,-7.5230865,-35.9988518,36,430.67353
1,Barra de Santo Antônio/AL,-9.4038098,-35.5117693,56,351.49385
D1,Barra de Santo Antônio/AL,-9.4038098,-35.5117693,4,25.10670
1,Barra de São Francisco/ES,-18.7570902,-40.8916119,141,315.78947
D1,Barra de São Francisco/ES,-18.7570902,-40.8916119,6,13.43785
1,Barra de São Miguel/AL,-9.8261357,-35.8837777,56,672.91516
D1,Barra de São Miguel/AL,-9.8261357,-35.8837777,1,12.01634
1,Barra de São Miguel/PB,-7.7528088,-36.3170996,4,66.26905
D1,Barra de São Miguel/PB,-7.7528088,-36.3170996,1,16.56726
1,Barra do Bugres/MT,-15.0683712,-57.1853688,8,22.87937
D1,Barra do Bugres/MT,-15.0683712,-57.1853688,1,2.85992
1,Barra do Choça/BA,-14.8638173,-40.5761637,14,44.29959
1,Barra do Corda/MA,-5.496823,-45.248496,1033,1171.04249
D1,Barra do Corda/MA,-5.496823,-45.248496,13,14.73722
1,Barra do Garças/MT,-15.8916033,-52.2615413,110,180.29240
D1,Barra do Garças/MT,-15.8916033,-52.2615413,7,11.47315
1,Barra do Mendes/BA,-11.8053298,-42.057037,2,14.42481
1,Barra do Ouro/TO,-7.7113784,-47.6743925,7,152.47223
D1,Barra do Ouro/TO,-7.7113784,-47.6743925,2,43.56349
1,Barra do Piraí/RJ,-22.4703403,-43.8263256,330,328.77040
D1,Barra do Piraí/RJ,-22.4703403,-43.8263256,21,20.92175
1,Barra do Ribeiro/RS,-30.2930206,-51.301437,4,29.64940
1,Barra do Rocha/BA,-14.2090974,-39.6004395,5,87.50438
1,Barra do Turvo/SP,-24.756421,-48.5056942,11,143.62188
D1,Barra do Turvo/SP,-24.756421,-48.5056942,1,13.05653
1,Barra dos Coqueiros/SE,-10.9075694,-37.0386249,291,957.01648
D1,Barra dos Coqueiros/SE,-10.9075694,-37.0386249,2,6.57743
1,Barra/BA,-11.0892702,-43.1420453,7,13.06506
1,Barracão/PR,-26.252395,-53.6349576,6,58.39416
1,Barracão/RS,-27.6728964,-51.4582928,2,37.91469
1,Barras/PI,-4.2446153,-42.2920241,323,686.27034
D1,Barras/PI,-4.2446153,-42.2920241,8,16.99741
1,Barreira/CE,-4.2883361,-38.641094,158,704.57079
D1,Barreira/CE,-4.2883361,-38.641094,13,57.97101
1,Barreiras do Piauí/PI,-9.9224524,-45.4763776,1,29.86858
1,Barreiras/BA,-12.1440031,-44.9967406,156,100.36091
1,Barreirinha/AM,-2.798863,-57.067897,459,1432.53956
D1,Barreirinha/AM,-2.798863,-57.067897,5,15.60501
1,Barreirinhas/MA,-2.7541271,-42.8259693,206,329.45241
D1,Barreirinhas/MA,-2.7541271,-42.8259693,12,19.19140
1,Barreiros/PE,-8.8159644,-35.1831905,188,440.70419
D1,Barreiros/PE,-8.8159644,-35.1831905,16,37.50674
1,Barretos/SP,-20.5531437,-48.5697509,404,330.88175
D1,Barretos/SP,-20.5531437,-48.5697509,14,11.46620
1,Barrinha/SP,-21.1898849,-48.1550642,50,152.38327
D1,Barrinha/SP,-21.1898849,-48.1550642,2,6.09533
1,Barro Alto/GO,-14.9696025,-48.9190985,20,179.09913
1,Barro Duro/PI,-5.8180139,-42.5106589,30,426.62116
D1,Barro Duro/PI,-5.8180139,-42.5106589,1,14.22071
1,Barro Preto/BA,-14.8068289,-39.4727588,8,143.08710
1,Barro/CE,-7.1713587,-38.7742136,16,70.54674
D1,Barro/CE,-7.1713587,-38.7742136,2,8.81834
1,Barrocas/BA,-11.5165,-39.099282894736845,31,194.01677
1,Barrolândia/TO,-9.837246,-48.7264346,23,408.38068
D1,Barrolândia/TO,-9.837246,-48.7264346,1,17.75568
1,Barroquinha/CE,-3.0200371,-41.1339229,328,2184.19125
D1,Barroquinha/CE,-3.0200371,-41.1339229,7,46.61384
1,Barros Cassal/RS,-29.094938,-52.5832366,2,17.85874
D1,Barros Cassal/RS,-29.094938,-52.5832366,1,8.92937
1,Barroso/MG,-21.187222,-43.976111,7,33.63767
1,Barueri/SP,-23.5112184,-46.8764612,1645,599.96645
D1,Barueri/SP,-23.5112184,-46.8764612,170,62.00261
1,Barão de Antonina/SP,-23.6295651,-49.5632104,1,28.82675
1,Barão de Cocais/MG,-19.9452437,-43.4870298,56,172.38726
1,Barão de Cotegipe/RS,-27.6214694,-52.3765316,24,362.37355
1,Barão de Grajaú/MA,-6.7542591,-43.0263477,14,74.38895
1,Barão de Monte Alto/MG,-21.244722,-42.2375,5,92.64406
1,Barão/RS,-29.372474,-51.494908,4,64.81932
1,Bastos/SP,-21.9222474,-50.7317727,2,9.54517
1,Bataguassu/MS,-21.715899,-52.422058,11,47.77623
1,Batalha/AL,-9.6733809,-37.1265481,91,499.12242
D1,Batalha/AL,-9.6733809,-37.1265481,1,5.48486
1,Batalha/PI,-4.022391,-42.0780926,107,398.40637
D1,Batalha/PI,-4.022391,-42.0780926,3,11.17027
1,Batatais/SP,-20.892867,-47.592149,35,55.99283
D1,Batatais/SP,-20.892867,-47.592149,1,1.59980
1,Batayporã/MS,-22.2976466,-53.2685608,7,61.78833
D1,Batayporã/MS,-22.2976466,-53.2685608,2,17.65381
1,Baturité/CE,-4.3290203,-38.8821055,203,567.83217
D1,Baturité/CE,-4.3290203,-38.8821055,19,53.14685
1,Bauru/SP,-22.3218102,-49.0705863,489,129.77087
D1,Bauru/SP,-22.3218102,-49.0705863,17,4.51146
1,Bayeux/PB,-7.1301631,-34.936532,582,600.74319
D1,Bayeux/PB,-7.1301631,-34.936532,41,42.32040
1,Baía Formosa/RN,-6.3691885,-35.0063741,7,75.50426
D1,Baía Formosa/RN,-6.3691885,-35.0063741,1,10.78632
1,Baía da Traição/PB,-6.691258,-34.9371244,83,922.94006
D1,Baía da Traição/PB,-6.691258,-34.9371244,1,11.11976
1,Bebedouro/SP,-20.949077,-48.479083,46,59.35790
D1,Bebedouro/SP,-20.949077,-48.479083,2,2.58078
1,Beberibe/CE,-4.1810469,-38.1298101,234,436.78719
D1,Beberibe/CE,-4.1810469,-38.1298101,18,33.59901
1,Bela Cruz/CE,-3.0529129,-40.167582,587,1801.11074
D1,Bela Cruz/CE,-3.0529129,-40.167582,9,27.61499
1,Bela Vista de Goiás/GO,-16.9692949,-48.9513071,31,103.41952
D1,Bela Vista de Goiás/GO,-16.9692949,-48.9513071,1,3.33611
1,Bela Vista de Minas/MG,-19.8289721,-43.0973688,5,48.75670
1,Bela Vista do Maranhão/MA,-3.7416367,-45.2514192,95,847.53323
D1,Bela Vista do Maranhão/MA,-3.7416367,-45.2514192,1,8.92140
1,Bela Vista do Paraíso/PR,-22.9948493,-51.1907996,11,71.44249
D1,Bela Vista do Paraíso/PR,-22.9948493,-51.1907996,2,12.98954
1,Bela Vista do Piauí/PI,-7.9716353,-41.8715061,1,24.90660
1,Bela Vista do Toldo/SC,-26.274625,-50.466354,1,15.78034
1,Bela Vista/MS,-22.107327,-56.5317344,2,8.12051
1,Belford Roxo/RJ,-22.7667284,-43.4033603,1094,214.12941
D1,Belford Roxo/RJ,-22.7667284,-43.4033603,149,29.16388
1,Belmiro Braga/MG,-21.9486291,-43.413564,4,116.65209
D1,Belmiro Braga/MG,-21.9486291,-43.413564,1,29.16302
1,Belmonte/BA,-15.8630837,-38.8792845,33,141.46091
D1,Belmonte/BA,-15.8630837,-38.8792845,1,4.28669
1,Belo Campo/BA,-15.0338286,-41.2585109,1,5.81024
1,Belo Horizonte/MG,-19.9227318,-43.9450948,3487,138.80983
D1,Belo Horizonte/MG,-19.9227318,-43.9450948,67,2.66712
1,Belo Jardim/PE,-8.3338293,-36.4176419,58,75.87750
D1,Belo Jardim/PE,-8.3338293,-36.4176419,3,3.92470
1,Belo Monte/AL,-9.8269944,-37.2787165,6,89.49881
1,Belo Oriente/MG,-19.2232523,-42.4807033,26,97.37828
D1,Belo Oriente/MG,-19.2232523,-42.4807033,2,7.49064
1,Belo Vale/MG,-20.407778,-44.024167,2,25.92353
D1,Belo Vale/MG,-20.407778,-44.024167,1,12.96176
1,Belterra/PA,-2.636091,-54.937392,27,152.26709
D1,Belterra/PA,-2.636091,-54.937392,5,28.19761
1,Belágua/MA,-3.1604031,-43.5085052,162,2168.96506
1,Belém de Maria/PE,-8.6242497,-35.8388934,14,115.96124
1,Belém do Brejo do Cruz/PB,-6.1880727,-37.5332267,6,81.72160
1,Belém do Piauí/PI,-7.3767305,-40.9712156,6,168.25575
D1,Belém do Piauí/PI,-7.3767305,-40.9712156,1,28.04262
1,Belém do São Francisco/PE,-8.7517707,-38.9625715,5,24.12080
1,Belém/AL,-9.5715351,-36.492841,3,69.06077
D1,Belém/AL,-9.5715351,-36.492841,1,23.02026
1,Belém/PA,-1.45056,-48.4682453,16255,1088.93347
D1,Belém/PA,-1.45056,-48.4682453,1749,117.16670
1,Belém/PB,-6.6967586,-35.5369626,101,571.39624
D1,Belém/PB,-6.6967586,-35.5369626,1,5.65739
1,Beneditinos/PI,-5.4565671,-42.3605061,9,85.98452
D1,Beneditinos/PI,-5.4565671,-42.3605061,1,9.55384
1,Benedito Leite/MA,-7.2173453,-44.5523331,10,177.55682
1,Benedito Novo/SC,-26.7840657,-49.3629511,10,85.82218
1,Benevides/PA,-1.3555577,-48.252235,1178,1877.67984
D1,Benevides/PA,-1.3555577,-48.252235,47,74.91592
1,Benjamin Constant do Sul/RS,-27.5105555,-52.6007689,19,952.85858
1,Benjamin Constant/AM,-4.3782748,-70.0290603,1317,3063.93076
D1,Benjamin Constant/AM,-4.3782748,-70.0290603,25,58.16118
1,Bento Fernandes/RN,-5.6926846,-35.8207423,10,181.91741
1,Bento Gonçalves/RS,-29.1654014,-51.5197627,761,631.77645
D1,Bento Gonçalves/RS,-29.1654014,-51.5197627,24,19.92462
1,Bento de Abreu/SP,-21.2707225,-50.8120444,1,33.55705
1,Bequimão/MA,-2.4495376,-44.7884889,140,657.89474
D1,Bequimão/MA,-2.4495376,-44.7884889,8,37.59398
1,Bernardino Batista/PB,-6.4532173,-38.5495418,2,57.12654
1,Bernardino de Campos/SP,-23.0140216,-49.4760724,1,8.97022
1,Bernardo do Mearim/MA,-4.6315929,-44.7617508,37,612.27867
D1,Bernardo do Mearim/MA,-4.6315929,-44.7617508,1,16.54807
1,Bertioga/SP,-23.848568,-46.139586,167,264.03580
D1,Bertioga/SP,-23.848568,-46.139586,10,15.81053
1,Bertolínia/PI,-7.6372159,-43.9540611,5,90.89256
1,Beruri/AM,-3.9007135,-61.3717319,374,1900.50307
D1,Beruri/AM,-3.9007135,-61.3717319,5,25.40780
1,Betim/MG,-19.968056,-44.198333,397,90.36282
D1,Betim/MG,-19.968056,-44.198333,15,3.41421
1,Betânia do Piauí/PI,-8.1460635,-40.7961387,3,48.34811
1,Betânia/PE,-8.2742779,-38.0351767,10,78.62253
D1,Betânia/PE,-8.2742779,-38.0351767,1,7.86225
1,Bezerros/PE,-8.2372132,-35.7558262,143,235.20511
D1,Bezerros/PE,-8.2372132,-35.7558262,5,8.22395
1,Bicas/MG,-21.7213723,-43.0604327,8,55.19525
1,Biguaçu/SC,-27.4961277,-48.6542432,101,147.48616
1,Bilac/SP,-21.403962,-50.47464,1,12.44710
1,Biquinhas/MG,-18.783611,-45.502222,1,39.76143
1,Birigui/SP,-21.2908491,-50.34144,96,77.64603
D1,Birigui/SP,-21.2908491,-50.34144,3,2.42644
1,Biritiba-Mirim/SP,-23.5697765,-46.0407456,46,141.11295
D1,Biritiba-Mirim/SP,-23.5697765,-46.0407456,4,12.27069
1,Biritinga/BA,-11.6227908,-38.8066738,1,6.25821
1,Bituruna/PR,-26.161281,-51.5533319,5,30.50827
1,Blumenau/SC,-26.9195567,-49.0658025,801,224.24475
D1,Blumenau/SC,-26.9195567,-49.0658025,6,1.67974
1,Boa Esperança do Sul/SP,-21.9930206,-48.3917372,17,113.91811
D1,Boa Esperança do Sul/SP,-21.9930206,-48.3917372,1,6.70107
1,Boa Esperança/ES,-18.5395472,-40.2904088,82,545.32154
D1,Boa Esperança/ES,-18.5395472,-40.2904088,3,19.95079
1,Boa Esperança/MG,-21.0901253,-45.5660195,36,89.71515
D1,Boa Esperança/MG,-21.0901253,-45.5660195,2,4.98418
1,Boa Hora/PI,-4.4094627,-42.1255341,19,280.19466
1,Boa Nova/BA,-14.365907,-40.2063056,2,15.83155
1,Boa Ventura/PB,-7.4202462,-38.2156782,1,18.63586
1,Boa Viagem/CE,-5.1261877,-39.7300055,78,143.19809
D1,Boa Viagem/CE,-5.1261877,-39.7300055,9,16.52286
1,Boa Vista da Aparecida/PR,-25.4357216,-53.4067721,23,302.99038
1,Boa Vista das Missões/RS,-27.6677983,-53.3127622,2,95.32888
1,Boa Vista do Gurupi/MA,-1.7981168,-46.3071882,10,107.67740
D1,Boa Vista do Gurupi/MA,-1.7981168,-46.3071882,2,21.53548
1,Boa Vista do Ramos/AM,-2.9716927,-57.5869819,136,708.07518
D1,Boa Vista do Ramos/AM,-2.9716927,-57.5869819,2,10.41287
1,Boa Vista do Sul/RS,-29.3510488,-51.6779679,13,467.12181
D1,Boa Vista do Sul/RS,-29.3510488,-51.6779679,1,35.93245
1,Boa Vista do Tupim/BA,-12.6605988,-40.6083594,3,16.14987
1,Boa Vista/PB,-7.2620711,-36.2415161,47,666.57212
1,Boa Vista/RR,2.8208478,-60.6719582,5207,1304.31624
D1,Boa Vista/RR,2.8208478,-60.6719582,164,41.08083
1,Boca da Mata/AL,-9.6452054,-36.2116658,225,824.74983
D1,Boca da Mata/AL,-9.6452054,-36.2116658,4,14.66222
1,Boca do Acre/AM,-8.7553487,-67.3930873,539,1571.06214
D1,Boca do Acre/AM,-8.7553487,-67.3930873,8,23.31818
1,Bocaina de Minas/MG,-22.167778,-44.394722,2,39.29273
1,Bocaina do Sul/SC,-27.745494,-49.942279,1,28.78526
1,Bocaina/PI,-6.9445939,-41.3224599,10,222.22222
1,Bocaina/SP,-22.1421831,-48.522276,18,145.99724
D1,Bocaina/SP,-22.1421831,-48.522276,1,8.11096
1,Bocaiúva do Sul/PR,-25.206591,-49.114131,4,30.90235
D1,Bocaiúva do Sul/PR,-25.206591,-49.114131,1,7.72559
1,Bocaiúva/MG,-17.1160208,-43.8122678,7,14.00588
1,Bodocó/PE,-7.777592,-39.933797,9,23.59356
1,Bodó/RN,-5.9866104,-36.4134824,1,44.98426
1,Bofete/SP,-23.1019554,-48.2610535,29,247.22933
D1,Bofete/SP,-23.1019554,-48.2610535,2,17.05030
1,Boituva/SP,-23.2838893,-47.6738231,108,177.05789
D1,Boituva/SP,-23.2838893,-47.6738231,5,8.19712
1,Bom Conselho/PE,-9.169191,-36.685683,105,216.25407
D1,Bom Conselho/PE,-9.169191,-36.685683,1,2.05956
1,Bom Despacho/MG,-19.7375242,-45.2517288,37,73.11530
D1,Bom Despacho/MG,-19.7375242,-45.2517288,1,1.97609
1,Bom Jardim da Serra/SC,-28.3380324,-49.625588,1,21.08370
1,Bom Jardim de Goiás/GO,-16.2062659,-52.172793,3,33.93281
1,Bom Jardim/MA,-3.54129,-45.606004,221,530.86716
D1,Bom Jardim/MA,-3.54129,-45.606004,2,4.80423
1,Bom Jardim/PE,-7.7961572,-35.5871696,60,153.12372
D1,Bom Jardim/PE,-7.7961572,-35.5871696,10,25.52062
1,Bom Jardim/RJ,-22.1515328,-42.4186683,33,120.23610
D1,Bom Jardim/RJ,-22.1515328,-42.4186683,2,7.28704
1,Bom Jesus da Lapa/BA,-13.250571,-43.410754,35,50.61607
1,Bom Jesus das Selvas/MA,-4.4878075,-46.8526639,365,1072.64606
1,Bom Jesus de Goiás/GO,-18.2174587,-49.739721,7,27.76015
1,Bom Jesus do Amparo/MG,-19.7045132,-43.4752911,4,65.75703
1,Bom Jesus do Araguaia/MT,-12.1725897,-51.5074425,19,288.75380
1,Bom Jesus do Galho/MG,-19.8283191,-42.3162256,3,20.08704
D1,Bom Jesus do Galho/MG,-19.8283191,-42.3162256,1,6.69568
1,Bom Jesus do Itabapoana/RJ,-21.1341025,-41.680095,88,237.22234
D1,Bom Jesus do Itabapoana/RJ,-21.1341025,-41.680095,2,5.39142
1,Bom Jesus do Norte/ES,-21.1254776,-41.6711646,36,362.31884
1,Bom Jesus do Sul/PR,-26.1922507,-53.6002033,3,84.72183
1,Bom Jesus do Tocantins/PA,-5.0471796,-48.5978362,32,188.44591
1,Bom Jesus dos Perdões/SP,-23.1353864,-46.4648052,24,94.30997
1,Bom Jesus/PB,-6.8156725,-38.6551841,2,78.09449
1,Bom Jesus/PI,-9.0711644,-44.3583926,101,401.12792
1,Bom Jesus/RN,-5.9887544,-35.5821149,23,225.26934
D1,Bom Jesus/RN,-5.9887544,-35.5821149,1,9.79432
1,Bom Jesus/RS,-28.6692723,-50.4346894,45,396.51071
1,Bom Jesus/SC,-26.7350604,-52.3916519,11,365.44850
1,Bom Lugar/MA,-4.3728019,-45.0366054,37,227.07745
1,Bom Princípio do Piauí/PI,-3.1912777,-41.6430185,6,106.57194
D1,Bom Princípio do Piauí/PI,-3.1912777,-41.6430185,1,17.76199
1,Bom Princípio/RS,-29.489788,-51.3566782,46,327.28566
1,Bom Progresso/RS,-27.5490948,-53.8655601,4,205.97322
1,Bom Repouso/MG,-22.4657069,-46.1485376,6,56.88821
1,Bom Retiro do Sul/RS,-29.6000007,-51.9359243,71,575.92472
D1,Bom Retiro do Sul/RS,-29.6000007,-51.9359243,1,8.11162
1,Bom Sucesso/PB,-6.4458948,-37.9297662,5,100.50251
1,Bombinhas/SC,-27.1519159,-48.4875691,51,257.97967
1,Bonfim do Piauí/PI,-9.1648678,-42.8734415,2,35.27337
1,Bonfim/MG,-20.3266626, -44.2386157,6,87.36168
D1,Bonfim/MG,-20.3266626, -44.2386157,1,14.56028
1,Bonfim/RR,3.3613818,-59.8427241,104,838.10138
D1,Bonfim/RR,3.3613818,-59.8427241,5,40.29334
1,Bonfinópolis de Minas/MG,-16.5660011,-45.98645,1,18.20499
1,Bonfinópolis/GO,-16.6172709,-48.9615701,8,82.42324
1,Boninal/BA,-12.7095183,-41.8299984,1,6.95991
1,Bonito de Santa Fé/PB,-7.3143332,-38.5146677,1,8.39137
1,Bonito/MS,-21.1264766,-56.4902208,50,227.52093
1,Bonito/PA,-1.3605722,-47.3049907,147,902.61574
D1,Bonito/PA,-1.3605722,-47.3049907,5,30.70122
1,Bonito/PE,-8.4721161,-35.7314591,73,191.43022
D1,Bonito/PE,-8.4721161,-35.7314591,10,26.22332
1,Boqueirão do Piauí/PI,-4.4850148,-42.1095161,2,31.21586
1,Boqueirão/PB,-7.487004,-36.130887,67,376.31993
D1,Boqueirão/PB,-7.487004,-36.130887,1,5.61672
1,Boquim/SE,-11.1450175,-37.6204228,36,134.24821
D1,Boquim/SE,-11.1450175,-37.6204228,2,7.45823
1,Boquira/BA,-12.8184859,-42.7270883,10,46.49433
1,Boracéia/SP,-22.195355,-48.7801925,14,290.27576
1,Borba/AM,-4.3934778,-59.5947721,360,874.61432
D1,Borba/AM,-4.3934778,-59.5947721,16,38.87175
1,Borborema/PB,-6.8066718,-35.5990191,2,38.00114
1,Borborema/SP,-21.6212706,-49.074135,14,87.24916
1,Borda da Mata/MG,-22.274167,-46.165278,4,20.60581
1,Borebi/SP,-22.5700178,-48.9714871,5,188.46589
1,Borá/SP,-22.2701088,-50.544407,1,119.47431
1,Bossoroca/RS,-28.7278885,-54.9120278,2,31.85221
1,Botelhos/MG,-21.65,-46.394722,6,40.07748
D1,Botelhos/MG,-21.65,-46.394722,1,6.67958
1,Botucatu/SP,-22.8879628,-48.4410712,428,292.15615
D1,Botucatu/SP,-22.8879628,-48.4410712,10,6.82608
1,Botuverá/SC,-27.200749,-49.068892,6,114.37286
1,Braga/RS,-27.617348,-53.740514,2,59.64808
1,Braganey/PR,-24.8179919,-53.118506,15,276.39580
D1,Braganey/PR,-24.8179919,-53.118506,1,18.42639
1,Bragança Paulista/SP,-22.9520235,-46.5418586,318,188.53606
D1,Bragança Paulista/SP,-22.9520235,-46.5418586,12,7.11457
1,Bragança/PA,-1.0573967,-46.7635406,1285,1006.37501
D1,Bragança/PA,-1.0573967,-46.7635406,59,46.20710
1,Branquinha/AL,-9.2478057,-36.0152009,37,352.58243
1,Brasil Novo/PA,-3.3055853,-52.539198,110,729.15286
D1,Brasil Novo/PA,-3.3055853,-52.539198,2,13.25732
1,Brasileira/PI,-4.131182,-41.7824969,14,168.08741
1,Brasilândia do Tocantins/TO,-8.3886619,-48.4842729,2,90.86779
1,Brasilândia/MS,-21.255575,-52.0365617,15,126.34771
D1,Brasilândia/MS,-21.255575,-52.0365617,2,16.84636
1,Brasiléia/AC,-11.0010413,-68.7487894,213,810.56397
D1,Brasiléia/AC,-11.0010413,-68.7487894,6,22.83279
1,Brasnorte/MT,-12.1227151,-58.0050109,2,10.15486
1,Brasília de Minas/MG,-16.2075114,-44.430559,7,21.64034
1,Brasília/DF,-15.7934036,-47.8823172,23684,785.46915
D1,Brasília/DF,-15.7934036,-47.8823172,319,10.57949
1,Brazabrantes/GO,-16.4291635,-49.3858216,2,54.01026
1,Brazópolis/MG,-22.4742842,-45.6165577,8,55.32886
1,Braço do Norte/SC,-28.2728633,-49.1622712,131,391.62930
D1,Braço do Norte/SC,-28.2728633,-49.1622712,2,5.97907
1,Braço do Trombudo/SC,-27.358578,-49.882145,2,53.43308
1,Braúna/SP,-21.5015319,-50.3175246,2,35.17411
1,Brejetuba/ES,-20.1465817,-41.2902303,29,233.79555
1,Brejinho de Nazaré/TO,-11.0205883,-48.5722906,3,54.57522
1,Brejinho/PE,-7.3482153,-37.28538,14,186.99078
1,Brejinho/RN,-6.1957907,-35.3583019,26,204.74053
1,Brejo Alegre/SP,-21.1671191,-50.1850393,2,69.80803
1,Brejo Grande do Araguaia/PA,-5.7011449,-48.4037308,16,216.80217
1,Brejo Grande/SE,-10.4287358,-36.4667918,3,36.10543
1,Brejo Santo/CE,-7.4909841,-38.9859152,92,185.94498
D1,Brejo Santo/CE,-7.4909841,-38.9859152,3,6.06342
1,Brejo da Madre de Deus/PE,-8.1409718,-36.3712527,215,423.71211
D1,Brejo da Madre de Deus/PE,-8.1409718,-36.3712527,3,5.91226
1,Brejo de Areia/MA,-4.3316785,-45.5833334,70,761.86330
1,Brejo do Cruz/PB,-6.32926065,-37.48746163303929,38,269.08370
D1,Brejo do Cruz/PB,-6.32926065,-37.48746163303929,1,7.08115
1,Brejo dos Santos/PB,-6.3769367,-37.8243125,3,46.51884
1,Brejo/MA,-3.6804397,-42.7529313,185,508.28365
D1,Brejo/MA,-3.6804397,-42.7529313,7,19.23235
1,Brejão/PE,-9.029146,-36.566034,1,11.11976
1,Brejões/BA,-13.1033754,-39.7909837,8,55.96362
1,Breu Branco/PA,-3.7785073,-49.5684795,126,190.77613
D1,Breu Branco/PA,-3.7785073,-49.5684795,11,16.65506
1,Breves/PA,-1.68036,-50.479085,813,791.61839
D1,Breves/PA,-1.68036,-50.479085,66,64.26422
1,Britânia/GO,-15.2427599,-51.1602061,2,34.60806
1,Brochier/RS,-29.556766,-51.5963047,12,236.49980
1,Brodowski/SP,-20.984532,-47.657217,46,184.45006
D1,Brodowski/SP,-20.984532,-47.657217,2,8.01957
1,Brotas/SP,-22.2840884,-48.1267265,7,28.68500
1,Brumadinho/MG,-20.143611,-44.2,71,177.04411
1,Brumado/BA,-14.29507325,-41.659307508575985,81,120.54468
D1,Brumado/BA,-14.29507325,-41.659307508575985,2,2.97641
1,Brunópolis/SC,-27.310953,-50.837585,12,495.86777
1,Brusque/SC,-27.0964628,-48.9136323,193,143.25690
1,Bueno Brandão/MG,-22.441976,-46.3517971,5,45.45041
D1,Bueno Brandão/MG,-22.441976,-46.3517971,2,18.18017
1,Buenos Aires/PE,-7.7218931,-35.326587,22,167.23679
D1,Buenos Aires/PE,-7.7218931,-35.326587,3,22.80502
1,Buenópolis/MG,-17.8756607,-44.1749365,9,86.83068
1,Buerarema/BA,-14.9571177,-39.3008035,43,234.34520
D1,Buerarema/BA,-14.9571177,-39.3008035,5,27.24944
1,Bugre/MG,-19.4257687,-42.2556,1,25.11301
1,Bujari/AC,-9.8309656,-67.9520886,97,944.86655
D1,Bujari/AC,-9.8309656,-67.9520886,1,9.74089
1,Bujaru/PA,-1.5169239,-48.0410699,182,624.74255
D1,Bujaru/PA,-1.5169239,-48.0410699,18,61.78772
1,Buri/SP,-23.79849,-48.598924,11,55.33756
1,Buritama/SP,-21.0664017,-50.1448077,21,122.49183
1,Buriti Alegre/GO,-18.1377879,-49.0404411,1,10.57194
1,Buriti Bravo/MA,-5.8391884,-43.8367876,8,33.49523
1,Buriti do Tocantins/TO,-5.3187439,-48.2256609,35,308.42439
1,Buriti dos Lopes/PI,-3.1776723,-41.8707444,100,505.53561
D1,Buriti dos Lopes/PI,-3.1776723,-41.8707444,2,10.11071
1,Buriti dos Montes/PI,-5.3136171,-41.0971256,4,48.52014
D1,Buriti dos Montes/PI,-5.3136171,-41.0971256,1,12.13003
1,Buriti/MA,-3.9430944,-42.9244281,176,613.71086
1,Buriticupu/MA,-4.3227472,-46.4516989,891,1231.37732
D1,Buriticupu/MA,-4.3227472,-46.4516989,3,4.14605
1,Buritirama/BA,-10.7148421,-43.6362327,12,56.67328
1,Buritirana/MA,-5.5897455,-47.0148915,151,978.61309
D1,Buritirana/MA,-5.5897455,-47.0148915,3,19.44264
1,Buritis/MG,-15.621389,-46.423889,16,64.40965
1,Buritis/RO,-10.2054937,-63.8281954,73,184.09240
D1,Buritis/RO,-10.2054937,-63.8281954,2,5.04363
1,Buritizal/SP,-20.1933264,-47.7097165,4,89.26579
1,Buritizeiro/MG,-17.3667765,-44.9647781,10,35.64300
1,Butiá/RS,-30.1256795,-51.9692224,3,14.32596
1,Buíque/PE,-8.6239732,-37.157296,34,58.24112
D1,Buíque/PE,-8.6239732,-37.157296,1,1.71297
1,Bálsamo/SP,-20.7343722,-49.5807484,9,99.25011
0,CASO SEM LOCALIZAÇÃO DEFINIDA/AL,-9.931093434363673,-35.609611600637464,83,2.48700
D0,CASO SEM LOCALIZAÇÃO DEFINIDA/AL,-9.931093434363673,-35.609611600637464,5,0.14982
0,CASO SEM LOCALIZAÇÃO DEFINIDA/AM,-3.07518492149711,-60.16169212873594,271,6.53863
D0,CASO SEM LOCALIZAÇÃO DEFINIDA/AM,-3.07518492149711,-60.16169212873594,20,0.48256
0,CASO SEM LOCALIZAÇÃO DEFINIDA/AP,2.677150600275196,-50.477785111870624,301,35.59051
D0,CASO SEM LOCALIZAÇÃO DEFINIDA/AP,2.677150600275196,-50.477785111870624,5,0.59120
0,CASO SEM LOCALIZAÇÃO DEFINIDA/BA,-13.415069300066518,-38.14174656569957,1630,10.95941
D0,CASO SEM LOCALIZAÇÃO DEFINIDA/BA,-13.415069300066518,-38.14174656569957,44,0.29584
0,CASO SEM LOCALIZAÇÃO DEFINIDA/CE,-3.3445126297392798,-38.624961942434304,2149,23.53243
D0,CASO SEM LOCALIZAÇÃO DEFINIDA/CE,-3.3445126297392798,-38.624961942434304,42,0.45992
0,CASO SEM LOCALIZAÇÃO DEFINIDA/ES,-20.30989267097039,-39.81745156645774,366,9.10754
D0,CASO SEM LOCALIZAÇÃO DEFINIDA/ES,-20.30989267097039,-39.81745156645774,5,0.12442
0,CASO SEM LOCALIZAÇÃO DEFINIDA/GO,-16.701590966270153,-49.164524059025034,129,1.83804
0,CASO SEM LOCALIZAÇÃO DEFINIDA/MG,-19.97049116501593,-43.8852149072783,378,1.78565
D0,CASO SEM LOCALIZAÇÃO DEFINIDA/MG,-19.97049116501593,-43.8852149072783,13,0.06141
0,CASO SEM LOCALIZAÇÃO DEFINIDA/MT,-15.54791153961863,-56.17143998972475,352,10.10198
D0,CASO SEM LOCALIZAÇÃO DEFINIDA/MT,-15.54791153961863,-56.17143998972475,14,0.40178
0,CASO SEM LOCALIZAÇÃO DEFINIDA/PE,-8.121628543819208,-34.57313921302556,335,3.50526
D0,CASO SEM LOCALIZAÇÃO DEFINIDA/PE,-8.121628543819208,-34.57313921302556,51,0.53364
0,CASO SEM LOCALIZAÇÃO DEFINIDA/PI,-2.683810218391744,-41.470898009352254,524,16.00867
D0,CASO SEM LOCALIZAÇÃO DEFINIDA/PI,-2.683810218391744,-41.470898009352254,19,0.58047
0,CASO SEM LOCALIZAÇÃO DEFINIDA/PR,-25.69415946385943,-48.10141676336737,123,1.07574
D0,CASO SEM LOCALIZAÇÃO DEFINIDA/PR,-25.69415946385943,-48.10141676336737,8,0.06997
0,CASO SEM LOCALIZAÇÃO DEFINIDA/RN,-5.749310788669161,-34.95302586257457,467,13.31678
D0,CASO SEM LOCALIZAÇÃO DEFINIDA/RN,-5.749310788669161,-34.95302586257457,25,0.71289
0,CASO SEM LOCALIZAÇÃO DEFINIDA/RO,-8.681174926655274,-63.9216949899276,315,17.72426
D0,CASO SEM LOCALIZAÇÃO DEFINIDA/RO,-8.681174926655274,-63.9216949899276,8,0.45014
0,CASO SEM LOCALIZAÇÃO DEFINIDA/RR,2.813328208465927,-60.663338675861986,142,23.44159
D0,CASO SEM LOCALIZAÇÃO DEFINIDA/RR,2.813328208465927,-60.663338675861986,15,2.47622
0,CASO SEM LOCALIZAÇÃO DEFINIDA/SC,-27.675643660562308,-48.18313219398259,223,3.11244
0,CASO SEM LOCALIZAÇÃO DEFINIDA/SE,-11.03002091978736,-36.89283180376513,1707,74.25949
D0,CASO SEM LOCALIZAÇÃO DEFINIDA/SE,-11.03002091978736,-36.89283180376513,22,0.95706
0,CASO SEM LOCALIZAÇÃO DEFINIDA/SP,-24.30968974555485,-46.21366504207253,103,0.22431
1,Caapiranga/AM,-3.3188884,-61.2096404,129,986.16314
D1,Caapiranga/AM,-3.3188884,-61.2096404,2,15.28935
1,Caaporã/PB,-7.510234,-34.9154114,601,2753.34433
D1,Caaporã/PB,-7.510234,-34.9154114,8,36.65017
1,Caarapó/MS,-22.6349267,-54.8240903,5,16.57056
1,Caatiba/BA,-14.9782759,-40.4092325,7,103.58094
1,Cabaceiras do Paraguaçu/BA,-12.5377868,-39.1901339,3,15.95151
1,Cabaceiras/PB,-7.4899156,-36.2860501,7,124.75495
1,Cabeceiras do Piauí/PI,-4.4733665,-42.3098716,3,28.33932
1,Cabeceiras/GO,-15.7995459,-46.9264991,2,25.02189
D1,Cabeceiras/GO,-15.7995459,-46.9264991,1,12.51095
1,Cabedelo/PB,-6.97324,-34.8351609,1428,2108.18472
D1,Cabedelo/PB,-6.97324,-34.8351609,11,16.23952
1,Cabixi/RO,-13.4956065,-60.5424442,3,56.47590
1,Cabo Frio/RJ,-22.8804369,-42.0189227,563,248.53769
D1,Cabo Frio/RJ,-22.8804369,-42.0189227,26,11.47776
1,Cabo de Santo Agostinho/PE,-8.2838945,-35.0320984,809,390.73065
D1,Cabo de Santo Agostinho/PE,-8.2838945,-35.0320984,122,58.92353
1,Cabreúva/SP,-23.3075813,-47.1324417,124,249.46185
D1,Cabreúva/SP,-23.3075813,-47.1324417,4,8.04716
1,Cabrobó/PE,-8.5083701,-39.3106961,5,14.61091
D1,Cabrobó/PE,-8.5083701,-39.3106961,1,2.92218
1,Cabrália Paulista/SP,-22.4562909,-49.3385645,2,46.90432
1,Cacaulândia/RO,-10.3380043,-62.9007231,13,208.66774
1,Cachoeira Alta/GO,-18.7618269,-50.9432431,10,80.10253
1,Cachoeira Dourada/GO,-18.4934204,-49.481062,3,37.18855
1,Cachoeira Dourada/MG,-18.517136,-49.5002062,2,74.29421
1,Cachoeira Grande/MA,-2.9290492,-44.0573223,34,360.51320
D1,Cachoeira Grande/MA,-2.9290492,-44.0573223,2,21.20666
1,Cachoeira Paulista/SP,-22.666498,-45.015384,16,48.00912
D1,Cachoeira Paulista/SP,-22.666498,-45.015384,1,3.00057
1,Cachoeira de Minas/MG,-22.3554043,-45.7796324,1,8.66026
1,Cachoeira de Pajeú/MG,-15.965833,-41.496666,2,21.24947
1,Cachoeira do Arari/PA,-1.0143572,-48.9621089,92,387.09135
D1,Cachoeira do Arari/PA,-1.0143572,-48.9621089,9,37.86763
1,Cachoeira do Piriá/PA,-1.7599443,-46.5446954,115,339.23304
1,Cachoeira do Sul/RS,-30.0474778,-52.8905413,66,80.29099
1,Cachoeira dos Índios/PB,-6.9259193,-38.6742159,21,204.99805
D1,Cachoeira dos Índios/PB,-6.9259193,-38.6742159,1,9.76181
1,Cachoeira/BA,-12.5998256,-38.9665918,18,53.77950
1,Cachoeiras de Macacu/RJ,-22.4626861,-42.6534414,190,322.37813
D1,Cachoeiras de Macacu/RJ,-22.4626861,-42.6534414,18,30.54109
1,Cachoeirinha/PE,-8.4906364,-36.2338963,56,274.77920
D1,Cachoeirinha/PE,-8.4906364,-36.2338963,3,14.72031
1,Cachoeirinha/RS,-29.9493353,-51.0898927,168,128.94016
D1,Cachoeirinha/RS,-29.9493353,-51.0898927,1,0.76750
1,Cachoeirinha/TO,-6.118647,-47.9208885,9,395.60440
1,Cachoeiro de Itapemirim/ES,-20.848084,-41.11129,844,403.88186
D1,Cachoeiro de Itapemirim/ES,-20.848084,-41.11129,28,13.39892
1,Cacimba de Areia/PB,-7.1288513,-37.1575194,5,135.79576
1,Cacimba de Dentro/PB,-6.6425101,-35.7929304,36,209.46064
1,Cacimbas/PB,-7.2125451,-37.0593398,24,334.58804
D1,Cacimbas/PB,-7.2125451,-37.0593398,1,13.94117
1,Cacimbinhas/AL,-9.401212,-36.991082,27,248.66458
D1,Cacimbinhas/AL,-9.401212,-36.991082,2,18.41960
1,Cacique Doble/RS,-27.7700117,-51.6616409,2,39.48667
1,Cacoal/RO,-11.4333,-61.4420502,148,173.38535
D1,Cacoal/RO,-11.4333,-61.4420502,2,2.34305
1,Caconde/SP,-21.527995,-46.643659,2,10.53463
1,Caculé/BA,-14.4990734,-42.2233006,1,4.31593
D1,Caculé/BA,-14.4990734,-42.2233006,1,4.31593
1,Caetanos/BA,-14.3387456,-40.9085971,2,13.75327
1,Caetanópolis/MG,-19.2947496,-44.4138386,4,34.41156
1,Caetité/BA,-14.0691776,-42.4852428,16,31.38794
1,Caeté/MG,-19.897777,-43.670278,26,58.14214
1,Caetés/PE,-8.7728788,-36.6255835,56,194.85716
D1,Caetés/PE,-8.7728788,-36.6255835,2,6.95918
1,Cafeara/PR,-22.78905,-51.714195,1,34.08316
1,Cafelândia/PR,-24.6176963,-53.3218057,5,27.59382
D1,Cafelândia/PR,-24.6176963,-53.3218057,1,5.51876
1,Cafelândia/SP,-21.8054355,-49.6030627,1,5.62841
1,Cafezal do Sul/PR,-23.900508,-53.512418,1,24.72799
1,Caiabu/SP,-22.0143038,-51.2356597,5,119.30327
D1,Caiabu/SP,-22.0143038,-51.2356597,1,23.86065
1,Caiana/MG,-20.695555,-41.924723,1,18.19505
1,Caiapônia/GO,-16.9538779,-51.8090761,2,10.57474
1,Caibi/SC,-27.0751925,-53.2502133,8,130.12362
1,Caicó/RN,-6.4594544,-37.0971911,137,201.61290
D1,Caicó/RN,-6.4594544,-37.0971911,2,2.94325
1,Caieiras/SP,-23.3644621,-46.7484765,456,449.39391
D1,Caieiras/SP,-23.3644621,-46.7484765,40,39.42052
1,Cairu/BA,-13.4860505,-39.0455744,28,154.04930
D1,Cairu/BA,-13.4860505,-39.0455744,1,5.50176
1,Caiuá/SP,-21.8319357,-51.9887179,3,51.07252
1,Caiçara do Norte/RN,-5.0645017,-36.0561226,18,274.85112
D1,Caiçara do Norte/RN,-5.0645017,-36.0561226,1,15.26951
1,Caiçara do Rio do Vento/RN,-5.757968,-36.00089,26,705.75461
D1,Caiçara do Rio do Vento/RN,-5.757968,-36.00089,1,27.14441
1,Caiçara/PB,-6.6146866,-35.4681434,46,638.80017
D1,Caiçara/PB,-6.6146866,-35.4681434,1,13.88696
1,Cajamar/SP,-23.3561111,-46.8769444,471,613.27326
D1,Cajamar/SP,-23.3561111,-46.8769444,32,41.66612
1,Cajapió/MA,-2.8778715,-44.6746871,4,35.78778
D1,Cajapió/MA,-2.8778715,-44.6746871,1,8.94694
1,Cajari/MA,-3.3213076,-45.0118757,112,577.94520
D1,Cajari/MA,-3.3213076,-45.0118757,1,5.16022
1,Cajati/SP,-24.7272376,-48.1077914,33,115.59074
1,Cajazeiras do Piauí/PI,-6.794271,-42.3935024,1,28.09778
1,Cajazeiras/PB,-6.8897849,-38.5570389,239,385.52740
D1,Cajazeiras/PB,-6.8897849,-38.5570389,7,11.29160
1,Cajazeirinhas/PB,-6.961442,-37.7993733,1,31.31851
1,Cajobi/SP,-20.8776238,-48.8106972,9,85.37279
D1,Cajobi/SP,-20.8776238,-48.8106972,1,9.48587
1,Cajueiro da Praia/PI,-2.931114,-41.340801,24,314.05391
D1,Cajueiro da Praia/PI,-2.931114,-41.340801,1,13.08558
1,Cajueiro/AL,-9.399589,-36.1524309,58,272.76147
D1,Cajueiro/AL,-9.399589,-36.1524309,2,9.40557
1,Cajuri/MG,-20.7901414,-42.7954489,10,250.81515
1,Cajuru/SP,-21.2759978,-47.3046035,7,26.75125
D1,Cajuru/SP,-21.2759978,-47.3046035,1,3.82161
1,Caldas Brandão/PB,-7.1027959,-35.3254676,28,465.58031
D1,Caldas Brandão/PB,-7.1027959,-35.3254676,2,33.25574
1,Caldas Novas/GO,-17.745,-48.625,42,46.07183
D1,Caldas Novas/GO,-17.745,-48.625,3,3.29084
1,Caldas/MG,-21.923611,-46.386111,14,96.68508
1,Caldazinha/GO,-16.7116649,-49.0012601,1,26.28812
1,Caldeirão Grande do Piauí/PI,-7.3310393,-40.6374433,4,69.25208
1,Caldeirão Grande/BA,-11.0208483,-40.3041387,6,45.02139
1,Califórnia/PR,-23.6672543,-51.3554556,1,11.66861
1,Calumbi/PE,-7.9389746,-38.1516871,5,86.95652
1,Calçado/PE,-8.7413446,-36.3351787,9,81.42586
1,Calçoene/AP,2.4981757,-50.9539503,245,2203.83197
D1,Calçoene/AP,2.4981757,-50.9539503,2,17.99047
1,Camacan/BA,-15.4166631,-39.4930088,160,500.18757
D1,Camacan/BA,-15.4166631,-39.4930088,1,3.12617
1,Camamu/BA,-13.9438142,-39.1060917,14,39.64209
D1,Camamu/BA,-13.9438142,-39.1060917,1,2.83158
1,Camanducaia/MG,-22.755278,-46.144444,70,321.54341
D1,Camanducaia/MG,-22.755278,-46.144444,1,4.59348
1,Camapuã/MS,-19.5291747,-54.0434641,3,21.88024
1,Camaquã/RS,-30.8524752,-51.8075619,24,36.22040
D1,Camaquã/RS,-30.8524752,-51.8075619,1,1.50918
1,Camaragibe/PE,-8.0213832,-34.9810768,1109,702.66366
D1,Camaragibe/PE,-8.0213832,-34.9810768,85,53.85610
1,Camargo/RS,-28.5865661,-52.2031474,14,512.25759
1,Camaçari/BA,-12.6998188,-38.3260762,554,185.20252
D1,Camaçari/BA,-12.6998188,-38.3260762,12,4.01161
1,Cambará do Sul/RS,-29.0489517,-50.145412,2,31.09936
1,Cambará/PR,-23.042273,-50.075281,10,39.43218
1,Camboriú/SC,-27.0273601,-48.6535657,245,295.21985
D1,Camboriú/SC,-27.0273601,-48.6535657,5,6.02489
1,Cambuci/RJ,-21.5749919,-41.9107833,42,270.88036
1,Cambuquira/MG,-21.853056,-45.2953619,3,23.41189
1,Cambuí/MG,-22.6122501,-46.0572137,41,138.74319
1,Cambé/PR,-23.2782035,-51.2779583,85,79.78748
D1,Cambé/PR,-23.2782035,-51.2779583,4,3.75471
1,Cametá/PA,-2.242949,-49.497885,2267,1644.06411
D1,Cametá/PA,-2.242949,-49.497885,69,50.03989
1,Camocim de São Félix/PE,-8.3616757,-35.7638903,46,245.13722
D1,Camocim de São Félix/PE,-8.3616757,-35.7638903,1,5.32907
1,Camocim/CE,-2.9009918,-40.8427389,723,1135.70318
D1,Camocim/CE,-2.9009918,-40.8427389,32,50.26625
1,Campanha/MG,-21.8361108,-45.401986,4,24.00240
1,Campestre da Serra/RS,-28.7966535,-51.0958149,4,118.06375
1,Campestre de Goiás/GO,-16.7624179,-49.69497,1,27.54821
1,Campestre do Maranhão/MA,-6.1729113,-47.3640512,121,841.79769
D1,Campestre do Maranhão/MA,-6.1729113,-47.3640512,1,6.95701
1,Campestre/AL,-8.8481634,-35.5660033,30,432.52595
D1,Campestre/AL,-8.8481634,-35.5660033,3,43.25260
1,Campestre/MG,-19.6142116,-43.219378,1,4.74947
1,Campina Grande do Sul/PR,-25.3046032,-49.0545355,88,203.28960
D1,Campina Grande do Sul/PR,-25.3046032,-49.0545355,5,11.55055
1,Campina Grande/PB,-7.2246743,-35.8771292,4297,1048.73685
D1,Campina Grande/PB,-7.2246743,-35.8771292,56,13.66750
1,Campina Verde/MG,-19.535277,-49.486389,11,55.71031
1,Campina da Lagoa/PR,-24.5937926,-52.8038965,4,28.16505
D1,Campina da Lagoa/PR,-24.5937926,-52.8038965,1,7.04126
1,Campina do Monte Alegre/SP,-23.5935653,-48.4801876,23,381.80611
1,Campinas do Piauí/PI,-7.6593687,-41.8814875,4,71.26314
1,Campinas do Sul/RS,-27.7167968,-52.6257885,6,110.01100
1,Campinas/SP,-22.90556,-47.06083,3884,322.57180
D1,Campinas/SP,-22.90556,-47.06083,149,12.37466
1,Campinorte/GO,-14.3136699,-49.1510931,12,95.04198
1,Campinápolis/MT,-14.5403731,-52.7970626,4,25.03129
1,Campo Alegre de Goiás/GO,-17.6337896,-47.779291,2,26.35393
1,Campo Alegre de Lourdes/BA,-9.5160326,-43.0101338,27,93.75651
D1,Campo Alegre de Lourdes/BA,-9.5160326,-43.0101338,1,3.47246
1,Campo Alegre do Fidalgo/PI,-8.3753852,-41.8364191,1,19.82161
1,Campo Alegre/AL,-9.7798607,-36.3575793,105,184.00715
D1,Campo Alegre/AL,-9.7798607,-36.3575793,1,1.75245
1,Campo Alegre/SC,-26.1941684,-49.2657484,1,8.34864
1,Campo Belo/MG,-20.8975,-45.277223,32,59.22745
D1,Campo Belo/MG,-20.8975,-45.277223,2,3.70172
1,Campo Bom/RS,-29.674694,-51.060601,62,92.93680
D1,Campo Bom/RS,-29.674694,-51.060601,1,1.49898
1,Campo Bonito/PR,-25.0328004,-52.992976,20,521.78450
1,Campo Erê/SC,-26.3947432,-53.0790495,2,23.45766
1,Campo Florido/MG,-19.760833,-48.572223,1,12.26843
1,Campo Formoso/BA,-10.51055,-40.320031,13,18.25689
1,Campo Grande do Piauí/PI,-7.1327559,-41.0381164,31,521.62208
1,Campo Grande/AL,-9.9725,-36.74791447368421,32,334.79807
D1,Campo Grande/AL,-9.9725,-36.74791447368421,1,10.46244
1,Campo Grande/MS,-20.4640173,-54.6162947,720,80.35876
D1,Campo Grande/MS,-20.4640173,-54.6162947,8,0.89288
1,Campo Largo do Piauí/PI,-3.8104731,-42.6288333,2,27.47630
D1,Campo Largo do Piauí/PI,-3.8104731,-42.6288333,1,13.73815
1,Campo Largo/PR,-25.4597726,-49.5270851,100,75.75643
D1,Campo Largo/PR,-25.4597726,-49.5270851,2,1.51513
1,Campo Limpo Paulista/SP,-23.207791,-46.788919,152,179.56291
D1,Campo Limpo Paulista/SP,-23.207791,-46.788919,15,17.72002
1,Campo Limpo de Goiás/GO,-16.297101,-49.0894994,2,25.67724
1,Campo Magro/PR,-25.3691533,-49.4496921,14,47.75223
D1,Campo Magro/PR,-25.3691533,-49.4496921,1,3.41087
1,Campo Maior/PI,-4.8339574,-42.1739786,298,636.30346
D1,Campo Maior/PI,-4.8339574,-42.1739786,7,14.94673
1,Campo Mourão/PR,-24.046329,-52.37802,76,80.11891
D1,Campo Mourão/PR,-24.046329,-52.37802,4,4.21678
1,Campo Novo de Rondônia/RO,-10.5704235,-63.6199511,23,162.67063
D1,Campo Novo de Rondônia/RO,-10.5704235,-63.6199511,2,14.14527
1,Campo Novo do Parecis/MT,-13.658735,-57.890723,60,169.68326
1,Campo Novo/RS,-28.91500235,-52.331375687737626,1,22.30152
1,Campo Redondo/RN,-6.2420373,-36.1830606,15,133.72560
1,Campo Verde/MT,-15.5430787,-55.1590511,136,308.80316
1,Campo do Brito/SE,-10.7496246,-37.4942276,21,115.96444
D1,Campo do Brito/SE,-10.7496246,-37.4942276,1,5.52212
1,Campo do Tenente/PR,-25.9814143,-49.684518,2,25.09095
D1,Campo do Tenente/PR,-25.9814143,-49.684518,1,12.54548
1,Campos Altos/MG,-19.696389,-46.171389,15,97.01830
1,Campos Belos/GO,-13.0349839,-46.768112,23,115.65344
D1,Campos Belos/GO,-13.0349839,-46.768112,1,5.02841
1,Campos Gerais/MG,-21.2333342,-45.7584127,6,20.85216
1,Campos Lindos/TO,-7.9740597,-46.8023881,3,29.65599
1,Campos Novos/SC,-27.3962904,-51.2224397,9,24.83170
1,Campos Sales/CE,-7.0742675,-40.3740367,80,291.69401
D1,Campos Sales/CE,-7.0742675,-40.3740367,2,7.29235
1,Campos de Júlio/MT,-13.7223646,-59.2645296,15,217.67523
1,Campos do Jordão/SP,-22.7395263,-45.5912829,74,142.06727
D1,Campos do Jordão/SP,-22.7395263,-45.5912829,1,1.91983
1,Campos dos Goytacazes/RJ,-21.7558619,-41.3326895,1215,239.38623
D1,Campos dos Goytacazes/RJ,-21.7558619,-41.3326895,59,11.62452
1,Camutanga/PE,-7.4092965,-35.2738166,29,339.14162
D1,Camutanga/PE,-7.4092965,-35.2738166,3,35.08362
1,Cana Verde/MG,-21.021308,-45.1817881,11,196.32340
1,Canabrava do Norte/MT,-11.0516481,-51.8301897,16,337.33924
1,Cananéia/SP,-25.0104609,-47.9315628,20,159.48963
D1,Cananéia/SP,-25.0104609,-47.9315628,2,15.94896
1,Canapi/AL,-9.1173572,-37.6011704,6,33.85622
D1,Canapi/AL,-9.1173572,-37.6011704,1,5.64270
1,Canarana/BA,-11.6870151,-41.7683675,16,61.12469
1,Canarana/MT,-13.5564602,-52.2691167,28,129.75578
1,Canas/SP,-22.7029347,-45.0526508,1,19.46283
1,Canavieiras/BA,-15.61621745,-39.08485321304444,29,93.25059
D1,Canavieiras/BA,-15.61621745,-39.08485321304444,1,3.21554
1,Canaã dos Carajás/PA,-6.5296837,-49.8516592,1624,4379.12903
D1,Canaã dos Carajás/PA,-6.5296837,-49.8516592,19,51.23365
1,Candeal/BA,-11.8053441,-39.1206515,7,84.76629
1,Candeias do Jamari/RO,-8.7949939,-63.7018851,319,1195.06987
D1,Candeias do Jamari/RO,-8.7949939,-63.7018851,6,22.47780
1,Candeias/BA,-12.6693806,-38.5406462,386,443.29092
D1,Candeias/BA,-12.6693806,-38.5406462,11,12.63264
1,Candeias/MG,-20.7676161,-45.2763777,6,40.30633
1,Candelária/RS,-29.668391,-52.789495,8,25.50614
1,Candiba/BA,-14.4125032,-42.8714102,4,27.93491
1,Candiota/RS,-31.5451894,-53.719538,1,10.43406
1,Candói/PR,-25.5711951,-52.051107,4,25.03286
1,Canela/RS,-29.3624657,-50.8134204,22,48.89106
D1,Canela/RS,-29.3624657,-50.8134204,1,2.22232
1,Canelinha/SC,-27.2660341,-48.7666708,31,253.26797
1,Canguaretama/RN,-6.3751942,-35.137463,67,195.47205
D1,Canguaretama/RN,-6.3751942,-35.137463,7,20.42245
1,Canguçu/RS,-31.398276,-52.6773522,27,48.17557
1,Canhoba/SE,-10.1373681,-36.9710796,3,74.85030
1,Canhotinho/PE,-8.876519,-36.197935,36,145.13788
D1,Canhotinho/PE,-8.876519,-36.197935,1,4.03161
1,Canindé de São Francisco/SE,-9.6597475,-37.7904456,52,173.91304
D1,Canindé de São Francisco/SE,-9.6597475,-37.7904456,2,6.68896
1,Canindé/CE,-4.3547946,-39.3108516,822,1067.57406
D1,Canindé/CE,-4.3547946,-39.3108516,26,33.76755
1,Canoas/RS,-29.9216045,-51.1799525,215,62.02830
D1,Canoas/RS,-29.9216045,-51.1799525,7,2.01953
1,Canoinhas/SC,-26.176591,-50.395001,100,183.82015
1,Cansanção/BA,-10.6671448,-39.498199,22,63.15669
D1,Cansanção/BA,-10.6671448,-39.498199,1,2.87076
1,Cantagalo/PR,-25.3735238,-52.1238114,10,75.09199
D1,Cantagalo/PR,-25.3735238,-52.1238114,1,7.50920
1,Cantagalo/RJ,-21.9811325,-42.3682522,8,39.65893
D1,Cantagalo/RJ,-21.9811325,-42.3682522,1,4.95737
1,Cantanhede/MA,-3.6355005,-44.3778738,206,936.57649
D1,Cantanhede/MA,-3.6355005,-44.3778738,1,4.54649
1,Canto do Buriti/PI,-8.1112473,-42.944844,7,33.03913
D1,Canto do Buriti/PI,-8.1112473,-42.944844,1,4.71988
1,Cantá/RR,2.60994,-60.605827,235,1281.70166
D1,Cantá/RR,2.60994,-60.605827,4,21.81620
1,Canudos do Vale/RS,-29.3240418,-52.2348494,4,233.10023
1,Canudos/BA,-9.8948692,-39.0266244,13,77.99376
1,Canutama/AM,-6.5330019,-64.3834966,48,307.12138
1,Canápolis/MG,-18.7228793,-49.2016329,6,49.38272
1,Capanema/PA,-1.1933054,-47.1828679,542,785.19999
D1,Capanema/PA,-1.1933054,-47.1828679,46,66.64059
1,Capanema/PR,-25.6704878,-53.8083036,5,26.14516
1,Caparaó/MG,-20.5232726,-41.9049984,1,18.38911
1,Capela Nova/MG,-20.9236773,-43.6179487,1,21.49151
1,Capela de Santana/RS,-29.6926603,-51.3206659,1,8.37521
1,Capela do Alto Alegre/BA,-11.6703944,-39.8362745,2,17.18656
1,Capela do Alto/SP,-23.4704798,-47.7352309,56,270.45301
1,Capela/AL,-9.415041,-36.082583,229,1342.87222
D1,Capela/AL,-9.415041,-36.082583,1,5.86407
1,Capela/SE,-10.50494,-37.0552566,62,181.21767
D1,Capela/SE,-10.50494,-37.0552566,1,2.92287
1,Capetinga/MG,-20.6193382,-47.0577418,2,28.90173
1,Capim Branco/MG,-19.548333,-44.133056,5,51.26102
1,Capim Grosso/BA,-11.3793228,-40.0112095,31,101.10234
D1,Capim Grosso/BA,-11.3793228,-40.0112095,3,9.78410
1,Capim/PB,-6.9174091,-35.1720326,65,996.47402
D1,Capim/PB,-6.9174091,-35.1720326,2,30.66074
1,Capinzal do Norte/MA,-4.7304006,-44.3249063,159,1454.17962
1,Capinzal/SC,-27.3440651,-51.6110403,4,17.50700
1,Capinópolis/MG,-18.682778,-49.569723,18,111.29661
1,Capistrano/CE,-4.4644692,-38.8956734,268,1510.88060
D1,Capistrano/CE,-4.4644692,-38.8956734,6,33.82568
1,Capitão Enéas/MG,-16.3236018,-43.7154584,15,98.46396
D1,Capitão Enéas/MG,-16.3236018,-43.7154584,1,6.56426
1,Capitão Gervásio Oliveira/PI,-8.4954657,-41.8169342,3,73.17073
1,Capitão Leônidas Marques/PR,-25.481645,-53.611238,4,25.34854
1,Capitão Poço/PA,-1.7447162,-47.0638495,342,629.79946
D1,Capitão Poço/PA,-1.7447162,-47.0638495,21,38.67190
1,Capitão de Campos/PI,-4.4584198,-41.9415301,17,148.90076
1,Capitão/RS,-29.2718294,-51.9869716,11,398.98440
1,Capitólio/MG,-20.6142437,-46.0487652,2,23.16960
D1,Capitólio/MG,-20.6142437,-46.0487652,2,23.16960
1,Capivari de Baixo/SC,-28.449773,-48.963144,48,192.99586
1,Capivari/SP,-22.995144,-47.50715,81,145.24458
1,Capixaba/AC,-10.5741345,-67.6759719,98,835.25100
D1,Capixaba/AC,-10.5741345,-67.6759719,2,17.04594
1,Capoeiras/PE,-8.7386788,-36.6268109,16,79.80846
D1,Capoeiras/PE,-8.7386788,-36.6268109,2,9.97606
1,Capão Bonito/SP,-24.0048759,-48.3489848,33,70.00721
D1,Capão Bonito/SP,-24.0048759,-48.3489848,4,8.48572
1,Capão da Canoa/RS,-29.7542937,-50.0215684,33,62.20664
D1,Capão da Canoa/RS,-29.7542937,-50.0215684,1,1.88505
1,Capão do Leão/RS,-31.766133,-52.5013148,4,15.77660
1,Caracaraí/RR,1.827598,-61.125389,32,145.94545
D1,Caracaraí/RR,1.827598,-61.125389,1,4.56080
1,Caracol/MS,-22.0169949,-57.0298349,4,65.40222
1,Caracol/PI,-9.2804898,-43.3284924,2,18.32173
1,Caraguatatuba/SP,-23.62028,-45.41306,241,198.30168
D1,Caraguatatuba/SP,-23.62028,-45.41306,10,8.22829
1,Carambeí/PR,-24.9513298,-50.1171293,13,55.51997
D1,Carambeí/PR,-24.9513298,-50.1171293,2,8.54153
1,Caranaíba/MG,-20.8736914,-43.7379458,3,94.25071
1,Carandaí/MG,-20.9523934,-43.8043903,22,86.27113
1,Carangola/MG,-20.733056,-42.029445,110,333.33333
D1,Carangola/MG,-20.733056,-42.029445,2,6.06061
1,Carapebus/RJ,-22.1869969,-41.6633764,60,368.07558
D1,Carapebus/RJ,-22.1869969,-41.6633764,1,6.13459
1,Carapicuíba/SP,-23.5234673,-46.8406808,1657,413.29220
D1,Carapicuíba/SP,-23.5234673,-46.8406808,111,27.68584
1,Caratinga/MG,-19.7900887,-42.140533,69,74.94949
D1,Caratinga/MG,-19.7900887,-42.140533,4,4.34490
1,Carauari/AM,-4.8766426,-66.8961433,369,1304.16343
D1,Carauari/AM,-4.8766426,-66.8961433,4,14.13727
1,Caravelas/BA,-17.7296514,-39.2660082,4,18.16860
1,Carazinho/RS,-28.2981634,-52.7942363,54,86.94252
1,Caraá/RS,-29.7900698,-50.4302307,2,24.18380
1,Caraí/MG,-17.1884104,-41.6976554,2,8.44416
1,Caraíbas/BA,-14.72496,-41.2566163,3,33.51581
1,Caraúbas do Piauí/PI,-3.4757229,-41.8431178,15,255.62372
1,Caraúbas/PB,-7.7273231,-36.4923357,2,48.05382
1,Caraúbas/RN,-5.7889323,-37.5548751,89,434.29464
1,Carbonita/MG,-17.5308667,-43.0136207,1,10.63264
1,Cardeal da Silva/BA,-11.9428154,-37.9494462,7,75.30931
1,Cardoso Moreira/RJ,-21.4894916,-41.6152776,44,343.13343
1,Cardoso/SP,-20.080447,-49.9139767,2,16.22586
1,Careaçu/MG,-22.0440585,-45.6949091,1,14.79947
1,Careiro da Várzea/AM,-3.197024,-59.8259104,56,185.27709
D1,Careiro da Várzea/AM,-3.197024,-59.8259104,4,13.23408
1,Careiro/AM,-3.8185277,-60.3616505,855,2257.78341
D1,Careiro/AM,-3.8185277,-60.3616505,13,34.32887
1,Cariacica/ES,-20.263202,-40.416549,3430,899.58955
D1,Cariacica/ES,-20.263202,-40.416549,168,44.06153
1,Caridade do Piauí/PI,-7.7331063,-40.9883665,1,19.73554
1,Caridade/CE,-4.2316487,-39.1946515,142,629.79554
D1,Caridade/CE,-4.2316487,-39.1946515,11,48.78698
1,Carinhanha/BA,-14.298524,-43.772349,1,3.44614
1,Carira/SE,-10.358303,-37.701473,17,76.98578
D1,Carira/SE,-10.358303,-37.701473,2,9.05715
1,Cariri do Tocantins/TO,-11.8882727,-49.1604216,57,1300.77590
D1,Cariri do Tocantins/TO,-11.8882727,-49.1604216,1,22.82063
1,Caririaçu/CE,-7.0417053,-39.2835527,31,114.96384
D1,Caririaçu/CE,-7.0417053,-39.2835527,3,11.12553
1,Cariré/CE,-3.948584,-40.476028,151,818.51691
D1,Cariré/CE,-3.948584,-40.476028,3,16.26193
1,Cariús/CE,-6.5348688,-39.4966658,43,229.95882
D1,Cariús/CE,-6.5348688,-39.4966658,2,10.69576
1,Carlos Barbosa/RS,-29.2978372,-51.5005613,221,740.79040
D1,Carlos Barbosa/RS,-29.2978372,-51.5005613,4,13.40797
1,Carlos Chagas/MG,-21.744351,-43.3908675,3,15.92610
1,Carlópolis/PR,-23.4224762,-49.7194008,17,118.71508
1,Carmo da Cachoeira/MG,-21.460556,-45.223334,4,32.86771
1,Carmo da Mata/MG,-20.558334,-44.8703774,1,8.71384
1,Carmo de Minas/MG,-22.1216655,-45.1323836,1,6.72993
1,Carmo do Cajuru/MG,-20.184444,-44.770834,53,235.78610
D1,Carmo do Cajuru/MG,-20.184444,-44.770834,2,8.89759
1,Carmo do Paranaíba/MG,-18.9992327,-46.306916,37,121.99545
1,Carmo do Rio Claro/MG,-20.973315,-46.1186754,10,47.11425
D1,Carmo do Rio Claro/MG,-20.973315,-46.1186754,1,4.71143
1,Carmo do Rio Verde/GO,-15.3549139,-49.707975,4,39.67467
1,Carmo/RJ,-21.9341749,-42.6091737,48,254.03546
D1,Carmo/RJ,-21.9341749,-42.6091737,2,10.58481
1,Carmolândia/TO,-7.033804,-48.3951295,8,310.07752
D1,Carmolândia/TO,-7.033804,-48.3951295,1,38.75969
1,Carmópolis de Minas/MG,-20.541224,-44.6350611,19,98.16585
1,Carmópolis/SE,-10.64835,-36.98493,41,246.48311
D1,Carmópolis/SE,-10.64835,-36.98493,1,6.01178
1,Carnaubais/RN,-5.3383681,-36.8335566,26,241.65815
D1,Carnaubais/RN,-5.3383681,-36.8335566,1,9.29454
1,Carnaubal/CE,-4.1611842,-40.9412317,60,340.79291
D1,Carnaubal/CE,-4.1611842,-40.9412317,1,5.67988
1,Carnaubeira da Penha/PE,-8.3192809,-38.7435891,6,46.39654
D1,Carnaubeira da Penha/PE,-8.3192809,-38.7435891,1,7.73276
1,Carnaíba/PE,-7.805964,-37.7947314,25,127.87070
D1,Carnaíba/PE,-7.805964,-37.7947314,5,25.57414
1,Carnaúba dos Dantas/RN,-6.5560588,-36.5930811,5,61.12469
D1,Carnaúba dos Dantas/RN,-6.5560588,-36.5930811,2,24.44988
1,Carneiros/AL,-9.4832948,-37.3757121,18,198.21606
1,Caroebe/RR,0.8812315,-59.6932274,143,1406.23463
D1,Caroebe/RR,0.8812315,-59.6932274,1,9.83381
1,Carolina/MA,-7.3313437,-47.4738762,92,378.25837
1,Carpina/PE,-7.8459151,-35.2538861,184,219.98781
D1,Carpina/PE,-7.8459151,-35.2538861,28,33.47641
1,Carrancas/MG,-21.4910462,-44.6436151,1,24.70966
1,Carrapateira/PB,-7.0395225,-38.3432281,1,37.60812
1,Carrasco Bonito/TO,-5.3205734,-48.0376667,2,48.84005
1,Caruaru/PE,-8.2829702,-35.9722852,813,225.13417
D1,Caruaru/PE,-8.2829702,-35.9722852,57,15.78431
1,Carutapera/MA,-1.2016638,-46.0205618,146,613.26501
D1,Carutapera/MA,-1.2016638,-46.0205618,13,54.60579
1,Carvalhópolis/MG,-21.7773461,-45.8412117,1,27.94077
1,Casa Branca/SP,-21.7743137,-47.0852175,11,36.20803
D1,Casa Branca/SP,-21.7743137,-47.0852175,1,3.29164
1,Casa Nova/BA,-9.1736775,-40.9734475,37,51.41102
1,Casca/RS,-28.5634054,-51.9741902,9,99.65674
1,Cascalho Rico/MG,-18.579344,-47.875774,1,32.52033
1,Cascavel/CE,-4.129666,-38.241178,832,1159.69502
D1,Cascavel/CE,-4.129666,-38.241178,56,78.05640
1,Cascavel/PR,-24.9554996,-53.4560544,1048,319.07055
D1,Cascavel/PR,-24.9554996,-53.4560544,15,4.56685
1,Caseara/TO,-9.273159,-49.9576837,2,37.25088
D1,Caseara/TO,-9.273159,-49.9576837,1,18.62544
1,Caseiros/RS,-28.2721149,-51.6873536,6,187.38289
1,Casimiro de Abreu/RJ,-22.4809932,-42.2039976,243,549.97284
D1,Casimiro de Abreu/RJ,-22.4809932,-42.2039976,7,15.84284
1,Casinhas/PE,-7.744698,-35.7250923,7,48.81110
D1,Casinhas/PE,-7.744698,-35.7250923,2,13.94603
1,Casserengue/PB,-6.779538,-35.817875,53,709.69470
1,Cassilândia/MS,-19.1128242,-51.7345354,1,4.55809
1,Castanhal/PA,-1.2927031,-47.9223903,1270,632.49217
D1,Castanhal/PA,-1.2927031,-47.9223903,144,71.71565
1,Castanheiras/RO,-11.4277212,-61.9486802,12,393.18480
1,Castelo do Piauí/PI,-5.3230426,-41.5546185,16,81.15236
1,Castelo/ES,-20.6034476,-41.2033505,76,202.48308
D1,Castelo/ES,-20.6034476,-41.2033505,3,7.99275
1,Castelândia/GO,-18.089062,-50.220798,3,87.33624
1,Castilho/SP,-20.8695636,-51.4877792,6,28.56327
D1,Castilho/SP,-20.8695636,-51.4877792,1,4.76054
1,Castro Alves/BA,-12.7616941,-39.4281088,33,125.64727
D1,Castro Alves/BA,-12.7616941,-39.4281088,1,3.80749
1,Castro/PR,-24.794072,-49.9972914,10,13.98914
1,Cataguases/MG,-21.387426,-42.6957219,48,63.89521
D1,Cataguases/MG,-21.387426,-42.6957219,2,2.66230
1,Catalão/GO,-18.1702546,-47.9447082,107,98.32480
D1,Catalão/GO,-18.1702546,-47.9447082,2,1.83785
1,Catanduva/SP,-21.1331035,-48.9712817,214,175.60848
D1,Catanduva/SP,-21.1331035,-48.9712817,13,10.66780
1,Catanduvas/PR,-25.2043528,-53.154826,11,107.95956
1,Catanduvas/SC,-27.0689719,-51.660158,16,147.31609
1,Catarina/CE,-6.1341578,-39.8795321,25,120.78462
D1,Catarina/CE,-6.1341578,-39.8795321,1,4.83138
1,Catas Altas da Noruega/MG,-20.690277,-43.4975,13,357.04477
1,Catas Altas/MG,-20.0744,-43.4075,15,279.01786
1,Catende/PE,-8.6900588,-35.748470825,216,503.59041
D1,Catende/PE,-8.6900588,-35.748470825,14,32.64012
1,Catiguá/SP,-21.0491485,-49.0578923,7,89.69759
1,Catingueira/PB,-7.120081,-37.60638,7,141.93025
D1,Catingueira/PB,-7.120081,-37.60638,1,20.27575
1,Catolândia/BA,-12.315088,-44.8616434,1,27.95639
1,Catolé do Rocha/PB,-6.340625,-37.746967,86,281.54259
D1,Catolé do Rocha/PB,-6.340625,-37.746967,4,13.09500
1,Catu/BA,-12.351274,-38.379108,107,195.59813
D1,Catu/BA,-12.351274,-38.379108,1,1.82802
1,Catuji/MG,-17.3024568,-41.5168387,9,142.60814
1,Catunda/CE,-4.6494224,-40.2002603,47,454.45755
D1,Catunda/CE,-4.6494224,-40.2002603,1,9.66931
1,Caturaí/GO,-16.4473559,-49.4919149,1,19.72387
1,Caturité/PB,-7.4199652,-36.0207132,30,618.30173
1,Catuípe/RS,-28.255356,-54.013215,1,11.39731
1,Caucaia/CE,-3.7300563,-38.6593082,2997,829.27504
D1,Caucaia/CE,-3.7300563,-38.6593082,230,63.64139
1,Cavalcante/GO,-13.7928414,-47.4568521,1,10.29972
1,Caxambu do Sul/SC,-27.1615046,-52.8796675,27,741.35091
D1,Caxambu do Sul/SC,-27.1615046,-52.8796675,1,27.45744
1,Caxambu/MG,-21.9770359,-44.9318289,13,60.02955
D1,Caxambu/MG,-21.9770359,-44.9318289,1,4.61766
1,Caxias do Sul/RS,-29.1684796,-51.1793861,327,64.00395
D1,Caxias do Sul/RS,-29.1684796,-51.1793861,7,1.37012
1,Caxias/MA,-4.8654201,-43.353664,661,400.89762
D1,Caxias/MA,-4.8654201,-43.353664,21,12.73654
1,Caxingó/PI,-3.4208396,-41.8925637,10,184.36578
1,Caçador/SC,-26.77567,-51.0120041,49,62.34493
D1,Caçador/SC,-26.77567,-51.0120041,3,3.81704
1,Caçapava do Sul/RS,-30.5113286,-53.4916761,47,139.78111
D1,Caçapava do Sul/RS,-30.5113286,-53.4916761,1,2.97407
1,Caçapava/SP,-23.099204,-45.707645,93,98.66013
D1,Caçapava/SP,-23.099204,-45.707645,4,4.24345
1,Caçu/GO,-18.5637222,-51.1369685,34,212.38054
1,Caém/BA,-11.0909658,-40.4322187,5,54.27114
1,Ceará-Mirim/RN,-5.633588,-35.4248407,182,247.62915
D1,Ceará-Mirim/RN,-5.633588,-35.4248407,15,20.40900
1,Cedral/MA,-2.000269,-44.528114,57,533.95785
1,Cedral/SP,-20.9028433,-49.2699665,8,86.60821
1,Cedro de São João/SE,-10.2506778,-36.8816067,33,559.60658
1,Cedro/CE,-6.6065382,-39.0599487,28,109.55902
D1,Cedro/CE,-6.6065382,-39.0599487,2,7.82564
1,Cedro/PE,-7.7186318,-39.2363385,4,33.87821
1,Centenário do Sul/PR,-22.821497,-51.5951456,8,73.88935
1,Centenário/RS,-27.7633568,-51.989010104551,1,34.59011
1,Central do Maranhão/MA,-2.1967253,-44.8290757,7,80.71025
D1,Central do Maranhão/MA,-2.1967253,-44.8290757,1,11.53004
1,Centralina/MG,-18.5843349,-49.1954739,26,251.20773
D1,Centralina/MG,-18.5843349,-49.1954739,1,9.66184
1,Centro Novo do Maranhão/MA,-2.1361032,-46.1248528,170,786.23624
D1,Centro Novo do Maranhão/MA,-2.1361032,-46.1248528,3,13.87476
1,Centro do Guilherme/MA,-2.4511749,-46.039127,20,148.61049
1,Cerejeiras/RO,-13.186987,-60.816836,15,91.89487
D1,Cerejeiras/RO,-13.186987,-60.816836,2,12.25265
1,Ceres/GO,-15.3103568,-49.6032054,9,40.55698
1,Cerqueira César/SP,-23.0353135,-49.1650519,9,45.03378
1,Cerquilho/SP,-23.1626556,-47.7433878,27,55.15945
D1,Cerquilho/SP,-23.1626556,-47.7433878,3,6.12883
1,Cerrito/RS,-31.8546304,-52.8151659,1,16.41767
1,Cerro Corá/RN,-6.0412685,-36.3464694,1,8.94534
D1,Cerro Corá/RN,-6.0412685,-36.3464694,1,8.94534
1,Cerro Grande do Sul/RS,-30.5962963,-51.7517196,2,16.34120
D1,Cerro Grande do Sul/RS,-30.5962963,-51.7517196,1,8.17060
1,Cesário Lange/SP,-23.226035,-47.954453,11,60.61274
D1,Cesário Lange/SP,-23.226035,-47.954453,1,5.51025
1,Cezarina/GO,-16.9718289,-49.775814,1,11.61980
1,Chalé/MG,-20.0419748,-41.6914563,4,70.12623
1,Chapada dos Guimarães/MT,-15.464343,-55.749857,20,101.25557
D1,Chapada dos Guimarães/MT,-15.464343,-55.749857,2,10.12556
1,Chapada/RS,-28.0587829,-53.0657459,3,32.36595
1,Chapadinha/MA,-3.7416803,-43.3548006,1499,1881.39316
D1,Chapadinha/MA,-3.7416803,-43.3548006,12,15.06119
1,Chapadão do Céu/GO,-18.3951972,-52.6670783,13,127.86466
1,Chapadão do Sul/MS,-18.7949051,-52.6199512,64,253.78698
1,Chapecó/SC,-27.0922364,-52.6166878,1102,500.07488
D1,Chapecó/SC,-27.0922364,-52.6166878,6,2.72273
1,Charqueada/SP,-22.50958,-47.775468,76,442.11751
D1,Charqueada/SP,-22.50958,-47.775468,3,17.45201
1,Charqueadas/RS,-29.955012,-51.6249195,20,49.03283
D1,Charqueadas/RS,-29.955012,-51.6249195,1,2.45164
1,Chaval/CE,-3.0339874,-41.2438452,158,1208.96779
D1,Chaval/CE,-3.0339874,-41.2438452,3,22.95508
1,Chavantes/SP,-23.0406405,-49.7071698,1,8.05283
1,Chaves/PA,-0.164154,-49.987006,60,252.98309
D1,Chaves/PA,-0.164154,-49.987006,1,4.21638
1,Chiador/MG,-22.002778,-43.057222,18,669.89207
1,Chiapetta/RS,-27.923162,-53.9419052,7,186.36848
1,Chopinzinho/PR,-25.8566167,-52.5294107,9,46.74353
1,Chorozinho/CE,-4.3010895,-38.4976923,228,1125.14805
D1,Chorozinho/CE,-4.3010895,-38.4976923,9,44.41374
1,Chorrochó/BA,-8.9774059,-39.0993132,2,17.89389
1,Choró/CE,-4.8435726,-39.1393071,145,1072.40589
D1,Choró/CE,-4.8435726,-39.1393071,3,22.18771
1,Chupinguaia/RO,-12.5528918,-60.9027819,9,80.48650
1,Chácara/MG,-21.6727567,-43.2206851,1,31.70577
1,Chã Grande/PE,-8.238271,-35.457148,113,520.78533
D1,Chã Grande/PE,-8.238271,-35.457148,7,32.26104
1,Chã Preta/AL,-9.255605,-36.298334,11,150.45821
1,Chã de Alegria/PE,-7.9959409,-35.2134636,88,650.98387
D1,Chã de Alegria/PE,-7.9959409,-35.2134636,4,29.59018
1,Cianorte/PR,-23.662036,-52.6103989,205,248.12394
D1,Cianorte/PR,-23.662036,-52.6103989,2,2.42072
1,Cidade Gaúcha/PR,-23.3816558,-52.9444098,2,15.80778
D1,Cidade Gaúcha/PR,-23.3816558,-52.9444098,1,7.90389
1,Cidade Ocidental/GO,-16.1000758,-47.9445014,105,147.10827
D1,Cidade Ocidental/GO,-16.1000758,-47.9445014,2,2.80206
1,Cidelândia/MA,-5.174655,-47.7833531,100,680.41097
1,Cidreira/RS,-30.1657063,-50.218331,19,116.89430
D1,Cidreira/RS,-30.1657063,-50.218331,1,6.15233
1,Cipó/BA,-11.0990534,-38.5153006,3,17.34104
1,Ciríaco/RS,-28.3429139,-51.8763682,2,42.13187
1,Clevelândia/PR,-26.404065,-52.3513972,21,126.81925
D1,Clevelândia/PR,-26.404065,-52.3513972,1,6.03901
1,Cláudia/MT,-11.5057202,-54.8763166,3,24.69339
1,Cláudio/MG,-20.4448485,-44.7655217,9,31.44984
1,Coaraci/BA,-14.6407979,-39.5496765,39,229.50627
D1,Coaraci/BA,-14.6407979,-39.5496765,2,11.76955
1,Coari/AM,-4.0885957,-63.1431166,2839,3336.19282
D1,Coari/AM,-4.0885957,-63.1431166,76,89.30985
1,Cocal de Telha/PI,-4.5553648,-41.9722429,27,552.03435
1,Cocal do Sul/SC,-28.6007346,-49.3248697,23,137.85663
D1,Cocal do Sul/SC,-28.6007346,-49.3248697,1,5.99377
1,Cocal dos Alves/PI,-3.59964,-41.444741,2,32.50447
1,Cocal/PI,-3.4691882,-41.555851,40,143.95221
D1,Cocal/PI,-3.4691882,-41.555851,2,7.19761
1,Cocalzinho de Goiás/GO,-15.7762854,-48.7730427,15,74.11067
1,Cocos/BA,-14.1811222,-44.5382117,7,37.27965
1,Codajás/AM,-3.8413202,-62.0603444,102,356.18256
D1,Codajás/AM,-3.8413202,-62.0603444,2,6.98397
1,Codó/MA,-4.455623,-43.892354,1591,1294.98042
D1,Codó/MA,-4.455623,-43.892354,6,4.88365
1,Coelho Neto/MA,-4.2535154,-43.0149321,670,1355.31506
D1,Coelho Neto/MA,-4.2535154,-43.0149321,7,14.16001
1,Coimbra/MG,-21.5733599,-45.1979819,1,13.23452
1,Coité do Nóia/AL,-9.633484,-36.584493,22,205.74207
1,Coivaras/PI,-5.0927005,-42.2052489,7,174.12935
1,Colares/PA,-0.936423,-48.280254,70,579.23045
D1,Colares/PA,-0.936423,-48.280254,8,66.19777
1,Colatina/ES,-19.5346732,-40.6287836,764,623.67856
D1,Colatina/ES,-19.5346732,-40.6287836,13,10.61233
1,Colina/SP,-20.711443,-48.53867,12,64.97726
D1,Colina/SP,-20.711443,-48.53867,2,10.82954
1,Colinas do Tocantins/TO,-8.0612688,-48.4716768,148,417.79584
D1,Colinas do Tocantins/TO,-8.0612688,-48.4716768,2,5.64589
1,Colinas/MA,-6.0332631,-44.2528542,208,505.12410
D1,Colinas/MA,-6.0332631,-44.2528542,6,14.57089
1,Colinas/RS,-29.3866023,-51.8697911,13,533.22395
1,Colméia/TO,-8.734098,-48.7510897,5,60.93845
1,Colniza/MT,-9.4560637,-59.2197132,2,5.18376
1,Colombo/PR,-25.2925439,-49.2243472,130,53.33859
D1,Colombo/PR,-25.2925439,-49.2243472,4,1.64119
1,Colorado do Oeste/RO,-13.117431,-60.545428,16,100.74298
1,Colorado/PR,-22.8385097,-51.9730135,11,45.81043
1,Colorado/RS,-28.525842,-52.99282,2,62.99213
1,Colíder/MT,-10.8094999,-55.4540386,31,92.70889
D1,Colíder/MT,-10.8094999,-55.4540386,2,5.98122
1,Colômbia/SP,-20.1774291,-48.6872822,1,16.10306
1,Colônia Leopoldina/AL,-8.918058,-35.721414,93,428.61093
D1,Colônia Leopoldina/AL,-8.918058,-35.721414,2,9.21744
1,Colônia do Gurguéia/PI,-8.183697,-43.793999,5,77.11289
D1,Colônia do Gurguéia/PI,-8.183697,-43.793999,1,15.42258
1,Colônia do Piauí/PI,-7.2320268,-42.1777122,4,52.24660
1,Comendador Levy Gasparian/RJ,-22.028685,-43.204655,22,256.97932
1,Comercinho/MG,-16.2965093,-41.7930954,1,14.43210
1,Comodoro/MT,-13.6581107,-59.786883,7,33.71382
D1,Comodoro/MT,-13.6581107,-59.786883,1,4.81626
1,Conceição da Barra de Minas/MG,-21.128889,-44.472223,1,25.29084
1,Conceição da Barra/ES,-18.5841421,-39.7371844,30,96.57792
D1,Conceição da Barra/ES,-18.5841421,-39.7371844,1,3.21926
1,Conceição da Feira/BA,-12.5013001,-39.0002166,31,137.28356
1,Conceição das Alagoas/MG,-19.9194009,-48.3803414,10,35.85129
1,Conceição das Pedras/MG,-22.1596572,-45.4550521,1,35.56188
1,Conceição de Macabu/RJ,-22.0849986,-41.8679947,116,499.39728
D1,Conceição de Macabu/RJ,-22.0849986,-41.8679947,1,4.30515
1,Conceição do Almeida/BA,-12.7772763,-39.1692214,10,57.98110
1,Conceição do Araguaia/PA,-8.2696905,-49.2676864,65,135.80144
D1,Conceição do Araguaia/PA,-8.2696905,-49.2676864,2,4.17851
1,Conceição do Castelo/ES,-20.3601311,-41.2470343,24,188.63476
D1,Conceição do Castelo/ES,-20.3601311,-41.2470343,2,15.71956
1,Conceição do Coité/BA,-11.5629384,-39.2839543,67,100.58248
1,Conceição do Jacuípe/BA,-12.326831,-38.768433,42,126.68537
1,Conceição do Lago-Açu/MA,-3.8410056,-44.8930565,109,671.30628
D1,Conceição do Lago-Açu/MA,-3.8410056,-44.8930565,2,12.31755
1,Conceição do Mato Dentro/MG,-19.037222,-43.425278,21,117.69981
1,Conceição do Rio Verde/MG,-21.881078,-45.0868526,2,14.66491
1,Conceição dos Ouros/MG,-22.413056,-45.797777,3,25.77763
1,Conceição/PB,-7.5565059,-38.5053706,5,26.34074
1,Conchal/SP,-22.337512,-47.172927,14,49.91087
1,Conchas/SP,-23.0133538,-48.0077595,14,78.22977
D1,Conchas/SP,-23.0133538,-48.0077595,2,11.17568
1,Concórdia do Pará/PA,-1.9924056,-47.9450474,229,687.31617
D1,Concórdia do Pará/PA,-1.9924056,-47.9450474,6,18.00828
1,Concórdia/SC,-27.2312011,-52.0231024,1085,1453.62468
D1,Concórdia/SC,-27.2312011,-52.0231024,11,14.73721
1,Condado/PB,-6.9092101,-37.5966375,53,796.51338
1,Condado/PE,-7.587868,-35.09994,135,510.95719
D1,Condado/PE,-7.587868,-35.09994,18,68.12763
1,Conde/BA,-11.8129758,-37.6138705,15,58.05628
D1,Conde/BA,-11.8129758,-37.6138705,2,7.74084
1,Conde/PB,-7.2600359,-34.9053524,188,762.05918
D1,Conde/PB,-7.2600359,-34.9053524,3,12.16052
1,Condeúba/BA,-14.902227,-41.971829,15,86.97165
1,Condor/RS,-28.2058277,-53.4844696,21,310.97290
D1,Condor/RS,-28.2058277,-53.4844696,1,14.80823
1,Confins/MG,-19.6278749,-43.9912311,1,14.85884
1,Confresa/MT,-10.643695,-51.569873,193,623.92914
D1,Confresa/MT,-10.643695,-51.569873,3,9.69838
1,Congo/PB,-7.80963435,-36.641233278035656,11,229.83702
D1,Congo/PB,-7.80963435,-36.641233278035656,1,20.89427
1,Congonhal/MG,-22.1532505,-46.0404698,1,8.36820
1,Congonhas/MG,-20.5015168,-43.8564586,48,87.65202
D1,Congonhas/MG,-20.5015168,-43.8564586,1,1.82608
1,Congonhinhas/PR,-23.5497241,-50.5520182,6,68.04264
1,Conquista D'Oeste/MT,-14.5381171,-59.5443775,7,173.35315
1,Conselheiro Lafaiete/MG,-20.6596107,-43.785743,60,46.66029
D1,Conselheiro Lafaiete/MG,-20.6596107,-43.785743,1,0.77767
1,Conselheiro Mairinck/PR,-23.6229983,-50.1706779,14,362.69430
1,Conselheiro Pena/MG,-19.1720883,-41.471995,5,21.81406
1,Constantina/RS,-27.7331711,-52.9929561,14,141.25719
1,Contagem/MG,-19.9132749,-44.0840953,673,101.37756
D1,Contagem/MG,-19.9132749,-44.0840953,21,3.16334
1,Contenda/PR,-25.678811,-49.535044,4,21.52389
D1,Contenda/PR,-25.678811,-49.535044,1,5.38097
1,Coqueiral/MG,-21.1898365,-45.4409829,1,10.91822
1,Coqueiro Seco/AL,-9.637147,-35.799377,93,1591.10351
D1,Coqueiro Seco/AL,-9.637147,-35.799377,4,68.43456
1,Coqueiros do Sul/RS,-28.1184032,-52.7824375,5,216.82567
1,Coração de Jesus/MG,-16.6888187,-44.3577401,1,3.75912
1,Coração de Maria/BA,-12.2484345,-38.7499274,14,61.93320
1,Corbélia/PR,-24.7951117,-53.2961804,18,105.44198
1,Cordeiro/RJ,-22.0287681,-42.3607442,47,214.35738
1,Cordeiros/BA,-15.0397219,-41.9314228,1,11.60901
1,Cordeirópolis/SP,-22.4768324,-47.4550551,75,305.77299
D1,Cordeirópolis/SP,-22.4768324,-47.4550551,3,12.23092
1,Cordilheira Alta/SC,-26.9853947,-52.603549,6,134.74062
1,Coreaú/CE,-3.5519794,-40.6528409,291,1257.78008
D1,Coreaú/CE,-3.5519794,-40.6528409,3,12.96680
1,Coremas/PB,-7.0175897,-37.9465062,22,142.44092
1,Corguinho/MS,-19.827429,-54.8322243,1,16.81520
1,Corinto/MG,-18.363056,-44.456111,36,151.70031
1,Cornélio Procópio/PR,-23.1825218,-50.6499263,209,436.82725
D1,Cornélio Procópio/PR,-23.1825218,-50.6499263,2,4.18017
1,Coroaci/MG,-18.6194369,-42.2830239,1,10.00901
1,Coroados/SP,-21.3554634,-50.2853589,15,247.60647
D1,Coroados/SP,-21.3554634,-50.2853589,1,16.50710
1,Coroatá/MA,-4.1282283,-44.1360269,238,364.49400
D1,Coroatá/MA,-4.1282283,-44.1360269,2,3.06297
1,Coromandel/MG,-18.473889,-47.200278,7,25.02324
1,Coronel Bicaco/RS,-27.7174002,-53.705821,4,54.60751
1,Coronel Domingos Soares/PR,-26.22394,-52.0314509,133,1774.04295
1,Coronel Ezequiel/RN,-6.3853153,-36.2151622,1,18.16201
1,Coronel Fabriciano/MG,-19.5200067,-42.6282686,240,218.46980
D1,Coronel Fabriciano/MG,-19.5200067,-42.6282686,1,0.91029
1,Coronel Freitas/SC,-26.9058932,-52.7028055,5,50.09518
1,Coronel João Pessoa/RN,-6.2607103,-38.4424915,4,81.43322
D1,Coronel João Pessoa/RN,-6.2607103,-38.4424915,1,20.35831
1,Coronel João Sá/BA,-10.2856387,-37.9259435,10,62.91287
1,Coronel Macedo/SP,-23.6304001,-49.313234,2,42.72591
D1,Coronel Macedo/SP,-23.6304001,-49.313234,1,21.36296
1,Coronel Martins/SC,-26.5124719,-52.6681763,4,156.92428
1,Coronel Pacheco/MG,-21.5878865,-43.2615975,1,32.40441
1,Coronel Pilar/RS,-29.2733077,-51.6851371,1,61.42506
1,Coronel Vivida/PR,-25.9803771,-52.5654277,4,19.29198
1,Coronel Xavier Chaves/MG,-21.0234482,-44.2233108,2,58.24112
1,Correia Pinto/SC,-27.587688,-50.361448,3,23.44666
1,Corrente/PI,-10.4401356,-45.1627472,29,108.84252
1,Correntes/PE,-9.1295585,-36.3287438,21,115.34025
D1,Correntes/PE,-9.1295585,-36.3287438,2,10.98479
1,Correntina/BA,-13.344157,-44.6345066,7,21.78175
1,Cortês/PE,-8.4724921,-35.5431197,59,469.07298
D1,Cortês/PE,-8.4724921,-35.5431197,9,71.55351
1,Corumbataí do Sul/PR,-24.100956,-52.11766,2,62.13110
1,Corumbataí/SP,-22.2210521,-47.6249638,8,197.28730
1,Corumbaíba/GO,-18.1348982,-48.564223,3,30.85467
D1,Corumbaíba/GO,-18.1348982,-48.564223,1,10.28489
1,Corumbiara/RO,-12.9977668,-60.9455009,3,40.58991
1,Corumbá de Goiás/GO,-15.9268355,-48.8074659,1,9.00090
1,Corumbá/MS,-19.0016365,-57.6534316,132,118.45470
D1,Corumbá/MS,-19.0016365,-57.6534316,1,0.89738
1,Corupá/SC,-26.42464,-49.245968,65,408.57376
1,Coruripe/AL,-10.1249963,-36.1760623,429,753.51729
D1,Coruripe/AL,-10.1249963,-36.1760623,10,17.56451
1,Cosmorama/SP,-20.475472,-49.782747,6,82.11304
D1,Cosmorama/SP,-20.475472,-49.782747,1,13.68551
1,Cosmópolis/SP,-22.6437398,-47.1972086,100,138.40447
D1,Cosmópolis/SP,-22.6437398,-47.1972086,2,2.76809
1,Costa Marques/RO,-12.4367165,-64.2279765,9,49.09716
1,Costa Rica/MS,-18.5333859,-53.1394286,13,62.43097
1,Cotia/SP,-23.603889,-46.918889,886,355.52345
D1,Cotia/SP,-23.603889,-46.918889,66,26.48369
1,Cotriguaçu/MT,-9.9034364,-58.5658915,8,40.50633
D1,Cotriguaçu/MT,-9.9034364,-58.5658915,1,5.06329
1,Couto Magalhães/TO,-8.360583,-49.1773955,21,375.80530
1,Couto de Magalhães de Minas/MG,-18.073016,-43.4718628,3,68.02721
1,Coxilha/RS,-28.1254442,-52.2979903,26,943.39623
1,Coxim/MS,-18.504915,-54.7450251,9,26.83123
1,Coxixola/PB,-7.6272915,-36.606013,7,364.39355
1,Crateús/CE,-5.1782451,-40.6696545,388,516.82340
D1,Crateús/CE,-5.1782451,-40.6696545,17,22.64432
1,Crato/CE,-7.2369112,-39.4149236,169,127.91111
D1,Crato/CE,-7.2369112,-39.4149236,4,3.02748
1,Cravinhos/SP,-21.340278,-47.729444,39,110.50663
D1,Cravinhos/SP,-21.340278,-47.729444,4,11.33401
1,Cravolândia/BA,-13.3576247,-39.8153954,4,74.78033
1,Craíbas/AL,-9.6168038,-36.7684669,130,536.76865
D1,Craíbas/AL,-9.6168038,-36.7684669,1,4.12899
1,Criciúma/SC,-28.6789941,-49.3695627,473,219.80984
D1,Criciúma/SC,-28.6789941,-49.3695627,9,4.18243
1,Crissiumal/RS,-27.4982242,-54.1024643,2,14.87210
1,Cristais Paulista/SP,-20.403569,-47.420915,1,11.58614
1,Cristal do Sul/RS,-27.454386,-53.2482974,1,35.12469
1,Cristalina/GO,-16.7676079,-47.6131281,14,23.73002
D1,Cristalina/GO,-16.7676079,-47.6131281,1,1.69500
1,Cristina/MG,-22.212222,-45.264167,3,29.29115
1,Cristino Castro/PI,-8.8163934,-44.2211062,1,9.59417
D1,Cristino Castro/PI,-8.8163934,-44.2211062,1,9.59417
1,Cristinápolis/SE,-11.4757019,-37.7555212,21,117.48909
1,Cristópolis/BA,-12.2349301,-44.4160811,6,43.13444
1,Crisólita/MG,-17.2391664,-40.9132444,6,89.49881
1,Crisópolis/BA,-11.5105813,-38.1506278,5,23.69331
1,Crixás do Tocantins/TO,-11.1039404,-48.918827,1,58.07201
1,Crixás/GO,-14.5424536,-49.9694813,5,29.50027
1,Croatá/CE,-4.4156199,-40.9048081,18,99.65122
1,Cromínia/GO,-17.2891983,-49.3749654,3,86.05852
1,Crucilândia/MG,-20.3985647,-44.3429275,3,59.59476
1,Cruz Alta/RS,-28.645056,-53.6058047,47,77.94491
D1,Cruz Alta/RS,-28.645056,-53.6058047,2,3.31680
1,Cruz Machado/PR,-26.0184626,-51.3503171,1,5.34531
1,Cruz das Almas/BA,-12.6722649,-39.1053665,51,80.64644
1,Cruz do Espírito Santo/PB,-7.139022,-35.085721,164,946.93689
D1,Cruz do Espírito Santo/PB,-7.139022,-35.085721,10,57.74005
1,Cruz/CE,-2.918128,-40.175981,352,1417.81125
D1,Cruz/CE,-2.918128,-40.175981,7,28.19511
1,Cruzaltense/RS,-27.667414,-52.6487833,7,381.88762
1,Cruzeiro do Iguaçu/PR,-25.6142278,-53.1299075,6,141.11007
1,Cruzeiro do Oeste/PR,-23.7839582,-53.0709425,12,57.32849
1,Cruzeiro do Sul/AC,-7.6307956,-72.6703869,1707,1931.51987
D1,Cruzeiro do Sul/AC,-7.6307956,-72.6703869,23,26.02517
1,Cruzeiro do Sul/PR,-22.9623678,-52.1625688,6,134.25822
1,Cruzeiro do Sul/RS,-29.5139742,-51.9917068,96,777.45384
D1,Cruzeiro do Sul/RS,-29.5139742,-51.9917068,3,24.29543
1,Cruzeiro/SP,-22.5783685,-44.9642044,43,52.28726
D1,Cruzeiro/SP,-22.5783685,-44.9642044,2,2.43197
1,Cruzeta/RN,-6.4113343,-36.7872964,13,162.54064
1,Cruzmaltina/PR,-23.9930826,-51.4435583,1,33.89831
1,Cruzília/MG,-21.838333,-44.808056,8,51.89077
1,Cubati/PB,-6.8647974,-36.3525993,13,166.73079
1,Cubatão/SP,-23.8857982,-46.4241869,1073,820.93263
D1,Cubatão/SP,-23.8857982,-46.4241869,52,39.78425
1,Cuiabá/MT,-15.5986686,-56.0991301,1824,297.77307
D1,Cuiabá/MT,-15.5986686,-56.0991301,59,9.63191
1,Cuitegi/PB,-6.8962776,-35.5228851,66,970.16022
D1,Cuitegi/PB,-6.8962776,-35.5228851,1,14.69940
1,Cuité de Mamanguape/PB,-6.912922,-35.250219,23,362.03368
1,Cuité/PB,-6.4855072,-36.1478606,22,108.17189
D1,Cuité/PB,-6.4855072,-36.1478606,1,4.91690
1,Cujubim/RO,-9.3687919,-62.5832107,46,182.43109
D1,Cujubim/RO,-9.3687919,-62.5832107,1,3.96589
1,Cumari/GO,-18.2644369,-48.1511341,8,280.30834
1,Cumaru do Norte/PA,-7.8122669,-50.7677675,81,601.20240
D1,Cumaru do Norte/PA,-7.8122669,-50.7677675,3,22.26676
1,Cumaru/PE,-8.0065285,-35.6991651,32,293.41647
D1,Cumaru/PE,-8.0065285,-35.6991651,1,9.16926
1,Cumbe/SE,-10.3552462,-37.1828788,3,75.24454
1,Cunha Porã/SC,-26.8927163,-53.1716516,23,207.46888
1,Cunha/SP,-23.07753,-44.9567436,7,32.48712
1,Cunhataí/SC,-26.9735014,-53.0914014,7,356.77880
1,Cuparaque/MG,-18.9697,-41.0986,1,20.07226
1,Cupira/PE,-8.6053148,-35.9530366,66,273.77940
D1,Cupira/PE,-8.6053148,-35.9530366,8,33.18538
1,Curaçá/BA,-8.9925655,-39.9053169,50,144.09222
1,Curimatá/PI,-10.0349005,-44.3033114,10,87.81173
1,Curionópolis/PA,-6.0990443,-49.6059039,490,2733.00240
D1,Curionópolis/PA,-6.0990443,-49.6059039,9,50.19800
1,Curitiba/PR,-25.4295963,-49.2712724,1770,91.56254
D1,Curitiba/PR,-25.4295963,-49.2712724,79,4.08669
1,Curitibanos/SC,-27.2917869,-50.5768954,23,57.86891
D1,Curitibanos/SC,-27.2917869,-50.5768954,1,2.51604
1,Curiúva/PR,-24.0383013,-50.455484,3,19.86623
1,Currais Novos/RN,-6.2626676,-36.5173039,52,116.10771
D1,Currais Novos/RN,-6.2626676,-36.5173039,1,2.23284
1,Curral Novo do Piauí/PI,-7.8316503,-40.9006904,1,18.71608
1,Curral Velho/PB,-7.5376473,-38.1979125,1,39.74563
1,Curral de Cima/PB,-6.7174163,-35.266704,11,210.44576
1,Curral de Dentro/MG,-15.9332656,-41.8568896,1,12.93828
1,Curralinho/PA,-1.8137876,-49.7980165,105,304.80725
D1,Curralinho/PA,-1.8137876,-49.7980165,4,11.61170
1,Curralinhos/PI,-5.6190404,-42.8280018,11,247.58046
1,Cururupu/MA,-1.824255,-44.872996,239,730.99862
D1,Cururupu/MA,-1.824255,-44.872996,4,12.23429
1,Curuá/PA,-1.887754,-55.116842,25,173.69555
1,Curuçá/PA,-0.7276792,-47.856568,681,1699.69550
D1,Curuçá/PA,-0.7276792,-47.856568,45,112.31468
1,Curvelo/MG,-18.7571926,-44.4305993,49,61.15139
1,Curvelândia/MT,-15.6108629,-57.9188924,6,114.96455
D1,Curvelândia/MT,-15.6108629,-57.9188924,1,19.16076
1,Custódia/PE,-8.0861426,-37.6401873,82,220.95875
D1,Custódia/PE,-8.0861426,-37.6401873,9,24.25157
1,Cutias/AP,0.9708625,-50.8000608,248,4145.07772
D1,Cutias/AP,0.9708625,-50.8000608,2,33.42805
1,Cáceres/MT,-16.0658939,-57.6852775,66,69.93303
D1,Cáceres/MT,-16.0658939,-57.6852775,5,5.29796
1,Cássia dos Coqueiros/SP,-21.280082,-47.164327,8,317.08284
1,Cândido Mendes/MA,-1.4531117,-45.7273136,22,109.02964
D1,Cândido Mendes/MA,-1.4531117,-45.7273136,3,14.86768
1,Cândido Mota/SP,-22.7434964,-50.38924,17,54.34783
1,Cândido Rodrigues/SP,-21.3255615,-48.6308798,17,608.66452
1,Cândido Sales/BA,-15.5037649,-41.2391141,42,166.73945
1,Cândido de Abreu/PR,-24.5747463,-51.3432207,2,13.31735
1,Céu Azul/PR,-25.1484973,-53.8494214,8,67.99830
1,Cícero Dantas/BA,-10.5932265,-38.3834411,4,12.30201
