type,name,lat,lon,total,total_per_100k_inhabitants
1,Abadia de Goiás/GO,-16.7572644,-49.4412205,2286,24961.78205
D1,Abadia de Goiás/GO,-16.7572644,-49.4412205,45,491.37366
1,Abadia dos Dourados/MG,-18.4911191,-47.4063589,962,13699.80063
D1,Abadia dos Dourados/MG,-18.4911191,-47.4063589,20,284.81914
1,Abadiânia/GO,-16.1940946,-48.7067767,650,3114.07081
D1,Abadiânia/GO,-16.1940946,-48.7067767,49,234.75303
1,Abaetetuba/PA,-1.721828,-48.878843,9990,6226.66559
D1,Abaetetuba/PA,-1.721828,-48.878843,229,142.73338
1,Abaeté/MG,-19.1566833,-45.4481213,2144,9216.35215
D1,Abaeté/MG,-19.1566833,-45.4481213,45,193.44023
1,Abaiara/CE,-7.3607808,-39.0487878,818,6836.60677
D1,Abaiara/CE,-7.3607808,-39.0487878,17,142.08107
1,Abaré/BA,-8.7239913,-39.1139689,1557,7560.45450
D1,Abaré/BA,-8.7239913,-39.1139689,13,63.12518
1,Abatiá/PR,-23.3052967,-50.3102532,1387,18845.10870
D1,Abatiá/PR,-23.3052967,-50.3102532,21,285.32609
1,Abaíra/BA,-13.2503296,-41.6640342,318,3663.17245
D1,Abaíra/BA,-13.2503296,-41.6640342,13,149.75233
1,Abdon Batista/SC,-27.612419,-51.022992,419,16535.12234
D1,Abdon Batista/SC,-27.612419,-51.022992,4,157.85320
1,Abel Figueiredo/PA,-4.953001,-48.3958485,1191,15804.14013
D1,Abel Figueiredo/PA,-4.953001,-48.3958485,12,159.23567
1,Abelardo Luz/SC,-26.5705893,-52.3280339,2042,11334.99861
D1,Abelardo Luz/SC,-26.5705893,-52.3280339,65,360.81044
1,Abre Campo/MG,-20.2976097,-42.4764741,1461,10875.39080
D1,Abre Campo/MG,-20.2976097,-42.4764741,17,126.54459
1,Abreu e Lima/PE,-7.900719,-34.898389,3989,3961.34978
D1,Abreu e Lima/PE,-7.900719,-34.898389,251,249.26016
1,Abreulândia/TO,-9.6221526,-49.1558343,391,14986.58490
D1,Abreulândia/TO,-9.6221526,-49.1558343,8,306.63089
1,Acaiaca/MG,-20.3621646,-43.1444162,264,6608.26033
D1,Acaiaca/MG,-20.3621646,-43.1444162,12,300.37547
1,Acajutiba/BA,-11.6609659,-38.0186381,617,4055.47522
D1,Acajutiba/BA,-11.6609659,-38.0186381,21,138.03076
1,Acarape/CE,-4.2237866,-38.7071663,3092,20422.72127
D1,Acarape/CE,-4.2237866,-38.7071663,33,217.96565
1,Acaraú/CE,-2.8869514,-40.1194713,6070,9550.63251
D1,Acaraú/CE,-2.8869514,-40.1194713,116,182.51621
1,Acari/RN,-6.4364689,-36.6394777,1262,11363.22708
D1,Acari/RN,-6.4364689,-36.6394777,22,198.09112
1,Acará/PA,-1.961388,-48.1987043,1827,3277.48278
D1,Acará/PA,-1.961388,-48.1987043,41,73.55052
1,Acauã/PI,-8.219542,-41.083059,219,3076.27476
D1,Acauã/PI,-8.219542,-41.083059,2,28.09383
1,Aceguá/RS,-31.8695131,-54.1615593,561,11262.79863
D1,Aceguá/RS,-31.8695131,-54.1615593,8,160.61032
1,Acopiara/CE,-6.0936464,-39.4543204,4622,8451.73442
D1,Acopiara/CE,-6.0936464,-39.4543204,155,283.43116
1,Acorizal/MT,-15.2001544,-56.3668953,1070,20154.45470
D1,Acorizal/MT,-15.2001544,-56.3668953,22,414.39066
1,Acrelândia/AC,-10.0759167,-67.0526898,2094,13319.76337
D1,Acrelândia/AC,-10.0759167,-67.0526898,38,241.71490
1,Acreúna/GO,-17.3959899,-50.3749031,3725,16402.46587
D1,Acreúna/GO,-17.3959899,-50.3749031,73,321.44430
1,Adamantina/SP,-21.6866517,-51.0762975,4720,13427.01903
D1,Adamantina/SP,-21.6866517,-51.0762975,149,423.86141
1,Adelândia/GO,-16.4155077,-50.1665834,247,9821.07356
D1,Adelândia/GO,-16.4155077,-50.1665834,4,159.04573
1,Adolfo/SP,-21.2356597,-49.6441918,629,17743.30042
D1,Adolfo/SP,-21.2356597,-49.6441918,19,535.96615
1,Adrianópolis/PR,-24.6557863,-48.9912769,1649,28445.74780
D1,Adrianópolis/PR,-24.6557863,-48.9912769,29,500.25875
1,Adustina/BA,-10.5358875,-38.114479,1166,6775.52443
D1,Adustina/BA,-10.5358875,-38.114479,27,156.89465
1,Afogados da Ingazeira/PE,-7.750429,-37.6356375,5838,15548.92665
D1,Afogados da Ingazeira/PE,-7.750429,-37.6356375,76,202.41837
1,Afonso Bezerra/RN,-5.4745,-36.57625071327935,927,8408.92598
D1,Afonso Bezerra/RN,-5.4745,-36.57625071327935,18,163.28012
1,Afonso Cláudio/ES,-20.077841,-41.12606,5650,18630.87779
D1,Afonso Cláudio/ES,-20.077841,-41.12606,75,247.31254
1,Afonso Cunha/MA,-4.1326105,-43.3230026,301,4539.28518
D1,Afonso Cunha/MA,-4.1326105,-43.3230026,3,45.24204
1,Afrânio/PE,-8.5198919,-41.0070197,1095,5480.20620
D1,Afrânio/PE,-8.5198919,-41.0070197,16,80.07607
1,Afuá/PA,-0.1535664,-50.3879223,3294,8253.57053
D1,Afuá/PA,-0.1535664,-50.3879223,16,40.09020
1,Agrestina/PE,-8.4558021,-35.9442663,2002,7931.85420
D1,Agrestina/PE,-8.4558021,-35.9442663,68,269.41363
1,Agricolândia/PI,-5.7967843,-42.6605131,787,15362.09252
D1,Agricolândia/PI,-5.7967843,-42.6605131,9,175.67831
1,Agrolândia/SC,-27.4122212,-49.8295774,2080,18637.99283
D1,Agrolândia/SC,-27.4122212,-49.8295774,30,268.81720
1,Agronômica/SC,-27.2660744,-49.7104753,948,17019.74865
D1,Agronômica/SC,-27.2660744,-49.7104753,14,251.34650
1,Aguanil/MG,-20.9424533,-45.3927152,936,20539.82883
D1,Aguanil/MG,-20.9424533,-45.3927152,8,175.55409
1,Aguaí/SP,-22.0592036,-46.979384,3762,10172.79143
D1,Aguaí/SP,-22.0592036,-46.979384,114,308.26641
1,Agudo/RS,-29.6423259,-53.2494005,2357,14421.19432
D1,Agudo/RS,-29.6423259,-53.2494005,32,195.79050
1,Agudos do Sul/PR,-25.9890808,-49.3328175,1260,13170.27281
D1,Agudos do Sul/PR,-25.9890808,-49.3328175,33,344.93572
1,Agudos/SP,-22.471162,-48.987822,4922,13096.69523
D1,Agudos/SP,-22.471162,-48.987822,113,300.67586
1,Aguiar/PB,-7.0928404,-38.1727215,669,11899.67983
D1,Aguiar/PB,-7.0928404,-38.1727215,5,88.93632
1,Aguiarnópolis/TO,-6.5600452,-47.4721189,738,10469.57015
D1,Aguiarnópolis/TO,-6.5600452,-47.4721189,14,198.60973
1,Aimorés/MG,-19.4917754,-41.0615603,2746,10933.26963
D1,Aimorés/MG,-19.4917754,-41.0615603,80,318.52206
1,Aiquara/BA,-14.126918,-39.8887574,550,12537.04126
D1,Aiquara/BA,-14.126918,-39.8887574,12,273.53545
1,Aiuaba/CE,-6.5710836,-40.1212278,939,5340.08189
D1,Aiuaba/CE,-6.5710836,-40.1212278,16,90.99181
1,Aiuruoca/MG,-21.9759554,-44.6036637,627,10539.58649
D1,Aiuruoca/MG,-21.9759554,-44.6036637,11,184.90503
1,Ajuricaba/RS,-28.239654,-53.7693013,1623,23349.15839
D1,Ajuricaba/RS,-28.239654,-53.7693013,33,474.75183
1,Alagoa Grande/PB,-7.0415212,-35.6285322,4640,16347.23788
D1,Alagoa Grande/PB,-7.0415212,-35.6285322,73,257.18715
1,Alagoa Nova/PB,-7.0653703,-35.76695977336711,2205,10504.00152
D1,Alagoa Nova/PB,-7.0653703,-35.76695977336711,34,161.96646
1,Alagoa/MG,-22.1697202,-44.6400042,547,20587.12834
D1,Alagoa/MG,-22.1697202,-44.6400042,8,301.09146
1,Alagoinha do Piauí/PI,-7.0090952,-40.939675,401,5222.71425
D1,Alagoinha do Piauí/PI,-7.0090952,-40.939675,13,169.31493
1,Alagoinha/PB,-6.97063215,-35.51490901897793,2192,14983.93602
D1,Alagoinha/PB,-6.97063215,-35.51490901897793,26,177.72917
1,Alagoinha/PE,-8.50355635,-36.77701174370496,1491,10075.68590
D1,Alagoinha/PE,-8.50355635,-36.77701174370496,29,195.97243
1,Alagoinhas/BA,-12.133526,-38.420772,15415,10073.64906
D1,Alagoinhas/BA,-12.133526,-38.420772,332,216.96085
1,Alambari/SP,-23.550338,-47.897971,686,11009.46879
D1,Alambari/SP,-23.550338,-47.897971,12,192.58546
1,Albertina/MG,-20.66164,-43.784039,579,19203.98010
D1,Albertina/MG,-20.66164,-43.784039,11,364.84245
1,Alcantil/PB,-7.7425491,-36.0609604,874,15813.28026
D1,Alcantil/PB,-7.7425491,-36.0609604,8,144.74398
1,Alcinópolis/MS,-18.3264121,-53.7094463,462,8416.83367
D1,Alcinópolis/MS,-18.3264121,-53.7094463,11,200.40080
1,Alcobaça/BA,-17.5215875,-39.1965474,1983,8809.80941
D1,Alcobaça/BA,-17.5215875,-39.1965474,31,137.72269
1,Alcântara/MA,-2.4038956,-44.4154241,336,1518.57543
D1,Alcântara/MA,-2.4038956,-44.4154241,19,85.87183
1,Alcântaras/CE,-3.586247,-40.5457641,1924,16241.76937
D1,Alcântaras/CE,-3.586247,-40.5457641,22,185.71670
1,Aldeias Altas/MA,-4.6291957,-43.4708622,977,3621.33511
D1,Aldeias Altas/MA,-4.6291957,-43.4708622,14,51.89221
1,Alecrim/RS,-27.6566142,-54.7653195,401,7022.76708
D1,Alecrim/RS,-27.6566142,-54.7653195,12,210.15762
1,Alegre/ES,-20.7625787,-41.5318886,5173,17318.95946
D1,Alegre/ES,-20.7625787,-41.5318886,82,274.53212
1,Alegrete do Piauí/PI,-7.2440138,-40.8602296,531,10790.48974
D1,Alegrete do Piauí/PI,-7.2440138,-40.8602296,9,182.88966
1,Alegrete/RS,-29.790166,-55.794862,12735,17567.21339
D1,Alegrete/RS,-29.790166,-55.794862,310,427.62750
1,Alegria/RS,-27.8332103,-54.0574959,431,13112.26042
D1,Alegria/RS,-27.8332103,-54.0574959,5,152.11439
1,Alenquer/PA,-1.946229,-54.738355,3901,6797.35145
D1,Alenquer/PA,-1.946229,-54.738355,148,257.88465
1,Alexandria/RN,-6.414779,-38.0135516,2023,14953.06379
D1,Alexandria/RN,-6.414779,-38.0135516,32,236.52894
1,Alexânia/GO,-16.0834049,-48.5077803,4837,17055.71227
D1,Alexânia/GO,-16.0834049,-48.5077803,104,366.71368
1,Alfenas/MG,-21.4297405,-45.9479419,14592,18020.82176
D1,Alfenas/MG,-21.4297405,-45.9479419,229,282.81032
1,Alfredo Chaves/ES,-20.624970400000002,-40.75006690147988,3513,23946.83027
D1,Alfredo Chaves/ES,-20.624970400000002,-40.75006690147988,47,320.38173
1,Alfredo Marcondes/SP,-21.9527,-51.413956,289,6879.31445
D1,Alfredo Marcondes/SP,-21.9527,-51.413956,15,357.05784
1,Alfredo Vasconcelos/MG,-21.145833,-43.776389,964,13669.88088
D1,Alfredo Vasconcelos/MG,-21.145833,-43.776389,16,226.88599
1,Alfredo Wagner/SC,-27.6961513,-49.3326734,1157,11414.75927
D1,Alfredo Wagner/SC,-27.6961513,-49.3326734,10,98.65825
1,Algodão de Jandaíra/PB,-6.9040175,-36.0089879,335,12944.35858
D1,Algodão de Jandaíra/PB,-6.9040175,-36.0089879,1,38.63988
1,Alhandra/PB,-7.4304246,-34.9106103,2669,13435.69091
D1,Alhandra/PB,-7.4304246,-34.9106103,41,206.39315
1,Aliança do Tocantins/TO,-11.3055927,-48.9409096,1104,20818.40468
D1,Aliança do Tocantins/TO,-11.3055927,-48.9409096,25,471.43127
1,Aliança/PE,-7.60398,-35.222696,1421,3699.75005
D1,Aliança/PE,-7.60398,-35.222696,76,197.87544
1,Almadina/BA,-14.70466,-39.6381994,704,13351.03357
D1,Almadina/BA,-14.70466,-39.6381994,12,227.57444
1,Almas/TO,-11.5681309,-47.1702803,306,4431.57133
D1,Almas/TO,-11.5681309,-47.1702803,5,72.41130
1,Almeirim/PA,-1.5290377,-52.5788111,3941,11576.19551
D1,Almeirim/PA,-1.5290377,-52.5788111,52,152.74351
1,Almenara/MG,-16.1740678,-40.6904907,5927,13985.37046
D1,Almenara/MG,-16.1740678,-40.6904907,55,129.77820
1,Almino Afonso/RN,-6.1544208,-37.7649018,638,13617.92956
D1,Almino Afonso/RN,-6.1544208,-37.7649018,13,277.48132
1,Almirante Tamandaré do Sul/RS,-28.1141129,-52.9134874,466,24082.68734
D1,Almirante Tamandaré do Sul/RS,-28.1141129,-52.9134874,7,361.75711
1,Almirante Tamandaré/PR,-25.3133048,-49.2997838,13315,10966.06819
D1,Almirante Tamandaré/PR,-25.3133048,-49.2997838,443,364.84928
1,Aloândia/GO,-17.7277983,-49.4809338,337,17054.65587
D1,Aloândia/GO,-17.7277983,-49.4809338,11,556.68016
1,Alpercata/MG,-18.9803616,-41.9827637,576,7733.61976
D1,Alpercata/MG,-18.9803616,-41.9827637,21,281.95489
1,Alpestre/RS,-27.2512339,-53.0349646,939,15955.81988
D1,Alpestre/RS,-27.2512339,-53.0349646,17,288.87001
1,Alpinópolis/MG,-20.863611,-46.387777,3023,15070.54190
D1,Alpinópolis/MG,-20.863611,-46.387777,47,234.30879
1,Alta Floresta D'Oeste/RO,-11.9296917,-61.9961284,5607,24902.29170
D1,Alta Floresta D'Oeste/RO,-11.9296917,-61.9961284,76,337.53775
1,Alta Floresta/MT,-9.8715018,-56.0839881,12361,23723.25113
D1,Alta Floresta/MT,-9.8715018,-56.0839881,157,301.31465
1,Altair/SP,-20.5238955,-49.0606135,313,7432.91380
D1,Altair/SP,-20.5238955,-49.0606135,17,403.70458
1,Altamira do Maranhão/MA,-4.1643006,-45.4674574,420,5090.90909
D1,Altamira do Maranhão/MA,-4.1643006,-45.4674574,14,169.69697
1,Altamira do Paraná/PR,-24.799114,-52.7128633,353,24702.58922
D1,Altamira do Paraná/PR,-24.799114,-52.7128633,14,979.70609
1,Altamira/PA,-3.204065,-52.209961,17760,15138.08387
D1,Altamira/PA,-3.204065,-52.209961,344,293.21514
1,Altaneira/CE,-6.9980933,-39.7385742,792,10269.70954
D1,Altaneira/CE,-6.9980933,-39.7385742,19,246.36929
1,Alterosa/MG,-21.249166,-46.143055,1342,9213.23630
D1,Alterosa/MG,-21.249166,-46.143055,38,260.88150
1,Altinho/PE,-8.4904095,-36.0607494,1547,6727.25691
D1,Altinho/PE,-8.4904095,-36.0607494,30,130.45747
1,Altinópolis/SP,-21.021364,-47.3712,1057,6516.24437
D1,Altinópolis/SP,-21.021364,-47.3712,62,382.22058
1,Alto Alegre do Maranhão/MA,-4.2055693,-44.4525287,1606,5722.22618
D1,Alto Alegre do Maranhão/MA,-4.2055693,-44.4525287,29,103.32787
1,Alto Alegre do Pindaré/MA,-3.6698186,-45.8462153,2346,7338.81816
D1,Alto Alegre do Pindaré/MA,-3.6698186,-45.8462153,55,172.05243
1,Alto Alegre dos Parecis/RO,-12.1314515,-61.856265,1753,13212.23998
D1,Alto Alegre dos Parecis/RO,-12.1314515,-61.856265,47,354.23576
1,Alto Alegre/RR,2.98858,-61.307167,2070,13574.66063
D1,Alto Alegre/RR,2.98858,-61.307167,39,255.75448
1,Alto Alegre/RS,-31.780844700000003,-52.81311114489171,309,19433.96226
D1,Alto Alegre/RS,-31.780844700000003,-52.81311114489171,2,125.78616
1,Alto Alegre/SP,-21.5820592,-50.1661976,404,9906.81707
D1,Alto Alegre/SP,-21.5820592,-50.1661976,23,564.00196
1,Alto Araguaia/MT,-17.3156528,-53.2169365,2289,11611.03784
D1,Alto Araguaia/MT,-17.3156528,-53.2169365,31,157.24866
1,Alto Bela Vista/SC,-27.4320737,-51.905771,266,13890.33943
D1,Alto Bela Vista/SC,-27.4320737,-51.905771,3,156.65796
1,Alto Boa Vista/MT,-11.6723985,-51.3744431,1219,17188.38127
D1,Alto Boa Vista/MT,-11.6723985,-51.3744431,19,267.90750
1,Alto Caparaó/MG,-20.4405661,-41.8683799,479,8066.68912
D1,Alto Caparaó/MG,-20.4405661,-41.8683799,9,151.56618
1,Alto Feliz/RS,-29.3785943,-51.3123751,524,17219.84883
D1,Alto Feliz/RS,-29.3785943,-51.3123751,2,65.72461
1,Alto Garças/MT,-16.9469683,-53.529427,1424,11555.62769
D1,Alto Garças/MT,-16.9469683,-53.529427,42,340.82610
1,Alto Horizonte/GO,-14.1954948,-49.3366993,1478,21748.08711
D1,Alto Horizonte/GO,-14.1954948,-49.3366993,16,235.43261
1,Alto Jequitibá/MG,-20.423611,-41.966111,1149,13866.76322
D1,Alto Jequitibá/MG,-20.423611,-41.966111,13,156.89114
1,Alto Longá/PI,-5.2549051,-42.2072388,751,5225.80196
D1,Alto Longá/PI,-5.2549051,-42.2072388,15,104.37687
1,Alto Paraguai/MT,-14.513712,-56.4936374,948,8181.58281
D1,Alto Paraguai/MT,-14.513712,-56.4936374,31,267.54121
1,Alto Paraná/PR,-23.131247,-52.318893,1924,12873.87086
D1,Alto Paraná/PR,-23.131247,-52.318893,26,173.97123
1,Alto Paraíso de Goiás/GO,-14.1304779,-47.5100161,1105,14256.22500
D1,Alto Paraíso de Goiás/GO,-14.1304779,-47.5100161,9,116.11405
1,Alto Paraíso/PR,-23.508137,-53.728537,604,22965.77947
D1,Alto Paraíso/PR,-23.508137,-53.728537,9,342.20532
1,Alto Paraíso/RO,-9.7240103,-63.3188123,2658,11941.77374
D1,Alto Paraíso/RO,-9.7240103,-63.3188123,60,269.56600
1,Alto Parnaíba/MA,-9.112506,-45.9310154,1021,9089.29048
D1,Alto Parnaíba/MA,-9.112506,-45.9310154,11,97.92575
1,Alto Piquiri/PR,-24.0239021,-53.4417448,1625,16714.66776
D1,Alto Piquiri/PR,-24.0239021,-53.4417448,30,308.57848
1,Alto Rio Doce/MG,-21.0239537,-43.4133507,794,7404.64422
D1,Alto Rio Doce/MG,-21.0239537,-43.4133507,29,270.44670
1,Alto Rio Novo/ES,-19.0577208,-41.0171518,1068,13500.18961
D1,Alto Rio Novo/ES,-19.0577208,-41.0171518,28,353.93756
1,Alto Santo/CE,-5.5190371,-38.2719351,2297,14287.49145
D1,Alto Santo/CE,-5.5190371,-38.2719351,40,248.80264
1,Alto Taquari/MT,-17.8269099,-53.2831736,1663,14571.10313
D1,Alto Taquari/MT,-17.8269099,-53.2831736,29,254.09621
1,Alto do Rodrigues/RN,-5.290868,-36.7616726,2832,18977.41741
D1,Alto do Rodrigues/RN,-5.290868,-36.7616726,40,268.04262
1,Altos/PI,-5.0393915,-42.4611694,5231,12858.58263
D1,Altos/PI,-5.0393915,-42.4611694,101,248.27315
1,Altônia/PR,-23.8722004,-53.894037,3015,13524.42471
D1,Altônia/PR,-23.8722004,-53.894037,50,224.28565
1,Alumínio/SP,-23.5203479,-47.2575256,1644,8697.03222
D1,Alumínio/SP,-23.5203479,-47.2575256,55,290.95911
1,Alvarenga/MG,-19.4175,-41.728334,541,14300.81946
D1,Alvarenga/MG,-19.4175,-41.728334,6,158.60428
1,Alvarães/AM,-3.214786,-64.8143124,3674,22407.90437
D1,Alvarães/AM,-3.214786,-64.8143124,46,280.55623
1,Alvinlândia/SP,-22.4431852,-49.7643596,145,4460.16610
D1,Alvinlândia/SP,-22.4431852,-49.7643596,9,276.83790
1,Alvinópolis/MG,-20.1105199,-43.0601805,1459,9639.90750
D1,Alvinópolis/MG,-20.1105199,-43.0601805,23,151.96564
1,Alvorada D'Oeste/RO,-11.346271,-62.284697,1609,11653.50909
D1,Alvorada D'Oeste/RO,-11.346271,-62.284697,31,224.52379
1,Alvorada de Minas/MG,-18.7318587,-43.3641479,399,11067.96117
D1,Alvorada de Minas/MG,-18.7318587,-43.3641479,3,83.21775
1,Alvorada do Gurguéia/PI,-8.4465288,-43.8655915,584,10678.36899
D1,Alvorada do Gurguéia/PI,-8.4465288,-43.8655915,13,237.70342
1,Alvorada do Norte/GO,-14.483911,-46.4959897,1010,11544.17648
D1,Alvorada do Norte/GO,-14.483911,-46.4959897,17,194.30792
1,Alvorada do Sul/PR,-22.7807269,-51.2307721,1092,9415.41645
D1,Alvorada do Sul/PR,-22.7807269,-51.2307721,29,250.04311
1,Alvorada/RS,-29.9981184,-51.0772509,25967,12228.28134
D1,Alvorada/RS,-29.9981184,-51.0772509,837,394.15687
1,Alvorada/TO,-12.478465,-49.124926,2155,25712.92209
D1,Alvorada/TO,-12.478465,-49.124926,31,369.88426
1,Além Paraíba/MG,-21.8760576,-42.6810473,5033,14202.26875
D1,Além Paraíba/MG,-21.8760576,-42.6810473,164,462.78007
1,Amajari/RR,3.6523869,-61.4194315,1227,9048.00531
D1,Amajari/RR,3.6523869,-61.4194315,25,184.35219
1,Amambai/MS,-23.1082701,-55.2284854,4396,10922.55323
D1,Amambai/MS,-23.1082701,-55.2284854,90,223.61915
1,Amaporã/PR,-23.094272,-52.786597,669,10444.96487
D1,Amaporã/PR,-23.094272,-52.786597,8,124.90242
1,Amapá do Maranhão/MA,-1.6762114,-46.0109669,172,2440.75493
D1,Amapá do Maranhão/MA,-1.6762114,-46.0109669,6,85.14261
1,Amapá/AP,2.0529997,-50.7930003,1767,19071.77550
D1,Amapá/AP,2.0529997,-50.7930003,13,140.31301
1,Amaraji/PE,-8.373925,-35.4536527,826,3605.41248
D1,Amaraji/PE,-8.373925,-35.4536527,48,209.51550
1,Amaral Ferrador/RS,-30.8750633,-52.2542051,339,4750.56054
D1,Amaral Ferrador/RS,-30.8750633,-52.2542051,12,168.16143
1,Amaralina/GO,-13.9236199,-49.2962411,156,4025.80645
D1,Amaralina/GO,-13.9236199,-49.2962411,2,51.61290
1,Amarante do Maranhão/MA,-5.56913,-46.747284,1776,4226.86056
D1,Amarante do Maranhão/MA,-5.56913,-46.747284,59,140.41935
1,Amarante/PI,-6.2459374,-42.8476238,1645,9341.81385
D1,Amarante/PI,-6.2459374,-42.8476238,35,198.76200
1,Amargosa/BA,-13.03793715,-39.60796443875596,3526,9369.93436
D1,Amargosa/BA,-13.03793715,-39.60796443875596,57,151.47086
1,Amaturá/AM,-3.3640509,-68.1994689,2593,21727.83643
D1,Amaturá/AM,-3.3640509,-68.1994689,18,150.82956
1,Americana/SP,-22.7392463,-47.3306032,27366,11198.59230
D1,Americana/SP,-22.7392463,-47.3306032,880,360.10967
1,Americano do Brasil/GO,-16.2515808,-49.9806104,995,15996.78457
D1,Americano do Brasil/GO,-16.2515808,-49.9806104,25,401.92926
1,Ametista do Sul/RS,-27.3617341,-53.1826575,1264,17090.31909
D1,Ametista do Sul/RS,-27.3617341,-53.1826575,26,351.54137
1,Amontada/CE,-3.3634586,-39.8284791,3409,7713.54226
D1,Amontada/CE,-3.3634586,-39.8284791,58,131.23657
1,Amorinópolis/GO,-16.6211308,-51.0949921,455,15111.25872
D1,Amorinópolis/GO,-16.6211308,-51.0949921,11,365.32713
1,Amparo de São Francisco/SE,-10.1299754,-36.9269099,257,10771.16513
D1,Amparo de São Francisco/SE,-10.1299754,-36.9269099,5,209.55574
1,Amparo do Serra/MG,-20.5070255,-42.8028462,189,4070.64398
D1,Amparo do Serra/MG,-20.5070255,-42.8028462,9,193.84019
1,Amparo/PB,-7.56394725,-37.04652873235175,238,10512.36749
D1,Amparo/PB,-7.56394725,-37.04652873235175,4,176.67845
1,Amparo/SP,-22.70111,-46.76444,9206,12585.95940
D1,Amparo/SP,-22.70111,-46.76444,233,318.54536
1,Ampére/PR,-25.9168712,-53.4742414,3748,19254.08404
D1,Ampére/PR,-25.9168712,-53.4742414,60,308.22973
1,Amélia Rodrigues/BA,-12.4015388,-38.7516971,2572,10289.23471
D1,Amélia Rodrigues/BA,-12.4015388,-38.7516971,52,208.02496
1,América Dourada/BA,-11.4515262,-41.4357517,1004,6241.45219
D1,América Dourada/BA,-11.4515262,-41.4357517,13,80.81562
1,Américo Brasiliense/SP,-21.7297099,-48.1052092,4446,10701.64881
D1,Américo Brasiliense/SP,-21.7297099,-48.1052092,101,243.10988
1,Américo de Campos/SP,-20.298476,-49.735904,1271,21208.07609
D1,Américo de Campos/SP,-20.298476,-49.735904,35,584.01468
1,Anadia/AL,-9.6830208,-36.3052699,1615,9224.88148
D1,Anadia/AL,-9.6830208,-36.3052699,35,199.92003
1,Anagé/BA,-14.6134669,-41.1376308,1195,5629.09228
D1,Anagé/BA,-14.6134669,-41.1376308,30,141.31612
1,Anahy/PR,-24.6450861,-53.1337957,565,20367.70007
D1,Anahy/PR,-24.6450861,-53.1337957,13,468.63735
1,Anajatuba/MA,-3.26441,-44.6179916,1321,4861.98013
D1,Anajatuba/MA,-3.26441,-44.6179916,27,99.37431
1,Anajás/PA,-0.9878802,-49.9390114,1384,4599.38187
D1,Anajás/PA,-0.9878802,-49.9390114,22,73.11156
1,Analândia/SP,-22.128917,-47.661939,396,7741.93548
D1,Analândia/SP,-22.128917,-47.661939,5,97.75171
1,Anamã/AM,-3.5797356,-61.4049996,2477,17331.37420
D1,Anamã/AM,-3.5797356,-61.4049996,11,76.96613
1,Ananindeua/PA,-1.374035,-48.4016623,27292,5050.23963
D1,Ananindeua/PA,-1.374035,-48.4016623,835,154.51231
1,Ananás/TO,-6.3663053,-48.080238,1859,19703.23264
D1,Ananás/TO,-6.3663053,-48.080238,28,296.76736
1,Anapu/PA,-3.4668292,-51.2057035,2036,6945.96070
D1,Anapu/PA,-3.4668292,-51.2057035,61,208.10590
1,Anapurus/MA,-3.6751298,-43.1046001,832,5182.50903
D1,Anapurus/MA,-3.6751298,-43.1046001,15,93.43466
1,Anastácio/MS,-20.4832458,-55.8048448,2718,10727.81812
D1,Anastácio/MS,-20.4832458,-55.8048448,88,347.33186
1,Anaurilândia/MS,-22.185169,-52.719056,571,6263.71215
D1,Anaurilândia/MS,-22.185169,-52.719056,16,175.51558
1,Anchieta/ES,-20.8057672,-40.6454564,7850,25920.42265
D1,Anchieta/ES,-20.8057672,-40.6454564,103,340.10236
1,Anchieta/SC,-26.5350527,-53.3293938,739,13492.78802
D1,Anchieta/SC,-26.5350527,-53.3293938,11,200.83988
1,Andaraí/BA,-12.8059674,-41.3322919,1083,8253.31504
D1,Andaraí/BA,-12.8059674,-41.3322919,11,83.82868
1,Andirá/PR,-23.0494761,-50.2310027,3849,19416.83903
D1,Andirá/PR,-23.0494761,-50.2310027,96,484.28593
1,Andorinha/BA,-10.3445708,-39.8334411,1024,7103.21865
D1,Andorinha/BA,-10.3445708,-39.8334411,18,124.86127
1,Andradas/MG,-22.0680484,-46.5688976,5681,13622.19451
D1,Andradas/MG,-22.0680484,-46.5688976,127,304.52714
1,Andradina/SP,-20.896505,-51.3742765,8254,14418.72653
D1,Andradina/SP,-20.896505,-51.3742765,291,508.34134
1,Andrelândia/MG,-21.739722,-44.308889,206,1690.04840
D1,Andrelândia/MG,-21.739722,-44.308889,16,131.26590
1,André da Rocha/RS,-28.6309124,-51.5733328,143,10584.75204
D1,André da Rocha/RS,-28.6309124,-51.5733328,1,74.01925
1,Angatuba/SP,-23.4938938,-48.4110675,3237,12583.57954
D1,Angatuba/SP,-23.4938938,-48.4110675,83,322.65589
1,Angelim/PE,-8.8902038,-36.2872987,247,2185.64729
D1,Angelim/PE,-8.8902038,-36.2872987,12,106.18529
1,Angelina/SC,-27.5805287,-48.9838759,624,13316.26120
D1,Angelina/SC,-27.5805287,-48.9838759,5,106.70081
1,Angelândia/MG,-17.7253,-42.2728,275,3199.90691
D1,Angelândia/MG,-17.7253,-42.2728,4,46.54410
1,Angical do Piauí/PI,-6.0872666,-42.7366138,894,13187.78581
D1,Angical do Piauí/PI,-6.0872666,-42.7366138,12,177.01726
1,Angical/BA,-12.005623,-44.7000236,1006,7236.36887
D1,Angical/BA,-12.005623,-44.7000236,20,143.86419
1,Angico/TO,-6.3893733,-47.8656722,253,7280.57554
D1,Angico/TO,-6.3893733,-47.8656722,5,143.88489
1,Angicos/RN,-5.6666344,-36.6009064,1142,9764.85678
D1,Angicos/RN,-5.6666344,-36.6009064,25,213.76657
1,Angra dos Reis/RJ,-23.0063966,-44.316326,20115,9570.77808
D1,Angra dos Reis/RJ,-23.0063966,-44.316326,582,276.91737
1,Anguera/BA,-12.1509425,-39.2452469,566,4978.45017
D1,Anguera/BA,-12.1509425,-39.2452469,2,17.59170
1,Angélica/MS,-22.1588196,-53.7728504,1611,14538.39906
D1,Angélica/MS,-22.1588196,-53.7728504,21,189.51358
1,Anhanguera/GO,-18.3338749,-48.220363,151,12894.96157
D1,Anhanguera/GO,-18.3338749,-48.220363,7,597.77968
1,Anhembi/SP,-22.7891096,-48.1316776,372,5382.72319
D1,Anhembi/SP,-22.7891096,-48.1316776,11,159.16655
1,Anhumas/SP,-22.2956478,-51.3873401,390,9348.03452
D1,Anhumas/SP,-22.2956478,-51.3873401,8,191.75455
1,Anicuns/GO,-16.4606451,-49.9572265,4992,22574.95591
D1,Anicuns/GO,-16.4606451,-49.9572265,76,343.68923
1,Anita Garibaldi/SC,-27.6855032,-51.1293873,1525,22482.67728
D1,Anita Garibaldi/SC,-27.6855032,-51.1293873,10,147.42739
1,Anitápolis/SC,-27.9041185,-49.1287395,426,13217.49922
D1,Anitápolis/SC,-27.9041185,-49.1287395,5,155.13497
1,Anori/AM,-3.7435254,-61.6605203,2651,12084.60592
D1,Anori/AM,-3.7435254,-61.6605203,33,150.43078
1,Anta Gorda/RS,-28.9718745,-52.0069187,879,14795.48897
D1,Anta Gorda/RS,-28.9718745,-52.0069187,8,134.65747
1,Antas/BA,-10.4114649,-38.3308815,1338,6806.04303
D1,Antas/BA,-10.4114649,-38.3308815,13,66.12747
1,Antonina do Norte/CE,-6.7754187,-39.9879345,874,11807.61956
D1,Antonina do Norte/CE,-6.7754187,-39.9879345,26,351.25642
1,Antonina/PR,-25.4298854,-48.7125431,3337,17638.35298
D1,Antonina/PR,-25.4298854,-48.7125431,73,385.85549
1,Antônio Almeida/PI,-7.2186016,-44.1950248,407,12818.89764
D1,Antônio Almeida/PI,-7.2186016,-44.1950248,10,314.96063
1,Antônio Cardoso/BA,-12.4363122,-39.1200307,654,5604.11311
D1,Antônio Cardoso/BA,-12.4363122,-39.1200307,11,94.25878
1,Antônio Carlos/MG,-21.318334,-43.746666,1314,11454.97341
D1,Antônio Carlos/MG,-21.318334,-43.746666,18,156.91744
1,Antônio Carlos/SC,-27.5168462,-48.7684715,2012,23094.58219
D1,Antônio Carlos/SC,-27.5168462,-48.7684715,27,309.91736
1,Antônio Dias/MG,-19.6525,-42.872778,665,7202.42608
D1,Antônio Dias/MG,-19.6525,-42.872778,27,292.42933
1,Antônio Gonçalves/BA,-10.5715409,-40.2748824,943,7887.91301
D1,Antônio Gonçalves/BA,-10.5715409,-40.2748824,10,83.64701
1,Antônio João/MS,-22.1892837,-55.9508227,824,9072.89143
D1,Antônio João/MS,-22.1892837,-55.9508227,18,198.19423
1,Antônio Martins/RN,-6.2155812,-37.8890129,873,12189.33259
D1,Antônio Martins/RN,-6.2155812,-37.8890129,7,97.73806
1,Antônio Olinto/PR,-25.9849006,-50.1974516,737,9931.27611
D1,Antônio Olinto/PR,-25.9849006,-50.1974516,16,215.60437
1,Antônio Prado de Minas/MG,-21.0171988,-42.1101106,166,10526.31579
D1,Antônio Prado de Minas/MG,-21.0171988,-42.1101106,5,317.05770
1,Antônio Prado/RS,-28.8567806,-51.2801355,3492,26777.08765
D1,Antônio Prado/RS,-28.8567806,-51.2801355,35,268.38433
1,Anápolis/GO,-16.3332828,-48.9525756,56861,14339.79109
D1,Anápolis/GO,-16.3332828,-48.9525756,1837,463.27353
1,Anísio de Abreu/PI,-9.185643,-43.04941,291,2911.74705
D1,Anísio de Abreu/PI,-9.185643,-43.04941,15,150.09005
1,Aparecida d'Oeste/SP,-20.4498109,-50.8808706,1062,25764.19214
D1,Aparecida d'Oeste/SP,-20.4498109,-50.8808706,22,533.72149
1,Aparecida de Goiânia/GO,-16.8226769,-49.2452546,101803,16915.18068
D1,Aparecida de Goiânia/GO,-16.8226769,-49.2452546,1807,300.24392
1,Aparecida do Rio Doce/GO,-18.2980167,-51.1491312,277,11196.44301
D1,Aparecida do Rio Doce/GO,-18.2980167,-51.1491312,4,161.68149
1,Aparecida do Rio Negro/TO,-9.9513491,-47.9773786,399,8141.19567
D1,Aparecida do Rio Negro/TO,-9.9513491,-47.9773786,13,265.25199
1,Aparecida do Taboado/MS,-20.0840304,-51.1013943,4841,18346.85060
D1,Aparecida do Taboado/MS,-20.0840304,-51.1013943,63,238.76298
1,Aparecida/PB,-6.7859598, -38.0831353,1327,15644.89507
D1,Aparecida/PB,-6.7859598, -38.0831353,14,165.05541
1,Aparecida/SP,-22.851552,-45.2340924,2927,8083.17914
D1,Aparecida/SP,-22.851552,-45.2340924,119,328.62942
1,Aperibé/RJ,-21.6211928,-42.1028167,1414,11748.08907
D1,Aperibé/RJ,-21.6211928,-42.1028167,32,265.86906
1,Apiacá/ES,-21.152272,-41.569297,1626,21559.26810
D1,Apiacá/ES,-21.152272,-41.569297,38,503.84513
1,Apiacás/MT,-9.5678422,-57.394852,2325,22289.32988
D1,Apiacás/MT,-9.5678422,-57.394852,19,182.14936
1,Apiaí/SP,-24.5076527,-48.8461582,1782,7400.02492
D1,Apiaí/SP,-24.5076527,-48.8461582,98,406.95984
1,Apicum-Açu/MA,-1.5279295,-45.082278,656,3731.08861
D1,Apicum-Açu/MA,-1.5279295,-45.082278,11,62.56399
1,Apiúna/SC,-27.0374658,-49.3885037,1120,10227.37650
D1,Apiúna/SC,-27.0374658,-49.3885037,18,164.36855
1,Apodi/RN,-5.6631109,-37.796927,7556,21045.00891
D1,Apodi/RN,-5.6631109,-37.796927,101,281.30570
1,Aporá/BA,-11.6599747,-38.0794757,701,3929.37220
D1,Aporá/BA,-11.6599747,-38.0794757,19,106.50224
1,Aporé/GO,-18.9642193,-51.92804,525,12306.61041
D1,Aporé/GO,-18.9642193,-51.92804,11,257.85279
1,Apuarema/BA,-13.8517897,-39.7457126,806,11080.56090
D1,Apuarema/BA,-13.8517897,-39.7457126,11,151.22354
1,Apucarana/PR,-23.5525327,-51.4610764,14864,10815.05843
D1,Apucarana/PR,-23.5525327,-51.4610764,493,358.70720
1,Apuiarés/CE,-3.9460303,-39.4313298,1379,9354.22602
D1,Apuiarés/CE,-3.9460303,-39.4313298,25,169.58350
1,Apuí/AM,-7.1940195,-59.8830192,1646,7238.66485
D1,Apuí/AM,-7.1940195,-59.8830192,34,149.52285
1,Aquidabã/SE,-10.2837579,-37.0188687,2466,11314.00257
D1,Aquidabã/SE,-10.2837579,-37.0188687,41,188.10791
1,Aquidauana/MS,-20.473969,-55.7821375,6178,12821.68355
D1,Aquidauana/MS,-20.473969,-55.7821375,168,348.66346
1,Aquiraz/CE,-3.9063117,-38.387504,9107,11163.13848
D1,Aquiraz/CE,-3.9063117,-38.387504,98,120.12601
1,Arabutã/SC,-27.1587028,-52.1438142,426,9981.25586
D1,Arabutã/SC,-27.1587028,-52.1438142,10,234.30178
1,Aracaju/SE,-10.9162061,-37.0774655,138196,20546.10817
D1,Aracaju/SE,-10.9162061,-37.0774655,2450,364.25052
1,Aracati/CE,-4.558259,-37.767894,9589,12718.85611
D1,Aracati/CE,-4.558259,-37.767894,168,222.83531
1,Aracatu/BA,-14.4274236,-41.4604105,1121,8649.69136
D1,Aracatu/BA,-14.4274236,-41.4604105,19,146.60494
1,Araci/BA,-11.3356065,-38.9573261,3966,7223.64898
D1,Araci/BA,-11.3356065,-38.9573261,57,103.81946
1,Aracitaba/MG,-21.3425,-43.378611,109,5301.55642
D1,Aracitaba/MG,-21.3425,-43.378611,11,535.01946
1,Aracoiaba/CE,-4.3702577,-38.8084313,4550,17105.26316
D1,Aracoiaba/CE,-4.3702577,-38.8084313,36,135.33835
1,Aracruz/ES,-19.8245218,-40.2735025,30460,29025.55697
D1,Aracruz/ES,-19.8245218,-40.2735025,257,244.89718
1,Aragarças/GO,-15.8957166,-52.2514538,3559,17437.53062
D1,Aragarças/GO,-15.8957166,-52.2514538,80,391.96472
1,Aragoiânia/GO,-16.9146388,-49.4499148,1892,17715.35581
D1,Aragoiânia/GO,-16.9146388,-49.4499148,30,280.89888
1,Aragominas/TO,-7.1654101,-48.525488,781,13689.74584
D1,Aragominas/TO,-7.1654101,-48.525488,11,192.81332
1,Araguacema/TO,-8.8067391,-49.5560969,867,12003.32272
D1,Araguacema/TO,-8.8067391,-49.5560969,19,263.04859
1,Araguaiana/MT,-15.729144,-51.834112,460,15013.05483
D1,Araguaiana/MT,-15.729144,-51.834112,8,261.09661
1,Araguainha/MT,-16.857016,-53.031778,33,3630.36304
D1,Araguainha/MT,-16.857016,-53.031778,1,110.01100
1,Araguanã/MA,-2.9508403,-45.6651986,841,5365.23126
D1,Araguanã/MA,-2.9508403,-45.6651986,5,31.89793
1,Araguanã/TO,-6.5799107,-48.6428482,604,10314.20765
D1,Araguanã/TO,-6.5799107,-48.6428482,16,273.22404
1,Araguapaz/GO,-15.0937927,-50.626417,844,10827.45350
D1,Araguapaz/GO,-15.0937927,-50.626417,31,397.69083
1,Araguari/MG,-18.6511256,-48.1933764,23977,20257.51726
D1,Araguari/MG,-18.6511256,-48.1933764,479,404.69411
1,Araguatins/TO,-5.6522925,-48.1158973,3020,8257.45769
D1,Araguatins/TO,-5.6522925,-48.1158973,74,202.33506
1,Araguaçu/TO,-12.928934,-49.823134,1370,16274.64956
D1,Araguaçu/TO,-12.928934,-49.823134,23,273.22404
1,Araguaína/TO,-7.193241,-48.2018597,43858,23548.55164
D1,Araguaína/TO,-7.193241,-48.2018597,573,307.65927
1,Araioses/MA,-2.890914,-41.904993,687,1458.75358
D1,Araioses/MA,-2.890914,-41.904993,15,31.85051
1,Aral Moreira/MS,-22.951141,-55.6268421,571,4563.98369
D1,Aral Moreira/MS,-22.951141,-55.6268421,19,151.86636
1,Aramari/BA,-12.0907897,-38.4985065,819,7109.99219
D1,Aramari/BA,-12.0907897,-38.4985065,14,121.53833
1,Arambaré/RS,-30.9132252,-51.4994625,306,8634.31151
D1,Arambaré/RS,-30.9132252,-51.4994625,9,253.95034
1,Arame/MA,-4.8858769,-46.0102484,1563,4761.61462
D1,Arame/MA,-4.8858769,-46.0102484,42,127.95126
1,Aramina/SP,-20.0876144,-47.789201,374,6574.09035
D1,Aramina/SP,-20.0876144,-47.789201,18,316.40007
1,Arandu/SP,-23.1345103,-49.0545651,658,10324.80778
D1,Arandu/SP,-23.1345103,-49.0545651,21,329.51514
1,Arantina/MG,-21.911667,-44.255833,391,14069.80928
D1,Arantina/MG,-21.911667,-44.255833,6,215.90500
1,Arapeí/SP,-22.6738889,-44.4477778,272,11092.98532
D1,Arapeí/SP,-22.6738889,-44.4477778,4,163.13214
1,Arapiraca/AL,-9.754866,-36.661471,32380,13819.35820
D1,Arapiraca/AL,-9.754866,-36.661471,540,230.46490
1,Arapoema/TO,-7.6575001,-49.0641484,608,9226.10015
D1,Arapoema/TO,-7.6575001,-49.0641484,12,182.09408
1,Araponga/MG,-20.666667,-42.520556,843,9956.30093
D1,Araponga/MG,-20.666667,-42.520556,12,141.72670
1,Arapongas/PR,-23.415296,-51.42592,18528,14641.43190
D1,Arapongas/PR,-23.415296,-51.42592,601,474.92987
1,Araporã/MG,-18.4318188,-49.188313,2516,35983.98169
D1,Araporã/MG,-18.4318188,-49.188313,42,600.68650
1,Arapoti/PR,-24.1457957,-49.8224605,4549,15972.61236
D1,Arapoti/PR,-24.1457957,-49.8224605,68,238.76404
1,Araputanga/MT,-15.4710868,-58.346796,3013,17642.58110
D1,Araputanga/MT,-15.4710868,-58.346796,56,327.90725
1,Arapuá/MG,-19.034444,-46.155556,386,13610.71932
D1,Arapuá/MG,-19.034444,-46.155556,3,105.78279
1,Arapuã/PR,-24.3079525,-51.7901941,529,17926.12674
D1,Arapuã/PR,-24.3079525,-51.7901941,9,304.98136
1,Araquari/SC,-26.3703324,-48.7210994,5843,14289.55735
D1,Araquari/SC,-26.3703324,-48.7210994,90,220.10271
1,Arara/PB,-6.8271895,-35.7605703,1113,8176.00823
D1,Arara/PB,-6.8271895,-35.7605703,29,213.03166
1,Araranguá/SC,-28.9348832,-49.4858389,13057,18788.94277
D1,Araranguá/SC,-28.9348832,-49.4858389,265,381.33337
1,Araraquara/SP,-21.7886713,-48.1773096,24239,10076.82650
D1,Araraquara/SP,-21.7886713,-48.1773096,567,235.71767
1,Araras/SP,-22.3569477,-47.3838889,18996,13892.15952
D1,Araras/SP,-22.3569477,-47.3838889,411,300.57262
1,Ararendá/CE,-4.7504395,-40.8303611,1566,14258.39934
D1,Ararendá/CE,-4.7504395,-40.8303611,22,200.30957
1,Arari/MA,-3.4547602,-44.7772723,1087,3621.64323
D1,Arari/MA,-3.4547602,-44.7772723,35,116.61225
1,Araricá/RS,-29.6168543,-50.929121,1177,20154.10959
D1,Araricá/RS,-29.6168543,-50.929121,28,479.45205
1,Araripe/CE,-7.212861,-40.1359222,1453,6693.69328
D1,Araripe/CE,-7.212861,-40.1359222,25,115.17022
1,Araripina/PE,-7.5768582,-40.5038509,8722,10224.96805
D1,Araripina/PE,-7.5768582,-40.5038509,172,201.63890
1,Araruama/RJ,-22.8733203,-42.3428897,8588,6309.64888
D1,Araruama/RJ,-22.8733203,-42.3428897,494,362.94440
1,Araruna/PB,-6.5321155,-35.7397595,759,3682.67831
D1,Araruna/PB,-6.5321155,-35.7397595,18,87.33624
1,Araruna/PR,-23.9320308,-52.4976047,2769,19737.68622
D1,Araruna/PR,-23.9320308,-52.4976047,37,263.73940
1,Arataca/BA,-15.2617424,-39.4122943,824,7556.85987
D1,Arataca/BA,-15.2617424,-39.4122943,16,146.73514
1,Aratiba/RS,-27.3955734,-52.3024325,621,10105.77705
D1,Aratiba/RS,-27.3955734,-52.3024325,8,130.18714
1,Aratuba/CE,-4.4195958,-39.0463737,1986,16889.19126
D1,Aratuba/CE,-4.4195958,-39.0463737,14,119.05774
1,Aratuípe/BA,-13.077137,-39.0010786,605,6837.70344
D1,Aratuípe/BA,-13.077137,-39.0010786,12,135.62387
1,Araucária/PR,-25.5861107,-49.4051209,36122,24320.97602
D1,Araucária/PR,-25.5861107,-49.4051209,562,378.39512
1,Arauá/SE,-11.2644014,-37.6181058,1343,13648.37398
D1,Arauá/SE,-11.2644014,-37.6181058,23,233.73984
1,Araxá/MG,-19.5928536,-46.940241,25543,23563.00102
D1,Araxá/MG,-19.5928536,-46.940241,252,232.46589
1,Araçagi/PB,-6.8519969,-35.3835602,2003,11882.30409
D1,Araçagi/PB,-6.8519969,-35.3835602,26,154.23860
1,Araçariguama/SP,-23.438611,-47.061389,2394,10255.75119
D1,Araçariguama/SP,-23.438611,-47.061389,75,321.29546
1,Araçatuba/SP,-21.207992,-50.4390225,34371,17253.65193
D1,Araçatuba/SP,-21.207992,-50.4390225,954,478.89162
1,Araçaí/MG,-19.200833,-44.2475,104,4406.77966
D1,Araçaí/MG,-19.200833,-44.2475,1,42.37288
1,Araçoiaba da Serra/SP,-23.5045367,-47.6168158,3117,8807.82164
D1,Araçoiaba da Serra/SP,-23.5045367,-47.6168158,91,257.14205
1,Araçoiaba/PE,-7.7856903,-35.0898881,793,3787.73405
D1,Araçoiaba/PE,-7.7856903,-35.0898881,34,162.39969
1,Araçu/GO,-16.3561579,-49.6815269,1004,29101.44928
D1,Araçu/GO,-16.3561579,-49.6815269,20,579.71014
1,Araçuaí/MG,-16.8484451,-42.0661868,2799,7623.58709
D1,Araçuaí/MG,-16.8484451,-42.0661868,54,147.07885
1,Araçás/BA,-12.2139176,-38.2026159,752,6145.29705
D1,Araçás/BA,-12.2139176,-38.2026159,17,138.92294
1,Araújos/MG,-19.948055,-45.165556,947,9944.34527
D1,Araújos/MG,-19.948055,-45.165556,14,147.01250
1,Arceburgo/MG,-21.364444,-46.939722,1839,16733.39399
D1,Arceburgo/MG,-21.364444,-46.939722,34,309.37216
1,Arco-Íris/SP,-21.7741308,-50.4668814,178,10142.45014
D1,Arco-Íris/SP,-21.7741308,-50.4668814,8,455.84046
1,Arcos/MG,-20.282223,-45.539444,8716,21437.35550
D1,Arcos/MG,-20.282223,-45.539444,140,344.33568
1,Arcoverde/PE,-8.415192,-37.057748,8042,10680.65609
D1,Arcoverde/PE,-8.415192,-37.057748,136,180.62288
1,Areado/MG,-21.3582771,-46.1476688,1954,12781.26635
D1,Areado/MG,-21.3582771,-46.1476688,33,215.85557
1,Areal/RJ,-22.2314922,-43.1056264,1787,14001.41033
D1,Areal/RJ,-22.2314922,-43.1056264,51,399.59257
1,Arealva/SP,-22.0301906,-48.9111936,1296,14956.72245
D1,Arealva/SP,-22.0301906,-48.9111936,22,253.89498
1,Areia Branca/RN,-4.9506652,-37.1263312,3605,12803.66529
D1,Areia Branca/RN,-4.9506652,-37.1263312,109,387.12885
1,Areia Branca/SE,-10.7591455,-37.3148072,2218,11782.20452
D1,Areia Branca/SE,-10.7591455,-37.3148072,50,265.60425
1,Areia de Baraúnas/PB,-7.1233949,-36.9446216,277,13159.14489
D1,Areia de Baraúnas/PB,-7.1233949,-36.9446216,7,332.54157
1,Areia/PB,-6.9680243,-35.6994783,2625,11670.29743
D1,Areia/PB,-6.9680243,-35.6994783,35,155.60397
1,Areial/PB,-7.0501306,-35.9245244,452,6407.71194
D1,Areial/PB,-7.0501306,-35.9245244,12,170.11625
1,Areias/SP,-22.5800929,-44.6975127,366,9370.19969
D1,Areias/SP,-22.5800929,-44.6975127,2,51.20328
1,Areiópolis/SP,-22.6758064,-48.6673653,1433,12810.65618
D1,Areiópolis/SP,-22.6758064,-48.6673653,23,205.61416
1,Arenápolis/MT,-14.4610369,-56.8432806,2472,26300.67028
D1,Arenápolis/MT,-14.4610369,-56.8432806,40,425.57719
1,Arenópolis/GO,-16.3859286,-51.55937,588,23883.02193
D1,Arenópolis/GO,-16.3859286,-51.55937,9,365.55646
1,Argirita/MG,-21.612761,-42.8371922,468,17456.17307
D1,Argirita/MG,-21.612761,-42.8371922,12,447.59418
1,Aricanduva/MG,-17.8678,-42.5569,246,4637.13478
1,Arinos/MG,-15.917223,-46.106111,1729,9686.27451
D1,Arinos/MG,-15.917223,-46.106111,30,168.06723
1,Aripuanã/MT,-10.175806,-59.4439663,4138,17939.04712
D1,Aripuanã/MT,-10.175806,-59.4439663,51,221.09507
1,Ariquemes/RO,-9.9076522,-63.033069,27051,24337.81984
D1,Ariquemes/RO,-9.9076522,-63.033069,537,483.13960
1,Ariranha do Ivaí/PR,-24.3834527,-51.5876772,354,17472.85291
D1,Ariranha do Ivaí/PR,-24.3834527,-51.5876772,4,197.43337
1,Ariranha/SP,-21.18716,-48.790418,1024,10394.88377
D1,Ariranha/SP,-21.18716,-48.790418,33,334.99137
1,Armazém/SC,-28.2624996,-49.0190126,1513,17109.57820
D1,Armazém/SC,-28.2624996,-49.0190126,36,407.10166
1,Armação dos Búzios/RJ,-22.7597805,-41.8875267,6590,18796.34912
D1,Armação dos Búzios/RJ,-22.7597805,-41.8875267,77,219.62350
1,Arneiroz/CE,-6.3235099,-40.1603859,757,9645.76962
D1,Arneiroz/CE,-6.3235099,-40.1603859,21,267.58410
1,Aroazes/PI,-6.1108814,-41.7886137,687,11806.15226
D1,Aroazes/PI,-6.1108814,-41.7886137,14,240.59117
1,Aroeiras do Itaim/PI,-7.2797031,-41.5629681,186,7291.25833
D1,Aroeiras do Itaim/PI,-7.2797031,-41.5629681,2,78.40063
1,Aroeiras/PB,-7.5462904,-35.7080002,2315,12132.48782
D1,Aroeiras/PB,-7.5462904,-35.7080002,18,94.33468
1,Arraial do Cabo/RJ,-22.9662839,-42.024427,1559,5057.25500
D1,Arraial do Cabo/RJ,-22.9662839,-42.024427,49,158.95157
1,Arraial/PI,-6.6541632,-42.5335332,172,3649.48016
D1,Arraial/PI,-6.6541632,-42.5335332,3,63.65372
1,Arraias/TO,-12.9287788,-46.9437231,1196,11388.30699
D1,Arraias/TO,-12.9287788,-46.9437231,13,123.78595
1,Arroio Grande/RS,-32.2384246,-53.0866661,2392,13153.69810
D1,Arroio Grande/RS,-32.2384246,-53.0866661,59,324.44322
1,Arroio Trinta/SC,-26.9301976,-51.334928,876,24696.92698
D1,Arroio Trinta/SC,-26.9301976,-51.334928,15,422.89259
1,Arroio do Meio/RS,-29.4020392,-51.9444993,3740,17707.49491
D1,Arroio do Meio/RS,-29.4020392,-51.9444993,51,241.46584
1,Arroio do Padre/RS,-31.4428773,-52.4228985,295,9946.05529
D1,Arroio do Padre/RS,-31.4428773,-52.4228985,4,134.86177
1,Arroio do Sal/RS,-29.549852,-49.8874395,2316,22092.91233
D1,Arroio do Sal/RS,-29.549852,-49.8874395,41,391.10942
1,Arroio do Tigre/RS,-29.334158,-53.0888935,1778,13217.36545
D1,Arroio do Tigre/RS,-29.334158,-53.0888935,22,163.54445
1,Arroio dos Ratos/RS,-30.0894524,-51.7265541,1580,11125.97704
D1,Arroio dos Ratos/RS,-30.0894524,-51.7265541,45,316.87909
1,Artur Nogueira/SP,-22.572737,-47.172679,7041,12518.00096
D1,Artur Nogueira/SP,-22.572737,-47.172679,149,264.90302
1,Aruanã/GO,-14.9162439,-51.0715692,1054,10193.42360
D1,Aruanã/GO,-14.9162439,-51.0715692,20,193.42360
1,Arujá/SP,-23.396266,-46.3175449,8864,9587.57423
D1,Arujá/SP,-23.396266,-46.3175449,346,374.24421
1,Arvoredo/SC,-27.0752908,-52.4571847,396,17773.78815
D1,Arvoredo/SC,-27.0752908,-52.4571847,5,224.41652
1,Arvorezinha/RS,-28.87369,-52.17808,1232,11821.14757
D1,Arvorezinha/RS,-28.87369,-52.17808,30,287.85262
1,Arês/RN,-6.1969216,-35.1642968,1352,9307.44871
D1,Arês/RN,-6.1969216,-35.1642968,27,185.87361
1,Ascurra/SC,-26.9569975,-49.3767752,1914,23862.36130
D1,Ascurra/SC,-26.9569975,-49.3767752,13,162.07455
1,Aspásia/SP,-20.160028,-50.728046,303,16694.21488
D1,Aspásia/SP,-20.160028,-50.728046,9,495.86777
1,Assaré/CE,-6.8746791,-39.8741385,2577,10948.71904
D1,Assaré/CE,-6.8746791,-39.8741385,48,203.93423
1,Assaí/PR,-23.3736041,-50.8454929,2407,16272.30936
D1,Assaí/PR,-23.3736041,-50.8454929,58,392.10384
1,Assis Brasil/AC,-10.9409203,-69.5672108,1920,25101.32043
D1,Assis Brasil/AC,-10.9409203,-69.5672108,24,313.76651
1,Assis Chateaubriand/PR,-24.4054826,-53.5120468,7213,21656.75854
D1,Assis Chateaubriand/PR,-24.4054826,-53.5120468,135,405.33237
1,Assis/SP,-22.6620892,-50.420623,13064,12351.56191
D1,Assis/SP,-22.6620892,-50.420623,427,403.71379
1,Assunção do Piauí/PI,-5.8610212,-41.0485091,410,5203.70605
D1,Assunção do Piauí/PI,-5.8610212,-41.0485091,9,114.22769
1,Assunção/PB,-7.073396,-36.7274003,541,13302.18835
D1,Assunção/PB,-7.073396,-36.7274003,5,122.94074
1,Astolfo Dutra/MG,-21.3132636,-42.8624102,1911,13309.65316
D1,Astolfo Dutra/MG,-21.3132636,-42.8624102,29,201.97799
1,Astorga/PR,-23.2350184,-51.6647074,6137,23331.05231
D1,Astorga/PR,-23.2350184,-51.6647074,98,372.56691
1,Atalaia do Norte/AM,-4.3658547,-70.1908742,3898,18679.31762
D1,Atalaia do Norte/AM,-4.3658547,-70.1908742,11,52.71229
1,Atalaia/AL,-9.5029595,-36.0219316,1580,3323.51704
D1,Atalaia/AL,-9.5029595,-36.0219316,55,115.69205
1,Atalaia/PR,-23.1513833,-52.0529697,806,20821.49315
D1,Atalaia/PR,-23.1513833,-52.0529697,25,645.82795
1,Atalanta/SC,-27.421916,-49.778863,706,22208.24159
D1,Atalanta/SC,-27.421916,-49.778863,11,346.02076
1,Ataléia/MG,-18.04432,-41.1110524,1420,11363.63636
D1,Ataléia/MG,-18.04432,-41.1110524,11,88.02817
1,Atibaia/SP,-23.1177393,-46.5547861,12803,8806.69702
D1,Atibaia/SP,-23.1177393,-46.5547861,302,207.73432
1,Atilio Vivacqua/ES,-20.9139369,-41.1947519,2443,19910.35045
D1,Atilio Vivacqua/ES,-20.9139369,-41.1947519,34,277.09861
1,Augustinópolis/TO,-5.4662267,-47.8897519,2017,10688.92422
D1,Augustinópolis/TO,-5.4662267,-47.8897519,32,169.58135
1,Augusto Corrêa/PA,-1.0229335,-46.6404029,2247,4787.26804
D1,Augusto Corrêa/PA,-1.0229335,-46.6404029,52,110.78680
1,Augusto Pestana/RS,-28.5148413,-53.9906433,1200,18334.60657
D1,Augusto Pestana/RS,-28.5148413,-53.9906433,14,213.90374
1,Augusto de Lima/MG,-18.1092963,-44.2651945,327,6765.98386
D1,Augusto de Lima/MG,-18.1092963,-44.2651945,11,227.60190
1,Aurelino Leal/BA,-14.3167137,-39.3256107,1162,10488.31122
D1,Aurelino Leal/BA,-14.3167137,-39.3256107,36,324.93907
1,Auriflama/SP,-20.6840418,-50.5554616,2211,14435.88404
D1,Auriflama/SP,-20.6840418,-50.5554616,79,515.80047
1,Aurilândia/GO,-16.6772599,-50.4641231,681,22700.00000
D1,Aurilândia/GO,-16.6772599,-50.4641231,14,466.66667
1,Aurora do Pará/PA,-2.1323199,-47.558436,1836,5701.86335
D1,Aurora do Pará/PA,-2.1323199,-47.558436,15,46.58385
1,Aurora do Tocantins/TO,-12.71045,-46.407604,406,10658.96561
D1,Aurora do Tocantins/TO,-12.71045,-46.407604,7,183.77527
1,Aurora/CE,-6.9426019,-38.9693765,2149,8747.50682
D1,Aurora/CE,-6.9426019,-38.9693765,42,170.96105
1,Aurora/SC,-27.3166417,-49.6368502,1205,21188.67593
D1,Aurora/SC,-27.3166417,-49.6368502,19,334.09531
1,Autazes/AM,-3.5833283,-59.1301518,3956,9647.60395
D1,Autazes/AM,-3.5833283,-59.1301518,100,243.87270
1,Avanhandava/SP,-21.4603331,-49.9465156,1232,8760.57740
D1,Avanhandava/SP,-21.4603331,-49.9465156,45,319.98862
1,Avaré/SP,-23.1045215,-48.9259103,12272,13369.35681
D1,Avaré/SP,-23.1045215,-48.9259103,289,314.84225
1,Avaí/SP,-22.1564662,-49.3316395,683,12493.14066
D1,Avaí/SP,-22.1564662,-49.3316395,13,237.79038
1,Aveiro/PA,-3.6049239,-55.3310742,972,5919.24974
D1,Aveiro/PA,-3.6049239,-55.3310742,15,91.34645
1,Avelino Lopes/PI,-10.1346855,-43.9489525,527,4638.67617
D1,Avelino Lopes/PI,-10.1346855,-43.9489525,21,184.84288
1,Avelinópolis/GO,-16.4672409,-49.7578661,449,18700.54144
D1,Avelinópolis/GO,-16.4672409,-49.7578661,17,708.03832
1,Axixá do Tocantins/TO,-5.612747,-47.77007,1163,11846.79637
D1,Axixá do Tocantins/TO,-5.612747,-47.77007,23,234.28746
1,Axixá/MA,-2.8379465,-44.0561053,192,1569.39676
D1,Axixá/MA,-2.8379465,-44.0561053,8,65.39153
1,Açailândia/MA,-4.9514278,-47.4844564,6113,5372.50732
D1,Açailândia/MA,-4.9514278,-47.4844564,270,237.29380
1,Açu/RN,-5.5836157,-36.9139541,8990,15303.95111
D1,Açu/RN,-5.5836157,-36.9139541,159,270.67055
1,Açucena/MG,-19.073056,-42.546666,820,8845.73894
D1,Açucena/MG,-19.073056,-42.546666,38,409.92449
1,Babaçulândia/TO,-7.2034355,-47.761613,891,8352.08099
D1,Babaçulândia/TO,-7.2034355,-47.761613,8,74.99063
1,Bacabal/MA,-4.2318132,-44.781167,5679,5403.73380
D1,Bacabal/MA,-4.2318132,-44.781167,208,197.91805
1,Bacabeira/MA,-2.9775747,-44.3155943,508,2911.84226
D1,Bacabeira/MA,-2.9775747,-44.3155943,11,63.05170
1,Bacuri/MA,-1.728894,-45.1417148,669,3572.57289
D1,Bacuri/MA,-1.728894,-45.1417148,4,21.36067
1,Bacurituba/MA,-2.7082587,-44.7381309,117,2054.07303
D1,Bacurituba/MA,-2.7082587,-44.7381309,2,35.11236
1,Bady Bassitt/SP,-20.9178969,-49.4517911,4288,23805.02970
D1,Bady Bassitt/SP,-20.9178969,-49.4517911,88,488.53606
1,Baependi/MG,-21.959162,-44.8899249,2644,13735.77848
D1,Baependi/MG,-21.959162,-44.8899249,35,181.82763
1,Bagre/PA,-1.8994498,-50.2103844,962,3009.35340
D1,Bagre/PA,-1.8994498,-50.2103844,12,37.53871
1,Bagé/RS,-31.3314264,-54.1062808,13271,10921.01582
D1,Bagé/RS,-31.3314264,-54.1062808,303,249.34578
1,Baianópolis/BA,-12.3067564,-44.5383591,1187,8491.30839
D1,Baianópolis/BA,-12.3067564,-44.5383591,21,150.22534
1,Baixa Grande do Ribeiro/PI,-7.862861,-45.2113289,2669,22712.96060
D1,Baixa Grande do Ribeiro/PI,-7.862861,-45.2113289,36,306.35691
1,Baixa Grande/BA,-11.9630941,-40.1657537,1121,5486.76032
D1,Baixa Grande/BA,-11.9630941,-40.1657537,20,97.89046
1,Baixio/CE,-6.7303544,-38.7170095,758,11997.46755
D1,Baixio/CE,-6.7303544,-38.7170095,15,237.41690
1,Baixo Guandu/ES,-19.5138322,-41.0182089,6194,19812.55798
D1,Baixo Guandu/ES,-19.5138322,-41.0182089,97,310.27093
1,Baião/PA,-2.7903479,-49.6702845,878,1775.38723
D1,Baião/PA,-2.7903479,-49.6702845,39,78.86116
1,Balbinos/SP,-21.9006253,-49.3583966,452,7377.18296
D1,Balbinos/SP,-21.9006253,-49.3583966,4,65.28480
1,Baldim/MG,-19.2913568,-43.9558262,704,9048.84319
D1,Baldim/MG,-19.2913568,-43.9558262,22,282.77635
1,Baliza/GO,-16.1978119,-52.542789,565,10428.20229
D1,Baliza/GO,-16.1978119,-52.542789,11,203.02695
1,Balneário Arroio do Silva/SC,-28.9815269,-49.4189932,2622,19024.81498
D1,Balneário Arroio do Silva/SC,-28.9815269,-49.4189932,62,449.86214
1,Balneário Barra do Sul/SC,-26.459842,-48.6061471,1886,16733.20912
D1,Balneário Barra do Sul/SC,-26.459842,-48.6061471,49,434.74403
1,Balneário Camboriú/SC,-26.9924395,-48.6339782,32427,21729.98184
D1,Balneário Camboriú/SC,-26.9924395,-48.6339782,462,309.59545
1,Balneário Gaivota/SC,-29.1553098,-49.5808712,1833,15888.01248
D1,Balneário Gaivota/SC,-29.1553098,-49.5808712,39,338.04282
1,Balneário Pinhal/RS,-30.2482978,-50.234585,1896,12946.39809
D1,Balneário Pinhal/RS,-30.2482978,-50.234585,58,396.03960
1,Balneário Piçarras/SC,-26.7638889,-48.6716667,6027,24716.01394
D1,Balneário Piçarras/SC,-26.7638889,-48.6716667,70,287.06172
1,Balneário Rincão/SC,-28.8235718,-49.2241642,2102,16010.35875
D1,Balneário Rincão/SC,-28.8235718,-49.2241642,54,411.30322
1,Balsa Nova/PR,-25.5842234,-49.6312741,2374,17933.22254
D1,Balsa Nova/PR,-25.5842234,-49.6312741,37,279.49841
1,Balsas/MA,-7.53214,-46.037163,14693,15155.07834
D1,Balsas/MA,-7.53214,-46.037163,213,219.69861
1,Bambuí/MG,-20.0131996,-45.9777034,3954,16499.74962
D1,Bambuí/MG,-20.0131996,-45.9777034,37,154.39826
1,Banabuiú/CE,-5.3046404,-38.919766,2493,13613.28018
D1,Banabuiú/CE,-5.3046404,-38.919766,22,120.13324
1,Bananal/SP,-22.6828195,-44.3221095,1133,10263.61083
D1,Bananal/SP,-22.6828195,-44.3221095,4,36.23517
1,Bananeiras/PB,-6.7537682,-35.6338343,1632,7690.85768
D1,Bananeiras/PB,-6.7537682,-35.6338343,27,127.23845
1,Bandeira do Sul/MG,-21.728056,-46.385555,1084,18663.91185
D1,Bandeira do Sul/MG,-21.728056,-46.385555,15,258.26446
1,Bandeira/MG,-15.884444,-40.559167,500,10552.97594
D1,Bandeira/MG,-15.884444,-40.559167,10,211.05952
1,Bandeirante/SC,-26.7677402,-53.6397596,472,18029.02979
D1,Bandeirante/SC,-26.7677402,-53.6397596,6,229.18258
1,Bandeirantes do Tocantins/TO,-7.7635698,-48.579148,621,17102.72652
D1,Bandeirantes do Tocantins/TO,-7.7635698,-48.579148,8,220.32498
1,Bandeirantes/MS,-19.9179623,-54.3646768,650,8927.34514
D1,Bandeirantes/MS,-19.9179623,-54.3646768,12,164.81253
1,Bandeirantes/PR,-23.107788,-50.370407,7408,23849.84386
D1,Bandeirantes/PR,-23.107788,-50.370407,148,476.48176
1,Bannach/PA,-7.3508505,-50.4064531,656,20253.16456
D1,Bannach/PA,-7.3508505,-50.4064531,3,92.62118
1,Banzaê/BA,-10.5827616,-38.6122305,1223,9229.49211
D1,Banzaê/BA,-10.5827616,-38.6122305,11,83.01260
1,Baraúna/PB,-6.643394,-36.2531932,755,15000.99344
D1,Baraúna/PB,-6.643394,-36.2531932,9,178.81979
1,Baraúna/RN,-5.0775002,-37.61752,1732,5949.43666
D1,Baraúna/RN,-5.0775002,-37.61752,29,99.61528
1,Barbacena/MG,-21.2254524,-43.7735087,12075,8683.23973
D1,Barbacena/MG,-21.2254524,-43.7735087,313,225.08108
1,Barbalha/CE,-7.3121067,-39.3036427,8081,13105.31608
D1,Barbalha/CE,-7.3121067,-39.3036427,179,290.29224
1,Barbosa Ferraz/PR,-24.0287182,-52.00811,2336,20696.37636
D1,Barbosa Ferraz/PR,-24.0287182,-52.00811,47,416.40826
1,Barbosa/SP,-21.265661,-49.951816,806,10701.00903
D1,Barbosa/SP,-21.265661,-49.951816,22,292.08710
1,Barcarena/PA,-1.5107945,-48.6190679,12214,9443.83877
D1,Barcarena/PA,-1.5107945,-48.6190679,244,188.66028
1,Barcelona/RN,-5.9514918,-35.9260284,321,8047.12961
D1,Barcelona/RN,-5.9514918,-35.9260284,8,200.55152
1,Barcelos/AM,-0.9729214,-62.925635,5279,19008.35374
D1,Barcelos/AM,-0.9729214,-62.925635,60,216.04494
1,Bariri/SP,-22.0746355,-48.7394852,3286,9167.50363
D1,Bariri/SP,-22.0746355,-48.7394852,136,379.42194
1,Barra Bonita/SC,-26.6526364,-53.4419581,329,20246.15385
D1,Barra Bonita/SC,-26.6526364,-53.4419581,2,123.07692
1,Barra Bonita/SP,-22.490859,-48.558349,4879,13505.88235
D1,Barra Bonita/SP,-22.490859,-48.558349,118,326.64360
1,Barra D'Alcântara/PI,-6.5209258,-42.1071089,155,3921.07260
D1,Barra D'Alcântara/PI,-6.5209258,-42.1071089,4,101.18897
1,Barra Funda/RS,-27.9230048,-53.0401045,782,30511.11978
D1,Barra Funda/RS,-27.9230048,-53.0401045,14,546.23488
1,Barra Longa/MG,-20.2833541,-43.0423516,542,11049.94903
D1,Barra Longa/MG,-20.2833541,-43.0423516,13,265.03568
1,Barra Mansa/RJ,-22.5394843,-44.1735129,39721,21443.34015
D1,Barra Mansa/RJ,-22.5394843,-44.1735129,709,382.75291
1,Barra Velha/SC,-26.6338203,-48.6835001,5613,18379.77668
D1,Barra Velha/SC,-26.6338203,-48.6835001,141,461.70471
1,Barra da Estiva/BA,-13.6269662,-41.3278287,3141,15551.04466
D1,Barra da Estiva/BA,-13.6269662,-41.3278287,34,168.33350
1,Barra de Guabiraba/PE,-8.4173522,-35.6626669,495,3382.99617
D1,Barra de Guabiraba/PE,-8.4173522,-35.6626669,17,116.18371
1,Barra de Santa Rosa/PB,-6.7218007,-36.0564638,1729,11078.36227
D1,Barra de Santa Rosa/PB,-6.7218007,-36.0564638,14,89.70334
1,Barra de Santana/PB,-7.5230865,-35.9988518,890,10674.02255
D1,Barra de Santana/PB,-7.5230865,-35.9988518,8,95.94627
1,Barra de Santo Antônio/AL,-9.4038098,-35.5117693,537,3314.61021
D1,Barra de Santo Antônio/AL,-9.4038098,-35.5117693,33,203.69113
1,Barra de São Francisco/ES,-18.7570902,-40.8916119,7438,16419.06360
D1,Barra de São Francisco/ES,-18.7570902,-40.8916119,240,529.78963
1,Barra de São Miguel/AL,-9.8261357,-35.8837777,848,10054.54114
D1,Barra de São Miguel/AL,-9.8261357,-35.8837777,8,94.85416
1,Barra de São Miguel/PB,-7.7528088,-36.3170996,895,14684.16735
D1,Barra de São Miguel/PB,-7.7528088,-36.3170996,10,164.06891
1,Barra do Bugres/MT,-15.0683712,-57.1853688,5379,15091.74569
D1,Barra do Bugres/MT,-15.0683712,-57.1853688,93,260.92812
1,Barra do Chapéu/SP,-24.472203,-49.023784,452,7801.17363
D1,Barra do Chapéu/SP,-24.472203,-49.023784,11,189.85157
1,Barra do Choça/BA,-14.8638173,-40.5761637,2471,8014.66057
D1,Barra do Choça/BA,-14.8638173,-40.5761637,37,120.00908
1,Barra do Corda/MA,-5.496823,-45.248496,5875,6608.92064
D1,Barra do Corda/MA,-5.496823,-45.248496,78,87.74397
1,Barra do Garças/MT,-15.8916033,-52.2615413,12162,19710.86837
D1,Barra do Garças/MT,-15.8916033,-52.2615413,392,635.31166
1,Barra do Guarita/RS,-27.1888016,-53.7147086,128,3919.16718
D1,Barra do Guarita/RS,-27.1888016,-53.7147086,8,244.94795
1,Barra do Jacaré/PR,-23.1151788,-50.1813945,404,14527.14851
D1,Barra do Jacaré/PR,-23.1151788,-50.1813945,7,251.70802
1,Barra do Mendes/BA,-11.8053298,-42.057037,887,6756.55088
D1,Barra do Mendes/BA,-11.8053298,-42.057037,18,137.11152
1,Barra do Ouro/TO,-7.7113784,-47.6743925,173,3702.11855
D1,Barra do Ouro/TO,-7.7113784,-47.6743925,8,171.19623
1,Barra do Piraí/RJ,-22.4703403,-43.8263256,8559,8462.61086
D1,Barra do Piraí/RJ,-22.4703403,-43.8263256,413,408.34891
1,Barra do Quaraí/RS,-30.208947,-57.5505128,617,14558.75413
D1,Barra do Quaraí/RS,-30.208947,-57.5505128,9,212.36432
1,Barra do Ribeiro/RS,-30.2930206,-51.301437,1374,10089.58731
D1,Barra do Ribeiro/RS,-30.2930206,-51.301437,55,403.87722
1,Barra do Rio Azul/RS,-27.4101581,-52.4117471,171,10549.04380
D1,Barra do Rio Azul/RS,-27.4101581,-52.4117471,1,61.69031
1,Barra do Rocha/BA,-14.2090974,-39.6004395,561,10172.25748
D1,Barra do Rocha/BA,-14.2090974,-39.6004395,7,126.92656
1,Barra do Turvo/SP,-24.756421,-48.5056942,740,9729.16119
D1,Barra do Turvo/SP,-24.756421,-48.5056942,23,302.39285
1,Barra dos Coqueiros/SE,-10.9075694,-37.0386249,7729,24584.11527
D1,Barra dos Coqueiros/SE,-10.9075694,-37.0386249,101,321.25704
1,Barra/BA,-11.0892702,-43.1420453,2463,4542.18534
D1,Barra/BA,-11.0892702,-43.1420453,67,123.55924
1,Barracão/PR,-26.252395,-53.6349576,1877,18140.52382
D1,Barracão/PR,-26.252395,-53.6349576,38,367.25621
1,Barracão/RS,-27.6728964,-51.4582928,710,13557.38018
D1,Barracão/RS,-27.6728964,-51.4582928,17,324.61333
1,Barras/PI,-4.2446153,-42.2920241,5726,12106.22014
D1,Barras/PI,-4.2446153,-42.2920241,100,211.42543
1,Barreira/CE,-4.2883361,-38.641094,1895,8342.50495
D1,Barreira/CE,-4.2883361,-38.641094,52,228.92362
1,Barreiras do Piauí/PI,-9.9224524,-45.4763776,114,3396.90107
D1,Barreiras do Piauí/PI,-9.9224524,-45.4763776,4,119.18951
1,Barreiras/BA,-12.1440031,-44.9967406,22280,14062.81559
D1,Barreiras/BA,-12.1440031,-44.9967406,348,219.65260
1,Barreirinha/AM,-2.798863,-57.067897,3633,11036.17971
D1,Barreirinha/AM,-2.798863,-57.067897,66,200.49212
1,Barreirinhas/MA,-2.7541271,-42.8259693,2674,4185.25301
D1,Barreirinhas/MA,-2.7541271,-42.8259693,48,75.12795
1,Barreiros/PE,-8.8159644,-35.1831905,859,2003.91919
D1,Barreiros/PE,-8.8159644,-35.1831905,67,156.30103
1,Barretos/SP,-20.5531437,-48.5697509,19035,15407.21675
D1,Barretos/SP,-20.5531437,-48.5697509,598,484.03024
1,Barrinha/SP,-21.1898849,-48.1550642,1722,5134.62743
D1,Barrinha/SP,-21.1898849,-48.1550642,79,235.56072
1,Barro Alto/BA,-11.7618025,-41.9094904,991,6532.19959
D1,Barro Alto/BA,-11.7618025,-41.9094904,14,92.28133
1,Barro Alto/GO,-14.9696025,-48.9190985,1873,16086.91918
D1,Barro Alto/GO,-14.9696025,-48.9190985,24,206.13244
1,Barro Duro/PI,-5.8180139,-42.5106589,773,11008.25976
D1,Barro Duro/PI,-5.8180139,-42.5106589,12,170.89148
1,Barro Preto/BA,-14.8068289,-39.4727588,707,13309.48795
D1,Barro Preto/BA,-14.8068289,-39.4727588,13,244.72892
1,Barro/CE,-7.1713587,-38.7742136,2228,9757.37935
D1,Barro/CE,-7.1713587,-38.7742136,47,205.83341
1,Barrocas/BA,-11.5165,-39.099282894736845,971,5984.59168
D1,Barrocas/BA,-11.5165,-39.099282894736845,27,166.40986
1,Barrolândia/TO,-9.837246,-48.7264346,834,14711.58935
D1,Barrolândia/TO,-9.837246,-48.7264346,20,352.79591
1,Barroquinha/CE,-3.0200371,-41.1339229,1484,9848.03238
D1,Barroquinha/CE,-3.0200371,-41.1339229,25,165.90351
1,Barros Cassal/RS,-29.094938,-52.5832366,1068,9563.89362
D1,Barros Cassal/RS,-29.094938,-52.5832366,15,134.32435
1,Barroso/MG,-21.187222,-43.976111,3927,18716.93437
D1,Barroso/MG,-21.187222,-43.976111,59,281.20681
1,Barueri/SP,-23.5112184,-46.8764612,36074,12897.20562
D1,Barueri/SP,-23.5112184,-46.8764612,1192,426.16480
1,Barão de Antonina/SP,-23.6295651,-49.5632104,522,14808.51064
D1,Barão de Antonina/SP,-23.6295651,-49.5632104,11,312.05674
1,Barão de Cocais/MG,-19.9452437,-43.4870298,5903,17762.99952
D1,Barão de Cocais/MG,-19.9452437,-43.4870298,80,240.73182
1,Barão de Cotegipe/RS,-27.6214694,-52.3765316,931,14071.94680
D1,Barão de Cotegipe/RS,-27.6214694,-52.3765316,10,151.14873
1,Barão de Grajaú/MA,-6.7542591,-43.0263477,481,2528.11942
D1,Barão de Grajaú/MA,-6.7542591,-43.0263477,7,36.79176
1,Barão de Melgaço/MT,-16.195776,-55.9668049,827,10128.59767
D1,Barão de Melgaço/MT,-16.195776,-55.9668049,17,208.20576
1,Barão de Monte Alto/MG,-21.244722,-42.2375,387,7286.76332
D1,Barão de Monte Alto/MG,-21.244722,-42.2375,13,244.77500
1,Barão do Triunfo/RS,-30.3909877,-51.7375349,560,7417.21854
D1,Barão do Triunfo/RS,-30.3909877,-51.7375349,8,105.96026
1,Barão/RS,-29.372474,-51.494908,951,15259.94865
D1,Barão/RS,-29.372474,-51.494908,13,208.60077
1,Bastos/SP,-21.9222474,-50.7317727,2176,10385.64338
D1,Bastos/SP,-21.9222474,-50.7317727,50,238.64070
1,Bataguassu/MS,-21.715899,-52.422058,3855,16320.91448
D1,Bataguassu/MS,-21.715899,-52.422058,51,215.91871
1,Batalha/AL,-9.6733809,-37.1265481,1196,6485.90022
D1,Batalha/AL,-9.6733809,-37.1265481,20,108.45987
1,Batalha/PI,-4.022391,-42.0780926,1378,5112.98282
D1,Batalha/PI,-4.022391,-42.0780926,36,133.57575
1,Batatais/SP,-20.892867,-47.592149,6520,10277.75151
D1,Batatais/SP,-20.892867,-47.592149,185,291.62332
1,Batayporã/MS,-22.2976466,-53.2685608,1413,12429.62702
D1,Batayporã/MS,-22.2976466,-53.2685608,30,263.89866
1,Baturité/CE,-4.3290203,-38.8821055,5038,13945.24871
D1,Baturité/CE,-4.3290203,-38.8821055,87,240.81712
1,Bauru/SP,-22.3218102,-49.0705863,59045,15468.71152
D1,Bauru/SP,-22.3218102,-49.0705863,1304,341.62418
1,Bayeux/PB,-7.1301631,-34.936532,9850,10100.59578
D1,Bayeux/PB,-7.1301631,-34.936532,261,267.64015
1,Baía Formosa/RN,-6.3691885,-35.0063741,585,6241.33148
D1,Baía Formosa/RN,-6.3691885,-35.0063741,9,96.02048
1,Baía da Traição/PB,-6.691258,-34.9371244,1499,16298.79308
D1,Baía da Traição/PB,-6.691258,-34.9371244,12,130.47733
1,Bebedouro/SP,-20.949077,-48.479083,4936,6359.84126
D1,Bebedouro/SP,-20.949077,-48.479083,324,417.46122
1,Beberibe/CE,-4.1810469,-38.1298101,7410,13642.64015
D1,Beberibe/CE,-4.1810469,-38.1298101,132,243.02679
1,Bela Cruz/CE,-3.0529129,-40.167582,3774,11488.23476
D1,Bela Cruz/CE,-3.0529129,-40.167582,73,222.21546
1,Bela Vista da Caroba/PR,-25.8792818,-53.6672545,493,14482.96122
D1,Bela Vista da Caroba/PR,-25.8792818,-53.6672545,7,205.64042
1,Bela Vista de Goiás/GO,-16.9692949,-48.9513071,4138,13346.66495
D1,Bela Vista de Goiás/GO,-16.9692949,-48.9513071,88,283.83434
1,Bela Vista de Minas/MG,-19.8289721,-43.0973688,1154,11237.70572
D1,Bela Vista de Minas/MG,-19.8289721,-43.0973688,25,243.45116
1,Bela Vista do Maranhão/MA,-3.7416367,-45.2514192,230,2026.96748
D1,Bela Vista do Maranhão/MA,-3.7416367,-45.2514192,20,176.25804
1,Bela Vista do Paraíso/PR,-22.9948493,-51.1907996,2686,17441.55844
D1,Bela Vista do Paraíso/PR,-22.9948493,-51.1907996,80,519.48052
1,Bela Vista do Piauí/PI,-7.9716353,-41.8715061,322,7962.41345
D1,Bela Vista do Piauí/PI,-7.9716353,-41.8715061,7,173.09594
1,Bela Vista do Toldo/SC,-26.274625,-50.466354,95,1487.62919
D1,Bela Vista do Toldo/SC,-26.274625,-50.466354,5,78.29627
1,Bela Vista/MS,-22.107327,-56.5317344,1762,7092.82666
D1,Bela Vista/MS,-22.107327,-56.5317344,35,140.89043
1,Belford Roxo/RJ,-22.7667284,-43.4033603,32444,6296.88358
D1,Belford Roxo/RJ,-22.7667284,-43.4033603,978,189.81482
1,Belmiro Braga/MG,-21.9486291,-43.413564,501,14640.56108
D1,Belmiro Braga/MG,-21.9486291,-43.413564,4,116.89071
1,Belmonte/BA,-15.8630837,-38.8792845,1581,6716.22770
D1,Belmonte/BA,-15.8630837,-38.8792845,29,123.19456
1,Belmonte/SC,-26.8448262,-53.578916,413,15228.61357
D1,Belmonte/SC,-26.8448262,-53.578916,5,184.36578
1,Belo Campo/BA,-15.0338286,-41.2585109,1057,6212.89602
D1,Belo Campo/BA,-15.0338286,-41.2585109,19,111.67930
1,Belo Horizonte/MG,-19.9227318,-43.9450948,316247,12496.41898
D1,Belo Horizonte/MG,-19.9227318,-43.9450948,7144,282.29333
1,Belo Jardim/PE,-8.3338293,-36.4176419,5805,7545.82088
D1,Belo Jardim/PE,-8.3338293,-36.4176419,131,170.28467
1,Belo Monte/AL,-9.8269944,-37.2787165,565,8411.49323
D1,Belo Monte/AL,-9.8269944,-37.2787165,9,133.98839
1,Belo Oriente/MG,-19.2232523,-42.4807033,3057,11207.24420
D1,Belo Oriente/MG,-19.2232523,-42.4807033,74,271.29083
1,Belo Vale/MG,-20.407778,-44.024167,1283,16612.71527
D1,Belo Vale/MG,-20.407778,-44.024167,12,155.38003
1,Belterra/PA,-2.636091,-54.937392,2134,11892.55461
D1,Belterra/PA,-2.636091,-54.937392,38,211.76995
1,Belágua/MA,-3.1604031,-43.5085052,441,5813.34036
D1,Belágua/MA,-3.1604031,-43.5085052,4,52.72871
1,Belém de Maria/PE,-8.6242497,-35.8388934,344,2826.85512
D1,Belém de Maria/PE,-8.6242497,-35.8388934,8,65.74082
1,Belém do Brejo do Cruz/PB,-6.1880727,-37.5332267,644,8754.75802
D1,Belém do Brejo do Cruz/PB,-6.1880727,-37.5332267,7,95.16041
1,Belém do Piauí/PI,-7.3767305,-40.9712156,495,13723.31577
D1,Belém do Piauí/PI,-7.3767305,-40.9712156,8,221.79096
1,Belém do São Francisco/PE,-8.7517707,-38.9625715,1123,5417.26966
D1,Belém do São Francisco/PE,-8.7517707,-38.9625715,14,67.53497
1,Belém/AL,-9.5715351,-36.492841,173,4093.70563
D1,Belém/AL,-9.5715351,-36.492841,8,189.30431
1,Belém/PA,-1.45056,-48.4682453,111290,7387.71392
D1,Belém/PA,-1.45056,-48.4682453,5173,343.39693
1,Belém/PB,-6.6967586,-35.5369626,2708,15270.96374
D1,Belém/PB,-6.6967586,-35.5369626,45,253.76417
1,Beneditinos/PI,-5.4565671,-42.3605061,1349,12873.36578
D1,Beneditinos/PI,-5.4565671,-42.3605061,41,391.25871
1,Benedito Leite/MA,-7.2173453,-44.5523331,339,6007.44285
D1,Benedito Leite/MA,-7.2173453,-44.5523331,2,35.44214
1,Benedito Novo/SC,-26.7840657,-49.3629511,1138,9566.24075
D1,Benedito Novo/SC,-26.7840657,-49.3629511,20,168.12374
1,Benevides/PA,-1.3555577,-48.252235,4637,7158.07348
D1,Benevides/PA,-1.3555577,-48.252235,110,169.80550
1,Benjamin Constant do Sul/RS,-27.5105555,-52.6007689,198,10291.06029
D1,Benjamin Constant do Sul/RS,-27.5105555,-52.6007689,2,103.95010
1,Benjamin Constant/AM,-4.3782748,-70.0290603,3954,8811.53478
D1,Benjamin Constant/AM,-4.3782748,-70.0290603,88,196.10902
1,Bento Fernandes/RN,-5.6926846,-35.8207423,187,3368.15562
D1,Bento Fernandes/RN,-5.6926846,-35.8207423,3,54.03458
1,Bento Gonçalves/RS,-29.1654014,-51.5197627,28668,23290.27541
D1,Bento Gonçalves/RS,-29.1654014,-51.5197627,417,338.77650
1,Bento de Abreu/SP,-21.2707225,-50.8120444,397,13110.96433
D1,Bento de Abreu/SP,-21.2707225,-50.8120444,5,165.12550
1,Bequimão/MA,-2.4495376,-44.7884889,387,1815.45246
D1,Bequimão/MA,-2.4495376,-44.7884889,26,121.96838
1,Berilo/MG,-16.9515764,-42.4643732,314,2658.08855
D1,Berilo/MG,-16.9515764,-42.4643732,1,8.46525
1,Berizal/MG,-15.6118785,-41.7417382,263,5488.31386
D1,Berizal/MG,-15.6118785,-41.7417382,1,20.86811
1,Bernardino Batista/PB,-6.4532173,-38.5495418,378,10585.27023
D1,Bernardino Batista/PB,-6.4532173,-38.5495418,2,56.00672
1,Bernardino de Campos/SP,-23.0140216,-49.4760724,919,8228.86819
D1,Bernardino de Campos/SP,-23.0140216,-49.4760724,35,313.39542
1,Bernardo Sayão/TO,-7.8794244,-48.8968905,842,18968.23609
D1,Bernardo Sayão/TO,-7.8794244,-48.8968905,13,292.85875
1,Bernardo do Mearim/MA,-4.6315929,-44.7617508,438,7177.97443
D1,Bernardo do Mearim/MA,-4.6315929,-44.7617508,7,114.71649
1,Bertioga/SP,-23.848568,-46.139586,6992,10569.27775
D1,Bertioga/SP,-23.848568,-46.139586,180,272.09239
1,Bertolínia/PI,-7.6372159,-43.9540611,966,17525.39913
D1,Bertolínia/PI,-7.6372159,-43.9540611,12,217.70682
1,Bertópolis/MG,-17.063333,-40.573889,627,13603.81862
D1,Bertópolis/MG,-17.063333,-40.573889,6,130.18008
1,Beruri/AM,-3.9007135,-61.3717319,2847,13885.77281
D1,Beruri/AM,-3.9007135,-61.3717319,34,165.82939
1,Betim/MG,-19.968056,-44.198333,38094,8464.88187
D1,Betim/MG,-19.968056,-44.198333,1384,307.53915
1,Betânia do Piauí/PI,-8.1460635,-40.7961387,182,2928.87029
D1,Betânia do Piauí/PI,-8.1460635,-40.7961387,4,64.37078
1,Betânia/PE,-8.2742779,-38.0351767,541,4222.93342
D1,Betânia/PE,-8.2742779,-38.0351767,17,132.69846
1,Bezerros/PE,-8.2372132,-35.7558262,5535,9079.72441
D1,Bezerros/PE,-8.2372132,-35.7558262,129,211.61417
1,Bias Fortes/MG,-21.605833,-43.756944,119,3625.83790
D1,Bias Fortes/MG,-21.605833,-43.756944,4,121.87690
1,Bicas/MG,-21.7213723,-43.0604327,2548,17437.72242
D1,Bicas/MG,-21.7213723,-43.0604327,48,328.49713
1,Biguaçu/SC,-27.4961277,-48.6542432,14142,20067.82932
D1,Biguaçu/SC,-27.4961277,-48.6542432,178,252.58617
1,Bilac/SP,-21.403962,-50.47464,957,11675.00305
D1,Bilac/SP,-21.403962,-50.47464,22,268.39087
1,Biquinhas/MG,-18.783611,-45.502222,221,8904.10959
D1,Biquinhas/MG,-18.783611,-45.502222,4,161.16035
1,Birigui/SP,-21.2908491,-50.34144,18774,14888.89241
D1,Birigui/SP,-21.2908491,-50.34144,617,489.31749
1,Biritiba Mirim/SP,-23.5697765,-46.0407456,1568,4713.66301
D1,Biritiba Mirim/SP,-23.5697765,-46.0407456,112,336.69021
1,Biritinga/BA,-11.6227908,-38.8066738,647,4046.53199
D1,Biritinga/BA,-11.6227908,-38.8066738,7,43.78010
1,Bituruna/PR,-26.161281,-51.5533319,2011,12253.97599
D1,Bituruna/PR,-26.161281,-51.5533319,34,207.17811
1,Blumenau/SC,-26.9195567,-49.0658025,75894,20712.41042
D1,Blumenau/SC,-26.9195567,-49.0658025,719,196.22398
1,Boa Esperança do Iguaçu/PR,-25.6362851,-53.2139114,315,12925.72835
D1,Boa Esperança do Iguaçu/PR,-25.6362851,-53.2139114,1,41.03406
1,Boa Esperança do Sul/SP,-21.9930206,-48.3917372,2498,16531.00390
D1,Boa Esperança do Sul/SP,-21.9930206,-48.3917372,22,145.58931
1,Boa Esperança/ES,-18.5395472,-40.2904088,2860,18882.87337
D1,Boa Esperança/ES,-18.5395472,-40.2904088,49,323.51776
1,Boa Esperança/MG,-21.0901253,-45.5660195,6547,16242.43326
D1,Boa Esperança/MG,-21.0901253,-45.5660195,146,362.21098
1,Boa Esperança/PR,-24.2411024,-52.7860277,848,21247.80757
D1,Boa Esperança/PR,-24.2411024,-52.7860277,19,476.07116
1,Boa Hora/PI,-4.4094627,-42.1255341,606,8849.29907
D1,Boa Hora/PI,-4.4094627,-42.1255341,7,102.21963
1,Boa Nova/BA,-14.365907,-40.2063056,1133,9411.08065
D1,Boa Nova/BA,-14.365907,-40.2063056,22,182.73943
1,Boa Ventura de São Roque/PR,-24.88177,-51.5441292,780,12297.02034
D1,Boa Ventura de São Roque/PR,-24.88177,-51.5441292,8,126.12329
1,Boa Ventura/PB,-7.4202462,-38.2156782,881,16787.34756
D1,Boa Ventura/PB,-7.4202462,-38.2156782,12,228.65854
1,Boa Viagem/CE,-5.1261877,-39.7300055,4746,8679.59034
D1,Boa Viagem/CE,-5.1261877,-39.7300055,119,217.62985
1,Boa Vista da Aparecida/PR,-25.4357216,-53.4067721,1410,18740.03190
D1,Boa Vista da Aparecida/PR,-25.4357216,-53.4067721,35,465.17810
1,Boa Vista das Missões/RS,-27.6677983,-53.3127622,318,15237.18256
D1,Boa Vista das Missões/RS,-27.6677983,-53.3127622,7,335.40968
1,Boa Vista do Buricá/RS,-27.6687782,-54.1111913,1206,17967.81883
D1,Boa Vista do Buricá/RS,-27.6687782,-54.1111913,11,163.88558
1,Boa Vista do Cadeado/RS,-28.5783827,-53.8123759,305,12368.20762
D1,Boa Vista do Cadeado/RS,-28.5783827,-53.8123759,4,162.20600
1,Boa Vista do Gurupi/MA,-1.7981168,-46.3071882,15,176.59524
D1,Boa Vista do Gurupi/MA,-1.7981168,-46.3071882,4,47.09206
1,Boa Vista do Incra/RS,-28.8195551,-53.3866624,418,15905.63166
D1,Boa Vista do Incra/RS,-28.8195551,-53.3866624,5,190.25875
1,Boa Vista do Ramos/AM,-2.9716927,-57.5869819,1602,7994.01198
D1,Boa Vista do Ramos/AM,-2.9716927,-57.5869819,13,64.87026
1,Boa Vista do Sul/RS,-29.3510488,-51.6779679,447,16119.72593
D1,Boa Vista do Sul/RS,-29.3510488,-51.6779679,4,144.24811
1,Boa Vista do Tupim/BA,-12.6605988,-40.6083594,295,1595.37072
D1,Boa Vista do Tupim/BA,-12.6605988,-40.6083594,11,59.48840
1,Boa Vista/PB,-7.2620711,-36.2415161,1203,16666.66667
D1,Boa Vista/PB,-7.2620711,-36.2415161,16,221.66805
1,Boa Vista/RR,2.8208478,-60.6719582,110318,25268.04263
D1,Boa Vista/RR,2.8208478,-60.6719582,1587,363.49810
1,Boca da Mata/AL,-9.6452054,-36.2116658,2020,7364.46826
D1,Boca da Mata/AL,-9.6452054,-36.2116658,46,167.70571
1,Boca do Acre/AM,-8.7553487,-67.3930873,3876,11087.59082
D1,Boca do Acre/AM,-8.7553487,-67.3930873,29,82.95669
1,Bocaina de Minas/MG,-22.167778,-44.394722,350,6878.93082
D1,Bocaina de Minas/MG,-22.167778,-44.394722,7,137.57862
1,Bocaina do Sul/SC,-27.745494,-49.942279,610,17423.59326
D1,Bocaina do Sul/SC,-27.745494,-49.942279,4,114.25307
1,Bocaina/PI,-6.9445939,-41.3224599,443,9824.79485
D1,Bocaina/PI,-6.9445939,-41.3224599,10,221.77866
1,Bocaina/SP,-22.1421831,-48.522276,1821,14485.72110
D1,Bocaina/SP,-22.1421831,-48.522276,35,278.41858
1,Bocaiúva do Sul/PR,-25.206591,-49.114131,2382,17899.00812
D1,Bocaiúva do Sul/PR,-25.206591,-49.114131,29,217.91404
1,Bocaiúva/MG,-17.1160208,-43.8122678,3488,6904.05970
D1,Bocaiúva/MG,-17.1160208,-43.8122678,72,142.51499
1,Bodocó/PE,-7.777592,-39.933797,2215,5737.59876
D1,Bodocó/PE,-7.777592,-39.933797,42,108.79420
1,Bodoquena/MS,-20.5508775,-56.6769653,624,7997.94924
D1,Bodoquena/MS,-20.5508775,-56.6769653,19,243.52730
1,Bodó/RN,-5.9866104,-36.4134824,324,14923.99816
D1,Bodó/RN,-5.9866104,-36.4134824,1,46.06172
1,Bofete/SP,-23.1019554,-48.2610535,1139,9407.78062
D1,Bofete/SP,-23.1019554,-48.2610535,24,198.23243
1,Boituva/SP,-23.2838893,-47.6738231,6741,10647.60701
D1,Boituva/SP,-23.2838893,-47.6738231,200,315.90586
1,Bom Conselho/PE,-9.169191,-36.685683,2886,5892.80245
D1,Bom Conselho/PE,-9.169191,-36.685683,77,157.22307
1,Bom Despacho/MG,-19.7375242,-45.2517288,7793,15150.86710
D1,Bom Despacho/MG,-19.7375242,-45.2517288,115,223.57882
1,Bom Jardim da Serra/SC,-28.3380324,-49.625588,881,18350.34368
D1,Bom Jardim da Serra/SC,-28.3380324,-49.625588,8,166.63195
1,Bom Jardim de Goiás/GO,-16.2062659,-52.172793,1536,17235.18851
D1,Bom Jardim de Goiás/GO,-16.2062659,-52.172793,30,336.62478
1,Bom Jardim de Minas/MG,-21.9476466,-44.1906033,829,12864.68032
D1,Bom Jardim de Minas/MG,-21.9476466,-44.1906033,5,77.59156
1,Bom Jardim/MA,-3.54129,-45.606004,1803,4291.83528
D1,Bom Jardim/MA,-3.54129,-45.606004,57,135.68198
1,Bom Jardim/PE,-7.7961572,-35.5871696,2136,5334.93181
D1,Bom Jardim/PE,-7.7961572,-35.5871696,73,182.32679
1,Bom Jardim/RJ,-22.1515328,-42.4186683,2474,8906.00814
D1,Bom Jardim/RJ,-22.1515328,-42.4186683,52,187.19176
1,Bom Jesus da Lapa/BA,-13.250571,-43.410754,6971,9937.13561
D1,Bom Jesus da Lapa/BA,-13.250571,-43.410754,99,141.12415
1,Bom Jesus da Penha/MG,-21.0165299,-46.5226644,983,23021.07728
D1,Bom Jesus da Penha/MG,-21.0165299,-46.5226644,20,468.38407
1,Bom Jesus da Serra/BA,-14.3724084,-40.5047119,557,5702.29320
D1,Bom Jesus da Serra/BA,-14.3724084,-40.5047119,11,112.61261
1,Bom Jesus das Selvas/MA,-4.4878075,-46.8526639,4298,12246.75880
D1,Bom Jesus das Selvas/MA,-4.4878075,-46.8526639,47,133.92221
1,Bom Jesus de Goiás/GO,-18.2174587,-49.739721,3871,14849.05443
D1,Bom Jesus de Goiás/GO,-18.2174587,-49.739721,118,452.64490
1,Bom Jesus do Amparo/MG,-19.7045132,-43.4752911,482,7796.82951
D1,Bom Jesus do Amparo/MG,-19.7045132,-43.4752911,8,129.40796
1,Bom Jesus do Araguaia/MT,-12.1725897,-51.5074425,1126,16486.09078
D1,Bom Jesus do Araguaia/MT,-12.1725897,-51.5074425,17,248.90190
1,Bom Jesus do Galho/MG,-19.8283191,-42.3162256,874,5908.59924
D1,Bom Jesus do Galho/MG,-19.8283191,-42.3162256,38,256.89562
1,Bom Jesus do Itabapoana/RJ,-21.1341025,-41.680095,5454,14619.63223
D1,Bom Jesus do Itabapoana/RJ,-21.1341025,-41.680095,116,310.94194
1,Bom Jesus do Norte/ES,-21.1254776,-41.6711646,1675,16770.12415
D1,Bom Jesus do Norte/ES,-21.1254776,-41.6711646,30,300.36043
1,Bom Jesus do Oeste/SC,-26.6929713,-53.0967453,256,11985.01873
D1,Bom Jesus do Oeste/SC,-26.6929713,-53.0967453,6,280.89888
1,Bom Jesus do Sul/PR,-26.1922507,-53.6002033,819,23588.70968
D1,Bom Jesus do Sul/PR,-26.1922507,-53.6002033,8,230.41475
1,Bom Jesus do Tocantins/PA,-5.0471796,-48.5978362,889,5152.42842
D1,Bom Jesus do Tocantins/PA,-5.0471796,-48.5978362,28,162.28121
1,Bom Jesus do Tocantins/TO,-8.96306,-48.165043,186,3632.81250
D1,Bom Jesus do Tocantins/TO,-8.96306,-48.165043,3,58.59375
1,Bom Jesus dos Perdões/SP,-23.1353864,-46.4648052,2485,9375.23580
D1,Bom Jesus dos Perdões/SP,-23.1353864,-46.4648052,32,120.72738
1,Bom Jesus/PB,-6.8156725,-38.6551841,308,11901.08192
D1,Bom Jesus/PB,-6.8156725,-38.6551841,3,115.91963
1,Bom Jesus/PI,-9.0711644,-44.3583926,3828,14962.47655
D1,Bom Jesus/PI,-9.0711644,-44.3583926,50,195.43465
1,Bom Jesus/RN,-5.9887544,-35.5821149,1194,11566.40511
D1,Bom Jesus/RN,-5.9887544,-35.5821149,19,184.05502
1,Bom Jesus/RS,-28.6692723,-50.4346894,1352,11996.45075
D1,Bom Jesus/RS,-28.6692723,-50.4346894,24,212.95475
1,Bom Jesus/SC,-26.7350604,-52.3916519,642,20682.98969
D1,Bom Jesus/SC,-26.7350604,-52.3916519,10,322.16495
1,Bom Lugar/MA,-4.3728019,-45.0366054,605,3649.41489
D1,Bom Lugar/MA,-4.3728019,-45.0366054,7,42.22464
1,Bom Princípio do Piauí/PI,-3.1912777,-41.6430185,151,2663.13933
D1,Bom Princípio do Piauí/PI,-3.1912777,-41.6430185,13,229.27690
1,Bom Princípio/RS,-29.489788,-51.3566782,2800,19382.52804
D1,Bom Princípio/RS,-29.489788,-51.3566782,34,235.35927
1,Bom Progresso/RS,-27.5490948,-53.8655601,231,12432.72336
D1,Bom Progresso/RS,-27.5490948,-53.8655601,3,161.46394
1,Bom Repouso/MG,-22.4657069,-46.1485376,1689,16044.45711
D1,Bom Repouso/MG,-22.4657069,-46.1485376,29,275.48209
1,Bom Retiro do Sul/RS,-29.6000007,-51.9359243,1699,13648.77892
D1,Bom Retiro do Sul/RS,-29.6000007,-51.9359243,38,305.26992
1,Bom Retiro/SC,-27.798993,-49.486994,1048,10322.07229
D1,Bom Retiro/SC,-27.798993,-49.486994,22,216.68472
1,Bom Sucesso de Itararé/SP,-24.3190016,-49.1446207,260,6478.94343
D1,Bom Sucesso de Itararé/SP,-24.3190016,-49.1446207,7,174.43309
1,Bom Sucesso do Sul/PR,-26.0749256,-52.8348629,728,22441.43033
D1,Bom Sucesso do Sul/PR,-26.0749256,-52.8348629,9,277.43527
1,Bom Sucesso/MG,-21.0323516,-44.7598082,1743,9896.66137
D1,Bom Sucesso/MG,-21.0323516,-44.7598082,29,164.66046
1,Bom Sucesso/PB,-6.4458948,-37.9297662,616,12477.21288
D1,Bom Sucesso/PB,-6.4458948,-37.9297662,5,101.27608
1,Bom Sucesso/PR,-23.7088019,-51.7651297,1926,27115.30339
D1,Bom Sucesso/PR,-23.7088019,-51.7651297,20,281.57117
1,Bombinhas/SC,-27.1519159,-48.4875691,4295,20561.06085
D1,Bombinhas/SC,-27.1519159,-48.4875691,71,339.89181
1,Bonfim do Piauí/PI,-9.1648678,-42.8734415,511,8964.91228
D1,Bonfim do Piauí/PI,-9.1648678,-42.8734415,8,140.35088
1,Bonfim/MG,-20.3266626, -44.2386157,614,8960.88733
D1,Bonfim/MG,-20.3266626, -44.2386157,18,262.69702
1,Bonfim/RR,3.3613818,-59.8427241,2744,21604.59806
D1,Bonfim/RR,3.3613818,-59.8427241,36,283.44225
1,Bonfinópolis de Minas/MG,-16.5660011,-45.98645,760,14081.89735
D1,Bonfinópolis de Minas/MG,-16.5660011,-45.98645,14,259.40337
1,Bonfinópolis/GO,-16.6172709,-48.9615701,550,5434.78261
D1,Bonfinópolis/GO,-16.6172709,-48.9615701,34,335.96838
1,Boninal/BA,-12.7095183,-41.8299984,788,5427.74487
D1,Boninal/BA,-12.7095183,-41.8299984,9,61.99201
1,Bonito de Minas/MG,-15.3191266,-44.7544,139,1208.48548
D1,Bonito de Minas/MG,-15.3191266,-44.7544,2,17.38828
1,Bonito de Santa Fé/PB,-7.3143332,-38.5146677,712,5871.68069
D1,Bonito de Santa Fé/PB,-7.3143332,-38.5146677,14,115.45440
1,Bonito/BA,-11.9665473,-41.2649896,1245,7323.96023
D1,Bonito/BA,-11.9665473,-41.2649896,14,82.35779
1,Bonito/MS,-21.1264766,-56.4902208,4293,19164.32302
D1,Bonito/MS,-21.1264766,-56.4902208,79,352.66283
1,Bonito/PA,-1.3605722,-47.3049907,485,2892.24164
D1,Bonito/PA,-1.3605722,-47.3049907,15,89.45077
1,Bonito/PE,-8.4721161,-35.7314591,1513,3971.02438
D1,Bonito/PE,-8.4721161,-35.7314591,46,120.73174
1,Bonópolis/GO,-13.649331,-49.8329113,385,8407.94933
D1,Bonópolis/GO,-13.649331,-49.8329113,3,65.51649
1,Boqueirão do Leão/RS,-29.30332,-52.4296817,674,8763.48979
D1,Boqueirão do Leão/RS,-29.30332,-52.4296817,33,429.07294
1,Boqueirão do Piauí/PI,-4.4850148,-42.1095161,871,13518.54726
D1,Boqueirão do Piauí/PI,-4.4850148,-42.1095161,13,201.76936
1,Boqueirão/PB,-7.487004,-36.130887,2384,13293.18613
D1,Boqueirão/PB,-7.487004,-36.130887,45,250.92004
1,Boquim/SE,-11.1450175,-37.6204228,2984,11060.04448
D1,Boquim/SE,-11.1450175,-37.6204228,70,259.45145
1,Boquira/BA,-12.8184859,-42.7270883,961,4472.67988
D1,Boquira/BA,-12.8184859,-42.7270883,24,111.70064
1,Boracéia/SP,-22.195355,-48.7801925,1024,20842.66232
D1,Boracéia/SP,-22.195355,-48.7801925,25,508.85406
1,Borba/AM,-4.3934778,-59.5947721,3460,8174.25817
D1,Borba/AM,-4.3934778,-59.5947721,70,165.37517
1,Borborema/PB,-6.8066718,-35.5990191,427,8039.91715
D1,Borborema/PB,-6.8066718,-35.5990191,14,263.60384
1,Borborema/SP,-21.6212706,-49.074135,1728,10615.55474
D1,Borborema/SP,-21.6212706,-49.074135,54,331.73609
1,Borda da Mata/MG,-22.274167,-46.165278,3505,17693.97748
D1,Borda da Mata/MG,-22.274167,-46.165278,57,287.74799
1,Borebi/SP,-22.5700178,-48.9714871,291,10726.13343
D1,Borebi/SP,-22.5700178,-48.9714871,4,147.43826
1,Borrazópolis/PR,-23.9393362,-51.5850786,1357,21573.92687
D1,Borrazópolis/PR,-23.9393362,-51.5850786,35,556.43879
1,Borá/SP,-22.2701088,-50.544407,131,15613.82598
D1,Borá/SP,-22.2701088,-50.544407,1,119.18951
1,Bossoroca/RS,-28.7278885,-54.9120278,555,9046.45477
D1,Bossoroca/RS,-28.7278885,-54.9120278,22,358.59821
1,Botelhos/MG,-21.65,-46.394722,2709,18148.32183
D1,Botelhos/MG,-21.65,-46.394722,34,227.77517
1,Botucatu/SP,-22.8879628,-48.4410712,26525,17716.64062
D1,Botucatu/SP,-22.8879628,-48.4410712,337,225.08984
1,Botumirim/MG,-16.862778,-43.011111,377,6023.32641
D1,Botumirim/MG,-16.862778,-43.011111,4,63.90797
1,Botuporã/BA,-13.3744752,-42.5198469,498,4955.22388
D1,Botuporã/BA,-13.3744752,-42.5198469,5,49.75124
1,Botuverá/SC,-27.200749,-49.068892,1089,20181.61601
D1,Botuverá/SC,-27.200749,-49.068892,11,203.85471
1,Bozano/RS,-28.3669953,-53.7705165,355,16912.81563
D1,Bozano/RS,-28.3669953,-53.7705165,8,381.13387
1,Braga/RS,-27.617348,-53.740514,545,16661.57138
D1,Braga/RS,-27.617348,-53.740514,10,305.71691
1,Braganey/PR,-24.8179919,-53.118506,932,17459.72274
D1,Braganey/PR,-24.8179919,-53.118506,11,206.06969
1,Bragança Paulista/SP,-22.9520235,-46.5418586,24685,14322.93178
D1,Bragança Paulista/SP,-22.9520235,-46.5418586,604,350.45780
1,Bragança/PA,-1.0573967,-46.7635406,4874,3745.71556
D1,Bragança/PA,-1.0573967,-46.7635406,179,137.56321
1,Branquinha/AL,-9.2478057,-36.0152009,885,8488.39440
D1,Branquinha/AL,-9.2478057,-36.0152009,15,143.87109
1,Brasil Novo/PA,-3.3055853,-52.539198,3360,22576.09353
D1,Brasil Novo/PA,-3.3055853,-52.539198,44,295.63932
1,Brasileira/PI,-4.131182,-41.7824969,716,8560.49737
D1,Brasileira/PI,-4.131182,-41.7824969,16,191.29603
1,Brasilândia de Minas/MG,-17.0096469,-46.0087183,2394,14123.89381
D1,Brasilândia de Minas/MG,-17.0096469,-46.0087183,28,165.19174
1,Brasilândia do Sul/PR,-24.1975793,-53.527551,693,27489.09163
D1,Brasilândia do Sul/PR,-24.1975793,-53.527551,13,515.66839
1,Brasilândia do Tocantins/TO,-8.3886619,-48.4842729,256,11526.33949
D1,Brasilândia do Tocantins/TO,-8.3886619,-48.4842729,6,270.14858
1,Brasilândia/MS,-21.255575,-52.0365617,1369,11567.38488
D1,Brasilândia/MS,-21.255575,-52.0365617,26,219.68737
1,Brasiléia/AC,-11.0010413,-68.7487894,3353,12362.20182
D1,Brasiléia/AC,-11.0010413,-68.7487894,44,162.22394
1,Brasnorte/MT,-12.1227151,-58.0050109,2919,14189.87896
D1,Brasnorte/MT,-12.1227151,-58.0050109,44,213.89335
1,Brasília de Minas/MG,-16.2075114,-44.430559,1560,4805.91497
D1,Brasília de Minas/MG,-16.2075114,-44.430559,10,30.80715
1,Brasília/DF,-15.7934036,-47.8823172,617945,19970.26815
D1,Brasília/DF,-15.7934036,-47.8823172,11197,361.85598
1,Brazabrantes/GO,-16.4291635,-49.3858216,681,17864.63799
D1,Brazabrantes/GO,-16.4291635,-49.3858216,7,183.63064
1,Brazópolis/MG,-22.4742842,-45.6165577,1581,11006.68338
D1,Brazópolis/MG,-22.4742842,-45.6165577,34,236.70287
1,Braço do Norte/SC,-28.2728633,-49.1622712,11685,34073.01569
D1,Braço do Norte/SC,-28.2728633,-49.1622712,117,341.16755
1,Braço do Trombudo/SC,-27.358578,-49.882145,1014,26726.41012
D1,Braço do Trombudo/SC,-27.358578,-49.882145,7,184.50185
1,Braúna/SP,-21.5015319,-50.3175246,626,10802.41588
D1,Braúna/SP,-21.5015319,-50.3175246,25,431.40638
1,Braúnas/MG,-19.055556,-42.716111,302,6375.34304
D1,Braúnas/MG,-19.055556,-42.716111,11,232.21448
1,Brejetuba/ES,-20.1465817,-41.2902303,2155,17309.23695
D1,Brejetuba/ES,-20.1465817,-41.2902303,17,136.54618
1,Brejinho de Nazaré/TO,-11.0205883,-48.5722906,996,17978.33935
D1,Brejinho de Nazaré/TO,-11.0205883,-48.5722906,19,342.96029
1,Brejinho/PE,-7.3482153,-37.28538,916,12231.27253
D1,Brejinho/PE,-7.3482153,-37.28538,22,293.76419
1,Brejinho/RN,-6.1957907,-35.3583019,1594,12382.50602
D1,Brejinho/RN,-6.1957907,-35.3583019,18,139.82755
1,Brejo Alegre/SP,-21.1671191,-50.1850393,404,13878.39231
D1,Brejo Alegre/SP,-21.1671191,-50.1850393,13,446.58193
1,Brejo Grande do Araguaia/PA,-5.7011449,-48.4037308,1082,14707.08169
D1,Brejo Grande do Araguaia/PA,-5.7011449,-48.4037308,6,81.55498
1,Brejo Grande/SE,-10.4287358,-36.4667918,481,5728.91853
D1,Brejo Grande/SE,-10.4287358,-36.4667918,13,154.83564
1,Brejo Santo/CE,-7.4909841,-38.9859152,8511,16955.87210
D1,Brejo Santo/CE,-7.4909841,-38.9859152,157,312.78016
1,Brejo da Madre de Deus/PE,-8.1409718,-36.3712527,2702,5226.71000
D1,Brejo da Madre de Deus/PE,-8.1409718,-36.3712527,58,112.19437
1,Brejo de Areia/MA,-4.3316785,-45.5833334,398,4501.75320
D1,Brejo de Areia/MA,-4.3316785,-45.5833334,11,124.42031
1,Brejo do Cruz/PB,-6.32926065,-37.48746163303929,2018,14124.72877
D1,Brejo do Cruz/PB,-6.32926065,-37.48746163303929,24,167.98488
1,Brejo do Piauí/PI,-8.207583,-42.8359849,159,4157.94979
D1,Brejo do Piauí/PI,-8.207583,-42.8359849,4,104.60251
1,Brejo dos Santos/PB,-6.3769367,-37.8243125,931,14369.50147
D1,Brejo dos Santos/PB,-6.3769367,-37.8243125,8,123.47585
1,Brejo/MA,-3.6804397,-42.7529313,1076,2915.98916
D1,Brejo/MA,-3.6804397,-42.7529313,19,51.49051
1,Brejolândia/BA,-12.4843845,-43.9611861,181,1695.55035
D1,Brejolândia/BA,-12.4843845,-43.9611861,11,103.04450
1,Brejão/PE,-9.029146,-36.566034,540,6012.69346
D1,Brejão/PE,-9.029146,-36.566034,9,100.21156
1,Brejões/BA,-13.1033754,-39.7909837,997,7043.44755
D1,Brejões/BA,-13.1033754,-39.7909837,13,91.84034
1,Breu Branco/PA,-3.7785073,-49.5684795,1106,1612.31541
D1,Breu Branco/PA,-3.7785073,-49.5684795,66,96.21412
1,Breves/PA,-1.68036,-50.479085,4545,4358.45800
D1,Breves/PA,-1.68036,-50.479085,123,117.95167
1,Britânia/GO,-15.2427599,-51.1602061,758,13035.25365
D1,Britânia/GO,-15.2427599,-51.1602061,9,154.77214
1,Brochier/RS,-29.556766,-51.5963047,833,16231.48870
D1,Brochier/RS,-29.556766,-51.5963047,6,116.91348
1,Brodowski/SP,-20.984532,-47.657217,2962,11568.05311
D1,Brodowski/SP,-20.984532,-47.657217,80,312.43898
1,Brotas de Macaúbas/BA,-12.0019007,-42.6257506,423,3951.42457
D1,Brotas de Macaúbas/BA,-12.0019007,-42.6257506,9,84.07286
1,Brotas/SP,-22.2840884,-48.1267265,2483,9987.12895
D1,Brotas/SP,-22.2840884,-48.1267265,70,281.55418
1,Brumadinho/MG,-20.143611,-44.2,5102,12381.09105
D1,Brumadinho/MG,-20.143611,-44.2,91,220.83091
1,Brumado/BA,-14.29507325,-41.659307508575985,10366,15364.32086
D1,Brumado/BA,-14.29507325,-41.659307508575985,199,294.95465
1,Brunópolis/SC,-27.310953,-50.837585,523,22562.55393
D1,Brunópolis/SC,-27.310953,-50.837585,9,388.26575
1,Brusque/SC,-27.0964628,-48.9136323,33702,23970.63949
D1,Brusque/SC,-27.0964628,-48.9136323,333,236.84716
1,Brás Pires/MG,-20.8483109,-43.2430524,380,8930.66980
D1,Brás Pires/MG,-20.8483109,-43.2430524,8,188.01410
1,Bueno Brandão/MG,-22.441976,-46.3517971,1415,12884.72045
D1,Bueno Brandão/MG,-22.441976,-46.3517971,32,291.38590
1,Buenos Aires/PE,-7.7218931,-35.326587,487,3682.69812
D1,Buenos Aires/PE,-7.7218931,-35.326587,25,189.05021
1,Buenópolis/MG,-17.8756607,-44.1749365,305,2949.13943
D1,Buenópolis/MG,-17.8756607,-44.1749365,13,125.70102
1,Buerarema/BA,-14.9571177,-39.3008035,1546,8462.42268
D1,Buerarema/BA,-14.9571177,-39.3008035,49,268.21391
1,Bugre/MG,-19.4257687,-42.2556,376,9437.75100
D1,Bugre/MG,-19.4257687,-42.2556,13,326.30522
1,Bujari/AC,-9.8309656,-67.9520886,1404,13280.36322
D1,Bujari/AC,-9.8309656,-67.9520886,17,160.80212
1,Bujaru/PA,-1.5169239,-48.0410699,1689,5683.61544
D1,Bujaru/PA,-1.5169239,-48.0410699,43,144.69832
1,Buri/SP,-23.79849,-48.598924,2802,13975.06234
D1,Buri/SP,-23.79849,-48.598924,94,468.82793
1,Buritama/SP,-21.0664017,-50.1448077,3827,21976.57058
D1,Buritama/SP,-21.0664017,-50.1448077,82,470.88549
1,Buriti Alegre/GO,-18.1377879,-49.0404411,1418,14902.78508
D1,Buriti Alegre/GO,-18.1377879,-49.0404411,36,378.34997
1,Buriti Bravo/MA,-5.8391884,-43.8367876,1857,7739.75743
D1,Buriti Bravo/MA,-5.8391884,-43.8367876,20,83.35765
1,Buriti de Goiás/GO,-16.180644,-50.4287479,396,16071.42857
D1,Buriti de Goiás/GO,-16.180644,-50.4287479,9,365.25974
1,Buriti do Tocantins/TO,-5.3187439,-48.2256609,1491,12804.87805
D1,Buriti do Tocantins/TO,-5.3187439,-48.2256609,26,223.29097
1,Buriti dos Lopes/PI,-3.1776723,-41.8707444,1397,7044.17104
D1,Buriti dos Lopes/PI,-3.1776723,-41.8707444,35,176.48245
1,Buriti dos Montes/PI,-5.3136171,-41.0971256,719,8681.47790
D1,Buriti dos Montes/PI,-5.3136171,-41.0971256,10,120.74378
1,Buriti/MA,-3.9430944,-42.9244281,1032,3568.95836
D1,Buriti/MA,-3.9430944,-42.9244281,9,31.12464
1,Buriticupu/MA,-4.3227472,-46.4516989,4264,5793.87187
D1,Buriticupu/MA,-4.3227472,-46.4516989,83,112.77940
1,Buritinópolis/GO,-14.4589282,-46.4293104,263,8037.89731
D1,Buritinópolis/GO,-14.4589282,-46.4293104,3,91.68704
1,Buritirama/BA,-10.7148421,-43.6362327,1008,4716.01011
D1,Buritirama/BA,-10.7148421,-43.6362327,24,112.28595
1,Buritirana/MA,-5.5897455,-47.0148915,448,2889.76327
D1,Buritirana/MA,-5.5897455,-47.0148915,25,161.25911
1,Buritis/MG,-15.621389,-46.423889,3679,14611.38250
D1,Buritis/MG,-15.621389,-46.423889,54,214.46443
1,Buritis/RO,-10.2054937,-63.8281954,7075,17238.01866
D1,Buritis/RO,-10.2054937,-63.8281954,94,229.02809
1,Buritizal/SP,-20.1933264,-47.7097165,357,7851.33055
D1,Buritizal/SP,-20.1933264,-47.7097165,10,219.92523
1,Buritizeiro/MG,-17.3667765,-44.9647781,2310,8196.13965
D1,Buritizeiro/MG,-17.3667765,-44.9647781,41,145.47261
1,Butiá/RS,-30.1256795,-51.9692224,2747,13104.04045
D1,Butiá/RS,-30.1256795,-51.9692224,60,286.21858
1,Buíque/PE,-8.6239732,-37.157296,2639,4439.17373
D1,Buíque/PE,-8.6239732,-37.157296,48,80.74283
1,Bálsamo/SP,-20.7343722,-49.5807484,2018,21913.34564
D1,Bálsamo/SP,-20.7343722,-49.5807484,70,760.12596
0,CASO SEM LOCALIZAÇÃO DEFINIDA/BA,-13.415069300066518,-38.14174656569957,14692,98.78260
D0,CASO SEM LOCALIZAÇÃO DEFINIDA/BA,-13.415069300066518,-38.14174656569957,324,2.17843
0,CASO SEM LOCALIZAÇÃO DEFINIDA/CE,-3.3445126297392798,-38.624961942434304,15387,168.49396
0,CASO SEM LOCALIZAÇÃO DEFINIDA/ES,-20.30989267097039,-39.81745156645774,11984,298.20960
D0,CASO SEM LOCALIZAÇÃO DEFINIDA/ES,-20.30989267097039,-39.81745156645774,265,6.59425
0,CASO SEM LOCALIZAÇÃO DEFINIDA/GO,-16.701590966270153,-49.164524059025034,13522,192.66626
D0,CASO SEM LOCALIZAÇÃO DEFINIDA/GO,-16.701590966270153,-49.164524059025034,51,0.72667
0,CASO SEM LOCALIZAÇÃO DEFINIDA/MG,-19.97049116501593,-43.8852149072783,4266,20.15231
D0,CASO SEM LOCALIZAÇÃO DEFINIDA/MG,-19.97049116501593,-43.8852149072783,394,1.86123
0,CASO SEM LOCALIZAÇÃO DEFINIDA/MT,-15.54791153961863,-56.17143998972475,4441,127.45138
D0,CASO SEM LOCALIZAÇÃO DEFINIDA/MT,-15.54791153961863,-56.17143998972475,260,7.46169
0,CASO SEM LOCALIZAÇÃO DEFINIDA/PA,-0.09317078214359542,-48.0050231510481,3038,35.31382
D0,CASO SEM LOCALIZAÇÃO DEFINIDA/PA,-0.09317078214359542,-48.0050231510481,19,0.22086
0,CASO SEM LOCALIZAÇÃO DEFINIDA/PI,-2.683810218391744,-41.470898009352254,2117,64.67624
D0,CASO SEM LOCALIZAÇÃO DEFINIDA/PI,-2.683810218391744,-41.470898009352254,7,0.21386
0,CASO SEM LOCALIZAÇÃO DEFINIDA/PR,-25.69415946385943,-48.10141676336737,9614,84.08288
D0,CASO SEM LOCALIZAÇÃO DEFINIDA/PR,-25.69415946385943,-48.10141676336737,225,1.96782
0,CASO SEM LOCALIZAÇÃO DEFINIDA/RR,2.813328208465927,-60.663338675861986,3441,568.04581
D0,CASO SEM LOCALIZAÇÃO DEFINIDA/RR,2.813328208465927,-60.663338675861986,21,3.46671
0,CASO SEM LOCALIZAÇÃO DEFINIDA/SP,-24.30968974555485,-46.21366504207253,128,0.27875
1,Caapiranga/AM,-3.3188884,-61.2096404,993,7365.37606
D1,Caapiranga/AM,-3.3188884,-61.2096404,22,163.18054
1,Caaporã/PB,-7.510234,-34.9154114,2255,10213.32488
D1,Caaporã/PB,-7.510234,-34.9154114,37,167.58005
1,Caarapó/MS,-22.6349267,-54.8240903,4974,16042.57378
D1,Caarapó/MS,-22.6349267,-54.8240903,58,187.06660
1,Caatiba/BA,-14.9782759,-40.4092325,985,15805.51990
D1,Caatiba/BA,-14.9782759,-40.4092325,15,240.69320
1,Cabaceiras do Paraguaçu/BA,-12.5377868,-39.1901339,984,5176.22304
D1,Cabaceiras do Paraguaçu/BA,-12.5377868,-39.1901339,6,31.56234
1,Cabaceiras/PB,-7.4899156,-36.2860501,522,9141.85639
D1,Cabaceiras/PB,-7.4899156,-36.2860501,5,87.56567
1,Cabeceira Grande/MG,-16.0297,-47.0906,665,9466.19217
D1,Cabeceira Grande/MG,-16.0297,-47.0906,7,99.64413
1,Cabeceiras do Piauí/PI,-4.4733665,-42.3098716,734,6878.45563
D1,Cabeceiras do Piauí/PI,-4.4733665,-42.3098716,17,159.31028
1,Cabeceiras/GO,-15.7995459,-46.9264991,643,7940.23216
D1,Cabeceiras/GO,-15.7995459,-46.9264991,18,222.27711
1,Cabedelo/PB,-6.97324,-34.8351609,10866,15573.35932
D1,Cabedelo/PB,-6.97324,-34.8351609,208,298.10958
1,Cabixi/RO,-13.4956065,-60.5424442,1248,24629.95856
D1,Cabixi/RO,-13.4956065,-60.5424442,22,434.18196
1,Cabo Frio/RJ,-22.8804369,-42.0189227,21711,9275.15305
D1,Cabo Frio/RJ,-22.8804369,-42.0189227,941,402.00447
1,Cabo Verde/MG,-21.4743338,-46.3964995,1396,9918.99957
D1,Cabo Verde/MG,-21.4743338,-46.3964995,12,85.26361
1,Cabo de Santo Agostinho/PE,-8.2838945,-35.0320984,10434,4949.80929
D1,Cabo de Santo Agostinho/PE,-8.2838945,-35.0320984,540,256.17184
1,Cabreúva/SP,-23.3075813,-47.1324417,5271,10309.01623
D1,Cabreúva/SP,-23.3075813,-47.1324417,146,285.54665
1,Cabrobó/PE,-8.5083701,-39.3106961,3373,9698.66007
D1,Cabrobó/PE,-8.5083701,-39.3106961,33,94.88757
1,Cabrália Paulista/SP,-22.4562909,-49.3385645,593,14045.47608
D1,Cabrália Paulista/SP,-22.4562909,-49.3385645,9,213.16911
1,Cacaulândia/RO,-10.3380043,-62.9007231,1229,19486.28508
D1,Cacaulândia/RO,-10.3380043,-62.9007231,17,269.54178
1,Cacequi/RS,-29.8838059,-54.8273443,1013,8241.80295
D1,Cacequi/RS,-29.8838059,-54.8273443,14,113.90448
1,Cachoeira Alta/GO,-18.7618269,-50.9432431,2104,16382.46516
D1,Cachoeira Alta/GO,-18.7618269,-50.9432431,31,241.37663
1,Cachoeira Dourada/GO,-18.4934204,-49.481062,1021,12767.28773
D1,Cachoeira Dourada/GO,-18.4934204,-49.481062,33,412.65475
1,Cachoeira Dourada/MG,-18.517136,-49.5002062,468,17205.88235
D1,Cachoeira Dourada/MG,-18.517136,-49.5002062,2,73.52941
1,Cachoeira Grande/MA,-2.9290492,-44.0573223,437,4588.40823
D1,Cachoeira Grande/MA,-2.9290492,-44.0573223,8,83.99832
1,Cachoeira Paulista/SP,-22.666498,-45.015384,2957,8741.53782
D1,Cachoeira Paulista/SP,-22.666498,-45.015384,50,147.81092
1,Cachoeira da Prata/MG,-19.524723,-44.453056,226,6312.84916
D1,Cachoeira da Prata/MG,-19.524723,-44.453056,14,391.06145
1,Cachoeira de Goiás/GO,-16.6688414,-50.6435997,238,17814.37126
D1,Cachoeira de Goiás/GO,-16.6688414,-50.6435997,5,374.25150
1,Cachoeira de Minas/MG,-22.3554043,-45.7796324,1544,13300.02584
D1,Cachoeira de Minas/MG,-22.3554043,-45.7796324,20,172.28013
1,Cachoeira de Pajeú/MG,-15.965833,-41.496666,585,6177.40232
D1,Cachoeira de Pajeú/MG,-15.965833,-41.496666,11,116.15628
1,Cachoeira do Arari/PA,-1.0143572,-48.9621089,610,2504.61917
D1,Cachoeira do Arari/PA,-1.0143572,-48.9621089,25,102.64833
1,Cachoeira do Piriá/PA,-1.7599443,-46.5446954,1187,3361.93956
D1,Cachoeira do Piriá/PA,-1.7599443,-46.5446954,9,25.49070
1,Cachoeira do Sul/RS,-30.0474778,-52.8905413,14184,17392.58387
D1,Cachoeira do Sul/RS,-30.0474778,-52.8905413,216,264.86168
1,Cachoeira dos Índios/PB,-6.9259193,-38.6742159,1171,11298.72636
D1,Cachoeira dos Índios/PB,-6.9259193,-38.6742159,23,221.92204
1,Cachoeira/BA,-12.5998256,-38.9665918,1952,5799.34044
D1,Cachoeira/BA,-12.5998256,-38.9665918,32,95.07115
1,Cachoeiras de Macacu/RJ,-22.4626861,-42.6534414,3646,6112.11694
D1,Cachoeiras de Macacu/RJ,-22.4626861,-42.6534414,117,196.13760
1,Cachoeirinha/PE,-8.4906364,-36.2338963,770,3734.60083
D1,Cachoeirinha/PE,-8.4906364,-36.2338963,34,164.90445
1,Cachoeirinha/RS,-29.9493353,-51.0898927,17577,13301.39847
D1,Cachoeirinha/RS,-29.9493353,-51.0898927,497,376.10486
1,Cachoeirinha/TO,-6.118647,-47.9208885,129,5625.81771
D1,Cachoeirinha/TO,-6.118647,-47.9208885,2,87.22198
1,Cachoeiro de Itapemirim/ES,-20.848084,-41.11129,41344,19486.07733
D1,Cachoeiro de Itapemirim/ES,-20.848084,-41.11129,665,313.42496
1,Cacimba de Areia/PB,-7.1288513,-37.1575194,282,7605.17799
D1,Cacimba de Areia/PB,-7.1288513,-37.1575194,5,134.84358
1,Cacimba de Dentro/PB,-6.6425101,-35.7929304,1272,7408.70173
D1,Cacimba de Dentro/PB,-6.6425101,-35.7929304,38,221.32914
1,Cacimbas/PB,-7.2125451,-37.0593398,405,5605.53633
D1,Cacimbas/PB,-7.2125451,-37.0593398,8,110.72664
1,Cacimbinhas/AL,-9.401212,-36.991082,917,8397.43590
D1,Cacimbinhas/AL,-9.401212,-36.991082,12,109.89011
1,Cacique Doble/RS,-27.7700117,-51.6616409,793,15601.02302
D1,Cacique Doble/RS,-27.7700117,-51.6616409,14,275.42790
1,Cacoal/RO,-11.4333,-61.4420502,20617,23857.85040
D1,Cacoal/RO,-11.4333,-61.4420502,331,383.03092
1,Caconde/SP,-21.527995,-46.643659,1783,9368.92439
D1,Caconde/SP,-21.527995,-46.643659,39,204.92880
1,Caculé/BA,-14.4990734,-42.2233006,3000,12816.67877
D1,Caculé/BA,-14.4990734,-42.2233006,23,98.26120
1,Caetanos/BA,-14.3387456,-40.9085971,789,5377.95651
D1,Caetanos/BA,-14.3387456,-40.9085971,11,74.97785
1,Caetanópolis/MG,-19.2947496,-44.4138386,1180,9941.86536
D1,Caetanópolis/MG,-19.2947496,-44.4138386,21,176.93150
1,Caetité/BA,-14.0691776,-42.4852428,4444,8682.40075
D1,Caetité/BA,-14.0691776,-42.4852428,46,89.87183
1,Caeté/MG,-19.897777,-43.670278,2659,5861.47606
D1,Caeté/MG,-19.897777,-43.670278,78,171.94251
1,Caetés/PE,-8.7728788,-36.6255835,1972,6784.79271
D1,Caetés/PE,-8.7728788,-36.6255835,24,82.57354
1,Cafarnaum/BA,-11.691399,-41.468823,1030,5542.10385
D1,Cafarnaum/BA,-11.691399,-41.468823,24,129.13640
1,Cafeara/PR,-22.78905,-51.714195,617,20753.44770
D1,Cafeara/PR,-22.78905,-51.714195,13,437.26875
1,Cafelândia/PR,-24.6176963,-53.3218057,3964,21104.18996
D1,Cafelândia/PR,-24.6176963,-53.3218057,44,234.25438
1,Cafelândia/SP,-21.8054355,-49.6030627,836,4665.95970
D1,Cafelândia/SP,-21.8054355,-49.6030627,52,290.22716
1,Cafezal do Sul/PR,-23.900508,-53.512418,789,19849.05660
D1,Cafezal do Sul/PR,-23.900508,-53.512418,8,201.25786
1,Caiabu/SP,-22.0143038,-51.2356597,322,7675.80453
D1,Caiabu/SP,-22.0143038,-51.2356597,8,190.70322
1,Caiana/MG,-20.695555,-41.924723,220,3939.82808
D1,Caiana/MG,-20.695555,-41.924723,7,125.35817
1,Caiapônia/GO,-16.9538779,-51.8090761,2082,10785.32947
D1,Caiapônia/GO,-16.9538779,-51.8090761,44,227.93203
1,Caibaté/RS,-28.290475,-54.645407,484,10079.13369
D1,Caibaté/RS,-28.290475,-54.645407,7,145.77259
1,Caibi/SC,-27.0751925,-53.2502133,1008,16492.14660
D1,Caibi/SC,-27.0751925,-53.2502133,16,261.78010
1,Caicó/RN,-6.4594544,-37.0971911,14908,21691.93609
D1,Caicó/RN,-6.4594544,-37.0971911,170,247.35908
1,Caieiras/SP,-23.3644621,-46.7484765,10126,9732.42090
D1,Caieiras/SP,-23.3644621,-46.7484765,338,324.86256
1,Cairu/BA,-13.4860505,-39.0455744,1718,9203.90014
D1,Cairu/BA,-13.4860505,-39.0455744,17,91.07468
1,Caiuá/SP,-21.8319357,-51.9887179,422,7013.46186
D1,Caiuá/SP,-21.8319357,-51.9887179,11,182.81536
1,Caiçara do Norte/RN,-5.0645017,-36.0561226,641,9753.49970
D1,Caiçara do Norte/RN,-5.0645017,-36.0561226,12,182.59282
1,Caiçara do Rio do Vento/RN,-5.757968,-36.00089,529,14125.50067
D1,Caiçara do Rio do Vento/RN,-5.757968,-36.00089,8,213.61816
1,Caiçara/PB,-6.6146866,-35.4681434,980,13645.22417
D1,Caiçara/PB,-6.6146866,-35.4681434,14,194.93177
1,Caiçara/RS,-27.2750478,-53.4310053,867,18609.14359
D1,Caiçara/RS,-27.2750478,-53.4310053,11,236.10217
1,Cajamar/SP,-23.3561111,-46.8769444,5501,6960.29557
D1,Cajamar/SP,-23.3561111,-46.8769444,250,316.31956
1,Cajapió/MA,-2.8778715,-44.6746871,321,2852.06575
D1,Cajapió/MA,-2.8778715,-44.6746871,7,62.19458
1,Cajari/MA,-3.3213076,-45.0118757,403,2064.44342
D1,Cajari/MA,-3.3213076,-45.0118757,9,46.10420
1,Cajati/SP,-24.7272376,-48.1077914,5179,18209.62695
D1,Cajati/SP,-24.7272376,-48.1077914,105,369.18533
1,Cajazeiras do Piauí/PI,-6.794271,-42.3935024,83,2314.55661
D1,Cajazeiras do Piauí/PI,-6.794271,-42.3935024,2,55.77245
1,Cajazeiras/PB,-6.8897849,-38.5570389,12933,20667.66812
D1,Cajazeiras/PB,-6.8897849,-38.5570389,178,284.45410
1,Cajazeirinhas/PB,-6.961442,-37.7993733,241,7491.45166
D1,Cajazeirinhas/PB,-6.961442,-37.7993733,1,31.08486
1,Cajobi/SP,-20.8776238,-48.8106972,1440,13522.39647
D1,Cajobi/SP,-20.8776238,-48.8106972,35,328.66936
1,Cajueiro da Praia/PI,-2.931114,-41.340801,498,6464.17445
D1,Cajueiro da Praia/PI,-2.931114,-41.340801,20,259.60540
1,Cajueiro/AL,-9.399589,-36.1524309,764,3570.59401
D1,Cajueiro/AL,-9.399589,-36.1524309,31,144.88012
1,Cajuri/MG,-20.7901414,-42.7954489,622,15703.10528
D1,Cajuri/MG,-20.7901414,-42.7954489,8,201.96920
1,Cajuru/SP,-21.2759978,-47.3046035,2010,7552.69981
D1,Cajuru/SP,-21.2759978,-47.3046035,59,221.69616
1,Caldas Brandão/PB,-7.1027959,-35.3254676,753,12390.98239
D1,Caldas Brandão/PB,-7.1027959,-35.3254676,10,164.55488
1,Caldas Novas/GO,-17.745,-48.625,14136,14851.39153
D1,Caldas Novas/GO,-17.745,-48.625,320,336.19449
1,Caldas/MG,-21.923611,-46.386111,1451,9938.35616
D1,Caldas/MG,-21.923611,-46.386111,40,273.97260
1,Caldazinha/GO,-16.7116649,-49.0012601,843,21615.38462
D1,Caldazinha/GO,-16.7116649,-49.0012601,12,307.69231
1,Caldeirão Grande do Piauí/PI,-7.3310393,-40.6374433,551,9522.98652
D1,Caldeirão Grande do Piauí/PI,-7.3310393,-40.6374433,2,34.56619
1,Caldeirão Grande/BA,-11.0208483,-40.3041387,577,4289.32501
D1,Caldeirão Grande/BA,-11.0208483,-40.3041387,6,44.60303
1,Califórnia/PR,-23.6672543,-51.3554556,1716,19858.81264
D1,Califórnia/PR,-23.6672543,-51.3554556,40,462.90939
1,Calmon/SC,-26.6023644,-51.0992893,53,1593.98496
D1,Calmon/SC,-26.6023644,-51.0992893,7,210.52632
1,Calumbi/PE,-7.9389746,-38.1516871,1013,17635.79387
D1,Calumbi/PE,-7.9389746,-38.1516871,5,87.04735
1,Calçado/PE,-8.7413446,-36.3351787,561,5107.89402
D1,Calçado/PE,-8.7413446,-36.3351787,7,63.73486
1,Calçoene/AP,2.4981757,-50.9539503,2492,21682.76342
D1,Calçoene/AP,2.4981757,-50.9539503,15,130.51423
1,Camacan/BA,-15.4166631,-39.4930088,3256,10167.69197
D1,Camacan/BA,-15.4166631,-39.4930088,92,287.29351
1,Camacho/MG,-20.625556,-45.156667,277,9756.95667
D1,Camacho/MG,-20.625556,-45.156667,2,70.44734
1,Camalaú/PB,-7.885031,-36.824191,608,10052.91005
D1,Camalaú/PB,-7.885031,-36.824191,7,115.74074
1,Camamu/BA,-13.9438142,-39.1060917,2766,7803.85961
D1,Camamu/BA,-13.9438142,-39.1060917,59,166.45977
1,Camanducaia/MG,-22.755278,-46.144444,4238,19412.76167
D1,Camanducaia/MG,-22.755278,-46.144444,74,338.96752
1,Camapuã/MS,-19.5291747,-54.0434641,1405,10274.22303
D1,Camapuã/MS,-19.5291747,-54.0434641,33,241.31627
1,Camaquã/RS,-30.8524752,-51.8075619,8285,12423.89707
D1,Camaquã/RS,-30.8524752,-51.8075619,160,239.93042
1,Camaragibe/PE,-8.0213832,-34.9810768,8573,5359.96749
D1,Camaragibe/PE,-8.0213832,-34.9810768,455,284.47279
1,Camargo/RS,-28.5865661,-52.2031474,599,21781.81818
D1,Camargo/RS,-28.5865661,-52.2031474,8,290.90909
1,Camaçari/BA,-12.6998188,-38.3260762,27934,9034.04828
D1,Camaçari/BA,-12.6998188,-38.3260762,642,207.62723
1,Cambará do Sul/RS,-29.0489517,-50.145412,372,5827.98057
D1,Cambará do Sul/RS,-29.0489517,-50.145412,11,172.33276
1,Cambará/PR,-23.042273,-50.075281,4624,18084.39908
D1,Cambará/PR,-23.042273,-50.075281,69,269.85803
1,Cambira/PR,-23.600265,-51.581045,2000,25103.55215
D1,Cambira/PR,-23.600265,-51.581045,29,364.00151
1,Camboriú/SC,-27.0273601,-48.6535657,16965,19459.96169
D1,Camboriú/SC,-27.0273601,-48.6535657,199,228.26598
1,Cambuci/RJ,-21.5749919,-41.9107833,2469,15907.48019
D1,Cambuci/RJ,-21.5749919,-41.9107833,41,264.15824
1,Cambuquira/MG,-21.853056,-45.2953619,1176,9180.32787
D1,Cambuquira/MG,-21.853056,-45.2953619,30,234.19204
1,Cambuí/MG,-22.6122501,-46.0572137,6461,21487.96062
D1,Cambuí/MG,-22.6122501,-46.0572137,62,206.19928
1,Cambé/PR,-23.2782035,-51.2779583,17343,16039.62044
D1,Cambé/PR,-23.2782035,-51.2779583,364,336.64429
