type,name,lat,lon,total,total_per_100k_inhabitants
1,Abadia de Goiás/GO,-16.7572644,-49.4412205,1548,17280.64300
D1,Abadia de Goiás/GO,-16.7572644,-49.4412205,37,413.03862
1,Abadia dos Dourados/MG,-18.4911191,-47.4063589,468,6679.98858
D1,Abadia dos Dourados/MG,-18.4911191,-47.4063589,14,199.82872
1,Abadiânia/GO,-16.1940946,-48.7067767,454,2218.85538
D1,Abadiânia/GO,-16.1940946,-48.7067767,39,190.60652
1,Abaetetuba/PA,-1.721828,-48.878843,8944,5622.32839
D1,Abaetetuba/PA,-1.721828,-48.878843,220,138.29520
1,Abaeté/MG,-19.1566833,-45.4481213,1428,6141.93548
D1,Abaeté/MG,-19.1566833,-45.4481213,31,133.33333
1,Abaiara/CE,-7.3607808,-39.0487878,594,5011.38952
D1,Abaiara/CE,-7.3607808,-39.0487878,15,126.55024
1,Abaré/BA,-8.7239913,-39.1139689,989,4860.66742
D1,Abaré/BA,-8.7239913,-39.1139689,11,54.06202
1,Abatiá/PR,-23.3052967,-50.3102532,1084,14632.82937
D1,Abatiá/PR,-23.3052967,-50.3102532,19,256.47948
1,Abaíra/BA,-13.2503296,-41.6640342,289,3318.02526
D1,Abaíra/BA,-13.2503296,-41.6640342,12,137.77268
1,Abdon Batista/SC,-27.612419,-51.022992,427,16758.24176
D1,Abdon Batista/SC,-27.612419,-51.022992,4,156.98587
1,Abel Figueiredo/PA,-4.953001,-48.3958485,1007,13451.77665
D1,Abel Figueiredo/PA,-4.953001,-48.3958485,10,133.58269
1,Abelardo Luz/SC,-26.5705893,-52.3280339,1613,8981.06904
D1,Abelardo Luz/SC,-26.5705893,-52.3280339,57,317.37194
1,Abre Campo/MG,-20.2976097,-42.4764741,1236,9193.69235
D1,Abre Campo/MG,-20.2976097,-42.4764741,16,119.01220
1,Abreu e Lima/PE,-7.900719,-34.898389,3239,3227.83170
D1,Abreu e Lima/PE,-7.900719,-34.898389,228,227.21384
1,Abreulândia/TO,-9.6221526,-49.1558343,277,10678.48882
D1,Abreulândia/TO,-9.6221526,-49.1558343,6,231.30301
1,Acaiaca/MG,-20.3621646,-43.1444162,229,5733.60040
D1,Acaiaca/MG,-20.3621646,-43.1444162,11,275.41312
1,Acajutiba/BA,-11.6609659,-38.0186381,542,3568.84177
D1,Acajutiba/BA,-11.6609659,-38.0186381,18,118.52242
1,Acarape/CE,-4.2237866,-38.7071663,2788,18542.16547
D1,Acarape/CE,-4.2237866,-38.7071663,30,199.52115
1,Acaraú/CE,-2.8869514,-40.1194713,5061,8020.09381
D1,Acaraú/CE,-2.8869514,-40.1194713,110,174.31542
1,Acari/RN,-6.4364689,-36.6394777,1113,10008.09280
D1,Acari/RN,-6.4364689,-36.6394777,19,170.84795
1,Acará/PA,-1.961388,-48.1987043,1336,2399.89941
D1,Acará/PA,-1.961388,-48.1987043,33,59.27895
1,Acauã/PI,-8.219542,-41.083059,203,2858.34976
D1,Acauã/PI,-8.219542,-41.083059,1,14.08054
1,Aceguá/RS,-31.8695131,-54.1615593,366,7405.90854
D1,Aceguá/RS,-31.8695131,-54.1615593,7,141.64306
1,Acopiara/CE,-6.0936464,-39.4543204,3858,7081.36782
D1,Acopiara/CE,-6.0936464,-39.4543204,140,256.97032
1,Acorizal/MT,-15.2001544,-56.3668953,513,9617.54781
D1,Acorizal/MT,-15.2001544,-56.3668953,19,356.20547
1,Acrelândia/AC,-10.0759167,-67.0526898,1718,11091.02647
D1,Acrelândia/AC,-10.0759167,-67.0526898,37,238.86378
1,Acreúna/GO,-17.3959899,-50.3749031,2276,10094.91706
D1,Acreúna/GO,-17.3959899,-50.3749031,51,226.20420
1,Adamantina/SP,-21.6866517,-51.0762975,3590,10224.71590
D1,Adamantina/SP,-21.6866517,-51.0762975,119,338.92512
1,Adelândia/GO,-16.4155077,-50.1665834,217,8624.80127
D1,Adelândia/GO,-16.4155077,-50.1665834,4,158.98251
1,Adolfo/SP,-21.2356597,-49.6441918,584,16432.18908
D1,Adolfo/SP,-21.2356597,-49.6441918,16,450.19696
1,Adrianópolis/PR,-24.6557863,-48.9912769,1385,23646.91822
D1,Adrianópolis/PR,-24.6557863,-48.9912769,29,495.13403
1,Adustina/BA,-10.5358875,-38.114479,1040,6072.63809
D1,Adustina/BA,-10.5358875,-38.114479,24,140.13780
1,Afogados da Ingazeira/PE,-7.750429,-37.6356375,5124,13699.06962
D1,Afogados da Ingazeira/PE,-7.750429,-37.6356375,72,192.49278
1,Afonso Bezerra/RN,-5.4745,-36.57625071327935,786,7126.66606
D1,Afonso Bezerra/RN,-5.4745,-36.57625071327935,18,163.20609
1,Afonso Cláudio/ES,-20.077841,-41.12606,3449,11324.90560
D1,Afonso Cláudio/ES,-20.077841,-41.12606,59,193.72845
1,Afonso Cunha/MA,-4.1326105,-43.3230026,252,3830.95166
D1,Afonso Cunha/MA,-4.1326105,-43.3230026,3,45.60657
1,Afrânio/PE,-8.5198919,-41.0070197,950,4795.55780
D1,Afrânio/PE,-8.5198919,-41.0070197,15,75.71933
1,Afuá/PA,-0.1535664,-50.3879223,3035,7670.53353
D1,Afuá/PA,-0.1535664,-50.3879223,16,40.43774
1,Agrestina/PE,-8.4558021,-35.9442663,1723,6874.12727
D1,Agrestina/PE,-8.4558021,-35.9442663,64,255.33613
1,Agricolândia/PI,-5.7967843,-42.6605131,502,9783.66790
D1,Agricolândia/PI,-5.7967843,-42.6605131,6,116.93627
1,Agrolândia/SC,-27.4122212,-49.8295774,1634,14837.01081
D1,Agrolândia/SC,-27.4122212,-49.8295774,27,245.16481
1,Agronômica/SC,-27.2660744,-49.7104753,655,11889.63514
D1,Agronômica/SC,-27.2660744,-49.7104753,13,235.97749
1,Aguanil/MG,-20.9424533,-45.3927152,642,14197.25785
D1,Aguanil/MG,-20.9424533,-45.3927152,8,176.91287
1,Aguaí/SP,-22.0592036,-46.979384,3311,9034.59943
D1,Aguaí/SP,-22.0592036,-46.979384,101,275.59485
1,Agudo/RS,-29.6423259,-53.2494005,1751,10676.17828
D1,Agudo/RS,-29.6423259,-53.2494005,29,176.81849
1,Agudos do Sul/PR,-25.9890808,-49.3328175,713,7529.03907
D1,Agudos do Sul/PR,-25.9890808,-49.3328175,25,263.99155
1,Agudos/SP,-22.471162,-48.987822,4141,11071.89647
D1,Agudos/SP,-22.471162,-48.987822,102,272.71998
1,Aguiar/PB,-7.0928404,-38.1727215,522,9271.75844
D1,Aguiar/PB,-7.0928404,-38.1727215,5,88.80995
1,Aguiarnópolis/TO,-6.5600452,-47.4721189,662,9605.33952
D1,Aguiarnópolis/TO,-6.5600452,-47.4721189,13,188.62449
1,Aimorés/MG,-19.4917754,-41.0615603,2030,8074.46005
D1,Aimorés/MG,-19.4917754,-41.0615603,71,282.40722
1,Aiquara/BA,-14.126918,-39.8887574,492,11141.30435
D1,Aiquara/BA,-14.126918,-39.8887574,12,271.73913
1,Aiuaba/CE,-6.5710836,-40.1212278,810,4630.42360
D1,Aiuaba/CE,-6.5710836,-40.1212278,11,62.88230
1,Aiuruoca/MG,-21.9759554,-44.6036637,313,5237.61714
D1,Aiuruoca/MG,-21.9759554,-44.6036637,9,150.60241
1,Ajuricaba/RS,-28.239654,-53.7693013,1056,15113.78274
D1,Ajuricaba/RS,-28.239654,-53.7693013,29,415.05653
1,Alagoa Grande/PB,-7.0415212,-35.6285322,4089,14378.14269
D1,Alagoa Grande/PB,-7.0415212,-35.6285322,70,246.14086
1,Alagoa Nova/PB,-7.0653703,-35.76695977336711,1266,6051.33598
D1,Alagoa Nova/PB,-7.0653703,-35.76695977336711,20,95.59772
1,Alagoa/MG,-22.1697202,-44.6400042,444,16660.41276
D1,Alagoa/MG,-22.1697202,-44.6400042,6,225.14071
1,Alagoinha do Piauí/PI,-7.0090952,-40.939675,372,4853.22896
D1,Alagoinha do Piauí/PI,-7.0090952,-40.939675,10,130.46314
1,Alagoinha/PB,-6.97063215,-35.51490901897793,2046,14052.19780
D1,Alagoinha/PB,-6.97063215,-35.51490901897793,24,164.83516
1,Alagoinha/PE,-8.50355635,-36.77701174370496,1289,8757.98342
D1,Alagoinha/PE,-8.50355635,-36.77701174370496,25,169.86004
1,Alagoinhas/BA,-12.133526,-38.420772,14180,9308.92094
D1,Alagoinhas/BA,-12.133526,-38.420772,302,198.25770
1,Alambari/SP,-23.550338,-47.897971,600,9789.52521
D1,Alambari/SP,-23.550338,-47.897971,11,179.47463
1,Albertina/MG,-20.66164,-43.784039,246,8170.04318
D1,Albertina/MG,-20.66164,-43.784039,9,298.90402
1,Alcantil/PB,-7.7425491,-36.0609604,591,10727.89980
D1,Alcantil/PB,-7.7425491,-36.0609604,6,108.91269
1,Alcinópolis/MS,-18.3264121,-53.7094463,371,6848.80930
D1,Alcinópolis/MS,-18.3264121,-53.7094463,9,166.14362
1,Alcobaça/BA,-17.5215875,-39.1965474,1539,6843.04135
D1,Alcobaça/BA,-17.5215875,-39.1965474,30,133.39262
1,Alcântara/MA,-2.4038956,-44.4154241,323,1460.74530
D1,Alcântara/MA,-2.4038956,-44.4154241,18,81.40376
1,Alcântaras/CE,-3.586247,-40.5457641,1732,14701.63823
D1,Alcântaras/CE,-3.586247,-40.5457641,22,186.74136
1,Aldeias Altas/MA,-4.6291957,-43.4708622,976,3647.64361
D1,Aldeias Altas/MA,-4.6291957,-43.4708622,14,52.32276
1,Alecrim/RS,-27.6566142,-54.7653195,314,5388.70774
D1,Alecrim/RS,-27.6566142,-54.7653195,12,205.93788
1,Alegre/ES,-20.7625787,-41.5318886,2636,8793.99500
D1,Alegre/ES,-20.7625787,-41.5318886,57,190.15847
1,Alegrete do Piauí/PI,-7.2440138,-40.8602296,515,10471.73648
D1,Alegrete do Piauí/PI,-7.2440138,-40.8602296,6,122.00081
1,Alegrete/RS,-29.790166,-55.794862,10662,14599.87950
D1,Alegrete/RS,-29.790166,-55.794862,283,387.52259
1,Alegria/RS,-27.8332103,-54.0574959,395,11707.17250
D1,Alegria/RS,-27.8332103,-54.0574959,3,88.91523
1,Alenquer/PA,-1.946229,-54.738355,3561,6237.30120
D1,Alenquer/PA,-1.946229,-54.738355,139,243.46669
1,Alexandria/RN,-6.414779,-38.0135516,1753,12934.40567
D1,Alexandria/RN,-6.414779,-38.0135516,29,213.97477
1,Alexânia/GO,-16.0834049,-48.5077803,3169,11313.81649
D1,Alexânia/GO,-16.0834049,-48.5077803,81,289.18243
1,Alfenas/MG,-21.4297405,-45.9479419,9868,12259.29883
D1,Alfenas/MG,-21.4297405,-45.9479419,190,236.04244
1,Alfredo Chaves/ES,-20.624970400000002,-40.75006690147988,2462,16821.53594
D1,Alfredo Chaves/ES,-20.624970400000002,-40.75006690147988,35,239.13638
1,Alfredo Marcondes/SP,-21.9527,-51.413956,250,5975.14340
D1,Alfredo Marcondes/SP,-21.9527,-51.413956,12,286.80688
1,Alfredo Vasconcelos/MG,-21.145833,-43.776389,582,8336.91448
D1,Alfredo Vasconcelos/MG,-21.145833,-43.776389,13,186.21974
1,Alfredo Wagner/SC,-27.6961513,-49.3326734,1062,10529.44676
D1,Alfredo Wagner/SC,-27.6961513,-49.3326734,7,69.40313
1,Algodão de Jandaíra/PB,-6.9040175,-36.0089879,225,8731.08265
D1,Algodão de Jandaíra/PB,-6.9040175,-36.0089879,1,38.80481
1,Alhandra/PB,-7.4304246,-34.9106103,2364,11983.57581
D1,Alhandra/PB,-7.4304246,-34.9106103,36,182.49100
1,Aliança do Tocantins/TO,-11.3055927,-48.9409096,644,12046.38982
D1,Aliança do Tocantins/TO,-11.3055927,-48.9409096,20,374.11149
1,Aliança/PE,-7.60398,-35.222696,663,1726.69740
D1,Aliança/PE,-7.60398,-35.222696,60,156.26221
1,Almadina/BA,-14.70466,-39.6381994,634,11815.13231
D1,Almadina/BA,-14.70466,-39.6381994,9,167.72270
1,Almas/TO,-11.5681309,-47.1702803,236,3381.57329
D1,Almas/TO,-11.5681309,-47.1702803,5,71.64350
1,Almeirim/PA,-1.5290377,-52.5788111,3697,10849.27808
D1,Almeirim/PA,-1.5290377,-52.5788111,44,129.12314
1,Almenara/MG,-16.1740678,-40.6904907,4268,10127.42330
D1,Almenara/MG,-16.1740678,-40.6904907,46,109.15217
1,Almino Afonso/RN,-6.1544208,-37.7649018,507,10764.33121
D1,Almino Afonso/RN,-6.1544208,-37.7649018,13,276.00849
1,Almirante Tamandaré do Sul/RS,-28.1141129,-52.9134874,329,16880.45151
D1,Almirante Tamandaré do Sul/RS,-28.1141129,-52.9134874,6,307.85018
1,Almirante Tamandaré/PR,-25.3133048,-49.2997838,10261,8547.91280
D1,Almirante Tamandaré/PR,-25.3133048,-49.2997838,374,311.56022
1,Aloândia/GO,-17.7277983,-49.4809338,286,14400.80564
D1,Aloândia/GO,-17.7277983,-49.4809338,10,503.52467
1,Alpercata/MG,-18.9803616,-41.9827637,482,6481.97956
D1,Alpercata/MG,-18.9803616,-41.9827637,19,255.51372
1,Alpestre/RS,-27.2512339,-53.0349646,472,7779.79232
D1,Alpestre/RS,-27.2512339,-53.0349646,10,164.82611
1,Alpinópolis/MG,-20.863611,-46.387777,1402,7024.75198
D1,Alpinópolis/MG,-20.863611,-46.387777,38,190.39984
1,Alta Floresta D'Oeste/RO,-11.9296917,-61.9961284,3954,17397.04329
D1,Alta Floresta D'Oeste/RO,-11.9296917,-61.9961284,65,285.99085
1,Alta Floresta/MT,-9.8715018,-56.0839881,9100,17513.80896
D1,Alta Floresta/MT,-9.8715018,-56.0839881,132,254.04646
1,Altair/SP,-20.5238955,-49.0606135,273,6521.73913
D1,Altair/SP,-20.5238955,-49.0606135,12,286.66985
1,Altamira do Maranhão/MA,-4.1643006,-45.4674574,319,3895.46953
D1,Altamira do Maranhão/MA,-4.1643006,-45.4674574,12,146.53804
1,Altamira do Paraná/PR,-24.799114,-52.7128633,233,13852.55648
D1,Altamira do Paraná/PR,-24.799114,-52.7128633,10,594.53032
1,Altamira/PA,-3.204065,-52.209961,13807,11905.76792
D1,Altamira/PA,-3.204065,-52.209961,290,250.06683
1,Altaneira/CE,-6.9980933,-39.7385742,657,8588.23529
D1,Altaneira/CE,-6.9980933,-39.7385742,15,196.07843
1,Alterosa/MG,-21.249166,-46.143055,741,5104.36041
D1,Alterosa/MG,-21.249166,-46.143055,33,227.31969
1,Altinho/PE,-8.4904095,-36.0607494,1280,5569.09154
D1,Altinho/PE,-8.4904095,-36.0607494,27,117.47302
1,Altinópolis/SP,-21.021364,-47.3712,836,5159.53836
D1,Altinópolis/SP,-21.021364,-47.3712,43,265.38295
1,Alto Alegre do Maranhão/MA,-4.2055693,-44.4525287,1241,4454.73473
D1,Alto Alegre do Maranhão/MA,-4.2055693,-44.4525287,27,96.92009
1,Alto Alegre do Pindaré/MA,-3.6698186,-45.8462153,2127,6658.73587
D1,Alto Alegre do Pindaré/MA,-3.6698186,-45.8462153,47,147.13709
1,Alto Alegre dos Parecis/RO,-12.1314515,-61.856265,1455,10976.98982
D1,Alto Alegre dos Parecis/RO,-12.1314515,-61.856265,44,331.95021
1,Alto Alegre/RR,2.98858,-61.307167,1457,9473.34200
D1,Alto Alegre/RR,2.98858,-61.307167,35,227.56827
1,Alto Alegre/RS,-31.780844700000003,-52.81311114489171,204,12647.24117
D1,Alto Alegre/RS,-31.780844700000003,-52.81311114489171,1,61.99628
1,Alto Alegre/SP,-21.5820592,-50.1661976,371,9075.34247
D1,Alto Alegre/SP,-21.5820592,-50.1661976,20,489.23679
1,Alto Araguaia/MT,-17.3156528,-53.2169365,1461,7536.75522
D1,Alto Araguaia/MT,-17.3156528,-53.2169365,26,134.12432
1,Alto Bela Vista/SC,-27.4320737,-51.905771,199,10332.29491
D1,Alto Bela Vista/SC,-27.4320737,-51.905771,3,155.76324
1,Alto Boa Vista/MT,-11.6723985,-51.3744431,798,11505.19031
D1,Alto Boa Vista/MT,-11.6723985,-51.3744431,17,245.09804
1,Alto Caparaó/MG,-20.4405661,-41.8683799,401,6803.52901
D1,Alto Caparaó/MG,-20.4405661,-41.8683799,9,152.69766
1,Alto Feliz/RS,-29.3785943,-51.3123751,285,9387.35178
D1,Alto Feliz/RS,-29.3785943,-51.3123751,2,65.87615
1,Alto Garças/MT,-16.9469683,-53.529427,966,7949.96297
D1,Alto Garças/MT,-16.9469683,-53.529427,40,329.19101
1,Alto Horizonte/GO,-14.1954948,-49.3366993,894,13535.20061
D1,Alto Horizonte/GO,-14.1954948,-49.3366993,12,181.68055
1,Alto Jequitibá/MG,-20.423611,-41.966111,805,9697.62679
D1,Alto Jequitibá/MG,-20.423611,-41.966111,11,132.51415
1,Alto Longá/PI,-5.2549051,-42.2072388,650,4533.09157
D1,Alto Longá/PI,-5.2549051,-42.2072388,14,97.63582
1,Alto Paraguai/MT,-14.513712,-56.4936374,895,7800.92391
D1,Alto Paraguai/MT,-14.513712,-56.4936374,28,244.05125
1,Alto Paraná/PR,-23.131247,-52.318893,1236,8318.19100
D1,Alto Paraná/PR,-23.131247,-52.318893,26,174.97813
1,Alto Paraíso de Goiás/GO,-14.1304779,-47.5100161,668,8688.86576
D1,Alto Paraíso de Goiás/GO,-14.1304779,-47.5100161,8,104.05827
1,Alto Paraíso/PR,-23.508137,-53.728537,302,11247.67225
D1,Alto Paraíso/PR,-23.508137,-53.728537,5,186.21974
1,Alto Paraíso/RO,-9.7240103,-63.3188123,1829,8371.85884
D1,Alto Paraíso/RO,-9.7240103,-63.3188123,48,219.70980
1,Alto Parnaíba/MA,-9.112506,-45.9310154,933,8321.44131
D1,Alto Parnaíba/MA,-9.112506,-45.9310154,11,98.10917
1,Alto Piquiri/PR,-24.0239021,-53.4417448,1030,10533.85150
D1,Alto Piquiri/PR,-24.0239021,-53.4417448,25,255.67601
1,Alto Rio Doce/MG,-21.0239537,-43.4133507,489,4503.17709
D1,Alto Rio Doce/MG,-21.0239537,-43.4133507,27,248.64168
1,Alto Rio Novo/ES,-19.0577208,-41.0171518,717,9105.91821
D1,Alto Rio Novo/ES,-19.0577208,-41.0171518,22,279.40056
1,Alto Santo/CE,-5.5190371,-38.2719351,1898,11037.45057
D1,Alto Santo/CE,-5.5190371,-38.2719351,34,197.72040
1,Alto Taquari/MT,-17.8269099,-53.2831736,1514,13599.20956
D1,Alto Taquari/MT,-17.8269099,-53.2831736,28,251.50454
1,Alto do Rodrigues/RN,-5.290868,-36.7616726,2507,17021.99891
D1,Alto do Rodrigues/RN,-5.290868,-36.7616726,40,271.59153
1,Altos/PI,-5.0393915,-42.4611694,4438,10929.68846
D1,Altos/PI,-5.0393915,-42.4611694,89,219.18483
1,Altônia/PR,-23.8722004,-53.894037,1358,6123.73737
D1,Altônia/PR,-23.8722004,-53.894037,30,135.28139
1,Alumínio/SP,-23.5203479,-47.2575256,1523,8115.30879
D1,Alumínio/SP,-23.5203479,-47.2575256,45,239.78260
1,Alvarenga/MG,-19.4175,-41.728334,506,13163.37149
D1,Alvarenga/MG,-19.4175,-41.728334,4,104.05827
1,Alvarães/AM,-3.214786,-64.8143124,2898,17866.83107
D1,Alvarães/AM,-3.214786,-64.8143124,46,283.60049
1,Alvinlândia/SP,-22.4431852,-49.7643596,140,4324.99228
D1,Alvinlândia/SP,-22.4431852,-49.7643596,9,278.03522
1,Alvinópolis/MG,-20.1105199,-43.0601805,710,4680.59859
D1,Alvinópolis/MG,-20.1105199,-43.0601805,22,145.03263
1,Alvorada D'Oeste/RO,-11.346271,-62.284697,1129,8003.68637
D1,Alvorada D'Oeste/RO,-11.346271,-62.284697,29,205.58628
1,Alvorada de Minas/MG,-18.7318587,-43.3641479,275,7628.29404
D1,Alvorada de Minas/MG,-18.7318587,-43.3641479,3,83.21775
1,Alvorada do Gurguéia/PI,-8.4465288,-43.8655915,426,7823.69146
D1,Alvorada do Gurguéia/PI,-8.4465288,-43.8655915,10,183.65473
1,Alvorada do Norte/GO,-14.483911,-46.4959897,774,8891.44170
D1,Alvorada do Norte/GO,-14.483911,-46.4959897,8,91.90121
1,Alvorada do Sul/PR,-22.7807269,-51.2307721,845,7345.90976
D1,Alvorada do Sul/PR,-22.7807269,-51.2307721,25,217.33461
1,Alvorada/RS,-29.9981184,-51.0772509,20701,9794.56073
D1,Alvorada/RS,-29.9981184,-51.0772509,755,357.22397
1,Alvorada/TO,-12.478465,-49.124926,1240,14768.93759
D1,Alvorada/TO,-12.478465,-49.124926,20,238.20867
1,Além Paraíba/MG,-21.8760576,-42.6810473,3256,9197.48030
D1,Além Paraíba/MG,-21.8760576,-42.6810473,147,415.24251
1,Amajari/RR,3.6523869,-61.4194315,1119,8486.91695
D1,Amajari/RR,3.6523869,-61.4194315,20,151.68752
1,Amambai/MS,-23.1082701,-55.2284854,3164,7944.55883
D1,Amambai/MS,-23.1082701,-55.2284854,82,205.89565
1,Amaporã/PR,-23.094272,-52.786597,419,6617.18256
D1,Amaporã/PR,-23.094272,-52.786597,7,110.54959
1,Amapá do Maranhão/MA,-1.6762114,-46.0109669,172,2455.38901
D1,Amapá do Maranhão/MA,-1.6762114,-46.0109669,6,85.65310
1,Amapá/AP,2.0529997,-50.7930003,1368,14890.60629
D1,Amapá/AP,2.0529997,-50.7930003,10,108.84946
1,Amaraji/PE,-8.373925,-35.4536527,619,2706.60254
D1,Amaraji/PE,-8.373925,-35.4536527,39,170.52908
1,Amaral Ferrador/RS,-30.8750633,-52.2542051,298,4206.06916
D1,Amaral Ferrador/RS,-30.8750633,-52.2542051,8,112.91461
1,Amaralina/GO,-13.9236199,-49.2962411,110,2860.85826
D1,Amaralina/GO,-13.9236199,-49.2962411,2,52.01560
1,Amarante do Maranhão/MA,-5.56913,-46.747284,1585,3798.31772
D1,Amarante do Maranhão/MA,-5.56913,-46.747284,53,127.00999
1,Amarante/PI,-6.2459374,-42.8476238,1549,8799.13656
D1,Amarante/PI,-6.2459374,-42.8476238,35,198.81845
1,Amargosa/BA,-13.03793715,-39.60796443875596,3043,8127.45386
D1,Amargosa/BA,-13.03793715,-39.60796443875596,55,146.89779
1,Amaturá/AM,-3.3640509,-68.1994689,2361,20117.58691
D1,Amaturá/AM,-3.3640509,-68.1994689,17,144.85344
1,Americana/SP,-22.7392463,-47.3306032,24170,9986.86048
D1,Americana/SP,-22.7392463,-47.3306032,751,310.30750
1,Americano do Brasil/GO,-16.2515808,-49.9806104,791,12832.57625
D1,Americano do Brasil/GO,-16.2515808,-49.9806104,22,356.91110
1,Ametista do Sul/RS,-27.3617341,-53.1826575,821,11090.09861
D1,Ametista do Sul/RS,-27.3617341,-53.1826575,20,270.16075
1,Amontada/CE,-3.3634586,-39.8284791,2924,6671.38196
D1,Amontada/CE,-3.3634586,-39.8284791,55,125.48769
1,Amorinópolis/GO,-16.6211308,-51.0949921,292,9514.49984
D1,Amorinópolis/GO,-16.6211308,-51.0949921,6,195.50342
1,Amparo de São Francisco/SE,-10.1299754,-36.9269099,254,10672.26891
D1,Amparo de São Francisco/SE,-10.1299754,-36.9269099,5,210.08403
1,Amparo do Serra/MG,-20.5070255,-42.8028462,163,3484.39504
D1,Amparo do Serra/MG,-20.5070255,-42.8028462,8,171.01325
1,Amparo/PB,-7.56394725,-37.04652873235175,170,7552.19902
D1,Amparo/PB,-7.56394725,-37.04652873235175,4,177.69880
1,Amparo/SP,-22.70111,-46.76444,6757,9297.30176
D1,Amparo/SP,-22.70111,-46.76444,134,184.37745
1,Ampére/PR,-25.9168712,-53.4742414,2296,11889.59660
D1,Ampére/PR,-25.9168712,-53.4742414,56,289.99016
1,Amélia Rodrigues/BA,-12.4015388,-38.7516971,2323,9274.19355
D1,Amélia Rodrigues/BA,-12.4015388,-38.7516971,46,183.64740
1,América Dourada/BA,-11.4515262,-41.4357517,948,5891.85830
D1,América Dourada/BA,-11.4515262,-41.4357517,13,80.79553
1,Américo Brasiliense/SP,-21.7297099,-48.1052092,3999,9746.05186
D1,Américo Brasiliense/SP,-21.7297099,-48.1052092,90,219.34100
1,Américo de Campos/SP,-20.298476,-49.735904,1074,17956.86340
D1,Américo de Campos/SP,-20.298476,-49.735904,33,551.74720
1,Anadia/AL,-9.6830208,-36.3052699,1443,8233.48168
D1,Anadia/AL,-9.6830208,-36.3052699,29,165.46845
1,Anagé/BA,-14.6134669,-41.1376308,934,4322.67321
D1,Anagé/BA,-14.6134669,-41.1376308,25,115.70324
1,Anahy/PR,-24.6450861,-53.1337957,357,12804.87805
D1,Anahy/PR,-24.6450861,-53.1337957,9,322.81205
1,Anajatuba/MA,-3.26441,-44.6179916,973,3605.30606
D1,Anajatuba/MA,-3.26441,-44.6179916,24,88.92841
1,Anajás/PA,-0.9878802,-49.9390114,1360,4580.97548
D1,Anajás/PA,-0.9878802,-49.9390114,22,74.10402
1,Analândia/SP,-22.128917,-47.661939,327,6467.56329
D1,Analândia/SP,-22.128917,-47.661939,4,79.11392
1,Anamã/AM,-3.5797356,-61.4049996,1841,13191.45887
D1,Anamã/AM,-3.5797356,-61.4049996,9,64.48839
1,Ananindeua/PA,-1.374035,-48.4016623,24885,4646.65099
D1,Ananindeua/PA,-1.374035,-48.4016623,813,151.80740
1,Ananás/TO,-6.3663053,-48.080238,1598,16835.22967
D1,Ananás/TO,-6.3663053,-48.080238,26,273.91488
1,Anapu/PA,-3.4668292,-51.2057035,1646,5753.83647
D1,Anapu/PA,-3.4668292,-51.2057035,38,132.83462
1,Anapurus/MA,-3.6751298,-43.1046001,831,5228.38807
D1,Anapurus/MA,-3.6751298,-43.1046001,14,88.08355
1,Anastácio/MS,-20.4832458,-55.8048448,2498,9898.16539
D1,Anastácio/MS,-20.4832458,-55.8048448,74,293.22027
1,Anaurilândia/MS,-22.185169,-52.719056,554,6104.01058
D1,Anaurilândia/MS,-22.185169,-52.719056,15,165.27104
1,Anchieta/ES,-20.8057672,-40.6454564,4842,16259.78038
D1,Anchieta/ES,-20.8057672,-40.6454564,87,292.15219
1,Anchieta/SC,-26.5350527,-53.3293938,667,12002.87925
D1,Anchieta/SC,-26.5350527,-53.3293938,9,161.95789
1,Andaraí/BA,-12.8059674,-41.3322919,923,7028.63235
D1,Andaraí/BA,-12.8059674,-41.3322919,10,76.14986
1,Andirá/PR,-23.0494761,-50.2310027,2473,12410.92041
D1,Andirá/PR,-23.0494761,-50.2310027,81,406.50407
1,Andorinha/BA,-10.3445708,-39.8334411,926,6384.88589
D1,Andorinha/BA,-10.3445708,-39.8334411,17,117.21713
1,Andradas/MG,-22.0680484,-46.5688976,3885,9384.96473
D1,Andradas/MG,-22.0680484,-46.5688976,114,275.38893
1,Andradina/SP,-20.896505,-51.3742765,6338,11080.03217
D1,Andradina/SP,-20.896505,-51.3742765,259,452.78137
1,Andrelândia/MG,-21.739722,-44.308889,206,1687.69458
D1,Andrelândia/MG,-21.739722,-44.308889,13,106.50500
1,André da Rocha/RS,-28.6309124,-51.5733328,118,8786.29933
D1,André da Rocha/RS,-28.6309124,-51.5733328,1,74.46016
1,Angatuba/SP,-23.4938938,-48.4110675,2916,11444.71918
D1,Angatuba/SP,-23.4938938,-48.4110675,71,278.66086
1,Angelim/PE,-8.8902038,-36.2872987,225,2004.27579
D1,Angelim/PE,-8.8902038,-36.2872987,11,97.98682
1,Angelina/SC,-27.5805287,-48.9838759,523,11026.77630
D1,Angelina/SC,-27.5805287,-48.9838759,2,42.16740
1,Angelândia/MG,-17.7253,-42.2728,219,2559.30817
D1,Angelândia/MG,-17.7253,-42.2728,1,11.68634
1,Angical do Piauí/PI,-6.0872666,-42.7366138,866,12767.21215
D1,Angical do Piauí/PI,-6.0872666,-42.7366138,12,176.91287
1,Angical/BA,-12.005623,-44.7000236,702,5036.59062
D1,Angical/BA,-12.005623,-44.7000236,16,114.79409
1,Angico/TO,-6.3893733,-47.8656722,236,6832.65779
D1,Angico/TO,-6.3893733,-47.8656722,4,115.80776
1,Angicos/RN,-5.6666344,-36.6009064,1107,9457.49680
D1,Angicos/RN,-5.6666344,-36.6009064,22,187.95387
1,Angra dos Reis/RJ,-23.0063966,-44.316326,14354,6932.82587
D1,Angra dos Reis/RJ,-23.0063966,-44.316326,496,239.56261
1,Anguera/BA,-12.1509425,-39.2452469,492,4355.13853
D1,Anguera/BA,-12.1509425,-39.2452469,2,17.70382
1,Angélica/MS,-22.1588196,-53.7728504,1347,12321.62459
D1,Angélica/MS,-22.1588196,-53.7728504,20,182.94914
1,Anhanguera/GO,-18.3338749,-48.220363,91,7844.82759
D1,Anhanguera/GO,-18.3338749,-48.220363,6,517.24138
1,Anhembi/SP,-22.7891096,-48.1316776,287,4208.82827
D1,Anhembi/SP,-22.7891096,-48.1316776,6,87.98944
1,Anhumas/SP,-22.2956478,-51.3873401,223,5381.27413
D1,Anhumas/SP,-22.2956478,-51.3873401,7,168.91892
1,Anicuns/GO,-16.4606451,-49.9572265,3039,13825.57663
D1,Anicuns/GO,-16.4606451,-49.9572265,64,291.16055
1,Anita Garibaldi/SC,-27.6855032,-51.1293873,1188,17076.32600
D1,Anita Garibaldi/SC,-27.6855032,-51.1293873,10,143.74012
1,Anitápolis/SC,-27.9041185,-49.1287395,339,10501.85874
D1,Anitápolis/SC,-27.9041185,-49.1287395,4,123.91574
1,Anori/AM,-3.7435254,-61.6605203,1900,8846.67319
D1,Anori/AM,-3.7435254,-61.6605203,31,144.34046
1,Anta Gorda/RS,-28.9718745,-52.0069187,618,10367.38802
D1,Anta Gorda/RS,-28.9718745,-52.0069187,4,67.10284
1,Antas/BA,-10.4114649,-38.3308815,1316,6755.99363
D1,Antas/BA,-10.4114649,-38.3308815,12,61.60481
1,Antonina do Norte/CE,-6.7754187,-39.9879345,789,10693.95500
D1,Antonina do Norte/CE,-6.7754187,-39.9879345,26,352.39902
1,Antonina/PR,-25.4298854,-48.7125431,2546,13436.06523
D1,Antonina/PR,-25.4298854,-48.7125431,70,369.41263
1,Antônio Almeida/PI,-7.2186016,-44.1950248,406,12807.57098
D1,Antônio Almeida/PI,-7.2186016,-44.1950248,10,315.45741
1,Antônio Cardoso/BA,-12.4363122,-39.1200307,591,5061.23148
D1,Antônio Cardoso/BA,-12.4363122,-39.1200307,11,94.20228
1,Antônio Carlos/MG,-21.318334,-43.746666,740,6457.80609
D1,Antônio Carlos/MG,-21.318334,-43.746666,16,139.62824
1,Antônio Carlos/SC,-27.5168462,-48.7684715,1624,18855.21886
D1,Antônio Carlos/SC,-27.5168462,-48.7684715,26,301.86927
1,Antônio Dias/MG,-19.6525,-42.872778,579,6242.58760
D1,Antônio Dias/MG,-19.6525,-42.872778,25,269.54178
1,Antônio Gonçalves/BA,-10.5715409,-40.2748824,900,7577.03317
D1,Antônio Gonçalves/BA,-10.5715409,-40.2748824,9,75.77033
1,Antônio João/MS,-22.1892837,-55.9508227,537,5953.43681
D1,Antônio João/MS,-22.1892837,-55.9508227,17,188.47007
1,Antônio Martins/RN,-6.2155812,-37.8890129,675,9435.28096
D1,Antônio Martins/RN,-6.2155812,-37.8890129,6,83.86916
1,Antônio Olinto/PR,-25.9849006,-50.1974516,521,7014.94547
D1,Antônio Olinto/PR,-25.9849006,-50.1974516,13,175.03703
1,Antônio Prado de Minas/MG,-21.0171988,-42.1101106,166,10459.98740
D1,Antônio Prado de Minas/MG,-21.0171988,-42.1101106,5,315.05986
1,Antônio Prado/RS,-28.8567806,-51.2801355,2672,20482.94366
D1,Antônio Prado/RS,-28.8567806,-51.2801355,30,229.97317
1,Anápolis/GO,-16.3332828,-48.9525756,41349,10554.35304
D1,Anápolis/GO,-16.3332828,-48.9525756,1517,387.21501
1,Anísio de Abreu/PI,-9.185643,-43.04941,290,2918.09217
D1,Anísio de Abreu/PI,-9.185643,-43.04941,13,130.81103
1,Aparecida d'Oeste/SP,-20.4498109,-50.8808706,746,17941.31794
D1,Aparecida d'Oeste/SP,-20.4498109,-50.8808706,16,384.80038
1,Aparecida de Goiânia/GO,-16.8226769,-49.2452546,70662,11973.64720
D1,Aparecida de Goiânia/GO,-16.8226769,-49.2452546,1511,256.03834
1,Aparecida do Rio Doce/GO,-18.2980167,-51.1491312,242,9781.72999
D1,Aparecida do Rio Doce/GO,-18.2980167,-51.1491312,3,121.26112
1,Aparecida do Rio Negro/TO,-9.9513491,-47.9773786,363,7487.62376
D1,Aparecida do Rio Negro/TO,-9.9513491,-47.9773786,12,247.52475
1,Aparecida do Taboado/MS,-20.0840304,-51.1013943,3600,13809.50554
D1,Aparecida do Taboado/MS,-20.0840304,-51.1013943,58,222.48648
1,Aparecida/PB,-6.7859598, -38.0831353,942,11192.96578
D1,Aparecida/PB,-6.7859598, -38.0831353,13,154.46768
1,Aparecida/SP,-22.851552,-45.2340924,2380,6577.31104
D1,Aparecida/SP,-22.851552,-45.2340924,97,268.06688
1,Aperibé/RJ,-21.6211928,-42.1028167,627,5268.46483
D1,Aperibé/RJ,-21.6211928,-42.1028167,27,226.87169
1,Apiacá/ES,-21.152272,-41.569297,851,11265.55467
D1,Apiacá/ES,-21.152272,-41.569297,33,436.85465
1,Apiacás/MT,-9.5678422,-57.394852,1818,17679.66547
D1,Apiacás/MT,-9.5678422,-57.394852,17,165.32140
1,Apiaí/SP,-24.5076527,-48.8461582,1571,6484.76843
D1,Apiaí/SP,-24.5076527,-48.8461582,75,309.58474
1,Apicum-Açu/MA,-1.5279295,-45.082278,524,3009.24597
D1,Apicum-Açu/MA,-1.5279295,-45.082278,5,28.71418
1,Apiúna/SC,-27.0374658,-49.3885037,840,7743.36283
D1,Apiúna/SC,-27.0374658,-49.3885037,16,147.49263
1,Apodi/RN,-5.6631109,-37.796927,6466,18024.19580
D1,Apodi/RN,-5.6631109,-37.796927,96,267.60328
1,Aporá/BA,-11.6599747,-38.0794757,603,3389.92579
D1,Aporá/BA,-11.6599747,-38.0794757,19,106.81358
1,Aporé/GO,-18.9642193,-51.92804,365,8624.76371
D1,Aporé/GO,-18.9642193,-51.92804,10,236.29490
1,Apuarema/BA,-13.8517897,-39.7457126,724,9915.09176
D1,Apuarema/BA,-13.8517897,-39.7457126,9,123.25390
1,Apucarana/PR,-23.5525327,-51.4610764,10406,7638.32817
D1,Apucarana/PR,-23.5525327,-51.4610764,422,309.76115
1,Apuiarés/CE,-3.9460303,-39.4313298,1272,8669.57470
D1,Apuiarés/CE,-3.9460303,-39.4313298,25,170.39258
1,Apuí/AM,-7.1940195,-59.8830192,1435,6417.99723
D1,Apuí/AM,-7.1940195,-59.8830192,31,138.64663
1,Aquidabã/SE,-10.2837579,-37.0188687,2344,10811.30944
D1,Aquidabã/SE,-10.2837579,-37.0188687,39,179.88100
1,Aquidauana/MS,-20.473969,-55.7821375,5447,11341.06477
D1,Aquidauana/MS,-20.473969,-55.7821375,149,310.22924
1,Aquiraz/CE,-3.9063117,-38.387504,6542,8083.02959
D1,Aquiraz/CE,-3.9063117,-38.387504,89,109.96479
1,Arabutã/SC,-27.1587028,-52.1438142,419,9819.54535
D1,Arabutã/SC,-27.1587028,-52.1438142,8,187.48535
1,Aracaju/SE,-10.9162061,-37.0774655,123936,18639.57119
D1,Aracaju/SE,-10.9162061,-37.0774655,2380,357.94426
1,Aracati/CE,-4.558259,-37.767894,7930,10576.85895
D1,Aracati/CE,-4.558259,-37.767894,165,220.07336
1,Aracatu/BA,-14.4274236,-41.4604105,839,6431.58298
D1,Aracatu/BA,-14.4274236,-41.4604105,17,130.31813
1,Araci/BA,-11.3356065,-38.9573261,3594,6576.63592
D1,Araci/BA,-11.3356065,-38.9573261,48,87.83487
1,Aracitaba/MG,-21.3425,-43.378611,89,4322.48664
D1,Aracitaba/MG,-21.3425,-43.378611,9,437.10539
1,Aracoiaba/CE,-4.3702577,-38.8084313,4220,15903.52365
D1,Aracoiaba/CE,-4.3702577,-38.8084313,33,124.36405
1,Aracruz/ES,-19.8245218,-40.2735025,16479,15983.35613
D1,Aracruz/ES,-19.8245218,-40.2735025,227,220.17245
1,Aragarças/GO,-15.8957166,-52.2514538,2809,13855.86741
D1,Aragarças/GO,-15.8957166,-52.2514538,63,310.75815
1,Aragoiânia/GO,-16.9146388,-49.4499148,1050,10003.81098
D1,Aragoiânia/GO,-16.9146388,-49.4499148,23,219.13110
1,Aragominas/TO,-7.1654101,-48.525488,546,9527.13314
D1,Aragominas/TO,-7.1654101,-48.525488,9,157.04066
1,Araguacema/TO,-8.8067391,-49.5560969,694,9699.51083
D1,Araguacema/TO,-8.8067391,-49.5560969,13,181.69113
1,Araguaiana/MT,-15.729144,-51.834112,391,12576.39112
D1,Araguaiana/MT,-15.729144,-51.834112,6,192.98810
1,Araguainha/MT,-16.857016,-53.031778,29,3065.53911
D1,Araguainha/MT,-16.857016,-53.031778,1,105.70825
1,Araguanã/MA,-2.9508403,-45.6651986,808,5195.80734
D1,Araguanã/MA,-2.9508403,-45.6651986,5,32.15227
1,Araguanã/TO,-6.5799107,-48.6428482,565,9753.15035
D1,Araguanã/TO,-6.5799107,-48.6428482,15,258.93320
1,Araguapaz/GO,-15.0937927,-50.626417,660,8480.02056
D1,Araguapaz/GO,-15.0937927,-50.626417,24,308.36438
1,Araguari/MG,-18.6511256,-48.1933764,16402,13920.64502
D1,Araguari/MG,-18.6511256,-48.1933764,410,347.97369
1,Araguatins/TO,-5.6522925,-48.1158973,2428,6712.74537
D1,Araguatins/TO,-5.6522925,-48.1158973,64,176.94222
1,Araguaçu/TO,-12.928934,-49.823134,857,10121.64875
D1,Araguaçu/TO,-12.928934,-49.823134,21,248.02173
1,Araguaína/TO,-7.193241,-48.2018597,35043,19109.39519
D1,Araguaína/TO,-7.193241,-48.2018597,489,266.65794
1,Araioses/MA,-2.890914,-41.904993,671,1434.64968
D1,Araioses/MA,-2.890914,-41.904993,15,32.07116
1,Aral Moreira/MS,-22.951141,-55.6268421,539,4370.74278
D1,Aral Moreira/MS,-22.951141,-55.6268421,13,105.41680
1,Aramari/BA,-12.0907897,-38.4985065,634,5531.80351
D1,Aramari/BA,-12.0907897,-38.4985065,12,104.70291
1,Arambaré/RS,-30.9132252,-51.4994625,189,5306.00786
D1,Arambaré/RS,-30.9132252,-51.4994625,8,224.59293
1,Arame/MA,-4.8858769,-46.0102484,1562,4767.42766
D1,Arame/MA,-4.8858769,-46.0102484,41,125.13735
1,Aramina/SP,-20.0876144,-47.789201,330,5835.54377
D1,Aramina/SP,-20.0876144,-47.789201,17,300.61892
1,Arandu/SP,-23.1345103,-49.0545651,586,9206.59859
D1,Arandu/SP,-23.1345103,-49.0545651,13,204.24195
1,Arantina/MG,-21.911667,-44.255833,209,7499.10298
D1,Arantina/MG,-21.911667,-44.255833,4,143.52350
1,Arapeí/SP,-22.6738889,-44.4477778,235,9552.84553
D1,Arapeí/SP,-22.6738889,-44.4477778,3,121.95122
1,Arapiraca/AL,-9.754866,-36.661471,30182,12951.03563
D1,Arapiraca/AL,-9.754866,-36.661471,486,208.54162
1,Arapoema/TO,-7.6575001,-49.0641484,494,7466.74728
D1,Arapoema/TO,-7.6575001,-49.0641484,11,166.26360
1,Araponga/MG,-20.666667,-42.520556,629,7441.14516
D1,Araponga/MG,-20.666667,-42.520556,9,106.47108
1,Arapongas/PR,-23.415296,-51.42592,14012,11226.66453
D1,Arapongas/PR,-23.415296,-51.42592,532,426.24790
1,Araporã/MG,-18.4318188,-49.188313,1943,28033.47280
D1,Araporã/MG,-18.4318188,-49.188313,28,403.98211
1,Arapoti/PR,-24.1457957,-49.8224605,3118,11017.66784
D1,Arapoti/PR,-24.1457957,-49.8224605,59,208.48057
1,Araputanga/MT,-15.4710868,-58.346796,2015,11887.20429
D1,Araputanga/MT,-15.4710868,-58.346796,54,318.56528
1,Arapuá/MG,-19.034444,-46.155556,279,9841.26984
D1,Arapuá/MG,-19.034444,-46.155556,2,70.54674
1,Arapuã/PR,-24.3079525,-51.7901941,220,7311.39914
D1,Arapuã/PR,-24.3079525,-51.7901941,6,199.40179
1,Araquari/SC,-26.3703324,-48.7210994,3667,9277.90709
D1,Araquari/SC,-26.3703324,-48.7210994,79,199.87855
1,Arara/PB,-6.8271895,-35.7605703,1022,7546.89115
D1,Arara/PB,-6.8271895,-35.7605703,29,214.14857
1,Araranguá/SC,-28.9348832,-49.4858389,10726,15574.94881
D1,Araranguá/SC,-28.9348832,-49.4858389,241,349.94990
1,Araraquara/SP,-21.7886713,-48.1773096,22987,9644.66579
D1,Araraquara/SP,-21.7886713,-48.1773096,464,194.68069
1,Araras/SP,-22.3569477,-47.3838889,16597,12248.16613
D1,Araras/SP,-22.3569477,-47.3838889,372,274.52659
1,Ararendá/CE,-4.7504395,-40.8303611,1357,12382.51665
D1,Ararendá/CE,-4.7504395,-40.8303611,21,191.62332
1,Arari/MA,-3.4547602,-44.7772723,923,3083.65629
D1,Arari/MA,-3.4547602,-44.7772723,32,106.90899
1,Araricá/RS,-29.6168543,-50.929121,1001,17345.34743
D1,Araricá/RS,-29.6168543,-50.929121,24,415.87247
1,Araripe/CE,-7.212861,-40.1359222,1335,6165.14270
D1,Araripe/CE,-7.212861,-40.1359222,20,92.36169
1,Araripina/PE,-7.5768582,-40.5038509,7105,8372.21908
D1,Araripina/PE,-7.5768582,-40.5038509,153,180.28846
1,Araruama/RJ,-22.8733203,-42.3428897,6352,4729.95614
D1,Araruama/RJ,-22.8733203,-42.3428897,425,316.47219
1,Araruna/PB,-6.5321155,-35.7397595,685,3347.50525
D1,Araruna/PB,-6.5321155,-35.7397595,16,78.18990
1,Araruna/PR,-23.9320308,-52.4976047,2090,14928.57143
D1,Araruna/PR,-23.9320308,-52.4976047,36,257.14286
1,Arataca/BA,-15.2617424,-39.4122943,793,7234.74136
D1,Arataca/BA,-15.2617424,-39.4122943,15,136.84883
1,Aratiba/RS,-27.3955734,-52.3024325,442,7141.70302
D1,Aratiba/RS,-27.3955734,-52.3024325,7,113.10389
1,Aratuba/CE,-4.4195958,-39.0463737,1570,13302.83003
D1,Aratuba/CE,-4.4195958,-39.0463737,8,67.78512
1,Aratuípe/BA,-13.077137,-39.0010786,471,5329.86308
D1,Aratuípe/BA,-13.077137,-39.0010786,11,124.47663
1,Araucária/PR,-25.5861107,-49.4051209,26503,18126.17123
D1,Araucária/PR,-25.5861107,-49.4051209,444,303.66449
1,Arauá/SE,-11.2644014,-37.6181058,1258,12647.02926
D1,Arauá/SE,-11.2644014,-37.6181058,20,201.06565
1,Araxá/MG,-19.5928536,-46.940241,13651,12717.88852
D1,Araxá/MG,-19.5928536,-46.940241,223,207.75688
1,Araçagi/PB,-6.8519969,-35.3835602,1598,9443.88630
D1,Araçagi/PB,-6.8519969,-35.3835602,24,141.83559
1,Araçariguama/SP,-23.438611,-47.061389,1919,8394.57568
D1,Araçariguama/SP,-23.438611,-47.061389,62,271.21610
1,Araçatuba/SP,-21.207992,-50.4390225,27302,13779.91107
D1,Araçatuba/SP,-21.207992,-50.4390225,822,414.88121
1,Araçaí/MG,-19.200833,-44.2475,72,3058.62362
D1,Araçaí/MG,-19.200833,-44.2475,1,42.48088
1,Araçoiaba da Serra/SP,-23.5045367,-47.6168158,2877,8272.94686
D1,Araçoiaba da Serra/SP,-23.5045367,-47.6168158,77,221.41707
1,Araçoiaba/PE,-7.7856903,-35.0898881,668,3221.91675
D1,Araçoiaba/PE,-7.7856903,-35.0898881,31,149.52009
1,Araçu/GO,-16.3561579,-49.6815269,447,12822.71945
D1,Araçu/GO,-16.3561579,-49.6815269,17,487.66495
1,Araçuaí/MG,-16.8484451,-42.0661868,1815,4943.88756
D1,Araçuaí/MG,-16.8484451,-42.0661868,49,133.47134
1,Araçás/BA,-12.2139176,-38.2026159,694,5684.79685
D1,Araçás/BA,-12.2139176,-38.2026159,13,106.48755
1,Araújos/MG,-19.948055,-45.165556,808,8594.83034
D1,Araújos/MG,-19.948055,-45.165556,13,138.28316
1,Arceburgo/MG,-21.364444,-46.939722,1227,11274.46476
D1,Arceburgo/MG,-21.364444,-46.939722,33,303.22521
1,Arco-Íris/SP,-21.7741308,-50.4668814,148,8347.43373
D1,Arco-Íris/SP,-21.7741308,-50.4668814,8,451.21263
1,Arcos/MG,-20.282223,-45.539444,5342,13229.32145
D1,Arcos/MG,-20.282223,-45.539444,111,274.88856
1,Arcoverde/PE,-8.415192,-37.057748,6293,8410.62789
D1,Arcoverde/PE,-8.415192,-37.057748,131,175.08220
1,Areado/MG,-21.3582771,-46.1476688,1130,7443.51492
D1,Areado/MG,-21.3582771,-46.1476688,25,164.67953
1,Areal/RJ,-22.2314922,-43.1056264,1420,11208.46160
D1,Areal/RJ,-22.2314922,-43.1056264,50,394.66414
1,Arealva/SP,-22.0301906,-48.9111936,968,11238.82503
D1,Arealva/SP,-22.0301906,-48.9111936,17,197.37606
1,Areia Branca/RN,-4.9506652,-37.1263312,2868,10254.94333
D1,Areia Branca/RN,-4.9506652,-37.1263312,95,339.68606
1,Areia Branca/SE,-10.7591455,-37.3148072,2086,11163.43787
D1,Areia Branca/SE,-10.7591455,-37.3148072,47,251.52521
1,Areia de Baraúnas/PB,-7.1233949,-36.9446216,207,9782.60870
D1,Areia de Baraúnas/PB,-7.1233949,-36.9446216,4,189.03592
1,Areia/PB,-6.9680243,-35.6994783,1823,8046.43362
D1,Areia/PB,-6.9680243,-35.6994783,30,132.41525
1,Areial/PB,-7.0501306,-35.9245244,362,5151.55828
D1,Areial/PB,-7.0501306,-35.9245244,12,170.76989
1,Areias/SP,-22.5800929,-44.6975127,338,8675.56468
D1,Areias/SP,-22.5800929,-44.6975127,2,51.33470
1,Areiópolis/SP,-22.6758064,-48.6673653,1333,11946.58541
D1,Areiópolis/SP,-22.6758064,-48.6673653,20,179.24359
1,Arenápolis/MT,-14.4610369,-56.8432806,1840,19364.34435
D1,Arenápolis/MT,-14.4610369,-56.8432806,35,368.34351
1,Arenópolis/GO,-16.3859286,-51.55937,242,9542.58675
D1,Arenópolis/GO,-16.3859286,-51.55937,8,315.45741
1,Argirita/MG,-21.612761,-42.8371922,265,9800.29586
D1,Argirita/MG,-21.612761,-42.8371922,7,258.87574
1,Aricanduva/MG,-17.8678,-42.5569,131,2486.24027
1,Arinos/MG,-15.917223,-46.106111,768,4299.63050
D1,Arinos/MG,-15.917223,-46.106111,23,128.76498
1,Aripuanã/MT,-10.175806,-59.4439663,2971,13080.03874
D1,Aripuanã/MT,-10.175806,-59.4439663,43,189.31056
1,Ariquemes/RO,-9.9076522,-63.033069,22116,20193.01882
D1,Ariquemes/RO,-9.9076522,-63.033069,476,434.61191
1,Ariranha do Ivaí/PR,-24.3834527,-51.5876772,195,9438.52856
D1,Ariranha do Ivaí/PR,-24.3834527,-51.5876772,4,193.61084
1,Ariranha/SP,-21.18716,-48.790418,929,9517.46747
D1,Ariranha/SP,-21.18716,-48.790418,23,235.63160
1,Armazém/SC,-28.2624996,-49.0190126,1411,16109.14488
D1,Armazém/SC,-28.2624996,-49.0190126,30,342.50485
1,Armação dos Búzios/RJ,-22.7597805,-41.8875267,4642,13464.04850
D1,Armação dos Búzios/RJ,-22.7597805,-41.8875267,58,168.22809
1,Arneiroz/CE,-6.3235099,-40.1603859,662,8439.57165
D1,Arneiroz/CE,-6.3235099,-40.1603859,17,216.72616
1,Aroazes/PI,-6.1108814,-41.7886137,590,10125.27887
D1,Aroazes/PI,-6.1108814,-41.7886137,12,205.93788
1,Aroeiras do Itaim/PI,-7.2797031,-41.5629681,128,5017.64014
D1,Aroeiras do Itaim/PI,-7.2797031,-41.5629681,2,78.40063
1,Aroeiras/PB,-7.5462904,-35.7080002,1824,9541.74513
D1,Aroeiras/PB,-7.5462904,-35.7080002,13,68.00586
1,Arraial do Cabo/RJ,-22.9662839,-42.024427,745,2435.19759
D1,Arraial do Cabo/RJ,-22.9662839,-42.024427,39,127.48014
1,Arraial/PI,-6.6541632,-42.5335332,159,3368.64407
D1,Arraial/PI,-6.6541632,-42.5335332,3,63.55932
1,Arraias/TO,-12.9287788,-46.9437231,1028,9758.87602
D1,Arraias/TO,-12.9287788,-46.9437231,11,104.42377
1,Arroio Grande/RS,-32.2384246,-53.0866661,1988,10900.31802
D1,Arroio Grande/RS,-32.2384246,-53.0866661,54,296.08510
1,Arroio Trinta/SC,-26.9301976,-51.334928,606,17075.23246
D1,Arroio Trinta/SC,-26.9301976,-51.334928,13,366.30037
1,Arroio do Meio/RS,-29.4020392,-51.9444993,3101,14789.90795
D1,Arroio do Meio/RS,-29.4020392,-51.9444993,45,214.62298
1,Arroio do Padre/RS,-31.4428773,-52.4228985,234,7929.51542
D1,Arroio do Padre/RS,-31.4428773,-52.4228985,3,101.66045
1,Arroio do Sal/RS,-29.549852,-49.8874395,1142,11110.03016
D1,Arroio do Sal/RS,-29.549852,-49.8874395,38,369.68577
1,Arroio do Tigre/RS,-29.334158,-53.0888935,1235,9207.48528
D1,Arroio do Tigre/RS,-29.334158,-53.0888935,21,156.56453
1,Arroio dos Ratos/RS,-30.0894524,-51.7265541,1042,7349.93299
D1,Arroio dos Ratos/RS,-30.0894524,-51.7265541,35,246.87875
1,Artur Nogueira/SP,-22.572737,-47.172679,5044,9114.56451
D1,Artur Nogueira/SP,-22.572737,-47.172679,128,231.29743
1,Aruanã/GO,-14.9162439,-51.0715692,560,5539.07023
D1,Aruanã/GO,-14.9162439,-51.0715692,15,148.36795
1,Arujá/SP,-23.396266,-46.3175449,7651,8393.21171
D1,Arujá/SP,-23.396266,-46.3175449,313,343.36365
1,Arvoredo/SC,-27.0752908,-52.4571847,309,13831.69203
D1,Arvoredo/SC,-27.0752908,-52.4571847,4,179.05103
1,Arvorezinha/RS,-28.87369,-52.17808,852,8174.23007
D1,Arvorezinha/RS,-28.87369,-52.17808,27,259.04250
1,Arês/RN,-6.1969216,-35.1642968,1127,7817.16030
D1,Arês/RN,-6.1969216,-35.1642968,25,173.40640
1,Ascurra/SC,-26.9569975,-49.3767752,1189,14903.48458
D1,Ascurra/SC,-26.9569975,-49.3767752,11,137.87917
1,Aspásia/SP,-20.160028,-50.728046,193,10616.06161
D1,Aspásia/SP,-20.160028,-50.728046,7,385.03850
1,Assaré/CE,-6.8746791,-39.8741385,2249,9579.18051
D1,Assaré/CE,-6.8746791,-39.8741385,42,178.89088
1,Assaí/PR,-23.3736041,-50.8454929,1375,9194.86425
D1,Assaí/PR,-23.3736041,-50.8454929,44,294.23566
1,Assis Brasil/AC,-10.9409203,-69.5672108,1779,23612.95461
D1,Assis Brasil/AC,-10.9409203,-69.5672108,24,318.55588
1,Assis Chateaubriand/PR,-24.4054826,-53.5120468,4617,13848.23035
D1,Assis Chateaubriand/PR,-24.4054826,-53.5120468,109,326.93461
1,Assis/SP,-22.6620892,-50.420623,11026,10492.25880
D1,Assis/SP,-22.6620892,-50.420623,386,367.31470
1,Assunção do Piauí/PI,-5.8610212,-41.0485091,341,4336.76714
D1,Assunção do Piauí/PI,-5.8610212,-41.0485091,8,101.74234
1,Assunção/PB,-7.073396,-36.7274003,405,10052.12211
D1,Assunção/PB,-7.073396,-36.7274003,5,124.10027
1,Astolfo Dutra/MG,-21.3132636,-42.8624102,1325,9285.21374
D1,Astolfo Dutra/MG,-21.3132636,-42.8624102,24,168.18500
1,Astorga/PR,-23.2350184,-51.6647074,3313,12640.69594
D1,Astorga/PR,-23.2350184,-51.6647074,81,309.05414
1,Atalaia do Norte/AM,-4.3658547,-70.1908742,2808,13766.05550
D1,Atalaia do Norte/AM,-4.3658547,-70.1908742,10,49.02441
1,Atalaia/AL,-9.5029595,-36.0219316,1195,2522.95999
D1,Atalaia/AL,-9.5029595,-36.0219316,49,103.45192
1,Atalaia/PR,-23.1513833,-52.0529697,452,11646.48287
D1,Atalaia/PR,-23.1513833,-52.0529697,21,541.09766
1,Atalanta/SC,-27.421916,-49.778863,472,14773.08294
D1,Atalanta/SC,-27.421916,-49.778863,11,344.28795
1,Ataléia/MG,-18.04432,-41.1110524,1153,9094.49440
D1,Ataléia/MG,-18.04432,-41.1110524,8,63.10144
1,Atibaia/SP,-23.1177393,-46.5547861,11410,7918.77186
D1,Atibaia/SP,-23.1177393,-46.5547861,256,177.66920
1,Atilio Vivacqua/ES,-20.9139369,-41.1947519,1517,12532.01157
D1,Atilio Vivacqua/ES,-20.9139369,-41.1947519,28,231.30938
1,Augustinópolis/TO,-5.4662267,-47.8897519,1576,8453.57507
D1,Augustinópolis/TO,-5.4662267,-47.8897519,27,144.82648
1,Augusto Corrêa/PA,-1.0229335,-46.6404029,2003,4310.21497
D1,Augusto Corrêa/PA,-1.0229335,-46.6404029,46,98.98646
1,Augusto Pestana/RS,-28.5148413,-53.9906433,746,11299.60618
D1,Augusto Pestana/RS,-28.5148413,-53.9906433,13,196.91003
1,Augusto de Lima/MG,-18.1092963,-44.2651945,276,5689.54855
D1,Augusto de Lima/MG,-18.1092963,-44.2651945,10,206.14306
1,Aurelino Leal/BA,-14.3167137,-39.3256107,1011,8947.69449
D1,Aurelino Leal/BA,-14.3167137,-39.3256107,31,274.36056
1,Auriflama/SP,-20.6840418,-50.5554616,1981,12987.60899
D1,Auriflama/SP,-20.6840418,-50.5554616,69,452.37003
1,Aurilândia/GO,-16.6772599,-50.4641231,212,6932.63571
D1,Aurilândia/GO,-16.6772599,-50.4641231,7,228.90778
1,Aurora do Pará/PA,-2.1323199,-47.558436,1692,5325.27618
D1,Aurora do Pará/PA,-2.1323199,-47.558436,15,47.20990
1,Aurora do Tocantins/TO,-12.71045,-46.407604,244,6449.90748
D1,Aurora do Tocantins/TO,-12.71045,-46.407604,5,132.17024
1,Aurora/CE,-6.9426019,-38.9693765,1749,7106.86713
D1,Aurora/CE,-6.9426019,-38.9693765,38,154.40878
1,Aurora/SC,-27.3166417,-49.6368502,848,14921.69629
D1,Aurora/SC,-27.3166417,-49.6368502,16,281.54144
1,Autazes/AM,-3.5833283,-59.1301518,2880,7148.17573
D1,Autazes/AM,-3.5833283,-59.1301518,95,235.79052
1,Avanhandava/SP,-21.4603331,-49.9465156,1062,7662.89054
D1,Avanhandava/SP,-21.4603331,-49.9465156,41,295.83664
1,Avaré/SP,-23.1045215,-48.9259103,10776,11811.64504
D1,Avaré/SP,-23.1045215,-48.9259103,247,270.73834
1,Avaí/SP,-22.1564662,-49.3316395,465,8554.08389
D1,Avaí/SP,-22.1564662,-49.3316395,12,220.75055
1,Aveiro/PA,-3.6049239,-55.3310742,834,5084.12582
D1,Aveiro/PA,-3.6049239,-55.3310742,13,79.24896
1,Avelino Lopes/PI,-10.1346855,-43.9489525,435,3840.72047
D1,Avelino Lopes/PI,-10.1346855,-43.9489525,19,167.75561
1,Avelinópolis/GO,-16.4672409,-49.7578661,314,13034.45413
D1,Avelinópolis/GO,-16.4672409,-49.7578661,14,581.15401
1,Axixá do Tocantins/TO,-5.612747,-47.77007,1033,10554.81762
D1,Axixá do Tocantins/TO,-5.612747,-47.77007,19,194.13508
1,Axixá/MA,-2.8379465,-44.0561053,192,1575.96651
D1,Axixá/MA,-2.8379465,-44.0561053,8,65.66527
1,Açailândia/MA,-4.9514278,-47.4844564,5496,4858.51433
D1,Açailândia/MA,-4.9514278,-47.4844564,220,194.48201
1,Açu/RN,-5.5836157,-36.9139541,7964,13640.72349
D1,Açu/RN,-5.5836157,-36.9139541,147,251.78131
1,Açucena/MG,-19.073056,-42.546666,795,8486.33646
D1,Açucena/MG,-19.073056,-42.546666,33,352.26302
1,Babaçulândia/TO,-7.2034355,-47.761613,844,7912.99456
D1,Babaçulândia/TO,-7.2034355,-47.761613,7,65.62910
1,Bacabal/MA,-4.2318132,-44.781167,5362,5116.90047
D1,Bacabal/MA,-4.2318132,-44.781167,190,181.31501
1,Bacabeira/MA,-2.9775747,-44.3155943,389,2254.81104
D1,Bacabeira/MA,-2.9775747,-44.3155943,9,52.16786
1,Bacuri/MA,-1.728894,-45.1417148,599,3211.10754
D1,Bacuri/MA,-1.728894,-45.1417148,4,21.44312
1,Bacurituba/MA,-2.7082587,-44.7381309,117,2063.49206
D1,Bacurituba/MA,-2.7082587,-44.7381309,2,35.27337
1,Bady Bassitt/SP,-20.9178969,-49.4517911,3844,21642.92551
D1,Bady Bassitt/SP,-20.9178969,-49.4517911,76,427.90383
1,Baependi/MG,-21.959162,-44.8899249,1512,7875.41018
D1,Baependi/MG,-21.959162,-44.8899249,16,83.33767
1,Bagre/PA,-1.8994498,-50.2103844,917,2927.37430
D1,Bagre/PA,-1.8994498,-50.2103844,12,38.30806
1,Bagé/RS,-31.3314264,-54.1062808,10988,9055.91956
D1,Bagé/RS,-31.3314264,-54.1062808,285,234.88688
1,Baianópolis/BA,-12.3067564,-44.5383591,867,6224.42386
D1,Baianópolis/BA,-12.3067564,-44.5383591,14,100.50973
1,Baixa Grande do Ribeiro/PI,-7.862861,-45.2113289,2619,22440.23648
D1,Baixa Grande do Ribeiro/PI,-7.862861,-45.2113289,31,265.61563
1,Baixa Grande/BA,-11.9630941,-40.1657537,842,4117.56076
D1,Baixa Grande/BA,-11.9630941,-40.1657537,13,63.57279
1,Baixio/CE,-6.7303544,-38.7170095,660,10471.20419
D1,Baixio/CE,-6.7303544,-38.7170095,12,190.38553
1,Baixo Guandu/ES,-19.5138322,-41.0182089,3658,11749.96788
D1,Baixo Guandu/ES,-19.5138322,-41.0182089,72,231.27329
1,Baião/PA,-2.7903479,-49.6702845,757,1562.14532
D1,Baião/PA,-2.7903479,-49.6702845,34,70.16241
1,Balbinos/SP,-21.9006253,-49.3583966,356,5999.32592
D1,Balbinos/SP,-21.9006253,-49.3583966,4,67.40816
1,Baldim/MG,-19.2913568,-43.9558262,653,8368.57619
D1,Baldim/MG,-19.2913568,-43.9558262,19,243.49609
1,Baliza/GO,-16.1978119,-52.542789,367,6950.75758
D1,Baliza/GO,-16.1978119,-52.542789,9,170.45455
1,Balneário Arroio do Silva/SC,-28.9815269,-49.4189932,2092,15577.06627
D1,Balneário Arroio do Silva/SC,-28.9815269,-49.4189932,57,424.42293
1,Balneário Barra do Sul/SC,-26.459842,-48.6061471,1435,13004.07793
D1,Balneário Barra do Sul/SC,-26.459842,-48.6061471,43,389.66923
1,Balneário Camboriú/SC,-26.9924395,-48.6339782,24882,17066.31183
D1,Balneário Camboriú/SC,-26.9924395,-48.6339782,378,259.26637
1,Balneário Gaivota/SC,-29.1553098,-49.5808712,1316,11687.38899
D1,Balneário Gaivota/SC,-29.1553098,-49.5808712,34,301.95382
1,Balneário Pinhal/RS,-30.2482978,-50.234585,726,5054.65432
D1,Balneário Pinhal/RS,-30.2482978,-50.234585,46,320.26735
1,Balneário Piçarras/SC,-26.7638889,-48.6716667,5004,21049.97476
D1,Balneário Piçarras/SC,-26.7638889,-48.6716667,56,235.57126
1,Balneário Rincão/SC,-28.8235718,-49.2241642,1446,11169.47320
D1,Balneário Rincão/SC,-28.8235718,-49.2241642,47,363.04650
1,Balsa Nova/PR,-25.5842234,-49.6312741,1665,12717.69019
D1,Balsa Nova/PR,-25.5842234,-49.6312741,30,229.14757
1,Balsas/MA,-7.53214,-46.037163,10581,11030.03263
D1,Balsas/MA,-7.53214,-46.037163,195,203.27534
1,Bambuí/MG,-20.0131996,-45.9777034,1760,7364.63302
D1,Bambuí/MG,-20.0131996,-45.9777034,26,108.79572
1,Banabuiú/CE,-5.3046404,-38.919766,2313,12669.80719
D1,Banabuiú/CE,-5.3046404,-38.919766,20,109.55302
1,Bananal/SP,-22.6828195,-44.3221095,968,8805.60357
D1,Bananal/SP,-22.6828195,-44.3221095,3,27.29009
1,Bananeiras/PB,-6.7537682,-35.6338343,1490,7005.50096
D1,Bananeiras/PB,-6.7537682,-35.6338343,26,122.24364
1,Bandeira do Sul/MG,-21.728056,-46.385555,617,10678.43544
D1,Bandeira do Sul/MG,-21.728056,-46.385555,14,242.29837
1,Bandeira/MG,-15.884444,-40.559167,458,9609.73563
D1,Bandeira/MG,-15.884444,-40.559167,9,188.83760
1,Bandeirante/SC,-26.7677402,-53.6397596,407,15370.09063
D1,Bandeirante/SC,-26.7677402,-53.6397596,4,151.05740
1,Bandeirantes do Tocantins/TO,-7.7635698,-48.579148,481,13390.86860
D1,Bandeirantes do Tocantins/TO,-7.7635698,-48.579148,8,222.71715
1,Bandeirantes/MS,-19.9179623,-54.3646768,601,8271.40105
D1,Bandeirantes/MS,-19.9179623,-54.3646768,11,151.39004
1,Bandeirantes/PR,-23.107788,-50.370407,5198,16654.38467
D1,Bandeirantes/PR,-23.107788,-50.370407,135,432.53981
1,Bannach/PA,-7.3508505,-50.4064531,649,19895.76947
D1,Bannach/PA,-7.3508505,-50.4064531,3,91.96812
1,Banzaê/BA,-10.5827616,-38.6122305,1173,8859.51662
D1,Banzaê/BA,-10.5827616,-38.6122305,8,60.42296
1,Baraúna/PB,-6.643394,-36.2531932,688,13859.79049
D1,Baraúna/PB,-6.643394,-36.2531932,9,181.30540
1,Baraúna/RN,-5.0775002,-37.61752,1612,5607.54166
D1,Baraúna/RN,-5.0775002,-37.61752,27,93.92284
1,Barbacena/MG,-21.2254524,-43.7735087,8472,6130.06859
D1,Barbacena/MG,-21.2254524,-43.7735087,272,196.81051
1,Barbalha/CE,-7.3121067,-39.3036427,6776,11066.83217
D1,Barbalha/CE,-7.3121067,-39.3036427,150,244.98595
1,Barbosa Ferraz/PR,-24.0287182,-52.00811,1229,10756.17014
D1,Barbosa Ferraz/PR,-24.0287182,-52.00811,32,280.06301
1,Barbosa/SP,-21.265661,-49.951816,701,9386.71666
D1,Barbosa/SP,-21.265661,-49.951816,14,187.46652
1,Barcarena/PA,-1.5107945,-48.6190679,11522,9070.51257
D1,Barcarena/PA,-1.5107945,-48.6190679,223,175.55323
1,Barcelona/RN,-5.9514918,-35.9260284,145,3630.44567
D1,Barcelona/RN,-5.9514918,-35.9260284,5,125.18778
1,Barcelos/AM,-0.9729214,-62.925635,4402,15927.34641
D1,Barcelos/AM,-0.9729214,-62.925635,60,217.09241
1,Bariri/SP,-22.0746355,-48.7394852,3045,8563.47376
D1,Bariri/SP,-22.0746355,-48.7394852,123,345.91372
1,Barra Bonita/SC,-26.6526364,-53.4419581,188,11387.03816
D1,Barra Bonita/SC,-26.6526364,-53.4419581,2,121.13870
1,Barra Bonita/SP,-22.490859,-48.558349,3447,9541.60438
D1,Barra Bonita/SP,-22.490859,-48.558349,99,274.04086
1,Barra D'Alcântara/PI,-6.5209258,-42.1071089,151,3820.85020
D1,Barra D'Alcântara/PI,-6.5209258,-42.1071089,4,101.21457
1,Barra Funda/RS,-27.9230048,-53.0401045,588,23049.78440
D1,Barra Funda/RS,-27.9230048,-53.0401045,14,548.80439
1,Barra Longa/MG,-20.2833541,-43.0423516,406,8095.71286
D1,Barra Longa/MG,-20.2833541,-43.0423516,9,179.46162
1,Barra Mansa/RJ,-22.5394843,-44.1735129,15719,8504.43373
D1,Barra Mansa/RJ,-22.5394843,-44.1735129,599,324.07633
1,Barra Velha/SC,-26.6338203,-48.6835001,4398,14728.73409
D1,Barra Velha/SC,-26.6338203,-48.6835001,111,371.73476
1,Barra da Estiva/BA,-13.6269662,-41.3278287,2613,12813.84857
D1,Barra da Estiva/BA,-13.6269662,-41.3278287,28,137.30875
1,Barra de Guabiraba/PE,-8.4173522,-35.6626669,438,3018.60786
D1,Barra de Guabiraba/PE,-8.4173522,-35.6626669,15,103.37698
1,Barra de Santa Rosa/PB,-6.7218007,-36.0564638,1704,10995.67658
D1,Barra de Santa Rosa/PB,-6.7218007,-36.0564638,12,77.43434
1,Barra de Santana/PB,-7.5230865,-35.9988518,604,7234.39933
D1,Barra de Santana/PB,-7.5230865,-35.9988518,7,83.84238
1,Barra de Santo Antônio/AL,-9.4038098,-35.5117693,456,2837.93876
D1,Barra de Santo Antônio/AL,-9.4038098,-35.5117693,32,199.15360
1,Barra de São Francisco/ES,-18.7570902,-40.8916119,4874,10836.16799
D1,Barra de São Francisco/ES,-18.7570902,-40.8916119,194,431.31239
1,Barra de São Miguel/AL,-9.8261357,-35.8837777,617,7364.52614
D1,Barra de São Miguel/AL,-9.8261357,-35.8837777,8,95.48818
1,Barra de São Miguel/PB,-7.7528088,-36.3170996,609,10041.22012
D1,Barra de São Miguel/PB,-7.7528088,-36.3170996,7,115.41632
1,Barra do Bugres/MT,-15.0683712,-57.1853688,3303,9355.08539
D1,Barra do Bugres/MT,-15.0683712,-57.1853688,79,223.75166
1,Barra do Chapéu/SP,-24.472203,-49.023784,384,6666.66667
D1,Barra do Chapéu/SP,-24.472203,-49.023784,3,52.08333
1,Barra do Choça/BA,-14.8638173,-40.5761637,2194,7030.02339
D1,Barra do Choça/BA,-14.8638173,-40.5761637,31,99.33032
1,Barra do Corda/MA,-5.496823,-45.248496,5826,6583.64598
D1,Barra do Corda/MA,-5.496823,-45.248496,59,66.67269
1,Barra do Garças/MT,-15.8916033,-52.2615413,9300,15212.23522
D1,Barra do Garças/MT,-15.8916033,-52.2615413,318,520.16030
1,Barra do Guarita/RS,-27.1888016,-53.7147086,113,3469.45041
D1,Barra do Guarita/RS,-27.1888016,-53.7147086,7,214.92171
1,Barra do Jacaré/PR,-23.1151788,-50.1813945,256,9205.32183
D1,Barra do Jacaré/PR,-23.1151788,-50.1813945,7,251.70802
1,Barra do Mendes/BA,-11.8053298,-42.057037,777,5617.00282
D1,Barra do Mendes/BA,-11.8053298,-42.057037,13,93.97817
1,Barra do Ouro/TO,-7.7113784,-47.6743925,163,3518.99827
D1,Barra do Ouro/TO,-7.7113784,-47.6743925,6,129.53368
1,Barra do Piraí/RJ,-22.4703403,-43.8263256,6383,6334.60363
D1,Barra do Piraí/RJ,-22.4703403,-43.8263256,367,364.21738
1,Barra do Quaraí/RS,-30.208947,-57.5505128,438,10361.95884
D1,Barra do Quaraí/RS,-30.208947,-57.5505128,6,141.94464
1,Barra do Ribeiro/RS,-30.2930206,-51.301437,1086,8011.21275
D1,Barra do Ribeiro/RS,-30.2930206,-51.301437,49,361.46356
1,Barra do Rio Azul/RS,-27.4101581,-52.4117471,117,7069.48640
D1,Barra do Rio Azul/RS,-27.4101581,-52.4117471,1,60.42296
1,Barra do Rocha/BA,-14.2090974,-39.6004395,396,7056.30791
D1,Barra do Rocha/BA,-14.2090974,-39.6004395,7,124.73272
1,Barra do Turvo/SP,-24.756421,-48.5056942,599,7848.53249
D1,Barra do Turvo/SP,-24.756421,-48.5056942,18,235.84906
1,Barra dos Coqueiros/SE,-10.9075694,-37.0386249,6979,22563.85386
D1,Barra dos Coqueiros/SE,-10.9075694,-37.0386249,96,310.37827
1,Barra/BA,-11.0892702,-43.1420453,2156,3999.25802
D1,Barra/BA,-11.0892702,-43.1420453,57,105.73178
1,Barracão/PR,-26.252395,-53.6349576,1342,13013.96431
D1,Barracão/PR,-26.252395,-53.6349576,35,339.41040
1,Barracão/RS,-27.6728964,-51.4582928,495,9417.80822
D1,Barracão/RS,-27.6728964,-51.4582928,16,304.41400
1,Barras/PI,-4.2446153,-42.2920241,5046,10694.07651
D1,Barras/PI,-4.2446153,-42.2920241,94,199.21585
1,Barreira/CE,-4.2883361,-38.641094,1543,6835.60005
D1,Barreira/CE,-4.2883361,-38.641094,46,203.78328
1,Barreiras do Piauí/PI,-9.9224524,-45.4763776,89,2655.13126
D1,Barreiras do Piauí/PI,-9.9224524,-45.4763776,2,59.66587
1,Barreiras/BA,-12.1440031,-44.9967406,19063,12143.97197
D1,Barreiras/BA,-12.1440031,-44.9967406,313,199.39481
1,Barreirinha/AM,-2.798863,-57.067897,2436,7499.30733
D1,Barreirinha/AM,-2.798863,-57.067897,63,193.94760
1,Barreirinhas/MA,-2.7541271,-42.8259693,2311,3655.66224
D1,Barreirinhas/MA,-2.7541271,-42.8259693,42,66.43783
1,Barreiros/PE,-8.8159644,-35.1831905,788,1842.67141
D1,Barreiros/PE,-8.8159644,-35.1831905,61,142.64334
1,Barretos/SP,-20.5531437,-48.5697509,16162,13157.70192
D1,Barretos/SP,-20.5531437,-48.5697509,510,415.19787
1,Barrinha/SP,-21.1898849,-48.1550642,1646,4960.81977
D1,Barrinha/SP,-21.1898849,-48.1550642,69,207.95660
1,Barro Alto/BA,-11.7618025,-41.9094904,916,6084.76153
D1,Barro Alto/BA,-11.7618025,-41.9094904,13,86.35579
1,Barro Alto/GO,-14.9696025,-48.9190985,1352,11851.33240
D1,Barro Alto/GO,-14.9696025,-48.9190985,18,157.78401
1,Barro Duro/PI,-5.8180139,-42.5106589,698,9933.11513
D1,Barro Duro/PI,-5.8180139,-42.5106589,11,156.53906
1,Barro Preto/BA,-14.8068289,-39.4727588,606,11123.34802
D1,Barro Preto/BA,-14.8068289,-39.4727588,10,183.55360
1,Barro/CE,-7.1713587,-38.7742136,1735,7623.69277
D1,Barro/CE,-7.1713587,-38.7742136,45,197.73267
1,Barrocas/BA,-11.5165,-39.099282894736845,789,4899.09966
D1,Barrocas/BA,-11.5165,-39.099282894736845,23,142.81279
1,Barrolândia/TO,-9.837246,-48.7264346,754,13342.77119
D1,Barrolândia/TO,-9.837246,-48.7264346,20,353.91966
1,Barroquinha/CE,-3.0200371,-41.1339229,1271,8448.55092
D1,Barroquinha/CE,-3.0200371,-41.1339229,25,166.17921
1,Barros Cassal/RS,-29.094938,-52.5832366,758,6778.75157
D1,Barros Cassal/RS,-29.094938,-52.5832366,12,107.31533
1,Barroso/MG,-21.187222,-43.976111,2019,9661.67392
D1,Barroso/MG,-21.187222,-43.976111,53,253.62492
1,Barueri/SP,-23.5112184,-46.8764612,30724,11092.41756
D1,Barueri/SP,-23.5112184,-46.8764612,1064,384.14049
1,Barão de Antonina/SP,-23.6295651,-49.5632104,465,13293.31046
D1,Barão de Antonina/SP,-23.6295651,-49.5632104,8,228.70212
1,Barão de Cocais/MG,-19.9452437,-43.4870298,3913,11905.92101
D1,Barão de Cocais/MG,-19.9452437,-43.4870298,65,197.77277
1,Barão de Cotegipe/RS,-27.6214694,-52.3765316,766,11570.99698
D1,Barão de Cotegipe/RS,-27.6214694,-52.3765316,10,151.05740
1,Barão de Grajaú/MA,-6.7542591,-43.0263477,477,2520.60875
D1,Barão de Grajaú/MA,-6.7542591,-43.0263477,2,10.56859
1,Barão de Melgaço/MT,-16.195776,-55.9668049,381,4666.82999
D1,Barão de Melgaço/MT,-16.195776,-55.9668049,15,183.73346
1,Barão de Monte Alto/MG,-21.244722,-42.2375,333,6219.64886
D1,Barão de Monte Alto/MG,-21.244722,-42.2375,12,224.13149
1,Barão do Triunfo/RS,-30.3909877,-51.7375349,466,6197.63266
D1,Barão do Triunfo/RS,-30.3909877,-51.7375349,6,79.79785
1,Barão/RS,-29.372474,-51.494908,671,10819.09062
D1,Barão/RS,-29.372474,-51.494908,10,161.23831
1,Bastos/SP,-21.9222474,-50.7317727,1768,8437.93252
D1,Bastos/SP,-21.9222474,-50.7317727,37,176.58569
1,Bataguassu/MS,-21.715899,-52.422058,3416,14645.23044
D1,Bataguassu/MS,-21.715899,-52.422058,45,192.92605
1,Batalha/AL,-9.6733809,-37.1265481,1119,6102.08311
D1,Batalha/AL,-9.6733809,-37.1265481,19,103.60999
1,Batalha/PI,-4.022391,-42.0780926,1185,4404.38580
D1,Batalha/PI,-4.022391,-42.0780926,33,122.65378
1,Batatais/SP,-20.892867,-47.592149,4327,6870.43506
D1,Batatais/SP,-20.892867,-47.592149,161,255.63671
1,Batayporã/MS,-22.2976466,-53.2685608,1069,9419.33210
D1,Batayporã/MS,-22.2976466,-53.2685608,24,211.47238
1,Baturité/CE,-4.3290203,-38.8821055,4168,11596.78362
D1,Baturité/CE,-4.3290203,-38.8821055,83,230.93403
1,Bauru/SP,-22.3218102,-49.0705863,48871,12884.62603
D1,Bauru/SP,-22.3218102,-49.0705863,1138,300.02874
1,Bayeux/PB,-7.1301631,-34.936532,7766,7989.46535
D1,Bayeux/PB,-7.1301631,-34.936532,244,251.02106
1,Baía Formosa/RN,-6.3691885,-35.0063741,505,5417.29243
D1,Baía Formosa/RN,-6.3691885,-35.0063741,8,85.81849
1,Baía da Traição/PB,-6.691258,-34.9371244,1296,14248.02111
D1,Baía da Traição/PB,-6.691258,-34.9371244,12,131.92612
1,Bebedouro/SP,-20.949077,-48.479083,4003,5161.49829
D1,Bebedouro/SP,-20.949077,-48.479083,159,205.01580
1,Beberibe/CE,-4.1810469,-38.1298101,5325,9870.43319
D1,Beberibe/CE,-4.1810469,-38.1298101,111,205.74987
1,Bela Cruz/CE,-3.0529129,-40.167582,3493,10674.77538
D1,Bela Cruz/CE,-3.0529129,-40.167582,70,213.92335
1,Bela Vista da Caroba/PR,-25.8792818,-53.6672545,196,5669.65577
D1,Bela Vista da Caroba/PR,-25.8792818,-53.6672545,6,173.56089
1,Bela Vista de Goiás/GO,-16.9692949,-48.9513071,2738,8979.40443
D1,Bela Vista de Goiás/GO,-16.9692949,-48.9513071,70,229.56841
1,Bela Vista de Minas/MG,-19.8289721,-43.0973688,843,8214.77295
D1,Bela Vista de Minas/MG,-19.8289721,-43.0973688,22,214.38316
1,Bela Vista do Maranhão/MA,-3.7416367,-45.2514192,221,1959.39356
D1,Bela Vista do Maranhão/MA,-3.7416367,-45.2514192,19,168.45465
1,Bela Vista do Paraíso/PR,-22.9948493,-51.1907996,1980,12857.97779
D1,Bela Vista do Paraíso/PR,-22.9948493,-51.1907996,66,428.59926
1,Bela Vista do Piauí/PI,-7.9716353,-41.8715061,263,6526.05459
D1,Bela Vista do Piauí/PI,-7.9716353,-41.8715061,6,148.88337
1,Bela Vista do Toldo/SC,-26.274625,-50.466354,81,1273.18453
D1,Bela Vista do Toldo/SC,-26.274625,-50.466354,3,47.15498
1,Bela Vista/MS,-22.107327,-56.5317344,1042,4212.65413
D1,Bela Vista/MS,-22.107327,-56.5317344,31,125.32848
1,Belford Roxo/RJ,-22.7667284,-43.4033603,20991,4090.87189
D1,Belford Roxo/RJ,-22.7667284,-43.4033603,751,146.36010
1,Belmiro Braga/MG,-21.9486291,-43.413564,198,5781.02190
D1,Belmiro Braga/MG,-21.9486291,-43.413564,3,87.59124
1,Belmonte/BA,-15.8630837,-38.8792845,1168,4983.57298
D1,Belmonte/BA,-15.8630837,-38.8792845,24,102.40218
1,Belmonte/SC,-26.8448262,-53.578916,323,11923.21890
D1,Belmonte/SC,-26.8448262,-53.578916,5,184.56995
1,Belo Campo/BA,-15.0338286,-41.2585109,954,5576.01262
D1,Belo Campo/BA,-15.0338286,-41.2585109,15,87.67315
1,Belo Horizonte/MG,-19.9227318,-43.9450948,251398,9969.92343
D1,Belo Horizonte/MG,-19.9227318,-43.9450948,6033,239.25627
1,Belo Jardim/PE,-8.3338293,-36.4176419,4096,5341.19212
D1,Belo Jardim/PE,-8.3338293,-36.4176419,125,163.00025
1,Belo Monte/AL,-9.8269944,-37.2787165,511,7615.49925
D1,Belo Monte/AL,-9.8269944,-37.2787165,9,134.12817
1,Belo Oriente/MG,-19.2232523,-42.4807033,2651,9820.70090
D1,Belo Oriente/MG,-19.2232523,-42.4807033,67,248.20330
1,Belo Vale/MG,-20.407778,-44.024167,970,12566.39461
D1,Belo Vale/MG,-20.407778,-44.024167,11,142.50551
1,Belterra/PA,-2.636091,-54.937392,1506,8442.17725
D1,Belterra/PA,-2.636091,-54.937392,27,151.35378
1,Belágua/MA,-3.1604031,-43.5085052,413,5486.18491
D1,Belágua/MA,-3.1604031,-43.5085052,4,53.13496
1,Belém de Maria/PE,-8.6242497,-35.8388934,277,2285.10147
D1,Belém de Maria/PE,-8.6242497,-35.8388934,6,49.49678
1,Belém do Brejo do Cruz/PB,-6.1880727,-37.5332267,532,7239.08015
D1,Belém do Brejo do Cruz/PB,-6.1880727,-37.5332267,5,68.03647
1,Belém do Piauí/PI,-7.3767305,-40.9712156,479,13353.77753
D1,Belém do Piauí/PI,-7.3767305,-40.9712156,7,195.14915
1,Belém do São Francisco/PE,-8.7517707,-38.9625715,974,4698.50458
D1,Belém do São Francisco/PE,-8.7517707,-38.9625715,11,53.06319
1,Belém/AL,-9.5715351,-36.492841,125,2917.83380
D1,Belém/AL,-9.5715351,-36.492841,7,163.39869
1,Belém/PA,-1.45056,-48.4682453,104540,6971.00173
D1,Belém/PA,-1.45056,-48.4682453,5001,333.47981
1,Belém/PB,-6.6967586,-35.5369626,2291,12939.84750
D1,Belém/PB,-6.6967586,-35.5369626,45,254.16549
1,Beneditinos/PI,-5.4565671,-42.3605061,1277,12193.25886
D1,Beneditinos/PI,-5.4565671,-42.3605061,38,362.83777
1,Benedito Leite/MA,-7.2173453,-44.5523331,314,5569.35083
D1,Benedito Leite/MA,-7.2173453,-44.5523331,2,35.47357
1,Benedito Novo/SC,-26.7840657,-49.3629511,1045,8874.73461
D1,Benedito Novo/SC,-26.7840657,-49.3629511,19,161.35881
1,Benevides/PA,-1.3555577,-48.252235,4004,6279.01142
D1,Benevides/PA,-1.3555577,-48.252235,102,159.95484
1,Benjamin Constant do Sul/RS,-27.5105555,-52.6007689,173,8835.54648
1,Benjamin Constant/AM,-4.3782748,-70.0290603,2703,6152.27040
D1,Benjamin Constant/AM,-4.3782748,-70.0290603,87,198.01980
1,Bento Fernandes/RN,-5.6926846,-35.8207423,163,2950.22624
D1,Bento Fernandes/RN,-5.6926846,-35.8207423,3,54.29864
1,Bento Gonçalves/RS,-29.1654014,-51.5197627,19204,15766.44253
D1,Bento Gonçalves/RS,-29.1654014,-51.5197627,348,285.70725
1,Bento de Abreu/SP,-21.2707225,-50.8120444,352,11713.81032
D1,Bento de Abreu/SP,-21.2707225,-50.8120444,4,133.11148
1,Bequimão/MA,-2.4495376,-44.7884889,281,1319.31077
D1,Bequimão/MA,-2.4495376,-44.7884889,22,103.29123
1,Berilo/MG,-16.9515764,-42.4643732,153,1288.74663
D1,Berilo/MG,-16.9515764,-42.4643732,1,8.42318
1,Berizal/MG,-15.6118785,-41.7417382,235,4932.82955
D1,Berizal/MG,-15.6118785,-41.7417382,1,20.99076
1,Bernardino Batista/PB,-6.4532173,-38.5495418,286,8088.23529
D1,Bernardino Batista/PB,-6.4532173,-38.5495418,1,28.28054
1,Bernardino de Campos/SP,-23.0140216,-49.4760724,821,7357.94945
D1,Bernardino de Campos/SP,-23.0140216,-49.4760724,27,241.97885
1,Bernardo Sayão/TO,-7.8794244,-48.8968905,626,14073.74101
D1,Bernardo Sayão/TO,-7.8794244,-48.8968905,12,269.78417
1,Bernardo do Mearim/MA,-4.6315929,-44.7617508,296,4874.03260
D1,Bernardo do Mearim/MA,-4.6315929,-44.7617508,6,98.79796
1,Bertioga/SP,-23.848568,-46.139586,5757,8894.82873
D1,Bertioga/SP,-23.848568,-46.139586,160,247.20733
1,Bertolínia/PI,-7.6372159,-43.9540611,881,15997.82096
D1,Bertolínia/PI,-7.6372159,-43.9540611,11,199.74578
1,Bertópolis/MG,-17.063333,-40.573889,478,10375.51552
D1,Bertópolis/MG,-17.063333,-40.573889,3,65.11830
1,Beruri/AM,-3.9007135,-61.3717319,2278,11337.28164
D1,Beruri/AM,-3.9007135,-61.3717319,34,169.21316
1,Betim/MG,-19.968056,-44.198333,30188,6787.11464
D1,Betim/MG,-19.968056,-44.198333,1254,281.93460
1,Betânia do Piauí/PI,-8.1460635,-40.7961387,173,2785.82931
D1,Betânia do Piauí/PI,-8.1460635,-40.7961387,2,32.20612
1,Betânia/PE,-8.2742779,-38.0351767,505,3956.13004
D1,Betânia/PE,-8.2742779,-38.0351767,17,133.17665
1,Bezerros/PE,-8.2372132,-35.7558262,3832,6294.34954
D1,Bezerros/PE,-8.2372132,-35.7558262,120,197.10907
1,Bias Fortes/MG,-21.605833,-43.756944,113,3394.41274
D1,Bias Fortes/MG,-21.605833,-43.756944,3,90.11715
1,Bicas/MG,-21.7213723,-43.0604327,1416,9729.28405
D1,Bicas/MG,-21.7213723,-43.0604327,43,295.45142
1,Biguaçu/SC,-27.4961277,-48.6542432,11122,16006.10195
D1,Biguaçu/SC,-27.4961277,-48.6542432,165,237.45791
1,Bilac/SP,-21.403962,-50.47464,873,10755.20513
D1,Bilac/SP,-21.403962,-50.47464,17,209.43698
1,Biquinhas/MG,-18.783611,-45.502222,126,5044.03523
D1,Biquinhas/MG,-18.783611,-45.502222,1,40.03203
1,Birigui/SP,-21.2908491,-50.34144,16046,12848.82650
D1,Birigui/SP,-21.2908491,-50.34144,542,434.00623
1,Biritiba Mirim/SP,-23.5697765,-46.0407456,1445,4387.29658
D1,Biritiba Mirim/SP,-23.5697765,-46.0407456,99,300.58295
1,Biritinga/BA,-11.6227908,-38.8066738,548,3428.42843
D1,Biritinga/BA,-11.6227908,-38.8066738,7,43.79379
1,Bituruna/PR,-26.161281,-51.5533319,1304,7951.21951
D1,Bituruna/PR,-26.161281,-51.5533319,19,115.85366
1,Blumenau/SC,-26.9195567,-49.0658025,53944,14907.62875
D1,Blumenau/SC,-26.9195567,-49.0658025,589,162.77238
1,Boa Esperança do Iguaçu/PR,-25.6362851,-53.2139114,177,7165.99190
1,Boa Esperança do Sul/SP,-21.9930206,-48.3917372,1589,10580.63657
D1,Boa Esperança do Sul/SP,-21.9930206,-48.3917372,19,126.51485
1,Boa Esperança/ES,-18.5395472,-40.2904088,1640,10866.68434
D1,Boa Esperança/ES,-18.5395472,-40.2904088,45,298.17122
1,Boa Esperança/MG,-21.0901253,-45.5660195,4709,11708.39653
D1,Boa Esperança/MG,-21.0901253,-45.5660195,135,335.66225
1,Boa Esperança/PR,-24.2411024,-52.7860277,426,10526.31579
D1,Boa Esperança/PR,-24.2411024,-52.7860277,17,420.06425
1,Boa Hora/PI,-4.4094627,-42.1255341,554,8129.12693
D1,Boa Hora/PI,-4.4094627,-42.1255341,6,88.04109
1,Boa Nova/BA,-14.365907,-40.2063056,991,8037.95928
D1,Boa Nova/BA,-14.365907,-40.2063056,18,145.99724
1,Boa Ventura de São Roque/PR,-24.88177,-51.5441292,512,8043.99057
D1,Boa Ventura de São Roque/PR,-24.88177,-51.5441292,6,94.26551
1,Boa Ventura/PB,-7.4202462,-38.2156782,689,12982.85284
D1,Boa Ventura/PB,-7.4202462,-38.2156782,11,207.27341
1,Boa Viagem/CE,-5.1261877,-39.7300055,4170,7640.58120
D1,Boa Viagem/CE,-5.1261877,-39.7300055,103,188.72419
1,Boa Vista da Aparecida/PR,-25.4357216,-53.4067721,1007,13355.43767
D1,Boa Vista da Aparecida/PR,-25.4357216,-53.4067721,32,424.40318
1,Boa Vista das Missões/RS,-27.6677983,-53.3127622,241,11520.07648
D1,Boa Vista das Missões/RS,-27.6677983,-53.3127622,7,334.60803
1,Boa Vista do Buricá/RS,-27.6687782,-54.1111913,854,12723.48033
D1,Boa Vista do Buricá/RS,-27.6687782,-54.1111913,11,163.88558
1,Boa Vista do Cadeado/RS,-28.5783827,-53.8123759,201,8144.24635
D1,Boa Vista do Cadeado/RS,-28.5783827,-53.8123759,4,162.07455
1,Boa Vista do Gurupi/MA,-1.7981168,-46.3071882,15,178.95490
D1,Boa Vista do Gurupi/MA,-1.7981168,-46.3071882,4,47.72131
1,Boa Vista do Incra/RS,-28.8195551,-53.3866624,294,11238.53211
D1,Boa Vista do Incra/RS,-28.8195551,-53.3866624,4,152.90520
1,Boa Vista do Ramos/AM,-2.9716927,-57.5869819,972,4952.61388
D1,Boa Vista do Ramos/AM,-2.9716927,-57.5869819,12,61.14338
1,Boa Vista do Sul/RS,-29.3510488,-51.6779679,315,11339.09287
D1,Boa Vista do Sul/RS,-29.3510488,-51.6779679,4,143.98848
1,Boa Vista do Tupim/BA,-12.6605988,-40.6083594,284,1532.56705
D1,Boa Vista do Tupim/BA,-12.6605988,-40.6083594,8,43.17090
1,Boa Vista/PB,-7.2620711,-36.2415161,818,11463.00448
D1,Boa Vista/PB,-7.2620711,-36.2415161,14,196.18834
1,Boa Vista/RR,2.8208478,-60.6719582,90503,21566.20247
D1,Boa Vista/RR,2.8208478,-60.6719582,1404,334.56292
1,Boca da Mata/AL,-9.6452054,-36.2116658,1860,6799.23965
D1,Boca da Mata/AL,-9.6452054,-36.2116658,45,164.49773
1,Boca do Acre/AM,-8.7553487,-67.3930873,2666,7697.41591
D1,Boca do Acre/AM,-8.7553487,-67.3930873,27,77.95583
1,Bocaina de Minas/MG,-22.167778,-44.394722,187,3674.59226
D1,Bocaina de Minas/MG,-22.167778,-44.394722,7,137.55158
1,Bocaina do Sul/SC,-27.745494,-49.942279,387,11095.18349
D1,Bocaina do Sul/SC,-27.745494,-49.942279,3,86.00917
1,Bocaina/PI,-6.9445939,-41.3224599,300,6659.26748
D1,Bocaina/PI,-6.9445939,-41.3224599,6,133.18535
1,Bocaina/SP,-22.1421831,-48.522276,1288,10343.71988
D1,Bocaina/SP,-22.1421831,-48.522276,33,265.01767
1,Bocaiúva do Sul/PR,-25.206591,-49.114131,2048,15599.05553
D1,Bocaiúva do Sul/PR,-25.206591,-49.114131,19,144.71780
1,Bocaiúva/MG,-17.1160208,-43.8122678,2451,4877.02961
D1,Bocaiúva/MG,-17.1160208,-43.8122678,62,123.36835
1,Bodocó/PE,-7.777592,-39.933797,1981,5161.81145
D1,Bodocó/PE,-7.777592,-39.933797,35,91.19808
1,Bodoquena/MS,-20.5508775,-56.6769653,562,7170.19648
D1,Bodoquena/MS,-20.5508775,-56.6769653,16,204.13371
1,Bodó/RN,-5.9866104,-36.4134824,188,8557.12335
1,Bofete/SP,-23.1019554,-48.2610535,864,7247.71412
D1,Bofete/SP,-23.1019554,-48.2610535,15,125.82837
1,Boituva/SP,-23.2838893,-47.6738231,6287,10112.59450
D1,Boituva/SP,-23.2838893,-47.6738231,178,286.31173
1,Bom Conselho/PE,-9.169191,-36.685683,2235,4583.01720
D1,Bom Conselho/PE,-9.169191,-36.685683,67,137.38799
1,Bom Despacho/MG,-19.7375242,-45.2517288,4937,9675.08035
D1,Bom Despacho/MG,-19.7375242,-45.2517288,86,168.53492
1,Bom Jardim da Serra/SC,-28.3380324,-49.625588,648,13579.21207
D1,Bom Jardim da Serra/SC,-28.3380324,-49.625588,5,104.77787
1,Bom Jardim de Goiás/GO,-16.2062659,-52.172793,975,10993.34762
D1,Bom Jardim de Goiás/GO,-16.2062659,-52.172793,16,180.40365
1,Bom Jardim de Minas/MG,-21.9476466,-44.1906033,479,7416.00867
D1,Bom Jardim de Minas/MG,-21.9476466,-44.1906033,3,46.44682
1,Bom Jardim/MA,-3.54129,-45.606004,1429,3416.86194
D1,Bom Jardim/MA,-3.54129,-45.606004,51,121.94539
1,Bom Jardim/PE,-7.7961572,-35.5871696,1784,4461.89631
D1,Bom Jardim/PE,-7.7961572,-35.5871696,69,172.57334
1,Bom Jardim/RJ,-22.1515328,-42.4186683,1744,6315.17961
D1,Bom Jardim/RJ,-22.1515328,-42.4186683,46,166.57010
1,Bom Jesus da Lapa/BA,-13.250571,-43.410754,5948,8538.37099
D1,Bom Jesus da Lapa/BA,-13.250571,-43.410754,83,119.14674
1,Bom Jesus da Penha/MG,-21.0165299,-46.5226644,660,15551.36664
D1,Bom Jesus da Penha/MG,-21.0165299,-46.5226644,17,400.56550
1,Bom Jesus da Serra/BA,-14.3724084,-40.5047119,453,4611.62578
D1,Bom Jesus da Serra/BA,-14.3724084,-40.5047119,9,91.62170
1,Bom Jesus das Selvas/MA,-4.4878075,-46.8526639,3387,9798.36260
D1,Bom Jesus das Selvas/MA,-4.4878075,-46.8526639,24,69.43038
1,Bom Jesus de Goiás/GO,-18.2174587,-49.739721,2890,11267.93512
D1,Bom Jesus de Goiás/GO,-18.2174587,-49.739721,112,436.68122
1,Bom Jesus do Amparo/MG,-19.7045132,-43.4752911,252,4108.91896
D1,Bom Jesus do Amparo/MG,-19.7045132,-43.4752911,7,114.13664
1,Bom Jesus do Araguaia/MT,-12.1725897,-51.5074425,1056,15747.09216
D1,Bom Jesus do Araguaia/MT,-12.1725897,-51.5074425,16,238.59231
1,Bom Jesus do Galho/MG,-19.8283191,-42.3162256,778,5234.82708
D1,Bom Jesus do Galho/MG,-19.8283191,-42.3162256,33,222.04279
1,Bom Jesus do Itabapoana/RJ,-21.1341025,-41.680095,3603,9684.70285
D1,Bom Jesus do Itabapoana/RJ,-21.1341025,-41.680095,89,239.22802
1,Bom Jesus do Norte/ES,-21.1254776,-41.6711646,1117,11212.60791
D1,Bom Jesus do Norte/ES,-21.1254776,-41.6711646,29,291.10620
1,Bom Jesus do Oeste/SC,-26.6929713,-53.0967453,182,8508.64890
D1,Bom Jesus do Oeste/SC,-26.6929713,-53.0967453,6,280.50491
1,Bom Jesus do Sul/PR,-26.1922507,-53.6002033,498,14204.22133
D1,Bom Jesus do Sul/PR,-26.1922507,-53.6002033,6,171.13520
1,Bom Jesus do Tocantins/PA,-5.0471796,-48.5978362,763,4457.29641
D1,Bom Jesus do Tocantins/PA,-5.0471796,-48.5978362,25,146.04510
1,Bom Jesus do Tocantins/TO,-8.96306,-48.165043,135,2695.68690
D1,Bom Jesus do Tocantins/TO,-8.96306,-48.165043,3,59.90415
1,Bom Jesus dos Perdões/SP,-23.1353864,-46.4648052,2118,8150.85626
D1,Bom Jesus dos Perdões/SP,-23.1353864,-46.4648052,23,88.51260
1,Bom Jesus/PB,-6.8156725,-38.6551841,181,7029.12621
D1,Bom Jesus/PB,-6.8156725,-38.6551841,3,116.50485
1,Bom Jesus/PI,-9.0711644,-44.3583926,3664,14432.58361
D1,Bom Jesus/PI,-9.0711644,-44.3583926,42,165.43900
1,Bom Jesus/RN,-5.9887544,-35.5821149,936,9116.58712
D1,Bom Jesus/RN,-5.9887544,-35.5821149,17,165.57904
1,Bom Jesus/RS,-28.6692723,-50.4346894,965,8533.02679
D1,Bom Jesus/RS,-28.6692723,-50.4346894,23,203.37784
1,Bom Jesus/SC,-26.7350604,-52.3916519,455,14883.87308
D1,Bom Jesus/SC,-26.7350604,-52.3916519,9,294.40628
1,Bom Lugar/MA,-4.3728019,-45.0366054,509,3096.48376
D1,Bom Lugar/MA,-4.3728019,-45.0366054,7,42.58426
1,Bom Princípio do Piauí/PI,-3.1912777,-41.6430185,138,2442.04566
D1,Bom Princípio do Piauí/PI,-3.1912777,-41.6430185,13,230.04778
1,Bom Princípio/RS,-29.489788,-51.3566782,2050,14380.91898
D1,Bom Princípio/RS,-29.489788,-51.3566782,29,203.43739
1,Bom Progresso/RS,-27.5490948,-53.8655601,185,9741.96946
D1,Bom Progresso/RS,-27.5490948,-53.8655601,3,157.97788
1,Bom Repouso/MG,-22.4657069,-46.1485376,1071,10164.18335
D1,Bom Repouso/MG,-22.4657069,-46.1485376,23,218.27845
1,Bom Retiro do Sul/RS,-29.6000007,-51.9359243,1046,8442.29217
D1,Bom Retiro do Sul/RS,-29.6000007,-51.9359243,30,242.13075
1,Bom Retiro/SC,-27.798993,-49.486994,866,8608.34990
D1,Bom Retiro/SC,-27.798993,-49.486994,19,188.86680
1,Bom Sucesso de Itararé/SP,-24.3190016,-49.1446207,227,5697.79116
D1,Bom Sucesso de Itararé/SP,-24.3190016,-49.1446207,6,150.60241
1,Bom Sucesso do Sul/PR,-26.0749256,-52.8348629,529,16256.91457
D1,Bom Sucesso do Sul/PR,-26.0749256,-52.8348629,9,276.58267
1,Bom Sucesso/MG,-21.0323516,-44.7598082,1149,6525.81360
D1,Bom Sucesso/MG,-21.0323516,-44.7598082,22,124.95030
1,Bom Sucesso/PB,-6.4458948,-37.9297662,499,10068.60371
D1,Bom Sucesso/PB,-6.4458948,-37.9297662,4,80.71025
1,Bom Sucesso/PR,-23.7088019,-51.7651297,1247,17642.89757
D1,Bom Sucesso/PR,-23.7088019,-51.7651297,19,268.81720
1,Bombinhas/SC,-27.1519159,-48.4875691,3484,17133.02188
D1,Bombinhas/SC,-27.1519159,-48.4875691,60,295.05778
1,Bonfim do Piauí/PI,-9.1648678,-42.8734415,452,7950.74758
D1,Bonfim do Piauí/PI,-9.1648678,-42.8734415,7,123.13105
1,Bonfim/MG,-20.3266626, -44.2386157,446,6501.45773
D1,Bonfim/MG,-20.3266626, -44.2386157,14,204.08163
1,Bonfim/RR,3.3613818,-59.8427241,2344,18666.87903
D1,Bonfim/RR,3.3613818,-59.8427241,26,207.05583
1,Bonfinópolis de Minas/MG,-16.5660011,-45.98645,521,9570.16899
D1,Bonfinópolis de Minas/MG,-16.5660011,-45.98645,14,257.16385
1,Bonfinópolis/GO,-16.6172709,-48.9615701,468,4718.21756
D1,Bonfinópolis/GO,-16.6172709,-48.9615701,25,252.04154
1,Boninal/BA,-12.7095183,-41.8299984,637,4409.52513
D1,Boninal/BA,-12.7095183,-41.8299984,7,48.45632
1,Bonito de Minas/MG,-15.3191266,-44.7544,92,809.21805
1,Bonito de Santa Fé/PB,-7.3143332,-38.5146677,508,4225.58642
D1,Bonito de Santa Fé/PB,-7.3143332,-38.5146677,13,108.13509
1,Bonito/BA,-11.9665473,-41.2649896,875,5182.42123
D1,Bonito/BA,-11.9665473,-41.2649896,13,76.99597
1,Bonito/MS,-21.1264766,-56.4902208,3032,13663.81253
D1,Bonito/MS,-21.1264766,-56.4902208,67,301.93781
1,Bonito/PA,-1.3605722,-47.3049907,402,2431.94192
D1,Bonito/PA,-1.3605722,-47.3049907,15,90.74410
1,Bonito/PE,-8.4721161,-35.7314591,1019,2673.34785
D1,Bonito/PE,-8.4721161,-35.7314591,41,107.56355
1,Bonópolis/GO,-13.649331,-49.8329113,206,4584.90986
D1,Bonópolis/GO,-13.649331,-49.8329113,2,44.51369
1,Boqueirão do Leão/RS,-29.30332,-52.4296817,605,7855.10257
D1,Boqueirão do Leão/RS,-29.30332,-52.4296817,32,415.47650
1,Boqueirão do Piauí/PI,-4.4850148,-42.1095161,733,11406.78494
D1,Boqueirão do Piauí/PI,-4.4850148,-42.1095161,10,155.61780
1,Boqueirão/PB,-7.487004,-36.130887,2051,11477.33632
D1,Boqueirão/PB,-7.487004,-36.130887,38,212.64689
1,Boquim/SE,-11.1450175,-37.6204228,2646,9836.79691
D1,Boquim/SE,-11.1450175,-37.6204228,65,241.64467
1,Boquira/BA,-12.8184859,-42.7270883,726,3377.21543
D1,Boquira/BA,-12.8184859,-42.7270883,15,69.77718
1,Boracéia/SP,-22.195355,-48.7801925,948,19474.11668
D1,Boracéia/SP,-22.195355,-48.7801925,22,451.93098
1,Borba/AM,-4.3934778,-59.5947721,2336,5595.47763
D1,Borba/AM,-4.3934778,-59.5947721,69,165.27738
1,Borborema/PB,-6.8066718,-35.5990191,385,7282.01248
D1,Borborema/PB,-6.8066718,-35.5990191,13,245.88614
1,Borborema/SP,-21.6212706,-49.074135,1644,10170.74981
D1,Borborema/SP,-21.6212706,-49.074135,52,321.70255
1,Borda da Mata/MG,-22.274167,-46.165278,1802,9187.31518
D1,Borda da Mata/MG,-22.274167,-46.165278,46,234.52636
1,Borebi/SP,-22.5700178,-48.9714871,264,9839.73164
D1,Borebi/SP,-22.5700178,-48.9714871,3,111.81513
1,Borrazópolis/PR,-23.9393362,-51.5850786,831,12905.73070
D1,Borrazópolis/PR,-23.9393362,-51.5850786,27,419.31977
1,Borá/SP,-22.2701088,-50.544407,126,15035.79952
D1,Borá/SP,-22.2701088,-50.544407,1,119.33174
1,Bossoroca/RS,-28.7278885,-54.9120278,429,6913.77921
D1,Bossoroca/RS,-28.7278885,-54.9120278,22,354.55278
1,Botelhos/MG,-21.65,-46.394722,1774,11867.01452
D1,Botelhos/MG,-21.65,-46.394722,28,187.30350
1,Botucatu/SP,-22.8879628,-48.4410712,17335,11702.55856
D1,Botucatu/SP,-22.8879628,-48.4410712,286,193.07365
1,Botumirim/MG,-16.862778,-43.011111,236,3753.18066
D1,Botumirim/MG,-16.862778,-43.011111,4,63.61323
1,Botuporã/BA,-13.3744752,-42.5198469,260,2566.88716
D1,Botuporã/BA,-13.3744752,-42.5198469,4,39.49057
1,Botuverá/SC,-27.200749,-49.068892,921,17305.52424
D1,Botuverá/SC,-27.200749,-49.068892,10,187.89929
1,Bozano/RS,-28.3669953,-53.7705165,258,12221.69588
D1,Bozano/RS,-28.3669953,-53.7705165,7,331.59640
1,Braga/RS,-27.617348,-53.740514,388,11718.51404
D1,Braga/RS,-27.617348,-53.740514,9,271.82120
1,Braganey/PR,-24.8179919,-53.118506,544,10107.76663
D1,Braganey/PR,-24.8179919,-53.118506,7,130.06317
1,Bragança Paulista/SP,-22.9520235,-46.5418586,18584,10897.59753
D1,Bragança Paulista/SP,-22.9520235,-46.5418586,496,290.85280
1,Bragança/PA,-1.0573967,-46.7635406,4177,3240.14459
D1,Bragança/PA,-1.0573967,-46.7635406,151,117.13235
1,Branquinha/AL,-9.2478057,-36.0152009,606,5793.49904
D1,Branquinha/AL,-9.2478057,-36.0152009,12,114.72275
1,Brasil Novo/PA,-3.3055853,-52.539198,1935,12914.63659
D1,Brasil Novo/PA,-3.3055853,-52.539198,42,280.31769
1,Brasileira/PI,-4.131182,-41.7824969,624,7475.73979
D1,Brasileira/PI,-4.131182,-41.7824969,15,179.70528
1,Brasilândia de Minas/MG,-17.0096469,-46.0087183,1371,8186.05207
D1,Brasilândia de Minas/MG,-17.0096469,-46.0087183,22,131.35897
1,Brasilândia do Sul/PR,-24.1975793,-53.527551,406,15705.99613
D1,Brasilândia do Sul/PR,-24.1975793,-53.527551,9,348.16248
1,Brasilândia do Tocantins/TO,-8.3886619,-48.4842729,246,11126.18725
D1,Brasilândia do Tocantins/TO,-8.3886619,-48.4842729,6,271.37042
1,Brasilândia/MS,-21.255575,-52.0365617,1260,10630.22020
D1,Brasilândia/MS,-21.255575,-52.0365617,23,194.04370
1,Brasiléia/AC,-11.0010413,-68.7487894,2958,11077.82189
D1,Brasiléia/AC,-11.0010413,-68.7487894,42,157.29159
1,Brasnorte/MT,-12.1227151,-58.0050109,2049,10173.78352
D1,Brasnorte/MT,-12.1227151,-58.0050109,38,188.67925
1,Brasília de Minas/MG,-16.2075114,-44.430559,1271,3922.23422
D1,Brasília de Minas/MG,-16.2075114,-44.430559,8,24.68755
1,Brasília/DF,-15.7934036,-47.8823172,442703,14490.38983
D1,Brasília/DF,-15.7934036,-47.8823172,9501,310.98320
1,Brazabrantes/GO,-16.4291635,-49.3858216,505,13481.04645
D1,Brazabrantes/GO,-16.4291635,-49.3858216,3,80.08542
1,Brazópolis/MG,-22.4742842,-45.6165577,860,5968.07772
D1,Brazópolis/MG,-22.4742842,-45.6165577,32,222.06801
1,Braço do Norte/SC,-28.2728633,-49.1622712,8516,25138.74129
D1,Braço do Norte/SC,-28.2728633,-49.1622712,108,318.80978
1,Braço do Trombudo/SC,-27.358578,-49.882145,706,18731.75909
D1,Braço do Trombudo/SC,-27.358578,-49.882145,6,159.19342
1,Braúna/SP,-21.5015319,-50.3175246,606,10555.65233
D1,Braúna/SP,-21.5015319,-50.3175246,24,418.04564
1,Braúnas/MG,-19.055556,-42.716111,241,5053.47033
D1,Braúnas/MG,-19.055556,-42.716111,10,209.68757
1,Brejetuba/ES,-20.1465817,-41.2902303,1678,13502.85668
D1,Brejetuba/ES,-20.1465817,-41.2902303,14,112.65792
1,Brejinho de Nazaré/TO,-11.0205883,-48.5722906,643,11650.66135
D1,Brejinho de Nazaré/TO,-11.0205883,-48.5722906,16,289.90759
1,Brejinho/PE,-7.3482153,-37.28538,687,9174.67949
D1,Brejinho/PE,-7.3482153,-37.28538,21,280.44872
1,Brejinho/RN,-6.1957907,-35.3583019,1493,11675.92086
D1,Brejinho/RN,-6.1957907,-35.3583019,16,125.12708
1,Brejo Alegre/SP,-21.1671191,-50.1850393,382,13222.56836
D1,Brejo Alegre/SP,-21.1671191,-50.1850393,13,449.98269
1,Brejo Grande do Araguaia/PA,-5.7011449,-48.4037308,839,11387.07926
D1,Brejo Grande do Araguaia/PA,-5.7011449,-48.4037308,4,54.28882
1,Brejo Grande/SE,-10.4287358,-36.4667918,454,5435.17299
D1,Brejo Grande/SE,-10.4287358,-36.4667918,14,167.60445
1,Brejo Santo/CE,-7.4909841,-38.9859152,8358,16768.99001
D1,Brejo Santo/CE,-7.4909841,-38.9859152,154,308.97637
1,Brejo da Madre de Deus/PE,-8.1409718,-36.3712527,2232,4357.24744
D1,Brejo da Madre de Deus/PE,-8.1409718,-36.3712527,50,97.60859
1,Brejo de Areia/MA,-4.3316785,-45.5833334,315,3494.56401
D1,Brejo de Areia/MA,-4.3316785,-45.5833334,10,110.93854
1,Brejo do Cruz/PB,-6.32926065,-37.48746163303929,1886,13276.08053
D1,Brejo do Cruz/PB,-6.32926065,-37.48746163303929,23,161.90342
1,Brejo do Piauí/PI,-8.207583,-42.8359849,153,3976.09148
D1,Brejo do Piauí/PI,-8.207583,-42.8359849,4,103.95010
1,Brejo dos Santos/PB,-6.3769367,-37.8243125,748,11571.78218
D1,Brejo dos Santos/PB,-6.3769367,-37.8243125,8,123.76238
1,Brejo/MA,-3.6804397,-42.7529313,921,2512.89187
D1,Brejo/MA,-3.6804397,-42.7529313,19,51.84033
1,Brejolândia/BA,-12.4843845,-43.9611861,144,1356.18761
D1,Brejolândia/BA,-12.4843845,-43.9611861,11,103.59766
1,Brejão/PE,-9.029146,-36.566034,474,5274.28508
D1,Brejão/PE,-9.029146,-36.566034,9,100.14465
1,Brejões/BA,-13.1033754,-39.7909837,820,5765.71509
D1,Brejões/BA,-13.1033754,-39.7909837,11,77.34496
1,Breu Branco/PA,-3.7785073,-49.5684795,855,1269.82713
D1,Breu Branco/PA,-3.7785073,-49.5684795,46,68.31818
1,Breves/PA,-1.68036,-50.479085,4062,3924.75144
D1,Breves/PA,-1.68036,-50.479085,118,114.01297
1,Britânia/GO,-15.2427599,-51.1602061,637,10988.44230
D1,Britânia/GO,-15.2427599,-51.1602061,6,103.50181
1,Brochier/RS,-29.556766,-51.5963047,532,10423.19749
D1,Brochier/RS,-29.556766,-51.5963047,5,97.96238
1,Brodowski/SP,-20.984532,-47.657217,2672,10570.87471
D1,Brodowski/SP,-20.984532,-47.657217,72,284.84393
1,Brotas de Macaúbas/BA,-12.0019007,-42.6257506,143,1411.64857
D1,Brotas de Macaúbas/BA,-12.0019007,-42.6257506,7,69.10168
1,Brotas/SP,-22.2840884,-48.1267265,1597,6482.38350
D1,Brotas/SP,-22.2840884,-48.1267265,50,202.95503
1,Brumadinho/MG,-20.143611,-44.2,3772,9275.56189
D1,Brumadinho/MG,-20.143611,-44.2,81,199.18359
1,Brumado/BA,-14.29507325,-41.659307508575985,9334,13862.03312
D1,Brumado/BA,-14.29507325,-41.659307508575985,190,282.17123
1,Brunópolis/SC,-27.310953,-50.837585,281,11866.55405
D1,Brunópolis/SC,-27.310953,-50.837585,8,337.83784
1,Brusque/SC,-27.0964628,-48.9136323,28077,20391.60717
D1,Brusque/SC,-27.0964628,-48.9136323,290,210.61958
1,Brás Pires/MG,-20.8483109,-43.2430524,251,5846.72723
D1,Brás Pires/MG,-20.8483109,-43.2430524,7,163.05614
1,Bueno Brandão/MG,-22.441976,-46.3517971,894,8133.92776
D1,Bueno Brandão/MG,-22.441976,-46.3517971,28,254.75389
1,Buenos Aires/PE,-7.7218931,-35.326587,366,2774.82942
D1,Buenos Aires/PE,-7.7218931,-35.326587,24,181.95603
1,Buenópolis/MG,-17.8756607,-44.1749365,305,2946.00599
D1,Buenópolis/MG,-17.8756607,-44.1749365,11,106.24940
1,Buerarema/BA,-14.9571177,-39.3008035,1346,7352.78051
D1,Buerarema/BA,-14.9571177,-39.3008035,44,240.35835
1,Bugre/MG,-19.4257687,-42.2556,371,9314.58699
D1,Bugre/MG,-19.4257687,-42.2556,13,326.38715
1,Bujari/AC,-9.8309656,-67.9520886,1139,10930.90211
D1,Bujari/AC,-9.8309656,-67.9520886,17,163.14779
1,Bujaru/PA,-1.5169239,-48.0410699,1435,4876.47399
D1,Bujaru/PA,-1.5169239,-48.0410699,38,129.13311
1,Buri/SP,-23.79849,-48.598924,2520,12622.08866
D1,Buri/SP,-23.79849,-48.598924,81,405.70999
1,Buritama/SP,-21.0664017,-50.1448077,2406,13922.80539
D1,Buritama/SP,-21.0664017,-50.1448077,66,381.92234
1,Buriti Alegre/GO,-18.1377879,-49.0404411,997,10512.44201
D1,Buriti Alegre/GO,-18.1377879,-49.0404411,32,337.41038
1,Buriti Bravo/MA,-5.8391884,-43.8367876,1648,6884.16392
D1,Buriti Bravo/MA,-5.8391884,-43.8367876,17,71.01383
1,Buriti de Goiás/GO,-16.180644,-50.4287479,238,9612.27787
D1,Buriti de Goiás/GO,-16.180644,-50.4287479,8,323.10178
1,Buriti do Tocantins/TO,-5.3187439,-48.2256609,1044,9080.62973
D1,Buriti do Tocantins/TO,-5.3187439,-48.2256609,18,156.56258
1,Buriti dos Lopes/PI,-3.1776723,-41.8707444,1299,6558.28747
D1,Buriti dos Lopes/PI,-3.1776723,-41.8707444,34,171.65649
1,Buriti dos Montes/PI,-5.3136171,-41.0971256,701,8482.57502
D1,Buriti dos Montes/PI,-5.3136171,-41.0971256,8,96.80542
1,Buriti/MA,-3.9430944,-42.9244281,848,2944.64893
D1,Buriti/MA,-3.9430944,-42.9244281,8,27.77971
1,Buriticupu/MA,-4.3227472,-46.4516989,3548,4861.40608
D1,Buriticupu/MA,-4.3227472,-46.4516989,62,84.95129
1,Buritinópolis/GO,-14.4589282,-46.4293104,191,5817.84953
D1,Buritinópolis/GO,-14.4589282,-46.4293104,3,91.37984
1,Buritirama/BA,-10.7148421,-43.6362327,847,3981.01147
D1,Buritirama/BA,-10.7148421,-43.6362327,23,108.10303
1,Buritirana/MA,-5.5897455,-47.0148915,448,2896.48930
D1,Buritirana/MA,-5.5897455,-47.0148915,24,155.16907
1,Buritis/MG,-15.621389,-46.423889,1832,7324.19142
D1,Buritis/MG,-15.621389,-46.423889,36,143.92516
1,Buritis/RO,-10.2054937,-63.8281954,4793,11876.79651
D1,Buritis/RO,-10.2054937,-63.8281954,75,185.84597
1,Buritizal/SP,-20.1933264,-47.7097165,316,7000.44307
D1,Buritizal/SP,-20.1933264,-47.7097165,10,221.53301
1,Buritizeiro/MG,-17.3667765,-44.9647781,1421,5053.16312
D1,Buritizeiro/MG,-17.3667765,-44.9647781,32,113.79396
1,Butiá/RS,-30.1256795,-51.9692224,2267,10819.96945
D1,Butiá/RS,-30.1256795,-51.9692224,55,262.50477
1,Buíque/PE,-8.6239732,-37.157296,2476,4202.37954
D1,Buíque/PE,-8.6239732,-37.157296,44,74.67880
1,Bálsamo/SP,-20.7343722,-49.5807484,1722,18842.32411
D1,Bálsamo/SP,-20.7343722,-49.5807484,63,689.35332
0,CASO SEM LOCALIZAÇÃO DEFINIDA/BA,-13.415069300066518,-38.14174656569957,10980,73.82473
D0,CASO SEM LOCALIZAÇÃO DEFINIDA/BA,-13.415069300066518,-38.14174656569957,276,1.85570
0,CASO SEM LOCALIZAÇÃO DEFINIDA/CE,-3.3445126297392798,-38.624961942434304,10754,117.76071
0,CASO SEM LOCALIZAÇÃO DEFINIDA/ES,-20.30989267097039,-39.81745156645774,4393,109.31532
D0,CASO SEM LOCALIZAÇÃO DEFINIDA/ES,-20.30989267097039,-39.81745156645774,216,5.37494
0,CASO SEM LOCALIZAÇÃO DEFINIDA/GO,-16.701590966270153,-49.164524059025034,2914,41.51971
D0,CASO SEM LOCALIZAÇÃO DEFINIDA/GO,-16.701590966270153,-49.164524059025034,53,0.75516
0,CASO SEM LOCALIZAÇÃO DEFINIDA/MG,-19.97049116501593,-43.8852149072783,4266,20.15231
D0,CASO SEM LOCALIZAÇÃO DEFINIDA/MG,-19.97049116501593,-43.8852149072783,336,1.58724
0,CASO SEM LOCALIZAÇÃO DEFINIDA/MT,-15.54791153961863,-56.17143998972475,2939,84.34578
D0,CASO SEM LOCALIZAÇÃO DEFINIDA/MT,-15.54791153961863,-56.17143998972475,219,6.28504
0,CASO SEM LOCALIZAÇÃO DEFINIDA/PA,-0.09317078214359542,-48.0050231510481,476,5.53304
D0,CASO SEM LOCALIZAÇÃO DEFINIDA/PA,-0.09317078214359542,-48.0050231510481,24,0.27898
0,CASO SEM LOCALIZAÇÃO DEFINIDA/PI,-2.683810218391744,-41.470898009352254,580,17.71952
D0,CASO SEM LOCALIZAÇÃO DEFINIDA/PI,-2.683810218391744,-41.470898009352254,6,0.18331
0,CASO SEM LOCALIZAÇÃO DEFINIDA/PR,-25.69415946385943,-48.10141676336737,9700,84.83502
D0,CASO SEM LOCALIZAÇÃO DEFINIDA/PR,-25.69415946385943,-48.10141676336737,283,2.47508
0,CASO SEM LOCALIZAÇÃO DEFINIDA/RR,2.813328208465927,-60.663338675861986,2637,435.32020
D0,CASO SEM LOCALIZAÇÃO DEFINIDA/RR,2.813328208465927,-60.663338675861986,15,2.47622
0,CASO SEM LOCALIZAÇÃO DEFINIDA/SP,-24.30968974555485,-46.21366504207253,970,2.11241
1,Caapiranga/AM,-3.3188884,-61.2096404,678,5104.26861
D1,Caapiranga/AM,-3.3188884,-61.2096404,22,165.62524
1,Caaporã/PB,-7.510234,-34.9154114,2054,9355.49989
D1,Caaporã/PB,-7.510234,-34.9154114,32,145.75268
1,Caarapó/MS,-22.6349267,-54.8240903,4051,13241.59121
D1,Caarapó/MS,-22.6349267,-54.8240903,54,176.51097
1,Caatiba/BA,-14.9782759,-40.4092325,933,14380.39457
D1,Caatiba/BA,-14.9782759,-40.4092325,12,184.95684
1,Cabaceiras do Paraguaçu/BA,-12.5377868,-39.1901339,677,3579.92703
D1,Cabaceiras do Paraguaçu/BA,-12.5377868,-39.1901339,5,26.43964
1,Cabaceiras/PB,-7.4899156,-36.2860501,418,7383.85444
D1,Cabaceiras/PB,-7.4899156,-36.2860501,4,70.65889
1,Cabeceira Grande/MG,-16.0297,-47.0906,436,6239.26732
D1,Cabeceira Grande/MG,-16.0297,-47.0906,6,85.86148
1,Cabeceiras do Piauí/PI,-4.4733665,-42.3098716,655,6161.80621
D1,Cabeceiras do Piauí/PI,-4.4733665,-42.3098716,14,131.70273
1,Cabeceiras/GO,-15.7995459,-46.9264991,353,4387.27318
D1,Cabeceiras/GO,-15.7995459,-46.9264991,16,198.85657
1,Cabedelo/PB,-6.97324,-34.8351609,9291,13510.84096
D1,Cabedelo/PB,-6.97324,-34.8351609,198,287.92880
1,Cabixi/RO,-13.4956065,-60.5424442,841,16210.48574
D1,Cabixi/RO,-13.4956065,-60.5424442,20,385.50501
1,Cabo Frio/RJ,-22.8804369,-42.0189227,13729,5959.33639
D1,Cabo Frio/RJ,-22.8804369,-42.0189227,721,312.96391
1,Cabo Verde/MG,-21.4743338,-46.3964995,706,5015.98579
D1,Cabo Verde/MG,-21.4743338,-46.3964995,9,63.94316
1,Cabo de Santo Agostinho/PE,-8.2838945,-35.0320984,8900,4259.51451
D1,Cabo de Santo Agostinho/PE,-8.2838945,-35.0320984,493,235.94839
1,Cabreúva/SP,-23.3075813,-47.1324417,3943,7818.91372
D1,Cabreúva/SP,-23.3075813,-47.1324417,97,192.34964
1,Cabrobó/PE,-8.5083701,-39.3106961,2348,6805.20534
D1,Cabrobó/PE,-8.5083701,-39.3106961,27,78.25406
1,Cabrália Paulista/SP,-22.4562909,-49.3385645,416,9804.38369
D1,Cabrália Paulista/SP,-22.4562909,-49.3385645,8,188.54584
1,Cacaulândia/RO,-10.3380043,-62.9007231,861,13734.24789
D1,Cacaulândia/RO,-10.3380043,-62.9007231,12,191.41809
1,Cacequi/RS,-29.8838059,-54.8273443,782,6294.77582
D1,Cacequi/RS,-29.8838059,-54.8273443,10,80.49585
1,Cachoeira Alta/GO,-18.7618269,-50.9432431,1582,12490.13106
D1,Cachoeira Alta/GO,-18.7618269,-50.9432431,24,189.48366
1,Cachoeira Dourada/GO,-18.4934204,-49.481062,613,7632.92243
D1,Cachoeira Dourada/GO,-18.4934204,-49.481062,26,323.74549
1,Cachoeira Dourada/MG,-18.517136,-49.5002062,165,6097.56098
D1,Cachoeira Dourada/MG,-18.517136,-49.5002062,2,73.90983
1,Cachoeira Grande/MA,-2.9290492,-44.0573223,323,3407.89196
D1,Cachoeira Grande/MA,-2.9290492,-44.0573223,8,84.40599
1,Cachoeira Paulista/SP,-22.666498,-45.015384,2507,7465.53110
D1,Cachoeira Paulista/SP,-22.666498,-45.015384,42,125.07072
1,Cachoeira da Prata/MG,-19.524723,-44.453056,226,6293.51156
D1,Cachoeira da Prata/MG,-19.524723,-44.453056,12,334.16876
1,Cachoeira de Goiás/GO,-16.6688414,-50.6435997,84,6259.31446
D1,Cachoeira de Goiás/GO,-16.6688414,-50.6435997,2,149.03130
1,Cachoeira de Minas/MG,-22.3554043,-45.7796324,909,7850.41886
D1,Cachoeira de Minas/MG,-22.3554043,-45.7796324,15,129.54487
1,Cachoeira de Pajeú/MG,-15.965833,-41.496666,518,5486.12582
D1,Cachoeira de Pajeú/MG,-15.965833,-41.496666,10,105.90976
1,Cachoeira do Arari/PA,-1.0143572,-48.9621089,499,2073.63697
D1,Cachoeira do Arari/PA,-1.0143572,-48.9621089,24,99.73404
1,Cachoeira do Piriá/PA,-1.7599443,-46.5446954,924,2669.82577
D1,Cachoeira do Piriá/PA,-1.7599443,-46.5446954,6,17.33653
1,Cachoeira do Sul/RS,-30.0474778,-52.8905413,10581,12924.30590
D1,Cachoeira do Sul/RS,-30.0474778,-52.8905413,190,232.07808
1,Cachoeira dos Índios/PB,-6.9259193,-38.6742159,887,8607.47210
D1,Cachoeira dos Índios/PB,-6.9259193,-38.6742159,14,135.85638
1,Cachoeira/BA,-12.5998256,-38.9665918,1666,4963.20791
D1,Cachoeira/BA,-12.5998256,-38.9665918,28,83.41526
1,Cachoeiras de Macacu/RJ,-22.4626861,-42.6534414,3194,5385.89953
D1,Cachoeiras de Macacu/RJ,-22.4626861,-42.6534414,97,163.56677
1,Cachoeirinha/PE,-8.4906364,-36.2338963,626,3053.50958
D1,Cachoeirinha/PE,-8.4906364,-36.2338963,32,156.08995
1,Cachoeirinha/RS,-29.9493353,-51.0898927,14709,11207.71106
D1,Cachoeirinha/RS,-29.9493353,-51.0898927,439,334.50168
1,Cachoeirinha/TO,-6.118647,-47.9208885,119,5210.15762
D1,Cachoeirinha/TO,-6.118647,-47.9208885,2,87.56567
1,Cachoeiro de Itapemirim/ES,-20.848084,-41.11129,26982,12812.63504
D1,Cachoeiro de Itapemirim/ES,-20.848084,-41.11129,571,271.14427
1,Cacimba de Areia/PB,-7.1288513,-37.1575194,55,1488.49797
D1,Cacimba de Areia/PB,-7.1288513,-37.1575194,4,108.25440
1,Cacimba de Dentro/PB,-6.6425101,-35.7929304,1203,7003.14356
D1,Cacimba de Dentro/PB,-6.6425101,-35.7929304,34,197.92758
1,Cacimbas/PB,-7.2125451,-37.0593398,243,3375.46882
D1,Cacimbas/PB,-7.2125451,-37.0593398,8,111.12655
1,Cacimbinhas/AL,-9.401212,-36.991082,797,7319.31307
D1,Cacimbinhas/AL,-9.401212,-36.991082,10,91.83580
1,Cacique Doble/RS,-27.7700117,-51.6616409,530,10445.40796
D1,Cacique Doble/RS,-27.7700117,-51.6616409,11,216.79149
1,Cacoal/RO,-11.4333,-61.4420502,13983,16279.55712
D1,Cacoal/RO,-11.4333,-61.4420502,292,339.95785
1,Caconde/SP,-21.527995,-46.643659,1367,7191.33042
D1,Caconde/SP,-21.527995,-46.643659,36,189.38398
1,Caculé/BA,-14.4990734,-42.2233006,2137,9175.21790
D1,Caculé/BA,-14.4990734,-42.2233006,15,64.40256
1,Caetanos/BA,-14.3387456,-40.9085971,678,4641.29244
D1,Caetanos/BA,-14.3387456,-40.9085971,10,68.45564
1,Caetanópolis/MG,-19.2947496,-44.4138386,1047,8911.39671
D1,Caetanópolis/MG,-19.2947496,-44.4138386,16,136.18180
1,Caetité/BA,-14.0691776,-42.4852428,3021,5914.13637
D1,Caetité/BA,-14.0691776,-42.4852428,40,78.30700
1,Caeté/MG,-19.897777,-43.670278,2002,4444.24712
D1,Caeté/MG,-19.897777,-43.670278,68,150.95345
1,Caetés/PE,-8.7728788,-36.6255835,1619,5601.30086
D1,Caetés/PE,-8.7728788,-36.6255835,22,76.11403
1,Cafarnaum/BA,-11.691399,-41.468823,910,4915.46481
D1,Cafarnaum/BA,-11.691399,-41.468823,22,118.83541
1,Cafeara/PR,-22.78905,-51.714195,403,13642.51862
D1,Cafeara/PR,-22.78905,-51.714195,11,372.37644
1,Cafelândia/PR,-24.6176963,-53.3218057,2498,13534.89380
D1,Cafelândia/PR,-24.6176963,-53.3218057,25,135.45730
1,Cafelândia/SP,-21.8054355,-49.6030627,773,4332.23113
D1,Cafelândia/SP,-21.8054355,-49.6030627,37,207.36423
1,Cafezal do Sul/PR,-23.900508,-53.512418,432,10775.75455
D1,Cafezal do Sul/PR,-23.900508,-53.512418,4,99.77551
1,Caiabu/SP,-22.0143038,-51.2356597,297,7083.23396
D1,Caiabu/SP,-22.0143038,-51.2356597,7,166.94491
1,Caiana/MG,-20.695555,-41.924723,153,2761.23443
D1,Caiana/MG,-20.695555,-41.924723,7,126.33099
1,Caiapônia/GO,-16.9538779,-51.8090761,1324,6929.39760
D1,Caiapônia/GO,-16.9538779,-51.8090761,37,193.64631
1,Caibaté/RS,-28.290475,-54.645407,355,7360.56396
D1,Caibaté/RS,-28.290475,-54.645407,7,145.13788
1,Caibi/SC,-27.0751925,-53.2502133,652,10636.21533
D1,Caibi/SC,-27.0751925,-53.2502133,13,212.07178
1,Caicó/RN,-6.4594544,-37.0971911,11837,17319.98888
D1,Caicó/RN,-6.4594544,-37.0971911,140,204.84907
1,Caieiras/SP,-23.3644621,-46.7484765,8615,8382.38871
D1,Caieiras/SP,-23.3644621,-46.7484765,301,292.87278
1,Cairu/BA,-13.4860505,-39.0455744,1488,8075.10718
D1,Cairu/BA,-13.4860505,-39.0455744,16,86.82911
1,Caiuá/SP,-21.8319357,-51.9887179,380,6390.85099
D1,Caiuá/SP,-21.8319357,-51.9887179,8,134.54423
1,Caiçara do Norte/RN,-5.0645017,-36.0561226,527,8032.31215
D1,Caiçara do Norte/RN,-5.0645017,-36.0561226,12,182.89895
1,Caiçara do Rio do Vento/RN,-5.757968,-36.00089,361,9717.36205
D1,Caiçara do Rio do Vento/RN,-5.757968,-36.00089,8,215.34320
1,Caiçara/PB,-6.6146866,-35.4681434,801,11138.92365
D1,Caiçara/PB,-6.6146866,-35.4681434,14,194.68780
1,Caiçara/RS,-27.2750478,-53.4310053,626,13319.14894
D1,Caiçara/RS,-27.2750478,-53.4310053,9,191.48936
1,Cajamar/SP,-23.3561111,-46.8769444,4832,6200.11805
D1,Cajamar/SP,-23.3561111,-46.8769444,227,291.27210
1,Cajapió/MA,-2.8778715,-44.6746871,165,1471.11270
D1,Cajapió/MA,-2.8778715,-44.6746871,7,62.41084
1,Cajari/MA,-3.3213076,-45.0118757,253,1300.70433
D1,Cajari/MA,-3.3213076,-45.0118757,9,46.27011
1,Cajati/SP,-24.7272376,-48.1077914,3651,12813.22384
D1,Cajati/SP,-24.7272376,-48.1077914,101,354.46059
1,Cajazeiras do Piauí/PI,-6.794271,-42.3935024,75,2099.07641
D1,Cajazeiras do Piauí/PI,-6.794271,-42.3935024,1,27.98769
1,Cajazeiras/PB,-6.8897849,-38.5570389,9504,15257.91071
D1,Cajazeiras/PB,-6.8897849,-38.5570389,146,234.39131
1,Cajazeirinhas/PB,-6.961442,-37.7993733,205,6396.25585
D1,Cajazeirinhas/PB,-6.961442,-37.7993733,1,31.20125
1,Cajobi/SP,-20.8776238,-48.8106972,1022,9645.14911
D1,Cajobi/SP,-20.8776238,-48.8106972,31,292.56323
1,Cajueiro da Praia/PI,-2.931114,-41.340801,480,6254.88663
D1,Cajueiro da Praia/PI,-2.931114,-41.340801,20,260.62028
1,Cajueiro/AL,-9.399589,-36.1524309,620,2906.56791
D1,Cajueiro/AL,-9.399589,-36.1524309,29,135.95237
1,Cajuri/MG,-20.7901414,-42.7954489,413,10392.55159
D1,Cajuri/MG,-20.7901414,-42.7954489,4,100.65425
1,Cajuru/SP,-21.2759978,-47.3046035,1856,7032.16762
D1,Cajuru/SP,-21.2759978,-47.3046035,39,147.76645
1,Caldas Brandão/PB,-7.1027959,-35.3254676,590,9758.51803
D1,Caldas Brandão/PB,-7.1027959,-35.3254676,10,165.39861
1,Caldas Novas/GO,-17.745,-48.625,9332,10013.30529
D1,Caldas Novas/GO,-17.745,-48.625,222,238.20765
1,Caldas/MG,-21.923611,-46.386111,985,6773.94952
D1,Caldas/MG,-21.923611,-46.386111,34,233.82161
1,Caldazinha/GO,-16.7116649,-49.0012601,332,8627.85863
D1,Caldazinha/GO,-16.7116649,-49.0012601,10,259.87526
1,Caldeirão Grande do Piauí/PI,-7.3310393,-40.6374433,406,7023.00640
D1,Caldeirão Grande do Piauí/PI,-7.3310393,-40.6374433,2,34.59609
1,Caldeirão Grande/BA,-11.0208483,-40.3041387,569,4249.12254
D1,Caldeirão Grande/BA,-11.0208483,-40.3041387,6,44.80621
1,Califórnia/PR,-23.6672543,-51.3554556,1269,14745.52638
D1,Califórnia/PR,-23.6672543,-51.3554556,35,406.69300
1,Calmon/SC,-26.6023644,-51.0992893,40,1199.40030
D1,Calmon/SC,-26.6023644,-51.0992893,6,179.91004
1,Calumbi/PE,-7.9389746,-38.1516871,735,12789.28136
D1,Calumbi/PE,-7.9389746,-38.1516871,5,87.00191
1,Calçado/PE,-8.7413446,-36.3351787,528,4792.15829
D1,Calçado/PE,-8.7413446,-36.3351787,6,54.45634
1,Calçoene/AP,2.4981757,-50.9539503,1671,14779.76296
D1,Calçoene/AP,2.4981757,-50.9539503,10,88.44861
1,Camacan/BA,-15.4166631,-39.4930088,2956,9235.76829
D1,Camacan/BA,-15.4166631,-39.4930088,81,253.07755
1,Camacho/MG,-20.625556,-45.156667,130,4531.19554
D1,Camacho/MG,-20.625556,-45.156667,2,69.71070
1,Camalaú/PB,-7.885031,-36.824191,446,7395.12519
D1,Camalaú/PB,-7.885031,-36.824191,7,116.06699
1,Camamu/BA,-13.9438142,-39.1060917,2429,6865.07264
D1,Camamu/BA,-13.9438142,-39.1060917,56,158.27257
1,Camanducaia/MG,-22.755278,-46.144444,3234,14834.18192
D1,Camanducaia/MG,-22.755278,-46.144444,67,307.32535
1,Camapuã/MS,-19.5291747,-54.0434641,890,6499.67136
D1,Camapuã/MS,-19.5291747,-54.0434641,30,219.09005
1,Camaquã/RS,-30.8524752,-51.8075619,7082,10653.14841
D1,Camaquã/RS,-30.8524752,-51.8075619,144,216.61301
1,Camaragibe/PE,-8.0213832,-34.9810768,7249,4562.01738
D1,Camaragibe/PE,-8.0213832,-34.9810768,412,259.28420
1,Camargo/RS,-28.5865661,-52.2031474,438,15973.74179
D1,Camargo/RS,-28.5865661,-52.2031474,6,218.81838
1,Camaçari/BA,-12.6998188,-38.3260762,24221,7959.52705
D1,Camaçari/BA,-12.6998188,-38.3260762,611,200.78738
1,Cambará do Sul/RS,-29.0489517,-50.145412,294,4589.44739
D1,Cambará do Sul/RS,-29.0489517,-50.145412,10,156.10365
1,Cambará/PR,-23.042273,-50.075281,2953,11595.85329
D1,Cambará/PR,-23.042273,-50.075281,54,212.04744
1,Cambira/PR,-23.600265,-51.581045,1061,13401.54099
D1,Cambira/PR,-23.600265,-51.581045,26,328.40722
1,Camboriú/SC,-27.0273601,-48.6535657,12767,15001.46877
D1,Camboriú/SC,-27.0273601,-48.6535657,159,186.82804
1,Cambuci/RJ,-21.5749919,-41.9107833,1003,6465.12827
D1,Cambuci/RJ,-21.5749919,-41.9107833,34,219.15689
1,Cambuquira/MG,-21.853056,-45.2953619,812,6337.80830
D1,Cambuquira/MG,-21.853056,-45.2953619,23,179.51920
1,Cambuí/MG,-22.6122501,-46.0572137,3842,12886.56336
D1,Cambuí/MG,-22.6122501,-46.0572137,59,197.89361
1,Cambé/PR,-23.2782035,-51.2779583,11857,11046.10540
D1,Cambé/PR,-23.2782035,-51.2779583,257,239.42389
1,Cametá/PA,-2.242949,-49.497885,9092,6523.92296
D1,Cametá/PA,-2.242949,-49.497885,247,177.23372
1,Camocim de São Félix/PE,-8.3616757,-35.7638903,574,3037.03704
D1,Camocim de São Félix/PE,-8.3616757,-35.7638903,19,100.52910
1,Camocim/CE,-2.9009918,-40.8427389,6231,9750.10562
D1,Camocim/CE,-2.9009918,-40.8427389,162,253.49336
1,Campanha/MG,-21.8361108,-45.401986,1969,11746.80826
D1,Campanha/MG,-21.8361108,-45.401986,34,202.83976
1,Campanário/MG,-18.2398144,-41.7271768,240,6434.31635
D1,Campanário/MG,-18.2398144,-41.7271768,5,134.04826
1,Campestre da Serra/RS,-28.7966535,-51.0958149,267,7864.50663
D1,Campestre da Serra/RS,-28.7966535,-51.0958149,2,58.91016
