type,name,lat,lon,total,total_per_100k_inhabitants
1,Abadia de Goiás/GO,-16.7572644,-49.4412205,1770,19327.36405
D1,Abadia de Goiás/GO,-16.7572644,-49.4412205,37,404.01834
1,Abadia dos Dourados/MG,-18.4911191,-47.4063589,561,7989.17687
D1,Abadia dos Dourados/MG,-18.4911191,-47.4063589,17,242.09627
1,Abadiânia/GO,-16.1940946,-48.7067767,502,2405.02084
D1,Abadiânia/GO,-16.1940946,-48.7067767,42,201.21688
1,Abaetetuba/PA,-1.721828,-48.878843,9298,5795.34901
D1,Abaetetuba/PA,-1.721828,-48.878843,224,139.61693
1,Abaeté/MG,-19.1566833,-45.4481213,1608,6912.26411
D1,Abaeté/MG,-19.1566833,-45.4481213,40,171.94687
1,Abaiara/CE,-7.3607808,-39.0487878,626,5231.92645
D1,Abaiara/CE,-7.3607808,-39.0487878,15,125.36565
1,Abaré/BA,-8.7239913,-39.1139689,1024,4972.32204
D1,Abaré/BA,-8.7239913,-39.1139689,11,53.41362
1,Abatiá/PR,-23.3052967,-50.3102532,1120,15217.39130
D1,Abatiá/PR,-23.3052967,-50.3102532,20,271.73913
1,Abaíra/BA,-13.2503296,-41.6640342,298,3432.78424
D1,Abaíra/BA,-13.2503296,-41.6640342,12,138.23292
1,Abdon Batista/SC,-27.612419,-51.022992,441,17403.31492
D1,Abdon Batista/SC,-27.612419,-51.022992,4,157.85320
1,Abel Figueiredo/PA,-4.953001,-48.3958485,1069,14185.24416
D1,Abel Figueiredo/PA,-4.953001,-48.3958485,11,145.96603
1,Abelardo Luz/SC,-26.5705893,-52.3280339,1685,9353.31668
D1,Abelardo Luz/SC,-26.5705893,-52.3280339,60,333.05579
1,Abre Campo/MG,-20.2976097,-42.4764741,1264,9408.96233
D1,Abre Campo/MG,-20.2976097,-42.4764741,16,119.10079
1,Abreu e Lima/PE,-7.900719,-34.898389,3371,3347.63352
D1,Abreu e Lima/PE,-7.900719,-34.898389,241,239.32948
1,Abreulândia/TO,-9.6221526,-49.1558343,315,12073.59141
D1,Abreulândia/TO,-9.6221526,-49.1558343,6,229.97317
1,Acaiaca/MG,-20.3621646,-43.1444162,231,5782.22778
D1,Acaiaca/MG,-20.3621646,-43.1444162,11,275.34418
1,Acajutiba/BA,-11.6609659,-38.0186381,573,3766.26791
D1,Acajutiba/BA,-11.6609659,-38.0186381,20,131.45787
1,Acarape/CE,-4.2237866,-38.7071663,2837,18738.44122
D1,Acarape/CE,-4.2237866,-38.7071663,32,211.36063
1,Acaraú/CE,-2.8869514,-40.1194713,5129,8070.04846
D1,Acaraú/CE,-2.8869514,-40.1194713,112,176.22254
1,Acari/RN,-6.4364689,-36.6394777,1117,10057.62651
D1,Acari/RN,-6.4364689,-36.6394777,19,171.07870
1,Acará/PA,-1.961388,-48.1987043,1694,3038.89208
D1,Acará/PA,-1.961388,-48.1987043,36,64.58094
1,Acauã/PI,-8.219542,-41.083059,210,2949.85251
D1,Acauã/PI,-8.219542,-41.083059,1,14.04692
1,Aceguá/RS,-31.8695131,-54.1615593,372,7468.37984
D1,Aceguá/RS,-31.8695131,-54.1615593,7,140.53403
1,Acopiara/CE,-6.0936464,-39.4543204,4064,7431.38223
D1,Acopiara/CE,-6.0936464,-39.4543204,150,274.28822
1,Acorizal/MT,-15.2001544,-56.3668953,746,14051.61047
D1,Acorizal/MT,-15.2001544,-56.3668953,22,414.39066
1,Acrelândia/AC,-10.0759167,-67.0526898,1796,11424.20966
D1,Acrelândia/AC,-10.0759167,-67.0526898,37,235.35399
1,Acreúna/GO,-17.3959899,-50.3749031,2591,11409.07089
D1,Acreúna/GO,-17.3959899,-50.3749031,60,264.20079
1,Adamantina/SP,-21.6866517,-51.0762975,3758,10690.41049
D1,Adamantina/SP,-21.6866517,-51.0762975,131,372.65667
1,Adelândia/GO,-16.4155077,-50.1665834,227,9025.84493
D1,Adelândia/GO,-16.4155077,-50.1665834,4,159.04573
1,Adolfo/SP,-21.2356597,-49.6441918,622,17545.83921
D1,Adolfo/SP,-21.2356597,-49.6441918,19,535.96615
1,Adrianópolis/PR,-24.6557863,-48.9912769,1417,24443.67776
D1,Adrianópolis/PR,-24.6557863,-48.9912769,29,500.25875
1,Adustina/BA,-10.5358875,-38.114479,1071,6223.48771
D1,Adustina/BA,-10.5358875,-38.114479,27,156.89465
1,Afogados da Ingazeira/PE,-7.750429,-37.6356375,5223,13910.93592
D1,Afogados da Ingazeira/PE,-7.750429,-37.6356375,73,194.42817
1,Afonso Bezerra/RN,-5.4745,-36.57625071327935,795,7211.53846
D1,Afonso Bezerra/RN,-5.4745,-36.57625071327935,18,163.28012
1,Afonso Cláudio/ES,-20.077841,-41.12606,3560,11739.10176
D1,Afonso Cláudio/ES,-20.077841,-41.12606,62,204.44503
1,Afonso Cunha/MA,-4.1326105,-43.3230026,267,4026.54200
D1,Afonso Cunha/MA,-4.1326105,-43.3230026,3,45.24204
1,Afrânio/PE,-8.5198919,-41.0070197,973,4869.62614
D1,Afrânio/PE,-8.5198919,-41.0070197,15,75.07132
1,Afuá/PA,-0.1535664,-50.3879223,3093,7749.93736
D1,Afuá/PA,-0.1535664,-50.3879223,16,40.09020
1,Agrestina/PE,-8.4558021,-35.9442663,1752,6941.36292
D1,Agrestina/PE,-8.4558021,-35.9442663,67,265.45166
1,Agricolândia/PI,-5.7967843,-42.6605131,545,10638.29787
D1,Agricolândia/PI,-5.7967843,-42.6605131,8,156.15850
1,Agrolândia/SC,-27.4122212,-49.8295774,1686,15107.52688
D1,Agrolândia/SC,-27.4122212,-49.8295774,29,259.85663
1,Agronômica/SC,-27.2660744,-49.7104753,672,12064.63196
D1,Agronômica/SC,-27.2660744,-49.7104753,14,251.34650
1,Aguanil/MG,-20.9424533,-45.3927152,677,14856.26509
D1,Aguanil/MG,-20.9424533,-45.3927152,8,175.55409
1,Aguaí/SP,-22.0592036,-46.979384,3571,9656.31000
D1,Aguaí/SP,-22.0592036,-46.979384,109,294.74595
1,Agudo/RS,-29.6423259,-53.2494005,1838,11245.71708
D1,Agudo/RS,-29.6423259,-53.2494005,29,177.43514
1,Agudos do Sul/PR,-25.9890808,-49.3328175,753,7870.80590
D1,Agudos do Sul/PR,-25.9890808,-49.3328175,30,313.57792
1,Agudos/SP,-22.471162,-48.987822,4669,12423.50061
D1,Agudos/SP,-22.471162,-48.987822,109,290.03246
1,Aguiar/PB,-7.0928404,-38.1727215,532,9462.82462
D1,Aguiar/PB,-7.0928404,-38.1727215,5,88.93632
1,Aguiarnópolis/TO,-6.5600452,-47.4721189,673,9547.45354
D1,Aguiarnópolis/TO,-6.5600452,-47.4721189,13,184.42332
1,Aimorés/MG,-19.4917754,-41.0615603,2081,8285.55502
D1,Aimorés/MG,-19.4917754,-41.0615603,74,294.63290
1,Aiquara/BA,-14.126918,-39.8887574,501,11420.10486
D1,Aiquara/BA,-14.126918,-39.8887574,12,273.53545
1,Aiuaba/CE,-6.5710836,-40.1212278,836,4754.32211
D1,Aiuaba/CE,-6.5710836,-40.1212278,11,62.55687
1,Aiuruoca/MG,-21.9759554,-44.6036637,341,5732.05581
D1,Aiuruoca/MG,-21.9759554,-44.6036637,9,151.28593
1,Ajuricaba/RS,-28.239654,-53.7693013,1280,18414.61660
D1,Ajuricaba/RS,-28.239654,-53.7693013,30,431.59258
1,Alagoa Grande/PB,-7.0415212,-35.6285322,4138,14578.63585
D1,Alagoa Grande/PB,-7.0415212,-35.6285322,72,253.66404
1,Alagoa Nova/PB,-7.0653703,-35.76695977336711,1677,7988.75762
D1,Alagoa Nova/PB,-7.0653703,-35.76695977336711,29,138.14787
1,Alagoa/MG,-22.1697202,-44.6400042,444,16710.57584
D1,Alagoa/MG,-22.1697202,-44.6400042,7,263.45502
1,Alagoinha do Piauí/PI,-7.0090952,-40.939675,391,5092.47200
D1,Alagoinha do Piauí/PI,-7.0090952,-40.939675,10,130.24225
1,Alagoinha/PB,-6.97063215,-35.51490901897793,2079,14211.49771
D1,Alagoinha/PB,-6.97063215,-35.51490901897793,25,170.89343
1,Alagoinha/PE,-8.50355635,-36.77701174370496,1407,9508.04163
D1,Alagoinha/PE,-8.50355635,-36.77701174370496,28,189.21476
1,Alagoinhas/BA,-12.133526,-38.420772,14531,9495.95812
D1,Alagoinhas/BA,-12.133526,-38.420772,322,210.42588
1,Alambari/SP,-23.550338,-47.897971,679,10897.12727
D1,Alambari/SP,-23.550338,-47.897971,12,192.58546
1,Albertina/MG,-20.66164,-43.784039,260,8623.54892
D1,Albertina/MG,-20.66164,-43.784039,9,298.50746
1,Alcantil/PB,-7.7425491,-36.0609604,684,12375.61064
D1,Alcantil/PB,-7.7425491,-36.0609604,8,144.74398
1,Alcinópolis/MS,-18.3264121,-53.7094463,421,7669.88522
D1,Alcinópolis/MS,-18.3264121,-53.7094463,10,182.18255
1,Alcobaça/BA,-17.5215875,-39.1965474,1734,7703.58523
D1,Alcobaça/BA,-17.5215875,-39.1965474,30,133.28002
1,Alcântara/MA,-2.4038956,-44.4154241,336,1518.57543
D1,Alcântara/MA,-2.4038956,-44.4154241,19,85.87183
1,Alcântaras/CE,-3.586247,-40.5457641,1798,15178.11920
D1,Alcântaras/CE,-3.586247,-40.5457641,22,185.71670
1,Aldeias Altas/MA,-4.6291957,-43.4708622,977,3621.33511
D1,Aldeias Altas/MA,-4.6291957,-43.4708622,14,51.89221
1,Alecrim/RS,-27.6566142,-54.7653195,315,5516.63748
D1,Alecrim/RS,-27.6566142,-54.7653195,12,210.15762
1,Alegre/ES,-20.7625787,-41.5318886,3083,10321.73826
D1,Alegre/ES,-20.7625787,-41.5318886,69,231.00874
1,Alegrete do Piauí/PI,-7.2440138,-40.8602296,524,10648.24223
D1,Alegrete do Piauí/PI,-7.2440138,-40.8602296,6,121.92644
1,Alegrete/RS,-29.790166,-55.794862,11081,15285.61378
D1,Alegrete/RS,-29.790166,-55.794862,292,402.79751
1,Alegria/RS,-27.8332103,-54.0574959,396,12047.45969
D1,Alegria/RS,-27.8332103,-54.0574959,4,121.69151
1,Alenquer/PA,-1.946229,-54.738355,3615,6299.00680
D1,Alenquer/PA,-1.946229,-54.738355,143,249.17233
1,Alexandria/RN,-6.414779,-38.0135516,1899,14036.51415
D1,Alexandria/RN,-6.414779,-38.0135516,32,236.52894
1,Alexânia/GO,-16.0834049,-48.5077803,3479,12267.27786
D1,Alexânia/GO,-16.0834049,-48.5077803,86,303.24401
1,Alfenas/MG,-21.4297405,-45.9479419,10710,13226.63110
D1,Alfenas/MG,-21.4297405,-45.9479419,203,250.70085
1,Alfredo Chaves/ES,-20.624970400000002,-40.75006690147988,2624,17886.84390
D1,Alfredo Chaves/ES,-20.624970400000002,-40.75006690147988,37,252.21541
1,Alfredo Marcondes/SP,-21.9527,-51.413956,262,6236.61033
D1,Alfredo Marcondes/SP,-21.9527,-51.413956,13,309.45013
1,Alfredo Vasconcelos/MG,-21.145833,-43.776389,624,8848.55360
D1,Alfredo Vasconcelos/MG,-21.145833,-43.776389,13,184.34487
1,Alfredo Wagner/SC,-27.6961513,-49.3326734,1098,10832.67561
D1,Alfredo Wagner/SC,-27.6961513,-49.3326734,7,69.06077
1,Algodão de Jandaíra/PB,-6.9040175,-36.0089879,252,9737.24884
D1,Algodão de Jandaíra/PB,-6.9040175,-36.0089879,1,38.63988
1,Alhandra/PB,-7.4304246,-34.9106103,2444,12303.04556
D1,Alhandra/PB,-7.4304246,-34.9106103,39,196.32520
1,Aliança do Tocantins/TO,-11.3055927,-48.9409096,727,13709.22120
D1,Aliança do Tocantins/TO,-11.3055927,-48.9409096,21,396.00226
1,Aliança/PE,-7.60398,-35.222696,686,1786.08623
D1,Aliança/PE,-7.60398,-35.222696,64,166.63195
1,Almadina/BA,-14.70466,-39.6381994,636,12061.44510
D1,Almadina/BA,-14.70466,-39.6381994,10,189.64536
1,Almas/TO,-11.5681309,-47.1702803,239,3461.25996
D1,Almas/TO,-11.5681309,-47.1702803,5,72.41130
1,Almeirim/PA,-1.5290377,-52.5788111,3755,11029.84373
D1,Almeirim/PA,-1.5290377,-52.5788111,48,140.99401
1,Almenara/MG,-16.1740678,-40.6904907,4538,10707.88108
D1,Almenara/MG,-16.1740678,-40.6904907,52,122.69939
1,Almino Afonso/RN,-6.1544208,-37.7649018,509,10864.46105
D1,Almino Afonso/RN,-6.1544208,-37.7649018,13,277.48132
1,Almirante Tamandaré do Sul/RS,-28.1141129,-52.9134874,329,17002.58398
D1,Almirante Tamandaré do Sul/RS,-28.1141129,-52.9134874,7,361.75711
1,Almirante Tamandaré/PR,-25.3133048,-49.2997838,10841,8928.51260
D1,Almirante Tamandaré/PR,-25.3133048,-49.2997838,423,348.37753
1,Aloândia/GO,-17.7277983,-49.4809338,327,16548.58300
D1,Aloândia/GO,-17.7277983,-49.4809338,11,556.68016
1,Alpercata/MG,-18.9803616,-41.9827637,500,6713.21160
D1,Alpercata/MG,-18.9803616,-41.9827637,20,268.52846
1,Alpestre/RS,-27.2512339,-53.0349646,549,9328.80204
D1,Alpestre/RS,-27.2512339,-53.0349646,12,203.90824
1,Alpinópolis/MG,-20.863611,-46.387777,1775,8848.89576
D1,Alpinópolis/MG,-20.863611,-46.387777,41,204.39703
1,Alta Floresta D'Oeste/RO,-11.9296917,-61.9961284,4065,18053.82839
D1,Alta Floresta D'Oeste/RO,-11.9296917,-61.9961284,66,293.12489
1,Alta Floresta/MT,-9.8715018,-56.0839881,10075,19335.95624
D1,Alta Floresta/MT,-9.8715018,-56.0839881,145,278.28423
1,Altair/SP,-20.5238955,-49.0606135,334,7931.60769
D1,Altair/SP,-20.5238955,-49.0606135,17,403.70458
1,Altamira do Maranhão/MA,-4.1643006,-45.4674574,348,4218.18182
D1,Altamira do Maranhão/MA,-4.1643006,-45.4674574,14,169.69697
1,Altamira do Paraná/PR,-24.799114,-52.7128633,260,18194.54164
D1,Altamira do Paraná/PR,-24.799114,-52.7128633,12,839.74808
1,Altamira/PA,-3.204065,-52.209961,14125,12039.72042
D1,Altamira/PA,-3.204065,-52.209961,306,260.82509
1,Altaneira/CE,-6.9980933,-39.7385742,679,8804.46058
D1,Altaneira/CE,-6.9980933,-39.7385742,15,194.50207
1,Alterosa/MG,-21.249166,-46.143055,801,5499.10751
D1,Alterosa/MG,-21.249166,-46.143055,34,233.42029
1,Altinho/PE,-8.4904095,-36.0607494,1374,5974.95217
D1,Altinho/PE,-8.4904095,-36.0607494,29,126.10889
1,Altinópolis/SP,-21.021364,-47.3712,1014,6251.15591
D1,Altinópolis/SP,-21.021364,-47.3712,50,308.24240
1,Alto Alegre do Maranhão/MA,-4.2055693,-44.4525287,1351,4813.65353
D1,Alto Alegre do Maranhão/MA,-4.2055693,-44.4525287,29,103.32787
1,Alto Alegre do Pindaré/MA,-3.6698186,-45.8462153,2235,6991.58507
D1,Alto Alegre do Pindaré/MA,-3.6698186,-45.8462153,47,147.02662
1,Alto Alegre dos Parecis/RO,-12.1314515,-61.856265,1489,11222.49020
D1,Alto Alegre dos Parecis/RO,-12.1314515,-61.856265,45,339.16189
1,Alto Alegre/RR,2.98858,-61.307167,1597,10472.81789
D1,Alto Alegre/RR,2.98858,-61.307167,36,236.08105
1,Alto Alegre/RS,-31.780844700000003,-52.81311114489171,211,13270.44025
D1,Alto Alegre/RS,-31.780844700000003,-52.81311114489171,2,125.78616
1,Alto Alegre/SP,-21.5820592,-50.1661976,395,9686.12065
D1,Alto Alegre/SP,-21.5820592,-50.1661976,21,514.95831
1,Alto Araguaia/MT,-17.3156528,-53.2169365,1585,8039.97159
D1,Alto Araguaia/MT,-17.3156528,-53.2169365,29,147.10358
1,Alto Bela Vista/SC,-27.4320737,-51.905771,201,10496.08355
D1,Alto Bela Vista/SC,-27.4320737,-51.905771,3,156.65796
1,Alto Boa Vista/MT,-11.6723985,-51.3744431,857,12084.03835
D1,Alto Boa Vista/MT,-11.6723985,-51.3744431,17,239.70671
1,Alto Caparaó/MG,-20.4405661,-41.8683799,436,7342.53958
D1,Alto Caparaó/MG,-20.4405661,-41.8683799,9,151.56618
1,Alto Feliz/RS,-29.3785943,-51.3123751,312,10253.03976
D1,Alto Feliz/RS,-29.3785943,-51.3123751,2,65.72461
1,Alto Garças/MT,-16.9469683,-53.529427,1134,9202.30463
D1,Alto Garças/MT,-16.9469683,-53.529427,42,340.82610
1,Alto Horizonte/GO,-14.1954948,-49.3366993,1097,16141.84815
D1,Alto Horizonte/GO,-14.1954948,-49.3366993,14,206.00353
1,Alto Jequitibá/MG,-20.423611,-41.966111,953,11501.32754
D1,Alto Jequitibá/MG,-20.423611,-41.966111,11,132.75404
1,Alto Longá/PI,-5.2549051,-42.2072388,695,4836.12831
D1,Alto Longá/PI,-5.2549051,-42.2072388,15,104.37687
1,Alto Paraguai/MT,-14.513712,-56.4936374,923,7965.82377
D1,Alto Paraguai/MT,-14.513712,-56.4936374,29,250.28049
1,Alto Paraná/PR,-23.131247,-52.318893,1272,8511.20776
D1,Alto Paraná/PR,-23.131247,-52.318893,26,173.97123
1,Alto Paraíso de Goiás/GO,-14.1304779,-47.5100161,726,9366.53335
D1,Alto Paraíso de Goiás/GO,-14.1304779,-47.5100161,8,103.21249
1,Alto Paraíso/PR,-23.508137,-53.728537,355,13498.09886
D1,Alto Paraíso/PR,-23.508137,-53.728537,8,304.18251
1,Alto Paraíso/RO,-9.7240103,-63.3188123,1876,8428.43023
D1,Alto Paraíso/RO,-9.7240103,-63.3188123,49,220.14557
1,Alto Parnaíba/MA,-9.112506,-45.9310154,1019,9071.48580
D1,Alto Parnaíba/MA,-9.112506,-45.9310154,11,97.92575
1,Alto Piquiri/PR,-24.0239021,-53.4417448,1092,11232.25674
D1,Alto Piquiri/PR,-24.0239021,-53.4417448,27,277.72063
1,Alto Rio Doce/MG,-21.0239537,-43.4133507,567,5287.69934
D1,Alto Rio Doce/MG,-21.0239537,-43.4133507,29,270.44670
1,Alto Rio Novo/ES,-19.0577208,-41.0171518,787,9948.17343
D1,Alto Rio Novo/ES,-19.0577208,-41.0171518,23,290.73442
1,Alto Santo/CE,-5.5190371,-38.2719351,1940,12066.92791
D1,Alto Santo/CE,-5.5190371,-38.2719351,35,217.70231
1,Alto Taquari/MT,-17.8269099,-53.2831736,1642,14387.10243
D1,Alto Taquari/MT,-17.8269099,-53.2831736,29,254.09621
1,Alto do Rodrigues/RN,-5.290868,-36.7616726,2550,17087.71695
D1,Alto do Rodrigues/RN,-5.290868,-36.7616726,41,274.74368
1,Altos/PI,-5.0393915,-42.4611694,4627,11373.86003
D1,Altos/PI,-5.0393915,-42.4611694,90,221.23350
1,Altônia/PR,-23.8722004,-53.894037,1562,7006.68371
D1,Altônia/PR,-23.8722004,-53.894037,38,170.45709
1,Alumínio/SP,-23.5203479,-47.2575256,1603,8480.13543
D1,Alumínio/SP,-23.5203479,-47.2575256,52,275.08861
1,Alvarenga/MG,-19.4175,-41.728334,514,13587.10019
D1,Alvarenga/MG,-19.4175,-41.728334,4,105.73619
1,Alvarães/AM,-3.214786,-64.8143124,2908,17736.03318
D1,Alvarães/AM,-3.214786,-64.8143124,46,280.55623
1,Alvinlândia/SP,-22.4431852,-49.7643596,141,4337.12704
D1,Alvinlândia/SP,-22.4431852,-49.7643596,9,276.83790
1,Alvinópolis/MG,-20.1105199,-43.0601805,825,5450.94153
D1,Alvinópolis/MG,-20.1105199,-43.0601805,22,145.35844
1,Alvorada D'Oeste/RO,-11.346271,-62.284697,1161,8408.77816
D1,Alvorada D'Oeste/RO,-11.346271,-62.284697,29,210.03839
1,Alvorada de Minas/MG,-18.7318587,-43.3641479,282,7822.46879
D1,Alvorada de Minas/MG,-18.7318587,-43.3641479,3,83.21775
1,Alvorada do Gurguéia/PI,-8.4465288,-43.8655915,449,8209.91040
D1,Alvorada do Gurguéia/PI,-8.4465288,-43.8655915,11,201.13366
1,Alvorada do Norte/GO,-14.483911,-46.4959897,828,9463.93874
D1,Alvorada do Norte/GO,-14.483911,-46.4959897,11,125.72865
1,Alvorada do Sul/PR,-22.7807269,-51.2307721,848,7311.60545
D1,Alvorada do Sul/PR,-22.7807269,-51.2307721,30,258.66529
1,Alvorada/RS,-29.9981184,-51.0772509,22396,10546.63954
D1,Alvorada/RS,-29.9981184,-51.0772509,787,370.61106
1,Alvorada/TO,-12.478465,-49.124926,1467,17503.87782
D1,Alvorada/TO,-12.478465,-49.124926,26,310.22551
1,Além Paraíba/MG,-21.8760576,-42.6810473,3556,10034.42632
D1,Além Paraíba/MG,-21.8760576,-42.6810473,154,434.56177
1,Amajari/RR,3.6523869,-61.4194315,1168,8612.93415
D1,Amajari/RR,3.6523869,-61.4194315,21,154.85584
1,Amambai/MS,-23.1082701,-55.2284854,3297,8191.91493
D1,Amambai/MS,-23.1082701,-55.2284854,83,206.22655
1,Amaporã/PR,-23.094272,-52.786597,464,7244.34036
D1,Amaporã/PR,-23.094272,-52.786597,7,109.28962
1,Amapá do Maranhão/MA,-1.6762114,-46.0109669,172,2440.75493
D1,Amapá do Maranhão/MA,-1.6762114,-46.0109669,6,85.14261
1,Amapá/AP,2.0529997,-50.7930003,1406,15175.39126
D1,Amapá/AP,2.0529997,-50.7930003,13,140.31301
1,Amaraji/PE,-8.373925,-35.4536527,658,2872.10825
D1,Amaraji/PE,-8.373925,-35.4536527,48,209.51550
1,Amaral Ferrador/RS,-30.8750633,-52.2542051,312,4372.19731
D1,Amaral Ferrador/RS,-30.8750633,-52.2542051,10,140.13453
1,Amaralina/GO,-13.9236199,-49.2962411,129,3329.03226
D1,Amaralina/GO,-13.9236199,-49.2962411,2,51.61290
1,Amarante do Maranhão/MA,-5.56913,-46.747284,1602,3812.74246
D1,Amarante do Maranhão/MA,-5.56913,-46.747284,53,126.13942
1,Amarante/PI,-6.2459374,-42.8476238,1584,8995.40008
D1,Amarante/PI,-6.2459374,-42.8476238,35,198.76200
1,Amargosa/BA,-13.03793715,-39.60796443875596,3205,8516.91425
D1,Amargosa/BA,-13.03793715,-39.60796443875596,56,148.81348
1,Amaturá/AM,-3.3640509,-68.1994689,2389,20018.43472
D1,Amaturá/AM,-3.3640509,-68.1994689,18,150.82956
1,Americana/SP,-22.7392463,-47.3306032,26553,10865.90007
D1,Americana/SP,-22.7392463,-47.3306032,818,334.73831
1,Americano do Brasil/GO,-16.2515808,-49.9806104,847,13617.36334
D1,Americano do Brasil/GO,-16.2515808,-49.9806104,23,369.77492
1,Ametista do Sul/RS,-27.3617341,-53.1826575,916,12385.07301
D1,Ametista do Sul/RS,-27.3617341,-53.1826575,23,310.97891
1,Amontada/CE,-3.3634586,-39.8284791,2944,6661.38703
D1,Amontada/CE,-3.3634586,-39.8284791,57,128.97387
1,Amorinópolis/GO,-16.6211308,-51.0949921,363,12055.79542
D1,Amorinópolis/GO,-16.6211308,-51.0949921,6,199.26935
1,Amparo de São Francisco/SE,-10.1299754,-36.9269099,256,10729.25398
D1,Amparo de São Francisco/SE,-10.1299754,-36.9269099,5,209.55574
1,Amparo do Serra/MG,-20.5070255,-42.8028462,169,3639.88800
D1,Amparo do Serra/MG,-20.5070255,-42.8028462,8,172.30239
1,Amparo/PB,-7.56394725,-37.04652873235175,178,7862.19081
D1,Amparo/PB,-7.56394725,-37.04652873235175,4,176.67845
1,Amparo/SP,-22.70111,-46.76444,7483,10230.36434
D1,Amparo/SP,-22.70111,-46.76444,137,187.29920
1,Ampére/PR,-25.9168712,-53.4742414,2476,12719.61369
D1,Ampére/PR,-25.9168712,-53.4742414,58,297.95541
1,Amélia Rodrigues/BA,-12.4015388,-38.7516971,2347,9389.12670
D1,Amélia Rodrigues/BA,-12.4015388,-38.7516971,47,188.02256
1,América Dourada/BA,-11.4515262,-41.4357517,950,5905.75656
D1,América Dourada/BA,-11.4515262,-41.4357517,13,80.81562
1,Américo Brasiliense/SP,-21.7297099,-48.1052092,4242,10210.61500
D1,Américo Brasiliense/SP,-21.7297099,-48.1052092,97,233.48177
1,Américo de Campos/SP,-20.298476,-49.735904,1168,19489.40431
D1,Américo de Campos/SP,-20.298476,-49.735904,35,584.01468
1,Anadia/AL,-9.6830208,-36.3052699,1471,8402.35334
D1,Anadia/AL,-9.6830208,-36.3052699,31,177.07203
1,Anagé/BA,-14.6134669,-41.1376308,1122,5285.22304
D1,Anagé/BA,-14.6134669,-41.1376308,29,136.60559
1,Anahy/PR,-24.6450861,-53.1337957,394,14203.31651
D1,Anahy/PR,-24.6450861,-53.1337957,10,360.49027
1,Anajatuba/MA,-3.26441,-44.6179916,1141,4199.48473
D1,Anajatuba/MA,-3.26441,-44.6179916,27,99.37431
1,Anajás/PA,-0.9878802,-49.9390114,1364,4532.91682
D1,Anajás/PA,-0.9878802,-49.9390114,22,73.11156
1,Analândia/SP,-22.128917,-47.661939,377,7370.47898
D1,Analândia/SP,-22.128917,-47.661939,5,97.75171
1,Anamã/AM,-3.5797356,-61.4049996,1997,13972.85195
D1,Anamã/AM,-3.5797356,-61.4049996,10,69.96921
1,Ananindeua/PA,-1.374035,-48.4016623,25625,4741.77014
D1,Ananindeua/PA,-1.374035,-48.4016623,821,151.92169
1,Ananás/TO,-6.3663053,-48.080238,1660,17594.06465
D1,Ananás/TO,-6.3663053,-48.080238,27,286.16852
1,Anapu/PA,-3.4668292,-51.2057035,1740,5936.13537
D1,Anapu/PA,-3.4668292,-51.2057035,47,160.34389
1,Anapurus/MA,-3.6751298,-43.1046001,831,5176.28005
D1,Anapurus/MA,-3.6751298,-43.1046001,14,87.20568
1,Anastácio/MS,-20.4832458,-55.8048448,2634,10396.27408
D1,Anastácio/MS,-20.4832458,-55.8048448,81,319.70319
1,Anaurilândia/MS,-22.185169,-52.719056,563,6175.95437
D1,Anaurilândia/MS,-22.185169,-52.719056,15,164.54585
1,Anchieta/ES,-20.8057672,-40.6454564,5150,17005.11805
D1,Anchieta/ES,-20.8057672,-40.6454564,90,297.17682
1,Anchieta/SC,-26.5350527,-53.3293938,697,12725.94486
D1,Anchieta/SC,-26.5350527,-53.3293938,11,200.83988
1,Andaraí/BA,-12.8059674,-41.3322919,948,7224.50846
D1,Andaraí/BA,-12.8059674,-41.3322919,10,76.20790
1,Andirá/PR,-23.0494761,-50.2310027,2588,13055.54154
D1,Andirá/PR,-23.0494761,-50.2310027,85,428.79483
1,Andorinha/BA,-10.3445708,-39.8334411,966,6700.88790
D1,Andorinha/BA,-10.3445708,-39.8334411,17,117.92453
1,Andradas/MG,-22.0680484,-46.5688976,4016,9629.77172
D1,Andradas/MG,-22.0680484,-46.5688976,121,290.14003
1,Andradina/SP,-20.896505,-51.3742765,6783,11849.06979
D1,Andradina/SP,-20.896505,-51.3742765,274,478.64442
1,Andrelândia/MG,-21.739722,-44.308889,206,1690.04840
D1,Andrelândia/MG,-21.739722,-44.308889,14,114.85766
1,André da Rocha/RS,-28.6309124,-51.5733328,122,9030.34789
D1,André da Rocha/RS,-28.6309124,-51.5733328,1,74.01925
1,Angatuba/SP,-23.4938938,-48.4110675,3181,12365.88400
D1,Angatuba/SP,-23.4938938,-48.4110675,75,291.55652
1,Angelim/PE,-8.8902038,-36.2872987,231,2044.06690
D1,Angelim/PE,-8.8902038,-36.2872987,11,97.33652
1,Angelina/SC,-27.5805287,-48.9838759,557,11886.47034
D1,Angelina/SC,-27.5805287,-48.9838759,2,42.68032
1,Angelândia/MG,-17.7253,-42.2728,265,3083.54666
D1,Angelândia/MG,-17.7253,-42.2728,4,46.54410
1,Angical do Piauí/PI,-6.0872666,-42.7366138,890,13128.78006
D1,Angical do Piauí/PI,-6.0872666,-42.7366138,12,177.01726
1,Angical/BA,-12.005623,-44.7000236,731,5258.23623
D1,Angical/BA,-12.005623,-44.7000236,19,136.67098
1,Angico/TO,-6.3893733,-47.8656722,237,6820.14388
D1,Angico/TO,-6.3893733,-47.8656722,5,143.88489
1,Angicos/RN,-5.6666344,-36.6009064,1112,9508.33690
D1,Angicos/RN,-5.6666344,-36.6009064,24,205.21590
1,Angra dos Reis/RJ,-23.0063966,-44.316326,14979,7127.05368
D1,Angra dos Reis/RJ,-23.0063966,-44.316326,523,248.84499
1,Anguera/BA,-12.1509425,-39.2452469,498,4380.33248
D1,Anguera/BA,-12.1509425,-39.2452469,2,17.59170
1,Angélica/MS,-22.1588196,-53.7728504,1422,12832.77683
D1,Angélica/MS,-22.1588196,-53.7728504,21,189.51358
1,Anhanguera/GO,-18.3338749,-48.220363,96,8198.12126
D1,Anhanguera/GO,-18.3338749,-48.220363,7,597.77968
1,Anhembi/SP,-22.7891096,-48.1316776,329,4760.52670
D1,Anhembi/SP,-22.7891096,-48.1316776,9,130.22717
1,Anhumas/SP,-22.2956478,-51.3873401,343,8221.47651
D1,Anhumas/SP,-22.2956478,-51.3873401,7,167.78523
1,Anicuns/GO,-16.4606451,-49.9572265,3229,14602.27016
D1,Anicuns/GO,-16.4606451,-49.9572265,67,302.98919
1,Anita Garibaldi/SC,-27.6855032,-51.1293873,1207,17794.48622
D1,Anita Garibaldi/SC,-27.6855032,-51.1293873,10,147.42739
1,Anitápolis/SC,-27.9041185,-49.1287395,355,11014.58269
D1,Anitápolis/SC,-27.9041185,-49.1287395,5,155.13497
1,Anori/AM,-3.7435254,-61.6605203,1914,8724.98518
D1,Anori/AM,-3.7435254,-61.6605203,33,150.43078
1,Anta Gorda/RS,-28.9718745,-52.0069187,643,10823.09376
D1,Anta Gorda/RS,-28.9718745,-52.0069187,5,84.16092
1,Antas/BA,-10.4114649,-38.3308815,1318,6704.30846
D1,Antas/BA,-10.4114649,-38.3308815,13,66.12747
1,Antonina do Norte/CE,-6.7754187,-39.9879345,809,10929.47852
D1,Antonina do Norte/CE,-6.7754187,-39.9879345,26,351.25642
1,Antonina/PR,-25.4298854,-48.7125431,2557,13515.51350
D1,Antonina/PR,-25.4298854,-48.7125431,73,385.85549
1,Antônio Almeida/PI,-7.2186016,-44.1950248,406,12787.40157
D1,Antônio Almeida/PI,-7.2186016,-44.1950248,10,314.96063
1,Antônio Cardoso/BA,-12.4363122,-39.1200307,627,5372.75064
D1,Antônio Cardoso/BA,-12.4363122,-39.1200307,11,94.25878
1,Antônio Carlos/MG,-21.318334,-43.746666,801,6982.82626
D1,Antônio Carlos/MG,-21.318334,-43.746666,16,139.48217
1,Antônio Carlos/SC,-27.5168462,-48.7684715,1655,18996.78604
D1,Antônio Carlos/SC,-27.5168462,-48.7684715,27,309.91736
1,Antônio Dias/MG,-19.6525,-42.872778,597,6465.93740
D1,Antônio Dias/MG,-19.6525,-42.872778,27,292.42933
1,Antônio Gonçalves/BA,-10.5715409,-40.2748824,916,7662.06608
D1,Antônio Gonçalves/BA,-10.5715409,-40.2748824,10,83.64701
1,Antônio João/MS,-22.1892837,-55.9508227,547,6022.90244
D1,Antônio João/MS,-22.1892837,-55.9508227,17,187.18344
1,Antônio Martins/RN,-6.2155812,-37.8890129,688,9606.25524
D1,Antônio Martins/RN,-6.2155812,-37.8890129,7,97.73806
1,Antônio Olinto/PR,-25.9849006,-50.1974516,539,7263.17208
D1,Antônio Olinto/PR,-25.9849006,-50.1974516,14,188.65382
1,Antônio Prado de Minas/MG,-21.0171988,-42.1101106,166,10526.31579
D1,Antônio Prado de Minas/MG,-21.0171988,-42.1101106,5,317.05770
1,Antônio Prado/RS,-28.8567806,-51.2801355,2763,21187.02553
D1,Antônio Prado/RS,-28.8567806,-51.2801355,31,237.71183
1,Anápolis/GO,-16.3332828,-48.9525756,47640,12014.34458
D1,Anápolis/GO,-16.3332828,-48.9525756,1704,429.73222
1,Anísio de Abreu/PI,-9.185643,-43.04941,291,2911.74705
D1,Anísio de Abreu/PI,-9.185643,-43.04941,14,140.08405
1,Aparecida d'Oeste/SP,-20.4498109,-50.8808706,842,20426.97720
D1,Aparecida d'Oeste/SP,-20.4498109,-50.8808706,18,436.68122
1,Aparecida de Goiânia/GO,-16.8226769,-49.2452546,82048,13632.76862
D1,Aparecida de Goiânia/GO,-16.8226769,-49.2452546,1670,277.48054
1,Aparecida do Rio Doce/GO,-18.2980167,-51.1491312,264,10670.97817
D1,Aparecida do Rio Doce/GO,-18.2980167,-51.1491312,4,161.68149
1,Aparecida do Rio Negro/TO,-9.9513491,-47.9773786,392,7998.36768
D1,Aparecida do Rio Negro/TO,-9.9513491,-47.9773786,13,265.25199
1,Aparecida do Taboado/MS,-20.0840304,-51.1013943,3650,13833.09331
D1,Aparecida do Taboado/MS,-20.0840304,-51.1013943,61,231.18320
1,Aparecida/PB,-6.7859598, -38.0831353,1008,11883.98963
D1,Aparecida/PB,-6.7859598, -38.0831353,14,165.05541
1,Aparecida/SP,-22.851552,-45.2340924,2864,7909.19886
D1,Aparecida/SP,-22.851552,-45.2340924,112,309.29828
1,Aperibé/RJ,-21.6211928,-42.1028167,724,6015.28747
D1,Aperibé/RJ,-21.6211928,-42.1028167,30,249.25224
1,Apiacá/ES,-21.152272,-41.569297,948,12569.61018
D1,Apiacá/ES,-21.152272,-41.569297,35,464.06789
1,Apiacás/MT,-9.5678422,-57.394852,1998,19154.44349
D1,Apiacás/MT,-9.5678422,-57.394852,18,172.56255
1,Apiaí/SP,-24.5076527,-48.8461582,1739,7221.46090
D1,Apiaí/SP,-24.5076527,-48.8461582,85,352.97537
1,Apicum-Açu/MA,-1.5279295,-45.082278,542,3082.69821
D1,Apicum-Açu/MA,-1.5279295,-45.082278,11,62.56399
1,Apiúna/SC,-27.0374658,-49.3885037,879,8026.66423
D1,Apiúna/SC,-27.0374658,-49.3885037,18,164.36855
1,Apodi/RN,-5.6631109,-37.796927,6675,18591.24332
D1,Apodi/RN,-5.6631109,-37.796927,97,270.16488
1,Aporá/BA,-11.6599747,-38.0794757,646,3621.07623
D1,Aporá/BA,-11.6599747,-38.0794757,19,106.50224
1,Aporé/GO,-18.9642193,-51.92804,429,10056.25879
D1,Aporé/GO,-18.9642193,-51.92804,10,234.41163
1,Apuarema/BA,-13.8517897,-39.7457126,775,10654.38548
D1,Apuarema/BA,-13.8517897,-39.7457126,11,151.22354
1,Apucarana/PR,-23.5525327,-51.4610764,10719,7799.15307
D1,Apucarana/PR,-23.5525327,-51.4610764,454,330.33077
1,Apuiarés/CE,-3.9460303,-39.4313298,1380,9361.00936
D1,Apuiarés/CE,-3.9460303,-39.4313298,25,169.58350
1,Apuí/AM,-7.1940195,-59.8830192,1478,6499.84608
D1,Apuí/AM,-7.1940195,-59.8830192,31,136.32965
1,Aquidabã/SE,-10.2837579,-37.0188687,2408,11047.89870
D1,Aquidabã/SE,-10.2837579,-37.0188687,40,183.51991
1,Aquidauana/MS,-20.473969,-55.7821375,5659,11744.56251
D1,Aquidauana/MS,-20.473969,-55.7821375,163,338.28657
1,Aquiraz/CE,-3.9063117,-38.387504,6842,8386.75672
D1,Aquiraz/CE,-3.9063117,-38.387504,93,113.99713
1,Arabutã/SC,-27.1587028,-52.1438142,422,9887.53515
D1,Arabutã/SC,-27.1587028,-52.1438142,10,234.30178
1,Aracaju/SE,-10.9162061,-37.0774655,127551,18963.47682
D1,Aracaju/SE,-10.9162061,-37.0774655,2410,358.30357
1,Aracati/CE,-4.558259,-37.767894,8034,10656.30306
D1,Aracati/CE,-4.558259,-37.767894,165,218.85611
1,Aracatu/BA,-14.4274236,-41.4604105,896,6913.58025
D1,Aracatu/BA,-14.4274236,-41.4604105,18,138.88889
1,Araci/BA,-11.3356065,-38.9573261,3707,6751.90791
D1,Araci/BA,-11.3356065,-38.9573261,53,96.53389
1,Aracitaba/MG,-21.3425,-43.378611,91,4426.07004
D1,Aracitaba/MG,-21.3425,-43.378611,10,486.38132
1,Aracoiaba/CE,-4.3702577,-38.8084313,4302,16172.93233
D1,Aracoiaba/CE,-4.3702577,-38.8084313,35,131.57895
1,Aracruz/ES,-19.8245218,-40.2735025,17057,16253.74016
D1,Aracruz/ES,-19.8245218,-40.2735025,233,222.02741
1,Aragarças/GO,-15.8957166,-52.2514538,3240,15874.57129
D1,Aragarças/GO,-15.8957166,-52.2514538,75,367.46693
1,Aragoiânia/GO,-16.9146388,-49.4499148,1441,13492.50936
D1,Aragoiânia/GO,-16.9146388,-49.4499148,27,252.80899
1,Aragominas/TO,-7.1654101,-48.525488,567,9938.65031
D1,Aragominas/TO,-7.1654101,-48.525488,11,192.81332
1,Araguacema/TO,-8.8067391,-49.5560969,767,10618.85643
D1,Araguacema/TO,-8.8067391,-49.5560969,15,207.66994
1,Araguaiana/MT,-15.729144,-51.834112,395,12891.64491
D1,Araguaiana/MT,-15.729144,-51.834112,7,228.45953
1,Araguainha/MT,-16.857016,-53.031778,29,3190.31903
D1,Araguainha/MT,-16.857016,-53.031778,1,110.01100
1,Araguanã/MA,-2.9508403,-45.6651986,810,5167.46411
D1,Araguanã/MA,-2.9508403,-45.6651986,5,31.89793
1,Araguanã/TO,-6.5799107,-48.6428482,583,9955.60109
D1,Araguanã/TO,-6.5799107,-48.6428482,16,273.22404
1,Araguapaz/GO,-15.0937927,-50.626417,703,9018.60167
D1,Araguapaz/GO,-15.0937927,-50.626417,29,372.03335
1,Araguari/MG,-18.6511256,-48.1933764,18547,15669.85747
D1,Araguari/MG,-18.6511256,-48.1933764,449,379.34793
1,Araguatins/TO,-5.6522925,-48.1158973,2519,6887.59467
D1,Araguatins/TO,-5.6522925,-48.1158973,67,183.19525
1,Araguaçu/TO,-12.928934,-49.823134,929,11035.87550
D1,Araguaçu/TO,-12.928934,-49.823134,21,249.46543
1,Araguaína/TO,-7.193241,-48.2018597,36886,19805.09544
D1,Araguaína/TO,-7.193241,-48.2018597,515,276.51749
1,Araioses/MA,-2.890914,-41.904993,683,1450.26011
D1,Araioses/MA,-2.890914,-41.904993,15,31.85051
1,Aral Moreira/MS,-22.951141,-55.6268421,560,4476.06107
D1,Aral Moreira/MS,-22.951141,-55.6268421,16,127.88746
1,Aramari/BA,-12.0907897,-38.4985065,672,5833.83974
D1,Aramari/BA,-12.0907897,-38.4985065,13,112.85702
1,Arambaré/RS,-30.9132252,-51.4994625,227,6405.19187
D1,Arambaré/RS,-30.9132252,-51.4994625,8,225.73363
1,Arame/MA,-4.8858769,-46.0102484,1563,4761.61462
D1,Arame/MA,-4.8858769,-46.0102484,42,127.95126
1,Aramina/SP,-20.0876144,-47.789201,360,6328.00141
D1,Aramina/SP,-20.0876144,-47.789201,18,316.40007
1,Arandu/SP,-23.1345103,-49.0545651,621,9744.23349
D1,Arandu/SP,-23.1345103,-49.0545651,19,298.13275
1,Arantina/MG,-21.911667,-44.255833,222,7988.48507
D1,Arantina/MG,-21.911667,-44.255833,4,143.93667
1,Arapeí/SP,-22.6738889,-44.4477778,255,10399.67374
D1,Arapeí/SP,-22.6738889,-44.4477778,3,122.34910
1,Arapiraca/AL,-9.754866,-36.661471,31039,13247.03703
D1,Arapiraca/AL,-9.754866,-36.661471,524,223.63631
1,Arapoema/TO,-7.6575001,-49.0641484,517,7845.22003
D1,Arapoema/TO,-7.6575001,-49.0641484,12,182.09408
1,Araponga/MG,-20.666667,-42.520556,683,8066.61155
D1,Araponga/MG,-20.666667,-42.520556,12,141.72670
1,Arapongas/PR,-23.415296,-51.42592,13810,10913.11391
D1,Arapongas/PR,-23.415296,-51.42592,570,450.43265
1,Araporã/MG,-18.4318188,-49.188313,2056,29405.03432
D1,Araporã/MG,-18.4318188,-49.188313,40,572.08238
1,Arapoti/PR,-24.1457957,-49.8224605,3237,11365.87079
D1,Arapoti/PR,-24.1457957,-49.8224605,64,224.71910
1,Araputanga/MT,-15.4710868,-58.346796,2111,12360.93219
D1,Araputanga/MT,-15.4710868,-58.346796,55,322.05176
1,Arapuá/MG,-19.034444,-46.155556,289,10190.40903
D1,Arapuá/MG,-19.034444,-46.155556,3,105.78279
1,Arapuã/PR,-24.3079525,-51.7901941,263,8912.23314
D1,Arapuã/PR,-24.3079525,-51.7901941,7,237.20773
1,Araquari/SC,-26.3703324,-48.7210994,4088,9997.55441
D1,Araquari/SC,-26.3703324,-48.7210994,84,205.42920
1,Arara/PB,-6.8271895,-35.7605703,1042,7654.44795
D1,Arara/PB,-6.8271895,-35.7605703,29,213.03166
1,Araranguá/SC,-28.9348832,-49.4858389,10994,15820.29845
D1,Araranguá/SC,-28.9348832,-49.4858389,250,359.74846
1,Araraquara/SP,-21.7886713,-48.1773096,25131,10447.65571
D1,Araraquara/SP,-21.7886713,-48.1773096,505,209.94255
1,Araras/SP,-22.3569477,-47.3838889,18125,13255.17958
D1,Araras/SP,-22.3569477,-47.3838889,394,288.14018
1,Ararendá/CE,-4.7504395,-40.8303611,1416,12892.65228
D1,Ararendá/CE,-4.7504395,-40.8303611,22,200.30957
1,Arari/MA,-3.4547602,-44.7772723,1001,3335.11028
D1,Arari/MA,-3.4547602,-44.7772723,34,113.28047
1,Araricá/RS,-29.6168543,-50.929121,1018,17431.50685
D1,Araricá/RS,-29.6168543,-50.929121,27,462.32877
1,Araripe/CE,-7.212861,-40.1359222,1366,6292.90091
D1,Araripe/CE,-7.212861,-40.1359222,23,105.95660
1,Araripina/PE,-7.5768582,-40.5038509,7562,8865.07778
D1,Araripina/PE,-7.5768582,-40.5038509,159,186.39875
1,Araruama/RJ,-22.8733203,-42.3428897,6816,5007.75114
D1,Araruama/RJ,-22.8733203,-42.3428897,468,343.84207
1,Araruna/PB,-6.5321155,-35.7397595,710,3444.92965
D1,Araruna/PB,-6.5321155,-35.7397595,17,82.48423
1,Araruna/PR,-23.9320308,-52.4976047,2160,15396.67831
D1,Araruna/PR,-23.9320308,-52.4976047,36,256.61131
1,Arataca/BA,-15.2617424,-39.4122943,790,7245.04769
D1,Arataca/BA,-15.2617424,-39.4122943,15,137.56420
1,Aratiba/RS,-27.3955734,-52.3024325,454,7388.12042
D1,Aratiba/RS,-27.3955734,-52.3024325,7,113.91375
1,Aratuba/CE,-4.4195958,-39.0463737,1649,14023.30130
D1,Aratuba/CE,-4.4195958,-39.0463737,12,102.04949
1,Aratuípe/BA,-13.077137,-39.0010786,488,5515.37071
D1,Aratuípe/BA,-13.077137,-39.0010786,11,124.32188
1,Araucária/PR,-25.5861107,-49.4051209,28342,19082.69482
D1,Araucária/PR,-25.5861107,-49.4051209,506,340.69027
1,Arauá/SE,-11.2644014,-37.6181058,1291,13119.91870
D1,Arauá/SE,-11.2644014,-37.6181058,22,223.57724
1,Araxá/MG,-19.5928536,-46.940241,14530,13403.68809
D1,Araxá/MG,-19.5928536,-46.940241,237,218.62864
1,Araçagi/PB,-6.8519969,-35.3835602,1719,10197.54405
D1,Araçagi/PB,-6.8519969,-35.3835602,25,148.30634
1,Araçariguama/SP,-23.438611,-47.061389,2081,8914.87812
D1,Araçariguama/SP,-23.438611,-47.061389,69,295.59183
1,Araçatuba/SP,-21.207992,-50.4390225,29996,15057.47703
D1,Araçatuba/SP,-21.207992,-50.4390225,903,453.29050
1,Araçaí/MG,-19.200833,-44.2475,104,4406.77966
D1,Araçaí/MG,-19.200833,-44.2475,1,42.37288
1,Araçoiaba da Serra/SP,-23.5045367,-47.6168158,3064,8658.05759
D1,Araçoiaba da Serra/SP,-23.5045367,-47.6168158,83,234.53616
1,Araçoiaba/PE,-7.7856903,-35.0898881,680,3247.99389
D1,Araçoiaba/PE,-7.7856903,-35.0898881,32,152.84677
1,Araçu/GO,-16.3561579,-49.6815269,499,14463.76812
D1,Araçu/GO,-16.3561579,-49.6815269,18,521.73913
1,Araçuaí/MG,-16.8484451,-42.0661868,2009,5471.87798
D1,Araçuaí/MG,-16.8484451,-42.0661868,52,141.63149
1,Araçás/BA,-12.2139176,-38.2026159,717,5859.27924
D1,Araçás/BA,-12.2139176,-38.2026159,17,138.92294
1,Araújos/MG,-19.948055,-45.165556,947,9944.34527
D1,Araújos/MG,-19.948055,-45.165556,14,147.01250
1,Arceburgo/MG,-21.364444,-46.939722,1277,11619.65423
D1,Arceburgo/MG,-21.364444,-46.939722,34,309.37216
1,Arco-Íris/SP,-21.7741308,-50.4668814,165,9401.70940
D1,Arco-Íris/SP,-21.7741308,-50.4668814,8,455.84046
1,Arcos/MG,-20.282223,-45.539444,6067,14922.03256
D1,Arcos/MG,-20.282223,-45.539444,112,275.46854
1,Arcoverde/PE,-8.415192,-37.057748,7243,9619.49665
D1,Arcoverde/PE,-8.415192,-37.057748,135,179.29477
1,Areado/MG,-21.3582771,-46.1476688,1220,7980.11512
D1,Areado/MG,-21.3582771,-46.1476688,30,196.23234
1,Areal/RJ,-22.2314922,-43.1056264,1619,12685.10538
D1,Areal/RJ,-22.2314922,-43.1056264,51,399.59257
1,Arealva/SP,-22.0301906,-48.9111936,1008,11633.00635
D1,Arealva/SP,-22.0301906,-48.9111936,20,230.81362
1,Areia Branca/RN,-4.9506652,-37.1263312,2986,10605.19960
D1,Areia Branca/RN,-4.9506652,-37.1263312,98,348.06080
1,Areia Branca/SE,-10.7591455,-37.3148072,2099,11150.06640
D1,Areia Branca/SE,-10.7591455,-37.3148072,48,254.98008
1,Areia de Baraúnas/PB,-7.1233949,-36.9446216,220,10451.30641
D1,Areia de Baraúnas/PB,-7.1233949,-36.9446216,4,190.02375
1,Areia/PB,-6.9680243,-35.6994783,1987,8833.85942
D1,Areia/PB,-6.9680243,-35.6994783,32,142.26648
1,Areial/PB,-7.0501306,-35.9245244,391,5542.95435
D1,Areial/PB,-7.0501306,-35.9245244,12,170.11625
1,Areias/SP,-22.5800929,-44.6975127,366,9370.19969
D1,Areias/SP,-22.5800929,-44.6975127,2,51.20328
1,Areiópolis/SP,-22.6758064,-48.6673653,1403,12542.46379
D1,Areiópolis/SP,-22.6758064,-48.6673653,21,187.73467
1,Arenápolis/MT,-14.4610369,-56.8432806,1901,20225.55591
D1,Arenápolis/MT,-14.4610369,-56.8432806,38,404.29833
1,Arenópolis/GO,-16.3859286,-51.55937,329,13363.11942
D1,Arenópolis/GO,-16.3859286,-51.55937,8,324.93907
1,Argirita/MG,-21.612761,-42.8371922,283,10555.76278
D1,Argirita/MG,-21.612761,-42.8371922,9,335.69564
1,Aricanduva/MG,-17.8678,-42.5569,149,2808.67107
1,Arinos/MG,-15.917223,-46.106111,1001,5607.84314
D1,Arinos/MG,-15.917223,-46.106111,28,156.86275
1,Aripuanã/MT,-10.175806,-59.4439663,3200,13872.63190
D1,Aripuanã/MT,-10.175806,-59.4439663,49,212.42468
1,Ariquemes/RO,-9.9076522,-63.033069,22544,20282.86609
D1,Ariquemes/RO,-9.9076522,-63.033069,494,444.45244
1,Ariranha do Ivaí/PR,-24.3834527,-51.5876772,180,8884.50148
D1,Ariranha do Ivaí/PR,-24.3834527,-51.5876772,4,197.43337
1,Ariranha/SP,-21.18716,-48.790418,1013,10283.21998
D1,Ariranha/SP,-21.18716,-48.790418,26,263.93260
1,Armazém/SC,-28.2624996,-49.0190126,1448,16374.53353
D1,Armazém/SC,-28.2624996,-49.0190126,34,384.48490
1,Armação dos Búzios/RJ,-22.7597805,-41.8875267,5116,14592.12778
D1,Armação dos Búzios/RJ,-22.7597805,-41.8875267,69,196.80548
1,Arneiroz/CE,-6.3235099,-40.1603859,673,8575.43323
D1,Arneiroz/CE,-6.3235099,-40.1603859,17,216.61570
1,Aroazes/PI,-6.1108814,-41.7886137,603,10362.60526
D1,Aroazes/PI,-6.1108814,-41.7886137,12,206.22100
1,Aroeiras do Itaim/PI,-7.2797031,-41.5629681,172,6742.45394
D1,Aroeiras do Itaim/PI,-7.2797031,-41.5629681,2,78.40063
1,Aroeiras/PB,-7.5462904,-35.7080002,1936,10146.21875
D1,Aroeiras/PB,-7.5462904,-35.7080002,16,83.85305
1,Arraial do Cabo/RJ,-22.9662839,-42.024427,819,2656.76193
D1,Arraial do Cabo/RJ,-22.9662839,-42.024427,42,136.24420
1,Arraial/PI,-6.6541632,-42.5335332,170,3607.04435
D1,Arraial/PI,-6.6541632,-42.5335332,3,63.65372
1,Arraias/TO,-12.9287788,-46.9437231,1129,10750.33327
D1,Arraias/TO,-12.9287788,-46.9437231,13,123.78595
1,Arroio Grande/RS,-32.2384246,-53.0866661,2082,11448.99643
D1,Arroio Grande/RS,-32.2384246,-53.0866661,54,296.94803
1,Arroio Trinta/SC,-26.9301976,-51.334928,617,17394.98167
D1,Arroio Trinta/SC,-26.9301976,-51.334928,14,394.69975
1,Arroio do Meio/RS,-29.4020392,-51.9444993,3165,14985.08593
D1,Arroio do Meio/RS,-29.4020392,-51.9444993,47,222.52734
1,Arroio do Padre/RS,-31.4428773,-52.4228985,248,8361.42953
D1,Arroio do Padre/RS,-31.4428773,-52.4228985,4,134.86177
1,Arroio do Sal/RS,-29.549852,-49.8874395,1178,11237.24125
D1,Arroio do Sal/RS,-29.549852,-49.8874395,40,381.57016
1,Arroio do Tigre/RS,-29.334158,-53.0888935,1248,9277.43087
D1,Arroio do Tigre/RS,-29.334158,-53.0888935,22,163.54445
1,Arroio dos Ratos/RS,-30.0894524,-51.7265541,1134,7985.35314
D1,Arroio dos Ratos/RS,-30.0894524,-51.7265541,37,260.54503
1,Artur Nogueira/SP,-22.572737,-47.172679,5433,9659.18182
D1,Artur Nogueira/SP,-22.572737,-47.172679,143,254.23578
1,Aruanã/GO,-14.9162439,-51.0715692,778,7524.17795
D1,Aruanã/GO,-14.9162439,-51.0715692,18,174.08124
1,Arujá/SP,-23.396266,-46.3175449,8290,8966.71822
D1,Arujá/SP,-23.396266,-46.3175449,331,358.01975
1,Arvoredo/SC,-27.0752908,-52.4571847,338,15170.55655
D1,Arvoredo/SC,-27.0752908,-52.4571847,5,224.41652
1,Arvorezinha/RS,-28.87369,-52.17808,892,8558.81789
D1,Arvorezinha/RS,-28.87369,-52.17808,28,268.66244
1,Arês/RN,-6.1969216,-35.1642968,1139,7841.11249
D1,Arês/RN,-6.1969216,-35.1642968,25,172.10519
1,Ascurra/SC,-26.9569975,-49.3767752,1295,16145.11906
D1,Ascurra/SC,-26.9569975,-49.3767752,13,162.07455
1,Aspásia/SP,-20.160028,-50.728046,212,11680.44077
D1,Aspásia/SP,-20.160028,-50.728046,8,440.77135
1,Assaré/CE,-6.8746791,-39.8741385,2339,9937.54514
D1,Assaré/CE,-6.8746791,-39.8741385,42,178.44245
1,Assaí/PR,-23.3736041,-50.8454929,1450,9802.59600
D1,Assaí/PR,-23.3736041,-50.8454929,52,351.54137
1,Assis Brasil/AC,-10.9409203,-69.5672108,1829,23911.62243
D1,Assis Brasil/AC,-10.9409203,-69.5672108,24,313.76651
1,Assis Chateaubriand/PR,-24.4054826,-53.5120468,5110,15342.58092
D1,Assis Chateaubriand/PR,-24.4054826,-53.5120468,122,366.30037
1,Assis/SP,-22.6620892,-50.420623,11723,11083.69261
D1,Assis/SP,-22.6620892,-50.420623,408,385.74994
1,Assunção do Piauí/PI,-5.8610212,-41.0485091,345,4378.72827
D1,Assunção do Piauí/PI,-5.8610212,-41.0485091,8,101.53573
1,Assunção/PB,-7.073396,-36.7274003,421,10351.61052
D1,Assunção/PB,-7.073396,-36.7274003,5,122.94074
1,Astolfo Dutra/MG,-21.3132636,-42.8624102,1382,9625.29600
D1,Astolfo Dutra/MG,-21.3132636,-42.8624102,27,188.04847
1,Astorga/PR,-23.2350184,-51.6647074,3471,13195.71168
D1,Astorga/PR,-23.2350184,-51.6647074,89,338.35158
1,Atalaia do Norte/AM,-4.3658547,-70.1908742,2826,13542.26567
D1,Atalaia do Norte/AM,-4.3658547,-70.1908742,10,47.92026
1,Atalaia/AL,-9.5029595,-36.0219316,1240,2608.32983
D1,Atalaia/AL,-9.5029595,-36.0219316,51,107.27808
1,Atalaia/PR,-23.1513833,-52.0529697,452,11676.56936
D1,Atalaia/PR,-23.1513833,-52.0529697,22,568.32860
1,Atalanta/SC,-27.421916,-49.778863,503,15822.58572
D1,Atalanta/SC,-27.421916,-49.778863,11,346.02076
1,Ataléia/MG,-18.04432,-41.1110524,1189,9515.04481
D1,Ataléia/MG,-18.04432,-41.1110524,10,80.02561
1,Atibaia/SP,-23.1177393,-46.5547861,12521,8612.71994
D1,Atibaia/SP,-23.1177393,-46.5547861,278,191.22563
1,Atilio Vivacqua/ES,-20.9139369,-41.1947519,1635,13325.18337
D1,Atilio Vivacqua/ES,-20.9139369,-41.1947519,29,236.34882
1,Augustinópolis/TO,-5.4662267,-47.8897519,1768,9369.36937
D1,Augustinópolis/TO,-5.4662267,-47.8897519,32,169.58135
1,Augusto Corrêa/PA,-1.0229335,-46.6404029,2032,4329.20724
D1,Augusto Corrêa/PA,-1.0229335,-46.6404029,50,106.52577
1,Augusto Pestana/RS,-28.5148413,-53.9906433,859,13124.52254
D1,Augusto Pestana/RS,-28.5148413,-53.9906433,13,198.62490
1,Augusto de Lima/MG,-18.1092963,-44.2651945,307,6352.16222
D1,Augusto de Lima/MG,-18.1092963,-44.2651945,10,206.91082
1,Aurelino Leal/BA,-14.3167137,-39.3256107,1032,9314.92012
D1,Aurelino Leal/BA,-14.3167137,-39.3256107,33,297.86082
1,Auriflama/SP,-20.6840418,-50.5554616,2068,13502.21990
D1,Auriflama/SP,-20.6840418,-50.5554616,72,470.09663
1,Aurilândia/GO,-16.6772599,-50.4641231,354,11800.00000
D1,Aurilândia/GO,-16.6772599,-50.4641231,10,333.33333
1,Aurora do Pará/PA,-2.1323199,-47.558436,1693,5257.76398
D1,Aurora do Pará/PA,-2.1323199,-47.558436,15,46.58385
1,Aurora do Tocantins/TO,-12.71045,-46.407604,279,7324.75715
D1,Aurora do Tocantins/TO,-12.71045,-46.407604,6,157.52166
1,Aurora/CE,-6.9426019,-38.9693765,1818,7400.17096
D1,Aurora/CE,-6.9426019,-38.9693765,38,154.67904
1,Aurora/SC,-27.3166417,-49.6368502,887,15596.97556
D1,Aurora/SC,-27.3166417,-49.6368502,16,281.34341
1,Autazes/AM,-3.5833283,-59.1301518,2902,7077.18571
D1,Autazes/AM,-3.5833283,-59.1301518,95,231.67906
1,Avanhandava/SP,-21.4603331,-49.9465156,1191,8469.03221
D1,Avanhandava/SP,-21.4603331,-49.9465156,43,305.76691
1,Avaré/SP,-23.1045215,-48.9259103,11575,12610.03138
D1,Avaré/SP,-23.1045215,-48.9259103,276,300.67980
1,Avaí/SP,-22.1564662,-49.3316395,486,8889.70185
D1,Avaí/SP,-22.1564662,-49.3316395,12,219.49881
1,Aveiro/PA,-3.6049239,-55.3310742,849,5170.20888
D1,Aveiro/PA,-3.6049239,-55.3310742,14,85.25668
1,Avelino Lopes/PI,-10.1346855,-43.9489525,455,4004.92914
D1,Avelino Lopes/PI,-10.1346855,-43.9489525,19,167.23880
1,Avelinópolis/GO,-16.4672409,-49.7578661,342,14244.06497
D1,Avelinópolis/GO,-16.4672409,-49.7578661,15,624.73969
1,Axixá do Tocantins/TO,-5.612747,-47.77007,1043,10624.42701
D1,Axixá do Tocantins/TO,-5.612747,-47.77007,21,213.91464
1,Axixá/MA,-2.8379465,-44.0561053,192,1569.39676
D1,Axixá/MA,-2.8379465,-44.0561053,8,65.39153
1,Açailândia/MA,-4.9514278,-47.4844564,5661,4975.25992
D1,Açailândia/MA,-4.9514278,-47.4844564,240,210.92782
1,Açu/RN,-5.5836157,-36.9139541,8204,13965.91934
D1,Açu/RN,-5.5836157,-36.9139541,148,251.94491
1,Açucena/MG,-19.073056,-42.546666,806,8694.71413
D1,Açucena/MG,-19.073056,-42.546666,35,377.56203
1,Babaçulândia/TO,-7.2034355,-47.761613,883,8277.09036
D1,Babaçulândia/TO,-7.2034355,-47.761613,8,74.99063
1,Bacabal/MA,-4.2318132,-44.781167,5587,5316.19312
D1,Bacabal/MA,-4.2318132,-44.781167,200,190.30582
1,Bacabeira/MA,-2.9775747,-44.3155943,398,2281.32523
D1,Bacabeira/MA,-2.9775747,-44.3155943,10,57.31973
1,Bacuri/MA,-1.728894,-45.1417148,618,3300.22429
D1,Bacuri/MA,-1.728894,-45.1417148,4,21.36067
1,Bacurituba/MA,-2.7082587,-44.7381309,117,2054.07303
D1,Bacurituba/MA,-2.7082587,-44.7381309,2,35.11236
1,Bady Bassitt/SP,-20.9178969,-49.4517911,4118,22861.26686
D1,Bady Bassitt/SP,-20.9178969,-49.4517911,82,455.22678
1,Baependi/MG,-21.959162,-44.8899249,1567,8140.68263
D1,Baependi/MG,-21.959162,-44.8899249,32,166.24240
1,Bagre/PA,-1.8994498,-50.2103844,936,2928.01952
D1,Bagre/PA,-1.8994498,-50.2103844,12,37.53871
1,Bagé/RS,-31.3314264,-54.1062808,11549,9503.94180
D1,Bagé/RS,-31.3314264,-54.1062808,292,240.29362
1,Baianópolis/BA,-12.3067564,-44.5383591,936,6695.75792
D1,Baianópolis/BA,-12.3067564,-44.5383591,18,128.76458
1,Baixa Grande do Ribeiro/PI,-7.862861,-45.2113289,2667,22695.94077
D1,Baixa Grande do Ribeiro/PI,-7.862861,-45.2113289,33,280.82716
1,Baixa Grande/BA,-11.9630941,-40.1657537,890,4356.12550
D1,Baixa Grande/BA,-11.9630941,-40.1657537,16,78.31237
1,Baixio/CE,-6.7303544,-38.7170095,717,11348.52802
D1,Baixio/CE,-6.7303544,-38.7170095,13,205.76132
1,Baixo Guandu/ES,-19.5138322,-41.0182089,3838,12276.49298
D1,Baixo Guandu/ES,-19.5138322,-41.0182089,82,262.29089
1,Baião/PA,-2.7903479,-49.6702845,805,1627.77531
D1,Baião/PA,-2.7903479,-49.6702845,38,76.83908
1,Balbinos/SP,-21.9006253,-49.3583966,371,6055.16566
D1,Balbinos/SP,-21.9006253,-49.3583966,4,65.28480
1,Baldim/MG,-19.2913568,-43.9558262,674,8663.23907
D1,Baldim/MG,-19.2913568,-43.9558262,22,282.77635
1,Baliza/GO,-16.1978119,-52.542789,489,9025.47065
D1,Baliza/GO,-16.1978119,-52.542789,9,166.11296
1,Balneário Arroio do Silva/SC,-28.9815269,-49.4189932,2168,15730.66318
D1,Balneário Arroio do Silva/SC,-28.9815269,-49.4189932,58,420.83878
1,Balneário Barra do Sul/SC,-26.459842,-48.6061471,1526,13539.17132
D1,Balneário Barra do Sul/SC,-26.459842,-48.6061471,47,416.99938
1,Balneário Camboriú/SC,-26.9924395,-48.6339782,26697,17890.19413
D1,Balneário Camboriú/SC,-26.9924395,-48.6339782,404,270.72849
1,Balneário Gaivota/SC,-29.1553098,-49.5808712,1352,11718.81772
D1,Balneário Gaivota/SC,-29.1553098,-49.5808712,38,329.37505
1,Balneário Pinhal/RS,-30.2482978,-50.234585,1022,6978.49095
D1,Balneário Pinhal/RS,-30.2482978,-50.234585,51,348.24172
1,Balneário Piçarras/SC,-26.7638889,-48.6716667,5388,22095.55054
D1,Balneário Piçarras/SC,-26.7638889,-48.6716667,58,237.85114
1,Balneário Rincão/SC,-28.8235718,-49.2241642,1491,11356.53896
D1,Balneário Rincão/SC,-28.8235718,-49.2241642,52,396.06977
1,Balsa Nova/PR,-25.5842234,-49.6312741,1735,13106.20940
D1,Balsa Nova/PR,-25.5842234,-49.6312741,35,264.39039
1,Balsas/MA,-7.53214,-46.037163,12653,13050.92263
D1,Balsas/MA,-7.53214,-46.037163,206,212.47847
1,Bambuí/MG,-20.0131996,-45.9777034,2004,8362.54382
D1,Bambuí/MG,-20.0131996,-45.9777034,31,129.36071
1,Banabuiú/CE,-5.3046404,-38.919766,2329,12717.74150
D1,Banabuiú/CE,-5.3046404,-38.919766,22,120.13324
1,Bananal/SP,-22.6828195,-44.3221095,1045,9466.43718
D1,Bananal/SP,-22.6828195,-44.3221095,4,36.23517
1,Bananeiras/PB,-6.7537682,-35.6338343,1541,7262.01697
D1,Bananeiras/PB,-6.7537682,-35.6338343,27,127.23845
1,Bandeira do Sul/MG,-21.728056,-46.385555,684,11776.85950
D1,Bandeira do Sul/MG,-21.728056,-46.385555,15,258.26446
1,Bandeira/MG,-15.884444,-40.559167,478,10088.64500
D1,Bandeira/MG,-15.884444,-40.559167,10,211.05952
1,Bandeirante/SC,-26.7677402,-53.6397596,424,16195.56914
D1,Bandeirante/SC,-26.7677402,-53.6397596,4,152.78839
1,Bandeirantes do Tocantins/TO,-7.7635698,-48.579148,520,14321.12366
D1,Bandeirantes do Tocantins/TO,-7.7635698,-48.579148,8,220.32498
1,Bandeirantes/MS,-19.9179623,-54.3646768,640,8790.00137
D1,Bandeirantes/MS,-19.9179623,-54.3646768,11,151.07815
1,Bandeirantes/PR,-23.107788,-50.370407,5342,17198.41602
D1,Bandeirantes/PR,-23.107788,-50.370407,144,463.60388
1,Bannach/PA,-7.3508505,-50.4064531,650,20067.92220
D1,Bannach/PA,-7.3508505,-50.4064531,3,92.62118
1,Banzaê/BA,-10.5827616,-38.6122305,1193,9003.09411
D1,Banzaê/BA,-10.5827616,-38.6122305,9,67.91940
1,Baraúna/PB,-6.643394,-36.2531932,703,13967.81244
D1,Baraúna/PB,-6.643394,-36.2531932,9,178.81979
1,Baraúna/RN,-5.0775002,-37.61752,1706,5860.12641
D1,Baraúna/RN,-5.0775002,-37.61752,29,99.61528
1,Barbacena/MG,-21.2254524,-43.7735087,9051,6508.65448
D1,Barbacena/MG,-21.2254524,-43.7735087,295,212.13712
1,Barbalha/CE,-7.3121067,-39.3036427,7007,11363.56265
D1,Barbalha/CE,-7.3121067,-39.3036427,163,264.34433
1,Barbosa Ferraz/PR,-24.0287182,-52.00811,1301,11526.53495
D1,Barbosa Ferraz/PR,-24.0287182,-52.00811,40,354.39001
1,Barbosa/SP,-21.265661,-49.951816,767,10183.21827
D1,Barbosa/SP,-21.265661,-49.951816,20,265.53372
1,Barcarena/PA,-1.5107945,-48.6190679,11827,9144.61120
D1,Barcarena/PA,-1.5107945,-48.6190679,238,184.02109
1,Barcelona/RN,-5.9514918,-35.9260284,192,4813.23640
D1,Barcelona/RN,-5.9514918,-35.9260284,7,175.48258
1,Barcelos/AM,-0.9729214,-62.925635,4487,16156.56056
D1,Barcelos/AM,-0.9729214,-62.925635,60,216.04494
1,Bariri/SP,-22.0746355,-48.7394852,3170,8843.87903
D1,Bariri/SP,-22.0746355,-48.7394852,132,368.26247
1,Barra Bonita/SC,-26.6526364,-53.4419581,201,12369.23077
D1,Barra Bonita/SC,-26.6526364,-53.4419581,2,123.07692
1,Barra Bonita/SP,-22.490859,-48.558349,3789,10488.58131
D1,Barra Bonita/SP,-22.490859,-48.558349,113,312.80277
1,Barra D'Alcântara/PI,-6.5209258,-42.1071089,154,3895.77536
D1,Barra D'Alcântara/PI,-6.5209258,-42.1071089,4,101.18897
1,Barra Funda/RS,-27.9230048,-53.0401045,624,24346.46898
D1,Barra Funda/RS,-27.9230048,-53.0401045,14,546.23488
1,Barra Longa/MG,-20.2833541,-43.0423516,426,8685.01529
D1,Barra Longa/MG,-20.2833541,-43.0423516,11,224.26096
1,Barra Mansa/RJ,-22.5394843,-44.1735129,16264,8780.10333
D1,Barra Mansa/RJ,-22.5394843,-44.1735129,651,351.44167
1,Barra Velha/SC,-26.6338203,-48.6835001,4897,16035.23364
D1,Barra Velha/SC,-26.6338203,-48.6835001,123,402.76368
1,Barra da Estiva/BA,-13.6269662,-41.3278287,2824,13981.58233
D1,Barra da Estiva/BA,-13.6269662,-41.3278287,33,163.38251
1,Barra de Guabiraba/PE,-8.4173522,-35.6626669,450,3075.45107
D1,Barra de Guabiraba/PE,-8.4173522,-35.6626669,16,109.34937
1,Barra de Santa Rosa/PB,-6.7218007,-36.0564638,1716,10995.06632
D1,Barra de Santa Rosa/PB,-6.7218007,-36.0564638,13,83.29596
1,Barra de Santana/PB,-7.5230865,-35.9988518,664,7963.54042
D1,Barra de Santana/PB,-7.5230865,-35.9988518,7,83.95299
1,Barra de Santo Antônio/AL,-9.4038098,-35.5117693,462,2851.67582
D1,Barra de Santo Antônio/AL,-9.4038098,-35.5117693,32,197.51867
1,Barra de São Francisco/ES,-18.7570902,-40.8916119,5190,11456.70074
D1,Barra de São Francisco/ES,-18.7570902,-40.8916119,214,472.39575
1,Barra de São Miguel/AL,-9.8261357,-35.8837777,638,7564.61940
D1,Barra de São Miguel/AL,-9.8261357,-35.8837777,8,94.85416
1,Barra de São Miguel/PB,-7.7528088,-36.3170996,664,10894.17555
D1,Barra de São Miguel/PB,-7.7528088,-36.3170996,7,114.84824
1,Barra do Bugres/MT,-15.0683712,-57.1853688,3648,10235.11587
D1,Barra do Bugres/MT,-15.0683712,-57.1853688,82,230.06565
1,Barra do Chapéu/SP,-24.472203,-49.023784,435,7507.76666
D1,Barra do Chapéu/SP,-24.472203,-49.023784,6,103.55540
1,Barra do Choça/BA,-14.8638173,-40.5761637,2299,7456.78051
D1,Barra do Choça/BA,-14.8638173,-40.5761637,35,113.52210
1,Barra do Corda/MA,-5.496823,-45.248496,5829,6557.17419
D1,Barra do Corda/MA,-5.496823,-45.248496,74,83.24428
1,Barra do Garças/MT,-15.8916033,-52.2615413,10513,17038.34560
D1,Barra do Garças/MT,-15.8916033,-52.2615413,371,601.27711
1,Barra do Guarita/RS,-27.1888016,-53.7147086,116,3551.74525
D1,Barra do Guarita/RS,-27.1888016,-53.7147086,8,244.94795
1,Barra do Jacaré/PR,-23.1151788,-50.1813945,267,9600.86300
D1,Barra do Jacaré/PR,-23.1151788,-50.1813945,7,251.70802
1,Barra do Mendes/BA,-11.8053298,-42.057037,826,6291.89519
D1,Barra do Mendes/BA,-11.8053298,-42.057037,16,121.87690
1,Barra do Ouro/TO,-7.7113784,-47.6743925,167,3573.72138
D1,Barra do Ouro/TO,-7.7113784,-47.6743925,7,149.79670
1,Barra do Piraí/RJ,-22.4703403,-43.8263256,6656,6581.04193
D1,Barra do Piraí/RJ,-22.4703403,-43.8263256,386,381.65297
1,Barra do Quaraí/RS,-30.208947,-57.5505128,615,14511.56206
D1,Barra do Quaraí/RS,-30.208947,-57.5505128,9,212.36432
1,Barra do Ribeiro/RS,-30.2930206,-51.301437,1135,8334.55720
D1,Barra do Ribeiro/RS,-30.2930206,-51.301437,51,374.50433
1,Barra do Rio Azul/RS,-27.4101581,-52.4117471,118,7279.45713
D1,Barra do Rio Azul/RS,-27.4101581,-52.4117471,1,61.69031
1,Barra do Rocha/BA,-14.2090974,-39.6004395,410,7434.27017
D1,Barra do Rocha/BA,-14.2090974,-39.6004395,7,126.92656
1,Barra do Turvo/SP,-24.756421,-48.5056942,683,8979.75283
D1,Barra do Turvo/SP,-24.756421,-48.5056942,18,236.65527
1,Barra dos Coqueiros/SE,-10.9075694,-37.0386249,7048,22418.01584
D1,Barra dos Coqueiros/SE,-10.9075694,-37.0386249,99,314.89551
1,Barra/BA,-11.0892702,-43.1420453,2265,4177.04011
D1,Barra/BA,-11.0892702,-43.1420453,62,114.33840
1,Barracão/PR,-26.252395,-53.6349576,1342,12969.94298
D1,Barracão/PR,-26.252395,-53.6349576,35,338.26230
1,Barracão/RS,-27.6728964,-51.4582928,523,9986.63357
D1,Barracão/RS,-27.6728964,-51.4582928,16,305.51843
1,Barras/PI,-4.2446153,-42.2920241,5207,11008.92215
D1,Barras/PI,-4.2446153,-42.2920241,94,198.73990
1,Barreira/CE,-4.2883361,-38.641094,1599,7039.40128
D1,Barreira/CE,-4.2883361,-38.641094,50,220.11886
1,Barreiras do Piauí/PI,-9.9224524,-45.4763776,109,3247.91418
D1,Barreiras do Piauí/PI,-9.9224524,-45.4763776,3,89.39213
1,Barreiras/BA,-12.1440031,-44.9967406,19808,12502.52474
D1,Barreiras/BA,-12.1440031,-44.9967406,327,206.39770
1,Barreirinha/AM,-2.798863,-57.067897,2438,7406.05729
D1,Barreirinha/AM,-2.798863,-57.067897,63,191.37884
1,Barreirinhas/MA,-2.7541271,-42.8259693,2629,4114.82055
D1,Barreirinhas/MA,-2.7541271,-42.8259693,48,75.12795
1,Barreiros/PE,-8.8159644,-35.1831905,803,1873.27952
D1,Barreiros/PE,-8.8159644,-35.1831905,63,146.96963
1,Barretos/SP,-20.5531437,-48.5697509,17556,14210.09179
D1,Barretos/SP,-20.5531437,-48.5697509,572,462.98545
1,Barrinha/SP,-21.1898849,-48.1550642,1693,5048.15577
D1,Barrinha/SP,-21.1898849,-48.1550642,72,214.68825
1,Barro Alto/BA,-11.7618025,-41.9094904,926,6103.75058
D1,Barro Alto/BA,-11.7618025,-41.9094904,13,85.68980
1,Barro Alto/GO,-14.9696025,-48.9190985,1515,13012.11028
D1,Barro Alto/GO,-14.9696025,-48.9190985,21,180.36589
1,Barro Duro/PI,-5.8180139,-42.5106589,704,10025.63372
D1,Barro Duro/PI,-5.8180139,-42.5106589,12,170.89148
1,Barro Preto/BA,-14.8068289,-39.4727588,636,11972.89157
D1,Barro Preto/BA,-14.8068289,-39.4727588,12,225.90361
1,Barro/CE,-7.1713587,-38.7742136,1842,8066.91775
D1,Barro/CE,-7.1713587,-38.7742136,45,197.07454
1,Barrocas/BA,-11.5165,-39.099282894736845,840,5177.19569
D1,Barrocas/BA,-11.5165,-39.099282894736845,24,147.91988
1,Barrolândia/TO,-9.837246,-48.7264346,788,13900.15876
D1,Barrolândia/TO,-9.837246,-48.7264346,20,352.79591
1,Barroquinha/CE,-3.0200371,-41.1339229,1316,8733.16079
D1,Barroquinha/CE,-3.0200371,-41.1339229,25,165.90351
1,Barros Cassal/RS,-29.094938,-52.5832366,821,7352.01934
D1,Barros Cassal/RS,-29.094938,-52.5832366,14,125.36939
1,Barroso/MG,-21.187222,-43.976111,2074,9885.13417
D1,Barroso/MG,-21.187222,-43.976111,57,271.67437
1,Barueri/SP,-23.5112184,-46.8764612,34073,12181.80648
D1,Barueri/SP,-23.5112184,-46.8764612,1139,407.21620
1,Barão de Antonina/SP,-23.6295651,-49.5632104,517,14666.66667
D1,Barão de Antonina/SP,-23.6295651,-49.5632104,10,283.68794
1,Barão de Cocais/MG,-19.9452437,-43.4870298,4628,13926.33606
D1,Barão de Cocais/MG,-19.9452437,-43.4870298,74,222.67694
1,Barão de Cotegipe/RS,-27.6214694,-52.3765316,808,12212.81741
D1,Barão de Cotegipe/RS,-27.6214694,-52.3765316,10,151.14873
1,Barão de Grajaú/MA,-6.7542591,-43.0263477,478,2512.35152
D1,Barão de Grajaú/MA,-6.7542591,-43.0263477,3,15.76790
1,Barão de Melgaço/MT,-16.195776,-55.9668049,468,5731.78200
D1,Barão de Melgaço/MT,-16.195776,-55.9668049,17,208.20576
1,Barão de Monte Alto/MG,-21.244722,-42.2375,344,6477.12295
D1,Barão de Monte Alto/MG,-21.244722,-42.2375,12,225.94615
1,Barão do Triunfo/RS,-30.3909877,-51.7375349,487,6450.33113
D1,Barão do Triunfo/RS,-30.3909877,-51.7375349,6,79.47020
1,Barão/RS,-29.372474,-51.494908,729,11697.68935
D1,Barão/RS,-29.372474,-51.494908,11,176.50834
1,Bastos/SP,-21.9222474,-50.7317727,2029,9684.03971
D1,Bastos/SP,-21.9222474,-50.7317727,45,214.77663
1,Bataguassu/MS,-21.715899,-52.422058,3513,14872.98899
D1,Bataguassu/MS,-21.715899,-52.422058,48,203.21761
1,Batalha/AL,-9.6733809,-37.1265481,1133,6144.25163
D1,Batalha/AL,-9.6733809,-37.1265481,20,108.45987
1,Batalha/PI,-4.022391,-42.0780926,1298,4816.14782
D1,Batalha/PI,-4.022391,-42.0780926,34,126.15487
1,Batatais/SP,-20.892867,-47.592149,6255,9860.02081
D1,Batatais/SP,-20.892867,-47.592149,169,266.40184
1,Batayporã/MS,-22.2976466,-53.2685608,1095,9632.30120
D1,Batayporã/MS,-22.2976466,-53.2685608,26,228.71217
1,Baturité/CE,-4.3290203,-38.8821055,4214,11664.40612
D1,Baturité/CE,-4.3290203,-38.8821055,87,240.81712
1,Bauru/SP,-22.3218102,-49.0705863,52692,13804.34156
D1,Bauru/SP,-22.3218102,-49.0705863,1227,321.45159
1,Bayeux/PB,-7.1301631,-34.936532,8219,8428.10119
D1,Bayeux/PB,-7.1301631,-34.936532,250,256.36030
1,Baía Formosa/RN,-6.3691885,-35.0063741,515,5494.50549
D1,Baía Formosa/RN,-6.3691885,-35.0063741,9,96.02048
1,Baía da Traição/PB,-6.691258,-34.9371244,1320,14352.50625
D1,Baía da Traição/PB,-6.691258,-34.9371244,12,130.47733
1,Bebedouro/SP,-20.949077,-48.479083,4385,5649.89950
D1,Bebedouro/SP,-20.949077,-48.479083,182,234.49982
1,Beberibe/CE,-4.1810469,-38.1298101,5677,10451.99300
D1,Beberibe/CE,-4.1810469,-38.1298101,129,237.50345
1,Bela Cruz/CE,-3.0529129,-40.167582,3503,10663.29792
D1,Bela Cruz/CE,-3.0529129,-40.167582,73,222.21546
1,Bela Vista da Caroba/PR,-25.8792818,-53.6672545,191,5611.04583
D1,Bela Vista da Caroba/PR,-25.8792818,-53.6672545,7,205.64042
1,Bela Vista de Goiás/GO,-16.9692949,-48.9513071,3288,10605.08322
D1,Bela Vista de Goiás/GO,-16.9692949,-48.9513071,79,254.80583
1,Bela Vista de Minas/MG,-19.8289721,-43.0973688,954,9290.09641
D1,Bela Vista de Minas/MG,-19.8289721,-43.0973688,24,233.71312
1,Bela Vista do Maranhão/MA,-3.7416367,-45.2514192,223,1965.27717
D1,Bela Vista do Maranhão/MA,-3.7416367,-45.2514192,19,167.44514
1,Bela Vista do Paraíso/PR,-22.9948493,-51.1907996,2042,13259.74026
D1,Bela Vista do Paraíso/PR,-22.9948493,-51.1907996,75,487.01299
1,Bela Vista do Piauí/PI,-7.9716353,-41.8715061,282,6973.29377
D1,Bela Vista do Piauí/PI,-7.9716353,-41.8715061,6,148.36795
1,Bela Vista do Toldo/SC,-26.274625,-50.466354,84,1315.37739
D1,Bela Vista do Toldo/SC,-26.274625,-50.466354,4,62.63702
1,Bela Vista/MS,-22.107327,-56.5317344,1077,4335.39973
D1,Bela Vista/MS,-22.107327,-56.5317344,32,128.81411
1,Belford Roxo/RJ,-22.7667284,-43.4033603,21823,4235.51012
D1,Belford Roxo/RJ,-22.7667284,-43.4033603,859,166.71875
1,Belmiro Braga/MG,-21.9486291,-43.413564,214,6253.65283
D1,Belmiro Braga/MG,-21.9486291,-43.413564,3,87.66803
1,Belmonte/BA,-15.8630837,-38.8792845,1200,5097.70603
D1,Belmonte/BA,-15.8630837,-38.8792845,26,110.45030
1,Belmonte/SC,-26.8448262,-53.578916,333,12278.76106
D1,Belmonte/SC,-26.8448262,-53.578916,5,184.36578
1,Belo Campo/BA,-15.0338286,-41.2585109,986,5795.56809
D1,Belo Campo/BA,-15.0338286,-41.2585109,18,105.80145
1,Belo Horizonte/MG,-19.9227318,-43.9450948,270914,10705.09713
D1,Belo Horizonte/MG,-19.9227318,-43.9450948,6524,257.79418
1,Belo Jardim/PE,-8.3338293,-36.4176419,4437,5767.58092
D1,Belo Jardim/PE,-8.3338293,-36.4176419,129,167.68491
1,Belo Monte/AL,-9.8269944,-37.2787165,554,8247.72964
D1,Belo Monte/AL,-9.8269944,-37.2787165,9,133.98839
1,Belo Oriente/MG,-19.2232523,-42.4807033,2743,10056.09121
D1,Belo Oriente/MG,-19.2232523,-42.4807033,71,260.29255
1,Belo Vale/MG,-20.407778,-44.024167,1052,13621.64962
D1,Belo Vale/MG,-20.407778,-44.024167,12,155.38003
1,Belterra/PA,-2.636091,-54.937392,1648,9184.12840
D1,Belterra/PA,-2.636091,-54.937392,29,161.61391
1,Belágua/MA,-3.1604031,-43.5085052,413,5444.23939
D1,Belágua/MA,-3.1604031,-43.5085052,4,52.72871
1,Belém de Maria/PE,-8.6242497,-35.8388934,301,2473.49823
D1,Belém de Maria/PE,-8.6242497,-35.8388934,6,49.30561
1,Belém do Brejo do Cruz/PB,-6.1880727,-37.5332267,533,7245.78575
D1,Belém do Brejo do Cruz/PB,-6.1880727,-37.5332267,5,67.97172
1,Belém do Piauí/PI,-7.3767305,-40.9712156,485,13446.07707
D1,Belém do Piauí/PI,-7.3767305,-40.9712156,7,194.06709
1,Belém do São Francisco/PE,-8.7517707,-38.9625715,1012,4881.81380
D1,Belém do São Francisco/PE,-8.7517707,-38.9625715,11,53.06319
1,Belém/AL,-9.5715351,-36.492841,126,2981.54283
D1,Belém/AL,-9.5715351,-36.492841,7,165.64127
1,Belém/PA,-1.45056,-48.4682453,105797,7023.07457
D1,Belém/PA,-1.45056,-48.4682453,5108,339.08206
1,Belém/PB,-6.6967586,-35.5369626,2419,13641.23386
D1,Belém/PB,-6.6967586,-35.5369626,45,253.76417
1,Beneditinos/PI,-5.4565671,-42.3605061,1306,12463.02128
D1,Beneditinos/PI,-5.4565671,-42.3605061,40,381.71581
1,Benedito Leite/MA,-7.2173453,-44.5523331,316,5599.85823
D1,Benedito Leite/MA,-7.2173453,-44.5523331,2,35.44214
1,Benedito Novo/SC,-26.7840657,-49.3629511,1094,9196.36853
D1,Benedito Novo/SC,-26.7840657,-49.3629511,19,159.71755
1,Benevides/PA,-1.3555577,-48.252235,4102,6332.20130
D1,Benevides/PA,-1.3555577,-48.252235,105,162.08706
1,Benjamin Constant do Sul/RS,-27.5105555,-52.6007689,179,9303.53430
1,Benjamin Constant/AM,-4.3782748,-70.0290603,2711,6041.49489
D1,Benjamin Constant/AM,-4.3782748,-70.0290603,87,193.88051
1,Bento Fernandes/RN,-5.6926846,-35.8207423,184,3314.12104
D1,Bento Fernandes/RN,-5.6926846,-35.8207423,3,54.03458
1,Bento Gonçalves/RS,-29.1654014,-51.5197627,21511,17475.83069
D1,Bento Gonçalves/RS,-29.1654014,-51.5197627,381,309.52961
1,Bento de Abreu/SP,-21.2707225,-50.8120444,363,11988.11096
D1,Bento de Abreu/SP,-21.2707225,-50.8120444,5,165.12550
1,Bequimão/MA,-2.4495376,-44.7884889,282,1322.88784
D1,Bequimão/MA,-2.4495376,-44.7884889,23,107.89511
1,Berilo/MG,-16.9515764,-42.4643732,153,1295.18327
D1,Berilo/MG,-16.9515764,-42.4643732,1,8.46525
1,Berizal/MG,-15.6118785,-41.7417382,249,5196.16027
D1,Berizal/MG,-15.6118785,-41.7417382,1,20.86811
1,Bernardino Batista/PB,-6.4532173,-38.5495418,307,8597.03164
D1,Bernardino Batista/PB,-6.4532173,-38.5495418,1,28.00336
1,Bernardino de Campos/SP,-23.0140216,-49.4760724,866,7754.29799
D1,Bernardino de Campos/SP,-23.0140216,-49.4760724,32,286.53295
1,Bernardo Sayão/TO,-7.8794244,-48.8968905,646,14552.82721
D1,Bernardo Sayão/TO,-7.8794244,-48.8968905,13,292.85875
1,Bernardo do Mearim/MA,-4.6315929,-44.7617508,301,4932.80892
D1,Bernardo do Mearim/MA,-4.6315929,-44.7617508,6,98.32842
1,Bertioga/SP,-23.848568,-46.139586,6022,9103.00209
D1,Bertioga/SP,-23.848568,-46.139586,163,246.39478
1,Bertolínia/PI,-7.6372159,-43.9540611,893,16201.01597
D1,Bertolínia/PI,-7.6372159,-43.9540611,11,199.56459
1,Bertópolis/MG,-17.063333,-40.573889,487,10566.28336
D1,Bertópolis/MG,-17.063333,-40.573889,4,86.78672
1,Beruri/AM,-3.9007135,-61.3717319,2294,11188.60655
D1,Beruri/AM,-3.9007135,-61.3717319,34,165.82939
1,Betim/MG,-19.968056,-44.198333,31611,7024.29204
D1,Betim/MG,-19.968056,-44.198333,1328,295.09537
1,Betânia do Piauí/PI,-8.1460635,-40.7961387,173,2784.03605
D1,Betânia do Piauí/PI,-8.1460635,-40.7961387,2,32.18539
1,Betânia/PE,-8.2742779,-38.0351767,513,4004.37124
D1,Betânia/PE,-8.2742779,-38.0351767,17,132.69846
1,Bezerros/PE,-8.2372132,-35.7558262,3899,6395.99738
D1,Bezerros/PE,-8.2372132,-35.7558262,128,209.97375
1,Bias Fortes/MG,-21.605833,-43.756944,119,3625.83790
D1,Bias Fortes/MG,-21.605833,-43.756944,3,91.40768
1,Bicas/MG,-21.7213723,-43.0604327,1472,10073.91185
D1,Bicas/MG,-21.7213723,-43.0604327,46,314.80975
1,Biguaçu/SC,-27.4961277,-48.6542432,11439,16232.20899
D1,Biguaçu/SC,-27.4961277,-48.6542432,167,236.97691
1,Bilac/SP,-21.403962,-50.47464,944,11516.40844
D1,Bilac/SP,-21.403962,-50.47464,18,219.59253
1,Biquinhas/MG,-18.783611,-45.502222,154,6204.67365
D1,Biquinhas/MG,-18.783611,-45.502222,3,120.87027
1,Birigui/SP,-21.2908491,-50.34144,17660,14005.42452
D1,Birigui/SP,-21.2908491,-50.34144,588,466.31878
1,Biritiba Mirim/SP,-23.5697765,-46.0407456,1518,4563.35488
D1,Biritiba Mirim/SP,-23.5697765,-46.0407456,101,303.62243
1,Biritinga/BA,-11.6227908,-38.8066738,603,3771.34280
D1,Biritinga/BA,-11.6227908,-38.8066738,7,43.78010
1,Bituruna/PR,-26.161281,-51.5533319,1407,8573.51776
D1,Bituruna/PR,-26.161281,-51.5533319,20,121.86948
1,Blumenau/SC,-26.9195567,-49.0658025,57944,15813.63361
D1,Blumenau/SC,-26.9195567,-49.0658025,644,175.75556
1,Boa Esperança do Iguaçu/PR,-25.6362851,-53.2139114,189,7755.43701
1,Boa Esperança do Sul/SP,-21.9930206,-48.3917372,1735,11481.70207
D1,Boa Esperança do Sul/SP,-21.9930206,-48.3917372,21,138.97161
1,Boa Esperança/ES,-18.5395472,-40.2904088,1723,11375.94084
D1,Boa Esperança/ES,-18.5395472,-40.2904088,46,303.71055
1,Boa Esperança/MG,-21.0901253,-45.5660195,4884,12116.70140
D1,Boa Esperança/MG,-21.0901253,-45.5660195,143,354.76828
1,Boa Esperança/PR,-24.2411024,-52.7860277,489,12252.56828
D1,Boa Esperança/PR,-24.2411024,-52.7860277,17,425.95841
1,Boa Hora/PI,-4.4094627,-42.1255341,592,8644.85981
D1,Boa Hora/PI,-4.4094627,-42.1255341,7,102.21963
1,Boa Nova/BA,-14.365907,-40.2063056,1035,8597.05956
D1,Boa Nova/BA,-14.365907,-40.2063056,20,166.12675
1,Boa Ventura de São Roque/PR,-24.88177,-51.5441292,565,8907.45704
D1,Boa Ventura de São Roque/PR,-24.88177,-51.5441292,8,126.12329
1,Boa Ventura/PB,-7.4202462,-38.2156782,767,14615.09146
D1,Boa Ventura/PB,-7.4202462,-38.2156782,12,228.65854
1,Boa Viagem/CE,-5.1261877,-39.7300055,4311,7884.05267
D1,Boa Viagem/CE,-5.1261877,-39.7300055,117,213.97220
1,Boa Vista da Aparecida/PR,-25.4357216,-53.4067721,1090,14486.97501
D1,Boa Vista da Aparecida/PR,-25.4357216,-53.4067721,34,451.88729
1,Boa Vista das Missões/RS,-27.6677983,-53.3127622,256,12266.41112
D1,Boa Vista das Missões/RS,-27.6677983,-53.3127622,7,335.40968
1,Boa Vista do Buricá/RS,-27.6687782,-54.1111913,907,13513.11085
D1,Boa Vista do Buricá/RS,-27.6687782,-54.1111913,11,163.88558
1,Boa Vista do Cadeado/RS,-28.5783827,-53.8123759,210,8515.81509
D1,Boa Vista do Cadeado/RS,-28.5783827,-53.8123759,4,162.20600
1,Boa Vista do Gurupi/MA,-1.7981168,-46.3071882,15,176.59524
D1,Boa Vista do Gurupi/MA,-1.7981168,-46.3071882,4,47.09206
1,Boa Vista do Incra/RS,-28.8195551,-53.3866624,311,11834.09437
D1,Boa Vista do Incra/RS,-28.8195551,-53.3866624,4,152.20700
1,Boa Vista do Ramos/AM,-2.9716927,-57.5869819,992,4950.09980
D1,Boa Vista do Ramos/AM,-2.9716927,-57.5869819,12,59.88024
1,Boa Vista do Sul/RS,-29.3510488,-51.6779679,322,11611.97259
D1,Boa Vista do Sul/RS,-29.3510488,-51.6779679,4,144.24811
1,Boa Vista do Tupim/BA,-12.6605988,-40.6083594,290,1568.33054
D1,Boa Vista do Tupim/BA,-12.6605988,-40.6083594,11,59.48840
1,Boa Vista/PB,-7.2620711,-36.2415161,853,11817.67803
D1,Boa Vista/PB,-7.2620711,-36.2415161,15,207.81380
1,Boa Vista/RR,2.8208478,-60.6719582,95862,21956.93452
D1,Boa Vista/RR,2.8208478,-60.6719582,1490,341.28051
1,Boca da Mata/AL,-9.6452054,-36.2116658,1869,6813.95603
D1,Boca da Mata/AL,-9.6452054,-36.2116658,45,164.05994
1,Boca do Acre/AM,-8.7553487,-67.3930873,2671,7640.59729
D1,Boca do Acre/AM,-8.7553487,-67.3930873,27,77.23554
1,Bocaina de Minas/MG,-22.167778,-44.394722,192,3773.58491
D1,Bocaina de Minas/MG,-22.167778,-44.394722,7,137.57862
1,Bocaina do Sul/SC,-27.745494,-49.942279,392,11196.80091
D1,Bocaina do Sul/SC,-27.745494,-49.942279,3,85.68980
1,Bocaina/PI,-6.9445939,-41.3224599,368,8161.45487
D1,Bocaina/PI,-6.9445939,-41.3224599,8,177.42293
1,Bocaina/SP,-22.1421831,-48.522276,1354,10770.82173
D1,Bocaina/SP,-22.1421831,-48.522276,35,278.41858
1,Bocaiúva do Sul/PR,-25.206591,-49.114131,2176,16351.06703
D1,Bocaiúva do Sul/PR,-25.206591,-49.114131,27,202.88548
1,Bocaiúva/MG,-17.1160208,-43.8122678,2692,5328.47727
D1,Bocaiúva/MG,-17.1160208,-43.8122678,68,134.59749
1,Bodocó/PE,-7.777592,-39.933797,2175,5633.98524
D1,Bodocó/PE,-7.777592,-39.933797,41,106.20386
1,Bodoquena/MS,-20.5508775,-56.6769653,598,7664.70136
D1,Bodoquena/MS,-20.5508775,-56.6769653,18,230.71007
1,Bodó/RN,-5.9866104,-36.4134824,195,8982.03593
D1,Bodó/RN,-5.9866104,-36.4134824,1,46.06172
1,Bofete/SP,-23.1019554,-48.2610535,965,7970.59552
D1,Bofete/SP,-23.1019554,-48.2610535,22,181.71306
1,Boituva/SP,-23.2838893,-47.6738231,6560,10361.71221
D1,Boituva/SP,-23.2838893,-47.6738231,187,295.37198
1,Bom Conselho/PE,-9.169191,-36.685683,2310,4716.69219
D1,Bom Conselho/PE,-9.169191,-36.685683,71,144.97192
1,Bom Despacho/MG,-19.7375242,-45.2517288,5542,10774.55479
D1,Bom Despacho/MG,-19.7375242,-45.2517288,96,186.63971
1,Bom Jardim da Serra/SC,-28.3380324,-49.625588,705,14684.44074
D1,Bom Jardim da Serra/SC,-28.3380324,-49.625588,7,145.80296
1,Bom Jardim de Goiás/GO,-16.2062659,-52.172793,1224,13734.29084
D1,Bom Jardim de Goiás/GO,-16.2062659,-52.172793,16,179.53321
1,Bom Jardim de Minas/MG,-21.9476466,-44.1906033,527,8178.15022
D1,Bom Jardim de Minas/MG,-21.9476466,-44.1906033,3,46.55493
1,Bom Jardim/MA,-3.54129,-45.606004,1467,3492.02571
D1,Bom Jardim/MA,-3.54129,-45.606004,54,128.54082
1,Bom Jardim/PE,-7.7961572,-35.5871696,1777,4438.28363
D1,Bom Jardim/PE,-7.7961572,-35.5871696,71,177.33154
1,Bom Jardim/RJ,-22.1515328,-42.4186683,1958,7048.48987
D1,Bom Jardim/RJ,-22.1515328,-42.4186683,49,176.39224
1,Bom Jesus da Lapa/BA,-13.250571,-43.410754,6140,8752.54807
D1,Bom Jesus da Lapa/BA,-13.250571,-43.410754,95,135.42216
1,Bom Jesus da Penha/MG,-21.0165299,-46.5226644,691,16182.66979
D1,Bom Jesus da Penha/MG,-21.0165299,-46.5226644,17,398.12646
1,Bom Jesus da Serra/BA,-14.3724084,-40.5047119,487,4985.66749
D1,Bom Jesus da Serra/BA,-14.3724084,-40.5047119,9,92.13759
1,Bom Jesus das Selvas/MA,-4.4878075,-46.8526639,3572,10178.08805
D1,Bom Jesus das Selvas/MA,-4.4878075,-46.8526639,33,94.03049
1,Bom Jesus de Goiás/GO,-18.2174587,-49.739721,3102,11899.19061
D1,Bom Jesus de Goiás/GO,-18.2174587,-49.739721,115,441.13698
1,Bom Jesus do Amparo/MG,-19.7045132,-43.4752911,278,4496.92656
D1,Bom Jesus do Amparo/MG,-19.7045132,-43.4752911,7,113.23196
1,Bom Jesus do Araguaia/MT,-12.1725897,-51.5074425,1097,16061.49341
D1,Bom Jesus do Araguaia/MT,-12.1725897,-51.5074425,17,248.90190
1,Bom Jesus do Galho/MG,-19.8283191,-42.3162256,801,5415.08924
D1,Bom Jesus do Galho/MG,-19.8283191,-42.3162256,35,236.61439
1,Bom Jesus do Itabapoana/RJ,-21.1341025,-41.680095,3952,10593.47022
D1,Bom Jesus do Itabapoana/RJ,-21.1341025,-41.680095,104,278.77553
1,Bom Jesus do Norte/ES,-21.1254776,-41.6711646,1250,12515.01802
D1,Bom Jesus do Norte/ES,-21.1254776,-41.6711646,30,300.36043
1,Bom Jesus do Oeste/SC,-26.6929713,-53.0967453,184,8614.23221
D1,Bom Jesus do Oeste/SC,-26.6929713,-53.0967453,6,280.89888
1,Bom Jesus do Sul/PR,-26.1922507,-53.6002033,507,14602.53456
D1,Bom Jesus do Sul/PR,-26.1922507,-53.6002033,6,172.81106
1,Bom Jesus do Tocantins/PA,-5.0471796,-48.5978362,775,4491.71207
D1,Bom Jesus do Tocantins/PA,-5.0471796,-48.5978362,26,150.68970
1,Bom Jesus do Tocantins/TO,-8.96306,-48.165043,174,3398.43750
D1,Bom Jesus do Tocantins/TO,-8.96306,-48.165043,3,58.59375
1,Bom Jesus dos Perdões/SP,-23.1353864,-46.4648052,2456,9265.82661
D1,Bom Jesus dos Perdões/SP,-23.1353864,-46.4648052,29,109.40919
1,Bom Jesus/PB,-6.8156725,-38.6551841,196,7573.41577
D1,Bom Jesus/PB,-6.8156725,-38.6551841,3,115.91963
1,Bom Jesus/PI,-9.0711644,-44.3583926,3808,14884.30269
D1,Bom Jesus/PI,-9.0711644,-44.3583926,47,183.70857
1,Bom Jesus/RN,-5.9887544,-35.5821149,983,9522.42565
D1,Bom Jesus/RN,-5.9887544,-35.5821149,18,174.36792
1,Bom Jesus/RS,-28.6692723,-50.4346894,1012,8979.59184
D1,Bom Jesus/RS,-28.6692723,-50.4346894,24,212.95475
1,Bom Jesus/SC,-26.7350604,-52.3916519,491,15818.29897
D1,Bom Jesus/SC,-26.7350604,-52.3916519,9,289.94845
1,Bom Lugar/MA,-4.3728019,-45.0366054,531,3203.04017
D1,Bom Lugar/MA,-4.3728019,-45.0366054,7,42.22464
1,Bom Princípio do Piauí/PI,-3.1912777,-41.6430185,141,2486.77249
D1,Bom Princípio do Piauí/PI,-3.1912777,-41.6430185,13,229.27690
1,Bom Princípio/RS,-29.489788,-51.3566782,2171,15028.38156
D1,Bom Princípio/RS,-29.489788,-51.3566782,31,214.59227
1,Bom Progresso/RS,-27.5490948,-53.8655601,189,10172.22820
D1,Bom Progresso/RS,-27.5490948,-53.8655601,3,161.46394
1,Bom Repouso/MG,-22.4657069,-46.1485376,1178,11190.27263
D1,Bom Repouso/MG,-22.4657069,-46.1485376,28,265.98271
1,Bom Retiro do Sul/RS,-29.6000007,-51.9359243,1068,8579.69152
D1,Bom Retiro do Sul/RS,-29.6000007,-51.9359243,35,281.16967
1,Bom Retiro/SC,-27.798993,-49.486994,899,8854.52576
D1,Bom Retiro/SC,-27.798993,-49.486994,21,206.83542
1,Bom Sucesso de Itararé/SP,-24.3190016,-49.1446207,257,6404.18639
D1,Bom Sucesso de Itararé/SP,-24.3190016,-49.1446207,6,149.51408
1,Bom Sucesso do Sul/PR,-26.0749256,-52.8348629,529,16307.02836
D1,Bom Sucesso do Sul/PR,-26.0749256,-52.8348629,9,277.43527
1,Bom Sucesso/MG,-21.0323516,-44.7598082,1213,6887.34953
D1,Bom Sucesso/MG,-21.0323516,-44.7598082,25,141.94867
1,Bom Sucesso/PB,-6.4458948,-37.9297662,505,10228.88394
D1,Bom Sucesso/PB,-6.4458948,-37.9297662,4,81.02086
1,Bom Sucesso/PR,-23.7088019,-51.7651297,1302,18330.28298
D1,Bom Sucesso/PR,-23.7088019,-51.7651297,20,281.57117
1,Bombinhas/SC,-27.1519159,-48.4875691,3606,17262.67413
D1,Bombinhas/SC,-27.1519159,-48.4875691,64,306.38135
1,Bonfim do Piauí/PI,-9.1648678,-42.8734415,487,8543.85965
D1,Bonfim do Piauí/PI,-9.1648678,-42.8734415,8,140.35088
1,Bonfim/MG,-20.3266626, -44.2386157,483,7049.03678
D1,Bonfim/MG,-20.3266626, -44.2386157,17,248.10274
1,Bonfim/RR,3.3613818,-59.8427241,2489,19596.88214
D1,Bonfim/RR,3.3613818,-59.8427241,33,259.82206
1,Bonfinópolis de Minas/MG,-16.5660011,-45.98645,573,10617.00945
D1,Bonfinópolis de Minas/MG,-16.5660011,-45.98645,14,259.40337
1,Bonfinópolis/GO,-16.6172709,-48.9615701,507,5009.88142
D1,Bonfinópolis/GO,-16.6172709,-48.9615701,30,296.44269
1,Boninal/BA,-12.7095183,-41.8299984,674,4642.51274
D1,Boninal/BA,-12.7095183,-41.8299984,8,55.10401
1,Bonito de Minas/MG,-15.3191266,-44.7544,110,956.35542
1,Bonito de Santa Fé/PB,-7.3143332,-38.5146677,560,4618.17582
D1,Bonito de Santa Fé/PB,-7.3143332,-38.5146677,14,115.45440
1,Bonito/BA,-11.9665473,-41.2649896,901,5300.31178
D1,Bonito/BA,-11.9665473,-41.2649896,14,82.35779
1,Bonito/MS,-21.1264766,-56.4902208,3204,14302.93290
D1,Bonito/MS,-21.1264766,-56.4902208,75,334.80648
1,Bonito/PA,-1.3605722,-47.3049907,405,2415.17085
D1,Bonito/PA,-1.3605722,-47.3049907,15,89.45077
1,Bonito/PE,-8.4721161,-35.7314591,1102,2892.31254
D1,Bonito/PE,-8.4721161,-35.7314591,44,115.48253
1,Bonópolis/GO,-13.649331,-49.8329113,313,6835.55361
D1,Bonópolis/GO,-13.649331,-49.8329113,3,65.51649
1,Boqueirão do Leão/RS,-29.30332,-52.4296817,613,7970.35496
D1,Boqueirão do Leão/RS,-29.30332,-52.4296817,32,416.07073
1,Boqueirão do Piauí/PI,-4.4850148,-42.1095161,784,12168.24461
D1,Boqueirão do Piauí/PI,-4.4850148,-42.1095161,10,155.20720
1,Boqueirão/PB,-7.487004,-36.130887,2305,12852.68206
D1,Boqueirão/PB,-7.487004,-36.130887,41,228.61604
1,Boquim/SE,-11.1450175,-37.6204228,2688,9962.93551
D1,Boquim/SE,-11.1450175,-37.6204228,67,248.33210
1,Boquira/BA,-12.8184859,-42.7270883,884,4114.30699
D1,Boquira/BA,-12.8184859,-42.7270883,20,93.08387
1,Boracéia/SP,-22.195355,-48.7801925,979,19926.72502
D1,Boracéia/SP,-22.195355,-48.7801925,24,488.49990
1,Borba/AM,-4.3934778,-59.5947721,2493,5889.71839
D1,Borba/AM,-4.3934778,-59.5947721,69,163.01266
1,Borborema/PB,-6.8066718,-35.5990191,387,7286.76332
D1,Borborema/PB,-6.8066718,-35.5990191,13,244.77500
1,Borborema/SP,-21.6212706,-49.074135,1708,10492.68952
D1,Borborema/SP,-21.6212706,-49.074135,52,319.44956
1,Borda da Mata/MG,-22.274167,-46.165278,1946,9823.81746
D1,Borda da Mata/MG,-22.274167,-46.165278,57,287.74799
1,Borebi/SP,-22.5700178,-48.9714871,288,10615.55474
D1,Borebi/SP,-22.5700178,-48.9714871,4,147.43826
1,Borrazópolis/PR,-23.9393362,-51.5850786,878,13958.66455
D1,Borrazópolis/PR,-23.9393362,-51.5850786,27,429.25278
1,Borá/SP,-22.2701088,-50.544407,127,15137.06794
D1,Borá/SP,-22.2701088,-50.544407,1,119.18951
1,Bossoroca/RS,-28.7278885,-54.9120278,473,7709.86145
D1,Bossoroca/RS,-28.7278885,-54.9120278,22,358.59821
1,Botelhos/MG,-21.65,-46.394722,1838,12313.25785
D1,Botelhos/MG,-21.65,-46.394722,31,207.67736
1,Botucatu/SP,-22.8879628,-48.4410712,18625,12440.05397
D1,Botucatu/SP,-22.8879628,-48.4410712,307,205.05216
1,Botumirim/MG,-16.862778,-43.011111,243,3882.40933
D1,Botumirim/MG,-16.862778,-43.011111,4,63.90797
1,Botuporã/BA,-13.3744752,-42.5198469,453,4507.46269
D1,Botuporã/BA,-13.3744752,-42.5198469,5,49.75124
1,Botuverá/SC,-27.200749,-49.068892,950,17605.63380
D1,Botuverá/SC,-27.200749,-49.068892,10,185.32246
1,Bozano/RS,-28.3669953,-53.7705165,272,12958.55169
D1,Bozano/RS,-28.3669953,-53.7705165,8,381.13387
1,Braga/RS,-27.617348,-53.740514,426,13023.54020
D1,Braga/RS,-27.617348,-53.740514,9,275.14522
1,Braganey/PR,-24.8179919,-53.118506,572,10715.62383
D1,Braganey/PR,-24.8179919,-53.118506,7,131.13526
1,Bragança Paulista/SP,-22.9520235,-46.5418586,21507,12478.96673
D1,Bragança Paulista/SP,-22.9520235,-46.5418586,565,327.82890
1,Bragança/PA,-1.0573967,-46.7635406,4210,3235.42522
D1,Bragança/PA,-1.0573967,-46.7635406,174,133.72066
1,Branquinha/AL,-9.2478057,-36.0152009,696,6675.61865
D1,Branquinha/AL,-9.2478057,-36.0152009,14,134.27969
1,Brasil Novo/PA,-3.3055853,-52.539198,2048,13760.66653
D1,Brasil Novo/PA,-3.3055853,-52.539198,43,288.92024
1,Brasileira/PI,-4.131182,-41.7824969,637,7615.97322
D1,Brasileira/PI,-4.131182,-41.7824969,16,191.29603
1,Brasilândia de Minas/MG,-17.0096469,-46.0087183,1660,9793.51032
D1,Brasilândia de Minas/MG,-17.0096469,-46.0087183,26,153.39233
1,Brasilândia do Sul/PR,-24.1975793,-53.527551,418,16580.72194
D1,Brasilândia do Sul/PR,-24.1975793,-53.527551,10,396.66799
1,Brasilândia do Tocantins/TO,-8.3886619,-48.4842729,252,11346.24043
D1,Brasilândia do Tocantins/TO,-8.3886619,-48.4842729,6,270.14858
1,Brasilândia/MS,-21.255575,-52.0365617,1272,10747.78200
D1,Brasilândia/MS,-21.255575,-52.0365617,25,211.23785
1,Brasiléia/AC,-11.0010413,-68.7487894,2997,11049.66265
D1,Brasiléia/AC,-11.0010413,-68.7487894,43,158.53703
1,Brasnorte/MT,-12.1227151,-58.0050109,2130,10354.38238
D1,Brasnorte/MT,-12.1227151,-58.0050109,40,194.44850
1,Brasília de Minas/MG,-16.2075114,-44.430559,1439,4433.14849
D1,Brasília de Minas/MG,-16.2075114,-44.430559,9,27.72643
1,Brasília/DF,-15.7934036,-47.8823172,475083,15353.36463
D1,Brasília/DF,-15.7934036,-47.8823172,10128,327.30886
1,Brazabrantes/GO,-16.4291635,-49.3858216,574,15057.71249
D1,Brazabrantes/GO,-16.4291635,-49.3858216,3,78.69885
1,Brazópolis/MG,-22.4742842,-45.6165577,917,6384.01559
D1,Brazópolis/MG,-22.4742842,-45.6165577,32,222.77917
1,Braço do Norte/SC,-28.2728633,-49.1622712,8569,24986.87817
D1,Braço do Norte/SC,-28.2728633,-49.1622712,108,314.92389
1,Braço do Trombudo/SC,-27.358578,-49.882145,735,19372.69373
D1,Braço do Trombudo/SC,-27.358578,-49.882145,7,184.50185
1,Braúna/SP,-21.5015319,-50.3175246,618,10664.36583
D1,Braúna/SP,-21.5015319,-50.3175246,24,414.15013
1,Braúnas/MG,-19.055556,-42.716111,256,5404.26430
D1,Braúnas/MG,-19.055556,-42.716111,11,232.21448
1,Brejetuba/ES,-20.1465817,-41.2902303,1736,13943.77510
D1,Brejetuba/ES,-20.1465817,-41.2902303,16,128.51406
1,Brejinho de Nazaré/TO,-11.0205883,-48.5722906,660,11913.35740
D1,Brejinho de Nazaré/TO,-11.0205883,-48.5722906,17,306.85921
1,Brejinho/PE,-7.3482153,-37.28538,810,10815.86327
D1,Brejinho/PE,-7.3482153,-37.28538,21,280.41127
1,Brejinho/RN,-6.1957907,-35.3583019,1506,11698.90468
D1,Brejinho/RN,-6.1957907,-35.3583019,17,132.05935
1,Brejo Alegre/SP,-21.1671191,-50.1850393,400,13740.98248
D1,Brejo Alegre/SP,-21.1671191,-50.1850393,13,446.58193
1,Brejo Grande do Araguaia/PA,-5.7011449,-48.4037308,893,12138.09977
D1,Brejo Grande do Araguaia/PA,-5.7011449,-48.4037308,4,54.36999
1,Brejo Grande/SE,-10.4287358,-36.4667918,461,5490.70986
D1,Brejo Grande/SE,-10.4287358,-36.4667918,13,154.83564
1,Brejo Santo/CE,-7.4909841,-38.9859152,8435,16804.46260
D1,Brejo Santo/CE,-7.4909841,-38.9859152,155,308.79570
1,Brejo da Madre de Deus/PE,-8.1409718,-36.3712527,2310,4468.43083
D1,Brejo da Madre de Deus/PE,-8.1409718,-36.3712527,52,100.58805
1,Brejo de Areia/MA,-4.3316785,-45.5833334,316,3574.25631
D1,Brejo de Areia/MA,-4.3316785,-45.5833334,11,124.42031
1,Brejo do Cruz/PB,-6.32926065,-37.48746163303929,1960,13718.76531
D1,Brejo do Cruz/PB,-6.32926065,-37.48746163303929,24,167.98488
1,Brejo do Piauí/PI,-8.207583,-42.8359849,158,4131.79916
D1,Brejo do Piauí/PI,-8.207583,-42.8359849,4,104.60251
1,Brejo dos Santos/PB,-6.3769367,-37.8243125,754,11637.59839
D1,Brejo dos Santos/PB,-6.3769367,-37.8243125,8,123.47585
1,Brejo/MA,-3.6804397,-42.7529313,935,2533.87534
D1,Brejo/MA,-3.6804397,-42.7529313,19,51.49051
1,Brejolândia/BA,-12.4843845,-43.9611861,146,1367.68150
D1,Brejolândia/BA,-12.4843845,-43.9611861,11,103.04450
1,Brejão/PE,-9.029146,-36.566034,490,5455.96259
D1,Brejão/PE,-9.029146,-36.566034,9,100.21156
1,Brejões/BA,-13.1033754,-39.7909837,864,6103.85023
D1,Brejões/BA,-13.1033754,-39.7909837,12,84.77570
1,Breu Branco/PA,-3.7785073,-49.5684795,922,1344.08210
D1,Breu Branco/PA,-3.7785073,-49.5684795,46,67.05833
1,Breves/PA,-1.68036,-50.479085,4083,3915.42002
D1,Breves/PA,-1.68036,-50.479085,120,115.07480
1,Britânia/GO,-15.2427599,-51.1602061,673,11573.51677
D1,Britânia/GO,-15.2427599,-51.1602061,8,137.57524
1,Brochier/RS,-29.556766,-51.5963047,616,12003.11769
D1,Brochier/RS,-29.556766,-51.5963047,5,97.42790
1,Brodowski/SP,-20.984532,-47.657217,2794,10911.93126
D1,Brodowski/SP,-20.984532,-47.657217,76,296.81703
1,Brotas de Macaúbas/BA,-12.0019007,-42.6257506,297,2774.40448
D1,Brotas de Macaúbas/BA,-12.0019007,-42.6257506,8,74.73143
1,Brotas/SP,-22.2840884,-48.1267265,2098,8438.58097
D1,Brotas/SP,-22.2840884,-48.1267265,68,273.50977
1,Brumadinho/MG,-20.143611,-44.2,4099,9947.09765
D1,Brumadinho/MG,-20.143611,-44.2,88,213.55077
1,Brumado/BA,-14.29507325,-41.659307508575985,9695,14369.77530
D1,Brumado/BA,-14.29507325,-41.659307508575985,199,294.95465
1,Brunópolis/SC,-27.310953,-50.837585,316,13632.44176
D1,Brunópolis/SC,-27.310953,-50.837585,8,345.12511
1,Brusque/SC,-27.0964628,-48.9136323,29618,21065.88334
D1,Brusque/SC,-27.0964628,-48.9136323,312,221.91085
1,Brás Pires/MG,-20.8483109,-43.2430524,302,7097.53231
D1,Brás Pires/MG,-20.8483109,-43.2430524,8,188.01410
1,Bueno Brandão/MG,-22.441976,-46.3517971,998,9087.59789
D1,Bueno Brandão/MG,-22.441976,-46.3517971,30,273.17429
1,Buenos Aires/PE,-7.7218931,-35.326587,387,2926.49728
D1,Buenos Aires/PE,-7.7218931,-35.326587,25,189.05021
1,Buenópolis/MG,-17.8756607,-44.1749365,305,2949.13943
D1,Buenópolis/MG,-17.8756607,-44.1749365,12,116.03172
1,Buerarema/BA,-14.9571177,-39.3008035,1368,7488.09459
D1,Buerarema/BA,-14.9571177,-39.3008035,45,246.31890
1,Bugre/MG,-19.4257687,-42.2556,372,9337.34940
D1,Bugre/MG,-19.4257687,-42.2556,13,326.30522
1,Bujari/AC,-9.8309656,-67.9520886,1139,10773.74196
D1,Bujari/AC,-9.8309656,-67.9520886,17,160.80212
1,Bujaru/PA,-1.5169239,-48.0410699,1460,4913.01275
D1,Bujaru/PA,-1.5169239,-48.0410699,40,134.60309
1,Buri/SP,-23.79849,-48.598924,2673,13331.67082
D1,Buri/SP,-23.79849,-48.598924,93,463.84040
1,Buritama/SP,-21.0664017,-50.1448077,2647,15200.41346
D1,Buritama/SP,-21.0664017,-50.1448077,75,430.68795
1,Buriti Alegre/GO,-18.1377879,-49.0404411,1090,11455.59643
D1,Buriti Alegre/GO,-18.1377879,-49.0404411,34,357.33053
1,Buriti Bravo/MA,-5.8391884,-43.8367876,1748,7285.45826
D1,Buriti Bravo/MA,-5.8391884,-43.8367876,20,83.35765
1,Buriti de Goiás/GO,-16.180644,-50.4287479,307,12459.41558
D1,Buriti de Goiás/GO,-16.180644,-50.4287479,9,365.25974
1,Buriti do Tocantins/TO,-5.3187439,-48.2256609,1149,9867.74304
D1,Buriti do Tocantins/TO,-5.3187439,-48.2256609,21,180.35040
1,Buriti dos Lopes/PI,-3.1776723,-41.8707444,1342,6766.84147
D1,Buriti dos Lopes/PI,-3.1776723,-41.8707444,34,171.44010
1,Buriti dos Montes/PI,-5.3136171,-41.0971256,717,8657.32915
D1,Buriti dos Montes/PI,-5.3136171,-41.0971256,9,108.66940
1,Buriti/MA,-3.9430944,-42.9244281,884,3057.13100
D1,Buriti/MA,-3.9430944,-42.9244281,8,27.66634
1,Buriticupu/MA,-4.3227472,-46.4516989,3763,5113.11910
D1,Buriticupu/MA,-4.3227472,-46.4516989,78,105.98546
1,Buritinópolis/GO,-14.4589282,-46.4293104,216,6601.46699
D1,Buritinópolis/GO,-14.4589282,-46.4293104,3,91.68704
1,Buritirama/BA,-10.7148421,-43.6362327,851,3981.47282
D1,Buritirama/BA,-10.7148421,-43.6362327,23,107.60737
1,Buritirana/MA,-5.5897455,-47.0148915,448,2889.76327
D1,Buritirana/MA,-5.5897455,-47.0148915,24,154.80875
1,Buritis/MG,-15.621389,-46.423889,2223,8828.78589
D1,Buritis/MG,-15.621389,-46.423889,42,166.80567
1,Buritis/RO,-10.2054937,-63.8281954,5034,12265.18529
D1,Buritis/RO,-10.2054937,-63.8281954,77,187.60812
1,Buritizal/SP,-20.1933264,-47.7097165,348,7653.39784
D1,Buritizal/SP,-20.1933264,-47.7097165,10,219.92523
1,Buritizeiro/MG,-17.3667765,-44.9647781,1542,5471.18933
D1,Buritizeiro/MG,-17.3667765,-44.9647781,34,120.63582
1,Butiá/RS,-30.1256795,-51.9692224,2504,11944.85522
D1,Butiá/RS,-30.1256795,-51.9692224,57,271.90765
1,Buíque/PE,-8.6239732,-37.157296,2597,4368.52375
D1,Buíque/PE,-8.6239732,-37.157296,47,79.06069
1,Bálsamo/SP,-20.7343722,-49.5807484,1770,19220.32794
D1,Bálsamo/SP,-20.7343722,-49.5807484,66,716.69019
0,CASO SEM LOCALIZAÇÃO DEFINIDA/BA,-13.415069300066518,-38.14174656569957,11156,75.00808
D0,CASO SEM LOCALIZAÇÃO DEFINIDA/BA,-13.415069300066518,-38.14174656569957,291,1.95656
0,CASO SEM LOCALIZAÇÃO DEFINIDA/CE,-3.3445126297392798,-38.624961942434304,10718,117.36650
0,CASO SEM LOCALIZAÇÃO DEFINIDA/ES,-20.30989267097039,-39.81745156645774,4638,115.41189
D0,CASO SEM LOCALIZAÇÃO DEFINIDA/ES,-20.30989267097039,-39.81745156645774,233,5.79797
0,CASO SEM LOCALIZAÇÃO DEFINIDA/MG,-19.97049116501593,-43.8852149072783,4266,20.15231
D0,CASO SEM LOCALIZAÇÃO DEFINIDA/MG,-19.97049116501593,-43.8852149072783,360,1.70062
0,CASO SEM LOCALIZAÇÃO DEFINIDA/MT,-15.54791153961863,-56.17143998972475,3181,91.29089
D0,CASO SEM LOCALIZAÇÃO DEFINIDA/MT,-15.54791153961863,-56.17143998972475,241,6.91641
0,CASO SEM LOCALIZAÇÃO DEFINIDA/PR,-25.69415946385943,-48.10141676336737,12093,105.76391
D0,CASO SEM LOCALIZAÇÃO DEFINIDA/PR,-25.69415946385943,-48.10141676336737,368,3.21848
0,CASO SEM LOCALIZAÇÃO DEFINIDA/RR,2.813328208465927,-60.663338675861986,2671,440.93298
D0,CASO SEM LOCALIZAÇÃO DEFINIDA/RR,2.813328208465927,-60.663338675861986,18,2.97147
0,CASO SEM LOCALIZAÇÃO DEFINIDA/SP,-24.30968974555485,-46.21366504207253,988,2.15161
1,Caapiranga/AM,-3.3188884,-61.2096404,695,5155.02151
D1,Caapiranga/AM,-3.3188884,-61.2096404,22,163.18054
1,Caaporã/PB,-7.510234,-34.9154114,2154,9755.87662
D1,Caaporã/PB,-7.510234,-34.9154114,34,153.99248
1,Caarapó/MS,-22.6349267,-54.8240903,4073,13136.59087
D1,Caarapó/MS,-22.6349267,-54.8240903,56,180.61603
1,Caatiba/BA,-14.9782759,-40.4092325,953,15292.04108
D1,Caatiba/BA,-14.9782759,-40.4092325,15,240.69320
1,Cabaceiras do Paraguaçu/BA,-12.5377868,-39.1901339,766,4029.45818
D1,Cabaceiras do Paraguaçu/BA,-12.5377868,-39.1901339,5,26.30195
1,Cabaceiras/PB,-7.4899156,-36.2860501,463,8108.58144
D1,Cabaceiras/PB,-7.4899156,-36.2860501,4,70.05254
1,Cabeceira Grande/MG,-16.0297,-47.0906,488,6946.61922
D1,Cabeceira Grande/MG,-16.0297,-47.0906,6,85.40925
1,Cabeceiras do Piauí/PI,-4.4733665,-42.3098716,677,6344.29763
D1,Cabeceiras do Piauí/PI,-4.4733665,-42.3098716,15,140.56789
1,Cabeceiras/GO,-15.7995459,-46.9264991,436,5384.04544
D1,Cabeceiras/GO,-15.7995459,-46.9264991,17,209.92838
1,Cabedelo/PB,-6.97324,-34.8351609,9677,13869.26175
D1,Cabedelo/PB,-6.97324,-34.8351609,202,289.51027
1,Cabixi/RO,-13.4956065,-60.5424442,907,17900.13815
D1,Cabixi/RO,-13.4956065,-60.5424442,21,414.44642
1,Cabo Frio/RJ,-22.8804369,-42.0189227,14774,6311.59832
D1,Cabo Frio/RJ,-22.8804369,-42.0189227,813,347.32161
1,Cabo Verde/MG,-21.4743338,-46.3964995,759,5392.92312
D1,Cabo Verde/MG,-21.4743338,-46.3964995,9,63.94770
1,Cabo de Santo Agostinho/PE,-8.2838945,-35.0320984,9804,4650.94214
D1,Cabo de Santo Agostinho/PE,-8.2838945,-35.0320984,522,247.63278
1,Cabreúva/SP,-23.3075813,-47.1324417,4792,9372.18854
D1,Cabreúva/SP,-23.3075813,-47.1324417,121,236.65167
1,Cabrobó/PE,-8.5083701,-39.3106961,2445,7030.30652
D1,Cabrobó/PE,-8.5083701,-39.3106961,27,77.63529
1,Cabrália Paulista/SP,-22.4562909,-49.3385645,448,10611.08479
D1,Cabrália Paulista/SP,-22.4562909,-49.3385645,9,213.16911
1,Cacaulândia/RO,-10.3380043,-62.9007231,923,14634.53306
D1,Cacaulândia/RO,-10.3380043,-62.9007231,14,221.97558
1,Cacequi/RS,-29.8838059,-54.8273443,801,6516.96363
D1,Cacequi/RS,-29.8838059,-54.8273443,11,89.49638
1,Cachoeira Alta/GO,-18.7618269,-50.9432431,1746,13594.95445
D1,Cachoeira Alta/GO,-18.7618269,-50.9432431,23,179.08588
1,Cachoeira Dourada/GO,-18.4934204,-49.481062,872,10904.08903
D1,Cachoeira Dourada/GO,-18.4934204,-49.481062,31,387.64537
1,Cachoeira Dourada/MG,-18.517136,-49.5002062,170,6250.00000
D1,Cachoeira Dourada/MG,-18.517136,-49.5002062,2,73.52941
1,Cachoeira Grande/MA,-2.9290492,-44.0573223,327,3433.43133
D1,Cachoeira Grande/MA,-2.9290492,-44.0573223,8,83.99832
1,Cachoeira Paulista/SP,-22.666498,-45.015384,2650,7833.97877
D1,Cachoeira Paulista/SP,-22.666498,-45.015384,44,130.07361
1,Cachoeira da Prata/MG,-19.524723,-44.453056,226,6312.84916
D1,Cachoeira da Prata/MG,-19.524723,-44.453056,13,363.12849
1,Cachoeira de Goiás/GO,-16.6688414,-50.6435997,128,9580.83832
D1,Cachoeira de Goiás/GO,-16.6688414,-50.6435997,4,299.40120
1,Cachoeira de Minas/MG,-22.3554043,-45.7796324,1102,9492.63502
D1,Cachoeira de Minas/MG,-22.3554043,-45.7796324,18,155.05211
1,Cachoeira de Pajeú/MG,-15.965833,-41.496666,535,5649.41922
D1,Cachoeira de Pajeú/MG,-15.965833,-41.496666,11,116.15628
1,Cachoeira do Arari/PA,-1.0143572,-48.9621089,503,2065.28434
D1,Cachoeira do Arari/PA,-1.0143572,-48.9621089,25,102.64833
1,Cachoeira do Piriá/PA,-1.7599443,-46.5446954,956,2707.67836
D1,Cachoeira do Piriá/PA,-1.7599443,-46.5446954,7,19.82610
1,Cachoeira do Sul/RS,-30.0474778,-52.8905413,10869,13327.69276
D1,Cachoeira do Sul/RS,-30.0474778,-52.8905413,196,240.33745
1,Cachoeira dos Índios/PB,-6.9259193,-38.6742159,930,8973.36936
D1,Cachoeira dos Índios/PB,-6.9259193,-38.6742159,16,154.38055
1,Cachoeira/BA,-12.5998256,-38.9665918,1741,5172.46502
D1,Cachoeira/BA,-12.5998256,-38.9665918,30,89.12921
1,Cachoeiras de Macacu/RJ,-22.4626861,-42.6534414,3393,5687.99034
D1,Cachoeiras de Macacu/RJ,-22.4626861,-42.6534414,105,176.02092
1,Cachoeirinha/PE,-8.4906364,-36.2338963,646,3133.18460
D1,Cachoeirinha/PE,-8.4906364,-36.2338963,34,164.90445
1,Cachoeirinha/RS,-29.9493353,-51.0898927,15635,11831.78956
D1,Cachoeirinha/RS,-29.9493353,-51.0898927,451,341.29435
1,Cachoeirinha/TO,-6.118647,-47.9208885,128,5582.20672
D1,Cachoeirinha/TO,-6.118647,-47.9208885,2,87.22198
1,Cachoeiro de Itapemirim/ES,-20.848084,-41.11129,28806,13576.72077
D1,Cachoeiro de Itapemirim/ES,-20.848084,-41.11129,600,282.78943
1,Cacimba de Areia/PB,-7.1288513,-37.1575194,62,1672.06041
D1,Cacimba de Areia/PB,-7.1288513,-37.1575194,4,107.87487
1,Cacimba de Dentro/PB,-6.6425101,-35.7929304,1239,7216.49485
D1,Cacimba de Dentro/PB,-6.6425101,-35.7929304,35,203.85579
1,Cacimbas/PB,-7.2125451,-37.0593398,263,3640.13841
D1,Cacimbas/PB,-7.2125451,-37.0593398,8,110.72664
1,Cacimbinhas/AL,-9.401212,-36.991082,900,8241.75824
D1,Cacimbinhas/AL,-9.401212,-36.991082,11,100.73260
1,Cacique Doble/RS,-27.7700117,-51.6616409,606,11922.09325
D1,Cacique Doble/RS,-27.7700117,-51.6616409,12,236.08105
1,Cacoal/RO,-11.4333,-61.4420502,14616,16913.53453
D1,Cacoal/RO,-11.4333,-61.4420502,302,349.47232
1,Caconde/SP,-21.527995,-46.643659,1430,7514.05601
D1,Caconde/SP,-21.527995,-46.643659,39,204.92880
1,Caculé/BA,-14.4990734,-42.2233006,2631,11240.22728
D1,Caculé/BA,-14.4990734,-42.2233006,21,89.71675
1,Caetanos/BA,-14.3387456,-40.9085971,755,5146.20680
D1,Caetanos/BA,-14.3387456,-40.9085971,11,74.97785
1,Caetanópolis/MG,-19.2947496,-44.4138386,1167,9832.33634
D1,Caetanópolis/MG,-19.2947496,-44.4138386,20,168.50619
1,Caetité/BA,-14.0691776,-42.4852428,3985,7785.63614
D1,Caetité/BA,-14.0691776,-42.4852428,42,82.05689
1,Caeté/MG,-19.897777,-43.670278,2126,4686.53558
D1,Caeté/MG,-19.897777,-43.670278,72,158.71616
1,Caetés/PE,-8.7728788,-36.6255835,1710,5883.36487
D1,Caetés/PE,-8.7728788,-36.6255835,23,79.13298
1,Cafarnaum/BA,-11.691399,-41.468823,919,4944.84800
D1,Cafarnaum/BA,-11.691399,-41.468823,23,123.75572
1,Cafeara/PR,-22.78905,-51.714195,435,14631.68517
D1,Cafeara/PR,-22.78905,-51.714195,11,369.99664
1,Cafelândia/PR,-24.6176963,-53.3218057,2632,14012.67103
D1,Cafelândia/PR,-24.6176963,-53.3218057,31,165.04286
1,Cafelândia/SP,-21.8054355,-49.6030627,820,4576.65904
D1,Cafelândia/SP,-21.8054355,-49.6030627,46,256.73941
1,Cafezal do Sul/PR,-23.900508,-53.512418,454,11421.38365
D1,Cafezal do Sul/PR,-23.900508,-53.512418,7,176.10063
1,Caiabu/SP,-22.0143038,-51.2356597,315,7508.93921
D1,Caiabu/SP,-22.0143038,-51.2356597,7,166.86532
1,Caiana/MG,-20.695555,-41.924723,171,3062.32092
D1,Caiana/MG,-20.695555,-41.924723,7,125.35817
1,Caiapônia/GO,-16.9538779,-51.8090761,1537,7962.08040
D1,Caiapônia/GO,-16.9538779,-51.8090761,43,222.75176
1,Caibaté/RS,-28.290475,-54.645407,418,8704.70637
D1,Caibaté/RS,-28.290475,-54.645407,7,145.77259
1,Caibi/SC,-27.0751925,-53.2502133,689,11272.90576
D1,Caibi/SC,-27.0751925,-53.2502133,16,261.78010
1,Caicó/RN,-6.4594544,-37.0971911,12325,17933.53316
D1,Caicó/RN,-6.4594544,-37.0971911,150,218.25801
1,Caieiras/SP,-23.3644621,-46.7484765,9483,9114.41313
D1,Caieiras/SP,-23.3644621,-46.7484765,321,308.52332
1,Cairu/BA,-13.4860505,-39.0455744,1561,8362.79867
D1,Cairu/BA,-13.4860505,-39.0455744,16,85.71735
1,Caiuá/SP,-21.8319357,-51.9887179,400,6647.83115
D1,Caiuá/SP,-21.8319357,-51.9887179,9,149.57620
1,Caiçara do Norte/RN,-5.0645017,-36.0561226,533,8110.16433
D1,Caiçara do Norte/RN,-5.0645017,-36.0561226,12,182.59282
1,Caiçara do Rio do Vento/RN,-5.757968,-36.00089,369,9853.13752
D1,Caiçara do Rio do Vento/RN,-5.757968,-36.00089,8,213.61816
1,Caiçara/PB,-6.6146866,-35.4681434,827,11514.89836
D1,Caiçara/PB,-6.6146866,-35.4681434,14,194.93177
1,Caiçara/RS,-27.2750478,-53.4310053,650,13951.49174
D1,Caiçara/RS,-27.2750478,-53.4310053,10,214.63833
1,Cajamar/SP,-23.3561111,-46.8769444,5348,6766.70800
D1,Cajamar/SP,-23.3561111,-46.8769444,232,293.54455
1,Cajapió/MA,-2.8778715,-44.6746871,171,1519.32474
D1,Cajapió/MA,-2.8778715,-44.6746871,7,62.19458
1,Cajari/MA,-3.3213076,-45.0118757,278,1424.10737
D1,Cajari/MA,-3.3213076,-45.0118757,9,46.10420
1,Cajati/SP,-24.7272376,-48.1077914,4634,16293.37928
D1,Cajati/SP,-24.7272376,-48.1077914,103,362.15323
1,Cajazeiras do Piauí/PI,-6.794271,-42.3935024,80,2230.89794
D1,Cajazeiras do Piauí/PI,-6.794271,-42.3935024,1,27.88622
1,Cajazeiras/PB,-6.8897849,-38.5570389,9853,15745.65329
D1,Cajazeiras/PB,-6.8897849,-38.5570389,157,250.89491
1,Cajazeirinhas/PB,-6.961442,-37.7993733,212,6589.99067
D1,Cajazeirinhas/PB,-6.961442,-37.7993733,1,31.08486
1,Cajobi/SP,-20.8776238,-48.8106972,1081,10151.18790
D1,Cajobi/SP,-20.8776238,-48.8106972,31,291.10715
1,Cajueiro da Praia/PI,-2.931114,-41.340801,487,6321.39148
D1,Cajueiro da Praia/PI,-2.931114,-41.340801,20,259.60540
1,Cajueiro/AL,-9.399589,-36.1524309,638,2981.72641
D1,Cajueiro/AL,-9.399589,-36.1524309,31,144.88012
1,Cajuri/MG,-20.7901414,-42.7954489,425,10729.61373
D1,Cajuri/MG,-20.7901414,-42.7954489,7,176.72305
1,Cajuru/SP,-21.2759978,-47.3046035,1970,7402.39732
D1,Cajuru/SP,-21.2759978,-47.3046035,57,214.18104
1,Caldas Brandão/PB,-7.1027959,-35.3254676,601,9889.74823
D1,Caldas Brandão/PB,-7.1027959,-35.3254676,10,164.55488
1,Caldas Novas/GO,-17.745,-48.625,12045,12654.57067
D1,Caldas Novas/GO,-17.745,-48.625,279,293.11957
1,Caldas/MG,-21.923611,-46.386111,1020,6986.30137
D1,Caldas/MG,-21.923611,-46.386111,39,267.12329
1,Caldazinha/GO,-16.7116649,-49.0012601,381,9769.23077
D1,Caldazinha/GO,-16.7116649,-49.0012601,11,282.05128
1,Caldeirão Grande do Piauí/PI,-7.3310393,-40.6374433,449,7760.11061
D1,Caldeirão Grande do Piauí/PI,-7.3310393,-40.6374433,2,34.56619
1,Caldeirão Grande/BA,-11.0208483,-40.3041387,569,4229.85430
D1,Caldeirão Grande/BA,-11.0208483,-40.3041387,6,44.60303
1,Califórnia/PR,-23.6672543,-51.3554556,1302,15067.70050
D1,Califórnia/PR,-23.6672543,-51.3554556,38,439.76392
1,Calmon/SC,-26.6023644,-51.0992893,50,1503.75940
D1,Calmon/SC,-26.6023644,-51.0992893,7,210.52632
1,Calumbi/PE,-7.9389746,-38.1516871,775,13492.33983
D1,Calumbi/PE,-7.9389746,-38.1516871,5,87.04735
1,Calçado/PE,-8.7413446,-36.3351787,542,4934.89939
D1,Calçado/PE,-8.7413446,-36.3351787,7,63.73486
1,Calçoene/AP,2.4981757,-50.9539503,1681,14626.29427
D1,Calçoene/AP,2.4981757,-50.9539503,11,95.71043
1,Camacan/BA,-15.4166631,-39.4930088,3034,9474.44025
D1,Camacan/BA,-15.4166631,-39.4930088,87,271.67973
1,Camacho/MG,-20.625556,-45.156667,142,5001.76118
D1,Camacho/MG,-20.625556,-45.156667,2,70.44734
1,Camalaú/PB,-7.885031,-36.824191,454,7506.61376
D1,Camalaú/PB,-7.885031,-36.824191,7,115.74074
1,Camamu/BA,-13.9438142,-39.1060917,2491,7027.98781
D1,Camamu/BA,-13.9438142,-39.1060917,57,160.81706
1,Camanducaia/MG,-22.755278,-46.144444,3445,15780.31240
D1,Camanducaia/MG,-22.755278,-46.144444,70,320.64495
1,Camapuã/MS,-19.5291747,-54.0434641,930,6800.73126
D1,Camapuã/MS,-19.5291747,-54.0434641,32,234.00366
1,Camaquã/RS,-30.8524752,-51.8075619,7430,11141.76889
D1,Camaquã/RS,-30.8524752,-51.8075619,150,224.93477
1,Camaragibe/PE,-8.0213832,-34.9810768,7521,4702.24140
D1,Camaragibe/PE,-8.0213832,-34.9810768,437,273.21892
1,Camargo/RS,-28.5865661,-52.2031474,442,16072.72727
D1,Camargo/RS,-28.5865661,-52.2031474,7,254.54545
1,Camaçari/BA,-12.6998188,-38.3260762,24769,8010.46545
D1,Camaçari/BA,-12.6998188,-38.3260762,621,200.83568
1,Cambará do Sul/RS,-29.0489517,-50.145412,337,5279.64907
D1,Cambará do Sul/RS,-29.0489517,-50.145412,10,156.66614
1,Cambará/PR,-23.042273,-50.075281,3060,11967.61704
D1,Cambará/PR,-23.042273,-50.075281,64,250.30310
1,Cambira/PR,-23.600265,-51.581045,1099,13794.40191
D1,Cambira/PR,-23.600265,-51.581045,26,326.34618
1,Camboriú/SC,-27.0273601,-48.6535657,14035,16099.06055
D1,Camboriú/SC,-27.0273601,-48.6535657,170,195.00109
1,Cambuci/RJ,-21.5749919,-41.9107833,1091,7029.18626
D1,Cambuci/RJ,-21.5749919,-41.9107833,40,257.71535
1,Cambuquira/MG,-21.853056,-45.2953619,858,6697.89227
D1,Cambuquira/MG,-21.853056,-45.2953619,27,210.77283
1,Cambuí/MG,-22.6122501,-46.0572137,4107,13659.03951
D1,Cambuí/MG,-22.6122501,-46.0572137,60,199.54769
1,Cambé/PR,-23.2782035,-51.2779583,12718,11762.20336
D1,Cambé/PR,-23.2782035,-51.2779583,317,293.17648
1,Cametá/PA,-2.242949,-49.497885,9826,6977.99935
D1,Cametá/PA,-2.242949,-49.497885,266,188.90167
1,Camocim de São Félix/PE,-8.3616757,-35.7638903,592,3110.55065
D1,Camocim de São Félix/PE,-8.3616757,-35.7638903,19,99.83186
1,Camocim/CE,-2.9009918,-40.8427389,6282,9793.13140
D1,Camocim/CE,-2.9009918,-40.8427389,163,254.10386
1,Campanha/MG,-21.8361108,-45.401986,2207,13094.03738
D1,Campanha/MG,-21.8361108,-45.401986,45,266.98309
1,Campanário/MG,-18.2398144,-41.7271768,252,6739.76999
D1,Campanário/MG,-18.2398144,-41.7271768,6,160.47071
1,Campestre da Serra/RS,-28.7966535,-51.0958149,310,9112.28689
D1,Campestre da Serra/RS,-28.7966535,-51.0958149,2,58.78895
1,Campestre de Goiás/GO,-16.7624179,-49.69497,555,15155.65265
D1,Campestre de Goiás/GO,-16.7624179,-49.69497,15,409.61223
1,Campestre do Maranhão/MA,-6.1729113,-47.3640512,1120,7708.18995
D1,Campestre do Maranhão/MA,-6.1729113,-47.3640512,44,302.82175
1,Campestre/AL,-8.8481634,-35.5660033,265,3800.91796
