type,name,lat,lon,total,total_per_100k_inhabitants
1,Abadia de Goiás/GO,-16.7572644,-49.4412205,6,68.39166
1,Abadia dos Dourados/MG,-18.4911191,-47.4063589,5,71.54099
1,Abaetetuba/PA,-1.721828,-48.878843,539,341.79254
D1,Abaetetuba/PA,-1.721828,-48.878843,34,21.56020
1,Abaeté/MG,-19.1566833,-45.4481213,1,4.30348
1,Abaiara/CE,-7.3607808,-39.0487878,1,8.52006
1,Abatiá/PR,-23.3052967,-50.3102532,1,13.41022
1,Abaíra/BA,-13.2503296,-41.6640342,5,57.21478
1,Abel Figueiredo/PA,-4.953001,-48.3958485,3,40.35513
D1,Abel Figueiredo/PA,-4.953001,-48.3958485,1,13.45171
1,Abelardo Luz/SC,-26.5705893,-52.3280339,3,16.75603
1,Abreu e Lima/PE,-7.900719,-34.898389,265,265.02650
D1,Abreu e Lima/PE,-7.900719,-34.898389,24,24.00240
1,Abreulândia/TO,-9.6221526,-49.1558343,2,77.54944
1,Acajutiba/BA,-11.6609659,-38.0186381,1,6.59674
1,Acarape/CE,-4.2237866,-38.7071663,23,154.06256
D1,Acarape/CE,-4.2237866,-38.7071663,3,20.09512
1,Acaraú/CE,-2.8869514,-40.1194713,310,494.88354
D1,Acaraú/CE,-2.8869514,-40.1194713,12,19.15678
1,Acari/RN,-6.4364689,-36.6394777,3,26.93966
1,Acará/PA,-1.961388,-48.1987043,30,53.96557
D1,Acará/PA,-1.961388,-48.1987043,7,12.59197
1,Acopiara/CE,-6.0936464,-39.4543204,48,88.44666
D1,Acopiara/CE,-6.0936464,-39.4543204,2,3.68528
1,Acorizal/MT,-15.2001544,-56.3668953,4,74.08779
1,Acrelândia/AC,-10.0759167,-67.0526898,129,845.56896
D1,Acrelândia/AC,-10.0759167,-67.0526898,1,6.55480
1,Adamantina/SP,-21.6866517,-51.0762975,37,105.50930
D1,Adamantina/SP,-21.6866517,-51.0762975,2,5.70321
1,Adolfo/SP,-21.2356597,-49.6441918,3,84.22235
1,Adustina/BA,-10.5358875,-38.114479,2,11.73709
D1,Adustina/BA,-10.5358875,-38.114479,1,5.86854
1,Afogados da Ingazeira/PE,-7.750429,-37.6356375,6,16.10349
1,Afonso Bezerra/RN,-5.4745,-36.57625071327935,6,54.37245
D1,Afonso Bezerra/RN,-5.4745,-36.57625071327935,1,9.06208
1,Afonso Cláudio/ES,-20.077841,-41.12606,48,156.93455
D1,Afonso Cláudio/ES,-20.077841,-41.12606,6,19.61682
1,Afonso Cunha/MA,-4.1326105,-43.3230026,1,15.32802
1,Afrânio/PE,-8.5198919,-41.0070197,4,20.37179
1,Afuá/PA,-0.1535664,-50.3879223,92,234.58616
D1,Afuá/PA,-0.1535664,-50.3879223,2,5.09970
1,Agrestina/PE,-8.4558021,-35.9442663,18,72.33273
D1,Agrestina/PE,-8.4558021,-35.9442663,4,16.07394
1,Agronômica/SC,-27.2660744,-49.7104753,9,165.19824
D1,Agronômica/SC,-27.2660744,-49.7104753,1,18.35536
1,Aguaí/SP,-22.0592036,-46.979384,17,46.82551
D1,Aguaí/SP,-22.0592036,-46.979384,3,8.26332
1,Agudos do Sul/PR,-25.9890808,-49.3328175,11,117.38342
1,Agudos/SP,-22.471162,-48.987822,22,59.11754
D1,Agudos/SP,-22.471162,-48.987822,1,2.68716
1,Aguiar/PB,-7.0928404,-38.1727215,1,17.73050
1,Aguiarnópolis/TO,-6.5600452,-47.4721189,12,178.22664
D1,Aguiarnópolis/TO,-6.5600452,-47.4721189,1,14.85222
1,Aimorés/MG,-19.4917754,-41.0615603,18,71.52223
1,Aiquara/BA,-14.126918,-39.8887574,3,67.47638
1,Aiuaba/CE,-6.5710836,-40.1212278,3,17.24237
1,Ajuricaba/RS,-28.239654,-53.7693013,2,28.47380
1,Alagoa Grande/PB,-7.0415212,-35.6285322,37,129.84278
D1,Alagoa Grande/PB,-7.0415212,-35.6285322,1,3.50926
1,Alagoa Nova/PB,-7.0653703,-35.76695977336711,10,47.96393
D1,Alagoa Nova/PB,-7.0653703,-35.76695977336711,1,4.79639
1,Alagoinha/PB,-6.97063215,-35.51490901897793,60,414.10725
1,Alagoinha/PE,-8.50355635,-36.77701174370496,6,40.99481
1,Alagoinhas/BA,-12.133526,-38.420772,32,21.10874
D1,Alagoinhas/BA,-12.133526,-38.420772,1,0.65965
1,Alambari/SP,-23.550338,-47.897971,4,66.39004
1,Alcinópolis/MS,-18.3264121,-53.7094463,1,18.71608
1,Alcântara/MA,-2.4038956,-44.4154241,6,27.15301
1,Alcântaras/CE,-3.586247,-40.5457641,55,469.52365
D1,Alcântaras/CE,-3.586247,-40.5457641,1,8.53679
1,Aldeias Altas/MA,-4.6291957,-43.4708622,4,15.07613
1,Alecrim/RS,-27.6566142,-54.7653195,1,16.80672
1,Alegre/ES,-20.7625787,-41.5318886,7,23.26818
1,Alegrete/RS,-29.790166,-55.794862,6,8.15339
1,Alenquer/PA,-1.946229,-54.738355,30,52.82713
D1,Alenquer/PA,-1.946229,-54.738355,1,1.76090
1,Alexandria/RN,-6.414779,-38.0135516,5,36.82699
D1,Alexandria/RN,-6.414779,-38.0135516,1,7.36540
1,Alexânia/GO,-16.0834049,-48.5077803,1,3.61624
1,Alfenas/MG,-21.4297405,-45.9479419,11,13.75069
1,Alfredo Chaves/ES,-20.624970400000002,-40.75006690147988,62,424.62845
D1,Alfredo Chaves/ES,-20.624970400000002,-40.75006690147988,2,13.69769
1,Alfredo Marcondes/SP,-21.9527,-51.413956,2,48.00768
D1,Alfredo Marcondes/SP,-21.9527,-51.413956,1,24.00384
1,Alfredo Vasconcelos/MG,-21.145833,-43.776389,1,14.47807
D1,Alfredo Vasconcelos/MG,-21.145833,-43.776389,1,14.47807
1,Alhandra/PB,-7.4304246,-34.9106103,78,398.20298
D1,Alhandra/PB,-7.4304246,-34.9106103,4,20.42067
1,Aliança do Tocantins/TO,-11.3055927,-48.9409096,3,55.65863
1,Aliança/PE,-7.60398,-35.222696,46,119.83536
D1,Aliança/PE,-7.60398,-35.222696,12,31.26140
1,Almadina/BA,-14.70466,-39.6381994,2,36.60322
1,Almeirim/PA,-1.5290377,-52.5788111,17,49.84022
D1,Almeirim/PA,-1.5290377,-52.5788111,1,2.93178
1,Almenara/MG,-16.1740678,-40.6904907,6,14.32118
1,Almino Afonso/RN,-6.1544208,-37.7649018,1,21.11932
1,Almirante Tamandaré/PR,-25.3133048,-49.2997838,19,16.01713
1,Aloândia/GO,-17.7277983,-49.4809338,1,50.12531
1,Alpercata/MG,-18.9803616,-41.9827637,3,40.40948
1,Alpestre/RS,-27.2512339,-53.0349646,10,159.79546
1,Alpinópolis/MG,-20.863611,-46.387777,1,5.03702
1,Alta Floresta D'Oeste/RO,-11.9296917,-61.9961284,3,13.07474
1,Alta Floresta/MT,-9.8715018,-56.0839881,16,30.89877
1,Altair/SP,-20.5238955,-49.0606135,1,24.03846
1,Altamira do Maranhão/MA,-4.1643006,-45.4674574,1,12.30315
D1,Altamira do Maranhão/MA,-4.1643006,-45.4674574,1,12.30315
1,Altamira/PA,-3.204065,-52.209961,269,234.74178
D1,Altamira/PA,-3.204065,-52.209961,3,2.61794
1,Alterosa/MG,-21.249166,-46.143055,1,6.91276
1,Altinho/PE,-8.4904095,-36.0607494,13,56.59063
1,Altinópolis/SP,-21.021364,-47.3712,2,12.35788
1,Alto Alegre do Maranhão/MA,-4.2055693,-44.4525287,68,251.35844
D1,Alto Alegre do Maranhão/MA,-4.2055693,-44.4525287,3,11.08934
1,Alto Alegre do Pindaré/MA,-3.6698186,-45.8462153,74,231.83684
1,Alto Alegre dos Parecis/RO,-12.1314515,-61.856265,4,30.20920
1,Alto Alegre/RR,2.98858,-61.307167,53,341.71502
D1,Alto Alegre/RR,2.98858,-61.307167,2,12.89491
1,Alto Alegre/SP,-21.5820592,-50.1661976,1,24.39619
D1,Alto Alegre/SP,-21.5820592,-50.1661976,1,24.39619
1,Alto Araguaia/MT,-17.3156528,-53.2169365,7,36.75698
1,Alto Bela Vista/SC,-27.4320737,-51.905771,5,258.13113
1,Alto Boa Vista/MT,-11.6723985,-51.3744431,1,14.65846
D1,Alto Boa Vista/MT,-11.6723985,-51.3744431,1,14.65846
1,Alto Garças/MT,-16.9469683,-53.529427,1,8.31255
1,Alto Jequitibá/MG,-20.423611,-41.966111,8,96.18853
D1,Alto Jequitibá/MG,-20.423611,-41.966111,1,12.02357
1,Alto Longá/PI,-5.2549051,-42.2072388,5,34.95526
1,Alto Paraguai/MT,-14.513712,-56.4936374,1,8.80592
1,Alto Paraná/PR,-23.131247,-52.318893,8,54.16385
1,Alto Paraíso/PR,-23.508137,-53.728537,1,36.48304
1,Alto Paraíso/RO,-9.7240103,-63.3188123,5,23.33396
D1,Alto Paraíso/RO,-9.7240103,-63.3188123,1,4.66679
1,Alto Parnaíba/MA,-9.112506,-45.9310154,5,44.68275
1,Alto Rio Doce/MG,-21.0239537,-43.4133507,1,9.09091
1,Alto Santo/CE,-5.5190371,-38.2719351,21,122.47755
D1,Alto Santo/CE,-5.5190371,-38.2719351,1,5.83226
1,Alto do Rodrigues/RN,-5.290868,-36.7616726,23,158.30408
D1,Alto do Rodrigues/RN,-5.290868,-36.7616726,3,20.64836
1,Altos/PI,-5.0393915,-42.4611694,29,71.56253
D1,Altos/PI,-5.0393915,-42.4611694,1,2.46767
1,Alumínio/SP,-23.5203479,-47.2575256,11,59.05089
D1,Alumínio/SP,-23.5203479,-47.2575256,1,5.36826
1,Alvarenga/MG,-19.4175,-41.728334,9,230.35577
1,Alvarães/AM,-3.214786,-64.8143124,70,436.38177
D1,Alvarães/AM,-3.214786,-64.8143124,6,37.40415
1,Alvorada D'Oeste/RO,-11.346271,-62.284697,3,20.81743
1,Alvorada do Gurguéia/PI,-8.4465288,-43.8655915,1,18.45359
1,Alvorada do Sul/PR,-22.7807269,-51.2307721,5,43.83658
1,Alvorada/RS,-29.9981184,-51.0772509,32,15.21600
D1,Alvorada/RS,-29.9981184,-51.0772509,3,1.42650
1,Alvorada/TO,-12.478465,-49.124926,7,83.21446
1,Além Paraíba/MG,-21.8760576,-42.6810473,39,110.28788
D1,Além Paraíba/MG,-21.8760576,-42.6810473,1,2.82789
1,Amajari/RR,3.6523869,-61.4194315,28,218.81838
D1,Amajari/RR,3.6523869,-61.4194315,1,7.81494
1,Amambai/MS,-23.1082701,-55.2284854,5,12.69164
1,Amaporã/PR,-23.094272,-52.786597,18,287.67780
1,Amapá do Maranhão/MA,-1.6762114,-46.0109669,2,28.72738
1,Amapá/AP,2.0529997,-50.7930003,41,450.10429
D1,Amapá/AP,2.0529997,-50.7930003,1,10.97815
1,Amaraji/PE,-8.373925,-35.4536527,28,122.65101
D1,Amaraji/PE,-8.373925,-35.4536527,7,30.66275
1,Amaralina/GO,-13.9236199,-49.2962411,2,52.46590
1,Amarante do Maranhão/MA,-5.56913,-46.747284,126,304.09074
1,Amarante/PI,-6.2459374,-42.8476238,5,28.41232
1,Amargosa/BA,-13.03793715,-39.60796443875596,6,16.11128
D1,Amargosa/BA,-13.03793715,-39.60796443875596,1,2.68521
1,Amaturá/AM,-3.3640509,-68.1994689,195,1690.36061
D1,Amaturá/AM,-3.3640509,-68.1994689,6,52.01110
1,Americana/SP,-22.7392463,-47.3306032,89,37.14571
D1,Americana/SP,-22.7392463,-47.3306032,4,1.66947
1,Ametista do Sul/RS,-27.3617341,-53.1826575,2,26.99420
1,Amontada/CE,-3.3634586,-39.8284791,108,248.55012
D1,Amontada/CE,-3.3634586,-39.8284791,4,9.20556
1,Amorinópolis/GO,-16.6211308,-51.0949921,2,63.97953
1,Amparo de São Francisco/SE,-10.1299754,-36.9269099,4,168.49200
1,Amparo/PB,-7.56394725,-37.04652873235175,11,491.51028
1,Amparo/SP,-22.70111,-46.76444,24,33.24330
D1,Amparo/SP,-22.70111,-46.76444,1,1.38514
1,Ampére/PR,-25.9168712,-53.4742414,5,26.10693
D1,Ampére/PR,-25.9168712,-53.4742414,1,5.22139
1,Amélia Rodrigues/BA,-12.4015388,-38.7516971,12,47.80496
1,Américo Brasiliense/SP,-21.7297099,-48.1052092,27,66.66008
1,Américo de Campos/SP,-20.298476,-49.735904,3,50.25967
1,Anadia/AL,-9.6830208,-36.3052699,21,119.69222
D1,Anadia/AL,-9.6830208,-36.3052699,1,5.69963
1,Anagé/BA,-14.6134669,-41.1376308,2,9.08884
D1,Anagé/BA,-14.6134669,-41.1376308,1,4.54442
1,Anahy/PR,-24.6450861,-53.1337957,3,107.10461
1,Anajatuba/MA,-3.26441,-44.6179916,49,182.81536
D1,Anajatuba/MA,-3.26441,-44.6179916,2,7.46185
1,Anajás/PA,-0.9878802,-49.9390114,91,310.82420
D1,Anajás/PA,-0.9878802,-49.9390114,2,6.83130
1,Anamã/AM,-3.5797356,-61.4049996,125,918.17247
1,Ananindeua/PA,-1.374035,-48.4016623,2239,421.97671
D1,Ananindeua/PA,-1.374035,-48.4016623,219,41.27418
1,Ananás/TO,-6.3663053,-48.080238,2,20.94460
1,Anapu/PA,-3.4668292,-51.2057035,53,190.03227
1,Anapurus/MA,-3.6751298,-43.1046001,102,648.36003
D1,Anapurus/MA,-3.6751298,-43.1046001,1,6.35647
1,Anchieta/ES,-20.8057672,-40.6454564,53,181.11609
D1,Anchieta/ES,-20.8057672,-40.6454564,1,3.41728
1,Anchieta/SC,-26.5350527,-53.3293938,4,70.94714
1,Andirá/PR,-23.0494761,-50.2310027,4,19.96905
1,Andradas/MG,-22.0680484,-46.5688976,4,9.73781
D1,Andradas/MG,-22.0680484,-46.5688976,1,2.43445
1,Andradina/SP,-20.896505,-51.3742765,40,69.98268
D1,Andradina/SP,-20.896505,-51.3742765,4,6.99827
1,Andrelândia/MG,-21.739722,-44.308889,7,57.26440
1,Angatuba/SP,-23.4938938,-48.4110675,15,59.45775
D1,Angatuba/SP,-23.4938938,-48.4110675,2,7.92770
1,Angical do Piauí/PI,-6.0872666,-42.7366138,4,58.92752
1,Angico/TO,-6.3893733,-47.8656722,1,29.12904
1,Angicos/RN,-5.6666344,-36.6009064,3,25.61038
1,Angra dos Reis/RJ,-23.0063966,-44.316326,637,312.58434
D1,Angra dos Reis/RJ,-23.0063966,-44.316326,23,11.28640
1,Anguera/BA,-12.1509425,-39.2452469,7,62.38303
1,Anhanguera/GO,-18.3338749,-48.220363,1,87.03220
1,Anhembi/SP,-22.7891096,-48.1316776,2,29.74420
1,Anhumas/SP,-22.2956478,-51.3873401,2,48.60267
1,Anita Garibaldi/SC,-27.6855032,-51.1293873,1,14.01935
1,Anori/AM,-3.7435254,-61.6605203,212,1009.04331
D1,Anori/AM,-3.7435254,-61.6605203,3,14.27891
1,Anta Gorda/RS,-28.9718745,-52.0069187,4,66.87845
1,Antonina do Norte/CE,-6.7754187,-39.9879345,2,27.19978
1,Antônio Carlos/SC,-27.5168462,-48.7684715,15,176.20110
D1,Antônio Carlos/SC,-27.5168462,-48.7684715,4,46.98696
1,Antônio Martins/RN,-6.2155812,-37.8890129,1,13.99580
1,Antônio Prado/RS,-28.8567806,-51.2801355,2,15.32567
1,Anápolis/GO,-16.3332828,-48.9525756,121,31.27237
D1,Anápolis/GO,-16.3332828,-48.9525756,2,0.51690
1,Anísio de Abreu/PI,-9.185643,-43.04941,15,151.82186
1,Aparecida de Goiânia/GO,-16.8226769,-49.2452546,267,46.17947
D1,Aparecida de Goiânia/GO,-16.8226769,-49.2452546,10,1.72957
1,Aparecida/PB,-6.7859598, -38.0831353,2,23.96070
1,Aparecida/SP,-22.851552,-45.2340924,5,13.82858
1,Aperibé/RJ,-21.6211928,-42.1028167,12,102.04949
1,Apiacá/ES,-21.152272,-41.569297,9,118.93749
1,Apiaí/SP,-24.5076527,-48.8461582,2,8.20546
1,Apicum-Açu/MA,-1.5279295,-45.082278,39,226.23122
1,Apodi/RN,-5.6631109,-37.796927,172,479.84377
D1,Apodi/RN,-5.6631109,-37.796927,2,5.57958
1,Aporá/BA,-11.6599747,-38.0794757,2,11.27968
1,Apuarema/BA,-13.8517897,-39.7457126,1,13.64256
1,Apucarana/PR,-23.5525327,-51.4610764,31,22.96364
D1,Apucarana/PR,-23.5525327,-51.4610764,3,2.22229
1,Apuiarés/CE,-3.9460303,-39.4313298,19,130.13699
D1,Apuiarés/CE,-3.9460303,-39.4313298,5,34.24658
1,Apuí/AM,-7.1940195,-59.8830192,24,109.22496
1,Aquidabã/SE,-10.2837579,-37.0188687,13,60.28846
1,Aquiraz/CE,-3.9063117,-38.387504,191,237.94396
D1,Aquiraz/CE,-3.9063117,-38.387504,4,4.98312
1,Arabutã/SC,-27.1587028,-52.1438142,18,421.84204
1,Aracaju/SE,-10.9162061,-37.0774655,3239,492.98872
D1,Aracaju/SE,-10.9162061,-37.0774655,48,7.30579
1,Aracati/CE,-4.558259,-37.767894,111,148.89935
D1,Aracati/CE,-4.558259,-37.767894,8,10.73148
1,Aracatu/BA,-14.4274236,-41.4604105,4,30.45299
1,Araci/BA,-11.3356065,-38.9573261,3,5.51684
D1,Araci/BA,-11.3356065,-38.9573261,1,1.83895
1,Aracoiaba/CE,-4.3702577,-38.8084313,92,347.57641
1,Aracruz/ES,-19.8245218,-40.2735025,88,86.93934
D1,Aracruz/ES,-19.8245218,-40.2735025,9,8.89152
1,Aragarças/GO,-15.8957166,-52.2514538,4,19.88269
1,Aragoiânia/GO,-16.9146388,-49.4499148,2,19.40241
1,Aragominas/TO,-7.1654101,-48.525488,3,52.10142
1,Araguanã/MA,-2.9508403,-45.6651986,76,492.67471
1,Araguanã/TO,-6.5799107,-48.6428482,1,17.45505
1,Araguapaz/GO,-15.0937927,-50.626417,2,25.74003
D1,Araguapaz/GO,-15.0937927,-50.626417,1,12.87001
1,Araguari/MG,-18.6511256,-48.1933764,18,15.34959
D1,Araguari/MG,-18.6511256,-48.1933764,1,0.85275
1,Araguatins/TO,-5.6522925,-48.1158973,46,128.63175
D1,Araguatins/TO,-5.6522925,-48.1158973,9,25.16708
1,Araguaçu/TO,-12.928934,-49.823134,2,23.48245
D1,Araguaçu/TO,-12.928934,-49.823134,1,11.74122
1,Araguaína/TO,-7.193241,-48.2018597,1205,667.70100
D1,Araguaína/TO,-7.193241,-48.2018597,13,7.20341
1,Araioses/MA,-2.890914,-41.904993,66,142.11886
1,Arame/MA,-4.8858769,-46.0102484,33,100.91435
1,Arandu/SP,-23.1345103,-49.0545651,10,157.30691
D1,Arandu/SP,-23.1345103,-49.0545651,2,31.46138
1,Arantina/MG,-21.911667,-44.255833,2,71.55635
1,Arapiraca/AL,-9.754866,-36.661471,272,117.36937
D1,Arapiraca/AL,-9.754866,-36.661471,8,3.45204
1,Arapongas/PR,-23.415296,-51.42592,20,16.25659
D1,Arapongas/PR,-23.415296,-51.42592,1,0.81283
1,Araquari/SC,-26.3703324,-48.7210994,22,57.69886
1,Arara/PB,-6.8271895,-35.7605703,6,44.54343
1,Araranguá/SC,-28.9348832,-49.4858389,48,70.35235
D1,Araranguá/SC,-28.9348832,-49.4858389,1,1.46567
1,Araraquara/SP,-21.7886713,-48.1773096,190,80.48392
D1,Araraquara/SP,-21.7886713,-48.1773096,4,1.69440
1,Araras/SP,-22.3569477,-47.3838889,79,58.85157
D1,Araras/SP,-22.3569477,-47.3838889,3,2.23487
1,Ararendá/CE,-4.7504395,-40.8303611,1,9.14495
D1,Ararendá/CE,-4.7504395,-40.8303611,1,9.14495
1,Arari/MA,-3.4547602,-44.7772723,54,180.91664
D1,Arari/MA,-3.4547602,-44.7772723,2,6.70062
1,Araripe/CE,-7.212861,-40.1359222,2,9.25926
1,Araripina/PE,-7.5768582,-40.5038509,27,31.98370
D1,Araripina/PE,-7.5768582,-40.5038509,2,2.36916
1,Araruama/RJ,-22.8733203,-42.3428897,82,61.93353
D1,Araruama/RJ,-22.8733203,-42.3428897,3,2.26586
1,Araruna/PB,-6.5321155,-35.7397595,3,14.76959
1,Araruna/PR,-23.9320308,-52.4976047,16,114.53114
D1,Araruna/PR,-23.9320308,-52.4976047,1,7.15820
1,Arataca/BA,-15.2617424,-39.4122943,2,18.15047
1,Aratuba/CE,-4.4195958,-39.0463737,12,101.29147
1,Araucária/PR,-25.5861107,-49.4051209,46,31.97931
1,Arauá/SE,-11.2644014,-37.6181058,3,29.83294
D1,Arauá/SE,-11.2644014,-37.6181058,2,19.88862
1,Araxá/MG,-19.5928536,-46.940241,50,47.06813
D1,Araxá/MG,-19.5928536,-46.940241,2,1.88273
1,Araçagi/PB,-6.8519969,-35.3835602,29,170.71878
1,Araçariguama/SP,-23.438611,-47.061389,9,40.24325
D1,Araçariguama/SP,-23.438611,-47.061389,1,4.47147
1,Araças/BA,-12.2139176,-38.2026159,1,8.21220
1,Araçatuba/SP,-21.207992,-50.4390225,138,70.04507
D1,Araçatuba/SP,-21.207992,-50.4390225,4,2.03029
1,Araçoiaba da Serra/SP,-23.5045367,-47.6168158,32,93.71522
D1,Araçoiaba da Serra/SP,-23.5045367,-47.6168158,1,2.92860
1,Araçoiaba/PE,-7.7856903,-35.0898881,26,126.68096
D1,Araçoiaba/PE,-7.7856903,-35.0898881,3,14.61703
1,Araçuaí/MG,-16.8484451,-42.0661868,1,2.72420
1,Arceburgo/MG,-21.364444,-46.939722,4,37.13331
1,Arcos/MG,-20.282223,-45.539444,12,29.93116
1,Arcoverde/PE,-8.415192,-37.057748,82,110.30698
D1,Arcoverde/PE,-8.415192,-37.057748,11,14.79728
1,Areal/RJ,-22.2314922,-43.1056264,14,111.35857
1,Arealva/SP,-22.0301906,-48.9111936,1,11.68224
1,Areia Branca/RN,-4.9506652,-37.1263312,127,457.26219
D1,Areia Branca/RN,-4.9506652,-37.1263312,11,39.60539
1,Areia Branca/SE,-10.7591455,-37.3148072,36,194.15381
1,Areia/PB,-6.9680243,-35.6994783,36,157.76327
D1,Areia/PB,-6.9680243,-35.6994783,1,4.38231
1,Areial/PB,-7.0501306,-35.9245244,7,100.02858
1,Areiópolis/SP,-22.6758064,-48.6673653,8,71.88427
1,Aripuanã/MT,-10.175806,-59.4439663,7,31.31431
D1,Aripuanã/MT,-10.175806,-59.4439663,1,4.47347
1,Ariquemes/RO,-9.9076522,-63.033069,241,223.43158
D1,Ariquemes/RO,-9.9076522,-63.033069,3,2.78131
1,Ariranha/SP,-21.18716,-48.790418,2,20.68680
1,Armazém/SC,-28.2624996,-49.0190126,24,276.68896
1,Armação dos Búzios/RJ,-22.7597805,-41.8875267,33,97.43136
1,Arneiroz/CE,-6.3235099,-40.1603859,19,242.34694
1,Aroazes/PI,-6.1108814,-41.7886137,1,17.13796
1,Aroeiras/PB,-7.5462904,-35.7080002,13,67.87448
1,Arraial do Cabo/RJ,-22.9662839,-42.024427,32,105.44005
D1,Arraial do Cabo/RJ,-22.9662839,-42.024427,2,6.59000
1,Arroio do Meio/RS,-29.4020392,-51.9444993,68,326.84451
1,Arroio do Sal/RS,-29.549852,-49.8874395,9,89.41878
D1,Arroio do Sal/RS,-29.549852,-49.8874395,1,9.93542
1,Arroio dos Ratos/RS,-30.0894524,-51.7265541,6,42.39983
D1,Arroio dos Ratos/RS,-30.0894524,-51.7265541,1,7.06664
1,Artur Nogueira/SP,-22.572737,-47.172679,10,18.37965
1,Arujá/SP,-23.396266,-46.3175449,194,215.97791
D1,Arujá/SP,-23.396266,-46.3175449,14,15.58603
1,Arvoredo/SC,-27.0752908,-52.4571847,8,357.14286
1,Arvorezinha/RS,-28.87369,-52.17808,1,9.59325
1,Arês/RN,-6.1969216,-35.1642968,4,27.96030
1,Assaré/CE,-6.8746791,-39.8741385,1,4.27040
1,Assaí/PR,-23.3736041,-50.8454929,2,13.22839
1,Assis Brasil/AC,-10.9409203,-69.5672108,7,94.37778
D1,Assis Brasil/AC,-10.9409203,-69.5672108,1,13.48254
1,Assis Chateaubriand/PR,-24.4054826,-53.5120468,24,71.93813
1,Assis/SP,-22.6620892,-50.420623,39,37.36133
D1,Assis/SP,-22.6620892,-50.420623,5,4.78991
1,Assunção/PB,-7.073396,-36.7274003,1,25.06266
1,Astolfo Dutra/MG,-21.3132636,-42.8624102,8,56.42147
1,Atalaia do Norte/AM,-4.3658547,-70.1908742,6,30.11897
1,Atalaia/AL,-9.5029595,-36.0219316,89,188.61926
D1,Atalaia/AL,-9.5029595,-36.0219316,3,6.35795
1,Atalanta/SC,-27.421916,-49.778863,3,93.45794
1,Atibaia/SP,-23.1177393,-46.5547861,78,54.63677
D1,Atibaia/SP,-23.1177393,-46.5547861,4,2.80189
1,Atilio Vivacqua/ES,-20.9139369,-41.1947519,1,8.37802
1,Augustinópolis/TO,-5.4662267,-47.8897519,23,124.91853
D1,Augustinópolis/TO,-5.4662267,-47.8897519,2,10.86248
1,Augusto Corrêa/PA,-1.0229335,-46.6404029,56,121.74442
D1,Augusto Corrêa/PA,-1.0229335,-46.6404029,3,6.52202
1,Aurelino Leal/BA,-14.3167137,-39.3256107,4,34.68910
1,Auriflama/SP,-20.6840418,-50.5554616,1,6.58371
1,Aurilândia/GO,-16.6772599,-50.4641231,1,32.05128
D1,Aurilândia/GO,-16.6772599,-50.4641231,1,32.05128
1,Aurora do Pará/PA,-2.1323199,-47.558436,31,98.92144
1,Aurora do Tocantins/TO,-12.71045,-46.407604,2,53.23396
1,Aurora/CE,-6.9426019,-38.9693765,5,20.28068
D1,Aurora/CE,-6.9426019,-38.9693765,1,4.05614
1,Aurora/SC,-27.3166417,-49.6368502,4,70.43494
1,Autazes/AM,-3.5833283,-59.1301518,432,1091.87413
D1,Autazes/AM,-3.5833283,-59.1301518,22,55.60470
1,Avanhandava/SP,-21.4603331,-49.9465156,1,7.32654
1,Avaré/SP,-23.1045215,-48.9259103,42,46.32949
D1,Avaré/SP,-23.1045215,-48.9259103,3,3.30925
1,Avaí/SP,-22.1564662,-49.3316395,2,37.01647
1,Avelino Lopes/PI,-10.1346855,-43.9489525,1,8.85818
1,Axixá do Tocantins/TO,-5.612747,-47.77007,27,276.75277
D1,Axixá do Tocantins/TO,-5.612747,-47.77007,2,20.50021
1,Axixá/MA,-2.8379465,-44.0561053,12,98.92828
1,Açailândia/MA,-4.9514278,-47.4844564,434,385.96647
D1,Açailândia/MA,-4.9514278,-47.4844564,3,2.66797
1,Açu/RN,-5.5836157,-36.9139541,98,168.91601
D1,Açu/RN,-5.5836157,-36.9139541,4,6.89453
1,Açucena/MG,-19.073056,-42.546666,2,21.11932
D1,Açucena/MG,-19.073056,-42.546666,1,10.55966
1,Babaçulândia/TO,-7.2034355,-47.761613,1,9.37734
1,Bacabal/MA,-4.2318132,-44.781167,230,219.15407
D1,Bacabal/MA,-4.2318132,-44.781167,1,0.95284
1,Bacabeira/MA,-2.9775747,-44.3155943,61,357.66637
D1,Bacabeira/MA,-2.9775747,-44.3155943,2,11.72677
1,Bacuri/MA,-1.728894,-45.1417148,21,113.01259
1,Bacurituba/MA,-2.7082587,-44.7381309,2,35.43586
1,Bady Bassitt/SP,-20.9178969,-49.4517911,21,119.98629
D1,Bady Bassitt/SP,-20.9178969,-49.4517911,4,22.85453
1,Bagre/PA,-1.8994498,-50.2103844,44,143.44864
D1,Bagre/PA,-1.8994498,-50.2103844,4,13.04079
1,Bagé/RS,-31.3314264,-54.1062808,35,28.89148
1,Baixa Grande do Ribeiro/PI,-7.862861,-45.2113289,7,60.41775
D1,Baixa Grande do Ribeiro/PI,-7.862861,-45.2113289,1,8.63111
1,Baixo Guandu/ES,-19.5138322,-41.0182089,50,161.30073
D1,Baixo Guandu/ES,-19.5138322,-41.0182089,1,3.22601
1,Baião/PA,-2.7903479,-49.6702845,89,187.58167
D1,Baião/PA,-2.7903479,-49.6702845,3,6.32298
1,Balneário Arroio do Silva/SC,-28.9815269,-49.4189932,16,122.40838
D1,Balneário Arroio do Silva/SC,-28.9815269,-49.4189932,1,7.65052
1,Balneário Barra do Sul/SC,-26.459842,-48.6061471,7,64.84484
1,Balneário Camboriú/SC,-26.9924395,-48.6339782,287,201.69366
D1,Balneário Camboriú/SC,-26.9924395,-48.6339782,2,1.40553
1,Balneário Gaivota/SC,-29.1553098,-49.5808712,9,81.97468
D1,Balneário Gaivota/SC,-29.1553098,-49.5808712,1,9.10830
1,Balneário Piçarras/SC,-26.7638889,-48.6716667,24,103.68514
1,Balneário Rincão/SC,-28.8235718,-49.2241642,3,23.51097
1,Balsa Nova/PR,-25.5842234,-49.6312741,5,38.63689
1,Balsas/MA,-7.53214,-46.037163,195,205.50760
1,Banabuiú/CE,-5.3046404,-38.919766,57,313.23845
D1,Banabuiú/CE,-5.3046404,-38.919766,1,5.49541
1,Bananal/SP,-22.6828195,-44.3221095,3,27.40978
1,Bananeiras/PB,-6.7537682,-35.6338343,15,70.36307
1,Bandeirantes do Tocantins/TO,-7.7635698,-48.579148,5,140.72615
1,Bandeirantes/PR,-23.107788,-50.370407,3,9.56419
D1,Bandeirantes/PR,-23.107788,-50.370407,1,3.18806
1,Bannach/PA,-7.3508505,-50.4064531,8,243.45709
D1,Bannach/PA,-7.3508505,-50.4064531,1,30.43214
1,Banzaê/BA,-10.5827616,-38.6122305,1,7.55915
1,Baraúna/RN,-5.0775002,-37.61752,62,218.50990
D1,Baraúna/RN,-5.0775002,-37.61752,2,7.04871
1,Barbacena/MG,-21.2254524,-43.7735087,102,74.28284
D1,Barbacena/MG,-21.2254524,-43.7735087,4,2.91305
1,Barbalha/CE,-7.3121067,-39.3036427,33,54.29328
D1,Barbalha/CE,-7.3121067,-39.3036427,2,3.29050
1,Barcarena/PA,-1.5107945,-48.6190679,430,344.88290
D1,Barcarena/PA,-1.5107945,-48.6190679,60,48.12320
1,Barcelona/RN,-5.9514918,-35.9260284,1,25.01251
1,Barcelos/AM,-0.9729214,-62.925635,280,1018.10777
D1,Barcelos/AM,-0.9729214,-62.925635,11,39.99709
1,Bariri/SP,-22.0746355,-48.7394852,9,25.52178
D1,Bariri/SP,-22.0746355,-48.7394852,1,2.83575
1,Barra Bonita/SP,-22.490859,-48.558349,24,66.43415
D1,Barra Bonita/SP,-22.490859,-48.558349,1,2.76809
1,Barra Mansa/RJ,-22.5394843,-44.1735129,124,67.24074
D1,Barra Mansa/RJ,-22.5394843,-44.1735129,9,4.88038
1,Barra Velha/SC,-26.6338203,-48.6835001,11,37.71256
1,Barra de Guabiraba/PE,-8.4173522,-35.6626669,11,76.46854
D1,Barra de Guabiraba/PE,-8.4173522,-35.6626669,1,6.95169
1,Barra de Santa Rosa/PB,-6.7218007,-36.0564638,1,6.50026
1,Barra de Santana/PB,-7.5230865,-35.9988518,12,143.55784
1,Barra de Santo Antônio/AL,-9.4038098,-35.5117693,14,87.87346
D1,Barra de Santo Antônio/AL,-9.4038098,-35.5117693,1,6.27668
1,Barra de São Francisco/ES,-18.7570902,-40.8916119,72,161.25420
D1,Barra de São Francisco/ES,-18.7570902,-40.8916119,2,4.47928
1,Barra de São Miguel/AL,-9.8261357,-35.8837777,19,228.31050
D1,Barra de São Miguel/AL,-9.8261357,-35.8837777,1,12.01634
1,Barra de São Miguel/PB,-7.7528088,-36.3170996,1,16.56726
1,Barra do Choça/BA,-14.8638173,-40.5761637,7,22.14980
1,Barra do Corda/MA,-5.496823,-45.248496,365,413.77590
D1,Barra do Corda/MA,-5.496823,-45.248496,9,10.20269
1,Barra do Garças/MT,-15.8916033,-52.2615413,65,106.53642
D1,Barra do Garças/MT,-15.8916033,-52.2615413,3,4.91707
1,Barra do Mendes/BA,-11.8053298,-42.057037,1,7.21241
1,Barra do Ouro/TO,-7.7113784,-47.6743925,1,21.78175
1,Barra do Piraí/RJ,-22.4703403,-43.8263256,99,98.63112
D1,Barra do Piraí/RJ,-22.4703403,-43.8263256,14,13.94784
1,Barra do Ribeiro/RS,-30.2930206,-51.301437,1,7.41235
1,Barra do Rocha/BA,-14.2090974,-39.6004395,4,70.00350
1,Barra do Turvo/SP,-24.756421,-48.5056942,8,104.45228
D1,Barra do Turvo/SP,-24.756421,-48.5056942,1,13.05653
1,Barra dos Coqueiros/SE,-10.9075694,-37.0386249,125,411.08955
D1,Barra dos Coqueiros/SE,-10.9075694,-37.0386249,1,3.28872
1,Barra/BA,-11.0892702,-43.1420453,3,5.59931
1,Barracão/PR,-26.252395,-53.6349576,4,38.92944
1,Barras/PI,-4.2446153,-42.2920241,66,140.22862
D1,Barras/PI,-4.2446153,-42.2920241,1,2.12468
1,Barreira/CE,-4.2883361,-38.641094,38,169.45373
D1,Barreira/CE,-4.2883361,-38.641094,5,22.29654
1,Barreiras do Piauí/PI,-9.9224524,-45.4763776,2,59.73716
1,Barreiras/BA,-12.1440031,-44.9967406,32,20.58685
1,Barreirinha/AM,-2.798863,-57.067897,195,608.59524
D1,Barreirinha/AM,-2.798863,-57.067897,3,9.36300
1,Barreirinhas/MA,-2.7541271,-42.8259693,144,230.29683
1,Barreiros/PE,-8.8159644,-35.1831905,81,189.87787
D1,Barreiros/PE,-8.8159644,-35.1831905,6,14.06503
1,Barretos/SP,-20.5531437,-48.5697509,154,126.12819
D1,Barretos/SP,-20.5531437,-48.5697509,7,5.73310
1,Barrinha/SP,-21.1898849,-48.1550642,13,39.61965
D1,Barrinha/SP,-21.1898849,-48.1550642,1,3.04767
1,Barro Alto/GO,-14.9696025,-48.9190985,2,17.90991
1,Barro Preto/BA,-14.8068289,-39.4727588,4,71.54355
1,Barro/CE,-7.1713587,-38.7742136,3,13.22751
1,Barrocas/BA,-11.5165,-39.099282894736845,5,31.29303
1,Barrolândia/TO,-9.837246,-48.7264346,6,106.53409
D1,Barrolândia/TO,-9.837246,-48.7264346,1,17.75568
1,Barroquinha/CE,-3.0200371,-41.1339229,48,319.63774
1,Barros Cassal/RS,-29.094938,-52.5832366,2,17.85874
D1,Barros Cassal/RS,-29.094938,-52.5832366,1,8.92937
1,Barroso/MG,-21.187222,-43.976111,2,9.61076
1,Barueri/SP,-23.5112184,-46.8764612,920,335.54354
D1,Barueri/SP,-23.5112184,-46.8764612,100,36.47212
1,Barão de Antonina/SP,-23.6295651,-49.5632104,1,28.82675
1,Barão de Cotegipe/RS,-27.6214694,-52.3765316,6,90.59339
1,Barão de Grajaú/MA,-6.7542591,-43.0263477,1,5.31350
1,Bastos/SP,-21.9222474,-50.7317727,1,4.77259
1,Bataguassu/MS,-21.715899,-52.422058,6,26.05976
1,Batalha/AL,-9.6733809,-37.1265481,7,38.39403
D1,Batalha/AL,-9.6733809,-37.1265481,1,5.48486
1,Batalha/PI,-4.022391,-42.0780926,41,152.66039
D1,Batalha/PI,-4.022391,-42.0780926,2,7.44685
1,Batatais/SP,-20.892867,-47.592149,7,11.19857
D1,Batatais/SP,-20.892867,-47.592149,1,1.59980
1,Batayporã/MS,-22.2976466,-53.2685608,6,52.96143
D1,Batayporã/MS,-22.2976466,-53.2685608,2,17.65381
1,Baturité/CE,-4.3290203,-38.8821055,42,117.48252
D1,Baturité/CE,-4.3290203,-38.8821055,6,16.78322
1,Bauru/SP,-22.3218102,-49.0705863,253,67.14117
D1,Bauru/SP,-22.3218102,-49.0705863,12,3.18456
1,Bayeux/PB,-7.1301631,-34.936532,191,197.15111
D1,Bayeux/PB,-7.1301631,-34.936532,16,16.51528
1,Baía Formosa/RN,-6.3691885,-35.0063741,3,32.35897
1,Baía da Traição/PB,-6.691258,-34.9371244,29,322.47303
D1,Baía da Traição/PB,-6.691258,-34.9371244,1,11.11976
1,Bebedouro/SP,-20.949077,-48.479083,16,20.64623
D1,Bebedouro/SP,-20.949077,-48.479083,1,1.29039
1,Beberibe/CE,-4.1810469,-38.1298101,60,111.99671
D1,Beberibe/CE,-4.1810469,-38.1298101,10,18.66612
1,Bela Cruz/CE,-3.0529129,-40.167582,176,540.02639
D1,Bela Cruz/CE,-3.0529129,-40.167582,5,15.34166
1,Bela Vista de Goiás/GO,-16.9692949,-48.9513071,24,80.06672
D1,Bela Vista de Goiás/GO,-16.9692949,-48.9513071,1,3.33611
1,Bela Vista de Minas/MG,-19.8289721,-43.0973688,2,19.50268
1,Bela Vista do Maranhão/MA,-3.7416367,-45.2514192,32,285.48488
1,Bela Vista do Paraíso/PR,-22.9948493,-51.1907996,1,6.49477
1,Bela Vista do Piauí/PI,-7.9716353,-41.8715061,1,24.90660
1,Bela Vista/MS,-22.107327,-56.5317344,2,8.12051
1,Belford Roxo/RJ,-22.7667284,-43.4033603,547,107.06470
D1,Belford Roxo/RJ,-22.7667284,-43.4033603,85,16.63711
1,Belmiro Braga/MG,-21.9486291,-43.413564,3,87.48906
D1,Belmiro Braga/MG,-21.9486291,-43.413564,1,29.16302
1,Belmonte/BA,-15.8630837,-38.8792845,4,17.14678
D1,Belmonte/BA,-15.8630837,-38.8792845,1,4.28669
1,Belo Horizonte/MG,-19.9227318,-43.9450948,1434,57.08440
D1,Belo Horizonte/MG,-19.9227318,-43.9450948,42,1.67193
1,Belo Jardim/PE,-8.3338293,-36.4176419,26,34.01405
D1,Belo Jardim/PE,-8.3338293,-36.4176419,1,1.30823
1,Belo Oriente/MG,-19.2232523,-42.4807033,4,14.98127
1,Belo Vale/MG,-20.407778,-44.024167,1,12.96176
D1,Belo Vale/MG,-20.407778,-44.024167,1,12.96176
1,Belterra/PA,-2.636091,-54.937392,16,90.23235
D1,Belterra/PA,-2.636091,-54.937392,3,16.91857
1,Belágua/MA,-3.1604031,-43.5085052,39,522.15825
1,Belém do Brejo do Cruz/PB,-6.1880727,-37.5332267,1,13.62027
1,Belém do Piauí/PI,-7.3767305,-40.9712156,4,112.17050
D1,Belém do Piauí/PI,-7.3767305,-40.9712156,1,28.04262
1,Belém do São Francisco/PE,-8.7517707,-38.9625715,2,9.64832
1,Belém/AL,-9.5715351,-36.492841,2,46.04052
D1,Belém/AL,-9.5715351,-36.492841,1,23.02026
1,Belém/PA,-1.45056,-48.4682453,9588,642.30662
D1,Belém/PA,-1.45056,-48.4682453,1131,75.76646
1,Belém/PB,-6.6967586,-35.5369626,13,73.54605
1,Beneditinos/PI,-5.4565671,-42.3605061,1,9.55384
1,Benedito Leite/MA,-7.2173453,-44.5523331,3,53.26705
1,Benedito Novo/SC,-26.7840657,-49.3629511,4,34.32887
1,Benevides/PA,-1.3555577,-48.252235,371,591.35757
D1,Benevides/PA,-1.3555577,-48.252235,14,22.31538
1,Benjamin Constant do Sul/RS,-27.5105555,-52.6007689,6,300.90271
1,Benjamin Constant/AM,-4.3782748,-70.0290603,570,1326.07482
D1,Benjamin Constant/AM,-4.3782748,-70.0290603,17,39.54960
1,Bento Fernandes/RN,-5.6926846,-35.8207423,2,36.38348
1,Bento Gonçalves/RS,-29.1654014,-51.5197627,432,358.64313
D1,Bento Gonçalves/RS,-29.1654014,-51.5197627,9,7.47173
1,Bequimão/MA,-2.4495376,-44.7884889,68,319.54887
D1,Bequimão/MA,-2.4495376,-44.7884889,2,9.39850
1,Bernardo do Mearim/MA,-4.6315929,-44.7617508,25,413.70180
1,Bertioga/SP,-23.848568,-46.139586,40,63.24211
D1,Bertioga/SP,-23.848568,-46.139586,3,4.74316
1,Bertolínia/PI,-7.6372159,-43.9540611,1,18.17851
1,Beruri/AM,-3.9007135,-61.3717319,167,848.62036
D1,Beruri/AM,-3.9007135,-61.3717319,5,25.40780
1,Betim/MG,-19.968056,-44.198333,64,14.56731
D1,Betim/MG,-19.968056,-44.198333,5,1.13807
1,Betânia do Piauí/PI,-8.1460635,-40.7961387,1,16.11604
1,Betânia/PE,-8.2742779,-38.0351767,4,31.44901
D1,Betânia/PE,-8.2742779,-38.0351767,1,7.86225
1,Bezerros/PE,-8.2372132,-35.7558262,30,49.34373
D1,Bezerros/PE,-8.2372132,-35.7558262,1,1.64479
1,Bicas/MG,-21.7213723,-43.0604327,2,13.79881
1,Biguaçu/SC,-27.4961277,-48.6542432,18,26.28466
1,Bilac/SP,-21.403962,-50.47464,1,12.44710
1,Birigui/SP,-21.2908491,-50.34144,53,42.86708
1,Biritiba-Mirim/SP,-23.5697765,-46.0407456,34,104.30088
D1,Biritiba-Mirim/SP,-23.5697765,-46.0407456,1,3.06767
1,Biritinga/BA,-11.6227908,-38.8066738,1,6.25821
1,Blumenau/SC,-26.9195567,-49.0658025,501,140.25795
D1,Blumenau/SC,-26.9195567,-49.0658025,3,0.83987
1,Boa Esperança do Sul/SP,-21.9930206,-48.3917372,12,80.41279
1,Boa Esperança/ES,-18.5395472,-40.2904088,38,252.70998
D1,Boa Esperança/ES,-18.5395472,-40.2904088,3,19.95079
1,Boa Esperança/MG,-21.0901253,-45.5660195,24,59.81010
D1,Boa Esperança/MG,-21.0901253,-45.5660195,2,4.98418
1,Boa Hora/PI,-4.4094627,-42.1255341,1,14.74709
1,Boa Viagem/CE,-5.1261877,-39.7300055,36,66.09143
D1,Boa Viagem/CE,-5.1261877,-39.7300055,7,12.85111
1,Boa Vista da Aparecida/PR,-25.4357216,-53.4067721,3,39.52048
1,Boa Vista das Missões/RS,-27.6677983,-53.3127622,1,47.66444
1,Boa Vista do Gurupi/MA,-1.7981168,-46.3071882,10,107.67740
D1,Boa Vista do Gurupi/MA,-1.7981168,-46.3071882,1,10.76774
1,Boa Vista do Ramos/AM,-2.9716927,-57.5869819,55,286.35393
D1,Boa Vista do Ramos/AM,-2.9716927,-57.5869819,1,5.20644
1,Boa Vista do Sul/RS,-29.3510488,-51.6779679,10,359.32447
D1,Boa Vista do Sul/RS,-29.3510488,-51.6779679,1,35.93245
1,Boa Vista do Tupim/BA,-12.6605988,-40.6083594,3,16.14987
1,Boa Vista/PB,-7.2620711,-36.2415161,5,70.91193
1,Boa Vista/RR,2.8208478,-60.6719582,1870,468.42162
D1,Boa Vista/RR,2.8208478,-60.6719582,70,17.53450
1,Boca da Mata/AL,-9.6452054,-36.2116658,19,69.64554
D1,Boca da Mata/AL,-9.6452054,-36.2116658,1,3.66555
1,Boca do Acre/AM,-8.7553487,-67.3930873,269,784.07369
D1,Boca do Acre/AM,-8.7553487,-67.3930873,3,8.74432
1,Bocaina de Minas/MG,-22.167778,-44.394722,1,19.64637
1,Bocaina/PI,-6.9445939,-41.3224599,3,66.66667
1,Bocaina/SP,-22.1421831,-48.522276,9,72.99862
1,Bocaiúva/MG,-17.1160208,-43.8122678,3,6.00252
1,Bodocó/PE,-7.777592,-39.933797,3,7.86452
1,Bofete/SP,-23.1019554,-48.2610535,1,8.52515
1,Boituva/SP,-23.2838893,-47.6738231,45,73.77412
D1,Boituva/SP,-23.2838893,-47.6738231,2,3.27885
1,Bom Conselho/PE,-9.169191,-36.685683,54,111.21638
D1,Bom Conselho/PE,-9.169191,-36.685683,1,2.05956
1,Bom Despacho/MG,-19.7375242,-45.2517288,6,11.85654
D1,Bom Despacho/MG,-19.7375242,-45.2517288,1,1.97609
1,Bom Jardim de Goiás/GO,-16.2062659,-52.172793,1,11.31094
1,Bom Jardim/MA,-3.54129,-45.606004,22,52.84650
1,Bom Jardim/PE,-7.7961572,-35.5871696,26,66.35361
D1,Bom Jardim/PE,-7.7961572,-35.5871696,8,20.41650
1,Bom Jardim/RJ,-22.1515328,-42.4186683,14,51.00925
D1,Bom Jardim/RJ,-22.1515328,-42.4186683,2,7.28704
1,Bom Jesus da Lapa/BA,-13.250571,-43.410754,3,4.33852
1,Bom Jesus das Selvas/MA,-4.4878075,-46.8526639,85,249.79429
1,Bom Jesus de Goiás/GO,-18.2174587,-49.739721,4,15.86294
1,Bom Jesus do Araguaia/MT,-12.1725897,-51.5074425,2,30.39514
1,Bom Jesus do Itabapoana/RJ,-21.1341025,-41.680095,58,156.35109
D1,Bom Jesus do Itabapoana/RJ,-21.1341025,-41.680095,2,5.39142
1,Bom Jesus do Norte/ES,-21.1254776,-41.6711646,23,231.48148
1,Bom Jesus do Tocantins/PA,-5.0471796,-48.5978362,6,35.33361
1,Bom Jesus dos Perdões/SP,-23.1353864,-46.4648052,10,39.29582
1,Bom Jesus/PB,-6.8156725,-38.6551841,1,39.04725
1,Bom Jesus/PI,-9.0711644,-44.3583926,39,154.89098
1,Bom Jesus/RN,-5.9887544,-35.5821149,3,29.38296
D1,Bom Jesus/RN,-5.9887544,-35.5821149,1,9.79432
1,Bom Jesus/RS,-28.6692723,-50.4346894,24,211.47238
1,Bom Lugar/MA,-4.3728019,-45.0366054,10,61.37228
1,Bom Princípio do Piauí/PI,-3.1912777,-41.6430185,1,17.76199
D1,Bom Princípio do Piauí/PI,-3.1912777,-41.6430185,1,17.76199
1,Bom Princípio/RS,-29.489788,-51.3566782,18,128.06830
1,Bom Progresso/RS,-27.5490948,-53.8655601,3,154.47992
1,Bom Repouso/MG,-22.4657069,-46.1485376,3,28.44411
1,Bom Retiro do Sul/RS,-29.6000007,-51.9359243,44,356.91110
1,Bombinhas/SC,-27.1519159,-48.4875691,2,10.11685
1,Bonfim do Piauí/PI,-9.1648678,-42.8734415,1,17.63668
1,Bonfim/MG,-20.3266626, -44.2386157,1,14.56028
D1,Bonfim/MG,-20.3266626, -44.2386157,1,14.56028
1,Bonfim/RR,3.3613818,-59.8427241,62,499.63736
D1,Bonfim/RR,3.3613818,-59.8427241,1,8.05867
1,Bonfinópolis de Minas/MG,-16.5660011,-45.98645,1,18.20499
1,Bonfinópolis/GO,-16.6172709,-48.9615701,2,20.60581
1,Bonito/MS,-21.1264766,-56.4902208,30,136.51256
1,Bonito/PA,-1.3605722,-47.3049907,68,417.53653
D1,Bonito/PA,-1.3605722,-47.3049907,2,12.28049
1,Bonito/PE,-8.4721161,-35.7314591,25,65.55829
D1,Bonito/PE,-8.4721161,-35.7314591,5,13.11166
1,Boqueirão/PB,-7.487004,-36.130887,6,33.70029
D1,Boqueirão/PB,-7.487004,-36.130887,1,5.61672
1,Boquim/SE,-11.1450175,-37.6204228,15,55.93675
1,Boquira/BA,-12.8184859,-42.7270883,6,27.89660
1,Boracéia/SP,-22.195355,-48.7801925,2,41.46797
1,Borba/AM,-4.3934778,-59.5947721,177,430.01871
D1,Borba/AM,-4.3934778,-59.5947721,11,26.72433
1,Borborema/PB,-6.8066718,-35.5990191,1,19.00057
1,Borborema/SP,-21.6212706,-49.074135,7,43.62458
1,Borda da Mata/MG,-22.274167,-46.165278,3,15.45436
1,Borebi/SP,-22.5700178,-48.9714871,2,75.38636
1,Botelhos/MG,-21.65,-46.394722,3,20.03874
1,Botucatu/SP,-22.8879628,-48.4410712,218,148.80851
D1,Botucatu/SP,-22.8879628,-48.4410712,7,4.77825
1,Botuverá/SC,-27.200749,-49.068892,5,95.31071
1,Braga/RS,-27.617348,-53.740514,2,59.64808
1,Braganey/PR,-24.8179919,-53.118506,1,18.42639
D1,Braganey/PR,-24.8179919,-53.118506,1,18.42639
1,Bragança Paulista/SP,-22.9520235,-46.5418586,189,112.05445
D1,Bragança Paulista/SP,-22.9520235,-46.5418586,10,5.92881
1,Bragança/PA,-1.0573967,-46.7635406,411,321.88337
D1,Bragança/PA,-1.0573967,-46.7635406,29,22.71197
1,Branquinha/AL,-9.2478057,-36.0152009,5,47.64627
1,Brasil Novo/PA,-3.3055853,-52.539198,18,119.31592
D1,Brasil Novo/PA,-3.3055853,-52.539198,1,6.62866
1,Brasilândia/MS,-21.255575,-52.0365617,15,126.34771
D1,Brasilândia/MS,-21.255575,-52.0365617,2,16.84636
1,Brasiléia/AC,-11.0010413,-68.7487894,30,114.16394
D1,Brasiléia/AC,-11.0010413,-68.7487894,1,3.80546
1,Brasília de Minas/MG,-16.2075114,-44.430559,7,21.64034
1,Brasília/DF,-15.7934036,-47.8823172,6930,229.83032
D1,Brasília/DF,-15.7934036,-47.8823172,114,3.78076
1,Brazópolis/MG,-22.4742842,-45.6165577,7,48.41275
1,Braço do Norte/SC,-28.2728633,-49.1622712,105,313.90135
D1,Braço do Norte/SC,-28.2728633,-49.1622712,2,5.97907
1,Braúnas/MG,-19.055556,-42.716111,1,20.82899
1,Brejetuba/ES,-20.1465817,-41.2902303,5,40.30958
1,Brejinho/RN,-6.1957907,-35.3583019,2,15.74927
1,Brejo Alegre/SP,-21.1671191,-50.1850393,1,34.90401
1,Brejo Grande do Araguaia/PA,-5.7011449,-48.4037308,7,94.85095
1,Brejo Grande/SE,-10.4287358,-36.4667918,1,12.03514
1,Brejo Santo/CE,-7.4909841,-38.9859152,20,40.42282
D1,Brejo Santo/CE,-7.4909841,-38.9859152,3,6.06342
1,Brejo da Madre de Deus/PE,-8.1409718,-36.3712527,42,82.77167
D1,Brejo da Madre de Deus/PE,-8.1409718,-36.3712527,1,1.97075
1,Brejo de Areia/MA,-4.3316785,-45.5833334,3,32.65128
1,Brejo do Cruz/PB,-6.32926065,-37.48746163303929,4,28.32460
D1,Brejo do Cruz/PB,-6.32926065,-37.48746163303929,1,7.08115
1,Brejo/MA,-3.6804397,-42.7529313,44,120.88908
D1,Brejo/MA,-3.6804397,-42.7529313,4,10.98992
1,Breu Branco/PA,-3.7785073,-49.5684795,18,27.25373
D1,Breu Branco/PA,-3.7785073,-49.5684795,7,10.59867
1,Breves/PA,-1.68036,-50.479085,452,440.11256
D1,Breves/PA,-1.68036,-50.479085,53,51.60612
1,Britânia/GO,-15.2427599,-51.1602061,2,34.60806
1,Brochier/RS,-29.556766,-51.5963047,1,19.70832
1,Brodowski/SP,-20.984532,-47.657217,15,60.14676
1,Brotas/SP,-22.2840884,-48.1267265,4,16.39143
1,Brumadinho/MG,-20.143611,-44.2,15,37.40369
1,Brumado/BA,-14.29507325,-41.659307508575985,16,23.81130
1,Brusque/SC,-27.0964628,-48.9136323,115,85.36033
1,Bueno Brandão/MG,-22.441976,-46.3517971,2,18.18017
D1,Bueno Brandão/MG,-22.441976,-46.3517971,1,9.09008
1,Buenos Aires/PE,-7.7218931,-35.326587,11,83.61840
D1,Buenos Aires/PE,-7.7218931,-35.326587,2,15.20334
1,Buerarema/BA,-14.9571177,-39.3008035,37,201.64587
D1,Buerarema/BA,-14.9571177,-39.3008035,3,16.34966
1,Bugre/MG,-19.4257687,-42.2556,1,25.11301
1,Bujari/AC,-9.8309656,-67.9520886,29,282.48588
1,Bujaru/PA,-1.5169239,-48.0410699,105,360.42839
D1,Bujaru/PA,-1.5169239,-48.0410699,12,41.19182
1,Buri/SP,-23.79849,-48.598924,3,15.09206
1,Buritama/SP,-21.0664017,-50.1448077,13,75.82828
1,Buriti Bravo/MA,-5.8391884,-43.8367876,3,12.56071
1,Buriti do Tocantins/TO,-5.3187439,-48.2256609,5,44.06063
1,Buriti dos Lopes/PI,-3.1776723,-41.8707444,5,25.27678
D1,Buriti dos Lopes/PI,-3.1776723,-41.8707444,1,5.05536
1,Buriti dos Montes/PI,-5.3136171,-41.0971256,2,24.26007
1,Buriti/MA,-3.9430944,-42.9244281,22,76.71386
1,Buriticupu/MA,-4.3227472,-46.4516989,367,507.20031
1,Buritirana/MA,-5.5897455,-47.0148915,52,337.00583
D1,Buritirana/MA,-5.5897455,-47.0148915,1,6.48088
1,Buritis/RO,-10.2054937,-63.8281954,11,27.73995
D1,Buritis/RO,-10.2054937,-63.8281954,1,2.52181
1,Butiá/RS,-30.1256795,-51.9692224,2,9.55064
1,Buíque/PE,-8.6239732,-37.157296,7,11.99082
0,CASO SEM LOCALIZAÇÃO DEFINIDA/AL,-9.931093434363673,-35.609611600637464,36,1.07870
D0,CASO SEM LOCALIZAÇÃO DEFINIDA/AL,-9.931093434363673,-35.609611600637464,3,0.08989
0,CASO SEM LOCALIZAÇÃO DEFINIDA/BA,-13.415069300066518,-38.14174656569957,608,4.08793
D0,CASO SEM LOCALIZAÇÃO DEFINIDA/BA,-13.415069300066518,-38.14174656569957,10,0.06724
0,CASO SEM LOCALIZAÇÃO DEFINIDA/CE,-3.3445126297392798,-38.624961942434304,1844,20.19256
0,CASO SEM LOCALIZAÇÃO DEFINIDA/ES,-20.30989267097039,-39.81745156645774,604,15.02992
D0,CASO SEM LOCALIZAÇÃO DEFINIDA/ES,-20.30989267097039,-39.81745156645774,17,0.42303
0,CASO SEM LOCALIZAÇÃO DEFINIDA/GO,-16.701590966270153,-49.164524059025034,7,0.09974
D0,CASO SEM LOCALIZAÇÃO DEFINIDA/GO,-16.701590966270153,-49.164524059025034,2,0.02850
0,CASO SEM LOCALIZAÇÃO DEFINIDA/MA,-2.171256551718846,-43.98946796681719,1492,21.08780
D0,CASO SEM LOCALIZAÇÃO DEFINIDA/MA,-2.171256551718846,-43.98946796681719,33,0.46642
0,CASO SEM LOCALIZAÇÃO DEFINIDA/MG,-19.97049116501593,-43.8852149072783,407,1.92264
0,CASO SEM LOCALIZAÇÃO DEFINIDA/MT,-15.54791153961863,-56.17143998972475,158,4.53441
D0,CASO SEM LOCALIZAÇÃO DEFINIDA/MT,-15.54791153961863,-56.17143998972475,4,0.11480
0,CASO SEM LOCALIZAÇÃO DEFINIDA/PA,-0.09317078214359542,-48.0050231510481,1289,14.98338
D0,CASO SEM LOCALIZAÇÃO DEFINIDA/PA,-0.09317078214359542,-48.0050231510481,59,0.68582
0,CASO SEM LOCALIZAÇÃO DEFINIDA/PE,-8.121628543819208,-34.57313921302556,1624,16.99265
D0,CASO SEM LOCALIZAÇÃO DEFINIDA/PE,-8.121628543819208,-34.57313921302556,111,1.16144
0,CASO SEM LOCALIZAÇÃO DEFINIDA/PI,-2.683810218391744,-41.470898009352254,170,5.19365
D0,CASO SEM LOCALIZAÇÃO DEFINIDA/PI,-2.683810218391744,-41.470898009352254,9,0.27496
0,CASO SEM LOCALIZAÇÃO DEFINIDA/PR,-25.69415946385943,-48.10141676336737,120,1.04951
D0,CASO SEM LOCALIZAÇÃO DEFINIDA/PR,-25.69415946385943,-48.10141676336737,3,0.02624
0,CASO SEM LOCALIZAÇÃO DEFINIDA/RJ,-23.210238986465157,-43.12864305824042,250,1.44802
0,CASO SEM LOCALIZAÇÃO DEFINIDA/RN,-5.749310788669161,-34.95302586257457,156,4.44843
D0,CASO SEM LOCALIZAÇÃO DEFINIDA/RN,-5.749310788669161,-34.95302586257457,18,0.51328
0,CASO SEM LOCALIZAÇÃO DEFINIDA/RR,2.813328208465927,-60.663338675861986,29,4.78737
D0,CASO SEM LOCALIZAÇÃO DEFINIDA/RR,2.813328208465927,-60.663338675861986,1,0.16508
0,CASO SEM LOCALIZAÇÃO DEFINIDA/SC,-27.675643660562308,-48.18313219398259,41,0.57224
0,CASO SEM LOCALIZAÇÃO DEFINIDA/SP,-24.30968974555485,-46.21366504207253,59,0.12849
1,Caapiranga/AM,-3.3188884,-61.2096404,62,473.96988
D1,Caapiranga/AM,-3.3188884,-61.2096404,2,15.28935
1,Caaporã/PB,-7.510234,-34.9154114,220,1007.87979
D1,Caaporã/PB,-7.510234,-34.9154114,4,18.32509
1,Caarapó/MS,-22.6349267,-54.8240903,3,9.94233
1,Cabaceiras/PB,-7.4899156,-36.2860501,2,35.64427
1,Cabeceiras do Piauí/PI,-4.4733665,-42.3098716,1,9.44644
1,Cabedelo/PB,-6.97324,-34.8351609,288,425.18011
D1,Cabedelo/PB,-6.97324,-34.8351609,6,8.85792
1,Cabo Frio/RJ,-22.8804369,-42.0189227,239,105.50712
D1,Cabo Frio/RJ,-22.8804369,-42.0189227,12,5.29743
1,Cabo de Santo Agostinho/PE,-8.2838945,-35.0320984,489,236.17712
D1,Cabo de Santo Agostinho/PE,-8.2838945,-35.0320984,70,33.80859
1,Cabreúva/SP,-23.3075813,-47.1324417,37,74.43620
D1,Cabreúva/SP,-23.3075813,-47.1324417,3,6.03537
1,Cabrobó/PE,-8.5083701,-39.3106961,3,8.76655
D1,Cabrobó/PE,-8.5083701,-39.3106961,1,2.92218
1,Cacaulândia/RO,-10.3380043,-62.9007231,1,16.05136
1,Cachoeira Dourada/GO,-18.4934204,-49.481062,1,12.39618
1,Cachoeira Dourada/MG,-18.517136,-49.5002062,2,74.29421
1,Cachoeira Grande/MA,-2.9290492,-44.0573223,10,106.03329
D1,Cachoeira Grande/MA,-2.9290492,-44.0573223,2,21.20666
1,Cachoeira Paulista/SP,-22.666498,-45.015384,6,18.00342
1,Cachoeira de Minas/MG,-22.3554043,-45.7796324,1,8.66026
1,Cachoeira de Pajeú/MG,-15.965833,-41.496666,1,10.62473
1,Cachoeira do Arari/PA,-1.0143572,-48.9621089,45,189.33816
D1,Cachoeira do Arari/PA,-1.0143572,-48.9621089,8,33.66012
1,Cachoeira do Piriá/PA,-1.7599443,-46.5446954,2,5.89971
1,Cachoeira do Sul/RS,-30.0474778,-52.8905413,18,21.89754
1,Cachoeira dos Índios/PB,-6.9259193,-38.6742159,3,29.28544
D1,Cachoeira dos Índios/PB,-6.9259193,-38.6742159,1,9.76181
1,Cachoeira/BA,-12.5998256,-38.9665918,5,14.93875
1,Cachoeiras de Macacu/RJ,-22.4626861,-42.6534414,66,111.98398
D1,Cachoeiras de Macacu/RJ,-22.4626861,-42.6534414,6,10.18036
1,Cachoeirinha/PE,-8.4906364,-36.2338963,24,117.76251
D1,Cachoeirinha/PE,-8.4906364,-36.2338963,1,4.90677
1,Cachoeirinha/RS,-29.9493353,-51.0898927,66,50.65506
1,Cachoeirinha/TO,-6.118647,-47.9208885,6,263.73626
1,Cachoeiro de Itapemirim/ES,-20.848084,-41.11129,160,76.56528
D1,Cachoeiro de Itapemirim/ES,-20.848084,-41.11129,5,2.39267
1,Cacimba de Dentro/PB,-6.6425101,-35.7929304,11,64.00186
1,Cacimbas/PB,-7.2125451,-37.0593398,2,27.88234
1,Cacimbinhas/AL,-9.401212,-36.991082,6,55.25880
D1,Cacimbinhas/AL,-9.401212,-36.991082,1,9.20980
1,Cacoal/RO,-11.4333,-61.4420502,39,45.68938
1,Caconde/SP,-21.527995,-46.643659,1,5.26732
1,Caetanos/BA,-14.3387456,-40.9085971,2,13.75327
1,Caetanópolis/MG,-19.2947496,-44.4138386,3,25.80867
1,Caetité/BA,-14.0691776,-42.4852428,2,3.92349
1,Caeté/MG,-19.897777,-43.670278,4,8.94494
1,Caetés/PE,-8.7728788,-36.6255835,23,80.03062
D1,Caetés/PE,-8.7728788,-36.6255835,2,6.95918
1,Cafeara/PR,-22.78905,-51.714195,1,34.08316
1,Cafelândia/PR,-24.6176963,-53.3218057,2,11.03753
1,Caiabu/SP,-22.0143038,-51.2356597,1,23.86065
D1,Caiabu/SP,-22.0143038,-51.2356597,1,23.86065
1,Caicó/RN,-6.4594544,-37.0971911,20,29.43254
D1,Caicó/RN,-6.4594544,-37.0971911,1,1.47163
1,Caieiras/SP,-23.3644621,-46.7484765,226,222.72593
D1,Caieiras/SP,-23.3644621,-46.7484765,19,18.72475
1,Cairu/BA,-13.4860505,-39.0455744,14,77.02465
1,Caiçara do Norte/RN,-5.0645017,-36.0561226,4,61.07803
1,Caiçara do Rio do Vento/RN,-5.757968,-36.00089,1,27.14441
1,Caiçara/PB,-6.6146866,-35.4681434,18,249.96528
D1,Caiçara/PB,-6.6146866,-35.4681434,1,13.88696
1,Cajamar/SP,-23.3561111,-46.8769444,213,277.34014
D1,Cajamar/SP,-23.3561111,-46.8769444,21,27.34339
1,Cajapió/MA,-2.8778715,-44.6746871,4,35.78778
D1,Cajapió/MA,-2.8778715,-44.6746871,1,8.94694
1,Cajari/MA,-3.3213076,-45.0118757,39,201.24877
1,Cajati/SP,-24.7272376,-48.1077914,16,56.04399
1,Cajazeiras do Piauí/PI,-6.794271,-42.3935024,1,28.09778
1,Cajazeiras/PB,-6.8897849,-38.5570389,44,70.97576
D1,Cajazeiras/PB,-6.8897849,-38.5570389,5,8.06543
1,Cajazeirinhas/PB,-6.961442,-37.7993733,1,31.31851
1,Cajobi/SP,-20.8776238,-48.8106972,3,28.45760
D1,Cajobi/SP,-20.8776238,-48.8106972,1,9.48587
1,Cajueiro/AL,-9.399589,-36.1524309,7,32.91949
D1,Cajueiro/AL,-9.399589,-36.1524309,1,4.70278
1,Cajuri/MG,-20.7901414,-42.7954489,1,25.08151
1,Cajuru/SP,-21.2759978,-47.3046035,4,15.28643
D1,Cajuru/SP,-21.2759978,-47.3046035,1,3.82161
1,Caldas Brandão/PB,-7.1027959,-35.3254676,7,116.39508
1,Caldas Novas/GO,-17.745,-48.625,9,9.87253
1,Caldas/MG,-21.923611,-46.386111,5,34.53039
1,Caldeirão Grande do Piauí/PI,-7.3310393,-40.6374433,2,34.62604
1,Caldeirão Grande/BA,-11.0208483,-40.3041387,3,22.51069
1,Calçado/PE,-8.7413446,-36.3351787,1,9.04732
1,Calçoene/AP,2.4981757,-50.9539503,24,215.88558
D1,Calçoene/AP,2.4981757,-50.9539503,1,8.99523
1,Camacan/BA,-15.4166631,-39.4930088,39,121.92072
1,Camamu/BA,-13.9438142,-39.1060917,4,11.32631
1,Camanducaia/MG,-22.755278,-46.144444,23,105.64998
D1,Camanducaia/MG,-22.755278,-46.144444,1,4.59348
1,Camapuã/MS,-19.5291747,-54.0434641,1,7.29341
1,Camaquã/RS,-30.8524752,-51.8075619,10,15.09183
1,Camaragibe/PE,-8.0213832,-34.9810768,771,488.50648
D1,Camaragibe/PE,-8.0213832,-34.9810768,55,34.84806
1,Camargo/RS,-28.5865661,-52.2031474,3,109.76948
1,Camaçari/BA,-12.6998188,-38.3260762,145,48.47358
D1,Camaçari/BA,-12.6998188,-38.3260762,4,1.33720
1,Cambará/PR,-23.042273,-50.075281,1,3.94322
1,Camboriú/SC,-27.0273601,-48.6535657,110,132.54769
D1,Camboriú/SC,-27.0273601,-48.6535657,3,3.61494
1,Cambuci/RJ,-21.5749919,-41.9107833,18,116.09158
1,Cambuquira/MG,-21.853056,-45.2953619,2,15.60793
1,Cambuí/MG,-22.6122501,-46.0572137,32,108.28737
1,Cambé/PR,-23.2782035,-51.2779583,27,25.34426
D1,Cambé/PR,-23.2782035,-51.2779583,1,0.93868
1,Cametá/PA,-2.242949,-49.497885,716,519.25448
D1,Cametá/PA,-2.242949,-49.497885,31,22.48169
1,Camocim de São Félix/PE,-8.3616757,-35.7638903,21,111.91047
1,Camocim/CE,-2.9009918,-40.8427389,108,169.64861
D1,Camocim/CE,-2.9009918,-40.8427389,6,9.42492
1,Campanha/MG,-21.8361108,-45.401986,1,6.00060
1,Campestre de Goiás/GO,-16.7624179,-49.69497,1,27.54821
1,Campestre do Maranhão/MA,-6.1729113,-47.3640512,40,278.28023
D1,Campestre do Maranhão/MA,-6.1729113,-47.3640512,1,6.95701
1,Campestre/AL,-8.8481634,-35.5660033,15,216.26298
D1,Campestre/AL,-8.8481634,-35.5660033,2,28.83506
1,Campestre/MG,-19.6142116,-43.219378,1,4.74947
1,Campina Grande do Sul/PR,-25.3046032,-49.0545355,21,48.51229
D1,Campina Grande do Sul/PR,-25.3046032,-49.0545355,3,6.93033
1,Campina Grande/PB,-7.2246743,-35.8771292,870,212.33443
D1,Campina Grande/PB,-7.2246743,-35.8771292,11,2.68469
1,Campina Verde/MG,-19.535277,-49.486389,3,15.19372
1,Campina da Lagoa/PR,-24.5937926,-52.8038965,1,7.04126
D1,Campina da Lagoa/PR,-24.5937926,-52.8038965,1,7.04126
1,Campina do Monte Alegre/SP,-23.5935653,-48.4801876,2,33.20053
1,Campinas do Sul/RS,-27.7167968,-52.6257885,3,55.00550
1,Campinas/SP,-22.90556,-47.06083,1382,114.77709
D1,Campinas/SP,-22.90556,-47.06083,57,4.73393
1,Campinorte/GO,-14.3136699,-49.1510931,2,15.84033
1,Campo Alegre de Goiás/GO,-17.6337896,-47.779291,2,26.35393
1,Campo Alegre de Lourdes/BA,-9.5160326,-43.0101338,8,27.77971
1,Campo Alegre/AL,-9.7798607,-36.3575793,20,35.04898
D1,Campo Alegre/AL,-9.7798607,-36.3575793,1,1.75245
1,Campo Belo/MG,-20.8975,-45.277223,5,9.25429
1,Campo Bom/RS,-29.674694,-51.060601,4,5.99592
1,Campo Bonito/PR,-25.0328004,-52.992976,2,52.17845
1,Campo Erê/SC,-26.3947432,-53.0790495,1,11.72883
1,Campo Formoso/BA,-10.51055,-40.320031,2,2.80875
1,Campo Grande do Piauí/PI,-7.1327559,-41.0381164,15,252.39778
1,Campo Grande/AL,-9.9725,-36.74791447368421,9,94.16196
D1,Campo Grande/AL,-9.9725,-36.74791447368421,1,10.46244
1,Campo Grande/MS,-20.4640173,-54.6162947,245,27.34430
D1,Campo Grande/MS,-20.4640173,-54.6162947,6,0.66966
1,Campo Largo do Piauí/PI,-3.8104731,-42.6288333,1,13.73815
1,Campo Largo/PR,-25.4597726,-49.5270851,34,25.75719
D1,Campo Largo/PR,-25.4597726,-49.5270851,2,1.51513
1,Campo Limpo Paulista/SP,-23.207791,-46.788919,54,63.79209
D1,Campo Limpo Paulista/SP,-23.207791,-46.788919,8,9.45068
1,Campo Magro/PR,-25.3691533,-49.4496921,2,6.82175
1,Campo Maior/PI,-4.8339574,-42.1739786,100,213.52465
D1,Campo Maior/PI,-4.8339574,-42.1739786,1,2.13525
1,Campo Mourão/PR,-24.046329,-52.37802,49,51.65562
D1,Campo Mourão/PR,-24.046329,-52.37802,4,4.21678
1,Campo Novo de Rondônia/RO,-10.5704235,-63.6199511,1,7.07264
D1,Campo Novo de Rondônia/RO,-10.5704235,-63.6199511,1,7.07264
1,Campo Novo do Parecis/MT,-13.658735,-57.890723,7,19.79638
1,Campo Novo/RS,-28.91500235,-52.331375687737626,1,22.30152
1,Campo Redondo/RN,-6.2420373,-36.1830606,4,35.66016
1,Campo Verde/MT,-15.5430787,-55.1590511,9,20.43550
1,Campo do Brito/SE,-10.7496246,-37.4942276,8,44.17693
1,Campo do Tenente/PR,-25.9814143,-49.684518,1,12.54548
1,Campos Altos/MG,-19.696389,-46.171389,4,25.87155
1,Campos Belos/GO,-13.0349839,-46.768112,17,85.48298
D1,Campos Belos/GO,-13.0349839,-46.768112,1,5.02841
1,Campos Gerais/MG,-21.2333342,-45.7584127,4,13.90144
1,Campos Lindos/TO,-7.9740597,-46.8023881,1,9.88533
1,Campos Novos/SC,-27.3962904,-51.2224397,3,8.27723
1,Campos Sales/CE,-7.0742675,-40.3740367,28,102.09290
1,Campos de Júlio/MT,-13.7223646,-59.2645296,1,14.51168
1,Campos do Jordão/SP,-22.7395263,-45.5912829,22,42.23622
1,Campos dos Goytacazes/RJ,-21.7558619,-41.3326895,581,114.47193
D1,Campos dos Goytacazes/RJ,-21.7558619,-41.3326895,16,3.15241
1,Camutanga/PE,-7.4092965,-35.2738166,14,163.72354
D1,Camutanga/PE,-7.4092965,-35.2738166,3,35.08362
1,Cana Verde/MG,-21.021308,-45.1817881,6,107.08549
1,Cananéia/SP,-25.0104609,-47.9315628,13,103.66826
D1,Cananéia/SP,-25.0104609,-47.9315628,2,15.94896
1,Canapi/AL,-9.1173572,-37.6011704,2,11.28541
1,Canarana/BA,-11.6870151,-41.7683675,5,19.10147
1,Canarana/MT,-13.5564602,-52.2691167,2,9.26827
1,Canas/SP,-22.7029347,-45.0526508,1,19.46283
1,Canavieiras/BA,-15.61621745,-39.08485321304444,25,80.38844
D1,Canavieiras/BA,-15.61621745,-39.08485321304444,1,3.21554
1,Canaã dos Carajás/PA,-6.5296837,-49.8516592,554,1493.86544
D1,Canaã dos Carajás/PA,-6.5296837,-49.8516592,11,29.66159
1,Candeias do Jamari/RO,-8.7949939,-63.7018851,54,202.30023
D1,Candeias do Jamari/RO,-8.7949939,-63.7018851,1,3.74630
1,Candeias/BA,-12.6693806,-38.5406462,123,141.25591
1,Candeias/MG,-20.7676161,-45.2763777,4,26.87089
1,Candelária/RS,-29.668391,-52.789495,5,15.94134
1,Candiota/RS,-31.5451894,-53.719538,1,10.43406
1,Canela/RS,-29.3624657,-50.8134204,1,2.22232
D1,Canela/RS,-29.3624657,-50.8134204,1,2.22232
1,Canelinha/SC,-27.2660341,-48.7666708,2,16.33987
1,Canguaretama/RN,-6.3751942,-35.137463,45,131.28720
D1,Canguaretama/RN,-6.3751942,-35.137463,7,20.42245
1,Canguçu/RS,-31.398276,-52.6773522,11,19.62709
1,Canhoba/SE,-10.1373681,-36.9710796,1,24.95010
1,Canhotinho/PE,-8.876519,-36.197935,4,16.12643
D1,Canhotinho/PE,-8.876519,-36.197935,1,4.03161
1,Canindé de São Francisco/SE,-9.6597475,-37.7904456,24,80.26756
D1,Canindé de São Francisco/SE,-9.6597475,-37.7904456,2,6.68896
1,Canindé/CE,-4.3547946,-39.3108516,275,357.15677
D1,Canindé/CE,-4.3547946,-39.3108516,3,3.89626
1,Canoas/RS,-29.9216045,-51.1799525,72,20.77227
D1,Canoas/RS,-29.9216045,-51.1799525,6,1.73102
1,Canoinhas/SC,-26.176591,-50.395001,15,27.57302
1,Cansanção/BA,-10.6671448,-39.498199,4,11.48303
1,Cantagalo/RJ,-21.9811325,-42.3682522,5,24.78683
1,Cantanhede/MA,-3.6355005,-44.3778738,63,286.42873
1,Canto do Buriti/PI,-8.1112473,-42.944844,4,18.87950
D1,Canto do Buriti/PI,-8.1112473,-42.944844,1,4.71988
1,Cantá/RR,2.60994,-60.605827,79,430.86992
D1,Cantá/RR,2.60994,-60.605827,2,10.90810
1,Canudos do Vale/RS,-29.3240418,-52.2348494,4,233.10023
1,Canutama/AM,-6.5330019,-64.3834966,26,166.35741
1,Capanema/PA,-1.1933054,-47.1828679,263,381.01033
D1,Capanema/PA,-1.1933054,-47.1828679,18,26.07675
1,Capanema/PR,-25.6704878,-53.8083036,3,15.68709
1,Caparaó/MG,-20.5232726,-41.9049984,1,18.38911
1,Capela do Alto Alegre/BA,-11.6703944,-39.8362745,2,17.18656
1,Capela do Alto/SP,-23.4704798,-47.7352309,34,164.20361
1,Capela/AL,-9.415041,-36.082583,21,123.14549
1,Capela/SE,-10.50494,-37.0552566,21,61.38018
1,Capim Grosso/BA,-11.3793228,-40.0112095,14,45.65912
D1,Capim Grosso/BA,-11.3793228,-40.0112095,3,9.78410
1,Capim/PB,-6.9174091,-35.1720326,22,337.26813
D1,Capim/PB,-6.9174091,-35.1720326,1,15.33037
1,Capinzal do Norte/MA,-4.7304006,-44.3249063,38,347.53978
1,Capinzal/SC,-27.3440651,-51.6110403,2,8.75350
1,Capinópolis/MG,-18.682778,-49.569723,1,6.18314
1,Capistrano/CE,-4.4644692,-38.8956734,102,575.03664
D1,Capistrano/CE,-4.4644692,-38.8956734,4,22.55046
1,Capitão Gervásio Oliveira/PI,-8.4954657,-41.8169342,1,24.39024
1,Capitão Leônidas Marques/PR,-25.481645,-53.611238,1,6.33714
1,Capitão Poço/PA,-1.7447162,-47.0638495,192,353.57163
D1,Capitão Poço/PA,-1.7447162,-47.0638495,11,20.25671
1,Capitão/RS,-29.2718294,-51.9869716,1,36.27131
1,Capitólio/MG,-20.6142437,-46.0487652,2,23.16960
D1,Capitólio/MG,-20.6142437,-46.0487652,1,11.58480
1,Capivari de Baixo/SC,-28.449773,-48.963144,19,76.39419
1,Capivari/SP,-22.995144,-47.50715,2,3.58629
1,Capixaba/AC,-10.5741345,-67.6759719,24,204.55127
1,Capoeiras/PE,-8.7386788,-36.6268109,7,34.91620
D1,Capoeiras/PE,-8.7386788,-36.6268109,1,4.98803
1,Capão Bonito/SP,-24.0048759,-48.3489848,12,25.45717
D1,Capão Bonito/SP,-24.0048759,-48.3489848,4,8.48572
1,Capão da Canoa/RS,-29.7542937,-50.0215684,10,18.85050
1,Capão do Leão/RS,-31.766133,-52.5013148,1,3.94415
1,Caracaraí/RR,1.827598,-61.125389,14,63.85114
1,Caracol/PI,-9.2804898,-43.3284924,2,18.32173
1,Caraguatatuba/SP,-23.62028,-45.41306,131,107.79054
D1,Caraguatatuba/SP,-23.62028,-45.41306,4,3.29131
1,Carambeí/PR,-24.9513298,-50.1171293,1,4.27077
1,Carandaí/MG,-20.9523934,-43.8043903,2,7.84283
1,Carangola/MG,-20.733056,-42.029445,54,163.63636
1,Carapebus/RJ,-22.1869969,-41.6633764,8,49.07674
D1,Carapebus/RJ,-22.1869969,-41.6633764,1,6.13459
1,Carapicuíba/SP,-23.5234673,-46.8406808,806,201.03410
D1,Carapicuíba/SP,-23.5234673,-46.8406808,72,17.95838
1,Caratinga/MG,-19.7900887,-42.140533,20,21.72449
1,Carauari/AM,-4.8766426,-66.8961433,199,703.32933
D1,Carauari/AM,-4.8766426,-66.8961433,2,7.06864
1,Carazinho/RS,-28.2981634,-52.7942363,33,53.13154
1,Caraúbas/RN,-5.7889323,-37.5548751,16,78.07544
1,Cardeal da Silva/BA,-11.9428154,-37.9494462,3,32.27542
1,Cardoso Moreira/RJ,-21.4894916,-41.6152776,10,77.98487
1,Cardoso/SP,-20.080447,-49.9139767,1,8.11293
1,Careaçu/MG,-22.0440585,-45.6949091,1,14.79947
1,Careiro da Várzea/AM,-3.197024,-59.8259104,44,145.57486
D1,Careiro da Várzea/AM,-3.197024,-59.8259104,1,3.30852
1,Careiro/AM,-3.8185277,-60.3616505,550,1452.37529
D1,Careiro/AM,-3.8185277,-60.3616505,11,29.04751
1,Cariacica/ES,-20.263202,-40.416549,1400,367.17941
D1,Cariacica/ES,-20.263202,-40.416549,69,18.09670
1,Caridade/CE,-4.2316487,-39.1946515,20,88.70360
D1,Caridade/CE,-4.2316487,-39.1946515,7,31.04626
1,Carira/SE,-10.358303,-37.701473,2,9.05715
1,Cariri do Tocantins/TO,-11.8882727,-49.1604216,49,1118.21086
D1,Cariri do Tocantins/TO,-11.8882727,-49.1604216,1,22.82063
1,Caririaçu/CE,-7.0417053,-39.2835527,11,40.79362
D1,Caririaçu/CE,-7.0417053,-39.2835527,1,3.70851
1,Cariré/CE,-3.948584,-40.476028,67,363.18300
1,Cariús/CE,-6.5348688,-39.4966658,2,10.69576
D1,Cariús/CE,-6.5348688,-39.4966658,1,5.34788
1,Carlos Barbosa/RS,-29.2978372,-51.5005613,104,348.60725
D1,Carlos Barbosa/RS,-29.2978372,-51.5005613,1,3.35199
1,Carlos Chagas/MG,-21.744351,-43.3908675,1,5.30870
1,Carmo da Cachoeira/MG,-21.460556,-45.223334,1,8.21693
1,Carmo da Mata/MG,-20.558334,-44.8703774,1,8.71384
1,Carmo do Cajuru/MG,-20.184444,-44.770834,15,66.73192
D1,Carmo do Cajuru/MG,-20.184444,-44.770834,2,8.89759
1,Carmo do Paranaíba/MG,-18.9992327,-46.306916,4,13.18870
1,Carmo do Rio Verde/GO,-15.3549139,-49.707975,3,29.75600
1,Carmo/RJ,-21.9341749,-42.6091737,20,105.84811
1,Carmópolis de Minas/MG,-20.541224,-44.6350611,9,46.49961
1,Carmópolis/SE,-10.64835,-36.98493,6,36.07070
D1,Carmópolis/SE,-10.64835,-36.98493,1,6.01178
1,Carnaubais/RN,-5.3383681,-36.8335566,5,46.47272
1,Carnaubal/CE,-4.1611842,-40.9412317,24,136.31716
1,Carnaubeira da Penha/PE,-8.3192809,-38.7435891,3,23.19827
D1,Carnaubeira da Penha/PE,-8.3192809,-38.7435891,1,7.73276
1,Carnaíba/PE,-7.805964,-37.7947314,8,40.91862
D1,Carnaíba/PE,-7.805964,-37.7947314,4,20.45931
1,Carnaúba dos Dantas/RN,-6.5560588,-36.5930811,1,12.22494
D1,Carnaúba dos Dantas/RN,-6.5560588,-36.5930811,1,12.22494
1,Carneiros/AL,-9.4832948,-37.3757121,10,110.12003
1,Caroebe/RR,0.8812315,-59.6932274,49,481.85662
D1,Caroebe/RR,0.8812315,-59.6932274,1,9.83381
1,Carolina/MA,-7.3313437,-47.4738762,17,69.89557
1,Carpina/PE,-7.8459151,-35.2538861,79,94.45129
D1,Carpina/PE,-7.8459151,-35.2538861,12,14.34703
1,Carrapateira/PB,-7.0395225,-38.3432281,1,37.60812
1,Caruaru/PE,-8.2829702,-35.9722852,242,67.01411
D1,Caruaru/PE,-8.2829702,-35.9722852,21,5.81527
1,Carutapera/MA,-1.2016638,-46.0205618,19,79.80846
D1,Carutapera/MA,-1.2016638,-46.0205618,7,29.40312
1,Casa Branca/SP,-21.7743137,-47.0852175,3,9.87492
1,Casca/RS,-28.5634054,-51.9741902,4,44.29188
1,Cascalho Rico/MG,-18.579344,-47.875774,1,32.52033
1,Cascavel/CE,-4.129666,-38.241178,149,207.68577
D1,Cascavel/CE,-4.129666,-38.241178,12,16.72637
1,Cascavel/PR,-24.9554996,-53.4560544,220,66.98046
D1,Cascavel/PR,-24.9554996,-53.4560544,6,1.82674
1,Caseara/TO,-9.273159,-49.9576837,1,18.62544
1,Caseiros/RS,-28.2721149,-51.6873536,2,62.46096
1,Casimiro de Abreu/RJ,-22.4809932,-42.2039976,107,242.16911
D1,Casimiro de Abreu/RJ,-22.4809932,-42.2039976,6,13.57958
1,Casinhas/PE,-7.744698,-35.7250923,4,27.89206
1,Casserengue/PB,-6.779538,-35.817875,2,26.78093
1,Castanhal/PA,-1.2927031,-47.9223903,496,247.02056
D1,Castanhal/PA,-1.2927031,-47.9223903,75,37.35190
1,Castelo do Piauí/PI,-5.3230426,-41.5546185,6,30.43214
1,Castelo/ES,-20.6034476,-41.2033505,15,39.96377
D1,Castelo/ES,-20.6034476,-41.2033505,1,2.66425
1,Castilho/SP,-20.8695636,-51.4877792,4,19.04218
D1,Castilho/SP,-20.8695636,-51.4877792,1,4.76054
1,Castro Alves/BA,-12.7616941,-39.4281088,17,64.72738
1,Castro/PR,-24.794072,-49.9972914,3,4.19674
1,Cataguases/MG,-21.387426,-42.6957219,30,39.93451
D1,Cataguases/MG,-21.387426,-42.6957219,2,2.66230
1,Catalão/GO,-18.1702546,-47.9447082,14,12.86493
1,Catanduva/SP,-21.1331035,-48.9712817,99,81.23943
D1,Catanduva/SP,-21.1331035,-48.9712817,8,6.56480
1,Catanduvas/SC,-27.0689719,-51.660158,12,110.48706
1,Catarina/CE,-6.1341578,-39.8795321,17,82.13354
D1,Catarina/CE,-6.1341578,-39.8795321,1,4.83138
1,Catas Altas/MG,-20.0744,-43.4075,2,37.20238
1,Catende/PE,-8.6900588,-35.748470825,53,123.56617
D1,Catende/PE,-8.6900588,-35.748470825,7,16.32006
1,Catiguá/SP,-21.0491485,-49.0578923,1,12.81394
1,Catingueira/PB,-7.120081,-37.60638,2,40.55150
1,Catolé do Rocha/PB,-6.340625,-37.746967,21,68.74877
1,Catu/BA,-12.351274,-38.379108,16,29.24832
D1,Catu/BA,-12.351274,-38.379108,1,1.82802
1,Catuji/MG,-17.3024568,-41.5168387,4,63.38140
1,Catunda/CE,-4.6494224,-40.2002603,4,38.67724
1,Caturaí/GO,-16.4473559,-49.4919149,1,19.72387
1,Caturité/PB,-7.4199652,-36.0207132,4,82.44023
1,Caucaia/CE,-3.7300563,-38.6593082,1196,330.93525
D1,Caucaia/CE,-3.7300563,-38.6593082,67,18.53901
1,Caxambu do Sul/SC,-27.1615046,-52.8796675,16,439.31906
1,Caxambu/MG,-21.9770359,-44.9318289,5,23.08829
D1,Caxambu/MG,-21.9770359,-44.9318289,1,4.61766
1,Caxias do Sul/RS,-29.1684796,-51.1793861,126,24.66207
D1,Caxias do Sul/RS,-29.1684796,-51.1793861,4,0.78292
1,Caxias/MA,-4.8654201,-43.353664,92,55.79816
D1,Caxias/MA,-4.8654201,-43.353664,3,1.81951
1,Caçador/SC,-26.77567,-51.0120041,19,24.17457
D1,Caçador/SC,-26.77567,-51.0120041,1,1.27235
1,Caçapava do Sul/RS,-30.5113286,-53.4916761,2,5.94813
D1,Caçapava do Sul/RS,-30.5113286,-53.4916761,1,2.97407
1,Caçapava/SP,-23.099204,-45.707645,35,37.13016
D1,Caçapava/SP,-23.099204,-45.707645,2,2.12172
1,Caçu/GO,-18.5637222,-51.1369685,6,37.47892
1,Caém/BA,-11.0909658,-40.4322187,3,32.56268
1,Ceará-Mirim/RN,-5.633588,-35.4248407,50,68.02999
D1,Ceará-Mirim/RN,-5.633588,-35.4248407,5,6.80300
1,Cedral/MA,-2.000269,-44.528114,4,37.47073
1,Cedral/SP,-20.9028433,-49.2699665,1,10.82603
1,Cedro de São João/SE,-10.2506778,-36.8816067,27,457.85993
1,Cedro/CE,-6.6065382,-39.0599487,5,19.56411
1,Cedro/PE,-7.7186318,-39.2363385,2,16.93910
1,Centenário do Sul/PR,-22.821497,-51.5951456,4,36.94468
1,Central do Maranhão/MA,-2.1967253,-44.8290757,3,34.59011
1,Centralina/MG,-18.5843349,-49.1954739,6,57.97101
D1,Centralina/MG,-18.5843349,-49.1954739,1,9.66184
1,Centro Novo do Maranhão/MA,-2.1361032,-46.1248528,19,87.87346
D1,Centro Novo do Maranhão/MA,-2.1361032,-46.1248528,2,9.24984
1,Centro do Guilherme/MA,-2.4511749,-46.039127,20,148.61049
1,Cerejeiras/RO,-13.186987,-60.816836,1,6.12632
D1,Cerejeiras/RO,-13.186987,-60.816836,1,6.12632
1,Ceres/GO,-15.3103568,-49.6032054,4,18.02533
1,Cerqueira César/SP,-23.0353135,-49.1650519,5,25.01876
1,Cerquilho/SP,-23.1626556,-47.7433878,12,24.51531
D1,Cerquilho/SP,-23.1626556,-47.7433878,2,4.08589
1,Cerro Corá/RN,-6.0412685,-36.3464694,1,8.94534
D1,Cerro Corá/RN,-6.0412685,-36.3464694,1,8.94534
1,Cerro Grande do Sul/RS,-30.5962963,-51.7517196,1,8.17060
D1,Cerro Grande do Sul/RS,-30.5962963,-51.7517196,1,8.17060
1,Cesário Lange/SP,-23.226035,-47.954453,7,38.57174
D1,Cesário Lange/SP,-23.226035,-47.954453,1,5.51025
1,Chalé/MG,-20.0419748,-41.6914563,1,17.53156
1,Chapada dos Guimarães/MT,-15.464343,-55.749857,9,45.56501
D1,Chapada dos Guimarães/MT,-15.464343,-55.749857,1,5.06278
1,Chapada/RS,-28.0587829,-53.0657459,3,32.36595
1,Chapadinha/MA,-3.7416803,-43.3548006,631,791.96737
1,Chapadão do Céu/GO,-18.3951972,-52.6670783,6,59.01446
1,Chapadão do Sul/MS,-18.7949051,-52.6199512,9,35.68879
1,Chapecó/SC,-27.0922364,-52.6166878,735,333.53451
D1,Chapecó/SC,-27.0922364,-52.6166878,3,1.36137
1,Charqueada/SP,-22.50958,-47.775468,46,267.59744
D1,Charqueada/SP,-22.50958,-47.775468,3,17.45201
1,Charqueadas/RS,-29.955012,-51.6249195,7,17.16149
1,Chaval/CE,-3.0339874,-41.2438452,6,45.91017
D1,Chaval/CE,-3.0339874,-41.2438452,2,15.30339
1,Chavantes/SP,-23.0406405,-49.7071698,1,8.05283
1,Chaves/PA,-0.164154,-49.987006,8,33.73108
D1,Chaves/PA,-0.164154,-49.987006,1,4.21638
1,Chiador/MG,-22.002778,-43.057222,6,223.29736
1,Chopinzinho/PR,-25.8566167,-52.5294107,3,15.58118
1,Chorozinho/CE,-4.3010895,-38.4976923,62,305.96131
D1,Chorozinho/CE,-4.3010895,-38.4976923,4,19.73944
1,Choró/CE,-4.8435726,-39.1393071,46,340.21152
D1,Choró/CE,-4.8435726,-39.1393071,1,7.39590
1,Chácara/MG,-21.6727567,-43.2206851,1,31.70577
1,Chã Grande/PE,-8.238271,-35.457148,65,299.56678
D1,Chã Grande/PE,-8.238271,-35.457148,5,23.04360
1,Chã de Alegria/PE,-7.9959409,-35.2134636,44,325.49194
D1,Chã de Alegria/PE,-7.9959409,-35.2134636,3,22.19263
1,Cianorte/PR,-23.662036,-52.6103989,37,44.78335
D1,Cianorte/PR,-23.662036,-52.6103989,1,1.21036
1,Cidade Gaúcha/PR,-23.3816558,-52.9444098,2,15.80778
1,Cidade Ocidental/GO,-16.1000758,-47.9445014,12,16.81237
1,Cidelândia/MA,-5.174655,-47.7833531,66,449.07124
1,Cidreira/RS,-30.1657063,-50.218331,2,12.30466
D1,Cidreira/RS,-30.1657063,-50.218331,1,6.15233
1,Cipó/BA,-11.0990534,-38.5153006,1,5.78035
1,Ciríaco/RS,-28.3429139,-51.8763682,1,21.06594
1,Cláudio/MG,-20.4448485,-44.7655217,3,10.48328
1,Coaraci/BA,-14.6407979,-39.5496765,33,194.19761
D1,Coaraci/BA,-14.6407979,-39.5496765,2,11.76955
1,Coari/AM,-4.0885957,-63.1431166,1509,1773.27050
D1,Coari/AM,-4.0885957,-63.1431166,43,50.53057
1,Cocal de Telha/PI,-4.5553648,-41.9722429,25,511.14292
1,Cocal do Sul/SC,-28.6007346,-49.3248697,13,77.91896
D1,Cocal do Sul/SC,-28.6007346,-49.3248697,1,5.99377
1,Cocal dos Alves/PI,-3.59964,-41.444741,2,32.50447
1,Cocal/PI,-3.4691882,-41.555851,12,43.18566
D1,Cocal/PI,-3.4691882,-41.555851,1,3.59881
1,Cocos/BA,-14.1811222,-44.5382117,6,31.95399
1,Codajás/AM,-3.8413202,-62.0603444,42,146.66341
D1,Codajás/AM,-3.8413202,-62.0603444,1,3.49199
1,Codó/MA,-4.455623,-43.892354,410,333.71589
D1,Codó/MA,-4.455623,-43.892354,1,0.81394
1,Coelho Neto/MA,-4.2535154,-43.0149321,144,291.29160
D1,Coelho Neto/MA,-4.2535154,-43.0149321,2,4.04572
1,Coité do Nóia/AL,-9.633484,-36.584493,4,37.40765
1,Coivaras/PI,-5.0927005,-42.2052489,2,49.75124
1,Colares/PA,-0.936423,-48.280254,28,231.69218
D1,Colares/PA,-0.936423,-48.280254,3,24.82416
1,Colatina/ES,-19.5346732,-40.6287836,180,146.93998
D1,Colatina/ES,-19.5346732,-40.6287836,3,2.44900
1,Colina/SP,-20.711443,-48.53867,8,43.31817
D1,Colina/SP,-20.711443,-48.53867,1,5.41477
1,Colinas do Tocantins/TO,-8.0612688,-48.4716768,51,143.97019
D1,Colinas do Tocantins/TO,-8.0612688,-48.4716768,1,2.82294
1,Colinas/MA,-6.0332631,-44.2528542,75,182.13609
1,Colinas/RS,-29.3866023,-51.8697911,12,492.20673
1,Colméia/TO,-8.734098,-48.7510897,1,12.18769
1,Colombo/PR,-25.2925439,-49.2243472,33,13.53979
1,Colorado/PR,-22.8385097,-51.9730135,4,16.65834
1,Colorado/RS,-28.525842,-52.99282,1,31.49606
1,Colíder/MT,-10.8094999,-55.4540386,2,5.98122
1,Colônia Leopoldina/AL,-8.918058,-35.721414,15,69.13080
1,Colônia do Gurguéia/PI,-8.183697,-43.793999,4,61.69031
D1,Colônia do Gurguéia/PI,-8.183697,-43.793999,1,15.42258
1,Colônia do Piauí/PI,-7.2320268,-42.1777122,1,13.06165
1,Comendador Levy Gasparian/RJ,-22.028685,-43.204655,3,35.04264
1,Comercinho/MG,-16.2965093,-41.7930954,1,14.43210
1,Conceição da Barra/ES,-18.5841421,-39.7371844,5,16.09632
1,Conceição da Feira/BA,-12.5013001,-39.0002166,1,4.42850
1,Conceição das Alagoas/MG,-19.9194009,-48.3803414,2,7.17026
1,Conceição de Macabu/RJ,-22.0849986,-41.8679947,12,51.66179
1,Conceição do Almeida/BA,-12.7772763,-39.1692214,3,17.39433
1,Conceição do Araguaia/PA,-8.2696905,-49.2676864,30,62.67759
1,Conceição do Castelo/ES,-20.3601311,-41.2470343,17,133.61629
D1,Conceição do Castelo/ES,-20.3601311,-41.2470343,1,7.85978
1,Conceição do Coité/BA,-11.5629384,-39.2839543,10,15.01231
1,Conceição do Jacuípe/BA,-12.326831,-38.768433,6,18.09791
1,Conceição do Lago-Açu/MA,-3.8410056,-44.8930565,24,147.81056
D1,Conceição do Lago-Açu/MA,-3.8410056,-44.8930565,1,6.15877
1,Conceição do Rio Verde/MG,-21.881078,-45.0868526,2,14.66491
1,Conceição/PB,-7.5565059,-38.5053706,2,10.53630
1,Conchal/SP,-22.337512,-47.172927,3,10.69519
1,Conchas/SP,-23.0133538,-48.0077595,7,39.11489
D1,Conchas/SP,-23.0133538,-48.0077595,1,5.58784
1,Concórdia do Pará/PA,-1.9924056,-47.9450474,92,276.12702
D1,Concórdia do Pará/PA,-1.9924056,-47.9450474,2,6.00276
1,Concórdia/SC,-27.2312011,-52.0231024,503,673.89236
D1,Concórdia/SC,-27.2312011,-52.0231024,7,9.37822
1,Condado/PB,-6.9092101,-37.5966375,31,465.88518
1,Condado/PE,-7.587868,-35.09994,56,211.95261
D1,Condado/PE,-7.587868,-35.09994,10,37.84868
1,Conde/BA,-11.8129758,-37.6138705,1,3.87042
1,Conde/PB,-7.2600359,-34.9053524,63,255.37090
D1,Conde/PB,-7.2600359,-34.9053524,2,8.10701
1,Condeúba/BA,-14.902227,-41.971829,2,11.59622
1,Condor/RS,-28.2058277,-53.4844696,7,103.65763
1,Confresa/MT,-10.643695,-51.569873,35,113.14777
1,Congo/PB,-7.80963435,-36.641233278035656,11,229.83702
D1,Congo/PB,-7.80963435,-36.641233278035656,1,20.89427
1,Congonhal/MG,-22.1532505,-46.0404698,1,8.36820
1,Congonhas/MG,-20.5015168,-43.8564586,2,3.65217
1,Congonhinhas/PR,-23.5497241,-50.5520182,1,11.34044
1,Conquista D'Oeste/MT,-14.5381171,-59.5443775,3,74.29421
1,Conselheiro Lafaiete/MG,-20.6596107,-43.785743,22,17.10877
1,Contagem/MG,-19.9132749,-44.0840953,153,23.04720
D1,Contagem/MG,-19.9132749,-44.0840953,9,1.35572
1,Contenda/PR,-25.678811,-49.535044,3,16.14292
D1,Contenda/PR,-25.678811,-49.535044,1,5.38097
1,Coqueiral/MG,-21.1898365,-45.4409829,1,10.91822
1,Coqueiro Seco/AL,-9.637147,-35.799377,17,290.84688
1,Coração de Maria/BA,-12.2484345,-38.7499274,2,8.84760
1,Corbélia/PR,-24.7951117,-53.2961804,1,5.85789
1,Cordeiro/RJ,-22.0287681,-42.3607442,14,63.85114
1,Cordeirópolis/SP,-22.4768324,-47.4550551,40,163.07893
1,Cordilheira Alta/SC,-26.9853947,-52.603549,2,44.91354
1,Coreaú/CE,-3.5519794,-40.6528409,131,566.21715
D1,Coreaú/CE,-3.5519794,-40.6528409,1,4.32227
1,Coremas/PB,-7.0175897,-37.9465062,13,84.16963
1,Corinto/MG,-18.363056,-44.456111,2,8.42779
1,Cornélio Procópio/PR,-23.1825218,-50.6499263,30,62.70248
1,Coroados/SP,-21.3554634,-50.2853589,10,165.07098
D1,Coroados/SP,-21.3554634,-50.2853589,1,16.50710
1,Coroatá/MA,-4.1282283,-44.1360269,167,255.75839
D1,Coroatá/MA,-4.1282283,-44.1360269,1,1.53149
1,Coromandel/MG,-18.473889,-47.200278,7,25.02324
1,Coronel Bicaco/RS,-27.7174002,-53.705821,2,27.30375
1,Coronel Fabriciano/MG,-19.5200067,-42.6282686,28,25.48814
1,Coronel Freitas/SC,-26.9058932,-52.7028055,3,30.05711
1,Coronel João Pessoa/RN,-6.2607103,-38.4424915,2,40.71661
D1,Coronel João Pessoa/RN,-6.2607103,-38.4424915,1,20.35831
1,Coronel Vivida/PR,-25.9803771,-52.5654277,1,4.82300
1,Corrente/PI,-10.4401356,-45.1627472,20,75.06380
1,Correntes/PE,-9.1295585,-36.3287438,4,21.96957
D1,Correntes/PE,-9.1295585,-36.3287438,1,5.49239
1,Cortês/PE,-8.4724921,-35.5431197,18,143.10701
D1,Cortês/PE,-8.4724921,-35.5431197,3,23.85117
1,Corumbaíba/GO,-18.1348982,-48.564223,1,10.28489
D1,Corumbaíba/GO,-18.1348982,-48.564223,1,10.28489
1,Corumbá de Goiás/GO,-15.9268355,-48.8074659,1,9.00090
1,Corumbá/MS,-19.0016365,-57.6534316,19,17.05030
1,Corupá/SC,-26.42464,-49.245968,1,6.28575
1,Coruripe/AL,-10.1249963,-36.1760623,118,207.26117
D1,Coruripe/AL,-10.1249963,-36.1760623,6,10.53870
1,Cosmorama/SP,-20.475472,-49.782747,2,27.37101
1,Cosmópolis/SP,-22.6437398,-47.1972086,17,23.52876
1,Costa Marques/RO,-12.4367165,-64.2279765,1,5.45524
1,Cotia/SP,-23.603889,-46.918889,458,183.78075
D1,Cotia/SP,-23.603889,-46.918889,36,14.44565
1,Cotriguaçu/MT,-9.9034364,-58.5658915,2,10.12658
D1,Cotriguaçu/MT,-9.9034364,-58.5658915,1,5.06329
1,Couto Magalhães/TO,-8.360583,-49.1773955,12,214.74588
1,Couto de Magalhães de Minas/MG,-18.073016,-43.4718628,1,22.67574
1,Coxilha/RS,-28.1254442,-52.2979903,10,362.84470
1,Coxim/MS,-18.504915,-54.7450251,7,20.86874
1,Coxixola/PB,-7.6272915,-36.606013,4,208.22488
1,Crateús/CE,-5.1782451,-40.6696545,88,117.21768
D1,Crateús/CE,-5.1782451,-40.6696545,4,5.32808
1,Crato/CE,-7.2369112,-39.4149236,38,28.76108
1,Cravinhos/SP,-21.340278,-47.729444,17,48.16956
D1,Cravinhos/SP,-21.340278,-47.729444,1,2.83350
1,Cravolândia/BA,-13.3576247,-39.8153954,2,37.39017
1,Craíbas/AL,-9.6168038,-36.7684669,22,90.83777
1,Criciúma/SC,-28.6789941,-49.3695627,354,164.50884
D1,Criciúma/SC,-28.6789941,-49.3695627,7,3.25300
1,Crissiumal/RS,-27.4982242,-54.1024643,1,7.43605
1,Cristalina/GO,-16.7676079,-47.6131281,5,8.47501
D1,Cristalina/GO,-16.7676079,-47.6131281,1,1.69500
1,Cristina/MG,-22.212222,-45.264167,2,19.52744
1,Cristino Castro/PI,-8.8163934,-44.2211062,1,9.59417
D1,Cristino Castro/PI,-8.8163934,-44.2211062,1,9.59417
1,Cristinápolis/SE,-11.4757019,-37.7555212,8,44.75775
1,Cristópolis/BA,-12.2349301,-44.4160811,3,21.56722
1,Crixás do Tocantins/TO,-11.1039404,-48.918827,1,58.07201
1,Croatá/CE,-4.4156199,-40.9048081,1,5.53618
1,Cruz Alta/RS,-28.645056,-53.6058047,8,13.26722
D1,Cruz Alta/RS,-28.645056,-53.6058047,1,1.65840
1,Cruz das Almas/BA,-12.6722649,-39.1053665,13,20.55693
1,Cruz do Espírito Santo/PB,-7.139022,-35.085721,86,496.56447
D1,Cruz do Espírito Santo/PB,-7.139022,-35.085721,6,34.64403
1,Cruz/CE,-2.918128,-40.175981,118,475.28900
D1,Cruz/CE,-2.918128,-40.175981,2,8.05575
1,Cruzaltense/RS,-27.667414,-52.6487833,7,381.88762
1,Cruzeiro do Iguaçu/PR,-25.6142278,-53.1299075,3,70.55503
1,Cruzeiro do Oeste/PR,-23.7839582,-53.0709425,1,4.77737
1,Cruzeiro do Sul/AC,-7.6307956,-72.6703869,441,499.00425
D1,Cruzeiro do Sul/AC,-7.6307956,-72.6703869,3,3.39459
1,Cruzeiro do Sul/PR,-22.9623678,-52.1625688,6,134.25822
1,Cruzeiro do Sul/RS,-29.5139742,-51.9917068,28,226.75737
D1,Cruzeiro do Sul/RS,-29.5139742,-51.9917068,2,16.19695
1,Cruzeiro/SP,-22.5783685,-44.9642044,15,18.23974
D1,Cruzeiro/SP,-22.5783685,-44.9642044,2,2.43197
1,Cruzeta/RN,-6.4113343,-36.7872964,4,50.01250
1,Cruzília/MG,-21.838333,-44.808056,3,19.45904
1,Cubatão/SP,-23.8857982,-46.4241869,263,201.21648
D1,Cubatão/SP,-23.8857982,-46.4241869,17,13.00639
1,Cuiabá/MT,-15.5986686,-56.0991301,489,79.83061
D1,Cuiabá/MT,-15.5986686,-56.0991301,7,1.14277
1,Cuitegi/PB,-6.8962776,-35.5228851,46,676.17228
D1,Cuitegi/PB,-6.8962776,-35.5228851,1,14.69940
1,Cuité de Mamanguape/PB,-6.912922,-35.250219,3,47.22178
1,Cuité/PB,-6.4855072,-36.1478606,8,39.33523
1,Cujubim/RO,-9.3687919,-62.5832107,12,47.59072
D1,Cujubim/RO,-9.3687919,-62.5832107,1,3.96589
1,Cumaru do Norte/PA,-7.8122669,-50.7677675,4,29.68901
1,Cumaru/PE,-8.0065285,-35.6991651,18,165.04676
1,Cumbe/SE,-10.3552462,-37.1828788,1,25.08151
1,Cunha Porã/SC,-26.8927163,-53.1716516,10,90.20386
1,Cunha/SP,-23.07753,-44.9567436,3,13.92305
1,Cupira/PE,-8.6053148,-35.9530366,23,95.40797
D1,Cupira/PE,-8.6053148,-35.9530366,1,4.14817
1,Curaçá/BA,-8.9925655,-39.9053169,33,95.10086
1,Curimatá/PI,-10.0349005,-44.3033114,4,35.12469
1,Curionópolis/PA,-6.0990443,-49.6059039,96,535.44537
D1,Curionópolis/PA,-6.0990443,-49.6059039,4,22.31022
1,Curitiba/PR,-25.4295963,-49.2712724,778,40.24613
D1,Curitiba/PR,-25.4295963,-49.2712724,36,1.86229
1,Currais Novos/RN,-6.2626676,-36.5173039,17,37.95829
D1,Currais Novos/RN,-6.2626676,-36.5173039,1,2.23284
1,Curral de Cima/PB,-6.7174163,-35.266704,3,57.39430
1,Curralinho/PA,-1.8137876,-49.7980165,41,119.01997
D1,Curralinho/PA,-1.8137876,-49.7980165,3,8.70878
1,Cururupu/MA,-1.824255,-44.872996,28,85.64001
D1,Cururupu/MA,-1.824255,-44.872996,1,3.05857
1,Curuá/PA,-1.887754,-55.116842,10,69.47822
1,Curuçá/PA,-0.7276792,-47.856568,156,389.35756
D1,Curuçá/PA,-0.7276792,-47.856568,29,72.38057
1,Curvelo/MG,-18.7571926,-44.4305993,41,51.16749
1,Curvelândia/MT,-15.6108629,-57.9188924,4,76.64304
D1,Curvelândia/MT,-15.6108629,-57.9188924,1,19.16076
1,Custódia/PE,-8.0861426,-37.6401873,46,123.95247
D1,Custódia/PE,-8.0861426,-37.6401873,6,16.16771
1,Cutias/AP,0.9708625,-50.8000608,70,1169.98161
D1,Cutias/AP,0.9708625,-50.8000608,1,16.71402
1,Cáceres/MT,-16.0658939,-57.6852775,19,20.13224
D1,Cáceres/MT,-16.0658939,-57.6852775,3,3.17877
1,Cândido Mendes/MA,-1.4531117,-45.7273136,19,94.16196
1,Cândido Mota/SP,-22.7434964,-50.38924,5,15.98465
1,Cândido Rodrigues/SP,-21.3255615,-48.6308798,2,71.60759
1,Cândido Sales/BA,-15.5037649,-41.2391141,1,3.96999
1,Céu Azul/PR,-25.1484973,-53.8494214,6,50.99873
1,Córrego do Bom Jesus/MG,-22.630556,-46.019723,8,215.98272
1,Damião/PB,-6.64317595,-35.933835193092264,1,18.76173
1,Darcinópolis/TO,-6.7085964,-47.7524283,86,1410.52977
1,Davinópolis/MA,-5.5265775,-47.3942217,39,302.13821
D1,Davinópolis/MA,-5.5265775,-47.3942217,2,15.49427
1,Delfim Moreira/MG,-22.5086783,-45.2792398,5,62.30530
1,Delfinópolis/MG,-20.344749,-46.8546425,1,14.05679
1,Delmiro Gouveia/AL,-9.3841161,-37.997756,14,26.91480
D1,Delmiro Gouveia/AL,-9.3841161,-37.997756,2,3.84497
1,Demerval Lobão/PI,-5.3640643,-42.673993,23,166.46161
1,Deodápolis/MS,-22.276272,-54.168163,4,30.95017
1,Deputado Irapuan Pinheiro/CE,-5.9173532,-39.2672104,4,41.55844
1,Derrubadas/RS,-27.2657279,-53.8618488,1,35.65062
1,Descalvado/SP,-21.9090404,-47.6203241,5,14.82887
1,Desterro/PB,-7.2889695,-37.0880761,2,24.10510
1,Diadema/SP,-23.681347,-46.62052,886,209.01945
D1,Diadema/SP,-23.681347,-46.62052,63,14.86256
1,Diamante do Norte/PR,-22.6565442,-52.8589113,1,19.65795
1,Diamante do Sul/PR,-25.0436147,-52.6800923,4,116.31288
1,Diamantina/MG,-18.2440862,-43.6006487,7,14.66798
1,Dianópolis/TO,-11.624008,-46.819787,1,4.51692
1,Dias d'Ávila/BA,-12.6107233,-38.3028518,36,44.39566
D1,Dias d'Ávila/BA,-12.6107233,-38.3028518,2,2.46643
1,Dionísio Cerqueira/SC,-26.2604681,-53.6346379,1,6.45245
D1,Dionísio Cerqueira/SC,-26.2604681,-53.6346379,1,6.45245
1,Dionísio/MG,-19.841944,-42.776945,5,64.69142
1,Dirceu Arcoverde/PI,-9.3413101,-42.4362055,10,142.63301
1,Divina Pastora/SE,-10.6783231,-37.1482727,2,38.92565
1,Divino das Laranjeiras/MG,-18.7775,-41.479167,1,20.08435
1,Divino de São Lourenço/ES,-20.6201409,-41.6834749,2,46.46840
1,Divino/MG,-20.6151497,-42.1474733,3,15.05193
1,Divinolândia/SP,-21.6604584,-46.7371151,1,8.97183
1,Divinésia/MG,-20.990277,-43.003889,1,29.26544
1,Divinópolis do Tocantins/TO,-9.8015722,-49.2143531,1,14.49275
1,Divinópolis/MG,-20.1434559,-44.89125,150,62.96436
D1,Divinópolis/MG,-20.1434559,-44.89125,2,0.83952
1,Divisa Nova/MG,-21.5126801,-46.1926626,1,16.63617
1,Dobrada/SP,-21.5180904,-48.3938897,3,33.59839
1,Dois Córregos/SP,-22.3697554,-48.3845315,3,10.98298
D1,Dois Córregos/SP,-22.3697554,-48.3845315,2,7.32198
1,Dois Irmãos/RS,-29.58356,-51.089776,3,9.18246
1,Dois Riachos/AL,-9.384645,-37.096502,6,54.17607
1,Dois Vizinhos/PR,-25.7464681,-53.0554369,1,2.46057
1,Dolcinópolis/SP,-20.1230736,-50.513261,1,47.28132
1,Dom Aquino/MT,-15.809899,-54.922298,2,24.45586
1,Dom Basílio/BA,-13.7589818,-41.7715676,2,16.39479
1,Dom Eliseu/PA,-4.2928111,-47.5559083,197,329.87826
D1,Dom Eliseu/PA,-4.2928111,-47.5559083,3,5.02353
1,Dom Expedito Lopes/PI,-6.9644926,-41.648155,4,57.93743
1,Dom Feliciano/RS,-30.70214,-52.1080845,3,19.46283
1,Dom Inocêncio/PI,-9.0009167,-41.974038,1,10.46463
1,Dom Pedrito/RS,-30.983755,-54.6746483,14,36.40051
D1,Dom Pedrito/RS,-30.983755,-54.6746483,1,2.60004
1,Dom Pedro/MA,-5.0389999,-44.4377854,31,132.76231
1,Domingos Martins/ES,-20.3646483,-40.6585797,68,200.88626
1,Domingos Mourão/PI,-4.2544732,-41.2722903,1,22.96211
1,Dona Inês/PB,-6.6032239,-35.627146,1,9.56663
1,Dores do Indaiá/MG,-19.4636451,-45.60166,1,7.41675
1,Dormentes/PE,-8.441163,-40.766168,1,5.28877
1,Douradina/MS,-22.0402812,-54.6118292,20,337.60972
1,Douradina/PR,-23.3847331,-53.2932989,1,11.43249
1,Dourado/SP,-22.1124638,-48.3151079,2,22.54029
1,Dourados/MS,-22.2206145,-54.812208,152,68.17703
D1,Dourados/MS,-22.2206145,-54.812208,1,0.44853
1,Doutor Camargo/PR,-23.5575611,-52.2185546,1,16.72520
1,Doutor Maurício Cardoso/RS,-27.5067264,-54.3626756,2,43.96571
D1,Doutor Maurício Cardoso/RS,-27.5067264,-54.3626756,2,43.96571
1,Doutor Ricardo/RS,-29.0901549,-51.9894847,3,151.28593
1,Doutor Severiano/RN,-6.0948339,-38.3748,4,56.52911
1,Dracena/SP,-21.4835523,-51.5334408,28,59.83801
D1,Dracena/SP,-21.4835523,-51.5334408,2,4.27414
1,Duartina/SP,-22.414562,-49.408355,1,8.03536
1,Duas Estradas/PB,-6.6883382,-35.4175255,12,333.70412
1,Dueré/TO,-11.341631,-49.271566,5,106.70081
1,Dumont/SP,-21.2391417,-47.9747665,3,30.40130
1,Duque Bacelar/MA,-4.1542795,-42.946096,11,96.92484
1,Duque de Caxias/RJ,-22.7896225,-43.309929,1239,134.73308
D1,Duque de Caxias/RJ,-22.7896225,-43.309929,187,20.33502
1,Dário Meira/BA,-14.4332181,-39.9028712,8,74.69655
1,Ecoporanga/ES,-18.3720918,-40.8321351,46,200.67181
D1,Ecoporanga/ES,-18.3720918,-40.8321351,3,13.08729
1,Edéia/GO,-17.3407253,-49.9292351,1,8.08277
1,Eirunepé/AM,-6.6567654,-69.866161,78,221.13231
1,Eldorado do Carajás/PA,-6.1029246,-49.3572487,8,23.66304
D1,Eldorado do Carajás/PA,-6.1029246,-49.3572487,1,2.95788
1,Eldorado do Sul/RS,-29.9984639,-51.3091977,9,21.79969
D1,Eldorado do Sul/RS,-29.9984639,-51.3091977,1,2.42219
1,Eldorado/SP,-24.522583,-48.1093489,4,25.81645
D1,Eldorado/SP,-24.522583,-48.1093489,1,6.45411
1,Elesbão Veloso/PI,-6.2032654,-42.1376937,17,116.42241
D1,Elesbão Veloso/PI,-6.2032654,-42.1376937,1,6.84838
1,Elias Fausto/SP,-23.0416538,-47.3718002,4,22.50731
D1,Elias Fausto/SP,-23.0416538,-47.3718002,1,5.62683
1,Elisiário/SP,-21.1673392,-49.1111015,1,27.38976
1,Elói Mendes/MG,-21.6094466,-45.5660211,6,21.37057
1,Emas/PB,-7.1071447,-37.7155578,1,28.39296
1,Embu das Artes/SP,-23.6495294,-46.8528497,408,149.05416
D1,Embu das Artes/SP,-23.6495294,-46.8528497,36,13.15184
1,Embu-Guaçu/SP,-23.8317997,-46.8156204,95,136.91720
D1,Embu-Guaçu/SP,-23.8317997,-46.8156204,7,10.08864
1,Emilianópolis/SP,-21.831436,-51.483168,4,124.45551
1,Encantado/RS,-29.2392716,-51.8744817,37,162.95252
D1,Encantado/RS,-29.2392716,-51.8744817,1,4.40412
1,Encanto/RN,-6.1107477,-38.3050953,12,212.84143
D1,Encanto/RN,-6.1107477,-38.3050953,2,35.47357
1,Encruzilhada do Sul/RS,-30.53619325,-52.51564721101029,2,7.72887
D1,Encruzilhada do Sul/RS,-30.53619325,-52.51564721101029,1,3.86444
1,Encruzilhada/BA,-15.5322113,-40.9072488,2,11.76056
1,Engenheiro Coelho/SP,-22.4896659,-47.2119005,11,52.95335
1,Engenheiro Navarro/MG,-17.286622,-43.9515719,1,13.80834
1,Engenheiro Paulo de Frontin/RJ,-22.5504556,-43.6783403,10,71.41837
D1,Engenheiro Paulo de Frontin/RJ,-22.5504556,-43.6783403,1,7.14184
1,Entre Rios/BA,-11.9423743,-38.0836985,3,7.18047
1,Entre Rios/SC,-26.7236463,-52.5638445,40,1248.82922
1,Epitaciolândia/AC,-11.0289439,-68.7411519,46,249.85063
1,Erebango/RS,-27.8542708,-52.3029274,4,133.73454
1,Erechim/RS,-27.6350143,-52.2737288,60,56.67756
D1,Erechim/RS,-27.6350143,-52.2737288,1,0.94463
1,Ererê/CE,-6.0311304,-38.3482173,24,333.42595
D1,Ererê/CE,-6.0311304,-38.3482173,2,27.78550
1,Ernestina/RS,-28.498434,-52.5702451,2,63.13131
1,Erval Grande/RS,-27.3910282,-52.5703742,3,61.74110
1,Ervália/MG,-20.8400156,-42.653352,1,5.29241
1,Escada/PE,-8.3594071,-35.2232683,96,139.38294
D1,Escada/PE,-8.3594071,-35.2232683,11,15.97096
1,Esmeraldas/MG,-19.7613111,-44.3145945,6,8.50437
1,Espera Feliz/MG,-20.6494192,-41.9080693,18,72.14140
1,Esperantina/PI,-3.8950963,-42.2370595,98,246.62154
D1,Esperantina/PI,-3.8950963,-42.2370595,1,2.51655
1,Esperantina/TO,-5.3658232,-48.5368181,8,72.75373
1,Esperantinópolis/MA,-4.8751875,-44.8801032,101,585.81289
D1,Esperantinópolis/MA,-4.8751875,-44.8801032,2,11.60026
1,Esperança do Sul/RS,-27.3617442,-53.9909736,11,375.93985
D1,Esperança do Sul/RS,-27.3617442,-53.9909736,1,34.17635
1,Esperança/PB,-7.018517,-35.852193,40,121.18642
1,Espigão D'Oeste/RO,-11.532175,-61.0130935,13,40.15568
D1,Espigão D'Oeste/RO,-11.532175,-61.0130935,1,3.08890
1,Espinosa/MG,-14.9232007,-42.8093337,3,9.48857
D1,Espinosa/MG,-14.9232007,-42.8093337,1,3.16286
1,Esplanada/BA,-11.800614,-37.9453,2,5.37100
1,Espumoso/RS,-28.7256962,-52.8453751,9,57.73672
D1,Espumoso/RS,-28.7256962,-52.8453751,1,6.41519
1,Espírito Santo do Dourado/MG,-22.046666,-45.950833,3,63.93862
1,Espírito Santo do Pinhal/SP,-22.190871,-46.74767,8,18.04647
1,Espírito Santo/RN,-6.3317917,-35.3096508,1,9.51928
1,Estação/RS,-27.9128965,-52.2606058,10,167.84156
1,Esteio/RS,-29.8511627,-51.1778852,22,26.44167
1,Estiva Gerbi/SP,-22.2754831,-46.9525448,1,8.84643
1,Estiva/MG,-22.4638686,-46.0182101,7,61.65228
1,Estreito/MA,-6.5583016,-47.4432212,135,321.84237
1,Estrela Dalva/MG,-21.741666,-42.460833,3,128.04097
D1,Estrela Dalva/MG,-21.741666,-42.460833,1,42.68032
1,Estrela d'Oeste/SP,-20.2860692,-50.3986216,1,11.87790
1,Estrela de Alagoas/AL,-9.3888972,-36.7616833,1,5.49300
1,Estrela do Sul/MG,-18.7420499,-47.6900736,1,12.53447
1,Estrela/RS,-29.5010545,-51.962226,108,316.56701
D1,Estrela/RS,-29.5010545,-51.962226,1,2.93118
1,Estância Velha/RS,-29.6529666,-51.1719687,22,43.98065
1,Estância/SE,-11.2682255,-37.4378341,115,166.22340
D1,Estância/SE,-11.2682255,-37.4378341,2,2.89084
1,Euclides da Cunha Paulista/SP,-22.55452,-52.592779,1,10.67122
1,Euclides da Cunha/BA,-10.5060835,-39.0129875,3,4.95172
1,Eugenópolis/MG,-21.0968165,-42.1850985,3,26.60754
1,Eunápolis/BA,-16.3722412,-39.575704,80,70.55918
1,Eusébio/CE,-3.8889838,-38.4546585,513,956.76825
D1,Eusébio/CE,-3.8889838,-38.4546585,11,20.51550
1,Extrema/MG,-22.8549109,-46.3190079,70,193.23671
D1,Extrema/MG,-22.8549109,-46.3190079,3,8.28157
1,Extremoz/RN,-5.7092903,-35.3058914,72,251.89798
D1,Extremoz/RN,-5.7092903,-35.3058914,1,3.49858
1,Fagundes/PB,-7.3577473,-35.7839735,4,35.54608
1,Faina/GO,-15.4458005,-50.3633826,1,15.08978
1,Faria Lemos/MG,-20.8051202,-42.0127393,4,123.41870
D1,Faria Lemos/MG,-20.8051202,-42.0127393,1,30.85467
1,Farias Brito/CE,-6.9272823,-39.5714222,28,143.95887
D1,Farias Brito/CE,-6.9272823,-39.5714222,3,15.42416
1,Faro/PA,-1.1091625500000002,-57.800250715708856,1,13.90047
1,Farroupilha/RS,-29.22647,-51.3468188,179,247.47342
D1,Farroupilha/RS,-29.22647,-51.3468188,4,5.53013
1,Fartura do Piauí/PI,-9.4839171,-42.7906894,3,56.52911
1,Fartura/SP,-23.390039,-49.5109023,8,49.88775
D1,Fartura/SP,-23.390039,-49.5109023,1,6.23597
1,Faxinal dos Guedes/SC,-26.8476897,-52.2604154,16,149.99531
1,Faxinal/PR,-24.001065,-51.3223237,2,11.59353
1,Fazenda Rio Grande/PR,-25.645841,-49.3126653,48,47.89989
D1,Fazenda Rio Grande/PR,-25.645841,-49.3126653,4,3.99166
1,Fazenda Vilanova/RS,-29.588511,-51.821714,4,88.24178
1,Feijó/AC,-8.1648652,-70.3539579,2,5.75043
1,Feira Grande/AL,-9.8944239,-36.6793255,10,45.11414
1,Feira Nova do Maranhão/MA,-6.965082,-46.678577,7,82.31421
D1,Feira Nova do Maranhão/MA,-6.965082,-46.678577,1,11.75917
1,Feira Nova/PE,-7.9481471,-35.3871681,73,329.85405
D1,Feira Nova/PE,-7.9481471,-35.3871681,7,31.62984
1,Feira Nova/SE,-10.2629878,-37.3131265,3,53.72493
1,Feira de Santana/BA,-12.2578934,-38.9598047,327,53.18180
D1,Feira de Santana/BA,-12.2578934,-38.9598047,3,0.48791
1,Felipe Guerra/RN,-5.5979694,-37.6961704,33,551.37845
1,Feliz Deserto/AL,-10.292494,-36.3028583,2,42.06984
D1,Feliz Deserto/AL,-10.292494,-36.3028583,1,21.03492
1,Feliz/RS,-29.4508908,-51.307713,6,44.29025
1,Fernandes Pinheiro/PR,-25.4148066,-50.5489837,1,17.71165
1,Fernando Falcão/MA,-6.1512461,-44.9022436,16,154.44015
1,Fernando Pedroza/RN,-5.6972558,-36.5316864,1,32.74394
1,Fernando Prestes/SP,-21.266061,-48.687384,2,34.58413
1,Fernando de Noronha/PE,-3.8561012,-32.4248189,42,1372.10062
1,Fernandópolis/SP,-20.2825647,-50.2500762,39,56.42688
1,Fernão/SP,-22.3595388,-49.5209504,1,58.27506
1,Ferraz de Vasconcelos/SP,-23.541056,-46.37097,331,170.37617
D1,Ferraz de Vasconcelos/SP,-23.541056,-46.37097,30,15.44195
1,Ferreira Gomes/AP,0.8580838,-51.1814,54,694.08740
D1,Ferreira Gomes/AP,0.8580838,-51.1814,2,25.70694
1,Ferreiros/PE,-7.449667,-35.2426004,53,437.18552
D1,Ferreiros/PE,-7.449667,-35.2426004,5,41.24392
1,Ferros/MG,-19.234984,-43.019542,6,61.09980
1,Fervedouro/MG,-20.7292242,-42.2785942,3,27.25786
1,Figueira/PR,-23.8481018,-50.4059875,1,12.87001
1,Figueirópolis/TO,-12.1347916,-49.1737141,6,114.00342
D1,Figueirópolis/TO,-12.1347916,-49.1737141,1,19.00057
1,Filadélfia/TO,-7.3395833,-47.496372,6,67.75068
1,Flexeiras/AL,-9.2788679,-35.7235246,3,23.45582
D1,Flexeiras/AL,-9.2788679,-35.7235246,1,7.81861
1,Flores da Cunha/RS,-29.030129,-51.1833349,7,22.76793
1,Flores/PE,-7.862025,-37.9742806,1,4.42008
1,Floresta Azul/BA,-14.8602238,-39.6561384,5,47.04111
1,Floresta do Araguaia/PA,-7.5597065,-49.7032829,2,9.85028
1,Floresta/PE,-8.5998918,-38.5706775,6,18.25206
D1,Floresta/PE,-8.5998918,-38.5706775,2,6.08402
1,Floresta/PR,-23.6144046,-52.0819003,2,29.52465
1,Florestópolis/PR,-22.8663942,-51.3905121,1,9.48047
1,Floriano Peixoto/RS,-27.8603248,-52.0856015,6,339.75085
1,Floriano/PI,-6.7726534,-43.0070616,58,96.77150
D1,Floriano/PI,-6.7726534,-43.0070616,2,3.33695
1,Florianópolis/SC,-27.5973002,-48.5496098,628,125.35606
D1,Florianópolis/SC,-27.5973002,-48.5496098,7,1.39728
1,Florânia/RN,-6.1268685,-36.8183238,1,10.96972
1,Flórida Paulista/SP,-21.614061,-51.1729548,3,20.49180
1,Fonte Boa/AM,-2.55,-66.91321428571428,178,1010.84673
D1,Fonte Boa/AM,-2.55,-66.91321428571428,7,39.75240
1,Fontoura Xavier/RS,-28.981655,-52.344455,4,38.81988
1,Formiga/MG,-20.4648425,-45.4266753,12,17.72971
1,Formigueiro/RS,-29.9982245,-53.5029931,6,90.03601
1,Formosa da Serra Negra/MA,-6.4437601,-46.1905789,20,104.77238
1,Formosa/GO,-15.5492443,-47.3301212,19,15.62282
1,Formoso do Araguaia/TO,-11.8059989,-49.5257153,17,92.19089
D1,Formoso do Araguaia/TO,-11.8059989,-49.5257153,1,5.42299
1,Forquilha/CE,-3.799447,-40.263405,11,45.42076
D1,Forquilha/CE,-3.799447,-40.263405,2,8.25832
1,Forquilhinha/SC,-28.7487602,-49.4737661,23,85.84332
1,Fortaleza dos Nogueiras/MA,-6.9643779,-46.1703933,18,142.50653
1,Fortaleza/CE,-3.7304512,-38.5217989,19795,741.56852
D1,Fortaleza/CE,-3.7304512,-38.5217989,1687,63.19910
1,Fortim/CE,-4.451256,-37.798056,24,145.63107
1,Fortuna/MA,-5.7331469,-44.154276,12,77.16049
1,Foz do Iguaçu/PR,-25.5401479,-54.5858139,86,33.26474
D1,Foz do Iguaçu/PR,-25.5401479,-54.5858139,2,0.77360
1,Fraiburgo/SC,-27.023288,-50.919978,13,35.67215
1,Franca/SP,-20.5381768,-47.4009795,69,19.53639
D1,Franca/SP,-20.5381768,-47.4009795,2,0.56627
1,Francinópolis/PI,-6.3962771,-42.2635654,5,93.49289
1,Francisco Ayres/PI,-6.6217571,-42.6941944,1,22.99908
1,Francisco Badaró/MG,-16.9917524,-42.350899,1,9.67867
1,Francisco Beltrão/PR,-26.0790979,-53.0533527,14,15.36891
D1,Francisco Beltrão/PR,-26.0790979,-53.0533527,2,2.19556
1,Francisco Morato/SP,-23.2817308,-46.7448996,289,164.35022
D1,Francisco Morato/SP,-23.2817308,-46.7448996,18,10.23635
1,Francisco Santos/PI,-6.9944754,-41.1345548,3,32.19230
1,Franco da Rocha/SP,-23.3328038,-46.724446,341,220.72769
D1,Franco da Rocha/SP,-23.3328038,-46.724446,34,22.00804
1,Frecheirinha/CE,-3.755572,-40.818019,23,163.44514
D1,Frecheirinha/CE,-3.755572,-40.818019,1,7.10631
1,Frederico Westphalen/RS,-27.35711,-53.3964117,25,79.83904
D1,Frederico Westphalen/RS,-27.35711,-53.3964117,1,3.19356
1,Frei Inocêncio/MG,-18.563076,-41.9064881,2,20.80949
1,Frei Miguelinho/PE,-7.9433019,-35.920939,38,245.84331
D1,Frei Miguelinho/PE,-7.9433019,-35.920939,3,19.40868
1,Frei Paulo/SE,-10.549956,-37.5356071,12,77.81597
D1,Frei Paulo/SE,-10.549956,-37.5356071,1,6.48466
1,Fronteira/MG,-20.286111,-49.202778,1,5.52395
1,Fronteiras/PI,-7.088607,-40.6147253,4,34.40860
1,Frutal/MG,-20.0220064,-48.9280076,12,20.16942
D1,Frutal/MG,-20.0220064,-48.9280076,1,1.68079
1,Frutuoso Gomes/RN,-6.1585113,-37.8408614,3,73.74631
1,Fundão/ES,-19.9332174,-40.4049674,97,450.97401
D1,Fundão/ES,-19.9332174,-40.4049674,8,37.19373
1,Fátima do Sul/MS,-22.3750499,-54.516698,32,166.76221
1,Fátima/TO,-10.7575656,-48.9031328,5,130.37810
1,Gado Bravo/PB,-7.5830516,-35.7914371,13,156.32516
D1,Gado Bravo/PB,-7.5830516,-35.7914371,1,12.02501
1,Galinhos/RN,-5.0923928,-36.2744827,1,35.89375
1,Gameleira/PE,-8.579803,-35.384573,21,67.62849
D1,Gameleira/PE,-8.579803,-35.384573,3,9.66121
1,Gandu/BA,-13.7448138,-39.4844732,10,30.86134
D1,Gandu/BA,-13.7448138,-39.4844732,1,3.08613
1,Garanhuns/PE,-8.8905889,-36.4930896,133,95.14408
D1,Garanhuns/PE,-8.8905889,-36.4930896,9,6.43832
1,Gararu/SE,-9.9688996,-37.0827962,2,17.23544
D1,Gararu/SE,-9.9688996,-37.0827962,1,8.61772
1,Garibaldi/RS,-29.2562253,-51.5269167,235,670.08839
D1,Garibaldi/RS,-29.2562253,-51.5269167,4,11.40576
1,Garopaba/SC,-28.0274798,-48.6240197,2,8.66626
1,Garrafão do Norte/PA,-1.9282256,-47.0513157,105,402.82360
D1,Garrafão do Norte/PA,-1.9282256,-47.0513157,2,7.67283
1,Garuva/SC,-26.0294904,-48.8545202,5,27.55580
D1,Garuva/SC,-26.0294904,-48.8545202,1,5.51116
1,Garça/SP,-22.2125766,-49.6547994,9,20.27484
1,Gaspar/SC,-26.9307306,-48.9566824,36,51.69517
D1,Gaspar/SC,-26.9307306,-48.9566824,1,1.43598
1,Gastão Vidigal/SP,-20.7952902,-50.1905016,4,83.19468
D1,Gastão Vidigal/SP,-20.7952902,-50.1905016,1,20.79867
1,Gaurama/RS,-27.5879319,-52.0927073,12,216.84134
1,Gavião Peixoto/SP,-21.8377536,-48.492853,2,41.76237
1,General Carneiro/PR,-26.422982,-51.3146691,2,14.58789
1,General Câmara/RS,-29.9058172,-51.7626264,2,23.85212
1,General Maynard/SE,-10.6855125,-36.98492,1,29.88643
1,General Salgado/SP,-20.6488139,-50.3608101,2,18.40096
1,General Sampaio/CE,-4.0503563,-39.4484058,11,144.39485
D1,General Sampaio/CE,-4.0503563,-39.4484058,3,39.38041
1,Gentil/RS,-28.4319165,-52.0348748,5,305.99755
1,Getulina/SP,-21.7988557,-49.9288096,1,8.76501
1,Getúlio Vargas/RS,-27.8871493,-52.2257967,7,43.17789
1,Girau do Ponciano/AL,-9.884041,-36.831592,18,43.99149
1,Glorinha/RS,-29.8790534,-50.7869437,1,12.34873
1,Glória de Dourados/MS,-22.4173731,-54.2313391,4,40.14049
1,Glória do Goitá/PE,-7.999959,-35.2866116,59,192.78526
D1,Glória do Goitá/PE,-7.999959,-35.2866116,13,42.47811
1,Glória/BA,-9.3429057,-38.2552548,1,6.56987
1,Godofredo Viana/MA,-1.4147105,-45.7713182,10,84.60953
1,Goiana/PE,-7.560603,-34.99591,224,280.84957
D1,Goiana/PE,-7.560603,-34.99591,23,28.83723
1,Goiandira/GO,-18.1357087,-48.0866307,3,53.57143
D1,Goiandira/GO,-18.1357087,-48.0866307,1,17.85714
1,Goianinha/RN,-6.2663538,-35.2092447,19,72.16651
1,Goianira/GO,-16.5001973,-49.4254788,2,4.51579
1,Goianá/MG,-21.5375,-43.2014,2,50.42864
1,Goianápolis/GO,-16.5071038,-49.0213217,1,8.90393
1,Goianésia do Pará/PA,-3.8380998,-49.0977992,29,71.64917
D1,Goianésia do Pará/PA,-3.8380998,-49.0977992,1,2.47066
1,Goianésia/GO,-15.3118269,-49.1162001,34,48.51321
D1,Goianésia/GO,-15.3118269,-49.1162001,3,4.28058
1,Goiatins/TO,-7.7132054,-47.3154841,23,176.66487
D1,Goiatins/TO,-7.7132054,-47.3154841,1,7.68108
1,Goiatuba/GO,-18.0154577,-49.3640591,10,29.32981
D1,Goiatuba/GO,-18.0154577,-49.3640591,1,2.93298
1,Goioerê/PR,-24.1851885,-53.0250623,6,20.77275
1,Goioxim/PR,-25.1987274,-51.9924229,1,14.06272
1,Goiânia/GO,-16.680882,-49.2532691,1200,79.14977
D1,Goiânia/GO,-16.680882,-49.2532691,41,2.70428
1,Gongogi/BA,-14.3240248,-39.4665106,13,182.37935
D1,Gongogi/BA,-14.3240248,-39.4665106,2,28.05836
1,Gonçalves Dias/MA,-5.1532875,-44.2997071,11,61.33601
1,Gouveia/MG,-18.4545728,-43.7415904,1,8.45666
1,Gouvelândia/GO,-18.4425949,-50.1365172,1,16.95490
1,Governador Archer/MA,-5.023562,-44.2709924,15,138.37638
1,Governador Celso Ramos/SC,-27.317161,-48.557608,24,165.84894
1,Governador Dix-Sept Rosado/RN,-5.4576782,-37.5209263,6,46.02286
1,Governador Edison Lobão/MA,-5.7456705,-47.363091,45,245.95540
1,Governador Eugênio Barros/MA,-5.3200262,-44.2440583,1,5.94248
1,Governador Jorge Teixeira/RO,-10.6140224,-62.7326412,4,51.49994
1,Governador Luiz Rocha/MA,-5.470776,-44.0720572,1,12.80902
1,Governador Mangabeira/BA,-12.6038648,-39.0372154,2,9.65158
1,Governador Newton Bello/MA,-3.4285914,-45.6714297,41,402.75049
1,Governador Nunes Freire/MA,-2.1303959,-45.8900498,32,125.11241
1,Governador Valadares/MG,-18.8539497,-41.9458753,120,42.87475
D1,Governador Valadares/MG,-18.8539497,-41.9458753,7,2.50103
1,Graccho Cardoso/SE,-10.238671100000001,-37.20556291018945,9,154.69233
1,Grajaú/MA,-5.8154034,-46.1361454,112,161.08850
1,Gramado Xavier/RS,-29.2702991,-52.5785872,1,23.12139
1,Gramado dos Loureiros/RS,-27.4439526,-52.9183699,13,624.39962
1,Gramado/RS,-29.3787488,-50.8724941,8,22.07993
1,Granito/PE,-7.7145682,-39.6164505,1,13.35827
1,Granja/CE,-3.1212057,-40.8284124,51,93.15409
D1,Granja/CE,-3.1212057,-40.8284124,2,3.65310
1,Gravatal/SC,-28.3300703,-49.0362296,25,217.37240
D1,Gravatal/SC,-28.3300703,-49.0362296,1,8.69490
1,Gravataí/RS,-29.9440222,-50.9930938,35,12.43255
D1,Gravataí/RS,-29.9440222,-50.9930938,3,1.06565
1,Gravatá/PE,-8.1993049,-35.5631137,74,88.01770
D1,Gravatá/PE,-8.1993049,-35.5631137,7,8.32600
1,Graça Aranha/MA,-5.405468,-44.335816,7,111.78537
1,Graça/CE,-4.0453849,-40.7527195,41,284.74200
1,Groaíras/CE,-3.9157768,-40.3855093,44,397.54246
D1,Groaíras/CE,-3.9157768,-40.3855093,1,9.03506
1,Grossos/RN,-4.9843455,-37.1511253,6,57.78677
D1,Grossos/RN,-4.9843455,-37.1511253,1,9.63113
1,Grão Pará/SC,-28.1856937,-49.2163956,3,45.66905
1,Guabiruba/SC,-27.0864326,-48.9781319,5,20.98019
D1,Guabiruba/SC,-27.0864326,-48.9781319,1,4.19604
1,Guaimbê/SP,-21.909072,-49.89861,2,34.69211
1,Guairaçá/PR,-22.9352304,-52.6865101,9,136.75733
D1,Guairaçá/PR,-22.9352304,-52.6865101,1,15.19526
1,Guaiçara/SP,-21.619537,-49.801287,2,16.43655
1,Guaiúba/CE,-4.0412656,-38.6369079,59,226.36587
D1,Guaiúba/CE,-4.0412656,-38.6369079,7,26.85697
1,Guajará-Mirim/RO,-10.7804239,-65.3327825,119,257.72080
D1,Guajará-Mirim/RO,-10.7804239,-65.3327825,19,41.14870
1,Guajará/AM,-7.5455927,-72.5832769,18,107.92661
D1,Guajará/AM,-7.5455927,-72.5832769,1,5.99592
1,Guamaré/RN,-5.1075294,-36.3196635,22,140.49428
1,Guanambi/BA,-14.223066,-42.779943,4,4.73479
1,Guanhães/MG,-18.7753627,-42.9340634,2,5.82768
1,Guapiara/SP,-24.18921,-48.529549,2,11.65705
1,Guapiaçu/SP,-20.79663,-49.2253917,24,111.86725
D1,Guapiaçu/SP,-20.79663,-49.2253917,2,9.32227
1,Guapimirim/RJ,-22.5266308,-42.9790687,164,270.99823
D1,Guapimirim/RJ,-22.5266308,-42.9790687,7,11.56700
1,Guapirama/PR,-23.5164582,-50.0431538,1,26.30195
1,Guaporé/RS,-28.8471928,-51.8907881,13,50.53057
1,Guapé/MG,-20.7619447,-45.9174969,2,14.04001
1,Guapó/GO,-16.8308602,-49.5343721,7,49.26455
1,Guarabira/PB,-6.8513982,-35.4915582,364,618.70039
D1,Guarabira/PB,-6.8513982,-35.4915582,3,5.09918
1,Guaraci/PR,-22.970394,-51.6479769,5,90.87605
1,Guaraci/SP,-20.4976771,-48.9452074,1,8.93815
1,Guaraciaba do Norte/CE,-4.1632924,-40.7495985,49,120.56493
D1,Guaraciaba do Norte/CE,-4.1632924,-40.7495985,2,4.92102
1,Guaramiranga/CE,-4.2615431,-38.9339337,10,192.56692
1,Guaramirim/SC,-26.468753,-49.002628,33,73.62949
1,Guarani d'Oeste/SP,-20.0737613,-50.3379634,1,50.00000
1,Guaraniaçu/PR,-25.10035,-52.867811,11,88.19756
1,Guarantã do Norte/MT,-9.9517992,-54.9098178,4,11.16819
1,Guaranésia/MG,-21.3024827,-46.7956962,1,5.25735
1,Guarapari/ES,-20.6718755,-40.4984617,153,122.53822
D1,Guarapari/ES,-20.6718755,-40.4984617,6,4.80542
1,Guarapuava/PR,-25.3950986,-51.4622016,22,12.12094
1,Guaraqueçaba/PR,-25.2983566,-48.3290185,1,13.09586
D1,Guaraqueçaba/PR,-25.2983566,-48.3290185,1,13.09586
1,Guararapes/SP,-21.2537115,-50.6441746,15,45.53872
D1,Guararapes/SP,-21.2537115,-50.6441746,1,3.03591
1,Guararema/SP,-23.4133724,-46.0379249,32,107.38976
D1,Guararema/SP,-23.4133724,-46.0379249,5,16.77965
1,Guarará/MG,-21.731945,-43.037777,1,26.34352
1,Guaratinga/BA,-16.5802498,-39.7808088,1,4.79777
1,Guaratinguetá/SP,-22.8057839,-45.1908926,22,18.06269
D1,Guaratinguetá/SP,-22.8057839,-45.1908926,1,0.82103
1,Guaratuba/PR,-25.8806192,-48.5750905,8,21.58254
1,Guaraçaí/SP,-21.031027,-51.2064201,3,36.04470
1,Guaraí/TO,-8.835429,-48.511432,27,104.15461
D1,Guaraí/TO,-8.835429,-48.511432,1,3.85758
1,Guareí/SP,-23.3718195,-48.184685,3,16.19870
1,Guariba/SP,-21.35938,-48.23158,3,7.48036
1,Guarujá/SP,-23.9927768,-46.2558332,548,171.00472
D1,Guarujá/SP,-23.9927768,-46.2558332,42,13.10620
1,Guarulhos/SP,-23.4430602,-46.524459,2091,151.61161
D1,Guarulhos/SP,-23.4430602,-46.524459,226,16.38652
1,Guará/SP,-20.4290496,-47.8250067,1,4.71254
D1,Guará/SP,-20.4290496,-47.8250067,1,4.71254
1,Guatambú/SC,-27.1333139,-52.7852104,24,510.20408
1,Guaxupé/MG,-21.3087615,-46.7190609,9,17.33536
1,Guaçuí/ES,-20.7726679,-41.6750657,28,90.71176
D1,Guaçuí/ES,-20.7726679,-41.6750657,2,6.47941
1,Guaíba/RS,-30.1130731,-51.329442,28,28.52980
D1,Guaíba/RS,-30.1130731,-51.329442,1,1.01892
1,Guaíra/PR,-24.0851924,-54.2567519,15,45.29122
D1,Guaíra/PR,-24.0851924,-54.2567519,3,9.05824
