type,name,lat,lon,total,total_per_100k_inhabitants
1,Abadia de Goiás/GO,-16.7572644,-49.4412205,2207,24099.14829
D1,Abadia de Goiás/GO,-16.7572644,-49.4412205,45,491.37366
1,Abadia dos Dourados/MG,-18.4911191,-47.4063589,802,11421.24751
D1,Abadia dos Dourados/MG,-18.4911191,-47.4063589,20,284.81914
1,Abadiânia/GO,-16.1940946,-48.7067767,647,3099.69817
D1,Abadiânia/GO,-16.1940946,-48.7067767,48,229.96215
1,Abaetetuba/PA,-1.721828,-48.878843,9976,6217.93953
D1,Abaetetuba/PA,-1.721828,-48.878843,227,141.48680
1,Abaeté/MG,-19.1566833,-45.4481213,1851,7956.84134
D1,Abaeté/MG,-19.1566833,-45.4481213,44,189.14156
1,Abaiara/CE,-7.3607808,-39.0487878,660,5516.08859
D1,Abaiara/CE,-7.3607808,-39.0487878,17,142.08107
1,Abaré/BA,-8.7239913,-39.1139689,1441,6997.18365
D1,Abaré/BA,-8.7239913,-39.1139689,13,63.12518
1,Abatiá/PR,-23.3052967,-50.3102532,1289,17513.58696
D1,Abatiá/PR,-23.3052967,-50.3102532,21,285.32609
1,Abaíra/BA,-13.2503296,-41.6640342,311,3582.53657
D1,Abaíra/BA,-13.2503296,-41.6640342,13,149.75233
1,Abdon Batista/SC,-27.612419,-51.022992,417,16456.19574
D1,Abdon Batista/SC,-27.612419,-51.022992,4,157.85320
1,Abel Figueiredo/PA,-4.953001,-48.3958485,1110,14729.29936
D1,Abel Figueiredo/PA,-4.953001,-48.3958485,12,159.23567
1,Abelardo Luz/SC,-26.5705893,-52.3280339,2002,11112.96142
D1,Abelardo Luz/SC,-26.5705893,-52.3280339,61,338.60672
1,Abre Campo/MG,-20.2976097,-42.4764741,1370,10198.00506
D1,Abre Campo/MG,-20.2976097,-42.4764741,17,126.54459
1,Abreu e Lima/PE,-7.900719,-34.898389,3771,3744.86087
D1,Abreu e Lima/PE,-7.900719,-34.898389,251,249.26016
1,Abreulândia/TO,-9.6221526,-49.1558343,354,13568.41702
D1,Abreulândia/TO,-9.6221526,-49.1558343,8,306.63089
1,Acaiaca/MG,-20.3621646,-43.1444162,258,6458.07259
D1,Acaiaca/MG,-20.3621646,-43.1444162,12,300.37547
1,Acajutiba/BA,-11.6609659,-38.0186381,580,3812.27816
D1,Acajutiba/BA,-11.6609659,-38.0186381,21,138.03076
1,Acarape/CE,-4.2237866,-38.7071663,3012,19894.31968
D1,Acarape/CE,-4.2237866,-38.7071663,32,211.36063
1,Acaraú/CE,-2.8869514,-40.1194713,5639,8872.49040
D1,Acaraú/CE,-2.8869514,-40.1194713,115,180.94279
1,Acari/RN,-6.4364689,-36.6394777,1256,11309.20223
D1,Acari/RN,-6.4364689,-36.6394777,22,198.09112
1,Acará/PA,-1.961388,-48.1987043,1813,3252.36797
D1,Acará/PA,-1.961388,-48.1987043,41,73.55052
1,Acauã/PI,-8.219542,-41.083059,219,3076.27476
D1,Acauã/PI,-8.219542,-41.083059,2,28.09383
1,Aceguá/RS,-31.8695131,-54.1615593,494,9917.68721
D1,Aceguá/RS,-31.8695131,-54.1615593,8,160.61032
1,Acopiara/CE,-6.0936464,-39.4543204,4370,7990.93020
D1,Acopiara/CE,-6.0936464,-39.4543204,153,279.77399
1,Acorizal/MT,-15.2001544,-56.3668953,976,18383.87644
D1,Acorizal/MT,-15.2001544,-56.3668953,22,414.39066
1,Acrelândia/AC,-10.0759167,-67.0526898,1871,11901.27854
D1,Acrelândia/AC,-10.0759167,-67.0526898,38,241.71490
1,Acreúna/GO,-17.3959899,-50.3749031,3562,15684.72039
D1,Acreúna/GO,-17.3959899,-50.3749031,72,317.04095
1,Adamantina/SP,-21.6866517,-51.0762975,4479,12741.44454
D1,Adamantina/SP,-21.6866517,-51.0762975,148,421.01670
1,Adelândia/GO,-16.4155077,-50.1665834,242,9622.26640
D1,Adelândia/GO,-16.4155077,-50.1665834,4,159.04573
1,Adolfo/SP,-21.2356597,-49.6441918,623,17574.04795
D1,Adolfo/SP,-21.2356597,-49.6441918,19,535.96615
1,Adrianópolis/PR,-24.6557863,-48.9912769,1516,26151.45765
D1,Adrianópolis/PR,-24.6557863,-48.9912769,29,500.25875
1,Adustina/BA,-10.5358875,-38.114479,1116,6484.97879
D1,Adustina/BA,-10.5358875,-38.114479,27,156.89465
1,Afogados da Ingazeira/PE,-7.750429,-37.6356375,5453,14523.51782
D1,Afogados da Ingazeira/PE,-7.750429,-37.6356375,75,199.75497
1,Afonso Bezerra/RN,-5.4745,-36.57625071327935,841,7628.80987
D1,Afonso Bezerra/RN,-5.4745,-36.57625071327935,18,163.28012
1,Afonso Cláudio/ES,-20.077841,-41.12606,4626,15254.23729
D1,Afonso Cláudio/ES,-20.077841,-41.12606,74,244.01504
1,Afonso Cunha/MA,-4.1326105,-43.3230026,283,4267.83291
D1,Afonso Cunha/MA,-4.1326105,-43.3230026,3,45.24204
1,Afrânio/PE,-8.5198919,-41.0070197,1074,5375.10635
D1,Afrânio/PE,-8.5198919,-41.0070197,16,80.07607
1,Afuá/PA,-0.1535664,-50.3879223,3231,8095.71536
D1,Afuá/PA,-0.1535664,-50.3879223,16,40.09020
1,Agrestina/PE,-8.4558021,-35.9442663,1833,7262.28209
D1,Agrestina/PE,-8.4558021,-35.9442663,68,269.41363
1,Agricolândia/PI,-5.7967843,-42.6605131,781,15244.97365
D1,Agricolândia/PI,-5.7967843,-42.6605131,9,175.67831
1,Agrolândia/SC,-27.4122212,-49.8295774,1907,17087.81362
D1,Agrolândia/SC,-27.4122212,-49.8295774,30,268.81720
1,Agronômica/SC,-27.2660744,-49.7104753,830,14901.25673
D1,Agronômica/SC,-27.2660744,-49.7104753,14,251.34650
1,Aguanil/MG,-20.9424533,-45.3927152,873,19157.34036
D1,Aguanil/MG,-20.9424533,-45.3927152,8,175.55409
1,Aguaí/SP,-22.0592036,-46.979384,3714,10042.99505
D1,Aguaí/SP,-22.0592036,-46.979384,113,305.56232
1,Agudo/RS,-29.6423259,-53.2494005,2167,13258.68820
D1,Agudo/RS,-29.6423259,-53.2494005,32,195.79050
1,Agudos do Sul/PR,-25.9890808,-49.3328175,1101,11508.30981
D1,Agudos do Sul/PR,-25.9890808,-49.3328175,33,344.93572
1,Agudos/SP,-22.471162,-48.987822,4805,12785.37598
D1,Agudos/SP,-22.471162,-48.987822,111,295.35416
1,Aguiar/PB,-7.0928404,-38.1727215,557,9907.50623
D1,Aguiar/PB,-7.0928404,-38.1727215,5,88.93632
1,Aguiarnópolis/TO,-6.5600452,-47.4721189,732,10384.45170
D1,Aguiarnópolis/TO,-6.5600452,-47.4721189,14,198.60973
1,Aimorés/MG,-19.4917754,-41.0615603,2400,9555.66173
D1,Aimorés/MG,-19.4917754,-41.0615603,80,318.52206
1,Aiquara/BA,-14.126918,-39.8887574,517,11784.81878
D1,Aiquara/BA,-14.126918,-39.8887574,12,273.53545
1,Aiuaba/CE,-6.5710836,-40.1212278,879,4998.86260
D1,Aiuaba/CE,-6.5710836,-40.1212278,16,90.99181
1,Aiuruoca/MG,-21.9759554,-44.6036637,492,8270.29753
D1,Aiuruoca/MG,-21.9759554,-44.6036637,10,168.09548
1,Ajuricaba/RS,-28.239654,-53.7693013,1604,23075.81643
D1,Ajuricaba/RS,-28.239654,-53.7693013,33,474.75183
1,Alagoa Grande/PB,-7.0415212,-35.6285322,4469,15744.78579
D1,Alagoa Grande/PB,-7.0415212,-35.6285322,73,257.18715
1,Alagoa Nova/PB,-7.0653703,-35.76695977336711,1975,9408.34604
D1,Alagoa Nova/PB,-7.0653703,-35.76695977336711,34,161.96646
1,Alagoa/MG,-22.1697202,-44.6400042,510,19194.58035
D1,Alagoa/MG,-22.1697202,-44.6400042,8,301.09146
1,Alagoinha do Piauí/PI,-7.0090952,-40.939675,397,5170.61735
D1,Alagoinha do Piauí/PI,-7.0090952,-40.939675,13,169.31493
1,Alagoinha/PB,-6.97063215,-35.51490901897793,2155,14731.01374
D1,Alagoinha/PB,-6.97063215,-35.51490901897793,26,177.72917
1,Alagoinha/PE,-8.50355635,-36.77701174370496,1483,10021.62454
D1,Alagoinha/PE,-8.50355635,-36.77701174370496,29,195.97243
1,Alagoinhas/BA,-12.133526,-38.420772,14801,9672.40219
D1,Alagoinhas/BA,-12.133526,-38.420772,329,215.00036
1,Alambari/SP,-23.550338,-47.897971,686,11009.46879
D1,Alambari/SP,-23.550338,-47.897971,12,192.58546
1,Albertina/MG,-20.66164,-43.784039,491,16285.24046
D1,Albertina/MG,-20.66164,-43.784039,11,364.84245
1,Alcantil/PB,-7.7425491,-36.0609604,833,15071.46734
D1,Alcantil/PB,-7.7425491,-36.0609604,8,144.74398
1,Alcinópolis/MS,-18.3264121,-53.7094463,450,8198.21461
D1,Alcinópolis/MS,-18.3264121,-53.7094463,11,200.40080
1,Alcobaça/BA,-17.5215875,-39.1965474,1889,8392.19868
D1,Alcobaça/BA,-17.5215875,-39.1965474,31,137.72269
1,Alcântara/MA,-2.4038956,-44.4154241,336,1518.57543
D1,Alcântara/MA,-2.4038956,-44.4154241,19,85.87183
1,Alcântaras/CE,-3.586247,-40.5457641,1888,15937.86932
D1,Alcântaras/CE,-3.586247,-40.5457641,22,185.71670
1,Aldeias Altas/MA,-4.6291957,-43.4708622,977,3621.33511
D1,Aldeias Altas/MA,-4.6291957,-43.4708622,14,51.89221
1,Alecrim/RS,-27.6566142,-54.7653195,321,5621.71629
D1,Alecrim/RS,-27.6566142,-54.7653195,12,210.15762
1,Alegre/ES,-20.7625787,-41.5318886,4064,13606.07988
D1,Alegre/ES,-20.7625787,-41.5318886,81,271.18417
1,Alegrete do Piauí/PI,-7.2440138,-40.8602296,530,10770.16866
D1,Alegrete do Piauí/PI,-7.2440138,-40.8602296,9,182.88966
1,Alegrete/RS,-29.790166,-55.794862,12342,17025.09208
D1,Alegrete/RS,-29.790166,-55.794862,301,415.21250
1,Alegria/RS,-27.8332103,-54.0574959,402,12229.99696
D1,Alegria/RS,-27.8332103,-54.0574959,4,121.69151
1,Alenquer/PA,-1.946229,-54.738355,3901,6797.35145
D1,Alenquer/PA,-1.946229,-54.738355,148,257.88465
1,Alexandria/RN,-6.414779,-38.0135516,1934,14295.21768
D1,Alexandria/RN,-6.414779,-38.0135516,32,236.52894
1,Alexânia/GO,-16.0834049,-48.5077803,4562,16086.03667
D1,Alexânia/GO,-16.0834049,-48.5077803,104,366.71368
1,Alfenas/MG,-21.4297405,-45.9479419,13292,16415.34833
D1,Alfenas/MG,-21.4297405,-45.9479419,218,269.22554
1,Alfredo Chaves/ES,-20.624970400000002,-40.75006690147988,3049,20783.91275
D1,Alfredo Chaves/ES,-20.624970400000002,-40.75006690147988,43,293.11520
1,Alfredo Marcondes/SP,-21.9527,-51.413956,286,6807.90288
D1,Alfredo Marcondes/SP,-21.9527,-51.413956,15,357.05784
1,Alfredo Vasconcelos/MG,-21.145833,-43.776389,830,11769.71072
D1,Alfredo Vasconcelos/MG,-21.145833,-43.776389,16,226.88599
1,Alfredo Wagner/SC,-27.6961513,-49.3326734,1141,11256.90608
D1,Alfredo Wagner/SC,-27.6961513,-49.3326734,9,88.79242
1,Algodão de Jandaíra/PB,-6.9040175,-36.0089879,324,12519.31994
D1,Algodão de Jandaíra/PB,-6.9040175,-36.0089879,1,38.63988
1,Alhandra/PB,-7.4304246,-34.9106103,2561,12892.02114
D1,Alhandra/PB,-7.4304246,-34.9106103,40,201.35917
1,Aliança do Tocantins/TO,-11.3055927,-48.9409096,995,18762.96436
D1,Aliança do Tocantins/TO,-11.3055927,-48.9409096,25,471.43127
1,Aliança/PE,-7.60398,-35.222696,1140,2968.13164
D1,Aliança/PE,-7.60398,-35.222696,75,195.27182
1,Almadina/BA,-14.70466,-39.6381994,669,12687.27480
D1,Almadina/BA,-14.70466,-39.6381994,12,227.57444
1,Almas/TO,-11.5681309,-47.1702803,239,3461.25996
D1,Almas/TO,-11.5681309,-47.1702803,5,72.41130
1,Almeirim/PA,-1.5290377,-52.5788111,3883,11405.82775
D1,Almeirim/PA,-1.5290377,-52.5788111,52,152.74351
1,Almenara/MG,-16.1740678,-40.6904907,5040,11892.40208
D1,Almenara/MG,-16.1740678,-40.6904907,53,125.05899
1,Almino Afonso/RN,-6.1544208,-37.7649018,511,10907.15048
D1,Almino Afonso/RN,-6.1544208,-37.7649018,13,277.48132
1,Almirante Tamandaré do Sul/RS,-28.1141129,-52.9134874,414,21395.34884
D1,Almirante Tamandaré do Sul/RS,-28.1141129,-52.9134874,7,361.75711
1,Almirante Tamandaré/PR,-25.3133048,-49.2997838,12220,10064.23983
D1,Almirante Tamandaré/PR,-25.3133048,-49.2997838,441,363.20211
1,Aloândia/GO,-17.7277983,-49.4809338,336,17004.04858
D1,Aloândia/GO,-17.7277983,-49.4809338,11,556.68016
1,Alpercata/MG,-18.9803616,-41.9827637,570,7653.06122
D1,Alpercata/MG,-18.9803616,-41.9827637,21,281.95489
1,Alpestre/RS,-27.2512339,-53.0349646,797,13542.90569
D1,Alpestre/RS,-27.2512339,-53.0349646,17,288.87001
1,Alpinópolis/MG,-20.863611,-46.387777,2353,11730.39533
D1,Alpinópolis/MG,-20.863611,-46.387777,47,234.30879
1,Alta Floresta D'Oeste/RO,-11.9296917,-61.9961284,5038,22375.19986
D1,Alta Floresta D'Oeste/RO,-11.9296917,-61.9961284,75,333.09646
1,Alta Floresta/MT,-9.8715018,-56.0839881,12037,23101.42981
D1,Alta Floresta/MT,-9.8715018,-56.0839881,156,299.39545
1,Altair/SP,-20.5238955,-49.0606135,312,7409.16647
D1,Altair/SP,-20.5238955,-49.0606135,17,403.70458
1,Altamira do Maranhão/MA,-4.1643006,-45.4674574,406,4921.21212
D1,Altamira do Maranhão/MA,-4.1643006,-45.4674574,14,169.69697
1,Altamira do Paraná/PR,-24.799114,-52.7128633,317,22183.34500
D1,Altamira do Paraná/PR,-24.799114,-52.7128633,13,909.72708
1,Altamira/PA,-3.204065,-52.209961,17134,14604.50051
D1,Altamira/PA,-3.204065,-52.209961,344,293.21514
1,Altaneira/CE,-6.9980933,-39.7385742,780,10114.10788
D1,Altaneira/CE,-6.9980933,-39.7385742,18,233.40249
1,Alterosa/MG,-21.249166,-46.143055,1173,8053.00014
D1,Alterosa/MG,-21.249166,-46.143055,38,260.88150
1,Altinho/PE,-8.4904095,-36.0607494,1410,6131.50113
D1,Altinho/PE,-8.4904095,-36.0607494,30,130.45747
1,Altinópolis/SP,-21.021364,-47.3712,1048,6460.76074
D1,Altinópolis/SP,-21.021364,-47.3712,56,345.23149
1,Alto Alegre do Maranhão/MA,-4.2055693,-44.4525287,1570,5593.95710
D1,Alto Alegre do Maranhão/MA,-4.2055693,-44.4525287,29,103.32787
1,Alto Alegre do Pindaré/MA,-3.6698186,-45.8462153,2324,7269.99718
D1,Alto Alegre do Pindaré/MA,-3.6698186,-45.8462153,55,172.05243
1,Alto Alegre dos Parecis/RO,-12.1314515,-61.856265,1656,12481.15767
D1,Alto Alegre dos Parecis/RO,-12.1314515,-61.856265,47,354.23576
1,Alto Alegre/RR,2.98858,-61.307167,1931,12663.12545
D1,Alto Alegre/RR,2.98858,-61.307167,39,255.75448
1,Alto Alegre/RS,-31.780844700000003,-52.81311114489171,266,16729.55975
D1,Alto Alegre/RS,-31.780844700000003,-52.81311114489171,2,125.78616
1,Alto Alegre/SP,-21.5820592,-50.1661976,403,9882.29524
D1,Alto Alegre/SP,-21.5820592,-50.1661976,22,539.48014
1,Alto Araguaia/MT,-17.3156528,-53.2169365,2014,10216.09009
D1,Alto Araguaia/MT,-17.3156528,-53.2169365,31,157.24866
1,Alto Bela Vista/SC,-27.4320737,-51.905771,226,11801.56658
D1,Alto Bela Vista/SC,-27.4320737,-51.905771,3,156.65796
1,Alto Boa Vista/MT,-11.6723985,-51.3744431,1193,16821.77101
D1,Alto Boa Vista/MT,-11.6723985,-51.3744431,19,267.90750
1,Alto Caparaó/MG,-20.4405661,-41.8683799,452,7611.99057
D1,Alto Caparaó/MG,-20.4405661,-41.8683799,9,151.56618
1,Alto Feliz/RS,-29.3785943,-51.3123751,444,14590.86428
D1,Alto Feliz/RS,-29.3785943,-51.3123751,2,65.72461
1,Alto Garças/MT,-16.9469683,-53.529427,1249,10135.51895
D1,Alto Garças/MT,-16.9469683,-53.529427,42,340.82610
1,Alto Horizonte/GO,-14.1954948,-49.3366993,1304,19187.75750
D1,Alto Horizonte/GO,-14.1954948,-49.3366993,14,206.00353
1,Alto Jequitibá/MG,-20.423611,-41.966111,1048,12647.83973
D1,Alto Jequitibá/MG,-20.423611,-41.966111,13,156.89114
1,Alto Longá/PI,-5.2549051,-42.2072388,746,5191.00967
D1,Alto Longá/PI,-5.2549051,-42.2072388,15,104.37687
1,Alto Paraguai/MT,-14.513712,-56.4936374,941,8121.17028
D1,Alto Paraguai/MT,-14.513712,-56.4936374,30,258.91085
1,Alto Paraná/PR,-23.131247,-52.318893,1656,11080.62897
D1,Alto Paraná/PR,-23.131247,-52.318893,26,173.97123
1,Alto Paraíso de Goiás/GO,-14.1304779,-47.5100161,1085,13998.19378
D1,Alto Paraíso de Goiás/GO,-14.1304779,-47.5100161,9,116.11405
1,Alto Paraíso/PR,-23.508137,-53.728537,476,18098.85932
D1,Alto Paraíso/PR,-23.508137,-53.728537,9,342.20532
1,Alto Paraíso/RO,-9.7240103,-63.3188123,2460,11052.20595
D1,Alto Paraíso/RO,-9.7240103,-63.3188123,59,265.07323
1,Alto Parnaíba/MA,-9.112506,-45.9310154,1021,9089.29048
D1,Alto Parnaíba/MA,-9.112506,-45.9310154,11,97.92575
1,Alto Piquiri/PR,-24.0239021,-53.4417448,1439,14801.48118
D1,Alto Piquiri/PR,-24.0239021,-53.4417448,29,298.29253
1,Alto Rio Doce/MG,-21.0239537,-43.4133507,747,6966.33405
D1,Alto Rio Doce/MG,-21.0239537,-43.4133507,29,270.44670
1,Alto Rio Novo/ES,-19.0577208,-41.0171518,905,11439.76741
D1,Alto Rio Novo/ES,-19.0577208,-41.0171518,28,353.93756
1,Alto Santo/CE,-5.5190371,-38.2719351,2263,14076.00921
D1,Alto Santo/CE,-5.5190371,-38.2719351,36,223.92237
1,Alto Taquari/MT,-17.8269099,-53.2831736,1660,14544.81731
D1,Alto Taquari/MT,-17.8269099,-53.2831736,29,254.09621
1,Alto do Rodrigues/RN,-5.290868,-36.7616726,2747,18407.82684
D1,Alto do Rodrigues/RN,-5.290868,-36.7616726,40,268.04262
1,Altos/PI,-5.0393915,-42.4611694,5108,12556.23018
D1,Altos/PI,-5.0393915,-42.4611694,101,248.27315
1,Altônia/PR,-23.8722004,-53.894037,2564,11501.36814
D1,Altônia/PR,-23.8722004,-53.894037,50,224.28565
1,Alumínio/SP,-23.5203479,-47.2575256,1638,8665.29122
D1,Alumínio/SP,-23.5203479,-47.2575256,53,280.37878
1,Alvarenga/MG,-19.4175,-41.728334,541,14300.81946
D1,Alvarenga/MG,-19.4175,-41.728334,6,158.60428
1,Alvarães/AM,-3.214786,-64.8143124,3360,20492.80312
D1,Alvarães/AM,-3.214786,-64.8143124,46,280.55623
1,Alvinlândia/SP,-22.4431852,-49.7643596,145,4460.16610
D1,Alvinlândia/SP,-22.4431852,-49.7643596,9,276.83790
1,Alvinópolis/MG,-20.1105199,-43.0601805,1066,7043.27717
D1,Alvinópolis/MG,-20.1105199,-43.0601805,23,151.96564
1,Alvorada D'Oeste/RO,-11.346271,-62.284697,1477,10697.47230
D1,Alvorada D'Oeste/RO,-11.346271,-62.284697,31,224.52379
1,Alvorada de Minas/MG,-18.7318587,-43.3641479,355,9847.43412
D1,Alvorada de Minas/MG,-18.7318587,-43.3641479,3,83.21775
1,Alvorada do Gurguéia/PI,-8.4465288,-43.8655915,471,8612.17773
D1,Alvorada do Gurguéia/PI,-8.4465288,-43.8655915,12,219.41854
1,Alvorada do Norte/GO,-14.483911,-46.4959897,960,10972.68259
D1,Alvorada do Norte/GO,-14.483911,-46.4959897,17,194.30792
1,Alvorada do Sul/PR,-22.7807269,-51.2307721,996,8587.68753
D1,Alvorada do Sul/PR,-22.7807269,-51.2307721,29,250.04311
1,Alvorada/RS,-29.9981184,-51.0772509,24688,11625.97951
D1,Alvorada/RS,-29.9981184,-51.0772509,828,389.91863
1,Alvorada/TO,-12.478465,-49.124926,1929,23016.34650
D1,Alvorada/TO,-12.478465,-49.124926,30,357.95251
1,Além Paraíba/MG,-21.8760576,-42.6810473,4158,11733.16779
D1,Além Paraíba/MG,-21.8760576,-42.6810473,163,459.95824
1,Amajari/RR,3.6523869,-61.4194315,1209,8915.27174
D1,Amajari/RR,3.6523869,-61.4194315,25,184.35219
1,Amambai/MS,-23.1082701,-55.2284854,3910,9715.00981
D1,Amambai/MS,-23.1082701,-55.2284854,86,213.68052
1,Amaporã/PR,-23.094272,-52.786597,545,8508.97736
D1,Amaporã/PR,-23.094272,-52.786597,8,124.90242
1,Amapá do Maranhão/MA,-1.6762114,-46.0109669,172,2440.75493
D1,Amapá do Maranhão/MA,-1.6762114,-46.0109669,6,85.14261
1,Amapá/AP,2.0529997,-50.7930003,1474,15909.33621
D1,Amapá/AP,2.0529997,-50.7930003,13,140.31301
1,Amaraji/PE,-8.373925,-35.4536527,716,3125.27281
D1,Amaraji/PE,-8.373925,-35.4536527,48,209.51550
1,Amaral Ferrador/RS,-30.8750633,-52.2542051,331,4638.45291
D1,Amaral Ferrador/RS,-30.8750633,-52.2542051,11,154.14798
1,Amaralina/GO,-13.9236199,-49.2962411,151,3896.77419
D1,Amaralina/GO,-13.9236199,-49.2962411,2,51.61290
1,Amarante do Maranhão/MA,-5.56913,-46.747284,1768,4207.82064
D1,Amarante do Maranhão/MA,-5.56913,-46.747284,59,140.41935
1,Amarante/PI,-6.2459374,-42.8476238,1599,9080.58379
D1,Amarante/PI,-6.2459374,-42.8476238,35,198.76200
1,Amargosa/BA,-13.03793715,-39.60796443875596,3345,8888.94794
D1,Amargosa/BA,-13.03793715,-39.60796443875596,57,151.47086
1,Amaturá/AM,-3.3640509,-68.1994689,2429,20353.61153
D1,Amaturá/AM,-3.3640509,-68.1994689,18,150.82956
1,Americana/SP,-22.7392463,-47.3306032,27324,11181.40525
D1,Americana/SP,-22.7392463,-47.3306032,861,352.33457
1,Americano do Brasil/GO,-16.2515808,-49.9806104,960,15434.08360
D1,Americano do Brasil/GO,-16.2515808,-49.9806104,25,401.92926
1,Ametista do Sul/RS,-27.3617341,-53.1826575,1081,14616.00865
D1,Ametista do Sul/RS,-27.3617341,-53.1826575,26,351.54137
1,Amontada/CE,-3.3634586,-39.8284791,3171,7175.01980
D1,Amontada/CE,-3.3634586,-39.8284791,58,131.23657
1,Amorinópolis/GO,-16.6211308,-51.0949921,412,13683.16174
D1,Amorinópolis/GO,-16.6211308,-51.0949921,11,365.32713
1,Amparo de São Francisco/SE,-10.1299754,-36.9269099,256,10729.25398
D1,Amparo de São Francisco/SE,-10.1299754,-36.9269099,5,209.55574
1,Amparo do Serra/MG,-20.5070255,-42.8028462,186,4006.03058
D1,Amparo do Serra/MG,-20.5070255,-42.8028462,8,172.30239
1,Amparo/PB,-7.56394725,-37.04652873235175,191,8436.39576
D1,Amparo/PB,-7.56394725,-37.04652873235175,4,176.67845
1,Amparo/SP,-22.70111,-46.76444,8583,11734.22654
D1,Amparo/SP,-22.70111,-46.76444,227,310.34247
1,Ampére/PR,-25.9168712,-53.4742414,3170,16284.80427
D1,Ampére/PR,-25.9168712,-53.4742414,60,308.22973
1,Amélia Rodrigues/BA,-12.4015388,-38.7516971,2485,9941.19294
D1,Amélia Rodrigues/BA,-12.4015388,-38.7516971,52,208.02496
1,América Dourada/BA,-11.4515262,-41.4357517,979,6086.03755
D1,América Dourada/BA,-11.4515262,-41.4357517,13,80.81562
1,Américo Brasiliense/SP,-21.7297099,-48.1052092,4397,10583.70442
D1,Américo Brasiliense/SP,-21.7297099,-48.1052092,100,240.70285
1,Américo de Campos/SP,-20.298476,-49.735904,1173,19572.83497
D1,Américo de Campos/SP,-20.298476,-49.735904,35,584.01468
1,Anadia/AL,-9.6830208,-36.3052699,1552,8865.02542
D1,Anadia/AL,-9.6830208,-36.3052699,34,194.20803
1,Anagé/BA,-14.6134669,-41.1376308,1169,5506.61831
D1,Anagé/BA,-14.6134669,-41.1376308,30,141.31612
1,Anahy/PR,-24.6450861,-53.1337957,481,17339.58183
D1,Anahy/PR,-24.6450861,-53.1337957,13,468.63735
1,Anajatuba/MA,-3.26441,-44.6179916,1261,4641.14833
D1,Anajatuba/MA,-3.26441,-44.6179916,27,99.37431
1,Anajás/PA,-0.9878802,-49.9390114,1369,4549.53308
D1,Anajás/PA,-0.9878802,-49.9390114,22,73.11156
1,Analândia/SP,-22.128917,-47.661939,396,7741.93548
D1,Analândia/SP,-22.128917,-47.661939,5,97.75171
1,Anamã/AM,-3.5797356,-61.4049996,2477,17331.37420
D1,Anamã/AM,-3.5797356,-61.4049996,10,69.96921
1,Ananindeua/PA,-1.374035,-48.4016623,27141,5022.29788
D1,Ananindeua/PA,-1.374035,-48.4016623,834,154.32727
1,Ananás/TO,-6.3663053,-48.080238,1791,18982.51192
D1,Ananás/TO,-6.3663053,-48.080238,28,296.76736
1,Anapu/PA,-3.4668292,-51.2057035,2000,6823.14410
D1,Anapu/PA,-3.4668292,-51.2057035,57,194.45961
1,Anapurus/MA,-3.6751298,-43.1046001,832,5182.50903
D1,Anapurus/MA,-3.6751298,-43.1046001,15,93.43466
1,Anastácio/MS,-20.4832458,-55.8048448,2679,10573.88696
D1,Anastácio/MS,-20.4832458,-55.8048448,88,347.33186
1,Anaurilândia/MS,-22.185169,-52.719056,569,6241.77271
D1,Anaurilândia/MS,-22.185169,-52.719056,15,164.54585
1,Anchieta/ES,-20.8057672,-40.6454564,6570,21693.90788
D1,Anchieta/ES,-20.8057672,-40.6454564,98,323.59254
1,Anchieta/SC,-26.5350527,-53.3293938,735,13419.75534
D1,Anchieta/SC,-26.5350527,-53.3293938,11,200.83988
1,Andaraí/BA,-12.8059674,-41.3322919,1006,7666.51425
D1,Andaraí/BA,-12.8059674,-41.3322919,11,83.82868
1,Andirá/PR,-23.0494761,-50.2310027,3259,16440.49841
D1,Andirá/PR,-23.0494761,-50.2310027,96,484.28593
1,Andorinha/BA,-10.3445708,-39.8334411,1004,6964.48391
D1,Andorinha/BA,-10.3445708,-39.8334411,18,124.86127
1,Andradas/MG,-22.0680484,-46.5688976,4979,11938.90274
D1,Andradas/MG,-22.0680484,-46.5688976,125,299.73144
1,Andradina/SP,-20.896505,-51.3742765,7408,12940.86820
D1,Andradina/SP,-20.896505,-51.3742765,282,492.61944
1,Andrelândia/MG,-21.739722,-44.308889,206,1690.04840
D1,Andrelândia/MG,-21.739722,-44.308889,16,131.26590
1,André da Rocha/RS,-28.6309124,-51.5733328,120,8882.30940
D1,André da Rocha/RS,-28.6309124,-51.5733328,1,74.01925
1,Angatuba/SP,-23.4938938,-48.4110675,3212,12486.39403
D1,Angatuba/SP,-23.4938938,-48.4110675,80,310.99362
1,Angelim/PE,-8.8902038,-36.2872987,242,2141.40342
D1,Angelim/PE,-8.8902038,-36.2872987,12,106.18529
1,Angelina/SC,-27.5805287,-48.9838759,603,12868.11780
D1,Angelina/SC,-27.5805287,-48.9838759,5,106.70081
1,Angelândia/MG,-17.7253,-42.2728,275,3199.90691
D1,Angelândia/MG,-17.7253,-42.2728,4,46.54410
1,Angical do Piauí/PI,-6.0872666,-42.7366138,894,13187.78581
D1,Angical do Piauí/PI,-6.0872666,-42.7366138,12,177.01726
1,Angical/BA,-12.005623,-44.7000236,974,7006.18616
D1,Angical/BA,-12.005623,-44.7000236,20,143.86419
1,Angico/TO,-6.3893733,-47.8656722,249,7165.46763
D1,Angico/TO,-6.3893733,-47.8656722,5,143.88489
1,Angicos/RN,-5.6666344,-36.6009064,1135,9705.00214
D1,Angicos/RN,-5.6666344,-36.6009064,24,205.21590
1,Angra dos Reis/RJ,-23.0063966,-44.316326,19235,9152.07141
D1,Angra dos Reis/RJ,-23.0063966,-44.316326,578,275.01416
1,Anguera/BA,-12.1509425,-39.2452469,551,4846.51245
D1,Anguera/BA,-12.1509425,-39.2452469,2,17.59170
1,Angélica/MS,-22.1588196,-53.7728504,1507,13599.85561
D1,Angélica/MS,-22.1588196,-53.7728504,21,189.51358
1,Anhanguera/GO,-18.3338749,-48.220363,134,11443.21093
D1,Anhanguera/GO,-18.3338749,-48.220363,7,597.77968
1,Anhembi/SP,-22.7891096,-48.1316776,368,5324.84445
D1,Anhembi/SP,-22.7891096,-48.1316776,11,159.16655
1,Anhumas/SP,-22.2956478,-51.3873401,386,9252.15724
D1,Anhumas/SP,-22.2956478,-51.3873401,7,167.78523
1,Anicuns/GO,-16.4606451,-49.9572265,4543,20544.47610
D1,Anicuns/GO,-16.4606451,-49.9572265,73,330.12255
1,Anita Garibaldi/SC,-27.6855032,-51.1293873,1314,19371.95931
D1,Anita Garibaldi/SC,-27.6855032,-51.1293873,10,147.42739
1,Anitápolis/SC,-27.9041185,-49.1287395,436,13527.76916
D1,Anitápolis/SC,-27.9041185,-49.1287395,5,155.13497
1,Anori/AM,-3.7435254,-61.6605203,2227,10151.79833
D1,Anori/AM,-3.7435254,-61.6605203,33,150.43078
1,Anta Gorda/RS,-28.9718745,-52.0069187,782,13162.76721
D1,Anta Gorda/RS,-28.9718745,-52.0069187,8,134.65747
1,Antas/BA,-10.4114649,-38.3308815,1322,6724.65537
D1,Antas/BA,-10.4114649,-38.3308815,13,66.12747
1,Antonina do Norte/CE,-6.7754187,-39.9879345,881,11902.18860
D1,Antonina do Norte/CE,-6.7754187,-39.9879345,26,351.25642
1,Antonina/PR,-25.4298854,-48.7125431,3106,16417.35821
D1,Antonina/PR,-25.4298854,-48.7125431,73,385.85549
1,Antônio Almeida/PI,-7.2186016,-44.1950248,407,12818.89764
D1,Antônio Almeida/PI,-7.2186016,-44.1950248,10,314.96063
1,Antônio Cardoso/BA,-12.4363122,-39.1200307,652,5586.97515
D1,Antônio Cardoso/BA,-12.4363122,-39.1200307,11,94.25878
1,Antônio Carlos/MG,-21.318334,-43.746666,973,8482.25961
D1,Antônio Carlos/MG,-21.318334,-43.746666,18,156.91744
1,Antônio Carlos/SC,-27.5168462,-48.7684715,1881,21590.90909
D1,Antônio Carlos/SC,-27.5168462,-48.7684715,27,309.91736
1,Antônio Dias/MG,-19.6525,-42.872778,622,6736.70530
D1,Antônio Dias/MG,-19.6525,-42.872778,27,292.42933
1,Antônio Gonçalves/BA,-10.5715409,-40.2748824,934,7812.63070
D1,Antônio Gonçalves/BA,-10.5715409,-40.2748824,10,83.64701
1,Antônio João/MS,-22.1892837,-55.9508227,658,7245.10020
D1,Antônio João/MS,-22.1892837,-55.9508227,18,198.19423
1,Antônio Martins/RN,-6.2155812,-37.8890129,717,10011.17006
D1,Antônio Martins/RN,-6.2155812,-37.8890129,7,97.73806
1,Antônio Olinto/PR,-25.9849006,-50.1974516,628,8462.47137
D1,Antônio Olinto/PR,-25.9849006,-50.1974516,16,215.60437
1,Antônio Prado de Minas/MG,-21.0171988,-42.1101106,166,10526.31579
D1,Antônio Prado de Minas/MG,-21.0171988,-42.1101106,5,317.05770
1,Antônio Prado/RS,-28.8567806,-51.2801355,3278,25136.10919
D1,Antônio Prado/RS,-28.8567806,-51.2801355,35,268.38433
1,Anápolis/GO,-16.3332828,-48.9525756,55747,14058.85112
D1,Anápolis/GO,-16.3332828,-48.9525756,1819,458.73411
1,Anísio de Abreu/PI,-9.185643,-43.04941,291,2911.74705
D1,Anísio de Abreu/PI,-9.185643,-43.04941,15,150.09005
1,Aparecida d'Oeste/SP,-20.4498109,-50.8808706,1016,24648.22902
D1,Aparecida d'Oeste/SP,-20.4498109,-50.8808706,22,533.72149
1,Aparecida de Goiânia/GO,-16.8226769,-49.2452546,100000,16615.60139
D1,Aparecida de Goiânia/GO,-16.8226769,-49.2452546,1789,297.25311
1,Aparecida do Rio Doce/GO,-18.2980167,-51.1491312,276,11156.02264
D1,Aparecida do Rio Doce/GO,-18.2980167,-51.1491312,4,161.68149
1,Aparecida do Rio Negro/TO,-9.9513491,-47.9773786,399,8141.19567
D1,Aparecida do Rio Negro/TO,-9.9513491,-47.9773786,13,265.25199
1,Aparecida do Taboado/MS,-20.0840304,-51.1013943,4380,16599.71197
D1,Aparecida do Taboado/MS,-20.0840304,-51.1013943,62,234.97309
1,Aparecida/PB,-6.7859598, -38.0831353,1133,13357.69866
D1,Aparecida/PB,-6.7859598, -38.0831353,14,165.05541
1,Aparecida/SP,-22.851552,-45.2340924,2911,8038.99368
D1,Aparecida/SP,-22.851552,-45.2340924,118,325.86783
1,Aperibé/RJ,-21.6211928,-42.1028167,1328,11033.56597
D1,Aperibé/RJ,-21.6211928,-42.1028167,32,265.86906
1,Apiacá/ES,-21.152272,-41.569297,1253,16613.63034
D1,Apiacá/ES,-21.152272,-41.569297,38,503.84513
1,Apiacás/MT,-9.5678422,-57.394852,2124,20362.38136
D1,Apiacás/MT,-9.5678422,-57.394852,18,172.56255
1,Apiaí/SP,-24.5076527,-48.8461582,1781,7395.87226
D1,Apiaí/SP,-24.5076527,-48.8461582,97,402.80719
1,Apicum-Açu/MA,-1.5279295,-45.082278,624,3549.08429
D1,Apicum-Açu/MA,-1.5279295,-45.082278,11,62.56399
1,Apiúna/SC,-27.0374658,-49.3885037,1032,9423.79691
D1,Apiúna/SC,-27.0374658,-49.3885037,18,164.36855
1,Apodi/RN,-5.6631109,-37.796927,6904,19229.05526
D1,Apodi/RN,-5.6631109,-37.796927,98,272.95009
1,Aporá/BA,-11.6599747,-38.0794757,684,3834.08072
D1,Aporá/BA,-11.6599747,-38.0794757,19,106.50224
1,Aporé/GO,-18.9642193,-51.92804,522,12236.28692
D1,Aporé/GO,-18.9642193,-51.92804,11,257.85279
1,Apuarema/BA,-13.8517897,-39.7457126,781,10736.87105
D1,Apuarema/BA,-13.8517897,-39.7457126,11,151.22354
1,Apucarana/PR,-23.5525327,-51.4610764,13323,9693.82558
D1,Apucarana/PR,-23.5525327,-51.4610764,492,357.97960
1,Apuiarés/CE,-3.9460303,-39.4313298,1415,9598.42627
D1,Apuiarés/CE,-3.9460303,-39.4313298,25,169.58350
1,Apuí/AM,-7.1940195,-59.8830192,1636,7194.68754
D1,Apuí/AM,-7.1940195,-59.8830192,34,149.52285
1,Aquidabã/SE,-10.2837579,-37.0188687,2426,11130.48266
D1,Aquidabã/SE,-10.2837579,-37.0188687,40,183.51991
1,Aquidauana/MS,-20.473969,-55.7821375,5983,12416.98489
D1,Aquidauana/MS,-20.473969,-55.7821375,168,348.66346
1,Aquiraz/CE,-3.9063117,-38.387504,8105,9934.91132
D1,Aquiraz/CE,-3.9063117,-38.387504,96,117.67446
1,Arabutã/SC,-27.1587028,-52.1438142,424,9934.39550
D1,Arabutã/SC,-27.1587028,-52.1438142,10,234.30178
1,Aracaju/SE,-10.9162061,-37.0774655,130475,19398.19867
D1,Aracaju/SE,-10.9162061,-37.0774655,2437,362.31776
1,Aracati/CE,-4.558259,-37.767894,8608,11417.65705
D1,Aracati/CE,-4.558259,-37.767894,168,222.83531
1,Aracatu/BA,-14.4274236,-41.4604105,1063,8202.16049
D1,Aracatu/BA,-14.4274236,-41.4604105,19,146.60494
1,Araci/BA,-11.3356065,-38.9573261,3868,7045.15236
D1,Araci/BA,-11.3356065,-38.9573261,56,101.99807
1,Aracitaba/MG,-21.3425,-43.378611,98,4766.53696
D1,Aracitaba/MG,-21.3425,-43.378611,11,535.01946
1,Aracoiaba/CE,-4.3702577,-38.8084313,4543,17078.94737
D1,Aracoiaba/CE,-4.3702577,-38.8084313,35,131.57895
1,Aracruz/ES,-19.8245218,-40.2735025,23753,22634.40758
D1,Aracruz/ES,-19.8245218,-40.2735025,255,242.99137
1,Aragarças/GO,-15.8957166,-52.2514538,3439,16849.58354
D1,Aragarças/GO,-15.8957166,-52.2514538,80,391.96472
1,Aragoiânia/GO,-16.9146388,-49.4499148,1800,16853.93258
D1,Aragoiânia/GO,-16.9146388,-49.4499148,30,280.89888
1,Aragominas/TO,-7.1654101,-48.525488,679,11901.84049
D1,Aragominas/TO,-7.1654101,-48.525488,11,192.81332
1,Araguacema/TO,-8.8067391,-49.5560969,846,11712.58480
D1,Araguacema/TO,-8.8067391,-49.5560969,19,263.04859
1,Araguaiana/MT,-15.729144,-51.834112,442,14425.58747
D1,Araguaiana/MT,-15.729144,-51.834112,8,261.09661
1,Araguainha/MT,-16.857016,-53.031778,33,3630.36304
D1,Araguainha/MT,-16.857016,-53.031778,1,110.01100
1,Araguanã/MA,-2.9508403,-45.6651986,818,5218.50080
D1,Araguanã/MA,-2.9508403,-45.6651986,5,31.89793
1,Araguanã/TO,-6.5799107,-48.6428482,594,10143.44262
D1,Araguanã/TO,-6.5799107,-48.6428482,16,273.22404
1,Araguapaz/GO,-15.0937927,-50.626417,843,10814.62476
D1,Araguapaz/GO,-15.0937927,-50.626417,30,384.86209
1,Araguari/MG,-18.6511256,-48.1933764,22003,18589.73817
D1,Araguari/MG,-18.6511256,-48.1933764,476,402.15950
1,Araguatins/TO,-5.6522925,-48.1158973,2918,7978.56342
D1,Araguatins/TO,-5.6522925,-48.1158973,74,202.33506
1,Araguaçu/TO,-12.928934,-49.823134,1221,14504.63293
D1,Araguaçu/TO,-12.928934,-49.823134,22,261.34474
1,Araguaína/TO,-7.193241,-48.2018597,41283,22165.96419
D1,Araguaína/TO,-7.193241,-48.2018597,568,304.97463
1,Araioses/MA,-2.890914,-41.904993,687,1458.75358
D1,Araioses/MA,-2.890914,-41.904993,15,31.85051
1,Aral Moreira/MS,-22.951141,-55.6268421,570,4555.99073
D1,Aral Moreira/MS,-22.951141,-55.6268421,19,151.86636
1,Aramari/BA,-12.0907897,-38.4985065,704,6111.64164
D1,Aramari/BA,-12.0907897,-38.4985065,14,121.53833
1,Arambaré/RS,-30.9132252,-51.4994625,272,7674.94357
D1,Arambaré/RS,-30.9132252,-51.4994625,9,253.95034
1,Arame/MA,-4.8858769,-46.0102484,1563,4761.61462
D1,Arame/MA,-4.8858769,-46.0102484,42,127.95126
1,Aramina/SP,-20.0876144,-47.789201,369,6486.20144
D1,Aramina/SP,-20.0876144,-47.789201,18,316.40007
1,Arandu/SP,-23.1345103,-49.0545651,657,10309.11659
D1,Arandu/SP,-23.1345103,-49.0545651,21,329.51514
1,Arantina/MG,-21.911667,-44.255833,363,13062.25261
D1,Arantina/MG,-21.911667,-44.255833,6,215.90500
1,Arapeí/SP,-22.6738889,-44.4477778,271,11052.20228
D1,Arapeí/SP,-22.6738889,-44.4477778,4,163.13214
1,Arapiraca/AL,-9.754866,-36.661471,31506,13446.34649
D1,Arapiraca/AL,-9.754866,-36.661471,538,229.61133
1,Arapoema/TO,-7.6575001,-49.0641484,595,9028.83156
D1,Arapoema/TO,-7.6575001,-49.0641484,12,182.09408
1,Araponga/MG,-20.666667,-42.520556,782,9235.85686
D1,Araponga/MG,-20.666667,-42.520556,12,141.72670
1,Arapongas/PR,-23.415296,-51.42592,16986,13422.89304
D1,Arapongas/PR,-23.415296,-51.42592,590,466.23731
1,Araporã/MG,-18.4318188,-49.188313,2281,32622.99771
D1,Araporã/MG,-18.4318188,-49.188313,41,586.38444
1,Arapoti/PR,-24.1457957,-49.8224605,4022,14122.19101
D1,Arapoti/PR,-24.1457957,-49.8224605,68,238.76404
1,Araputanga/MT,-15.4710868,-58.346796,2637,15440.91814
D1,Araputanga/MT,-15.4710868,-58.346796,56,327.90725
1,Arapuá/MG,-19.034444,-46.155556,340,11988.71650
D1,Arapuá/MG,-19.034444,-46.155556,3,105.78279
1,Arapuã/PR,-24.3079525,-51.7901941,455,15418.50220
D1,Arapuã/PR,-24.3079525,-51.7901941,9,304.98136
1,Araquari/SC,-26.3703324,-48.7210994,5156,12609.43996
D1,Araquari/SC,-26.3703324,-48.7210994,90,220.10271
1,Arara/PB,-6.8271895,-35.7605703,1072,7874.82553
D1,Arara/PB,-6.8271895,-35.7605703,29,213.03166
1,Araranguá/SC,-28.9348832,-49.4858389,12572,18091.03075
D1,Araranguá/SC,-28.9348832,-49.4858389,261,375.57740
1,Araraquara/SP,-21.7886713,-48.1773096,24182,10053.13001
D1,Araraquara/SP,-21.7886713,-48.1773096,552,229.48175
1,Araras/SP,-22.3569477,-47.3838889,18688,13666.91288
D1,Araras/SP,-22.3569477,-47.3838889,405,296.18470
1,Ararendá/CE,-4.7504395,-40.8303611,1545,14067.19476
D1,Ararendá/CE,-4.7504395,-40.8303611,22,200.30957
1,Arari/MA,-3.4547602,-44.7772723,1087,3621.64323
D1,Arari/MA,-3.4547602,-44.7772723,35,116.61225
1,Araricá/RS,-29.6168543,-50.929121,1156,19794.52055
D1,Araricá/RS,-29.6168543,-50.929121,27,462.32877
1,Araripe/CE,-7.212861,-40.1359222,1467,6758.18860
D1,Araripe/CE,-7.212861,-40.1359222,23,105.95660
1,Araripina/PE,-7.5768582,-40.5038509,8509,9975.26406
D1,Araripina/PE,-7.5768582,-40.5038509,172,201.63890
1,Araruama/RJ,-22.8733203,-42.3428897,8292,6092.17612
D1,Araruama/RJ,-22.8733203,-42.3428897,492,361.47499
1,Araruna/PB,-6.5321155,-35.7397595,736,3571.08200
D1,Araruna/PB,-6.5321155,-35.7397595,18,87.33624
1,Araruna/PR,-23.9320308,-52.4976047,2529,18026.94419
D1,Araruna/PR,-23.9320308,-52.4976047,37,263.73940
1,Arataca/BA,-15.2617424,-39.4122943,799,7327.58621
D1,Arataca/BA,-15.2617424,-39.4122943,15,137.56420
1,Aratiba/RS,-27.3955734,-52.3024325,576,9373.47437
D1,Aratiba/RS,-27.3955734,-52.3024325,7,113.91375
1,Aratuba/CE,-4.4195958,-39.0463737,1797,15281.91173
D1,Aratuba/CE,-4.4195958,-39.0463737,13,110.55362
1,Aratuípe/BA,-13.077137,-39.0010786,552,6238.69801
D1,Aratuípe/BA,-13.077137,-39.0010786,12,135.62387
1,Araucária/PR,-25.5861107,-49.4051209,32790,22077.53733
D1,Araucária/PR,-25.5861107,-49.4051209,560,377.04852
1,Arauá/SE,-11.2644014,-37.6181058,1306,13272.35772
D1,Arauá/SE,-11.2644014,-37.6181058,22,223.57724
1,Araxá/MG,-19.5928536,-46.940241,22016,20309.40103
D1,Araxá/MG,-19.5928536,-46.940241,247,227.85347
1,Araçagi/PB,-6.8519969,-35.3835602,1939,11502.63985
D1,Araçagi/PB,-6.8519969,-35.3835602,26,154.23860
1,Araçariguama/SP,-23.438611,-47.061389,2276,9750.24633
D1,Araçariguama/SP,-23.438611,-47.061389,74,317.01152
1,Araçatuba/SP,-21.207992,-50.4390225,32727,16428.39215
D1,Araçatuba/SP,-21.207992,-50.4390225,939,471.36188
1,Araçaí/MG,-19.200833,-44.2475,104,4406.77966
D1,Araçaí/MG,-19.200833,-44.2475,1,42.37288
1,Araçoiaba da Serra/SP,-23.5045367,-47.6168158,3110,8788.04148
D1,Araçoiaba da Serra/SP,-23.5045367,-47.6168158,91,257.14205
1,Araçoiaba/PE,-7.7856903,-35.0898881,725,3462.93466
D1,Araçoiaba/PE,-7.7856903,-35.0898881,33,157.62323
1,Araçu/GO,-16.3561579,-49.6815269,867,25130.43478
D1,Araçu/GO,-16.3561579,-49.6815269,20,579.71014
1,Araçuaí/MG,-16.8484451,-42.0661868,2461,6702.98243
D1,Araçuaí/MG,-16.8484451,-42.0661868,54,147.07885
1,Araçás/BA,-12.2139176,-38.2026159,726,5932.82667
D1,Araçás/BA,-12.2139176,-38.2026159,17,138.92294
1,Araújos/MG,-19.948055,-45.165556,947,9944.34527
D1,Araújos/MG,-19.948055,-45.165556,14,147.01250
1,Arceburgo/MG,-21.364444,-46.939722,1679,15277.52502
D1,Arceburgo/MG,-21.364444,-46.939722,34,309.37216
1,Arco-Íris/SP,-21.7741308,-50.4668814,177,10085.47009
D1,Arco-Íris/SP,-21.7741308,-50.4668814,8,455.84046
1,Arcos/MG,-20.282223,-45.539444,7385,18163.70702
D1,Arcos/MG,-20.282223,-45.539444,140,344.33568
1,Arcoverde/PE,-8.415192,-37.057748,7660,10173.31828
D1,Arcoverde/PE,-8.415192,-37.057748,136,180.62288
1,Areado/MG,-21.3582771,-46.1476688,1589,10393.77289
D1,Areado/MG,-21.3582771,-46.1476688,33,215.85557
1,Areal/RJ,-22.2314922,-43.1056264,1781,13954.39944
D1,Areal/RJ,-22.2314922,-43.1056264,51,399.59257
1,Arealva/SP,-22.0301906,-48.9111936,1178,13594.92210
D1,Arealva/SP,-22.0301906,-48.9111936,21,242.35430
1,Areia Branca/RN,-4.9506652,-37.1263312,3307,11745.27632
D1,Areia Branca/RN,-4.9506652,-37.1263312,106,376.47393
1,Areia Branca/SE,-10.7591455,-37.3148072,2144,11389.11023
D1,Areia Branca/SE,-10.7591455,-37.3148072,49,260.29216
1,Areia de Baraúnas/PB,-7.1233949,-36.9446216,256,12161.52019
D1,Areia de Baraúnas/PB,-7.1233949,-36.9446216,7,332.54157
1,Areia/PB,-6.9680243,-35.6994783,2605,11581.38087
D1,Areia/PB,-6.9680243,-35.6994783,34,151.15814
1,Areial/PB,-7.0501306,-35.9245244,421,5968.24497
D1,Areial/PB,-7.0501306,-35.9245244,12,170.11625
1,Areias/SP,-22.5800929,-44.6975127,366,9370.19969
D1,Areias/SP,-22.5800929,-44.6975127,2,51.20328
1,Areiópolis/SP,-22.6758064,-48.6673653,1421,12703.37922
D1,Areiópolis/SP,-22.6758064,-48.6673653,23,205.61416
1,Arenápolis/MT,-14.4610369,-56.8432806,2180,23193.95680
D1,Arenápolis/MT,-14.4610369,-56.8432806,40,425.57719
1,Arenópolis/GO,-16.3859286,-51.55937,514,20877.33550
D1,Arenópolis/GO,-16.3859286,-51.55937,9,365.55646
1,Argirita/MG,-21.612761,-42.8371922,394,14696.00895
D1,Argirita/MG,-21.612761,-42.8371922,11,410.29467
1,Aricanduva/MG,-17.8678,-42.5569,204,3845.42884
1,Arinos/MG,-15.917223,-46.106111,1547,8666.66667
D1,Arinos/MG,-15.917223,-46.106111,30,168.06723
1,Aripuanã/MT,-10.175806,-59.4439663,3590,15563.35891
D1,Aripuanã/MT,-10.175806,-59.4439663,49,212.42468
1,Ariquemes/RO,-9.9076522,-63.033069,26042,23430.02123
D1,Ariquemes/RO,-9.9076522,-63.033069,534,480.44049
1,Ariranha do Ivaí/PR,-24.3834527,-51.5876772,269,13277.39388
D1,Ariranha do Ivaí/PR,-24.3834527,-51.5876772,4,197.43337
1,Ariranha/SP,-21.18716,-48.790418,1020,10354.27875
D1,Ariranha/SP,-21.18716,-48.790418,32,324.84012
1,Armazém/SC,-28.2624996,-49.0190126,1505,17019.11116
D1,Armazém/SC,-28.2624996,-49.0190126,35,395.79328
1,Armação dos Búzios/RJ,-22.7597805,-41.8875267,6473,18462.63548
D1,Armação dos Búzios/RJ,-22.7597805,-41.8875267,76,216.77125
1,Arneiroz/CE,-6.3235099,-40.1603859,694,8843.01733
D1,Arneiroz/CE,-6.3235099,-40.1603859,21,267.58410
1,Aroazes/PI,-6.1108814,-41.7886137,672,11548.37601
D1,Aroazes/PI,-6.1108814,-41.7886137,14,240.59117
1,Aroeiras do Itaim/PI,-7.2797031,-41.5629681,185,7252.05802
D1,Aroeiras do Itaim/PI,-7.2797031,-41.5629681,2,78.40063
1,Aroeiras/PB,-7.5462904,-35.7080002,2213,11597.92464
D1,Aroeiras/PB,-7.5462904,-35.7080002,18,94.33468
1,Arraial do Cabo/RJ,-22.9662839,-42.024427,1276,4139.22860
D1,Arraial do Cabo/RJ,-22.9662839,-42.024427,47,152.46375
1,Arraial/PI,-6.6541632,-42.5335332,172,3649.48016
D1,Arraial/PI,-6.6541632,-42.5335332,3,63.65372
1,Arraias/TO,-12.9287788,-46.9437231,1181,11245.47705
D1,Arraias/TO,-12.9287788,-46.9437231,13,123.78595
1,Arroio Grande/RS,-32.2384246,-53.0866661,2360,12977.72890
D1,Arroio Grande/RS,-32.2384246,-53.0866661,59,324.44322
1,Arroio Trinta/SC,-26.9301976,-51.334928,790,22272.34282
D1,Arroio Trinta/SC,-26.9301976,-51.334928,14,394.69975
1,Arroio do Meio/RS,-29.4020392,-51.9444993,3552,16817.38554
D1,Arroio do Meio/RS,-29.4020392,-51.9444993,51,241.46584
1,Arroio do Padre/RS,-31.4428773,-52.4228985,276,9305.46190
D1,Arroio do Padre/RS,-31.4428773,-52.4228985,4,134.86177
1,Arroio do Sal/RS,-29.549852,-49.8874395,1990,18983.11552
D1,Arroio do Sal/RS,-29.549852,-49.8874395,40,381.57016
1,Arroio do Tigre/RS,-29.334158,-53.0888935,1513,11247.39816
D1,Arroio do Tigre/RS,-29.334158,-53.0888935,22,163.54445
1,Arroio dos Ratos/RS,-30.0894524,-51.7265541,1543,10865.43201
D1,Arroio dos Ratos/RS,-30.0894524,-51.7265541,43,302.79558
1,Artur Nogueira/SP,-22.572737,-47.172679,6723,11952.63747
D1,Artur Nogueira/SP,-22.572737,-47.172679,148,263.12514
1,Aruanã/GO,-14.9162439,-51.0715692,1051,10164.41006
D1,Aruanã/GO,-14.9162439,-51.0715692,20,193.42360
1,Arujá/SP,-23.396266,-46.3175449,8852,9574.59466
D1,Arujá/SP,-23.396266,-46.3175449,346,374.24421
1,Arvoredo/SC,-27.0752908,-52.4571847,370,16606.82226
D1,Arvoredo/SC,-27.0752908,-52.4571847,5,224.41652
1,Arvorezinha/RS,-28.87369,-52.17808,1127,10813.66340
D1,Arvorezinha/RS,-28.87369,-52.17808,29,278.25753
1,Arês/RN,-6.1969216,-35.1642968,1264,8701.63844
D1,Arês/RN,-6.1969216,-35.1642968,26,178.98940
1,Ascurra/SC,-26.9569975,-49.3767752,1601,19960.10473
D1,Ascurra/SC,-26.9569975,-49.3767752,13,162.07455
1,Aspásia/SP,-20.160028,-50.728046,216,11900.82645
D1,Aspásia/SP,-20.160028,-50.728046,9,495.86777
1,Assaré/CE,-6.8746791,-39.8741385,2545,10812.76288
D1,Assaré/CE,-6.8746791,-39.8741385,47,199.68560
1,Assaí/PR,-23.3736041,-50.8454929,2061,13933.20714
D1,Assaí/PR,-23.3736041,-50.8454929,57,385.34343
1,Assis Brasil/AC,-10.9409203,-69.5672108,1857,24277.68336
D1,Assis Brasil/AC,-10.9409203,-69.5672108,24,313.76651
1,Assis Chateaubriand/PR,-24.4054826,-53.5120468,6274,18837.44671
D1,Assis Chateaubriand/PR,-24.4054826,-53.5120468,135,405.33237
1,Assis/SP,-22.6620892,-50.420623,13013,12303.34317
D1,Assis/SP,-22.6620892,-50.420623,418,395.20460
1,Assunção do Piauí/PI,-5.8610212,-41.0485091,409,5191.01409
D1,Assunção do Piauí/PI,-5.8610212,-41.0485091,9,114.22769
1,Assunção/PB,-7.073396,-36.7274003,451,11089.25498
D1,Assunção/PB,-7.073396,-36.7274003,5,122.94074
1,Astolfo Dutra/MG,-21.3132636,-42.8624102,1709,11902.77197
D1,Astolfo Dutra/MG,-21.3132636,-42.8624102,28,195.01323
1,Astorga/PR,-23.2350184,-51.6647074,5173,19666.21046
D1,Astorga/PR,-23.2350184,-51.6647074,98,372.56691
1,Atalaia do Norte/AM,-4.3658547,-70.1908742,3418,16379.14510
D1,Atalaia do Norte/AM,-4.3658547,-70.1908742,11,52.71229
1,Atalaia/AL,-9.5029595,-36.0219316,1361,2862.85233
D1,Atalaia/AL,-9.5029595,-36.0219316,54,113.58856
1,Atalaia/PR,-23.1513833,-52.0529697,644,16636.52803
D1,Atalaia/PR,-23.1513833,-52.0529697,25,645.82795
1,Atalanta/SC,-27.421916,-49.778863,601,18905.31614
D1,Atalanta/SC,-27.421916,-49.778863,11,346.02076
1,Ataléia/MG,-18.04432,-41.1110524,1383,11067.54161
D1,Ataléia/MG,-18.04432,-41.1110524,11,88.02817
1,Atibaia/SP,-23.1177393,-46.5547861,12777,8788.81261
D1,Atibaia/SP,-23.1177393,-46.5547861,296,203.60715
1,Atilio Vivacqua/ES,-20.9139369,-41.1947519,1903,15509.37245
D1,Atilio Vivacqua/ES,-20.9139369,-41.1947519,31,252.64874
1,Augustinópolis/TO,-5.4662267,-47.8897519,2010,10651.82830
D1,Augustinópolis/TO,-5.4662267,-47.8897519,32,169.58135
1,Augusto Corrêa/PA,-1.0229335,-46.6404029,2129,4535.86723
D1,Augusto Corrêa/PA,-1.0229335,-46.6404029,52,110.78680
1,Augusto Pestana/RS,-28.5148413,-53.9906433,1097,16760.88617
D1,Augusto Pestana/RS,-28.5148413,-53.9906433,14,213.90374
1,Augusto de Lima/MG,-18.1092963,-44.2651945,327,6765.98386
D1,Augusto de Lima/MG,-18.1092963,-44.2651945,11,227.60190
1,Aurelino Leal/BA,-14.3167137,-39.3256107,1120,10109.21563
D1,Aurelino Leal/BA,-14.3167137,-39.3256107,36,324.93907
1,Auriflama/SP,-20.6840418,-50.5554616,2124,13867.85061
D1,Auriflama/SP,-20.6840418,-50.5554616,78,509.27135
1,Aurilândia/GO,-16.6772599,-50.4641231,628,20933.33333
D1,Aurilândia/GO,-16.6772599,-50.4641231,14,466.66667
1,Aurora do Pará/PA,-2.1323199,-47.558436,1828,5677.01863
D1,Aurora do Pará/PA,-2.1323199,-47.558436,15,46.58385
1,Aurora do Tocantins/TO,-12.71045,-46.407604,394,10343.92229
D1,Aurora do Tocantins/TO,-12.71045,-46.407604,7,183.77527
1,Aurora/CE,-6.9426019,-38.9693765,2259,9195.26194
D1,Aurora/CE,-6.9426019,-38.9693765,42,170.96105
1,Aurora/SC,-27.3166417,-49.6368502,1059,18621.41727
D1,Aurora/SC,-27.3166417,-49.6368502,19,334.09531
1,Autazes/AM,-3.5833283,-59.1301518,3534,8618.46116
D1,Autazes/AM,-3.5833283,-59.1301518,98,238.99524
1,Avanhandava/SP,-21.4603331,-49.9465156,1231,8753.46654
D1,Avanhandava/SP,-21.4603331,-49.9465156,44,312.87776
1,Avaré/SP,-23.1045215,-48.9259103,12183,13272.39847
D1,Avaré/SP,-23.1045215,-48.9259103,282,307.21632
1,Avaí/SP,-22.1564662,-49.3316395,595,10883.48271
D1,Avaí/SP,-22.1564662,-49.3316395,13,237.79038
1,Aveiro/PA,-3.6049239,-55.3310742,910,5541.68443
D1,Aveiro/PA,-3.6049239,-55.3310742,15,91.34645
1,Avelino Lopes/PI,-10.1346855,-43.9489525,526,4629.87413
D1,Avelino Lopes/PI,-10.1346855,-43.9489525,21,184.84288
1,Avelinópolis/GO,-16.4672409,-49.7578661,422,17576.01000
D1,Avelinópolis/GO,-16.4672409,-49.7578661,17,708.03832
1,Axixá do Tocantins/TO,-5.612747,-47.77007,1131,11520.83121
D1,Axixá do Tocantins/TO,-5.612747,-47.77007,23,234.28746
1,Axixá/MA,-2.8379465,-44.0561053,192,1569.39676
D1,Axixá/MA,-2.8379465,-44.0561053,8,65.39153
1,Açailândia/MA,-4.9514278,-47.4844564,6053,5319.77536
D1,Açailândia/MA,-4.9514278,-47.4844564,269,236.41493
1,Açu/RN,-5.5836157,-36.9139541,8739,14876.66616
D1,Açu/RN,-5.5836157,-36.9139541,157,267.26589
1,Açucena/MG,-19.073056,-42.546666,813,8770.22654
D1,Açucena/MG,-19.073056,-42.546666,38,409.92449
1,Babaçulândia/TO,-7.2034355,-47.761613,889,8333.33333
D1,Babaçulândia/TO,-7.2034355,-47.761613,8,74.99063
1,Bacabal/MA,-4.2318132,-44.781167,5666,5391.36392
D1,Bacabal/MA,-4.2318132,-44.781167,206,196.01500
1,Bacabeira/MA,-2.9775747,-44.3155943,459,2630.97558
D1,Bacabeira/MA,-2.9775747,-44.3155943,10,57.31973
1,Bacuri/MA,-1.728894,-45.1417148,664,3545.87205
D1,Bacuri/MA,-1.728894,-45.1417148,4,21.36067
1,Bacurituba/MA,-2.7082587,-44.7381309,117,2054.07303
D1,Bacurituba/MA,-2.7082587,-44.7381309,2,35.11236
1,Bady Bassitt/SP,-20.9178969,-49.4517911,4230,23483.04003
D1,Bady Bassitt/SP,-20.9178969,-49.4517911,86,477.43297
1,Baependi/MG,-21.959162,-44.8899249,2399,12462.98509
D1,Baependi/MG,-21.959162,-44.8899249,33,171.43748
1,Bagre/PA,-1.8994498,-50.2103844,959,2999.96872
D1,Bagre/PA,-1.8994498,-50.2103844,12,37.53871
1,Bagé/RS,-31.3314264,-54.1062808,12814,10544.93984
D1,Bagé/RS,-31.3314264,-54.1062808,299,246.05408
1,Baianópolis/BA,-12.3067564,-44.5383591,1114,7969.09650
D1,Baianópolis/BA,-12.3067564,-44.5383591,20,143.07175
1,Baixa Grande do Ribeiro/PI,-7.862861,-45.2113289,2669,22712.96060
D1,Baixa Grande do Ribeiro/PI,-7.862861,-45.2113289,35,297.84699
1,Baixa Grande/BA,-11.9630941,-40.1657537,1071,5242.03416
D1,Baixa Grande/BA,-11.9630941,-40.1657537,19,92.99594
1,Baixio/CE,-6.7303544,-38.7170095,742,11744.22286
D1,Baixio/CE,-6.7303544,-38.7170095,15,237.41690
1,Baixo Guandu/ES,-19.5138322,-41.0182089,4667,14928.18987
D1,Baixo Guandu/ES,-19.5138322,-41.0182089,95,303.87359
1,Baião/PA,-2.7903479,-49.6702845,858,1734.94561
D1,Baião/PA,-2.7903479,-49.6702845,39,78.86116
1,Balbinos/SP,-21.9006253,-49.3583966,395,6446.87449
D1,Balbinos/SP,-21.9006253,-49.3583966,4,65.28480
1,Baldim/MG,-19.2913568,-43.9558262,697,8958.86889
D1,Baldim/MG,-19.2913568,-43.9558262,22,282.77635
1,Baliza/GO,-16.1978119,-52.542789,563,10391.28830
D1,Baliza/GO,-16.1978119,-52.542789,11,203.02695
1,Balneário Arroio do Silva/SC,-28.9815269,-49.4189932,2449,17769.55449
D1,Balneário Arroio do Silva/SC,-28.9815269,-49.4189932,62,449.86214
1,Balneário Barra do Sul/SC,-26.459842,-48.6061471,1799,15961.31665
D1,Balneário Barra do Sul/SC,-26.459842,-48.6061471,48,425.87171
1,Balneário Camboriú/SC,-26.9924395,-48.6339782,31527,21126.87382
D1,Balneário Camboriú/SC,-26.9924395,-48.6339782,449,300.88389
1,Balneário Gaivota/SC,-29.1553098,-49.5808712,1595,13825.08451
D1,Balneário Gaivota/SC,-29.1553098,-49.5808712,39,338.04282
1,Balneário Pinhal/RS,-30.2482978,-50.234585,1258,8589.96244
D1,Balneário Pinhal/RS,-30.2482978,-50.234585,58,396.03960
1,Balneário Piçarras/SC,-26.7638889,-48.6716667,5811,23830.22350
D1,Balneário Piçarras/SC,-26.7638889,-48.6716667,67,274.75907
1,Balneário Rincão/SC,-28.8235718,-49.2241642,1864,14197.57788
D1,Balneário Rincão/SC,-28.8235718,-49.2241642,54,411.30322
1,Balsa Nova/PR,-25.5842234,-49.6312741,2055,15523.49297
D1,Balsa Nova/PR,-25.5842234,-49.6312741,37,279.49841
1,Balsas/MA,-7.53214,-46.037163,14617,15076.68822
D1,Balsas/MA,-7.53214,-46.037163,213,219.69861
1,Bambuí/MG,-20.0131996,-45.9777034,3285,13708.06209
D1,Bambuí/MG,-20.0131996,-45.9777034,35,146.05241
1,Banabuiú/CE,-5.3046404,-38.919766,2454,13400.31671
D1,Banabuiú/CE,-5.3046404,-38.919766,22,120.13324
1,Bananal/SP,-22.6828195,-44.3221095,1133,10263.61083
D1,Bananal/SP,-22.6828195,-44.3221095,4,36.23517
1,Bananeiras/PB,-6.7537682,-35.6338343,1606,7568.33176
D1,Bananeiras/PB,-6.7537682,-35.6338343,27,127.23845
1,Bandeira do Sul/MG,-21.728056,-46.385555,972,16735.53719
D1,Bandeira do Sul/MG,-21.728056,-46.385555,15,258.26446
1,Bandeira/MG,-15.884444,-40.559167,487,10278.59856
D1,Bandeira/MG,-15.884444,-40.559167,10,211.05952
1,Bandeirante/SC,-26.7677402,-53.6397596,459,17532.46753
D1,Bandeirante/SC,-26.7677402,-53.6397596,6,229.18258
1,Bandeirantes do Tocantins/TO,-7.7635698,-48.579148,615,16937.48279
D1,Bandeirantes do Tocantins/TO,-7.7635698,-48.579148,8,220.32498
1,Bandeirantes/MS,-19.9179623,-54.3646768,647,8886.14201
D1,Bandeirantes/MS,-19.9179623,-54.3646768,12,164.81253
1,Bandeirantes/PR,-23.107788,-50.370407,6369,20504.81311
D1,Bandeirantes/PR,-23.107788,-50.370407,148,476.48176
1,Bannach/PA,-7.3508505,-50.4064531,656,20253.16456
D1,Bannach/PA,-7.3508505,-50.4064531,3,92.62118
1,Banzaê/BA,-10.5827616,-38.6122305,1212,9146.47951
D1,Banzaê/BA,-10.5827616,-38.6122305,11,83.01260
1,Baraúna/PB,-6.643394,-36.2531932,750,14901.64912
D1,Baraúna/PB,-6.643394,-36.2531932,9,178.81979
1,Baraúna/RN,-5.0775002,-37.61752,1716,5894.47650
D1,Baraúna/RN,-5.0775002,-37.61752,29,99.61528
1,Barbacena/MG,-21.2254524,-43.7735087,10640,7651.31849
D1,Barbacena/MG,-21.2254524,-43.7735087,312,224.36197
1,Barbalha/CE,-7.3121067,-39.3036427,7386,11978.20376
D1,Barbalha/CE,-7.3121067,-39.3036427,179,290.29224
1,Barbosa Ferraz/PR,-24.0287182,-52.00811,1950,17276.51280
D1,Barbosa Ferraz/PR,-24.0287182,-52.00811,47,416.40826
1,Barbosa/SP,-21.265661,-49.951816,792,10515.13542
D1,Barbosa/SP,-21.265661,-49.951816,21,278.81041
1,Barcarena/PA,-1.5107945,-48.6190679,12094,9351.05503
D1,Barcarena/PA,-1.5107945,-48.6190679,244,188.66028
1,Barcelona/RN,-5.9514918,-35.9260284,267,6693.40687
D1,Barcelona/RN,-5.9514918,-35.9260284,8,200.55152
1,Barcelos/AM,-0.9729214,-62.925635,4863,17510.44217
D1,Barcelos/AM,-0.9729214,-62.925635,60,216.04494
1,Bariri/SP,-22.0746355,-48.7394852,3236,9028.01027
D1,Bariri/SP,-22.0746355,-48.7394852,135,376.63207
1,Barra Bonita/SC,-26.6526364,-53.4419581,297,18276.92308
D1,Barra Bonita/SC,-26.6526364,-53.4419581,2,123.07692
1,Barra Bonita/SP,-22.490859,-48.558349,4847,13417.30104
D1,Barra Bonita/SP,-22.490859,-48.558349,117,323.87543
1,Barra D'Alcântara/PI,-6.5209258,-42.1071089,155,3921.07260
D1,Barra D'Alcântara/PI,-6.5209258,-42.1071089,4,101.18897
1,Barra Funda/RS,-27.9230048,-53.0401045,727,28365.19703
D1,Barra Funda/RS,-27.9230048,-53.0401045,14,546.23488
1,Barra Longa/MG,-20.2833541,-43.0423516,525,10703.36391
D1,Barra Longa/MG,-20.2833541,-43.0423516,13,265.03568
1,Barra Mansa/RJ,-22.5394843,-44.1735129,38778,20934.26259
D1,Barra Mansa/RJ,-22.5394843,-44.1735129,707,381.67321
1,Barra Velha/SC,-26.6338203,-48.6835001,5278,17282.81869
D1,Barra Velha/SC,-26.6338203,-48.6835001,138,451.88120
1,Barra da Estiva/BA,-13.6269662,-41.3278287,3019,14947.02446
D1,Barra da Estiva/BA,-13.6269662,-41.3278287,34,168.33350
1,Barra de Guabiraba/PE,-8.4173522,-35.6626669,464,3171.13177
D1,Barra de Guabiraba/PE,-8.4173522,-35.6626669,17,116.18371
1,Barra de Santa Rosa/PB,-6.7218007,-36.0564638,1723,11039.91799
D1,Barra de Santa Rosa/PB,-6.7218007,-36.0564638,13,83.29596
1,Barra de Santana/PB,-7.5230865,-35.9988518,774,9282.80163
D1,Barra de Santana/PB,-7.5230865,-35.9988518,8,95.94627
1,Barra de Santo Antônio/AL,-9.4038098,-35.5117693,494,3049.19449
D1,Barra de Santo Antônio/AL,-9.4038098,-35.5117693,33,203.69113
1,Barra de São Francisco/ES,-18.7570902,-40.8916119,6090,13443.41185
D1,Barra de São Francisco/ES,-18.7570902,-40.8916119,238,525.37472
1,Barra de São Miguel/AL,-9.8261357,-35.8837777,758,8987.43182
D1,Barra de São Miguel/AL,-9.8261357,-35.8837777,8,94.85416
1,Barra de São Miguel/PB,-7.7528088,-36.3170996,778,12764.56112
D1,Barra de São Miguel/PB,-7.7528088,-36.3170996,10,164.06891
1,Barra do Bugres/MT,-15.0683712,-57.1853688,4621,12965.04124
D1,Barra do Bugres/MT,-15.0683712,-57.1853688,88,246.89973
1,Barra do Chapéu/SP,-24.472203,-49.023784,452,7801.17363
D1,Barra do Chapéu/SP,-24.472203,-49.023784,11,189.85157
1,Barra do Choça/BA,-14.8638173,-40.5761637,2385,7735.72054
D1,Barra do Choça/BA,-14.8638173,-40.5761637,36,116.76559
1,Barra do Corda/MA,-5.496823,-45.248496,5875,6608.92064
D1,Barra do Corda/MA,-5.496823,-45.248496,78,87.74397
1,Barra do Garças/MT,-15.8916033,-52.2615413,11243,18221.45149
D1,Barra do Garças/MT,-15.8916033,-52.2615413,386,625.58750
1,Barra do Guarita/RS,-27.1888016,-53.7147086,118,3612.98224
D1,Barra do Guarita/RS,-27.1888016,-53.7147086,8,244.94795
1,Barra do Jacaré/PR,-23.1151788,-50.1813945,331,11902.19346
D1,Barra do Jacaré/PR,-23.1151788,-50.1813945,7,251.70802
1,Barra do Mendes/BA,-11.8053298,-42.057037,878,6687.99512
D1,Barra do Mendes/BA,-11.8053298,-42.057037,17,129.49421
1,Barra do Ouro/TO,-7.7113784,-47.6743925,173,3702.11855
D1,Barra do Ouro/TO,-7.7113784,-47.6743925,8,171.19623
1,Barra do Piraí/RJ,-22.4703403,-43.8263256,8181,8088.86780
D1,Barra do Piraí/RJ,-22.4703403,-43.8263256,410,405.38269
1,Barra do Quaraí/RS,-30.208947,-57.5505128,614,14487.96602
D1,Barra do Quaraí/RS,-30.208947,-57.5505128,9,212.36432
1,Barra do Ribeiro/RS,-30.2930206,-51.301437,1252,9193.71420
D1,Barra do Ribeiro/RS,-30.2930206,-51.301437,54,396.53400
1,Barra do Rio Azul/RS,-27.4101581,-52.4117471,160,9870.45034
D1,Barra do Rio Azul/RS,-27.4101581,-52.4117471,1,61.69031
1,Barra do Rocha/BA,-14.2090974,-39.6004395,484,8776.06528
D1,Barra do Rocha/BA,-14.2090974,-39.6004395,7,126.92656
1,Barra do Turvo/SP,-24.756421,-48.5056942,737,9689.71864
D1,Barra do Turvo/SP,-24.756421,-48.5056942,23,302.39285
1,Barra dos Coqueiros/SE,-10.9075694,-37.0386249,7311,23254.55644
D1,Barra dos Coqueiros/SE,-10.9075694,-37.0386249,100,318.07627
1,Barra/BA,-11.0892702,-43.1420453,2351,4335.63854
D1,Barra/BA,-11.0892702,-43.1420453,66,121.71508
1,Barracão/PR,-26.252395,-53.6349576,1594,15405.43153
D1,Barracão/PR,-26.252395,-53.6349576,37,357.59157
1,Barracão/RS,-27.6728964,-51.4582928,693,13232.76685
D1,Barracão/RS,-27.6728964,-51.4582928,16,305.51843
1,Barras/PI,-4.2446153,-42.2920241,5706,12063.93505
D1,Barras/PI,-4.2446153,-42.2920241,99,209.31118
1,Barreira/CE,-4.2883361,-38.641094,1647,7250.71539
D1,Barreira/CE,-4.2883361,-38.641094,51,224.52124
1,Barreiras do Piauí/PI,-9.9224524,-45.4763776,114,3396.90107
D1,Barreiras do Piauí/PI,-9.9224524,-45.4763776,4,119.18951
1,Barreiras/BA,-12.1440031,-44.9967406,21651,13665.79984
D1,Barreiras/BA,-12.1440031,-44.9967406,341,215.23430
1,Barreirinha/AM,-2.798863,-57.067897,3108,9441.35606
D1,Barreirinha/AM,-2.798863,-57.067897,65,197.45436
1,Barreirinhas/MA,-2.7541271,-42.8259693,2667,4174.29685
D1,Barreirinhas/MA,-2.7541271,-42.8259693,48,75.12795
1,Barreiros/PE,-8.8159644,-35.1831905,843,1966.59357
D1,Barreiros/PE,-8.8159644,-35.1831905,67,156.30103
1,Barretos/SP,-20.5531437,-48.5697509,18510,14982.27381
D1,Barretos/SP,-20.5531437,-48.5697509,593,479.98316
1,Barrinha/SP,-21.1898849,-48.1550642,1718,5122.70030
D1,Barrinha/SP,-21.1898849,-48.1550642,76,226.61538
1,Barro Alto/BA,-11.7618025,-41.9094904,975,6426.73522
D1,Barro Alto/BA,-11.7618025,-41.9094904,14,92.28133
1,Barro Alto/GO,-14.9696025,-48.9190985,1809,15537.23267
D1,Barro Alto/GO,-14.9696025,-48.9190985,24,206.13244
1,Barro Duro/PI,-5.8180139,-42.5106589,769,10951.29593
D1,Barro Duro/PI,-5.8180139,-42.5106589,12,170.89148
1,Barro Preto/BA,-14.8068289,-39.4727588,685,12895.33133
D1,Barro Preto/BA,-14.8068289,-39.4727588,12,225.90361
1,Barro/CE,-7.1713587,-38.7742136,2067,9052.29044
D1,Barro/CE,-7.1713587,-38.7742136,47,205.83341
1,Barrocas/BA,-11.5165,-39.099282894736845,958,5904.46841
D1,Barrocas/BA,-11.5165,-39.099282894736845,27,166.40986
1,Barrolândia/TO,-9.837246,-48.7264346,821,14482.27201
D1,Barrolândia/TO,-9.837246,-48.7264346,20,352.79591
1,Barroquinha/CE,-3.0200371,-41.1339229,1363,9045.05939
D1,Barroquinha/CE,-3.0200371,-41.1339229,25,165.90351
1,Barros Cassal/RS,-29.094938,-52.5832366,999,8946.00161
D1,Barros Cassal/RS,-29.094938,-52.5832366,15,134.32435
1,Barroso/MG,-21.187222,-43.976111,2770,13202.42124
D1,Barroso/MG,-21.187222,-43.976111,59,281.20681
1,Barueri/SP,-23.5112184,-46.8764612,35809,12802.46260
D1,Barueri/SP,-23.5112184,-46.8764612,1178,421.15951
1,Barão de Antonina/SP,-23.6295651,-49.5632104,519,14723.40426
D1,Barão de Antonina/SP,-23.6295651,-49.5632104,11,312.05674
1,Barão de Cocais/MG,-19.9452437,-43.4870298,5496,16538.27636
D1,Barão de Cocais/MG,-19.9452437,-43.4870298,79,237.72268
1,Barão de Cotegipe/RS,-27.6214694,-52.3765316,887,13406.89238
D1,Barão de Cotegipe/RS,-27.6214694,-52.3765316,10,151.14873
1,Barão de Grajaú/MA,-6.7542591,-43.0263477,481,2528.11942
D1,Barão de Grajaú/MA,-6.7542591,-43.0263477,7,36.79176
1,Barão de Melgaço/MT,-16.195776,-55.9668049,658,8058.78751
D1,Barão de Melgaço/MT,-16.195776,-55.9668049,17,208.20576
1,Barão de Monte Alto/MG,-21.244722,-42.2375,368,6929.01525
D1,Barão de Monte Alto/MG,-21.244722,-42.2375,13,244.77500
1,Barão do Triunfo/RS,-30.3909877,-51.7375349,532,7046.35762
D1,Barão do Triunfo/RS,-30.3909877,-51.7375349,8,105.96026
1,Barão/RS,-29.372474,-51.494908,881,14136.71374
D1,Barão/RS,-29.372474,-51.494908,13,208.60077
1,Bastos/SP,-21.9222474,-50.7317727,2162,10318.82398
D1,Bastos/SP,-21.9222474,-50.7317727,50,238.64070
1,Bataguassu/MS,-21.715899,-52.422058,3700,15664.69094
D1,Bataguassu/MS,-21.715899,-52.422058,51,215.91871
1,Batalha/AL,-9.6733809,-37.1265481,1151,6241.86551
D1,Batalha/AL,-9.6733809,-37.1265481,20,108.45987
1,Batalha/PI,-4.022391,-42.0780926,1367,5072.16801
D1,Batalha/PI,-4.022391,-42.0780926,36,133.57575
1,Batatais/SP,-20.892867,-47.592149,6482,10217.85050
D1,Batatais/SP,-20.892867,-47.592149,177,279.01258
1,Batayporã/MS,-22.2976466,-53.2685608,1223,10758.26882
D1,Batayporã/MS,-22.2976466,-53.2685608,27,237.50880
1,Baturité/CE,-4.3290203,-38.8821055,4431,12265.06491
D1,Baturité/CE,-4.3290203,-38.8821055,89,246.35314
1,Bauru/SP,-22.3218102,-49.0705863,56824,14886.85009
D1,Bauru/SP,-22.3218102,-49.0705863,1254,328.52510
1,Bayeux/PB,-7.1301631,-34.936532,9572,9815.52313
D1,Bayeux/PB,-7.1301631,-34.936532,258,264.56383
1,Baía Formosa/RN,-6.3691885,-35.0063741,544,5803.90483
D1,Baía Formosa/RN,-6.3691885,-35.0063741,9,96.02048
1,Baía da Traição/PB,-6.691258,-34.9371244,1420,15439.81733
D1,Baía da Traição/PB,-6.691258,-34.9371244,12,130.47733
1,Bebedouro/SP,-20.949077,-48.479083,4915,6332.78359
D1,Bebedouro/SP,-20.949077,-48.479083,324,417.46122
1,Beberibe/CE,-4.1810469,-38.1298101,6484,11937.77041
D1,Beberibe/CE,-4.1810469,-38.1298101,131,241.18568
1,Bela Cruz/CE,-3.0529129,-40.167582,3690,11232.53478
D1,Bela Cruz/CE,-3.0529129,-40.167582,73,222.21546
1,Bela Vista da Caroba/PR,-25.8792818,-53.6672545,383,11251.46886
D1,Bela Vista da Caroba/PR,-25.8792818,-53.6672545,7,205.64042
1,Bela Vista de Goiás/GO,-16.9692949,-48.9513071,4078,13153.14153
D1,Bela Vista de Goiás/GO,-16.9692949,-48.9513071,88,283.83434
1,Bela Vista de Minas/MG,-19.8289721,-43.0973688,1076,10478.13809
D1,Bela Vista de Minas/MG,-19.8289721,-43.0973688,25,243.45116
1,Bela Vista do Maranhão/MA,-3.7416367,-45.2514192,230,2026.96748
D1,Bela Vista do Maranhão/MA,-3.7416367,-45.2514192,20,176.25804
1,Bela Vista do Paraíso/PR,-22.9948493,-51.1907996,2536,16467.53247
D1,Bela Vista do Paraíso/PR,-22.9948493,-51.1907996,80,519.48052
1,Bela Vista do Piauí/PI,-7.9716353,-41.8715061,321,7937.68546
D1,Bela Vista do Piauí/PI,-7.9716353,-41.8715061,7,173.09594
1,Bela Vista do Toldo/SC,-26.274625,-50.466354,94,1471.96993
D1,Bela Vista do Toldo/SC,-26.274625,-50.466354,5,78.29627
1,Bela Vista/MS,-22.107327,-56.5317344,1485,5977.77957
D1,Bela Vista/MS,-22.107327,-56.5317344,34,136.86499
1,Belford Roxo/RJ,-22.7667284,-43.4033603,29496,5724.72193
D1,Belford Roxo/RJ,-22.7667284,-43.4033603,974,189.03849
1,Belmiro Braga/MG,-21.9486291,-43.413564,285,8328.46289
D1,Belmiro Braga/MG,-21.9486291,-43.413564,4,116.89071
1,Belmonte/BA,-15.8630837,-38.8792845,1445,6138.48768
D1,Belmonte/BA,-15.8630837,-38.8792845,29,123.19456
1,Belmonte/SC,-26.8448262,-53.578916,411,15154.86726
D1,Belmonte/SC,-26.8448262,-53.578916,5,184.36578
1,Belo Campo/BA,-15.0338286,-41.2585109,1006,5913.12526
D1,Belo Campo/BA,-15.0338286,-41.2585109,18,105.80145
1,Belo Horizonte/MG,-19.9227318,-43.9450948,308477,12189.38942
D1,Belo Horizonte/MG,-19.9227318,-43.9450948,7112,281.02885
1,Belo Jardim/PE,-8.3338293,-36.4176419,4784,6218.64032
D1,Belo Jardim/PE,-8.3338293,-36.4176419,131,170.28467
1,Belo Monte/AL,-9.8269944,-37.2787165,557,8292.39244
D1,Belo Monte/AL,-9.8269944,-37.2787165,9,133.98839
1,Belo Oriente/MG,-19.2232523,-42.4807033,2878,10551.01367
D1,Belo Oriente/MG,-19.2232523,-42.4807033,74,271.29083
1,Belo Vale/MG,-20.407778,-44.024167,1216,15745.17674
D1,Belo Vale/MG,-20.407778,-44.024167,12,155.38003
1,Belterra/PA,-2.636091,-54.937392,1832,10209.54079
D1,Belterra/PA,-2.636091,-54.937392,38,211.76995
1,Belágua/MA,-3.1604031,-43.5085052,413,5444.23939
D1,Belágua/MA,-3.1604031,-43.5085052,4,52.72871
1,Belém de Maria/PE,-8.6242497,-35.8388934,315,2588.54466
D1,Belém de Maria/PE,-8.6242497,-35.8388934,8,65.74082
1,Belém do Brejo do Cruz/PB,-6.1880727,-37.5332267,607,8251.76726
D1,Belém do Brejo do Cruz/PB,-6.1880727,-37.5332267,7,95.16041
1,Belém do Piauí/PI,-7.3767305,-40.9712156,495,13723.31577
D1,Belém do Piauí/PI,-7.3767305,-40.9712156,8,221.79096
1,Belém do São Francisco/PE,-8.7517707,-38.9625715,1086,5238.78437
D1,Belém do São Francisco/PE,-8.7517707,-38.9625715,14,67.53497
1,Belém/AL,-9.5715351,-36.492841,145,3431.14056
D1,Belém/AL,-9.5715351,-36.492841,8,189.30431
1,Belém/PA,-1.45056,-48.4682453,108593,7208.68018
D1,Belém/PA,-1.45056,-48.4682453,5164,342.79948
1,Belém/PB,-6.6967586,-35.5369626,2528,14255.90707
D1,Belém/PB,-6.6967586,-35.5369626,45,253.76417
1,Beneditinos/PI,-5.4565671,-42.3605061,1342,12806.56551
D1,Beneditinos/PI,-5.4565671,-42.3605061,41,391.25871
1,Benedito Leite/MA,-7.2173453,-44.5523331,339,6007.44285
D1,Benedito Leite/MA,-7.2173453,-44.5523331,2,35.44214
1,Benedito Novo/SC,-26.7840657,-49.3629511,1116,9381.30464
D1,Benedito Novo/SC,-26.7840657,-49.3629511,20,168.12374
1,Benevides/PA,-1.3555577,-48.252235,4403,6796.85088
D1,Benevides/PA,-1.3555577,-48.252235,109,168.26181
1,Benjamin Constant do Sul/RS,-27.5105555,-52.6007689,198,10291.06029
D1,Benjamin Constant do Sul/RS,-27.5105555,-52.6007689,2,103.95010
1,Benjamin Constant/AM,-4.3782748,-70.0290603,3793,8452.74441
D1,Benjamin Constant/AM,-4.3782748,-70.0290603,88,196.10902
1,Bento Fernandes/RN,-5.6926846,-35.8207423,182,3278.09798
D1,Bento Fernandes/RN,-5.6926846,-35.8207423,3,54.03458
1,Bento Gonçalves/RS,-29.1654014,-51.5197627,25823,20978.95849
D1,Bento Gonçalves/RS,-29.1654014,-51.5197627,410,333.08961
1,Bento de Abreu/SP,-21.2707225,-50.8120444,396,13077.93923
D1,Bento de Abreu/SP,-21.2707225,-50.8120444,5,165.12550
1,Bequimão/MA,-2.4495376,-44.7884889,331,1552.75133
D1,Bequimão/MA,-2.4495376,-44.7884889,25,117.27729
1,Berilo/MG,-16.9515764,-42.4643732,267,2260.22179
D1,Berilo/MG,-16.9515764,-42.4643732,1,8.46525
1,Berizal/MG,-15.6118785,-41.7417382,262,5467.44574
D1,Berizal/MG,-15.6118785,-41.7417382,1,20.86811
1,Bernardino Batista/PB,-6.4532173,-38.5495418,363,10165.21983
D1,Bernardino Batista/PB,-6.4532173,-38.5495418,2,56.00672
1,Bernardino de Campos/SP,-23.0140216,-49.4760724,918,8219.91404
D1,Bernardino de Campos/SP,-23.0140216,-49.4760724,34,304.44126
1,Bernardo Sayão/TO,-7.8794244,-48.8968905,744,16760.53165
D1,Bernardo Sayão/TO,-7.8794244,-48.8968905,13,292.85875
1,Bernardo do Mearim/MA,-4.6315929,-44.7617508,353,5784.98853
D1,Bernardo do Mearim/MA,-4.6315929,-44.7617508,7,114.71649
1,Bertioga/SP,-23.848568,-46.139586,6931,10477.06866
D1,Bertioga/SP,-23.848568,-46.139586,177,267.55752
1,Bertolínia/PI,-7.6372159,-43.9540611,948,17198.83890
D1,Bertolínia/PI,-7.6372159,-43.9540611,12,217.70682
1,Bertópolis/MG,-17.063333,-40.573889,547,11868.08418
D1,Bertópolis/MG,-17.063333,-40.573889,5,108.48340
1,Beruri/AM,-3.9007135,-61.3717319,2800,13656.53807
D1,Beruri/AM,-3.9007135,-61.3717319,34,165.82939
1,Betim/MG,-19.968056,-44.198333,34228,7605.81658
D1,Betim/MG,-19.968056,-44.198333,1379,306.42810
1,Betânia do Piauí/PI,-8.1460635,-40.7961387,182,2928.87029
D1,Betânia do Piauí/PI,-8.1460635,-40.7961387,4,64.37078
1,Betânia/PE,-8.2742779,-38.0351767,540,4215.12762
D1,Betânia/PE,-8.2742779,-38.0351767,17,132.69846
1,Bezerros/PE,-8.2372132,-35.7558262,5133,8420.27559
D1,Bezerros/PE,-8.2372132,-35.7558262,128,209.97375
1,Bias Fortes/MG,-21.605833,-43.756944,119,3625.83790
D1,Bias Fortes/MG,-21.605833,-43.756944,4,121.87690
1,Bicas/MG,-21.7213723,-43.0604327,2090,14303.31235
D1,Bicas/MG,-21.7213723,-43.0604327,48,328.49713
1,Biguaçu/SC,-27.4961277,-48.6542432,13409,19027.68515
D1,Biguaçu/SC,-27.4961277,-48.6542432,176,249.74812
1,Bilac/SP,-21.403962,-50.47464,957,11675.00305
D1,Bilac/SP,-21.403962,-50.47464,22,268.39087
1,Biquinhas/MG,-18.783611,-45.502222,177,7131.34569
D1,Biquinhas/MG,-18.783611,-45.502222,4,161.16035
1,Birigui/SP,-21.2908491,-50.34144,18438,14622.42454
D1,Birigui/SP,-21.2908491,-50.34144,614,486.93832
1,Biritiba Mirim/SP,-23.5697765,-46.0407456,1565,4704.64452
D1,Biritiba Mirim/SP,-23.5697765,-46.0407456,110,330.67789
1,Biritinga/BA,-11.6227908,-38.8066738,624,3902.68309
D1,Biritinga/BA,-11.6227908,-38.8066738,7,43.78010
1,Bituruna/PR,-26.161281,-51.5533319,1682,10249.22308
D1,Bituruna/PR,-26.161281,-51.5533319,22,134.05643
1,Blumenau/SC,-26.9195567,-49.0658025,71535,19522.78545
D1,Blumenau/SC,-26.9195567,-49.0658025,709,193.49486
1,Boa Esperança do Iguaçu/PR,-25.6362851,-53.2139114,233,9560.93558
D1,Boa Esperança do Iguaçu/PR,-25.6362851,-53.2139114,1,41.03406
1,Boa Esperança do Sul/SP,-21.9930206,-48.3917372,2174,14386.87049
D1,Boa Esperança do Sul/SP,-21.9930206,-48.3917372,22,145.58931
1,Boa Esperança/ES,-18.5395472,-40.2904088,2253,14875.21458
D1,Boa Esperança/ES,-18.5395472,-40.2904088,49,323.51776
1,Boa Esperança/MG,-21.0901253,-45.5660195,5880,14587.67490
D1,Boa Esperança/MG,-21.0901253,-45.5660195,145,359.73008
1,Boa Esperança/PR,-24.2411024,-52.7860277,618,15484.84089
D1,Boa Esperança/PR,-24.2411024,-52.7860277,19,476.07116
1,Boa Hora/PI,-4.4094627,-42.1255341,606,8849.29907
D1,Boa Hora/PI,-4.4094627,-42.1255341,7,102.21963
1,Boa Nova/BA,-14.365907,-40.2063056,1094,9087.13348
D1,Boa Nova/BA,-14.365907,-40.2063056,22,182.73943
1,Boa Ventura de São Roque/PR,-24.88177,-51.5441292,676,10657.41763
D1,Boa Ventura de São Roque/PR,-24.88177,-51.5441292,8,126.12329
1,Boa Ventura/PB,-7.4202462,-38.2156782,824,15701.21951
D1,Boa Ventura/PB,-7.4202462,-38.2156782,12,228.65854
1,Boa Viagem/CE,-5.1261877,-39.7300055,4481,8194.95245
D1,Boa Viagem/CE,-5.1261877,-39.7300055,118,215.80102
1,Boa Vista da Aparecida/PR,-25.4357216,-53.4067721,1256,16693.24827
D1,Boa Vista da Aparecida/PR,-25.4357216,-53.4067721,35,465.17810
1,Boa Vista das Missões/RS,-27.6677983,-53.3127622,292,13991.37518
D1,Boa Vista das Missões/RS,-27.6677983,-53.3127622,7,335.40968
1,Boa Vista do Buricá/RS,-27.6687782,-54.1111913,1133,16880.21454
D1,Boa Vista do Buricá/RS,-27.6687782,-54.1111913,11,163.88558
1,Boa Vista do Cadeado/RS,-28.5783827,-53.8123759,275,11151.66261
D1,Boa Vista do Cadeado/RS,-28.5783827,-53.8123759,4,162.20600
1,Boa Vista do Gurupi/MA,-1.7981168,-46.3071882,15,176.59524
D1,Boa Vista do Gurupi/MA,-1.7981168,-46.3071882,4,47.09206
1,Boa Vista do Incra/RS,-28.8195551,-53.3866624,374,14231.35464
D1,Boa Vista do Incra/RS,-28.8195551,-53.3866624,4,152.20700
1,Boa Vista do Ramos/AM,-2.9716927,-57.5869819,1391,6941.11776
D1,Boa Vista do Ramos/AM,-2.9716927,-57.5869819,13,64.87026
1,Boa Vista do Sul/RS,-29.3510488,-51.6779679,405,14605.12081
D1,Boa Vista do Sul/RS,-29.3510488,-51.6779679,4,144.24811
1,Boa Vista do Tupim/BA,-12.6605988,-40.6083594,291,1573.73858
D1,Boa Vista do Tupim/BA,-12.6605988,-40.6083594,11,59.48840
1,Boa Vista/PB,-7.2620711,-36.2415161,966,13383.20865
D1,Boa Vista/PB,-7.2620711,-36.2415161,16,221.66805
1,Boa Vista/RR,2.8208478,-60.6719582,105806,24234.58111
D1,Boa Vista/RR,2.8208478,-60.6719582,1574,360.52049
1,Boca da Mata/AL,-9.6452054,-36.2116658,2005,7309.78162
D1,Boca da Mata/AL,-9.6452054,-36.2116658,46,167.70571
1,Boca do Acre/AM,-8.7553487,-67.3930873,2908,8318.55369
D1,Boca do Acre/AM,-8.7553487,-67.3930873,28,80.09612
1,Bocaina de Minas/MG,-22.167778,-44.394722,258,5070.75472
D1,Bocaina de Minas/MG,-22.167778,-44.394722,7,137.57862
1,Bocaina do Sul/SC,-27.745494,-49.942279,527,15052.84205
D1,Bocaina do Sul/SC,-27.745494,-49.942279,4,114.25307
1,Bocaina/PI,-6.9445939,-41.3224599,442,9802.61699
D1,Bocaina/PI,-6.9445939,-41.3224599,10,221.77866
1,Bocaina/SP,-22.1421831,-48.522276,1532,12186.77909
D1,Bocaina/SP,-22.1421831,-48.522276,35,278.41858
1,Bocaiúva do Sul/PR,-25.206591,-49.114131,2316,17403.06583
D1,Bocaiúva do Sul/PR,-25.206591,-49.114131,29,217.91404
1,Bocaiúva/MG,-17.1160208,-43.8122678,3208,6349.83472
D1,Bocaiúva/MG,-17.1160208,-43.8122678,72,142.51499
1,Bodocó/PE,-7.777592,-39.933797,2203,5706.51470
D1,Bodocó/PE,-7.777592,-39.933797,42,108.79420
1,Bodoquena/MS,-20.5508775,-56.6769653,621,7959.49756
D1,Bodoquena/MS,-20.5508775,-56.6769653,18,230.71007
1,Bodó/RN,-5.9866104,-36.4134824,244,11239.06034
D1,Bodó/RN,-5.9866104,-36.4134824,1,46.06172
1,Bofete/SP,-23.1019554,-48.2610535,1114,9201.28851
D1,Bofete/SP,-23.1019554,-48.2610535,24,198.23243
1,Boituva/SP,-23.2838893,-47.6738231,6724,10620.75502
D1,Boituva/SP,-23.2838893,-47.6738231,196,309.58774
1,Bom Conselho/PE,-9.169191,-36.685683,2528,5161.81725
D1,Bom Conselho/PE,-9.169191,-36.685683,76,155.18121
1,Bom Despacho/MG,-19.7375242,-45.2517288,6514,12664.28183
D1,Bom Despacho/MG,-19.7375242,-45.2517288,115,223.57882
1,Bom Jardim da Serra/SC,-28.3380324,-49.625588,782,16288.27328
D1,Bom Jardim da Serra/SC,-28.3380324,-49.625588,8,166.63195
1,Bom Jardim de Goiás/GO,-16.2062659,-52.172793,1424,15978.45601
D1,Bom Jardim de Goiás/GO,-16.2062659,-52.172793,30,336.62478
1,Bom Jardim de Minas/MG,-21.9476466,-44.1906033,619,9605.83489
D1,Bom Jardim de Minas/MG,-21.9476466,-44.1906033,5,77.59156
1,Bom Jardim/MA,-3.54129,-45.606004,1549,3687.21733
D1,Bom Jardim/MA,-3.54129,-45.606004,56,133.30159
1,Bom Jardim/PE,-7.7961572,-35.5871696,1907,4762.97517
D1,Bom Jardim/PE,-7.7961572,-35.5871696,72,179.82916
1,Bom Jardim/RJ,-22.1515328,-42.4186683,2302,8286.83538
D1,Bom Jardim/RJ,-22.1515328,-42.4186683,51,183.59192
1,Bom Jesus da Lapa/BA,-13.250571,-43.410754,6683,9526.59264
D1,Bom Jesus da Lapa/BA,-13.250571,-43.410754,99,141.12415
1,Bom Jesus da Penha/MG,-21.0165299,-46.5226644,874,20468.38407
D1,Bom Jesus da Penha/MG,-21.0165299,-46.5226644,20,468.38407
1,Bom Jesus da Serra/BA,-14.3724084,-40.5047119,508,5200.65520
D1,Bom Jesus da Serra/BA,-14.3724084,-40.5047119,9,92.13759
1,Bom Jesus das Selvas/MA,-4.4878075,-46.8526639,4265,12152.72831
D1,Bom Jesus das Selvas/MA,-4.4878075,-46.8526639,44,125.37398
1,Bom Jesus de Goiás/GO,-18.2174587,-49.739721,3628,13916.91281
D1,Bom Jesus de Goiás/GO,-18.2174587,-49.739721,116,444.97296
1,Bom Jesus do Amparo/MG,-19.7045132,-43.4752911,362,5855.71013
D1,Bom Jesus do Amparo/MG,-19.7045132,-43.4752911,8,129.40796
1,Bom Jesus do Araguaia/MT,-12.1725897,-51.5074425,1118,16368.96047
D1,Bom Jesus do Araguaia/MT,-12.1725897,-51.5074425,17,248.90190
1,Bom Jesus do Galho/MG,-19.8283191,-42.3162256,855,5780.15143
D1,Bom Jesus do Galho/MG,-19.8283191,-42.3162256,38,256.89562
1,Bom Jesus do Itabapoana/RJ,-21.1341025,-41.680095,4927,13206.99083
D1,Bom Jesus do Itabapoana/RJ,-21.1341025,-41.680095,116,310.94194
1,Bom Jesus do Norte/ES,-21.1254776,-41.6711646,1409,14106.92831
D1,Bom Jesus do Norte/ES,-21.1254776,-41.6711646,30,300.36043
1,Bom Jesus do Oeste/SC,-26.6929713,-53.0967453,212,9925.09363
D1,Bom Jesus do Oeste/SC,-26.6929713,-53.0967453,6,280.89888
1,Bom Jesus do Sul/PR,-26.1922507,-53.6002033,630,18145.16129
D1,Bom Jesus do Sul/PR,-26.1922507,-53.6002033,8,230.41475
1,Bom Jesus do Tocantins/PA,-5.0471796,-48.5978362,888,5146.63266
D1,Bom Jesus do Tocantins/PA,-5.0471796,-48.5978362,27,156.48545
1,Bom Jesus do Tocantins/TO,-8.96306,-48.165043,186,3632.81250
D1,Bom Jesus do Tocantins/TO,-8.96306,-48.165043,3,58.59375
1,Bom Jesus dos Perdões/SP,-23.1353864,-46.4648052,2484,9371.46306
D1,Bom Jesus dos Perdões/SP,-23.1353864,-46.4648052,32,120.72738
1,Bom Jesus/PB,-6.8156725,-38.6551841,288,11128.28439
D1,Bom Jesus/PB,-6.8156725,-38.6551841,3,115.91963
1,Bom Jesus/PI,-9.0711644,-44.3583926,3825,14950.75047
D1,Bom Jesus/PI,-9.0711644,-44.3583926,50,195.43465
1,Bom Jesus/RN,-5.9887544,-35.5821149,1040,10074.59072
D1,Bom Jesus/RN,-5.9887544,-35.5821149,19,184.05502
1,Bom Jesus/RS,-28.6692723,-50.4346894,1152,10221.82786
D1,Bom Jesus/RS,-28.6692723,-50.4346894,24,212.95475
1,Bom Jesus/SC,-26.7350604,-52.3916519,584,18814.43299
D1,Bom Jesus/SC,-26.7350604,-52.3916519,10,322.16495
1,Bom Lugar/MA,-4.3728019,-45.0366054,546,3293.52153
D1,Bom Lugar/MA,-4.3728019,-45.0366054,7,42.22464
1,Bom Princípio do Piauí/PI,-3.1912777,-41.6430185,144,2539.68254
D1,Bom Princípio do Piauí/PI,-3.1912777,-41.6430185,13,229.27690
1,Bom Princípio/RS,-29.489788,-51.3566782,2550,17651.94518
D1,Bom Princípio/RS,-29.489788,-51.3566782,34,235.35927
1,Bom Progresso/RS,-27.5490948,-53.8655601,217,11679.22497
D1,Bom Progresso/RS,-27.5490948,-53.8655601,3,161.46394
1,Bom Repouso/MG,-22.4657069,-46.1485376,1502,14268.07258
D1,Bom Repouso/MG,-22.4657069,-46.1485376,29,275.48209
1,Bom Retiro do Sul/RS,-29.6000007,-51.9359243,1472,11825.19280
D1,Bom Retiro do Sul/RS,-29.6000007,-51.9359243,38,305.26992
1,Bom Retiro/SC,-27.798993,-49.486994,981,9662.16882
D1,Bom Retiro/SC,-27.798993,-49.486994,21,206.83542
1,Bom Sucesso de Itararé/SP,-24.3190016,-49.1446207,260,6478.94343
D1,Bom Sucesso de Itararé/SP,-24.3190016,-49.1446207,7,174.43309
1,Bom Sucesso do Sul/PR,-26.0749256,-52.8348629,649,20006.16523
D1,Bom Sucesso do Sul/PR,-26.0749256,-52.8348629,9,277.43527
1,Bom Sucesso/MG,-21.0323516,-44.7598082,1626,9232.34159
D1,Bom Sucesso/MG,-21.0323516,-44.7598082,28,158.98251
1,Bom Sucesso/PB,-6.4458948,-37.9297662,540,10937.81649
D1,Bom Sucesso/PB,-6.4458948,-37.9297662,5,101.27608
1,Bom Sucesso/PR,-23.7088019,-51.7651297,1658,23342.24975
D1,Bom Sucesso/PR,-23.7088019,-51.7651297,20,281.57117
1,Bombinhas/SC,-27.1519159,-48.4875691,4125,19747.23539
D1,Bombinhas/SC,-27.1519159,-48.4875691,70,335.10460
1,Bonfim do Piauí/PI,-9.1648678,-42.8734415,511,8964.91228
D1,Bonfim do Piauí/PI,-9.1648678,-42.8734415,8,140.35088
1,Bonfim/MG,-20.3266626, -44.2386157,594,8669.00175
D1,Bonfim/MG,-20.3266626, -44.2386157,18,262.69702
1,Bonfim/RR,3.3613818,-59.8427241,2636,20754.27132
D1,Bonfim/RR,3.3613818,-59.8427241,36,283.44225
1,Bonfinópolis de Minas/MG,-16.5660011,-45.98645,681,12618.12118
D1,Bonfinópolis de Minas/MG,-16.5660011,-45.98645,14,259.40337
1,Bonfinópolis/GO,-16.6172709,-48.9615701,546,5395.25692
D1,Bonfinópolis/GO,-16.6172709,-48.9615701,34,335.96838
1,Boninal/BA,-12.7095183,-41.8299984,714,4918.03279
D1,Boninal/BA,-12.7095183,-41.8299984,9,61.99201
1,Bonito de Minas/MG,-15.3191266,-44.7544,139,1208.48548
D1,Bonito de Minas/MG,-15.3191266,-44.7544,2,17.38828
1,Bonito de Santa Fé/PB,-7.3143332,-38.5146677,597,4923.30529
D1,Bonito de Santa Fé/PB,-7.3143332,-38.5146677,14,115.45440
1,Bonito/BA,-11.9665473,-41.2649896,1170,6882.75781
D1,Bonito/BA,-11.9665473,-41.2649896,14,82.35779
1,Bonito/MS,-21.1264766,-56.4902208,4003,17869.73796
D1,Bonito/MS,-21.1264766,-56.4902208,77,343.73465
1,Bonito/PA,-1.3605722,-47.3049907,463,2761.04717
D1,Bonito/PA,-1.3605722,-47.3049907,15,89.45077
1,Bonito/PE,-8.4721161,-35.7314591,1277,3351.61807
D1,Bonito/PE,-8.4721161,-35.7314591,47,123.35634
1,Bonópolis/GO,-13.649331,-49.8329113,376,8211.39987
D1,Bonópolis/GO,-13.649331,-49.8329113,3,65.51649
1,Boqueirão do Leão/RS,-29.30332,-52.4296817,655,8516.44780
D1,Boqueirão do Leão/RS,-29.30332,-52.4296817,32,416.07073
1,Boqueirão do Piauí/PI,-4.4850148,-42.1095161,859,13332.29862
D1,Boqueirão do Piauí/PI,-4.4850148,-42.1095161,13,201.76936
1,Boqueirão/PB,-7.487004,-36.130887,2379,13265.30612
D1,Boqueirão/PB,-7.487004,-36.130887,45,250.92004
1,Boquim/SE,-11.1450175,-37.6204228,2746,10177.90956
D1,Boquim/SE,-11.1450175,-37.6204228,68,252.03855
1,Boquira/BA,-12.8184859,-42.7270883,921,4286.51215
D1,Boquira/BA,-12.8184859,-42.7270883,22,102.39226
1,Boracéia/SP,-22.195355,-48.7801925,1000,20354.16243
D1,Boracéia/SP,-22.195355,-48.7801925,24,488.49990
1,Borba/AM,-4.3934778,-59.5947721,2927,6915.04442
D1,Borba/AM,-4.3934778,-59.5947721,70,165.37517
1,Borborema/PB,-6.8066718,-35.5990191,388,7305.59217
D1,Borborema/PB,-6.8066718,-35.5990191,14,263.60384
1,Borborema/SP,-21.6212706,-49.074135,1726,10603.26821
D1,Borborema/SP,-21.6212706,-49.074135,54,331.73609
1,Borda da Mata/MG,-22.274167,-46.165278,3125,15775.65753
D1,Borda da Mata/MG,-22.274167,-46.165278,57,287.74799
1,Borebi/SP,-22.5700178,-48.9714871,291,10726.13343
D1,Borebi/SP,-22.5700178,-48.9714871,4,147.43826
1,Borrazópolis/PR,-23.9393362,-51.5850786,1137,18076.31161
D1,Borrazópolis/PR,-23.9393362,-51.5850786,35,556.43879
1,Borá/SP,-22.2701088,-50.544407,127,15137.06794
D1,Borá/SP,-22.2701088,-50.544407,1,119.18951
1,Bossoroca/RS,-28.7278885,-54.9120278,530,8638.95681
D1,Bossoroca/RS,-28.7278885,-54.9120278,22,358.59821
1,Botelhos/MG,-21.65,-46.394722,2185,14637.90447
D1,Botelhos/MG,-21.65,-46.394722,34,227.77517
1,Botucatu/SP,-22.8879628,-48.4410712,23022,15376.90859
D1,Botucatu/SP,-22.8879628,-48.4410712,336,224.42191
1,Botumirim/MG,-16.862778,-43.011111,337,5384.24668
D1,Botumirim/MG,-16.862778,-43.011111,4,63.90797
1,Botuporã/BA,-13.3744752,-42.5198469,481,4786.06965
D1,Botuporã/BA,-13.3744752,-42.5198469,5,49.75124
1,Botuverá/SC,-27.200749,-49.068892,1070,19829.50334
D1,Botuverá/SC,-27.200749,-49.068892,11,203.85471
1,Bozano/RS,-28.3669953,-53.7705165,317,15102.42973
D1,Bozano/RS,-28.3669953,-53.7705165,8,381.13387
1,Braga/RS,-27.617348,-53.740514,510,15591.56221
D1,Braga/RS,-27.617348,-53.740514,10,305.71691
1,Braganey/PR,-24.8179919,-53.118506,753,14106.40689
D1,Braganey/PR,-24.8179919,-53.118506,11,206.06969
1,Bragança Paulista/SP,-22.9520235,-46.5418586,24194,14038.03976
D1,Bragança Paulista/SP,-22.9520235,-46.5418586,596,345.81597
1,Bragança/PA,-1.0573967,-46.7635406,4566,3509.01462
D1,Bragança/PA,-1.0573967,-46.7635406,179,137.56321
1,Branquinha/AL,-9.2478057,-36.0152009,790,7577.21082
D1,Branquinha/AL,-9.2478057,-36.0152009,14,134.27969
1,Brasil Novo/PA,-3.3055853,-52.539198,3264,21931.06229
D1,Brasil Novo/PA,-3.3055853,-52.539198,44,295.63932
1,Brasileira/PI,-4.131182,-41.7824969,673,8046.38929
D1,Brasileira/PI,-4.131182,-41.7824969,16,191.29603
1,Brasilândia de Minas/MG,-17.0096469,-46.0087183,2178,12849.55752
D1,Brasilândia de Minas/MG,-17.0096469,-46.0087183,28,165.19174
1,Brasilândia do Sul/PR,-24.1975793,-53.527551,579,22967.07656
D1,Brasilândia do Sul/PR,-24.1975793,-53.527551,12,476.00159
1,Brasilândia do Tocantins/TO,-8.3886619,-48.4842729,256,11526.33949
D1,Brasilândia do Tocantins/TO,-8.3886619,-48.4842729,6,270.14858
1,Brasilândia/MS,-21.255575,-52.0365617,1286,10866.07520
D1,Brasilândia/MS,-21.255575,-52.0365617,26,219.68737
1,Brasiléia/AC,-11.0010413,-68.7487894,3201,11801.79184
D1,Brasiléia/AC,-11.0010413,-68.7487894,44,162.22394
1,Brasnorte/MT,-12.1227151,-58.0050109,2721,13227.35890
D1,Brasnorte/MT,-12.1227151,-58.0050109,43,209.03213
1,Brasília de Minas/MG,-16.2075114,-44.430559,1560,4805.91497
D1,Brasília de Minas/MG,-16.2075114,-44.430559,10,30.80715
1,Brasília/DF,-15.7934036,-47.8823172,561457,18144.73270
D1,Brasília/DF,-15.7934036,-47.8823172,11139,359.98158
1,Brazabrantes/GO,-16.4291635,-49.3858216,671,17602.30850
D1,Brazabrantes/GO,-16.4291635,-49.3858216,6,157.39769
1,Brazópolis/MG,-22.4742842,-45.6165577,1417,9864.94013
D1,Brazópolis/MG,-22.4742842,-45.6165577,34,236.70287
1,Braço do Norte/SC,-28.2728633,-49.1622712,10772,31410.74240
D1,Braço do Norte/SC,-28.2728633,-49.1622712,115,335.33563
1,Braço do Trombudo/SC,-27.358578,-49.882145,906,23879.81023
D1,Braço do Trombudo/SC,-27.358578,-49.882145,7,184.50185
1,Braúna/SP,-21.5015319,-50.3175246,625,10785.15962
D1,Braúna/SP,-21.5015319,-50.3175246,24,414.15013
1,Braúnas/MG,-19.055556,-42.716111,272,5742.03082
D1,Braúnas/MG,-19.055556,-42.716111,11,232.21448
1,Brejetuba/ES,-20.1465817,-41.2902303,1911,15349.39759
D1,Brejetuba/ES,-20.1465817,-41.2902303,16,128.51406
1,Brejinho de Nazaré/TO,-11.0205883,-48.5722906,799,14422.38267
D1,Brejinho de Nazaré/TO,-11.0205883,-48.5722906,19,342.96029
1,Brejinho/PE,-7.3482153,-37.28538,880,11750.56750
D1,Brejinho/PE,-7.3482153,-37.28538,22,293.76419
1,Brejinho/RN,-6.1957907,-35.3583019,1582,12289.28766
D1,Brejinho/RN,-6.1957907,-35.3583019,17,132.05935
1,Brejo Alegre/SP,-21.1671191,-50.1850393,404,13878.39231
D1,Brejo Alegre/SP,-21.1671191,-50.1850393,13,446.58193
1,Brejo Grande do Araguaia/PA,-5.7011449,-48.4037308,1049,14258.52929
D1,Brejo Grande do Araguaia/PA,-5.7011449,-48.4037308,6,81.55498
1,Brejo Grande/SE,-10.4287358,-36.4667918,467,5562.17246
D1,Brejo Grande/SE,-10.4287358,-36.4667918,13,154.83564
1,Brejo Santo/CE,-7.4909841,-38.9859152,8957,17844.40681
D1,Brejo Santo/CE,-7.4909841,-38.9859152,156,310.78793
1,Brejo da Madre de Deus/PE,-8.1409718,-36.3712527,2611,5050.68090
D1,Brejo da Madre de Deus/PE,-8.1409718,-36.3712527,58,112.19437
1,Brejo de Areia/MA,-4.3316785,-45.5833334,341,3857.02975
D1,Brejo de Areia/MA,-4.3316785,-45.5833334,11,124.42031
1,Brejo do Cruz/PB,-6.32926065,-37.48746163303929,2004,14026.73759
D1,Brejo do Cruz/PB,-6.32926065,-37.48746163303929,24,167.98488
1,Brejo do Piauí/PI,-8.207583,-42.8359849,159,4157.94979
D1,Brejo do Piauí/PI,-8.207583,-42.8359849,4,104.60251
1,Brejo dos Santos/PB,-6.3769367,-37.8243125,812,12532.79827
D1,Brejo dos Santos/PB,-6.3769367,-37.8243125,8,123.47585
1,Brejo/MA,-3.6804397,-42.7529313,1011,2739.83740
D1,Brejo/MA,-3.6804397,-42.7529313,19,51.49051
1,Brejolândia/BA,-12.4843845,-43.9611861,167,1564.40281
D1,Brejolândia/BA,-12.4843845,-43.9611861,11,103.04450
1,Brejão/PE,-9.029146,-36.566034,523,5823.40497
D1,Brejão/PE,-9.029146,-36.566034,9,100.21156
1,Brejões/BA,-13.1033754,-39.7909837,916,6471.21159
D1,Brejões/BA,-13.1033754,-39.7909837,13,91.84034
1,Breu Branco/PA,-3.7785073,-49.5684795,1049,1529.22139
D1,Breu Branco/PA,-3.7785073,-49.5684795,63,91.84075
1,Breves/PA,-1.68036,-50.479085,4513,4327.77138
D1,Breves/PA,-1.68036,-50.479085,122,116.99271
1,Britânia/GO,-15.2427599,-51.1602061,750,12897.67842
D1,Britânia/GO,-15.2427599,-51.1602061,9,154.77214
1,Brochier/RS,-29.556766,-51.5963047,777,15140.29618
D1,Brochier/RS,-29.556766,-51.5963047,6,116.91348
1,Brodowski/SP,-20.984532,-47.657217,2920,11404.02265
D1,Brodowski/SP,-20.984532,-47.657217,79,308.53349
1,Brotas de Macaúbas/BA,-12.0019007,-42.6257506,360,3362.91453
D1,Brotas de Macaúbas/BA,-12.0019007,-42.6257506,8,74.73143
1,Brotas/SP,-22.2840884,-48.1267265,2434,9790.04103
D1,Brotas/SP,-22.2840884,-48.1267265,70,281.55418
1,Brumadinho/MG,-20.143611,-44.2,4515,10956.61037
D1,Brumadinho/MG,-20.143611,-44.2,91,220.83091
1,Brumado/BA,-14.29507325,-41.659307508575985,10042,14884.09320
D1,Brumado/BA,-14.29507325,-41.659307508575985,199,294.95465
1,Brunópolis/SC,-27.310953,-50.837585,399,17213.11475
D1,Brunópolis/SC,-27.310953,-50.837585,9,388.26575
1,Brusque/SC,-27.0964628,-48.9136323,32709,23264.36553
D1,Brusque/SC,-27.0964628,-48.9136323,331,235.42465
1,Brás Pires/MG,-20.8483109,-43.2430524,380,8930.66980
D1,Brás Pires/MG,-20.8483109,-43.2430524,8,188.01410
1,Bueno Brandão/MG,-22.441976,-46.3517971,1274,11600.80131
D1,Bueno Brandão/MG,-22.441976,-46.3517971,31,282.28009
1,Buenos Aires/PE,-7.7218931,-35.326587,403,3047.48941
D1,Buenos Aires/PE,-7.7218931,-35.326587,25,189.05021
1,Buenópolis/MG,-17.8756607,-44.1749365,305,2949.13943
D1,Buenópolis/MG,-17.8756607,-44.1749365,13,125.70102
1,Buerarema/BA,-14.9571177,-39.3008035,1529,8369.36888
D1,Buerarema/BA,-14.9571177,-39.3008035,49,268.21391
1,Bugre/MG,-19.4257687,-42.2556,374,9387.55020
D1,Bugre/MG,-19.4257687,-42.2556,13,326.30522
1,Bujari/AC,-9.8309656,-67.9520886,1268,11993.94627
D1,Bujari/AC,-9.8309656,-67.9520886,17,160.80212
1,Bujaru/PA,-1.5169239,-48.0410699,1603,5394.21880
D1,Bujaru/PA,-1.5169239,-48.0410699,43,144.69832
1,Buri/SP,-23.79849,-48.598924,2716,13546.13466
D1,Buri/SP,-23.79849,-48.598924,94,468.82793
1,Buritama/SP,-21.0664017,-50.1448077,3467,19909.26840
D1,Buritama/SP,-21.0664017,-50.1448077,78,447.91547
1,Buriti Alegre/GO,-18.1377879,-49.0404411,1325,13925.38098
D1,Buriti Alegre/GO,-18.1377879,-49.0404411,36,378.34997
1,Buriti Bravo/MA,-5.8391884,-43.8367876,1857,7739.75743
D1,Buriti Bravo/MA,-5.8391884,-43.8367876,20,83.35765
1,Buriti de Goiás/GO,-16.180644,-50.4287479,352,14285.71429
D1,Buriti de Goiás/GO,-16.180644,-50.4287479,9,365.25974
1,Buriti do Tocantins/TO,-5.3187439,-48.2256609,1477,12684.64445
D1,Buriti do Tocantins/TO,-5.3187439,-48.2256609,26,223.29097
1,Buriti dos Lopes/PI,-3.1776723,-41.8707444,1374,6928.19685
D1,Buriti dos Lopes/PI,-3.1776723,-41.8707444,35,176.48245
1,Buriti dos Montes/PI,-5.3136171,-41.0971256,719,8681.47790
D1,Buriti dos Montes/PI,-5.3136171,-41.0971256,10,120.74378
1,Buriti/MA,-3.9430944,-42.9244281,1032,3568.95836
D1,Buriti/MA,-3.9430944,-42.9244281,9,31.12464
1,Buriticupu/MA,-4.3227472,-46.4516989,4078,5541.13731
D1,Buriticupu/MA,-4.3227472,-46.4516989,82,111.42061
1,Buritinópolis/GO,-14.4589282,-46.4293104,251,7671.14914
D1,Buritinópolis/GO,-14.4589282,-46.4293104,3,91.68704
1,Buritirama/BA,-10.7148421,-43.6362327,908,4248.15196
D1,Buritirama/BA,-10.7148421,-43.6362327,24,112.28595
1,Buritirana/MA,-5.5897455,-47.0148915,448,2889.76327
D1,Buritirana/MA,-5.5897455,-47.0148915,25,161.25911
1,Buritis/MG,-15.621389,-46.423889,3453,13713.80913
D1,Buritis/MG,-15.621389,-46.423889,54,214.46443
1,Buritis/RO,-10.2054937,-63.8281954,6483,15795.62897
D1,Buritis/RO,-10.2054937,-63.8281954,94,229.02809
1,Buritizal/SP,-20.1933264,-47.7097165,357,7851.33055
D1,Buritizal/SP,-20.1933264,-47.7097165,10,219.92523
1,Buritizeiro/MG,-17.3667765,-44.9647781,2024,7181.37951
D1,Buritizeiro/MG,-17.3667765,-44.9647781,41,145.47261
1,Butiá/RS,-30.1256795,-51.9692224,2722,12984.78271
D1,Butiá/RS,-30.1256795,-51.9692224,59,281.44827
1,Buíque/PE,-8.6239732,-37.157296,2633,4429.08088
D1,Buíque/PE,-8.6239732,-37.157296,48,80.74283
1,Bálsamo/SP,-20.7343722,-49.5807484,1936,21022.91237
D1,Bálsamo/SP,-20.7343722,-49.5807484,67,727.54914
0,CASO SEM LOCALIZAÇÃO DEFINIDA/BA,-13.415069300066518,-38.14174656569957,13655,91.81027
D0,CASO SEM LOCALIZAÇÃO DEFINIDA/BA,-13.415069300066518,-38.14174656569957,319,2.14482
0,CASO SEM LOCALIZAÇÃO DEFINIDA/CE,-3.3445126297392798,-38.624961942434304,10314,112.94253
0,CASO SEM LOCALIZAÇÃO DEFINIDA/ES,-20.30989267097039,-39.81745156645774,8299,206.51214
D0,CASO SEM LOCALIZAÇÃO DEFINIDA/ES,-20.30989267097039,-39.81745156645774,262,6.51960
0,CASO SEM LOCALIZAÇÃO DEFINIDA/GO,-16.701590966270153,-49.164524059025034,161,2.29399
0,CASO SEM LOCALIZAÇÃO DEFINIDA/MG,-19.97049116501593,-43.8852149072783,4266,20.15231
D0,CASO SEM LOCALIZAÇÃO DEFINIDA/MG,-19.97049116501593,-43.8852149072783,391,1.84706
D0,CASO SEM LOCALIZAÇÃO DEFINIDA/MS,-20.391549234908513,-54.645156949758444,1,0.03598
0,CASO SEM LOCALIZAÇÃO DEFINIDA/MT,-15.54791153961863,-56.17143998972475,7810,224.13764
D0,CASO SEM LOCALIZAÇÃO DEFINIDA/MT,-15.54791153961863,-56.17143998972475,264,7.57648
0,CASO SEM LOCALIZAÇÃO DEFINIDA/PA,-0.09317078214359542,-48.0050231510481,359,4.17303
D0,CASO SEM LOCALIZAÇÃO DEFINIDA/PA,-0.09317078214359542,-48.0050231510481,4,0.04650
0,CASO SEM LOCALIZAÇÃO DEFINIDA/PI,-2.683810218391744,-41.470898009352254,239,7.30166
D0,CASO SEM LOCALIZAÇÃO DEFINIDA/PI,-2.683810218391744,-41.470898009352254,2,0.06110
0,CASO SEM LOCALIZAÇÃO DEFINIDA/PR,-25.69415946385943,-48.10141676336737,8813,77.07743
D0,CASO SEM LOCALIZAÇÃO DEFINIDA/PR,-25.69415946385943,-48.10141676336737,225,1.96782
0,CASO SEM LOCALIZAÇÃO DEFINIDA/RR,2.813328208465927,-60.663338675861986,3392,559.95681
D0,CASO SEM LOCALIZAÇÃO DEFINIDA/RR,2.813328208465927,-60.663338675861986,21,3.46671
0,CASO SEM LOCALIZAÇÃO DEFINIDA/SP,-24.30968974555485,-46.21366504207253,128,0.27875
1,Caapiranga/AM,-3.3188884,-61.2096404,958,7105.77066
D1,Caapiranga/AM,-3.3188884,-61.2096404,22,163.18054
1,Caaporã/PB,-7.510234,-34.9154114,2240,10145.38702
D1,Caaporã/PB,-7.510234,-34.9154114,37,167.58005
1,Caarapó/MS,-22.6349267,-54.8240903,4396,14178.35833
D1,Caarapó/MS,-22.6349267,-54.8240903,57,183.84132
1,Caatiba/BA,-14.9782759,-40.4092325,977,15677.15019
D1,Caatiba/BA,-14.9782759,-40.4092325,15,240.69320
1,Cabaceiras do Paraguaçu/BA,-12.5377868,-39.1901339,867,4560.75750
D1,Cabaceiras do Paraguaçu/BA,-12.5377868,-39.1901339,6,31.56234
1,Cabaceiras/PB,-7.4899156,-36.2860501,497,8704.02802
D1,Cabaceiras/PB,-7.4899156,-36.2860501,4,70.05254
1,Cabeceira Grande/MG,-16.0297,-47.0906,600,8540.92527
D1,Cabeceira Grande/MG,-16.0297,-47.0906,7,99.64413
1,Cabeceiras do Piauí/PI,-4.4733665,-42.3098716,728,6822.22847
D1,Cabeceiras do Piauí/PI,-4.4733665,-42.3098716,17,159.31028
1,Cabeceiras/GO,-15.7995459,-46.9264991,628,7755.00123
D1,Cabeceiras/GO,-15.7995459,-46.9264991,18,222.27711
1,Cabedelo/PB,-6.97324,-34.8351609,10317,14786.52201
D1,Cabedelo/PB,-6.97324,-34.8351609,206,295.24315
1,Cabixi/RO,-13.4956065,-60.5424442,1063,20978.88297
D1,Cabixi/RO,-13.4956065,-60.5424442,22,434.18196
1,Cabo Frio/RJ,-22.8804369,-42.0189227,20409,8718.92582
D1,Cabo Frio/RJ,-22.8804369,-42.0189227,927,396.02353
1,Cabo Verde/MG,-21.4743338,-46.3964995,1245,8846.09919
D1,Cabo Verde/MG,-21.4743338,-46.3964995,12,85.26361
1,Cabo de Santo Agostinho/PE,-8.2838945,-35.0320984,10302,4887.18951
D1,Cabo de Santo Agostinho/PE,-8.2838945,-35.0320984,538,255.22306
1,Cabreúva/SP,-23.3075813,-47.1324417,5271,10309.01623
D1,Cabreúva/SP,-23.3075813,-47.1324417,146,285.54665
1,Cabrobó/PE,-8.5083701,-39.3106961,2882,8286.84801
D1,Cabrobó/PE,-8.5083701,-39.3106961,33,94.88757
1,Cabrália Paulista/SP,-22.4562909,-49.3385645,482,11416.39034
D1,Cabrália Paulista/SP,-22.4562909,-49.3385645,9,213.16911
1,Cacaulândia/RO,-10.3380043,-62.9007231,1108,17567.78183
D1,Cacaulândia/RO,-10.3380043,-62.9007231,17,269.54178
1,Cacequi/RS,-29.8838059,-54.8273443,904,7354.97519
D1,Cacequi/RS,-29.8838059,-54.8273443,14,113.90448
1,Cachoeira Alta/GO,-18.7618269,-50.9432431,1962,15276.80448
D1,Cachoeira Alta/GO,-18.7618269,-50.9432431,31,241.37663
1,Cachoeira Dourada/GO,-18.4934204,-49.481062,1013,12667.25022
D1,Cachoeira Dourada/GO,-18.4934204,-49.481062,33,412.65475
1,Cachoeira Dourada/MG,-18.517136,-49.5002062,383,14080.88235
D1,Cachoeira Dourada/MG,-18.517136,-49.5002062,2,73.52941
1,Cachoeira Grande/MA,-2.9290492,-44.0573223,346,3632.92734
D1,Cachoeira Grande/MA,-2.9290492,-44.0573223,8,83.99832
1,Cachoeira Paulista/SP,-22.666498,-45.015384,2810,8306.97372
D1,Cachoeira Paulista/SP,-22.666498,-45.015384,49,144.85470
1,Cachoeira da Prata/MG,-19.524723,-44.453056,226,6312.84916
D1,Cachoeira da Prata/MG,-19.524723,-44.453056,14,391.06145
1,Cachoeira de Goiás/GO,-16.6688414,-50.6435997,155,11601.79641
D1,Cachoeira de Goiás/GO,-16.6688414,-50.6435997,5,374.25150
1,Cachoeira de Minas/MG,-22.3554043,-45.7796324,1442,12421.39719
D1,Cachoeira de Minas/MG,-22.3554043,-45.7796324,20,172.28013
1,Cachoeira de Pajeú/MG,-15.965833,-41.496666,557,5881.73178
D1,Cachoeira de Pajeú/MG,-15.965833,-41.496666,11,116.15628
1,Cachoeira do Arari/PA,-1.0143572,-48.9621089,610,2504.61917
D1,Cachoeira do Arari/PA,-1.0143572,-48.9621089,25,102.64833
1,Cachoeira do Piriá/PA,-1.7599443,-46.5446954,1153,3265.64137
D1,Cachoeira do Piriá/PA,-1.7599443,-46.5446954,8,22.65840
1,Cachoeira do Sul/RS,-30.0474778,-52.8905413,13283,16287.76731
D1,Cachoeira do Sul/RS,-30.0474778,-52.8905413,214,262.40926
1,Cachoeira dos Índios/PB,-6.9259193,-38.6742159,1117,10777.69201
D1,Cachoeira dos Índios/PB,-6.9259193,-38.6742159,23,221.92204
1,Cachoeira/BA,-12.5998256,-38.9665918,1835,5451.73653
D1,Cachoeira/BA,-12.5998256,-38.9665918,32,95.07115
1,Cachoeiras de Macacu/RJ,-22.4626861,-42.6534414,3623,6073.55998
D1,Cachoeiras de Macacu/RJ,-22.4626861,-42.6534414,116,194.46121
1,Cachoeirinha/PE,-8.4906364,-36.2338963,671,3254.43787
D1,Cachoeirinha/PE,-8.4906364,-36.2338963,34,164.90445
1,Cachoeirinha/RS,-29.9493353,-51.0898927,17109,12947.23938
D1,Cachoeirinha/RS,-29.9493353,-51.0898927,494,373.83460
1,Cachoeirinha/TO,-6.118647,-47.9208885,129,5625.81771
D1,Cachoeirinha/TO,-6.118647,-47.9208885,2,87.22198
1,Cachoeiro de Itapemirim/ES,-20.848084,-41.11129,34003,16026.14860
D1,Cachoeiro de Itapemirim/ES,-20.848084,-41.11129,658,310.12575
1,Cacimba de Areia/PB,-7.1288513,-37.1575194,191,5151.02481
D1,Cacimba de Areia/PB,-7.1288513,-37.1575194,5,134.84358
1,Cacimba de Dentro/PB,-6.6425101,-35.7929304,1253,7298.03716
D1,Cacimba de Dentro/PB,-6.6425101,-35.7929304,37,215.50469
1,Cacimbas/PB,-7.2125451,-37.0593398,346,4788.92734
D1,Cacimbas/PB,-7.2125451,-37.0593398,8,110.72664
1,Cacimbinhas/AL,-9.401212,-36.991082,914,8369.96337
D1,Cacimbinhas/AL,-9.401212,-36.991082,12,109.89011
1,Cacique Doble/RS,-27.7700117,-51.6616409,683,13436.94669
D1,Cacique Doble/RS,-27.7700117,-51.6616409,12,236.08105
1,Cacoal/RO,-11.4333,-61.4420502,17845,20650.11109
D1,Cacoal/RO,-11.4333,-61.4420502,328,379.55934
1,Caconde/SP,-21.527995,-46.643659,1635,8591.24586
D1,Caconde/SP,-21.527995,-46.643659,39,204.92880
1,Caculé/BA,-14.4990734,-42.2233006,2908,12423.63396
D1,Caculé/BA,-14.4990734,-42.2233006,22,93.98898
1,Caetanos/BA,-14.3387456,-40.9085971,789,5377.95651
D1,Caetanos/BA,-14.3387456,-40.9085971,11,74.97785
1,Caetanópolis/MG,-19.2947496,-44.4138386,1180,9941.86536
D1,Caetanópolis/MG,-19.2947496,-44.4138386,21,176.93150
1,Caetité/BA,-14.0691776,-42.4852428,4264,8330.72835
D1,Caetité/BA,-14.0691776,-42.4852428,45,87.91810
1,Caeté/MG,-19.897777,-43.670278,2374,5233.22458
D1,Caeté/MG,-19.897777,-43.670278,78,171.94251
1,Caetés/PE,-8.7728788,-36.6255835,1895,6519.86926
D1,Caetés/PE,-8.7728788,-36.6255835,23,79.13298
1,Cafarnaum/BA,-11.691399,-41.468823,1010,5434.49018
D1,Cafarnaum/BA,-11.691399,-41.468823,24,129.13640
1,Cafeara/PR,-22.78905,-51.714195,584,19643.45779
D1,Cafeara/PR,-22.78905,-51.714195,13,437.26875
1,Cafelândia/PR,-24.6176963,-53.3218057,3340,17782.03695
D1,Cafelândia/PR,-24.6176963,-53.3218057,43,228.93042
1,Cafelândia/SP,-21.8054355,-49.6030627,835,4660.37841
D1,Cafelândia/SP,-21.8054355,-49.6030627,51,284.64587
1,Cafezal do Sul/PR,-23.900508,-53.512418,619,15572.32704
D1,Cafezal do Sul/PR,-23.900508,-53.512418,8,201.25786
1,Caiabu/SP,-22.0143038,-51.2356597,322,7675.80453
D1,Caiabu/SP,-22.0143038,-51.2356597,8,190.70322
1,Caiana/MG,-20.695555,-41.924723,201,3599.57020
D1,Caiana/MG,-20.695555,-41.924723,7,125.35817
1,Caiapônia/GO,-16.9538779,-51.8090761,1930,9997.92789
D1,Caiapônia/GO,-16.9538779,-51.8090761,44,227.93203
1,Caibaté/RS,-28.290475,-54.645407,466,9704.28988
D1,Caibaté/RS,-28.290475,-54.645407,7,145.77259
1,Caibi/SC,-27.0751925,-53.2502133,848,13874.34555
D1,Caibi/SC,-27.0751925,-53.2502133,16,261.78010
1,Caicó/RN,-6.4594544,-37.0971911,14301,20808.71868
D1,Caicó/RN,-6.4594544,-37.0971911,168,244.44897
1,Caieiras/SP,-23.3644621,-46.7484765,10116,9722.80958
D1,Caieiras/SP,-23.3644621,-46.7484765,336,322.94029
1,Cairu/BA,-13.4860505,-39.0455744,1654,8861.03075
D1,Cairu/BA,-13.4860505,-39.0455744,17,91.07468
1,Caiuá/SP,-21.8319357,-51.9887179,420,6980.22270
D1,Caiuá/SP,-21.8319357,-51.9887179,11,182.81536
1,Caiçara do Norte/RN,-5.0645017,-36.0561226,587,8931.83201
D1,Caiçara do Norte/RN,-5.0645017,-36.0561226,12,182.59282
1,Caiçara do Rio do Vento/RN,-5.757968,-36.00089,405,10814.41923
D1,Caiçara do Rio do Vento/RN,-5.757968,-36.00089,8,213.61816
1,Caiçara/PB,-6.6146866,-35.4681434,865,12043.99889
D1,Caiçara/PB,-6.6146866,-35.4681434,14,194.93177
1,Caiçara/RS,-27.2750478,-53.4310053,837,17965.22859
D1,Caiçara/RS,-27.2750478,-53.4310053,11,236.10217
1,Cajamar/SP,-23.3561111,-46.8769444,5490,6946.37751
D1,Cajamar/SP,-23.3561111,-46.8769444,249,315.05428
1,Cajapió/MA,-2.8778715,-44.6746871,250,2221.23501
D1,Cajapió/MA,-2.8778715,-44.6746871,7,62.19458
1,Cajari/MA,-3.3213076,-45.0118757,306,1567.54265
D1,Cajari/MA,-3.3213076,-45.0118757,9,46.10420
1,Cajati/SP,-24.7272376,-48.1077914,4983,17520.48100
D1,Cajati/SP,-24.7272376,-48.1077914,105,369.18533
1,Cajazeiras do Piauí/PI,-6.794271,-42.3935024,81,2258.78416
D1,Cajazeiras do Piauí/PI,-6.794271,-42.3935024,2,55.77245
1,Cajazeiras/PB,-6.8897849,-38.5570389,12303,19660.89235
D1,Cajazeiras/PB,-6.8897849,-38.5570389,178,284.45410
1,Cajazeirinhas/PB,-6.961442,-37.7993733,229,7118.43332
D1,Cajazeirinhas/PB,-6.961442,-37.7993733,1,31.08486
1,Cajobi/SP,-20.8776238,-48.8106972,1234,11587.94253
D1,Cajobi/SP,-20.8776238,-48.8106972,33,309.88825
1,Cajueiro da Praia/PI,-2.931114,-41.340801,497,6451.19418
D1,Cajueiro da Praia/PI,-2.931114,-41.340801,20,259.60540
1,Cajueiro/AL,-9.399589,-36.1524309,673,3145.30074
D1,Cajueiro/AL,-9.399589,-36.1524309,31,144.88012
1,Cajuri/MG,-20.7901414,-42.7954489,570,14390.30548
D1,Cajuri/MG,-20.7901414,-42.7954489,8,201.96920
1,Cajuru/SP,-21.2759978,-47.3046035,2001,7518.88175
D1,Cajuru/SP,-21.2759978,-47.3046035,59,221.69616
1,Caldas Brandão/PB,-7.1027959,-35.3254676,648,10663.15616
D1,Caldas Brandão/PB,-7.1027959,-35.3254676,10,164.55488
1,Caldas Novas/GO,-17.745,-48.625,13723,14417.49052
D1,Caldas Novas/GO,-17.745,-48.625,316,331.99206
1,Caldas/MG,-21.923611,-46.386111,1242,8506.84932
D1,Caldas/MG,-21.923611,-46.386111,39,267.12329
1,Caldazinha/GO,-16.7116649,-49.0012601,719,18435.89744
D1,Caldazinha/GO,-16.7116649,-49.0012601,12,307.69231
1,Caldeirão Grande do Piauí/PI,-7.3310393,-40.6374433,551,9522.98652
D1,Caldeirão Grande do Piauí/PI,-7.3310393,-40.6374433,2,34.56619
1,Caldeirão Grande/BA,-11.0208483,-40.3041387,577,4289.32501
D1,Caldeirão Grande/BA,-11.0208483,-40.3041387,6,44.60303
1,Califórnia/PR,-23.6672543,-51.3554556,1525,17648.42032
D1,Califórnia/PR,-23.6672543,-51.3554556,39,451.33665
1,Calmon/SC,-26.6023644,-51.0992893,53,1593.98496
D1,Calmon/SC,-26.6023644,-51.0992893,7,210.52632
1,Calumbi/PE,-7.9389746,-38.1516871,913,15894.84680
D1,Calumbi/PE,-7.9389746,-38.1516871,5,87.04735
1,Calçado/PE,-8.7413446,-36.3351787,534,4862.05955
D1,Calçado/PE,-8.7413446,-36.3351787,7,63.73486
1,Calçoene/AP,2.4981757,-50.9539503,2062,17941.35561
D1,Calçoene/AP,2.4981757,-50.9539503,15,130.51423
1,Camacan/BA,-15.4166631,-39.4930088,3138,9799.20682
D1,Camacan/BA,-15.4166631,-39.4930088,92,287.29351
1,Camacho/MG,-20.625556,-45.156667,224,7890.10215
D1,Camacho/MG,-20.625556,-45.156667,2,70.44734
1,Camalaú/PB,-7.885031,-36.824191,516,8531.74603
D1,Camalaú/PB,-7.885031,-36.824191,7,115.74074
1,Camamu/BA,-13.9438142,-39.1060917,2556,7211.37569
D1,Camamu/BA,-13.9438142,-39.1060917,58,163.63842
1,Camanducaia/MG,-22.755278,-46.144444,4005,18345.47204
D1,Camanducaia/MG,-22.755278,-46.144444,73,334.38688
1,Camapuã/MS,-19.5291747,-54.0434641,1120,8190.12797
D1,Camapuã/MS,-19.5291747,-54.0434641,32,234.00366
1,Camaquã/RS,-30.8524752,-51.8075619,8012,12014.51579
D1,Camaquã/RS,-30.8524752,-51.8075619,159,238.43086
1,Camaragibe/PE,-8.0213832,-34.9810768,8322,5203.03854
D1,Camaragibe/PE,-8.0213832,-34.9810768,456,285.09800
1,Camargo/RS,-28.5865661,-52.2031474,561,20400.00000
D1,Camargo/RS,-28.5865661,-52.2031474,8,290.90909
1,Camaçari/BA,-12.6998188,-38.3260762,26477,8562.84443
D1,Camaçari/BA,-12.6998188,-38.3260762,639,206.65701
1,Cambará do Sul/RS,-29.0489517,-50.145412,371,5812.31396
D1,Cambará do Sul/RS,-29.0489517,-50.145412,11,172.33276
1,Cambará/PR,-23.042273,-50.075281,3824,14955.61031
D1,Cambará/PR,-23.042273,-50.075281,68,265.94705
1,Cambira/PR,-23.600265,-51.581045,1652,20735.53408
D1,Cambira/PR,-23.600265,-51.581045,28,351.44973
1,Camboriú/SC,-27.0273601,-48.6535657,16054,18414.98526
D1,Camboriú/SC,-27.0273601,-48.6535657,189,216.79533
1,Cambuci/RJ,-21.5749919,-41.9107833,2092,13478.51298
D1,Cambuci/RJ,-21.5749919,-41.9107833,40,257.71535
1,Cambuquira/MG,-21.853056,-45.2953619,1066,8321.62373
D1,Cambuquira/MG,-21.853056,-45.2953619,28,218.57923
1,Cambuí/MG,-22.6122501,-46.0572137,5550,18458.16150
D1,Cambuí/MG,-22.6122501,-46.0572137,62,206.19928
1,Cambé/PR,-23.2782035,-51.2779583,16363,15133.27044
D1,Cambé/PR,-23.2782035,-51.2779583,362,334.79459
1,Cametá/PA,-2.242949,-49.497885,10148,7206.66979
D1,Cametá/PA,-2.242949,-49.497885,284,201.68449
