type,name,lat,lon,total,total_per_100k_inhabitants
1,Abadia de Goiás/GO,-16.7572644,-49.4412205,1598,17838.80330
D1,Abadia de Goiás/GO,-16.7572644,-49.4412205,37,413.03862
1,Abadia dos Dourados/MG,-18.4911191,-47.4063589,502,7165.28690
D1,Abadia dos Dourados/MG,-18.4911191,-47.4063589,14,199.82872
1,Abadiânia/GO,-16.1940946,-48.7067767,457,2233.51742
D1,Abadiânia/GO,-16.1940946,-48.7067767,39,190.60652
1,Abaetetuba/PA,-1.721828,-48.878843,8982,5646.21574
D1,Abaetetuba/PA,-1.721828,-48.878843,220,138.29520
1,Abaeté/MG,-19.1566833,-45.4481213,1464,6296.77419
D1,Abaeté/MG,-19.1566833,-45.4481213,35,150.53763
1,Abaiara/CE,-7.3607808,-39.0487878,605,5104.19303
D1,Abaiara/CE,-7.3607808,-39.0487878,15,126.55024
1,Abaré/BA,-8.7239913,-39.1139689,994,4885.24107
D1,Abaré/BA,-8.7239913,-39.1139689,11,54.06202
1,Abatiá/PR,-23.3052967,-50.3102532,1089,14700.32397
D1,Abatiá/PR,-23.3052967,-50.3102532,20,269.97840
1,Abaíra/BA,-13.2503296,-41.6640342,290,3329.50631
D1,Abaíra/BA,-13.2503296,-41.6640342,12,137.77268
1,Abdon Batista/SC,-27.612419,-51.022992,432,16954.47410
D1,Abdon Batista/SC,-27.612419,-51.022992,4,156.98587
1,Abel Figueiredo/PA,-4.953001,-48.3958485,1008,13465.13492
D1,Abel Figueiredo/PA,-4.953001,-48.3958485,10,133.58269
1,Abelardo Luz/SC,-26.5705893,-52.3280339,1628,9064.58797
D1,Abelardo Luz/SC,-26.5705893,-52.3280339,58,322.93987
1,Abre Campo/MG,-20.2976097,-42.4764741,1247,9275.51324
D1,Abre Campo/MG,-20.2976097,-42.4764741,16,119.01220
1,Abreu e Lima/PE,-7.900719,-34.898389,3267,3255.73516
D1,Abreu e Lima/PE,-7.900719,-34.898389,230,229.20694
1,Abreulândia/TO,-9.6221526,-49.1558343,279,10755.58982
D1,Abreulândia/TO,-9.6221526,-49.1558343,6,231.30301
1,Acaiaca/MG,-20.3621646,-43.1444162,229,5733.60040
D1,Acaiaca/MG,-20.3621646,-43.1444162,11,275.41312
1,Acajutiba/BA,-11.6609659,-38.0186381,555,3654.44130
D1,Acajutiba/BA,-11.6609659,-38.0186381,19,125.10700
1,Acarape/CE,-4.2237866,-38.7071663,2787,18535.51476
D1,Acarape/CE,-4.2237866,-38.7071663,30,199.52115
1,Acaraú/CE,-2.8869514,-40.1194713,5088,8062.88032
D1,Acaraú/CE,-2.8869514,-40.1194713,111,175.90010
1,Acari/RN,-6.4364689,-36.6394777,1116,10035.06879
D1,Acari/RN,-6.4364689,-36.6394777,19,170.84795
1,Acará/PA,-1.961388,-48.1987043,1489,2674.73818
D1,Acará/PA,-1.961388,-48.1987043,34,61.07528
1,Acauã/PI,-8.219542,-41.083059,205,2886.51084
D1,Acauã/PI,-8.219542,-41.083059,1,14.08054
1,Aceguá/RS,-31.8695131,-54.1615593,372,7527.31688
D1,Aceguá/RS,-31.8695131,-54.1615593,7,141.64306
1,Acopiara/CE,-6.0936464,-39.4543204,3923,7200.67546
D1,Acopiara/CE,-6.0936464,-39.4543204,142,260.64132
1,Acorizal/MT,-15.2001544,-56.3668953,526,9861.26734
D1,Acorizal/MT,-15.2001544,-56.3668953,19,356.20547
1,Acrelândia/AC,-10.0759167,-67.0526898,1737,11213.68625
D1,Acrelândia/AC,-10.0759167,-67.0526898,37,238.86378
1,Acreúna/GO,-17.3959899,-50.3749031,2368,10502.97170
D1,Acreúna/GO,-17.3959899,-50.3749031,51,226.20420
1,Adamantina/SP,-21.6866517,-51.0762975,3651,10398.45063
D1,Adamantina/SP,-21.6866517,-51.0762975,126,358.86190
1,Adelândia/GO,-16.4155077,-50.1665834,220,8744.03816
D1,Adelândia/GO,-16.4155077,-50.1665834,4,158.98251
1,Adolfo/SP,-21.2356597,-49.6441918,587,16516.60101
D1,Adolfo/SP,-21.2356597,-49.6441918,17,478.33427
1,Adrianópolis/PR,-24.6557863,-48.9912769,1387,23681.06539
D1,Adrianópolis/PR,-24.6557863,-48.9912769,29,495.13403
1,Adustina/BA,-10.5358875,-38.114479,1044,6095.99439
D1,Adustina/BA,-10.5358875,-38.114479,25,145.97688
1,Afogados da Ingazeira/PE,-7.750429,-37.6356375,5170,13822.05112
D1,Afogados da Ingazeira/PE,-7.750429,-37.6356375,73,195.16629
1,Afonso Bezerra/RN,-5.4745,-36.57625071327935,790,7162.93408
D1,Afonso Bezerra/RN,-5.4745,-36.57625071327935,18,163.20609
1,Afonso Cláudio/ES,-20.077841,-41.12606,3469,11390.57626
D1,Afonso Cláudio/ES,-20.077841,-41.12606,59,193.72845
1,Afonso Cunha/MA,-4.1326105,-43.3230026,252,3830.95166
D1,Afonso Cunha/MA,-4.1326105,-43.3230026,3,45.60657
1,Afrânio/PE,-8.5198919,-41.0070197,960,4846.03735
D1,Afrânio/PE,-8.5198919,-41.0070197,15,75.71933
1,Afuá/PA,-0.1535664,-50.3879223,3049,7705.91655
D1,Afuá/PA,-0.1535664,-50.3879223,16,40.43774
1,Agrestina/PE,-8.4558021,-35.9442663,1728,6894.07540
D1,Agrestina/PE,-8.4558021,-35.9442663,65,259.32575
1,Agricolândia/PI,-5.7967843,-42.6605131,504,9822.64666
D1,Agricolândia/PI,-5.7967843,-42.6605131,6,116.93627
1,Agrolândia/SC,-27.4122212,-49.8295774,1649,14973.21347
D1,Agrolândia/SC,-27.4122212,-49.8295774,29,263.32516
1,Agronômica/SC,-27.2660744,-49.7104753,662,12016.69995
D1,Agronômica/SC,-27.2660744,-49.7104753,13,235.97749
1,Aguanil/MG,-20.9424533,-45.3927152,647,14307.82839
D1,Aguanil/MG,-20.9424533,-45.3927152,8,176.91287
1,Aguaí/SP,-22.0592036,-46.979384,3355,9154.66055
D1,Aguaí/SP,-22.0592036,-46.979384,102,278.32351
1,Agudo/RS,-29.6423259,-53.2494005,1760,10731.05298
D1,Agudo/RS,-29.6423259,-53.2494005,29,176.81849
1,Agudos do Sul/PR,-25.9890808,-49.3328175,716,7560.71806
D1,Agudos do Sul/PR,-25.9890808,-49.3328175,26,274.55121
1,Agudos/SP,-22.471162,-48.987822,4284,11454.23919
D1,Agudos/SP,-22.471162,-48.987822,103,275.39371
1,Aguiar/PB,-7.0928404,-38.1727215,523,9289.52043
D1,Aguiar/PB,-7.0928404,-38.1727215,5,88.80995
1,Aguiarnópolis/TO,-6.5600452,-47.4721189,669,9706.90656
D1,Aguiarnópolis/TO,-6.5600452,-47.4721189,13,188.62449
1,Aimorés/MG,-19.4917754,-41.0615603,2044,8130.14598
D1,Aimorés/MG,-19.4917754,-41.0615603,71,282.40722
1,Aiquara/BA,-14.126918,-39.8887574,493,11163.94928
D1,Aiquara/BA,-14.126918,-39.8887574,12,271.73913
1,Aiuaba/CE,-6.5710836,-40.1212278,814,4653.28989
D1,Aiuaba/CE,-6.5710836,-40.1212278,11,62.88230
1,Aiuruoca/MG,-21.9759554,-44.6036637,317,5304.55154
D1,Aiuruoca/MG,-21.9759554,-44.6036637,9,150.60241
1,Ajuricaba/RS,-28.239654,-53.7693013,1090,15600.40074
D1,Ajuricaba/RS,-28.239654,-53.7693013,29,415.05653
1,Alagoa Grande/PB,-7.0415212,-35.6285322,4103,14427.37086
D1,Alagoa Grande/PB,-7.0415212,-35.6285322,70,246.14086
1,Alagoa Nova/PB,-7.0653703,-35.76695977336711,1296,6194.73257
D1,Alagoa Nova/PB,-7.0653703,-35.76695977336711,20,95.59772
1,Alagoa/MG,-22.1697202,-44.6400042,444,16660.41276
D1,Alagoa/MG,-22.1697202,-44.6400042,7,262.66417
1,Alagoinha do Piauí/PI,-7.0090952,-40.939675,376,4905.41422
D1,Alagoinha do Piauí/PI,-7.0090952,-40.939675,10,130.46314
1,Alagoinha/PB,-6.97063215,-35.51490901897793,2052,14093.40659
D1,Alagoinha/PB,-6.97063215,-35.51490901897793,24,164.83516
1,Alagoinha/PE,-8.50355635,-36.77701174370496,1325,9002.58187
D1,Alagoinha/PE,-8.50355635,-36.77701174370496,25,169.86004
1,Alagoinhas/BA,-12.133526,-38.420772,14280,9374.56918
D1,Alagoinhas/BA,-12.133526,-38.420772,305,200.22714
1,Alambari/SP,-23.550338,-47.897971,602,9822.15696
D1,Alambari/SP,-23.550338,-47.897971,11,179.47463
1,Albertina/MG,-20.66164,-43.784039,248,8236.46629
D1,Albertina/MG,-20.66164,-43.784039,9,298.90402
1,Alcantil/PB,-7.7425491,-36.0609604,595,10800.50826
D1,Alcantil/PB,-7.7425491,-36.0609604,6,108.91269
1,Alcinópolis/MS,-18.3264121,-53.7094463,391,7218.01735
D1,Alcinópolis/MS,-18.3264121,-53.7094463,9,166.14362
1,Alcobaça/BA,-17.5215875,-39.1965474,1545,6869.71988
D1,Alcobaça/BA,-17.5215875,-39.1965474,30,133.39262
1,Alcântara/MA,-2.4038956,-44.4154241,325,1469.79016
D1,Alcântara/MA,-2.4038956,-44.4154241,18,81.40376
1,Alcântaras/CE,-3.586247,-40.5457641,1743,14795.00891
D1,Alcântaras/CE,-3.586247,-40.5457641,22,186.74136
1,Aldeias Altas/MA,-4.6291957,-43.4708622,976,3647.64361
D1,Aldeias Altas/MA,-4.6291957,-43.4708622,14,52.32276
1,Alecrim/RS,-27.6566142,-54.7653195,315,5405.86923
D1,Alecrim/RS,-27.6566142,-54.7653195,12,205.93788
1,Alegre/ES,-20.7625787,-41.5318886,2735,9124.27023
D1,Alegre/ES,-20.7625787,-41.5318886,58,193.49458
1,Alegrete do Piauí/PI,-7.2440138,-40.8602296,515,10471.73648
D1,Alegrete do Piauí/PI,-7.2440138,-40.8602296,6,122.00081
1,Alegrete/RS,-29.790166,-55.794862,10871,14886.07110
D1,Alegrete/RS,-29.790166,-55.794862,287,392.99995
1,Alegria/RS,-27.8332103,-54.0574959,394,11677.53408
D1,Alegria/RS,-27.8332103,-54.0574959,4,118.55365
1,Alenquer/PA,-1.946229,-54.738355,3590,6288.09641
D1,Alenquer/PA,-1.946229,-54.738355,139,243.46669
1,Alexandria/RN,-6.414779,-38.0135516,1791,13214.78639
D1,Alexandria/RN,-6.414779,-38.0135516,29,213.97477
1,Alexânia/GO,-16.0834049,-48.5077803,3233,11542.30632
D1,Alexânia/GO,-16.0834049,-48.5077803,82,292.75259
1,Alfenas/MG,-21.4297405,-45.9479419,10023,12451.85977
D1,Alfenas/MG,-21.4297405,-45.9479419,192,238.52710
1,Alfredo Chaves/ES,-20.624970400000002,-40.75006690147988,2473,16896.69309
D1,Alfredo Chaves/ES,-20.624970400000002,-40.75006690147988,35,239.13638
1,Alfredo Marcondes/SP,-21.9527,-51.413956,252,6022.94455
D1,Alfredo Marcondes/SP,-21.9527,-51.413956,12,286.80688
1,Alfredo Vasconcelos/MG,-21.145833,-43.776389,590,8451.51124
D1,Alfredo Vasconcelos/MG,-21.145833,-43.776389,13,186.21974
1,Alfredo Wagner/SC,-27.6961513,-49.3326734,1065,10559.19096
D1,Alfredo Wagner/SC,-27.6961513,-49.3326734,6,59.48840
1,Algodão de Jandaíra/PB,-6.9040175,-36.0089879,235,9119.13077
D1,Algodão de Jandaíra/PB,-6.9040175,-36.0089879,1,38.80481
1,Alhandra/PB,-7.4304246,-34.9106103,2382,12074.82131
D1,Alhandra/PB,-7.4304246,-34.9106103,36,182.49100
1,Aliança do Tocantins/TO,-11.3055927,-48.9409096,660,12345.67901
D1,Aliança do Tocantins/TO,-11.3055927,-48.9409096,21,392.81706
1,Aliança/PE,-7.60398,-35.222696,666,1734.51051
D1,Aliança/PE,-7.60398,-35.222696,61,158.86658
1,Almadina/BA,-14.70466,-39.6381994,634,11815.13231
D1,Almadina/BA,-14.70466,-39.6381994,9,167.72270
1,Almas/TO,-11.5681309,-47.1702803,237,3395.90199
D1,Almas/TO,-11.5681309,-47.1702803,5,71.64350
1,Almeirim/PA,-1.5290377,-52.5788111,3717,10907.97042
D1,Almeirim/PA,-1.5290377,-52.5788111,47,137.92699
1,Almenara/MG,-16.1740678,-40.6904907,4358,10340.98189
D1,Almenara/MG,-16.1740678,-40.6904907,47,111.52505
1,Almino Afonso/RN,-6.1544208,-37.7649018,507,10764.33121
D1,Almino Afonso/RN,-6.1544208,-37.7649018,13,276.00849
1,Almirante Tamandaré do Sul/RS,-28.1141129,-52.9134874,332,17034.37660
D1,Almirante Tamandaré do Sul/RS,-28.1141129,-52.9134874,7,359.15854
1,Almirante Tamandaré/PR,-25.3133048,-49.2997838,10242,8532.08487
D1,Almirante Tamandaré/PR,-25.3133048,-49.2997838,379,315.72546
1,Aloândia/GO,-17.7277983,-49.4809338,300,15105.74018
D1,Aloândia/GO,-17.7277983,-49.4809338,10,503.52467
1,Alpercata/MG,-18.9803616,-41.9827637,482,6481.97956
D1,Alpercata/MG,-18.9803616,-41.9827637,19,255.51372
1,Alpestre/RS,-27.2512339,-53.0349646,487,8027.03148
D1,Alpestre/RS,-27.2512339,-53.0349646,11,181.30872
1,Alpinópolis/MG,-20.863611,-46.387777,1460,7315.36226
D1,Alpinópolis/MG,-20.863611,-46.387777,38,190.39984
1,Alta Floresta D'Oeste/RO,-11.9296917,-61.9961284,3993,17568.63780
D1,Alta Floresta D'Oeste/RO,-11.9296917,-61.9961284,65,285.99085
1,Alta Floresta/MT,-9.8715018,-56.0839881,9351,17996.88216
D1,Alta Floresta/MT,-9.8715018,-56.0839881,131,252.12187
1,Altair/SP,-20.5238955,-49.0606135,308,7357.85953
D1,Altair/SP,-20.5238955,-49.0606135,14,334.44816
1,Altamira do Maranhão/MA,-4.1643006,-45.4674574,319,3895.46953
D1,Altamira do Maranhão/MA,-4.1643006,-45.4674574,12,146.53804
1,Altamira do Paraná/PR,-24.799114,-52.7128633,232,13793.10345
D1,Altamira do Paraná/PR,-24.799114,-52.7128633,10,594.53032
1,Altamira/PA,-3.204065,-52.209961,13864,11954.91899
D1,Altamira/PA,-3.204065,-52.209961,296,255.24062
1,Altaneira/CE,-6.9980933,-39.7385742,674,8810.45752
D1,Altaneira/CE,-6.9980933,-39.7385742,15,196.07843
1,Alterosa/MG,-21.249166,-46.143055,751,5173.24516
D1,Alterosa/MG,-21.249166,-46.143055,33,227.31969
1,Altinho/PE,-8.4904095,-36.0607494,1313,5712.66968
D1,Altinho/PE,-8.4904095,-36.0607494,28,121.82388
1,Altinópolis/SP,-21.021364,-47.3712,856,5282.97229
D1,Altinópolis/SP,-21.021364,-47.3712,44,271.55465
1,Alto Alegre do Maranhão/MA,-4.2055693,-44.4525287,1242,4458.32436
D1,Alto Alegre do Maranhão/MA,-4.2055693,-44.4525287,28,100.50973
1,Alto Alegre do Pindaré/MA,-3.6698186,-45.8462153,2163,6771.43662
D1,Alto Alegre do Pindaré/MA,-3.6698186,-45.8462153,47,147.13709
1,Alto Alegre dos Parecis/RO,-12.1314515,-61.856265,1449,10931.72388
D1,Alto Alegre dos Parecis/RO,-12.1314515,-61.856265,44,331.95021
1,Alto Alegre/RR,2.98858,-61.307167,1512,9830.94928
D1,Alto Alegre/RR,2.98858,-61.307167,35,227.56827
1,Alto Alegre/RS,-31.780844700000003,-52.81311114489171,205,12709.23745
D1,Alto Alegre/RS,-31.780844700000003,-52.81311114489171,1,61.99628
1,Alto Alegre/SP,-21.5820592,-50.1661976,375,9173.18982
D1,Alto Alegre/SP,-21.5820592,-50.1661976,21,513.69863
1,Alto Araguaia/MT,-17.3156528,-53.2169365,1517,7825.63838
D1,Alto Araguaia/MT,-17.3156528,-53.2169365,28,144.44158
1,Alto Bela Vista/SC,-27.4320737,-51.905771,199,10332.29491
D1,Alto Bela Vista/SC,-27.4320737,-51.905771,3,155.76324
1,Alto Boa Vista/MT,-11.6723985,-51.3744431,810,11678.20069
D1,Alto Boa Vista/MT,-11.6723985,-51.3744431,17,245.09804
1,Alto Caparaó/MG,-20.4405661,-41.8683799,406,6888.36105
D1,Alto Caparaó/MG,-20.4405661,-41.8683799,9,152.69766
1,Alto Feliz/RS,-29.3785943,-51.3123751,293,9650.85639
D1,Alto Feliz/RS,-29.3785943,-51.3123751,2,65.87615
1,Alto Garças/MT,-16.9469683,-53.529427,989,8139.24780
D1,Alto Garças/MT,-16.9469683,-53.529427,41,337.42079
1,Alto Horizonte/GO,-14.1954948,-49.3366993,948,14352.76306
D1,Alto Horizonte/GO,-14.1954948,-49.3366993,13,196.82059
1,Alto Jequitibá/MG,-20.423611,-41.966111,826,9950.60836
D1,Alto Jequitibá/MG,-20.423611,-41.966111,11,132.51415
1,Alto Longá/PI,-5.2549051,-42.2072388,653,4554.01353
D1,Alto Longá/PI,-5.2549051,-42.2072388,15,104.60981
1,Alto Paraguai/MT,-14.513712,-56.4936374,901,7853.22060
D1,Alto Paraguai/MT,-14.513712,-56.4936374,28,244.05125
1,Alto Paraná/PR,-23.131247,-52.318893,1255,8446.05963
D1,Alto Paraná/PR,-23.131247,-52.318893,26,174.97813
1,Alto Paraíso de Goiás/GO,-14.1304779,-47.5100161,672,8740.89490
D1,Alto Paraíso de Goiás/GO,-14.1304779,-47.5100161,8,104.05827
1,Alto Paraíso/PR,-23.508137,-53.728537,311,11582.86778
D1,Alto Paraíso/PR,-23.508137,-53.728537,5,186.21974
1,Alto Paraíso/RO,-9.7240103,-63.3188123,1839,8417.63171
D1,Alto Paraíso/RO,-9.7240103,-63.3188123,48,219.70980
1,Alto Parnaíba/MA,-9.112506,-45.9310154,937,8357.11737
D1,Alto Parnaíba/MA,-9.112506,-45.9310154,11,98.10917
1,Alto Piquiri/PR,-24.0239021,-53.4417448,1040,10636.12191
D1,Alto Piquiri/PR,-24.0239021,-53.4417448,26,265.90305
1,Alto Rio Doce/MG,-21.0239537,-43.4133507,510,4696.56506
D1,Alto Rio Doce/MG,-21.0239537,-43.4133507,28,257.85063
1,Alto Rio Novo/ES,-19.0577208,-41.0171518,731,9283.71857
D1,Alto Rio Novo/ES,-19.0577208,-41.0171518,22,279.40056
1,Alto Santo/CE,-5.5190371,-38.2719351,1913,11124.68016
D1,Alto Santo/CE,-5.5190371,-38.2719351,34,197.72040
1,Alto Taquari/MT,-17.8269099,-53.2831736,1550,13922.57253
D1,Alto Taquari/MT,-17.8269099,-53.2831736,28,251.50454
1,Alto do Rodrigues/RN,-5.290868,-36.7616726,2516,17083.10701
D1,Alto do Rodrigues/RN,-5.290868,-36.7616726,40,271.59153
1,Altos/PI,-5.0393915,-42.4611694,4462,10988.79448
D1,Altos/PI,-5.0393915,-42.4611694,89,219.18483
1,Altônia/PR,-23.8722004,-53.894037,1395,6290.58442
D1,Altônia/PR,-23.8722004,-53.894037,32,144.30014
1,Alumínio/SP,-23.5203479,-47.2575256,1548,8248.52134
D1,Alumínio/SP,-23.5203479,-47.2575256,48,255.76810
1,Alvarenga/MG,-19.4175,-41.728334,511,13293.44433
D1,Alvarenga/MG,-19.4175,-41.728334,4,104.05827
1,Alvarães/AM,-3.214786,-64.8143124,2901,17885.32676
D1,Alvarães/AM,-3.214786,-64.8143124,46,283.60049
1,Alvinlândia/SP,-22.4431852,-49.7643596,140,4324.99228
D1,Alvinlândia/SP,-22.4431852,-49.7643596,9,278.03522
1,Alvinópolis/MG,-20.1105199,-43.0601805,717,4726.74534
D1,Alvinópolis/MG,-20.1105199,-43.0601805,22,145.03263
1,Alvorada D'Oeste/RO,-11.346271,-62.284697,1139,8074.57819
D1,Alvorada D'Oeste/RO,-11.346271,-62.284697,29,205.58628
1,Alvorada de Minas/MG,-18.7318587,-43.3641479,276,7656.03329
D1,Alvorada de Minas/MG,-18.7318587,-43.3641479,3,83.21775
1,Alvorada do Gurguéia/PI,-8.4465288,-43.8655915,436,8007.34619
D1,Alvorada do Gurguéia/PI,-8.4465288,-43.8655915,10,183.65473
1,Alvorada do Norte/GO,-14.483911,-46.4959897,775,8902.92935
D1,Alvorada do Norte/GO,-14.483911,-46.4959897,8,91.90121
1,Alvorada do Sul/PR,-22.7807269,-51.2307721,826,7180.73546
D1,Alvorada do Sul/PR,-22.7807269,-51.2307721,25,217.33461
1,Alvorada/RS,-29.9981184,-51.0772509,21590,10215.18604
D1,Alvorada/RS,-29.9981184,-51.0772509,764,361.48227
1,Alvorada/TO,-12.478465,-49.124926,1285,15304.90710
D1,Alvorada/TO,-12.478465,-49.124926,20,238.20867
1,Além Paraíba/MG,-21.8760576,-42.6810473,3288,9287.87322
D1,Além Paraíba/MG,-21.8760576,-42.6810473,147,415.24251
1,Amajari/RR,3.6523869,-61.4194315,1125,8532.42321
D1,Amajari/RR,3.6523869,-61.4194315,20,151.68752
1,Amambai/MS,-23.1082701,-55.2284854,3192,8014.86466
D1,Amambai/MS,-23.1082701,-55.2284854,82,205.89565
1,Amaporã/PR,-23.094272,-52.786597,421,6648.76816
D1,Amaporã/PR,-23.094272,-52.786597,7,110.54959
1,Amapá do Maranhão/MA,-1.6762114,-46.0109669,172,2455.38901
D1,Amapá do Maranhão/MA,-1.6762114,-46.0109669,6,85.65310
1,Amapá/AP,2.0529997,-50.7930003,1378,14999.45575
D1,Amapá/AP,2.0529997,-50.7930003,10,108.84946
1,Amaraji/PE,-8.373925,-35.4536527,634,2772.19064
D1,Amaraji/PE,-8.373925,-35.4536527,39,170.52908
1,Amaral Ferrador/RS,-30.8750633,-52.2542051,306,4318.98377
D1,Amaral Ferrador/RS,-30.8750633,-52.2542051,8,112.91461
1,Amaralina/GO,-13.9236199,-49.2962411,110,2860.85826
D1,Amaralina/GO,-13.9236199,-49.2962411,2,52.01560
1,Amarante do Maranhão/MA,-5.56913,-46.747284,1591,3812.69621
D1,Amarante do Maranhão/MA,-5.56913,-46.747284,53,127.00999
1,Amarante/PI,-6.2459374,-42.8476238,1553,8821.85867
D1,Amarante/PI,-6.2459374,-42.8476238,35,198.81845
1,Amargosa/BA,-13.03793715,-39.60796443875596,3094,8263.66817
D1,Amargosa/BA,-13.03793715,-39.60796443875596,55,146.89779
1,Amaturá/AM,-3.3640509,-68.1994689,2369,20185.75324
D1,Amaturá/AM,-3.3640509,-68.1994689,18,153.37423
1,Americana/SP,-22.7392463,-47.3306032,24685,10199.65457
D1,Americana/SP,-22.7392463,-47.3306032,770,318.15815
1,Americano do Brasil/GO,-16.2515808,-49.9806104,794,12881.24594
D1,Americano do Brasil/GO,-16.2515808,-49.9806104,22,356.91110
1,Ametista do Sul/RS,-27.3617341,-53.1826575,857,11576.38795
D1,Ametista do Sul/RS,-27.3617341,-53.1826575,20,270.16075
1,Amontada/CE,-3.3634586,-39.8284791,2927,6678.22674
D1,Amontada/CE,-3.3634586,-39.8284791,56,127.76929
1,Amorinópolis/GO,-16.6211308,-51.0949921,299,9742.58716
D1,Amorinópolis/GO,-16.6211308,-51.0949921,6,195.50342
1,Amparo de São Francisco/SE,-10.1299754,-36.9269099,255,10714.28571
D1,Amparo de São Francisco/SE,-10.1299754,-36.9269099,5,210.08403
1,Amparo do Serra/MG,-20.5070255,-42.8028462,163,3484.39504
D1,Amparo do Serra/MG,-20.5070255,-42.8028462,8,171.01325
1,Amparo/PB,-7.56394725,-37.04652873235175,170,7552.19902
D1,Amparo/PB,-7.56394725,-37.04652873235175,4,177.69880
1,Amparo/SP,-22.70111,-46.76444,6935,9542.22106
D1,Amparo/SP,-22.70111,-46.76444,136,187.12935
1,Ampére/PR,-25.9168712,-53.4742414,2307,11946.55896
D1,Ampére/PR,-25.9168712,-53.4742414,57,295.16856
1,Amélia Rodrigues/BA,-12.4015388,-38.7516971,2323,9274.19355
D1,Amélia Rodrigues/BA,-12.4015388,-38.7516971,46,183.64740
1,América Dourada/BA,-11.4515262,-41.4357517,950,5904.28838
D1,América Dourada/BA,-11.4515262,-41.4357517,13,80.79553
1,Américo Brasiliense/SP,-21.7297099,-48.1052092,4063,9902.02769
D1,Américo Brasiliense/SP,-21.7297099,-48.1052092,91,221.77812
1,Américo de Campos/SP,-20.298476,-49.735904,1083,18107.33991
D1,Américo de Campos/SP,-20.298476,-49.735904,34,568.46681
1,Anadia/AL,-9.6830208,-36.3052699,1446,8250.59911
D1,Anadia/AL,-9.6830208,-36.3052699,30,171.17426
1,Anagé/BA,-14.6134669,-41.1376308,958,4433.74832
D1,Anagé/BA,-14.6134669,-41.1376308,26,120.33137
1,Anahy/PR,-24.6450861,-53.1337957,357,12804.87805
D1,Anahy/PR,-24.6450861,-53.1337957,9,322.81205
1,Anajatuba/MA,-3.26441,-44.6179916,981,3634.94887
D1,Anajatuba/MA,-3.26441,-44.6179916,25,92.63376
1,Anajás/PA,-0.9878802,-49.9390114,1360,4580.97548
D1,Anajás/PA,-0.9878802,-49.9390114,22,74.10402
1,Analândia/SP,-22.128917,-47.661939,330,6526.89873
D1,Analândia/SP,-22.128917,-47.661939,5,98.89241
1,Anamã/AM,-3.5797356,-61.4049996,1869,13392.08942
D1,Anamã/AM,-3.5797356,-61.4049996,9,64.48839
1,Ananindeua/PA,-1.374035,-48.4016623,24969,4662.33589
D1,Ananindeua/PA,-1.374035,-48.4016623,813,151.80740
1,Ananás/TO,-6.3663053,-48.080238,1624,17109.14454
D1,Ananás/TO,-6.3663053,-48.080238,26,273.91488
1,Anapu/PA,-3.4668292,-51.2057035,1653,5778.30601
D1,Anapu/PA,-3.4668292,-51.2057035,39,136.33027
1,Anapurus/MA,-3.6751298,-43.1046001,831,5228.38807
D1,Anapurus/MA,-3.6751298,-43.1046001,14,88.08355
1,Anastácio/MS,-20.4832458,-55.8048448,2515,9965.52681
D1,Anastácio/MS,-20.4832458,-55.8048448,76,301.14514
1,Anaurilândia/MS,-22.185169,-52.719056,556,6126.04672
D1,Anaurilândia/MS,-22.185169,-52.719056,15,165.27104
1,Anchieta/ES,-20.8057672,-40.6454564,4871,16357.16444
D1,Anchieta/ES,-20.8057672,-40.6454564,88,295.51026
1,Anchieta/SC,-26.5350527,-53.3293938,673,12110.85118
D1,Anchieta/SC,-26.5350527,-53.3293938,9,161.95789
1,Andaraí/BA,-12.8059674,-41.3322919,925,7043.86232
D1,Andaraí/BA,-12.8059674,-41.3322919,10,76.14986
1,Andirá/PR,-23.0494761,-50.2310027,2480,12446.05039
D1,Andirá/PR,-23.0494761,-50.2310027,82,411.52263
1,Andorinha/BA,-10.3445708,-39.8334411,939,6474.52251
D1,Andorinha/BA,-10.3445708,-39.8334411,17,117.21713
1,Andradas/MG,-22.0680484,-46.5688976,3918,9464.68258
D1,Andradas/MG,-22.0680484,-46.5688976,115,277.80462
1,Andradina/SP,-20.896505,-51.3742765,6455,11284.57047
D1,Andradina/SP,-20.896505,-51.3742765,262,458.02594
1,Andrelândia/MG,-21.739722,-44.308889,206,1687.69458
D1,Andrelândia/MG,-21.739722,-44.308889,14,114.69769
1,André da Rocha/RS,-28.6309124,-51.5733328,118,8786.29933
D1,André da Rocha/RS,-28.6309124,-51.5733328,1,74.46016
1,Angatuba/SP,-23.4938938,-48.4110675,2987,11723.38004
D1,Angatuba/SP,-23.4938938,-48.4110675,72,282.58566
1,Angelim/PE,-8.8902038,-36.2872987,225,2004.27579
D1,Angelim/PE,-8.8902038,-36.2872987,11,97.98682
1,Angelina/SC,-27.5805287,-48.9838759,540,11385.19924
D1,Angelina/SC,-27.5805287,-48.9838759,2,42.16740
1,Angelândia/MG,-17.7253,-42.2728,235,2746.28959
D1,Angelândia/MG,-17.7253,-42.2728,1,11.68634
1,Angical do Piauí/PI,-6.0872666,-42.7366138,872,12855.66858
D1,Angical do Piauí/PI,-6.0872666,-42.7366138,12,176.91287
1,Angical/BA,-12.005623,-44.7000236,706,5065.28914
D1,Angical/BA,-12.005623,-44.7000236,16,114.79409
1,Angico/TO,-6.3893733,-47.8656722,236,6832.65779
D1,Angico/TO,-6.3893733,-47.8656722,4,115.80776
1,Angicos/RN,-5.6666344,-36.6009064,1108,9466.04015
D1,Angicos/RN,-5.6666344,-36.6009064,22,187.95387
1,Angra dos Reis/RJ,-23.0063966,-44.316326,14429,6969.05006
D1,Angra dos Reis/RJ,-23.0063966,-44.316326,498,240.52858
1,Anguera/BA,-12.1509425,-39.2452469,493,4363.99044
D1,Anguera/BA,-12.1509425,-39.2452469,2,17.70382
1,Angélica/MS,-22.1588196,-53.7728504,1365,12486.27881
D1,Angélica/MS,-22.1588196,-53.7728504,20,182.94914
1,Anhanguera/GO,-18.3338749,-48.220363,92,7931.03448
D1,Anhanguera/GO,-18.3338749,-48.220363,6,517.24138
1,Anhembi/SP,-22.7891096,-48.1316776,292,4282.15281
D1,Anhembi/SP,-22.7891096,-48.1316776,7,102.65435
1,Anhumas/SP,-22.2956478,-51.3873401,225,5429.53668
D1,Anhumas/SP,-22.2956478,-51.3873401,7,168.91892
1,Anicuns/GO,-16.4606451,-49.9572265,3112,14157.68163
D1,Anicuns/GO,-16.4606451,-49.9572265,65,295.70993
1,Anita Garibaldi/SC,-27.6855032,-51.1293873,1199,17234.44013
D1,Anita Garibaldi/SC,-27.6855032,-51.1293873,10,143.74012
1,Anitápolis/SC,-27.9041185,-49.1287395,340,10532.83767
D1,Anitápolis/SC,-27.9041185,-49.1287395,4,123.91574
1,Anori/AM,-3.7435254,-61.6605203,1901,8851.32933
D1,Anori/AM,-3.7435254,-61.6605203,31,144.34046
1,Anta Gorda/RS,-28.9718745,-52.0069187,621,10417.71515
D1,Anta Gorda/RS,-28.9718745,-52.0069187,4,67.10284
1,Antas/BA,-10.4114649,-38.3308815,1315,6750.85990
D1,Antas/BA,-10.4114649,-38.3308815,13,66.73854
1,Antonina do Norte/CE,-6.7754187,-39.9879345,794,10761.72404
D1,Antonina do Norte/CE,-6.7754187,-39.9879345,26,352.39902
1,Antonina/PR,-25.4298854,-48.7125431,2549,13451.89720
D1,Antonina/PR,-25.4298854,-48.7125431,71,374.68996
1,Antônio Almeida/PI,-7.2186016,-44.1950248,406,12807.57098
D1,Antônio Almeida/PI,-7.2186016,-44.1950248,10,315.45741
1,Antônio Cardoso/BA,-12.4363122,-39.1200307,603,5163.99760
D1,Antônio Cardoso/BA,-12.4363122,-39.1200307,11,94.20228
1,Antônio Carlos/MG,-21.318334,-43.746666,743,6483.98639
D1,Antônio Carlos/MG,-21.318334,-43.746666,16,139.62824
1,Antônio Carlos/SC,-27.5168462,-48.7684715,1634,18971.32242
D1,Antônio Carlos/SC,-27.5168462,-48.7684715,26,301.86927
1,Antônio Dias/MG,-19.6525,-42.872778,584,6296.49596
D1,Antônio Dias/MG,-19.6525,-42.872778,26,280.32345
1,Antônio Gonçalves/BA,-10.5715409,-40.2748824,917,7720.15491
D1,Antônio Gonçalves/BA,-10.5715409,-40.2748824,9,75.77033
1,Antônio João/MS,-22.1892837,-55.9508227,531,5886.91796
D1,Antônio João/MS,-22.1892837,-55.9508227,16,177.38359
1,Antônio Martins/RN,-6.2155812,-37.8890129,678,9477.21554
D1,Antônio Martins/RN,-6.2155812,-37.8890129,7,97.84736
1,Antônio Olinto/PR,-25.9849006,-50.1974516,522,7028.40986
D1,Antônio Olinto/PR,-25.9849006,-50.1974516,13,175.03703
1,Antônio Prado de Minas/MG,-21.0171988,-42.1101106,166,10459.98740
D1,Antônio Prado de Minas/MG,-21.0171988,-42.1101106,5,315.05986
1,Antônio Prado/RS,-28.8567806,-51.2801355,2678,20528.93829
D1,Antônio Prado/RS,-28.8567806,-51.2801355,30,229.97317
1,Anápolis/GO,-16.3332828,-48.9525756,42353,10810.62455
D1,Anápolis/GO,-16.3332828,-48.9525756,1551,395.89353
1,Anísio de Abreu/PI,-9.185643,-43.04941,290,2918.09217
D1,Anísio de Abreu/PI,-9.185643,-43.04941,14,140.87342
1,Aparecida d'Oeste/SP,-20.4498109,-50.8808706,757,18205.86821
D1,Aparecida d'Oeste/SP,-20.4498109,-50.8808706,16,384.80038
1,Aparecida de Goiânia/GO,-16.8226769,-49.2452546,72404,12268.82839
D1,Aparecida de Goiânia/GO,-16.8226769,-49.2452546,1537,260.44403
1,Aparecida do Rio Doce/GO,-18.2980167,-51.1491312,242,9781.72999
D1,Aparecida do Rio Doce/GO,-18.2980167,-51.1491312,3,121.26112
1,Aparecida do Rio Negro/TO,-9.9513491,-47.9773786,383,7900.16502
D1,Aparecida do Rio Negro/TO,-9.9513491,-47.9773786,12,247.52475
1,Aparecida do Taboado/MS,-20.0840304,-51.1013943,3616,13870.88112
D1,Aparecida do Taboado/MS,-20.0840304,-51.1013943,59,226.32245
1,Aparecida/PB,-6.7859598, -38.0831353,948,11264.25856
D1,Aparecida/PB,-6.7859598, -38.0831353,13,154.46768
1,Aparecida/SP,-22.851552,-45.2340924,2440,6743.12560
D1,Aparecida/SP,-22.851552,-45.2340924,101,279.12118
1,Aperibé/RJ,-21.6211928,-42.1028167,640,5377.69935
D1,Aperibé/RJ,-21.6211928,-42.1028167,27,226.87169
1,Apiacá/ES,-21.152272,-41.569297,863,11424.41091
D1,Apiacá/ES,-21.152272,-41.569297,33,436.85465
1,Apiacás/MT,-9.5678422,-57.394852,1820,17699.11504
D1,Apiacás/MT,-9.5678422,-57.394852,17,165.32140
1,Apiaí/SP,-24.5076527,-48.8461582,1635,6748.94741
D1,Apiaí/SP,-24.5076527,-48.8461582,78,321.96813
1,Apicum-Açu/MA,-1.5279295,-45.082278,531,3049.44582
D1,Apicum-Açu/MA,-1.5279295,-45.082278,5,28.71418
1,Apiúna/SC,-27.0374658,-49.3885037,843,7771.01770
D1,Apiúna/SC,-27.0374658,-49.3885037,17,156.71091
1,Apodi/RN,-5.6631109,-37.796927,6589,18367.06250
D1,Apodi/RN,-5.6631109,-37.796927,96,267.60328
1,Aporá/BA,-11.6599747,-38.0794757,619,3479.87407
D1,Aporá/BA,-11.6599747,-38.0794757,19,106.81358
1,Aporé/GO,-18.9642193,-51.92804,370,8742.91115
D1,Aporé/GO,-18.9642193,-51.92804,10,236.29490
1,Apuarema/BA,-13.8517897,-39.7457126,738,10106.82005
D1,Apuarema/BA,-13.8517897,-39.7457126,9,123.25390
1,Apucarana/PR,-23.5525327,-51.4610764,10368,7610.43499
D1,Apucarana/PR,-23.5525327,-51.4610764,427,313.43130
1,Apuiarés/CE,-3.9460303,-39.4313298,1361,9276.17230
D1,Apuiarés/CE,-3.9460303,-39.4313298,25,170.39258
1,Apuí/AM,-7.1940195,-59.8830192,1450,6485.08431
D1,Apuí/AM,-7.1940195,-59.8830192,31,138.64663
1,Aquidabã/SE,-10.2837579,-37.0188687,2361,10889.71911
D1,Aquidabã/SE,-10.2837579,-37.0188687,39,179.88100
1,Aquidauana/MS,-20.473969,-55.7821375,5477,11403.52704
D1,Aquidauana/MS,-20.473969,-55.7821375,149,310.22924
1,Aquiraz/CE,-3.9063117,-38.387504,6555,8099.09186
D1,Aquiraz/CE,-3.9063117,-38.387504,90,111.20035
1,Arabutã/SC,-27.1587028,-52.1438142,419,9819.54535
D1,Arabutã/SC,-27.1587028,-52.1438142,8,187.48535
1,Aracaju/SE,-10.9162061,-37.0774655,125050,18807.11316
D1,Aracaju/SE,-10.9162061,-37.0774655,2387,358.99703
1,Aracati/CE,-4.558259,-37.767894,7981,10644.88163
D1,Aracati/CE,-4.558259,-37.767894,165,220.07336
1,Aracatu/BA,-14.4274236,-41.4604105,865,6630.89306
D1,Aracatu/BA,-14.4274236,-41.4604105,17,130.31813
1,Araci/BA,-11.3356065,-38.9573261,3651,6680.93983
D1,Araci/BA,-11.3356065,-38.9573261,48,87.83487
1,Aracitaba/MG,-21.3425,-43.378611,89,4322.48664
D1,Aracitaba/MG,-21.3425,-43.378611,9,437.10539
1,Aracoiaba/CE,-4.3702577,-38.8084313,4254,16031.65630
D1,Aracoiaba/CE,-4.3702577,-38.8084313,35,131.90126
1,Aracruz/ES,-19.8245218,-40.2735025,16632,16131.75430
D1,Aracruz/ES,-19.8245218,-40.2735025,230,223.08222
1,Aragarças/GO,-15.8957166,-52.2514538,2917,14388.59567
D1,Aragarças/GO,-15.8957166,-52.2514538,65,320.62349
1,Aragoiânia/GO,-16.9146388,-49.4499148,1085,10337.27134
D1,Aragoiânia/GO,-16.9146388,-49.4499148,23,219.13110
1,Aragominas/TO,-7.1654101,-48.525488,549,9579.48002
D1,Aragominas/TO,-7.1654101,-48.525488,9,157.04066
1,Araguacema/TO,-8.8067391,-49.5560969,720,10062.89308
D1,Araguacema/TO,-8.8067391,-49.5560969,14,195.66737
1,Araguaiana/MT,-15.729144,-51.834112,391,12576.39112
D1,Araguaiana/MT,-15.729144,-51.834112,6,192.98810
1,Araguainha/MT,-16.857016,-53.031778,29,3065.53911
D1,Araguainha/MT,-16.857016,-53.031778,1,105.70825
1,Araguanã/MA,-2.9508403,-45.6651986,808,5195.80734
D1,Araguanã/MA,-2.9508403,-45.6651986,5,32.15227
1,Araguanã/TO,-6.5799107,-48.6428482,565,9753.15035
D1,Araguanã/TO,-6.5799107,-48.6428482,15,258.93320
1,Araguapaz/GO,-15.0937927,-50.626417,664,8531.41462
D1,Araguapaz/GO,-15.0937927,-50.626417,24,308.36438
1,Araguari/MG,-18.6511256,-48.1933764,16824,14278.80331
D1,Araguari/MG,-18.6511256,-48.1933764,414,351.36856
1,Araguatins/TO,-5.6522925,-48.1158973,2440,6745.92203
D1,Araguatins/TO,-5.6522925,-48.1158973,65,179.70694
1,Araguaçu/TO,-12.928934,-49.823134,868,10251.56490
D1,Araguaçu/TO,-12.928934,-49.823134,21,248.02173
1,Araguaína/TO,-7.193241,-48.2018597,35512,19365.14688
D1,Araguaína/TO,-7.193241,-48.2018597,496,270.47513
1,Araioses/MA,-2.890914,-41.904993,671,1434.64968
D1,Araioses/MA,-2.890914,-41.904993,15,32.07116
1,Aral Moreira/MS,-22.951141,-55.6268421,547,4435.61466
D1,Aral Moreira/MS,-22.951141,-55.6268421,14,113.52579
1,Aramari/BA,-12.0907897,-38.4985065,638,5566.70448
D1,Aramari/BA,-12.0907897,-38.4985065,12,104.70291
1,Arambaré/RS,-30.9132252,-51.4994625,223,6260.52779
D1,Arambaré/RS,-30.9132252,-51.4994625,8,224.59293
1,Arame/MA,-4.8858769,-46.0102484,1563,4770.47979
D1,Arame/MA,-4.8858769,-46.0102484,42,128.18948
1,Aramina/SP,-20.0876144,-47.789201,346,6118.47922
D1,Aramina/SP,-20.0876144,-47.789201,17,300.61892
1,Arandu/SP,-23.1345103,-49.0545651,599,9410.84053
D1,Arandu/SP,-23.1345103,-49.0545651,13,204.24195
1,Arantina/MG,-21.911667,-44.255833,210,7534.98385
D1,Arantina/MG,-21.911667,-44.255833,4,143.52350
1,Arapeí/SP,-22.6738889,-44.4477778,244,9918.69919
D1,Arapeí/SP,-22.6738889,-44.4477778,3,121.95122
1,Arapiraca/AL,-9.754866,-36.661471,30389,13039.85891
D1,Arapiraca/AL,-9.754866,-36.661471,500,214.54900
1,Arapoema/TO,-7.6575001,-49.0641484,496,7496.97703
D1,Arapoema/TO,-7.6575001,-49.0641484,11,166.26360
1,Araponga/MG,-20.666667,-42.520556,640,7571.27647
D1,Araponga/MG,-20.666667,-42.520556,9,106.47108
1,Arapongas/PR,-23.415296,-51.42592,13638,10927.00905
D1,Arapongas/PR,-23.415296,-51.42592,544,435.86251
1,Araporã/MG,-18.4318188,-49.188313,1972,28451.88285
D1,Araporã/MG,-18.4318188,-49.188313,32,461.69384
1,Arapoti/PR,-24.1457957,-49.8224605,3140,11095.40636
D1,Arapoti/PR,-24.1457957,-49.8224605,61,215.54770
1,Araputanga/MT,-15.4710868,-58.346796,2044,12058.28565
D1,Araputanga/MT,-15.4710868,-58.346796,55,324.46463
1,Arapuá/MG,-19.034444,-46.155556,281,9911.81658
D1,Arapuá/MG,-19.034444,-46.155556,2,70.54674
1,Arapuã/PR,-24.3079525,-51.7901941,221,7344.63277
D1,Arapuã/PR,-24.3079525,-51.7901941,6,199.40179
1,Araquari/SC,-26.3703324,-48.7210994,3736,9452.48457
D1,Araquari/SC,-26.3703324,-48.7210994,80,202.40866
1,Arara/PB,-6.8271895,-35.7605703,1032,7620.73549
D1,Arara/PB,-6.8271895,-35.7605703,29,214.14857
1,Araranguá/SC,-28.9348832,-49.4858389,10830,15725.96454
D1,Araranguá/SC,-28.9348832,-49.4858389,242,351.40198
1,Araraquara/SP,-21.7886713,-48.1773096,23453,9840.18562
D1,Araraquara/SP,-21.7886713,-48.1773096,476,199.71553
1,Araras/SP,-22.3569477,-47.3838889,16967,12521.21677
D1,Araras/SP,-22.3569477,-47.3838889,380,280.43039
1,Ararendá/CE,-4.7504395,-40.8303611,1402,12793.13806
D1,Ararendá/CE,-4.7504395,-40.8303611,21,191.62332
1,Arari/MA,-3.4547602,-44.7772723,967,3230.65615
D1,Arari/MA,-3.4547602,-44.7772723,32,106.90899
1,Araricá/RS,-29.6168543,-50.929121,1009,17483.97158
D1,Araricá/RS,-29.6168543,-50.929121,25,433.20049
1,Araripe/CE,-7.212861,-40.1359222,1337,6174.37887
D1,Araripe/CE,-7.212861,-40.1359222,20,92.36169
1,Araripina/PE,-7.5768582,-40.5038509,7227,8515.97851
D1,Araripina/PE,-7.5768582,-40.5038509,156,183.82353
1,Araruama/RJ,-22.8733203,-42.3428897,6433,4790.27202
D1,Araruama/RJ,-22.8733203,-42.3428897,435,323.91860
1,Araruna/PB,-6.5321155,-35.7397595,689,3367.05273
D1,Araruna/PB,-6.5321155,-35.7397595,16,78.18990
1,Araruna/PR,-23.9320308,-52.4976047,2115,15107.14286
D1,Araruna/PR,-23.9320308,-52.4976047,36,257.14286
1,Arataca/BA,-15.2617424,-39.4122943,792,7225.61810
D1,Arataca/BA,-15.2617424,-39.4122943,15,136.84883
1,Aratiba/RS,-27.3955734,-52.3024325,448,7238.64922
D1,Aratiba/RS,-27.3955734,-52.3024325,7,113.10389
1,Aratuba/CE,-4.4195958,-39.0463737,1610,13641.75563
D1,Aratuba/CE,-4.4195958,-39.0463737,9,76.25826
1,Aratuípe/BA,-13.077137,-39.0010786,479,5420.39154
D1,Aratuípe/BA,-13.077137,-39.0010786,11,124.47663
1,Araucária/PR,-25.5861107,-49.4051209,26612,18200.71949
D1,Araucária/PR,-25.5861107,-49.4051209,450,307.76807
1,Arauá/SE,-11.2644014,-37.6181058,1271,12777.72193
D1,Arauá/SE,-11.2644014,-37.6181058,21,211.11893
1,Araxá/MG,-19.5928536,-46.940241,13814,12869.74669
D1,Araxá/MG,-19.5928536,-46.940241,228,212.41510
1,Araçagi/PB,-6.8519969,-35.3835602,1620,9573.90225
D1,Araçagi/PB,-6.8519969,-35.3835602,24,141.83559
1,Araçariguama/SP,-23.438611,-47.061389,1956,8556.43045
D1,Araçariguama/SP,-23.438611,-47.061389,62,271.21610
1,Araçatuba/SP,-21.207992,-50.4390225,27873,14068.10714
D1,Araçatuba/SP,-21.207992,-50.4390225,839,423.46148
1,Araçaí/MG,-19.200833,-44.2475,72,3058.62362
D1,Araçaí/MG,-19.200833,-44.2475,1,42.48088
1,Araçoiaba da Serra/SP,-23.5045367,-47.6168158,2898,8333.33333
D1,Araçoiaba da Serra/SP,-23.5045367,-47.6168158,78,224.29262
1,Araçoiaba/PE,-7.7856903,-35.0898881,669,3226.73998
D1,Araçoiaba/PE,-7.7856903,-35.0898881,31,149.52009
1,Araçu/GO,-16.3561579,-49.6815269,451,12937.46414
D1,Araçu/GO,-16.3561579,-49.6815269,17,487.66495
1,Araçuaí/MG,-16.8484451,-42.0661868,1865,5080.08281
D1,Araçuaí/MG,-16.8484451,-42.0661868,50,136.19525
1,Araçás/BA,-12.2139176,-38.2026159,704,5766.71035
D1,Araçás/BA,-12.2139176,-38.2026159,14,114.67890
1,Araújos/MG,-19.948055,-45.165556,904,9615.99830
D1,Araújos/MG,-19.948055,-45.165556,13,138.28316
1,Arceburgo/MG,-21.364444,-46.939722,1237,11366.35119
D1,Arceburgo/MG,-21.364444,-46.939722,33,303.22521
1,Arco-Íris/SP,-21.7741308,-50.4668814,155,8742.24478
D1,Arco-Íris/SP,-21.7741308,-50.4668814,8,451.21263
1,Arcos/MG,-20.282223,-45.539444,5467,13538.88063
D1,Arcos/MG,-20.282223,-45.539444,111,274.88856
1,Arcoverde/PE,-8.415192,-37.057748,6395,8546.95143
D1,Arcoverde/PE,-8.415192,-37.057748,132,176.41870
1,Areado/MG,-21.3582771,-46.1476688,1151,7581.84573
D1,Areado/MG,-21.3582771,-46.1476688,26,171.26671
1,Areal/RJ,-22.2314922,-43.1056264,1457,11500.51306
D1,Areal/RJ,-22.2314922,-43.1056264,50,394.66414
1,Arealva/SP,-22.0301906,-48.9111936,972,11285.26646
D1,Arealva/SP,-22.0301906,-48.9111936,17,197.37606
1,Areia Branca/RN,-4.9506652,-37.1263312,2910,10405.12032
D1,Areia Branca/RN,-4.9506652,-37.1263312,95,339.68606
1,Areia Branca/SE,-10.7591455,-37.3148072,2087,11168.78947
D1,Areia Branca/SE,-10.7591455,-37.3148072,48,256.87681
1,Areia de Baraúnas/PB,-7.1233949,-36.9446216,209,9877.12665
D1,Areia de Baraúnas/PB,-7.1233949,-36.9446216,4,189.03592
1,Areia/PB,-6.9680243,-35.6994783,1858,8200.91808
D1,Areia/PB,-6.9680243,-35.6994783,30,132.41525
1,Areial/PB,-7.0501306,-35.9245244,362,5151.55828
D1,Areial/PB,-7.0501306,-35.9245244,12,170.76989
1,Areias/SP,-22.5800929,-44.6975127,339,8701.23203
D1,Areias/SP,-22.5800929,-44.6975127,2,51.33470
1,Areiópolis/SP,-22.6758064,-48.6673653,1338,11991.39631
D1,Areiópolis/SP,-22.6758064,-48.6673653,20,179.24359
1,Arenápolis/MT,-14.4610369,-56.8432806,1856,19532.72995
D1,Arenápolis/MT,-14.4610369,-56.8432806,35,368.34351
1,Arenópolis/GO,-16.3859286,-51.55937,264,10410.09464
D1,Arenópolis/GO,-16.3859286,-51.55937,8,315.45741
1,Argirita/MG,-21.612761,-42.8371922,270,9985.20710
D1,Argirita/MG,-21.612761,-42.8371922,7,258.87574
1,Aricanduva/MG,-17.8678,-42.5569,137,2600.11387
1,Arinos/MG,-15.917223,-46.106111,819,4585.15284
D1,Arinos/MG,-15.917223,-46.106111,27,151.15888
1,Aripuanã/MT,-10.175806,-59.4439663,3015,13273.75187
D1,Aripuanã/MT,-10.175806,-59.4439663,44,193.71313
1,Ariquemes/RO,-9.9076522,-63.033069,22215,20283.41079
D1,Ariquemes/RO,-9.9076522,-63.033069,481,439.17716
1,Ariranha do Ivaí/PR,-24.3834527,-51.5876772,177,8567.27977
D1,Ariranha do Ivaí/PR,-24.3834527,-51.5876772,4,193.61084
1,Ariranha/SP,-21.18716,-48.790418,957,9804.32333
D1,Ariranha/SP,-21.18716,-48.790418,24,245.87645
1,Armazém/SC,-28.2624996,-49.0190126,1420,16211.89634
D1,Armazém/SC,-28.2624996,-49.0190126,30,342.50485
1,Armação dos Búzios/RJ,-22.7597805,-41.8875267,4646,13475.65043
D1,Armação dos Búzios/RJ,-22.7597805,-41.8875267,60,174.02906
1,Arneiroz/CE,-6.3235099,-40.1603859,665,8477.81744
D1,Arneiroz/CE,-6.3235099,-40.1603859,17,216.72616
1,Aroazes/PI,-6.1108814,-41.7886137,590,10125.27887
D1,Aroazes/PI,-6.1108814,-41.7886137,12,205.93788
1,Aroeiras do Itaim/PI,-7.2797031,-41.5629681,129,5056.84045
D1,Aroeiras do Itaim/PI,-7.2797031,-41.5629681,2,78.40063
1,Aroeiras/PB,-7.5462904,-35.7080002,1856,9709.14417
D1,Aroeiras/PB,-7.5462904,-35.7080002,14,73.23708
1,Arraial do Cabo/RJ,-22.9662839,-42.024427,751,2454.80992
D1,Arraial do Cabo/RJ,-22.9662839,-42.024427,40,130.74886
1,Arraial/PI,-6.6541632,-42.5335332,159,3368.64407
D1,Arraial/PI,-6.6541632,-42.5335332,3,63.55932
1,Arraias/TO,-12.9287788,-46.9437231,1073,10186.06417
D1,Arraias/TO,-12.9287788,-46.9437231,12,113.91684
1,Arroio Grande/RS,-32.2384246,-53.0866661,2071,11355.41178
D1,Arroio Grande/RS,-32.2384246,-53.0866661,54,296.08510
1,Arroio Trinta/SC,-26.9301976,-51.334928,607,17103.40941
D1,Arroio Trinta/SC,-26.9301976,-51.334928,13,366.30037
1,Arroio do Meio/RS,-29.4020392,-51.9444993,3134,14947.29814
D1,Arroio do Meio/RS,-29.4020392,-51.9444993,45,214.62298
1,Arroio do Padre/RS,-31.4428773,-52.4228985,245,8302.27042
D1,Arroio do Padre/RS,-31.4428773,-52.4228985,4,135.54727
1,Arroio do Sal/RS,-29.549852,-49.8874395,1154,11226.77303
D1,Arroio do Sal/RS,-29.549852,-49.8874395,39,379.41434
1,Arroio do Tigre/RS,-29.334158,-53.0888935,1238,9229.85164
D1,Arroio do Tigre/RS,-29.334158,-53.0888935,21,156.56453
1,Arroio dos Ratos/RS,-30.0894524,-51.7265541,1072,7561.54334
D1,Arroio dos Ratos/RS,-30.0894524,-51.7265541,35,246.87875
1,Artur Nogueira/SP,-22.572737,-47.172679,5143,9293.45862
D1,Artur Nogueira/SP,-22.572737,-47.172679,129,233.10445
1,Aruanã/GO,-14.9162439,-51.0715692,562,5558.85262
D1,Aruanã/GO,-14.9162439,-51.0715692,15,148.36795
1,Arujá/SP,-23.396266,-46.3175449,7826,8585.18819
D1,Arujá/SP,-23.396266,-46.3175449,322,353.23672
1,Arvoredo/SC,-27.0752908,-52.4571847,317,14189.79409
D1,Arvoredo/SC,-27.0752908,-52.4571847,4,179.05103
1,Arvorezinha/RS,-28.87369,-52.17808,868,8327.73674
D1,Arvorezinha/RS,-28.87369,-52.17808,27,259.04250
1,Arês/RN,-6.1969216,-35.1642968,1134,7865.71409
D1,Arês/RN,-6.1969216,-35.1642968,25,173.40640
1,Ascurra/SC,-26.9569975,-49.3767752,1207,15129.10504
D1,Ascurra/SC,-26.9569975,-49.3767752,11,137.87917
1,Aspásia/SP,-20.160028,-50.728046,202,11111.11111
D1,Aspásia/SP,-20.160028,-50.728046,8,440.04400
1,Assaré/CE,-6.8746791,-39.8741385,2280,9711.21901
D1,Assaré/CE,-6.8746791,-39.8741385,42,178.89088
1,Assaí/PR,-23.3736041,-50.8454929,1373,9181.48990
D1,Assaí/PR,-23.3736041,-50.8454929,44,294.23566
1,Assis Brasil/AC,-10.9409203,-69.5672108,1784,23679.32041
D1,Assis Brasil/AC,-10.9409203,-69.5672108,24,318.55588
1,Assis Chateaubriand/PR,-24.4054826,-53.5120468,4728,14181.16377
D1,Assis Chateaubriand/PR,-24.4054826,-53.5120468,109,326.93461
1,Assis/SP,-22.6620892,-50.420623,11146,10606.44989
D1,Assis/SP,-22.6620892,-50.420623,386,367.31470
1,Assunção do Piauí/PI,-5.8610212,-41.0485091,343,4362.20272
D1,Assunção do Piauí/PI,-5.8610212,-41.0485091,8,101.74234
1,Assunção/PB,-7.073396,-36.7274003,402,9977.66195
D1,Assunção/PB,-7.073396,-36.7274003,5,124.10027
1,Astolfo Dutra/MG,-21.3132636,-42.8624102,1337,9369.30624
D1,Astolfo Dutra/MG,-21.3132636,-42.8624102,24,168.18500
1,Astorga/PR,-23.2350184,-51.6647074,3315,12648.32691
D1,Astorga/PR,-23.2350184,-51.6647074,86,328.13156
1,Atalaia do Norte/AM,-4.3658547,-70.1908742,2810,13775.86038
D1,Atalaia do Norte/AM,-4.3658547,-70.1908742,10,49.02441
1,Atalaia/AL,-9.5029595,-36.0219316,1206,2546.18389
D1,Atalaia/AL,-9.5029595,-36.0219316,51,107.67444
1,Atalaia/PR,-23.1513833,-52.0529697,452,11646.48287
D1,Atalaia/PR,-23.1513833,-52.0529697,21,541.09766
1,Atalanta/SC,-27.421916,-49.778863,485,15179.96870
D1,Atalanta/SC,-27.421916,-49.778863,11,344.28795
1,Ataléia/MG,-18.04432,-41.1110524,1162,9165.48351
D1,Ataléia/MG,-18.04432,-41.1110524,11,86.76447
1,Atibaia/SP,-23.1177393,-46.5547861,11554,8018.71079
D1,Atibaia/SP,-23.1177393,-46.5547861,259,179.75126
1,Atilio Vivacqua/ES,-20.9139369,-41.1947519,1534,12672.44940
D1,Atilio Vivacqua/ES,-20.9139369,-41.1947519,28,231.30938
1,Augustinópolis/TO,-5.4662267,-47.8897519,1638,8786.13957
D1,Augustinópolis/TO,-5.4662267,-47.8897519,27,144.82648
1,Augusto Corrêa/PA,-1.0229335,-46.6404029,2009,4323.12625
D1,Augusto Corrêa/PA,-1.0229335,-46.6404029,46,98.98646
1,Augusto Pestana/RS,-28.5148413,-53.9906433,836,12662.82945
D1,Augusto Pestana/RS,-28.5148413,-53.9906433,13,196.91003
1,Augusto de Lima/MG,-18.1092963,-44.2651945,275,5668.93424
D1,Augusto de Lima/MG,-18.1092963,-44.2651945,10,206.14306
1,Aurelino Leal/BA,-14.3167137,-39.3256107,1013,8965.39517
D1,Aurelino Leal/BA,-14.3167137,-39.3256107,32,283.21090
1,Auriflama/SP,-20.6840418,-50.5554616,2012,13190.84770
D1,Auriflama/SP,-20.6840418,-50.5554616,69,452.37003
1,Aurilândia/GO,-16.6772599,-50.4641231,221,7226.94572
D1,Aurilândia/GO,-16.6772599,-50.4641231,7,228.90778
1,Aurora do Pará/PA,-2.1323199,-47.558436,1692,5325.27618
D1,Aurora do Pará/PA,-2.1323199,-47.558436,15,47.20990
1,Aurora do Tocantins/TO,-12.71045,-46.407604,245,6476.34153
D1,Aurora do Tocantins/TO,-12.71045,-46.407604,5,132.17024
1,Aurora/CE,-6.9426019,-38.9693765,1763,7163.75457
D1,Aurora/CE,-6.9426019,-38.9693765,38,154.40878
1,Aurora/SC,-27.3166417,-49.6368502,866,15238.43041
D1,Aurora/SC,-27.3166417,-49.6368502,16,281.54144
1,Autazes/AM,-3.5833283,-59.1301518,2887,7165.54976
D1,Autazes/AM,-3.5833283,-59.1301518,95,235.79052
1,Avanhandava/SP,-21.4603331,-49.9465156,1104,7965.94271
D1,Avanhandava/SP,-21.4603331,-49.9465156,43,310.26770
1,Avaré/SP,-23.1045215,-48.9259103,11151,12222.68502
D1,Avaré/SP,-23.1045215,-48.9259103,253,277.31498
1,Avaí/SP,-22.1564662,-49.3316395,465,8554.08389
D1,Avaí/SP,-22.1564662,-49.3316395,12,220.75055
1,Aveiro/PA,-3.6049239,-55.3310742,842,5132.89442
D1,Aveiro/PA,-3.6049239,-55.3310742,13,79.24896
1,Avelino Lopes/PI,-10.1346855,-43.9489525,441,3893.69592
D1,Avelino Lopes/PI,-10.1346855,-43.9489525,19,167.75561
1,Avelinópolis/GO,-16.4672409,-49.7578661,317,13158.98713
D1,Avelinópolis/GO,-16.4672409,-49.7578661,14,581.15401
1,Axixá do Tocantins/TO,-5.612747,-47.77007,1034,10565.03525
D1,Axixá do Tocantins/TO,-5.612747,-47.77007,19,194.13508
1,Axixá/MA,-2.8379465,-44.0561053,192,1575.96651
D1,Axixá/MA,-2.8379465,-44.0561053,8,65.66527
1,Açailândia/MA,-4.9514278,-47.4844564,5523,4882.38258
D1,Açailândia/MA,-4.9514278,-47.4844564,226,199.78607
1,Açu/RN,-5.5836157,-36.9139541,8112,13894.21759
D1,Açu/RN,-5.5836157,-36.9139541,147,251.78131
1,Açucena/MG,-19.073056,-42.546666,799,8529.03501
D1,Açucena/MG,-19.073056,-42.546666,34,362.93766
1,Babaçulândia/TO,-7.2034355,-47.761613,846,7931.74573
D1,Babaçulândia/TO,-7.2034355,-47.761613,7,65.62910
1,Bacabal/MA,-4.2318132,-44.781167,5390,5143.62057
D1,Bacabal/MA,-4.2318132,-44.781167,190,181.31501
1,Bacabeira/MA,-2.9775747,-44.3155943,389,2254.81104
D1,Bacabeira/MA,-2.9775747,-44.3155943,9,52.16786
1,Bacuri/MA,-1.728894,-45.1417148,600,3216.46832
D1,Bacuri/MA,-1.728894,-45.1417148,4,21.44312
1,Bacurituba/MA,-2.7082587,-44.7381309,117,2063.49206
D1,Bacurituba/MA,-2.7082587,-44.7381309,2,35.27337
1,Bady Bassitt/SP,-20.9178969,-49.4517911,3924,22093.35060
D1,Bady Bassitt/SP,-20.9178969,-49.4517911,79,444.79478
1,Baependi/MG,-21.959162,-44.8899249,1520,7917.07901
D1,Baependi/MG,-21.959162,-44.8899249,31,161.46674
1,Bagre/PA,-1.8994498,-50.2103844,917,2927.37430
D1,Bagre/PA,-1.8994498,-50.2103844,12,38.30806
1,Bagé/RS,-31.3314264,-54.1062808,11137,9178.72007
D1,Bagé/RS,-31.3314264,-54.1062808,287,236.53521
1,Baianópolis/BA,-12.3067564,-44.5383591,896,6432.62259
D1,Baianópolis/BA,-12.3067564,-44.5383591,14,100.50973
1,Baixa Grande do Ribeiro/PI,-7.862861,-45.2113289,2638,22603.03316
D1,Baixa Grande do Ribeiro/PI,-7.862861,-45.2113289,33,282.75212
1,Baixa Grande/BA,-11.9630941,-40.1657537,862,4215.36505
D1,Baixa Grande/BA,-11.9630941,-40.1657537,14,68.46301
1,Baixio/CE,-6.7303544,-38.7170095,682,10820.24433
D1,Baixio/CE,-6.7303544,-38.7170095,12,190.38553
1,Baixo Guandu/ES,-19.5138322,-41.0182089,3718,11942.69562
D1,Baixo Guandu/ES,-19.5138322,-41.0182089,74,237.69755
1,Baião/PA,-2.7903479,-49.6702845,765,1578.65412
D1,Baião/PA,-2.7903479,-49.6702845,35,72.22601
1,Balbinos/SP,-21.9006253,-49.3583966,360,6066.73407
D1,Balbinos/SP,-21.9006253,-49.3583966,4,67.40816
1,Baldim/MG,-19.2913568,-43.9558262,664,8509.54761
D1,Baldim/MG,-19.2913568,-43.9558262,21,269.12726
1,Baliza/GO,-16.1978119,-52.542789,392,7424.24242
D1,Baliza/GO,-16.1978119,-52.542789,9,170.45455
1,Balneário Arroio do Silva/SC,-28.9815269,-49.4189932,2110,15711.09456
D1,Balneário Arroio do Silva/SC,-28.9815269,-49.4189932,58,431.86895
1,Balneário Barra do Sul/SC,-26.459842,-48.6061471,1442,13067.51246
D1,Balneário Barra do Sul/SC,-26.459842,-48.6061471,43,389.66923
1,Balneário Camboriú/SC,-26.9924395,-48.6339782,25157,17254.93155
D1,Balneário Camboriú/SC,-26.9924395,-48.6339782,382,262.00993
1,Balneário Gaivota/SC,-29.1553098,-49.5808712,1335,11856.12789
D1,Balneário Gaivota/SC,-29.1553098,-49.5808712,36,319.71581
1,Balneário Pinhal/RS,-30.2482978,-50.234585,972,6767.38843
D1,Balneário Pinhal/RS,-30.2482978,-50.234585,48,334.19202
1,Balneário Piçarras/SC,-26.7638889,-48.6716667,5095,21432.77806
D1,Balneário Piçarras/SC,-26.7638889,-48.6716667,56,235.57126
1,Balneário Rincão/SC,-28.8235718,-49.2241642,1450,11200.37077
D1,Balneário Rincão/SC,-28.8235718,-49.2241642,49,378.49529
1,Balsa Nova/PR,-25.5842234,-49.6312741,1651,12610.75466
D1,Balsa Nova/PR,-25.5842234,-49.6312741,31,236.78582
1,Balsas/MA,-7.53214,-46.037163,10765,11221.84115
D1,Balsas/MA,-7.53214,-46.037163,198,206.40265
1,Bambuí/MG,-20.0131996,-45.9777034,1781,7452.50649
D1,Bambuí/MG,-20.0131996,-45.9777034,28,117.16462
1,Banabuiú/CE,-5.3046404,-38.919766,2304,12620.50833
D1,Banabuiú/CE,-5.3046404,-38.919766,21,115.03067
1,Bananal/SP,-22.6828195,-44.3221095,972,8841.99036
D1,Bananal/SP,-22.6828195,-44.3221095,3,27.29009
1,Bananeiras/PB,-6.7537682,-35.6338343,1501,7057.21943
D1,Bananeiras/PB,-6.7537682,-35.6338343,26,122.24364
1,Bandeira do Sul/MG,-21.728056,-46.385555,636,11007.26895
D1,Bandeira do Sul/MG,-21.728056,-46.385555,14,242.29837
1,Bandeira/MG,-15.884444,-40.559167,472,9903.48300
D1,Bandeira/MG,-15.884444,-40.559167,9,188.83760
1,Bandeirante/SC,-26.7677402,-53.6397596,412,15558.91239
D1,Bandeirante/SC,-26.7677402,-53.6397596,4,151.05740
1,Bandeirantes do Tocantins/TO,-7.7635698,-48.579148,498,13864.14254
D1,Bandeirantes do Tocantins/TO,-7.7635698,-48.579148,8,222.71715
1,Bandeirantes/MS,-19.9179623,-54.3646768,607,8353.97743
D1,Bandeirantes/MS,-19.9179623,-54.3646768,11,151.39004
1,Bandeirantes/PR,-23.107788,-50.370407,5221,16728.07664
D1,Bandeirantes/PR,-23.107788,-50.370407,135,432.53981
1,Bannach/PA,-7.3508505,-50.4064531,649,19895.76947
D1,Bannach/PA,-7.3508505,-50.4064531,3,91.96812
1,Banzaê/BA,-10.5827616,-38.6122305,1183,8935.04532
D1,Banzaê/BA,-10.5827616,-38.6122305,8,60.42296
1,Baraúna/PB,-6.643394,-36.2531932,691,13920.22562
D1,Baraúna/PB,-6.643394,-36.2531932,9,181.30540
1,Baraúna/RN,-5.0775002,-37.61752,1672,5816.25909
D1,Baraúna/RN,-5.0775002,-37.61752,28,97.40147
1,Barbacena/MG,-21.2254524,-43.7735087,8553,6188.67761
D1,Barbacena/MG,-21.2254524,-43.7735087,281,203.32262
1,Barbalha/CE,-7.3121067,-39.3036427,6876,11230.15614
D1,Barbalha/CE,-7.3121067,-39.3036427,155,253.15215
1,Barbosa Ferraz/PR,-24.0287182,-52.00811,1238,10834.93786
D1,Barbosa Ferraz/PR,-24.0287182,-52.00811,36,315.07089
1,Barbosa/SP,-21.265661,-49.951816,737,9868.77343
D1,Barbosa/SP,-21.265661,-49.951816,16,214.24746
1,Barcarena/PA,-1.5107945,-48.6190679,11537,9082.32108
D1,Barcarena/PA,-1.5107945,-48.6190679,224,176.34046
1,Barcelona/RN,-5.9514918,-35.9260284,154,3855.78368
D1,Barcelona/RN,-5.9514918,-35.9260284,5,125.18778
1,Barcelos/AM,-0.9729214,-62.925635,4429,16025.03799
D1,Barcelos/AM,-0.9729214,-62.925635,60,217.09241
1,Bariri/SP,-22.0746355,-48.7394852,3068,8628.15681
D1,Bariri/SP,-22.0746355,-48.7394852,127,357.16295
1,Barra Bonita/SC,-26.6526364,-53.4419581,192,11629.31557
D1,Barra Bonita/SC,-26.6526364,-53.4419581,2,121.13870
1,Barra Bonita/SP,-22.490859,-48.558349,3492,9666.16841
D1,Barra Bonita/SP,-22.490859,-48.558349,102,282.34513
1,Barra D'Alcântara/PI,-6.5209258,-42.1071089,151,3820.85020
D1,Barra D'Alcântara/PI,-6.5209258,-42.1071089,4,101.21457
1,Barra Funda/RS,-27.9230048,-53.0401045,590,23128.18503
D1,Barra Funda/RS,-27.9230048,-53.0401045,14,548.80439
1,Barra Longa/MG,-20.2833541,-43.0423516,407,8115.65304
D1,Barra Longa/MG,-20.2833541,-43.0423516,9,179.46162
1,Barra Mansa/RJ,-22.5394843,-44.1735129,15846,8573.14441
D1,Barra Mansa/RJ,-22.5394843,-44.1735129,606,327.86353
1,Barra Velha/SC,-26.6338203,-48.6835001,4493,15046.88547
D1,Barra Velha/SC,-26.6338203,-48.6835001,112,375.08372
1,Barra da Estiva/BA,-13.6269662,-41.3278287,2690,13191.44763
D1,Barra da Estiva/BA,-13.6269662,-41.3278287,29,142.21263
1,Barra de Guabiraba/PE,-8.4173522,-35.6626669,438,3018.60786
D1,Barra de Guabiraba/PE,-8.4173522,-35.6626669,15,103.37698
1,Barra de Santa Rosa/PB,-6.7218007,-36.0564638,1708,11021.48803
D1,Barra de Santa Rosa/PB,-6.7218007,-36.0564638,12,77.43434
1,Barra de Santana/PB,-7.5230865,-35.9988518,619,7414.06156
D1,Barra de Santana/PB,-7.5230865,-35.9988518,7,83.84238
1,Barra de Santo Antônio/AL,-9.4038098,-35.5117693,456,2837.93876
D1,Barra de Santo Antônio/AL,-9.4038098,-35.5117693,32,199.15360
1,Barra de São Francisco/ES,-18.7570902,-40.8916119,4920,10938.43794
D1,Barra de São Francisco/ES,-18.7570902,-40.8916119,199,442.42869
1,Barra de São Miguel/AL,-9.8261357,-35.8837777,625,7460.01432
D1,Barra de São Miguel/AL,-9.8261357,-35.8837777,8,95.48818
1,Barra de São Miguel/PB,-7.7528088,-36.3170996,620,10222.58862
D1,Barra de São Miguel/PB,-7.7528088,-36.3170996,7,115.41632
1,Barra do Bugres/MT,-15.0683712,-57.1853688,3392,9607.16005
D1,Barra do Bugres/MT,-15.0683712,-57.1853688,80,226.58396
1,Barra do Chapéu/SP,-24.472203,-49.023784,407,7065.97222
D1,Barra do Chapéu/SP,-24.472203,-49.023784,3,52.08333
1,Barra do Choça/BA,-14.8638173,-40.5761637,2216,7100.51588
D1,Barra do Choça/BA,-14.8638173,-40.5761637,33,105.73873
1,Barra do Corda/MA,-5.496823,-45.248496,5826,6583.64598
D1,Barra do Corda/MA,-5.496823,-45.248496,60,67.80274
1,Barra do Garças/MT,-15.8916033,-52.2615413,9791,16015.37581
D1,Barra do Garças/MT,-15.8916033,-52.2615413,331,541.42472
1,Barra do Guarita/RS,-27.1888016,-53.7147086,116,3561.55972
D1,Barra do Guarita/RS,-27.1888016,-53.7147086,8,245.62481
1,Barra do Jacaré/PR,-23.1151788,-50.1813945,256,9205.32183
D1,Barra do Jacaré/PR,-23.1151788,-50.1813945,7,251.70802
1,Barra do Mendes/BA,-11.8053298,-42.057037,784,5667.60645
D1,Barra do Mendes/BA,-11.8053298,-42.057037,13,93.97817
1,Barra do Ouro/TO,-7.7113784,-47.6743925,164,3540.58722
D1,Barra do Ouro/TO,-7.7113784,-47.6743925,7,151.12263
1,Barra do Piraí/RJ,-22.4703403,-43.8263256,6417,6368.34584
D1,Barra do Piraí/RJ,-22.4703403,-43.8263256,369,366.20222
1,Barra do Quaraí/RS,-30.208947,-57.5505128,454,10740.47788
D1,Barra do Quaraí/RS,-30.208947,-57.5505128,7,165.60208
1,Barra do Ribeiro/RS,-30.2930206,-51.301437,1093,8062.85040
D1,Barra do Ribeiro/RS,-30.2930206,-51.301437,50,368.84037
1,Barra do Rio Azul/RS,-27.4101581,-52.4117471,119,7190.33233
D1,Barra do Rio Azul/RS,-27.4101581,-52.4117471,1,60.42296
1,Barra do Rocha/BA,-14.2090974,-39.6004395,398,7091.94583
D1,Barra do Rocha/BA,-14.2090974,-39.6004395,7,124.73272
1,Barra do Turvo/SP,-24.756421,-48.5056942,600,7861.63522
D1,Barra do Turvo/SP,-24.756421,-48.5056942,18,235.84906
1,Barra dos Coqueiros/SE,-10.9075694,-37.0386249,6993,22609.11736
D1,Barra dos Coqueiros/SE,-10.9075694,-37.0386249,96,310.37827
1,Barra/BA,-11.0892702,-43.1420453,2186,4054.90633
D1,Barra/BA,-11.0892702,-43.1420453,57,105.73178
1,Barracão/PR,-26.252395,-53.6349576,1344,13033.35919
D1,Barracão/PR,-26.252395,-53.6349576,35,339.41040
1,Barracão/RS,-27.6728964,-51.4582928,505,9608.06697
D1,Barracão/RS,-27.6728964,-51.4582928,16,304.41400
1,Barras/PI,-4.2446153,-42.2920241,5091,10789.44580
D1,Barras/PI,-4.2446153,-42.2920241,94,199.21585
1,Barreira/CE,-4.2883361,-38.641094,1555,6888.76091
D1,Barreira/CE,-4.2883361,-38.641094,46,203.78328
1,Barreiras do Piauí/PI,-9.9224524,-45.4763776,95,2834.12888
D1,Barreiras do Piauí/PI,-9.9224524,-45.4763776,2,59.66587
1,Barreiras/BA,-12.1440031,-44.9967406,19247,12261.18809
D1,Barreiras/BA,-12.1440031,-44.9967406,315,200.66890
1,Barreirinha/AM,-2.798863,-57.067897,2436,7499.30733
D1,Barreirinha/AM,-2.798863,-57.067897,63,193.94760
1,Barreirinhas/MA,-2.7541271,-42.8259693,2341,3703.11783
D1,Barreirinhas/MA,-2.7541271,-42.8259693,42,66.43783
1,Barreiros/PE,-8.8159644,-35.1831905,792,1852.02507
D1,Barreiros/PE,-8.8159644,-35.1831905,63,147.32018
1,Barretos/SP,-20.5531437,-48.5697509,16521,13449.96866
D1,Barretos/SP,-20.5531437,-48.5697509,531,432.29425
1,Barrinha/SP,-21.1898849,-48.1550642,1660,5003.01386
D1,Barrinha/SP,-21.1898849,-48.1550642,69,207.95660
1,Barro Alto/BA,-11.7618025,-41.9094904,923,6131.26079
D1,Barro Alto/BA,-11.7618025,-41.9094904,13,86.35579
1,Barro Alto/GO,-14.9696025,-48.9190985,1400,12272.08976
D1,Barro Alto/GO,-14.9696025,-48.9190985,18,157.78401
1,Barro Duro/PI,-5.8180139,-42.5106589,699,9947.34595
D1,Barro Duro/PI,-5.8180139,-42.5106589,11,156.53906
1,Barro Preto/BA,-14.8068289,-39.4727588,614,11270.19090
D1,Barro Preto/BA,-14.8068289,-39.4727588,10,183.55360
1,Barro/CE,-7.1713587,-38.7742136,1747,7676.42148
D1,Barro/CE,-7.1713587,-38.7742136,45,197.73267
1,Barrocas/BA,-11.5165,-39.099282894736845,799,4961.19218
D1,Barrocas/BA,-11.5165,-39.099282894736845,24,149.02204
1,Barrolândia/TO,-9.837246,-48.7264346,763,13502.03504
D1,Barrolândia/TO,-9.837246,-48.7264346,20,353.91966
1,Barroquinha/CE,-3.0200371,-41.1339229,1315,8741.02632
D1,Barroquinha/CE,-3.0200371,-41.1339229,25,166.17921
1,Barros Cassal/RS,-29.094938,-52.5832366,774,6921.83867
D1,Barros Cassal/RS,-29.094938,-52.5832366,13,116.25827
1,Barroso/MG,-21.187222,-43.976111,2031,9719.09844
D1,Barroso/MG,-21.187222,-43.976111,55,263.19567
1,Barueri/SP,-23.5112184,-46.8764612,31355,11320.23020
D1,Barueri/SP,-23.5112184,-46.8764612,1082,390.63910
1,Barão de Antonina/SP,-23.6295651,-49.5632104,470,13436.24929
D1,Barão de Antonina/SP,-23.6295651,-49.5632104,9,257.28988
1,Barão de Cocais/MG,-19.9452437,-43.4870298,3987,12131.07771
D1,Barão de Cocais/MG,-19.9452437,-43.4870298,66,200.81543
1,Barão de Cotegipe/RS,-27.6214694,-52.3765316,791,11948.64048
D1,Barão de Cotegipe/RS,-27.6214694,-52.3765316,10,151.05740
1,Barão de Grajaú/MA,-6.7542591,-43.0263477,477,2520.60875
D1,Barão de Grajaú/MA,-6.7542591,-43.0263477,2,10.56859
1,Barão de Melgaço/MT,-16.195776,-55.9668049,386,4728.07447
D1,Barão de Melgaço/MT,-16.195776,-55.9668049,15,183.73346
1,Barão de Monte Alto/MG,-21.244722,-42.2375,333,6219.64886
D1,Barão de Monte Alto/MG,-21.244722,-42.2375,12,224.13149
1,Barão do Triunfo/RS,-30.3909877,-51.7375349,469,6237.53159
D1,Barão do Triunfo/RS,-30.3909877,-51.7375349,6,79.79785
1,Barão/RS,-29.372474,-51.494908,681,10980.32893
D1,Barão/RS,-29.372474,-51.494908,10,161.23831
1,Bastos/SP,-21.9222474,-50.7317727,1794,8562.01976
D1,Bastos/SP,-21.9222474,-50.7317727,40,190.90345
1,Bataguassu/MS,-21.715899,-52.422058,3432,14713.82637
D1,Bataguassu/MS,-21.715899,-52.422058,47,201.50054
1,Batalha/AL,-9.6733809,-37.1265481,1126,6140.25521
D1,Batalha/AL,-9.6733809,-37.1265481,19,103.60999
1,Batalha/PI,-4.022391,-42.0780926,1204,4475.00465
D1,Batalha/PI,-4.022391,-42.0780926,34,126.37056
1,Batatais/SP,-20.892867,-47.592149,4696,7456.33534
D1,Batatais/SP,-20.892867,-47.592149,166,263.57574
1,Batayporã/MS,-22.2976466,-53.2685608,1074,9463.38884
D1,Batayporã/MS,-22.2976466,-53.2685608,25,220.28373
1,Baturité/CE,-4.3290203,-38.8821055,4182,11635.73635
D1,Baturité/CE,-4.3290203,-38.8821055,84,233.71637
1,Bauru/SP,-22.3218102,-49.0705863,49746,13115.31597
D1,Bauru/SP,-22.3218102,-49.0705863,1157,305.03800
1,Bayeux/PB,-7.1301631,-34.936532,7945,8173.61604
D1,Bayeux/PB,-7.1301631,-34.936532,246,253.07861
1,Baía Formosa/RN,-6.3691885,-35.0063741,513,5503.11092
D1,Baía Formosa/RN,-6.3691885,-35.0063741,9,96.54581
1,Baía da Traição/PB,-6.691258,-34.9371244,1300,14291.99648
D1,Baía da Traição/PB,-6.691258,-34.9371244,12,131.92612
1,Bebedouro/SP,-20.949077,-48.479083,4106,5294.30727
D1,Bebedouro/SP,-20.949077,-48.479083,160,206.30520
1,Beberibe/CE,-4.1810469,-38.1298101,5452,10105.84070
D1,Beberibe/CE,-4.1810469,-38.1298101,112,207.60348
1,Bela Cruz/CE,-3.0529129,-40.167582,3492,10671.71933
D1,Bela Cruz/CE,-3.0529129,-40.167582,70,213.92335
1,Bela Vista da Caroba/PR,-25.8792818,-53.6672545,192,5553.94851
D1,Bela Vista da Caroba/PR,-25.8792818,-53.6672545,7,202.48771
1,Bela Vista de Goiás/GO,-16.9692949,-48.9513071,2827,9271.28427
D1,Bela Vista de Goiás/GO,-16.9692949,-48.9513071,73,239.40706
1,Bela Vista de Minas/MG,-19.8289721,-43.0973688,869,8468.13487
D1,Bela Vista de Minas/MG,-19.8289721,-43.0973688,22,214.38316
1,Bela Vista do Maranhão/MA,-3.7416367,-45.2514192,221,1959.39356
D1,Bela Vista do Maranhão/MA,-3.7416367,-45.2514192,19,168.45465
1,Bela Vista do Paraíso/PR,-22.9948493,-51.1907996,1871,12150.13962
D1,Bela Vista do Paraíso/PR,-22.9948493,-51.1907996,66,428.59926
1,Bela Vista do Piauí/PI,-7.9716353,-41.8715061,263,6526.05459
D1,Bela Vista do Piauí/PI,-7.9716353,-41.8715061,6,148.88337
1,Bela Vista do Toldo/SC,-26.274625,-50.466354,81,1273.18453
D1,Bela Vista do Toldo/SC,-26.274625,-50.466354,3,47.15498
1,Bela Vista/MS,-22.107327,-56.5317344,1053,4257.12553
D1,Bela Vista/MS,-22.107327,-56.5317344,31,125.32848
1,Belford Roxo/RJ,-22.7667284,-43.4033603,21103,4112.69922
D1,Belford Roxo/RJ,-22.7667284,-43.4033603,764,148.89363
1,Belmiro Braga/MG,-21.9486291,-43.413564,200,5839.41606
D1,Belmiro Braga/MG,-21.9486291,-43.413564,3,87.59124
1,Belmonte/BA,-15.8630837,-38.8792845,1183,5047.57435
D1,Belmonte/BA,-15.8630837,-38.8792845,24,102.40218
1,Belmonte/SC,-26.8448262,-53.578916,324,11960.13289
D1,Belmonte/SC,-26.8448262,-53.578916,5,184.56995
1,Belo Campo/BA,-15.0338286,-41.2585109,963,5628.61652
D1,Belo Campo/BA,-15.0338286,-41.2585109,17,99.36291
1,Belo Horizonte/MG,-19.9227318,-43.9450948,256141,10158.02097
D1,Belo Horizonte/MG,-19.9227318,-43.9450948,6155,244.09454
1,Belo Jardim/PE,-8.3338293,-36.4176419,4117,5368.57616
D1,Belo Jardim/PE,-8.3338293,-36.4176419,127,165.60825
1,Belo Monte/AL,-9.8269944,-37.2787165,522,7779.43368
D1,Belo Monte/AL,-9.8269944,-37.2787165,9,134.12817
1,Belo Oriente/MG,-19.2232523,-42.4807033,2663,9865.15522
D1,Belo Oriente/MG,-19.2232523,-42.4807033,67,248.20330
1,Belo Vale/MG,-20.407778,-44.024167,995,12890.27076
D1,Belo Vale/MG,-20.407778,-44.024167,12,155.46055
1,Belterra/PA,-2.636091,-54.937392,1615,9053.19805
D1,Belterra/PA,-2.636091,-54.937392,27,151.35378
1,Belágua/MA,-3.1604031,-43.5085052,413,5486.18491
D1,Belágua/MA,-3.1604031,-43.5085052,4,53.13496
1,Belém de Maria/PE,-8.6242497,-35.8388934,285,2351.09718
D1,Belém de Maria/PE,-8.6242497,-35.8388934,6,49.49678
1,Belém do Brejo do Cruz/PB,-6.1880727,-37.5332267,533,7252.68744
D1,Belém do Brejo do Cruz/PB,-6.1880727,-37.5332267,5,68.03647
1,Belém do Piauí/PI,-7.3767305,-40.9712156,480,13381.65598
D1,Belém do Piauí/PI,-7.3767305,-40.9712156,7,195.14915
1,Belém do São Francisco/PE,-8.7517707,-38.9625715,980,4727.44814
D1,Belém do São Francisco/PE,-8.7517707,-38.9625715,11,53.06319
1,Belém/AL,-9.5715351,-36.492841,125,2917.83380
D1,Belém/AL,-9.5715351,-36.492841,7,163.39869
1,Belém/PA,-1.45056,-48.4682453,104845,6991.33993
D1,Belém/PA,-1.45056,-48.4682453,5017,334.54673
1,Belém/PB,-6.6967586,-35.5369626,2335,13188.36487
D1,Belém/PB,-6.6967586,-35.5369626,45,254.16549
1,Beneditinos/PI,-5.4565671,-42.3605061,1283,12250.54903
D1,Beneditinos/PI,-5.4565671,-42.3605061,38,362.83777
1,Benedito Leite/MA,-7.2173453,-44.5523331,314,5569.35083
D1,Benedito Leite/MA,-7.2173453,-44.5523331,2,35.47357
1,Benedito Novo/SC,-26.7840657,-49.3629511,1058,8985.13800
D1,Benedito Novo/SC,-26.7840657,-49.3629511,19,161.35881
1,Benevides/PA,-1.3555577,-48.252235,4018,6300.96600
D1,Benevides/PA,-1.3555577,-48.252235,103,161.52302
1,Benjamin Constant do Sul/RS,-27.5105555,-52.6007689,174,8886.61900
1,Benjamin Constant/AM,-4.3782748,-70.0290603,2707,6161.37476
D1,Benjamin Constant/AM,-4.3782748,-70.0290603,87,198.01980
1,Bento Fernandes/RN,-5.6926846,-35.8207423,173,3131.22172
D1,Bento Fernandes/RN,-5.6926846,-35.8207423,3,54.29864
1,Bento Gonçalves/RS,-29.1654014,-51.5197627,19832,16282.02918
D1,Bento Gonçalves/RS,-29.1654014,-51.5197627,361,296.38022
1,Bento de Abreu/SP,-21.2707225,-50.8120444,359,11946.75541
D1,Bento de Abreu/SP,-21.2707225,-50.8120444,5,166.38935
1,Bequimão/MA,-2.4495376,-44.7884889,281,1319.31077
D1,Bequimão/MA,-2.4495376,-44.7884889,22,103.29123
1,Berilo/MG,-16.9515764,-42.4643732,153,1288.74663
D1,Berilo/MG,-16.9515764,-42.4643732,1,8.42318
1,Berizal/MG,-15.6118785,-41.7417382,236,4953.82032
D1,Berizal/MG,-15.6118785,-41.7417382,1,20.99076
1,Bernardino Batista/PB,-6.4532173,-38.5495418,290,8201.35747
D1,Bernardino Batista/PB,-6.4532173,-38.5495418,1,28.28054
1,Bernardino de Campos/SP,-23.0140216,-49.4760724,840,7528.23087
D1,Bernardino de Campos/SP,-23.0140216,-49.4760724,29,259.90321
1,Bernardo Sayão/TO,-7.8794244,-48.8968905,634,14253.59712
D1,Bernardo Sayão/TO,-7.8794244,-48.8968905,12,269.78417
1,Bernardo do Mearim/MA,-4.6315929,-44.7617508,296,4874.03260
D1,Bernardo do Mearim/MA,-4.6315929,-44.7617508,6,98.79796
1,Bertioga/SP,-23.848568,-46.139586,5805,8968.99093
D1,Bertioga/SP,-23.848568,-46.139586,160,247.20733
1,Bertolínia/PI,-7.6372159,-43.9540611,884,16052.29708
D1,Bertolínia/PI,-7.6372159,-43.9540611,11,199.74578
1,Bertópolis/MG,-17.063333,-40.573889,483,10484.04602
D1,Bertópolis/MG,-17.063333,-40.573889,3,65.11830
1,Beruri/AM,-3.9007135,-61.3717319,2283,11362.16593
D1,Beruri/AM,-3.9007135,-61.3717319,34,169.21316
1,Betim/MG,-19.968056,-44.198333,30245,6799.92985
D1,Betim/MG,-19.968056,-44.198333,1279,287.55531
1,Betânia do Piauí/PI,-8.1460635,-40.7961387,173,2785.82931
D1,Betânia do Piauí/PI,-8.1460635,-40.7961387,2,32.20612
1,Betânia/PE,-8.2742779,-38.0351767,505,3956.13004
D1,Betânia/PE,-8.2742779,-38.0351767,17,133.17665
1,Bezerros/PE,-8.2372132,-35.7558262,3848,6320.63075
D1,Bezerros/PE,-8.2372132,-35.7558262,126,206.96452
1,Bias Fortes/MG,-21.605833,-43.756944,113,3394.41274
D1,Bias Fortes/MG,-21.605833,-43.756944,3,90.11715
1,Bicas/MG,-21.7213723,-43.0604327,1424,9784.25175
D1,Bicas/MG,-21.7213723,-43.0604327,43,295.45142
1,Biguaçu/SC,-27.4961277,-48.6542432,11172,16078.05889
D1,Biguaçu/SC,-27.4961277,-48.6542432,166,238.89704
1,Bilac/SP,-21.403962,-50.47464,903,11124.79980
D1,Bilac/SP,-21.403962,-50.47464,17,209.43698
1,Biquinhas/MG,-18.783611,-45.502222,128,5124.09928
D1,Biquinhas/MG,-18.783611,-45.502222,2,80.06405
1,Birigui/SP,-21.2908491,-50.34144,16385,13120.28058
D1,Birigui/SP,-21.2908491,-50.34144,547,438.00998
1,Biritiba Mirim/SP,-23.5697765,-46.0407456,1460,4432.83945
D1,Biritiba Mirim/SP,-23.5697765,-46.0407456,99,300.58295
1,Biritinga/BA,-11.6227908,-38.8066738,561,3509.75976
D1,Biritinga/BA,-11.6227908,-38.8066738,7,43.79379
1,Bituruna/PR,-26.161281,-51.5533319,1327,8091.46341
D1,Bituruna/PR,-26.161281,-51.5533319,19,115.85366
1,Blumenau/SC,-26.9195567,-49.0658025,54754,15131.47531
D1,Blumenau/SC,-26.9195567,-49.0658025,597,164.98321
1,Boa Esperança do Iguaçu/PR,-25.6362851,-53.2139114,179,7246.96356
1,Boa Esperança do Sul/SP,-21.9930206,-48.3917372,1688,11239.84552
D1,Boa Esperança do Sul/SP,-21.9930206,-48.3917372,20,133.17353
1,Boa Esperança/ES,-18.5395472,-40.2904088,1659,10992.57885
D1,Boa Esperança/ES,-18.5395472,-40.2904088,45,298.17122
1,Boa Esperança/MG,-21.0901253,-45.5660195,4761,11837.68865
D1,Boa Esperança/MG,-21.0901253,-45.5660195,138,343.12141
1,Boa Esperança/PR,-24.2411024,-52.7860277,439,10847.54139
D1,Boa Esperança/PR,-24.2411024,-52.7860277,17,420.06425
1,Boa Hora/PI,-4.4094627,-42.1255341,559,8202.49450
D1,Boa Hora/PI,-4.4094627,-42.1255341,6,88.04109
1,Boa Nova/BA,-14.365907,-40.2063056,1006,8159.62365
D1,Boa Nova/BA,-14.365907,-40.2063056,19,154.10820
1,Boa Ventura de São Roque/PR,-24.88177,-51.5441292,523,8216.81068
D1,Boa Ventura de São Roque/PR,-24.88177,-51.5441292,6,94.26551
1,Boa Ventura/PB,-7.4202462,-38.2156782,730,13755.41737
D1,Boa Ventura/PB,-7.4202462,-38.2156782,11,207.27341
1,Boa Viagem/CE,-5.1261877,-39.7300055,4220,7732.19488
D1,Boa Viagem/CE,-5.1261877,-39.7300055,104,190.55646
1,Boa Vista da Aparecida/PR,-25.4357216,-53.4067721,1033,13700.26525
D1,Boa Vista da Aparecida/PR,-25.4357216,-53.4067721,33,437.66578
1,Boa Vista das Missões/RS,-27.6677983,-53.3127622,246,11759.08222
D1,Boa Vista das Missões/RS,-27.6677983,-53.3127622,7,334.60803
1,Boa Vista do Buricá/RS,-27.6687782,-54.1111913,887,13215.13707
D1,Boa Vista do Buricá/RS,-27.6687782,-54.1111913,11,163.88558
1,Boa Vista do Cadeado/RS,-28.5783827,-53.8123759,205,8306.32091
D1,Boa Vista do Cadeado/RS,-28.5783827,-53.8123759,4,162.07455
1,Boa Vista do Gurupi/MA,-1.7981168,-46.3071882,15,178.95490
D1,Boa Vista do Gurupi/MA,-1.7981168,-46.3071882,4,47.72131
1,Boa Vista do Incra/RS,-28.8195551,-53.3866624,305,11659.02141
D1,Boa Vista do Incra/RS,-28.8195551,-53.3866624,4,152.90520
1,Boa Vista do Ramos/AM,-2.9716927,-57.5869819,974,4962.80444
D1,Boa Vista do Ramos/AM,-2.9716927,-57.5869819,12,61.14338
1,Boa Vista do Sul/RS,-29.3510488,-51.6779679,316,11375.08999
D1,Boa Vista do Sul/RS,-29.3510488,-51.6779679,4,143.98848
1,Boa Vista do Tupim/BA,-12.6605988,-40.6083594,287,1548.75614
D1,Boa Vista do Tupim/BA,-12.6605988,-40.6083594,8,43.17090
1,Boa Vista/PB,-7.2620711,-36.2415161,830,11631.16592
D1,Boa Vista/PB,-7.2620711,-36.2415161,14,196.18834
1,Boa Vista/RR,2.8208478,-60.6719582,91854,21888.13588
D1,Boa Vista/RR,2.8208478,-60.6719582,1417,337.66073
1,Boca da Mata/AL,-9.6452054,-36.2116658,1863,6810.20617
D1,Boca da Mata/AL,-9.6452054,-36.2116658,45,164.49773
1,Boca do Acre/AM,-8.7553487,-67.3930873,2668,7703.19041
D1,Boca do Acre/AM,-8.7553487,-67.3930873,27,77.95583
1,Bocaina de Minas/MG,-22.167778,-44.394722,187,3674.59226
D1,Bocaina de Minas/MG,-22.167778,-44.394722,7,137.55158
1,Bocaina do Sul/SC,-27.745494,-49.942279,390,11181.19266
D1,Bocaina do Sul/SC,-27.745494,-49.942279,3,86.00917
1,Bocaina/PI,-6.9445939,-41.3224599,324,7192.00888
D1,Bocaina/PI,-6.9445939,-41.3224599,6,133.18535
1,Bocaina/SP,-22.1421831,-48.522276,1311,10528.42917
D1,Bocaina/SP,-22.1421831,-48.522276,33,265.01767
1,Bocaiúva do Sul/PR,-25.206591,-49.114131,2060,15690.45624
D1,Bocaiúva do Sul/PR,-25.206591,-49.114131,20,152.33453
1,Bocaiúva/MG,-17.1160208,-43.8122678,2510,4994.42853
D1,Bocaiúva/MG,-17.1160208,-43.8122678,64,127.34798
1,Bodocó/PE,-7.777592,-39.933797,2072,5398.92647
D1,Bodocó/PE,-7.777592,-39.933797,37,96.40940
1,Bodoquena/MS,-20.5508775,-56.6769653,569,7259.50498
D1,Bodoquena/MS,-20.5508775,-56.6769653,17,216.89206
1,Bodó/RN,-5.9866104,-36.4134824,188,8557.12335
1,Bofete/SP,-23.1019554,-48.2610535,888,7449.03951
D1,Bofete/SP,-23.1019554,-48.2610535,19,159.38260
1,Boituva/SP,-23.2838893,-47.6738231,6347,10209.10407
D1,Boituva/SP,-23.2838893,-47.6738231,182,292.74570
1,Bom Conselho/PE,-9.169191,-36.685683,2246,4605.57344
D1,Bom Conselho/PE,-9.169191,-36.685683,68,139.43855
1,Bom Despacho/MG,-19.7375242,-45.2517288,5061,9918.08419
D1,Bom Despacho/MG,-19.7375242,-45.2517288,86,168.53492
1,Bom Jardim da Serra/SC,-28.3380324,-49.625588,670,14040.23470
D1,Bom Jardim da Serra/SC,-28.3380324,-49.625588,5,104.77787
1,Bom Jardim de Goiás/GO,-16.2062659,-52.172793,994,11207.57695
D1,Bom Jardim de Goiás/GO,-16.2062659,-52.172793,16,180.40365
1,Bom Jardim de Minas/MG,-21.9476466,-44.1906033,483,7477.93776
D1,Bom Jardim de Minas/MG,-21.9476466,-44.1906033,3,46.44682
1,Bom Jardim/MA,-3.54129,-45.606004,1434,3428.81737
D1,Bom Jardim/MA,-3.54129,-45.606004,53,126.72756
1,Bom Jardim/PE,-7.7961572,-35.5871696,1794,4486.90694
D1,Bom Jardim/PE,-7.7961572,-35.5871696,70,175.07441
1,Bom Jardim/RJ,-22.1515328,-42.4186683,1798,6510.71842
D1,Bom Jardim/RJ,-22.1515328,-42.4186683,46,166.57010
1,Bom Jesus da Lapa/BA,-13.250571,-43.410754,6009,8625.93667
D1,Bom Jesus da Lapa/BA,-13.250571,-43.410754,91,130.63076
1,Bom Jesus da Penha/MG,-21.0165299,-46.5226644,660,15551.36664
D1,Bom Jesus da Penha/MG,-21.0165299,-46.5226644,17,400.56550
1,Bom Jesus da Serra/BA,-14.3724084,-40.5047119,466,4743.96824
D1,Bom Jesus da Serra/BA,-14.3724084,-40.5047119,9,91.62170
1,Bom Jesus das Selvas/MA,-4.4878075,-46.8526639,3392,9812.82726
D1,Bom Jesus das Selvas/MA,-4.4878075,-46.8526639,25,72.32331
1,Bom Jesus de Goiás/GO,-18.2174587,-49.739721,2930,11423.89270
D1,Bom Jesus de Goiás/GO,-18.2174587,-49.739721,113,440.58016
1,Bom Jesus do Amparo/MG,-19.7045132,-43.4752911,262,4271.97130
D1,Bom Jesus do Amparo/MG,-19.7045132,-43.4752911,7,114.13664
1,Bom Jesus do Araguaia/MT,-12.1725897,-51.5074425,1067,15911.12437
D1,Bom Jesus do Araguaia/MT,-12.1725897,-51.5074425,16,238.59231
1,Bom Jesus do Galho/MG,-19.8283191,-42.3162256,792,5329.02705
D1,Bom Jesus do Galho/MG,-19.8283191,-42.3162256,33,222.04279
1,Bom Jesus do Itabapoana/RJ,-21.1341025,-41.680095,3633,9765.34150
D1,Bom Jesus do Itabapoana/RJ,-21.1341025,-41.680095,93,249.97984
1,Bom Jesus do Norte/ES,-21.1254776,-41.6711646,1120,11242.72234
D1,Bom Jesus do Norte/ES,-21.1254776,-41.6711646,29,291.10620
1,Bom Jesus do Oeste/SC,-26.6929713,-53.0967453,183,8555.39972
D1,Bom Jesus do Oeste/SC,-26.6929713,-53.0967453,6,280.50491
1,Bom Jesus do Sul/PR,-26.1922507,-53.6002033,498,14204.22133
D1,Bom Jesus do Sul/PR,-26.1922507,-53.6002033,6,171.13520
1,Bom Jesus do Tocantins/PA,-5.0471796,-48.5978362,770,4498.18904
D1,Bom Jesus do Tocantins/PA,-5.0471796,-48.5978362,25,146.04510
1,Bom Jesus do Tocantins/TO,-8.96306,-48.165043,135,2695.68690
D1,Bom Jesus do Tocantins/TO,-8.96306,-48.165043,3,59.90415
1,Bom Jesus dos Perdões/SP,-23.1353864,-46.4648052,2146,8258.61074
D1,Bom Jesus dos Perdões/SP,-23.1353864,-46.4648052,24,92.36098
1,Bom Jesus/PB,-6.8156725,-38.6551841,183,7106.79612
D1,Bom Jesus/PB,-6.8156725,-38.6551841,3,116.50485
1,Bom Jesus/PI,-9.0711644,-44.3583926,3697,14562.57139
D1,Bom Jesus/PI,-9.0711644,-44.3583926,44,173.31705
1,Bom Jesus/RN,-5.9887544,-35.5821149,950,9252.94633
D1,Bom Jesus/RN,-5.9887544,-35.5821149,17,165.57904
1,Bom Jesus/RS,-28.6692723,-50.4346894,991,8762.93218
D1,Bom Jesus/RS,-28.6692723,-50.4346894,23,203.37784
1,Bom Jesus/SC,-26.7350604,-52.3916519,456,14916.58489
D1,Bom Jesus/SC,-26.7350604,-52.3916519,9,294.40628
1,Bom Lugar/MA,-4.3728019,-45.0366054,514,3126.90108
D1,Bom Lugar/MA,-4.3728019,-45.0366054,7,42.58426
1,Bom Princípio do Piauí/PI,-3.1912777,-41.6430185,138,2442.04566
D1,Bom Princípio do Piauí/PI,-3.1912777,-41.6430185,13,230.04778
1,Bom Princípio/RS,-29.489788,-51.3566782,2098,14717.64293
D1,Bom Princípio/RS,-29.489788,-51.3566782,29,203.43739
1,Bom Progresso/RS,-27.5490948,-53.8655601,186,9794.62875
D1,Bom Progresso/RS,-27.5490948,-53.8655601,3,157.97788
1,Bom Repouso/MG,-22.4657069,-46.1485376,1093,10372.97143
D1,Bom Repouso/MG,-22.4657069,-46.1485376,24,227.76881
1,Bom Retiro do Sul/RS,-29.6000007,-51.9359243,1052,8490.71832
D1,Bom Retiro do Sul/RS,-29.6000007,-51.9359243,31,250.20178
1,Bom Retiro/SC,-27.798993,-49.486994,878,8727.63419
D1,Bom Retiro/SC,-27.798993,-49.486994,20,198.80716
1,Bom Sucesso de Itararé/SP,-24.3190016,-49.1446207,238,5973.89558
D1,Bom Sucesso de Itararé/SP,-24.3190016,-49.1446207,6,150.60241
1,Bom Sucesso do Sul/PR,-26.0749256,-52.8348629,528,16226.18316
D1,Bom Sucesso do Sul/PR,-26.0749256,-52.8348629,9,276.58267
1,Bom Sucesso/MG,-21.0323516,-44.7598082,1169,6639.40478
D1,Bom Sucesso/MG,-21.0323516,-44.7598082,22,124.95030
1,Bom Sucesso/PB,-6.4458948,-37.9297662,499,10068.60371
D1,Bom Sucesso/PB,-6.4458948,-37.9297662,4,80.71025
1,Bom Sucesso/PR,-23.7088019,-51.7651297,1257,17784.38031
D1,Bom Sucesso/PR,-23.7088019,-51.7651297,19,268.81720
1,Bombinhas/SC,-27.1519159,-48.4875691,3503,17226.45685
D1,Bombinhas/SC,-27.1519159,-48.4875691,60,295.05778
1,Bonfim do Piauí/PI,-9.1648678,-42.8734415,461,8109.05893
D1,Bonfim do Piauí/PI,-9.1648678,-42.8734415,7,123.13105
1,Bonfim/MG,-20.3266626, -44.2386157,464,6763.84840
D1,Bonfim/MG,-20.3266626, -44.2386157,14,204.08163
1,Bonfim/RR,3.3613818,-59.8427241,2374,18905.78960
D1,Bonfim/RR,3.3613818,-59.8427241,26,207.05583
1,Bonfinópolis de Minas/MG,-16.5660011,-45.98645,526,9662.01323
D1,Bonfinópolis de Minas/MG,-16.5660011,-45.98645,14,257.16385
1,Bonfinópolis/GO,-16.6172709,-48.9615701,474,4778.70753
D1,Bonfinópolis/GO,-16.6172709,-48.9615701,27,272.20486
1,Boninal/BA,-12.7095183,-41.8299984,638,4416.44746
D1,Boninal/BA,-12.7095183,-41.8299984,7,48.45632
1,Bonito de Minas/MG,-15.3191266,-44.7544,101,888.38068
1,Bonito de Santa Fé/PB,-7.3143332,-38.5146677,529,4400.26618
D1,Bonito de Santa Fé/PB,-7.3143332,-38.5146677,14,116.45317
1,Bonito/BA,-11.9665473,-41.2649896,876,5188.34399
D1,Bonito/BA,-11.9665473,-41.2649896,13,76.99597
1,Bonito/MS,-21.1264766,-56.4902208,3055,13767.46282
D1,Bonito/MS,-21.1264766,-56.4902208,67,301.93781
1,Bonito/PA,-1.3605722,-47.3049907,402,2431.94192
D1,Bonito/PA,-1.3605722,-47.3049907,15,90.74410
1,Bonito/PE,-8.4721161,-35.7314591,1023,2683.84186
D1,Bonito/PE,-8.4721161,-35.7314591,41,107.56355
1,Bonópolis/GO,-13.649331,-49.8329113,207,4607.16670
D1,Bonópolis/GO,-13.649331,-49.8329113,2,44.51369
1,Boqueirão do Leão/RS,-29.30332,-52.4296817,616,7997.92262
D1,Boqueirão do Leão/RS,-29.30332,-52.4296817,32,415.47650
1,Boqueirão do Piauí/PI,-4.4850148,-42.1095161,735,11437.90850
D1,Boqueirão do Piauí/PI,-4.4850148,-42.1095161,10,155.61780
1,Boqueirão/PB,-7.487004,-36.130887,2089,11689.98321
D1,Boqueirão/PB,-7.487004,-36.130887,38,212.64689
1,Boquim/SE,-11.1450175,-37.6204228,2665,9907.43150
D1,Boquim/SE,-11.1450175,-37.6204228,65,241.64467
1,Boquira/BA,-12.8184859,-42.7270883,785,3651.67233
D1,Boquira/BA,-12.8184859,-42.7270883,16,74.42899
1,Boracéia/SP,-22.195355,-48.7801925,959,19700.08217
D1,Boracéia/SP,-22.195355,-48.7801925,22,451.93098
1,Borba/AM,-4.3934778,-59.5947721,2370,5676.91865
D1,Borba/AM,-4.3934778,-59.5947721,69,165.27738
1,Borborema/PB,-6.8066718,-35.5990191,386,7300.92680
D1,Borborema/PB,-6.8066718,-35.5990191,13,245.88614
1,Borborema/SP,-21.6212706,-49.074135,1655,10238.80228
D1,Borborema/SP,-21.6212706,-49.074135,52,321.70255
1,Borda da Mata/MG,-22.274167,-46.165278,1842,9391.25115
D1,Borda da Mata/MG,-22.274167,-46.165278,51,260.01835
1,Borebi/SP,-22.5700178,-48.9714871,276,10286.99217
D1,Borebi/SP,-22.5700178,-48.9714871,4,149.08684
1,Borrazópolis/PR,-23.9393362,-51.5850786,844,13107.62541
D1,Borrazópolis/PR,-23.9393362,-51.5850786,27,419.31977
1,Borá/SP,-22.2701088,-50.544407,127,15155.13126
D1,Borá/SP,-22.2701088,-50.544407,1,119.33174
1,Bossoroca/RS,-28.7278885,-54.9120278,461,7429.49234
D1,Bossoroca/RS,-28.7278885,-54.9120278,22,354.55278
1,Botelhos/MG,-21.65,-46.394722,1792,11987.42391
D1,Botelhos/MG,-21.65,-46.394722,28,187.30350
1,Botucatu/SP,-22.8879628,-48.4410712,17476,11797.74522
D1,Botucatu/SP,-22.8879628,-48.4410712,290,195.77398
1,Botumirim/MG,-16.862778,-43.011111,236,3753.18066
D1,Botumirim/MG,-16.862778,-43.011111,4,63.61323
1,Botuporã/BA,-13.3744752,-42.5198469,312,3080.26459
D1,Botuporã/BA,-13.3744752,-42.5198469,4,39.49057
1,Botuverá/SC,-27.200749,-49.068892,925,17380.68395
D1,Botuverá/SC,-27.200749,-49.068892,10,187.89929
1,Bozano/RS,-28.3669953,-53.7705165,264,12505.92136
D1,Bozano/RS,-28.3669953,-53.7705165,8,378.96731
1,Braga/RS,-27.617348,-53.740514,420,12684.98943
D1,Braga/RS,-27.617348,-53.740514,9,271.82120
1,Braganey/PR,-24.8179919,-53.118506,544,10107.76663
D1,Braganey/PR,-24.8179919,-53.118506,7,130.06317
1,Bragança Paulista/SP,-22.9520235,-46.5418586,19177,11245.33082
D1,Bragança Paulista/SP,-22.9520235,-46.5418586,513,300.82154
1,Bragança/PA,-1.0573967,-46.7635406,4190,3250.22883
D1,Bragança/PA,-1.0573967,-46.7635406,163,126.44088
1,Branquinha/AL,-9.2478057,-36.0152009,622,5946.46272
D1,Branquinha/AL,-9.2478057,-36.0152009,12,114.72275
1,Brasil Novo/PA,-3.3055853,-52.539198,1950,13014.75005
D1,Brasil Novo/PA,-3.3055853,-52.539198,43,286.99192
1,Brasileira/PI,-4.131182,-41.7824969,627,7511.68084
D1,Brasileira/PI,-4.131182,-41.7824969,15,179.70528
1,Brasilândia de Minas/MG,-17.0096469,-46.0087183,1417,8460.71173
D1,Brasilândia de Minas/MG,-17.0096469,-46.0087183,22,131.35897
1,Brasilândia do Sul/PR,-24.1975793,-53.527551,403,15589.94197
D1,Brasilândia do Sul/PR,-24.1975793,-53.527551,9,348.16248
1,Brasilândia do Tocantins/TO,-8.3886619,-48.4842729,246,11126.18725
D1,Brasilândia do Tocantins/TO,-8.3886619,-48.4842729,6,271.37042
1,Brasilândia/MS,-21.255575,-52.0365617,1263,10655.53025
D1,Brasilândia/MS,-21.255575,-52.0365617,24,202.48038
1,Brasiléia/AC,-11.0010413,-68.7487894,2963,11096.54708
D1,Brasiléia/AC,-11.0010413,-68.7487894,42,157.29159
1,Brasnorte/MT,-12.1227151,-58.0050109,2068,10268.12314
D1,Brasnorte/MT,-12.1227151,-58.0050109,38,188.67925
1,Brasília de Minas/MG,-16.2075114,-44.430559,1294,3993.21092
D1,Brasília de Minas/MG,-16.2075114,-44.430559,8,24.68755
1,Brasília/DF,-15.7934036,-47.8823172,447354,14642.62463
D1,Brasília/DF,-15.7934036,-47.8823172,9578,313.50353
1,Brazabrantes/GO,-16.4291635,-49.3858216,518,13828.08329
D1,Brazabrantes/GO,-16.4291635,-49.3858216,3,80.08542
1,Brazópolis/MG,-22.4742842,-45.6165577,870,6037.47398
D1,Brazópolis/MG,-22.4742842,-45.6165577,32,222.06801
1,Braço do Norte/SC,-28.2728633,-49.1622712,8551,25242.05928
D1,Braço do Norte/SC,-28.2728633,-49.1622712,108,318.80978
1,Braço do Trombudo/SC,-27.358578,-49.882145,719,19076.67816
D1,Braço do Trombudo/SC,-27.358578,-49.882145,6,159.19342
1,Braúna/SP,-21.5015319,-50.3175246,611,10642.74517
D1,Braúna/SP,-21.5015319,-50.3175246,24,418.04564
1,Braúnas/MG,-19.055556,-42.716111,241,5053.47033
D1,Braúnas/MG,-19.055556,-42.716111,10,209.68757
1,Brejetuba/ES,-20.1465817,-41.2902303,1686,13567.23264
D1,Brejetuba/ES,-20.1465817,-41.2902303,14,112.65792
1,Brejinho de Nazaré/TO,-11.0205883,-48.5722906,647,11723.13825
D1,Brejinho de Nazaré/TO,-11.0205883,-48.5722906,17,308.02682
1,Brejinho/PE,-7.3482153,-37.28538,763,10189.63675
D1,Brejinho/PE,-7.3482153,-37.28538,21,280.44872
1,Brejinho/RN,-6.1957907,-35.3583019,1497,11707.20263
D1,Brejinho/RN,-6.1957907,-35.3583019,16,125.12708
1,Brejo Alegre/SP,-21.1671191,-50.1850393,388,13430.25268
D1,Brejo Alegre/SP,-21.1671191,-50.1850393,13,449.98269
1,Brejo Grande do Araguaia/PA,-5.7011449,-48.4037308,854,11590.66232
D1,Brejo Grande do Araguaia/PA,-5.7011449,-48.4037308,4,54.28882
1,Brejo Grande/SE,-10.4287358,-36.4667918,457,5471.08823
D1,Brejo Grande/SE,-10.4287358,-36.4667918,14,167.60445
1,Brejo Santo/CE,-7.4909841,-38.9859152,8389,16831.18655
D1,Brejo Santo/CE,-7.4909841,-38.9859152,155,310.98271
1,Brejo da Madre de Deus/PE,-8.1409718,-36.3712527,2253,4398.24305
D1,Brejo da Madre de Deus/PE,-8.1409718,-36.3712527,51,99.56076
1,Brejo de Areia/MA,-4.3316785,-45.5833334,316,3505.65787
D1,Brejo de Areia/MA,-4.3316785,-45.5833334,11,122.03239
1,Brejo do Cruz/PB,-6.32926065,-37.48746163303929,1904,13402.78755
D1,Brejo do Cruz/PB,-6.32926065,-37.48746163303929,23,161.90342
1,Brejo do Piauí/PI,-8.207583,-42.8359849,154,4002.07900
D1,Brejo do Piauí/PI,-8.207583,-42.8359849,4,103.95010
1,Brejo dos Santos/PB,-6.3769367,-37.8243125,760,11757.42574
D1,Brejo dos Santos/PB,-6.3769367,-37.8243125,8,123.76238
1,Brejo/MA,-3.6804397,-42.7529313,923,2518.34875
D1,Brejo/MA,-3.6804397,-42.7529313,19,51.84033
1,Brejolândia/BA,-12.4843845,-43.9611861,146,1375.02354
D1,Brejolândia/BA,-12.4843845,-43.9611861,11,103.59766
1,Brejão/PE,-9.029146,-36.566034,476,5296.53945
D1,Brejão/PE,-9.029146,-36.566034,9,100.14465
1,Brejões/BA,-13.1033754,-39.7909837,823,5786.80917
D1,Brejões/BA,-13.1033754,-39.7909837,12,84.37632
1,Breu Branco/PA,-3.7785073,-49.5684795,866,1286.16408
D1,Breu Branco/PA,-3.7785073,-49.5684795,46,68.31818
1,Breves/PA,-1.68036,-50.479085,4067,3929.58250
D1,Breves/PA,-1.68036,-50.479085,119,114.97918
1,Britânia/GO,-15.2427599,-51.1602061,655,11298.94773
D1,Britânia/GO,-15.2427599,-51.1602061,6,103.50181
1,Brochier/RS,-29.556766,-51.5963047,567,11108.93417
D1,Brochier/RS,-29.556766,-51.5963047,5,97.96238
1,Brodowski/SP,-20.984532,-47.657217,2714,10737.03367
D1,Brodowski/SP,-20.984532,-47.657217,74,292.75626
1,Brotas de Macaúbas/BA,-12.0019007,-42.6257506,148,1461.00691
D1,Brotas de Macaúbas/BA,-12.0019007,-42.6257506,8,78.97335
1,Brotas/SP,-22.2840884,-48.1267265,1633,6628.51112
D1,Brotas/SP,-22.2840884,-48.1267265,51,207.01413
1,Brumadinho/MG,-20.143611,-44.2,3828,9413.26907
D1,Brumadinho/MG,-20.143611,-44.2,82,201.64265
1,Brumado/BA,-14.29507325,-41.659307508575985,9429,14003.11873
D1,Brumado/BA,-14.29507325,-41.659307508575985,192,285.14146
1,Brunópolis/SC,-27.310953,-50.837585,287,12119.93243
D1,Brunópolis/SC,-27.310953,-50.837585,8,337.83784
1,Brusque/SC,-27.0964628,-48.9136323,28306,20557.92402
D1,Brusque/SC,-27.0964628,-48.9136323,297,215.70351
1,Brás Pires/MG,-20.8483109,-43.2430524,274,6382.48311
D1,Brás Pires/MG,-20.8483109,-43.2430524,8,186.34987
1,Bueno Brandão/MG,-22.441976,-46.3517971,924,8406.87836
D1,Bueno Brandão/MG,-22.441976,-46.3517971,28,254.75389
1,Buenos Aires/PE,-7.7218931,-35.326587,368,2789.99242
D1,Buenos Aires/PE,-7.7218931,-35.326587,25,189.53753
1,Buenópolis/MG,-17.8756607,-44.1749365,305,2946.00599
D1,Buenópolis/MG,-17.8756607,-44.1749365,11,106.24940
1,Buerarema/BA,-14.9571177,-39.3008035,1349,7369.16858
D1,Buerarema/BA,-14.9571177,-39.3008035,44,240.35835
1,Bugre/MG,-19.4257687,-42.2556,371,9314.58699
D1,Bugre/MG,-19.4257687,-42.2556,13,326.38715
1,Bujari/AC,-9.8309656,-67.9520886,1139,10930.90211
D1,Bujari/AC,-9.8309656,-67.9520886,17,163.14779
1,Bujaru/PA,-1.5169239,-48.0410699,1437,4883.27047
D1,Bujaru/PA,-1.5169239,-48.0410699,38,129.13311
1,Buri/SP,-23.79849,-48.598924,2604,13042.82494
D1,Buri/SP,-23.79849,-48.598924,93,465.81518
1,Buritama/SP,-21.0664017,-50.1448077,2463,14252.64742
D1,Buritama/SP,-21.0664017,-50.1448077,66,381.92234
1,Buriti Alegre/GO,-18.1377879,-49.0404411,1018,10733.86757
D1,Buriti Alegre/GO,-18.1377879,-49.0404411,32,337.41038
1,Buriti Bravo/MA,-5.8391884,-43.8367876,1675,6996.95058
D1,Buriti Bravo/MA,-5.8391884,-43.8367876,20,83.54568
1,Buriti de Goiás/GO,-16.180644,-50.4287479,247,9975.76737
D1,Buriti de Goiás/GO,-16.180644,-50.4287479,9,363.48950
1,Buriti do Tocantins/TO,-5.3187439,-48.2256609,1044,9080.62973
D1,Buriti do Tocantins/TO,-5.3187439,-48.2256609,18,156.56258
1,Buriti dos Lopes/PI,-3.1776723,-41.8707444,1310,6613.82340
D1,Buriti dos Lopes/PI,-3.1776723,-41.8707444,34,171.65649
1,Buriti dos Montes/PI,-5.3136171,-41.0971256,714,8639.88383
D1,Buriti dos Montes/PI,-5.3136171,-41.0971256,8,96.80542
1,Buriti/MA,-3.9430944,-42.9244281,848,2944.64893
D1,Buriti/MA,-3.9430944,-42.9244281,8,27.77971
1,Buriticupu/MA,-4.3227472,-46.4516989,3572,4894.29045
D1,Buriticupu/MA,-4.3227472,-46.4516989,62,84.95129
1,Buritinópolis/GO,-14.4589282,-46.4293104,199,6061.52909
D1,Buritinópolis/GO,-14.4589282,-46.4293104,3,91.37984
1,Buritirama/BA,-10.7148421,-43.6362327,850,3995.11186
D1,Buritirama/BA,-10.7148421,-43.6362327,23,108.10303
1,Buritirana/MA,-5.5897455,-47.0148915,448,2896.48930
D1,Buritirana/MA,-5.5897455,-47.0148915,24,155.16907
1,Buritis/MG,-15.621389,-46.423889,1882,7524.08747
D1,Buritis/MG,-15.621389,-46.423889,38,151.92100
1,Buritis/RO,-10.2054937,-63.8281954,4858,12037.86302
D1,Buritis/RO,-10.2054937,-63.8281954,75,185.84597
1,Buritizal/SP,-20.1933264,-47.7097165,317,7022.59637
D1,Buritizal/SP,-20.1933264,-47.7097165,10,221.53301
1,Buritizeiro/MG,-17.3667765,-44.9647781,1445,5138.50859
D1,Buritizeiro/MG,-17.3667765,-44.9647781,32,113.79396
1,Butiá/RS,-30.1256795,-51.9692224,2431,11602.71096
D1,Butiá/RS,-30.1256795,-51.9692224,56,267.27759
1,Buíque/PE,-8.6239732,-37.157296,2483,4214.26026
D1,Buíque/PE,-8.6239732,-37.157296,45,76.37604
1,Bálsamo/SP,-20.7343722,-49.5807484,1733,18962.68738
D1,Bálsamo/SP,-20.7343722,-49.5807484,63,689.35332
0,CASO SEM LOCALIZAÇÃO DEFINIDA/BA,-13.415069300066518,-38.14174656569957,11013,74.04661
D0,CASO SEM LOCALIZAÇÃO DEFINIDA/BA,-13.415069300066518,-38.14174656569957,279,1.87587
0,CASO SEM LOCALIZAÇÃO DEFINIDA/CE,-3.3445126297392798,-38.624961942434304,10732,117.51980
0,CASO SEM LOCALIZAÇÃO DEFINIDA/ES,-20.30989267097039,-39.81745156645774,4519,112.45070
D0,CASO SEM LOCALIZAÇÃO DEFINIDA/ES,-20.30989267097039,-39.81745156645774,221,5.49936
0,CASO SEM LOCALIZAÇÃO DEFINIDA/GO,-16.701590966270153,-49.164524059025034,2171,30.93318
0,CASO SEM LOCALIZAÇÃO DEFINIDA/MG,-19.97049116501593,-43.8852149072783,4266,20.15231
D0,CASO SEM LOCALIZAÇÃO DEFINIDA/MG,-19.97049116501593,-43.8852149072783,340,1.60614
0,CASO SEM LOCALIZAÇÃO DEFINIDA/MT,-15.54791153961863,-56.17143998972475,2932,84.14489
D0,CASO SEM LOCALIZAÇÃO DEFINIDA/MT,-15.54791153961863,-56.17143998972475,220,6.31374
0,CASO SEM LOCALIZAÇÃO DEFINIDA/PA,-0.09317078214359542,-48.0050231510481,649,7.54400
D0,CASO SEM LOCALIZAÇÃO DEFINIDA/PA,-0.09317078214359542,-48.0050231510481,19,0.22086
0,CASO SEM LOCALIZAÇÃO DEFINIDA/PI,-2.683810218391744,-41.470898009352254,562,17.16960
D0,CASO SEM LOCALIZAÇÃO DEFINIDA/PI,-2.683810218391744,-41.470898009352254,6,0.18331
0,CASO SEM LOCALIZAÇÃO DEFINIDA/PR,-25.69415946385943,-48.10141676336737,8712,76.19409
D0,CASO SEM LOCALIZAÇÃO DEFINIDA/PR,-25.69415946385943,-48.10141676336737,381,3.33218
0,CASO SEM LOCALIZAÇÃO DEFINIDA/RR,2.813328208465927,-60.663338675861986,2641,435.98053
D0,CASO SEM LOCALIZAÇÃO DEFINIDA/RR,2.813328208465927,-60.663338675861986,15,2.47622
0,CASO SEM LOCALIZAÇÃO DEFINIDA/SP,-24.30968974555485,-46.21366504207253,975,2.12330
1,Caapiranga/AM,-3.3188884,-61.2096404,683,5141.91071
D1,Caapiranga/AM,-3.3188884,-61.2096404,22,165.62524
1,Caaporã/PB,-7.510234,-34.9154114,2098,9555.90982
D1,Caaporã/PB,-7.510234,-34.9154114,32,145.75268
1,Caarapó/MS,-22.6349267,-54.8240903,4062,13277.54715
D1,Caarapó/MS,-22.6349267,-54.8240903,55,179.77969
1,Caatiba/BA,-14.9782759,-40.4092325,939,14472.87300
D1,Caatiba/BA,-14.9782759,-40.4092325,13,200.36991
1,Cabaceiras do Paraguaçu/BA,-12.5377868,-39.1901339,716,3786.15621
D1,Cabaceiras do Paraguaçu/BA,-12.5377868,-39.1901339,5,26.43964
1,Cabaceiras/PB,-7.4899156,-36.2860501,429,7578.16640
D1,Cabaceiras/PB,-7.4899156,-36.2860501,4,70.65889
1,Cabeceira Grande/MG,-16.0297,-47.0906,444,6353.74928
D1,Cabeceira Grande/MG,-16.0297,-47.0906,6,85.86148
1,Cabeceiras do Piauí/PI,-4.4733665,-42.3098716,658,6190.02822
D1,Cabeceiras do Piauí/PI,-4.4733665,-42.3098716,14,131.70273
1,Cabeceiras/GO,-15.7995459,-46.9264991,362,4499.13000
D1,Cabeceiras/GO,-15.7995459,-46.9264991,16,198.85657
1,Cabedelo/PB,-6.97324,-34.8351609,9354,13602.45467
D1,Cabedelo/PB,-6.97324,-34.8351609,199,289.38299
1,Cabixi/RO,-13.4956065,-60.5424442,843,16249.03624
D1,Cabixi/RO,-13.4956065,-60.5424442,20,385.50501
1,Cabo Frio/RJ,-22.8804369,-42.0189227,13963,6060.90859
D1,Cabo Frio/RJ,-22.8804369,-42.0189227,736,319.47495
1,Cabo Verde/MG,-21.4743338,-46.3964995,706,5015.98579
D1,Cabo Verde/MG,-21.4743338,-46.3964995,9,63.94316
1,Cabo de Santo Agostinho/PE,-8.2838945,-35.0320984,9186,4396.39329
D1,Cabo de Santo Agostinho/PE,-8.2838945,-35.0320984,497,237.86278
1,Cabreúva/SP,-23.3075813,-47.1324417,4160,8249.22168
D1,Cabreúva/SP,-23.3075813,-47.1324417,99,196.31561
1,Cabrobó/PE,-8.5083701,-39.3106961,2375,6883.45941
D1,Cabrobó/PE,-8.5083701,-39.3106961,27,78.25406
1,Cabrália Paulista/SP,-22.4562909,-49.3385645,426,10040.06599
D1,Cabrália Paulista/SP,-22.4562909,-49.3385645,8,188.54584
1,Cacaulândia/RO,-10.3380043,-62.9007231,864,13782.10241
D1,Cacaulândia/RO,-10.3380043,-62.9007231,12,191.41809
1,Cacequi/RS,-29.8838059,-54.8273443,794,6391.37084
D1,Cacequi/RS,-29.8838059,-54.8273443,10,80.49585
1,Cachoeira Alta/GO,-18.7618269,-50.9432431,1607,12687.50987
D1,Cachoeira Alta/GO,-18.7618269,-50.9432431,23,181.58850
1,Cachoeira Dourada/GO,-18.4934204,-49.481062,649,8081.18541
D1,Cachoeira Dourada/GO,-18.4934204,-49.481062,27,336.19724
1,Cachoeira Dourada/MG,-18.517136,-49.5002062,169,6245.38064
D1,Cachoeira Dourada/MG,-18.517136,-49.5002062,2,73.90983
1,Cachoeira Grande/MA,-2.9290492,-44.0573223,325,3428.99346
D1,Cachoeira Grande/MA,-2.9290492,-44.0573223,8,84.40599
1,Cachoeira Paulista/SP,-22.666498,-45.015384,2548,7587.62395
D1,Cachoeira Paulista/SP,-22.666498,-45.015384,44,131.02647
1,Cachoeira da Prata/MG,-19.524723,-44.453056,226,6293.51156
D1,Cachoeira da Prata/MG,-19.524723,-44.453056,13,362.01615
1,Cachoeira de Goiás/GO,-16.6688414,-50.6435997,87,6482.86140
D1,Cachoeira de Goiás/GO,-16.6688414,-50.6435997,2,149.03130
1,Cachoeira de Minas/MG,-22.3554043,-45.7796324,982,8480.87054
D1,Cachoeira de Minas/MG,-22.3554043,-45.7796324,16,138.18119
1,Cachoeira de Pajeú/MG,-15.965833,-41.496666,519,5496.71680
D1,Cachoeira de Pajeú/MG,-15.965833,-41.496666,11,116.50074
1,Cachoeira do Arari/PA,-1.0143572,-48.9621089,500,2077.79255
D1,Cachoeira do Arari/PA,-1.0143572,-48.9621089,24,99.73404
1,Cachoeira do Piriá/PA,-1.7599443,-46.5446954,929,2684.27288
D1,Cachoeira do Piriá/PA,-1.7599443,-46.5446954,6,17.33653
1,Cachoeira do Sul/RS,-30.0474778,-52.8905413,10727,13102.63958
D1,Cachoeira do Sul/RS,-30.0474778,-52.8905413,193,235.74247
1,Cachoeira dos Índios/PB,-6.9259193,-38.6742159,890,8636.58418
D1,Cachoeira dos Índios/PB,-6.9259193,-38.6742159,14,135.85638
1,Cachoeira/BA,-12.5998256,-38.9665918,1673,4984.06173
D1,Cachoeira/BA,-12.5998256,-38.9665918,30,89.37349
1,Cachoeiras de Macacu/RJ,-22.4626861,-42.6534414,3207,5407.82085
D1,Cachoeiras de Macacu/RJ,-22.4626861,-42.6534414,98,165.25302
1,Cachoeirinha/PE,-8.4906364,-36.2338963,630,3073.02083
D1,Cachoeirinha/PE,-8.4906364,-36.2338963,32,156.08995
1,Cachoeirinha/RS,-29.9493353,-51.0898927,15303,11660.31698
D1,Cachoeirinha/RS,-29.9493353,-51.0898927,440,335.26364
1,Cachoeirinha/TO,-6.118647,-47.9208885,127,5560.42032
D1,Cachoeirinha/TO,-6.118647,-47.9208885,2,87.56567
1,Cachoeiro de Itapemirim/ES,-20.848084,-41.11129,27201,12916.62907
D1,Cachoeiro de Itapemirim/ES,-20.848084,-41.11129,570,270.66941
1,Cacimba de Areia/PB,-7.1288513,-37.1575194,55,1488.49797
D1,Cacimba de Areia/PB,-7.1288513,-37.1575194,4,108.25440
1,Cacimba de Dentro/PB,-6.6425101,-35.7929304,1215,7073.00035
D1,Cacimba de Dentro/PB,-6.6425101,-35.7929304,34,197.92758
1,Cacimbas/PB,-7.2125451,-37.0593398,246,3417.14127
D1,Cacimbas/PB,-7.2125451,-37.0593398,8,111.12655
1,Cacimbinhas/AL,-9.401212,-36.991082,830,7622.37120
D1,Cacimbinhas/AL,-9.401212,-36.991082,10,91.83580
1,Cacique Doble/RS,-27.7700117,-51.6616409,604,11903.82341
D1,Cacique Doble/RS,-27.7700117,-51.6616409,12,236.49980
1,Cacoal/RO,-11.4333,-61.4420502,14145,16468.16388
D1,Cacoal/RO,-11.4333,-61.4420502,294,342.28633
1,Caconde/SP,-21.527995,-46.643659,1399,7359.67173
D1,Caconde/SP,-21.527995,-46.643659,37,194.64464
1,Caculé/BA,-14.4990734,-42.2233006,2224,9548.75274
D1,Caculé/BA,-14.4990734,-42.2233006,17,72.98957
1,Caetanos/BA,-14.3387456,-40.9085971,688,4709.74808
D1,Caetanos/BA,-14.3387456,-40.9085971,10,68.45564
1,Caetanópolis/MG,-19.2947496,-44.4138386,1073,9132.69214
D1,Caetanópolis/MG,-19.2947496,-44.4138386,18,153.20453
1,Caetité/BA,-14.0691776,-42.4852428,3047,5965.03592
D1,Caetité/BA,-14.0691776,-42.4852428,40,78.30700
1,Caeté/MG,-19.897777,-43.670278,2035,4517.50394
D1,Caeté/MG,-19.897777,-43.670278,68,150.95345
1,Caetés/PE,-8.7728788,-36.6255835,1630,5639.35787
D1,Caetés/PE,-8.7728788,-36.6255835,22,76.11403
1,Cafarnaum/BA,-11.691399,-41.468823,912,4926.26803
D1,Cafarnaum/BA,-11.691399,-41.468823,22,118.83541
1,Cafeara/PR,-22.78905,-51.714195,410,13879.48544
D1,Cafeara/PR,-22.78905,-51.714195,11,372.37644
1,Cafelândia/PR,-24.6176963,-53.3218057,2525,13681.18769
D1,Cafelândia/PR,-24.6176963,-53.3218057,26,140.87560
1,Cafelândia/SP,-21.8054355,-49.6030627,790,4427.50659
D1,Cafelândia/SP,-21.8054355,-49.6030627,43,240.99086
1,Cafezal do Sul/PR,-23.900508,-53.512418,434,10825.64230
D1,Cafezal do Sul/PR,-23.900508,-53.512418,4,99.77551
1,Caiabu/SP,-22.0143038,-51.2356597,304,7250.17887
D1,Caiabu/SP,-22.0143038,-51.2356597,7,166.94491
1,Caiana/MG,-20.695555,-41.924723,154,2779.28172
D1,Caiana/MG,-20.695555,-41.924723,7,126.33099
1,Caiapônia/GO,-16.9538779,-51.8090761,1385,7248.65233
D1,Caiapônia/GO,-16.9538779,-51.8090761,38,198.87999
1,Caibaté/RS,-28.290475,-54.645407,382,7920.38151
D1,Caibaté/RS,-28.290475,-54.645407,7,145.13788
1,Caibi/SC,-27.0751925,-53.2502133,654,10668.84176
D1,Caibi/SC,-27.0751925,-53.2502133,13,212.07178
1,Caicó/RN,-6.4594544,-37.0971911,12046,17625.79928
D1,Caicó/RN,-6.4594544,-37.0971911,141,206.31228
1,Caieiras/SP,-23.3644621,-46.7484765,8786,8548.77159
D1,Caieiras/SP,-23.3644621,-46.7484765,306,297.73778
1,Cairu/BA,-13.4860505,-39.0455744,1490,8085.96082
D1,Cairu/BA,-13.4860505,-39.0455744,16,86.82911
1,Caiuá/SP,-21.8319357,-51.9887179,383,6441.30508
D1,Caiuá/SP,-21.8319357,-51.9887179,8,134.54423
1,Caiçara do Norte/RN,-5.0645017,-36.0561226,527,8032.31215
D1,Caiçara do Norte/RN,-5.0645017,-36.0561226,12,182.89895
1,Caiçara do Rio do Vento/RN,-5.757968,-36.00089,366,9851.95155
D1,Caiçara do Rio do Vento/RN,-5.757968,-36.00089,8,215.34320
1,Caiçara/PB,-6.6146866,-35.4681434,808,11236.26756
D1,Caiçara/PB,-6.6146866,-35.4681434,14,194.68780
1,Caiçara/RS,-27.2750478,-53.4310053,641,13638.29787
D1,Caiçara/RS,-27.2750478,-53.4310053,9,191.48936
1,Cajamar/SP,-23.3561111,-46.8769444,4928,6323.29920
D1,Cajamar/SP,-23.3561111,-46.8769444,229,293.83838
1,Cajapió/MA,-2.8778715,-44.6746871,165,1471.11270
D1,Cajapió/MA,-2.8778715,-44.6746871,7,62.41084
1,Cajari/MA,-3.3213076,-45.0118757,253,1300.70433
D1,Cajari/MA,-3.3213076,-45.0118757,9,46.27011
1,Cajati/SP,-24.7272376,-48.1077914,4076,14304.76592
D1,Cajati/SP,-24.7272376,-48.1077914,102,357.97010
1,Cajazeiras do Piauí/PI,-6.794271,-42.3935024,75,2099.07641
D1,Cajazeiras do Piauí/PI,-6.794271,-42.3935024,1,27.98769
1,Cajazeiras/PB,-6.8897849,-38.5570389,9616,15437.71774
D1,Cajazeiras/PB,-6.8897849,-38.5570389,146,234.39131
1,Cajazeirinhas/PB,-6.961442,-37.7993733,207,6458.65835
D1,Cajazeirinhas/PB,-6.961442,-37.7993733,1,31.20125
1,Cajobi/SP,-20.8776238,-48.8106972,1047,9881.08720
D1,Cajobi/SP,-20.8776238,-48.8106972,31,292.56323
1,Cajueiro da Praia/PI,-2.931114,-41.340801,481,6267.91764
D1,Cajueiro da Praia/PI,-2.931114,-41.340801,20,260.62028
1,Cajueiro/AL,-9.399589,-36.1524309,630,2953.44803
D1,Cajueiro/AL,-9.399589,-36.1524309,30,140.64038
1,Cajuri/MG,-20.7901414,-42.7954489,417,10493.20584
D1,Cajuri/MG,-20.7901414,-42.7954489,4,100.65425
1,Cajuru/SP,-21.2759978,-47.3046035,1888,7153.41189
D1,Cajuru/SP,-21.2759978,-47.3046035,57,215.96635
1,Caldas Brandão/PB,-7.1027959,-35.3254676,594,9824.67747
D1,Caldas Brandão/PB,-7.1027959,-35.3254676,10,165.39861
1,Caldas Novas/GO,-17.745,-48.625,9930,10654.96373
D1,Caldas Novas/GO,-17.745,-48.625,230,246.79171
1,Caldas/MG,-21.923611,-46.386111,1004,6904.61454
D1,Caldas/MG,-21.923611,-46.386111,35,240.69871
1,Caldazinha/GO,-16.7116649,-49.0012601,342,8887.73389
D1,Caldazinha/GO,-16.7116649,-49.0012601,10,259.87526
1,Caldeirão Grande do Piauí/PI,-7.3310393,-40.6374433,408,7057.60249
D1,Caldeirão Grande do Piauí/PI,-7.3310393,-40.6374433,2,34.59609
1,Caldeirão Grande/BA,-11.0208483,-40.3041387,567,4234.18714
D1,Caldeirão Grande/BA,-11.0208483,-40.3041387,6,44.80621
1,Califórnia/PR,-23.6672543,-51.3554556,1273,14792.00558
D1,Califórnia/PR,-23.6672543,-51.3554556,37,429.93261
1,Calmon/SC,-26.6023644,-51.0992893,47,1409.29535
D1,Calmon/SC,-26.6023644,-51.0992893,6,179.91004
1,Calumbi/PE,-7.9389746,-38.1516871,747,12998.08596
D1,Calumbi/PE,-7.9389746,-38.1516871,5,87.00191
1,Calçado/PE,-8.7413446,-36.3351787,540,4901.07097
D1,Calçado/PE,-8.7413446,-36.3351787,6,54.45634
1,Calçoene/AP,2.4981757,-50.9539503,1678,14841.67699
D1,Calçoene/AP,2.4981757,-50.9539503,10,88.44861
1,Camacan/BA,-15.4166631,-39.4930088,2961,9251.39036
D1,Camacan/BA,-15.4166631,-39.4930088,82,256.20196
1,Camacho/MG,-20.625556,-45.156667,133,4635.76159
D1,Camacho/MG,-20.625556,-45.156667,2,69.71070
1,Camalaú/PB,-7.885031,-36.824191,449,7444.86818
D1,Camalaú/PB,-7.885031,-36.824191,7,116.06699
1,Camamu/BA,-13.9438142,-39.1060917,2458,6947.03522
D1,Camamu/BA,-13.9438142,-39.1060917,57,161.09886
1,Camanducaia/MG,-22.755278,-46.144444,3234,14834.18192
D1,Camanducaia/MG,-22.755278,-46.144444,67,307.32535
1,Camapuã/MS,-19.5291747,-54.0434641,903,6594.61038
D1,Camapuã/MS,-19.5291747,-54.0434641,30,219.09005
1,Camaquã/RS,-30.8524752,-51.8075619,7181,10802.06986
D1,Camaquã/RS,-30.8524752,-51.8075619,147,221.12579
1,Camaragibe/PE,-8.0213832,-34.9810768,7338,4618.02780
D1,Camaragibe/PE,-8.0213832,-34.9810768,418,263.06018
1,Camargo/RS,-28.5865661,-52.2031474,443,16156.09044
D1,Camargo/RS,-28.5865661,-52.2031474,6,218.81838
1,Camaçari/BA,-12.6998188,-38.3260762,24373,8009.47743
D1,Camaçari/BA,-12.6998188,-38.3260762,611,200.78738
1,Cambará do Sul/RS,-29.0489517,-50.145412,337,5260.69310
D1,Cambará do Sul/RS,-29.0489517,-50.145412,10,156.10365
1,Cambará/PR,-23.042273,-50.075281,2975,11682.24299
D1,Cambará/PR,-23.042273,-50.075281,59,231.68146
1,Cambira/PR,-23.600265,-51.581045,1066,13464.69622
D1,Cambira/PR,-23.600265,-51.581045,26,328.40722
1,Camboriú/SC,-27.0273601,-48.6535657,12898,15155.39628
D1,Camboriú/SC,-27.0273601,-48.6535657,162,190.35309
1,Cambuci/RJ,-21.5749919,-41.9107833,1025,6606.93567
D1,Cambuci/RJ,-21.5749919,-41.9107833,36,232.04847
1,Cambuquira/MG,-21.853056,-45.2953619,832,6493.91196
D1,Cambuquira/MG,-21.853056,-45.2953619,25,195.12957
1,Cambuí/MG,-22.6122501,-46.0572137,3894,13060.97806
D1,Cambuí/MG,-22.6122501,-46.0572137,59,197.89361
1,Cambé/PR,-23.2782035,-51.2779583,11602,10808.54473
D1,Cambé/PR,-23.2782035,-51.2779583,259,241.28711
1,Cametá/PA,-2.242949,-49.497885,9250,6637.29514
D1,Cametá/PA,-2.242949,-49.497885,251,180.10390
1,Camocim de São Félix/PE,-8.3616757,-35.7638903,574,3037.03704
D1,Camocim de São Félix/PE,-8.3616757,-35.7638903,19,100.52910
1,Camocim/CE,-2.9009918,-40.8427389,6235,9756.36472
D1,Camocim/CE,-2.9009918,-40.8427389,163,255.05813
1,Campanha/MG,-21.8361108,-45.401986,2020,12051.06789
D1,Campanha/MG,-21.8361108,-45.401986,38,226.70326
1,Campanário/MG,-18.2398144,-41.7271768,244,6541.55496
D1,Campanário/MG,-18.2398144,-41.7271768,6,160.85791
1,Campestre da Serra/RS,-28.7966535,-51.0958149,270,7952.87187
D1,Campestre da Serra/RS,-28.7966535,-51.0958149,2,58.91016
1,Campestre de Goiás/GO,-16.7624179,-49.69497,531,14551.93204
