type,name,lat,lon,total,total_per_100k_inhabitants
1,Abadia de Goiás/GO,-16.7572644,-49.4412205,1315,14679.61599
D1,Abadia de Goiás/GO,-16.7572644,-49.4412205,26,290.24336
1,Abadia dos Dourados/MG,-18.4911191,-47.4063589,361,5152.72623
D1,Abadia dos Dourados/MG,-18.4911191,-47.4063589,13,185.55524
1,Abadiânia/GO,-16.1940946,-48.7067767,331,1617.71174
D1,Abadiânia/GO,-16.1940946,-48.7067767,27,131.95836
1,Abaetetuba/PA,-1.721828,-48.878843,7189,4519.10988
D1,Abaetetuba/PA,-1.721828,-48.878843,190,119.43676
1,Abaeté/MG,-19.1566833,-45.4481213,977,4202.15054
D1,Abaeté/MG,-19.1566833,-45.4481213,23,98.92473
1,Abaiara/CE,-7.3607808,-39.0487878,447,3771.19717
D1,Abaiara/CE,-7.3607808,-39.0487878,9,75.93014
1,Abaré/BA,-8.7239913,-39.1139689,766,3764.68275
D1,Abaré/BA,-8.7239913,-39.1139689,8,39.31784
1,Abatiá/PR,-23.3052967,-50.3102532,691,9327.75378
D1,Abatiá/PR,-23.3052967,-50.3102532,10,134.98920
1,Abaíra/BA,-13.2503296,-41.6640342,251,2881.74512
D1,Abaíra/BA,-13.2503296,-41.6640342,10,114.81056
1,Abdon Batista/SC,-27.612419,-51.022992,327,12833.59498
D1,Abdon Batista/SC,-27.612419,-51.022992,2,78.49294
1,Abel Figueiredo/PA,-4.953001,-48.3958485,866,11568.26075
D1,Abel Figueiredo/PA,-4.953001,-48.3958485,9,120.22442
1,Abelardo Luz/SC,-26.5705893,-52.3280339,1295,7210.46771
D1,Abelardo Luz/SC,-26.5705893,-52.3280339,41,228.28508
1,Abre Campo/MG,-20.2976097,-42.4764741,884,6575.42398
D1,Abre Campo/MG,-20.2976097,-42.4764741,14,104.13567
1,Abreu e Lima/PE,-7.900719,-34.898389,2496,2487.39362
D1,Abreu e Lima/PE,-7.900719,-34.898389,189,188.34831
1,Abreulândia/TO,-9.6221526,-49.1558343,257,9907.47880
D1,Abreulândia/TO,-9.6221526,-49.1558343,6,231.30301
1,Acaiaca/MG,-20.3621646,-43.1444162,217,5433.14972
D1,Acaiaca/MG,-20.3621646,-43.1444162,10,250.37556
1,Acajutiba/BA,-11.6609659,-38.0186381,478,3147.42872
D1,Acajutiba/BA,-11.6609659,-38.0186381,14,92.18410
1,Acarape/CE,-4.2237866,-38.7071663,2600,17291.83293
D1,Acarape/CE,-4.2237866,-38.7071663,23,152.96621
1,Acaraú/CE,-2.8869514,-40.1194713,4424,7010.64909
D1,Acaraú/CE,-2.8869514,-40.1194713,93,147.37576
1,Acari/RN,-6.4364689,-36.6394777,819,7364.44564
D1,Acari/RN,-6.4364689,-36.6394777,13,116.89596
1,Acará/PA,-1.961388,-48.1987043,1181,2121.46796
D1,Acará/PA,-1.961388,-48.1987043,26,46.70463
1,Acauã/PI,-8.219542,-41.083059,175,2464.09462
D1,Acauã/PI,-8.219542,-41.083059,1,14.08054
1,Aceguá/RS,-31.8695131,-54.1615593,294,5949.00850
D1,Aceguá/RS,-31.8695131,-54.1615593,4,80.93889
1,Acopiara/CE,-6.0936464,-39.4543204,2820,5176.11644
D1,Acopiara/CE,-6.0936464,-39.4543204,112,205.57626
1,Acorizal/MT,-15.2001544,-56.3668953,458,8586.42670
D1,Acorizal/MT,-15.2001544,-56.3668953,18,337.45782
1,Acrelândia/AC,-10.0759167,-67.0526898,1527,9857.97289
D1,Acrelândia/AC,-10.0759167,-67.0526898,29,187.21756
1,Acreúna/GO,-17.3959899,-50.3749031,1700,7540.14016
D1,Acreúna/GO,-17.3959899,-50.3749031,41,181.85044
1,Adamantina/SP,-21.6866517,-51.0762975,2478,7057.61727
D1,Adamantina/SP,-21.6866517,-51.0762975,72,205.06394
1,Adelândia/GO,-16.4155077,-50.1665834,148,5882.35294
D1,Adelândia/GO,-16.4155077,-50.1665834,4,158.98251
1,Adolfo/SP,-21.2356597,-49.6441918,407,11451.88520
D1,Adolfo/SP,-21.2356597,-49.6441918,9,253.23579
1,Adrianópolis/PR,-24.6557863,-48.9912769,1091,18627.28359
D1,Adrianópolis/PR,-24.6557863,-48.9912769,21,358.54533
1,Adustina/BA,-10.5358875,-38.114479,656,3830.43326
D1,Adustina/BA,-10.5358875,-38.114479,11,64.22983
1,Afogados da Ingazeira/PE,-7.750429,-37.6356375,3827,10231.52604
D1,Afogados da Ingazeira/PE,-7.750429,-37.6356375,56,149.71661
1,Afonso Bezerra/RN,-5.4745,-36.57625071327935,541,4905.24980
D1,Afonso Bezerra/RN,-5.4745,-36.57625071327935,13,117.87107
1,Afonso Cláudio/ES,-20.077841,-41.12606,3132,10284.02561
D1,Afonso Cláudio/ES,-20.077841,-41.12606,55,180.59432
1,Afonso Cunha/MA,-4.1326105,-43.3230026,158,2401.94588
D1,Afonso Cunha/MA,-4.1326105,-43.3230026,2,30.40438
1,Afrânio/PE,-8.5198919,-41.0070197,745,3760.72691
D1,Afrânio/PE,-8.5198919,-41.0070197,13,65.62342
1,Afuá/PA,-0.1535664,-50.3879223,2883,7286.37501
D1,Afuá/PA,-0.1535664,-50.3879223,14,35.38302
1,Agrestina/PE,-8.4558021,-35.9442663,1288,5138.63954
D1,Agrestina/PE,-8.4558021,-35.9442663,47,187.51247
1,Agricolândia/PI,-5.7967843,-42.6605131,389,7581.36815
D1,Agricolândia/PI,-5.7967843,-42.6605131,3,58.46813
1,Agrolândia/SC,-27.4122212,-49.8295774,1094,9933.71470
D1,Agrolândia/SC,-27.4122212,-49.8295774,15,136.20267
1,Agronômica/SC,-27.2660744,-49.7104753,516,9366.49120
D1,Agronômica/SC,-27.2660744,-49.7104753,9,163.36903
1,Aguanil/MG,-20.9424533,-45.3927152,438,9685.97966
D1,Aguanil/MG,-20.9424533,-45.3927152,8,176.91287
1,Aguaí/SP,-22.0592036,-46.979384,2106,5746.56189
D1,Aguaí/SP,-22.0592036,-46.979384,58,158.26239
1,Agudo/RS,-29.6423259,-53.2494005,1192,7267.84952
D1,Agudo/RS,-29.6423259,-53.2494005,20,121.94378
1,Agudos do Sul/PR,-25.9890808,-49.3328175,479,5058.07814
D1,Agudos do Sul/PR,-25.9890808,-49.3328175,17,179.51426
1,Agudos/SP,-22.471162,-48.987822,2887,7719.04495
D1,Agudos/SP,-22.471162,-48.987822,63,168.44469
1,Aguiar/PB,-7.0928404,-38.1727215,290,5150.97691
D1,Aguiar/PB,-7.0928404,-38.1727215,3,53.28597
1,Aguiarnópolis/TO,-6.5600452,-47.4721189,532,7719.09460
D1,Aguiarnópolis/TO,-6.5600452,-47.4721189,12,174.11492
1,Aimorés/MG,-19.4917754,-41.0615603,1748,6952.78629
D1,Aimorés/MG,-19.4917754,-41.0615603,51,202.85589
1,Aiquara/BA,-14.126918,-39.8887574,442,10009.05797
D1,Aiquara/BA,-14.126918,-39.8887574,11,249.09420
1,Aiuaba/CE,-6.5710836,-40.1212278,421,2406.67696
D1,Aiuaba/CE,-6.5710836,-40.1212278,9,51.44915
1,Aiuruoca/MG,-21.9759554,-44.6036637,79,1321.95448
D1,Aiuruoca/MG,-21.9759554,-44.6036637,6,100.40161
1,Ajuricaba/RS,-28.239654,-53.7693013,803,11492.77229
D1,Ajuricaba/RS,-28.239654,-53.7693013,23,329.18277
1,Alagoa Grande/PB,-7.0415212,-35.6285322,2831,9954.63976
D1,Alagoa Grande/PB,-7.0415212,-35.6285322,52,182.84750
1,Alagoa Nova/PB,-7.0653703,-35.76695977336711,756,3613.59400
D1,Alagoa Nova/PB,-7.0653703,-35.76695977336711,16,76.47818
1,Alagoa/MG,-22.1697202,-44.6400042,395,14821.76360
D1,Alagoa/MG,-22.1697202,-44.6400042,4,150.09381
1,Alagoinha do Piauí/PI,-7.0090952,-40.939675,282,3679.06067
D1,Alagoinha do Piauí/PI,-7.0090952,-40.939675,10,130.46314
1,Alagoinha/PB,-6.97063215,-35.51490901897793,1518,10425.82418
D1,Alagoinha/PB,-6.97063215,-35.51490901897793,23,157.96703
1,Alagoinha/PE,-8.50355635,-36.77701174370496,600,4076.64085
D1,Alagoinha/PE,-8.50355635,-36.77701174370496,18,122.29923
1,Alagoinhas/BA,-12.133526,-38.420772,11017,7232.46700
D1,Alagoinhas/BA,-12.133526,-38.420772,219,143.76965
1,Alambari/SP,-23.550338,-47.897971,466,7603.19791
D1,Alambari/SP,-23.550338,-47.897971,9,146.84288
1,Albertina/MG,-20.66164,-43.784039,193,6409.83062
D1,Albertina/MG,-20.66164,-43.784039,7,232.48090
1,Alcantil/PB,-7.7425491,-36.0609604,323,5863.13306
D1,Alcantil/PB,-7.7425491,-36.0609604,6,108.91269
1,Alcinópolis/MS,-18.3264121,-53.7094463,182,3359.79324
D1,Alcinópolis/MS,-18.3264121,-53.7094463,6,110.76241
1,Alcobaça/BA,-17.5215875,-39.1965474,1264,5620.27568
D1,Alcobaça/BA,-17.5215875,-39.1965474,21,93.37483
1,Alcântara/MA,-2.4038956,-44.4154241,263,1189.39942
D1,Alcântara/MA,-2.4038956,-44.4154241,14,63.31404
1,Alcântaras/CE,-3.586247,-40.5457641,1301,11043.20516
D1,Alcântaras/CE,-3.586247,-40.5457641,17,144.30014
1,Aldeias Altas/MA,-4.6291957,-43.4708622,975,3643.90627
D1,Aldeias Altas/MA,-4.6291957,-43.4708622,13,48.58542
1,Alecrim/RS,-27.6566142,-54.7653195,240,4118.75751
D1,Alecrim/RS,-27.6566142,-54.7653195,10,171.61490
1,Alegre/ES,-20.7625787,-41.5318886,1948,6498.74896
D1,Alegre/ES,-20.7625787,-41.5318886,46,153.46122
1,Alegrete do Piauí/PI,-7.2440138,-40.8602296,473,9617.73078
D1,Alegrete do Piauí/PI,-7.2440138,-40.8602296,5,101.66734
1,Alegrete/RS,-29.790166,-55.794862,7630,10448.04732
D1,Alegrete/RS,-29.790166,-55.794862,213,291.66895
1,Alegria/RS,-27.8332103,-54.0574959,311,9217.54594
D1,Alegria/RS,-27.8332103,-54.0574959,2,59.27682
1,Alenquer/PA,-1.946229,-54.738355,2722,4767.74329
D1,Alenquer/PA,-1.946229,-54.738355,103,180.41057
1,Alexandria/RN,-6.414779,-38.0135516,1092,8057.25670
D1,Alexandria/RN,-6.414779,-38.0135516,15,110.67660
1,Alexânia/GO,-16.0834049,-48.5077803,2741,9785.79079
D1,Alexânia/GO,-16.0834049,-48.5077803,68,242.77044
1,Alfenas/MG,-21.4297405,-45.9479419,6331,7865.18250
D1,Alfenas/MG,-21.4297405,-45.9479419,147,182.62231
1,Alfredo Chaves/ES,-20.624970400000002,-40.75006690147988,2109,14409.67477
D1,Alfredo Chaves/ES,-20.624970400000002,-40.75006690147988,30,204.97404
1,Alfredo Marcondes/SP,-21.9527,-51.413956,210,5019.12046
D1,Alfredo Marcondes/SP,-21.9527,-51.413956,9,215.10516
1,Alfredo Vasconcelos/MG,-21.145833,-43.776389,309,4426.29996
D1,Alfredo Vasconcelos/MG,-21.145833,-43.776389,10,143.24595
1,Alfredo Wagner/SC,-27.6961513,-49.3326734,638,6325.59984
D1,Alfredo Wagner/SC,-27.6961513,-49.3326734,7,69.40313
1,Algodão de Jandaíra/PB,-6.9040175,-36.0089879,113,4384.94373
1,Alhandra/PB,-7.4304246,-34.9106103,1662,8425.00127
D1,Alhandra/PB,-7.4304246,-34.9106103,29,147.00664
1,Aliança do Tocantins/TO,-11.3055927,-48.9409096,554,10362.88814
D1,Aliança do Tocantins/TO,-11.3055927,-48.9409096,20,374.11149
1,Aliança/PE,-7.60398,-35.222696,554,1442.82105
D1,Aliança/PE,-7.60398,-35.222696,45,117.19666
1,Almadina/BA,-14.70466,-39.6381994,587,10939.24711
D1,Almadina/BA,-14.70466,-39.6381994,9,167.72270
1,Almas/TO,-11.5681309,-47.1702803,194,2779.76788
D1,Almas/TO,-11.5681309,-47.1702803,4,57.31480
1,Almeirim/PA,-1.5290377,-52.5788111,3305,9698.90832
D1,Almeirim/PA,-1.5290377,-52.5788111,34,99.77697
1,Almenara/MG,-16.1740678,-40.6904907,3476,8248.10763
D1,Almenara/MG,-16.1740678,-40.6904907,41,97.28781
1,Almino Afonso/RN,-6.1544208,-37.7649018,369,7834.39490
D1,Almino Afonso/RN,-6.1544208,-37.7649018,10,212.31423
1,Almirante Tamandaré do Sul/RS,-28.1141129,-52.9134874,208,10672.13956
D1,Almirante Tamandaré do Sul/RS,-28.1141129,-52.9134874,2,102.61673
1,Almirante Tamandaré/PR,-25.3133048,-49.2997838,7973,6641.89735
D1,Almirante Tamandaré/PR,-25.3133048,-49.2997838,298,248.24852
1,Aloândia/GO,-17.7277983,-49.4809338,218,10976.83787
D1,Aloândia/GO,-17.7277983,-49.4809338,6,302.11480
1,Alpercata/MG,-18.9803616,-41.9827637,447,6011.29640
D1,Alpercata/MG,-18.9803616,-41.9827637,15,201.72136
1,Alpestre/RS,-27.2512339,-53.0349646,278,4582.16582
D1,Alpestre/RS,-27.2512339,-53.0349646,7,115.37828
1,Alpinópolis/MG,-20.863611,-46.387777,847,4243.91222
D1,Alpinópolis/MG,-20.863611,-46.387777,19,95.19992
1,Alta Floresta D'Oeste/RO,-11.9296917,-61.9961284,3545,15597.50088
D1,Alta Floresta D'Oeste/RO,-11.9296917,-61.9961284,55,241.99226
1,Alta Floresta/MT,-9.8715018,-56.0839881,7251,13955.23393
D1,Alta Floresta/MT,-9.8715018,-56.0839881,107,205.93160
1,Altair/SP,-20.5238955,-49.0606135,142,3392.25991
D1,Altair/SP,-20.5238955,-49.0606135,10,238.89154
1,Altamira do Maranhão/MA,-4.1643006,-45.4674574,296,3614.60496
D1,Altamira do Maranhão/MA,-4.1643006,-45.4674574,8,97.69203
1,Altamira do Paraná/PR,-24.799114,-52.7128633,154,9155.76694
D1,Altamira do Paraná/PR,-24.799114,-52.7128633,4,237.81213
1,Altamira/PA,-3.204065,-52.209961,12300,10606.28271
D1,Altamira/PA,-3.204065,-52.209961,269,231.95854
1,Altaneira/CE,-6.9980933,-39.7385742,397,5189.54248
D1,Altaneira/CE,-6.9980933,-39.7385742,11,143.79085
1,Alterosa/MG,-21.249166,-46.143055,549,3781.77309
D1,Alterosa/MG,-21.249166,-46.143055,29,199.76579
1,Altinho/PE,-8.4904095,-36.0607494,893,3885.31152
D1,Altinho/PE,-8.4904095,-36.0607494,19,82.66620
1,Altinópolis/SP,-21.021364,-47.3712,713,4400.41968
D1,Altinópolis/SP,-21.021364,-47.3712,25,154.29241
1,Alto Alegre do Maranhão/MA,-4.2055693,-44.4525287,988,3546.55754
D1,Alto Alegre do Maranhão/MA,-4.2055693,-44.4525287,22,78.97193
1,Alto Alegre do Pindaré/MA,-3.6698186,-45.8462153,1772,5547.38127
D1,Alto Alegre do Pindaré/MA,-3.6698186,-45.8462153,42,131.48421
1,Alto Alegre dos Parecis/RO,-12.1314515,-61.856265,1341,10116.93700
D1,Alto Alegre dos Parecis/RO,-12.1314515,-61.856265,34,256.50698
1,Alto Alegre/RR,2.98858,-61.307167,1234,8023.40702
D1,Alto Alegre/RR,2.98858,-61.307167,28,182.05462
1,Alto Alegre/RS,-31.780844700000003,-52.81311114489171,160,9919.40484
D1,Alto Alegre/RS,-31.780844700000003,-52.81311114489171,1,61.99628
1,Alto Alegre/SP,-21.5820592,-50.1661976,266,6506.84932
D1,Alto Alegre/SP,-21.5820592,-50.1661976,12,293.54207
1,Alto Araguaia/MT,-17.3156528,-53.2169365,1031,5318.54527
D1,Alto Araguaia/MT,-17.3156528,-53.2169365,22,113.48981
1,Alto Bela Vista/SC,-27.4320737,-51.905771,151,7840.08307
D1,Alto Bela Vista/SC,-27.4320737,-51.905771,2,103.84216
1,Alto Boa Vista/MT,-11.6723985,-51.3744431,630,9083.04498
D1,Alto Boa Vista/MT,-11.6723985,-51.3744431,11,158.59285
1,Alto Caparaó/MG,-20.4405661,-41.8683799,351,5955.20869
D1,Alto Caparaó/MG,-20.4405661,-41.8683799,8,135.73125
1,Alto Feliz/RS,-29.3785943,-51.3123751,211,6949.93412
D1,Alto Feliz/RS,-29.3785943,-51.3123751,2,65.87615
1,Alto Garças/MT,-16.9469683,-53.529427,654,5382.27306
D1,Alto Garças/MT,-16.9469683,-53.529427,25,205.74438
1,Alto Horizonte/GO,-14.1954948,-49.3366993,679,10280.09084
D1,Alto Horizonte/GO,-14.1954948,-49.3366993,7,105.98032
1,Alto Jequitibá/MG,-20.423611,-41.966111,598,7203.95133
D1,Alto Jequitibá/MG,-20.423611,-41.966111,9,108.42067
1,Alto Longá/PI,-5.2549051,-42.2072388,570,3975.17261
D1,Alto Longá/PI,-5.2549051,-42.2072388,13,90.66183
1,Alto Paraguai/MT,-14.513712,-56.4936374,753,6563.23542
D1,Alto Paraguai/MT,-14.513712,-56.4936374,25,217.90290
1,Alto Paraná/PR,-23.131247,-52.318893,752,5060.90585
D1,Alto Paraná/PR,-23.131247,-52.318893,18,121.13870
1,Alto Paraíso de Goiás/GO,-14.1304779,-47.5100161,562,7310.09365
D1,Alto Paraíso de Goiás/GO,-14.1304779,-47.5100161,7,91.05099
1,Alto Paraíso/PR,-23.508137,-53.728537,158,5884.54376
D1,Alto Paraíso/PR,-23.508137,-53.728537,2,74.48790
1,Alto Paraíso/RO,-9.7240103,-63.3188123,1644,7525.06065
D1,Alto Paraíso/RO,-9.7240103,-63.3188123,37,169.35964
1,Alto Parnaíba/MA,-9.112506,-45.9310154,692,6171.95862
D1,Alto Parnaíba/MA,-9.112506,-45.9310154,5,44.59508
1,Alto Piquiri/PR,-24.0239021,-53.4417448,580,5931.68337
D1,Alto Piquiri/PR,-24.0239021,-53.4417448,15,153.40560
1,Alto Rio Doce/MG,-21.0239537,-43.4133507,307,2827.14799
D1,Alto Rio Doce/MG,-21.0239537,-43.4133507,23,211.80588
1,Alto Rio Novo/ES,-19.0577208,-41.0171518,657,8343.91669
D1,Alto Rio Novo/ES,-19.0577208,-41.0171518,21,266.70053
1,Alto Santo/CE,-5.5190371,-38.2719351,1045,6076.99465
D1,Alto Santo/CE,-5.5190371,-38.2719351,20,116.30612
1,Alto Taquari/MT,-17.8269099,-53.2831736,1337,12009.34160
D1,Alto Taquari/MT,-17.8269099,-53.2831736,26,233.53993
1,Alto do Rodrigues/RN,-5.290868,-36.7616726,1546,10497.01249
D1,Alto do Rodrigues/RN,-5.290868,-36.7616726,29,196.90386
1,Altos/PI,-5.0393915,-42.4611694,3897,9597.34023
D1,Altos/PI,-5.0393915,-42.4611694,78,192.09457
1,Altônia/PR,-23.8722004,-53.894037,871,3927.66955
D1,Altônia/PR,-23.8722004,-53.894037,16,72.15007
1,Alumínio/SP,-23.5203479,-47.2575256,1169,6229.01902
D1,Alumínio/SP,-23.5203479,-47.2575256,37,197.15458
1,Alvarenga/MG,-19.4175,-41.728334,374,9729.44849
D1,Alvarenga/MG,-19.4175,-41.728334,4,104.05827
1,Alvarães/AM,-3.214786,-64.8143124,2731,16837.23798
D1,Alvarães/AM,-3.214786,-64.8143124,43,265.10481
1,Alvinlândia/SP,-22.4431852,-49.7643596,120,3707.13624
D1,Alvinlândia/SP,-22.4431852,-49.7643596,7,216.24961
1,Alvinópolis/MG,-20.1105199,-43.0601805,546,3599.44624
D1,Alvinópolis/MG,-20.1105199,-43.0601805,17,112.07067
1,Alvorada D'Oeste/RO,-11.346271,-62.284697,885,6273.92599
D1,Alvorada D'Oeste/RO,-11.346271,-62.284697,24,170.14037
1,Alvorada de Minas/MG,-18.7318587,-43.3641479,238,6601.94175
D1,Alvorada de Minas/MG,-18.7318587,-43.3641479,1,27.73925
1,Alvorada do Gurguéia/PI,-8.4465288,-43.8655915,284,5215.79431
D1,Alvorada do Gurguéia/PI,-8.4465288,-43.8655915,9,165.28926
1,Alvorada do Norte/GO,-14.483911,-46.4959897,614,7053.41758
D1,Alvorada do Norte/GO,-14.483911,-46.4959897,2,22.97530
1,Alvorada do Sul/PR,-22.7807269,-51.2307721,638,5546.37921
D1,Alvorada do Sul/PR,-22.7807269,-51.2307721,21,182.56107
1,Alvorada/RS,-29.9981184,-51.0772509,18384,8698.28532
D1,Alvorada/RS,-29.9981184,-51.0772509,658,311.32897
1,Alvorada/TO,-12.478465,-49.124926,1025,12208.19438
D1,Alvorada/TO,-12.478465,-49.124926,17,202.47737
1,Além Paraíba/MG,-21.8760576,-42.6810473,2703,7635.37753
D1,Além Paraíba/MG,-21.8760576,-42.6810473,130,367.22126
1,Amajari/RR,3.6523869,-61.4194315,888,6734.92605
D1,Amajari/RR,3.6523869,-61.4194315,19,144.10315
1,Amambai/MS,-23.1082701,-55.2284854,2191,5501.43123
D1,Amambai/MS,-23.1082701,-55.2284854,40,100.43690
1,Amaporã/PR,-23.094272,-52.786597,254,4011.37081
D1,Amaporã/PR,-23.094272,-52.786597,5,78.96399
1,Amapá do Maranhão/MA,-1.6762114,-46.0109669,153,2184.15418
D1,Amapá do Maranhão/MA,-1.6762114,-46.0109669,3,42.82655
1,Amapá/AP,2.0529997,-50.7930003,1251,13617.06760
D1,Amapá/AP,2.0529997,-50.7930003,10,108.84946
1,Amaraji/PE,-8.373925,-35.4536527,444,1941.40796
D1,Amaraji/PE,-8.373925,-35.4536527,28,122.43113
1,Amaral Ferrador/RS,-30.8750633,-52.2542051,199,2808.75088
D1,Amaral Ferrador/RS,-30.8750633,-52.2542051,4,56.45730
1,Amaralina/GO,-13.9236199,-49.2962411,51,1326.39792
1,Amarante do Maranhão/MA,-5.56913,-46.747284,1526,3656.92923
D1,Amarante do Maranhão/MA,-5.56913,-46.747284,54,129.40641
1,Amarante/PI,-6.2459374,-42.8476238,1339,7606.22586
D1,Amarante/PI,-6.2459374,-42.8476238,30,170.41581
1,Amargosa/BA,-13.03793715,-39.60796443875596,2313,6177.71961
D1,Amargosa/BA,-13.03793715,-39.60796443875596,46,122.85997
1,Amaturá/AM,-3.3640509,-68.1994689,2331,19861.96319
D1,Amaturá/AM,-3.3640509,-68.1994689,17,144.85344
1,Americana/SP,-22.7392463,-47.3306032,16590,6854.86204
D1,Americana/SP,-22.7392463,-47.3306032,510,210.72813
1,Americano do Brasil/GO,-16.2515808,-49.9806104,394,6391.95328
D1,Americano do Brasil/GO,-16.2515808,-49.9806104,15,243.34848
1,Ametista do Sul/RS,-27.3617341,-53.1826575,532,7186.27583
D1,Ametista do Sul/RS,-27.3617341,-53.1826575,12,162.09645
1,Amontada/CE,-3.3634586,-39.8284791,2428,5539.71115
D1,Amontada/CE,-3.3634586,-39.8284791,43,98.10856
1,Amorinópolis/GO,-16.6211308,-51.0949921,167,5441.51189
D1,Amorinópolis/GO,-16.6211308,-51.0949921,2,65.16781
1,Amparo de São Francisco/SE,-10.1299754,-36.9269099,174,7310.92437
D1,Amparo de São Francisco/SE,-10.1299754,-36.9269099,3,126.05042
1,Amparo do Serra/MG,-20.5070255,-42.8028462,120,2565.19880
D1,Amparo do Serra/MG,-20.5070255,-42.8028462,4,85.50663
1,Amparo/PB,-7.56394725,-37.04652873235175,158,7019.10262
D1,Amparo/PB,-7.56394725,-37.04652873235175,4,177.69880
1,Amparo/SP,-22.70111,-46.76444,4459,6135.36607
D1,Amparo/SP,-22.70111,-46.76444,107,147.22677
1,Ampére/PR,-25.9168712,-53.4742414,1047,5421.78033
D1,Ampére/PR,-25.9168712,-53.4742414,28,144.99508
1,Amélia Rodrigues/BA,-12.4015388,-38.7516971,1820,7266.04919
D1,Amélia Rodrigues/BA,-12.4015388,-38.7516971,37,147.71638
1,América Dourada/BA,-11.4515262,-41.4357517,742,4611.55998
D1,América Dourada/BA,-11.4515262,-41.4357517,7,43.50528
1,Américo Brasiliense/SP,-21.7297099,-48.1052092,3204,7808.53968
D1,Américo Brasiliense/SP,-21.7297099,-48.1052092,75,182.78417
1,Américo de Campos/SP,-20.298476,-49.735904,629,10516.63601
D1,Américo de Campos/SP,-20.298476,-49.735904,22,367.83147
1,Anadia/AL,-9.6830208,-36.3052699,1113,6350.56488
D1,Anadia/AL,-9.6830208,-36.3052699,24,136.93940
1,Anagé/BA,-14.6134669,-41.1376308,786,3637.71000
D1,Anagé/BA,-14.6134669,-41.1376308,16,74.05008
1,Anahy/PR,-24.6450861,-53.1337957,320,11477.76184
D1,Anahy/PR,-24.6450861,-53.1337957,6,215.20803
1,Anajatuba/MA,-3.26441,-44.6179916,770,2853.11991
D1,Anajatuba/MA,-3.26441,-44.6179916,18,66.69631
1,Anajás/PA,-0.9878802,-49.9390114,1313,4422.66236
D1,Anajás/PA,-0.9878802,-49.9390114,20,67.36729
1,Analândia/SP,-22.128917,-47.661939,259,5122.62658
D1,Analândia/SP,-22.128917,-47.661939,3,59.33544
1,Anamã/AM,-3.5797356,-61.4049996,1722,12338.77902
D1,Anamã/AM,-3.5797356,-61.4049996,9,64.48839
1,Ananindeua/PA,-1.374035,-48.4016623,20256,3782.30109
D1,Ananindeua/PA,-1.374035,-48.4016623,732,136.68268
1,Ananás/TO,-6.3663053,-48.080238,1409,14844.07922
D1,Ananás/TO,-6.3663053,-48.080238,20,210.70375
1,Anapu/PA,-3.4668292,-51.2057035,1298,4537.35100
D1,Anapu/PA,-3.4668292,-51.2057035,33,115.35638
1,Anapurus/MA,-3.6751298,-43.1046001,828,5209.51302
D1,Anapurus/MA,-3.6751298,-43.1046001,11,69.20851
1,Anastácio/MS,-20.4832458,-55.8048448,1745,6914.45100
D1,Anastácio/MS,-20.4832458,-55.8048448,55,217.93399
1,Anaurilândia/MS,-22.185169,-52.719056,313,3448.65580
D1,Anaurilândia/MS,-22.185169,-52.719056,11,121.19877
1,Anchieta/ES,-20.8057672,-40.6454564,4248,14265.08613
D1,Anchieta/ES,-20.8057672,-40.6454564,73,245.13919
1,Anchieta/SC,-26.5350527,-53.3293938,414,7450.06298
D1,Anchieta/SC,-26.5350527,-53.3293938,6,107.97193
1,Andaraí/BA,-12.8059674,-41.3322919,654,4980.20104
D1,Andaraí/BA,-12.8059674,-41.3322919,6,45.68992
1,Andirá/PR,-23.0494761,-50.2310027,1613,8094.95132
D1,Andirá/PR,-23.0494761,-50.2310027,60,301.11412
1,Andorinha/BA,-10.3445708,-39.8334411,716,4936.90960
D1,Andorinha/BA,-10.3445708,-39.8334411,11,75.84638
1,Andradas/MG,-22.0680484,-46.5688976,2710,6546.52623
D1,Andradas/MG,-22.0680484,-46.5688976,79,190.83969
1,Andradina/SP,-20.896505,-51.3742765,4722,8254.95612
D1,Andradina/SP,-20.896505,-51.3742765,202,353.13451
1,Andrelândia/MG,-21.739722,-44.308889,206,1687.69458
D1,Andrelândia/MG,-21.739722,-44.308889,7,57.34884
1,André da Rocha/RS,-28.6309124,-51.5733328,98,7297.09605
1,Angatuba/SP,-23.4938938,-48.4110675,2221,8716.98261
D1,Angatuba/SP,-23.4938938,-48.4110675,58,227.63845
1,Angelim/PE,-8.8902038,-36.2872987,159,1416.35489
D1,Angelim/PE,-8.8902038,-36.2872987,6,53.44735
1,Angelina/SC,-27.5805287,-48.9838759,454,9572.00084
D1,Angelina/SC,-27.5805287,-48.9838759,1,21.08370
1,Angelândia/MG,-17.7253,-42.2728,90,1051.77048
D1,Angelândia/MG,-17.7253,-42.2728,1,11.68634
1,Angical do Piauí/PI,-6.0872666,-42.7366138,565,8329.64765
D1,Angical do Piauí/PI,-6.0872666,-42.7366138,8,117.94191
1,Angical/BA,-12.005623,-44.7000236,493,3537.09284
D1,Angical/BA,-12.005623,-44.7000236,10,71.74631
1,Angico/TO,-6.3893733,-47.8656722,208,6022.00347
D1,Angico/TO,-6.3893733,-47.8656722,3,86.85582
1,Angicos/RN,-5.6666344,-36.6009064,645,5510.46561
D1,Angicos/RN,-5.6666344,-36.6009064,15,128.15036
1,Angra dos Reis/RJ,-23.0063966,-44.316326,12496,6035.43208
D1,Angra dos Reis/RJ,-23.0063966,-44.316326,412,198.99152
1,Anguera/BA,-12.1509425,-39.2452469,341,3018.50049
D1,Anguera/BA,-12.1509425,-39.2452469,1,8.85191
1,Angélica/MS,-22.1588196,-53.7728504,695,6357.48262
D1,Angélica/MS,-22.1588196,-53.7728504,15,137.21186
1,Anhanguera/GO,-18.3338749,-48.220363,87,7500.00000
D1,Anhanguera/GO,-18.3338749,-48.220363,6,517.24138
1,Anhembi/SP,-22.7891096,-48.1316776,148,2170.40622
D1,Anhembi/SP,-22.7891096,-48.1316776,5,73.32453
1,Anhumas/SP,-22.2956478,-51.3873401,193,4657.33591
D1,Anhumas/SP,-22.2956478,-51.3873401,4,96.52510
1,Anicuns/GO,-16.4606451,-49.9572265,2253,10249.76116
D1,Anicuns/GO,-16.4606451,-49.9572265,56,254.76548
1,Anita Garibaldi/SC,-27.6855032,-51.1293873,1017,14618.36999
D1,Anita Garibaldi/SC,-27.6855032,-51.1293873,8,114.99209
1,Anitápolis/SC,-27.9041185,-49.1287395,307,9510.53284
D1,Anitápolis/SC,-27.9041185,-49.1287395,1,30.97893
1,Anori/AM,-3.7435254,-61.6605203,1847,8599.89756
D1,Anori/AM,-3.7435254,-61.6605203,31,144.34046
1,Anta Gorda/RS,-28.9718745,-52.0069187,555,9310.51837
D1,Anta Gorda/RS,-28.9718745,-52.0069187,4,67.10284
1,Antas/BA,-10.4114649,-38.3308815,1059,5436.62406
D1,Antas/BA,-10.4114649,-38.3308815,7,35.93614
1,Antonina do Norte/CE,-6.7754187,-39.9879345,522,7075.08810
D1,Antonina do Norte/CE,-6.7754187,-39.9879345,19,257.52236
1,Antonina/PR,-25.4298854,-48.7125431,2146,11325.13589
D1,Antonina/PR,-25.4298854,-48.7125431,56,295.53011
1,Antônio Almeida/PI,-7.2186016,-44.1950248,403,12712.93375
D1,Antônio Almeida/PI,-7.2186016,-44.1950248,10,315.45741
1,Antônio Cardoso/BA,-12.4363122,-39.1200307,340,2911.70677
D1,Antônio Cardoso/BA,-12.4363122,-39.1200307,7,59.94690
1,Antônio Carlos/MG,-21.318334,-43.746666,472,4119.03307
D1,Antônio Carlos/MG,-21.318334,-43.746666,8,69.81412
1,Antônio Carlos/SC,-27.5168462,-48.7684715,1435,16660.86149
D1,Antônio Carlos/SC,-27.5168462,-48.7684715,20,232.20713
1,Antônio Dias/MG,-19.6525,-42.872778,487,5250.67385
D1,Antônio Dias/MG,-19.6525,-42.872778,22,237.19677
1,Antônio Gonçalves/BA,-10.5715409,-40.2748824,673,5665.93703
D1,Antônio Gonçalves/BA,-10.5715409,-40.2748824,8,67.35141
1,Antônio João/MS,-22.1892837,-55.9508227,326,3614.19069
D1,Antônio João/MS,-22.1892837,-55.9508227,7,77.60532
1,Antônio Martins/RN,-6.2155812,-37.8890129,451,6304.16550
D1,Antônio Martins/RN,-6.2155812,-37.8890129,4,55.91278
1,Antônio Olinto/PR,-25.9849006,-50.1974516,332,4470.17638
D1,Antônio Olinto/PR,-25.9849006,-50.1974516,8,107.71509
1,Antônio Prado de Minas/MG,-21.0171988,-42.1101106,154,9703.84373
D1,Antônio Prado de Minas/MG,-21.0171988,-42.1101106,5,315.05986
1,Antônio Prado/RS,-28.8567806,-51.2801355,1947,14925.25872
D1,Antônio Prado/RS,-28.8567806,-51.2801355,18,137.98390
1,Anápolis/GO,-16.3332828,-48.9525756,33143,8459.76742
D1,Anápolis/GO,-16.3332828,-48.9525756,1135,289.70932
1,Anísio de Abreu/PI,-9.185643,-43.04941,284,2857.71785
D1,Anísio de Abreu/PI,-9.185643,-43.04941,9,90.56148
1,Aparecida d'Oeste/SP,-20.4498109,-50.8808706,604,14526.21453
D1,Aparecida d'Oeste/SP,-20.4498109,-50.8808706,12,288.60029
1,Aparecida de Goiânia/GO,-16.8226769,-49.2452546,62454,10582.80493
D1,Aparecida de Goiânia/GO,-16.8226769,-49.2452546,1190,201.64502
1,Aparecida do Rio Doce/GO,-18.2980167,-51.1491312,184,7437.34842
D1,Aparecida do Rio Doce/GO,-18.2980167,-51.1491312,3,121.26112
1,Aparecida do Rio Negro/TO,-9.9513491,-47.9773786,303,6250.00000
D1,Aparecida do Rio Negro/TO,-9.9513491,-47.9773786,5,103.13531
1,Aparecida do Taboado/MS,-20.0840304,-51.1013943,2507,9616.78622
D1,Aparecida do Taboado/MS,-20.0840304,-51.1013943,39,149.60298
1,Aparecida/PB,-6.7859598, -38.0831353,688,8174.90494
D1,Aparecida/PB,-6.7859598, -38.0831353,11,130.70342
1,Aparecida/SP,-22.851552,-45.2340924,2092,5781.40113
D1,Aparecida/SP,-22.851552,-45.2340924,71,196.21390
1,Aperibé/RJ,-21.6211928,-42.1028167,493,4142.50903
D1,Aperibé/RJ,-21.6211928,-42.1028167,19,159.65045
1,Apiacá/ES,-21.152272,-41.569297,663,8776.80699
D1,Apiacá/ES,-21.152272,-41.569297,27,357.42653
1,Apiacás/MT,-9.5678422,-57.394852,1418,13789.75007
D1,Apiacás/MT,-9.5678422,-57.394852,13,126.42225
1,Apiaí/SP,-24.5076527,-48.8461582,996,4111.28540
D1,Apiaí/SP,-24.5076527,-48.8461582,60,247.66779
1,Apicum-Açu/MA,-1.5279295,-45.082278,441,2532.59059
D1,Apicum-Açu/MA,-1.5279295,-45.082278,3,17.22851
1,Apiúna/SC,-27.0374658,-49.3885037,740,6821.53392
D1,Apiúna/SC,-27.0374658,-49.3885037,15,138.27434
1,Apodi/RN,-5.6631109,-37.796927,4833,13472.15253
D1,Apodi/RN,-5.6631109,-37.796927,71,197.91492
1,Aporá/BA,-11.6599747,-38.0794757,458,2574.76951
D1,Aporá/BA,-11.6599747,-38.0794757,18,101.19181
1,Aporé/GO,-18.9642193,-51.92804,321,7585.06616
D1,Aporé/GO,-18.9642193,-51.92804,9,212.66541
1,Apuarema/BA,-13.8517897,-39.7457126,639,8751.02712
D1,Apuarema/BA,-13.8517897,-39.7457126,9,123.25390
1,Apucarana/PR,-23.5525327,-51.4610764,7389,5423.75618
D1,Apucarana/PR,-23.5525327,-51.4610764,256,187.91197
1,Apuiarés/CE,-3.9460303,-39.4313298,906,6175.02726
D1,Apuiarés/CE,-3.9460303,-39.4313298,16,109.05125
1,Apuí/AM,-7.1940195,-59.8830192,1238,5536.92026
D1,Apuí/AM,-7.1940195,-59.8830192,27,120.75674
1,Aquidabã/SE,-10.2837579,-37.0188687,1811,8352.93575
D1,Aquidabã/SE,-10.2837579,-37.0188687,31,142.98233
1,Aquidauana/MS,-20.473969,-55.7821375,4090,8515.68844
D1,Aquidauana/MS,-20.473969,-55.7821375,119,247.76697
1,Aquiraz/CE,-3.9063117,-38.387504,5447,6730.09205
D1,Aquiraz/CE,-3.9063117,-38.387504,74,91.43140
1,Arabutã/SC,-27.1587028,-52.1438142,384,8999.29693
D1,Arabutã/SC,-27.1587028,-52.1438142,6,140.61401
1,Aracaju/SE,-10.9162061,-37.0774655,102624,15434.31572
D1,Aracaju/SE,-10.9162061,-37.0774655,1869,281.09152
1,Aracati/CE,-4.558259,-37.767894,5775,7702.56752
D1,Aracati/CE,-4.558259,-37.767894,118,157.38580
1,Aracatu/BA,-14.4274236,-41.4604105,731,5603.67957
D1,Aracatu/BA,-14.4274236,-41.4604105,14,107.32081
1,Araci/BA,-11.3356065,-38.9573261,3205,5864.80750
D1,Araci/BA,-11.3356065,-38.9573261,42,76.85551
1,Aracitaba/MG,-21.3425,-43.378611,77,3739.67946
D1,Aracitaba/MG,-21.3425,-43.378611,8,388.53813
1,Aracoiaba/CE,-4.3702577,-38.8084313,2986,11253.06199
D1,Aracoiaba/CE,-4.3702577,-38.8084313,27,101.75240
1,Aracruz/ES,-19.8245218,-40.2735025,13792,13377.17384
D1,Aracruz/ES,-19.8245218,-40.2735025,197,191.07477
1,Aragarças/GO,-15.8957166,-52.2514538,1891,9327.67721
D1,Aragarças/GO,-15.8957166,-52.2514538,44,217.03744
1,Aragoiânia/GO,-16.9146388,-49.4499148,911,8679.49695
D1,Aragoiânia/GO,-16.9146388,-49.4499148,16,152.43902
1,Aragominas/TO,-7.1654101,-48.525488,463,8078.86931
D1,Aragominas/TO,-7.1654101,-48.525488,8,139.59169
1,Araguacema/TO,-8.8067391,-49.5560969,477,6666.66667
D1,Araguacema/TO,-8.8067391,-49.5560969,11,153.73864
1,Araguaiana/MT,-15.729144,-51.834112,176,5660.98424
D1,Araguaiana/MT,-15.729144,-51.834112,4,128.65873
1,Araguainha/MT,-16.857016,-53.031778,22,2325.58140
1,Araguanã/MA,-2.9508403,-45.6651986,754,4848.56279
D1,Araguanã/MA,-2.9508403,-45.6651986,5,32.15227
1,Araguanã/TO,-6.5799107,-48.6428482,410,7077.50734
D1,Araguanã/TO,-6.5799107,-48.6428482,12,207.14656
1,Araguapaz/GO,-15.0937927,-50.626417,460,5910.31736
D1,Araguapaz/GO,-15.0937927,-50.626417,19,244.12180
1,Araguari/MG,-18.6511256,-48.1933764,12180,10337.36474
D1,Araguari/MG,-18.6511256,-48.1933764,337,286.01740
1,Araguatins/TO,-5.6522925,-48.1158973,1916,5297.20763
D1,Araguatins/TO,-5.6522925,-48.1158973,50,138.23611
1,Araguaçu/TO,-12.928934,-49.823134,772,9117.75127
D1,Araguaçu/TO,-12.928934,-49.823134,17,200.77950
1,Araguaína/TO,-7.193241,-48.2018597,28268,15414.90122
D1,Araguaína/TO,-7.193241,-48.2018597,374,203.94697
1,Araioses/MA,-2.890914,-41.904993,631,1349.12660
D1,Araioses/MA,-2.890914,-41.904993,12,25.65692
1,Aral Moreira/MS,-22.951141,-55.6268421,372,3016.54233
D1,Aral Moreira/MS,-22.951141,-55.6268421,9,72.98086
1,Aramari/BA,-12.0907897,-38.4985065,516,4502.22494
D1,Aramari/BA,-12.0907897,-38.4985065,11,95.97766
1,Arambaré/RS,-30.9132252,-51.4994625,159,4463.78439
D1,Arambaré/RS,-30.9132252,-51.4994625,5,140.37058
1,Arame/MA,-4.8858769,-46.0102484,1091,3329.87425
D1,Arame/MA,-4.8858769,-46.0102484,34,103.77243
1,Aramina/SP,-20.0876144,-47.789201,256,4526.96729
D1,Aramina/SP,-20.0876144,-47.789201,10,176.83466
1,Arandu/SP,-23.1345103,-49.0545651,290,4556.16654
D1,Arandu/SP,-23.1345103,-49.0545651,7,109.97643
1,Arantina/MG,-21.911667,-44.255833,131,4700.39469
D1,Arantina/MG,-21.911667,-44.255833,3,107.64263
1,Arapeí/SP,-22.6738889,-44.4477778,181,7357.72358
D1,Arapeí/SP,-22.6738889,-44.4477778,2,81.30081
1,Arapiraca/AL,-9.754866,-36.661471,22606,9700.18923
D1,Arapiraca/AL,-9.754866,-36.661471,358,153.61708
1,Arapoema/TO,-7.6575001,-49.0641484,412,6227.32769
D1,Arapoema/TO,-7.6575001,-49.0641484,6,90.68924
1,Araponga/MG,-20.666667,-42.520556,343,4057.73098
D1,Araponga/MG,-20.666667,-42.520556,6,70.98072
1,Arapongas/PR,-23.415296,-51.42592,10231,8197.25983
D1,Arapongas/PR,-23.415296,-51.42592,393,314.87862
1,Araporã/MG,-18.4318188,-49.188313,1635,23589.66960
D1,Araporã/MG,-18.4318188,-49.188313,22,317.41451
1,Arapoti/PR,-24.1457957,-49.8224605,2304,8141.34276
D1,Arapoti/PR,-24.1457957,-49.8224605,40,141.34276
1,Araputanga/MT,-15.4710868,-58.346796,1669,9846.02678
D1,Araputanga/MT,-15.4710868,-58.346796,42,247.77299
1,Arapuá/MG,-19.034444,-46.155556,178,6278.65961
D1,Arapuá/MG,-19.034444,-46.155556,2,70.54674
1,Arapuã/PR,-24.3079525,-51.7901941,180,5982.05384
D1,Arapuã/PR,-24.3079525,-51.7901941,5,166.16816
1,Araquari/SC,-26.3703324,-48.7210994,3126,7909.11851
D1,Araquari/SC,-26.3703324,-48.7210994,66,166.98715
1,Arara/PB,-6.8271895,-35.7605703,714,5272.48560
D1,Arara/PB,-6.8271895,-35.7605703,20,147.68867
1,Araranguá/SC,-28.9348832,-49.4858389,8930,12967.02339
D1,Araranguá/SC,-28.9348832,-49.4858389,199,288.96278
1,Araraquara/SP,-21.7886713,-48.1773096,16836,7063.88799
D1,Araraquara/SP,-21.7886713,-48.1773096,384,161.11505
1,Araras/SP,-22.3569477,-47.3838889,13494,9958.23063
D1,Araras/SP,-22.3569477,-47.3838889,303,223.60633
1,Ararendá/CE,-4.7504395,-40.8303611,759,6925.81440
D1,Ararendá/CE,-4.7504395,-40.8303611,16,145.99872
1,Arari/MA,-3.4547602,-44.7772723,675,2255.11159
D1,Arari/MA,-3.4547602,-44.7772723,24,80.18175
1,Araricá/RS,-29.6168543,-50.929121,952,16496.27448
D1,Araricá/RS,-29.6168543,-50.929121,24,415.87247
1,Araripe/CE,-7.212861,-40.1359222,858,3962.31643
D1,Araripe/CE,-7.212861,-40.1359222,12,55.41701
1,Araripina/PE,-7.5768582,-40.5038509,5601,6599.97172
D1,Araripina/PE,-7.5768582,-40.5038509,117,137.86765
1,Araruama/RJ,-22.8733203,-42.3428897,4933,3673.31134
D1,Araruama/RJ,-22.8733203,-42.3428897,304,226.37070
1,Araruna/PB,-6.5321155,-35.7397595,594,2902.80018
D1,Araruna/PB,-6.5321155,-35.7397595,16,78.18990
1,Araruna/PR,-23.9320308,-52.4976047,1092,7800.00000
D1,Araruna/PR,-23.9320308,-52.4976047,19,135.71429
1,Arataca/BA,-15.2617424,-39.4122943,510,4652.86014
D1,Arataca/BA,-15.2617424,-39.4122943,14,127.72557
1,Aratiba/RS,-27.3955734,-52.3024325,346,5590.56390
D1,Aratiba/RS,-27.3955734,-52.3024325,6,96.94619
1,Aratuba/CE,-4.4195958,-39.0463737,1167,9888.15455
D1,Aratuba/CE,-4.4195958,-39.0463737,7,59.31198
1,Aratuípe/BA,-13.077137,-39.0010786,314,3553.24205
D1,Aratuípe/BA,-13.077137,-39.0010786,8,90.52846
1,Araucária/PR,-25.5861107,-49.4051209,20120,13760.65219
D1,Araucária/PR,-25.5861107,-49.4051209,317,216.80550
1,Arauá/SE,-11.2644014,-37.6181058,965,9701.41751
D1,Arauá/SE,-11.2644014,-37.6181058,18,180.95908
1,Araxá/MG,-19.5928536,-46.940241,9272,8638.21422
D1,Araxá/MG,-19.5928536,-46.940241,143,133.22526
1,Araçagi/PB,-6.8519969,-35.3835602,1016,6004.37326
D1,Araçagi/PB,-6.8519969,-35.3835602,12,70.91779
1,Araçariguama/SP,-23.438611,-47.061389,1288,5634.29571
D1,Araçariguama/SP,-23.438611,-47.061389,43,188.10149
1,Araçatuba/SP,-21.207992,-50.4390225,21936,11071.57458
D1,Araçatuba/SP,-21.207992,-50.4390225,645,325.54548
1,Araçaí/MG,-19.200833,-44.2475,49,2081.56330
1,Araçoiaba da Serra/SP,-23.5045367,-47.6168158,2078,5975.38532
D1,Araçoiaba da Serra/SP,-23.5045367,-47.6168158,49,140.90177
1,Araçoiaba/PE,-7.7856903,-35.0898881,447,2155.98322
D1,Araçoiaba/PE,-7.7856903,-35.0898881,24,115.75749
1,Araçu/GO,-16.3561579,-49.6815269,377,10814.68732
D1,Araçu/GO,-16.3561579,-49.6815269,15,430.29260
1,Araçuaí/MG,-16.8484451,-42.0661868,1258,3426.67248
D1,Araçuaí/MG,-16.8484451,-42.0661868,26,70.82153
1,Araçás/BA,-12.2139176,-38.2026159,551,4513.43381
D1,Araçás/BA,-12.2139176,-38.2026159,7,57.33945
1,Araújos/MG,-19.948055,-45.165556,572,6084.45910
D1,Araújos/MG,-19.948055,-45.165556,6,63.82300
1,Arceburgo/MG,-21.364444,-46.939722,779,7157.95277
D1,Arceburgo/MG,-21.364444,-46.939722,18,165.39557
1,Arco-Íris/SP,-21.7741308,-50.4668814,99,5583.75635
D1,Arco-Íris/SP,-21.7741308,-50.4668814,6,338.40948
1,Arcos/MG,-20.282223,-45.539444,4329,10720.65379
D1,Arcos/MG,-20.282223,-45.539444,98,242.69440
1,Arcoverde/PE,-8.415192,-37.057748,4953,6619.71078
D1,Arcoverde/PE,-8.415192,-37.057748,104,138.99655
1,Areado/MG,-21.3582771,-46.1476688,541,3563.66511
D1,Areado/MG,-21.3582771,-46.1476688,15,98.80772
1,Areal/RJ,-22.2314922,-43.1056264,886,6993.44858
D1,Areal/RJ,-22.2314922,-43.1056264,37,292.05146
1,Arealva/SP,-22.0301906,-48.9111936,611,7093.92778
D1,Arealva/SP,-22.0301906,-48.9111936,9,104.49321
1,Areia Branca/RN,-4.9506652,-37.1263312,1973,7054.74309
D1,Areia Branca/RN,-4.9506652,-37.1263312,83,296.77835
1,Areia Branca/SE,-10.7591455,-37.3148072,1496,8005.99379
D1,Areia Branca/SE,-10.7591455,-37.3148072,37,198.00920
1,Areia de Baraúnas/PB,-7.1233949,-36.9446216,92,4347.82609
D1,Areia de Baraúnas/PB,-7.1233949,-36.9446216,3,141.77694
1,Areia/PB,-6.9680243,-35.6994783,1087,4797.84605
D1,Areia/PB,-6.9680243,-35.6994783,22,97.10452
1,Areial/PB,-7.0501306,-35.9245244,257,3657.32176
D1,Areial/PB,-7.0501306,-35.9245244,6,85.38494
1,Areias/SP,-22.5800929,-44.6975127,233,5980.49281
D1,Areias/SP,-22.5800929,-44.6975127,1,25.66735
1,Areiópolis/SP,-22.6758064,-48.6673653,952,8531.99498
D1,Areiópolis/SP,-22.6758064,-48.6673653,13,116.50833
1,Arenápolis/MT,-14.4610369,-56.8432806,1295,13628.70975
D1,Arenápolis/MT,-14.4610369,-56.8432806,21,221.00610
1,Arenópolis/GO,-16.3859286,-51.55937,166,6545.74132
D1,Arenópolis/GO,-16.3859286,-51.55937,8,315.45741
1,Argirita/MG,-21.612761,-42.8371922,246,9097.63314
D1,Argirita/MG,-21.612761,-42.8371922,5,184.91124
1,Aricanduva/MG,-17.8678,-42.5569,82,1556.27254
1,Arinos/MG,-15.917223,-46.106111,486,2720.85993
D1,Arinos/MG,-15.917223,-46.106111,12,67.18173
1,Aripuanã/MT,-10.175806,-59.4439663,2186,9624.02043
D1,Aripuanã/MT,-10.175806,-59.4439663,40,176.10284
1,Ariquemes/RO,-9.9076522,-63.033069,18898,17254.82319
D1,Ariquemes/RO,-9.9076522,-63.033069,408,372.52449
1,Ariranha do Ivaí/PR,-24.3834527,-51.5876772,129,6243.94966
D1,Ariranha do Ivaí/PR,-24.3834527,-51.5876772,2,96.80542
1,Ariranha/SP,-21.18716,-48.790418,415,4251.61356
D1,Ariranha/SP,-21.18716,-48.790418,14,143.42793
1,Armazém/SC,-28.2624996,-49.0190126,1329,15172.96495
D1,Armazém/SC,-28.2624996,-49.0190126,27,308.25437
1,Armação dos Búzios/RJ,-22.7597805,-41.8875267,4001,11604.83801
D1,Armação dos Búzios/RJ,-22.7597805,-41.8875267,43,124.72083
1,Arneiroz/CE,-6.3235099,-40.1603859,492,6272.31005
D1,Arneiroz/CE,-6.3235099,-40.1603859,13,165.73177
1,Aroazes/PI,-6.1108814,-41.7886137,531,9112.75099
D1,Aroazes/PI,-6.1108814,-41.7886137,12,205.93788
1,Aroeiras do Itaim/PI,-7.2797031,-41.5629681,100,3920.03136
D1,Aroeiras do Itaim/PI,-7.2797031,-41.5629681,2,78.40063
1,Aroeiras/PB,-7.5462904,-35.7080002,874,4572.08621
D1,Aroeiras/PB,-7.5462904,-35.7080002,6,31.38732
1,Arraial do Cabo/RJ,-22.9662839,-42.024427,614,2006.99506
D1,Arraial do Cabo/RJ,-22.9662839,-42.024427,26,84.98676
1,Arraial/PI,-6.6541632,-42.5335332,140,2966.10169
D1,Arraial/PI,-6.6541632,-42.5335332,2,42.37288
1,Arraias/TO,-12.9287788,-46.9437231,474,4499.71521
D1,Arraias/TO,-12.9287788,-46.9437231,4,37.97228
1,Arroio Grande/RS,-32.2384246,-53.0866661,1469,8054.61125
D1,Arroio Grande/RS,-32.2384246,-53.0866661,48,263.18675
1,Arroio Trinta/SC,-26.9301976,-51.334928,475,13384.05185
D1,Arroio Trinta/SC,-26.9301976,-51.334928,10,281.76951
1,Arroio do Meio/RS,-29.4020392,-51.9444993,2707,12910.76453
D1,Arroio do Meio/RS,-29.4020392,-51.9444993,35,166.92898
1,Arroio do Padre/RS,-31.4428773,-52.4228985,147,4981.36225
D1,Arroio do Padre/RS,-31.4428773,-52.4228985,2,67.77364
1,Arroio do Sal/RS,-29.549852,-49.8874395,918,8930.82985
D1,Arroio do Sal/RS,-29.549852,-49.8874395,31,301.58576
1,Arroio do Tigre/RS,-29.334158,-53.0888935,973,7254.15642
D1,Arroio do Tigre/RS,-29.334158,-53.0888935,18,134.19817
1,Arroio dos Ratos/RS,-30.0894524,-51.7265541,821,5791.07004
D1,Arroio dos Ratos/RS,-30.0894524,-51.7265541,29,204.55668
1,Artur Nogueira/SP,-22.572737,-47.172679,3348,6049.87351
D1,Artur Nogueira/SP,-22.572737,-47.172679,96,173.47308
1,Aruanã/GO,-14.9162439,-51.0715692,438,4332.34421
D1,Aruanã/GO,-14.9162439,-51.0715692,10,98.91197
1,Arujá/SP,-23.396266,-46.3175449,6173,6771.83321
D1,Arujá/SP,-23.396266,-46.3175449,234,256.69998
1,Arvoredo/SC,-27.0752908,-52.4571847,272,12175.47001
D1,Arvoredo/SC,-27.0752908,-52.4571847,4,179.05103
1,Arvorezinha/RS,-28.87369,-52.17808,714,6850.23506
D1,Arvorezinha/RS,-28.87369,-52.17808,24,230.26000
1,Arês/RN,-6.1969216,-35.1642968,778,5396.40702
D1,Arês/RN,-6.1969216,-35.1642968,20,138.72512
1,Ascurra/SC,-26.9569975,-49.3767752,1043,13073.45199
D1,Ascurra/SC,-26.9569975,-49.3767752,9,112.81023
1,Aspásia/SP,-20.160028,-50.728046,92,5060.50605
D1,Aspásia/SP,-20.160028,-50.728046,4,220.02200
1,Assaré/CE,-6.8746791,-39.8741385,1503,6401.73780
D1,Assaré/CE,-6.8746791,-39.8741385,30,127.77920
1,Assaí/PR,-23.3736041,-50.8454929,1168,7810.61923
D1,Assaí/PR,-23.3736041,-50.8454929,39,260.79979
1,Assis Brasil/AC,-10.9409203,-69.5672108,1541,20453.94213
D1,Assis Brasil/AC,-10.9409203,-69.5672108,21,278.73640
1,Assis Chateaubriand/PR,-24.4054826,-53.5120468,3096,9286.14277
D1,Assis Chateaubriand/PR,-24.4054826,-53.5120468,75,224.95501
1,Assis/SP,-22.6620892,-50.420623,7566,7199.74878
D1,Assis/SP,-22.6620892,-50.420623,249,236.94653
1,Assunção do Piauí/PI,-5.8610212,-41.0485091,301,3828.05545
D1,Assunção do Piauí/PI,-5.8610212,-41.0485091,6,76.30675
1,Assunção/PB,-7.073396,-36.7274003,283,7024.07545
D1,Assunção/PB,-7.073396,-36.7274003,2,49.64011
1,Astolfo Dutra/MG,-21.3132636,-42.8624102,1158,8114.92642
D1,Astolfo Dutra/MG,-21.3132636,-42.8624102,15,105.11563
1,Astorga/PR,-23.2350184,-51.6647074,2549,9725.66676
D1,Astorga/PR,-23.2350184,-51.6647074,56,213.66706
1,Atalaia do Norte/AM,-4.3658547,-70.1908742,2706,13266.00647
D1,Atalaia do Norte/AM,-4.3658547,-70.1908742,8,39.21953
1,Atalaia/AL,-9.5029595,-36.0219316,1069,2256.94078
D1,Atalaia/AL,-9.5029595,-36.0219316,42,88.67307
1,Atalaia/PR,-23.1513833,-52.0529697,334,8606.02937
D1,Atalaia/PR,-23.1513833,-52.0529697,15,386.49833
1,Atalanta/SC,-27.421916,-49.778863,304,9514.86698
D1,Atalanta/SC,-27.421916,-49.778863,7,219.09233
1,Ataléia/MG,-18.04432,-41.1110524,1031,8132.19751
D1,Ataléia/MG,-18.04432,-41.1110524,8,63.10144
1,Atibaia/SP,-23.1177393,-46.5547861,8896,6174.00477
D1,Atibaia/SP,-23.1177393,-46.5547861,214,148.52035
1,Atilio Vivacqua/ES,-20.9139369,-41.1947519,1336,11036.76167
D1,Atilio Vivacqua/ES,-20.9139369,-41.1947519,24,198.26518
1,Augustinópolis/TO,-5.4662267,-47.8897519,1348,7230.59593
D1,Augustinópolis/TO,-5.4662267,-47.8897519,24,128.73465
1,Augusto Corrêa/PA,-1.0229335,-46.6404029,1918,4127.30520
D1,Augusto Corrêa/PA,-1.0229335,-46.6404029,35,75.31579
1,Augusto Pestana/RS,-28.5148413,-53.9906433,567,8588.30657
D1,Augusto Pestana/RS,-28.5148413,-53.9906433,7,106.02848
1,Augusto de Lima/MG,-18.1092963,-44.2651945,218,4493.91878
D1,Augusto de Lima/MG,-18.1092963,-44.2651945,7,144.30014
1,Aurelino Leal/BA,-14.3167137,-39.3256107,832,7363.48349
D1,Aurelino Leal/BA,-14.3167137,-39.3256107,24,212.40818
1,Auriflama/SP,-20.6840418,-50.5554616,1663,10902.77322
D1,Auriflama/SP,-20.6840418,-50.5554616,58,380.25306
1,Aurilândia/GO,-16.6772599,-50.4641231,171,5591.89012
D1,Aurilândia/GO,-16.6772599,-50.4641231,6,196.20667
1,Aurora do Pará/PA,-2.1323199,-47.558436,1304,4104.11356
D1,Aurora do Pará/PA,-2.1323199,-47.558436,13,40.91524
1,Aurora do Tocantins/TO,-12.71045,-46.407604,170,4493.78800
D1,Aurora do Tocantins/TO,-12.71045,-46.407604,3,79.30214
1,Aurora/CE,-6.9426019,-38.9693765,1355,5505.89191
D1,Aurora/CE,-6.9426019,-38.9693765,30,121.90167
1,Aurora/SC,-27.3166417,-49.6368502,684,12035.89653
D1,Aurora/SC,-27.3166417,-49.6368502,14,246.34876
1,Autazes/AM,-3.5833283,-59.1301518,2780,6899.97518
D1,Autazes/AM,-3.5833283,-59.1301518,89,220.89849
1,Avanhandava/SP,-21.4603331,-49.9465156,579,4177.79061
D1,Avanhandava/SP,-21.4603331,-49.9465156,24,173.17267
1,Avaré/SP,-23.1045215,-48.9259103,6774,7425.02631
D1,Avaré/SP,-23.1045215,-48.9259103,150,164.41599
1,Avaí/SP,-22.1564662,-49.3316395,282,5187.63797
D1,Avaí/SP,-22.1564662,-49.3316395,7,128.77116
1,Aveiro/PA,-3.6049239,-55.3310742,586,3572.29944
D1,Aveiro/PA,-3.6049239,-55.3310742,9,54.86467
1,Avelino Lopes/PI,-10.1346855,-43.9489525,320,2825.35758
D1,Avelino Lopes/PI,-10.1346855,-43.9489525,19,167.75561
1,Avelinópolis/GO,-16.4672409,-49.7578661,264,10958.90411
D1,Avelinópolis/GO,-16.4672409,-49.7578661,11,456.62100
1,Axixá do Tocantins/TO,-5.612747,-47.77007,1002,10238.07091
D1,Axixá do Tocantins/TO,-5.612747,-47.77007,16,163.48217
1,Axixá/MA,-2.8379465,-44.0561053,189,1551.34203
D1,Axixá/MA,-2.8379465,-44.0561053,4,32.83264
1,Açailândia/MA,-4.9514278,-47.4844564,4843,4281.25635
D1,Açailândia/MA,-4.9514278,-47.4844564,174,153.81759
1,Açu/RN,-5.5836157,-36.9139541,4799,8219.71773
D1,Açu/RN,-5.5836157,-36.9139541,125,214.09975
1,Açucena/MG,-19.073056,-42.546666,690,7365.49957
D1,Açucena/MG,-19.073056,-42.546666,23,245.51665
1,Babaçulândia/TO,-7.2034355,-47.761613,569,5334.70842
D1,Babaçulândia/TO,-7.2034355,-47.761613,5,46.87793
1,Bacabal/MA,-4.2318132,-44.781167,4448,4244.67984
D1,Bacabal/MA,-4.2318132,-44.781167,161,153.64061
1,Bacabeira/MA,-2.9775747,-44.3155943,319,1849.06098
D1,Bacabeira/MA,-2.9775747,-44.3155943,6,34.77858
1,Bacuri/MA,-1.728894,-45.1417148,429,2299.77485
D1,Bacuri/MA,-1.728894,-45.1417148,4,21.44312
1,Bacurituba/MA,-2.7082587,-44.7381309,112,1975.30864
D1,Bacurituba/MA,-2.7082587,-44.7381309,1,17.63668
1,Bady Bassitt/SP,-20.9178969,-49.4517911,2457,13833.68054
D1,Bady Bassitt/SP,-20.9178969,-49.4517911,54,304.03693
1,Baependi/MG,-21.959162,-44.8899249,1118,5823.21996
D1,Baependi/MG,-21.959162,-44.8899249,12,62.50326
1,Bagre/PA,-1.8994498,-50.2103844,854,2726.25698
D1,Bagre/PA,-1.8994498,-50.2103844,11,35.11572
1,Bagé/RS,-31.3314264,-54.1062808,7706,6351.01166
D1,Bagé/RS,-31.3314264,-54.1062808,211,173.89871
1,Baianópolis/BA,-12.3067564,-44.5383591,547,3927.05865
D1,Baianópolis/BA,-12.3067564,-44.5383591,7,50.25486
1,Baixa Grande do Ribeiro/PI,-7.862861,-45.2113289,1984,16999.40022
D1,Baixa Grande do Ribeiro/PI,-7.862861,-45.2113289,20,171.36492
1,Baixa Grande/BA,-11.9630941,-40.1657537,619,3027.04289
D1,Baixa Grande/BA,-11.9630941,-40.1657537,7,34.23150
1,Baixio/CE,-6.7303544,-38.7170095,376,5965.41330
D1,Baixio/CE,-6.7303544,-38.7170095,9,142.78915
1,Baixo Guandu/ES,-19.5138322,-41.0182089,3115,10005.78183
D1,Baixo Guandu/ES,-19.5138322,-41.0182089,70,224.84903
1,Baião/PA,-2.7903479,-49.6702845,704,1452.77451
D1,Baião/PA,-2.7903479,-49.6702845,28,57.78080
1,Balbinos/SP,-21.9006253,-49.3583966,312,5257.83620
D1,Balbinos/SP,-21.9006253,-49.3583966,4,67.40816
1,Baldim/MG,-19.2913568,-43.9558262,466,5972.06203
D1,Baldim/MG,-19.2913568,-43.9558262,9,115.34025
1,Baliza/GO,-16.1978119,-52.542789,215,4071.96970
D1,Baliza/GO,-16.1978119,-52.542789,6,113.63636
1,Balneário Arroio do Silva/SC,-28.9815269,-49.4189932,1789,13320.92331
D1,Balneário Arroio do Silva/SC,-28.9815269,-49.4189932,39,290.39464
1,Balneário Barra do Sul/SC,-26.459842,-48.6061471,1290,11690.07703
D1,Balneário Barra do Sul/SC,-26.459842,-48.6061471,29,262.80018
1,Balneário Camboriú/SC,-26.9924395,-48.6339782,22285,15285.05583
D1,Balneário Camboriú/SC,-26.9924395,-48.6339782,327,224.28599
1,Balneário Gaivota/SC,-29.1553098,-49.5808712,1112,9875.66607
D1,Balneário Gaivota/SC,-29.1553098,-49.5808712,30,266.42984
1,Balneário Pinhal/RS,-30.2482978,-50.234585,657,4574.25329
D1,Balneário Pinhal/RS,-30.2482978,-50.234585,37,257.60635
1,Balneário Piçarras/SC,-26.7638889,-48.6716667,4081,17167.25559
D1,Balneário Piçarras/SC,-26.7638889,-48.6716667,42,176.67845
1,Balneário Rincão/SC,-28.8235718,-49.2241642,1237,9555.07493
D1,Balneário Rincão/SC,-28.8235718,-49.2241642,36,278.07817
1,Balsa Nova/PR,-25.5842234,-49.6312741,1203,9188.81760
D1,Balsa Nova/PR,-25.5842234,-49.6312741,23,175.67980
1,Balsas/MA,-7.53214,-46.037163,8606,8971.21830
D1,Balsas/MA,-7.53214,-46.037163,140,145.94127
1,Bambuí/MG,-20.0131996,-45.9777034,1127,4715.87581
D1,Bambuí/MG,-20.0131996,-45.9777034,17,71.13566
1,Banabuiú/CE,-5.3046404,-38.919766,1277,6994.96056
D1,Banabuiú/CE,-5.3046404,-38.919766,11,60.25416
1,Bananal/SP,-22.6828195,-44.3221095,878,7986.90076
D1,Bananal/SP,-22.6828195,-44.3221095,2,18.19340
1,Bananeiras/PB,-6.7537682,-35.6338343,945,4443.08618
D1,Bananeiras/PB,-6.7537682,-35.6338343,18,84.63021
1,Bandeira do Sul/MG,-21.728056,-46.385555,250,4326.75666
D1,Bandeira do Sul/MG,-21.728056,-46.385555,7,121.14919
1,Bandeira/MG,-15.884444,-40.559167,452,9483.84389
D1,Bandeira/MG,-15.884444,-40.559167,9,188.83760
1,Bandeirante/SC,-26.7677402,-53.6397596,236,8912.38671
D1,Bandeirante/SC,-26.7677402,-53.6397596,2,75.52870
1,Bandeirantes do Tocantins/TO,-7.7635698,-48.579148,343,9548.99777
D1,Bandeirantes do Tocantins/TO,-7.7635698,-48.579148,5,139.19822
1,Bandeirantes/MS,-19.9179623,-54.3646768,449,6179.46601
D1,Bandeirantes/MS,-19.9179623,-54.3646768,8,110.10184
1,Bandeirantes/PR,-23.107788,-50.370407,2946,9438.97985
D1,Bandeirantes/PR,-23.107788,-50.370407,91,291.56387
1,Bannach/PA,-7.3508505,-50.4064531,533,16339.66891
D1,Bannach/PA,-7.3508505,-50.4064531,2,61.31208
1,Banzaê/BA,-10.5827616,-38.6122305,836,6314.19940
D1,Banzaê/BA,-10.5827616,-38.6122305,7,52.87009
1,Baraúna/PB,-6.643394,-36.2531932,270,5439.16197
D1,Baraúna/PB,-6.643394,-36.2531932,3,60.43513
1,Baraúna/RN,-5.0775002,-37.61752,861,2995.09514
D1,Baraúna/RN,-5.0775002,-37.61752,22,76.52972
1,Barbacena/MG,-21.2254524,-43.7735087,5722,4140.25643
D1,Barbacena/MG,-21.2254524,-43.7735087,195,141.09577
1,Barbalha/CE,-7.3121067,-39.3036427,4365,7129.09127
D1,Barbalha/CE,-7.3121067,-39.3036427,91,148.62481
1,Barbosa Ferraz/PR,-24.0287182,-52.00811,853,7465.42972
D1,Barbosa Ferraz/PR,-24.0287182,-52.00811,15,131.27954
1,Barbosa/SP,-21.265661,-49.951816,359,4807.17729
D1,Barbosa/SP,-21.265661,-49.951816,10,133.90466
1,Barcarena/PA,-1.5107945,-48.6190679,10127,7972.32085
D1,Barcarena/PA,-1.5107945,-48.6190679,199,156.65961
1,Barcelona/RN,-5.9514918,-35.9260284,67,1677.51627
D1,Barcelona/RN,-5.9514918,-35.9260284,3,75.11267
1,Barcelos/AM,-0.9729214,-62.925635,4133,14954.04877
D1,Barcelos/AM,-0.9729214,-62.925635,57,206.23779
1,Bariri/SP,-22.0746355,-48.7394852,2295,6454.24377
D1,Bariri/SP,-22.0746355,-48.7394852,93,261.54452
1,Barra Bonita/SC,-26.6526364,-53.4419581,148,8964.26408
D1,Barra Bonita/SC,-26.6526364,-53.4419581,1,60.56935
1,Barra Bonita/SP,-22.490859,-48.558349,2654,7346.50944
D1,Barra Bonita/SP,-22.490859,-48.558349,71,196.53435
1,Barra D'Alcântara/PI,-6.5209258,-42.1071089,105,2656.88259
D1,Barra D'Alcântara/PI,-6.5209258,-42.1071089,3,75.91093
1,Barra Funda/RS,-27.9230048,-53.0401045,410,16072.12858
D1,Barra Funda/RS,-27.9230048,-53.0401045,8,313.60251
1,Barra Longa/MG,-20.2833541,-43.0423516,246,4905.28415
D1,Barra Longa/MG,-20.2833541,-43.0423516,8,159.52144
1,Barra Mansa/RJ,-22.5394843,-44.1735129,13549,7330.40096
D1,Barra Mansa/RJ,-22.5394843,-44.1735129,472,255.36565
1,Barra Velha/SC,-26.6338203,-48.6835001,3644,12203.61688
D1,Barra Velha/SC,-26.6338203,-48.6835001,81,271.26591
1,Barra da Estiva/BA,-13.6269662,-41.3278287,1560,7650.05885
D1,Barra da Estiva/BA,-13.6269662,-41.3278287,14,68.65437
1,Barra de Guabiraba/PE,-8.4173522,-35.6626669,344,2370.77877
D1,Barra de Guabiraba/PE,-8.4173522,-35.6626669,14,96.48518
1,Barra de Santa Rosa/PB,-6.7218007,-36.0564638,808,5213.91237
D1,Barra de Santa Rosa/PB,-6.7218007,-36.0564638,5,32.26431
1,Barra de Santana/PB,-7.5230865,-35.9988518,346,4144.20889
D1,Barra de Santana/PB,-7.5230865,-35.9988518,4,47.90993
1,Barra de Santo Antônio/AL,-9.4038098,-35.5117693,311,1935.52402
D1,Barra de Santo Antônio/AL,-9.4038098,-35.5117693,19,118.24745
1,Barra de São Francisco/ES,-18.7570902,-40.8916119,4357,9686.74270
D1,Barra de São Francisco/ES,-18.7570902,-40.8916119,180,400.18675
1,Barra de São Miguel/AL,-9.8261357,-35.8837777,421,5025.06565
D1,Barra de São Miguel/AL,-9.8261357,-35.8837777,6,71.61614
1,Barra de São Miguel/PB,-7.7528088,-36.3170996,376,6199.50536
D1,Barra de São Miguel/PB,-7.7528088,-36.3170996,6,98.92828
1,Barra do Bugres/MT,-15.0683712,-57.1853688,2307,6534.11505
D1,Barra do Bugres/MT,-15.0683712,-57.1853688,55,155.77647
1,Barra do Chapéu/SP,-24.472203,-49.023784,226,3923.61111
D1,Barra do Chapéu/SP,-24.472203,-49.023784,1,17.36111
1,Barra do Choça/BA,-14.8638173,-40.5761637,1810,5799.60909
D1,Barra do Choça/BA,-14.8638173,-40.5761637,27,86.51351
1,Barra do Corda/MA,-5.496823,-45.248496,5157,5827.64544
D1,Barra do Corda/MA,-5.496823,-45.248496,51,57.63233
1,Barra do Garças/MT,-15.8916033,-52.2615413,6463,10571.68561
D1,Barra do Garças/MT,-15.8916033,-52.2615413,226,369.67367
1,Barra do Guarita/RS,-27.1888016,-53.7147086,107,3285.23181
D1,Barra do Guarita/RS,-27.1888016,-53.7147086,5,153.51551
1,Barra do Jacaré/PR,-23.1151788,-50.1813945,160,5753.32614
D1,Barra do Jacaré/PR,-23.1151788,-50.1813945,1,35.95829
1,Barra do Mendes/BA,-11.8053298,-42.057037,651,4706.13750
D1,Barra do Mendes/BA,-11.8053298,-42.057037,11,79.51999
1,Barra do Ouro/TO,-7.7113784,-47.6743925,114,2461.13990
D1,Barra do Ouro/TO,-7.7113784,-47.6743925,5,107.94473
1,Barra do Piraí/RJ,-22.4703403,-43.8263256,5150,5110.95232
D1,Barra do Piraí/RJ,-22.4703403,-43.8263256,286,283.83153
1,Barra do Quaraí/RS,-30.208947,-57.5505128,346,8185.47433
D1,Barra do Quaraí/RS,-30.208947,-57.5505128,3,70.97232
1,Barra do Ribeiro/RS,-30.2930206,-51.301437,970,7155.50310
D1,Barra do Ribeiro/RS,-30.2930206,-51.301437,46,339.33314
1,Barra do Rio Azul/RS,-27.4101581,-52.4117471,66,3987.91541
D1,Barra do Rio Azul/RS,-27.4101581,-52.4117471,1,60.42296
1,Barra do Rocha/BA,-14.2090974,-39.6004395,373,6646.47185
D1,Barra do Rocha/BA,-14.2090974,-39.6004395,5,89.09480
1,Barra do Turvo/SP,-24.756421,-48.5056942,490,6420.33543
D1,Barra do Turvo/SP,-24.756421,-48.5056942,12,157.23270
1,Barra dos Coqueiros/SE,-10.9075694,-37.0386249,5726,18512.77077
D1,Barra dos Coqueiros/SE,-10.9075694,-37.0386249,75,242.48303
1,Barra/BA,-11.0892702,-43.1420453,1751,3248.00594
D1,Barra/BA,-11.0892702,-43.1420453,31,57.50325
1,Barracão/PR,-26.252395,-53.6349576,1012,9813.80915
D1,Barracão/PR,-26.252395,-53.6349576,26,252.13344
1,Barracão/RS,-27.6728964,-51.4582928,339,6449.77169
D1,Barracão/RS,-27.6728964,-51.4582928,12,228.31050
1,Barras/PI,-4.2446153,-42.2920241,4201,8903.25315
D1,Barras/PI,-4.2446153,-42.2920241,83,175.90336
1,Barreira/CE,-4.2883361,-38.641094,1151,5099.01209
D1,Barreira/CE,-4.2883361,-38.641094,31,137.33221
1,Barreiras do Piauí/PI,-9.9224524,-45.4763776,62,1849.64200
D1,Barreiras do Piauí/PI,-9.9224524,-45.4763776,1,29.83294
1,Barreiras/BA,-12.1440031,-44.9967406,13819,8803.31263
D1,Barreiras/BA,-12.1440031,-44.9967406,204,129.95700
1,Barreirinha/AM,-2.798863,-57.067897,2320,7142.19746
D1,Barreirinha/AM,-2.798863,-57.067897,61,187.79054
1,Barreirinhas/MA,-2.7541271,-42.8259693,1846,2920.10061
D1,Barreirinhas/MA,-2.7541271,-42.8259693,34,53.78300
1,Barreiros/PE,-8.8159644,-35.1831905,696,1627.53718
D1,Barreiros/PE,-8.8159644,-35.1831905,51,119.25919
1,Barretos/SP,-20.5531437,-48.5697509,10927,8895.81790
D1,Barretos/SP,-20.5531437,-48.5697509,340,276.79858
1,Barrinha/SP,-21.1898849,-48.1550642,1284,3869.80108
D1,Barrinha/SP,-21.1898849,-48.1550642,51,153.70705
1,Barro Alto/BA,-11.7618025,-41.9094904,741,4922.27979
D1,Barro Alto/BA,-11.7618025,-41.9094904,8,53.14202
1,Barro Alto/GO,-14.9696025,-48.9190985,1214,10641.65498
D1,Barro Alto/GO,-14.9696025,-48.9190985,13,113.95512
1,Barro Duro/PI,-5.8180139,-42.5106589,652,9278.49722
D1,Barro Duro/PI,-5.8180139,-42.5106589,9,128.07742
1,Barro Preto/BA,-14.8068289,-39.4727588,553,10150.51395
D1,Barro Preto/BA,-14.8068289,-39.4727588,10,183.55360
1,Barro/CE,-7.1713587,-38.7742136,877,3853.58995
D1,Barro/CE,-7.1713587,-38.7742136,18,79.09307
1,Barrocas/BA,-11.5165,-39.099282894736845,685,4253.33747
D1,Barrocas/BA,-11.5165,-39.099282894736845,18,111.76653
1,Barrolândia/TO,-9.837246,-48.7264346,698,12351.79614
D1,Barrolândia/TO,-9.837246,-48.7264346,19,336.22368
1,Barroquinha/CE,-3.0200371,-41.1339229,944,6274.92688
D1,Barroquinha/CE,-3.0200371,-41.1339229,24,159.53204
1,Barros Cassal/RS,-29.094938,-52.5832366,534,4775.53211
D1,Barros Cassal/RS,-29.094938,-52.5832366,6,53.65766
1,Barroso/MG,-21.187222,-43.976111,1218,5828.58784
D1,Barroso/MG,-21.187222,-43.976111,27,129.20515
1,Barueri/SP,-23.5112184,-46.8764612,23539,8498.38618
D1,Barueri/SP,-23.5112184,-46.8764612,897,323.84776
1,Barão de Antonina/SP,-23.6295651,-49.5632104,224,6403.65923
D1,Barão de Antonina/SP,-23.6295651,-49.5632104,7,200.11435
1,Barão de Cocais/MG,-19.9452437,-43.4870298,3194,9718.24986
D1,Barão de Cocais/MG,-19.9452437,-43.4870298,52,158.21822
1,Barão de Cotegipe/RS,-27.6214694,-52.3765316,567,8564.95468
D1,Barão de Cotegipe/RS,-27.6214694,-52.3765316,6,90.63444
1,Barão de Grajaú/MA,-6.7542591,-43.0263477,330,1743.81737
D1,Barão de Grajaú/MA,-6.7542591,-43.0263477,2,10.56859
1,Barão de Melgaço/MT,-16.195776,-55.9668049,315,3858.40274
D1,Barão de Melgaço/MT,-16.195776,-55.9668049,13,159.23567
1,Barão de Monte Alto/MG,-21.244722,-42.2375,190,3548.74860
D1,Barão de Monte Alto/MG,-21.244722,-42.2375,8,149.42099
1,Barão do Triunfo/RS,-30.3909877,-51.7375349,385,5120.36175
D1,Barão do Triunfo/RS,-30.3909877,-51.7375349,6,79.79785
1,Barão/RS,-29.372474,-51.494908,499,8045.79168
D1,Barão/RS,-29.372474,-51.494908,8,128.99065
1,Bastos/SP,-21.9222474,-50.7317727,768,3665.34625
D1,Bastos/SP,-21.9222474,-50.7317727,26,124.08724
1,Bataguassu/MS,-21.715899,-52.422058,2252,9654.87674
D1,Bataguassu/MS,-21.715899,-52.422058,26,111.46838
1,Batalha/AL,-9.6733809,-37.1265481,939,5120.51478
D1,Batalha/AL,-9.6733809,-37.1265481,15,81.79736
1,Batalha/PI,-4.022391,-42.0780926,900,3345.10314
D1,Batalha/PI,-4.022391,-42.0780926,30,111.50344
1,Batatais/SP,-20.892867,-47.592149,2222,3528.10416
D1,Batatais/SP,-20.892867,-47.592149,101,160.36837
1,Batayporã/MS,-22.2976466,-53.2685608,675,5947.66059
D1,Batayporã/MS,-22.2976466,-53.2685608,11,96.92484
1,Baturité/CE,-4.3290203,-38.8821055,2905,8082.69108
D1,Baturité/CE,-4.3290203,-38.8821055,66,183.63429
1,Bauru/SP,-22.3218102,-49.0705863,36630,9657.33976
D1,Bauru/SP,-22.3218102,-49.0705863,807,212.76203
1,Bayeux/PB,-7.1301631,-34.936532,6057,6231.28916
D1,Bayeux/PB,-7.1301631,-34.936532,214,220.15781
1,Baía Formosa/RN,-6.3691885,-35.0063741,311,3336.19395
D1,Baía Formosa/RN,-6.3691885,-35.0063741,8,85.81849
1,Baía da Traição/PB,-6.691258,-34.9371244,1202,13214.59982
D1,Baía da Traição/PB,-6.691258,-34.9371244,11,120.93228
1,Bebedouro/SP,-20.949077,-48.479083,3407,4393.01141
D1,Bebedouro/SP,-20.949077,-48.479083,97,125.07253
1,Beberibe/CE,-4.1810469,-38.1298101,3835,7108.56550
D1,Beberibe/CE,-4.1810469,-38.1298101,93,172.38503
1,Bela Cruz/CE,-3.0529129,-40.167582,3057,9342.33849
D1,Bela Cruz/CE,-3.0529129,-40.167582,60,183.36288
1,Bela Vista da Caroba/PR,-25.8792818,-53.6672545,159,4599.36361
D1,Bela Vista da Caroba/PR,-25.8792818,-53.6672545,5,144.63408
1,Bela Vista de Goiás/GO,-16.9692949,-48.9513071,2127,6975.60016
D1,Bela Vista de Goiás/GO,-16.9692949,-48.9513071,55,180.37518
1,Bela Vista de Minas/MG,-19.8289721,-43.0973688,690,6723.83551
D1,Bela Vista de Minas/MG,-19.8289721,-43.0973688,19,185.14909
1,Bela Vista do Maranhão/MA,-3.7416367,-45.2514192,309,2739.60457
D1,Bela Vista do Maranhão/MA,-3.7416367,-45.2514192,3,26.59810
1,Bela Vista do Paraíso/PR,-22.9948493,-51.1907996,1634,10611.07864
D1,Bela Vista do Paraíso/PR,-22.9948493,-51.1907996,58,376.64783
1,Bela Vista do Piauí/PI,-7.9716353,-41.8715061,229,5682.38213
D1,Bela Vista do Piauí/PI,-7.9716353,-41.8715061,6,148.88337
1,Bela Vista do Toldo/SC,-26.274625,-50.466354,62,974.53631
D1,Bela Vista do Toldo/SC,-26.274625,-50.466354,2,31.43666
1,Bela Vista/MS,-22.107327,-56.5317344,717,2898.72650
D1,Bela Vista/MS,-22.107327,-56.5317344,20,80.85709
1,Belford Roxo/RJ,-22.7667284,-43.4033603,19233,3748.26063
D1,Belford Roxo/RJ,-22.7667284,-43.4033603,570,111.08556
1,Belmiro Braga/MG,-21.9486291,-43.413564,152,4437.95620
D1,Belmiro Braga/MG,-21.9486291,-43.413564,3,87.59124
1,Belmonte/BA,-15.8630837,-38.8792845,900,3840.08192
D1,Belmonte/BA,-15.8630837,-38.8792845,18,76.80164
1,Belmonte/SC,-26.8448262,-53.578916,211,7788.85197
D1,Belmonte/SC,-26.8448262,-53.578916,4,147.65596
1,Belo Campo/BA,-15.0338286,-41.2585109,683,3992.05097
D1,Belo Campo/BA,-15.0338286,-41.2585109,9,52.60389
1,Belo Horizonte/MG,-19.9227318,-43.9450948,188099,7459.61633
D1,Belo Horizonte/MG,-19.9227318,-43.9450948,4579,181.59365
1,Belo Jardim/PE,-8.3338293,-36.4176419,2727,3556.01341
D1,Belo Jardim/PE,-8.3338293,-36.4176419,83,108.23216
1,Belo Monte/AL,-9.8269944,-37.2787165,265,3949.32936
D1,Belo Monte/AL,-9.8269944,-37.2787165,6,89.41878
1,Belo Oriente/MG,-19.2232523,-42.4807033,2372,8787.13788
D1,Belo Oriente/MG,-19.2232523,-42.4807033,57,211.15804
1,Belo Vale/MG,-20.407778,-44.024167,586,7591.65695
D1,Belo Vale/MG,-20.407778,-44.024167,10,129.55046
1,Belterra/PA,-2.636091,-54.937392,1251,7012.72493
D1,Belterra/PA,-2.636091,-54.937392,24,134.53669
1,Belágua/MA,-3.1604031,-43.5085052,197,2616.89692
D1,Belágua/MA,-3.1604031,-43.5085052,14,185.97237
1,Belém de Maria/PE,-8.6242497,-35.8388934,193,1592.14651
D1,Belém de Maria/PE,-8.6242497,-35.8388934,6,49.49678
1,Belém do Brejo do Cruz/PB,-6.1880727,-37.5332267,487,6626.75194
D1,Belém do Brejo do Cruz/PB,-6.1880727,-37.5332267,5,68.03647
1,Belém do Piauí/PI,-7.3767305,-40.9712156,430,11987.73348
D1,Belém do Piauí/PI,-7.3767305,-40.9712156,7,195.14915
1,Belém do São Francisco/PE,-8.7517707,-38.9625715,568,2739.99035
D1,Belém do São Francisco/PE,-8.7517707,-38.9625715,8,38.59141
1,Belém/AL,-9.5715351,-36.492841,103,2404.29505
D1,Belém/AL,-9.5715351,-36.492841,3,70.02801
1,Belém/PA,-1.45056,-48.4682453,97544,6504.49007
D1,Belém/PA,-1.45056,-48.4682453,4604,307.00681
1,Belém/PB,-6.6967586,-35.5369626,1859,10499.85880
D1,Belém/PB,-6.6967586,-35.5369626,31,175.09178
1,Beneditinos/PI,-5.4565671,-42.3605061,979,9347.84684
D1,Beneditinos/PI,-5.4565671,-42.3605061,32,305.54760
1,Benedito Leite/MA,-7.2173453,-44.5523331,295,5232.35190
D1,Benedito Leite/MA,-7.2173453,-44.5523331,2,35.47357
1,Benedito Novo/SC,-26.7840657,-49.3629511,919,7804.67091
D1,Benedito Novo/SC,-26.7840657,-49.3629511,16,135.88110
1,Benevides/PA,-1.3555577,-48.252235,3644,5714.46494
D1,Benevides/PA,-1.3555577,-48.252235,86,134.86388
1,Benjamin Constant do Sul/RS,-27.5105555,-52.6007689,152,7763.02349
1,Benjamin Constant/AM,-4.3782748,-70.0290603,2673,6083.98771
D1,Benjamin Constant/AM,-4.3782748,-70.0290603,84,191.19153
1,Bento Fernandes/RN,-5.6926846,-35.8207423,114,2063.34842
D1,Bento Fernandes/RN,-5.6926846,-35.8207423,3,54.29864
1,Bento Gonçalves/RS,-29.1654014,-51.5197627,14976,12295.26366
D1,Bento Gonçalves/RS,-29.1654014,-51.5197627,266,218.38543
1,Bento de Abreu/SP,-21.2707225,-50.8120444,251,8352.74542
1,Bequimão/MA,-2.4495376,-44.7884889,275,1291.14043
D1,Bequimão/MA,-2.4495376,-44.7884889,17,79.81595
1,Berilo/MG,-16.9515764,-42.4643732,128,1078.16712
D1,Berilo/MG,-16.9515764,-42.4643732,1,8.42318
1,Berizal/MG,-15.6118785,-41.7417382,106,2225.02099
D1,Berizal/MG,-15.6118785,-41.7417382,1,20.99076
1,Bernardino Batista/PB,-6.4532173,-38.5495418,232,6561.08597
1,Bernardino de Campos/SP,-23.0140216,-49.4760724,404,3620.72056
D1,Bernardino de Campos/SP,-23.0140216,-49.4760724,8,71.69744
1,Bernardo Sayão/TO,-7.8794244,-48.8968905,434,9757.19424
D1,Bernardo Sayão/TO,-7.8794244,-48.8968905,6,134.89209
1,Bernardo do Mearim/MA,-4.6315929,-44.7617508,268,4412.97547
D1,Bernardo do Mearim/MA,-4.6315929,-44.7617508,6,98.79796
1,Bertioga/SP,-23.848568,-46.139586,4832,7465.66136
D1,Bertioga/SP,-23.848568,-46.139586,122,188.49559
1,Bertolínia/PI,-7.6372159,-43.9540611,787,14290.90249
D1,Bertolínia/PI,-7.6372159,-43.9540611,10,181.58707
1,Bertópolis/MG,-17.063333,-40.573889,267,5795.52854
1,Beruri/AM,-3.9007135,-61.3717319,2101,10456.37784
D1,Beruri/AM,-3.9007135,-61.3717319,31,154.28259
1,Betim/MG,-19.968056,-44.198333,25444,5720.52952
D1,Betim/MG,-19.968056,-44.198333,920,206.84197
1,Betânia do Piauí/PI,-8.1460635,-40.7961387,157,2528.18035
D1,Betânia do Piauí/PI,-8.1460635,-40.7961387,2,32.20612
1,Betânia/PE,-8.2742779,-38.0351767,391,3063.06306
D1,Betânia/PE,-8.2742779,-38.0351767,10,78.33921
1,Bezerros/PE,-8.2372132,-35.7558262,3263,5359.72405
D1,Bezerros/PE,-8.2372132,-35.7558262,98,160.97240
1,Bias Fortes/MG,-21.605833,-43.756944,99,2973.86603
D1,Bias Fortes/MG,-21.605833,-43.756944,2,60.07810
1,Bicas/MG,-21.7213723,-43.0604327,1089,7482.47904
D1,Bicas/MG,-21.7213723,-43.0604327,32,219.87083
1,Biguaçu/SC,-27.4961277,-48.6542432,10221,14709.43787
D1,Biguaçu/SC,-27.4961277,-48.6542432,151,217.30996
1,Bilac/SP,-21.403962,-50.47464,726,8944.19120
D1,Bilac/SP,-21.403962,-50.47464,13,160.15769
1,Biquinhas/MG,-18.783611,-45.502222,103,4123.29864
D1,Biquinhas/MG,-18.783611,-45.502222,1,40.03203
1,Birigui/SP,-21.2908491,-50.34144,11506,9213.42376
D1,Birigui/SP,-21.2908491,-50.34144,403,322.70205
1,Biritiba Mirim/SP,-23.5697765,-46.0407456,1053,3197.10955
D1,Biritiba Mirim/SP,-23.5697765,-46.0407456,68,206.46102
1,Biritinga/BA,-11.6227908,-38.8066738,311,1945.69570
D1,Biritinga/BA,-11.6227908,-38.8066738,6,37.53754
1,Bituruna/PR,-26.161281,-51.5533319,603,3676.82927
D1,Bituruna/PR,-26.161281,-51.5533319,10,60.97561
1,Blumenau/SC,-26.9195567,-49.0658025,44992,12433.70964
D1,Blumenau/SC,-26.9195567,-49.0658025,508,140.38772
1,Boa Esperança do Iguaçu/PR,-25.6362851,-53.2139114,139,5627.53036
1,Boa Esperança do Sul/SP,-21.9930206,-48.3917372,744,4954.05513
D1,Boa Esperança do Sul/SP,-21.9930206,-48.3917372,11,73.24544
1,Boa Esperança/ES,-18.5395472,-40.2904088,1183,7838.58998
D1,Boa Esperança/ES,-18.5395472,-40.2904088,35,231.91095
1,Boa Esperança/MG,-21.0901253,-45.5660195,2970,7384.56948
D1,Boa Esperança/MG,-21.0901253,-45.5660195,82,203.88374
1,Boa Esperança/PR,-24.2411024,-52.7860277,249,6152.70571
D1,Boa Esperança/PR,-24.2411024,-52.7860277,7,172.96763
1,Boa Hora/PI,-4.4094627,-42.1255341,487,7146.00147
D1,Boa Hora/PI,-4.4094627,-42.1255341,5,73.36757
1,Boa Nova/BA,-14.365907,-40.2063056,758,6148.10609
D1,Boa Nova/BA,-14.365907,-40.2063056,11,89.22054
1,Boa Ventura de São Roque/PR,-24.88177,-51.5441292,362,5687.35271
D1,Boa Ventura de São Roque/PR,-24.88177,-51.5441292,5,78.55460
1,Boa Ventura/PB,-7.4202462,-38.2156782,287,5407.95176
D1,Boa Ventura/PB,-7.4202462,-38.2156782,5,94.21519
1,Boa Viagem/CE,-5.1261877,-39.7300055,3099,5678.21610
D1,Boa Viagem/CE,-5.1261877,-39.7300055,79,144.74962
1,Boa Vista da Aparecida/PR,-25.4357216,-53.4067721,716,9496.02122
D1,Boa Vista da Aparecida/PR,-25.4357216,-53.4067721,20,265.25199
1,Boa Vista das Missões/RS,-27.6677983,-53.3127622,126,6022.94455
D1,Boa Vista das Missões/RS,-27.6677983,-53.3127622,4,191.20459
1,Boa Vista do Buricá/RS,-27.6687782,-54.1111913,600,8939.21335
D1,Boa Vista do Buricá/RS,-27.6687782,-54.1111913,8,119.18951
1,Boa Vista do Cadeado/RS,-28.5783827,-53.8123759,145,5875.20259
D1,Boa Vista do Cadeado/RS,-28.5783827,-53.8123759,2,81.03728
1,Boa Vista do Gurupi/MA,-1.7981168,-46.3071882,15,178.95490
D1,Boa Vista do Gurupi/MA,-1.7981168,-46.3071882,4,47.72131
1,Boa Vista do Incra/RS,-28.8195551,-53.3866624,217,8295.10703
D1,Boa Vista do Incra/RS,-28.8195551,-53.3866624,3,114.67890
1,Boa Vista do Ramos/AM,-2.9716927,-57.5869819,866,4412.51401
D1,Boa Vista do Ramos/AM,-2.9716927,-57.5869819,11,56.04810
1,Boa Vista do Sul/RS,-29.3510488,-51.6779679,253,9107.27142
D1,Boa Vista do Sul/RS,-29.3510488,-51.6779679,3,107.99136
1,Boa Vista do Tupim/BA,-12.6605988,-40.6083594,190,1025.30894
D1,Boa Vista do Tupim/BA,-12.6605988,-40.6083594,4,21.58545
1,Boa Vista/PB,-7.2620711,-36.2415161,548,7679.37220
D1,Boa Vista/PB,-7.2620711,-36.2415161,9,126.12108
1,Boa Vista/RR,2.8208478,-60.6719582,75252,17932.00080
D1,Boa Vista/RR,2.8208478,-60.6719582,1200,285.95122
1,Boca da Mata/AL,-9.6452054,-36.2116658,1621,5925.57391
D1,Boca da Mata/AL,-9.6452054,-36.2116658,41,149.87571
1,Boca do Acre/AM,-8.7553487,-67.3930873,2495,7203.69568
D1,Boca do Acre/AM,-8.7553487,-67.3930873,22,63.51956
1,Bocaina de Minas/MG,-22.167778,-44.394722,148,2908.23344
D1,Bocaina de Minas/MG,-22.167778,-44.394722,5,98.25113
1,Bocaina do Sul/SC,-27.745494,-49.942279,359,10292.43119
D1,Bocaina do Sul/SC,-27.745494,-49.942279,3,86.00917
1,Bocaina/PI,-6.9445939,-41.3224599,235,5216.42619
D1,Bocaina/PI,-6.9445939,-41.3224599,3,66.59267
1,Bocaina/SP,-22.1421831,-48.522276,1093,8777.70639
D1,Bocaina/SP,-22.1421831,-48.522276,26,208.80180
1,Bocaiúva do Sul/PR,-25.206591,-49.114131,1457,11097.57026
D1,Bocaiúva do Sul/PR,-25.206591,-49.114131,12,91.40072
1,Bocaiúva/MG,-17.1160208,-43.8122678,1810,3601.56001
D1,Bocaiúva/MG,-17.1160208,-43.8122678,43,85.56192
1,Bodocó/PE,-7.777592,-39.933797,1608,4189.90046
D1,Bodocó/PE,-7.777592,-39.933797,25,65.14149
1,Bodoquena/MS,-20.5508775,-56.6769653,278,3546.82317
D1,Bodoquena/MS,-20.5508775,-56.6769653,11,140.34192
1,Bodó/RN,-5.9866104,-36.4134824,104,4733.72781
1,Bofete/SP,-23.1019554,-48.2610535,576,4831.80941
D1,Bofete/SP,-23.1019554,-48.2610535,13,109.05125
1,Boituva/SP,-23.2838893,-47.6738231,4361,7014.63728
D1,Boituva/SP,-23.2838893,-47.6738231,108,173.71723
1,Bom Conselho/PE,-9.169191,-36.685683,1381,2831.83300
D1,Bom Conselho/PE,-9.169191,-36.685683,46,94.32608
1,Bom Despacho/MG,-19.7375242,-45.2517288,2906,5694.91260
D1,Bom Despacho/MG,-19.7375242,-45.2517288,64,125.42134
1,Bom Jardim da Serra/SC,-28.3380324,-49.625588,550,11525.56580
D1,Bom Jardim da Serra/SC,-28.3380324,-49.625588,4,83.82230
1,Bom Jardim de Goiás/GO,-16.2062659,-52.172793,616,6945.54065
D1,Bom Jardim de Goiás/GO,-16.2062659,-52.172793,13,146.57797
1,Bom Jardim de Minas/MG,-21.9476466,-44.1906033,376,5821.33457
D1,Bom Jardim de Minas/MG,-21.9476466,-44.1906033,1,15.48227
1,Bom Jardim/MA,-3.54129,-45.606004,1212,2897.99627
D1,Bom Jardim/MA,-3.54129,-45.606004,42,100.42561
1,Bom Jardim/PE,-7.7961572,-35.5871696,1105,2763.67456
D1,Bom Jardim/PE,-7.7961572,-35.5871696,49,122.55208
1,Bom Jardim/RJ,-22.1515328,-42.4186683,1303,4718.27926
D1,Bom Jardim/RJ,-22.1515328,-42.4186683,31,112.25377
1,Bom Jesus da Lapa/BA,-13.250571,-43.410754,3687,5292.69903
D1,Bom Jesus da Lapa/BA,-13.250571,-43.410754,54,77.51715
1,Bom Jesus da Penha/MG,-21.0165299,-46.5226644,335,7893.49670
D1,Bom Jesus da Penha/MG,-21.0165299,-46.5226644,8,188.50141
1,Bom Jesus da Serra/BA,-14.3724084,-40.5047119,415,4224.77858
D1,Bom Jesus da Serra/BA,-14.3724084,-40.5047119,8,81.44151
1,Bom Jesus das Selvas/MA,-4.4878075,-46.8526639,2758,7978.70802
D1,Bom Jesus das Selvas/MA,-4.4878075,-46.8526639,23,66.53745
1,Bom Jesus de Goiás/GO,-18.2174587,-49.739721,2437,9501.71553
D1,Bom Jesus de Goiás/GO,-18.2174587,-49.739721,96,374.29819
1,Bom Jesus do Amparo/MG,-19.7045132,-43.4752911,182,2967.55258
D1,Bom Jesus do Amparo/MG,-19.7045132,-43.4752911,6,97.83140
1,Bom Jesus do Araguaia/MT,-12.1725897,-51.5074425,873,13018.19266
D1,Bom Jesus do Araguaia/MT,-12.1725897,-51.5074425,14,208.76827
1,Bom Jesus do Galho/MG,-19.8283191,-42.3162256,540,3633.42753
D1,Bom Jesus do Galho/MG,-19.8283191,-42.3162256,24,161.48567
1,Bom Jesus do Itabapoana/RJ,-21.1341025,-41.680095,2711,7287.04674
D1,Bom Jesus do Itabapoana/RJ,-21.1341025,-41.680095,73,196.22073
1,Bom Jesus do Norte/ES,-21.1254776,-41.6711646,867,8703.07167
D1,Bom Jesus do Norte/ES,-21.1254776,-41.6711646,21,210.80104
1,Bom Jesus do Oeste/SC,-26.6929713,-53.0967453,153,7152.87518
D1,Bom Jesus do Oeste/SC,-26.6929713,-53.0967453,5,233.75409
1,Bom Jesus do Sul/PR,-26.1922507,-53.6002033,249,7102.11067
D1,Bom Jesus do Sul/PR,-26.1922507,-53.6002033,3,85.56760
1,Bom Jesus do Tocantins/PA,-5.0471796,-48.5978362,711,4153.52261
D1,Bom Jesus do Tocantins/PA,-5.0471796,-48.5978362,23,134.36149
1,Bom Jesus do Tocantins/TO,-8.96306,-48.165043,124,2476.03834
D1,Bom Jesus do Tocantins/TO,-8.96306,-48.165043,3,59.90415
1,Bom Jesus dos Perdões/SP,-23.1353864,-46.4648052,1722,6626.90013
D1,Bom Jesus dos Perdões/SP,-23.1353864,-46.4648052,23,88.51260
1,Bom Jesus/PB,-6.8156725,-38.6551841,121,4699.02913
D1,Bom Jesus/PB,-6.8156725,-38.6551841,3,116.50485
1,Bom Jesus/PI,-9.0711644,-44.3583926,2893,11395.59617
D1,Bom Jesus/PI,-9.0711644,-44.3583926,29,114.23169
1,Bom Jesus/RN,-5.9887544,-35.5821149,627,6106.94458
D1,Bom Jesus/RN,-5.9887544,-35.5821149,13,126.61927
1,Bom Jesus/RS,-28.6692723,-50.4346894,635,5614.99691
D1,Bom Jesus/RS,-28.6692723,-50.4346894,15,132.63772
1,Bom Jesus/SC,-26.7350604,-52.3916519,326,10664.04972
D1,Bom Jesus/SC,-26.7350604,-52.3916519,6,196.27085
1,Bom Lugar/MA,-4.3728019,-45.0366054,436,2652.39080
D1,Bom Lugar/MA,-4.3728019,-45.0366054,7,42.58426
1,Bom Princípio do Piauí/PI,-3.1912777,-41.6430185,118,2088.12600
D1,Bom Princípio do Piauí/PI,-3.1912777,-41.6430185,10,176.95983
1,Bom Princípio/RS,-29.489788,-51.3566782,1407,9870.22098
D1,Bom Princípio/RS,-29.489788,-51.3566782,25,175.37706
1,Bom Progresso/RS,-27.5490948,-53.8655601,117,6161.13744
D1,Bom Progresso/RS,-27.5490948,-53.8655601,3,157.97788
1,Bom Repouso/MG,-22.4657069,-46.1485376,706,6700.19930
D1,Bom Repouso/MG,-22.4657069,-46.1485376,17,161.33624
1,Bom Retiro do Sul/RS,-29.6000007,-51.9359243,909,7336.56174
D1,Bom Retiro do Sul/RS,-29.6000007,-51.9359243,24,193.70460
1,Bom Retiro/SC,-27.798993,-49.486994,616,6123.26044
D1,Bom Retiro/SC,-27.798993,-49.486994,14,139.16501
1,Bom Sucesso de Itararé/SP,-24.3190016,-49.1446207,119,2986.94779
D1,Bom Sucesso de Itararé/SP,-24.3190016,-49.1446207,5,125.50201
1,Bom Sucesso do Sul/PR,-26.0749256,-52.8348629,322,9895.51321
D1,Bom Sucesso do Sul/PR,-26.0749256,-52.8348629,6,184.38844
1,Bom Sucesso/MG,-21.0323516,-44.7598082,563,3197.59187
D1,Bom Sucesso/MG,-21.0323516,-44.7598082,5,28.39780
1,Bom Sucesso/PB,-6.4458948,-37.9297662,198,3995.15738
D1,Bom Sucesso/PB,-6.4458948,-37.9297662,2,40.35513
1,Bom Sucesso/PR,-23.7088019,-51.7651297,646,9139.78495
D1,Bom Sucesso/PR,-23.7088019,-51.7651297,12,169.77929
1,Bombinhas/SC,-27.1519159,-48.4875691,3285,16154.41357
D1,Bombinhas/SC,-27.1519159,-48.4875691,51,250.79911
1,Bonfim do Piauí/PI,-9.1648678,-42.8734415,291,5118.73351
D1,Bonfim do Piauí/PI,-9.1648678,-42.8734415,6,105.54090
1,Bonfim/MG,-20.3266626, -44.2386157,345,5029.15452
D1,Bonfim/MG,-20.3266626, -44.2386157,14,204.08163
1,Bonfim/RR,3.3613818,-59.8427241,2184,17392.68934
D1,Bonfim/RR,3.3613818,-59.8427241,24,191.12845
1,Bonfinópolis de Minas/MG,-16.5660011,-45.98645,376,6906.68626
D1,Bonfinópolis de Minas/MG,-16.5660011,-45.98645,11,202.05731
1,Bonfinópolis/GO,-16.6172709,-48.9615701,443,4466.17603
D1,Bonfinópolis/GO,-16.6172709,-48.9615701,16,161.30658
1,Boninal/BA,-12.7095183,-41.8299984,569,3938.80659
D1,Boninal/BA,-12.7095183,-41.8299984,7,48.45632
1,Bonito de Minas/MG,-15.3191266,-44.7544,43,378.22148
1,Bonito de Santa Fé/PB,-7.3143332,-38.5146677,410,3410.41424
D1,Bonito de Santa Fé/PB,-7.3143332,-38.5146677,11,91.49892
1,Bonito/BA,-11.9665473,-41.2649896,667,3950.48567
D1,Bonito/BA,-11.9665473,-41.2649896,10,59.22767
1,Bonito/MS,-21.1264766,-56.4902208,2242,10103.65029
D1,Bonito/MS,-21.1264766,-56.4902208,46,207.30059
1,Bonito/PA,-1.3605722,-47.3049907,352,2129.46158
D1,Bonito/PA,-1.3605722,-47.3049907,12,72.59528
1,Bonito/PE,-8.4721161,-35.7314591,629,1650.18233
D1,Bonito/PE,-8.4721161,-35.7314591,34,89.19905
1,Bonópolis/GO,-13.649331,-49.8329113,143,3182.72869
D1,Bonópolis/GO,-13.649331,-49.8329113,1,22.25684
1,Boqueirão do Leão/RS,-29.30332,-52.4296817,554,7192.93690
D1,Boqueirão do Leão/RS,-29.30332,-52.4296817,28,363.54194
1,Boqueirão do Piauí/PI,-4.4850148,-42.1095161,499,7765.32835
D1,Boqueirão do Piauí/PI,-4.4850148,-42.1095161,8,124.49424
1,Boqueirão/PB,-7.487004,-36.130887,1313,7347.50979
D1,Boqueirão/PB,-7.487004,-36.130887,23,128.70733
1,Boquim/SE,-11.1450175,-37.6204228,1926,7160.11748
D1,Boquim/SE,-11.1450175,-37.6204228,45,167.29246
1,Boquira/BA,-12.8184859,-42.7270883,463,2153.78890
D1,Boquira/BA,-12.8184859,-42.7270883,10,46.51812
1,Boracéia/SP,-22.195355,-48.7801925,788,16187.34593
D1,Boracéia/SP,-22.195355,-48.7801925,19,390.30403
1,Borba/AM,-4.3934778,-59.5947721,1889,4524.76765
D1,Borba/AM,-4.3934778,-59.5947721,53,126.95219
1,Borborema/PB,-6.8066718,-35.5990191,345,6525.43976
D1,Borborema/PB,-6.8066718,-35.5990191,10,189.14318
1,Borborema/SP,-21.6212706,-49.074135,1049,6489.73026
D1,Borborema/SP,-21.6212706,-49.074135,35,216.53056
1,Borda da Mata/MG,-22.274167,-46.165278,1121,5715.30539
D1,Borda da Mata/MG,-22.274167,-46.165278,35,178.44397
1,Borebi/SP,-22.5700178,-48.9714871,139,5180.76780
D1,Borebi/SP,-22.5700178,-48.9714871,2,74.54342
1,Borrazópolis/PR,-23.9393362,-51.5850786,522,8106.84889
D1,Borrazópolis/PR,-23.9393362,-51.5850786,19,295.07688
1,Borá/SP,-22.2701088,-50.544407,67,7995.22673
D1,Borá/SP,-22.2701088,-50.544407,1,119.33174
1,Bossoroca/RS,-28.7278885,-54.9120278,368,5930.70105
D1,Bossoroca/RS,-28.7278885,-54.9120278,19,306.20467
1,Botelhos/MG,-21.65,-46.394722,1214,8120.94454
D1,Botelhos/MG,-21.65,-46.394722,16,107.03057
1,Botucatu/SP,-22.8879628,-48.4410712,11333,7650.71221
D1,Botucatu/SP,-22.8879628,-48.4410712,211,142.44245
1,Botumirim/MG,-16.862778,-43.011111,186,2958.01527
D1,Botumirim/MG,-16.862778,-43.011111,3,47.70992
1,Botuporã/BA,-13.3744752,-42.5198469,188,1856.05687
D1,Botuporã/BA,-13.3744752,-42.5198469,3,29.61793
1,Botuverá/SC,-27.200749,-49.068892,831,15614.43067
D1,Botuverá/SC,-27.200749,-49.068892,8,150.31943
1,Bozano/RS,-28.3669953,-53.7705165,211,9995.26291
D1,Bozano/RS,-28.3669953,-53.7705165,7,331.59640
1,Braga/RS,-27.617348,-53.740514,168,5073.99577
D1,Braga/RS,-27.617348,-53.740514,4,120.80942
1,Braganey/PR,-24.8179919,-53.118506,312,5797.10145
D1,Braganey/PR,-24.8179919,-53.118506,7,130.06317
1,Bragança Paulista/SP,-22.9520235,-46.5418586,13397,7855.95750
D1,Bragança Paulista/SP,-22.9520235,-46.5418586,372,218.13960
1,Bragança/PA,-1.0573967,-46.7635406,3829,2970.19719
D1,Bragança/PA,-1.0573967,-46.7635406,123,95.41245
1,Branquinha/AL,-9.2478057,-36.0152009,462,4416.82600
D1,Branquinha/AL,-9.2478057,-36.0152009,9,86.04207
1,Brasil Novo/PA,-3.3055853,-52.539198,1577,10525.26196
D1,Brasil Novo/PA,-3.3055853,-52.539198,36,240.27231
1,Brasileira/PI,-4.131182,-41.7824969,475,5690.66731
D1,Brasileira/PI,-4.131182,-41.7824969,9,107.82317
1,Brasilândia de Minas/MG,-17.0096469,-46.0087183,950,5672.31908
D1,Brasilândia de Minas/MG,-17.0096469,-46.0087183,12,71.65035
1,Brasilândia do Sul/PR,-24.1975793,-53.527551,328,12688.58801
D1,Brasilândia do Sul/PR,-24.1975793,-53.527551,8,309.47776
1,Brasilândia do Tocantins/TO,-8.3886619,-48.4842729,139,6286.74808
D1,Brasilândia do Tocantins/TO,-8.3886619,-48.4842729,4,180.91361
1,Brasilândia/MS,-21.255575,-52.0365617,778,6563.73914
D1,Brasilândia/MS,-21.255575,-52.0365617,14,118.11356
1,Brasiléia/AC,-11.0010413,-68.7487894,2565,9606.02202
D1,Brasiléia/AC,-11.0010413,-68.7487894,36,134.82136
1,Brasnorte/MT,-12.1227151,-58.0050109,1744,8659.38431
D1,Brasnorte/MT,-12.1227151,-58.0050109,30,148.95730
1,Brasília de Minas/MG,-16.2075114,-44.430559,837,2582.93473
D1,Brasília de Minas/MG,-16.2075114,-44.430559,7,21.60160
1,Brasília/DF,-15.7934036,-47.8823172,389178,12738.42945
D1,Brasília/DF,-15.7934036,-47.8823172,8217,268.95579
1,Brazabrantes/GO,-16.4291635,-49.3858216,381,10170.84891
D1,Brazabrantes/GO,-16.4291635,-49.3858216,3,80.08542
1,Brazópolis/MG,-22.4742842,-45.6165577,674,4677.30743
D1,Brazópolis/MG,-22.4742842,-45.6165577,28,194.30951
1,Braço do Norte/SC,-28.2728633,-49.1622712,7142,21082.77246
D1,Braço do Norte/SC,-28.2728633,-49.1622712,76,224.34762
1,Braço do Trombudo/SC,-27.358578,-49.882145,568,15070.31043
D1,Braço do Trombudo/SC,-27.358578,-49.882145,4,106.12895
1,Braúna/SP,-21.5015319,-50.3175246,369,6427.45166
D1,Braúna/SP,-21.5015319,-50.3175246,19,330.95280
1,Braúnas/MG,-19.055556,-42.716111,192,4026.00126
D1,Braúnas/MG,-19.055556,-42.716111,7,146.78130
1,Brejetuba/ES,-20.1465817,-41.2902303,1459,11740.56490
D1,Brejetuba/ES,-20.1465817,-41.2902303,13,104.61093
1,Brejinho de Nazaré/TO,-11.0205883,-48.5722906,398,7211.45135
D1,Brejinho de Nazaré/TO,-11.0205883,-48.5722906,9,163.07302
1,Brejinho/PE,-7.3482153,-37.28538,585,7812.50000
D1,Brejinho/PE,-7.3482153,-37.28538,15,200.32051
1,Brejinho/RN,-6.1957907,-35.3583019,970,7585.82936
D1,Brejinho/RN,-6.1957907,-35.3583019,9,70.38398
1,Brejo Alegre/SP,-21.1671191,-50.1850393,262,9068.88197
D1,Brejo Alegre/SP,-21.1671191,-50.1850393,11,380.75459
1,Brejo Grande do Araguaia/PA,-5.7011449,-48.4037308,751,10192.72530
D1,Brejo Grande do Araguaia/PA,-5.7011449,-48.4037308,4,54.28882
1,Brejo Grande/SE,-10.4287358,-36.4667918,345,4130.25260
D1,Brejo Grande/SE,-10.4287358,-36.4667918,12,143.66096
1,Brejo Santo/CE,-7.4909841,-38.9859152,7297,14640.26323
D1,Brejo Santo/CE,-7.4909841,-38.9859152,125,250.79250
1,Brejo da Madre de Deus/PE,-8.1409718,-36.3712527,1763,3441.67887
D1,Brejo da Madre de Deus/PE,-8.1409718,-36.3712527,46,89.79990
1,Brejo de Areia/MA,-4.3316785,-45.5833334,281,3117.37298
D1,Brejo de Areia/MA,-4.3316785,-45.5833334,8,88.75083
1,Brejo do Cruz/PB,-6.32926065,-37.48746163303929,1236,8700.54906
D1,Brejo do Cruz/PB,-6.32926065,-37.48746163303929,19,133.74630
1,Brejo do Piauí/PI,-8.207583,-42.8359849,62,1611.22661
D1,Brejo do Piauí/PI,-8.207583,-42.8359849,3,77.96258
1,Brejo dos Santos/PB,-6.3769367,-37.8243125,367,5677.59901
D1,Brejo dos Santos/PB,-6.3769367,-37.8243125,4,61.88119
1,Brejo/MA,-3.6804397,-42.7529313,829,2261.87553
D1,Brejo/MA,-3.6804397,-42.7529313,19,51.84033
1,Brejolândia/BA,-12.4843845,-43.9611861,129,1214.91806
D1,Brejolândia/BA,-12.4843845,-43.9611861,8,75.34376
1,Brejão/PE,-9.029146,-36.566034,188,2091.91054
D1,Brejão/PE,-9.029146,-36.566034,5,55.63592
1,Brejões/BA,-13.1033754,-39.7909837,551,3874.27929
D1,Brejões/BA,-13.1033754,-39.7909837,9,63.28224
1,Breu Branco/PA,-3.7785073,-49.5684795,581,862.88837
D1,Breu Branco/PA,-3.7785073,-49.5684795,42,62.37747
1,Breves/PA,-1.68036,-50.479085,3832,3702.52278
D1,Breves/PA,-1.68036,-50.479085,109,105.31706
1,Britânia/GO,-15.2427599,-51.1602061,463,7986.88977
D1,Britânia/GO,-15.2427599,-51.1602061,3,51.75091
1,Brochier/RS,-29.556766,-51.5963047,358,7014.10658
D1,Brochier/RS,-29.556766,-51.5963047,1,19.59248
1,Brodowski/SP,-20.984532,-47.657217,1860,7358.46817
D1,Brodowski/SP,-20.984532,-47.657217,48,189.89595
1,Brotas de Macaúbas/BA,-12.0019007,-42.6257506,70,691.01678
D1,Brotas de Macaúbas/BA,-12.0019007,-42.6257506,1,9.87167
1,Brotas/SP,-22.2840884,-48.1267265,456,1850.94983
D1,Brotas/SP,-22.2840884,-48.1267265,32,129.89122
1,Brumadinho/MG,-20.143611,-44.2,2930,7205.03615
D1,Brumadinho/MG,-20.143611,-44.2,69,169.67491
1,Brumado/BA,-14.29507325,-41.659307508575985,8269,12280.38910
D1,Brumado/BA,-14.29507325,-41.659307508575985,165,245.04344
1,Brunópolis/SC,-27.310953,-50.837585,236,9966.21622
D1,Brunópolis/SC,-27.310953,-50.837585,6,253.37838
1,Brusque/SC,-27.0964628,-48.9136323,23340,16951.24520
D1,Brusque/SC,-27.0964628,-48.9136323,237,172.12704
1,Brás Pires/MG,-20.8483109,-43.2430524,177,4122.99092
D1,Brás Pires/MG,-20.8483109,-43.2430524,6,139.76240
1,Bueno Brandão/MG,-22.441976,-46.3517971,561,5104.17614
D1,Bueno Brandão/MG,-22.441976,-46.3517971,19,172.86871
1,Buenos Aires/PE,-7.7218931,-35.326587,218,1652.76725
D1,Buenos Aires/PE,-7.7218931,-35.326587,19,144.04852
1,Buenópolis/MG,-17.8756607,-44.1749365,305,2946.00599
D1,Buenópolis/MG,-17.8756607,-44.1749365,10,96.59036
1,Buerarema/BA,-14.9571177,-39.3008035,1241,6779.19808
D1,Buerarema/BA,-14.9571177,-39.3008035,37,202.11952
1,Bugre/MG,-19.4257687,-42.2556,351,8812.45292
D1,Bugre/MG,-19.4257687,-42.2556,12,301.28044
1,Bujari/AC,-9.8309656,-67.9520886,1094,10499.04031
D1,Bujari/AC,-9.8309656,-67.9520886,14,134.35701
1,Bujaru/PA,-1.5169239,-48.0410699,1299,4414.31339
D1,Bujaru/PA,-1.5169239,-48.0410699,36,122.33663
1,Buri/SP,-23.79849,-48.598924,2147,10753.81918
D1,Buri/SP,-23.79849,-48.598924,59,295.51716
1,Buritama/SP,-21.0664017,-50.1448077,1876,10855.85325
D1,Buritama/SP,-21.0664017,-50.1448077,55,318.26862
1,Buriti Alegre/GO,-18.1377879,-49.0404411,807,8509.06790
D1,Buriti Alegre/GO,-18.1377879,-49.0404411,28,295.23408
1,Buriti Bravo/MA,-5.8391884,-43.8367876,1245,5200.71849
D1,Buriti Bravo/MA,-5.8391884,-43.8367876,12,50.12741
1,Buriti de Goiás/GO,-16.180644,-50.4287479,176,7108.23910
D1,Buriti de Goiás/GO,-16.180644,-50.4287479,8,323.10178
1,Buriti do Tocantins/TO,-5.3187439,-48.2256609,682,5931.98226
D1,Buriti do Tocantins/TO,-5.3187439,-48.2256609,8,69.58337
1,Buriti dos Lopes/PI,-3.1776723,-41.8707444,1184,5977.68466
D1,Buriti dos Lopes/PI,-3.1776723,-41.8707444,23,116.12056
1,Buriti dos Montes/PI,-5.3136171,-41.0971256,550,6655.37270
D1,Buriti dos Montes/PI,-5.3136171,-41.0971256,7,84.70474
1,Buriti/MA,-3.9430944,-42.9244281,751,2607.81999
D1,Buriti/MA,-3.9430944,-42.9244281,7,24.30724
1,Buriticupu/MA,-4.3227472,-46.4516989,2973,4073.55137
D1,Buriticupu/MA,-4.3227472,-46.4516989,38,52.06692
1,Buritinópolis/GO,-14.4589282,-46.4293104,157,4782.21139
D1,Buritinópolis/GO,-14.4589282,-46.4293104,1,30.45995
1,Buritirama/BA,-10.7148421,-43.6362327,789,3708.40384
D1,Buritirama/BA,-10.7148421,-43.6362327,18,84.60237
1,Buritirana/MA,-5.5897455,-47.0148915,361,2334.00142
D1,Buritirana/MA,-5.5897455,-47.0148915,23,148.70369
1,Buritis/MG,-15.621389,-46.423889,1394,5573.10199
D1,Buritis/MG,-15.621389,-46.423889,28,111.94179
1,Buritis/RO,-10.2054937,-63.8281954,4244,10516.40400
D1,Buritis/RO,-10.2054937,-63.8281954,62,153.63267
1,Buritizal/SP,-20.1933264,-47.7097165,233,5161.71910
D1,Buritizal/SP,-20.1933264,-47.7097165,9,199.37971
1,Buritizeiro/MG,-17.3667765,-44.9647781,963,3424.48704
D1,Buritizeiro/MG,-17.3667765,-44.9647781,28,99.56972
1,Butiá/RS,-30.1256795,-51.9692224,1713,8175.83047
D1,Butiá/RS,-30.1256795,-51.9692224,48,229.09507
1,Buíque/PE,-8.6239732,-37.157296,1822,3092.38107
D1,Buíque/PE,-8.6239732,-37.157296,37,62.79808
1,Bálsamo/SP,-20.7343722,-49.5807484,1298,14202.86683
D1,Bálsamo/SP,-20.7343722,-49.5807484,51,558.04793
0,CASO SEM LOCALIZAÇÃO DEFINIDA/BA,-13.415069300066518,-38.14174656569957,10174,68.40554
D0,CASO SEM LOCALIZAÇÃO DEFINIDA/BA,-13.415069300066518,-38.14174656569957,188,1.26403
0,CASO SEM LOCALIZAÇÃO DEFINIDA/CE,-3.3445126297392798,-38.624961942434304,8399,91.97250
0,CASO SEM LOCALIZAÇÃO DEFINIDA/ES,-20.30989267097039,-39.81745156645774,3679,91.54816
D0,CASO SEM LOCALIZAÇÃO DEFINIDA/ES,-20.30989267097039,-39.81745156645774,182,4.52888
0,CASO SEM LOCALIZAÇÃO DEFINIDA/GO,-16.701590966270153,-49.164524059025034,1688,24.05122
D0,CASO SEM LOCALIZAÇÃO DEFINIDA/GO,-16.701590966270153,-49.164524059025034,121,1.72405
0,CASO SEM LOCALIZAÇÃO DEFINIDA/MG,-19.97049116501593,-43.8852149072783,4266,20.15231
D0,CASO SEM LOCALIZAÇÃO DEFINIDA/MG,-19.97049116501593,-43.8852149072783,267,1.26129
0,CASO SEM LOCALIZAÇÃO DEFINIDA/MT,-15.54791153961863,-56.17143998972475,2224,63.82614
D0,CASO SEM LOCALIZAÇÃO DEFINIDA/MT,-15.54791153961863,-56.17143998972475,170,4.87880
0,CASO SEM LOCALIZAÇÃO DEFINIDA/PA,-0.09317078214359542,-48.0050231510481,2778,32.29157
D0,CASO SEM LOCALIZAÇÃO DEFINIDA/PA,-0.09317078214359542,-48.0050231510481,104,1.20890
0,CASO SEM LOCALIZAÇÃO DEFINIDA/PI,-2.683810218391744,-41.470898009352254,1082,33.05606
D0,CASO SEM LOCALIZAÇÃO DEFINIDA/PI,-2.683810218391744,-41.470898009352254,24,0.73322
0,CASO SEM LOCALIZAÇÃO DEFINIDA/PR,-25.69415946385943,-48.10141676336737,5750,50.28880
D0,CASO SEM LOCALIZAÇÃO DEFINIDA/PR,-25.69415946385943,-48.10141676336737,144,1.25941
0,CASO SEM LOCALIZAÇÃO DEFINIDA/RN,-5.749310788669161,-34.95302586257457,2074,59.14134
D0,CASO SEM LOCALIZAÇÃO DEFINIDA/RN,-5.749310788669161,-34.95302586257457,47,1.34023
0,CASO SEM LOCALIZAÇÃO DEFINIDA/RR,2.813328208465927,-60.663338675861986,2540,419.30728
D0,CASO SEM LOCALIZAÇÃO DEFINIDA/RR,2.813328208465927,-60.663338675861986,14,2.31114
0,CASO SEM LOCALIZAÇÃO DEFINIDA/SP,-24.30968974555485,-46.21366504207253,709,1.54402
1,Caapiranga/AM,-3.3188884,-61.2096404,570,4291.19928
D1,Caapiranga/AM,-3.3188884,-61.2096404,20,150.56840
1,Caaporã/PB,-7.510234,-34.9154114,1667,7592.80346
D1,Caaporã/PB,-7.510234,-34.9154114,28,127.53359
1,Caarapó/MS,-22.6349267,-54.8240903,2646,8649.03736
D1,Caarapó/MS,-22.6349267,-54.8240903,25,81.71804
1,Caatiba/BA,-14.9782759,-40.4092325,731,11266.95438
D1,Caatiba/BA,-14.9782759,-40.4092325,8,123.30456
1,Cabaceiras do Paraguaçu/BA,-12.5377868,-39.1901339,465,2458.88636
D1,Cabaceiras do Paraguaçu/BA,-12.5377868,-39.1901339,4,21.15171
1,Cabaceiras/PB,-7.4899156,-36.2860501,310,5476.06430
D1,Cabaceiras/PB,-7.4899156,-36.2860501,2,35.32945
1,Cabeceira Grande/MG,-16.0297,-47.0906,287,4107.04064
D1,Cabeceira Grande/MG,-16.0297,-47.0906,4,57.24098
1,Cabeceiras do Piauí/PI,-4.4733665,-42.3098716,461,4336.78269
D1,Cabeceiras do Piauí/PI,-4.4733665,-42.3098716,10,94.07338
1,Cabeceiras/GO,-15.7995459,-46.9264991,302,3753.41785
D1,Cabeceiras/GO,-15.7995459,-46.9264991,13,161.57097
1,Cabedelo/PB,-6.97324,-34.8351609,7641,11111.43426
D1,Cabedelo/PB,-6.97324,-34.8351609,172,250.11997
1,Cabixi/RO,-13.4956065,-60.5424442,656,12644.56438
D1,Cabixi/RO,-13.4956065,-60.5424442,18,346.95451
1,Cabo Frio/RJ,-22.8804369,-42.0189227,10776,4677.52997
D1,Cabo Frio/RJ,-22.8804369,-42.0189227,561,243.51284
1,Cabo Verde/MG,-21.4743338,-46.3964995,364,2586.14565
D1,Cabo Verde/MG,-21.4743338,-46.3964995,5,35.52398
1,Cabo de Santo Agostinho/PE,-8.2838945,-35.0320984,4953,2370.49161
D1,Cabo de Santo Agostinho/PE,-8.2838945,-35.0320984,408,195.26763
1,Cabreúva/SP,-23.3075813,-47.1324417,3068,6083.80099
D1,Cabreúva/SP,-23.3075813,-47.1324417,75,148.72395
1,Cabrobó/PE,-8.5083701,-39.3106961,1646,4770.59966
D1,Cabrobó/PE,-8.5083701,-39.3106961,21,60.86427
1,Cabrália Paulista/SP,-22.4562909,-49.3385645,258,6080.60335
D1,Cabrália Paulista/SP,-22.4562909,-49.3385645,2,47.13646
1,Cacaulândia/RO,-10.3380043,-62.9007231,763,12171.00016
D1,Cacaulândia/RO,-10.3380043,-62.9007231,9,143.56357
1,Cacequi/RS,-29.8838059,-54.8273443,410,3300.33003
D1,Cacequi/RS,-29.8838059,-54.8273443,6,48.29751
1,Cachoeira Alta/GO,-18.7618269,-50.9432431,1205,9513.65861
D1,Cachoeira Alta/GO,-18.7618269,-50.9432431,17,134.21759
1,Cachoeira Dourada/GO,-18.4934204,-49.481062,382,4756.56830
D1,Cachoeira Dourada/GO,-18.4934204,-49.481062,16,199.22799
1,Cachoeira Dourada/MG,-18.517136,-49.5002062,135,4988.91353
D1,Cachoeira Dourada/MG,-18.517136,-49.5002062,2,73.90983
1,Cachoeira Grande/MA,-2.9290492,-44.0573223,221,2331.71555
D1,Cachoeira Grande/MA,-2.9290492,-44.0573223,5,52.75375
1,Cachoeira Paulista/SP,-22.666498,-45.015384,1989,5922.99217
D1,Cachoeira Paulista/SP,-22.666498,-45.015384,31,92.31411
1,Cachoeira da Prata/MG,-19.524723,-44.453056,226,6293.51156
D1,Cachoeira da Prata/MG,-19.524723,-44.453056,4,111.38959
1,Cachoeira de Goiás/GO,-16.6688414,-50.6435997,56,4172.87630
D1,Cachoeira de Goiás/GO,-16.6688414,-50.6435997,2,149.03130
1,Cachoeira de Minas/MG,-22.3554043,-45.7796324,537,4637.70619
D1,Cachoeira de Minas/MG,-22.3554043,-45.7796324,8,69.09060
1,Cachoeira de Pajeú/MG,-15.965833,-41.496666,293,3103.15611
D1,Cachoeira de Pajeú/MG,-15.965833,-41.496666,8,84.72781
1,Cachoeira do Arari/PA,-1.0143572,-48.9621089,450,1870.01330
D1,Cachoeira do Arari/PA,-1.0143572,-48.9621089,20,83.11170
1,Cachoeira do Piriá/PA,-1.7599443,-46.5446954,723,2089.05198
D1,Cachoeira do Piriá/PA,-1.7599443,-46.5446954,4,11.55769
1,Cachoeira do Sul/RS,-30.0474778,-52.8905413,6766,8264.42243
D1,Cachoeira do Sul/RS,-30.0474778,-52.8905413,108,131.91806
1,Cachoeira dos Índios/PB,-6.9259193,-38.6742159,608,5900.04852
D1,Cachoeira dos Índios/PB,-6.9259193,-38.6742159,14,135.85638
1,Cachoeira/BA,-12.5998256,-38.9665918,1301,3875.83043
D1,Cachoeira/BA,-12.5998256,-38.9665918,18,53.62410
1,Cachoeiras de Macacu/RJ,-22.4626861,-42.6534414,2458,4144.81561
D1,Cachoeiras de Macacu/RJ,-22.4626861,-42.6534414,84,141.64545
1,Cachoeirinha/PE,-8.4906364,-36.2338963,410,1999.90244
D1,Cachoeirinha/PE,-8.4906364,-36.2338963,23,112.18965
1,Cachoeirinha/RS,-29.9493353,-51.0898927,12433,9473.48369
D1,Cachoeirinha/RS,-29.9493353,-51.0898927,361,275.06858
1,Cachoeirinha/TO,-6.118647,-47.9208885,117,5122.59194
D1,Cachoeirinha/TO,-6.118647,-47.9208885,2,87.56567
1,Cachoeiro de Itapemirim/ES,-20.848084,-41.11129,22943,10894.68111
D1,Cachoeiro de Itapemirim/ES,-20.848084,-41.11129,479,227.45727
1,Cacimba de Areia/PB,-7.1288513,-37.1575194,30,811.90798
D1,Cacimba de Areia/PB,-7.1288513,-37.1575194,2,54.12720
1,Cacimba de Dentro/PB,-6.6425101,-35.7929304,878,5111.18873
D1,Cacimba de Dentro/PB,-6.6425101,-35.7929304,24,139.71359
1,Cacimbas/PB,-7.2125451,-37.0593398,196,2722.60036
D1,Cacimbas/PB,-7.2125451,-37.0593398,6,83.34491
1,Cacimbinhas/AL,-9.401212,-36.991082,594,5455.04638
D1,Cacimbinhas/AL,-9.401212,-36.991082,7,64.28506
1,Cacique Doble/RS,-27.7700117,-51.6616409,404,7962.16003
D1,Cacique Doble/RS,-27.7700117,-51.6616409,8,157.66654
1,Cacoal/RO,-11.4333,-61.4420502,11510,13400.39351
D1,Cacoal/RO,-11.4333,-61.4420502,221,257.29687
1,Caconde/SP,-21.527995,-46.643659,1012,5323.79399
D1,Caconde/SP,-21.527995,-46.643659,18,94.69199
1,Caculé/BA,-14.4990734,-42.2233006,1323,5680.30570
D1,Caculé/BA,-14.4990734,-42.2233006,11,47.22854
1,Caetanos/BA,-14.3387456,-40.9085971,580,3970.42716
D1,Caetanos/BA,-14.3387456,-40.9085971,9,61.61008
1,Caetanópolis/MG,-19.2947496,-44.4138386,777,6613.32879
D1,Caetanópolis/MG,-19.2947496,-44.4138386,7,59.57954
1,Caetité/BA,-14.0691776,-42.4852428,2022,3958.41898
D1,Caetité/BA,-14.0691776,-42.4852428,21,41.11118
1,Caeté/MG,-19.897777,-43.670278,1580,3507.44778
D1,Caeté/MG,-19.897777,-43.670278,41,91.01605
1,Caetés/PE,-8.7728788,-36.6255835,1163,4023.66454
D1,Caetés/PE,-8.7728788,-36.6255835,17,58.81539
1,Cafarnaum/BA,-11.691399,-41.468823,769,4153.83784
D1,Cafarnaum/BA,-11.691399,-41.468823,16,86.42575
1,Cafeara/PR,-22.78905,-51.714195,225,7616.79079
D1,Cafeara/PR,-22.78905,-51.714195,9,304.67163
1,Cafelândia/PR,-24.6176963,-53.3218057,1533,8306.24187
D1,Cafelândia/PR,-24.6176963,-53.3218057,11,59.60121
1,Cafelândia/SP,-21.8054355,-49.6030627,650,3642.88517
D1,Cafelândia/SP,-21.8054355,-49.6030627,30,168.13316
1,Cafezal do Sul/PR,-23.900508,-53.512418,258,6435.52008
D1,Cafezal do Sul/PR,-23.900508,-53.512418,4,99.77551
1,Caiabu/SP,-22.0143038,-51.2356597,76,1812.54472
D1,Caiabu/SP,-22.0143038,-51.2356597,5,119.24636
1,Caiana/MG,-20.695555,-41.924723,123,2219.81592
D1,Caiana/MG,-20.695555,-41.924723,7,126.33099
1,Caiapônia/GO,-16.9538779,-51.8090761,982,5139.47768
D1,Caiapônia/GO,-16.9538779,-51.8090761,32,167.47789
1,Caibaté/RS,-28.290475,-54.645407,214,4437.07236
D1,Caibaté/RS,-28.290475,-54.645407,7,145.13788
1,Caibi/SC,-27.0751925,-53.2502133,550,8972.26754
D1,Caibi/SC,-27.0751925,-53.2502133,11,179.44535
1,Caicó/RN,-6.4594544,-37.0971911,9166,13411.76126
D1,Caicó/RN,-6.4594544,-37.0971911,111,162.41605
1,Caieiras/SP,-23.3644621,-46.7484765,6650,6470.44515
D1,Caieiras/SP,-23.3644621,-46.7484765,240,233.51982
1,Cairu/BA,-13.4860505,-39.0455744,1053,5714.44077
D1,Cairu/BA,-13.4860505,-39.0455744,11,59.69501
1,Caiuá/SP,-21.8319357,-51.9887179,254,4271.77935
D1,Caiuá/SP,-21.8319357,-51.9887179,5,84.09014
1,Caiçara do Norte/RN,-5.0645017,-36.0561226,321,4892.54687
D1,Caiçara do Norte/RN,-5.0645017,-36.0561226,9,137.17421
1,Caiçara do Rio do Vento/RN,-5.757968,-36.00089,221,5948.85599
D1,Caiçara do Rio do Vento/RN,-5.757968,-36.00089,7,188.42530
1,Caiçara/PB,-6.6146866,-35.4681434,631,8774.85746
D1,Caiçara/PB,-6.6146866,-35.4681434,13,180.78153
1,Caiçara/RS,-27.2750478,-53.4310053,413,8787.23404
D1,Caiçara/RS,-27.2750478,-53.4310053,8,170.21277
1,Cajamar/SP,-23.3561111,-46.8769444,3548,4552.57012
D1,Cajamar/SP,-23.3561111,-46.8769444,178,228.39839
1,Cajapió/MA,-2.8778715,-44.6746871,72,641.94009
D1,Cajapió/MA,-2.8778715,-44.6746871,4,35.66334
1,Cajari/MA,-3.3213076,-45.0118757,178,915.12005
D1,Cajari/MA,-3.3213076,-45.0118757,6,30.84674
1,Cajati/SP,-24.7272376,-48.1077914,2834,9945.95353
D1,Cajati/SP,-24.7272376,-48.1077914,73,256.19429
1,Cajazeiras do Piauí/PI,-6.794271,-42.3935024,47,1315.42121
D1,Cajazeiras do Piauí/PI,-6.794271,-42.3935024,1,27.98769
1,Cajazeiras/PB,-6.8897849,-38.5570389,6822,10952.17454
D1,Cajazeiras/PB,-6.8897849,-38.5570389,118,189.43955
1,Cajazeirinhas/PB,-6.961442,-37.7993733,115,3588.14353
1,Cajobi/SP,-20.8776238,-48.8106972,747,7049.83012
D1,Cajobi/SP,-20.8776238,-48.8106972,25,235.93809
1,Cajueiro da Praia/PI,-2.931114,-41.340801,470,6124.57649
D1,Cajueiro da Praia/PI,-2.931114,-41.340801,16,208.49622
1,Cajueiro/AL,-9.399589,-36.1524309,508,2381.51048
D1,Cajueiro/AL,-9.399589,-36.1524309,20,93.76026
1,Cajuri/MG,-20.7901414,-42.7954489,314,7901.35883
D1,Cajuri/MG,-20.7901414,-42.7954489,2,50.32713
1,Cajuru/SP,-21.2759978,-47.3046035,815,3087.93998
D1,Cajuru/SP,-21.2759978,-47.3046035,34,128.82204
1,Caldas Brandão/PB,-7.1027959,-35.3254676,461,7624.87595
D1,Caldas Brandão/PB,-7.1027959,-35.3254676,7,115.77903
1,Caldas Novas/GO,-17.745,-48.625,7289,7821.15112
D1,Caldas Novas/GO,-17.745,-48.625,185,198.50637
1,Caldas/MG,-21.923611,-46.386111,624,4291.31421
D1,Caldas/MG,-21.923611,-46.386111,22,151.29633
1,Caldazinha/GO,-16.7116649,-49.0012601,225,5847.19335
D1,Caldazinha/GO,-16.7116649,-49.0012601,4,103.95010
1,Caldeirão Grande do Piauí/PI,-7.3310393,-40.6374433,286,4947.24096
D1,Caldeirão Grande do Piauí/PI,-7.3310393,-40.6374433,2,34.59609
1,Caldeirão Grande/BA,-11.0208483,-40.3041387,539,4025.09148
D1,Caldeirão Grande/BA,-11.0208483,-40.3041387,6,44.80621
1,Califórnia/PR,-23.6672543,-51.3554556,822,9551.47571
D1,Califórnia/PR,-23.6672543,-51.3554556,15,174.29700
1,Calmon/SC,-26.6023644,-51.0992893,27,809.59520
D1,Calmon/SC,-26.6023644,-51.0992893,3,89.95502
1,Calumbi/PE,-7.9389746,-38.1516871,450,7830.17226
D1,Calumbi/PE,-7.9389746,-38.1516871,3,52.20115
1,Calçado/PE,-8.7413446,-36.3351787,369,3349.06517
D1,Calçado/PE,-8.7413446,-36.3351787,2,18.15211
1,Calçoene/AP,2.4981757,-50.9539503,1598,14134.08809
D1,Calçoene/AP,2.4981757,-50.9539503,10,88.44861
1,Camacan/BA,-15.4166631,-39.4930088,2462,7692.30769
D1,Camacan/BA,-15.4166631,-39.4930088,66,206.21134
1,Camacho/MG,-20.625556,-45.156667,49,1707.91216
D1,Camacho/MG,-20.625556,-45.156667,1,34.85535
1,Camalaú/PB,-7.885031,-36.824191,376,6234.45531
D1,Camalaú/PB,-7.885031,-36.824191,5,82.90499
1,Camamu/BA,-13.9438142,-39.1060917,1970,5567.80284
D1,Camamu/BA,-13.9438142,-39.1060917,40,113.05183
1,Camanducaia/MG,-22.755278,-46.144444,2495,11444.42915
D1,Camanducaia/MG,-22.755278,-46.144444,51,233.93422
1,Camapuã/MS,-19.5291747,-54.0434641,627,4578.98196
D1,Camapuã/MS,-19.5291747,-54.0434641,21,153.36303
1,Camaquã/RS,-30.8524752,-51.8075619,6063,9120.31048
D1,Camaquã/RS,-30.8524752,-51.8075619,118,177.50233
1,Camaragibe/PE,-8.0213832,-34.9810768,4634,2916.31791
D1,Camaragibe/PE,-8.0213832,-34.9810768,327,205.79110
1,Camargo/RS,-28.5865661,-52.2031474,296,10795.04012
D1,Camargo/RS,-28.5865661,-52.2031474,5,182.34865
1,Camaçari/BA,-12.6998188,-38.3260762,20864,6856.34666
D1,Camaçari/BA,-12.6998188,-38.3260762,528,173.51184
1,Cambará do Sul/RS,-29.0489517,-50.145412,293,4573.83703
D1,Cambará do Sul/RS,-29.0489517,-50.145412,10,156.10365
1,Cambará/PR,-23.042273,-50.075281,1893,7433.44067
D1,Cambará/PR,-23.042273,-50.075281,37,145.29176
1,Cambira/PR,-23.600265,-51.581045,693,8753.31565
D1,Cambira/PR,-23.600265,-51.581045,16,202.09675
1,Camboriú/SC,-27.0273601,-48.6535657,11105,13048.58704
D1,Camboriú/SC,-27.0273601,-48.6535657,148,173.90283
1,Cambuci/RJ,-21.5749919,-41.9107833,734,4731.21052
D1,Cambuci/RJ,-21.5749919,-41.9107833,28,180.48215
1,Cambuquira/MG,-21.853056,-45.2953619,453,3535.74774
D1,Cambuquira/MG,-21.853056,-45.2953619,16,124.88292
1,Cambuí/MG,-22.6122501,-46.0572137,2677,8979.00315
D1,Cambuí/MG,-22.6122501,-46.0572137,37,124.10277
1,Cambé/PR,-23.2782035,-51.2779583,9190,8561.50027
D1,Cambé/PR,-23.2782035,-51.2779583,192,178.86921
1,Cametá/PA,-2.242949,-49.497885,7271,5217.27275
D1,Cametá/PA,-2.242949,-49.497885,203,145.66172
1,Camocim de São Félix/PE,-8.3616757,-35.7638903,429,2269.84127
D1,Camocim de São Félix/PE,-8.3616757,-35.7638903,12,63.49206
1,Camocim/CE,-2.9009918,-40.8427389,5283,8266.70005
D1,Camocim/CE,-2.9009918,-40.8427389,141,220.63311
1,Campanha/MG,-21.8361108,-45.401986,1170,6980.07398
D1,Campanha/MG,-21.8361108,-45.401986,24,143.18100
1,Campanário/MG,-18.2398144,-41.7271768,184,4932.97587
D1,Campanário/MG,-18.2398144,-41.7271768,3,80.42895
1,Campestre da Serra/RS,-28.7966535,-51.0958149,142,4182.62150
1,Campestre de Goiás/GO,-16.7624179,-49.69497,439,12030.69334
D1,Campestre de Goiás/GO,-16.7624179,-49.69497,10,274.04768
1,Campestre do Maranhão/MA,-6.1729113,-47.3640512,929,6427.73127
D1,Campestre do Maranhão/MA,-6.1729113,-47.3640512,40,276.75915
1,Campestre/AL,-8.8481634,-35.5660033,239,3436.87087
D1,Campestre/AL,-8.8481634,-35.5660033,6,86.28128
1,Campestre/MG,-19.6142116,-43.219378,925,4393.46442
D1,Campestre/MG,-19.6142116,-43.219378,23,109.24290
1,Campina Grande do Sul/PR,-25.3046032,-49.0545355,4474,10241.50166
D1,Campina Grande do Sul/PR,-25.3046032,-49.0545355,91,208.30949
1,Campina Grande/PB,-7.2246743,-35.8771292,27391,6651.41680
D1,Campina Grande/PB,-7.2246743,-35.8771292,811,196.93691
1,Campina Verde/MG,-19.535277,-49.486389,905,4581.81450
D1,Campina Verde/MG,-19.535277,-49.486389,24,121.50668
1,Campina da Lagoa/PR,-24.5937926,-52.8038965,1056,7519.76073
D1,Campina da Lagoa/PR,-24.5937926,-52.8038965,25,178.02464
