type,name,lat,lon,total,total_per_100k_inhabitants
1,Abadia de Goiás/GO,-16.7572644,-49.4412205,673,7512.83769
D1,Abadia de Goiás/GO,-16.7572644,-49.4412205,7,78.14244
1,Abadia dos Dourados/MG,-18.4911191,-47.4063589,101,1441.62147
D1,Abadia dos Dourados/MG,-18.4911191,-47.4063589,1,14.27348
1,Abadiânia/GO,-16.1940946,-48.7067767,175,855.28567
D1,Abadiânia/GO,-16.1940946,-48.7067767,12,58.64816
1,Abaetetuba/PA,-1.721828,-48.878843,3449,2168.09153
D1,Abaetetuba/PA,-1.721828,-48.878843,116,72.91929
1,Abaeté/MG,-19.1566833,-45.4481213,79,339.78495
D1,Abaeté/MG,-19.1566833,-45.4481213,3,12.90323
1,Abaiara/CE,-7.3607808,-39.0487878,101,852.10495
D1,Abaiara/CE,-7.3607808,-39.0487878,3,25.31005
1,Abaré/BA,-8.7239913,-39.1139689,115,565.19389
1,Abatiá/PR,-23.3052967,-50.3102532,92,1241.90065
1,Abaíra/BA,-13.2503296,-41.6640342,84,964.40873
D1,Abaíra/BA,-13.2503296,-41.6640342,1,11.48106
1,Abdon Batista/SC,-27.612419,-51.022992,144,5651.49137
1,Abel Figueiredo/PA,-4.953001,-48.3958485,401,5356.66578
D1,Abel Figueiredo/PA,-4.953001,-48.3958485,2,26.71654
1,Abelardo Luz/SC,-26.5705893,-52.3280339,477,2655.90200
D1,Abelardo Luz/SC,-26.5705893,-52.3280339,6,33.40757
1,Abre Campo/MG,-20.2976097,-42.4764741,114,847.96192
D1,Abre Campo/MG,-20.2976097,-42.4764741,1,7.43826
1,Abreu e Lima/PE,-7.900719,-34.898389,919,915.83122
D1,Abreu e Lima/PE,-7.900719,-34.898389,121,120.58278
1,Abreulândia/TO,-9.6221526,-49.1558343,92,3546.64611
D1,Abreulândia/TO,-9.6221526,-49.1558343,4,154.20200
1,Acaiaca/MG,-20.3621646,-43.1444162,60,1502.25338
D1,Acaiaca/MG,-20.3621646,-43.1444162,2,50.07511
1,Acajutiba/BA,-11.6609659,-38.0186381,197,1297.16205
D1,Acajutiba/BA,-11.6609659,-38.0186381,5,32.92289
1,Acarape/CE,-4.2237866,-38.7071663,1928,12822.55919
D1,Acarape/CE,-4.2237866,-38.7071663,15,99.76057
1,Acaraú/CE,-2.8869514,-40.1194713,2701,4280.23580
D1,Acaraú/CE,-2.8869514,-40.1194713,58,91.91176
1,Acari/RN,-6.4364689,-36.6394777,153,1375.77556
D1,Acari/RN,-6.4364689,-36.6394777,7,62.94398
1,Acará/PA,-1.961388,-48.1987043,853,1532.27110
D1,Acará/PA,-1.961388,-48.1987043,15,26.94498
1,Acauã/PI,-8.219542,-41.083059,54,760.34920
1,Aceguá/RS,-31.8695131,-54.1615593,16,323.75556
1,Acopiara/CE,-6.0936464,-39.4543204,1281,2351.27843
D1,Acopiara/CE,-6.0936464,-39.4543204,49,89.93961
1,Acorizal/MT,-15.2001544,-56.3668953,195,3655.79303
D1,Acorizal/MT,-15.2001544,-56.3668953,7,131.23360
1,Acrelândia/AC,-10.0759167,-67.0526898,497,3208.52163
D1,Acrelândia/AC,-10.0759167,-67.0526898,11,71.01356
1,Acreúna/GO,-17.3959899,-50.3749031,989,4386.58742
D1,Acreúna/GO,-17.3959899,-50.3749031,24,106.44904
1,Adamantina/SP,-21.6866517,-51.0762975,476,1355.70049
D1,Adamantina/SP,-21.6866517,-51.0762975,11,31.32921
1,Adelândia/GO,-16.4155077,-50.1665834,85,3378.37838
D1,Adelândia/GO,-16.4155077,-50.1665834,1,39.74563
1,Adolfo/SP,-21.2356597,-49.6441918,128,3601.57569
D1,Adolfo/SP,-21.2356597,-49.6441918,5,140.68655
1,Adrianópolis/PR,-24.6557863,-48.9912769,184,3141.54004
D1,Adrianópolis/PR,-24.6557863,-48.9912769,4,68.29435
1,Adustina/BA,-10.5358875,-38.114479,119,694.84994
D1,Adustina/BA,-10.5358875,-38.114479,2,11.67815
1,Afogados da Ingazeira/PE,-7.750429,-37.6356375,992,2652.12277
D1,Afogados da Ingazeira/PE,-7.750429,-37.6356375,18,48.12320
1,Afonso Bezerra/RN,-5.4745,-36.57625071327935,154,1396.31880
D1,Afonso Bezerra/RN,-5.4745,-36.57625071327935,11,99.73706
1,Afonso Cláudio/ES,-20.077841,-41.12606,1132,3716.95945
D1,Afonso Cláudio/ES,-20.077841,-41.12606,20,65.67066
1,Afonso Cunha/MA,-4.1326105,-43.3230026,152,2310.73275
D1,Afonso Cunha/MA,-4.1326105,-43.3230026,2,30.40438
1,Afrânio/PE,-8.5198919,-41.0070197,235,1186.26956
D1,Afrânio/PE,-8.5198919,-41.0070197,2,10.09591
1,Afuá/PA,-0.1535664,-50.3879223,2251,5689.08434
D1,Afuá/PA,-0.1535664,-50.3879223,11,27.80095
1,Agrestina/PE,-8.4558021,-35.9442663,598,2385.79693
D1,Agrestina/PE,-8.4558021,-35.9442663,32,127.66806
1,Agricolândia/PI,-5.7967843,-42.6605131,65,1266.80959
1,Agrolândia/SC,-27.4122212,-49.8295774,196,1779.71488
D1,Agrolândia/SC,-27.4122212,-49.8295774,6,54.48107
1,Agronômica/SC,-27.2660744,-49.7104753,97,1760.75513
D1,Agronômica/SC,-27.2660744,-49.7104753,3,54.45634
1,Aguanil/MG,-20.9424533,-45.3927152,97,2145.06855
D1,Aguanil/MG,-20.9424533,-45.3927152,3,66.34233
1,Aguaí/SP,-22.0592036,-46.979384,375,1023.24820
D1,Aguaí/SP,-22.0592036,-46.979384,8,21.82929
1,Agudo/RS,-29.6423259,-53.2494005,76,463.38638
D1,Agudo/RS,-29.6423259,-53.2494005,1,6.09719
1,Agudos do Sul/PR,-25.9890808,-49.3328175,88,929.25026
D1,Agudos do Sul/PR,-25.9890808,-49.3328175,1,10.55966
1,Agudos/SP,-22.471162,-48.987822,792,2117.59044
D1,Agudos/SP,-22.471162,-48.987822,16,42.77960
1,Aguiar/PB,-7.0928404,-38.1727215,37,657.19361
1,Aguiarnópolis/TO,-6.5600452,-47.4721189,431,6253.62739
D1,Aguiarnópolis/TO,-6.5600452,-47.4721189,9,130.58619
1,Aimorés/MG,-19.4917754,-41.0615603,411,1634.77984
D1,Aimorés/MG,-19.4917754,-41.0615603,7,27.84297
1,Aiquara/BA,-14.126918,-39.8887574,292,6612.31884
D1,Aiquara/BA,-14.126918,-39.8887574,4,90.57971
1,Aiuaba/CE,-6.5710836,-40.1212278,60,342.99434
D1,Aiuaba/CE,-6.5710836,-40.1212278,1,5.71657
1,Aiuruoca/MG,-21.9759554,-44.6036637,19,317.93842
D1,Aiuruoca/MG,-21.9759554,-44.6036637,4,66.93440
1,Ajuricaba/RS,-28.239654,-53.7693013,282,4036.06698
D1,Ajuricaba/RS,-28.239654,-53.7693013,2,28.62459
1,Alagoa Grande/PB,-7.0415212,-35.6285322,1668,5865.18513
D1,Alagoa Grande/PB,-7.0415212,-35.6285322,29,101.97264
1,Alagoa Nova/PB,-7.0653703,-35.76695977336711,404,1931.07404
D1,Alagoa Nova/PB,-7.0653703,-35.76695977336711,10,47.79886
1,Alagoa/MG,-22.1697202,-44.6400042,28,1050.65666
1,Alagoinha do Piauí/PI,-7.0090952,-40.939675,119,1552.51142
D1,Alagoinha do Piauí/PI,-7.0090952,-40.939675,4,52.18526
1,Alagoinha/PB,-6.97063215,-35.51490901897793,1064,7307.69231
D1,Alagoinha/PB,-6.97063215,-35.51490901897793,12,82.41758
1,Alagoinha/PE,-8.50355635,-36.77701174370496,222,1508.35711
D1,Alagoinha/PE,-8.50355635,-36.77701174370496,9,61.14961
1,Alagoinhas/BA,-12.133526,-38.420772,5784,3797.09441
D1,Alagoinhas/BA,-12.133526,-38.420772,86,56.45749
1,Alambari/SP,-23.550338,-47.897971,88,1435.79703
D1,Alambari/SP,-23.550338,-47.897971,3,48.94763
1,Albertina/MG,-20.66164,-43.784039,51,1693.78944
D1,Albertina/MG,-20.66164,-43.784039,4,132.84623
1,Alcantil/PB,-7.7425491,-36.0609604,80,1452.16918
1,Alcinópolis/MS,-18.3264121,-53.7094463,21,387.66845
D1,Alcinópolis/MS,-18.3264121,-53.7094463,2,36.92080
1,Alcobaça/BA,-17.5215875,-39.1965474,697,3099.15518
D1,Alcobaça/BA,-17.5215875,-39.1965474,11,48.91063
1,Alcântara/MA,-2.4038956,-44.4154241,202,913.53111
D1,Alcântara/MA,-2.4038956,-44.4154241,8,36.17945
1,Alcântaras/CE,-3.586247,-40.5457641,551,4677.02232
D1,Alcântaras/CE,-3.586247,-40.5457641,4,33.95298
1,Aldeias Altas/MA,-4.6291957,-43.4708622,942,3520.57406
D1,Aldeias Altas/MA,-4.6291957,-43.4708622,8,29.89872
1,Alecrim/RS,-27.6566142,-54.7653195,22,377.55277
D1,Alecrim/RS,-27.6566142,-54.7653195,1,17.16149
1,Alegre/ES,-20.7625787,-41.5318886,445,1484.57048
D1,Alegre/ES,-20.7625787,-41.5318886,21,70.05838
1,Alegrete do Piauí/PI,-7.2440138,-40.8602296,324,6588.04392
D1,Alegrete do Piauí/PI,-7.2440138,-40.8602296,2,40.66694
1,Alegrete/RS,-29.790166,-55.794862,1172,1604.86389
D1,Alegrete/RS,-29.790166,-55.794862,19,26.01742
1,Alegria/RS,-27.8332103,-54.0574959,68,2015.41197
1,Alenquer/PA,-1.946229,-54.738355,1484,2599.31339
D1,Alenquer/PA,-1.946229,-54.738355,30,52.54677
1,Alexandria/RN,-6.414779,-38.0135516,204,1505.20180
D1,Alexandria/RN,-6.414779,-38.0135516,4,29.51376
1,Alexânia/GO,-16.0834049,-48.5077803,1260,4498.39343
D1,Alexânia/GO,-16.0834049,-48.5077803,20,71.40307
1,Alfenas/MG,-21.4297405,-45.9479419,2098,2606.40545
D1,Alfenas/MG,-21.4297405,-45.9479419,56,69.57040
1,Alfredo Chaves/ES,-20.624970400000002,-40.75006690147988,593,4051.65346
D1,Alfredo Chaves/ES,-20.624970400000002,-40.75006690147988,7,47.82728
1,Alfredo Marcondes/SP,-21.9527,-51.413956,68,1625.23901
D1,Alfredo Marcondes/SP,-21.9527,-51.413956,3,71.70172
1,Alfredo Vasconcelos/MG,-21.145833,-43.776389,18,257.84272
D1,Alfredo Vasconcelos/MG,-21.145833,-43.776389,1,14.32460
1,Alfredo Wagner/SC,-27.6961513,-49.3326734,217,2151.49712
D1,Alfredo Wagner/SC,-27.6961513,-49.3326734,1,9.91473
1,Algodão de Jandaíra/PB,-6.9040175,-36.0089879,31,1202.94917
1,Alhandra/PB,-7.4304246,-34.9106103,708,3588.98971
D1,Alhandra/PB,-7.4304246,-34.9106103,19,96.31470
1,Aliança do Tocantins/TO,-11.3055927,-48.9409096,182,3404.41452
D1,Aliança do Tocantins/TO,-11.3055927,-48.9409096,3,56.11672
1,Aliança/PE,-7.60398,-35.222696,398,1036.53931
D1,Aliança/PE,-7.60398,-35.222696,30,78.13110
1,Almadina/BA,-14.70466,-39.6381994,364,6783.45136
D1,Almadina/BA,-14.70466,-39.6381994,6,111.81513
1,Almas/TO,-11.5681309,-47.1702803,92,1318.24044
D1,Almas/TO,-11.5681309,-47.1702803,2,28.65740
1,Almeirim/PA,-1.5290377,-52.5788111,267,783.54267
D1,Almeirim/PA,-1.5290377,-52.5788111,18,52.82310
1,Almenara/MG,-16.1740678,-40.6904907,911,2161.68759
D1,Almenara/MG,-16.1740678,-40.6904907,11,26.10161
1,Almino Afonso/RN,-6.1544208,-37.7649018,50,1061.57113
1,Almirante Tamandaré do Sul/RS,-28.1141129,-52.9134874,26,1334.01744
1,Almirante Tamandaré/PR,-25.3133048,-49.2997838,2141,1783.55728
D1,Almirante Tamandaré/PR,-25.3133048,-49.2997838,63,52.48207
1,Aloândia/GO,-17.7277983,-49.4809338,103,5186.30413
D1,Aloândia/GO,-17.7277983,-49.4809338,5,251.76234
1,Alpercata/MG,-18.9803616,-41.9827637,194,2608.92953
D1,Alpercata/MG,-18.9803616,-41.9827637,6,80.68854
1,Alpestre/RS,-27.2512339,-53.0349646,61,1005.43926
D1,Alpestre/RS,-27.2512339,-53.0349646,2,32.96522
1,Alpinópolis/MG,-20.863611,-46.387777,131,656.37839
D1,Alpinópolis/MG,-20.863611,-46.387777,4,20.04209
1,Alta Floresta D'Oeste/RO,-11.9296917,-61.9961284,917,4034.67089
D1,Alta Floresta D'Oeste/RO,-11.9296917,-61.9961284,12,52.79831
1,Alta Floresta/MT,-9.8715018,-56.0839881,1597,3073.57724
D1,Alta Floresta/MT,-9.8715018,-56.0839881,26,50.03945
1,Altair/SP,-20.5238955,-49.0606135,51,1218.34687
D1,Altair/SP,-20.5238955,-49.0606135,3,71.66746
1,Altamira do Maranhão/MA,-4.1643006,-45.4674574,274,3345.95189
D1,Altamira do Maranhão/MA,-4.1643006,-45.4674574,6,73.26902
1,Altamira do Paraná/PR,-24.799114,-52.7128633,17,1010.70155
D1,Altamira do Paraná/PR,-24.799114,-52.7128633,2,118.90606
1,Altamira/PA,-3.204065,-52.209961,4795,4134.72566
D1,Altamira/PA,-3.204065,-52.209961,125,107.78743
1,Altaneira/CE,-6.9980933,-39.7385742,132,1725.49020
D1,Altaneira/CE,-6.9980933,-39.7385742,1,13.07190
1,Alterosa/MG,-21.249166,-46.143055,27,185.98884
D1,Alterosa/MG,-21.249166,-46.143055,2,13.77695
1,Altinho/PE,-8.4904095,-36.0607494,529,2301.60111
D1,Altinho/PE,-8.4904095,-36.0607494,11,47.85938
1,Altinópolis/SP,-21.021364,-47.3712,225,1388.63173
D1,Altinópolis/SP,-21.021364,-47.3712,8,49.37357
1,Alto Alegre do Maranhão/MA,-4.2055693,-44.4525287,391,1403.54656
D1,Alto Alegre do Maranhão/MA,-4.2055693,-44.4525287,13,46.66523
1,Alto Alegre do Pindaré/MA,-3.6698186,-45.8462153,1491,4667.68932
D1,Alto Alegre do Pindaré/MA,-3.6698186,-45.8462153,24,75.13383
1,Alto Alegre dos Parecis/RO,-12.1314515,-61.856265,214,1614.48510
D1,Alto Alegre dos Parecis/RO,-12.1314515,-61.856265,9,67.89891
1,Alto Alegre/RR,2.98858,-61.307167,720,4681.40442
D1,Alto Alegre/RR,2.98858,-61.307167,17,110.53316
1,Alto Alegre/RS,-31.780844700000003,-52.81311114489171,16,991.94048
1,Alto Alegre/SP,-21.5820592,-50.1661976,77,1883.56164
D1,Alto Alegre/SP,-21.5820592,-50.1661976,3,73.38552
1,Alto Araguaia/MT,-17.3156528,-53.2169365,424,2187.25819
D1,Alto Araguaia/MT,-17.3156528,-53.2169365,8,41.26902
1,Alto Bela Vista/SC,-27.4320737,-51.905771,32,1661.47456
D1,Alto Bela Vista/SC,-27.4320737,-51.905771,1,51.92108
1,Alto Boa Vista/MT,-11.6723985,-51.3744431,94,1355.24798
D1,Alto Boa Vista/MT,-11.6723985,-51.3744431,3,43.25260
1,Alto Caparaó/MG,-20.4405661,-41.8683799,21,356.29454
D1,Alto Caparaó/MG,-20.4405661,-41.8683799,1,16.96641
1,Alto Feliz/RS,-29.3785943,-51.3123751,40,1317.52306
1,Alto Garças/MT,-16.9469683,-53.529427,292,2403.09440
D1,Alto Garças/MT,-16.9469683,-53.529427,11,90.52753
1,Alto Horizonte/GO,-14.1954948,-49.3366993,199,3012.86904
D1,Alto Horizonte/GO,-14.1954948,-49.3366993,2,30.28009
1,Alto Jequitibá/MG,-20.423611,-41.966111,102,1228.76762
D1,Alto Jequitibá/MG,-20.423611,-41.966111,4,48.18697
1,Alto Longá/PI,-5.2549051,-42.2072388,211,1471.51126
D1,Alto Longá/PI,-5.2549051,-42.2072388,6,41.84392
1,Alto Paraguai/MT,-14.513712,-56.4936374,316,2754.29269
D1,Alto Paraguai/MT,-14.513712,-56.4936374,9,78.44504
1,Alto Paraná/PR,-23.131247,-52.318893,123,827.78114
D1,Alto Paraná/PR,-23.131247,-52.318893,1,6.72993
1,Alto Paraíso de Goiás/GO,-14.1304779,-47.5100161,276,3590.01041
1,Alto Paraíso/PR,-23.508137,-53.728537,6,223.46369
1,Alto Paraíso/RO,-9.7240103,-63.3188123,382,1748.52382
D1,Alto Paraíso/RO,-9.7240103,-63.3188123,8,36.61830
1,Alto Parnaíba/MA,-9.112506,-45.9310154,362,3228.68355
D1,Alto Parnaíba/MA,-9.112506,-45.9310154,4,35.67606
1,Alto Piquiri/PR,-24.0239021,-53.4417448,117,1196.56371
D1,Alto Piquiri/PR,-24.0239021,-53.4417448,4,40.90816
1,Alto Rio Doce/MG,-21.0239537,-43.4133507,76,699.88028
D1,Alto Rio Doce/MG,-21.0239537,-43.4133507,2,18.41790
1,Alto Rio Novo/ES,-19.0577208,-41.0171518,211,2679.70536
D1,Alto Rio Novo/ES,-19.0577208,-41.0171518,12,152.40030
1,Alto Santo/CE,-5.5190371,-38.2719351,468,2721.56315
D1,Alto Santo/CE,-5.5190371,-38.2719351,13,75.59898
1,Alto Taquari/MT,-17.8269099,-53.2831736,395,3548.01042
D1,Alto Taquari/MT,-17.8269099,-53.2831736,6,53.89383
1,Alto do Rodrigues/RN,-5.290868,-36.7616726,524,3557.84900
D1,Alto do Rodrigues/RN,-5.290868,-36.7616726,18,122.21619
1,Altos/PI,-5.0393915,-42.4611694,1824,4492.05763
D1,Altos/PI,-5.0393915,-42.4611694,27,66.49427
1,Altônia/PR,-23.8722004,-53.894037,199,897.36652
D1,Altônia/PR,-23.8722004,-53.894037,3,13.52814
1,Alumínio/SP,-23.5203479,-47.2575256,278,1481.32360
D1,Alumínio/SP,-23.5203479,-47.2575256,9,47.95652
1,Alvarenga/MG,-19.4175,-41.728334,136,3537.98127
D1,Alvarenga/MG,-19.4175,-41.728334,1,26.01457
1,Alvarães/AM,-3.214786,-64.8143124,1314,8101.10974
D1,Alvarães/AM,-3.214786,-64.8143124,18,110.97411
1,Alvinlândia/SP,-22.4431852,-49.7643596,27,834.10565
1,Alvinópolis/MG,-20.1105199,-43.0601805,74,487.83704
D1,Alvinópolis/MG,-20.1105199,-43.0601805,1,6.59239
1,Alvorada D'Oeste/RO,-11.346271,-62.284697,158,1120.09074
D1,Alvorada D'Oeste/RO,-11.346271,-62.284697,7,49.62427
1,Alvorada de Minas/MG,-18.7318587,-43.3641479,60,1664.35506
D1,Alvorada de Minas/MG,-18.7318587,-43.3641479,1,27.73925
1,Alvorada do Gurguéia/PI,-8.4465288,-43.8655915,69,1267.21763
D1,Alvorada do Gurguéia/PI,-8.4465288,-43.8655915,4,73.46189
1,Alvorada do Norte/GO,-14.483911,-46.4959897,294,3377.36933
D1,Alvorada do Norte/GO,-14.483911,-46.4959897,1,11.48765
1,Alvorada do Sul/PR,-22.7807269,-51.2307721,93,808.48474
D1,Alvorada do Sul/PR,-22.7807269,-51.2307721,5,43.46692
1,Alvorada/RS,-29.9981184,-51.0772509,5325,2519.49355
D1,Alvorada/RS,-29.9981184,-51.0772509,180,85.16598
1,Alvorada/TO,-12.478465,-49.124926,551,6562.64888
D1,Alvorada/TO,-12.478465,-49.124926,10,119.10434
1,Além Paraíba/MG,-21.8760576,-42.6810473,545,1539.50453
D1,Além Paraíba/MG,-21.8760576,-42.6810473,17,48.02124
1,Amajari/RR,3.6523869,-61.4194315,502,3807.35684
D1,Amajari/RR,3.6523869,-61.4194315,16,121.35002
1,Amambai/MS,-23.1082701,-55.2284854,286,718.12384
D1,Amambai/MS,-23.1082701,-55.2284854,5,12.55461
1,Amaporã/PR,-23.094272,-52.786597,33,521.16235
1,Amapá do Maranhão/MA,-1.6762114,-46.0109669,5,71.37759
1,Amapá/AP,2.0529997,-50.7930003,803,8740.61173
D1,Amapá/AP,2.0529997,-50.7930003,4,43.53978
1,Amaraji/PE,-8.373925,-35.4536527,252,1101.88019
D1,Amaraji/PE,-8.373925,-35.4536527,24,104.94097
1,Amaral Ferrador/RS,-30.8750633,-52.2542051,36,508.11574
D1,Amaral Ferrador/RS,-30.8750633,-52.2542051,1,14.11433
1,Amaralina/GO,-13.9236199,-49.2962411,16,416.12484
1,Amarante do Maranhão/MA,-5.56913,-46.747284,1152,2760.67004
D1,Amarante do Maranhão/MA,-5.56913,-46.747284,27,64.70320
1,Amarante/PI,-6.2459374,-42.8476238,510,2897.06885
D1,Amarante/PI,-6.2459374,-42.8476238,9,51.12474
1,Amargosa/BA,-13.03793715,-39.60796443875596,522,1394.19353
D1,Amargosa/BA,-13.03793715,-39.60796443875596,15,40.06303
1,Amaturá/AM,-3.3640509,-68.1994689,1001,8529.31152
D1,Amaturá/AM,-3.3640509,-68.1994689,10,85.20791
1,Americana/SP,-22.7392463,-47.3306032,5732,2368.41888
D1,Americana/SP,-22.7392463,-47.3306032,172,71.06909
1,Americano do Brasil/GO,-16.2515808,-49.9806104,147,2384.81506
D1,Americano do Brasil/GO,-16.2515808,-49.9806104,3,48.66970
1,Ametista do Sul/RS,-27.3617341,-53.1826575,81,1094.15102
1,Amontada/CE,-3.3634586,-39.8284791,844,1925.66566
D1,Amontada/CE,-3.3634586,-39.8284791,20,45.63189
1,Amorinópolis/GO,-16.6211308,-51.0949921,59,1922.45031
1,Amparo de São Francisco/SE,-10.1299754,-36.9269099,75,3151.26050
D1,Amparo de São Francisco/SE,-10.1299754,-36.9269099,2,84.03361
1,Amparo do Serra/MG,-20.5070255,-42.8028462,12,256.51988
D1,Amparo do Serra/MG,-20.5070255,-42.8028462,1,21.37666
1,Amparo/PB,-7.56394725,-37.04652873235175,18,799.64460
1,Amparo/SP,-22.70111,-46.76444,1283,1765.34529
D1,Amparo/SP,-22.70111,-46.76444,33,45.40639
1,Ampére/PR,-25.9168712,-53.4742414,182,942.46802
D1,Ampére/PR,-25.9168712,-53.4742414,4,20.71358
1,Amélia Rodrigues/BA,-12.4015388,-38.7516971,585,2335.51581
D1,Amélia Rodrigues/BA,-12.4015388,-38.7516971,10,39.92335
1,América Dourada/BA,-11.4515262,-41.4357517,149,926.04102
1,Américo Brasiliense/SP,-21.7297099,-48.1052092,815,1986.25463
D1,Américo Brasiliense/SP,-21.7297099,-48.1052092,14,34.11971
1,Américo de Campos/SP,-20.298476,-49.735904,337,5634.50928
D1,Américo de Campos/SP,-20.298476,-49.735904,12,200.63535
1,Anadia/AL,-9.6830208,-36.3052699,505,2881.43330
D1,Anadia/AL,-9.6830208,-36.3052699,8,45.64647
1,Anagé/BA,-14.6134669,-41.1376308,170,786.78206
D1,Anagé/BA,-14.6134669,-41.1376308,4,18.51252
1,Anahy/PR,-24.6450861,-53.1337957,38,1362.98422
1,Anajatuba/MA,-3.26441,-44.6179916,349,1293.16733
D1,Anajatuba/MA,-3.26441,-44.6179916,10,37.05351
1,Anajás/PA,-0.9878802,-49.9390114,620,2088.38588
D1,Anajás/PA,-0.9878802,-49.9390114,11,37.05201
1,Analândia/SP,-22.128917,-47.661939,40,791.13924
D1,Analândia/SP,-22.128917,-47.661939,2,39.55696
1,Anamã/AM,-3.5797356,-61.4049996,885,6341.35856
D1,Anamã/AM,-3.5797356,-61.4049996,1,7.16538
1,Ananindeua/PA,-1.374035,-48.4016623,9086,1696.58312
D1,Ananindeua/PA,-1.374035,-48.4016623,370,69.08824
1,Ananás/TO,-6.3663053,-48.080238,419,4414.24357
D1,Ananás/TO,-6.3663053,-48.080238,11,115.88706
1,Anapu/PA,-3.4668292,-51.2057035,1034,3614.49995
D1,Anapu/PA,-3.4668292,-51.2057035,23,80.39990
1,Anapurus/MA,-3.6751298,-43.1046001,745,4687.30338
D1,Anapurus/MA,-3.6751298,-43.1046001,6,37.75009
1,Anastácio/MS,-20.4832458,-55.8048448,777,3078.81285
D1,Anastácio/MS,-20.4832458,-55.8048448,22,87.17359
1,Anaurilândia/MS,-22.185169,-52.719056,41,451.74086
D1,Anaurilândia/MS,-22.185169,-52.719056,1,11.01807
1,Anchieta/ES,-20.8057672,-40.6454564,1155,3878.57215
D1,Anchieta/ES,-20.8057672,-40.6454564,23,77.23564
1,Anchieta/SC,-26.5350527,-53.3293938,38,683.82221
D1,Anchieta/SC,-26.5350527,-53.3293938,1,17.99532
1,Andaraí/BA,-12.8059674,-41.3322919,44,335.05940
1,Andirá/PR,-23.0494761,-50.2310027,286,1435.31065
D1,Andirá/PR,-23.0494761,-50.2310027,4,20.07427
1,Andorinha/BA,-10.3445708,-39.8334411,126,868.78577
D1,Andorinha/BA,-10.3445708,-39.8334411,2,13.79025
1,Andradas/MG,-22.0680484,-46.5688976,510,1232.00309
D1,Andradas/MG,-22.0680484,-46.5688976,16,38.65108
1,Andradina/SP,-20.896505,-51.3742765,1646,2877.52176
D1,Andradina/SP,-20.896505,-51.3742765,50,87.40953
1,Andrelândia/MG,-21.739722,-44.308889,70,573.48845
1,André da Rocha/RS,-28.6309124,-51.5733328,36,2680.56590
1,Angatuba/SP,-23.4938938,-48.4110675,338,1326.58268
D1,Angatuba/SP,-23.4938938,-48.4110675,9,35.32321
1,Angelim/PE,-8.8902038,-36.2872987,79,703.72350
D1,Angelim/PE,-8.8902038,-36.2872987,3,26.72368
1,Angelina/SC,-27.5805287,-48.9838759,109,2298.12355
1,Angelândia/MG,-17.7253,-42.2728,19,222.04043
1,Angical do Piauí/PI,-6.0872666,-42.7366138,159,2344.09553
D1,Angical do Piauí/PI,-6.0872666,-42.7366138,4,58.97096
1,Angical/BA,-12.005623,-44.7000236,229,1642.99039
D1,Angical/BA,-12.005623,-44.7000236,4,28.69852
1,Angico/TO,-6.3893733,-47.8656722,71,2055.58772
D1,Angico/TO,-6.3893733,-47.8656722,1,28.95194
1,Angicos/RN,-5.6666344,-36.6009064,124,1059.37633
D1,Angicos/RN,-5.6666344,-36.6009064,5,42.71679
1,Angra dos Reis/RJ,-23.0063966,-44.316326,6476,3127.83756
D1,Angra dos Reis/RJ,-23.0063966,-44.316326,206,99.49576
1,Anguera/BA,-12.1509425,-39.2452469,94,832.07931
1,Angélica/MS,-22.1588196,-53.7728504,149,1362.97109
D1,Angélica/MS,-22.1588196,-53.7728504,4,36.58983
1,Anhanguera/GO,-18.3338749,-48.220363,18,1551.72414
D1,Anhanguera/GO,-18.3338749,-48.220363,2,172.41379
1,Anhembi/SP,-22.7891096,-48.1316776,23,337.29286
1,Anhumas/SP,-22.2956478,-51.3873401,96,2316.60232
1,Anicuns/GO,-16.4606451,-49.9572265,815,3707.74760
D1,Anicuns/GO,-16.4606451,-49.9572265,17,77.33952
1,Anita Garibaldi/SC,-27.6855032,-51.1293873,273,3924.10522
D1,Anita Garibaldi/SC,-27.6855032,-51.1293873,1,14.37401
1,Anitápolis/SC,-27.9041185,-49.1287395,61,1889.71499
1,Anori/AM,-3.7435254,-61.6605203,1020,4749.26666
D1,Anori/AM,-3.7435254,-61.6605203,14,65.18601
1,Anta Gorda/RS,-28.9718745,-52.0069187,89,1493.03808
1,Antas/BA,-10.4114649,-38.3308815,455,2335.84886
1,Antonina do Norte/CE,-6.7754187,-39.9879345,57,772.56709
1,Antonina/PR,-25.4298854,-48.7125431,690,3641.35311
D1,Antonina/PR,-25.4298854,-48.7125431,18,94.99182
1,Antônio Almeida/PI,-7.2186016,-44.1950248,237,7476.34069
D1,Antônio Almeida/PI,-7.2186016,-44.1950248,2,63.09148
1,Antônio Cardoso/BA,-12.4363122,-39.1200307,81,693.67132
D1,Antônio Cardoso/BA,-12.4363122,-39.1200307,3,25.69153
1,Antônio Carlos/MG,-21.318334,-43.746666,78,680.68767
D1,Antônio Carlos/MG,-21.318334,-43.746666,2,17.45353
1,Antônio Carlos/SC,-27.5168462,-48.7684715,507,5886.45071
D1,Antônio Carlos/SC,-27.5168462,-48.7684715,12,139.32428
1,Antônio Dias/MG,-19.6525,-42.872778,121,1304.58221
D1,Antônio Dias/MG,-19.6525,-42.872778,3,32.34501
1,Antônio Gonçalves/BA,-10.5715409,-40.2748824,208,1751.13655
D1,Antônio Gonçalves/BA,-10.5715409,-40.2748824,1,8.41893
1,Antônio João/MS,-22.1892837,-55.9508227,66,731.70732
1,Antônio Martins/RN,-6.2155812,-37.8890129,45,629.01873
D1,Antônio Martins/RN,-6.2155812,-37.8890129,1,13.97819
1,Antônio Olinto/PR,-25.9849006,-50.1974516,109,1467.61815
D1,Antônio Olinto/PR,-25.9849006,-50.1974516,1,13.46439
1,Antônio Prado de Minas/MG,-21.0171988,-42.1101106,13,819.15564
1,Antônio Prado/RS,-28.8567806,-51.2801355,661,5067.07551
D1,Antônio Prado/RS,-28.8567806,-51.2801355,10,76.65772
1,Anápolis/GO,-16.3332828,-48.9525756,13921,3553.34225
D1,Anápolis/GO,-16.3332828,-48.9525756,366,93.42168
1,Anísio de Abreu/PI,-9.185643,-43.04941,138,1388.60938
1,Aparecida d'Oeste/SP,-20.4498109,-50.8808706,296,7118.80712
D1,Aparecida d'Oeste/SP,-20.4498109,-50.8808706,7,168.35017
1,Aparecida de Goiânia/GO,-16.8226769,-49.2452546,37847,6413.15878
D1,Aparecida de Goiânia/GO,-16.8226769,-49.2452546,547,92.68893
1,Aparecida do Rio Doce/GO,-18.2980167,-51.1491312,101,4082.45756
D1,Aparecida do Rio Doce/GO,-18.2980167,-51.1491312,2,80.84074
1,Aparecida do Rio Negro/TO,-9.9513491,-47.9773786,64,1320.13201
D1,Aparecida do Rio Negro/TO,-9.9513491,-47.9773786,1,20.62706
1,Aparecida do Taboado/MS,-20.0840304,-51.1013943,1058,4058.46024
D1,Aparecida do Taboado/MS,-20.0840304,-51.1013943,20,76.71948
1,Aparecida/PB,-6.7859598, -38.0831353,386,4586.50190
D1,Aparecida/PB,-6.7859598, -38.0831353,6,71.29278
1,Aparecida/SP,-22.851552,-45.2340924,558,1542.07545
D1,Aparecida/SP,-22.851552,-45.2340924,15,41.45364
1,Aperibé/RJ,-21.6211928,-42.1028167,203,1705.73901
D1,Aperibé/RJ,-21.6211928,-42.1028167,7,58.81859
1,Apiacá/ES,-21.152272,-41.569297,196,2594.65184
D1,Apiacá/ES,-21.152272,-41.569297,5,66.19010
1,Apiacás/MT,-9.5678422,-57.394852,64,622.38646
D1,Apiacás/MT,-9.5678422,-57.394852,1,9.72479
1,Apiaí/SP,-24.5076527,-48.8461582,160,660.44745
D1,Apiaí/SP,-24.5076527,-48.8461582,6,24.76678
1,Apicum-Açu/MA,-1.5279295,-45.082278,199,1142.82433
D1,Apicum-Açu/MA,-1.5279295,-45.082278,3,17.22851
1,Apiúna/SC,-27.0374658,-49.3885037,152,1401.17994
D1,Apiúna/SC,-27.0374658,-49.3885037,4,36.87316
1,Apodi/RN,-5.6631109,-37.796927,2756,7682.44411
D1,Apodi/RN,-5.6631109,-37.796927,38,105.92630
1,Aporá/BA,-11.6599747,-38.0794757,223,1253.65415
D1,Aporá/BA,-11.6599747,-38.0794757,6,33.73060
1,Aporé/GO,-18.9642193,-51.92804,141,3331.75803
D1,Aporé/GO,-18.9642193,-51.92804,3,70.88847
1,Apuarema/BA,-13.8517897,-39.7457126,459,6285.94906
D1,Apuarema/BA,-13.8517897,-39.7457126,6,82.16927
1,Apucarana/PR,-23.5525327,-51.4610764,1247,915.33685
D1,Apucarana/PR,-23.5525327,-51.4610764,50,36.70156
1,Apuiarés/CE,-3.9460303,-39.4313298,250,1703.92585
D1,Apuiarés/CE,-3.9460303,-39.4313298,11,74.97274
1,Apuí/AM,-7.1940195,-59.8830192,289,1292.54439
D1,Apuí/AM,-7.1940195,-59.8830192,4,17.88989
1,Aquidabã/SE,-10.2837579,-37.0188687,707,3260.91970
D1,Aquidabã/SE,-10.2837579,-37.0188687,17,78.40967
1,Aquidauana/MS,-20.473969,-55.7821375,2123,4420.24610
D1,Aquidauana/MS,-20.473969,-55.7821375,64,133.25283
1,Aquiraz/CE,-3.9063117,-38.387504,1124,1388.76877
D1,Aquiraz/CE,-3.9063117,-38.387504,35,43.24458
1,Arabutã/SC,-27.1587028,-52.1438142,85,1992.03187
D1,Arabutã/SC,-27.1587028,-52.1438142,2,46.87134
1,Aracaju/SE,-10.9162061,-37.0774655,39185,5893.29652
D1,Aracaju/SE,-10.9162061,-37.0774655,820,123.32533
1,Aracati/CE,-4.558259,-37.767894,1921,2562.18740
D1,Aracati/CE,-4.558259,-37.767894,53,70.69023
1,Aracatu/BA,-14.4274236,-41.4604105,132,1011.88195
D1,Aracatu/BA,-14.4274236,-41.4604105,1,7.66577
1,Araci/BA,-11.3356065,-38.9573261,1241,2270.89738
D1,Araci/BA,-11.3356065,-38.9573261,15,27.44840
1,Aracitaba/MG,-21.3425,-43.378611,5,242.83633
1,Aracoiaba/CE,-4.3702577,-38.8084313,814,3067.64650
D1,Aracoiaba/CE,-4.3702577,-38.8084313,15,56.52911
1,Aracruz/ES,-19.8245218,-40.2735025,4831,4685.69655
D1,Aracruz/ES,-19.8245218,-40.2735025,80,77.59382
1,Aragarças/GO,-15.8957166,-52.2514538,826,4074.38465
D1,Aragarças/GO,-15.8957166,-52.2514538,18,88.78804
1,Aragoiânia/GO,-16.9146388,-49.4499148,405,3858.61280
D1,Aragoiânia/GO,-16.9146388,-49.4499148,4,38.10976
1,Aragominas/TO,-7.1654101,-48.525488,232,4048.15913
D1,Aragominas/TO,-7.1654101,-48.525488,3,52.34689
1,Araguacema/TO,-8.8067391,-49.5560969,55,768.69322
D1,Araguacema/TO,-8.8067391,-49.5560969,1,13.97624
1,Araguaiana/MT,-15.729144,-51.834112,59,1897.71631
D1,Araguaiana/MT,-15.729144,-51.834112,2,64.32937
1,Araguainha/MT,-16.857016,-53.031778,4,422.83298
1,Araguanã/MA,-2.9508403,-45.6651986,543,3491.73687
D1,Araguanã/MA,-2.9508403,-45.6651986,2,12.86091
1,Araguanã/TO,-6.5799107,-48.6428482,174,3003.62506
D1,Araguanã/TO,-6.5799107,-48.6428482,8,138.09770
1,Araguapaz/GO,-15.0937927,-50.626417,193,2479.76359
D1,Araguapaz/GO,-15.0937927,-50.626417,6,77.09110
1,Araguari/MG,-18.6511256,-48.1933764,4558,3868.44897
D1,Araguari/MG,-18.6511256,-48.1933764,103,87.41778
1,Araguatins/TO,-5.6522925,-48.1158973,1011,2795.13409
D1,Araguatins/TO,-5.6522925,-48.1158973,27,74.64750
1,Araguaçu/TO,-12.928934,-49.823134,517,6106.05882
D1,Araguaçu/TO,-12.928934,-49.823134,9,106.29503
1,Araguaína/TO,-7.193241,-48.2018597,16162,8813.34489
D1,Araguaína/TO,-7.193241,-48.2018597,231,125.96725
1,Araioses/MA,-2.890914,-41.904993,589,1259.32736
D1,Araioses/MA,-2.890914,-41.904993,10,21.38077
1,Aral Moreira/MS,-22.951141,-55.6268421,139,1127.14888
D1,Aral Moreira/MS,-22.951141,-55.6268421,2,16.21797
1,Aramari/BA,-12.0907897,-38.4985065,173,1509.46689
D1,Aramari/BA,-12.0907897,-38.4985065,3,26.17573
1,Arambaré/RS,-30.9132252,-51.4994625,35,982.59405
D1,Arambaré/RS,-30.9132252,-51.4994625,1,28.07412
1,Arame/MA,-4.8858769,-46.0102484,951,2902.57600
D1,Arame/MA,-4.8858769,-46.0102484,16,48.83409
1,Aramina/SP,-20.0876144,-47.789201,132,2334.21751
D1,Aramina/SP,-20.0876144,-47.789201,5,88.41733
1,Arandu/SP,-23.1345103,-49.0545651,54,848.38963
D1,Arandu/SP,-23.1345103,-49.0545651,3,47.13276
1,Arantina/MG,-21.911667,-44.255833,22,789.37926
D1,Arantina/MG,-21.911667,-44.255833,1,35.88088
1,Arapeí/SP,-22.6738889,-44.4477778,7,284.55285
D1,Arapeí/SP,-22.6738889,-44.4477778,1,40.65041
1,Arapiraca/AL,-9.754866,-36.661471,12381,5312.66225
D1,Arapiraca/AL,-9.754866,-36.661471,168,72.08846
1,Arapoema/TO,-7.6575001,-49.0641484,137,2070.73761
D1,Arapoema/TO,-7.6575001,-49.0641484,3,45.34462
1,Araponga/MG,-20.666667,-42.520556,1,11.83012
1,Arapongas/PR,-23.415296,-51.42592,3377,2705.71268
D1,Arapongas/PR,-23.415296,-51.42592,113,90.53762
1,Araporã/MG,-18.4318188,-49.188313,915,13201.55822
D1,Araporã/MG,-18.4318188,-49.188313,9,129.85139
1,Arapoti/PR,-24.1457957,-49.8224605,323,1141.34276
D1,Arapoti/PR,-24.1457957,-49.8224605,2,7.06714
1,Araputanga/MT,-15.4710868,-58.346796,580,3421.62704
D1,Araputanga/MT,-15.4710868,-58.346796,7,41.29550
1,Arapuá/MG,-19.034444,-46.155556,35,1234.56790
1,Arapuã/PR,-24.3079525,-51.7901941,48,1595.21436
D1,Arapuã/PR,-24.3079525,-51.7901941,1,33.23363
1,Araquari/SC,-26.3703324,-48.7210994,1034,2616.13197
D1,Araquari/SC,-26.3703324,-48.7210994,15,37.95162
1,Arara/PB,-6.8271895,-35.7605703,239,1764.87963
D1,Arara/PB,-6.8271895,-35.7605703,6,44.30660
1,Araranguá/SC,-28.9348832,-49.4858389,2627,3814.59915
D1,Araranguá/SC,-28.9348832,-49.4858389,48,69.69957
1,Araraquara/SP,-21.7886713,-48.1773096,5850,2454.48710
D1,Araraquara/SP,-21.7886713,-48.1773096,68,28.53079
1,Araras/SP,-22.3569477,-47.3838889,5027,3709.79883
D1,Araras/SP,-22.3569477,-47.3838889,82,60.51393
1,Ararendá/CE,-4.7504395,-40.8303611,238,2171.73100
D1,Ararendá/CE,-4.7504395,-40.8303611,4,36.49968
1,Arari/MA,-3.4547602,-44.7772723,272,908.72645
D1,Arari/MA,-3.4547602,-44.7772723,10,33.40906
1,Araricá/RS,-29.6168543,-50.929121,137,2373.93866
D1,Araricá/RS,-29.6168543,-50.929121,5,86.64010
1,Araripe/CE,-7.212861,-40.1359222,246,1136.04877
D1,Araripe/CE,-7.212861,-40.1359222,3,13.85425
1,Araripina/PE,-7.5768582,-40.5038509,2425,2857.51320
D1,Araripina/PE,-7.5768582,-40.5038509,43,50.66931
1,Araruama/RJ,-22.8733203,-42.3428897,1811,1348.54386
D1,Araruama/RJ,-22.8733203,-42.3428897,73,54.35875
1,Araruna/PB,-6.5321155,-35.7397595,284,1387.87079
D1,Araruna/PB,-6.5321155,-35.7397595,8,39.09495
1,Araruna/PR,-23.9320308,-52.4976047,214,1528.57143
D1,Araruna/PR,-23.9320308,-52.4976047,9,64.28571
1,Arataca/BA,-15.2617424,-39.4122943,259,2362.92309
D1,Arataca/BA,-15.2617424,-39.4122943,8,72.98604
1,Aratiba/RS,-27.3955734,-52.3024325,42,678.62336
D1,Aratiba/RS,-27.3955734,-52.3024325,2,32.31540
1,Aratuba/CE,-4.4195958,-39.0463737,259,2194.54330
D1,Aratuba/CE,-4.4195958,-39.0463737,2,16.94628
1,Aratuípe/BA,-13.077137,-39.0010786,162,1833.20131
D1,Aratuípe/BA,-13.077137,-39.0010786,6,67.89634
1,Araucária/PR,-25.5861107,-49.4051209,5458,3732.88468
D1,Araucária/PR,-25.5861107,-49.4051209,77,52.66254
1,Arauá/SE,-11.2644014,-37.6181058,327,3287.42334
D1,Arauá/SE,-11.2644014,-37.6181058,9,90.47954
1,Araxá/MG,-19.5928536,-46.940241,2592,2414.82434
D1,Araxá/MG,-19.5928536,-46.940241,38,35.40252
1,Araçagi/PB,-6.8519969,-35.3835602,545,3220.84983
D1,Araçagi/PB,-6.8519969,-35.3835602,6,35.45890
1,Araçariguama/SP,-23.438611,-47.061389,401,1754.15573
D1,Araçariguama/SP,-23.438611,-47.061389,9,39.37008
1,Araçatuba/SP,-21.207992,-50.4390225,7778,3925.72516
D1,Araçatuba/SP,-21.207992,-50.4390225,177,89.33574
1,Araçaí/MG,-19.200833,-44.2475,5,212.40442
1,Araçoiaba da Serra/SP,-23.5045367,-47.6168158,675,1940.99379
D1,Araçoiaba da Serra/SP,-23.5045367,-47.6168158,13,37.38210
1,Araçoiaba/PE,-7.7856903,-35.0898881,169,815.12565
D1,Araçoiaba/PE,-7.7856903,-35.0898881,20,96.46457
1,Araçu/GO,-16.3561579,-49.6815269,85,2438.32473
D1,Araçu/GO,-16.3561579,-49.6815269,3,86.05852
1,Araçuaí/MG,-16.8484451,-42.0661868,116,315.97298
D1,Araçuaí/MG,-16.8484451,-42.0661868,2,5.44781
1,Araçás/BA,-12.2139176,-38.2026159,272,2228.04718
D1,Araçás/BA,-12.2139176,-38.2026159,4,32.76540
1,Araújos/MG,-19.948055,-45.165556,77,819.06180
D1,Araújos/MG,-19.948055,-45.165556,1,10.63717
1,Arceburgo/MG,-21.364444,-46.939722,97,891.29836
D1,Arceburgo/MG,-21.364444,-46.939722,2,18.37729
1,Arco-Íris/SP,-21.7741308,-50.4668814,11,620.41737
1,Arcos/MG,-20.282223,-45.539444,559,1384.34869
D1,Arcos/MG,-20.282223,-45.539444,13,32.19416
1,Arcoverde/PE,-8.415192,-37.057748,2042,2729.14383
D1,Arcoverde/PE,-8.415192,-37.057748,58,77.51731
1,Areado/MG,-21.3582771,-46.1476688,27,177.85390
D1,Areado/MG,-21.3582771,-46.1476688,3,19.76154
1,Areal/RJ,-22.2314922,-43.1056264,291,2296.94530
D1,Areal/RJ,-22.2314922,-43.1056264,9,71.03955
1,Arealva/SP,-22.0301906,-48.9111936,125,1451.29455
D1,Arealva/SP,-22.0301906,-48.9111936,2,23.22071
1,Areia Branca/RN,-4.9506652,-37.1263312,857,3064.32581
D1,Areia Branca/RN,-4.9506652,-37.1263312,50,178.78214
1,Areia Branca/SE,-10.7591455,-37.3148072,774,4142.13850
D1,Areia Branca/SE,-10.7591455,-37.3148072,19,101.68040
1,Areia de Baraúnas/PB,-7.1233949,-36.9446216,13,614.36673
1,Areia/PB,-6.9680243,-35.6994783,532,2348.16384
D1,Areia/PB,-6.9680243,-35.6994783,5,22.06921
1,Areial/PB,-7.0501306,-35.9245244,98,1394.62075
D1,Areial/PB,-7.0501306,-35.9245244,2,28.46165
1,Areias/SP,-22.5800929,-44.6975127,57,1463.03901
1,Areiópolis/SP,-22.6758064,-48.6673653,137,1227.81861
D1,Areiópolis/SP,-22.6758064,-48.6673653,4,35.84872
1,Arenápolis/MT,-14.4610369,-56.8432806,432,4546.41128
D1,Arenápolis/MT,-14.4610369,-56.8432806,6,63.14460
1,Arenópolis/GO,-16.3859286,-51.55937,32,1261.82965
1,Argirita/MG,-21.612761,-42.8371922,45,1664.20118
D1,Argirita/MG,-21.612761,-42.8371922,2,73.96450
1,Aricanduva/MG,-17.8678,-42.5569,3,56.93680
1,Arinos/MG,-15.917223,-46.106111,125,699.80965
D1,Arinos/MG,-15.917223,-46.106111,3,16.79543
1,Aripuanã/MT,-10.175806,-59.4439663,825,3632.12116
D1,Aripuanã/MT,-10.175806,-59.4439663,15,66.03857
1,Ariquemes/RO,-9.9076522,-63.033069,6027,5502.95372
D1,Ariquemes/RO,-9.9076522,-63.033069,101,92.21807
1,Ariranha do Ivaí/PR,-24.3834527,-51.5876772,22,1064.85963
D1,Ariranha do Ivaí/PR,-24.3834527,-51.5876772,1,48.40271
1,Ariranha/SP,-21.18716,-48.790418,184,1885.05276
D1,Ariranha/SP,-21.18716,-48.790418,7,71.71396
1,Armazém/SC,-28.2624996,-49.0190126,353,4030.14043
D1,Armazém/SC,-28.2624996,-49.0190126,7,79.91780
1,Armação dos Búzios/RJ,-22.7597805,-41.8875267,587,1702.58433
D1,Armação dos Búzios/RJ,-22.7597805,-41.8875267,16,46.40775
1,Arneiroz/CE,-6.3235099,-40.1603859,62,790.41305
D1,Arneiroz/CE,-6.3235099,-40.1603859,4,50.99439
1,Aroazes/PI,-6.1108814,-41.7886137,123,2110.86322
D1,Aroazes/PI,-6.1108814,-41.7886137,4,68.64596
1,Aroeiras do Itaim/PI,-7.2797031,-41.5629681,88,3449.62760
D1,Aroeiras do Itaim/PI,-7.2797031,-41.5629681,1,39.20031
1,Aroeiras/PB,-7.5462904,-35.7080002,238,1245.03034
D1,Aroeiras/PB,-7.5462904,-35.7080002,1,5.23122
1,Arraial do Cabo/RJ,-22.9662839,-42.024427,241,787.76191
D1,Arraial do Cabo/RJ,-22.9662839,-42.024427,6,19.61233
1,Arraial/PI,-6.6541632,-42.5335332,62,1313.55932
D1,Arraial/PI,-6.6541632,-42.5335332,1,21.18644
1,Arraias/TO,-12.9287788,-46.9437231,147,1395.48130
1,Arroio Grande/RS,-32.2384246,-53.0866661,143,784.07720
D1,Arroio Grande/RS,-32.2384246,-53.0866661,1,5.48306
1,Arroio Trinta/SC,-26.9301976,-51.334928,78,2197.80220
1,Arroio do Meio/RS,-29.4020392,-51.9444993,607,2895.02552
D1,Arroio do Meio/RS,-29.4020392,-51.9444993,1,4.76940
1,Arroio do Padre/RS,-31.4428773,-52.4228985,20,677.73636
1,Arroio do Sal/RS,-29.549852,-49.8874395,145,1410.64306
D1,Arroio do Sal/RS,-29.549852,-49.8874395,4,38.91429
1,Arroio do Tigre/RS,-29.334158,-53.0888935,41,305.67360
D1,Arroio do Tigre/RS,-29.334158,-53.0888935,1,7.45545
1,Arroio dos Ratos/RS,-30.0894524,-51.7265541,221,1558.86295
D1,Arroio dos Ratos/RS,-30.0894524,-51.7265541,12,84.64414
1,Artur Nogueira/SP,-22.572737,-47.172679,1218,2200.93965
D1,Artur Nogueira/SP,-22.572737,-47.172679,30,54.21034
1,Aruanã/GO,-14.9162439,-51.0715692,153,1513.35312
D1,Aruanã/GO,-14.9162439,-51.0715692,1,9.89120
1,Arujá/SP,-23.396266,-46.3175449,2300,2523.11945
D1,Arujá/SP,-23.396266,-46.3175449,95,104.21580
1,Arvoredo/SC,-27.0752908,-52.4571847,62,2775.29096
D1,Arvoredo/SC,-27.0752908,-52.4571847,1,44.76276
1,Arvorezinha/RS,-28.87369,-52.17808,195,1870.86252
D1,Arvorezinha/RS,-28.87369,-52.17808,5,47.97083
1,Arês/RN,-6.1969216,-35.1642968,242,1678.57391
D1,Arês/RN,-6.1969216,-35.1642968,9,62.42630
1,Ascurra/SC,-26.9569975,-49.3767752,189,2369.01479
D1,Ascurra/SC,-26.9569975,-49.3767752,2,25.06894
1,Aspásia/SP,-20.160028,-50.728046,49,2695.26953
D1,Aspásia/SP,-20.160028,-50.728046,1,55.00550
1,Assaré/CE,-6.8746791,-39.8741385,491,2091.31953
D1,Assaré/CE,-6.8746791,-39.8741385,8,34.07445
1,Assaí/PR,-23.3736041,-50.8454929,353,2360.57242
D1,Assaí/PR,-23.3736041,-50.8454929,12,80.24609
1,Assis Brasil/AC,-10.9409203,-69.5672108,723,9596.49589
D1,Assis Brasil/AC,-10.9409203,-69.5672108,9,119.45846
1,Assis Chateaubriand/PR,-24.4054826,-53.5120468,587,1760.64787
D1,Assis Chateaubriand/PR,-24.4054826,-53.5120468,8,23.99520
1,Assis/SP,-22.6620892,-50.420623,1608,1530.16072
D1,Assis/SP,-22.6620892,-50.420623,27,25.69300
1,Assunção do Piauí/PI,-5.8610212,-41.0485091,134,1704.18415
D1,Assunção do Piauí/PI,-5.8610212,-41.0485091,2,25.43558
1,Assunção/PB,-7.073396,-36.7274003,47,1166.54257
1,Astolfo Dutra/MG,-21.3132636,-42.8624102,197,1380.51857
D1,Astolfo Dutra/MG,-21.3132636,-42.8624102,3,21.02313
1,Astorga/PR,-23.2350184,-51.6647074,532,2029.83708
D1,Astorga/PR,-23.2350184,-51.6647074,8,30.52387
1,Atalaia do Norte/AM,-4.3658547,-70.1908742,1424,6981.07658
D1,Atalaia do Norte/AM,-4.3658547,-70.1908742,4,19.60977
1,Atalaia/AL,-9.5029595,-36.0219316,630,1330.09606
D1,Atalaia/AL,-9.5029595,-36.0219316,23,48.55906
1,Atalaia/PR,-23.1513833,-52.0529697,96,2473.58928
D1,Atalaia/PR,-23.1513833,-52.0529697,3,77.29967
1,Atalanta/SC,-27.421916,-49.778863,46,1439.74961
1,Ataléia/MG,-18.04432,-41.1110524,177,1396.11926
D1,Ataléia/MG,-18.04432,-41.1110524,4,31.55072
1,Atibaia/SP,-23.1177393,-46.5547861,2444,1696.18566
D1,Atibaia/SP,-23.1177393,-46.5547861,66,45.80534
1,Atilio Vivacqua/ES,-20.9139369,-41.1947519,386,3188.76497
D1,Atilio Vivacqua/ES,-20.9139369,-41.1947519,9,74.34944
1,Augustinópolis/TO,-5.4662267,-47.8897519,714,3829.85571
D1,Augustinópolis/TO,-5.4662267,-47.8897519,10,53.63944
1,Augusto Corrêa/PA,-1.0229335,-46.6404029,1397,3006.17589
D1,Augusto Corrêa/PA,-1.0229335,-46.6404029,21,45.18947
1,Augusto Pestana/RS,-28.5148413,-53.9906433,44,666.46471
D1,Augusto Pestana/RS,-28.5148413,-53.9906433,1,15.14693
1,Augusto de Lima/MG,-18.1092963,-44.2651945,39,803.95795
1,Aurelino Leal/BA,-14.3167137,-39.3256107,469,4150.80981
D1,Aurelino Leal/BA,-14.3167137,-39.3256107,10,88.50341
1,Auriflama/SP,-20.6840418,-50.5554616,512,3356.71671
D1,Auriflama/SP,-20.6840418,-50.5554616,14,91.78522
1,Aurilândia/GO,-16.6772599,-50.4641231,65,2125.57227
D1,Aurilândia/GO,-16.6772599,-50.4641231,1,32.70111
1,Aurora do Pará/PA,-2.1323199,-47.558436,663,2086.67737
D1,Aurora do Pará/PA,-2.1323199,-47.558436,8,25.17861
1,Aurora do Tocantins/TO,-12.71045,-46.407604,56,1480.30663
1,Aurora/CE,-6.9426019,-38.9693765,592,2405.52621
D1,Aurora/CE,-6.9426019,-38.9693765,20,81.26778
1,Aurora/SC,-27.3166417,-49.6368502,92,1618.86328
D1,Aurora/SC,-27.3166417,-49.6368502,1,17.59634
1,Autazes/AM,-3.5833283,-59.1301518,1416,3514.51973
D1,Autazes/AM,-3.5833283,-59.1301518,37,91.83420
1,Avanhandava/SP,-21.4603331,-49.9465156,246,1775.01984
D1,Avanhandava/SP,-21.4603331,-49.9465156,7,50.50869
1,Avaré/SP,-23.1045215,-48.9259103,905,991.97650
D1,Avaré/SP,-23.1045215,-48.9259103,19,20.82603
1,Avaí/SP,-22.1564662,-49.3316395,114,2097.13024
D1,Avaí/SP,-22.1564662,-49.3316395,3,55.18764
1,Aveiro/PA,-3.6049239,-55.3310742,445,2712.75299
D1,Aveiro/PA,-3.6049239,-55.3310742,5,30.48037
1,Avelino Lopes/PI,-10.1346855,-43.9489525,61,538.58379
D1,Avelino Lopes/PI,-10.1346855,-43.9489525,6,52.97545
1,Avelinópolis/GO,-16.4672409,-49.7578661,108,4483.18804
D1,Avelinópolis/GO,-16.4672409,-49.7578661,1,41.51100
1,Axixá do Tocantins/TO,-5.612747,-47.77007,477,4873.81220
D1,Axixá do Tocantins/TO,-5.612747,-47.77007,4,40.87054
1,Axixá/MA,-2.8379465,-44.0561053,142,1165.55857
D1,Axixá/MA,-2.8379465,-44.0561053,3,24.62448
1,Açailândia/MA,-4.9514278,-47.4844564,3563,3149.72463
D1,Açailândia/MA,-4.9514278,-47.4844564,92,81.32884
1,Açu/RN,-5.5836157,-36.9139541,1832,3137.84599
D1,Açu/RN,-5.5836157,-36.9139541,73,125.03426
1,Açucena/MG,-19.073056,-42.546666,104,1110.16225
D1,Açucena/MG,-19.073056,-42.546666,4,42.69855
1,Babaçulândia/TO,-7.2034355,-47.761613,408,3825.23908
D1,Babaçulândia/TO,-7.2034355,-47.761613,4,37.50234
1,Bacabal/MA,-4.2318132,-44.781167,3531,3369.59634
D1,Bacabal/MA,-4.2318132,-44.781167,66,62.98311
1,Bacabeira/MA,-2.9775747,-44.3155943,154,892.65013
D1,Bacabeira/MA,-2.9775747,-44.3155943,3,17.38929
1,Bacuri/MA,-1.728894,-45.1417148,425,2278.33173
D1,Bacuri/MA,-1.728894,-45.1417148,3,16.08234
1,Bacurituba/MA,-2.7082587,-44.7381309,70,1234.56790
1,Bady Bassitt/SP,-20.9178969,-49.4517911,995,5602.16204
D1,Bady Bassitt/SP,-20.9178969,-49.4517911,22,123.86690
1,Baependi/MG,-21.959162,-44.8899249,158,822.95953
D1,Baependi/MG,-21.959162,-44.8899249,6,31.25163
1,Bagre/PA,-1.8994498,-50.2103844,436,1391.85954
D1,Bagre/PA,-1.8994498,-50.2103844,10,31.92338
1,Bagé/RS,-31.3314264,-54.1062808,1472,1213.17015
D1,Bagé/RS,-31.3314264,-54.1062808,19,15.65913
1,Baianópolis/BA,-12.3067564,-44.5383591,152,1091.24847
D1,Baianópolis/BA,-12.3067564,-44.5383591,2,14.35853
1,Baixa Grande do Ribeiro/PI,-7.862861,-45.2113289,1420,12166.90943
D1,Baixa Grande do Ribeiro/PI,-7.862861,-45.2113289,12,102.81895
1,Baixa Grande/BA,-11.9630941,-40.1657537,60,293.41288
D1,Baixa Grande/BA,-11.9630941,-40.1657537,2,9.78043
1,Baixio/CE,-6.7303544,-38.7170095,108,1713.46978
D1,Baixio/CE,-6.7303544,-38.7170095,3,47.59638
1,Baixo Guandu/ES,-19.5138322,-41.0182089,989,3176.79558
D1,Baixo Guandu/ES,-19.5138322,-41.0182089,21,67.45471
1,Baião/PA,-2.7903479,-49.6702845,416,858.45767
D1,Baião/PA,-2.7903479,-49.6702845,15,30.95400
1,Balbinos/SP,-21.9006253,-49.3583966,105,1769.46411
D1,Balbinos/SP,-21.9006253,-49.3583966,3,50.55612
1,Baldim/MG,-19.2913568,-43.9558262,78,999.61553
D1,Baldim/MG,-19.2913568,-43.9558262,5,64.07792
1,Baliza/GO,-16.1978119,-52.542789,34,643.93939
1,Balneário Arroio do Silva/SC,-28.9815269,-49.4189932,514,3827.25242
D1,Balneário Arroio do Silva/SC,-28.9815269,-49.4189932,8,59.56813
1,Balneário Barra do Sul/SC,-26.459842,-48.6061471,514,4657.90666
D1,Balneário Barra do Sul/SC,-26.459842,-48.6061471,8,72.49660
1,Balneário Camboriú/SC,-26.9924395,-48.6339782,9153,6277.95001
D1,Balneário Camboriú/SC,-26.9924395,-48.6339782,97,66.53132
1,Balneário Gaivota/SC,-29.1553098,-49.5808712,283,2513.32149
D1,Balneário Gaivota/SC,-29.1553098,-49.5808712,8,71.04796
1,Balneário Pinhal/RS,-30.2482978,-50.234585,318,2214.02214
D1,Balneário Pinhal/RS,-30.2482978,-50.234585,4,27.84934
1,Balneário Piçarras/SC,-26.7638889,-48.6716667,1067,4488.47383
D1,Balneário Piçarras/SC,-26.7638889,-48.6716667,10,42.06630
1,Balneário Rincão/SC,-28.8235718,-49.2241642,426,3290.59169
D1,Balneário Rincão/SC,-28.8235718,-49.2241642,10,77.24394
1,Balsa Nova/PR,-25.5842234,-49.6312741,257,1963.03086
D1,Balsa Nova/PR,-25.5842234,-49.6312741,8,61.10602
1,Balsas/MA,-7.53214,-46.037163,6574,6852.98502
D1,Balsas/MA,-7.53214,-46.037163,78,81.31014
1,Bambuí/MG,-20.0131996,-45.9777034,79,330.57160
D1,Bambuí/MG,-20.0131996,-45.9777034,1,4.18445
1,Banabuiú/CE,-5.3046404,-38.919766,599,3281.11306
D1,Banabuiú/CE,-5.3046404,-38.919766,4,21.91060
1,Bananal/SP,-22.6828195,-44.3221095,145,1319.02120
D1,Bananal/SP,-22.6828195,-44.3221095,1,9.09670
1,Bananeiras/PB,-6.7537682,-35.6338343,462,2172.17547
D1,Bananeiras/PB,-6.7537682,-35.6338343,2,9.40336
1,Bandeira do Sul/MG,-21.728056,-46.385555,48,830.73728
D1,Bandeira do Sul/MG,-21.728056,-46.385555,1,17.30703
1,Bandeira/MG,-15.884444,-40.559167,198,4154.42719
D1,Bandeira/MG,-15.884444,-40.559167,1,20.98196
1,Bandeirante/SC,-26.7677402,-53.6397596,16,604.22961
1,Bandeirantes do Tocantins/TO,-7.7635698,-48.579148,75,2087.97327
D1,Bandeirantes do Tocantins/TO,-7.7635698,-48.579148,1,27.83964
1,Bandeirantes/MS,-19.9179623,-54.3646768,84,1156.06936
D1,Bandeirantes/MS,-19.9179623,-54.3646768,1,13.76273
1,Bandeirantes/PR,-23.107788,-50.370407,1051,3367.40252
D1,Bandeirantes/PR,-23.107788,-50.370407,38,121.75195
1,Bannach/PA,-7.3508505,-50.4064531,112,3433.47639
D1,Bannach/PA,-7.3508505,-50.4064531,2,61.31208
1,Banzaê/BA,-10.5827616,-38.6122305,540,4078.54985
D1,Banzaê/BA,-10.5827616,-38.6122305,2,15.10574
1,Baraúna/PB,-6.643394,-36.2531932,143,2880.74134
1,Baraúna/RN,-5.0775002,-37.61752,546,1899.32863
D1,Baraúna/RN,-5.0775002,-37.61752,14,48.70073
1,Barbacena/MG,-21.2254524,-43.7735087,1137,822.69688
D1,Barbacena/MG,-21.2254524,-43.7735087,21,15.19493
1,Barbalha/CE,-7.3121067,-39.3036427,2241,3660.09015
D1,Barbalha/CE,-7.3121067,-39.3036427,57,93.09466
1,Barbosa Ferraz/PR,-24.0287182,-52.00811,185,1619.11430
D1,Barbosa Ferraz/PR,-24.0287182,-52.00811,4,35.00788
1,Barbosa/SP,-21.265661,-49.951816,127,1700.58918
D1,Barbosa/SP,-21.265661,-49.951816,1,13.39047
1,Barcarena/PA,-1.5107945,-48.6190679,4505,3546.49012
D1,Barcarena/PA,-1.5107945,-48.6190679,114,89.74470
1,Barcelona/RN,-5.9514918,-35.9260284,36,901.35203
D1,Barcelona/RN,-5.9514918,-35.9260284,3,75.11267
1,Barcelos/AM,-0.9729214,-62.925635,2812,10174.39757
D1,Barcelos/AM,-0.9729214,-62.925635,27,97.69158
1,Bariri/SP,-22.0746355,-48.7394852,1083,3045.72811
D1,Bariri/SP,-22.0746355,-48.7394852,28,78.74459
1,Barra Bonita/SC,-26.6526364,-53.4419581,5,302.84676
1,Barra Bonita/SP,-22.490859,-48.558349,1065,2948.01528
D1,Barra Bonita/SP,-22.490859,-48.558349,25,69.20224
1,Barra D'Alcântara/PI,-6.5209258,-42.1071089,18,455.46559
D1,Barra D'Alcântara/PI,-6.5209258,-42.1071089,1,25.30364
1,Barra Funda/RS,-27.9230048,-53.0401045,131,5135.24108
D1,Barra Funda/RS,-27.9230048,-53.0401045,3,117.60094
1,Barra Longa/MG,-20.2833541,-43.0423516,91,1814.55633
1,Barra Mansa/RJ,-22.5394843,-44.1735129,3806,2059.15610
D1,Barra Mansa/RJ,-22.5394843,-44.1735129,182,98.46727
1,Barra Velha/SC,-26.6338203,-48.6835001,1071,3586.73811
D1,Barra Velha/SC,-26.6338203,-48.6835001,18,60.28131
1,Barra da Estiva/BA,-13.6269662,-41.3278287,108,529.61946
1,Barra de Guabiraba/PE,-8.4173522,-35.6626669,193,1330.11716
D1,Barra de Guabiraba/PE,-8.4173522,-35.6626669,11,75.80979
1,Barra de Santa Rosa/PB,-6.7218007,-36.0564638,129,832.41918
D1,Barra de Santa Rosa/PB,-6.7218007,-36.0564638,1,6.45286
1,Barra de Santana/PB,-7.5230865,-35.9988518,103,1233.68068
D1,Barra de Santana/PB,-7.5230865,-35.9988518,3,35.93245
1,Barra de Santo Antônio/AL,-9.4038098,-35.5117693,136,846.40279
D1,Barra de Santo Antônio/AL,-9.4038098,-35.5117693,14,87.12970
1,Barra de São Francisco/ES,-18.7570902,-40.8916119,1090,2423.35312
D1,Barra de São Francisco/ES,-18.7570902,-40.8916119,37,82.26061
1,Barra de São Miguel/AL,-9.8261357,-35.8837777,157,1873.95560
D1,Barra de São Miguel/AL,-9.8261357,-35.8837777,5,59.68011
1,Barra de São Miguel/PB,-7.7528088,-36.3170996,74,1220.11542
D1,Barra de São Miguel/PB,-7.7528088,-36.3170996,1,16.48805
1,Barra do Bugres/MT,-15.0683712,-57.1853688,1083,3067.38041
D1,Barra do Bugres/MT,-15.0683712,-57.1853688,22,62.31059
1,Barra do Chapéu/SP,-24.472203,-49.023784,51,885.41667
1,Barra do Choça/BA,-14.8638173,-40.5761637,550,1762.31215
D1,Barra do Choça/BA,-14.8638173,-40.5761637,6,19.22522
1,Barra do Corda/MA,-5.496823,-45.248496,4049,4575.55485
D1,Barra do Corda/MA,-5.496823,-45.248496,44,49.72201
1,Barra do Garças/MT,-15.8916033,-52.2615413,2647,4329.76200
D1,Barra do Garças/MT,-15.8916033,-52.2615413,110,179.92966
1,Barra do Guarita/RS,-27.1888016,-53.7147086,62,1903.59226
1,Barra do Jacaré/PR,-23.1151788,-50.1813945,16,575.33261
1,Barra do Mendes/BA,-11.8053298,-42.057037,31,224.10179
1,Barra do Ouro/TO,-7.7113784,-47.6743925,79,1705.52677
D1,Barra do Ouro/TO,-7.7113784,-47.6743925,5,107.94473
1,Barra do Piraí/RJ,-22.4703403,-43.8263256,1281,1271.28736
D1,Barra do Piraí/RJ,-22.4703403,-43.8263256,63,62.52233
1,Barra do Quaraí/RS,-30.208947,-57.5505128,97,2294.77171
D1,Barra do Quaraí/RS,-30.208947,-57.5505128,1,23.65744
1,Barra do Ribeiro/RS,-30.2930206,-51.301437,172,1268.81086
D1,Barra do Ribeiro/RS,-30.2930206,-51.301437,16,118.02892
1,Barra do Rio Azul/RS,-27.4101581,-52.4117471,16,966.76737
1,Barra do Rocha/BA,-14.2090974,-39.6004395,123,2191.73200
D1,Barra do Rocha/BA,-14.2090974,-39.6004395,1,17.81896
1,Barra do Turvo/SP,-24.756421,-48.5056942,168,2201.25786
D1,Barra do Turvo/SP,-24.756421,-48.5056942,4,52.41090
1,Barra dos Coqueiros/SE,-10.9075694,-37.0386249,1417,4581.31264
D1,Barra dos Coqueiros/SE,-10.9075694,-37.0386249,27,87.29389
1,Barra/BA,-11.0892702,-43.1420453,407,754.96197
D1,Barra/BA,-11.0892702,-43.1420453,7,12.98460
1,Barracão/PR,-26.252395,-53.6349576,101,979.44143
D1,Barracão/PR,-26.252395,-53.6349576,2,19.39488
1,Barracão/RS,-27.6728964,-51.4582928,85,1617.19939
D1,Barracão/RS,-27.6728964,-51.4582928,3,57.07763
1,Barras/PI,-4.2446153,-42.2920241,2962,6277.41867
D1,Barras/PI,-4.2446153,-42.2920241,57,120.80110
1,Barreira/CE,-4.2883361,-38.641094,350,1550.52496
D1,Barreira/CE,-4.2883361,-38.641094,19,84.17136
1,Barreiras do Piauí/PI,-9.9224524,-45.4763776,32,954.65394
D1,Barreiras do Piauí/PI,-9.9224524,-45.4763776,1,29.83294
1,Barreiras/BA,-12.1440031,-44.9967406,5807,3699.31518
D1,Barreiras/BA,-12.1440031,-44.9967406,94,59.88215
1,Barreirinha/AM,-2.798863,-57.067897,1289,3968.22954
D1,Barreirinha/AM,-2.798863,-57.067897,24,73.88480
1,Barreirinhas/MA,-2.7541271,-42.8259693,1278,2021.60811
D1,Barreirinhas/MA,-2.7541271,-42.8259693,24,37.96447
1,Barreiros/PE,-8.8159644,-35.1831905,343,802.07651
D1,Barreiros/PE,-8.8159644,-35.1831905,41,95.87504
1,Barretos/SP,-20.5531437,-48.5697509,5432,4422.26438
D1,Barretos/SP,-20.5531437,-48.5697509,147,119.67468
1,Barrinha/SP,-21.1898849,-48.1550642,754,2272.45329
D1,Barrinha/SP,-21.1898849,-48.1550642,31,93.42978
1,Barro Alto/BA,-11.7618025,-41.9094904,146,969.84190
D1,Barro Alto/BA,-11.7618025,-41.9094904,1,6.64275
1,Barro Alto/GO,-14.9696025,-48.9190985,574,5031.55680
D1,Barro Alto/GO,-14.9696025,-48.9190985,7,61.36045
1,Barro Duro/PI,-5.8180139,-42.5106589,453,6446.56326
D1,Barro Duro/PI,-5.8180139,-42.5106589,7,99.61577
1,Barro Preto/BA,-14.8068289,-39.4727588,278,5102.79001
D1,Barro Preto/BA,-14.8068289,-39.4727588,6,110.13216
1,Barro/CE,-7.1713587,-38.7742136,411,1805.95834
D1,Barro/CE,-7.1713587,-38.7742136,9,39.54653
1,Barrocas/BA,-11.5165,-39.099282894736845,169,1049.36355
1,Barrolândia/TO,-9.837246,-48.7264346,227,4016.98814
D1,Barrolândia/TO,-9.837246,-48.7264346,4,70.78393
1,Barroquinha/CE,-3.0200371,-41.1339229,801,5324.38181
D1,Barroquinha/CE,-3.0200371,-41.1339229,20,132.94337
1,Barros Cassal/RS,-29.094938,-52.5832366,54,482.91898
D1,Barros Cassal/RS,-29.094938,-52.5832366,1,8.94294
1,Barroso/MG,-21.187222,-43.976111,193,923.57755
D1,Barroso/MG,-21.187222,-43.976111,2,9.57075
1,Barueri/SP,-23.5112184,-46.8764612,8093,2921.85052
D1,Barueri/SP,-23.5112184,-46.8764612,389,140.44234
1,Barão de Antonina/SP,-23.6295651,-49.5632104,23,657.51858
1,Barão de Cocais/MG,-19.9452437,-43.4870298,799,2431.08379
D1,Barão de Cocais/MG,-19.9452437,-43.4870298,6,18.25595
1,Barão de Cotegipe/RS,-27.6214694,-52.3765316,145,2190.33233
D1,Barão de Cotegipe/RS,-27.6214694,-52.3765316,3,45.31722
1,Barão de Grajaú/MA,-6.7542591,-43.0263477,18,95.11731
D1,Barão de Grajaú/MA,-6.7542591,-43.0263477,1,5.28430
1,Barão de Melgaço/MT,-16.195776,-55.9668049,130,1592.35669
D1,Barão de Melgaço/MT,-16.195776,-55.9668049,6,73.49339
1,Barão de Monte Alto/MG,-21.244722,-42.2375,65,1214.04557
D1,Barão de Monte Alto/MG,-21.244722,-42.2375,3,56.03287
1,Barão do Triunfo/RS,-30.3909877,-51.7375349,114,1516.15906
D1,Barão do Triunfo/RS,-30.3909877,-51.7375349,1,13.29964
1,Barão/RS,-29.372474,-51.494908,87,1402.77330
D1,Barão/RS,-29.372474,-51.494908,2,32.24766
1,Bastos/SP,-21.9222474,-50.7317727,184,878.15587
D1,Bastos/SP,-21.9222474,-50.7317727,5,23.86293
1,Bataguassu/MS,-21.715899,-52.422058,930,3987.13826
D1,Bataguassu/MS,-21.715899,-52.422058,7,30.01072
1,Batalha/AL,-9.6733809,-37.1265481,607,3310.06653
D1,Batalha/AL,-9.6733809,-37.1265481,11,59.98473
1,Batalha/PI,-4.022391,-42.0780926,442,1642.81732
D1,Batalha/PI,-4.022391,-42.0780926,10,37.16781
1,Batatais/SP,-20.892867,-47.592149,766,1216.25913
D1,Batatais/SP,-20.892867,-47.592149,23,36.51953
1,Batayporã/MS,-22.2976466,-53.2685608,241,2123.53511
D1,Batayporã/MS,-22.2976466,-53.2685608,5,44.05675
1,Baturité/CE,-4.3290203,-38.8821055,620,1725.04939
D1,Baturité/CE,-4.3290203,-38.8821055,31,86.25247
1,Bauru/SP,-22.3218102,-49.0705863,14593,3847.38081
D1,Bauru/SP,-22.3218102,-49.0705863,255,67.22964
1,Bayeux/PB,-7.1301631,-34.936532,2241,2305.48440
D1,Bayeux/PB,-7.1301631,-34.936532,119,122.42421
1,Baía Formosa/RN,-6.3691885,-35.0063741,169,1812.91568
D1,Baía Formosa/RN,-6.3691885,-35.0063741,6,64.36387
1,Baía da Traição/PB,-6.691258,-34.9371244,795,8740.10554
D1,Baía da Traição/PB,-6.691258,-34.9371244,7,76.95690
1,Bebedouro/SP,-20.949077,-48.479083,1451,1870.93031
D1,Bebedouro/SP,-20.949077,-48.479083,33,42.55045
1,Beberibe/CE,-4.1810469,-38.1298101,939,1740.53273
D1,Beberibe/CE,-4.1810469,-38.1298101,30,55.60807
1,Bela Cruz/CE,-3.0529129,-40.167582,1250,3820.05990
D1,Bela Cruz/CE,-3.0529129,-40.167582,24,73.34515
1,Bela Vista da Caroba/PR,-25.8792818,-53.6672545,33,954.58490
1,Bela Vista de Goiás/GO,-16.9692949,-48.9513071,989,3243.47370
D1,Bela Vista de Goiás/GO,-16.9692949,-48.9513071,16,52.47278
1,Bela Vista de Minas/MG,-19.8289721,-43.0973688,94,916.00078
D1,Bela Vista de Minas/MG,-19.8289721,-43.0973688,1,9.74469
1,Bela Vista do Maranhão/MA,-3.7416367,-45.2514192,134,1188.04859
D1,Bela Vista do Maranhão/MA,-3.7416367,-45.2514192,8,70.92827
1,Bela Vista do Paraíso/PR,-22.9948493,-51.1907996,216,1402.68849
D1,Bela Vista do Paraíso/PR,-22.9948493,-51.1907996,5,32.46964
1,Bela Vista do Piauí/PI,-7.9716353,-41.8715061,45,1116.62531
D1,Bela Vista do Piauí/PI,-7.9716353,-41.8715061,1,24.81390
1,Bela Vista do Toldo/SC,-26.274625,-50.466354,8,125.74662
1,Bela Vista/MS,-22.107327,-56.5317344,77,311.29978
D1,Bela Vista/MS,-22.107327,-56.5317344,4,16.17142
1,Belford Roxo/RJ,-22.7667284,-43.4033603,11219,2186.43665
D1,Belford Roxo/RJ,-22.7667284,-43.4033603,328,63.92292
1,Belmiro Braga/MG,-21.9486291,-43.413564,25,729.92701
D1,Belmiro Braga/MG,-21.9486291,-43.413564,3,87.59124
1,Belmonte/BA,-15.8630837,-38.8792845,490,2090.71127
D1,Belmonte/BA,-15.8630837,-38.8792845,4,17.06703
1,Belmonte/SC,-26.8448262,-53.578916,6,221.48394
1,Belo Campo/BA,-15.0338286,-41.2585109,110,642.93647
D1,Belo Campo/BA,-15.0338286,-41.2585109,1,5.84488
1,Belo Horizonte/MG,-19.9227318,-43.9450948,50078,1985.98965
D1,Belo Horizonte/MG,-19.9227318,-43.9450948,1534,60.83526
1,Belo Jardim/PE,-8.3338293,-36.4176419,1352,1763.01068
D1,Belo Jardim/PE,-8.3338293,-36.4176419,41,53.46408
1,Belo Monte/AL,-9.8269944,-37.2787165,173,2578.24143
D1,Belo Monte/AL,-9.8269944,-37.2787165,4,59.61252
1,Belo Oriente/MG,-19.2232523,-42.4807033,761,2819.14500
D1,Belo Oriente/MG,-19.2232523,-42.4807033,9,33.34074
1,Belo Vale/MG,-20.407778,-44.024167,101,1308.45965
D1,Belo Vale/MG,-20.407778,-44.024167,3,38.86514
1,Belterra/PA,-2.636091,-54.937392,556,3116.76663
D1,Belterra/PA,-2.636091,-54.937392,14,78.47974
1,Belágua/MA,-3.1604031,-43.5085052,272,3613.17747
D1,Belágua/MA,-3.1604031,-43.5085052,1,13.28374
1,Belém de Maria/PE,-8.6242497,-35.8388934,99,816.69691
D1,Belém de Maria/PE,-8.6242497,-35.8388934,3,24.74839
1,Belém do Brejo do Cruz/PB,-6.1880727,-37.5332267,147,2000.27215
D1,Belém do Brejo do Cruz/PB,-6.1880727,-37.5332267,2,27.21459
1,Belém do Piauí/PI,-7.3767305,-40.9712156,130,3624.19849
D1,Belém do Piauí/PI,-7.3767305,-40.9712156,3,83.63535
1,Belém do São Francisco/PE,-8.7517707,-38.9625715,143,689.82151
1,Belém/AL,-9.5715351,-36.492841,58,1353.87488
D1,Belém/AL,-9.5715351,-36.492841,1,23.34267
1,Belém/PA,-1.45056,-48.4682453,46129,3076.00286
D1,Belém/PA,-1.45056,-48.4682453,2267,151.16951
1,Belém/PB,-6.6967586,-35.5369626,1129,6376.72974
D1,Belém/PB,-6.6967586,-35.5369626,17,96.01807
1,Beneditinos/PI,-5.4565671,-42.3605061,319,3045.92762
D1,Beneditinos/PI,-5.4565671,-42.3605061,9,85.93526
1,Benedito Leite/MA,-7.2173453,-44.5523331,201,3565.09400
D1,Benedito Leite/MA,-7.2173453,-44.5523331,2,35.47357
1,Benedito Novo/SC,-26.7840657,-49.3629511,193,1639.06582
D1,Benedito Novo/SC,-26.7840657,-49.3629511,2,16.98514
1,Benevides/PA,-1.3555577,-48.252235,2052,3217.91494
D1,Benevides/PA,-1.3555577,-48.252235,48,75.27286
1,Benjamin Constant do Sul/RS,-27.5105555,-52.6007689,107,5464.75996
1,Benjamin Constant/AM,-4.3782748,-70.0290603,1662,3782.86104
D1,Benjamin Constant/AM,-4.3782748,-70.0290603,41,93.31968
1,Bento Fernandes/RN,-5.6926846,-35.8207423,34,615.38462
D1,Bento Fernandes/RN,-5.6926846,-35.8207423,2,36.19910
1,Bento Gonçalves/RS,-29.1654014,-51.5197627,4445,3649.33540
D1,Bento Gonçalves/RS,-29.1654014,-51.5197627,120,98.51974
1,Bento de Abreu/SP,-21.2707225,-50.8120444,41,1364.39268
1,Bequimão/MA,-2.4495376,-44.7884889,235,1103.33818
D1,Bequimão/MA,-2.4495376,-44.7884889,12,56.34067
1,Berilo/MG,-16.9515764,-42.4643732,6,50.53908
1,Berizal/MG,-15.6118785,-41.7417382,8,167.92611
1,Bernardino Batista/PB,-6.4532173,-38.5495418,129,3648.19005
1,Bernardino de Campos/SP,-23.0140216,-49.4760724,120,1075.46155
D1,Bernardino de Campos/SP,-23.0140216,-49.4760724,3,26.88654
1,Bernardo Sayão/TO,-7.8794244,-48.8968905,62,1393.88489
D1,Bernardo Sayão/TO,-7.8794244,-48.8968905,3,67.44604
1,Bernardo do Mearim/MA,-4.6315929,-44.7617508,133,2190.02141
D1,Bernardo do Mearim/MA,-4.6315929,-44.7617508,3,49.39898
1,Bertioga/SP,-23.848568,-46.139586,2070,3198.24483
D1,Bertioga/SP,-23.848568,-46.139586,45,69.52706
1,Bertolínia/PI,-7.6372159,-43.9540611,512,9297.25804
D1,Bertolínia/PI,-7.6372159,-43.9540611,6,108.95224
1,Bertópolis/MG,-17.063333,-40.573889,84,1823.31235
1,Beruri/AM,-3.9007135,-61.3717319,1013,5041.55676
D1,Beruri/AM,-3.9007135,-61.3717319,12,59.72229
1,Betim/MG,-19.968056,-44.198333,7485,1682.83931
D1,Betim/MG,-19.968056,-44.198333,239,53.73395
1,Betânia do Piauí/PI,-8.1460635,-40.7961387,62,998.38969
D1,Betânia do Piauí/PI,-8.1460635,-40.7961387,1,16.10306
1,Betânia/PE,-8.2742779,-38.0351767,105,822.56169
D1,Betânia/PE,-8.2742779,-38.0351767,2,15.66784
1,Bezerros/PE,-8.2372132,-35.7558262,1288,2115.63732
D1,Bezerros/PE,-8.2372132,-35.7558262,69,113.33771
1,Bias Fortes/MG,-21.605833,-43.756944,16,480.62481
D1,Bias Fortes/MG,-21.605833,-43.756944,1,30.03905
1,Bicas/MG,-21.7213723,-43.0604327,73,501.58032
D1,Bicas/MG,-21.7213723,-43.0604327,1,6.87096
1,Biguaçu/SC,-27.4961277,-48.6542432,3669,5280.20033
D1,Biguaçu/SC,-27.4961277,-48.6542432,39,56.12641
1,Bilac/SP,-21.403962,-50.47464,114,1404.45978
D1,Bilac/SP,-21.403962,-50.47464,2,24.63965
1,Biquinhas/MG,-18.783611,-45.502222,28,1120.89672
1,Birigui/SP,-21.2908491,-50.34144,2945,2358.20728
D1,Birigui/SP,-21.2908491,-50.34144,93,74.46970
1,Biritiba Mirim/SP,-23.5697765,-46.0407456,494,1499.87855
D1,Biritiba Mirim/SP,-23.5697765,-46.0407456,32,97.15812
1,Biritinga/BA,-11.6227908,-38.8066738,102,638.13814
D1,Biritinga/BA,-11.6227908,-38.8066738,1,6.25626
1,Bituruna/PR,-26.161281,-51.5533319,52,317.07317
D1,Bituruna/PR,-26.161281,-51.5533319,1,6.09756
1,Blumenau/SC,-26.9195567,-49.0658025,16239,4487.70917
D1,Blumenau/SC,-26.9195567,-49.0658025,165,45.59838
1,Boa Esperança do Iguaçu/PR,-25.6362851,-53.2139114,43,1740.89069
1,Boa Esperança do Sul/SP,-21.9930206,-48.3917372,213,1418.29804
D1,Boa Esperança do Sul/SP,-21.9930206,-48.3917372,6,39.95206
1,Boa Esperança/ES,-18.5395472,-40.2904088,394,2610.65465
D1,Boa Esperança/ES,-18.5395472,-40.2904088,16,106.01643
1,Boa Esperança/MG,-21.0901253,-45.5660195,407,1011.95952
D1,Boa Esperança/MG,-21.0901253,-45.5660195,20,49.72774
1,Boa Esperança/PR,-24.2411024,-52.7860277,37,914.25747
1,Boa Hora/PI,-4.4094627,-42.1255341,134,1966.25092
1,Boa Nova/BA,-14.365907,-40.2063056,231,1873.63128
D1,Boa Nova/BA,-14.365907,-40.2063056,4,32.44383
1,Boa Ventura de São Roque/PR,-24.88177,-51.5441292,9,141.39827
1,Boa Ventura/PB,-7.4202462,-38.2156782,135,2543.81006
D1,Boa Ventura/PB,-7.4202462,-38.2156782,2,37.68607
1,Boa Viagem/CE,-5.1261877,-39.7300055,1389,2545.02813
D1,Boa Viagem/CE,-5.1261877,-39.7300055,36,65.96185
1,Boa Vista da Aparecida/PR,-25.4357216,-53.4067721,148,1962.86472
D1,Boa Vista da Aparecida/PR,-25.4357216,-53.4067721,4,53.05040
1,Boa Vista das Missões/RS,-27.6677983,-53.3127622,7,334.60803
1,Boa Vista do Buricá/RS,-27.6687782,-54.1111913,128,1907.03218
1,Boa Vista do Cadeado/RS,-28.5783827,-53.8123759,16,648.29822
1,Boa Vista do Gurupi/MA,-1.7981168,-46.3071882,14,167.02458
D1,Boa Vista do Gurupi/MA,-1.7981168,-46.3071882,3,35.79098
1,Boa Vista do Incra/RS,-28.8195551,-53.3866624,23,879.20489
1,Boa Vista do Ramos/AM,-2.9716927,-57.5869819,462,2354.02018
D1,Boa Vista do Ramos/AM,-2.9716927,-57.5869819,5,25.47641
1,Boa Vista do Sul/RS,-29.3510488,-51.6779679,65,2339.81281
D1,Boa Vista do Sul/RS,-29.3510488,-51.6779679,1,35.99712
1,Boa Vista do Tupim/BA,-12.6605988,-40.6083594,111,598.99628
D1,Boa Vista do Tupim/BA,-12.6605988,-40.6083594,2,10.79273
1,Boa Vista/PB,-7.2620711,-36.2415161,147,2059.97758
D1,Boa Vista/PB,-7.2620711,-36.2415161,1,14.01345
1,Boa Vista/RR,2.8208478,-60.6719582,44659,10641.91282
D1,Boa Vista/RR,2.8208478,-60.6719582,511,121.76756
1,Boca da Mata/AL,-9.6452054,-36.2116658,1253,4580.34800
D1,Boca da Mata/AL,-9.6452054,-36.2116658,25,91.38763
1,Boca do Acre/AM,-8.7553487,-67.3930873,1408,4065.25191
D1,Boca do Acre/AM,-8.7553487,-67.3930873,13,37.53429
1,Bocaina de Minas/MG,-22.167778,-44.394722,15,294.75339
D1,Bocaina de Minas/MG,-22.167778,-44.394722,2,39.30045
1,Bocaina do Sul/SC,-27.745494,-49.942279,60,1720.18349
D1,Bocaina do Sul/SC,-27.745494,-49.942279,2,57.33945
1,Bocaina/PI,-6.9445939,-41.3224599,154,3418.42397
D1,Bocaina/PI,-6.9445939,-41.3224599,1,22.19756
1,Bocaina/SP,-22.1421831,-48.522276,187,1501.76678
D1,Bocaina/SP,-22.1421831,-48.522276,3,24.09252
1,Bocaiúva do Sul/PR,-25.206591,-49.114131,256,1949.88194
D1,Bocaiúva do Sul/PR,-25.206591,-49.114131,3,22.85018
1,Bocaiúva/MG,-17.1160208,-43.8122678,466,927.25247
D1,Bocaiúva/MG,-17.1160208,-43.8122678,7,13.92869
1,Bodocó/PE,-7.777592,-39.933797,322,839.02236
D1,Bodocó/PE,-7.777592,-39.933797,8,20.84528
1,Bodoquena/MS,-20.5508775,-56.6769653,56,714.46798
D1,Bodoquena/MS,-20.5508775,-56.6769653,1,12.75836
1,Bodó/RN,-5.9866104,-36.4134824,26,1183.43195
1,Bofete/SP,-23.1019554,-48.2610535,164,1375.72351
D1,Bofete/SP,-23.1019554,-48.2610535,4,33.55423
1,Boituva/SP,-23.2838893,-47.6738231,1245,2002.57359
D1,Boituva/SP,-23.2838893,-47.6738231,22,35.38684
1,Bom Conselho/PE,-9.169191,-36.685683,782,1603.54338
D1,Bom Conselho/PE,-9.169191,-36.685683,24,49.21361
1,Bom Despacho/MG,-19.7375242,-45.2517288,787,1542.29051
D1,Bom Despacho/MG,-19.7375242,-45.2517288,19,37.23446
1,Bom Jardim da Serra/SC,-28.3380324,-49.625588,291,6098.07209
D1,Bom Jardim da Serra/SC,-28.3380324,-49.625588,1,20.95557
1,Bom Jardim de Goiás/GO,-16.2062659,-52.172793,175,1973.16496
D1,Bom Jardim de Goiás/GO,-16.2062659,-52.172793,3,33.82568
1,Bom Jardim de Minas/MG,-21.9476466,-44.1906033,14,216.75182
1,Bom Jardim/MA,-3.54129,-45.606004,990,2367.17517
D1,Bom Jardim/MA,-3.54129,-45.606004,29,69.34149
1,Bom Jardim/PE,-7.7961572,-35.5871696,730,1825.77595
D1,Bom Jardim/PE,-7.7961572,-35.5871696,32,80.03401
1,Bom Jardim/RJ,-22.1515328,-42.4186683,218,789.39745
D1,Bom Jardim/RJ,-22.1515328,-42.4186683,5,18.10545
1,Bom Jesus da Lapa/BA,-13.250571,-43.410754,745,1069.44963
D1,Bom Jesus da Lapa/BA,-13.250571,-43.410754,9,12.91953
1,Bom Jesus da Penha/MG,-21.0165299,-46.5226644,98,2309.14232
D1,Bom Jesus da Penha/MG,-21.0165299,-46.5226644,1,23.56268
1,Bom Jesus da Serra/BA,-14.3724084,-40.5047119,106,1079.10007
1,Bom Jesus das Selvas/MA,-4.4878075,-46.8526639,1835,5308.53126
D1,Bom Jesus das Selvas/MA,-4.4878075,-46.8526639,15,43.39399
1,Bom Jesus de Goiás/GO,-18.2174587,-49.739721,1006,3922.33313
D1,Bom Jesus de Goiás/GO,-18.2174587,-49.739721,29,113.06925
1,Bom Jesus do Amparo/MG,-19.7045132,-43.4752911,39,635.90413
D1,Bom Jesus do Amparo/MG,-19.7045132,-43.4752911,2,32.61047
1,Bom Jesus do Araguaia/MT,-12.1725897,-51.5074425,176,2624.51536
1,Bom Jesus do Galho/MG,-19.8283191,-42.3162256,143,962.18544
D1,Bom Jesus do Galho/MG,-19.8283191,-42.3162256,5,33.64285
1,Bom Jesus do Itabapoana/RJ,-21.1341025,-41.680095,873,2346.58495
D1,Bom Jesus do Itabapoana/RJ,-21.1341025,-41.680095,23,61.82297
1,Bom Jesus do Norte/ES,-21.1254776,-41.6711646,356,3573.57960
D1,Bom Jesus do Norte/ES,-21.1254776,-41.6711646,8,80.30516
1,Bom Jesus do Oeste/SC,-26.6929713,-53.0967453,28,1309.02291
D1,Bom Jesus do Oeste/SC,-26.6929713,-53.0967453,1,46.75082
1,Bom Jesus do Sul/PR,-26.1922507,-53.6002033,31,884.19852
D1,Bom Jesus do Sul/PR,-26.1922507,-53.6002033,1,28.52253
1,Bom Jesus do Tocantins/PA,-5.0471796,-48.5978362,406,2371.77240
D1,Bom Jesus do Tocantins/PA,-5.0471796,-48.5978362,4,23.36722
1,Bom Jesus do Tocantins/TO,-8.96306,-48.165043,101,2016.77316
1,Bom Jesus dos Perdões/SP,-23.1353864,-46.4648052,380,1462.38214
D1,Bom Jesus dos Perdões/SP,-23.1353864,-46.4648052,3,11.54512
1,Bom Jesus/PB,-6.8156725,-38.6551841,55,2135.92233
D1,Bom Jesus/PB,-6.8156725,-38.6551841,1,38.83495
1,Bom Jesus/PI,-9.0711644,-44.3583926,1778,7003.58451
D1,Bom Jesus/PI,-9.0711644,-44.3583926,23,90.59755
1,Bom Jesus/RN,-5.9887544,-35.5821149,162,1577.87085
D1,Bom Jesus/RN,-5.9887544,-35.5821149,5,48.69972
1,Bom Jesus/RS,-28.6692723,-50.4346894,155,1370.58980
1,Bom Jesus/SC,-26.7350604,-52.3916519,96,3140.33366
D1,Bom Jesus/SC,-26.7350604,-52.3916519,3,98.13543
1,Bom Lugar/MA,-4.3728019,-45.0366054,306,1861.54033
D1,Bom Lugar/MA,-4.3728019,-45.0366054,3,18.25040
1,Bom Princípio do Piauí/PI,-3.1912777,-41.6430185,42,743.23129
D1,Bom Princípio do Piauí/PI,-3.1912777,-41.6430185,3,53.08795
1,Bom Princípio/RS,-29.489788,-51.3566782,416,2918.27429
D1,Bom Princípio/RS,-29.489788,-51.3566782,5,35.07541
1,Bom Progresso/RS,-27.5490948,-53.8655601,14,737.23012
1,Bom Repouso/MG,-22.4657069,-46.1485376,99,939.54636
D1,Bom Repouso/MG,-22.4657069,-46.1485376,5,47.45184
1,Bom Retiro do Sul/RS,-29.6000007,-51.9359243,245,1977.40113
D1,Bom Retiro do Sul/RS,-29.6000007,-51.9359243,4,32.28410
1,Bom Retiro/SC,-27.798993,-49.486994,104,1033.79722
D1,Bom Retiro/SC,-27.798993,-49.486994,5,49.70179
1,Bom Sucesso de Itararé/SP,-24.3190016,-49.1446207,9,225.90361
D1,Bom Sucesso de Itararé/SP,-24.3190016,-49.1446207,1,25.10040
1,Bom Sucesso do Sul/PR,-26.0749256,-52.8348629,18,553.16533
1,Bom Sucesso/MG,-21.0323516,-44.7598082,52,295.33708
D1,Bom Sucesso/MG,-21.0323516,-44.7598082,1,5.67956
1,Bom Sucesso/PB,-6.4458948,-37.9297662,29,585.14931
1,Bom Sucesso/PR,-23.7088019,-51.7651297,109,1542.16186
D1,Bom Sucesso/PR,-23.7088019,-51.7651297,1,14.14827
1,Bombinhas/SC,-27.1519159,-48.4875691,1304,6412.58913
D1,Bombinhas/SC,-27.1519159,-48.4875691,11,54.09393
1,Bonfim do Piauí/PI,-9.1648678,-42.8734415,100,1759.01495
D1,Bonfim do Piauí/PI,-9.1648678,-42.8734415,1,17.59015
1,Bonfim/MG,-20.3266626, -44.2386157,74,1078.71720
D1,Bonfim/MG,-20.3266626, -44.2386157,2,29.15452
1,Bonfim/RR,3.3613818,-59.8427241,1204,9588.27745
D1,Bonfim/RR,3.3613818,-59.8427241,13,103.52791
1,Bonfinópolis de Minas/MG,-16.5660011,-45.98645,155,2847.17120
D1,Bonfinópolis de Minas/MG,-16.5660011,-45.98645,6,110.21308
1,Bonfinópolis/GO,-16.6172709,-48.9615701,374,3770.54139
D1,Bonfinópolis/GO,-16.6172709,-48.9615701,9,90.73495
1,Boninal/BA,-12.7095183,-41.8299984,24,166.13595
D1,Boninal/BA,-12.7095183,-41.8299984,1,6.92233
1,Bonito de Minas/MG,-15.3191266,-44.7544,6,52.77509
1,Bonito de Santa Fé/PB,-7.3143332,-38.5146677,198,1646.98054
D1,Bonito de Santa Fé/PB,-7.3143332,-38.5146677,8,66.54467
1,Bonito/BA,-11.9665473,-41.2649896,91,538.97181
D1,Bonito/BA,-11.9665473,-41.2649896,2,11.84553
1,Bonito/MS,-21.1264766,-56.4902208,634,2857.14286
D1,Bonito/MS,-21.1264766,-56.4902208,8,36.05228
1,Bonito/PA,-1.3605722,-47.3049907,267,1615.24501
D1,Bonito/PA,-1.3605722,-47.3049907,9,54.44646
1,Bonito/PE,-8.4721161,-35.7314591,372,975.94249
D1,Bonito/PE,-8.4721161,-35.7314591,27,70.83454
1,Bonópolis/GO,-13.649331,-49.8329113,82,1825.06121
D1,Bonópolis/GO,-13.649331,-49.8329113,1,22.25684
1,Boqueirão do Leão/RS,-29.30332,-52.4296817,124,1609.97144
D1,Boqueirão do Leão/RS,-29.30332,-52.4296817,2,25.96728
1,Boqueirão do Piauí/PI,-4.4850148,-42.1095161,151,2349.82882
D1,Boqueirão do Piauí/PI,-4.4850148,-42.1095161,1,15.56178
1,Boqueirão/PB,-7.487004,-36.130887,670,3749.30050
D1,Boqueirão/PB,-7.487004,-36.130887,8,44.76777
1,Boquim/SE,-11.1450175,-37.6204228,666,2475.92847
D1,Boquim/SE,-11.1450175,-37.6204228,19,70.63460
1,Boquira/BA,-12.8184859,-42.7270883,52,241.89422
D1,Boquira/BA,-12.8184859,-42.7270883,1,4.65181
1,Boracéia/SP,-22.195355,-48.7801925,119,2444.53574
D1,Boracéia/SP,-22.195355,-48.7801925,2,41.08463
1,Borba/AM,-4.3934778,-59.5947721,750,1796.49325
D1,Borba/AM,-4.3934778,-59.5947721,23,55.09246
1,Borborema/PB,-6.8066718,-35.5990191,57,1078.11613
1,Borborema/SP,-21.6212706,-49.074135,300,1855.97624
D1,Borborema/SP,-21.6212706,-49.074135,8,49.49270
1,Borda da Mata/MG,-22.274167,-46.165278,393,2003.67085
D1,Borda da Mata/MG,-22.274167,-46.165278,17,86.67278
1,Borebi/SP,-22.5700178,-48.9714871,49,1826.31383
D1,Borebi/SP,-22.5700178,-48.9714871,2,74.54342
1,Borrazópolis/PR,-23.9393362,-51.5850786,151,2345.08464
D1,Borrazópolis/PR,-23.9393362,-51.5850786,3,46.59109
1,Borá/SP,-22.2701088,-50.544407,5,596.65871
1,Bossoroca/RS,-28.7278885,-54.9120278,80,1289.28284
D1,Bossoroca/RS,-28.7278885,-54.9120278,1,16.11604
1,Botelhos/MG,-21.65,-46.394722,111,742.52458
D1,Botelhos/MG,-21.65,-46.394722,1,6.68941
1,Botucatu/SP,-22.8879628,-48.4410712,2735,1846.35118
D1,Botucatu/SP,-22.8879628,-48.4410712,52,35.10430
1,Botumirim/MG,-16.862778,-43.011111,6,95.41985
1,Botuporã/BA,-13.3744752,-42.5198469,10,98.72643
D1,Botuporã/BA,-13.3744752,-42.5198469,1,9.87264
1,Botuverá/SC,-27.200749,-49.068892,180,3382.18715
1,Bozano/RS,-28.3669953,-53.7705165,33,1563.24017
1,Braga/RS,-27.617348,-53.740514,21,634.24947
1,Braganey/PR,-24.8179919,-53.118506,58,1077.66630
D1,Braganey/PR,-24.8179919,-53.118506,2,37.16091
1,Bragança Paulista/SP,-22.9520235,-46.5418586,4189,2456.41606
D1,Bragança Paulista/SP,-22.9520235,-46.5418586,87,51.01652
1,Bragança/PA,-1.0573967,-46.7635406,2636,2044.77404
D1,Bragança/PA,-1.0573967,-46.7635406,95,73.69254
1,Branquinha/AL,-9.2478057,-36.0152009,272,2600.38241
D1,Branquinha/AL,-9.2478057,-36.0152009,6,57.36138
1,Brasil Novo/PA,-3.3055853,-52.539198,764,5099.11233
D1,Brasil Novo/PA,-3.3055853,-52.539198,16,106.78769
1,Brasileira/PI,-4.131182,-41.7824969,216,2587.75608
D1,Brasileira/PI,-4.131182,-41.7824969,2,23.96070
1,Brasilândia de Minas/MG,-17.0096469,-46.0087183,350,2089.80177
D1,Brasilândia de Minas/MG,-17.0096469,-46.0087183,1,5.97086
1,Brasilândia do Sul/PR,-24.1975793,-53.527551,42,1624.75822
D1,Brasilândia do Sul/PR,-24.1975793,-53.527551,1,38.68472
1,Brasilândia do Tocantins/TO,-8.3886619,-48.4842729,53,2397.10538
D1,Brasilândia do Tocantins/TO,-8.3886619,-48.4842729,1,45.22840
1,Brasilândia/MS,-21.255575,-52.0365617,117,987.09188
D1,Brasilândia/MS,-21.255575,-52.0365617,4,33.74673
1,Brasiléia/AC,-11.0010413,-68.7487894,1200,4494.04539
D1,Brasiléia/AC,-11.0010413,-68.7487894,19,71.15572
1,Brasnorte/MT,-12.1227151,-58.0050109,329,1633.56504
D1,Brasnorte/MT,-12.1227151,-58.0050109,1,4.96524
1,Brasília de Minas/MG,-16.2075114,-44.430559,205,632.61842
D1,Brasília de Minas/MG,-16.2075114,-44.430559,5,15.42972
1,Brasília/DF,-15.7934036,-47.8823172,218479,7151.17331
D1,Brasília/DF,-15.7934036,-47.8823172,3797,124.28199
1,Brazabrantes/GO,-16.4291635,-49.3858216,84,2242.39188
D1,Brazabrantes/GO,-16.4291635,-49.3858216,2,53.39028
1,Brazópolis/MG,-22.4742842,-45.6165577,273,1894.51770
D1,Brazópolis/MG,-22.4742842,-45.6165577,3,20.81888
1,Braço do Norte/SC,-28.2728633,-49.1622712,2531,7471.36616
D1,Braço do Norte/SC,-28.2728633,-49.1622712,21,61.99079
1,Braço do Trombudo/SC,-27.358578,-49.882145,80,2122.57893
D1,Braço do Trombudo/SC,-27.358578,-49.882145,1,26.53224
1,Braúna/SP,-21.5015319,-50.3175246,111,1933.46107
D1,Braúna/SP,-21.5015319,-50.3175246,7,121.92998
1,Braúnas/MG,-19.055556,-42.716111,17,356.46886
D1,Braúnas/MG,-19.055556,-42.716111,2,41.93751
1,Brejetuba/ES,-20.1465817,-41.2902303,567,4562.64585
D1,Brejetuba/ES,-20.1465817,-41.2902303,1,8.04699
1,Brejinho de Nazaré/TO,-11.0205883,-48.5722906,93,1685.08788
D1,Brejinho de Nazaré/TO,-11.0205883,-48.5722906,4,72.47690
1,Brejinho/PE,-7.3482153,-37.28538,176,2350.42735
D1,Brejinho/PE,-7.3482153,-37.28538,2,26.70940
1,Brejinho/RN,-6.1957907,-35.3583019,223,1743.95871
D1,Brejinho/RN,-6.1957907,-35.3583019,3,23.46133
1,Brejo Alegre/SP,-21.1671191,-50.1850393,96,3322.94912
D1,Brejo Alegre/SP,-21.1671191,-50.1850393,5,173.07027
1,Brejo Grande do Araguaia/PA,-5.7011449,-48.4037308,514,6976.11292
D1,Brejo Grande do Araguaia/PA,-5.7011449,-48.4037308,2,27.14441
1,Brejo Grande/SE,-10.4287358,-36.4667918,173,2071.11218
D1,Brejo Grande/SE,-10.4287358,-36.4667918,7,83.80223
1,Brejo Santo/CE,-7.4909841,-38.9859152,1936,3884.27431
D1,Brejo Santo/CE,-7.4909841,-38.9859152,25,50.15850
1,Brejo da Madre de Deus/PE,-8.1409718,-36.3712527,1053,2055.63690
D1,Brejo da Madre de Deus/PE,-8.1409718,-36.3712527,29,56.61298
1,Brejo de Areia/MA,-4.3316785,-45.5833334,205,2274.24007
D1,Brejo de Areia/MA,-4.3316785,-45.5833334,2,22.18771
1,Brejo do Cruz/PB,-6.32926065,-37.48746163303929,627,4413.62804
D1,Brejo do Cruz/PB,-6.32926065,-37.48746163303929,9,63.35351
1,Brejo do Piauí/PI,-8.207583,-42.8359849,23,597.71310
1,Brejo dos Santos/PB,-6.3769367,-37.8243125,76,1175.74257
1,Brejo/MA,-3.6804397,-42.7529313,698,1904.45008
D1,Brejo/MA,-3.6804397,-42.7529313,18,49.11189
1,Brejolândia/BA,-12.4843845,-43.9611861,8,75.34376
D1,Brejolândia/BA,-12.4843845,-43.9611861,1,9.41797
1,Brejão/PE,-9.029146,-36.566034,36,400.57861
D1,Brejão/PE,-9.029146,-36.566034,2,22.25437
1,Brejões/BA,-13.1033754,-39.7909837,103,724.23007
D1,Brejões/BA,-13.1033754,-39.7909837,1,7.03136
1,Breu Branco/PA,-3.7785073,-49.5684795,310,460.40516
D1,Breu Branco/PA,-3.7785073,-49.5684795,21,31.18874
1,Breves/PA,-1.68036,-50.479085,2799,2704.42622
D1,Breves/PA,-1.68036,-50.479085,86,83.09420
1,Britânia/GO,-15.2427599,-51.1602061,180,3105.05434
D1,Britânia/GO,-15.2427599,-51.1602061,1,17.25030
1,Brochier/RS,-29.556766,-51.5963047,51,999.21630
1,Brodowski/SP,-20.984532,-47.657217,583,2306.44459
D1,Brodowski/SP,-20.984532,-47.657217,22,87.03565
1,Brotas de Macaúbas/BA,-12.0019007,-42.6257506,5,49.35834
1,Brotas/SP,-22.2840884,-48.1267265,158,641.33788
D1,Brotas/SP,-22.2840884,-48.1267265,3,12.17730
1,Brumadinho/MG,-20.143611,-44.2,1236,3039.39409
D1,Brumadinho/MG,-20.143611,-44.2,16,39.34491
1,Brumado/BA,-14.29507325,-41.659307508575985,2688,3991.98040
D1,Brumado/BA,-14.29507325,-41.659307508575985,32,47.52358
1,Brunópolis/SC,-27.310953,-50.837585,34,1435.81081
1,Brusque/SC,-27.0964628,-48.9136323,6785,4927.77201
D1,Brusque/SC,-27.0964628,-48.9136323,58,42.12392
1,Brás Pires/MG,-20.8483109,-43.2430524,8,186.34987
D1,Brás Pires/MG,-20.8483109,-43.2430524,1,23.29373
1,Bueno Brandão/MG,-22.441976,-46.3517971,84,764.26167
D1,Bueno Brandão/MG,-22.441976,-46.3517971,6,54.59012
1,Buenos Aires/PE,-7.7218931,-35.326587,59,447.30857
D1,Buenos Aires/PE,-7.7218931,-35.326587,8,60.65201
1,Buenópolis/MG,-17.8756607,-44.1749365,91,878.97228
D1,Buenópolis/MG,-17.8756607,-44.1749365,3,28.97711
1,Buerarema/BA,-14.9571177,-39.3008035,563,3075.49437
D1,Buerarema/BA,-14.9571177,-39.3008035,21,114.71649
1,Bugre/MG,-19.4257687,-42.2556,69,1732.36254
D1,Bugre/MG,-19.4257687,-42.2556,1,25.10670
1,Bujari/AC,-9.8309656,-67.9520886,426,4088.29175
D1,Bujari/AC,-9.8309656,-67.9520886,7,67.17850
1,Bujaru/PA,-1.5169239,-48.0410699,653,2219.05053
D1,Bujaru/PA,-1.5169239,-48.0410699,23,78.15951
1,Buri/SP,-23.79849,-48.598924,311,1557.72602
D1,Buri/SP,-23.79849,-48.598924,10,50.08765
1,Buritama/SP,-21.0664017,-50.1448077,446,2580.86916
D1,Buritama/SP,-21.0664017,-50.1448077,15,86.80053
1,Buriti Alegre/GO,-18.1377879,-49.0404411,274,2889.07634
D1,Buriti Alegre/GO,-18.1377879,-49.0404411,8,84.35259
1,Buriti Bravo/MA,-5.8391884,-43.8367876,865,3613.35060
D1,Buriti Bravo/MA,-5.8391884,-43.8367876,3,12.53185
1,Buriti de Goiás/GO,-16.180644,-50.4287479,100,4038.77221
D1,Buriti de Goiás/GO,-16.180644,-50.4287479,1,40.38772
1,Buriti do Tocantins/TO,-5.3187439,-48.2256609,267,2322.34496
1,Buriti dos Lopes/PI,-3.1776723,-41.8707444,786,3968.29404
D1,Buriti dos Lopes/PI,-3.1776723,-41.8707444,12,60.58464
1,Buriti dos Montes/PI,-5.3136171,-41.0971256,104,1258.47047
D1,Buriti dos Montes/PI,-5.3136171,-41.0971256,1,12.10068
1,Buriti/MA,-3.9430944,-42.9244281,674,2340.44031
D1,Buriti/MA,-3.9430944,-42.9244281,2,6.94493
1,Buriticupu/MA,-4.3227472,-46.4516989,2566,3515.88726
D1,Buriticupu/MA,-4.3227472,-46.4516989,4,5.48073
1,Buritinópolis/GO,-14.4589282,-46.4293104,56,1705.75693
1,Buritirama/BA,-10.7148421,-43.6362327,346,1626.24553
D1,Buritirama/BA,-10.7148421,-43.6362327,5,23.50066
1,Buritirana/MA,-5.5897455,-47.0148915,241,1558.15607
D1,Buritirana/MA,-5.5897455,-47.0148915,6,38.79227
1,Buritis/MG,-15.621389,-46.423889,424,1695.11854
D1,Buritis/MG,-15.621389,-46.423889,3,11.99376
1,Buritis/RO,-10.2054937,-63.8281954,793,1965.01140
D1,Buritis/RO,-10.2054937,-63.8281954,11,27.25741
1,Buritizal/SP,-20.1933264,-47.7097165,65,1439.96455
D1,Buritizal/SP,-20.1933264,-47.7097165,3,66.45990
1,Buritizeiro/MG,-17.3667765,-44.9647781,325,1155.71992
D1,Buritizeiro/MG,-17.3667765,-44.9647781,7,24.89243
1,Butiá/RS,-30.1256795,-51.9692224,384,1832.76060
D1,Butiá/RS,-30.1256795,-51.9692224,18,85.91065
1,Buíque/PE,-8.6239732,-37.157296,595,1009.86100
D1,Buíque/PE,-8.6239732,-37.157296,7,11.88072
1,Bálsamo/SP,-20.7343722,-49.5807484,561,6138.52719
D1,Bálsamo/SP,-20.7343722,-49.5807484,24,262.61079
0,CASO SEM LOCALIZAÇÃO DEFINIDA/AL,-9.931093434363673,-35.609611600637464,8,0.23971
D0,CASO SEM LOCALIZAÇÃO DEFINIDA/AL,-9.931093434363673,-35.609611600637464,8,0.23971
0,CASO SEM LOCALIZAÇÃO DEFINIDA/AM,-3.07518492149711,-60.16169212873594,603,14.54906
D0,CASO SEM LOCALIZAÇÃO DEFINIDA/AM,-3.07518492149711,-60.16169212873594,26,0.62732
0,CASO SEM LOCALIZAÇÃO DEFINIDA/BA,-13.415069300066518,-38.14174656569957,5445,36.60981
D0,CASO SEM LOCALIZAÇÃO DEFINIDA/BA,-13.415069300066518,-38.14174656569957,54,0.36307
0,CASO SEM LOCALIZAÇÃO DEFINIDA/CE,-3.3445126297392798,-38.624961942434304,3462,37.91032
0,CASO SEM LOCALIZAÇÃO DEFINIDA/ES,-20.30989267097039,-39.81745156645774,1542,38.37109
D0,CASO SEM LOCALIZAÇÃO DEFINIDA/ES,-20.30989267097039,-39.81745156645774,40,0.99536
0,CASO SEM LOCALIZAÇÃO DEFINIDA/GO,-16.701590966270153,-49.164524059025034,54,0.76941
0,CASO SEM LOCALIZAÇÃO DEFINIDA/MG,-19.97049116501593,-43.8852149072783,2832,13.37818
D0,CASO SEM LOCALIZAÇÃO DEFINIDA/MG,-19.97049116501593,-43.8852149072783,79,0.37319
0,CASO SEM LOCALIZAÇÃO DEFINIDA/MT,-15.54791153961863,-56.17143998972475,771,22.12678
D0,CASO SEM LOCALIZAÇÃO DEFINIDA/MT,-15.54791153961863,-56.17143998972475,55,1.57843
0,CASO SEM LOCALIZAÇÃO DEFINIDA/PA,-0.09317078214359542,-48.0050231510481,1073,12.47259
D0,CASO SEM LOCALIZAÇÃO DEFINIDA/PA,-0.09317078214359542,-48.0050231510481,2,0.02325
0,CASO SEM LOCALIZAÇÃO DEFINIDA/PI,-2.683810218391744,-41.470898009352254,517,15.79481
D0,CASO SEM LOCALIZAÇÃO DEFINIDA/PI,-2.683810218391744,-41.470898009352254,17,0.51937
0,CASO SEM LOCALIZAÇÃO DEFINIDA/PR,-25.69415946385943,-48.10141676336737,2309,20.19423
D0,CASO SEM LOCALIZAÇÃO DEFINIDA/PR,-25.69415946385943,-48.10141676336737,51,0.44604
0,CASO SEM LOCALIZAÇÃO DEFINIDA/RN,-5.749310788669161,-34.95302586257457,355,10.12304
D0,CASO SEM LOCALIZAÇÃO DEFINIDA/RN,-5.749310788669161,-34.95302586257457,9,0.25664
0,CASO SEM LOCALIZAÇÃO DEFINIDA/RR,2.813328208465927,-60.663338675861986,1552,256.20666
D0,CASO SEM LOCALIZAÇÃO DEFINIDA/RR,2.813328208465927,-60.663338675861986,5,0.82541
0,CASO SEM LOCALIZAÇÃO DEFINIDA/SC,-27.675643660562308,-48.18313219398259,7290,101.74760
0,CASO SEM LOCALIZAÇÃO DEFINIDA/SP,-24.30968974555485,-46.21366504207253,196,0.42684
1,Caapiranga/AM,-3.3188884,-61.2096404,373,2808.10058
D1,Caapiranga/AM,-3.3188884,-61.2096404,9,67.75578
1,Caaporã/PB,-7.510234,-34.9154114,1016,4627.64746
D1,Caaporã/PB,-7.510234,-34.9154114,18,81.98588
1,Caarapó/MS,-22.6349267,-54.8240903,687,2245.61174
D1,Caarapó/MS,-22.6349267,-54.8240903,4,13.07489
1,Caatiba/BA,-14.9782759,-40.4092325,413,6365.59803
D1,Caatiba/BA,-14.9782759,-40.4092325,3,46.23921
1,Cabaceiras do Paraguaçu/BA,-12.5377868,-39.1901339,107,565.80826
D1,Cabaceiras do Paraguaçu/BA,-12.5377868,-39.1901339,1,5.28793
1,Cabaceiras/PB,-7.4899156,-36.2860501,138,2437.73185
1,Cabeceira Grande/MG,-16.0297,-47.0906,48,686.89181
D1,Cabeceira Grande/MG,-16.0297,-47.0906,2,28.62049
1,Cabeceiras do Piauí/PI,-4.4733665,-42.3098716,235,2210.72437
D1,Cabeceiras do Piauí/PI,-4.4733665,-42.3098716,7,65.85136
1,Cabeceiras/GO,-15.7995459,-46.9264991,76,944.56873
D1,Cabeceiras/GO,-15.7995459,-46.9264991,3,37.28561
1,Cabedelo/PB,-6.97324,-34.8351609,3445,5009.67034
D1,Cabedelo/PB,-6.97324,-34.8351609,80,116.33487
1,Cabixi/RO,-13.4956065,-60.5424442,137,2640.70933
D1,Cabixi/RO,-13.4956065,-60.5424442,5,96.37625
1,Cabo Frio/RJ,-22.8804369,-42.0189227,3153,1368.62027
D1,Cabo Frio/RJ,-22.8804369,-42.0189227,178,77.26432
1,Cabo Verde/MG,-21.4743338,-46.3964995,53,376.55417
D1,Cabo Verde/MG,-21.4743338,-46.3964995,1,7.10480
1,Cabo de Santo Agostinho/PE,-8.2838945,-35.0320984,2207,1056.26388
D1,Cabo de Santo Agostinho/PE,-8.2838945,-35.0320984,272,130.17842
1,Cabreúva/SP,-23.3075813,-47.1324417,1250,2478.73248
D1,Cabreúva/SP,-23.3075813,-47.1324417,40,79.31944
1,Cabrobó/PE,-8.5083701,-39.3106961,426,1234.67525
D1,Cabrobó/PE,-8.5083701,-39.3106961,5,14.49149
1,Cabrália Paulista/SP,-22.4562909,-49.3385645,103,2427.52769
1,Cacaulândia/RO,-10.3380043,-62.9007231,84,1339.92662
1,Cacequi/RS,-29.8838059,-54.8273443,56,450.77678
D1,Cacequi/RS,-29.8838059,-54.8273443,2,16.09917
1,Cachoeira Alta/GO,-18.7618269,-50.9432431,772,6095.05763
D1,Cachoeira Alta/GO,-18.7618269,-50.9432431,10,78.95152
1,Cachoeira Dourada/GO,-18.4934204,-49.481062,137,1705.88968
D1,Cachoeira Dourada/GO,-18.4934204,-49.481062,2,24.90350
1,Cachoeira Dourada/MG,-18.517136,-49.5002062,19,702.14339
1,Cachoeira Grande/MA,-2.9290492,-44.0573223,185,1951.88858
D1,Cachoeira Grande/MA,-2.9290492,-44.0573223,4,42.20300
1,Cachoeira Paulista/SP,-22.666498,-45.015384,419,1247.72937
D1,Cachoeira Paulista/SP,-22.666498,-45.015384,15,44.66812
1,Cachoeira da Prata/MG,-19.524723,-44.453056,52,1448.06461
D1,Cachoeira da Prata/MG,-19.524723,-44.453056,1,27.84740
1,Cachoeira de Goiás/GO,-16.6688414,-50.6435997,25,1862.89121
1,Cachoeira de Minas/MG,-22.3554043,-45.7796324,220,1899.99136
D1,Cachoeira de Minas/MG,-22.3554043,-45.7796324,3,25.90897
1,Cachoeira de Pajeú/MG,-15.965833,-41.496666,209,2213.51409
D1,Cachoeira de Pajeú/MG,-15.965833,-41.496666,2,21.18195
1,Cachoeira do Arari/PA,-1.0143572,-48.9621089,317,1317.32048
D1,Cachoeira do Arari/PA,-1.0143572,-48.9621089,13,54.02261
1,Cachoeira do Piriá/PA,-1.7599443,-46.5446954,533,1540.06183
D1,Cachoeira do Piriá/PA,-1.7599443,-46.5446954,3,8.66827
1,Cachoeira do Sul/RS,-30.0474778,-52.8905413,721,880.67523
D1,Cachoeira do Sul/RS,-30.0474778,-52.8905413,7,8.55024
1,Cachoeira dos Índios/PB,-6.9259193,-38.6742159,239,2319.26249
D1,Cachoeira dos Índios/PB,-6.9259193,-38.6742159,7,67.92819
1,Cachoeira/BA,-12.5998256,-38.9665918,467,1391.24736
D1,Cachoeira/BA,-12.5998256,-38.9665918,11,32.77028
1,Cachoeiras de Macacu/RJ,-22.4626861,-42.6534414,750,1264.69150
D1,Cachoeiras de Macacu/RJ,-22.4626861,-42.6534414,37,62.39145
1,Cachoeirinha/PE,-8.4906364,-36.2338963,287,1399.93171
D1,Cachoeirinha/PE,-8.4906364,-36.2338963,21,102.43403
1,Cachoeirinha/RS,-29.9493353,-51.0898927,4124,3142.33465
D1,Cachoeirinha/RS,-29.9493353,-51.0898927,106,80.76806
1,Cachoeirinha/TO,-6.118647,-47.9208885,28,1225.91944
1,Cachoeiro de Itapemirim/ES,-20.848084,-41.11129,7319,3475.49017
D1,Cachoeiro de Itapemirim/ES,-20.848084,-41.11129,192,91.17285
1,Cacimba de Areia/PB,-7.1288513,-37.1575194,13,351.82679
1,Cacimba de Dentro/PB,-6.6425101,-35.7929304,380,2212.13180
D1,Cacimba de Dentro/PB,-6.6425101,-35.7929304,9,52.39260
1,Cacimbas/PB,-7.2125451,-37.0593398,65,902.90318
D1,Cacimbas/PB,-7.2125451,-37.0593398,2,27.78164
1,Cacimbinhas/AL,-9.401212,-36.991082,282,2589.76949
D1,Cacimbinhas/AL,-9.401212,-36.991082,3,27.55074
1,Cacique Doble/RS,-27.7700117,-51.6616409,100,1970.83169
1,Cacoal/RO,-11.4333,-61.4420502,2637,3070.09884
D1,Cacoal/RO,-11.4333,-61.4420502,37,43.07685
1,Caconde/SP,-21.527995,-46.643659,184,967.96254
D1,Caconde/SP,-21.527995,-46.643659,1,5.26067
1,Caculé/BA,-14.4990734,-42.2233006,95,407.88287
D1,Caculé/BA,-14.4990734,-42.2233006,2,8.58701
1,Caetanos/BA,-14.3387456,-40.9085971,185,1266.42935
D1,Caetanos/BA,-14.3387456,-40.9085971,1,6.84556
1,Caetanópolis/MG,-19.2947496,-44.4138386,118,1004.34079
D1,Caetanópolis/MG,-19.2947496,-44.4138386,3,25.53409
1,Caetité/BA,-14.0691776,-42.4852428,236,462.01132
D1,Caetité/BA,-14.0691776,-42.4852428,5,9.78838
1,Caeté/MG,-19.897777,-43.670278,517,1147.69019
D1,Caeté/MG,-19.897777,-43.670278,18,39.95827
1,Caetés/PE,-8.7728788,-36.6255835,696,2407.97122
D1,Caetés/PE,-8.7728788,-36.6255835,7,24.21810
1,Cafarnaum/BA,-11.691399,-41.468823,298,1609.67968
D1,Cafarnaum/BA,-11.691399,-41.468823,4,21.60644
1,Cafeara/PR,-22.78905,-51.714195,69,2335.81584
1,Cafelândia/PR,-24.6176963,-53.3218057,312,1690.50715
D1,Cafelândia/PR,-24.6176963,-53.3218057,1,5.41829
1,Cafelândia/SP,-21.8054355,-49.6030627,369,2068.03789
D1,Cafelândia/SP,-21.8054355,-49.6030627,11,61.64883
1,Cafezal do Sul/PR,-23.900508,-53.512418,33,823.14792
D1,Cafezal do Sul/PR,-23.900508,-53.512418,1,24.94388
1,Caiabu/SP,-22.0143038,-51.2356597,40,953.97090
D1,Caiabu/SP,-22.0143038,-51.2356597,2,47.69855
1,Caiana/MG,-20.695555,-41.924723,17,306.80383
D1,Caiana/MG,-20.695555,-41.924723,2,36.09457
1,Caiapônia/GO,-16.9538779,-51.8090761,242,1266.55153
D1,Caiapônia/GO,-16.9538779,-51.8090761,2,10.46737
1,Caibaté/RS,-28.290475,-54.645407,6,124.40390
D1,Caibaté/RS,-28.290475,-54.645407,1,20.73398
1,Caibi/SC,-27.0751925,-53.2502133,63,1027.73246
D1,Caibi/SC,-27.0751925,-53.2502133,2,32.62643
1,Caicó/RN,-6.4594544,-37.0971911,3247,4751.03522
D1,Caicó/RN,-6.4594544,-37.0971911,39,57.06510
1,Caieiras/SP,-23.3644621,-46.7484765,2492,2424.71418
D1,Caieiras/SP,-23.3644621,-46.7484765,101,98.27293
1,Cairu/BA,-13.4860505,-39.0455744,461,2501.76372
D1,Cairu/BA,-13.4860505,-39.0455744,6,32.56092
1,Caiuá/SP,-21.8319357,-51.9887179,61,1025.89976
D1,Caiuá/SP,-21.8319357,-51.9887179,1,16.81803
1,Caiçara do Norte/RN,-5.0645017,-36.0561226,117,1783.26475
D1,Caiçara do Norte/RN,-5.0645017,-36.0561226,3,45.72474
1,Caiçara do Rio do Vento/RN,-5.757968,-36.00089,80,2153.43203
D1,Caiçara do Rio do Vento/RN,-5.757968,-36.00089,1,26.91790
1,Caiçara/PB,-6.6146866,-35.4681434,462,6424.69754
D1,Caiçara/PB,-6.6146866,-35.4681434,10,139.06272
1,Caiçara/RS,-27.2750478,-53.4310053,112,2382.97872
D1,Caiçara/RS,-27.2750478,-53.4310053,3,63.82979
1,Cajamar/SP,-23.3561111,-46.8769444,1659,2128.72431
D1,Cajamar/SP,-23.3561111,-46.8769444,77,98.80155
1,Cajapió/MA,-2.8778715,-44.6746871,49,436.87589
D1,Cajapió/MA,-2.8778715,-44.6746871,2,17.83167
1,Cajari/MA,-3.3213076,-45.0118757,132,678.62835
D1,Cajari/MA,-3.3213076,-45.0118757,4,20.56450
1,Cajati/SP,-24.7272376,-48.1077914,1817,6376.78108
D1,Cajati/SP,-24.7272376,-48.1077914,35,122.83288
1,Cajazeiras do Piauí/PI,-6.794271,-42.3935024,13,363.83991
D1,Cajazeiras do Piauí/PI,-6.794271,-42.3935024,1,27.98769
1,Cajazeiras/PB,-6.8897849,-38.5570389,2847,4570.63045
D1,Cajazeiras/PB,-6.8897849,-38.5570389,55,88.29809
1,Cajazeirinhas/PB,-6.961442,-37.7993733,39,1216.84867
1,Cajobi/SP,-20.8776238,-48.8106972,233,2198.94300
D1,Cajobi/SP,-20.8776238,-48.8106972,7,66.06267
1,Cajueiro da Praia/PI,-2.931114,-41.340801,371,4834.50612
D1,Cajueiro da Praia/PI,-2.931114,-41.340801,10,130.31014
1,Cajueiro/AL,-9.399589,-36.1524309,364,1706.43664
D1,Cajueiro/AL,-9.399589,-36.1524309,15,70.32019
1,Cajuri/MG,-20.7901414,-42.7954489,65,1635.63161
1,Cajuru/SP,-21.2759978,-47.3046035,492,1864.13064
D1,Cajuru/SP,-21.2759978,-47.3046035,12,45.46660
1,Caldas Brandão/PB,-7.1027959,-35.3254676,336,5557.39332
D1,Caldas Brandão/PB,-7.1027959,-35.3254676,2,33.07972
1,Caldas Novas/GO,-17.745,-48.625,2217,2378.85746
D1,Caldas Novas/GO,-17.745,-48.625,54,57.94240
1,Caldas/MG,-21.923611,-46.386111,133,914.65511
D1,Caldas/MG,-21.923611,-46.386111,3,20.63132
1,Caldazinha/GO,-16.7116649,-49.0012601,105,2728.69023
D1,Caldazinha/GO,-16.7116649,-49.0012601,2,51.97505
1,Caldeirão Grande do Piauí/PI,-7.3310393,-40.6374433,129,2231.44785
1,Caldeirão Grande/BA,-11.0208483,-40.3041387,156,1164.96154
D1,Caldeirão Grande/BA,-11.0208483,-40.3041387,1,7.46770
1,Califórnia/PR,-23.6672543,-51.3554556,123,1429.23542
D1,Califórnia/PR,-23.6672543,-51.3554556,3,34.85940
1,Calmon/SC,-26.6023644,-51.0992893,12,359.82009
D1,Calmon/SC,-26.6023644,-51.0992893,2,59.97001
1,Calumbi/PE,-7.9389746,-38.1516871,192,3340.87350
D1,Calumbi/PE,-7.9389746,-38.1516871,2,34.80077
1,Calçado/PE,-8.7413446,-36.3351787,119,1080.05083
D1,Calçado/PE,-8.7413446,-36.3351787,2,18.15211
1,Calçoene/AP,2.4981757,-50.9539503,1217,10764.19600
D1,Calçoene/AP,2.4981757,-50.9539503,5,44.22431
1,Camacan/BA,-15.4166631,-39.4930088,1559,4870.96169
D1,Camacan/BA,-15.4166631,-39.4930088,32,99.98125
1,Camacho/MG,-20.625556,-45.156667,6,209.13210
1,Camalaú/PB,-7.885031,-36.824191,33,547.17294
1,Camamu/BA,-13.9438142,-39.1060917,850,2402.35148
D1,Camamu/BA,-13.9438142,-39.1060917,24,67.83110
1,Camanducaia/MG,-22.755278,-46.144444,613,2811.79762
D1,Camanducaia/MG,-22.755278,-46.144444,11,50.45640
1,Camapuã/MS,-19.5291747,-54.0434641,75,547.72512
D1,Camapuã/MS,-19.5291747,-54.0434641,3,21.90900
1,Camaquã/RS,-30.8524752,-51.8075619,1627,2447.42622
D1,Camaquã/RS,-30.8524752,-51.8075619,25,37.60643
1,Camaragibe/PE,-8.0213832,-34.9810768,2314,1456.27096
D1,Camaragibe/PE,-8.0213832,-34.9810768,207,130.27143
1,Camargo/RS,-28.5865661,-52.2031474,79,2881.10868
D1,Camargo/RS,-28.5865661,-52.2031474,1,36.46973
1,Camaçari/BA,-12.6998188,-38.3260762,6633,2179.74249
D1,Camaçari/BA,-12.6998188,-38.3260762,134,44.03520
1,Cambará do Sul/RS,-29.0489517,-50.145412,100,1561.03653
1,Cambará/PR,-23.042273,-50.075281,331,1299.77225
D1,Cambará/PR,-23.042273,-50.075281,8,31.41443
1,Cambira/PR,-23.600265,-51.581045,109,1376.78414
D1,Cambira/PR,-23.600265,-51.581045,4,50.52419
1,Camboriú/SC,-27.0273601,-48.6535657,3655,4294.69479
D1,Camboriú/SC,-27.0273601,-48.6535657,49,57.57594
1,Cambuci/RJ,-21.5749919,-41.9107833,224,1443.85716
D1,Cambuci/RJ,-21.5749919,-41.9107833,7,45.12054
1,Cambuquira/MG,-21.853056,-45.2953619,45,351.23322
D1,Cambuquira/MG,-21.853056,-45.2953619,2,15.61037
1,Cambuí/MG,-22.6122501,-46.0572137,442,1482.52499
D1,Cambuí/MG,-22.6122501,-46.0572137,9,30.18716
1,Cambé/PR,-23.2782035,-51.2779583,2373,2210.71166
D1,Cambé/PR,-23.2782035,-51.2779583,41,38.19603
1,Cametá/PA,-2.242949,-49.497885,5096,3656.61146
D1,Cametá/PA,-2.242949,-49.497885,100,71.75454
1,Camocim de São Félix/PE,-8.3616757,-35.7638903,260,1375.66138
D1,Camocim de São Félix/PE,-8.3616757,-35.7638903,9,47.61905
1,Camocim/CE,-2.9009918,-40.8427389,2402,3758.58670
D1,Camocim/CE,-2.9009918,-40.8427389,81,126.74668
1,Campanha/MG,-21.8361108,-45.401986,210,1252.83379
D1,Campanha/MG,-21.8361108,-45.401986,7,41.76113
1,Campanário/MG,-18.2398144,-41.7271768,21,563.00268
1,Campestre da Serra/RS,-28.7966535,-51.0958149,50,1472.75405
1,Campestre de Goiás/GO,-16.7624179,-49.69497,177,4850.64401
D1,Campestre de Goiás/GO,-16.7624179,-49.69497,2,54.80954
1,Campestre do Maranhão/MA,-6.1729113,-47.3640512,538,3722.41057
D1,Campestre do Maranhão/MA,-6.1729113,-47.3640512,15,103.78468
1,Campestre/AL,-8.8481634,-35.5660033,96,1380.50043
D1,Campestre/AL,-8.8481634,-35.5660033,3,43.14064
1,Campestre/MG,-19.6142116,-43.219378,257,1220.67066
D1,Campestre/MG,-19.6142116,-43.219378,4,18.99877
1,Campina Grande do Sul/PR,-25.3046032,-49.0545355,1218,2788.14238
D1,Campina Grande do Sul/PR,-25.3046032,-49.0545355,26,59.51700
1,Campina Grande/PB,-7.2246743,-35.8771292,13961,3390.18035
D1,Campina Grande/PB,-7.2246743,-35.8771292,412,100.04687
1,Campina Verde/MG,-19.535277,-49.486389,160,810.04455
D1,Campina Verde/MG,-19.535277,-49.486389,6,30.37667
1,Campina da Lagoa/PR,-24.5937926,-52.8038965,52,370.29125
D1,Campina da Lagoa/PR,-24.5937926,-52.8038965,3,21.36296
1,Campina das Missões/RS,-27.9883295,-54.8411665,55,1018.89589
D1,Campina das Missões/RS,-27.9883295,-54.8411665,4,74.10152
1,Campina do Monte Alegre/SP,-23.5935653,-48.4801876,87,1436.35463
1,Campina do Simão/PR,-25.1086375,-51.8076658,7,181.39414
D1,Campina do Simão/PR,-25.1086375,-51.8076658,1,25.91345
1,Campinas do Piauí/PI,-7.6593687,-41.8814875,45,800.71174
D1,Campinas do Piauí/PI,-7.6593687,-41.8814875,1,17.79359
1,Campinas do Sul/RS,-27.7167968,-52.6257885,104,1912.46782
D1,Campinas do Sul/RS,-27.7167968,-52.6257885,2,36.77823
1,Campinas/SP,-22.90556,-47.06083,34736,2861.77533
D1,Campinas/SP,-22.90556,-47.06083,1338,110.23305
1,Campinaçu/GO,-13.7869969,-48.5703841,118,3248.89868
1,Campinorte/GO,-14.3136699,-49.1510931,415,3251.33187
D1,Campinorte/GO,-14.3136699,-49.1510931,7,54.84174
1,Campinápolis/MT,-14.5403731,-52.7970626,467,2760.21041
D1,Campinápolis/MT,-14.5403731,-52.7970626,15,88.65772
1,Campo Alegre de Goiás/GO,-17.6337896,-47.779291,37,478.15973
D1,Campo Alegre de Goiás/GO,-17.6337896,-47.779291,1,12.92324
1,Campo Alegre de Lourdes/BA,-9.5160326,-43.0101338,150,520.47189
D1,Campo Alegre de Lourdes/BA,-9.5160326,-43.0101338,4,13.87925
1,Campo Alegre do Fidalgo/PI,-8.3753852,-41.8364191,16,315.64411
D1,Campo Alegre do Fidalgo/PI,-8.3753852,-41.8364191,1,19.72776
1,Campo Alegre/AL,-9.7798607,-36.3575793,1448,2516.64147
D1,Campo Alegre/AL,-9.7798607,-36.3575793,28,48.66434
1,Campo Alegre/SC,-26.1941684,-49.2657484,185,1544.11151
D1,Campo Alegre/SC,-26.1941684,-49.2657484,6,50.07929
1,Campo Azul/MG,-16.5078525,-44.8133524,30,784.51883
1,Campo Belo do Sul/SC,-27.8987563,-50.7586887,118,1697.35328
D1,Campo Belo do Sul/SC,-27.8987563,-50.7586887,1,14.38435
1,Campo Belo/MG,-20.8975,-45.277223,1271,2345.62433
D1,Campo Belo/MG,-20.8975,-45.277223,30,55.36485
1,Campo Bom/RS,-29.674694,-51.060601,2993,4309.07887
D1,Campo Bom/RS,-29.674694,-51.060601,52,74.86539
1,Campo Bonito/PR,-25.0328004,-52.992976,58,1541.32341
1,Campo Erê/SC,-26.3947432,-53.0790495,124,1473.03397
1,Campo Florido/MG,-19.760833,-48.572223,227,2745.19289
1,Campo Formoso/BA,-10.51055,-40.320031,1128,1577.90927
D1,Campo Formoso/BA,-10.51055,-40.320031,13,18.18512
1,Campo Grande do Piauí/PI,-7.1327559,-41.0381164,295,4945.51551
D1,Campo Grande do Piauí/PI,-7.1327559,-41.0381164,4,67.05784
1,Campo Grande/AL,-9.9725,-36.74791447368421,225,2351.83443
D1,Campo Grande/AL,-9.9725,-36.74791447368421,7,73.16818
1,Campo Grande/MS,-20.4640173,-54.6162947,38088,4203.54666
D1,Campo Grande/MS,-20.4640173,-54.6162947,719,79.35177
1,Campo Grande/RN,-5.862063,-37.3134908,104,1075.49121
D1,Campo Grande/RN,-5.862063,-37.3134908,2,20.68252
1,Campo Largo do Piauí/PI,-3.8104731,-42.6288333,226,3091.23239
D1,Campo Largo do Piauí/PI,-3.8104731,-42.6288333,5,68.39010
1,Campo Largo/PR,-25.4597726,-49.5270851,3655,2730.36268
D1,Campo Largo/PR,-25.4597726,-49.5270851,90,67.23191
1,Campo Limpo Paulista/SP,-23.207791,-46.788919,1379,1612.09245
D1,Campo Limpo Paulista/SP,-23.207791,-46.788919,70,81.83210
1,Campo Limpo de Goiás/GO,-16.297101,-49.0894994,51,642.31738
D1,Campo Limpo de Goiás/GO,-16.297101,-49.0894994,2,25.18892
1,Campo Magro/PR,-25.3691533,-49.4496921,606,2037.65972
D1,Campo Magro/PR,-25.3691533,-49.4496921,13,43.71217
1,Campo Maior/PI,-4.8339574,-42.1739786,2543,5422.98424
D1,Campo Maior/PI,-4.8339574,-42.1739786,54,115.15578
1,Campo Mourão/PR,-24.046329,-52.37802,1419,1486.05060
D1,Campo Mourão/PR,-24.046329,-52.37802,42,43.98458
1,Campo Novo de Rondônia/RO,-10.5704235,-63.6199511,175,1226.69284
D1,Campo Novo de Rondônia/RO,-10.5704235,-63.6199511,6,42.05804
1,Campo Novo do Parecis/MT,-13.658735,-57.890723,2978,8239.49312
D1,Campo Novo do Parecis/MT,-13.658735,-57.890723,30,83.00362
1,Campo Novo/RS,-28.91500235,-52.331375687737626,40,914.07678
D1,Campo Novo/RS,-28.91500235,-52.331375687737626,1,22.85192
1,Campo Redondo/RN,-6.2420373,-36.1830606,237,2099.01692
D1,Campo Redondo/RN,-6.2420373,-36.1830606,3,26.56983
1,Campo Verde/MT,-15.5430787,-55.1590511,2588,5658.06734
D1,Campo Verde/MT,-15.5430787,-55.1590511,51,111.49978
1,Campo do Brito/SE,-10.7496246,-37.4942276,786,4314.41432
D1,Campo do Brito/SE,-10.7496246,-37.4942276,12,65.86892
1,Campo do Meio/MG,-21.1072006,-45.8301735,162,1390.43859
D1,Campo do Meio/MG,-21.1072006,-45.8301735,2,17.16591
1,Campo do Tenente/PR,-25.9814143,-49.684518,156,1939.09260
D1,Campo do Tenente/PR,-25.9814143,-49.684518,5,62.15040
1,Campos Altos/MG,-19.696389,-46.171389,153,983.10094
D1,Campos Altos/MG,-19.696389,-46.171389,6,38.55298
1,Campos Belos/GO,-13.0349839,-46.768112,348,1739.39121
D1,Campos Belos/GO,-13.0349839,-46.768112,7,34.98775
1,Campos Borges/RS,-28.8852198,-52.999098,32,971.16844
1,Campos Gerais/MG,-21.2333342,-45.7584127,225,780.11234
D1,Campos Gerais/MG,-21.2333342,-45.7584127,7,24.27016
1,Campos Lindos/TO,-7.9740597,-46.8023881,292,2831.65244
D1,Campos Lindos/TO,-7.9740597,-46.8023881,2,19.39488
1,Campos Novos Paulista/SP,-22.601952,-49.998726,118,2361.41685
D1,Campos Novos Paulista/SP,-22.601952,-49.998726,2,40.02401
1,Campos Novos/SC,-27.3962904,-51.2224397,1487,4067.73170
D1,Campos Novos/SC,-27.3962904,-51.2224397,16,43.76846
1,Campos Sales/CE,-7.0742675,-40.3740367,570,2074.99090
D1,Campos Sales/CE,-7.0742675,-40.3740367,8,29.12268
1,Campos Verdes/GO,-14.2709062,-49.65746,43,2349.72678
D1,Campos Verdes/GO,-14.2709062,-49.65746,1,54.64481
1,Campos de Júlio/MT,-13.7223646,-59.2645296,432,6110.32532
D1,Campos de Júlio/MT,-13.7223646,-59.2645296,6,84.86563
1,Campos do Jordão/SP,-22.7395263,-45.5912829,990,1889.13272
D1,Campos do Jordão/SP,-22.7395263,-45.5912829,30,57.24645
1,Campos dos Goytacazes/RJ,-21.7558619,-41.3326895,8449,1652.88124
D1,Campos dos Goytacazes/RJ,-21.7558619,-41.3326895,437,85.49048
1,Camutanga/PE,-7.4092965,-35.2738166,199,2321.51190
D1,Camutanga/PE,-7.4092965,-35.2738166,7,81.66122
1,Cana Verde/MG,-21.021308,-45.1817881,94,1680.37183
D1,Cana Verde/MG,-21.021308,-45.1817881,2,35.75259
1,Canabrava do Norte/MT,-11.0516481,-51.8301897,64,1353.63790
D1,Canabrava do Norte/MT,-11.0516481,-51.8301897,2,42.30118
1,Cananéia/SP,-25.0104609,-47.9315628,211,1682.48146
D1,Cananéia/SP,-25.0104609,-47.9315628,8,63.79077
1,Canapi/AL,-9.1173572,-37.6011704,66,372.48152
D1,Canapi/AL,-9.1173572,-37.6011704,3,16.93098
1,Canarana/BA,-11.6870151,-41.7683675,354,1344.72934
D1,Canarana/BA,-11.6870151,-41.7683675,3,11.39601
1,Canarana/MT,-13.5564602,-52.2691167,806,3690.13827
D1,Canarana/MT,-13.5564602,-52.2691167,16,73.25337
1,Canas/SP,-22.7029347,-45.0526508,52,999.23136
D1,Canas/SP,-22.7029347,-45.0526508,2,38.43198
1,Canavieira/PI,-7.6924041,-43.7190063,17,431.03448
D1,Canavieira/PI,-7.6924041,-43.7190063,1,25.35497
1,Canavieiras/BA,-15.61621745,-39.08485321304444,335,1083.93192
D1,Canavieiras/BA,-15.61621745,-39.08485321304444,17,55.00550
1,Canaã dos Carajás/PA,-6.5296837,-49.8516592,4241,11130.35719
D1,Canaã dos Carajás/PA,-6.5296837,-49.8516592,46,120.72540
1,Canaã/MG,-20.685555,-42.62,1,21.98769
1,Candeal/BA,-11.8053441,-39.1206515,169,2065.76213
1,Candeias do Jamari/RO,-8.7949939,-63.7018851,1551,5663.06412
D1,Candeias do Jamari/RO,-8.7949939,-63.7018851,32,116.83949
1,Candeias/BA,-12.6693806,-38.5406462,2719,3108.92085
D1,Candeias/BA,-12.6693806,-38.5406462,63,72.03458
1,Candeias/MG,-20.7676161,-45.2763777,111,745.56690
D1,Candeias/MG,-20.7676161,-45.2763777,3,20.15046
1,Candelária/RS,-29.668391,-52.789495,193,614.23888
D1,Candelária/RS,-29.668391,-52.789495,3,9.54775
1,Candiba/BA,-14.4125032,-42.8714102,46,320.15590
D1,Candiba/BA,-14.4125032,-42.8714102,1,6.95991
1,Candiota/RS,-31.5451894,-53.719538,96,995.12802
D1,Candiota/RS,-31.5451894,-53.719538,1,10.36592
