type,name,lat,lon,total,total_per_100k_inhabitants
1,Abadia de Goiás/GO,-16.7572644,-49.4412205,534,6086.85740
D1,Abadia de Goiás/GO,-16.7572644,-49.4412205,7,79.79027
1,Abadia dos Dourados/MG,-18.4911191,-47.4063589,86,1230.50508
D1,Abadia dos Dourados/MG,-18.4911191,-47.4063589,1,14.30820
1,Abadiânia/GO,-16.1940946,-48.7067767,127,633.66929
D1,Abadiânia/GO,-16.1940946,-48.7067767,10,49.89522
1,Abaetetuba/PA,-1.721828,-48.878843,3183,2018.41495
D1,Abaetetuba/PA,-1.721828,-48.878843,112,71.02183
1,Abaeté/MG,-19.1566833,-45.4481213,52,223.78104
D1,Abaeté/MG,-19.1566833,-45.4481213,1,4.30348
1,Abaiara/CE,-7.3607808,-39.0487878,74,630.48479
D1,Abaiara/CE,-7.3607808,-39.0487878,2,17.04013
1,Abaré/BA,-8.7239913,-39.1139689,98,487.90202
1,Abatiá/PR,-23.3052967,-50.3102532,74,992.35618
1,Abaíra/BA,-13.2503296,-41.6640342,13,148.75844
1,Abdon Batista/SC,-27.612419,-51.022992,121,4721.03004
1,Abel Figueiredo/PA,-4.953001,-48.3958485,359,4829.16330
D1,Abel Figueiredo/PA,-4.953001,-48.3958485,1,13.45171
1,Abelardo Luz/SC,-26.5705893,-52.3280339,357,1993.96783
D1,Abelardo Luz/SC,-26.5705893,-52.3280339,5,27.92672
1,Abre Campo/MG,-20.2976097,-42.4764741,75,557.45503
1,Abreu e Lima/PE,-7.900719,-34.898389,851,851.08511
D1,Abreu e Lima/PE,-7.900719,-34.898389,103,103.01030
1,Abreulândia/TO,-9.6221526,-49.1558343,70,2714.23032
D1,Abreulândia/TO,-9.6221526,-49.1558343,3,116.32416
1,Acaiaca/MG,-20.3621646,-43.1444162,28,701.05158
D1,Acaiaca/MG,-20.3621646,-43.1444162,1,25.03756
1,Acajutiba/BA,-11.6609659,-38.0186381,134,883.96332
D1,Acajutiba/BA,-11.6609659,-38.0186381,3,19.79022
1,Acarape/CE,-4.2237866,-38.7071663,1711,11460.91500
D1,Acarape/CE,-4.2237866,-38.7071663,15,100.47558
1,Acaraú/CE,-2.8869514,-40.1194713,2678,4275.15525
D1,Acaraú/CE,-2.8869514,-40.1194713,57,90.99472
1,Acari/RN,-6.4364689,-36.6394777,98,880.02874
D1,Acari/RN,-6.4364689,-36.6394777,8,71.83908
1,Acará/PA,-1.961388,-48.1987043,782,1406.70252
D1,Acará/PA,-1.961388,-48.1987043,13,23.38508
1,Acauã/PI,-8.219542,-41.083059,39,550.53642
1,Aceguá/RS,-31.8695131,-54.1615593,1,20.40400
1,Acopiara/CE,-6.0936464,-39.4543204,898,1654.68952
D1,Acopiara/CE,-6.0936464,-39.4543204,33,60.80708
1,Acorizal/MT,-15.2001544,-56.3668953,180,3333.95073
D1,Acorizal/MT,-15.2001544,-56.3668953,6,111.13169
1,Acrelândia/AC,-10.0759167,-67.0526898,466,3054.53592
D1,Acrelândia/AC,-10.0759167,-67.0526898,9,58.99318
1,Acreúna/GO,-17.3959899,-50.3749031,527,2356.25503
D1,Acreúna/GO,-17.3959899,-50.3749031,14,62.59501
1,Adamantina/SP,-21.6866517,-51.0762975,363,1035.13174
D1,Adamantina/SP,-21.6866517,-51.0762975,11,31.36763
1,Adelândia/GO,-16.4155077,-50.1665834,65,2583.46582
D1,Adelândia/GO,-16.4155077,-50.1665834,1,39.74563
1,Adolfo/SP,-21.2356597,-49.6441918,113,3172.37507
D1,Adolfo/SP,-21.2356597,-49.6441918,4,112.29646
1,Adrianópolis/PR,-24.6557863,-48.9912769,174,2939.68576
D1,Adrianópolis/PR,-24.6557863,-48.9912769,4,67.57898
1,Adustina/BA,-10.5358875,-38.114479,87,510.56338
D1,Adustina/BA,-10.5358875,-38.114479,2,11.73709
1,Afogados da Ingazeira/PE,-7.750429,-37.6356375,624,1674.76314
D1,Afogados da Ingazeira/PE,-7.750429,-37.6356375,11,29.52307
1,Afonso Bezerra/RN,-5.4745,-36.57625071327935,133,1205.25600
D1,Afonso Bezerra/RN,-5.4745,-36.57625071327935,8,72.49660
1,Afonso Cláudio/ES,-20.077841,-41.12606,892,2916.36697
D1,Afonso Cláudio/ES,-20.077841,-41.12606,18,58.85045
1,Afonso Cunha/MA,-4.1326105,-43.3230026,152,2329.85898
D1,Afonso Cunha/MA,-4.1326105,-43.3230026,2,30.65604
1,Afrânio/PE,-8.5198919,-41.0070197,197,1003.31042
D1,Afrânio/PE,-8.5198919,-41.0070197,2,10.18589
1,Afuá/PA,-0.1535664,-50.3879223,2161,5510.22490
D1,Afuá/PA,-0.1535664,-50.3879223,11,28.04835
1,Agrestina/PE,-8.4558021,-35.9442663,571,2294.55495
D1,Agrestina/PE,-8.4558021,-35.9442663,32,128.59152
1,Agricolândia/PI,-5.7967843,-42.6605131,61,1187.00136
1,Agrolândia/SC,-27.4122212,-49.8295774,177,1629.23417
D1,Agrolândia/SC,-27.4122212,-49.8295774,5,46.02356
1,Agronômica/SC,-27.2660744,-49.7104753,84,1541.85022
D1,Agronômica/SC,-27.2660744,-49.7104753,3,55.06608
1,Aguanil/MG,-20.9424533,-45.3927152,56,1248.32813
D1,Aguanil/MG,-20.9424533,-45.3927152,3,66.87472
1,Aguaí/SP,-22.0592036,-46.979384,285,785.01584
D1,Aguaí/SP,-22.0592036,-46.979384,6,16.52665
1,Agudo/RS,-29.6423259,-53.2494005,34,206.54881
D1,Agudo/RS,-29.6423259,-53.2494005,1,6.07497
1,Agudos do Sul/PR,-25.9890808,-49.3328175,77,821.68392
1,Agudos/SP,-22.471162,-48.987822,619,1663.35250
D1,Agudos/SP,-22.471162,-48.987822,13,34.93309
1,Aguiar/PB,-7.0928404,-38.1727215,25,443.26241
1,Aguiarnópolis/TO,-6.5600452,-47.4721189,409,6074.55815
D1,Aguiarnópolis/TO,-6.5600452,-47.4721189,8,118.81776
1,Aimorés/MG,-19.4917754,-41.0615603,311,1235.74522
D1,Aimorés/MG,-19.4917754,-41.0615603,6,23.84074
1,Aiquara/BA,-14.126918,-39.8887574,174,3913.63023
D1,Aiquara/BA,-14.126918,-39.8887574,3,67.47638
1,Aiuaba/CE,-6.5710836,-40.1212278,41,235.64573
D1,Aiuaba/CE,-6.5710836,-40.1212278,1,5.74746
1,Aiuruoca/MG,-21.9759554,-44.6036637,11,183.24171
D1,Aiuruoca/MG,-21.9759554,-44.6036637,2,33.31667
1,Ajuricaba/RS,-28.239654,-53.7693013,132,1879.27107
1,Alagoa Grande/PB,-7.0415212,-35.6285322,1502,5270.91522
D1,Alagoa Grande/PB,-7.0415212,-35.6285322,28,98.25940
1,Alagoa Nova/PB,-7.0653703,-35.76695977336711,352,1688.33038
D1,Alagoa Nova/PB,-7.0653703,-35.76695977336711,9,43.16754
1,Alagoa/MG,-22.1697202,-44.6400042,22,822.73747
1,Alagoinha do Piauí/PI,-7.0090952,-40.939675,97,1267.80813
D1,Alagoinha do Piauí/PI,-7.0090952,-40.939675,1,13.07019
1,Alagoinha/PB,-6.97063215,-35.51490901897793,1028,7095.03761
D1,Alagoinha/PB,-6.97063215,-35.51490901897793,12,82.82145
1,Alagoinha/PE,-8.50355635,-36.77701174370496,194,1325.49877
D1,Alagoinha/PE,-8.50355635,-36.77701174370496,7,47.82728
1,Alagoinhas/BA,-12.133526,-38.420772,5377,3546.92736
D1,Alagoinhas/BA,-12.133526,-38.420772,73,48.15430
1,Alambari/SP,-23.550338,-47.897971,70,1161.82573
D1,Alambari/SP,-23.550338,-47.897971,1,16.59751
1,Albertina/MG,-20.66164,-43.784039,23,764.88194
D1,Albertina/MG,-20.66164,-43.784039,1,33.25574
1,Alcantil/PB,-7.7425491,-36.0609604,68,1238.16460
1,Alcinópolis/MS,-18.3264121,-53.7094463,13,243.30900
D1,Alcinópolis/MS,-18.3264121,-53.7094463,2,37.43215
1,Alcobaça/BA,-17.5215875,-39.1965474,506,2251.89141
D1,Alcobaça/BA,-17.5215875,-39.1965474,6,26.70227
1,Alcântara/MA,-2.4038956,-44.4154241,199,900.57474
D1,Alcântara/MA,-2.4038956,-44.4154241,7,31.67851
1,Alcântaras/CE,-3.586247,-40.5457641,498,4251.32320
D1,Alcântaras/CE,-3.586247,-40.5457641,4,34.14717
1,Aldeias Altas/MA,-4.6291957,-43.4708622,916,3452.43480
D1,Aldeias Altas/MA,-4.6291957,-43.4708622,4,15.07613
1,Alecrim/RS,-27.6566142,-54.7653195,17,285.71429
1,Alegre/ES,-20.7625787,-41.5318886,360,1196.64938
D1,Alegre/ES,-20.7625787,-41.5318886,17,56.50844
1,Alegrete do Piauí/PI,-7.2440138,-40.8602296,184,3743.64191
1,Alegrete/RS,-29.790166,-55.794862,594,807.18586
D1,Alegrete/RS,-29.790166,-55.794862,15,20.38348
1,Alegria/RS,-27.8332103,-54.0574959,52,1501.15473
1,Alenquer/PA,-1.946229,-54.738355,1363,2400.11270
D1,Alenquer/PA,-1.946229,-54.738355,30,52.82713
1,Alexandria/RN,-6.414779,-38.0135516,147,1082.71341
D1,Alexandria/RN,-6.414779,-38.0135516,4,29.46159
1,Alexânia/GO,-16.0834049,-48.5077803,1019,3684.95281
D1,Alexânia/GO,-16.0834049,-48.5077803,13,47.01117
1,Alfenas/MG,-21.4297405,-45.9479419,980,1225.06125
D1,Alfenas/MG,-21.4297405,-45.9479419,31,38.75194
1,Alfredo Chaves/ES,-20.624970400000002,-40.75006690147988,463,3171.01568
D1,Alfredo Chaves/ES,-20.624970400000002,-40.75006690147988,7,47.94192
1,Alfredo Marcondes/SP,-21.9527,-51.413956,53,1272.20355
D1,Alfredo Marcondes/SP,-21.9527,-51.413956,2,48.00768
1,Alfredo Vasconcelos/MG,-21.145833,-43.776389,17,246.12712
D1,Alfredo Vasconcelos/MG,-21.145833,-43.776389,1,14.47807
1,Alfredo Wagner/SC,-27.6961513,-49.3326734,189,1883.22041
D1,Alfredo Wagner/SC,-27.6961513,-49.3326734,1,9.96413
1,Algodão de Jandaíra/PB,-6.9040175,-36.0089879,27,1051.81145
1,Alhandra/PB,-7.4304246,-34.9106103,663,3384.72534
D1,Alhandra/PB,-7.4304246,-34.9106103,17,86.78783
1,Aliança do Tocantins/TO,-11.3055927,-48.9409096,138,2560.29685
D1,Aliança do Tocantins/TO,-11.3055927,-48.9409096,2,37.10575
1,Aliança/PE,-7.60398,-35.222696,365,950.86750
D1,Aliança/PE,-7.60398,-35.222696,28,72.94326
1,Almadina/BA,-14.70466,-39.6381994,347,6350.65886
D1,Almadina/BA,-14.70466,-39.6381994,6,109.80966
1,Almas/TO,-11.5681309,-47.1702803,79,1119.77321
D1,Almas/TO,-11.5681309,-47.1702803,2,28.34869
1,Almeirim/PA,-1.5290377,-52.5788111,257,753.46683
D1,Almeirim/PA,-1.5290377,-52.5788111,18,52.77200
1,Almenara/MG,-16.1740678,-40.6904907,763,1821.17625
D1,Almenara/MG,-16.1740678,-40.6904907,10,23.86863
1,Almino Afonso/RN,-6.1544208,-37.7649018,40,844.77297
1,Almirante Tamandaré do Sul/RS,-28.1141129,-52.9134874,10,509.16497
1,Almirante Tamandaré/PR,-25.3133048,-49.2997838,1615,1361.45604
D1,Almirante Tamandaré/PR,-25.3133048,-49.2997838,52,43.83636
1,Aloândia/GO,-17.7277983,-49.4809338,92,4611.52882
D1,Aloândia/GO,-17.7277983,-49.4809338,4,200.50125
1,Alpercata/MG,-18.9803616,-41.9827637,186,2505.38793
D1,Alpercata/MG,-18.9803616,-41.9827637,6,80.81897
1,Alpestre/RS,-27.2512339,-53.0349646,46,735.05912
1,Alpinópolis/MG,-20.863611,-46.387777,90,453.33199
D1,Alpinópolis/MG,-20.863611,-46.387777,4,20.14809
1,Alta Floresta D'Oeste/RO,-11.9296917,-61.9961284,772,3364.56744
D1,Alta Floresta D'Oeste/RO,-11.9296917,-61.9961284,10,43.58248
1,Alta Floresta/MT,-9.8715018,-56.0839881,1308,2525.97428
D1,Alta Floresta/MT,-9.8715018,-56.0839881,23,44.41698
1,Altair/SP,-20.5238955,-49.0606135,41,985.57692
D1,Altair/SP,-20.5238955,-49.0606135,2,48.07692
1,Altamira do Maranhão/MA,-4.1643006,-45.4674574,273,3358.75984
D1,Altamira do Maranhão/MA,-4.1643006,-45.4674574,5,61.51575
1,Altamira do Paraná/PR,-24.799114,-52.7128633,13,669.41298
D1,Altamira do Paraná/PR,-24.799114,-52.7128633,1,51.49331
1,Altamira/PA,-3.204065,-52.209961,4174,3642.42456
D1,Altamira/PA,-3.204065,-52.209961,120,104.71752
1,Altaneira/CE,-6.9980933,-39.7385742,26,342.73662
D1,Altaneira/CE,-6.9980933,-39.7385742,1,13.18218
1,Alterosa/MG,-21.249166,-46.143055,13,89.86589
D1,Alterosa/MG,-21.249166,-46.143055,1,6.91276
1,Altinho/PE,-8.4904095,-36.0607494,484,2106.91276
D1,Altinho/PE,-8.4904095,-36.0607494,10,43.53126
1,Altinópolis/SP,-21.021364,-47.3712,213,1316.11468
D1,Altinópolis/SP,-21.021364,-47.3712,7,43.25260
1,Alto Alegre do Maranhão/MA,-4.2055693,-44.4525287,384,1419.43592
D1,Alto Alegre do Maranhão/MA,-4.2055693,-44.4525287,12,44.35737
1,Alto Alegre do Pindaré/MA,-3.6698186,-45.8462153,1453,4552.14762
D1,Alto Alegre do Pindaré/MA,-3.6698186,-45.8462153,19,59.52567
1,Alto Alegre dos Parecis/RO,-12.1314515,-61.856265,203,1533.11683
D1,Alto Alegre dos Parecis/RO,-12.1314515,-61.856265,9,67.97070
1,Alto Alegre/RR,2.98858,-61.307167,617,3978.07866
D1,Alto Alegre/RR,2.98858,-61.307167,15,96.71180
1,Alto Alegre/RS,-31.780844700000003,-52.81311114489171,13,793.65079
1,Alto Alegre/SP,-21.5820592,-50.1661976,64,1561.35643
D1,Alto Alegre/SP,-21.5820592,-50.1661976,2,48.79239
1,Alto Araguaia/MT,-17.3156528,-53.2169365,347,1822.09620
D1,Alto Araguaia/MT,-17.3156528,-53.2169365,5,26.25499
1,Alto Bela Vista/SC,-27.4320737,-51.905771,27,1393.90811
D1,Alto Bela Vista/SC,-27.4320737,-51.905771,1,51.62623
1,Alto Boa Vista/MT,-11.6723985,-51.3744431,83,1216.65201
D1,Alto Boa Vista/MT,-11.6723985,-51.3744431,3,43.97537
1,Alto Caparaó/MG,-20.4405661,-41.8683799,21,359.15854
1,Alto Feliz/RS,-29.3785943,-51.3123751,35,1155.87847
1,Alto Garças/MT,-16.9469683,-53.529427,242,2011.63757
D1,Alto Garças/MT,-16.9469683,-53.529427,10,83.12552
1,Alto Horizonte/GO,-14.1954948,-49.3366993,159,2478.95229
D1,Alto Horizonte/GO,-14.1954948,-49.3366993,1,15.59089
1,Alto Jequitibá/MG,-20.423611,-41.966111,72,865.69677
D1,Alto Jequitibá/MG,-20.423611,-41.966111,3,36.07070
1,Alto Longá/PI,-5.2549051,-42.2072388,165,1153.52349
D1,Alto Longá/PI,-5.2549051,-42.2072388,6,41.94631
1,Alto Paraguai/MT,-14.513712,-56.4936374,245,2157.44981
D1,Alto Paraguai/MT,-14.513712,-56.4936374,6,52.83551
1,Alto Paraná/PR,-23.131247,-52.318893,94,636.42519
D1,Alto Paraná/PR,-23.131247,-52.318893,1,6.77048
1,Alto Paraíso de Goiás/GO,-14.1304779,-47.5100161,176,2308.49948
1,Alto Paraíso/PR,-23.508137,-53.728537,5,182.41518
1,Alto Paraíso/RO,-9.7240103,-63.3188123,368,1717.37913
D1,Alto Paraíso/RO,-9.7240103,-63.3188123,8,37.33433
1,Alto Parnaíba/MA,-9.112506,-45.9310154,287,2564.78999
D1,Alto Parnaíba/MA,-9.112506,-45.9310154,2,17.87310
1,Alto Piquiri/PR,-24.0239021,-53.4417448,114,1159.00773
D1,Alto Piquiri/PR,-24.0239021,-53.4417448,4,40.66694
1,Alto Rio Doce/MG,-21.0239537,-43.4133507,70,636.36364
D1,Alto Rio Doce/MG,-21.0239537,-43.4133507,1,9.09091
1,Alto Rio Novo/ES,-19.0577208,-41.0171518,176,2246.04390
D1,Alto Rio Novo/ES,-19.0577208,-41.0171518,10,127.61613
1,Alto Santo/CE,-5.5190371,-38.2719351,437,2548.69941
D1,Alto Santo/CE,-5.5190371,-38.2719351,10,58.32264
1,Alto Taquari/MT,-17.8269099,-53.2831736,307,2830.27565
D1,Alto Taquari/MT,-17.8269099,-53.2831736,6,55.31483
1,Alto do Rodrigues/RN,-5.290868,-36.7616726,368,2532.86530
D1,Alto do Rodrigues/RN,-5.290868,-36.7616726,17,117.00736
1,Altos/PI,-5.0393915,-42.4611694,1460,3602.80328
D1,Altos/PI,-5.0393915,-42.4611694,23,56.75649
1,Altônia/PR,-23.8722004,-53.894037,184,834.24012
D1,Altônia/PR,-23.8722004,-53.894037,2,9.06783
1,Alumínio/SP,-23.5203479,-47.2575256,235,1261.54177
D1,Alumínio/SP,-23.5203479,-47.2575256,6,32.20958
1,Alvarenga/MG,-19.4175,-41.728334,132,3378.55132
D1,Alvarenga/MG,-19.4175,-41.728334,1,25.59509
1,Alvarães/AM,-3.214786,-64.8143124,1219,7599.27685
D1,Alvarães/AM,-3.214786,-64.8143124,14,87.27635
1,Alvinlândia/SP,-22.4431852,-49.7643596,25,775.91558
1,Alvinópolis/MG,-20.1105199,-43.0601805,67,440.70249
D1,Alvinópolis/MG,-20.1105199,-43.0601805,1,6.57765
1,Alvorada D'Oeste/RO,-11.346271,-62.284697,126,874.33211
D1,Alvorada D'Oeste/RO,-11.346271,-62.284697,7,48.57401
1,Alvorada de Minas/MG,-18.7318587,-43.3641479,57,1580.69884
D1,Alvorada de Minas/MG,-18.7318587,-43.3641479,1,27.73156
1,Alvorada do Gurguéia/PI,-8.4465288,-43.8655915,45,830.41152
D1,Alvorada do Gurguéia/PI,-8.4465288,-43.8655915,2,36.90718
1,Alvorada do Norte/GO,-14.483911,-46.4959897,202,2332.56351
D1,Alvorada do Norte/GO,-14.483911,-46.4959897,1,11.54734
1,Alvorada do Sul/PR,-22.7807269,-51.2307721,57,499.73698
D1,Alvorada do Sul/PR,-22.7807269,-51.2307721,5,43.83658
1,Alvorada/RS,-29.9981184,-51.0772509,3512,1669.95554
D1,Alvorada/RS,-29.9981184,-51.0772509,126,59.91298
1,Alvorada/TO,-12.478465,-49.124926,507,6027.10414
D1,Alvorada/TO,-12.478465,-49.124926,7,83.21446
1,Além Paraíba/MG,-21.8760576,-42.6810473,455,1286.69193
D1,Além Paraíba/MG,-21.8760576,-42.6810473,13,36.76263
1,Amajari/RR,3.6523869,-61.4194315,374,2922.78837
D1,Amajari/RR,3.6523869,-61.4194315,12,93.77931
1,Amambai/MS,-23.1082701,-55.2284854,206,522.89573
D1,Amambai/MS,-23.1082701,-55.2284854,5,12.69164
1,Amaporã/PR,-23.094272,-52.786597,28,447.49880
1,Amapá do Maranhão/MA,-1.6762114,-46.0109669,3,43.09107
1,Amapá/AP,2.0529997,-50.7930003,773,8486.11264
D1,Amapá/AP,2.0529997,-50.7930003,4,43.91261
1,Amaraji/PE,-8.373925,-35.4536527,166,727.14530
D1,Amaraji/PE,-8.373925,-35.4536527,24,105.12944
1,Amaral Ferrador/RS,-30.8750633,-52.2542051,33,469.35002
D1,Amaral Ferrador/RS,-30.8750633,-52.2542051,1,14.22273
1,Amaralina/GO,-13.9236199,-49.2962411,5,131.16474
1,Amarante do Maranhão/MA,-5.56913,-46.747284,1070,2582.35791
D1,Amarante do Maranhão/MA,-5.56913,-46.747284,21,50.68179
1,Amarante/PI,-6.2459374,-42.8476238,366,2079.78179
D1,Amarante/PI,-6.2459374,-42.8476238,8,45.45971
1,Amargosa/BA,-13.03793715,-39.60796443875596,383,1028.43640
D1,Amargosa/BA,-13.03793715,-39.60796443875596,12,32.22255
1,Amaturá/AM,-3.3640509,-68.1994689,702,6085.29820
D1,Amaturá/AM,-3.3640509,-68.1994689,10,86.68516
1,Americana/SP,-22.7392463,-47.3306032,5026,2097.68904
D1,Americana/SP,-22.7392463,-47.3306032,153,63.85723
1,Americano do Brasil/GO,-16.2515808,-49.9806104,138,2258.22288
D1,Americano do Brasil/GO,-16.2515808,-49.9806104,3,49.09180
1,Ametista do Sul/RS,-27.3617341,-53.1826575,77,1039.27656
1,Amontada/CE,-3.3634586,-39.8284791,806,1854.92037
D1,Amontada/CE,-3.3634586,-39.8284791,20,46.02780
1,Amorinópolis/GO,-16.6211308,-51.0949921,46,1471.52911
1,Amparo de São Francisco/SE,-10.1299754,-36.9269099,72,3032.85594
1,Amparo do Serra/MG,-20.5070255,-42.8028462,11,233.39699
D1,Amparo do Serra/MG,-20.5070255,-42.8028462,1,21.21791
1,Amparo/PB,-7.56394725,-37.04652873235175,17,759.60679
1,Amparo/SP,-22.70111,-46.76444,1066,1476.55655
D1,Amparo/SP,-22.70111,-46.76444,24,33.24330
1,Ampére/PR,-25.9168712,-53.4742414,105,548.24561
D1,Ampére/PR,-25.9168712,-53.4742414,3,15.66416
1,Amélia Rodrigues/BA,-12.4015388,-38.7516971,389,1549.67732
D1,Amélia Rodrigues/BA,-12.4015388,-38.7516971,6,23.90248
1,América Dourada/BA,-11.4515262,-41.4357517,99,615.13608
1,Américo Brasiliense/SP,-21.7297099,-48.1052092,575,1419.61288
D1,Américo Brasiliense/SP,-21.7297099,-48.1052092,11,27.15781
1,Américo de Campos/SP,-20.298476,-49.735904,296,4958.95460
D1,Américo de Campos/SP,-20.298476,-49.735904,8,134.02580
1,Anadia/AL,-9.6830208,-36.3052699,465,2650.32773
D1,Anadia/AL,-9.6830208,-36.3052699,7,39.89741
1,Anagé/BA,-14.6134669,-41.1376308,114,518.06408
D1,Anagé/BA,-14.6134669,-41.1376308,3,13.63327
1,Anahy/PR,-24.6450861,-53.1337957,28,999.64298
1,Anajatuba/MA,-3.26441,-44.6179916,338,1261.05287
D1,Anajatuba/MA,-3.26441,-44.6179916,9,33.57833
1,Anajás/PA,-0.9878802,-49.9390114,562,1919.59559
D1,Anajás/PA,-0.9878802,-49.9390114,11,37.57216
1,Analândia/SP,-22.128917,-47.661939,36,720.72072
D1,Analândia/SP,-22.128917,-47.661939,2,40.04004
1,Anamã/AM,-3.5797356,-61.4049996,762,5597.17937
D1,Anamã/AM,-3.5797356,-61.4049996,1,7.34538
1,Ananindeua/PA,-1.374035,-48.4016623,7427,1399.74142
D1,Ananindeua/PA,-1.374035,-48.4016623,366,68.97877
1,Ananás/TO,-6.3663053,-48.080238,274,2869.41041
D1,Ananás/TO,-6.3663053,-48.080238,11,115.19531
1,Anapu/PA,-3.4668292,-51.2057035,973,3488.70563
D1,Anapu/PA,-3.4668292,-51.2057035,23,82.46683
1,Anapurus/MA,-3.6751298,-43.1046001,710,4513.09433
D1,Anapurus/MA,-3.6751298,-43.1046001,6,38.13883
1,Anastácio/MS,-20.4832458,-55.8048448,623,2478.61548
D1,Anastácio/MS,-20.4832458,-55.8048448,19,75.59180
1,Anaurilândia/MS,-22.185169,-52.719056,30,332.04206
1,Anchieta/ES,-20.8057672,-40.6454564,884,3020.87961
D1,Anchieta/ES,-20.8057672,-40.6454564,21,71.76298
1,Anchieta/SC,-26.5350527,-53.3293938,33,585.31394
D1,Anchieta/SC,-26.5350527,-53.3293938,1,17.73679
1,Andaraí/BA,-12.8059674,-41.3322919,37,281.51868
1,Andirá/PR,-23.0494761,-50.2310027,245,1223.10419
D1,Andirá/PR,-23.0494761,-50.2310027,4,19.96905
1,Andorinha/BA,-10.3445708,-39.8334411,66,452.20966
D1,Andorinha/BA,-10.3445708,-39.8334411,2,13.70332
1,Andradas/MG,-22.0680484,-46.5688976,325,791.19702
D1,Andradas/MG,-22.0680484,-46.5688976,13,31.64788
1,Andradina/SP,-20.896505,-51.3742765,1046,1830.04706
D1,Andradina/SP,-20.896505,-51.3742765,21,36.74091
1,Andrelândia/MG,-21.739722,-44.308889,70,572.64398
1,André da Rocha/RS,-28.6309124,-51.5733328,21,1575.39385
1,Angatuba/SP,-23.4938938,-48.4110675,286,1133.66101
D1,Angatuba/SP,-23.4938938,-48.4110675,9,35.67465
1,Angelim/PE,-8.8902038,-36.2872987,70,627.80269
D1,Angelim/PE,-8.8902038,-36.2872987,2,17.93722
1,Angelina/SC,-27.5805287,-48.9838759,94,1957.92543
1,Angelândia/MG,-17.7253,-42.2728,16,187.79343
1,Angical do Piauí/PI,-6.0872666,-42.7366138,111,1635.23866
D1,Angical do Piauí/PI,-6.0872666,-42.7366138,3,44.19564
1,Angical/BA,-12.005623,-44.7000236,142,1015.95478
D1,Angical/BA,-12.005623,-44.7000236,3,21.46383
1,Angico/TO,-6.3893733,-47.8656722,65,1893.38771
1,Angicos/RN,-5.6666344,-36.6009064,98,836.60577
D1,Angicos/RN,-5.6666344,-36.6009064,4,34.14717
1,Angra dos Reis/RJ,-23.0063966,-44.316326,5383,2641.50943
D1,Angra dos Reis/RJ,-23.0063966,-44.316326,177,86.85625
1,Anguera/BA,-12.1509425,-39.2452469,61,543.62356
1,Angélica/MS,-22.1588196,-53.7728504,107,992.57885
D1,Angélica/MS,-22.1588196,-53.7728504,3,27.82931
1,Anhanguera/GO,-18.3338749,-48.220363,14,1218.45083
D1,Anhanguera/GO,-18.3338749,-48.220363,2,174.06440
1,Anhembi/SP,-22.7891096,-48.1316776,20,297.44200
1,Anhumas/SP,-22.2956478,-51.3873401,62,1506.68287
1,Anicuns/GO,-16.4606451,-49.9572265,668,3057.20824
D1,Anicuns/GO,-16.4606451,-49.9572265,12,54.91991
1,Anita Garibaldi/SC,-27.6855032,-51.1293873,242,3392.68190
D1,Anita Garibaldi/SC,-27.6855032,-51.1293873,1,14.01935
1,Anitápolis/SC,-27.9041185,-49.1287395,55,1701.73267
1,Anori/AM,-3.7435254,-61.6605203,772,3674.44074
D1,Anori/AM,-3.7435254,-61.6605203,11,52.35602
1,Anta Gorda/RS,-28.9718745,-52.0069187,76,1270.69052
1,Antas/BA,-10.4114649,-38.3308815,305,1581.04816
1,Antonina do Norte/CE,-6.7754187,-39.9879345,45,611.99510
1,Antonina/PR,-25.4298854,-48.7125431,357,1880.92729
D1,Antonina/PR,-25.4298854,-48.7125431,7,36.88093
1,Antônio Almeida/PI,-7.2186016,-44.1950248,216,6826.80152
D1,Antônio Almeida/PI,-7.2186016,-44.1950248,1,31.60556
1,Antônio Cardoso/BA,-12.4363122,-39.1200307,65,556.36395
D1,Antônio Cardoso/BA,-12.4363122,-39.1200307,1,8.55945
1,Antônio Carlos/MG,-21.318334,-43.746666,64,559.19616
D1,Antônio Carlos/MG,-21.318334,-43.746666,2,17.47488
1,Antônio Carlos/SC,-27.5168462,-48.7684715,286,3359.56772
D1,Antônio Carlos/SC,-27.5168462,-48.7684715,11,129.21414
1,Antônio Dias/MG,-19.6525,-42.872778,94,1008.80017
D1,Antônio Dias/MG,-19.6525,-42.872778,2,21.46383
1,Antônio Gonçalves/BA,-10.5715409,-40.2748824,170,1440.92219
D1,Antônio Gonçalves/BA,-10.5715409,-40.2748824,1,8.47601
1,Antônio João/MS,-22.1892837,-55.9508227,60,669.94194
1,Antônio Martins/RN,-6.2155812,-37.8890129,8,111.96641
D1,Antônio Martins/RN,-6.2155812,-37.8890129,2,27.99160
1,Antônio Olinto/PR,-25.9849006,-50.1974516,75,1008.87813
D1,Antônio Olinto/PR,-25.9849006,-50.1974516,1,13.45171
1,Antônio Prado de Minas/MG,-21.0171988,-42.1101106,11,688.36045
1,Antônio Prado/RS,-28.8567806,-51.2801355,458,3509.57854
D1,Antônio Prado/RS,-28.8567806,-51.2801355,9,68.96552
1,Anápolis/GO,-16.3332828,-48.9525756,10155,2624.55321
D1,Anápolis/GO,-16.3332828,-48.9525756,257,66.42148
1,Anísio de Abreu/PI,-9.185643,-43.04941,97,981.78138
1,Aparecida d'Oeste/SP,-20.4498109,-50.8808706,107,2550.04766
D1,Aparecida d'Oeste/SP,-20.4498109,-50.8808706,1,23.83222
1,Aparecida de Goiânia/GO,-16.8226769,-49.2452546,29160,5043.42081
D1,Aparecida de Goiânia/GO,-16.8226769,-49.2452546,448,77.48465
1,Aparecida do Rio Doce/GO,-18.2980167,-51.1491312,83,3354.89086
D1,Aparecida do Rio Doce/GO,-18.2980167,-51.1491312,2,80.84074
1,Aparecida do Rio Negro/TO,-9.9513491,-47.9773786,44,917.62252
1,Aparecida do Taboado/MS,-20.0840304,-51.1013943,860,3340.45446
D1,Aparecida do Taboado/MS,-20.0840304,-51.1013943,18,69.91649
1,Aparecida/PB,-6.7859598, -38.0831353,135,1617.34755
D1,Aparecida/PB,-6.7859598, -38.0831353,3,35.94106
1,Aparecida/SP,-22.851552,-45.2340924,369,1020.54927
D1,Aparecida/SP,-22.851552,-45.2340924,10,27.65716
1,Aperibé/RJ,-21.6211928,-42.1028167,191,1624.28778
D1,Aperibé/RJ,-21.6211928,-42.1028167,7,59.52887
1,Apiacá/ES,-21.152272,-41.569297,167,2206.95124
D1,Apiacá/ES,-21.152272,-41.569297,4,52.86111
1,Apiacás/MT,-9.5678422,-57.394852,48,473.69979
D1,Apiacás/MT,-9.5678422,-57.394852,1,9.86875
1,Apiaí/SP,-24.5076527,-48.8461582,144,590.79347
D1,Apiaí/SP,-24.5076527,-48.8461582,5,20.51366
1,Apicum-Açu/MA,-1.5279295,-45.082278,197,1142.75770
D1,Apicum-Açu/MA,-1.5279295,-45.082278,3,17.40240
1,Apiúna/SC,-27.0374658,-49.3885037,85,791.21288
D1,Apiúna/SC,-27.0374658,-49.3885037,3,27.92516
1,Apodi/RN,-5.6631109,-37.796927,2040,5691.17032
D1,Apodi/RN,-5.6631109,-37.796927,31,86.48347
1,Aporá/BA,-11.6599747,-38.0794757,189,1065.92973
D1,Aporá/BA,-11.6599747,-38.0794757,4,22.55936
1,Aporé/GO,-18.9642193,-51.92804,32,762.26775
D1,Aporé/GO,-18.9642193,-51.92804,2,47.64173
1,Apuarema/BA,-13.8517897,-39.7457126,345,4706.68486
D1,Apuarema/BA,-13.8517897,-39.7457126,5,68.21282
1,Apucarana/PR,-23.5525327,-51.4610764,793,587.42481
D1,Apucarana/PR,-23.5525327,-51.4610764,33,24.44517
1,Apuiarés/CE,-3.9460303,-39.4313298,236,1616.43836
D1,Apuiarés/CE,-3.9460303,-39.4313298,11,75.34247
1,Apuí/AM,-7.1940195,-59.8830192,213,969.37150
D1,Apuí/AM,-7.1940195,-59.8830192,1,4.55104
1,Aquidabã/SE,-10.2837579,-37.0188687,565,2620.22910
D1,Aquidabã/SE,-10.2837579,-37.0188687,14,64.92603
1,Aquidauana/MS,-20.473969,-55.7821375,1901,3971.08897
D1,Aquidauana/MS,-20.473969,-55.7821375,54,112.80316
1,Aquiraz/CE,-3.9063117,-38.387504,1002,1248.27148
D1,Aquiraz/CE,-3.9063117,-38.387504,33,41.11074
1,Arabutã/SC,-27.1587028,-52.1438142,74,1734.23951
D1,Arabutã/SC,-27.1587028,-52.1438142,1,23.43567
1,Aracaju/SE,-10.9162061,-37.0774655,34716,5283.91371
D1,Aracaju/SE,-10.9162061,-37.0774655,722,109.89128
1,Aracati/CE,-4.558259,-37.767894,1789,2399.82830
D1,Aracati/CE,-4.558259,-37.767894,52,69.75465
1,Aracatu/BA,-14.4274236,-41.4604105,53,403.50209
D1,Aracatu/BA,-14.4274236,-41.4604105,1,7.61325
1,Araci/BA,-11.3356065,-38.9573261,1099,2021.00075
D1,Araci/BA,-11.3356065,-38.9573261,12,22.06734
1,Aracitaba/MG,-21.3425,-43.378611,1,48.47310
1,Aracoiaba/CE,-4.3702577,-38.8084313,771,2912.84144
D1,Aracoiaba/CE,-4.3702577,-38.8084313,14,52.89206
1,Aracruz/ES,-19.8245218,-40.2735025,3986,3937.95693
D1,Aracruz/ES,-19.8245218,-40.2735025,73,72.12013
1,Aragarças/GO,-15.8957166,-52.2514538,684,3399.94035
D1,Aragarças/GO,-15.8957166,-52.2514538,16,79.53077
1,Aragoiânia/GO,-16.9146388,-49.4499148,326,3162.59216
D1,Aragoiânia/GO,-16.9146388,-49.4499148,4,38.80481
1,Aragominas/TO,-7.1654101,-48.525488,191,3317.12400
D1,Aragominas/TO,-7.1654101,-48.525488,2,34.73428
1,Araguacema/TO,-8.8067391,-49.5560969,51,719.72904
1,Araguaiana/MT,-15.729144,-51.834112,55,1774.19355
D1,Araguaiana/MT,-15.729144,-51.834112,1,32.25806
1,Araguainha/MT,-16.857016,-53.031778,3,320.85561
1,Araguanã/MA,-2.9508403,-45.6651986,535,3468.17062
D1,Araguanã/MA,-2.9508403,-45.6651986,2,12.96512
1,Araguanã/TO,-6.5799107,-48.6428482,168,2932.44894
D1,Araguanã/TO,-6.5799107,-48.6428482,8,139.64043
1,Araguapaz/GO,-15.0937927,-50.626417,150,1930.50193
D1,Araguapaz/GO,-15.0937927,-50.626417,5,64.35006
1,Araguari/MG,-18.6511256,-48.1933764,3180,2711.76034
D1,Araguari/MG,-18.6511256,-48.1933764,75,63.95661
1,Araguatins/TO,-5.6522925,-48.1158973,860,2404.85445
D1,Araguatins/TO,-5.6522925,-48.1158973,24,67.11222
1,Araguaçu/TO,-12.928934,-49.823134,434,5095.69097
D1,Araguaçu/TO,-12.928934,-49.823134,7,82.18856
1,Araguaína/TO,-7.193241,-48.2018597,14764,8180.86108
D1,Araguaína/TO,-7.193241,-48.2018597,192,106.38887
1,Araioses/MA,-2.890914,-41.904993,585,1259.68992
D1,Araioses/MA,-2.890914,-41.904993,10,21.53316
1,Aral Moreira/MS,-22.951141,-55.6268421,87,716.10832
D1,Aral Moreira/MS,-22.951141,-55.6268421,2,16.46226
1,Aramari/BA,-12.0907897,-38.4985065,119,1044.13442
D1,Aramari/BA,-12.0907897,-38.4985065,1,8.77424
1,Arambaré/RS,-30.9132252,-51.4994625,16,446.80257
D1,Arambaré/RS,-30.9132252,-51.4994625,1,27.92516
1,Arame/MA,-4.8858769,-46.0102484,924,2825.60166
D1,Arame/MA,-4.8858769,-46.0102484,10,30.58010
1,Aramina/SP,-20.0876144,-47.789201,104,1850.53381
D1,Aramina/SP,-20.0876144,-47.789201,5,88.96797
1,Arandu/SP,-23.1345103,-49.0545651,38,597.76624
D1,Arandu/SP,-23.1345103,-49.0545651,2,31.46138
1,Arantina/MG,-21.911667,-44.255833,19,679.78533
D1,Arantina/MG,-21.911667,-44.255833,1,35.77818
1,Arapeí/SP,-22.6738889,-44.4477778,5,202.51114
D1,Arapeí/SP,-22.6738889,-44.4477778,1,40.50223
1,Arapiraca/AL,-9.754866,-36.661471,11548,4983.02028
D1,Arapiraca/AL,-9.754866,-36.661471,141,60.84221
1,Arapoema/TO,-7.6575001,-49.0641484,98,1475.23709
D1,Arapoema/TO,-7.6575001,-49.0641484,3,45.16032
1,Araponga/MG,-20.666667,-42.520556,1,11.84975
1,Arapongas/PR,-23.415296,-51.42592,2657,2159.68852
D1,Arapongas/PR,-23.415296,-51.42592,93,75.59316
1,Araporã/MG,-18.4318188,-49.188313,497,7235.40544
D1,Araporã/MG,-18.4318188,-49.188313,8,116.46528
1,Arapoti/PR,-24.1457957,-49.8224605,223,793.17091
D1,Arapoti/PR,-24.1457957,-49.8224605,1,3.55682
1,Araputanga/MT,-15.4710868,-58.346796,542,3221.97123
D1,Araputanga/MT,-15.4710868,-58.346796,7,41.61217
1,Arapuá/MG,-19.034444,-46.155556,34,1199.71771
1,Arapuã/PR,-24.3079525,-51.7901941,43,1401.56454
D1,Arapuã/PR,-24.3079525,-51.7901941,1,32.59452
1,Araquari/SC,-26.3703324,-48.7210994,833,2184.68882
D1,Araquari/SC,-26.3703324,-48.7210994,15,39.34013
1,Arara/PB,-6.8271895,-35.7605703,231,1714.92205
D1,Arara/PB,-6.8271895,-35.7605703,6,44.54343
1,Araranguá/SC,-28.9348832,-49.4858389,2055,3011.95990
D1,Araranguá/SC,-28.9348832,-49.4858389,41,60.09263
1,Araraquara/SP,-21.7886713,-48.1773096,4344,1840.11657
D1,Araraquara/SP,-21.7886713,-48.1773096,47,19.90918
1,Araras/SP,-22.3569477,-47.3838889,3504,2610.32808
D1,Araras/SP,-22.3569477,-47.3838889,66,49.16714
1,Ararendá/CE,-4.7504395,-40.8303611,103,941.92958
D1,Ararendá/CE,-4.7504395,-40.8303611,2,18.28989
1,Arari/MA,-3.4547602,-44.7772723,217,727.01689
D1,Arari/MA,-3.4547602,-44.7772723,9,30.15277
1,Araricá/RS,-29.6168543,-50.929121,82,1439.10144
D1,Araricá/RS,-29.6168543,-50.929121,5,87.75009
1,Araripe/CE,-7.212861,-40.1359222,201,930.55556
D1,Araripe/CE,-7.212861,-40.1359222,2,9.25926
1,Araripina/PE,-7.5768582,-40.5038509,1957,2318.22597
D1,Araripina/PE,-7.5768582,-40.5038509,36,42.64493
1,Araruama/RJ,-22.8733203,-42.3428897,1284,969.78852
D1,Araruama/RJ,-22.8733203,-42.3428897,63,47.58308
1,Araruna/PB,-6.5321155,-35.7397595,257,1265.26191
D1,Araruna/PB,-6.5321155,-35.7397595,8,39.38558
1,Araruna/PR,-23.9320308,-52.4976047,186,1331.42448
D1,Araruna/PR,-23.9320308,-52.4976047,7,50.10737
1,Arataca/BA,-15.2617424,-39.4122943,212,1923.94954
D1,Arataca/BA,-15.2617424,-39.4122943,4,36.30093
1,Aratiba/RS,-27.3955734,-52.3024325,40,641.53970
D1,Aratiba/RS,-27.3955734,-52.3024325,2,32.07698
1,Aratuba/CE,-4.4195958,-39.0463737,239,2017.38837
D1,Aratuba/CE,-4.4195958,-39.0463737,2,16.88191
1,Aratuípe/BA,-13.077137,-39.0010786,123,1393.76771
D1,Aratuípe/BA,-13.077137,-39.0010786,5,56.65722
1,Araucária/PR,-25.5861107,-49.4051209,3788,2633.42672
D1,Araucária/PR,-25.5861107,-49.4051209,61,42.40735
1,Arauá/SE,-11.2644014,-37.6181058,312,3102.62530
D1,Arauá/SE,-11.2644014,-37.6181058,8,79.55449
1,Araxá/MG,-19.5928536,-46.940241,1480,1393.21654
D1,Araxá/MG,-19.5928536,-46.940241,24,22.59270
1,Araçagi/PB,-6.8519969,-35.3835602,498,2931.65362
D1,Araçagi/PB,-6.8519969,-35.3835602,6,35.32113
1,Araçariguama/SP,-23.438611,-47.061389,355,1587.37256
D1,Araçariguama/SP,-23.438611,-47.061389,8,35.77178
1,Araças/BA,-12.2139176,-38.2026159,168,1379.65016
D1,Araças/BA,-12.2139176,-38.2026159,3,24.63661
1,Araçatuba/SP,-21.207992,-50.4390225,6124,3108.37698
D1,Araçatuba/SP,-21.207992,-50.4390225,142,72.07536
1,Araçaí/MG,-19.200833,-44.2475,4,170.43034
1,Araçoiaba da Serra/SP,-23.5045367,-47.6168158,604,1768.87483
D1,Araçoiaba da Serra/SP,-23.5045367,-47.6168158,11,32.21461
1,Araçoiaba/PE,-7.7856903,-35.0898881,155,755.21341
D1,Araçoiaba/PE,-7.7856903,-35.0898881,17,82.82986
1,Araçu/GO,-16.3561579,-49.6815269,70,1987.50710
D1,Araçu/GO,-16.3561579,-49.6815269,2,56.78592
1,Araçuaí/MG,-16.8484451,-42.0661868,85,231.55715
1,Araújos/MG,-19.948055,-45.165556,56,603.90381
D1,Araújos/MG,-19.948055,-45.165556,1,10.78400
1,Arceburgo/MG,-21.364444,-46.939722,57,529.14965
D1,Arceburgo/MG,-21.364444,-46.939722,1,9.28333
1,Arco-Íris/SP,-21.7741308,-50.4668814,10,558.34729
1,Arcos/MG,-20.282223,-45.539444,352,877.98064
D1,Arcos/MG,-20.282223,-45.539444,6,14.96558
1,Arcoverde/PE,-8.415192,-37.057748,1492,2007.04888
D1,Arcoverde/PE,-8.415192,-37.057748,50,67.26035
1,Areado/MG,-21.3582771,-46.1476688,6,39.81420
1,Areal/RJ,-22.2314922,-43.1056264,208,1654.47025
D1,Areal/RJ,-22.2314922,-43.1056264,8,63.63347
1,Arealva/SP,-22.0301906,-48.9111936,110,1285.04673
D1,Arealva/SP,-22.0301906,-48.9111936,1,11.68224
1,Areia Branca/RN,-4.9506652,-37.1263312,812,2923.59761
D1,Areia Branca/RN,-4.9506652,-37.1263312,50,180.02448
1,Areia Branca/SE,-10.7591455,-37.3148072,722,3893.86258
D1,Areia Branca/SE,-10.7591455,-37.3148072,17,91.68375
1,Areia de Baraúnas/PB,-7.1233949,-36.9446216,11,516.91729
1,Areia/PB,-6.9680243,-35.6994783,502,2199.92112
D1,Areia/PB,-6.9680243,-35.6994783,5,21.91156
1,Areial/PB,-7.0501306,-35.9245244,69,985.99600
D1,Areial/PB,-7.0501306,-35.9245244,2,28.57959
1,Areias/SP,-22.5800929,-44.6975127,55,1415.33711
1,Areiópolis/SP,-22.6758064,-48.6673653,105,943.48100
D1,Areiópolis/SP,-22.6758064,-48.6673653,3,26.95660
1,Arenápolis/MT,-14.4610369,-56.8432806,370,3851.35838
D1,Arenápolis/MT,-14.4610369,-56.8432806,4,41.63631
1,Arenópolis/GO,-16.3859286,-51.55937,29,1110.26034
1,Argirita/MG,-21.612761,-42.8371922,21,770.07701
D1,Argirita/MG,-21.612761,-42.8371922,1,36.67033
1,Aricanduva/MG,-17.8678,-42.5569,1,19.11680
1,Arinos/MG,-15.917223,-46.106111,84,469.93007
D1,Arinos/MG,-15.917223,-46.106111,2,11.18881
1,Aripuanã/MT,-10.175806,-59.4439663,591,2643.82213
D1,Aripuanã/MT,-10.175806,-59.4439663,14,62.62861
1,Ariquemes/RO,-9.9076522,-63.033069,5290,4904.36943
D1,Ariquemes/RO,-9.9076522,-63.033069,88,81.58497
1,Ariranha do Ivaí/PR,-24.3834527,-51.5876772,20,948.76660
D1,Ariranha do Ivaí/PR,-24.3834527,-51.5876772,1,47.43833
1,Ariranha/SP,-21.18716,-48.790418,145,1499.79313
D1,Ariranha/SP,-21.18716,-48.790418,6,62.06041
1,Armazém/SC,-28.2624996,-49.0190126,259,2985.93498
D1,Armazém/SC,-28.2624996,-49.0190126,5,57.64353
1,Armação dos Búzios/RJ,-22.7597805,-41.8875267,453,1337.46678
D1,Armação dos Búzios/RJ,-22.7597805,-41.8875267,13,38.38205
1,Arneiroz/CE,-6.3235099,-40.1603859,52,663.26531
D1,Arneiroz/CE,-6.3235099,-40.1603859,4,51.02041
1,Aroazes/PI,-6.1108814,-41.7886137,73,1251.07112
D1,Aroazes/PI,-6.1108814,-41.7886137,3,51.41388
1,Aroeiras do Itaim/PI,-7.2797031,-41.5629681,75,2940.02352
D1,Aroeiras do Itaim/PI,-7.2797031,-41.5629681,1,39.20031
1,Aroeiras/PB,-7.5462904,-35.7080002,219,1143.42401
D1,Aroeiras/PB,-7.5462904,-35.7080002,1,5.22111
1,Arraial do Cabo/RJ,-22.9662839,-42.024427,184,606.28027
D1,Arraial do Cabo/RJ,-22.9662839,-42.024427,6,19.77001
1,Arraial/PI,-6.6541632,-42.5335332,23,486.56653
1,Arraias/TO,-12.9287788,-46.9437231,112,1059.90347
1,Arroio Grande/RS,-32.2384246,-53.0866661,99,541.19062
D1,Arroio Grande/RS,-32.2384246,-53.0866661,1,5.46657
1,Arroio Trinta/SC,-26.9301976,-51.334928,63,1774.64789
1,Arroio do Meio/RS,-29.4020392,-51.9444993,428,2057.19779
D1,Arroio do Meio/RS,-29.4020392,-51.9444993,1,4.80654
1,Arroio do Padre/RS,-31.4428773,-52.4228985,6,204.29009
1,Arroio do Sal/RS,-29.549852,-49.8874395,86,854.44610
D1,Arroio do Sal/RS,-29.549852,-49.8874395,3,29.80626
1,Arroio do Tigre/RS,-29.334158,-53.0888935,29,216.85486
1,Arroio dos Ratos/RS,-30.0894524,-51.7265541,138,975.19610
D1,Arroio dos Ratos/RS,-30.0894524,-51.7265541,10,70.66638
1,Artur Nogueira/SP,-22.572737,-47.172679,916,1683.57594
D1,Artur Nogueira/SP,-22.572737,-47.172679,20,36.75930
1,Aruanã/GO,-14.9162439,-51.0715692,124,1255.69620
1,Arujá/SP,-23.396266,-46.3175449,1854,2064.03634
D1,Arujá/SP,-23.396266,-46.3175449,78,86.83648
1,Arvoredo/SC,-27.0752908,-52.4571847,51,2276.78571
D1,Arvoredo/SC,-27.0752908,-52.4571847,1,44.64286
1,Arvorezinha/RS,-28.87369,-52.17808,99,949.73139
D1,Arvorezinha/RS,-28.87369,-52.17808,5,47.96623
1,Arês/RN,-6.1969216,-35.1642968,216,1509.85600
D1,Arês/RN,-6.1969216,-35.1642968,9,62.91067
1,Ascurra/SC,-26.9569975,-49.3767752,147,1852.78548
D1,Ascurra/SC,-26.9569975,-49.3767752,2,25.20797
1,Aspásia/SP,-20.160028,-50.728046,40,2195.38968
1,Assaré/CE,-6.8746791,-39.8741385,333,1422.04381
D1,Assaré/CE,-6.8746791,-39.8741385,8,34.16321
1,Assaí/PR,-23.3736041,-50.8454929,264,1746.14723
D1,Assaí/PR,-23.3736041,-50.8454929,11,72.75613
1,Assis Brasil/AC,-10.9409203,-69.5672108,606,8170.41931
D1,Assis Brasil/AC,-10.9409203,-69.5672108,9,121.34286
1,Assis Chateaubriand/PR,-24.4054826,-53.5120468,475,1423.77555
D1,Assis Chateaubriand/PR,-24.4054826,-53.5120468,6,17.98453
1,Assis/SP,-22.6620892,-50.420623,1237,1185.02481
D1,Assis/SP,-22.6620892,-50.420623,23,22.03361
1,Assunção do Piauí/PI,-5.8610212,-41.0485091,130,1656.89523
D1,Assunção do Piauí/PI,-5.8610212,-41.0485091,2,25.49070
1,Assunção/PB,-7.073396,-36.7274003,46,1152.88221
1,Astolfo Dutra/MG,-21.3132636,-42.8624102,144,1015.58643
D1,Astolfo Dutra/MG,-21.3132636,-42.8624102,3,21.15805
1,Astorga/PR,-23.2350184,-51.6647074,401,1535.75122
D1,Astorga/PR,-23.2350184,-51.6647074,6,22.97882
1,Atalaia do Norte/AM,-4.3658547,-70.1908742,990,4969.63004
D1,Atalaia do Norte/AM,-4.3658547,-70.1908742,4,20.07931
1,Atalaia/AL,-9.5029595,-36.0219316,586,1241.92010
D1,Atalaia/AL,-9.5029595,-36.0219316,19,40.26703
1,Atalaia/PR,-23.1513833,-52.0529697,86,2209.66084
D1,Atalaia/PR,-23.1513833,-52.0529697,1,25.69373
1,Atalanta/SC,-27.421916,-49.778863,39,1214.95327
1,Ataléia/MG,-18.04432,-41.1110524,136,1056.88530
D1,Ataléia/MG,-18.04432,-41.1110524,4,31.08486
1,Atibaia/SP,-23.1177393,-46.5547861,1800,1260.84855
D1,Atibaia/SP,-23.1177393,-46.5547861,55,38.52593
1,Atilio Vivacqua/ES,-20.9139369,-41.1947519,349,2923.92761
D1,Atilio Vivacqua/ES,-20.9139369,-41.1947519,6,50.26810
1,Augustinópolis/TO,-5.4662267,-47.8897519,637,3459.70020
D1,Augustinópolis/TO,-5.4662267,-47.8897519,8,43.44992
1,Augusto Corrêa/PA,-1.0229335,-46.6404029,1294,2813.16579
D1,Augusto Corrêa/PA,-1.0229335,-46.6404029,20,43.48015
1,Augusto Pestana/RS,-28.5148413,-53.9906433,11,165.14037
1,Augusto de Lima/MG,-18.1092963,-44.2651945,38,780.44773
1,Aurelino Leal/BA,-14.3167137,-39.3256107,403,3494.92672
D1,Aurelino Leal/BA,-14.3167137,-39.3256107,7,60.70592
1,Auriflama/SP,-20.6840418,-50.5554616,327,2152.87379
D1,Auriflama/SP,-20.6840418,-50.5554616,9,59.25341
1,Aurilândia/GO,-16.6772599,-50.4641231,57,1826.92308
1,Aurora do Pará/PA,-2.1323199,-47.558436,631,2013.52990
D1,Aurora do Pará/PA,-2.1323199,-47.558436,7,22.33710
1,Aurora do Tocantins/TO,-12.71045,-46.407604,32,851.74341
1,Aurora/CE,-6.9426019,-38.9693765,389,1577.83727
D1,Aurora/CE,-6.9426019,-38.9693765,17,68.95433
1,Aurora/SC,-27.3166417,-49.6368502,73,1285.43758
1,Autazes/AM,-3.5833283,-59.1301518,1304,3295.84228
D1,Autazes/AM,-3.5833283,-59.1301518,36,90.98951
1,Avanhandava/SP,-21.4603331,-49.9465156,188,1377.39029
D1,Avanhandava/SP,-21.4603331,-49.9465156,4,29.30618
1,Avaré/SP,-23.1045215,-48.9259103,651,718.10711
D1,Avaré/SP,-23.1045215,-48.9259103,17,18.75241
1,Avaí/SP,-22.1564662,-49.3316395,84,1554.69184
D1,Avaí/SP,-22.1564662,-49.3316395,1,18.50824
1,Aveiro/PA,-3.6049239,-55.3310742,432,2636.07518
D1,Aveiro/PA,-3.6049239,-55.3310742,5,30.51013
1,Avelino Lopes/PI,-10.1346855,-43.9489525,31,274.60360
D1,Avelino Lopes/PI,-10.1346855,-43.9489525,4,35.43272
1,Avelinópolis/GO,-16.4672409,-49.7578661,93,3847.74514
D1,Avelinópolis/GO,-16.4672409,-49.7578661,1,41.37360
1,Axixá do Tocantins/TO,-5.612747,-47.77007,340,3485.03485
D1,Axixá do Tocantins/TO,-5.612747,-47.77007,3,30.75031
1,Axixá/MA,-2.8379465,-44.0561053,138,1137.67519
D1,Axixá/MA,-2.8379465,-44.0561053,3,24.73207
1,Açailândia/MA,-4.9514278,-47.4844564,3340,2970.34106
D1,Açailândia/MA,-4.9514278,-47.4844564,84,74.70319
1,Açu/RN,-5.5836157,-36.9139541,1516,2613.02722
D1,Açu/RN,-5.5836157,-36.9139541,55,94.79980
1,Açucena/MG,-19.073056,-42.546666,75,791.97466
D1,Açucena/MG,-19.073056,-42.546666,2,21.11932
1,Babaçulândia/TO,-7.2034355,-47.761613,226,2119.27982
D1,Babaçulândia/TO,-7.2034355,-47.761613,2,18.75469
1,Bacabal/MA,-4.2318132,-44.781167,3333,3175.82826
D1,Bacabal/MA,-4.2318132,-44.781167,54,51.45356
1,Bacabeira/MA,-2.9775747,-44.3155943,152,891.23424
D1,Bacabeira/MA,-2.9775747,-44.3155943,2,11.72677
1,Bacuri/MA,-1.728894,-45.1417148,416,2238.72565
D1,Bacuri/MA,-1.728894,-45.1417148,3,16.14466
1,Bacurituba/MA,-2.7082587,-44.7381309,54,956.76825
1,Bady Bassitt/SP,-20.9178969,-49.4517911,774,4422.35173
D1,Bady Bassitt/SP,-20.9178969,-49.4517911,20,114.27265
1,Baependi/MG,-21.959162,-44.8899249,78,407.35325
D1,Baependi/MG,-21.959162,-44.8899249,1,5.22248
1,Bagre/PA,-1.8994498,-50.2103844,388,1264.95615
D1,Bagre/PA,-1.8994498,-50.2103844,10,32.60196
1,Bagé/RS,-31.3314264,-54.1062808,994,820.51790
D1,Bagé/RS,-31.3314264,-54.1062808,13,10.73112
1,Baianópolis/BA,-12.3067564,-44.5383591,90,648.55516
D1,Baianópolis/BA,-12.3067564,-44.5383591,1,7.20617
1,Baixa Grande do Ribeiro/PI,-7.862861,-45.2113289,1227,10590.36769
D1,Baixa Grande do Ribeiro/PI,-7.862861,-45.2113289,9,77.67996
1,Baixa Grande/BA,-11.9630941,-40.1657537,33,161.22728
D1,Baixa Grande/BA,-11.9630941,-40.1657537,2,9.77135
1,Baixio/CE,-6.7303544,-38.7170095,96,1526.71756
D1,Baixio/CE,-6.7303544,-38.7170095,1,15.90331
1,Baixo Guandu/ES,-19.5138322,-41.0182089,733,2364.66869
D1,Baixo Guandu/ES,-19.5138322,-41.0182089,18,58.06826
1,Baião/PA,-2.7903479,-49.6702845,377,794.58753
D1,Baião/PA,-2.7903479,-49.6702845,13,27.39957
1,Balbinos/SP,-21.9006253,-49.3583966,96,1673.93200
D1,Balbinos/SP,-21.9006253,-49.3583966,3,52.31037
1,Baldim/MG,-19.2913568,-43.9558262,36,460.00511
D1,Baldim/MG,-19.2913568,-43.9558262,5,63.88960
1,Baliza/GO,-16.1978119,-52.542789,22,428.18217
1,Balneário Arroio do Silva/SC,-28.9815269,-49.4189932,411,3144.36539
D1,Balneário Arroio do Silva/SC,-28.9815269,-49.4189932,6,45.90314
1,Balneário Barra do Sul/SC,-26.459842,-48.6061471,489,4529.87494
D1,Balneário Barra do Sul/SC,-26.459842,-48.6061471,7,64.84484
1,Balneário Camboriú/SC,-26.9924395,-48.6339782,7178,5044.44991
D1,Balneário Camboriú/SC,-26.9924395,-48.6339782,90,63.24888
1,Balneário Gaivota/SC,-29.1553098,-49.5808712,167,1521.08571
D1,Balneário Gaivota/SC,-29.1553098,-49.5808712,7,63.75808
1,Balneário Pinhal/RS,-30.2482978,-50.234585,189,1343.47455
D1,Balneário Pinhal/RS,-30.2482978,-50.234585,3,21.32499
1,Balneário Piçarras/SC,-26.7638889,-48.6716667,819,3538.25550
D1,Balneário Piçarras/SC,-26.7638889,-48.6716667,9,38.88193
1,Balneário Rincão/SC,-28.8235718,-49.2241642,380,2978.05643
D1,Balneário Rincão/SC,-28.8235718,-49.2241642,10,78.36991
1,Balsa Nova/PR,-25.5842234,-49.6312741,217,1676.84105
D1,Balsa Nova/PR,-25.5842234,-49.6312741,5,38.63689
1,Balsas/MA,-7.53214,-46.037163,6249,6585.72829
D1,Balsas/MA,-7.53214,-46.037163,56,59.01757
1,Bambuí/MG,-20.0131996,-45.9777034,60,251.79403
1,Banabuiú/CE,-5.3046404,-38.919766,552,3033.46706
D1,Banabuiú/CE,-5.3046404,-38.919766,4,21.98165
1,Bananal/SP,-22.6828195,-44.3221095,138,1260.84970
D1,Bananal/SP,-22.6828195,-44.3221095,1,9.13659
1,Bananeiras/PB,-6.7537682,-35.6338343,426,1998.31129
D1,Bananeiras/PB,-6.7537682,-35.6338343,2,9.38174
1,Bandeira do Sul/MG,-21.728056,-46.385555,29,504.69892
1,Bandeira/MG,-15.884444,-40.559167,198,4129.30136
D1,Bandeira/MG,-15.884444,-40.559167,1,20.85506
1,Bandeirante/SC,-26.7677402,-53.6397596,10,373.41299
1,Bandeirantes do Tocantins/TO,-7.7635698,-48.579148,46,1294.68055
D1,Bandeirantes do Tocantins/TO,-7.7635698,-48.579148,1,28.14523
1,Bandeirantes/MS,-19.9179623,-54.3646768,70,1031.23159
1,Bandeirantes/PR,-23.107788,-50.370407,805,2566.39143
D1,Bandeirantes/PR,-23.107788,-50.370407,22,70.13741
1,Bannach/PA,-7.3508505,-50.4064531,112,3408.39927
D1,Bannach/PA,-7.3508505,-50.4064531,2,60.86427
1,Banzaê/BA,-10.5827616,-38.6122305,268,2025.85229
1,Baraúna/PB,-6.643394,-36.2531932,143,2923.13982
1,Baraúna/RN,-5.0775002,-37.61752,504,1776.27405
D1,Baraúna/RN,-5.0775002,-37.61752,13,45.81659
1,Barbacena/MG,-21.2254524,-43.7735087,875,637.23027
D1,Barbacena/MG,-21.2254524,-43.7735087,14,10.19568
1,Barbalha/CE,-7.3121067,-39.3036427,1971,3242.78969
D1,Barbalha/CE,-7.3121067,-39.3036427,54,88.84355
1,Barbosa Ferraz/PR,-24.0287182,-52.00811,154,1331.25864
D1,Barbosa Ferraz/PR,-24.0287182,-52.00811,4,34.57815
1,Barbosa/SP,-21.265661,-49.951816,108,1459.06512
D1,Barbosa/SP,-21.265661,-49.951816,1,13.50986
1,Barcarena/PA,-1.5107945,-48.6190679,4415,3541.06513
D1,Barcarena/PA,-1.5107945,-48.6190679,109,87.42380
1,Barcelona/RN,-5.9514918,-35.9260284,33,825.41271
D1,Barcelona/RN,-5.9514918,-35.9260284,2,50.02501
1,Barcelos/AM,-0.9729214,-62.925635,2620,9526.57989
D1,Barcelos/AM,-0.9729214,-62.925635,25,90.90248
1,Bariri/SP,-22.0746355,-48.7394852,716,2030.39927
D1,Bariri/SP,-22.0746355,-48.7394852,15,42.53630
1,Barra Bonita/SC,-26.6526364,-53.4419581,3,178.89088
1,Barra Bonita/SP,-22.490859,-48.558349,780,2159.10978
D1,Barra Bonita/SP,-22.490859,-48.558349,18,49.82561
1,Barra D'Alcântara/PI,-6.5209258,-42.1071089,12,303.72058
D1,Barra D'Alcântara/PI,-6.5209258,-42.1071089,1,25.31005
1,Barra Funda/RS,-27.9230048,-53.0401045,101,3977.94407
D1,Barra Funda/RS,-27.9230048,-53.0401045,3,118.15675
1,Barra Longa/MG,-20.2833541,-43.0423516,70,1364.25648
1,Barra Mansa/RJ,-22.5394843,-44.1735129,2658,1441.33787
D1,Barra Mansa/RJ,-22.5394843,-44.1735129,151,81.88187
1,Barra Velha/SC,-26.6338203,-48.6835001,779,2670.73505
D1,Barra Velha/SC,-26.6338203,-48.6835001,16,54.85464
1,Barra da Estiva/BA,-13.6269662,-41.3278287,17,82.53228
1,Barra de Guabiraba/PE,-8.4173522,-35.6626669,189,1313.86861
D1,Barra de Guabiraba/PE,-8.4173522,-35.6626669,11,76.46854
1,Barra de Santa Rosa/PB,-6.7218007,-36.0564638,116,754.03016
D1,Barra de Santa Rosa/PB,-6.7218007,-36.0564638,1,6.50026
1,Barra de Santana/PB,-7.5230865,-35.9988518,99,1184.35220
D1,Barra de Santana/PB,-7.5230865,-35.9988518,3,35.88946
1,Barra de Santo Antônio/AL,-9.4038098,-35.5117693,130,815.96786
D1,Barra de Santo Antônio/AL,-9.4038098,-35.5117693,11,69.04343
1,Barra de São Francisco/ES,-18.7570902,-40.8916119,812,1818.58903
D1,Barra de São Francisco/ES,-18.7570902,-40.8916119,28,62.70997
1,Barra de São Miguel/AL,-9.8261357,-35.8837777,144,1730.35328
D1,Barra de São Miguel/AL,-9.8261357,-35.8837777,5,60.08171
1,Barra de São Miguel/PB,-7.7528088,-36.3170996,67,1110.00663
D1,Barra de São Miguel/PB,-7.7528088,-36.3170996,2,33.13453
1,Barra do Bugres/MT,-15.0683712,-57.1853688,923,2639.70714
D1,Barra do Bugres/MT,-15.0683712,-57.1853688,20,57.19842
1,Barra do Chapéu/SP,-24.472203,-49.023784,47,821.10412
1,Barra do Choça/BA,-14.8638173,-40.5761637,414,1310.00221
D1,Barra do Choça/BA,-14.8638173,-40.5761637,5,15.82128
1,Barra do Corda/MA,-5.496823,-45.248496,3827,4338.41201
D1,Barra do Corda/MA,-5.496823,-45.248496,34,38.54351
1,Barra do Garças/MT,-15.8916033,-52.2615413,2266,3714.02347
D1,Barra do Garças/MT,-15.8916033,-52.2615413,96,157.34610
1,Barra do Guarita/RS,-27.1888016,-53.7147086,60,1847.29064
1,Barra do Jacaré/PR,-23.1151788,-50.1813945,15,539.37433
1,Barra do Mendes/BA,-11.8053298,-42.057037,18,129.82330
1,Barra do Ouro/TO,-7.7113784,-47.6743925,50,1089.08734
D1,Barra do Ouro/TO,-7.7113784,-47.6743925,4,87.12699
1,Barra do Piraí/RJ,-22.4703403,-43.8263256,1086,1081.95349
D1,Barra do Piraí/RJ,-22.4703403,-43.8263256,54,53.79879
1,Barra do Quaraí/RS,-30.208947,-57.5505128,64,1518.38671
D1,Barra do Quaraí/RS,-30.208947,-57.5505128,1,23.72479
1,Barra do Ribeiro/RS,-30.2930206,-51.301437,118,874.65718
D1,Barra do Ribeiro/RS,-30.2930206,-51.301437,13,96.36054
1,Barra do Rio Azul/RS,-27.4101581,-52.4117471,8,473.37278
1,Barra do Rocha/BA,-14.2090974,-39.6004395,104,1820.09100
1,Barra do Turvo/SP,-24.756421,-48.5056942,105,1370.93615
D1,Barra do Turvo/SP,-24.756421,-48.5056942,4,52.22614
1,Barra dos Coqueiros/SE,-10.9075694,-37.0386249,1166,3834.64334
D1,Barra dos Coqueiros/SE,-10.9075694,-37.0386249,22,72.35176
1,Barra/BA,-11.0892702,-43.1420453,234,436.74643
D1,Barra/BA,-11.0892702,-43.1420453,5,9.33219
1,Barracão/PR,-26.252395,-53.6349576,84,817.51825
D1,Barracão/PR,-26.252395,-53.6349576,2,19.46472
1,Barracão/RS,-27.6728964,-51.4582928,75,1421.80095
D1,Barracão/RS,-27.6728964,-51.4582928,3,56.87204
1,Barras/PI,-4.2446153,-42.2920241,2575,5471.04067
D1,Barras/PI,-4.2446153,-42.2920241,54,114.73250
1,Barreira/CE,-4.2883361,-38.641094,323,1440.35674
D1,Barreira/CE,-4.2883361,-38.641094,19,84.72687
1,Barreiras do Piauí/PI,-9.9224524,-45.4763776,27,806.45161
1,Barreiras/BA,-12.1440031,-44.9967406,4723,3038.49098
D1,Barreiras/BA,-12.1440031,-44.9967406,78,50.18046
1,Barreirinha/AM,-2.798863,-57.067897,974,3039.85519
D1,Barreirinha/AM,-2.798863,-57.067897,12,37.45201
1,Barreirinhas/MA,-2.7541271,-42.8259693,973,1556.10287
D1,Barreirinhas/MA,-2.7541271,-42.8259693,23,36.78352
1,Barreiros/PE,-8.8159644,-35.1831905,329,771.23233
D1,Barreiros/PE,-8.8159644,-35.1831905,41,96.11102
1,Barretos/SP,-20.5531437,-48.5697509,4190,3431.66964
D1,Barretos/SP,-20.5531437,-48.5697509,122,99.91974
1,Barrinha/SP,-21.1898849,-48.1550642,704,2145.55650
D1,Barrinha/SP,-21.1898849,-48.1550642,26,79.23930
1,Barro Alto/BA,-11.7618025,-41.9094904,74,495.61315
D1,Barro Alto/BA,-11.7618025,-41.9094904,1,6.69748
1,Barro Alto/GO,-14.9696025,-48.9190985,321,2874.54106
D1,Barro Alto/GO,-14.9696025,-48.9190985,3,26.86487
1,Barro Duro/PI,-5.8180139,-42.5106589,421,5986.91695
D1,Barro Duro/PI,-5.8180139,-42.5106589,6,85.32423
1,Barro Preto/BA,-14.8068289,-39.4727588,237,4238.95546
D1,Barro Preto/BA,-14.8068289,-39.4727588,5,89.42944
1,Barro/CE,-7.1713587,-38.7742136,224,987.65432
D1,Barro/CE,-7.1713587,-38.7742136,9,39.68254
1,Barrocas/BA,-11.5165,-39.099282894736845,133,832.39454
1,Barrolândia/TO,-9.837246,-48.7264346,111,1970.88068
D1,Barrolândia/TO,-9.837246,-48.7264346,1,17.75568
1,Barroquinha/CE,-3.0200371,-41.1339229,767,5107.54478
D1,Barroquinha/CE,-3.0200371,-41.1339229,17,113.20503
1,Barros Cassal/RS,-29.094938,-52.5832366,23,205.37548
D1,Barros Cassal/RS,-29.094938,-52.5832366,1,8.92937
1,Barroso/MG,-21.187222,-43.976111,157,754.44498
D1,Barroso/MG,-21.187222,-43.976111,2,9.61076
1,Barueri/SP,-23.5112184,-46.8764612,6385,2328.74514
D1,Barueri/SP,-23.5112184,-46.8764612,363,132.39381
1,Barão de Antonina/SP,-23.6295651,-49.5632104,20,576.53502
1,Barão de Cocais/MG,-19.9452437,-43.4870298,484,1489.91842
D1,Barão de Cocais/MG,-19.9452437,-43.4870298,3,9.23503
1,Barão de Cotegipe/RS,-27.6214694,-52.3765316,113,1706.17545
D1,Barão de Cotegipe/RS,-27.6214694,-52.3765316,3,45.29669
1,Barão de Grajaú/MA,-6.7542591,-43.0263477,18,95.64293
D1,Barão de Grajaú/MA,-6.7542591,-43.0263477,1,5.31350
1,Barão de Melgaço/MT,-16.195776,-55.9668049,105,1226.06259
D1,Barão de Melgaço/MT,-16.195776,-55.9668049,5,58.38393
1,Barão de Monte Alto/MG,-21.244722,-42.2375,54,1000.55586
D1,Barão de Monte Alto/MG,-21.244722,-42.2375,2,37.05762
1,Barão do Triunfo/RS,-30.3909877,-51.7375349,93,1242.15307
D1,Barão do Triunfo/RS,-30.3909877,-51.7375349,1,13.35648
1,Barão/RS,-29.372474,-51.494908,74,1199.15735
D1,Barão/RS,-29.372474,-51.494908,2,32.40966
1,Bastos/SP,-21.9222474,-50.7317727,68,324.53587
D1,Bastos/SP,-21.9222474,-50.7317727,2,9.54517
1,Bataguassu/MS,-21.715899,-52.422058,798,3465.94858
D1,Bataguassu/MS,-21.715899,-52.422058,7,30.40306
1,Batalha/AL,-9.6733809,-37.1265481,585,3208.64414
D1,Batalha/AL,-9.6733809,-37.1265481,7,38.39403
1,Batalha/PI,-4.022391,-42.0780926,411,1530.32729
D1,Batalha/PI,-4.022391,-42.0780926,9,33.51082
1,Batatais/SP,-20.892867,-47.592149,621,993.47284
D1,Batatais/SP,-20.892867,-47.592149,20,31.99590
1,Batayporã/MS,-22.2976466,-53.2685608,160,1412.30470
D1,Batayporã/MS,-22.2976466,-53.2685608,4,35.30762
1,Baturité/CE,-4.3290203,-38.8821055,576,1611.18881
D1,Baturité/CE,-4.3290203,-38.8821055,31,86.71329
1,Bauru/SP,-22.3218102,-49.0705863,10219,2711.91928
D1,Bauru/SP,-22.3218102,-49.0705863,185,49.09532
1,Bayeux/PB,-7.1301631,-34.936532,1887,1947.77044
D1,Bayeux/PB,-7.1301631,-34.936532,103,106.31709
1,Baía Formosa/RN,-6.3691885,-35.0063741,89,959.98274
D1,Baía Formosa/RN,-6.3691885,-35.0063741,5,53.93161
1,Baía da Traição/PB,-6.691258,-34.9371244,688,7650.39475
D1,Baía da Traição/PB,-6.691258,-34.9371244,6,66.71856
1,Bebedouro/SP,-20.949077,-48.479083,1065,1374.26448
D1,Bebedouro/SP,-20.949077,-48.479083,24,30.96934
1,Beberibe/CE,-4.1810469,-38.1298101,792,1478.35663
D1,Beberibe/CE,-4.1810469,-38.1298101,29,54.13175
1,Bela Cruz/CE,-3.0529129,-40.167582,1211,3715.74975
D1,Bela Cruz/CE,-3.0529129,-40.167582,23,70.57163
1,Bela Vista da Caroba/PR,-25.8792818,-53.6672545,19,541.15637
1,Bela Vista de Goiás/GO,-16.9692949,-48.9513071,772,2575.47957
D1,Bela Vista de Goiás/GO,-16.9692949,-48.9513071,11,36.69725
1,Bela Vista de Minas/MG,-19.8289721,-43.0973688,52,507.06972
D1,Bela Vista de Minas/MG,-19.8289721,-43.0973688,1,9.75134
1,Bela Vista do Maranhão/MA,-3.7416367,-45.2514192,128,1141.93951
D1,Bela Vista do Maranhão/MA,-3.7416367,-45.2514192,4,35.68561
1,Bela Vista do Paraíso/PR,-22.9948493,-51.1907996,170,1104.11119
D1,Bela Vista do Paraíso/PR,-22.9948493,-51.1907996,4,25.97909
1,Bela Vista do Piauí/PI,-7.9716353,-41.8715061,40,996.26401
D1,Bela Vista do Piauí/PI,-7.9716353,-41.8715061,1,24.90660
1,Bela Vista do Toldo/SC,-26.274625,-50.466354,6,94.68203
1,Bela Vista/MS,-22.107327,-56.5317344,46,186.77169
D1,Bela Vista/MS,-22.107327,-56.5317344,2,8.12051
1,Belford Roxo/RJ,-22.7667284,-43.4033603,9124,1785.84710
D1,Belford Roxo/RJ,-22.7667284,-43.4033603,284,55.58752
1,Belmiro Braga/MG,-21.9486291,-43.413564,15,437.44532
D1,Belmiro Braga/MG,-21.9486291,-43.413564,2,58.32604
1,Belmonte/BA,-15.8630837,-38.8792845,459,1967.59259
D1,Belmonte/BA,-15.8630837,-38.8792845,3,12.86008
1,Belmonte/SC,-26.8448262,-53.578916,5,184.77458
1,Belo Campo/BA,-15.0338286,-41.2585109,58,336.99378
D1,Belo Campo/BA,-15.0338286,-41.2585109,1,5.81024
1,Belo Horizonte/MG,-19.9227318,-43.9450948,41091,1635.74263
D1,Belo Horizonte/MG,-19.9227318,-43.9450948,1199,47.72956
1,Belo Jardim/PE,-8.3338293,-36.4176419,1148,1501.85115
D1,Belo Jardim/PE,-8.3338293,-36.4176419,35,45.78814
1,Belo Monte/AL,-9.8269944,-37.2787165,157,2341.88544
D1,Belo Monte/AL,-9.8269944,-37.2787165,3,44.74940
1,Belo Oriente/MG,-19.2232523,-42.4807033,588,2202.24719
D1,Belo Oriente/MG,-19.2232523,-42.4807033,10,37.45318
1,Belo Vale/MG,-20.407778,-44.024167,78,1011.01750
D1,Belo Vale/MG,-20.407778,-44.024167,4,51.84705
1,Belterra/PA,-2.636091,-54.937392,421,2374.23866
D1,Belterra/PA,-2.636091,-54.937392,14,78.95330
1,Belágua/MA,-3.1604031,-43.5085052,252,3373.94564
D1,Belágua/MA,-3.1604031,-43.5085052,1,13.38867
1,Belém de Maria/PE,-8.6242497,-35.8388934,96,795.16276
D1,Belém de Maria/PE,-8.6242497,-35.8388934,3,24.84884
1,Belém do Brejo do Cruz/PB,-6.1880727,-37.5332267,128,1743.39417
D1,Belém do Brejo do Cruz/PB,-6.1880727,-37.5332267,2,27.24053
1,Belém do Piauí/PI,-7.3767305,-40.9712156,97,2720.13460
D1,Belém do Piauí/PI,-7.3767305,-40.9712156,3,84.12787
1,Belém do São Francisco/PE,-8.7517707,-38.9625715,127,612.66824
1,Belém/AL,-9.5715351,-36.492841,55,1266.11418
D1,Belém/AL,-9.5715351,-36.492841,1,23.02026
1,Belém/PA,-1.45056,-48.4682453,36601,2451.92581
D1,Belém/PA,-1.45056,-48.4682453,2180,146.03968
1,Belém/PB,-6.6967586,-35.5369626,1091,6172.21091
D1,Belém/PB,-6.6967586,-35.5369626,15,84.86083
1,Beneditinos/PI,-5.4565671,-42.3605061,265,2531.76650
D1,Beneditinos/PI,-5.4565671,-42.3605061,8,76.43069
1,Benedito Leite/MA,-7.2173453,-44.5523331,191,3391.33523
D1,Benedito Leite/MA,-7.2173453,-44.5523331,1,17.75568
1,Benedito Novo/SC,-26.7840657,-49.3629511,147,1261.58599
D1,Benedito Novo/SC,-26.7840657,-49.3629511,2,17.16444
1,Benevides/PA,-1.3555577,-48.252235,1551,2472.22532
D1,Benevides/PA,-1.3555577,-48.252235,48,76.50987
1,Benjamin Constant do Sul/RS,-27.5105555,-52.6007689,96,4814.44333
1,Benjamin Constant/AM,-4.3782748,-70.0290603,1588,3694.39792
D1,Benjamin Constant/AM,-4.3782748,-70.0290603,40,93.05788
1,Bento Fernandes/RN,-5.6926846,-35.8207423,27,491.17701
D1,Bento Fernandes/RN,-5.6926846,-35.8207423,2,36.38348
1,Bento Gonçalves/RS,-29.1654014,-51.5197627,3624,3008.61740
D1,Bento Gonçalves/RS,-29.1654014,-51.5197627,111,92.15136
1,Bento de Abreu/SP,-21.2707225,-50.8120444,39,1308.72483
1,Bequimão/MA,-2.4495376,-44.7884889,234,1099.62406
D1,Bequimão/MA,-2.4495376,-44.7884889,11,51.69173
1,Berilo/MG,-16.9515764,-42.4643732,5,41.90412
1,Berizal/MG,-15.6118785,-41.7417382,7,147.83527
1,Bernardino Batista/PB,-6.4532173,-38.5495418,66,1885.17566
1,Bernardino de Campos/SP,-23.0140216,-49.4760724,100,897.02189
D1,Bernardino de Campos/SP,-23.0140216,-49.4760724,3,26.91066
1,Bernardo Sayão/TO,-7.8794244,-48.8968905,39,874.63557
D1,Bernardo Sayão/TO,-7.8794244,-48.8968905,3,67.27966
1,Bernardo do Mearim/MA,-4.6315929,-44.7617508,102,1687.90336
D1,Bernardo do Mearim/MA,-4.6315929,-44.7617508,3,49.64422
1,Bertioga/SP,-23.848568,-46.139586,1790,2830.08427
D1,Bertioga/SP,-23.848568,-46.139586,41,64.82316
1,Bertolínia/PI,-7.6372159,-43.9540611,343,6235.22996
D1,Bertolínia/PI,-7.6372159,-43.9540611,4,72.71405
1,Bertópolis/MG,-17.063333,-40.573889,30,651.60730
1,Beruri/AM,-3.9007135,-61.3717319,813,4131.30749
D1,Beruri/AM,-3.9007135,-61.3717319,10,50.81559
1,Betim/MG,-19.968056,-44.198333,5759,1310.82988
D1,Betim/MG,-19.968056,-44.198333,199,45.29522
1,Betânia do Piauí/PI,-8.1460635,-40.7961387,29,467.36503
D1,Betânia do Piauí/PI,-8.1460635,-40.7961387,1,16.11604
1,Betânia/PE,-8.2742779,-38.0351767,76,597.53125
D1,Betânia/PE,-8.2742779,-38.0351767,2,15.72451
1,Bezerros/PE,-8.2372132,-35.7558262,1094,1799.40130
D1,Bezerros/PE,-8.2372132,-35.7558262,49,80.59476
1,Bias Fortes/MG,-21.605833,-43.756944,15,443.91832
1,Bicas/MG,-21.7213723,-43.0604327,67,462.26025
D1,Bicas/MG,-21.7213723,-43.0604327,1,6.89941
1,Biguaçu/SC,-27.4961277,-48.6542432,2043,2983.30924
D1,Biguaçu/SC,-27.4961277,-48.6542432,33,48.18855
1,Bilac/SP,-21.403962,-50.47464,88,1095.34478
D1,Bilac/SP,-21.403962,-50.47464,2,24.89420
1,Biquinhas/MG,-18.783611,-45.502222,28,1113.32008
1,Birigui/SP,-21.2908491,-50.34144,2045,1654.02223
D1,Birigui/SP,-21.2908491,-50.34144,66,53.38165
1,Biritiba-Mirim/SP,-23.5697765,-46.0407456,398,1220.93380
D1,Biritiba-Mirim/SP,-23.5697765,-46.0407456,25,76.69182
1,Biritinga/BA,-11.6227908,-38.8066738,84,525.68997
D1,Biritinga/BA,-11.6227908,-38.8066738,1,6.25821
1,Bituruna/PR,-26.161281,-51.5533319,43,262.37110
D1,Bituruna/PR,-26.161281,-51.5533319,1,6.10165
1,Blumenau/SC,-26.9195567,-49.0658025,11708,3277.72474
D1,Blumenau/SC,-26.9195567,-49.0658025,151,42.27335
1,Boa Esperança do Iguaçu/PR,-25.6362851,-53.2139114,37,1478.22613
1,Boa Esperança do Sul/SP,-21.9930206,-48.3917372,169,1132.48006
D1,Boa Esperança do Sul/SP,-21.9930206,-48.3917372,6,40.20639
1,Boa Esperança/ES,-18.5395472,-40.2904088,363,2414.04535
D1,Boa Esperança/ES,-18.5395472,-40.2904088,16,106.40420
1,Boa Esperança/MG,-21.0901253,-45.5660195,204,508.38587
D1,Boa Esperança/MG,-21.0901253,-45.5660195,11,27.41296
1,Boa Esperança/PR,-24.2411024,-52.7860277,35,852.61876
1,Boa Hora/PI,-4.4094627,-42.1255341,100,1474.70875
1,Boa Nova/BA,-14.365907,-40.2063056,158,1250.69263
D1,Boa Nova/BA,-14.365907,-40.2063056,3,23.74733
1,Boa Ventura de São Roque/PR,-24.88177,-51.5441292,3,46.97041
1,Boa Ventura/PB,-7.4202462,-38.2156782,88,1639.95527
D1,Boa Ventura/PB,-7.4202462,-38.2156782,2,37.27171
1,Boa Viagem/CE,-5.1261877,-39.7300055,1044,1916.65137
D1,Boa Viagem/CE,-5.1261877,-39.7300055,27,49.56857
1,Boa Vista da Aparecida/PR,-25.4357216,-53.4067721,128,1686.20735
D1,Boa Vista da Aparecida/PR,-25.4357216,-53.4067721,3,39.52048
1,Boa Vista das Missões/RS,-27.6677983,-53.3127622,3,142.99333
1,Boa Vista do Buricá/RS,-27.6687782,-54.1111913,80,1191.89511
1,Boa Vista do Cadeado/RS,-28.5783827,-53.8123759,6,242.91498
1,Boa Vista do Gurupi/MA,-1.7981168,-46.3071882,13,139.98062
D1,Boa Vista do Gurupi/MA,-1.7981168,-46.3071882,3,32.30322
1,Boa Vista do Incra/RS,-28.8195551,-53.3866624,18,691.50980
1,Boa Vista do Ramos/AM,-2.9716927,-57.5869819,363,1889.93596
D1,Boa Vista do Ramos/AM,-2.9716927,-57.5869819,2,10.41287
1,Boa Vista do Sul/RS,-29.3510488,-51.6779679,59,2120.01437
D1,Boa Vista do Sul/RS,-29.3510488,-51.6779679,1,35.93245
1,Boa Vista do Tupim/BA,-12.6605988,-40.6083594,98,527.56245
D1,Boa Vista do Tupim/BA,-12.6605988,-40.6083594,1,5.38329
1,Boa Vista/PB,-7.2620711,-36.2415161,139,1971.35158
D1,Boa Vista/PB,-7.2620711,-36.2415161,1,14.18239
1,Boa Vista/RR,2.8208478,-60.6719582,36731,9200.85268
D1,Boa Vista/RR,2.8208478,-60.6719582,480,120.23657
1,Boca da Mata/AL,-9.6452054,-36.2116658,1246,4567.28126
D1,Boca da Mata/AL,-9.6452054,-36.2116658,23,84.30776
1,Boca do Acre/AM,-8.7553487,-67.3930873,1298,3783.37414
D1,Boca do Acre/AM,-8.7553487,-67.3930873,13,37.89204
1,Bocaina de Minas/MG,-22.167778,-44.394722,14,275.04912
1,Bocaina do Sul/SC,-27.745494,-49.942279,28,805.98733
D1,Bocaina do Sul/SC,-27.745494,-49.942279,2,57.57052
1,Bocaina/PI,-6.9445939,-41.3224599,130,2888.88889
D1,Bocaina/PI,-6.9445939,-41.3224599,1,22.22222
1,Bocaina/SP,-22.1421831,-48.522276,124,1005.75878
D1,Bocaina/SP,-22.1421831,-48.522276,3,24.33287
1,Bocaiúva do Sul/PR,-25.206591,-49.114131,208,1606.92213
D1,Bocaiúva do Sul/PR,-25.206591,-49.114131,3,23.17676
1,Bocaiúva/MG,-17.1160208,-43.8122678,300,600.25211
D1,Bocaiúva/MG,-17.1160208,-43.8122678,3,6.00252
1,Bodocó/PE,-7.777592,-39.933797,253,663.24123
D1,Bodocó/PE,-7.777592,-39.933797,8,20.97205
1,Bodoquena/MS,-20.5508775,-56.6769653,27,342.85714
D1,Bodoquena/MS,-20.5508775,-56.6769653,1,12.69841
1,Bodó/RN,-5.9866104,-36.4134824,9,404.85830
1,Bofete/SP,-23.1019554,-48.2610535,145,1236.14663
D1,Bofete/SP,-23.1019554,-48.2610535,3,25.57545
1,Boituva/SP,-23.2838893,-47.6738231,947,1552.53537
D1,Boituva/SP,-23.2838893,-47.6738231,16,26.23080
1,Bom Conselho/PE,-9.169191,-36.685683,698,1437.57466
D1,Bom Conselho/PE,-9.169191,-36.685683,23,47.36994
1,Bom Despacho/MG,-19.7375242,-45.2517288,550,1086.84913
D1,Bom Despacho/MG,-19.7375242,-45.2517288,15,29.64134
1,Bom Jardim da Serra/SC,-28.3380324,-49.625588,102,2150.53763
D1,Bom Jardim da Serra/SC,-28.3380324,-49.625588,1,21.08370
1,Bom Jardim de Goiás/GO,-16.2062659,-52.172793,147,1662.70784
D1,Bom Jardim de Goiás/GO,-16.2062659,-52.172793,2,22.62188
1,Bom Jardim de Minas/MG,-21.9476466,-44.1906033,12,185.35681
1,Bom Jardim/MA,-3.54129,-45.606004,927,2226.75955
D1,Bom Jardim/MA,-3.54129,-45.606004,25,60.05285
1,Bom Jardim/PE,-7.7961572,-35.5871696,686,1750.71458
D1,Bom Jardim/PE,-7.7961572,-35.5871696,31,79.11392
1,Bom Jardim/RJ,-22.1515328,-42.4186683,180,655.83327
D1,Bom Jardim/RJ,-22.1515328,-42.4186683,4,14.57407
1,Bom Jesus da Lapa/BA,-13.250571,-43.410754,436,630.53161
D1,Bom Jesus da Lapa/BA,-13.250571,-43.410754,2,2.89235
1,Bom Jesus da Penha/MG,-21.0165299,-46.5226644,81,1920.79677
1,Bom Jesus da Serra/BA,-14.3724084,-40.5047119,102,1032.38866
1,Bom Jesus das Selvas/MA,-4.4878075,-46.8526639,1650,4848.94793
D1,Bom Jesus das Selvas/MA,-4.4878075,-46.8526639,11,32.32632
1,Bom Jesus de Goiás/GO,-18.2174587,-49.739721,853,3382.77284
D1,Bom Jesus de Goiás/GO,-18.2174587,-49.739721,18,71.38325
1,Bom Jesus do Amparo/MG,-19.7045132,-43.4752911,26,427.42068
D1,Bom Jesus do Amparo/MG,-19.7045132,-43.4752911,1,16.43926
1,Bom Jesus do Araguaia/MT,-12.1725897,-51.5074425,117,1778.11550
1,Bom Jesus do Galho/MG,-19.8283191,-42.3162256,114,763.30767
D1,Bom Jesus do Galho/MG,-19.8283191,-42.3162256,5,33.47841
1,Bom Jesus do Itabapoana/RJ,-21.1341025,-41.680095,774,2086.47833
D1,Bom Jesus do Itabapoana/RJ,-21.1341025,-41.680095,21,56.60988
1,Bom Jesus do Norte/ES,-21.1254776,-41.6711646,312,3140.09662
D1,Bom Jesus do Norte/ES,-21.1254776,-41.6711646,7,70.45089
1,Bom Jesus do Oeste/SC,-26.6929713,-53.0967453,23,1073.76284
D1,Bom Jesus do Oeste/SC,-26.6929713,-53.0967453,1,46.68534
1,Bom Jesus do Sul/PR,-26.1922507,-53.6002033,14,395.36854
D1,Bom Jesus do Sul/PR,-26.1922507,-53.6002033,1,28.24061
1,Bom Jesus do Tocantins/PA,-5.0471796,-48.5978362,386,2273.12879
D1,Bom Jesus do Tocantins/PA,-5.0471796,-48.5978362,4,23.55574
1,Bom Jesus do Tocantins/TO,-8.96306,-48.165043,77,1573.35513
1,Bom Jesus dos Perdões/SP,-23.1353864,-46.4648052,317,1245.67746
D1,Bom Jesus dos Perdões/SP,-23.1353864,-46.4648052,1,3.92958
1,Bom Jesus/PB,-6.8156725,-38.6551841,44,1718.07888
D1,Bom Jesus/PB,-6.8156725,-38.6551841,1,39.04725
1,Bom Jesus/PI,-9.0711644,-44.3583926,1318,5234.52083
D1,Bom Jesus/PI,-9.0711644,-44.3583926,13,51.63033
1,Bom Jesus/RN,-5.9887544,-35.5821149,117,1145.93536
D1,Bom Jesus/RN,-5.9887544,-35.5821149,4,39.17728
1,Bom Jesus/RS,-28.6692723,-50.4346894,121,1066.17323
1,Bom Jesus/SC,-26.7350604,-52.3916519,92,3056.47841
1,Bom Lugar/MA,-4.3728019,-45.0366054,290,1779.79624
D1,Bom Lugar/MA,-4.3728019,-45.0366054,2,12.27446
1,Bom Princípio do Piauí/PI,-3.1912777,-41.6430185,41,728.24156
D1,Bom Princípio do Piauí/PI,-3.1912777,-41.6430185,3,53.28597
1,Bom Princípio/RS,-29.489788,-51.3566782,341,2426.18285
D1,Bom Princípio/RS,-29.489788,-51.3566782,2,14.22981
1,Bom Progresso/RS,-27.5490948,-53.8655601,14,720.90628
1,Bom Repouso/MG,-22.4657069,-46.1485376,76,720.58405
D1,Bom Repouso/MG,-22.4657069,-46.1485376,5,47.40685
1,Bom Retiro do Sul/RS,-29.6000007,-51.9359243,199,1614.21155
D1,Bom Retiro do Sul/RS,-29.6000007,-51.9359243,3,24.33485
1,Bom Retiro/SC,-27.798993,-49.486994,92,923.13867
D1,Bom Retiro/SC,-27.798993,-49.486994,4,40.13646
1,Bom Sucesso de Itararé/SP,-24.3190016,-49.1446207,7,177.03591
1,Bom Sucesso do Sul/PR,-26.0749256,-52.8348629,12,367.64706
1,Bom Sucesso/MG,-21.0323516,-44.7598082,36,204.51059
D1,Bom Sucesso/MG,-21.0323516,-44.7598082,1,5.68085
1,Bom Sucesso/PB,-6.4458948,-37.9297662,27,542.71357
1,Bom Sucesso/PR,-23.7088019,-51.7651297,103,1464.73265
D1,Bom Sucesso/PR,-23.7088019,-51.7651297,1,14.22071
1,Bombinhas/SC,-27.1519159,-48.4875691,1170,5918.35702
D1,Bombinhas/SC,-27.1519159,-48.4875691,8,40.46740
1,Bonfim do Piauí/PI,-9.1648678,-42.8734415,69,1216.93122
D1,Bonfim do Piauí/PI,-9.1648678,-42.8734415,1,17.63668
1,Bonfim/MG,-20.3266626, -44.2386157,66,960.97845
D1,Bonfim/MG,-20.3266626, -44.2386157,2,29.12056
1,Bonfim/RR,3.3613818,-59.8427241,769,6197.11500
D1,Bonfim/RR,3.3613818,-59.8427241,12,96.70401
1,Bonfinópolis de Minas/MG,-16.5660011,-45.98645,105,1911.52376
D1,Bonfinópolis de Minas/MG,-16.5660011,-45.98645,6,109.22993
1,Bonfinópolis/GO,-16.6172709,-48.9615701,259,2668.45250
D1,Bonfinópolis/GO,-16.6172709,-48.9615701,6,61.81743
1,Boninal/BA,-12.7095183,-41.8299984,9,62.63920
D1,Boninal/BA,-12.7095183,-41.8299984,1,6.95991
1,Bonito de Minas/MG,-15.3191266,-44.7544,5,44.52360
1,Bonito de Santa Fé/PB,-7.3143332,-38.5146677,90,755.22363
D1,Bonito de Santa Fé/PB,-7.3143332,-38.5146677,2,16.78275
1,Bonito/BA,-11.9665473,-41.2649896,45,268.43236
D1,Bonito/BA,-11.9665473,-41.2649896,2,11.93033
1,Bonito/MS,-21.1264766,-56.4902208,499,2270.65890
D1,Bonito/MS,-21.1264766,-56.4902208,7,31.85293
1,Bonito/PA,-1.3605722,-47.3049907,259,1590.32298
D1,Bonito/PA,-1.3605722,-47.3049907,9,55.26219
1,Bonito/PE,-8.4721161,-35.7314591,333,873.23648
D1,Bonito/PE,-8.4721161,-35.7314591,25,65.55829
1,Bonópolis/GO,-13.649331,-49.8329113,41,930.76050
D1,Bonópolis/GO,-13.649331,-49.8329113,1,22.70148
1,Boqueirão do Leão/RS,-29.30332,-52.4296817,78,1011.14856
D1,Boqueirão do Leão/RS,-29.30332,-52.4296817,2,25.92689
1,Boqueirão do Piauí/PI,-4.4850148,-42.1095161,139,2169.50211
D1,Boqueirão do Piauí/PI,-4.4850148,-42.1095161,1,15.60793
1,Boqueirão/PB,-7.487004,-36.130887,405,2274.76971
D1,Boqueirão/PB,-7.487004,-36.130887,7,39.31701
1,Boquim/SE,-11.1450175,-37.6204228,606,2259.84487
D1,Boquim/SE,-11.1450175,-37.6204228,15,55.93675
1,Boquira/BA,-12.8184859,-42.7270883,36,167.37958
D1,Boquira/BA,-12.8184859,-42.7270883,1,4.64943
1,Boracéia/SP,-22.195355,-48.7801925,86,1783.12254
D1,Boracéia/SP,-22.195355,-48.7801925,1,20.73398
1,Borba/AM,-4.3934778,-59.5947721,711,1727.36328
D1,Borba/AM,-4.3934778,-59.5947721,23,55.87814
1,Borborema/PB,-6.8066718,-35.5990191,52,988.02964
1,Borborema/SP,-21.6212706,-49.074135,213,1327.43363
D1,Borborema/SP,-21.6212706,-49.074135,6,37.39250
1,Borda da Mata/MG,-22.274167,-46.165278,295,1519.67855
D1,Borda da Mata/MG,-22.274167,-46.165278,15,77.27179
1,Borebi/SP,-22.5700178,-48.9714871,44,1658.49981
D1,Borebi/SP,-22.5700178,-48.9714871,1,37.69318
1,Borrazópolis/PR,-23.9393362,-51.5850786,64,970.87379
D1,Borrazópolis/PR,-23.9393362,-51.5850786,1,15.16990
1,Borá/SP,-22.2701088,-50.544407,3,358.42294
1,Bossoroca/RS,-28.7278885,-54.9120278,72,1146.67941
D1,Bossoroca/RS,-28.7278885,-54.9120278,1,15.92610
1,Botelhos/MG,-21.65,-46.394722,52,347.33819
D1,Botelhos/MG,-21.65,-46.394722,1,6.67958
1,Botucatu/SP,-22.8879628,-48.4410712,2314,1579.55453
D1,Botucatu/SP,-22.8879628,-48.4410712,42,28.66953
1,Botuporã/BA,-13.3744752,-42.5198469,5,48.96680
D1,Botuporã/BA,-13.3744752,-42.5198469,1,9.79336
1,Botuverá/SC,-27.200749,-49.068892,159,3030.88067
1,Bozano/RS,-28.3669953,-53.7705165,10,471.03156
1,Braga/RS,-27.617348,-53.740514,17,507.00865
1,Braganey/PR,-24.8179919,-53.118506,54,995.02488
D1,Braganey/PR,-24.8179919,-53.118506,2,36.85277
1,Bragança Paulista/SP,-22.9520235,-46.5418586,3043,1804.13594
D1,Bragança Paulista/SP,-22.9520235,-46.5418586,71,42.09453
1,Bragança/PA,-1.0573967,-46.7635406,2328,1823.22259
D1,Bragança/PA,-1.0573967,-46.7635406,94,73.61809
1,Branquinha/AL,-9.2478057,-36.0152009,271,2582.42805
D1,Branquinha/AL,-9.2478057,-36.0152009,6,57.17553
1,Brasil Novo/PA,-3.3055853,-52.539198,733,4858.80949
D1,Brasil Novo/PA,-3.3055853,-52.539198,16,106.05860
1,Brasileira/PI,-4.131182,-41.7824969,117,1404.73046
D1,Brasileira/PI,-4.131182,-41.7824969,1,12.00624
1,Brasilândia de Minas/MG,-17.0096469,-46.0087183,260,1572.13690
D1,Brasilândia de Minas/MG,-17.0096469,-46.0087183,1,6.04668
1,Brasilândia do Sul/PR,-24.1975793,-53.527551,38,1433.42135
1,Brasilândia do Tocantins/TO,-8.3886619,-48.4842729,51,2317.12858
D1,Brasilândia do Tocantins/TO,-8.3886619,-48.4842729,1,45.43389
1,Brasilândia/MS,-21.255575,-52.0365617,103,867.58760
D1,Brasilândia/MS,-21.255575,-52.0365617,3,25.26954
1,Brasiléia/AC,-11.0010413,-68.7487894,1164,4429.56085
D1,Brasiléia/AC,-11.0010413,-68.7487894,20,76.10929
1,Brasnorte/MT,-12.1227151,-58.0050109,293,1487.68723
D1,Brasnorte/MT,-12.1227151,-58.0050109,1,5.07743
1,Brasília de Minas/MG,-16.2075114,-44.430559,142,438.98971
D1,Brasília de Minas/MG,-16.2075114,-44.430559,3,9.27443
1,Brasília/DF,-15.7934036,-47.8823172,189513,6285.11297
D1,Brasília/DF,-15.7934036,-47.8823172,3188,105.72858
1,Brazabrantes/GO,-16.4291635,-49.3858216,70,1890.35917
D1,Brazabrantes/GO,-16.4291635,-49.3858216,2,54.01026
1,Brazópolis/MG,-22.4742842,-45.6165577,260,1798.18798
D1,Brazópolis/MG,-22.4742842,-45.6165577,2,13.83222
1,Braço do Norte/SC,-28.2728633,-49.1622712,2250,6726.45740
D1,Braço do Norte/SC,-28.2728633,-49.1622712,18,53.81166
1,Braço do Trombudo/SC,-27.358578,-49.882145,51,1362.54341
D1,Braço do Trombudo/SC,-27.358578,-49.882145,1,26.71654
1,Braúna/SP,-21.5015319,-50.3175246,88,1547.66092
D1,Braúna/SP,-21.5015319,-50.3175246,7,123.10939
1,Braúnas/MG,-19.055556,-42.716111,16,333.26390
D1,Braúnas/MG,-19.055556,-42.716111,3,62.48698
1,Brejetuba/ES,-20.1465817,-41.2902303,462,3724.60497
1,Brejinho de Nazaré/TO,-11.0205883,-48.5722906,75,1364.38057
D1,Brejinho de Nazaré/TO,-11.0205883,-48.5722906,4,72.76696
1,Brejinho/PE,-7.3482153,-37.28538,98,1308.93549
D1,Brejinho/PE,-7.3482153,-37.28538,1,13.35648
1,Brejinho/RN,-6.1957907,-35.3583019,152,1196.94464
D1,Brejinho/RN,-6.1957907,-35.3583019,3,23.62391
1,Brejo Alegre/SP,-21.1671191,-50.1850393,60,2094.24084
D1,Brejo Alegre/SP,-21.1671191,-50.1850393,3,104.71204
1,Brejo Grande do Araguaia/PA,-5.7011449,-48.4037308,482,6531.16531
D1,Brejo Grande do Araguaia/PA,-5.7011449,-48.4037308,2,27.10027
1,Brejo Grande/SE,-10.4287358,-36.4667918,171,2058.00939
D1,Brejo Grande/SE,-10.4287358,-36.4667918,7,84.24600
1,Brejo Santo/CE,-7.4909841,-38.9859152,1608,3249.99495
D1,Brejo Santo/CE,-7.4909841,-38.9859152,23,46.48625
1,Brejo da Madre de Deus/PE,-8.1409718,-36.3712527,966,1903.74837
D1,Brejo da Madre de Deus/PE,-8.1409718,-36.3712527,23,45.32734
1,Brejo de Areia/MA,-4.3316785,-45.5833334,205,2231.17109
D1,Brejo de Areia/MA,-4.3316785,-45.5833334,2,21.76752
1,Brejo do Cruz/PB,-6.32926065,-37.48746163303929,538,3809.65869
D1,Brejo do Cruz/PB,-6.32926065,-37.48746163303929,8,56.64920
1,Brejo do Piauí/PI,-8.207583,-42.8359849,16,412.90323
1,Brejo dos Santos/PB,-6.3769367,-37.8243125,73,1131.95844
1,Brejo/MA,-3.6804397,-42.7529313,694,1906.75056
D1,Brejo/MA,-3.6804397,-42.7529313,18,49.45463
1,Brejolândia/BA,-12.4843845,-43.9611861,5,47.36194
D1,Brejolândia/BA,-12.4843845,-43.9611861,1,9.47239
1,Brejão/PE,-9.029146,-36.566034,30,333.59279
D1,Brejão/PE,-9.029146,-36.566034,2,22.23952
1,Brejões/BA,-13.1033754,-39.7909837,55,384.74991
D1,Brejões/BA,-13.1033754,-39.7909837,1,6.99545
1,Breu Branco/PA,-3.7785073,-49.5684795,301,455.74297
D1,Breu Branco/PA,-3.7785073,-49.5684795,21,31.79602
1,Breves/PA,-1.68036,-50.479085,2471,2406.01357
D1,Breves/PA,-1.68036,-50.479085,86,83.73823
1,Britânia/GO,-15.2427599,-51.1602061,148,2560.99671
D1,Britânia/GO,-15.2427599,-51.1602061,1,17.30403
1,Brochier/RS,-29.556766,-51.5963047,37,729.20773
1,Brodowski/SP,-20.984532,-47.657217,496,1988.85280
D1,Brodowski/SP,-20.984532,-47.657217,18,72.17611
1,Brotas de Macaúbas/BA,-12.0019007,-42.6257506,3,29.32265
1,Brotas/SP,-22.2840884,-48.1267265,129,528.62353
D1,Brotas/SP,-22.2840884,-48.1267265,2,8.19571
1,Brumadinho/MG,-20.143611,-44.2,1026,2558.41209
D1,Brumadinho/MG,-20.143611,-44.2,12,29.92295
1,Brumado/BA,-14.29507325,-41.659307508575985,1429,2126.64633
D1,Brumado/BA,-14.29507325,-41.659307508575985,15,22.32309
1,Brunópolis/SC,-27.310953,-50.837585,31,1280.99174
1,Brusque/SC,-27.0964628,-48.9136323,5573,4136.63591
D1,Brusque/SC,-27.0964628,-48.9136323,56,41.56677
1,Brás Pires/MG,-20.8483109,-43.2430524,8,184.62959
1,Bueno Brandão/MG,-22.441976,-46.3517971,66,599.94546
D1,Bueno Brandão/MG,-22.441976,-46.3517971,4,36.36033
1,Buenos Aires/PE,-7.7218931,-35.326587,53,402.88864
D1,Buenos Aires/PE,-7.7218931,-35.326587,8,60.81338
1,Buenópolis/MG,-17.8756607,-44.1749365,89,858.65895
D1,Buenópolis/MG,-17.8756607,-44.1749365,2,19.29571
1,Buerarema/BA,-14.9571177,-39.3008035,502,2735.84392
D1,Buerarema/BA,-14.9571177,-39.3008035,17,92.64810
1,Bugre/MG,-19.4257687,-42.2556,41,1029.63335
D1,Bugre/MG,-19.4257687,-42.2556,2,50.22602
1,Bujari/AC,-9.8309656,-67.9520886,374,3643.09371
D1,Bujari/AC,-9.8309656,-67.9520886,7,68.18625
1,Bujaru/PA,-1.5169239,-48.0410699,640,2196.89688
D1,Bujaru/PA,-1.5169239,-48.0410699,23,78.95098
1,Buri/SP,-23.79849,-48.598924,267,1343.19348
D1,Buri/SP,-23.79849,-48.598924,6,30.18412
1,Buritama/SP,-21.0664017,-50.1448077,284,1656.55623
D1,Buritama/SP,-21.0664017,-50.1448077,12,69.99533
1,Buriti Alegre/GO,-18.1377879,-49.0404411,216,2283.53949
D1,Buriti Alegre/GO,-18.1377879,-49.0404411,6,63.43165
1,Buriti Bravo/MA,-5.8391884,-43.8367876,418,1750.12561
D1,Buriti Bravo/MA,-5.8391884,-43.8367876,1,4.18690
1,Buriti de Goiás/GO,-16.180644,-50.4287479,91,3657.55627
D1,Buriti de Goiás/GO,-16.180644,-50.4287479,1,40.19293
1,Buriti do Tocantins/TO,-5.3187439,-48.2256609,222,1956.29186
1,Buriti dos Lopes/PI,-3.1776723,-41.8707444,745,3766.24033
D1,Buriti dos Lopes/PI,-3.1776723,-41.8707444,12,60.66427
1,Buriti dos Montes/PI,-5.3136171,-41.0971256,43,521.59146
D1,Buriti dos Montes/PI,-5.3136171,-41.0971256,1,12.13003
1,Buriti/MA,-3.9430944,-42.9244281,627,2186.34493
D1,Buriti/MA,-3.9430944,-42.9244281,1,3.48699
1,Buriticupu/MA,-4.3227472,-46.4516989,2409,3329.27942
D1,Buriticupu/MA,-4.3227472,-46.4516989,4,5.52807
1,Buritinópolis/GO,-14.4589282,-46.4293104,42,1275.82017
1,Buritirama/BA,-10.7148421,-43.6362327,228,1076.79229
D1,Buritirama/BA,-10.7148421,-43.6362327,5,23.61387
1,Buritirana/MA,-5.5897455,-47.0148915,236,1529.48801
D1,Buritirana/MA,-5.5897455,-47.0148915,6,38.88529
1,Buritis/MG,-15.621389,-46.423889,353,1421.03780
D1,Buritis/MG,-15.621389,-46.423889,2,8.05121
1,Buritis/RO,-10.2054937,-63.8281954,698,1760.22595
D1,Buritis/RO,-10.2054937,-63.8281954,8,20.17451
1,Buritizal/SP,-20.1933264,-47.7097165,56,1249.72104
D1,Buritizal/SP,-20.1933264,-47.7097165,3,66.94934
1,Buritizeiro/MG,-17.3667765,-44.9647781,248,883.94639
D1,Buritizeiro/MG,-17.3667765,-44.9647781,6,21.38580
1,Butiá/RS,-30.1256795,-51.9692224,211,1007.59276
D1,Butiá/RS,-30.1256795,-51.9692224,12,57.30385
1,Buíque/PE,-8.6239732,-37.157296,442,757.13454
D1,Buíque/PE,-8.6239732,-37.157296,6,10.27784
1,Bálsamo/SP,-20.7343722,-49.5807484,477,5260.25584
D1,Bálsamo/SP,-20.7343722,-49.5807484,19,209.52801
0,CASO SEM LOCALIZAÇÃO DEFINIDA/AC,-9.884083190922777,-67.85119819780795,164,18.59547
D0,CASO SEM LOCALIZAÇÃO DEFINIDA/AC,-9.884083190922777,-67.85119819780795,3,0.34016
0,CASO SEM LOCALIZAÇÃO DEFINIDA/AL,-9.931093434363673,-35.609611600637464,178,5.33356
D0,CASO SEM LOCALIZAÇÃO DEFINIDA/AL,-9.931093434363673,-35.609611600637464,13,0.38953
0,CASO SEM LOCALIZAÇÃO DEFINIDA/AM,-3.07518492149711,-60.16169212873594,1211,29.21876
D0,CASO SEM LOCALIZAÇÃO DEFINIDA/AM,-3.07518492149711,-60.16169212873594,27,0.65145
0,CASO SEM LOCALIZAÇÃO DEFINIDA/AP,2.677150600275196,-50.477785111870624,50,5.91205
0,CASO SEM LOCALIZAÇÃO DEFINIDA/BA,-13.415069300066518,-38.14174656569957,4804,32.30000
D0,CASO SEM LOCALIZAÇÃO DEFINIDA/BA,-13.415069300066518,-38.14174656569957,47,0.31601
0,CASO SEM LOCALIZAÇÃO DEFINIDA/CE,-3.3445126297392798,-38.624961942434304,2591,28.37251
D0,CASO SEM LOCALIZAÇÃO DEFINIDA/CE,-3.3445126297392798,-38.624961942434304,3,0.03285
0,CASO SEM LOCALIZAÇÃO DEFINIDA/ES,-20.30989267097039,-39.81745156645774,2982,74.20402
D0,CASO SEM LOCALIZAÇÃO DEFINIDA/ES,-20.30989267097039,-39.81745156645774,68,1.69211
0,CASO SEM LOCALIZAÇÃO DEFINIDA/GO,-16.701590966270153,-49.164524059025034,427,6.08405
D0,CASO SEM LOCALIZAÇÃO DEFINIDA/GO,-16.701590966270153,-49.164524059025034,17,0.24222
0,CASO SEM LOCALIZAÇÃO DEFINIDA/MA,-2.171256551718846,-43.98946796681719,275,3.88683
D0,CASO SEM LOCALIZAÇÃO DEFINIDA/MA,-2.171256551718846,-43.98946796681719,10,0.14134
0,CASO SEM LOCALIZAÇÃO DEFINIDA/MG,-19.97049116501593,-43.8852149072783,6995,33.04393
D0,CASO SEM LOCALIZAÇÃO DEFINIDA/MG,-19.97049116501593,-43.8852149072783,229,1.08178
0,CASO SEM LOCALIZAÇÃO DEFINIDA/MS,-20.391549234908513,-54.645156949758444,258,9.28396
D0,CASO SEM LOCALIZAÇÃO DEFINIDA/MS,-20.391549234908513,-54.645156949758444,14,0.50378
0,CASO SEM LOCALIZAÇÃO DEFINIDA/MT,-15.54791153961863,-56.17143998972475,611,17.53497
D0,CASO SEM LOCALIZAÇÃO DEFINIDA/MT,-15.54791153961863,-56.17143998972475,50,1.43494
0,CASO SEM LOCALIZAÇÃO DEFINIDA/PA,-0.09317078214359542,-48.0050231510481,1242,14.43705
D0,CASO SEM LOCALIZAÇÃO DEFINIDA/PA,-0.09317078214359542,-48.0050231510481,17,0.19761
0,CASO SEM LOCALIZAÇÃO DEFINIDA/PB,-7.1049355696146606,-34.68696690234351,649,16.15180
D0,CASO SEM LOCALIZAÇÃO DEFINIDA/PB,-7.1049355696146606,-34.68696690234351,19,0.47286
0,CASO SEM LOCALIZAÇÃO DEFINIDA/PE,-8.121628543819208,-34.57313921302556,76,0.79522
D0,CASO SEM LOCALIZAÇÃO DEFINIDA/PE,-8.121628543819208,-34.57313921302556,18,0.18834
0,CASO SEM LOCALIZAÇÃO DEFINIDA/PI,-2.683810218391744,-41.470898009352254,193,5.89632
D0,CASO SEM LOCALIZAÇÃO DEFINIDA/PI,-2.683810218391744,-41.470898009352254,6,0.18331
0,CASO SEM LOCALIZAÇÃO DEFINIDA/PR,-25.69415946385943,-48.10141676336737,6426,56.20102
D0,CASO SEM LOCALIZAÇÃO DEFINIDA/PR,-25.69415946385943,-48.10141676336737,121,1.05825
0,CASO SEM LOCALIZAÇÃO DEFINIDA/RJ,-23.210238986465157,-43.12864305824042,8104,46.93905
D0,CASO SEM LOCALIZAÇÃO DEFINIDA/RJ,-23.210238986465157,-43.12864305824042,480,2.78020
0,CASO SEM LOCALIZAÇÃO DEFINIDA/RN,-5.749310788669161,-34.95302586257457,2155,61.45111
D0,CASO SEM LOCALIZAÇÃO DEFINIDA/RN,-5.749310788669161,-34.95302586257457,41,1.16914
0,CASO SEM LOCALIZAÇÃO DEFINIDA/RO,-8.681174926655274,-63.9216949899276,902,50.75328
D0,CASO SEM LOCALIZAÇÃO DEFINIDA/RO,-8.681174926655274,-63.9216949899276,16,0.90028
0,CASO SEM LOCALIZAÇÃO DEFINIDA/RR,2.813328208465927,-60.663338675861986,1390,229.46344
D0,CASO SEM LOCALIZAÇÃO DEFINIDA/RR,2.813328208465927,-60.663338675861986,5,0.82541
0,CASO SEM LOCALIZAÇÃO DEFINIDA/RS,-30.50647488532064,-49.906261466443524,398,3.49821
D0,CASO SEM LOCALIZAÇÃO DEFINIDA/RS,-30.50647488532064,-49.906261466443524,12,0.10547
0,CASO SEM LOCALIZAÇÃO DEFINIDA/SC,-27.675643660562308,-48.18313219398259,7484,104.45529
D0,CASO SEM LOCALIZAÇÃO DEFINIDA/SC,-27.675643660562308,-48.18313219398259,11,0.15353
0,CASO SEM LOCALIZAÇÃO DEFINIDA/SE,-11.03002091978736,-36.89283180376513,166,7.22149
D0,CASO SEM LOCALIZAÇÃO DEFINIDA/SE,-11.03002091978736,-36.89283180376513,4,0.17401
0,CASO SEM LOCALIZAÇÃO DEFINIDA/SP,-24.30968974555485,-46.21366504207253,1522,3.31453
D0,CASO SEM LOCALIZAÇÃO DEFINIDA/SP,-24.30968974555485,-46.21366504207253,45,0.09800
0,CASO SEM LOCALIZAÇÃO DEFINIDA/TO,-10.213012114749148,-48.40023803990334,2437,154.94009
D0,CASO SEM LOCALIZAÇÃO DEFINIDA/TO,-10.213012114749148,-48.40023803990334,42,2.67028
1,Caapiranga/AM,-3.3188884,-61.2096404,313,2392.78343
D1,Caapiranga/AM,-3.3188884,-61.2096404,7,53.51273
1,Caaporã/PB,-7.510234,-34.9154114,984,4507.97141
D1,Caaporã/PB,-7.510234,-34.9154114,16,73.30035
1,Caarapó/MS,-22.6349267,-54.8240903,457,1514.54895
D1,Caarapó/MS,-22.6349267,-54.8240903,2,6.62822
1,Caatiba/BA,-14.9782759,-40.4092325,277,4098.84581
1,Cabaceiras do Paraguaçu/BA,-12.5377868,-39.1901339,70,372.20184
D1,Cabaceiras do Paraguaçu/BA,-12.5377868,-39.1901339,1,5.31717
1,Cabaceiras/PB,-7.4899156,-36.2860501,113,2013.90127
1,Cabeceira Grande/MG,-16.0297,-47.0906,43,618.79407
D1,Cabeceira Grande/MG,-16.0297,-47.0906,1,14.39056
1,Cabeceiras do Piauí/PI,-4.4733665,-42.3098716,219,2068.77007
D1,Cabeceiras do Piauí/PI,-4.4733665,-42.3098716,5,47.23219
1,Cabeceiras/GO,-15.7995459,-46.9264991,64,800.70061
D1,Cabeceiras/GO,-15.7995459,-46.9264991,3,37.53284
1,Cabedelo/PB,-6.97324,-34.8351609,2966,4378.76462
D1,Cabedelo/PB,-6.97324,-34.8351609,69,101.86607
1,Cabixi/RO,-13.4956065,-60.5424442,101,1901.35542
D1,Cabixi/RO,-13.4956065,-60.5424442,5,94.12651
1,Cabo Frio/RJ,-22.8804369,-42.0189227,2458,1085.08995
D1,Cabo Frio/RJ,-22.8804369,-42.0189227,143,63.12769
1,Cabo Verde/MG,-21.4743338,-46.3964995,37,262.87744
1,Cabo de Santo Agostinho/PE,-8.2838945,-35.0320984,1920,927.32120
D1,Cabo de Santo Agostinho/PE,-8.2838945,-35.0320984,250,120.74495
1,Cabreúva/SP,-23.3075813,-47.1324417,1157,2327.63997
D1,Cabreúva/SP,-23.3075813,-47.1324417,40,80.47156
1,Cabrobó/PE,-8.5083701,-39.3106961,390,1139.65109
D1,Cabrobó/PE,-8.5083701,-39.3106961,4,11.68873
1,Cabrália Paulista/SP,-22.4562909,-49.3385645,96,2251.40713
1,Cacaulândia/RO,-10.3380043,-62.9007231,82,1316.21188
1,Cacequi/RS,-29.8838059,-54.8273443,31,246.79564
1,Cachoeira Alta/GO,-18.7618269,-50.9432431,642,5142.58251
D1,Cachoeira Alta/GO,-18.7618269,-50.9432431,8,64.08202
1,Cachoeira Dourada/GO,-18.4934204,-49.481062,90,1115.65638
D1,Cachoeira Dourada/GO,-18.4934204,-49.481062,1,12.39618
1,Cachoeira Dourada/MG,-18.517136,-49.5002062,13,482.91233
1,Cachoeira Grande/MA,-2.9290492,-44.0573223,174,1844.97932
D1,Cachoeira Grande/MA,-2.9290492,-44.0573223,4,42.41332
1,Cachoeira Paulista/SP,-22.666498,-45.015384,336,1008.19156
D1,Cachoeira Paulista/SP,-22.666498,-45.015384,12,36.00684
1,Cachoeira da Prata/MG,-19.524723,-44.453056,37,1026.92201
D1,Cachoeira da Prata/MG,-19.524723,-44.453056,1,27.75465
1,Cachoeira de Goiás/GO,-16.6688414,-50.6435997,13,962.25019
1,Cachoeira de Minas/MG,-22.3554043,-45.7796324,146,1264.39768
D1,Cachoeira de Minas/MG,-22.3554043,-45.7796324,2,17.32052
1,Cachoeira de Pajeú/MG,-15.965833,-41.496666,205,2178.07055
D1,Cachoeira de Pajeú/MG,-15.965833,-41.496666,2,21.24947
1,Cachoeira do Arari/PA,-1.0143572,-48.9621089,285,1199.14167
D1,Cachoeira do Arari/PA,-1.0143572,-48.9621089,12,50.49018
1,Cachoeira do Piriá/PA,-1.7599443,-46.5446954,503,1483.77581
D1,Cachoeira do Piriá/PA,-1.7599443,-46.5446954,3,8.84956
1,Cachoeira do Sul/RS,-30.0474778,-52.8905413,553,672.74121
D1,Cachoeira do Sul/RS,-30.0474778,-52.8905413,5,6.08265
1,Cachoeira dos Índios/PB,-6.9259193,-38.6742159,116,1132.37017
D1,Cachoeira dos Índios/PB,-6.9259193,-38.6742159,7,68.33268
1,Cachoeira/BA,-12.5998256,-38.9665918,435,1299.67135
D1,Cachoeira/BA,-12.5998256,-38.9665918,9,26.88975
1,Cachoeiras de Macacu/RJ,-22.4626861,-42.6534414,593,1006.15912
D1,Cachoeiras de Macacu/RJ,-22.4626861,-42.6534414,31,52.59854
1,Cachoeirinha/PE,-8.4906364,-36.2338963,268,1315.01472
D1,Cachoeirinha/PE,-8.4906364,-36.2338963,20,98.13543
1,Cachoeirinha/RS,-29.9493353,-51.0898927,2699,2071.48504
D1,Cachoeirinha/RS,-29.9493353,-51.0898927,66,50.65506
1,Cachoeirinha/TO,-6.118647,-47.9208885,24,1054.94505
1,Cachoeiro de Itapemirim/ES,-20.848084,-41.11129,5743,2748.21507
D1,Cachoeiro de Itapemirim/ES,-20.848084,-41.11129,171,81.82914
1,Cacimba de Areia/PB,-7.1288513,-37.1575194,11,298.75068
1,Cacimba de Dentro/PB,-6.6425101,-35.7929304,337,1960.78431
D1,Cacimba de Dentro/PB,-6.6425101,-35.7929304,7,40.72846
1,Cacimbas/PB,-7.2125451,-37.0593398,56,780.70542
D1,Cacimbas/PB,-7.2125451,-37.0593398,2,27.88234
1,Cacimbinhas/AL,-9.401212,-36.991082,260,2394.54780
D1,Cacimbinhas/AL,-9.401212,-36.991082,3,27.62940
1,Cacique Doble/RS,-27.7700117,-51.6616409,88,1737.41362
1,Cacoal/RO,-11.4333,-61.4420502,2265,2653.49875
D1,Cacoal/RO,-11.4333,-61.4420502,32,37.48872
1,Caconde/SP,-21.527995,-46.643659,98,516.19700
D1,Caconde/SP,-21.527995,-46.643659,1,5.26732
1,Caculé/BA,-14.4990734,-42.2233006,84,362.53776
D1,Caculé/BA,-14.4990734,-42.2233006,2,8.63185
1,Caetanos/BA,-14.3387456,-40.9085971,130,893.96232
1,Caetanópolis/MG,-19.2947496,-44.4138386,82,705.43703
D1,Caetanópolis/MG,-19.2947496,-44.4138386,2,17.20578
1,Caetité/BA,-14.0691776,-42.4852428,164,321.72634
D1,Caetité/BA,-14.0691776,-42.4852428,5,9.80873
1,Caeté/MG,-19.897777,-43.670278,398,890.02192
D1,Caeté/MG,-19.897777,-43.670278,12,26.83483
1,Caetés/PE,-8.7728788,-36.6255835,541,1882.45938
D1,Caetés/PE,-8.7728788,-36.6255835,6,20.87755
1,Cafarnaum/BA,-11.691399,-41.468823,229,1242.06758
D1,Cafarnaum/BA,-11.691399,-41.468823,3,16.27163
1,Cafeara/PR,-22.78905,-51.714195,51,1738.24131
1,Cafelândia/PR,-24.6176963,-53.3218057,232,1280.35320
D1,Cafelândia/PR,-24.6176963,-53.3218057,1,5.51876
1,Cafelândia/SP,-21.8054355,-49.6030627,269,1514.04289
D1,Cafelândia/SP,-21.8054355,-49.6030627,3,16.88524
1,Cafezal do Sul/PR,-23.900508,-53.512418,28,692.38378
1,Caiabu/SP,-22.0143038,-51.2356597,35,835.12288
D1,Caiabu/SP,-22.0143038,-51.2356597,2,47.72131
1,Caiana/MG,-20.695555,-41.924723,16,291.12082
D1,Caiana/MG,-20.695555,-41.924723,2,36.39010
1,Caiapônia/GO,-16.9538779,-51.8090761,158,835.40422
D1,Caiapônia/GO,-16.9538779,-51.8090761,1,5.28737
1,Caibaté/RS,-28.290475,-54.645407,2,41.27115
1,Caibi/SC,-27.0751925,-53.2502133,41,666.88354
D1,Caibi/SC,-27.0751925,-53.2502133,2,32.53090
1,Caicó/RN,-6.4594544,-37.0971911,2507,3689.36897
D1,Caicó/RN,-6.4594544,-37.0971911,30,44.14881
1,Caieiras/SP,-23.3644621,-46.7484765,2119,2088.30196
D1,Caieiras/SP,-23.3644621,-46.7484765,95,93.62373
1,Cairu/BA,-13.4860505,-39.0455744,274,1507.48239
D1,Cairu/BA,-13.4860505,-39.0455744,5,27.50880
1,Caiuá/SP,-21.8319357,-51.9887179,58,987.40211
D1,Caiuá/SP,-21.8319357,-51.9887179,1,17.02417
1,Caiçara do Norte/RN,-5.0645017,-36.0561226,87,1328.44709
D1,Caiçara do Norte/RN,-5.0645017,-36.0561226,3,45.80852
1,Caiçara do Rio do Vento/RN,-5.757968,-36.00089,61,1655.80890
D1,Caiçara do Rio do Vento/RN,-5.757968,-36.00089,1,27.14441
1,Caiçara/PB,-6.6146866,-35.4681434,457,6346.34079
D1,Caiçara/PB,-6.6146866,-35.4681434,9,124.98264
1,Caiçara/RS,-27.2750478,-53.4310053,50,1054.18511
D1,Caiçara/RS,-27.2750478,-53.4310053,2,42.16740
1,Cajamar/SP,-23.3561111,-46.8769444,1539,2003.88016
D1,Cajamar/SP,-23.3561111,-46.8769444,76,98.95704
1,Cajapió/MA,-2.8778715,-44.6746871,5,44.73472
D1,Cajapió/MA,-2.8778715,-44.6746871,2,17.89389
1,Cajari/MA,-3.3213076,-45.0118757,132,681.14970
D1,Cajari/MA,-3.3213076,-45.0118757,4,20.64090
1,Cajati/SP,-24.7272376,-48.1077914,1517,5313.67123
D1,Cajati/SP,-24.7272376,-48.1077914,26,91.07149
1,Cajazeiras do Piauí/PI,-6.794271,-42.3935024,10,280.97780
1,Cajazeiras/PB,-6.8897849,-38.5570389,1958,3158.42111
D1,Cajazeiras/PB,-6.8897849,-38.5570389,46,74.20193
1,Cajazeirinhas/PB,-6.961442,-37.7993733,35,1096.14782
1,Cajobi/SP,-20.8776238,-48.8106972,199,1887.68735
D1,Cajobi/SP,-20.8776238,-48.8106972,6,56.91520
1,Cajueiro da Praia/PI,-2.931114,-41.340801,323,4226.64224
D1,Cajueiro da Praia/PI,-2.931114,-41.340801,8,104.68464
1,Cajueiro/AL,-9.399589,-36.1524309,304,1429.64635
D1,Cajueiro/AL,-9.399589,-36.1524309,12,56.43341
1,Cajuri/MG,-20.7901414,-42.7954489,51,1279.15726
1,Cajuru/SP,-21.2759978,-47.3046035,465,1777.04743
D1,Cajuru/SP,-21.2759978,-47.3046035,10,38.21607
1,Caldas Brandão/PB,-7.1027959,-35.3254676,321,5337.54573
D1,Caldas Brandão/PB,-7.1027959,-35.3254676,2,33.25574
1,Caldas Novas/GO,-17.745,-48.625,1590,1744.14778
D1,Caldas Novas/GO,-17.745,-48.625,42,46.07183
1,Caldas/MG,-21.923611,-46.386111,103,711.32597
D1,Caldas/MG,-21.923611,-46.386111,2,13.81215
1,Caldazinha/GO,-16.7116649,-49.0012601,78,2050.47319
D1,Caldazinha/GO,-16.7116649,-49.0012601,1,26.28812
1,Caldeirão Grande do Piauí/PI,-7.3310393,-40.6374433,126,2181.44044
1,Caldeirão Grande/BA,-11.0208483,-40.3041387,123,922.93840
D1,Caldeirão Grande/BA,-11.0208483,-40.3041387,1,7.50356
1,Califórnia/PR,-23.6672543,-51.3554556,83,968.49475
D1,Califórnia/PR,-23.6672543,-51.3554556,2,23.33722
1,Calmon/SC,-26.6023644,-51.0992893,9,268.97788
1,Calumbi/PE,-7.9389746,-38.1516871,173,3008.69565
D1,Calumbi/PE,-7.9389746,-38.1516871,2,34.78261
1,Calçado/PE,-8.7413446,-36.3351787,61,551.88637
D1,Calçado/PE,-8.7413446,-36.3351787,1,9.04732
1,Calçoene/AP,2.4981757,-50.9539503,1158,10416.47927
D1,Calçoene/AP,2.4981757,-50.9539503,5,44.97616
1,Camacan/BA,-15.4166631,-39.4930088,1432,4476.67875
D1,Camacan/BA,-15.4166631,-39.4930088,31,96.91134
1,Camalaú/PB,-7.885031,-36.824191,32,532.18028
1,Camamu/BA,-13.9438142,-39.1060917,815,2307.73587
D1,Camamu/BA,-13.9438142,-39.1060917,15,42.47367
1,Camanducaia/MG,-22.755278,-46.144444,503,2310.51906
D1,Camanducaia/MG,-22.755278,-46.144444,9,41.34130
1,Camapuã/MS,-19.5291747,-54.0434641,47,342.79046
D1,Camapuã/MS,-19.5291747,-54.0434641,1,7.29341
1,Camaquã/RS,-30.8524752,-51.8075619,1100,1660.10172
D1,Camaquã/RS,-30.8524752,-51.8075619,19,28.67448
1,Camaragibe/PE,-8.0213832,-34.9810768,2076,1315.35596
D1,Camaragibe/PE,-8.0213832,-34.9810768,182,115.31541
1,Camargo/RS,-28.5865661,-52.2031474,43,1573.36261
1,Camaçari/BA,-12.6998188,-38.3260762,6080,2032.54750
D1,Camaçari/BA,-12.6998188,-38.3260762,115,38.44457
1,Cambará do Sul/RS,-29.0489517,-50.145412,67,1041.82864
1,Cambará/PR,-23.042273,-50.075281,266,1048.89590
D1,Cambará/PR,-23.042273,-50.075281,4,15.77287
1,Cambira/PR,-23.600265,-51.581045,75,953.59186
D1,Cambira/PR,-23.600265,-51.581045,2,25.42912
1,Camboriú/SC,-27.0273601,-48.6535657,2707,3261.87808
D1,Camboriú/SC,-27.0273601,-48.6535657,42,50.60912
1,Cambuci/RJ,-21.5749919,-41.9107833,193,1244.75975
D1,Cambuci/RJ,-21.5749919,-41.9107833,5,32.24766
1,Cambuquira/MG,-21.853056,-45.2953619,27,210.70704
D1,Cambuquira/MG,-21.853056,-45.2953619,2,15.60793
1,Cambuí/MG,-22.6122501,-46.0572137,356,1204.69696
D1,Cambuí/MG,-22.6122501,-46.0572137,8,27.07184
1,Cambé/PR,-23.2782035,-51.2779583,1779,1669.90510
D1,Cambé/PR,-23.2782035,-51.2779583,30,28.16029
1,Cametá/PA,-2.242949,-49.497885,4794,3476.68431
D1,Cametá/PA,-2.242949,-49.497885,97,70.34593
1,Camocim de São Félix/PE,-8.3616757,-35.7638903,216,1151.07914
D1,Camocim de São Félix/PE,-8.3616757,-35.7638903,8,42.63256
1,Camocim/CE,-2.9009918,-40.8427389,2344,3682.00311
D1,Camocim/CE,-2.9009918,-40.8427389,81,127.23646
1,Campanha/MG,-21.8361108,-45.401986,154,924.09241
D1,Campanha/MG,-21.8361108,-45.401986,4,24.00240
1,Campanário/MG,-18.2398144,-41.7271768,15,403.11744
1,Campestre da Serra/RS,-28.7966535,-51.0958149,40,1180.63754
1,Campestre de Goiás/GO,-16.7624179,-49.69497,135,3719.00826
D1,Campestre de Goiás/GO,-16.7624179,-49.69497,2,55.09642
1,Campestre do Maranhão/MA,-6.1729113,-47.3640512,486,3381.10477
D1,Campestre do Maranhão/MA,-6.1729113,-47.3640512,7,48.69904
1,Campestre/AL,-8.8481634,-35.5660033,94,1355.24798
D1,Campestre/AL,-8.8481634,-35.5660033,3,43.25260
1,Campestre/MG,-19.6142116,-43.219378,127,603.18214
D1,Campestre/MG,-19.6142116,-43.219378,4,18.99786
1,Campina Grande do Sul/PR,-25.3046032,-49.0545355,927,2141.47108
D1,Campina Grande do Sul/PR,-25.3046032,-49.0545355,22,50.82240
1,Campina Grande/PB,-7.2246743,-35.8771292,13007,3174.52182
D1,Campina Grande/PB,-7.2246743,-35.8771292,373,91.03534
1,Campina Verde/MG,-19.535277,-49.486389,131,663.45910
D1,Campina Verde/MG,-19.535277,-49.486389,4,20.25829
1,Campina da Lagoa/PR,-24.5937926,-52.8038965,42,295.73300
D1,Campina da Lagoa/PR,-24.5937926,-52.8038965,2,14.08252
1,Campina das Missões/RS,-27.9883295,-54.8411665,37,675.92254
D1,Campina das Missões/RS,-27.9883295,-54.8411665,3,54.80453
1,Campina do Monte Alegre/SP,-23.5935653,-48.4801876,75,1245.01992
1,Campina do Simão/PR,-25.1086375,-51.8076658,5,128.63391
D1,Campina do Simão/PR,-25.1086375,-51.8076658,1,25.72678
1,Campinas do Piauí/PI,-7.6593687,-41.8814875,38,676.99982
D1,Campinas do Piauí/PI,-7.6593687,-41.8814875,1,17.81578
1,Campinas do Sul/RS,-27.7167968,-52.6257885,83,1521.81885
D1,Campinas do Sul/RS,-27.7167968,-52.6257885,2,36.67033
1,Campinas/SP,-22.90556,-47.06083,31115,2584.14565
D1,Campinas/SP,-22.90556,-47.06083,1225,101.73802
1,Campinaçu/GO,-13.7869969,-48.5703841,120,3296.70330
1,Campinorte/GO,-14.3136699,-49.1510931,354,2803.73832
D1,Campinorte/GO,-14.3136699,-49.1510931,8,63.36132
1,Campinápolis/MT,-14.5403731,-52.7970626,408,2553.19149
D1,Campinápolis/MT,-14.5403731,-52.7970626,15,93.86733
1,Campo Alegre de Goiás/GO,-17.6337896,-47.779291,17,224.00843
1,Campo Alegre de Lourdes/BA,-9.5160326,-43.0101338,119,413.22314
D1,Campo Alegre de Lourdes/BA,-9.5160326,-43.0101338,4,13.88985
1,Campo Alegre do Fidalgo/PI,-8.3753852,-41.8364191,14,277.50248
D1,Campo Alegre do Fidalgo/PI,-8.3753852,-41.8364191,1,19.82161
1,Campo Alegre/AL,-9.7798607,-36.3575793,1368,2397.35030
D1,Campo Alegre/AL,-9.7798607,-36.3575793,28,49.06857
1,Campo Alegre/SC,-26.1941684,-49.2657484,166,1385.87410
D1,Campo Alegre/SC,-26.1941684,-49.2657484,4,33.39456
1,Campo Azul/MG,-16.5078525,-44.8133524,17,445.37595
1,Campo Belo do Sul/SC,-27.8987563,-50.7586887,81,1154.50399
D1,Campo Belo do Sul/SC,-27.8987563,-50.7586887,1,14.25314
1,Campo Belo/MG,-20.8975,-45.277223,1024,1895.27846
D1,Campo Belo/MG,-20.8975,-45.277223,15,27.76287
1,Campo Bom/RS,-29.674694,-51.060601,2214,3318.74325
D1,Campo Bom/RS,-29.674694,-51.060601,43,64.45617
1,Campo Bonito/PR,-25.0328004,-52.992976,52,1356.63971
1,Campo Erê/SC,-26.3947432,-53.0790495,96,1125.96763
1,Campo Florido/MG,-19.760833,-48.572223,175,2146.97583
1,Campo Formoso/BA,-10.51055,-40.320031,1023,1436.67668
D1,Campo Formoso/BA,-10.51055,-40.320031,12,16.85251
1,Campo Grande do Piauí/PI,-7.1327559,-41.0381164,113,1901.39660
D1,Campo Grande do Piauí/PI,-7.1327559,-41.0381164,1,16.82652
1,Campo Grande/AL,-9.9725,-36.74791447368421,211,2207.57481
D1,Campo Grande/AL,-9.9725,-36.74791447368421,5,52.31220
1,Campo Grande/MS,-20.4640173,-54.6162947,29830,3329.30795
D1,Campo Grande/MS,-20.4640173,-54.6162947,536,59.82263
1,Campo Largo do Piauí/PI,-3.8104731,-42.6288333,220,3022.39319
D1,Campo Largo do Piauí/PI,-3.8104731,-42.6288333,5,68.69075
1,Campo Largo/PR,-25.4597726,-49.5270851,2901,2197.69397
D1,Campo Largo/PR,-25.4597726,-49.5270851,75,56.81732
1,Campo Limpo Paulista/SP,-23.207791,-46.788919,1235,1458.94861
D1,Campo Limpo Paulista/SP,-23.207791,-46.788919,67,79.14944
1,Campo Limpo de Goiás/GO,-16.297101,-49.0894994,21,269.61099
D1,Campo Limpo de Goiás/GO,-16.297101,-49.0894994,2,25.67724
1,Campo Magro/PR,-25.3691533,-49.4496921,519,1770.24354
D1,Campo Magro/PR,-25.3691533,-49.4496921,11,37.51961
1,Campo Maior/PI,-4.8339574,-42.1739786,2311,4934.55469
D1,Campo Maior/PI,-4.8339574,-42.1739786,43,91.81560
1,Campo Mourão/PR,-24.046329,-52.37802,978,1031.00391
D1,Campo Mourão/PR,-24.046329,-52.37802,36,37.95106
1,Campo Novo de Rondônia/RO,-10.5704235,-63.6199511,151,1067.96803
D1,Campo Novo de Rondônia/RO,-10.5704235,-63.6199511,5,35.36318
1,Campo Novo do Parecis/MT,-13.658735,-57.890723,2676,7567.87330
D1,Campo Novo do Parecis/MT,-13.658735,-57.890723,28,79.18552
1,Campo Novo/RS,-28.91500235,-52.331375687737626,19,423.72881
D1,Campo Novo/RS,-28.91500235,-52.331375687737626,1,22.30152
1,Campo Redondo/RN,-6.2420373,-36.1830606,232,2068.28920
D1,Campo Redondo/RN,-6.2420373,-36.1830606,3,26.74512
1,Campo Verde/MT,-15.5430787,-55.1590511,2214,5027.13381
D1,Campo Verde/MT,-15.5430787,-55.1590511,40,90.82446
1,Campo do Brito/SE,-10.7496246,-37.4942276,676,3732.95047
D1,Campo do Brito/SE,-10.7496246,-37.4942276,12,66.26539
1,Campo do Meio/MG,-21.1072006,-45.8301735,67,574.86057
D1,Campo do Meio/MG,-21.1072006,-45.8301735,2,17.16002
1,Campo do Tenente/PR,-25.9814143,-49.684518,74,928.36532
D1,Campo do Tenente/PR,-25.9814143,-49.684518,3,37.63643
1,Campos Altos/MG,-19.696389,-46.171389,138,892.56840
D1,Campos Altos/MG,-19.696389,-46.171389,6,38.80732
1,Campos Belos/GO,-13.0349839,-46.768112,288,1448.18223
D1,Campos Belos/GO,-13.0349839,-46.768112,7,35.19887
1,Campos Borges/RS,-28.8852198,-52.999098,17,512.04819
1,Campos Gerais/MG,-21.2333342,-45.7584127,142,493.50108
D1,Campos Gerais/MG,-21.2333342,-45.7584127,3,10.42608
1,Campos Lindos/TO,-7.9740597,-46.8023881,268,2649.26849
D1,Campos Lindos/TO,-7.9740597,-46.8023881,2,19.77066
1,Campos Novos Paulista/SP,-22.601952,-49.998726,96,1933.53474
D1,Campos Novos Paulista/SP,-22.601952,-49.998726,1,20.14099
1,Campos Novos/SC,-27.3962904,-51.2224397,1356,3741.30891
D1,Campos Novos/SC,-27.3962904,-51.2224397,16,44.14524
1,Campos Sales/CE,-7.0742675,-40.3740367,371,1352.73099
D1,Campos Sales/CE,-7.0742675,-40.3740367,7,25.52323
1,Campos Verdes/GO,-14.2709062,-49.65746,36,1681.45726
D1,Campos Verdes/GO,-14.2709062,-49.65746,2,93.41429
1,Campos de Júlio/MT,-13.7223646,-59.2645296,395,5732.11435
D1,Campos de Júlio/MT,-13.7223646,-59.2645296,5,72.55841
1,Campos do Jordão/SP,-22.7395263,-45.5912829,726,1393.79512
D1,Campos do Jordão/SP,-22.7395263,-45.5912829,26,49.91553
1,Campos dos Goytacazes/RJ,-21.7558619,-41.3326895,5511,1085.80863
D1,Campos dos Goytacazes/RJ,-21.7558619,-41.3326895,363,71.52033
1,Camutanga/PE,-7.4092965,-35.2738166,153,1789.26441
D1,Camutanga/PE,-7.4092965,-35.2738166,7,81.86177
1,Cana Verde/MG,-21.021308,-45.1817881,94,1677.67268
D1,Cana Verde/MG,-21.021308,-45.1817881,2,35.69516
1,Canabrava do Norte/MT,-11.0516481,-51.8301897,56,1180.68733
D1,Canabrava do Norte/MT,-11.0516481,-51.8301897,2,42.16740
1,Cananéia/SP,-25.0104609,-47.9315628,183,1459.33014
D1,Cananéia/SP,-25.0104609,-47.9315628,7,55.82137
1,Canapi/AL,-9.1173572,-37.6011704,65,366.77576
D1,Canapi/AL,-9.1173572,-37.6011704,3,16.92811
1,Canarana/BA,-11.6870151,-41.7683675,144,550.12225
D1,Canarana/BA,-11.6870151,-41.7683675,1,3.82029
1,Canarana/MT,-13.5564602,-52.2691167,703,3257.79693
D1,Canarana/MT,-13.5564602,-52.2691167,13,60.24376
1,Canas/SP,-22.7029347,-45.0526508,48,934.21565
D1,Canas/SP,-22.7029347,-45.0526508,2,38.92565
1,Canavieira/PI,-7.6924041,-43.7190063,15,379.74684
D1,Canavieira/PI,-7.6924041,-43.7190063,1,25.31646
1,Canavieiras/BA,-15.61621745,-39.08485321304444,221,710.63378
D1,Canavieiras/BA,-15.61621745,-39.08485321304444,12,38.58645
1,Canaã dos Carajás/PA,-6.5296837,-49.8516592,3874,10446.27208
D1,Canaã dos Carajás/PA,-6.5296837,-49.8516592,46,124.03937
1,Canaã/MG,-20.685555,-42.62,1,21.91541
1,Candeal/BA,-11.8053441,-39.1206515,96,1162.50908
1,Candeias do Jamari/RO,-8.7949939,-63.7018851,1401,5248.56704
D1,Candeias do Jamari/RO,-8.7949939,-63.7018851,27,101.15011
1,Candeias/BA,-12.6693806,-38.5406462,2309,2651.70656
D1,Candeias/BA,-12.6693806,-38.5406462,59,67.75690
1,Candeias/MG,-20.7676161,-45.2763777,89,597.87720
D1,Candeias/MG,-20.7676161,-45.2763777,3,20.15316
1,Candelária/RS,-29.668391,-52.789495,149,475.05181
D1,Candelária/RS,-29.668391,-52.789495,3,9.56480
1,Candiba/BA,-14.4125032,-42.8714102,32,223.47929
1,Candiota/RS,-31.5451894,-53.719538,82,855.59265
D1,Candiota/RS,-31.5451894,-53.719538,1,10.43406
1,Candói/PR,-25.5711951,-52.051107,76,475.62426
1,Canela/RS,-29.3624657,-50.8134204,655,1455.62025
D1,Canela/RS,-29.3624657,-50.8134204,21,46.66874
1,Canelinha/SC,-27.2660341,-48.7666708,523,4272.87582
D1,Canelinha/SC,-27.2660341,-48.7666708,9,73.52941
1,Canguaretama/RN,-6.3751942,-35.137463,300,875.24799
D1,Canguaretama/RN,-6.3751942,-35.137463,17,49.59739
1,Canguçu/RS,-31.398276,-52.6773522,207,369.34606
D1,Canguçu/RS,-31.398276,-52.6773522,7,12.48996
1,Canhoba/SE,-10.1373681,-36.9710796,90,2245.50898
1,Canhotinho/PE,-8.876519,-36.197935,398,1604.57991
D1,Canhotinho/PE,-8.876519,-36.197935,15,60.47412
1,Canindé de São Francisco/SE,-9.6597475,-37.7904456,422,1411.37124
D1,Canindé de São Francisco/SE,-9.6597475,-37.7904456,8,26.75585
1,Canindé/CE,-4.3547946,-39.3108516,1925,2500.09741
D1,Canindé/CE,-4.3547946,-39.3108516,74,96.10764
