type,name,lat,lon,total,total_per_100k_inhabitants
1,Abadia de Goiás/GO,-16.7572644,-49.4412205,773,8629.15829
D1,Abadia de Goiás/GO,-16.7572644,-49.4412205,9,100.46885
1,Abadia dos Dourados/MG,-18.4911191,-47.4063589,110,1570.08279
D1,Abadia dos Dourados/MG,-18.4911191,-47.4063589,1,14.27348
1,Abadiânia/GO,-16.1940946,-48.7067767,198,967.69464
D1,Abadiânia/GO,-16.1940946,-48.7067767,13,63.53551
1,Abaetetuba/PA,-1.721828,-48.878843,5406,3398.29017
D1,Abaetetuba/PA,-1.721828,-48.878843,124,77.94820
1,Abaeté/MG,-19.1566833,-45.4481213,341,1466.66667
D1,Abaeté/MG,-19.1566833,-45.4481213,5,21.50538
1,Abaiara/CE,-7.3607808,-39.0487878,165,1392.05264
D1,Abaiara/CE,-7.3607808,-39.0487878,4,33.74673
1,Abaré/BA,-8.7239913,-39.1139689,163,801.10090
D1,Abaré/BA,-8.7239913,-39.1139689,1,4.91473
1,Abatiá/PR,-23.3052967,-50.3102532,153,2065.33477
D1,Abatiá/PR,-23.3052967,-50.3102532,1,13.49892
1,Abaíra/BA,-13.2503296,-41.6640342,147,1687.71527
D1,Abaíra/BA,-13.2503296,-41.6640342,2,22.96211
1,Abdon Batista/SC,-27.612419,-51.022992,157,6161.69545
D1,Abdon Batista/SC,-27.612419,-51.022992,1,39.24647
1,Abel Figueiredo/PA,-4.953001,-48.3958485,436,5824.20518
D1,Abel Figueiredo/PA,-4.953001,-48.3958485,2,26.71654
1,Abelardo Luz/SC,-26.5705893,-52.3280339,714,3975.50111
D1,Abelardo Luz/SC,-26.5705893,-52.3280339,17,94.65479
1,Abre Campo/MG,-20.2976097,-42.4764741,228,1695.92383
D1,Abre Campo/MG,-20.2976097,-42.4764741,2,14.87652
1,Abreu e Lima/PE,-7.900719,-34.898389,1235,1230.74163
D1,Abreu e Lima/PE,-7.900719,-34.898389,144,143.50348
1,Abreulândia/TO,-9.6221526,-49.1558343,106,4086.35312
D1,Abreulândia/TO,-9.6221526,-49.1558343,4,154.20200
1,Acaiaca/MG,-20.3621646,-43.1444162,96,2403.60541
D1,Acaiaca/MG,-20.3621646,-43.1444162,3,75.11267
1,Acajutiba/BA,-11.6609659,-38.0186381,247,1626.39099
D1,Acajutiba/BA,-11.6609659,-38.0186381,6,39.50747
1,Acarape/CE,-4.2237866,-38.7071663,1952,12982.17611
D1,Acarape/CE,-4.2237866,-38.7071663,14,93.10987
1,Acaraú/CE,-2.8869514,-40.1194713,2762,4376.90162
D1,Acaraú/CE,-2.8869514,-40.1194713,58,91.91176
1,Acari/RN,-6.4364689,-36.6394777,317,2850.46309
D1,Acari/RN,-6.4364689,-36.6394777,7,62.94398
1,Acará/PA,-1.961388,-48.1987043,879,1578.97573
D1,Acará/PA,-1.961388,-48.1987043,16,28.74131
1,Acauã/PI,-8.219542,-41.083059,106,1492.53731
D1,Acauã/PI,-8.219542,-41.083059,1,14.08054
1,Aceguá/RS,-31.8695131,-54.1615593,56,1133.14448
1,Acopiara/CE,-6.0936464,-39.4543204,1377,2527.48665
D1,Acopiara/CE,-6.0936464,-39.4543204,57,104.62363
1,Acorizal/MT,-15.2001544,-56.3668953,211,3955.75553
D1,Acorizal/MT,-15.2001544,-56.3668953,7,131.23360
1,Acrelândia/AC,-10.0759167,-67.0526898,574,3705.61653
D1,Acrelândia/AC,-10.0759167,-67.0526898,14,90.38089
1,Acreúna/GO,-17.3959899,-50.3749031,1048,4648.27464
D1,Acreúna/GO,-17.3959899,-50.3749031,27,119.75517
1,Adamantina/SP,-21.6866517,-51.0762975,758,2158.86759
D1,Adamantina/SP,-21.6866517,-51.0762975,18,51.26599
1,Adelândia/GO,-16.4155077,-50.1665834,92,3656.59777
D1,Adelândia/GO,-16.4155077,-50.1665834,2,79.49126
1,Adolfo/SP,-21.2356597,-49.6441918,157,4417.55768
D1,Adolfo/SP,-21.2356597,-49.6441918,5,140.68655
1,Adrianópolis/PR,-24.6557863,-48.9912769,499,8519.71999
D1,Adrianópolis/PR,-24.6557863,-48.9912769,7,119.51511
1,Adustina/BA,-10.5358875,-38.114479,167,975.12554
D1,Adustina/BA,-10.5358875,-38.114479,4,23.35630
1,Afogados da Ingazeira/PE,-7.750429,-37.6356375,1933,5167.89648
D1,Afogados da Ingazeira/PE,-7.750429,-37.6356375,26,69.51128
1,Afonso Bezerra/RN,-5.4745,-36.57625071327935,217,1967.54012
D1,Afonso Bezerra/RN,-5.4745,-36.57625071327935,11,99.73706
1,Afonso Cláudio/ES,-20.077841,-41.12606,1788,5870.95715
D1,Afonso Cláudio/ES,-20.077841,-41.12606,33,108.35659
1,Afonso Cunha/MA,-4.1326105,-43.3230026,152,2310.73275
D1,Afonso Cunha/MA,-4.1326105,-43.3230026,2,30.40438
1,Afrânio/PE,-8.5198919,-41.0070197,457,2306.91570
D1,Afrânio/PE,-8.5198919,-41.0070197,6,30.28773
1,Afuá/PA,-0.1535664,-50.3879223,2547,6437.18250
D1,Afuá/PA,-0.1535664,-50.3879223,11,27.80095
1,Agrestina/PE,-8.4558021,-35.9442663,684,2728.90485
D1,Agrestina/PE,-8.4558021,-35.9442663,33,131.65769
1,Agricolândia/PI,-5.7967843,-42.6605131,73,1422.72462
1,Agrolândia/SC,-27.4122212,-49.8295774,431,3913.55671
D1,Agrolândia/SC,-27.4122212,-49.8295774,6,54.48107
1,Agronômica/SC,-27.2660744,-49.7104753,243,4410.96388
D1,Agronômica/SC,-27.2660744,-49.7104753,6,108.91269
1,Aguanil/MG,-20.9424533,-45.3927152,158,3494.02919
D1,Aguanil/MG,-20.9424533,-45.3927152,3,66.34233
1,Aguaí/SP,-22.0592036,-46.979384,632,1724.51430
D1,Aguaí/SP,-22.0592036,-46.979384,14,38.20127
1,Agudo/RS,-29.6423259,-53.2494005,261,1591.36638
D1,Agudo/RS,-29.6423259,-53.2494005,3,18.29157
1,Agudos do Sul/PR,-25.9890808,-49.3328175,207,2185.85005
D1,Agudos do Sul/PR,-25.9890808,-49.3328175,1,10.55966
1,Agudos/SP,-22.471162,-48.987822,1044,2791.36921
D1,Agudos/SP,-22.471162,-48.987822,18,48.12706
1,Aguiar/PB,-7.0928404,-38.1727215,56,994.67140
D1,Aguiar/PB,-7.0928404,-38.1727215,1,17.76199
1,Aguiarnópolis/TO,-6.5600452,-47.4721189,466,6761.46257
D1,Aguiarnópolis/TO,-6.5600452,-47.4721189,9,130.58619
1,Aimorés/MG,-19.4917754,-41.0615603,847,3368.99885
D1,Aimorés/MG,-19.4917754,-41.0615603,11,43.75323
1,Aiquara/BA,-14.126918,-39.8887574,344,7789.85507
D1,Aiquara/BA,-14.126918,-39.8887574,6,135.86957
1,Aiuaba/CE,-6.5710836,-40.1212278,83,474.47550
D1,Aiuaba/CE,-6.5710836,-40.1212278,1,5.71657
1,Aiuruoca/MG,-21.9759554,-44.6036637,37,619.14324
D1,Aiuruoca/MG,-21.9759554,-44.6036637,4,66.93440
1,Ajuricaba/RS,-28.239654,-53.7693013,368,5266.92429
D1,Ajuricaba/RS,-28.239654,-53.7693013,4,57.24918
1,Alagoa Grande/PB,-7.0415212,-35.6285322,1759,6185.16825
D1,Alagoa Grande/PB,-7.0415212,-35.6285322,30,105.48894
1,Alagoa Nova/PB,-7.0653703,-35.76695977336711,456,2179.62812
D1,Alagoa Nova/PB,-7.0653703,-35.76695977336711,10,47.79886
1,Alagoa/MG,-22.1697202,-44.6400042,99,3714.82176
1,Alagoinha do Piauí/PI,-7.0090952,-40.939675,157,2048.27136
D1,Alagoinha do Piauí/PI,-7.0090952,-40.939675,5,65.23157
1,Alagoinha/PB,-6.97063215,-35.51490901897793,1119,7685.43956
D1,Alagoinha/PB,-6.97063215,-35.51490901897793,16,109.89011
1,Alagoinha/PE,-8.50355635,-36.77701174370496,325,2208.18046
D1,Alagoinha/PE,-8.50355635,-36.77701174370496,11,74.73842
1,Alagoinhas/BA,-12.133526,-38.420772,7038,4620.32338
D1,Alagoinhas/BA,-12.133526,-38.420772,101,66.30473
1,Alambari/SP,-23.550338,-47.897971,131,2137.37967
D1,Alambari/SP,-23.550338,-47.897971,4,65.26350
1,Albertina/MG,-20.66164,-43.784039,72,2391.23215
D1,Albertina/MG,-20.66164,-43.784039,5,166.05779
1,Alcantil/PB,-7.7425491,-36.0609604,100,1815.21147
D1,Alcantil/PB,-7.7425491,-36.0609604,1,18.15211
1,Alcinópolis/MS,-18.3264121,-53.7094463,63,1163.00535
D1,Alcinópolis/MS,-18.3264121,-53.7094463,2,36.92080
1,Alcobaça/BA,-17.5215875,-39.1965474,883,3926.18942
D1,Alcobaça/BA,-17.5215875,-39.1965474,15,66.69631
1,Alcântara/MA,-2.4038956,-44.4154241,202,913.53111
D1,Alcântara/MA,-2.4038956,-44.4154241,8,36.17945
1,Alcântaras/CE,-3.586247,-40.5457641,605,5135.38749
D1,Alcântaras/CE,-3.586247,-40.5457641,4,33.95298
1,Aldeias Altas/MA,-4.6291957,-43.4708622,947,3539.26075
D1,Aldeias Altas/MA,-4.6291957,-43.4708622,11,41.11074
1,Alecrim/RS,-27.6566142,-54.7653195,66,1132.65831
D1,Alecrim/RS,-27.6566142,-54.7653195,2,34.32298
1,Alegre/ES,-20.7625787,-41.5318886,957,3192.66055
D1,Alegre/ES,-20.7625787,-41.5318886,24,80.06672
1,Alegrete do Piauí/PI,-7.2440138,-40.8602296,352,7157.38105
D1,Alegrete do Piauí/PI,-7.2440138,-40.8602296,3,61.00041
1,Alegrete/RS,-29.790166,-55.794862,2209,3024.86717
D1,Alegrete/RS,-29.790166,-55.794862,41,56.14285
1,Alegria/RS,-27.8332103,-54.0574959,181,5364.55246
D1,Alegria/RS,-27.8332103,-54.0574959,1,29.63841
1,Alenquer/PA,-1.946229,-54.738355,1615,2828.76760
D1,Alenquer/PA,-1.946229,-54.738355,30,52.54677
1,Alexandria/RN,-6.414779,-38.0135516,382,2818.56416
D1,Alexandria/RN,-6.414779,-38.0135516,8,59.02752
1,Alexânia/GO,-16.0834049,-48.5077803,1487,5308.81828
D1,Alexânia/GO,-16.0834049,-48.5077803,25,89.25384
1,Alfenas/MG,-21.4297405,-45.9479419,2864,3558.02917
D1,Alfenas/MG,-21.4297405,-45.9479419,65,80.75136
1,Alfredo Chaves/ES,-20.624970400000002,-40.75006690147988,1407,9613.28232
D1,Alfredo Chaves/ES,-20.624970400000002,-40.75006690147988,17,116.15195
1,Alfredo Marcondes/SP,-21.9527,-51.413956,112,2676.86424
D1,Alfredo Marcondes/SP,-21.9527,-51.413956,3,71.70172
1,Alfredo Vasconcelos/MG,-21.145833,-43.776389,85,1217.59060
D1,Alfredo Vasconcelos/MG,-21.145833,-43.776389,2,28.64919
1,Alfredo Wagner/SC,-27.6961513,-49.3326734,448,4441.80052
D1,Alfredo Wagner/SC,-27.6961513,-49.3326734,1,9.91473
1,Algodão de Jandaíra/PB,-6.9040175,-36.0089879,42,1629.80210
1,Alhandra/PB,-7.4304246,-34.9106103,782,3964.11010
D1,Alhandra/PB,-7.4304246,-34.9106103,19,96.31470
1,Aliança do Tocantins/TO,-11.3055927,-48.9409096,204,3815.93715
D1,Aliança do Tocantins/TO,-11.3055927,-48.9409096,4,74.82230
1,Aliança/PE,-7.60398,-35.222696,409,1065.18738
D1,Aliança/PE,-7.60398,-35.222696,30,78.13110
1,Almadina/BA,-14.70466,-39.6381994,387,7212.07603
D1,Almadina/BA,-14.70466,-39.6381994,6,111.81513
1,Almas/TO,-11.5681309,-47.1702803,132,1891.38845
D1,Almas/TO,-11.5681309,-47.1702803,2,28.65740
1,Almeirim/PA,-1.5290377,-52.5788111,271,795.28114
D1,Almeirim/PA,-1.5290377,-52.5788111,18,52.82310
1,Almenara/MG,-16.1740678,-40.6904907,1624,3853.54626
D1,Almenara/MG,-16.1740678,-40.6904907,18,42.71172
1,Almino Afonso/RN,-6.1544208,-37.7649018,91,1932.05945
D1,Almino Afonso/RN,-6.1544208,-37.7649018,3,63.69427
1,Almirante Tamandaré do Sul/RS,-28.1141129,-52.9134874,64,3283.73525
1,Almirante Tamandaré/PR,-25.3133048,-49.2997838,4026,3353.85410
D1,Almirante Tamandaré/PR,-25.3133048,-49.2997838,101,84.13792
1,Aloândia/GO,-17.7277983,-49.4809338,145,7301.10775
D1,Aloândia/GO,-17.7277983,-49.4809338,5,251.76234
1,Alpercata/MG,-18.9803616,-41.9827637,296,3980.63475
D1,Alpercata/MG,-18.9803616,-41.9827637,11,147.92899
1,Alpestre/RS,-27.2512339,-53.0349646,127,2093.29158
D1,Alpestre/RS,-27.2512339,-53.0349646,2,32.96522
1,Alpinópolis/MG,-20.863611,-46.387777,195,977.05181
D1,Alpinópolis/MG,-20.863611,-46.387777,5,25.05261
1,Alta Floresta D'Oeste/RO,-11.9296917,-61.9961284,1527,6718.58501
D1,Alta Floresta D'Oeste/RO,-11.9296917,-61.9961284,17,74.79761
1,Alta Floresta/MT,-9.8715018,-56.0839881,2167,4170.59605
D1,Alta Floresta/MT,-9.8715018,-56.0839881,29,55.81324
1,Altair/SP,-20.5238955,-49.0606135,55,1313.90349
D1,Altair/SP,-20.5238955,-49.0606135,4,95.55662
1,Altamira do Maranhão/MA,-4.1643006,-45.4674574,274,3345.95189
D1,Altamira do Maranhão/MA,-4.1643006,-45.4674574,6,73.26902
1,Altamira do Paraná/PR,-24.799114,-52.7128633,26,1545.77883
D1,Altamira do Paraná/PR,-24.799114,-52.7128633,2,118.90606
1,Altamira/PA,-3.204065,-52.209961,6325,5454.04375
D1,Altamira/PA,-3.204065,-52.209961,135,116.41042
1,Altaneira/CE,-6.9980933,-39.7385742,238,3111.11111
D1,Altaneira/CE,-6.9980933,-39.7385742,7,91.50327
1,Alterosa/MG,-21.249166,-46.143055,119,819.72859
D1,Alterosa/MG,-21.249166,-46.143055,4,27.55390
1,Altinho/PE,-8.4904095,-36.0607494,624,2714.93213
D1,Altinho/PE,-8.4904095,-36.0607494,11,47.85938
1,Altinópolis/SP,-21.021364,-47.3712,301,1857.68068
D1,Altinópolis/SP,-21.021364,-47.3712,8,49.37357
1,Alto Alegre do Maranhão/MA,-4.2055693,-44.4525287,396,1421.49472
D1,Alto Alegre do Maranhão/MA,-4.2055693,-44.4525287,18,64.61340
1,Alto Alegre do Pindaré/MA,-3.6698186,-45.8462153,1575,4930.65773
D1,Alto Alegre do Pindaré/MA,-3.6698186,-45.8462153,25,78.26441
1,Alto Alegre dos Parecis/RO,-12.1314515,-61.856265,347,2617.88005
D1,Alto Alegre dos Parecis/RO,-12.1314515,-61.856265,10,75.44323
1,Alto Alegre/RR,2.98858,-61.307167,845,5494.14824
D1,Alto Alegre/RR,2.98858,-61.307167,19,123.53706
1,Alto Alegre/RS,-31.780844700000003,-52.81311114489171,20,1239.92560
1,Alto Alegre/SP,-21.5820592,-50.1661976,125,3057.72994
D1,Alto Alegre/SP,-21.5820592,-50.1661976,3,73.38552
1,Alto Araguaia/MT,-17.3156528,-53.2169365,467,2409.07918
D1,Alto Araguaia/MT,-17.3156528,-53.2169365,8,41.26902
1,Alto Bela Vista/SC,-27.4320737,-51.905771,39,2024.92212
D1,Alto Bela Vista/SC,-27.4320737,-51.905771,1,51.92108
1,Alto Boa Vista/MT,-11.6723985,-51.3744431,100,1441.75317
D1,Alto Boa Vista/MT,-11.6723985,-51.3744431,3,43.25260
1,Alto Caparaó/MG,-20.4405661,-41.8683799,195,3308.44927
D1,Alto Caparaó/MG,-20.4405661,-41.8683799,4,67.86563
1,Alto Feliz/RS,-29.3785943,-51.3123751,86,2832.67457
1,Alto Garças/MT,-16.9469683,-53.529427,320,2633.52810
D1,Alto Garças/MT,-16.9469683,-53.529427,15,123.44663
1,Alto Horizonte/GO,-14.1954948,-49.3366993,210,3179.40954
D1,Alto Horizonte/GO,-14.1954948,-49.3366993,2,30.28009
1,Alto Jequitibá/MG,-20.423611,-41.966111,309,3722.44308
D1,Alto Jequitibá/MG,-20.423611,-41.966111,7,84.32719
1,Alto Longá/PI,-5.2549051,-42.2072388,291,2029.43023
D1,Alto Longá/PI,-5.2549051,-42.2072388,6,41.84392
1,Alto Paraguai/MT,-14.513712,-56.4936374,352,3068.07287
D1,Alto Paraguai/MT,-14.513712,-56.4936374,9,78.44504
1,Alto Paraná/PR,-23.131247,-52.318893,291,1958.40905
D1,Alto Paraná/PR,-23.131247,-52.318893,2,13.45986
1,Alto Paraíso de Goiás/GO,-14.1304779,-47.5100161,369,4799.68783
1,Alto Paraíso/PR,-23.508137,-53.728537,46,1713.22160
1,Alto Paraíso/RO,-9.7240103,-63.3188123,588,2691.44505
D1,Alto Paraíso/RO,-9.7240103,-63.3188123,9,41.19559
1,Alto Parnaíba/MA,-9.112506,-45.9310154,521,4646.80699
D1,Alto Parnaíba/MA,-9.112506,-45.9310154,4,35.67606
1,Alto Piquiri/PR,-24.0239021,-53.4417448,230,2352.21927
D1,Alto Piquiri/PR,-24.0239021,-53.4417448,5,51.13520
1,Alto Rio Doce/MG,-21.0239537,-43.4133507,149,1372.13371
D1,Alto Rio Doce/MG,-21.0239537,-43.4133507,10,92.08951
1,Alto Rio Novo/ES,-19.0577208,-41.0171518,441,5600.71120
D1,Alto Rio Novo/ES,-19.0577208,-41.0171518,14,177.80036
1,Alto Santo/CE,-5.5190371,-38.2719351,527,3064.66620
D1,Alto Santo/CE,-5.5190371,-38.2719351,13,75.59898
1,Alto Taquari/MT,-17.8269099,-53.2831736,569,5110.93147
D1,Alto Taquari/MT,-17.8269099,-53.2831736,7,62.87613
1,Alto do Rodrigues/RN,-5.290868,-36.7616726,704,4780.01086
D1,Alto do Rodrigues/RN,-5.290868,-36.7616726,19,129.00598
1,Altos/PI,-5.0393915,-42.4611694,2239,5514.09925
D1,Altos/PI,-5.0393915,-42.4611694,32,78.80803
1,Altônia/PR,-23.8722004,-53.894037,433,1952.56133
D1,Altônia/PR,-23.8722004,-53.894037,5,22.54690
1,Alumínio/SP,-23.5203479,-47.2575256,487,2594.98055
D1,Alumínio/SP,-23.5203479,-47.2575256,13,69.27053
1,Alvarenga/MG,-19.4175,-41.728334,175,4552.54943
D1,Alvarenga/MG,-19.4175,-41.728334,2,52.02914
1,Alvarães/AM,-3.214786,-64.8143124,1647,10154.13070
D1,Alvarães/AM,-3.214786,-64.8143124,29,178.79162
1,Alvinlândia/SP,-22.4431852,-49.7643596,40,1235.71208
1,Alvinópolis/MG,-20.1105199,-43.0601805,208,1371.21761
D1,Alvinópolis/MG,-20.1105199,-43.0601805,2,13.18478
1,Alvorada D'Oeste/RO,-11.346271,-62.284697,271,1921.16830
D1,Alvorada D'Oeste/RO,-11.346271,-62.284697,8,56.71346
1,Alvorada de Minas/MG,-18.7318587,-43.3641479,69,1914.00832
D1,Alvorada de Minas/MG,-18.7318587,-43.3641479,1,27.73925
1,Alvorada do Gurguéia/PI,-8.4465288,-43.8655915,104,1910.00918
D1,Alvorada do Gurguéia/PI,-8.4465288,-43.8655915,5,91.82736
1,Alvorada do Norte/GO,-14.483911,-46.4959897,353,4055.14072
D1,Alvorada do Norte/GO,-14.483911,-46.4959897,1,11.48765
1,Alvorada do Sul/PR,-22.7807269,-51.2307721,227,1973.39824
D1,Alvorada do Sul/PR,-22.7807269,-51.2307721,7,60.85369
1,Alvorada/RS,-29.9981184,-51.0772509,8968,4243.15833
D1,Alvorada/RS,-29.9981184,-51.0772509,244,115.44722
1,Alvorada/TO,-12.478465,-49.124926,594,7074.79752
D1,Alvorada/TO,-12.478465,-49.124926,10,119.10434
1,Além Paraíba/MG,-21.8760576,-42.6810473,1033,2917.99667
D1,Além Paraíba/MG,-21.8760576,-42.6810473,30,84.74337
1,Amajari/RR,3.6523869,-61.4194315,597,4527.87258
D1,Amajari/RR,3.6523869,-61.4194315,16,121.35002
1,Amambai/MS,-23.1082701,-55.2284854,1389,3487.67137
D1,Amambai/MS,-23.1082701,-55.2284854,24,60.26214
1,Amaporã/PR,-23.094272,-52.786597,62,979.15351
1,Amapá do Maranhão/MA,-1.6762114,-46.0109669,5,71.37759
1,Amapá/AP,2.0529997,-50.7930003,1021,11113.52999
D1,Amapá/AP,2.0529997,-50.7930003,6,65.30968
1,Amaraji/PE,-8.373925,-35.4536527,368,1609.09488
D1,Amaraji/PE,-8.373925,-35.4536527,24,104.94097
1,Amaral Ferrador/RS,-30.8750633,-52.2542051,108,1524.34721
D1,Amaral Ferrador/RS,-30.8750633,-52.2542051,2,28.22865
1,Amaralina/GO,-13.9236199,-49.2962411,17,442.13264
1,Amarante do Maranhão/MA,-5.56913,-46.747284,1156,2770.25570
D1,Amarante do Maranhão/MA,-5.56913,-46.747284,31,74.28886
1,Amarante/PI,-6.2459374,-42.8476238,724,4112.70166
D1,Amarante/PI,-6.2459374,-42.8476238,13,73.84685
1,Amargosa/BA,-13.03793715,-39.60796443875596,866,2312.97241
D1,Amargosa/BA,-13.03793715,-39.60796443875596,18,48.07564
1,Amaturá/AM,-3.3640509,-68.1994689,1194,10173.82413
D1,Amaturá/AM,-3.3640509,-68.1994689,10,85.20791
1,Americana/SP,-22.7392463,-47.3306032,8569,3540.64574
D1,Americana/SP,-22.7392463,-47.3306032,233,96.27383
1,Americano do Brasil/GO,-16.2515808,-49.9806104,162,2628.16353
D1,Americano do Brasil/GO,-16.2515808,-49.9806104,4,64.89293
1,Ametista do Sul/RS,-27.3617341,-53.1826575,172,2323.38241
D1,Ametista do Sul/RS,-27.3617341,-53.1826575,1,13.50804
1,Amontada/CE,-3.3634586,-39.8284791,1015,2315.81829
D1,Amontada/CE,-3.3634586,-39.8284791,20,45.63189
1,Amorinópolis/GO,-16.6211308,-51.0949921,97,3160.63864
D1,Amorinópolis/GO,-16.6211308,-51.0949921,1,32.58390
1,Amparo de São Francisco/SE,-10.1299754,-36.9269099,76,3193.27731
D1,Amparo de São Francisco/SE,-10.1299754,-36.9269099,2,84.03361
1,Amparo do Serra/MG,-20.5070255,-42.8028462,69,1474.98931
D1,Amparo do Serra/MG,-20.5070255,-42.8028462,3,64.12997
1,Amparo/PB,-7.56394725,-37.04652873235175,31,1377.16570
1,Amparo/SP,-22.70111,-46.76444,1782,2451.94491
D1,Amparo/SP,-22.70111,-46.76444,38,52.28614
1,Ampére/PR,-25.9168712,-53.4742414,416,2154.21262
D1,Ampére/PR,-25.9168712,-53.4742414,9,46.60556
1,Amélia Rodrigues/BA,-12.4015388,-38.7516971,838,3345.57649
D1,Amélia Rodrigues/BA,-12.4015388,-38.7516971,15,59.88502
1,América Dourada/BA,-11.4515262,-41.4357517,354,2200.12430
D1,América Dourada/BA,-11.4515262,-41.4357517,2,12.43008
1,Américo Brasiliense/SP,-21.7297099,-48.1052092,1138,2773.44512
D1,Américo Brasiliense/SP,-21.7297099,-48.1052092,19,46.30532
1,Américo de Campos/SP,-20.298476,-49.735904,387,6470.48988
D1,Américo de Campos/SP,-20.298476,-49.735904,12,200.63535
1,Anadia/AL,-9.6830208,-36.3052699,556,3172.42953
D1,Anadia/AL,-9.6830208,-36.3052699,9,51.35228
1,Anagé/BA,-14.6134669,-41.1376308,310,1434.72023
D1,Anagé/BA,-14.6134669,-41.1376308,7,32.39691
1,Anahy/PR,-24.6450861,-53.1337957,74,2654.23242
D1,Anahy/PR,-24.6450861,-53.1337957,1,35.86801
1,Anajatuba/MA,-3.26441,-44.6179916,363,1345.04224
D1,Anajatuba/MA,-3.26441,-44.6179916,10,37.05351
1,Anajás/PA,-0.9878802,-49.9390114,990,3334.68068
D1,Anajás/PA,-0.9878802,-49.9390114,11,37.05201
1,Analândia/SP,-22.128917,-47.661939,74,1463.60759
D1,Analândia/SP,-22.128917,-47.661939,2,39.55696
1,Anamã/AM,-3.5797356,-61.4049996,1332,9544.28203
D1,Anamã/AM,-3.5797356,-61.4049996,1,7.16538
1,Ananindeua/PA,-1.374035,-48.4016623,11639,2173.29198
D1,Ananindeua/PA,-1.374035,-48.4016623,393,73.38292
1,Ananás/TO,-6.3663053,-48.080238,754,7943.53139
D1,Ananás/TO,-6.3663053,-48.080238,16,168.56300
1,Anapu/PA,-3.4668292,-51.2057035,1104,3859.19530
D1,Anapu/PA,-3.4668292,-51.2057035,23,80.39990
1,Anapurus/MA,-3.6751298,-43.1046001,821,5165.47125
D1,Anapurus/MA,-3.6751298,-43.1046001,6,37.75009
1,Anastácio/MS,-20.4832458,-55.8048448,1185,4695.48679
D1,Anastácio/MS,-20.4832458,-55.8048448,34,134.72283
1,Anaurilândia/MS,-22.185169,-52.719056,104,1145.87924
D1,Anaurilândia/MS,-22.185169,-52.719056,3,33.05421
1,Anchieta/ES,-20.8057672,-40.6454564,2130,7152.69149
D1,Anchieta/ES,-20.8057672,-40.6454564,35,117.53249
1,Anchieta/SC,-26.5350527,-53.3293938,160,2879.25139
D1,Anchieta/SC,-26.5350527,-53.3293938,4,71.98128
1,Andaraí/BA,-12.8059674,-41.3322919,379,2886.07981
D1,Andaraí/BA,-12.8059674,-41.3322919,2,15.22997
1,Andirá/PR,-23.0494761,-50.2310027,649,3257.05109
D1,Andirá/PR,-23.0494761,-50.2310027,4,20.07427
1,Andorinha/BA,-10.3445708,-39.8334411,389,2682.20368
D1,Andorinha/BA,-10.3445708,-39.8334411,7,48.26588
1,Andradas/MG,-22.0680484,-46.5688976,754,1821.43202
D1,Andradas/MG,-22.0680484,-46.5688976,21,50.72954
1,Andradina/SP,-20.896505,-51.3742765,2366,4136.21901
D1,Andradina/SP,-20.896505,-51.3742765,89,155.58897
1,Andrelândia/MG,-21.739722,-44.308889,147,1204.32574
D1,Andrelândia/MG,-21.739722,-44.308889,2,16.38538
1,André da Rocha/RS,-28.6309124,-51.5733328,50,3723.00819
1,Angatuba/SP,-23.4938938,-48.4110675,449,1762.23557
D1,Angatuba/SP,-23.4938938,-48.4110675,12,47.09761
1,Angelim/PE,-8.8902038,-36.2872987,90,801.71032
D1,Angelim/PE,-8.8902038,-36.2872987,3,26.72368
1,Angelina/SC,-27.5805287,-48.9838759,241,5081.17225
1,Angelândia/MG,-17.7253,-42.2728,28,327.21748
1,Angical do Piauí/PI,-6.0872666,-42.7366138,208,3066.48975
D1,Angical do Piauí/PI,-6.0872666,-42.7366138,5,73.71370
1,Angical/BA,-12.005623,-44.7000236,284,2037.59506
D1,Angical/BA,-12.005623,-44.7000236,5,35.87315
1,Angico/TO,-6.3893733,-47.8656722,170,4921.82976
D1,Angico/TO,-6.3893733,-47.8656722,2,57.90388
1,Angicos/RN,-5.6666344,-36.6009064,192,1640.32465
D1,Angicos/RN,-5.6666344,-36.6009064,6,51.26015
1,Angra dos Reis/RJ,-23.0063966,-44.316326,8699,4201.52238
D1,Angra dos Reis/RJ,-23.0063966,-44.316326,290,140.06685
1,Anguera/BA,-12.1509425,-39.2452469,137,1212.71134
1,Angélica/MS,-22.1588196,-53.7728504,276,2524.69813
D1,Angélica/MS,-22.1588196,-53.7728504,5,45.73729
1,Anhanguera/GO,-18.3338749,-48.220363,22,1896.55172
D1,Anhanguera/GO,-18.3338749,-48.220363,2,172.41379
1,Anhembi/SP,-22.7891096,-48.1316776,43,630.59100
D1,Anhembi/SP,-22.7891096,-48.1316776,1,14.66491
1,Anhumas/SP,-22.2956478,-51.3873401,133,3209.45946
D1,Anhumas/SP,-22.2956478,-51.3873401,1,24.13127
1,Anicuns/GO,-16.4606451,-49.9572265,1018,4631.27246
D1,Anicuns/GO,-16.4606451,-49.9572265,17,77.33952
1,Anita Garibaldi/SC,-27.6855032,-51.1293873,532,7646.97427
D1,Anita Garibaldi/SC,-27.6855032,-51.1293873,3,43.12204
1,Anitápolis/SC,-27.9041185,-49.1287395,166,5142.50310
1,Anori/AM,-3.7435254,-61.6605203,1354,6304.41868
D1,Anori/AM,-3.7435254,-61.6605203,21,97.77902
1,Anta Gorda/RS,-28.9718745,-52.0069187,327,5485.65677
1,Antas/BA,-10.4114649,-38.3308815,643,3300.99081
1,Antonina do Norte/CE,-6.7754187,-39.9879345,81,1097.85850
D1,Antonina do Norte/CE,-6.7754187,-39.9879345,2,27.10762
1,Antonina/PR,-25.4298854,-48.7125431,1339,7066.33595
D1,Antonina/PR,-25.4298854,-48.7125431,34,179.42899
1,Antônio Almeida/PI,-7.2186016,-44.1950248,250,7886.43533
D1,Antônio Almeida/PI,-7.2186016,-44.1950248,3,94.63722
1,Antônio Cardoso/BA,-12.4363122,-39.1200307,127,1087.60812
D1,Antônio Cardoso/BA,-12.4363122,-39.1200307,4,34.25537
1,Antônio Carlos/MG,-21.318334,-43.746666,204,1780.26006
D1,Antônio Carlos/MG,-21.318334,-43.746666,3,26.18029
1,Antônio Carlos/SC,-27.5168462,-48.7684715,784,9102.51945
D1,Antônio Carlos/SC,-27.5168462,-48.7684715,14,162.54499
1,Antônio Dias/MG,-19.6525,-42.872778,165,1778.97574
D1,Antônio Dias/MG,-19.6525,-42.872778,6,64.69003
1,Antônio Gonçalves/BA,-10.5715409,-40.2748824,351,2955.04294
D1,Antônio Gonçalves/BA,-10.5715409,-40.2748824,1,8.41893
1,Antônio João/MS,-22.1892837,-55.9508227,149,1651.88470
D1,Antônio João/MS,-22.1892837,-55.9508227,4,44.34590
1,Antônio Martins/RN,-6.2155812,-37.8890129,110,1537.60134
D1,Antônio Martins/RN,-6.2155812,-37.8890129,1,13.97819
1,Antônio Olinto/PR,-25.9849006,-50.1974516,136,1831.15659
D1,Antônio Olinto/PR,-25.9849006,-50.1974516,1,13.46439
1,Antônio Prado de Minas/MG,-21.0171988,-42.1101106,103,6490.23314
D1,Antônio Prado de Minas/MG,-21.0171988,-42.1101106,3,189.03592
1,Antônio Prado/RS,-28.8567806,-51.2801355,1015,7780.75891
D1,Antônio Prado/RS,-28.8567806,-51.2801355,11,84.32350
1,Anápolis/GO,-16.3332828,-48.9525756,16905,4315.00975
D1,Anápolis/GO,-16.3332828,-48.9525756,422,107.71571
1,Anísio de Abreu/PI,-9.185643,-43.04941,204,2052.72691
D1,Anísio de Abreu/PI,-9.185643,-43.04941,2,20.12477
1,Aparecida d'Oeste/SP,-20.4498109,-50.8808706,352,8465.60847
D1,Aparecida d'Oeste/SP,-20.4498109,-50.8808706,9,216.45022
1,Aparecida de Goiânia/GO,-16.8226769,-49.2452546,40728,6901.34306
D1,Aparecida de Goiânia/GO,-16.8226769,-49.2452546,600,101.66976
1,Aparecida do Rio Doce/GO,-18.2980167,-51.1491312,111,4486.66128
D1,Aparecida do Rio Doce/GO,-18.2980167,-51.1491312,3,121.26112
1,Aparecida do Rio Negro/TO,-9.9513491,-47.9773786,121,2495.87459
D1,Aparecida do Rio Negro/TO,-9.9513491,-47.9773786,2,41.25413
1,Aparecida do Taboado/MS,-20.0840304,-51.1013943,1176,4511.10514
D1,Aparecida do Taboado/MS,-20.0840304,-51.1013943,20,76.71948
1,Aparecida/PB,-6.7859598, -38.0831353,558,6630.22814
D1,Aparecida/PB,-6.7859598, -38.0831353,7,83.17490
1,Aparecida/SP,-22.851552,-45.2340924,823,2274.42310
D1,Aparecida/SP,-22.851552,-45.2340924,22,60.79867
1,Aperibé/RJ,-21.6211928,-42.1028167,253,2125.87178
D1,Aperibé/RJ,-21.6211928,-42.1028167,9,75.62390
1,Apiacá/ES,-21.152272,-41.569297,362,4792.16309
D1,Apiacá/ES,-21.152272,-41.569297,9,119.14218
1,Apiacás/MT,-9.5678422,-57.394852,124,1205.87377
D1,Apiacás/MT,-9.5678422,-57.394852,1,9.72479
1,Apiaí/SP,-24.5076527,-48.8461582,329,1358.04508
D1,Apiaí/SP,-24.5076527,-48.8461582,9,37.15017
1,Apicum-Açu/MA,-1.5279295,-45.082278,199,1142.82433
D1,Apicum-Açu/MA,-1.5279295,-45.082278,3,17.22851
1,Apiúna/SC,-27.0374658,-49.3885037,438,4037.61062
D1,Apiúna/SC,-27.0374658,-49.3885037,9,82.96460
1,Apodi/RN,-5.6631109,-37.796927,3229,9000.94776
D1,Apodi/RN,-5.6631109,-37.796927,45,125.43904
1,Aporá/BA,-11.6599747,-38.0794757,298,1675.28671
D1,Aporá/BA,-11.6599747,-38.0794757,8,44.97414
1,Aporé/GO,-18.9642193,-51.92804,154,3638.94140
D1,Aporé/GO,-18.9642193,-51.92804,3,70.88847
1,Apuarema/BA,-13.8517897,-39.7457126,477,6532.45686
D1,Apuarema/BA,-13.8517897,-39.7457126,7,95.86415
1,Apucarana/PR,-23.5525327,-51.4610764,2493,1829.93966
D1,Apucarana/PR,-23.5525327,-51.4610764,97,71.20102
1,Apuiarés/CE,-3.9460303,-39.4313298,263,1792.52999
D1,Apuiarés/CE,-3.9460303,-39.4313298,11,74.97274
1,Apuí/AM,-7.1940195,-59.8830192,585,2616.39608
D1,Apuí/AM,-7.1940195,-59.8830192,9,40.25225
1,Aquidabã/SE,-10.2837579,-37.0188687,1005,4635.39505
D1,Aquidabã/SE,-10.2837579,-37.0188687,19,87.63433
1,Aquidauana/MS,-20.473969,-55.7821375,2897,6031.77247
D1,Aquidauana/MS,-20.473969,-55.7821375,77,160.31981
1,Aquiraz/CE,-3.9063117,-38.387504,1433,1770.55662
D1,Aquiraz/CE,-3.9063117,-38.387504,40,49.42238
1,Arabutã/SC,-27.1587028,-52.1438142,163,3820.01406
D1,Arabutã/SC,-27.1587028,-52.1438142,2,46.87134
1,Aracaju/SE,-10.9162061,-37.0774655,62384,9382.35064
D1,Aracaju/SE,-10.9162061,-37.0774655,927,139.41778
1,Aracati/CE,-4.558259,-37.767894,2386,3182.39413
D1,Aracati/CE,-4.558259,-37.767894,59,78.69290
1,Aracatu/BA,-14.4274236,-41.4604105,453,3472.59486
D1,Aracatu/BA,-14.4274236,-41.4604105,7,53.66041
1,Araci/BA,-11.3356065,-38.9573261,1481,2710.07173
D1,Araci/BA,-11.3356065,-38.9573261,18,32.93808
1,Aracitaba/MG,-21.3425,-43.378611,65,3156.87227
D1,Aracitaba/MG,-21.3425,-43.378611,5,242.83633
1,Aracoiaba/CE,-4.3702577,-38.8084313,911,3433.20143
D1,Aracoiaba/CE,-4.3702577,-38.8084313,17,64.06633
1,Aracruz/ES,-19.8245218,-40.2735025,8365,8113.40336
D1,Aracruz/ES,-19.8245218,-40.2735025,110,106.69150
1,Aragarças/GO,-15.8957166,-52.2514538,1088,5366.74395
D1,Aragarças/GO,-15.8957166,-52.2514538,20,98.65338
1,Aragoiânia/GO,-16.9146388,-49.4499148,445,4239.71037
D1,Aragoiânia/GO,-16.9146388,-49.4499148,4,38.10976
1,Aragominas/TO,-7.1654101,-48.525488,333,5810.50427
D1,Aragominas/TO,-7.1654101,-48.525488,7,122.14273
1,Araguacema/TO,-8.8067391,-49.5560969,80,1118.09923
D1,Araguacema/TO,-8.8067391,-49.5560969,1,13.97624
1,Araguaiana/MT,-15.729144,-51.834112,64,2058.53972
D1,Araguaiana/MT,-15.729144,-51.834112,2,64.32937
1,Araguainha/MT,-16.857016,-53.031778,5,528.54123
1,Araguanã/MA,-2.9508403,-45.6651986,569,3658.92869
D1,Araguanã/MA,-2.9508403,-45.6651986,4,25.72182
1,Araguanã/TO,-6.5799107,-48.6428482,180,3107.19834
D1,Araguanã/TO,-6.5799107,-48.6428482,9,155.35992
1,Araguapaz/GO,-15.0937927,-50.626417,204,2621.09726
D1,Araguapaz/GO,-15.0937927,-50.626417,7,89.93961
1,Araguari/MG,-18.6511256,-48.1933764,5536,4698.49353
D1,Araguari/MG,-18.6511256,-48.1933764,118,100.14853
1,Araguatins/TO,-5.6522925,-48.1158973,1131,3126.90075
D1,Araguatins/TO,-5.6522925,-48.1158973,30,82.94166
1,Araguaçu/TO,-12.928934,-49.823134,574,6779.26066
D1,Araguaçu/TO,-12.928934,-49.823134,9,106.29503
1,Araguaína/TO,-7.193241,-48.2018597,18356,10009.76110
D1,Araguaína/TO,-7.193241,-48.2018597,245,133.60163
1,Araioses/MA,-2.890914,-41.904993,589,1259.32736
D1,Araioses/MA,-2.890914,-41.904993,10,21.38077
1,Aral Moreira/MS,-22.951141,-55.6268421,241,1954.26533
D1,Aral Moreira/MS,-22.951141,-55.6268421,6,48.65391
1,Aramari/BA,-12.0907897,-38.4985065,233,2032.98142
D1,Aramari/BA,-12.0907897,-38.4985065,6,52.35145
1,Arambaré/RS,-30.9132252,-51.4994625,59,1656.37282
D1,Arambaré/RS,-30.9132252,-51.4994625,2,56.14823
1,Arame/MA,-4.8858769,-46.0102484,958,2923.94091
D1,Arame/MA,-4.8858769,-46.0102484,22,67.14687
1,Aramina/SP,-20.0876144,-47.789201,139,2458.00177
D1,Aramina/SP,-20.0876144,-47.789201,5,88.41733
1,Arandu/SP,-23.1345103,-49.0545651,84,1319.71720
D1,Arandu/SP,-23.1345103,-49.0545651,5,78.55460
1,Arantina/MG,-21.911667,-44.255833,35,1255.83064
D1,Arantina/MG,-21.911667,-44.255833,2,71.76175
1,Arapeí/SP,-22.6738889,-44.4477778,28,1138.21138
D1,Arapeí/SP,-22.6738889,-44.4477778,1,40.65041
1,Arapiraca/AL,-9.754866,-36.661471,14469,6208.61886
D1,Arapiraca/AL,-9.754866,-36.661471,187,80.24132
1,Arapoema/TO,-7.6575001,-49.0641484,155,2342.80532
D1,Arapoema/TO,-7.6575001,-49.0641484,4,60.45949
1,Araponga/MG,-20.666667,-42.520556,142,1679.87697
1,Arapongas/PR,-23.415296,-51.42592,5394,4321.76909
D1,Arapongas/PR,-23.415296,-51.42592,161,128.99607
1,Araporã/MG,-18.4318188,-49.188313,1018,14687.63526
D1,Araporã/MG,-18.4318188,-49.188313,10,144.27932
1,Arapoti/PR,-24.1457957,-49.8224605,956,3378.09187
D1,Arapoti/PR,-24.1457957,-49.8224605,5,17.66784
1,Araputanga/MT,-15.4710868,-58.346796,660,3893.57560
D1,Araputanga/MT,-15.4710868,-58.346796,10,58.99357
1,Arapuá/MG,-19.034444,-46.155556,49,1728.39506
1,Arapuã/PR,-24.3079525,-51.7901941,88,2924.55965
D1,Arapuã/PR,-24.3079525,-51.7901941,2,66.46726
1,Araquari/SC,-26.3703324,-48.7210994,1614,4083.59478
D1,Araquari/SC,-26.3703324,-48.7210994,21,53.13227
1,Arara/PB,-6.8271895,-35.7605703,282,2082.41028
D1,Arara/PB,-6.8271895,-35.7605703,7,51.69104
1,Araranguá/SC,-28.9348832,-49.4858389,5804,8427.83917
D1,Araranguá/SC,-28.9348832,-49.4858389,85,123.42631
1,Araraquara/SP,-21.7886713,-48.1773096,8177,3430.82752
D1,Araraquara/SP,-21.7886713,-48.1773096,91,38.18091
1,Araras/SP,-22.3569477,-47.3838889,6436,4749.60518
D1,Araras/SP,-22.3569477,-47.3838889,98,72.32152
1,Ararendá/CE,-4.7504395,-40.8303611,408,3722.96742
D1,Ararendá/CE,-4.7504395,-40.8303611,9,82.12428
1,Arari/MA,-3.4547602,-44.7772723,373,1246.15796
D1,Arari/MA,-3.4547602,-44.7772723,10,33.40906
1,Araricá/RS,-29.6168543,-50.929121,430,7451.04835
D1,Araricá/RS,-29.6168543,-50.929121,9,155.95217
1,Araripe/CE,-7.212861,-40.1359222,313,1445.46042
D1,Araripe/CE,-7.212861,-40.1359222,5,23.09042
1,Araripina/PE,-7.5768582,-40.5038509,3193,3762.49057
D1,Araripina/PE,-7.5768582,-40.5038509,52,61.27451
1,Araruama/RJ,-22.8733203,-42.3428897,2382,1773.73355
D1,Araruama/RJ,-22.8733203,-42.3428897,91,67.76228
1,Araruna/PB,-6.5321155,-35.7397595,487,2379.90519
D1,Araruna/PB,-6.5321155,-35.7397595,15,73.30303
1,Araruna/PR,-23.9320308,-52.4976047,500,3571.42857
D1,Araruna/PR,-23.9320308,-52.4976047,11,78.57143
1,Arataca/BA,-15.2617424,-39.4122943,282,2572.75796
D1,Arataca/BA,-15.2617424,-39.4122943,10,91.23255
1,Aratiba/RS,-27.3955734,-52.3024325,199,3215.38213
D1,Aratiba/RS,-27.3955734,-52.3024325,4,64.63080
1,Aratuba/CE,-4.4195958,-39.0463737,271,2296.22098
D1,Aratuba/CE,-4.4195958,-39.0463737,2,16.94628
1,Aratuípe/BA,-13.077137,-39.0010786,195,2206.63121
D1,Aratuípe/BA,-13.077137,-39.0010786,6,67.89634
1,Araucária/PR,-25.5861107,-49.4051209,11116,7602.55516
D1,Araucária/PR,-25.5861107,-49.4051209,128,87.54292
1,Arauá/SE,-11.2644014,-37.6181058,487,4895.94853
D1,Arauá/SE,-11.2644014,-37.6181058,10,100.53282
1,Araxá/MG,-19.5928536,-46.940241,3544,3301.75056
D1,Araxá/MG,-19.5928536,-46.940241,43,40.06074
1,Araçagi/PB,-6.8519969,-35.3835602,618,3652.26641
D1,Araçagi/PB,-6.8519969,-35.3835602,7,41.36871
1,Araçariguama/SP,-23.438611,-47.061389,575,2515.31059
D1,Araçariguama/SP,-23.438611,-47.061389,14,61.24234
1,Araçatuba/SP,-21.207992,-50.4390225,11331,5719.00126
D1,Araçatuba/SP,-21.207992,-50.4390225,221,111.54349
1,Araçaí/MG,-19.200833,-44.2475,11,467.28972
1,Araçoiaba da Serra/SP,-23.5045367,-47.6168158,969,2786.40442
D1,Araçoiaba da Serra/SP,-23.5045367,-47.6168158,21,60.38647
1,Araçoiaba/PE,-7.7856903,-35.0898881,200,964.64573
D1,Araçoiaba/PE,-7.7856903,-35.0898881,20,96.46457
1,Araçu/GO,-16.3561579,-49.6815269,164,4704.53242
D1,Araçu/GO,-16.3561579,-49.6815269,4,114.74469
1,Araçuaí/MG,-16.8484451,-42.0661868,278,757.24559
D1,Araçuaí/MG,-16.8484451,-42.0661868,9,24.51514
1,Araçás/BA,-12.2139176,-38.2026159,445,3645.15072
D1,Araçás/BA,-12.2139176,-38.2026159,6,49.14810
1,Araújos/MG,-19.948055,-45.165556,129,1372.19445
D1,Araújos/MG,-19.948055,-45.165556,1,10.63717
1,Arceburgo/MG,-21.364444,-46.939722,217,1993.93550
D1,Arceburgo/MG,-21.364444,-46.939722,3,27.56593
1,Arco-Íris/SP,-21.7741308,-50.4668814,34,1917.65369
D1,Arco-Íris/SP,-21.7741308,-50.4668814,3,169.20474
1,Arcos/MG,-20.282223,-45.539444,1215,3008.91530
D1,Arcos/MG,-20.282223,-45.539444,16,39.62358
1,Arcoverde/PE,-8.415192,-37.057748,3036,4057.63011
D1,Arcoverde/PE,-8.415192,-37.057748,75,100.23790
1,Areado/MG,-21.3582771,-46.1476688,137,902.44384
D1,Areado/MG,-21.3582771,-46.1476688,3,19.76154
1,Areal/RJ,-22.2314922,-43.1056264,329,2596.89005
D1,Areal/RJ,-22.2314922,-43.1056264,10,78.93283
1,Arealva/SP,-22.0301906,-48.9111936,239,2774.87519
D1,Arealva/SP,-22.0301906,-48.9111936,2,23.22071
1,Areia Branca/RN,-4.9506652,-37.1263312,1039,3715.09279
D1,Areia Branca/RN,-4.9506652,-37.1263312,56,200.23599
1,Areia Branca/SE,-10.7591455,-37.3148072,929,4971.63652
D1,Areia Branca/SE,-10.7591455,-37.3148072,21,112.38360
1,Areia de Baraúnas/PB,-7.1233949,-36.9446216,14,661.62571
1,Areia/PB,-6.9680243,-35.6994783,603,2661.54661
D1,Areia/PB,-6.9680243,-35.6994783,6,26.48305
1,Areial/PB,-7.0501306,-35.9245244,106,1508.46734
D1,Areial/PB,-7.0501306,-35.9245244,4,56.92330
1,Areias/SP,-22.5800929,-44.6975127,58,1488.70637
1,Areiópolis/SP,-22.6758064,-48.6673653,199,1783.47374
D1,Areiópolis/SP,-22.6758064,-48.6673653,4,35.84872
1,Arenápolis/MT,-14.4610369,-56.8432806,548,5767.20690
D1,Arenápolis/MT,-14.4610369,-56.8432806,7,73.66870
1,Arenópolis/GO,-16.3859286,-51.55937,32,1261.82965
1,Argirita/MG,-21.612761,-42.8371922,129,4770.71006
D1,Argirita/MG,-21.612761,-42.8371922,5,184.91124
1,Aricanduva/MG,-17.8678,-42.5569,18,341.62080
1,Arinos/MG,-15.917223,-46.106111,167,934.94569
D1,Arinos/MG,-15.917223,-46.106111,4,22.39391
1,Aripuanã/MT,-10.175806,-59.4439663,990,4358.54539
D1,Aripuanã/MT,-10.175806,-59.4439663,16,70.44114
1,Ariquemes/RO,-9.9076522,-63.033069,8579,7833.05790
D1,Ariquemes/RO,-9.9076522,-63.033069,154,140.60973
1,Ariranha do Ivaí/PR,-24.3834527,-51.5876772,41,1984.51113
D1,Ariranha do Ivaí/PR,-24.3834527,-51.5876772,1,48.40271
1,Ariranha/SP,-21.18716,-48.790418,215,2202.64317
D1,Ariranha/SP,-21.18716,-48.790418,11,112.69337
1,Armazém/SC,-28.2624996,-49.0190126,646,7375.27115
D1,Armazém/SC,-28.2624996,-49.0190126,6,68.50097
1,Armação dos Búzios/RJ,-22.7597805,-41.8875267,1668,4838.00795
D1,Armação dos Búzios/RJ,-22.7597805,-41.8875267,22,63.81066
1,Arneiroz/CE,-6.3235099,-40.1603859,71,905.15043
D1,Arneiroz/CE,-6.3235099,-40.1603859,6,76.49159
1,Aroazes/PI,-6.1108814,-41.7886137,158,2711.51536
D1,Aroazes/PI,-6.1108814,-41.7886137,5,85.80745
1,Aroeiras do Itaim/PI,-7.2797031,-41.5629681,92,3606.42885
D1,Aroeiras do Itaim/PI,-7.2797031,-41.5629681,1,39.20031
1,Aroeiras/PB,-7.5462904,-35.7080002,302,1579.82842
D1,Aroeiras/PB,-7.5462904,-35.7080002,3,15.69366
1,Arraial do Cabo/RJ,-22.9662839,-42.024427,395,1291.14503
D1,Arraial do Cabo/RJ,-22.9662839,-42.024427,9,29.41849
1,Arraial/PI,-6.6541632,-42.5335332,82,1737.28814
D1,Arraial/PI,-6.6541632,-42.5335332,1,21.18644
1,Arraias/TO,-12.9287788,-46.9437231,162,1537.87735
1,Arroio Grande/RS,-32.2384246,-53.0866661,444,2434.47746
D1,Arroio Grande/RS,-32.2384246,-53.0866661,4,21.93223
1,Arroio Trinta/SC,-26.9301976,-51.334928,216,6086.22147
D1,Arroio Trinta/SC,-26.9301976,-51.334928,2,56.35390
1,Arroio do Meio/RS,-29.4020392,-51.9444993,994,4740.78314
D1,Arroio do Meio/RS,-29.4020392,-51.9444993,9,42.92460
1,Arroio do Padre/RS,-31.4428773,-52.4228985,72,2439.85090
1,Arroio do Sal/RS,-29.549852,-49.8874395,438,4261.11489
D1,Arroio do Sal/RS,-29.549852,-49.8874395,10,97.28573
1,Arroio do Tigre/RS,-29.334158,-53.0888935,246,1834.04160
D1,Arroio do Tigre/RS,-29.334158,-53.0888935,3,22.36636
1,Arroio dos Ratos/RS,-30.0894524,-51.7265541,347,2447.62644
D1,Arroio dos Ratos/RS,-30.0894524,-51.7265541,16,112.85886
1,Artur Nogueira/SP,-22.572737,-47.172679,1558,2815.32346
D1,Artur Nogueira/SP,-22.572737,-47.172679,41,74.08746
1,Aruanã/GO,-14.9162439,-51.0715692,190,1879.32740
D1,Aruanã/GO,-14.9162439,-51.0715692,1,9.89120
1,Arujá/SP,-23.396266,-46.3175449,3140,3444.60656
D1,Arujá/SP,-23.396266,-46.3175449,117,128.34999
1,Arvoredo/SC,-27.0752908,-52.4571847,85,3804.83438
D1,Arvoredo/SC,-27.0752908,-52.4571847,1,44.76276
1,Arvorezinha/RS,-28.87369,-52.17808,325,3118.10419
D1,Arvorezinha/RS,-28.87369,-52.17808,7,67.15917
1,Arês/RN,-6.1969216,-35.1642968,392,2719.01228
D1,Arês/RN,-6.1969216,-35.1642968,11,76.29881
1,Ascurra/SC,-26.9569975,-49.3767752,572,7169.71672
D1,Ascurra/SC,-26.9569975,-49.3767752,2,25.06894
1,Aspásia/SP,-20.160028,-50.728046,58,3190.31903
D1,Aspásia/SP,-20.160028,-50.728046,2,110.01100
1,Assaré/CE,-6.8746791,-39.8741385,931,3965.41443
D1,Assaré/CE,-6.8746791,-39.8741385,13,55.37099
1,Assaí/PR,-23.3736041,-50.8454929,447,2989.16678
D1,Assaí/PR,-23.3736041,-50.8454929,15,100.30761
1,Assis Brasil/AC,-10.9409203,-69.5672108,762,10114.14919
D1,Assis Brasil/AC,-10.9409203,-69.5672108,9,119.45846
1,Assis Chateaubriand/PR,-24.4054826,-53.5120468,1471,4412.11758
D1,Assis Chateaubriand/PR,-24.4054826,-53.5120468,21,62.98740
1,Assis/SP,-22.6620892,-50.420623,2459,2339.96593
D1,Assis/SP,-22.6620892,-50.420623,43,40.91848
1,Assunção do Piauí/PI,-5.8610212,-41.0485091,151,1920.38662
D1,Assunção do Piauí/PI,-5.8610212,-41.0485091,3,38.15338
1,Assunção/PB,-7.073396,-36.7274003,58,1439.56317
1,Astolfo Dutra/MG,-21.3132636,-42.8624102,680,4765.24177
D1,Astolfo Dutra/MG,-21.3132636,-42.8624102,12,84.09250
1,Astorga/PR,-23.2350184,-51.6647074,1095,4177.95414
D1,Astorga/PR,-23.2350184,-51.6647074,17,64.86321
1,Atalaia do Norte/AM,-4.3658547,-70.1908742,1670,8187.07716
D1,Atalaia do Norte/AM,-4.3658547,-70.1908742,5,24.51221
1,Atalaia/AL,-9.5029595,-36.0219316,659,1391.32271
D1,Atalaia/AL,-9.5029595,-36.0219316,26,54.89285
1,Atalaia/PR,-23.1513833,-52.0529697,142,3658.85081
D1,Atalaia/PR,-23.1513833,-52.0529697,3,77.29967
1,Atalanta/SC,-27.421916,-49.778863,92,2879.49922
1,Ataléia/MG,-18.04432,-41.1110524,336,2650.26029
D1,Ataléia/MG,-18.04432,-41.1110524,4,31.55072
1,Atibaia/SP,-23.1177393,-46.5547861,3737,2593.55394
D1,Atibaia/SP,-23.1177393,-46.5547861,81,56.21565
1,Atilio Vivacqua/ES,-20.9139369,-41.1947519,815,6732.75506
D1,Atilio Vivacqua/ES,-20.9139369,-41.1947519,14,115.65469
1,Augustinópolis/TO,-5.4662267,-47.8897519,787,4221.42359
D1,Augustinópolis/TO,-5.4662267,-47.8897519,11,59.00338
1,Augusto Corrêa/PA,-1.0229335,-46.6404029,1469,3161.11123
D1,Augusto Corrêa/PA,-1.0229335,-46.6404029,22,47.34135
1,Augusto Pestana/RS,-28.5148413,-53.9906433,83,1257.19479
D1,Augusto Pestana/RS,-28.5148413,-53.9906433,2,30.29385
1,Augusto de Lima/MG,-18.1092963,-44.2651945,108,2226.34508
D1,Augusto de Lima/MG,-18.1092963,-44.2651945,2,41.22861
1,Aurelino Leal/BA,-14.3167137,-39.3256107,631,5584.56501
D1,Aurelino Leal/BA,-14.3167137,-39.3256107,16,141.60545
1,Auriflama/SP,-20.6840418,-50.5554616,749,4910.50941
D1,Auriflama/SP,-20.6840418,-50.5554616,14,91.78522
1,Aurilândia/GO,-16.6772599,-50.4641231,66,2158.27338
D1,Aurilândia/GO,-16.6772599,-50.4641231,2,65.40222
1,Aurora do Pará/PA,-2.1323199,-47.558436,698,2196.83379
D1,Aurora do Pará/PA,-2.1323199,-47.558436,8,25.17861
1,Aurora do Tocantins/TO,-12.71045,-46.407604,63,1665.34496
1,Aurora/CE,-6.9426019,-38.9693765,879,3571.71881
D1,Aurora/CE,-6.9426019,-38.9693765,24,97.52133
1,Aurora/SC,-27.3166417,-49.6368502,214,3765.61675
D1,Aurora/SC,-27.3166417,-49.6368502,4,70.38536
1,Autazes/AM,-3.5833283,-59.1301518,1716,4259.12137
D1,Autazes/AM,-3.5833283,-59.1301518,40,99.28022
1,Avanhandava/SP,-21.4603331,-49.9465156,292,2106.93412
D1,Avanhandava/SP,-21.4603331,-49.9465156,8,57.72422
1,Avaré/SP,-23.1045215,-48.9259103,1343,1472.07120
D1,Avaré/SP,-23.1045215,-48.9259103,24,26.30656
1,Avaí/SP,-22.1564662,-49.3316395,141,2593.81898
D1,Avaí/SP,-22.1564662,-49.3316395,3,55.18764
1,Aveiro/PA,-3.6049239,-55.3310742,452,2755.42551
D1,Aveiro/PA,-3.6049239,-55.3310742,5,30.48037
1,Avelino Lopes/PI,-10.1346855,-43.9489525,169,1492.14197
D1,Avelino Lopes/PI,-10.1346855,-43.9489525,15,132.43864
1,Avelinópolis/GO,-16.4672409,-49.7578661,143,5936.07306
D1,Avelinópolis/GO,-16.4672409,-49.7578661,2,83.02200
1,Axixá do Tocantins/TO,-5.612747,-47.77007,582,5946.66394
D1,Axixá do Tocantins/TO,-5.612747,-47.77007,5,51.08818
1,Axixá/MA,-2.8379465,-44.0561053,142,1165.55857
D1,Axixá/MA,-2.8379465,-44.0561053,3,24.62448
1,Açailândia/MA,-4.9514278,-47.4844564,3741,3307.07826
D1,Açailândia/MA,-4.9514278,-47.4844564,104,91.93695
1,Açu/RN,-5.5836157,-36.9139541,2448,4192.92957
D1,Açu/RN,-5.5836157,-36.9139541,83,142.16224
1,Açucena/MG,-19.073056,-42.546666,172,1836.03757
D1,Açucena/MG,-19.073056,-42.546666,5,53.37319
1,Babaçulândia/TO,-7.2034355,-47.761613,431,4040.87755
D1,Babaçulândia/TO,-7.2034355,-47.761613,4,37.50234
1,Bacabal/MA,-4.2318132,-44.781167,3701,3531.82556
D1,Bacabal/MA,-4.2318132,-44.781167,74,70.61743
1,Bacabeira/MA,-2.9775747,-44.3155943,166,962.20728
D1,Bacabeira/MA,-2.9775747,-44.3155943,3,17.38929
1,Bacuri/MA,-1.728894,-45.1417148,429,2299.77485
D1,Bacuri/MA,-1.728894,-45.1417148,4,21.44312
1,Bacurituba/MA,-2.7082587,-44.7381309,93,1640.21164
1,Bady Bassitt/SP,-20.9178969,-49.4517911,1238,6970.32825
D1,Bady Bassitt/SP,-20.9178969,-49.4517911,23,129.49721
1,Baependi/MG,-21.959162,-44.8899249,366,1906.34929
D1,Baependi/MG,-21.959162,-44.8899249,7,36.46023
1,Bagre/PA,-1.8994498,-50.2103844,527,1682.36233
D1,Bagre/PA,-1.8994498,-50.2103844,10,31.92338
1,Bagé/RS,-31.3314264,-54.1062808,2996,2469.19685
D1,Bagé/RS,-31.3314264,-54.1062808,62,51.09820
1,Baianópolis/BA,-12.3067564,-44.5383591,185,1328.16426
D1,Baianópolis/BA,-12.3067564,-44.5383591,2,14.35853
1,Baixa Grande do Ribeiro/PI,-7.862861,-45.2113289,1570,13452.14635
D1,Baixa Grande do Ribeiro/PI,-7.862861,-45.2113289,14,119.95545
1,Baixa Grande/BA,-11.9630941,-40.1657537,372,1819.15986
D1,Baixa Grande/BA,-11.9630941,-40.1657537,3,14.67064
1,Baixio/CE,-6.7303544,-38.7170095,128,2030.77899
D1,Baixio/CE,-6.7303544,-38.7170095,3,47.59638
1,Baixo Guandu/ES,-19.5138322,-41.0182089,1999,6421.04587
D1,Baixo Guandu/ES,-19.5138322,-41.0182089,34,109.21239
1,Baião/PA,-2.7903479,-49.6702845,456,941.00167
D1,Baião/PA,-2.7903479,-49.6702845,15,30.95400
1,Balbinos/SP,-21.9006253,-49.3583966,257,4330.97405
D1,Balbinos/SP,-21.9006253,-49.3583966,3,50.55612
1,Baldim/MG,-19.2913568,-43.9558262,219,2806.61284
D1,Baldim/MG,-19.2913568,-43.9558262,5,64.07792
1,Baliza/GO,-16.1978119,-52.542789,76,1439.39394
1,Balneário Arroio do Silva/SC,-28.9815269,-49.4189932,1029,7661.95086
D1,Balneário Arroio do Silva/SC,-28.9815269,-49.4189932,17,126.58228
1,Balneário Barra do Sul/SC,-26.459842,-48.6061471,822,7449.02583
D1,Balneário Barra do Sul/SC,-26.459842,-48.6061471,14,126.86905
1,Balneário Camboriú/SC,-26.9924395,-48.6339782,15402,10564.07583
D1,Balneário Camboriú/SC,-26.9924395,-48.6339782,157,107.68471
1,Balneário Gaivota/SC,-29.1553098,-49.5808712,721,6403.19716
D1,Balneário Gaivota/SC,-29.1553098,-49.5808712,11,97.69094
1,Balneário Pinhal/RS,-30.2482978,-50.234585,540,3759.66024
D1,Balneário Pinhal/RS,-30.2482978,-50.234585,14,97.47267
1,Balneário Piçarras/SC,-26.7638889,-48.6716667,2110,8875.98856
D1,Balneário Piçarras/SC,-26.7638889,-48.6716667,17,71.51270
1,Balneário Rincão/SC,-28.8235718,-49.2241642,823,6357.17596
D1,Balneário Rincão/SC,-28.8235718,-49.2241642,19,146.76348
1,Balsa Nova/PR,-25.5842234,-49.6312741,535,4086.46502
D1,Balsa Nova/PR,-25.5842234,-49.6312741,11,84.02078
1,Balsas/MA,-7.53214,-46.037163,7025,7323.12439
D1,Balsas/MA,-7.53214,-46.037163,87,90.69207
1,Bambuí/MG,-20.0131996,-45.9777034,164,686.24990
D1,Bambuí/MG,-20.0131996,-45.9777034,1,4.18445
1,Banabuiú/CE,-5.3046404,-38.919766,648,3549.51797
D1,Banabuiú/CE,-5.3046404,-38.919766,4,21.91060
1,Bananal/SP,-22.6828195,-44.3221095,218,1983.08014
D1,Bananal/SP,-22.6828195,-44.3221095,1,9.09670
1,Bananeiras/PB,-6.7537682,-35.6338343,577,2712.86849
D1,Bananeiras/PB,-6.7537682,-35.6338343,2,9.40336
1,Bandeira do Sul/MG,-21.728056,-46.385555,77,1332.64105
D1,Bandeira do Sul/MG,-21.728056,-46.385555,3,51.92108
1,Bandeira/MG,-15.884444,-40.559167,389,8161.98070
D1,Bandeira/MG,-15.884444,-40.559167,5,104.90978
1,Bandeirante/SC,-26.7677402,-53.6397596,41,1548.33837
1,Bandeirantes do Tocantins/TO,-7.7635698,-48.579148,109,3034.52116
D1,Bandeirantes do Tocantins/TO,-7.7635698,-48.579148,2,55.67929
1,Bandeirantes/MS,-19.9179623,-54.3646768,221,3041.56345
D1,Bandeirantes/MS,-19.9179623,-54.3646768,4,55.05092
1,Bandeirantes/PR,-23.107788,-50.370407,1513,4847.64987
D1,Bandeirantes/PR,-23.107788,-50.370407,42,134.56794
1,Bannach/PA,-7.3508505,-50.4064531,121,3709.38075
D1,Bannach/PA,-7.3508505,-50.4064531,2,61.31208
1,Banzaê/BA,-10.5827616,-38.6122305,680,5135.95166
D1,Banzaê/BA,-10.5827616,-38.6122305,4,30.21148
1,Baraúna/PB,-6.643394,-36.2531932,155,3122.48187
1,Baraúna/RN,-5.0775002,-37.61752,646,2247.19101
D1,Baraúna/RN,-5.0775002,-37.61752,16,55.65798
1,Barbacena/MG,-21.2254524,-43.7735087,2533,1832.79789
D1,Barbacena/MG,-21.2254524,-43.7735087,37,26.77202
1,Barbalha/CE,-7.3121067,-39.3036427,2457,4012.86993
D1,Barbalha/CE,-7.3121067,-39.3036427,58,94.72790
1,Barbosa Ferraz/PR,-24.0287182,-52.00811,331,2896.90180
D1,Barbosa Ferraz/PR,-24.0287182,-52.00811,4,35.00788
1,Barbosa/SP,-21.265661,-49.951816,181,2423.67434
D1,Barbosa/SP,-21.265661,-49.951816,3,40.17140
1,Barcarena/PA,-1.5107945,-48.6190679,4703,3702.36249
D1,Barcarena/PA,-1.5107945,-48.6190679,126,99.19151
1,Barcelona/RN,-5.9514918,-35.9260284,41,1026.53981
D1,Barcelona/RN,-5.9514918,-35.9260284,5,125.18778
1,Barcelos/AM,-0.9729214,-62.925635,3280,11867.71836
D1,Barcelos/AM,-0.9729214,-62.925635,32,115.78262
1,Bariri/SP,-22.0746355,-48.7394852,1395,3923.16778
D1,Bariri/SP,-22.0746355,-48.7394852,31,87.18151
1,Barra Bonita/SC,-26.6526364,-53.4419581,47,2846.75954
1,Barra Bonita/SP,-22.490859,-48.558349,1339,3706.47179
D1,Barra Bonita/SP,-22.490859,-48.558349,28,77.50651
1,Barra D'Alcântara/PI,-6.5209258,-42.1071089,62,1568.82591
D1,Barra D'Alcântara/PI,-6.5209258,-42.1071089,1,25.30364
1,Barra Funda/RS,-27.9230048,-53.0401045,202,7918.46335
D1,Barra Funda/RS,-27.9230048,-53.0401045,3,117.60094
1,Barra Longa/MG,-20.2833541,-43.0423516,117,2333.00100
1,Barra Mansa/RJ,-22.5394843,-44.1735129,6353,3437.15678
D1,Barra Mansa/RJ,-22.5394843,-44.1735129,221,119.56739
1,Barra Velha/SC,-26.6338203,-48.6835001,1762,5900.87073
D1,Barra Velha/SC,-26.6338203,-48.6835001,33,110.51574
1,Barra da Estiva/BA,-13.6269662,-41.3278287,884,4335.03335
D1,Barra da Estiva/BA,-13.6269662,-41.3278287,3,14.71165
1,Barra de Guabiraba/PE,-8.4173522,-35.6626669,209,1440.38594
D1,Barra de Guabiraba/PE,-8.4173522,-35.6626669,11,75.80979
1,Barra de Santa Rosa/PB,-6.7218007,-36.0564638,356,2297.21882
D1,Barra de Santa Rosa/PB,-6.7218007,-36.0564638,2,12.90572
1,Barra de Santana/PB,-7.5230865,-35.9988518,238,2850.64080
D1,Barra de Santana/PB,-7.5230865,-35.9988518,3,35.93245
1,Barra de Santo Antônio/AL,-9.4038098,-35.5117693,146,908.63829
D1,Barra de Santo Antônio/AL,-9.4038098,-35.5117693,15,93.35325
1,Barra de São Francisco/ES,-18.7570902,-40.8916119,1817,4039.66295
D1,Barra de São Francisco/ES,-18.7570902,-40.8916119,55,122.27929
1,Barra de São Miguel/AL,-9.8261357,-35.8837777,198,2363.33254
D1,Barra de São Miguel/AL,-9.8261357,-35.8837777,5,59.68011
1,Barra de São Miguel/PB,-7.7528088,-36.3170996,132,2176.42209
D1,Barra de São Miguel/PB,-7.7528088,-36.3170996,1,16.48805
1,Barra do Bugres/MT,-15.0683712,-57.1853688,1295,3667.82791
D1,Barra do Bugres/MT,-15.0683712,-57.1853688,26,73.63979
1,Barra do Chapéu/SP,-24.472203,-49.023784,71,1232.63889
1,Barra do Choça/BA,-14.8638173,-40.5761637,857,2746.00276
D1,Barra do Choça/BA,-14.8638173,-40.5761637,9,28.83784
1,Barra do Corda/MA,-5.496823,-45.248496,4085,4616.23650
D1,Barra do Corda/MA,-5.496823,-45.248496,47,53.11215
1,Barra do Garças/MT,-15.8916033,-52.2615413,3748,6130.69436
D1,Barra do Garças/MT,-15.8916033,-52.2615413,132,215.91560
1,Barra do Guarita/RS,-27.1888016,-53.7147086,62,1903.59226
1,Barra do Jacaré/PR,-23.1151788,-50.1813945,54,1941.74757
1,Barra do Mendes/BA,-11.8053298,-42.057037,510,3686.83583
D1,Barra do Mendes/BA,-11.8053298,-42.057037,6,43.37454
1,Barra do Ouro/TO,-7.7113784,-47.6743925,80,1727.11572
D1,Barra do Ouro/TO,-7.7113784,-47.6743925,5,107.94473
1,Barra do Piraí/RJ,-22.4703403,-43.8263256,2351,2333.17455
D1,Barra do Piraí/RJ,-22.4703403,-43.8263256,105,104.20388
1,Barra do Quaraí/RS,-30.208947,-57.5505128,156,3690.56068
D1,Barra do Quaraí/RS,-30.208947,-57.5505128,1,23.65744
1,Barra do Ribeiro/RS,-30.2930206,-51.301437,376,2773.67955
D1,Barra do Ribeiro/RS,-30.2930206,-51.301437,27,199.17380
1,Barra do Rio Azul/RS,-27.4101581,-52.4117471,20,1208.45921
D1,Barra do Rio Azul/RS,-27.4101581,-52.4117471,1,60.42296
1,Barra do Rocha/BA,-14.2090974,-39.6004395,178,3171.77477
D1,Barra do Rocha/BA,-14.2090974,-39.6004395,3,53.45688
1,Barra do Turvo/SP,-24.756421,-48.5056942,233,3052.93501
D1,Barra do Turvo/SP,-24.756421,-48.5056942,7,91.71908
1,Barra dos Coqueiros/SE,-10.9075694,-37.0386249,2563,8286.45328
D1,Barra dos Coqueiros/SE,-10.9075694,-37.0386249,33,106.69253
1,Barra/BA,-11.0892702,-43.1420453,674,1250.23187
D1,Barra/BA,-11.0892702,-43.1420453,11,20.40438
1,Barracão/PR,-26.252395,-53.6349576,331,3209.85260
D1,Barracão/PR,-26.252395,-53.6349576,7,67.88208
1,Barracão/RS,-27.6728964,-51.4582928,171,3253.42466
D1,Barracão/RS,-27.6728964,-51.4582928,4,76.10350
1,Barras/PI,-4.2446153,-42.2920241,3215,6813.60602
D1,Barras/PI,-4.2446153,-42.2920241,61,129.27837
1,Barreira/CE,-4.2883361,-38.641094,377,1670.13689
D1,Barreira/CE,-4.2883361,-38.641094,21,93.03150
1,Barreiras do Piauí/PI,-9.9224524,-45.4763776,41,1223.15036
D1,Barreiras do Piauí/PI,-9.9224524,-45.4763776,1,29.83294
1,Barreiras/BA,-12.1440031,-44.9967406,7611,4848.54276
D1,Barreiras/BA,-12.1440031,-44.9967406,106,67.52668
1,Barreirinha/AM,-2.798863,-57.067897,1556,4790.19795
D1,Barreirinha/AM,-2.798863,-57.067897,27,83.12040
1,Barreirinhas/MA,-2.7541271,-42.8259693,1359,2149.73820
D1,Barreirinhas/MA,-2.7541271,-42.8259693,26,41.12818
1,Barreiros/PE,-8.8159644,-35.1831905,368,860.53690
D1,Barreiros/PE,-8.8159644,-35.1831905,41,95.87504
1,Barretos/SP,-20.5531437,-48.5697509,6362,5179.38990
D1,Barretos/SP,-20.5531437,-48.5697509,156,127.00170
1,Barrinha/SP,-21.1898849,-48.1550642,838,2525.61784
D1,Barrinha/SP,-21.1898849,-48.1550642,34,102.47137
1,Barro Alto/BA,-11.7618025,-41.9094904,522,3467.51694
D1,Barro Alto/BA,-11.7618025,-41.9094904,4,26.57101
1,Barro Alto/GO,-14.9696025,-48.9190985,638,5592.56662
D1,Barro Alto/GO,-14.9696025,-48.9190985,7,61.36045
1,Barro Duro/PI,-5.8180139,-42.5106589,466,6631.56397
D1,Barro Duro/PI,-5.8180139,-42.5106589,7,99.61577
1,Barro Preto/BA,-14.8068289,-39.4727588,327,6002.20264
D1,Barro Preto/BA,-14.8068289,-39.4727588,6,110.13216
1,Barro/CE,-7.1713587,-38.7742136,491,2157.48308
D1,Barro/CE,-7.1713587,-38.7742136,10,43.94059
1,Barrocas/BA,-11.5165,-39.099282894736845,236,1465.38342
D1,Barrocas/BA,-11.5165,-39.099282894736845,4,24.83701
1,Barrolândia/TO,-9.837246,-48.7264346,248,4388.60379
D1,Barrolândia/TO,-9.837246,-48.7264346,4,70.78393
1,Barroquinha/CE,-3.0200371,-41.1339229,821,5457.32518
D1,Barroquinha/CE,-3.0200371,-41.1339229,20,132.94337
1,Barros Cassal/RS,-29.094938,-52.5832366,249,2226.79306
D1,Barros Cassal/RS,-29.094938,-52.5832366,2,17.88589
1,Barroso/MG,-21.187222,-43.976111,441,2110.35077
D1,Barroso/MG,-21.187222,-43.976111,3,14.35613
1,Barueri/SP,-23.5112184,-46.8764612,12142,4383.67836
D1,Barueri/SP,-23.5112184,-46.8764612,465,167.88095
1,Barão de Antonina/SP,-23.6295651,-49.5632104,26,743.28188
D1,Barão de Antonina/SP,-23.6295651,-49.5632104,1,28.58776
1,Barão de Cocais/MG,-19.9452437,-43.4870298,1128,3432.11830
D1,Barão de Cocais/MG,-19.9452437,-43.4870298,8,24.34126
1,Barão de Cotegipe/RS,-27.6214694,-52.3765316,306,4622.35650
D1,Barão de Cotegipe/RS,-27.6214694,-52.3765316,4,60.42296
1,Barão de Grajaú/MA,-6.7542591,-43.0263477,27,142.67597
D1,Barão de Grajaú/MA,-6.7542591,-43.0263477,1,5.28430
1,Barão de Melgaço/MT,-16.195776,-55.9668049,142,1739.34346
D1,Barão de Melgaço/MT,-16.195776,-55.9668049,6,73.49339
1,Barão de Monte Alto/MG,-21.244722,-42.2375,112,2091.89391
D1,Barão de Monte Alto/MG,-21.244722,-42.2375,5,93.38812
1,Barão do Triunfo/RS,-30.3909877,-51.7375349,172,2287.53824
D1,Barão do Triunfo/RS,-30.3909877,-51.7375349,1,13.29964
1,Barão/RS,-29.372474,-51.494908,202,3257.01387
D1,Barão/RS,-29.372474,-51.494908,3,48.37149
1,Bastos/SP,-21.9222474,-50.7317727,270,1288.59829
D1,Bastos/SP,-21.9222474,-50.7317727,7,33.40810
1,Bataguassu/MS,-21.715899,-52.422058,1437,6160.77170
D1,Bataguassu/MS,-21.715899,-52.422058,12,51.44695
1,Batalha/AL,-9.6733809,-37.1265481,660,3599.08387
D1,Batalha/AL,-9.6733809,-37.1265481,12,65.43789
1,Batalha/PI,-4.022391,-42.0780926,483,1795.20535
D1,Batalha/PI,-4.022391,-42.0780926,11,40.88459
1,Batatais/SP,-20.892867,-47.592149,1007,1598.92029
D1,Batatais/SP,-20.892867,-47.592149,34,53.98539
1,Batayporã/MS,-22.2976466,-53.2685608,351,3092.78351
D1,Batayporã/MS,-22.2976466,-53.2685608,5,44.05675
1,Baturité/CE,-4.3290203,-38.8821055,769,2139.61771
D1,Baturité/CE,-4.3290203,-38.8821055,33,91.81714
1,Bauru/SP,-22.3218102,-49.0705863,19305,5089.67906
D1,Bauru/SP,-22.3218102,-49.0705863,319,84.10296
1,Bayeux/PB,-7.1301631,-34.936532,2690,2767.40430
D1,Bayeux/PB,-7.1301631,-34.936532,130,133.74073
1,Baía Formosa/RN,-6.3691885,-35.0063741,198,2124.00772
D1,Baía Formosa/RN,-6.3691885,-35.0063741,6,64.36387
1,Baía da Traição/PB,-6.691258,-34.9371244,920,10114.33597
D1,Baía da Traição/PB,-6.691258,-34.9371244,8,87.95075
1,Bebedouro/SP,-20.949077,-48.479083,1809,2332.53820
D1,Bebedouro/SP,-20.949077,-48.479083,40,51.57630
1,Beberibe/CE,-4.1810469,-38.1298101,1295,2400.41521
D1,Beberibe/CE,-4.1810469,-38.1298101,31,57.46168
1,Bela Cruz/CE,-3.0529129,-40.167582,1351,4128.72074
D1,Bela Cruz/CE,-3.0529129,-40.167582,24,73.34515
1,Bela Vista da Caroba/PR,-25.8792818,-53.6672545,66,1909.16980
D1,Bela Vista da Caroba/PR,-25.8792818,-53.6672545,1,28.92682
1,Bela Vista de Goiás/GO,-16.9692949,-48.9513071,1244,4079.75863
D1,Bela Vista de Goiás/GO,-16.9692949,-48.9513071,22,72.15007
1,Bela Vista de Minas/MG,-19.8289721,-43.0973688,242,2358.21477
D1,Bela Vista de Minas/MG,-19.8289721,-43.0973688,5,48.72345
1,Bela Vista do Maranhão/MA,-3.7416367,-45.2514192,155,1374.23530
D1,Bela Vista do Maranhão/MA,-3.7416367,-45.2514192,8,70.92827
1,Bela Vista do Paraíso/PR,-22.9948493,-51.1907996,458,2974.21911
D1,Bela Vista do Paraíso/PR,-22.9948493,-51.1907996,8,51.95143
1,Bela Vista do Piauí/PI,-7.9716353,-41.8715061,191,4739.45409
D1,Bela Vista do Piauí/PI,-7.9716353,-41.8715061,3,74.44169
1,Bela Vista do Toldo/SC,-26.274625,-50.466354,25,392.95819
D1,Bela Vista do Toldo/SC,-26.274625,-50.466354,1,15.71833
1,Bela Vista/MS,-22.107327,-56.5317344,177,715.58520
D1,Bela Vista/MS,-22.107327,-56.5317344,7,28.29998
1,Belford Roxo/RJ,-22.7667284,-43.4033603,14923,2908.29790
D1,Belford Roxo/RJ,-22.7667284,-43.4033603,389,75.81102
1,Belmiro Braga/MG,-21.9486291,-43.413564,58,1693.43066
D1,Belmiro Braga/MG,-21.9486291,-43.413564,3,87.59124
1,Belmonte/BA,-15.8630837,-38.8792845,638,2722.19141
D1,Belmonte/BA,-15.8630837,-38.8792845,5,21.33379
1,Belmonte/SC,-26.8448262,-53.578916,60,2214.83942
1,Belo Campo/BA,-15.0338286,-41.2585109,239,1396.92559
D1,Belo Campo/BA,-15.0338286,-41.2585109,3,17.53463
1,Belo Horizonte/MG,-19.9227318,-43.9450948,70223,2784.89858
D1,Belo Horizonte/MG,-19.9227318,-43.9450948,1959,77.68988
1,Belo Jardim/PE,-8.3338293,-36.4176419,1413,1842.55480
D1,Belo Jardim/PE,-8.3338293,-36.4176419,41,53.46408
1,Belo Monte/AL,-9.8269944,-37.2787165,189,2816.69151
D1,Belo Monte/AL,-9.8269944,-37.2787165,5,74.51565
1,Belo Oriente/MG,-19.2232523,-42.4807033,1176,4356.52367
D1,Belo Oriente/MG,-19.2232523,-42.4807033,19,70.38601
1,Belo Vale/MG,-20.407778,-44.024167,205,2655.78443
D1,Belo Vale/MG,-20.407778,-44.024167,6,77.73028
1,Belterra/PA,-2.636091,-54.937392,564,3161.61220
D1,Belterra/PA,-2.636091,-54.937392,14,78.47974
1,Belágua/MA,-3.1604031,-43.5085052,279,3706.16366
D1,Belágua/MA,-3.1604031,-43.5085052,1,13.28374
1,Belém de Maria/PE,-8.6242497,-35.8388934,113,932.18941
D1,Belém de Maria/PE,-8.6242497,-35.8388934,3,24.74839
1,Belém do Brejo do Cruz/PB,-6.1880727,-37.5332267,292,3973.32970
D1,Belém do Brejo do Cruz/PB,-6.1880727,-37.5332267,5,68.03647
1,Belém do Piauí/PI,-7.3767305,-40.9712156,217,6049.62364
D1,Belém do Piauí/PI,-7.3767305,-40.9712156,3,83.63535
1,Belém do São Francisco/PE,-8.7517707,-38.9625715,185,892.42644
1,Belém/AL,-9.5715351,-36.492841,72,1680.67227
D1,Belém/AL,-9.5715351,-36.492841,3,70.02801
1,Belém/PA,-1.45056,-48.4682453,59883,3993.15570
D1,Belém/PA,-1.45056,-48.4682453,2496,166.43983
1,Belém/PB,-6.6967586,-35.5369626,1188,6709.96894
D1,Belém/PB,-6.6967586,-35.5369626,19,107.31432
1,Beneditinos/PI,-5.4565671,-42.3605061,394,3762.05481
D1,Beneditinos/PI,-5.4565671,-42.3605061,14,133.67707
1,Benedito Leite/MA,-7.2173453,-44.5523331,203,3600.56758
D1,Benedito Leite/MA,-7.2173453,-44.5523331,2,35.47357
1,Benedito Novo/SC,-26.7840657,-49.3629511,466,3957.53715
D1,Benedito Novo/SC,-26.7840657,-49.3629511,5,42.46285
1,Benevides/PA,-1.3555577,-48.252235,2273,3564.48375
D1,Benevides/PA,-1.3555577,-48.252235,51,79.97742
1,Benjamin Constant do Sul/RS,-27.5105555,-52.6007689,119,6077.63023
1,Benjamin Constant/AM,-4.3782748,-70.0290603,1874,4265.39206
D1,Benjamin Constant/AM,-4.3782748,-70.0290603,46,104.70013
1,Bento Fernandes/RN,-5.6926846,-35.8207423,38,687.78281
D1,Bento Fernandes/RN,-5.6926846,-35.8207423,2,36.19910
1,Bento Gonçalves/RS,-29.1654014,-51.5197627,7327,6015.45118
D1,Bento Gonçalves/RS,-29.1654014,-51.5197627,149,122.32868
1,Bento de Abreu/SP,-21.2707225,-50.8120444,66,2196.33943
1,Bequimão/MA,-2.4495376,-44.7884889,246,1154.98380
D1,Bequimão/MA,-2.4495376,-44.7884889,12,56.34067
1,Berilo/MG,-16.9515764,-42.4643732,9,75.80863
1,Berizal/MG,-15.6118785,-41.7417382,22,461.79681
1,Bernardino Batista/PB,-6.4532173,-38.5495418,160,4524.88688
1,Bernardino de Campos/SP,-23.0140216,-49.4760724,153,1371.21348
D1,Bernardino de Campos/SP,-23.0140216,-49.4760724,5,44.81090
1,Bernardo Sayão/TO,-7.8794244,-48.8968905,119,2675.35971
D1,Bernardo Sayão/TO,-7.8794244,-48.8968905,4,89.92806
1,Bernardo do Mearim/MA,-4.6315929,-44.7617508,140,2305.28569
D1,Bernardo do Mearim/MA,-4.6315929,-44.7617508,3,49.39898
1,Bertioga/SP,-23.848568,-46.139586,2545,3932.14159
D1,Bertioga/SP,-23.848568,-46.139586,53,81.88743
1,Bertolínia/PI,-7.6372159,-43.9540611,562,10205.19339
D1,Bertolínia/PI,-7.6372159,-43.9540611,6,108.95224
1,Bertópolis/MG,-17.063333,-40.573889,194,4210.98329
1,Beruri/AM,-3.9007135,-61.3717319,1218,6061.81257
D1,Beruri/AM,-3.9007135,-61.3717319,14,69.67601
1,Betim/MG,-19.968056,-44.198333,11416,2566.63909
D1,Betim/MG,-19.968056,-44.198333,346,77.79057
1,Betânia do Piauí/PI,-8.1460635,-40.7961387,81,1304.34783
D1,Betânia do Piauí/PI,-8.1460635,-40.7961387,2,32.20612
1,Betânia/PE,-8.2742779,-38.0351767,149,1167.25421
D1,Betânia/PE,-8.2742779,-38.0351767,2,15.66784
1,Bezerros/PE,-8.2372132,-35.7558262,1911,3138.96189
D1,Bezerros/PE,-8.2372132,-35.7558262,73,119.90802
1,Bias Fortes/MG,-21.605833,-43.756944,54,1622.10874
D1,Bias Fortes/MG,-21.605833,-43.756944,2,60.07810
1,Bicas/MG,-21.7213723,-43.0604327,311,2136.86959
D1,Bicas/MG,-21.7213723,-43.0604327,9,61.83867
1,Biguaçu/SC,-27.4961277,-48.6542432,6246,8988.86107
D1,Biguaçu/SC,-27.4961277,-48.6542432,60,86.34833
1,Bilac/SP,-21.403962,-50.47464,233,2870.51866
D1,Bilac/SP,-21.403962,-50.47464,5,61.59911
1,Biquinhas/MG,-18.783611,-45.502222,28,1120.89672
1,Birigui/SP,-21.2908491,-50.34144,5165,4135.87118
D1,Birigui/SP,-21.2908491,-50.34144,129,103.29669
1,Biritiba Mirim/SP,-23.5697765,-46.0407456,572,1736.70148
D1,Biritiba Mirim/SP,-23.5697765,-46.0407456,35,106.26670
1,Biritinga/BA,-11.6227908,-38.8066738,122,763.26326
D1,Biritinga/BA,-11.6227908,-38.8066738,2,12.51251
1,Bituruna/PR,-26.161281,-51.5533319,131,798.78049
D1,Bituruna/PR,-26.161281,-51.5533319,1,6.09756
1,Blumenau/SC,-26.9195567,-49.0658025,27958,7726.29921
D1,Blumenau/SC,-26.9195567,-49.0658025,275,75.99729
1,Boa Esperança do Iguaçu/PR,-25.6362851,-53.2139114,91,3684.21053
1,Boa Esperança do Sul/SP,-21.9930206,-48.3917372,293,1950.99214
D1,Boa Esperança do Sul/SP,-21.9930206,-48.3917372,8,53.26941
1,Boa Esperança/ES,-18.5395472,-40.2904088,576,3816.59157
D1,Boa Esperança/ES,-18.5395472,-40.2904088,21,139.14657
1,Boa Esperança/MG,-21.0901253,-45.5660195,673,1673.33847
D1,Boa Esperança/MG,-21.0901253,-45.5660195,20,49.72774
1,Boa Esperança/PR,-24.2411024,-52.7860277,108,2668.64344
D1,Boa Esperança/PR,-24.2411024,-52.7860277,2,49.41932
1,Boa Hora/PI,-4.4094627,-42.1255341,183,2685.25312
1,Boa Nova/BA,-14.365907,-40.2063056,243,1970.96277
D1,Boa Nova/BA,-14.365907,-40.2063056,5,40.55479
1,Boa Ventura de São Roque/PR,-24.88177,-51.5441292,91,1429.69364
D1,Boa Ventura de São Roque/PR,-24.88177,-51.5441292,1,15.71092
1,Boa Ventura/PB,-7.4202462,-38.2156782,146,2751.08347
D1,Boa Ventura/PB,-7.4202462,-38.2156782,3,56.52911
1,Boa Viagem/CE,-5.1261877,-39.7300055,1587,2907.81831
D1,Boa Viagem/CE,-5.1261877,-39.7300055,41,75.12322
1,Boa Vista da Aparecida/PR,-25.4357216,-53.4067721,297,3938.99204
D1,Boa Vista da Aparecida/PR,-25.4357216,-53.4067721,8,106.10080
1,Boa Vista das Missões/RS,-27.6677983,-53.3127622,13,621.41491
1,Boa Vista do Buricá/RS,-27.6687782,-54.1111913,279,4156.73421
D1,Boa Vista do Buricá/RS,-27.6687782,-54.1111913,4,59.59476
1,Boa Vista do Cadeado/RS,-28.5783827,-53.8123759,66,2674.23015
1,Boa Vista do Gurupi/MA,-1.7981168,-46.3071882,14,167.02458
D1,Boa Vista do Gurupi/MA,-1.7981168,-46.3071882,3,35.79098
1,Boa Vista do Incra/RS,-28.8195551,-53.3866624,64,2446.48318
D1,Boa Vista do Incra/RS,-28.8195551,-53.3866624,1,38.22630
1,Boa Vista do Ramos/AM,-2.9716927,-57.5869819,627,3194.74167
D1,Boa Vista do Ramos/AM,-2.9716927,-57.5869819,9,45.85754
1,Boa Vista do Sul/RS,-29.3510488,-51.6779679,119,4283.65731
D1,Boa Vista do Sul/RS,-29.3510488,-51.6779679,1,35.99712
1,Boa Vista do Tupim/BA,-12.6605988,-40.6083594,135,728.50898
D1,Boa Vista do Tupim/BA,-12.6605988,-40.6083594,2,10.79273
1,Boa Vista/PB,-7.2620711,-36.2415161,170,2382.28700
D1,Boa Vista/PB,-7.2620711,-36.2415161,2,28.02691
1,Boa Vista/RR,2.8208478,-60.6719582,52646,12545.15646
D1,Boa Vista/RR,2.8208478,-60.6719582,580,138.20975
1,Boca da Mata/AL,-9.6452054,-36.2116658,1287,4704.63518
D1,Boca da Mata/AL,-9.6452054,-36.2116658,25,91.38763
1,Boca do Acre/AM,-8.7553487,-67.3930873,2095,6048.79457
D1,Boca do Acre/AM,-8.7553487,-67.3930873,18,51.97055
1,Bocaina de Minas/MG,-22.167778,-44.394722,49,962.86107
D1,Bocaina de Minas/MG,-22.167778,-44.394722,2,39.30045
1,Bocaina do Sul/SC,-27.745494,-49.942279,283,8113.53211
D1,Bocaina do Sul/SC,-27.745494,-49.942279,3,86.00917
1,Bocaina/PI,-6.9445939,-41.3224599,175,3884.57270
D1,Bocaina/PI,-6.9445939,-41.3224599,2,44.39512
1,Bocaina/SP,-22.1421831,-48.522276,270,2168.32637
D1,Bocaina/SP,-22.1421831,-48.522276,5,40.15419
1,Bocaiúva do Sul/PR,-25.206591,-49.114131,581,4425.31800
D1,Bocaiúva do Sul/PR,-25.206591,-49.114131,5,38.08363
1,Bocaiúva/MG,-17.1160208,-43.8122678,640,1273.47978
D1,Bocaiúva/MG,-17.1160208,-43.8122678,8,15.91850
1,Bodocó/PE,-7.777592,-39.933797,1167,3040.80463
D1,Bodocó/PE,-7.777592,-39.933797,13,33.87357
1,Bodoquena/MS,-20.5508775,-56.6769653,84,1071.70196
D1,Bodoquena/MS,-20.5508775,-56.6769653,1,12.75836
1,Bodó/RN,-5.9866104,-36.4134824,53,2412.38052
1,Bofete/SP,-23.1019554,-48.2610535,202,1694.48872
D1,Bofete/SP,-23.1019554,-48.2610535,4,33.55423
1,Boituva/SP,-23.2838893,-47.6738231,1939,3118.86762
D1,Boituva/SP,-23.2838893,-47.6738231,31,49.86328
1,Bom Conselho/PE,-9.169191,-36.685683,951,1950.08920
D1,Bom Conselho/PE,-9.169191,-36.685683,28,57.41588
1,Bom Despacho/MG,-19.7375242,-45.2517288,1519,2976.79705
D1,Bom Despacho/MG,-19.7375242,-45.2517288,25,48.99271
1,Bom Jardim da Serra/SC,-28.3380324,-49.625588,476,9974.85331
D1,Bom Jardim da Serra/SC,-28.3380324,-49.625588,2,41.91115
1,Bom Jardim de Goiás/GO,-16.2062659,-52.172793,185,2085.91724
D1,Bom Jardim de Goiás/GO,-16.2062659,-52.172793,4,45.10091
1,Bom Jardim de Minas/MG,-21.9476466,-44.1906033,40,619.29091
1,Bom Jardim/MA,-3.54129,-45.606004,998,2386.30386
D1,Bom Jardim/MA,-3.54129,-45.606004,29,69.34149
1,Bom Jardim/PE,-7.7961572,-35.5871696,791,1978.34079
D1,Bom Jardim/PE,-7.7961572,-35.5871696,34,85.03614
1,Bom Jardim/RJ,-22.1515328,-42.4186683,490,1774.33372
D1,Bom Jardim/RJ,-22.1515328,-42.4186683,5,18.10545
1,Bom Jesus da Lapa/BA,-13.250571,-43.410754,1345,1930.75134
D1,Bom Jesus da Lapa/BA,-13.250571,-43.410754,18,25.83905
1,Bom Jesus da Penha/MG,-21.0165299,-46.5226644,120,2827.52121
D1,Bom Jesus da Penha/MG,-21.0165299,-46.5226644,1,23.56268
1,Bom Jesus da Serra/BA,-14.3724084,-40.5047119,176,1791.71333
1,Bom Jesus das Selvas/MA,-4.4878075,-46.8526639,1934,5594.93158
D1,Bom Jesus das Selvas/MA,-4.4878075,-46.8526639,18,52.07279
1,Bom Jesus de Goiás/GO,-18.2174587,-49.739721,1096,4273.23768
D1,Bom Jesus de Goiás/GO,-18.2174587,-49.739721,32,124.76606
1,Bom Jesus do Amparo/MG,-19.7045132,-43.4752911,72,1173.97685
D1,Bom Jesus do Amparo/MG,-19.7045132,-43.4752911,3,48.91570
1,Bom Jesus do Araguaia/MT,-12.1725897,-51.5074425,239,3563.97256
D1,Bom Jesus do Araguaia/MT,-12.1725897,-51.5074425,1,14.91202
1,Bom Jesus do Galho/MG,-19.8283191,-42.3162256,222,1493.74243
D1,Bom Jesus do Galho/MG,-19.8283191,-42.3162256,8,53.82856
1,Bom Jesus do Itabapoana/RJ,-21.1341025,-41.680095,1221,3281.99339
D1,Bom Jesus do Itabapoana/RJ,-21.1341025,-41.680095,28,75.26275
1,Bom Jesus do Norte/ES,-21.1254776,-41.6711646,625,6273.84059
D1,Bom Jesus do Norte/ES,-21.1254776,-41.6711646,11,110.41959
1,Bom Jesus do Oeste/SC,-26.6929713,-53.0967453,62,2898.55072
D1,Bom Jesus do Oeste/SC,-26.6929713,-53.0967453,1,46.75082
1,Bom Jesus do Sul/PR,-26.1922507,-53.6002033,107,3051.91101
D1,Bom Jesus do Sul/PR,-26.1922507,-53.6002033,2,57.04507
1,Bom Jesus do Tocantins/PA,-5.0471796,-48.5978362,430,2511.97570
D1,Bom Jesus do Tocantins/PA,-5.0471796,-48.5978362,5,29.20902
1,Bom Jesus do Tocantins/TO,-8.96306,-48.165043,102,2036.74121
1,Bom Jesus dos Perdões/SP,-23.1353864,-46.4648052,592,2278.23744
D1,Bom Jesus dos Perdões/SP,-23.1353864,-46.4648052,5,19.24187
1,Bom Jesus/PB,-6.8156725,-38.6551841,76,2951.45631
D1,Bom Jesus/PB,-6.8156725,-38.6551841,3,116.50485
1,Bom Jesus/PI,-9.0711644,-44.3583926,1980,7799.26734
D1,Bom Jesus/PI,-9.0711644,-44.3583926,24,94.53657
1,Bom Jesus/RN,-5.9887544,-35.5821149,321,3126.52187
D1,Bom Jesus/RN,-5.9887544,-35.5821149,6,58.43966
1,Bom Jesus/RS,-28.6692723,-50.4346894,364,3218.67539
D1,Bom Jesus/RS,-28.6692723,-50.4346894,9,79.58263
1,Bom Jesus/SC,-26.7350604,-52.3916519,140,4579.65325
D1,Bom Jesus/SC,-26.7350604,-52.3916519,2,65.42362
1,Bom Lugar/MA,-4.3728019,-45.0366054,305,1855.45687
D1,Bom Lugar/MA,-4.3728019,-45.0366054,4,24.33386
1,Bom Princípio do Piauí/PI,-3.1912777,-41.6430185,44,778.62325
D1,Bom Princípio do Piauí/PI,-3.1912777,-41.6430185,3,53.08795
1,Bom Princípio/RS,-29.489788,-51.3566782,724,5078.91968
D1,Bom Princípio/RS,-29.489788,-51.3566782,9,63.13574
1,Bom Progresso/RS,-27.5490948,-53.8655601,30,1579.77883
1,Bom Repouso/MG,-22.4657069,-46.1485376,217,2059.40970
D1,Bom Repouso/MG,-22.4657069,-46.1485376,8,75.92294
1,Bom Retiro do Sul/RS,-29.6000007,-51.9359243,470,3793.38176
D1,Bom Retiro do Sul/RS,-29.6000007,-51.9359243,8,64.56820
1,Bom Retiro/SC,-27.798993,-49.486994,295,2932.40557
D1,Bom Retiro/SC,-27.798993,-49.486994,6,59.64215
1,Bom Sucesso de Itararé/SP,-24.3190016,-49.1446207,44,1104.41767
D1,Bom Sucesso de Itararé/SP,-24.3190016,-49.1446207,2,50.20080
1,Bom Sucesso do Sul/PR,-26.0749256,-52.8348629,119,3657.03749
D1,Bom Sucesso do Sul/PR,-26.0749256,-52.8348629,2,61.46281
1,Bom Sucesso/MG,-21.0323516,-44.7598082,112,636.11064
D1,Bom Sucesso/MG,-21.0323516,-44.7598082,1,5.67956
1,Bom Sucesso/PB,-6.4458948,-37.9297662,62,1251.00888
1,Bom Sucesso/PR,-23.7088019,-51.7651297,187,2645.72722
D1,Bom Sucesso/PR,-23.7088019,-51.7651297,2,28.29655
1,Bombinhas/SC,-27.1519159,-48.4875691,2393,11767.88788
D1,Bombinhas/SC,-27.1519159,-48.4875691,20,98.35259
1,Bonfim do Piauí/PI,-9.1648678,-42.8734415,150,2638.52243
D1,Bonfim do Piauí/PI,-9.1648678,-42.8734415,2,35.18030
1,Bonfim/MG,-20.3266626, -44.2386157,128,1865.88921
D1,Bonfim/MG,-20.3266626, -44.2386157,2,29.15452
1,Bonfim/RR,3.3613818,-59.8427241,1342,10687.26607
D1,Bonfim/RR,3.3613818,-59.8427241,15,119.45528
1,Bonfinópolis de Minas/MG,-16.5660011,-45.98645,183,3361.49890
D1,Bonfinópolis de Minas/MG,-16.5660011,-45.98645,9,165.31962
1,Bonfinópolis/GO,-16.6172709,-48.9615701,389,3921.76631
D1,Bonfinópolis/GO,-16.6172709,-48.9615701,10,100.81661
1,Boninal/BA,-12.7095183,-41.8299984,297,2055.93244
D1,Boninal/BA,-12.7095183,-41.8299984,2,13.84466
1,Bonito de Minas/MG,-15.3191266,-44.7544,6,52.77509
1,Bonito de Santa Fé/PB,-7.3143332,-38.5146677,321,2670.10481
D1,Bonito de Santa Fé/PB,-7.3143332,-38.5146677,11,91.49892
1,Bonito/BA,-11.9665473,-41.2649896,414,2452.02559
D1,Bonito/BA,-11.9665473,-41.2649896,3,17.76830
1,Bonito/MS,-21.1264766,-56.4902208,1225,5520.50473
D1,Bonito/MS,-21.1264766,-56.4902208,18,81.11762
1,Bonito/PA,-1.3605722,-47.3049907,310,1875.37810
D1,Bonito/PA,-1.3605722,-47.3049907,10,60.49607
1,Bonito/PE,-8.4721161,-35.7314591,427,1120.23507
D1,Bonito/PE,-8.4721161,-35.7314591,28,73.45804
1,Bonópolis/GO,-13.649331,-49.8329113,87,1936.34543
D1,Bonópolis/GO,-13.649331,-49.8329113,1,22.25684
1,Boqueirão do Leão/RS,-29.30332,-52.4296817,174,2259.15347
D1,Boqueirão do Leão/RS,-29.30332,-52.4296817,3,38.95092
1,Boqueirão do Piauí/PI,-4.4850148,-42.1095161,239,3719.26548
D1,Boqueirão do Piauí/PI,-4.4850148,-42.1095161,1,15.56178
1,Boqueirão/PB,-7.487004,-36.130887,898,5025.18187
D1,Boqueirão/PB,-7.487004,-36.130887,11,61.55568
1,Boquim/SE,-11.1450175,-37.6204228,888,3301.23796
D1,Boquim/SE,-11.1450175,-37.6204228,24,89.22265
1,Boquira/BA,-12.8184859,-42.7270883,290,1349.02545
D1,Boquira/BA,-12.8184859,-42.7270883,4,18.60725
1,Boracéia/SP,-22.195355,-48.7801925,187,3841.41331
D1,Boracéia/SP,-22.195355,-48.7801925,2,41.08463
1,Borba/AM,-4.3934778,-59.5947721,1043,2498.32327
D1,Borba/AM,-4.3934778,-59.5947721,31,74.25505
1,Borborema/PB,-6.8066718,-35.5990191,96,1815.77454
D1,Borborema/PB,-6.8066718,-35.5990191,1,18.91432
1,Borborema/SP,-21.6212706,-49.074135,369,2282.85078
D1,Borborema/SP,-21.6212706,-49.074135,11,68.05246
1,Borda da Mata/MG,-22.274167,-46.165278,473,2411.54278
D1,Borda da Mata/MG,-22.274167,-46.165278,18,91.77118
1,Borebi/SP,-22.5700178,-48.9714871,65,2422.66120
D1,Borebi/SP,-22.5700178,-48.9714871,2,74.54342
1,Borrazópolis/PR,-23.9393362,-51.5850786,329,5109.48905
D1,Borrazópolis/PR,-23.9393362,-51.5850786,8,124.24289
1,Borá/SP,-22.2701088,-50.544407,10,1193.31742
1,Bossoroca/RS,-28.7278885,-54.9120278,111,1788.87994
D1,Bossoroca/RS,-28.7278885,-54.9120278,2,32.23207
1,Botelhos/MG,-21.65,-46.394722,211,1411.46565
D1,Botelhos/MG,-21.65,-46.394722,3,20.06823
1,Botucatu/SP,-22.8879628,-48.4410712,4574,3087.82826
D1,Botucatu/SP,-22.8879628,-48.4410712,64,43.20529
1,Botumirim/MG,-16.862778,-43.011111,23,365.77608
1,Botuporã/BA,-13.3744752,-42.5198469,45,444.26893
D1,Botuporã/BA,-13.3744752,-42.5198469,1,9.87264
1,Botuverá/SC,-27.200749,-49.068892,513,9639.23337
D1,Botuverá/SC,-27.200749,-49.068892,1,18.78993
1,Bozano/RS,-28.3669953,-53.7705165,51,2415.91663
1,Braga/RS,-27.617348,-53.740514,34,1026.88010
D1,Braga/RS,-27.617348,-53.740514,1,30.20236
1,Braganey/PR,-24.8179919,-53.118506,97,1802.30398
D1,Braganey/PR,-24.8179919,-53.118506,3,55.74136
1,Bragança Paulista/SP,-22.9520235,-46.5418586,5483,3215.21348
D1,Bragança Paulista/SP,-22.9520235,-46.5418586,102,59.81247
1,Bragança/PA,-1.0573967,-46.7635406,3033,2352.73128
D1,Bragança/PA,-1.0573967,-46.7635406,100,77.57109
1,Branquinha/AL,-9.2478057,-36.0152009,277,2648.18356
D1,Branquinha/AL,-9.2478057,-36.0152009,6,57.36138
1,Brasil Novo/PA,-3.3055853,-52.539198,814,5432.82387
D1,Brasil Novo/PA,-3.3055853,-52.539198,17,113.46192
1,Brasileira/PI,-4.131182,-41.7824969,258,3090.93087
D1,Brasileira/PI,-4.131182,-41.7824969,5,59.90176
1,Brasilândia de Minas/MG,-17.0096469,-46.0087183,532,3176.49869
D1,Brasilândia de Minas/MG,-17.0096469,-46.0087183,2,11.94172
1,Brasilândia do Sul/PR,-24.1975793,-53.527551,110,4255.31915
D1,Brasilândia do Sul/PR,-24.1975793,-53.527551,1,38.68472
1,Brasilândia do Tocantins/TO,-8.3886619,-48.4842729,69,3120.75984
D1,Brasilândia do Tocantins/TO,-8.3886619,-48.4842729,1,45.22840
1,Brasilândia/MS,-21.255575,-52.0365617,219,1847.63351
D1,Brasilândia/MS,-21.255575,-52.0365617,5,42.18341
1,Brasiléia/AC,-11.0010413,-68.7487894,1404,5258.03311
D1,Brasiléia/AC,-11.0010413,-68.7487894,24,89.88091
1,Brasnorte/MT,-12.1227151,-58.0050109,463,2298.90765
D1,Brasnorte/MT,-12.1227151,-58.0050109,4,19.86097
1,Brasília de Minas/MG,-16.2075114,-44.430559,393,1212.77581
D1,Brasília de Minas/MG,-16.2075114,-44.430559,5,15.42972
1,Brasília/DF,-15.7934036,-47.8823172,261456,8557.88048
D1,Brasília/DF,-15.7934036,-47.8823172,4388,143.62638
1,Brazabrantes/GO,-16.4291635,-49.3858216,184,4911.90603
D1,Brazabrantes/GO,-16.4291635,-49.3858216,2,53.39028
1,Brazópolis/MG,-22.4742842,-45.6165577,311,2158.22346
D1,Brazópolis/MG,-22.4742842,-45.6165577,6,41.63775
1,Braço do Norte/SC,-28.2728633,-49.1622712,4566,13478.56890
D1,Braço do Norte/SC,-28.2728633,-49.1622712,38,112.17381
1,Braço do Trombudo/SC,-27.358578,-49.882145,306,8118.86442
D1,Braço do Trombudo/SC,-27.358578,-49.882145,3,79.59671
1,Braúna/SP,-21.5015319,-50.3175246,151,2630.20380
D1,Braúna/SP,-21.5015319,-50.3175246,7,121.92998
1,Braúnas/MG,-19.055556,-42.716111,28,587.12518
D1,Braúnas/MG,-19.055556,-42.716111,2,41.93751
1,Brejetuba/ES,-20.1465817,-41.2902303,782,6292.74966
D1,Brejetuba/ES,-20.1465817,-41.2902303,2,16.09399
1,Brejinho de Nazaré/TO,-11.0205883,-48.5722906,117,2119.94927
D1,Brejinho de Nazaré/TO,-11.0205883,-48.5722906,5,90.59612
1,Brejinho/PE,-7.3482153,-37.28538,305,4073.18376
D1,Brejinho/PE,-7.3482153,-37.28538,3,40.06410
1,Brejinho/RN,-6.1957907,-35.3583019,432,3378.43122
D1,Brejinho/RN,-6.1957907,-35.3583019,4,31.28177
1,Brejo Alegre/SP,-21.1671191,-50.1850393,133,4603.66909
D1,Brejo Alegre/SP,-21.1671191,-50.1850393,6,207.68432
1,Brejo Grande do Araguaia/PA,-5.7011449,-48.4037308,618,8387.62215
D1,Brejo Grande do Araguaia/PA,-5.7011449,-48.4037308,2,27.14441
1,Brejo Grande/SE,-10.4287358,-36.4667918,204,2442.23632
D1,Brejo Grande/SE,-10.4287358,-36.4667918,8,95.77397
1,Brejo Santo/CE,-7.4909841,-38.9859152,3057,6133.38149
D1,Brejo Santo/CE,-7.4909841,-38.9859152,27,54.17118
1,Brejo da Madre de Deus/PE,-8.1409718,-36.3712527,1159,2262.56711
D1,Brejo da Madre de Deus/PE,-8.1409718,-36.3712527,31,60.51733
1,Brejo de Areia/MA,-4.3316785,-45.5833334,248,2751.27579
D1,Brejo de Areia/MA,-4.3316785,-45.5833334,2,22.18771
1,Brejo do Cruz/PB,-6.32926065,-37.48746163303929,1020,7180.06476
D1,Brejo do Cruz/PB,-6.32926065,-37.48746163303929,12,84.47135
1,Brejo do Piauí/PI,-8.207583,-42.8359849,27,701.66320
D1,Brejo do Piauí/PI,-8.207583,-42.8359849,2,51.97505
1,Brejo dos Santos/PB,-6.3769367,-37.8243125,108,1670.79208
D1,Brejo dos Santos/PB,-6.3769367,-37.8243125,2,30.94059
1,Brejo/MA,-3.6804397,-42.7529313,701,1912.63540
D1,Brejo/MA,-3.6804397,-42.7529313,18,49.11189
1,Brejolândia/BA,-12.4843845,-43.9611861,121,1139.57431
D1,Brejolândia/BA,-12.4843845,-43.9611861,7,65.92579
1,Brejão/PE,-9.029146,-36.566034,57,634.24947
D1,Brejão/PE,-9.029146,-36.566034,3,33.38155
1,Brejões/BA,-13.1033754,-39.7909837,293,2060.18844
D1,Brejões/BA,-13.1033754,-39.7909837,3,21.09408
1,Breu Branco/PA,-3.7785073,-49.5684795,403,598.52670
D1,Breu Branco/PA,-3.7785073,-49.5684795,26,38.61463
1,Breves/PA,-1.68036,-50.479085,3490,3372.07842
D1,Breves/PA,-1.68036,-50.479085,98,94.68873
1,Britânia/GO,-15.2427599,-51.1602061,243,4191.82336
D1,Britânia/GO,-15.2427599,-51.1602061,1,17.25030
1,Brochier/RS,-29.556766,-51.5963047,102,1998.43260
1,Brodowski/SP,-20.984532,-47.657217,887,3509.11896
D1,Brodowski/SP,-20.984532,-47.657217,25,98.90414
1,Brotas de Macaúbas/BA,-12.0019007,-42.6257506,49,483.71175
1,Brotas/SP,-22.2840884,-48.1267265,247,1002.59782
D1,Brotas/SP,-22.2840884,-48.1267265,6,24.35460
1,Brumadinho/MG,-20.143611,-44.2,1743,4286.13584
D1,Brumadinho/MG,-20.143611,-44.2,20,49.18113
1,Brumado/BA,-14.29507325,-41.659307508575985,3961,5882.52766
D1,Brumado/BA,-14.29507325,-41.659307508575985,38,56.43425
1,Brunópolis/SC,-27.310953,-50.837585,60,2533.78378
1,Brusque/SC,-27.0964628,-48.9136323,13586,9867.16441
D1,Brusque/SC,-27.0964628,-48.9136323,108,78.43764
1,Brás Pires/MG,-20.8483109,-43.2430524,54,1257.86164
D1,Brás Pires/MG,-20.8483109,-43.2430524,4,93.17494
1,Bueno Brandão/MG,-22.441976,-46.3517971,181,1646.80193
D1,Bueno Brandão/MG,-22.441976,-46.3517971,6,54.59012
1,Buenos Aires/PE,-7.7218931,-35.326587,68,515.54208
D1,Buenos Aires/PE,-7.7218931,-35.326587,9,68.23351
1,Buenópolis/MG,-17.8756607,-44.1749365,106,1023.85782
D1,Buenópolis/MG,-17.8756607,-44.1749365,3,28.97711
1,Buerarema/BA,-14.9571177,-39.3008035,753,4113.40544
D1,Buerarema/BA,-14.9571177,-39.3008035,26,142.02994
1,Bugre/MG,-19.4257687,-42.2556,257,6452.42280
D1,Bugre/MG,-19.4257687,-42.2556,6,150.64022
1,Bujari/AC,-9.8309656,-67.9520886,493,4731.28599
D1,Bujari/AC,-9.8309656,-67.9520886,8,76.77543
1,Bujaru/PA,-1.5169239,-48.0410699,770,2616.64458
D1,Bujaru/PA,-1.5169239,-48.0410699,23,78.15951
1,Buri/SP,-23.79849,-48.598924,431,2158.77786
D1,Buri/SP,-23.79849,-48.598924,11,55.09642
1,Buritama/SP,-21.0664017,-50.1448077,968,5601.52769
D1,Buritama/SP,-21.0664017,-50.1448077,25,144.66755
1,Buriti Alegre/GO,-18.1377879,-49.0404411,413,4354.70266
D1,Buriti Alegre/GO,-18.1377879,-49.0404411,9,94.89667
1,Buriti Bravo/MA,-5.8391884,-43.8367876,1019,4256.65232
D1,Buriti Bravo/MA,-5.8391884,-43.8367876,10,41.77284
1,Buriti de Goiás/GO,-16.180644,-50.4287479,120,4846.52666
D1,Buriti de Goiás/GO,-16.180644,-50.4287479,1,40.38772
1,Buriti do Tocantins/TO,-5.3187439,-48.2256609,311,2705.05349
D1,Buriti do Tocantins/TO,-5.3187439,-48.2256609,1,8.69792
1,Buriti dos Lopes/PI,-3.1776723,-41.8707444,816,4119.75564
D1,Buriti dos Lopes/PI,-3.1776723,-41.8707444,12,60.58464
1,Buriti dos Montes/PI,-5.3136171,-41.0971256,304,3678.60600
D1,Buriti dos Montes/PI,-5.3136171,-41.0971256,2,24.20136
1,Buriti/MA,-3.9430944,-42.9244281,701,2434.19682
D1,Buriti/MA,-3.9430944,-42.9244281,4,13.88985
1,Buriticupu/MA,-4.3227472,-46.4516989,2637,3613.17019
D1,Buriticupu/MA,-4.3227472,-46.4516989,18,24.66328
1,Buritinópolis/GO,-14.4589282,-46.4293104,60,1827.59671
1,Buritirama/BA,-10.7148421,-43.6362327,539,2533.37093
D1,Buritirama/BA,-10.7148421,-43.6362327,9,42.30118
1,Buritirana/MA,-5.5897455,-47.0148915,243,1571.08683
D1,Buritirana/MA,-5.5897455,-47.0148915,9,58.18840
1,Buritis/MG,-15.621389,-46.423889,523,2090.91273
D1,Buritis/MG,-15.621389,-46.423889,6,23.98753
1,Buritis/RO,-10.2054937,-63.8281954,1294,3206.46248
D1,Buritis/RO,-10.2054937,-63.8281954,16,39.64714
1,Buritizal/SP,-20.1933264,-47.7097165,85,1883.03057
D1,Buritizal/SP,-20.1933264,-47.7097165,3,66.45990
1,Buritizeiro/MG,-17.3667765,-44.9647781,419,1489.98969
D1,Buritizeiro/MG,-17.3667765,-44.9647781,10,35.56061
1,Butiá/RS,-30.1256795,-51.9692224,668,3188.23979
D1,Butiá/RS,-30.1256795,-51.9692224,24,114.54754
1,Buíque/PE,-8.6239732,-37.157296,847,1437.56683
D1,Buíque/PE,-8.6239732,-37.157296,13,22.06419
1,Bálsamo/SP,-20.7343722,-49.5807484,672,7353.10209
D1,Bálsamo/SP,-20.7343722,-49.5807484,27,295.43714
0,CASO SEM LOCALIZAÇÃO DEFINIDA/AC,-9.884083190922777,-67.85119819780795,353,40.02563
D0,CASO SEM LOCALIZAÇÃO DEFINIDA/AC,-9.884083190922777,-67.85119819780795,2,0.22677
0,CASO SEM LOCALIZAÇÃO DEFINIDA/AL,-9.931093434363673,-35.609611600637464,409,12.25521
D0,CASO SEM LOCALIZAÇÃO DEFINIDA/AL,-9.931093434363673,-35.609611600637464,16,0.47942
0,CASO SEM LOCALIZAÇÃO DEFINIDA/AM,-3.07518492149711,-60.16169212873594,1474,35.56437
D0,CASO SEM LOCALIZAÇÃO DEFINIDA/AM,-3.07518492149711,-60.16169212873594,69,1.66482
0,CASO SEM LOCALIZAÇÃO DEFINIDA/AP,2.677150600275196,-50.477785111870624,360,42.56673
D0,CASO SEM LOCALIZAÇÃO DEFINIDA/AP,2.677150600275196,-50.477785111870624,6,0.70945
0,CASO SEM LOCALIZAÇÃO DEFINIDA/BA,-13.415069300066518,-38.14174656569957,10469,70.38899
D0,CASO SEM LOCALIZAÇÃO DEFINIDA/BA,-13.415069300066518,-38.14174656569957,100,0.67236
0,CASO SEM LOCALIZAÇÃO DEFINIDA/CE,-3.3445126297392798,-38.624961942434304,9512,104.16030
D0,CASO SEM LOCALIZAÇÃO DEFINIDA/CE,-3.3445126297392798,-38.624961942434304,27,0.29566
0,CASO SEM LOCALIZAÇÃO DEFINIDA/ES,-20.30989267097039,-39.81745156645774,3952,98.34148
D0,CASO SEM LOCALIZAÇÃO DEFINIDA/ES,-20.30989267097039,-39.81745156645774,99,2.46351
0,CASO SEM LOCALIZAÇÃO DEFINIDA/GO,-16.701590966270153,-49.164524059025034,3172,45.19578
D0,CASO SEM LOCALIZAÇÃO DEFINIDA/GO,-16.701590966270153,-49.164524059025034,28,0.39895
0,CASO SEM LOCALIZAÇÃO DEFINIDA/MA,-2.171256551718846,-43.98946796681719,260,3.67482
D0,CASO SEM LOCALIZAÇÃO DEFINIDA/MA,-2.171256551718846,-43.98946796681719,8,0.11307
0,CASO SEM LOCALIZAÇÃO DEFINIDA/MG,-19.97049116501593,-43.8852149072783,11559,54.60397
D0,CASO SEM LOCALIZAÇÃO DEFINIDA/MG,-19.97049116501593,-43.8852149072783,251,1.18571
0,CASO SEM LOCALIZAÇÃO DEFINIDA/MS,-20.391549234908513,-54.645156949758444,1095,39.40286
D0,CASO SEM LOCALIZAÇÃO DEFINIDA/MS,-20.391549234908513,-54.645156949758444,22,0.79166
0,CASO SEM LOCALIZAÇÃO DEFINIDA/MT,-15.54791153961863,-56.17143998972475,2798,80.29925
D0,CASO SEM LOCALIZAÇÃO DEFINIDA/MT,-15.54791153961863,-56.17143998972475,92,2.64029
0,CASO SEM LOCALIZAÇÃO DEFINIDA/PB,-7.1049355696146606,-34.68696690234351,681,16.94820
D0,CASO SEM LOCALIZAÇÃO DEFINIDA/PB,-7.1049355696146606,-34.68696690234351,9,0.22398
0,CASO SEM LOCALIZAÇÃO DEFINIDA/PE,-8.121628543819208,-34.57313921302556,1803,18.86561
D0,CASO SEM LOCALIZAÇÃO DEFINIDA/PE,-8.121628543819208,-34.57313921302556,30,0.31390
0,CASO SEM LOCALIZAÇÃO DEFINIDA/PI,-2.683810218391744,-41.470898009352254,835,25.50999
D0,CASO SEM LOCALIZAÇÃO DEFINIDA/PI,-2.683810218391744,-41.470898009352254,7,0.21386
0,CASO SEM LOCALIZAÇÃO DEFINIDA/PR,-25.69415946385943,-48.10141676336737,6715,58.72857
D0,CASO SEM LOCALIZAÇÃO DEFINIDA/PR,-25.69415946385943,-48.10141676336737,105,0.91832
0,CASO SEM LOCALIZAÇÃO DEFINIDA/RJ,-23.210238986465157,-43.12864305824042,4287,24.83066
D0,CASO SEM LOCALIZAÇÃO DEFINIDA/RJ,-23.210238986465157,-43.12864305824042,265,1.53490
0,CASO SEM LOCALIZAÇÃO DEFINIDA/RN,-5.749310788669161,-34.95302586257457,711,20.27459
D0,CASO SEM LOCALIZAÇÃO DEFINIDA/RN,-5.749310788669161,-34.95302586257457,15,0.42773
0,CASO SEM LOCALIZAÇÃO DEFINIDA/RO,-8.681174926655274,-63.9216949899276,939,52.83518
D0,CASO SEM LOCALIZAÇÃO DEFINIDA/RO,-8.681174926655274,-63.9216949899276,15,0.84401
0,CASO SEM LOCALIZAÇÃO DEFINIDA/RR,2.813328208465927,-60.663338675861986,2041,336.93156
D0,CASO SEM LOCALIZAÇÃO DEFINIDA/RR,2.813328208465927,-60.663338675861986,11,1.81590
0,CASO SEM LOCALIZAÇÃO DEFINIDA/RS,-30.50647488532064,-49.906261466443524,5223,45.90745
D0,CASO SEM LOCALIZAÇÃO DEFINIDA/RS,-30.50647488532064,-49.906261466443524,80,0.70316
0,CASO SEM LOCALIZAÇÃO DEFINIDA/SC,-27.675643660562308,-48.18313219398259,14613,203.95579
D0,CASO SEM LOCALIZAÇÃO DEFINIDA/SC,-27.675643660562308,-48.18313219398259,58,0.80951
0,CASO SEM LOCALIZAÇÃO DEFINIDA/SE,-11.03002091978736,-36.89283180376513,666,28.97295
D0,CASO SEM LOCALIZAÇÃO DEFINIDA/SE,-11.03002091978736,-36.89283180376513,12,0.52204
0,CASO SEM LOCALIZAÇÃO DEFINIDA/SP,-24.30968974555485,-46.21366504207253,15507,33.77030
D0,CASO SEM LOCALIZAÇÃO DEFINIDA/SP,-24.30968974555485,-46.21366504207253,323,0.70341
0,CASO SEM LOCALIZAÇÃO DEFINIDA/TO,-10.213012114749148,-48.40023803990334,486,30.89901
D0,CASO SEM LOCALIZAÇÃO DEFINIDA/TO,-10.213012114749148,-48.40023803990334,8,0.50863
1,Caapiranga/AM,-3.3188884,-61.2096404,436,3282.39103
D1,Caapiranga/AM,-3.3188884,-61.2096404,9,67.75578
1,Caaporã/PB,-7.510234,-34.9154114,1133,5160.55568
D1,Caaporã/PB,-7.510234,-34.9154114,19,86.54065
1,Caarapó/MS,-22.6349267,-54.8240903,1456,4759.25865
D1,Caarapó/MS,-22.6349267,-54.8240903,15,49.03082
1,Caatiba/BA,-14.9782759,-40.4092325,447,6889.64242
D1,Caatiba/BA,-14.9782759,-40.4092325,4,61.65228
1,Cabaceiras do Paraguaçu/BA,-12.5377868,-39.1901339,185,978.26662
D1,Cabaceiras do Paraguaçu/BA,-12.5377868,-39.1901339,1,5.28793
1,Cabaceiras/PB,-7.4899156,-36.2860501,198,3497.61526
1,Cabeceira Grande/MG,-16.0297,-47.0906,79,1130.50944
D1,Cabeceira Grande/MG,-16.0297,-47.0906,2,28.62049
1,Cabeceiras do Piauí/PI,-4.4733665,-42.3098716,252,2370.64911
D1,Cabeceiras do Piauí/PI,-4.4733665,-42.3098716,7,65.85136
1,Cabeceiras/GO,-15.7995459,-46.9264991,97,1205.56798
D1,Cabeceiras/GO,-15.7995459,-46.9264991,3,37.28561
1,Cabedelo/PB,-6.97324,-34.8351609,4243,6170.11066
D1,Cabedelo/PB,-6.97324,-34.8351609,94,136.69347
1,Cabixi/RO,-13.4956065,-60.5424442,250,4818.81264
D1,Cabixi/RO,-13.4956065,-60.5424442,7,134.92675
1,Cabo Frio/RJ,-22.8804369,-42.0189227,5488,2382.17191
D1,Cabo Frio/RJ,-22.8804369,-42.0189227,241,104.61068
1,Cabo Verde/MG,-21.4743338,-46.3964995,136,966.25222
D1,Cabo Verde/MG,-21.4743338,-46.3964995,3,21.31439
1,Cabo de Santo Agostinho/PE,-8.2838945,-35.0320984,2616,1252.01011
D1,Cabo de Santo Agostinho/PE,-8.2838945,-35.0320984,300,143.57914
1,Cabreúva/SP,-23.3075813,-47.1324417,1912,3791.46919
D1,Cabreúva/SP,-23.3075813,-47.1324417,47,93.20034
1,Cabrobó/PE,-8.5083701,-39.3106961,752,2179.52062
D1,Cabrobó/PE,-8.5083701,-39.3106961,6,17.38979
1,Cabrália Paulista/SP,-22.4562909,-49.3385645,121,2851.75583
1,Cacaulândia/RO,-10.3380043,-62.9007231,146,2328.92008
1,Cacequi/RS,-29.8838059,-54.8273443,85,684.21476
D1,Cacequi/RS,-29.8838059,-54.8273443,2,16.09917
1,Cachoeira Alta/GO,-18.7618269,-50.9432431,806,6363.49282
D1,Cachoeira Alta/GO,-18.7618269,-50.9432431,11,86.84668
1,Cachoeira Dourada/GO,-18.4934204,-49.481062,183,2278.67015
D1,Cachoeira Dourada/GO,-18.4934204,-49.481062,3,37.35525
1,Cachoeira Dourada/MG,-18.517136,-49.5002062,44,1626.01626
1,Cachoeira Grande/MA,-2.9290492,-44.0573223,187,1972.99008
D1,Cachoeira Grande/MA,-2.9290492,-44.0573223,4,42.20300
1,Cachoeira Paulista/SP,-22.666498,-45.015384,577,1718.23352
D1,Cachoeira Paulista/SP,-22.666498,-45.015384,19,56.57961
1,Cachoeira da Prata/MG,-19.524723,-44.453056,120,3341.68755
D1,Cachoeira da Prata/MG,-19.524723,-44.453056,2,55.69479
1,Cachoeira de Goiás/GO,-16.6688414,-50.6435997,26,1937.40686
1,Cachoeira de Minas/MG,-22.3554043,-45.7796324,267,2305.89861
D1,Cachoeira de Minas/MG,-22.3554043,-45.7796324,3,25.90897
1,Cachoeira de Pajeú/MG,-15.965833,-41.496666,293,3103.15611
D1,Cachoeira de Pajeú/MG,-15.965833,-41.496666,3,31.77293
1,Cachoeira do Arari/PA,-1.0143572,-48.9621089,337,1400.43218
D1,Cachoeira do Arari/PA,-1.0143572,-48.9621089,13,54.02261
1,Cachoeira do Piriá/PA,-1.7599443,-46.5446954,541,1563.17721
D1,Cachoeira do Piriá/PA,-1.7599443,-46.5446954,3,8.66827
1,Cachoeira do Sul/RS,-30.0474778,-52.8905413,2092,2555.30176
D1,Cachoeira do Sul/RS,-30.0474778,-52.8905413,27,32.97952
1,Cachoeira dos Índios/PB,-6.9259193,-38.6742159,316,3066.47259
D1,Cachoeira dos Índios/PB,-6.9259193,-38.6742159,10,97.04027
1,Cachoeira/BA,-12.5998256,-38.9665918,596,1775.55337
D1,Cachoeira/BA,-12.5998256,-38.9665918,12,35.74940
1,Cachoeiras de Macacu/RJ,-22.4626861,-42.6534414,1067,1799.23444
D1,Cachoeiras de Macacu/RJ,-22.4626861,-42.6534414,44,74.19523
1,Cachoeirinha/PE,-8.4906364,-36.2338963,318,1551.14385
D1,Cachoeirinha/PE,-8.4906364,-36.2338963,22,107.31184
1,Cachoeirinha/RS,-29.9493353,-51.0898927,5831,4443.00518
D1,Cachoeirinha/RS,-29.9493353,-51.0898927,144,109.72265
1,Cachoeirinha/TO,-6.118647,-47.9208885,82,3590.19264
D1,Cachoeirinha/TO,-6.118647,-47.9208885,2,87.56567
1,Cachoeiro de Itapemirim/ES,-20.848084,-41.11129,13292,6311.82066
D1,Cachoeiro de Itapemirim/ES,-20.848084,-41.11129,267,126.78725
1,Cacimba de Areia/PB,-7.1288513,-37.1575194,19,514.20839
1,Cacimba de Dentro/PB,-6.6425101,-35.7929304,683,3976.01583
D1,Cacimba de Dentro/PB,-6.6425101,-35.7929304,17,98.96379
1,Cacimbas/PB,-7.2125451,-37.0593398,92,1277.95527
D1,Cacimbas/PB,-7.2125451,-37.0593398,4,55.56327
1,Cacimbinhas/AL,-9.401212,-36.991082,349,3205.06934
D1,Cacimbinhas/AL,-9.401212,-36.991082,3,27.55074
1,Cacique Doble/RS,-27.7700117,-51.6616409,174,3429.24714
D1,Cacique Doble/RS,-27.7700117,-51.6616409,1,19.70832
1,Cacoal/RO,-11.4333,-61.4420502,4716,5490.55220
D1,Cacoal/RO,-11.4333,-61.4420502,67,78.00403
1,Caconde/SP,-21.527995,-46.643659,340,1788.62644
D1,Caconde/SP,-21.527995,-46.643659,2,10.52133
1,Caculé/BA,-14.4990734,-42.2233006,246,1056.20197
D1,Caculé/BA,-14.4990734,-42.2233006,4,17.17402
1,Caetanos/BA,-14.3387456,-40.9085971,256,1752.46440
D1,Caetanos/BA,-14.3387456,-40.9085971,2,13.69113
1,Caetanópolis/MG,-19.2947496,-44.4138386,297,2527.87471
D1,Caetanópolis/MG,-19.2947496,-44.4138386,3,25.53409
1,Caetité/BA,-14.0691776,-42.4852428,733,1434.97582
D1,Caetité/BA,-14.0691776,-42.4852428,5,9.78838
1,Caeté/MG,-19.897777,-43.670278,790,1753.72389
D1,Caeté/MG,-19.897777,-43.670278,24,53.27769
1,Caetés/PE,-8.7728788,-36.6255835,851,2944.22917
D1,Caetés/PE,-8.7728788,-36.6255835,10,34.59729
1,Cafarnaum/BA,-11.691399,-41.468823,464,2506.34689
D1,Cafarnaum/BA,-11.691399,-41.468823,10,54.01610
1,Cafeara/PR,-22.78905,-51.714195,108,3656.05958
D1,Cafeara/PR,-22.78905,-51.714195,2,67.70481
1,Cafelândia/PR,-24.6176963,-53.3218057,905,4903.55440
D1,Cafelândia/PR,-24.6176963,-53.3218057,6,32.50975
1,Cafelândia/SP,-21.8054355,-49.6030627,458,2566.83293
D1,Cafelândia/SP,-21.8054355,-49.6030627,14,78.46214
1,Cafezal do Sul/PR,-23.900508,-53.512418,82,2045.39785
D1,Cafezal do Sul/PR,-23.900508,-53.512418,1,24.94388
1,Caiabu/SP,-22.0143038,-51.2356597,42,1001.66945
D1,Caiabu/SP,-22.0143038,-51.2356597,2,47.69855
1,Caiana/MG,-20.695555,-41.924723,58,1046.74247
D1,Caiana/MG,-20.695555,-41.924723,2,36.09457
1,Caiapônia/GO,-16.9538779,-51.8090761,307,1606.74098
D1,Caiapônia/GO,-16.9538779,-51.8090761,4,20.93474
1,Caibaté/RS,-28.290475,-54.645407,22,456.14763
D1,Caibaté/RS,-28.290475,-54.645407,3,62.20195
1,Caibi/SC,-27.0751925,-53.2502133,175,2854.81240
D1,Caibi/SC,-27.0751925,-53.2502133,2,32.62643
1,Caicó/RN,-6.4594544,-37.0971911,5774,8448.56094
D1,Caicó/RN,-6.4594544,-37.0971911,62,90.71887
1,Caieiras/SP,-23.3644621,-46.7484765,3631,3532.96035
D1,Caieiras/SP,-23.3644621,-46.7484765,115,111.89492
1,Cairu/BA,-13.4860505,-39.0455744,705,3825.90764
D1,Cairu/BA,-13.4860505,-39.0455744,8,43.41455
1,Caiuá/SP,-21.8319357,-51.9887179,107,1799.52910
D1,Caiuá/SP,-21.8319357,-51.9887179,2,33.63606
1,Caiçara do Norte/RN,-5.0645017,-36.0561226,128,1950.92212
D1,Caiçara do Norte/RN,-5.0645017,-36.0561226,3,45.72474
1,Caiçara do Rio do Vento/RN,-5.757968,-36.00089,108,2907.13324
D1,Caiçara do Rio do Vento/RN,-5.757968,-36.00089,2,53.83580
1,Caiçara/PB,-6.6146866,-35.4681434,475,6605.47907
D1,Caiçara/PB,-6.6146866,-35.4681434,10,139.06272
1,Caiçara/RS,-27.2750478,-53.4310053,240,5106.38298
D1,Caiçara/RS,-27.2750478,-53.4310053,3,63.82979
1,Cajamar/SP,-23.3561111,-46.8769444,1934,2481.58698
D1,Cajamar/SP,-23.3561111,-46.8769444,84,107.78351
1,Cajapió/MA,-2.8778715,-44.6746871,51,454.70756
D1,Cajapió/MA,-2.8778715,-44.6746871,2,17.83167
1,Cajari/MA,-3.3213076,-45.0118757,132,678.62835
D1,Cajari/MA,-3.3213076,-45.0118757,4,20.56450
1,Cajati/SP,-24.7272376,-48.1077914,2226,7812.17098
D1,Cajati/SP,-24.7272376,-48.1077914,48,168.45652
1,Cajazeiras do Piauí/PI,-6.794271,-42.3935024,23,643.71676
D1,Cajazeiras do Piauí/PI,-6.794271,-42.3935024,1,27.98769
1,Cajazeiras/PB,-6.8897849,-38.5570389,3617,5806.80377
D1,Cajazeiras/PB,-6.8897849,-38.5570389,71,113.98481
1,Cajazeirinhas/PB,-6.961442,-37.7993733,65,2028.08112
1,Cajobi/SP,-20.8776238,-48.8106972,319,3010.57003
D1,Cajobi/SP,-20.8776238,-48.8106972,7,66.06267
1,Cajueiro da Praia/PI,-2.931114,-41.340801,445,5798.80115
D1,Cajueiro da Praia/PI,-2.931114,-41.340801,10,130.31014
1,Cajueiro/AL,-9.399589,-36.1524309,389,1823.63696
D1,Cajueiro/AL,-9.399589,-36.1524309,16,75.00820
1,Cajuri/MG,-20.7901414,-42.7954489,101,2541.51988
1,Cajuru/SP,-21.2759978,-47.3046035,509,1928.54166
D1,Cajuru/SP,-21.2759978,-47.3046035,16,60.62213
1,Caldas Brandão/PB,-7.1027959,-35.3254676,353,5838.57096
D1,Caldas Brandão/PB,-7.1027959,-35.3254676,4,66.15944
1,Caldas Novas/GO,-17.745,-48.625,3307,3548.43556
D1,Caldas Novas/GO,-17.745,-48.625,65,69.74548
1,Caldas/MG,-21.923611,-46.386111,283,1946.22103
D1,Caldas/MG,-21.923611,-46.386111,8,55.01685
1,Caldazinha/GO,-16.7116649,-49.0012601,123,3196.46570
D1,Caldazinha/GO,-16.7116649,-49.0012601,2,51.97505
1,Caldeirão Grande do Piauí/PI,-7.3310393,-40.6374433,176,3044.45598
1,Caldeirão Grande/BA,-11.0208483,-40.3041387,472,3524.75543
D1,Caldeirão Grande/BA,-11.0208483,-40.3041387,3,22.40311
1,Califórnia/PR,-23.6672543,-51.3554556,363,4217.98745
D1,Califórnia/PR,-23.6672543,-51.3554556,8,92.95840
1,Calmon/SC,-26.6023644,-51.0992893,14,419.79010
D1,Calmon/SC,-26.6023644,-51.0992893,2,59.97001
1,Calumbi/PE,-7.9389746,-38.1516871,284,4941.70872
D1,Calumbi/PE,-7.9389746,-38.1516871,2,34.80077
1,Calçado/PE,-8.7413446,-36.3351787,187,1697.22273
D1,Calçado/PE,-8.7413446,-36.3351787,2,18.15211
1,Calçoene/AP,2.4981757,-50.9539503,1497,13240.75712
D1,Calçoene/AP,2.4981757,-50.9539503,8,70.75889
1,Camacan/BA,-15.4166631,-39.4930088,1766,5517.71543
D1,Camacan/BA,-15.4166631,-39.4930088,36,112.47891
1,Camacho/MG,-20.625556,-45.156667,20,697.10701
1,Camalaú/PB,-7.885031,-36.824191,123,2039.46278
D1,Camalaú/PB,-7.885031,-36.824191,2,33.16200
1,Camamu/BA,-13.9438142,-39.1060917,1002,2831.94845
D1,Camamu/BA,-13.9438142,-39.1060917,26,73.48369
1,Camanducaia/MG,-22.755278,-46.144444,896,4109.90322
D1,Camanducaia/MG,-22.755278,-46.144444,12,55.04335
1,Camapuã/MS,-19.5291747,-54.0434641,259,1891.47740
D1,Camapuã/MS,-19.5291747,-54.0434641,6,43.81801
1,Camaquã/RS,-30.8524752,-51.8075619,2932,4410.48166
D1,Camaquã/RS,-30.8524752,-51.8075619,37,55.65751
1,Camaragibe/PE,-8.0213832,-34.9810768,2806,1765.90161
D1,Camaragibe/PE,-8.0213832,-34.9810768,223,140.34072
1,Camargo/RS,-28.5865661,-52.2031474,142,5178.70168
D1,Camargo/RS,-28.5865661,-52.2031474,1,36.46973
1,Camaçari/BA,-12.6998188,-38.3260762,7979,2622.06624
D1,Camaçari/BA,-12.6998188,-38.3260762,151,49.62176
1,Cambará do Sul/RS,-29.0489517,-50.145412,250,3902.59132
D1,Cambará do Sul/RS,-29.0489517,-50.145412,1,15.61037
1,Cambará/PR,-23.042273,-50.075281,578,2269.69292
D1,Cambará/PR,-23.042273,-50.075281,9,35.34124
1,Cambira/PR,-23.600265,-51.581045,281,3549.32424
D1,Cambira/PR,-23.600265,-51.581045,6,75.78628
1,Camboriú/SC,-27.0273601,-48.6535657,7011,8238.05887
D1,Camboriú/SC,-27.0273601,-48.6535657,80,94.00153
1,Cambuci/RJ,-21.5749919,-41.9107833,382,2462.29212
D1,Cambuci/RJ,-21.5749919,-41.9107833,7,45.12054
1,Cambuquira/MG,-21.853056,-45.2953619,123,960.03746
D1,Cambuquira/MG,-21.853056,-45.2953619,7,54.63628
1,Cambuí/MG,-22.6122501,-46.0572137,911,3055.61146
D1,Cambuí/MG,-22.6122501,-46.0572137,12,40.24955
1,Cambé/PR,-23.2782035,-51.2779583,4910,4574.20743
D1,Cambé/PR,-23.2782035,-51.2779583,62,57.75985
1,Cametá/PA,-2.242949,-49.497885,5642,4048.39126
D1,Cametá/PA,-2.242949,-49.497885,111,79.64754
1,Camocim de São Félix/PE,-8.3616757,-35.7638903,313,1656.08466
D1,Camocim de São Félix/PE,-8.3616757,-35.7638903,10,52.91005
1,Camocim/CE,-2.9009918,-40.8427389,2612,4087.18920
D1,Camocim/CE,-2.9009918,-40.8427389,81,126.74668
1,Campanha/MG,-21.8361108,-45.401986,443,2642.88271
D1,Campanha/MG,-21.8361108,-45.401986,10,59.65875
1,Campanário/MG,-18.2398144,-41.7271768,54,1447.72118
1,Campestre da Serra/RS,-28.7966535,-51.0958149,82,2415.31664
1,Campestre de Goiás/GO,-16.7624179,-49.69497,214,5864.62044
D1,Campestre de Goiás/GO,-16.7624179,-49.69497,3,82.21431
1,Campestre do Maranhão/MA,-6.1729113,-47.3640512,551,3812.35730
D1,Campestre do Maranhão/MA,-6.1729113,-47.3640512,17,117.62264
1,Campestre/AL,-8.8481634,-35.5660033,105,1509.92235
D1,Campestre/AL,-8.8481634,-35.5660033,3,43.14064
1,Campestre/MG,-19.6142116,-43.219378,455,2161.10953
D1,Campestre/MG,-19.6142116,-43.219378,6,28.49815
1,Campina Grande do Sul/PR,-25.3046032,-49.0545355,2846,6514.82202
D1,Campina Grande do Sul/PR,-25.3046032,-49.0545355,55,125.90134
1,Campina Grande/PB,-7.2246743,-35.8771292,15894,3859.57500
D1,Campina Grande/PB,-7.2246743,-35.8771292,468,113.64547
1,Campina Verde/MG,-19.535277,-49.486389,204,1032.80680
D1,Campina Verde/MG,-19.535277,-49.486389,10,50.62778
1,Campina da Lagoa/PR,-24.5937926,-52.8038965,243,1730.39949
D1,Campina da Lagoa/PR,-24.5937926,-52.8038965,7,49.84690
1,Campina das Missões/RS,-27.9883295,-54.8411665,112,2074.84253
D1,Campina das Missões/RS,-27.9883295,-54.8411665,4,74.10152
1,Campina do Monte Alegre/SP,-23.5935653,-48.4801876,98,1617.96269
1,Campina do Simão/PR,-25.1086375,-51.8076658,14,362.78829
D1,Campina do Simão/PR,-25.1086375,-51.8076658,1,25.91345
1,Campinas do Piauí/PI,-7.6593687,-41.8814875,80,1423.48754
D1,Campinas do Piauí/PI,-7.6593687,-41.8814875,1,17.79359
1,Campinas do Sul/RS,-27.7167968,-52.6257885,247,4542.11107
D1,Campinas do Sul/RS,-27.7167968,-52.6257885,2,36.77823
1,Campinas/SP,-22.90556,-47.06083,46165,3803.36993
D1,Campinas/SP,-22.90556,-47.06083,1529,125.96886
1,Campinaçu/GO,-13.7869969,-48.5703841,126,3469.16300
1,Campinorte/GO,-14.3136699,-49.1510931,520,4073.95801
D1,Campinorte/GO,-14.3136699,-49.1510931,9,70.51081
1,Campinápolis/MT,-14.5403731,-52.7970626,505,2984.80998
D1,Campinápolis/MT,-14.5403731,-52.7970626,16,94.56824
1,Campo Alegre de Goiás/GO,-17.6337896,-47.779291,47,607.39209
D1,Campo Alegre de Goiás/GO,-17.6337896,-47.779291,1,12.92324
1,Campo Alegre de Lourdes/BA,-9.5160326,-43.0101338,201,697.43234
D1,Campo Alegre de Lourdes/BA,-9.5160326,-43.0101338,5,17.34906
1,Campo Alegre do Fidalgo/PI,-8.3753852,-41.8364191,51,1006.11560
D1,Campo Alegre do Fidalgo/PI,-8.3753852,-41.8364191,1,19.72776
1,Campo Alegre/AL,-9.7798607,-36.3575793,1655,2876.40996
D1,Campo Alegre/AL,-9.7798607,-36.3575793,29,50.40235
1,Campo Alegre/SC,-26.1941684,-49.2657484,525,4381.93807
D1,Campo Alegre/SC,-26.1941684,-49.2657484,17,141.89133
1,Campo Azul/MG,-16.5078525,-44.8133524,52,1359.83264
1,Campo Belo do Sul/SC,-27.8987563,-50.7586887,366,5264.67204
D1,Campo Belo do Sul/SC,-27.8987563,-50.7586887,7,100.69045
1,Campo Belo/MG,-20.8975,-45.277223,1538,2838.37154
D1,Campo Belo/MG,-20.8975,-45.277223,33,60.90134
1,Campo Bom/RS,-29.674694,-51.060601,5475,7882.46134
D1,Campo Bom/RS,-29.674694,-51.060601,87,125.25555
1,Campo Bonito/PR,-25.0328004,-52.992976,83,2205.68695
D1,Campo Bonito/PR,-25.0328004,-52.992976,2,53.14908
1,Campo Erê/SC,-26.3947432,-53.0790495,501,5951.53243
D1,Campo Erê/SC,-26.3947432,-53.0790495,4,47.51722
1,Campo Florido/MG,-19.760833,-48.572223,239,2890.31322
1,Campo Formoso/BA,-10.51055,-40.320031,1948,2724.97097
D1,Campo Formoso/BA,-10.51055,-40.320031,19,26.57826
1,Campo Grande do Piauí/PI,-7.1327559,-41.0381164,343,5750.20956
