type,name,lat,lon,total,total_per_100k_inhabitants
1,Abadia de Goiás/GO,-16.7572644,-49.4412205,1151,12848.85019
D1,Abadia de Goiás/GO,-16.7572644,-49.4412205,18,200.93771
1,Abadia dos Dourados/MG,-18.4911191,-47.4063589,331,4724.52184
D1,Abadia dos Dourados/MG,-18.4911191,-47.4063589,12,171.28176
1,Abadiânia/GO,-16.1940946,-48.7067767,300,1466.20400
D1,Abadiânia/GO,-16.1940946,-48.7067767,20,97.74693
1,Abaetetuba/PA,-1.721828,-48.878843,6105,3837.69173
D1,Abaetetuba/PA,-1.721828,-48.878843,137,86.12019
1,Abaeté/MG,-19.1566833,-45.4481213,771,3316.12903
D1,Abaeté/MG,-19.1566833,-45.4481213,17,73.11828
1,Abaiara/CE,-7.3607808,-39.0487878,312,2632.24500
D1,Abaiara/CE,-7.3607808,-39.0487878,7,59.05678
1,Abaré/BA,-8.7239913,-39.1139689,590,2899.69037
D1,Abaré/BA,-8.7239913,-39.1139689,2,9.82946
1,Abatiá/PR,-23.3052967,-50.3102532,381,5143.08855
D1,Abatiá/PR,-23.3052967,-50.3102532,6,80.99352
1,Abaíra/BA,-13.2503296,-41.6640342,242,2778.41561
D1,Abaíra/BA,-13.2503296,-41.6640342,9,103.32951
1,Abdon Batista/SC,-27.612419,-51.022992,233,9144.42700
D1,Abdon Batista/SC,-27.612419,-51.022992,2,78.49294
1,Abel Figueiredo/PA,-4.953001,-48.3958485,732,9778.25274
D1,Abel Figueiredo/PA,-4.953001,-48.3958485,6,80.14961
1,Abelardo Luz/SC,-26.5705893,-52.3280339,1132,6302.89532
D1,Abelardo Luz/SC,-26.5705893,-52.3280339,37,206.01336
1,Abre Campo/MG,-20.2976097,-42.4764741,730,5429.93157
D1,Abre Campo/MG,-20.2976097,-42.4764741,8,59.50610
1,Abreu e Lima/PE,-7.900719,-34.898389,1916,1909.39350
D1,Abreu e Lima/PE,-7.900719,-34.898389,170,169.41383
1,Abreulândia/TO,-9.6221526,-49.1558343,214,8249.80725
D1,Abreulândia/TO,-9.6221526,-49.1558343,5,192.75251
1,Acaiaca/MG,-20.3621646,-43.1444162,174,4356.53480
D1,Acaiaca/MG,-20.3621646,-43.1444162,6,150.22534
1,Acajutiba/BA,-11.6609659,-38.0186381,446,2936.72220
D1,Acajutiba/BA,-11.6609659,-38.0186381,13,85.59953
1,Acarape/CE,-4.2237866,-38.7071663,2215,14731.31152
D1,Acarape/CE,-4.2237866,-38.7071663,16,106.41128
1,Acaraú/CE,-2.8869514,-40.1194713,4000,6338.74239
D1,Acaraú/CE,-2.8869514,-40.1194713,77,122.02079
1,Acari/RN,-6.4364689,-36.6394777,699,6285.40599
D1,Acari/RN,-6.4364689,-36.6394777,9,80.92797
1,Acará/PA,-1.961388,-48.1987043,1051,1887.94482
D1,Acará/PA,-1.961388,-48.1987043,23,41.31563
1,Acauã/PI,-8.219542,-41.083059,158,2224.72543
D1,Acauã/PI,-8.219542,-41.083059,1,14.08054
1,Aceguá/RS,-31.8695131,-54.1615593,159,3217.32092
1,Acopiara/CE,-6.0936464,-39.4543204,2146,3938.98790
D1,Acopiara/CE,-6.0936464,-39.4543204,85,156.01769
1,Acorizal/MT,-15.2001544,-56.3668953,386,7236.59543
D1,Acorizal/MT,-15.2001544,-56.3668953,14,262.46719
1,Acrelândia/AC,-10.0759167,-67.0526898,1342,8663.65397
D1,Acrelândia/AC,-10.0759167,-67.0526898,23,148.48289
1,Acreúna/GO,-17.3959899,-50.3749031,1346,5970.01685
D1,Acreúna/GO,-17.3959899,-50.3749031,36,159.67356
1,Adamantina/SP,-21.6866517,-51.0762975,2003,5704.76489
D1,Adamantina/SP,-21.6866517,-51.0762975,49,139.55740
1,Adelândia/GO,-16.4155077,-50.1665834,108,4292.52782
D1,Adelândia/GO,-16.4155077,-50.1665834,2,79.49126
1,Adolfo/SP,-21.2356597,-49.6441918,312,8778.84074
D1,Adolfo/SP,-21.2356597,-49.6441918,8,225.09848
1,Adrianópolis/PR,-24.6557863,-48.9912769,1023,17466.27967
D1,Adrianópolis/PR,-24.6557863,-48.9912769,22,375.61892
1,Adustina/BA,-10.5358875,-38.114479,512,2989.60645
D1,Adustina/BA,-10.5358875,-38.114479,9,52.55168
1,Afogados da Ingazeira/PE,-7.750429,-37.6356375,3031,8103.41140
D1,Afogados da Ingazeira/PE,-7.750429,-37.6356375,44,117.63448
1,Afonso Bezerra/RN,-5.4745,-36.57625071327935,355,3218.78683
D1,Afonso Bezerra/RN,-5.4745,-36.57625071327935,11,99.73706
1,Afonso Cláudio/ES,-20.077841,-41.12606,2907,9545.23067
D1,Afonso Cláudio/ES,-20.077841,-41.12606,46,151.04252
1,Afonso Cunha/MA,-4.1326105,-43.3230026,155,2356.33931
D1,Afonso Cunha/MA,-4.1326105,-43.3230026,2,30.40438
1,Afrânio/PE,-8.5198919,-41.0070197,600,3028.77335
D1,Afrânio/PE,-8.5198919,-41.0070197,9,45.43160
1,Afuá/PA,-0.1535664,-50.3879223,2786,7041.22122
D1,Afuá/PA,-0.1535664,-50.3879223,14,35.38302
1,Agrestina/PE,-8.4558021,-35.9442663,980,3909.83443
D1,Agrestina/PE,-8.4558021,-35.9442663,39,155.59545
1,Agricolândia/PI,-5.7967843,-42.6605131,160,3118.30053
D1,Agricolândia/PI,-5.7967843,-42.6605131,2,38.97876
1,Agrolândia/SC,-27.4122212,-49.8295774,789,7164.26042
D1,Agrolândia/SC,-27.4122212,-49.8295774,8,72.64142
1,Agronômica/SC,-27.2660744,-49.7104753,406,7369.75858
D1,Agronômica/SC,-27.2660744,-49.7104753,9,163.36903
1,Aguanil/MG,-20.9424533,-45.3927152,310,6855.37373
D1,Aguanil/MG,-20.9424533,-45.3927152,7,154.79876
1,Aguaí/SP,-22.0592036,-46.979384,1573,4292.18511
D1,Aguaí/SP,-22.0592036,-46.979384,31,84.58852
1,Agudo/RS,-29.6423259,-53.2494005,845,5152.12487
D1,Agudo/RS,-29.6423259,-53.2494005,9,54.87470
1,Agudos do Sul/PR,-25.9890808,-49.3328175,416,4392.81943
D1,Agudos do Sul/PR,-25.9890808,-49.3328175,5,52.79831
1,Agudos/SP,-22.471162,-48.987822,2131,5697.70862
D1,Agudos/SP,-22.471162,-48.987822,47,125.66509
1,Aguiar/PB,-7.0928404,-38.1727215,250,4440.49734
D1,Aguiar/PB,-7.0928404,-38.1727215,3,53.28597
1,Aguiarnópolis/TO,-6.5600452,-47.4721189,498,7225.76901
D1,Aguiarnópolis/TO,-6.5600452,-47.4721189,11,159.60534
1,Aimorés/MG,-19.4917754,-41.0615603,1518,6037.94598
D1,Aimorés/MG,-19.4917754,-41.0615603,39,155.12509
1,Aiquara/BA,-14.126918,-39.8887574,435,9850.54348
D1,Aiquara/BA,-14.126918,-39.8887574,9,203.80435
1,Aiuaba/CE,-6.5710836,-40.1212278,303,1732.12142
D1,Aiuaba/CE,-6.5710836,-40.1212278,7,40.01601
1,Aiuruoca/MG,-21.9759554,-44.6036637,79,1321.95448
D1,Aiuruoca/MG,-21.9759554,-44.6036637,5,83.66801
1,Ajuricaba/RS,-28.239654,-53.7693013,575,8229.56920
D1,Ajuricaba/RS,-28.239654,-53.7693013,20,286.24589
1,Alagoa Grande/PB,-7.0415212,-35.6285322,2279,8013.64324
D1,Alagoa Grande/PB,-7.0415212,-35.6285322,44,154.71711
1,Alagoa Nova/PB,-7.0653703,-35.76695977336711,681,3255.10253
D1,Alagoa Nova/PB,-7.0653703,-35.76695977336711,13,62.13852
1,Alagoa/MG,-22.1697202,-44.6400042,251,9418.38649
D1,Alagoa/MG,-22.1697202,-44.6400042,3,112.57036
1,Alagoinha do Piauí/PI,-7.0090952,-40.939675,242,3157.20809
D1,Alagoinha do Piauí/PI,-7.0090952,-40.939675,9,117.41683
1,Alagoinha/PB,-6.97063215,-35.51490901897793,1311,9004.12088
D1,Alagoinha/PB,-6.97063215,-35.51490901897793,17,116.75824
1,Alagoinha/PE,-8.50355635,-36.77701174370496,465,3159.39666
D1,Alagoinha/PE,-8.50355635,-36.77701174370496,13,88.32722
1,Alagoinhas/BA,-12.133526,-38.420772,10241,6723.03663
D1,Alagoinhas/BA,-12.133526,-38.420772,185,121.44925
1,Alambari/SP,-23.550338,-47.897971,309,5041.60548
D1,Alambari/SP,-23.550338,-47.897971,9,146.84288
1,Albertina/MG,-20.66164,-43.784039,166,5513.11857
D1,Albertina/MG,-20.66164,-43.784039,6,199.26935
1,Alcantil/PB,-7.7425491,-36.0609604,216,3920.85678
D1,Alcantil/PB,-7.7425491,-36.0609604,6,108.91269
1,Alcinópolis/MS,-18.3264121,-53.7094463,114,2104.48588
D1,Alcinópolis/MS,-18.3264121,-53.7094463,5,92.30201
1,Alcobaça/BA,-17.5215875,-39.1965474,1155,5135.61583
D1,Alcobaça/BA,-17.5215875,-39.1965474,17,75.58915
1,Alcântara/MA,-2.4038956,-44.4154241,208,940.66570
D1,Alcântara/MA,-2.4038956,-44.4154241,11,49.74674
1,Alcântaras/CE,-3.586247,-40.5457641,899,7630.93116
D1,Alcântaras/CE,-3.586247,-40.5457641,11,93.37068
1,Aldeias Altas/MA,-4.6291957,-43.4708622,974,3640.16893
D1,Aldeias Altas/MA,-4.6291957,-43.4708622,12,44.84808
1,Alecrim/RS,-27.6566142,-54.7653195,220,3775.52772
D1,Alecrim/RS,-27.6566142,-54.7653195,9,154.45341
1,Alegre/ES,-20.7625787,-41.5318886,1565,5221.01751
D1,Alegre/ES,-20.7625787,-41.5318886,34,113.42786
1,Alegrete do Piauí/PI,-7.2440138,-40.8602296,404,8214.72143
D1,Alegrete do Piauí/PI,-7.2440138,-40.8602296,4,81.33388
1,Alegrete/RS,-29.790166,-55.794862,5134,7030.18020
D1,Alegrete/RS,-29.790166,-55.794862,168,230.04875
1,Alegria/RS,-27.8332103,-54.0574959,286,8476.58566
D1,Alegria/RS,-27.8332103,-54.0574959,1,29.63841
1,Alenquer/PA,-1.946229,-54.738355,2132,3734.32355
D1,Alenquer/PA,-1.946229,-54.738355,69,120.85756
1,Alexandria/RN,-6.414779,-38.0135516,980,7230.87139
D1,Alexandria/RN,-6.414779,-38.0135516,10,73.78440
1,Alexânia/GO,-16.0834049,-48.5077803,2199,7850.76758
D1,Alexânia/GO,-16.0834049,-48.5077803,42,149.94645
1,Alfenas/MG,-21.4297405,-45.9479419,5187,6443.95856
D1,Alfenas/MG,-21.4297405,-45.9479419,118,146.59478
1,Alfredo Chaves/ES,-20.624970400000002,-40.75006690147988,1919,13111.50588
D1,Alfredo Chaves/ES,-20.624970400000002,-40.75006690147988,24,163.97923
1,Alfredo Marcondes/SP,-21.9527,-51.413956,190,4541.10899
D1,Alfredo Marcondes/SP,-21.9527,-51.413956,7,167.30402
1,Alfredo Vasconcelos/MG,-21.145833,-43.776389,193,2764.64690
D1,Alfredo Vasconcelos/MG,-21.145833,-43.776389,5,71.62298
1,Alfredo Wagner/SC,-27.6961513,-49.3326734,586,5810.03371
D1,Alfredo Wagner/SC,-27.6961513,-49.3326734,5,49.57367
1,Algodão de Jandaíra/PB,-6.9040175,-36.0089879,89,3453.62825
1,Alhandra/PB,-7.4304246,-34.9106103,1187,6017.13388
D1,Alhandra/PB,-7.4304246,-34.9106103,22,111.52228
1,Aliança do Tocantins/TO,-11.3055927,-48.9409096,462,8641.97531
D1,Aliança do Tocantins/TO,-11.3055927,-48.9409096,14,261.87804
1,Aliança/PE,-7.60398,-35.222696,478,1244.88892
D1,Aliança/PE,-7.60398,-35.222696,33,85.94421
1,Almadina/BA,-14.70466,-39.6381994,572,10659.70928
D1,Almadina/BA,-14.70466,-39.6381994,9,167.72270
1,Almas/TO,-11.5681309,-47.1702803,174,2493.19387
D1,Almas/TO,-11.5681309,-47.1702803,4,57.31480
1,Almeirim/PA,-1.5290377,-52.5788111,2965,8701.13863
D1,Almeirim/PA,-1.5290377,-52.5788111,30,88.03850
1,Almenara/MG,-16.1740678,-40.6904907,2893,6864.72249
D1,Almenara/MG,-16.1740678,-40.6904907,29,68.81333
1,Almino Afonso/RN,-6.1544208,-37.7649018,321,6815.28662
D1,Almino Afonso/RN,-6.1544208,-37.7649018,9,191.08280
1,Almirante Tamandaré do Sul/RS,-28.1141129,-52.9134874,144,7388.40431
D1,Almirante Tamandaré do Sul/RS,-28.1141129,-52.9134874,1,51.30836
1,Almirante Tamandaré/PR,-25.3133048,-49.2997838,7142,5949.63388
D1,Almirante Tamandaré/PR,-25.3133048,-49.2997838,231,192.43425
1,Aloândia/GO,-17.7277983,-49.4809338,184,9264.85398
D1,Aloândia/GO,-17.7277983,-49.4809338,6,302.11480
1,Alpercata/MG,-18.9803616,-41.9827637,383,5150.61861
D1,Alpercata/MG,-18.9803616,-41.9827637,12,161.37708
1,Alpestre/RS,-27.2512339,-53.0349646,251,4137.13532
D1,Alpestre/RS,-27.2512339,-53.0349646,6,98.89567
1,Alpinópolis/MG,-20.863611,-46.387777,675,3382.10242
D1,Alpinópolis/MG,-20.863611,-46.387777,12,60.12627
1,Alta Floresta D'Oeste/RO,-11.9296917,-61.9961284,2962,13032.38296
D1,Alta Floresta D'Oeste/RO,-11.9296917,-61.9961284,45,197.99366
1,Alta Floresta/MT,-9.8715018,-56.0839881,6125,11788.14065
D1,Alta Floresta/MT,-9.8715018,-56.0839881,77,148.19377
1,Altair/SP,-20.5238955,-49.0606135,110,2627.80698
D1,Altair/SP,-20.5238955,-49.0606135,7,167.22408
1,Altamira do Maranhão/MA,-4.1643006,-45.4674574,279,3407.00940
D1,Altamira do Maranhão/MA,-4.1643006,-45.4674574,8,97.69203
1,Altamira do Paraná/PR,-24.799114,-52.7128633,97,5766.94411
D1,Altamira do Paraná/PR,-24.799114,-52.7128633,2,118.90606
1,Altamira/PA,-3.204065,-52.209961,10881,9382.67985
D1,Altamira/PA,-3.204065,-52.209961,215,185.39437
1,Altaneira/CE,-6.9980933,-39.7385742,295,3856.20915
D1,Altaneira/CE,-6.9980933,-39.7385742,8,104.57516
1,Alterosa/MG,-21.249166,-46.143055,497,3423.57236
D1,Alterosa/MG,-21.249166,-46.143055,25,172.21189
1,Altinho/PE,-8.4904095,-36.0607494,811,3528.54159
D1,Altinho/PE,-8.4904095,-36.0607494,16,69.61364
1,Altinópolis/SP,-21.021364,-47.3712,594,3665.98778
D1,Altinópolis/SP,-21.021364,-47.3712,19,117.26224
1,Alto Alegre do Maranhão/MA,-4.2055693,-44.4525287,709,2545.04990
D1,Alto Alegre do Maranhão/MA,-4.2055693,-44.4525287,21,75.38230
1,Alto Alegre do Pindaré/MA,-3.6698186,-45.8462153,1711,5356.41612
D1,Alto Alegre do Pindaré/MA,-3.6698186,-45.8462153,32,100.17844
1,Alto Alegre dos Parecis/RO,-12.1314515,-61.856265,857,6465.48472
D1,Alto Alegre dos Parecis/RO,-12.1314515,-61.856265,18,135.79781
1,Alto Alegre/RR,2.98858,-61.307167,1142,7425.22757
D1,Alto Alegre/RR,2.98858,-61.307167,25,162.54876
1,Alto Alegre/RS,-31.780844700000003,-52.81311114489171,109,6757.59454
1,Alto Alegre/SP,-21.5820592,-50.1661976,186,4549.90215
D1,Alto Alegre/SP,-21.5820592,-50.1661976,5,122.30920
1,Alto Araguaia/MT,-17.3156528,-53.2169365,912,4704.66856
D1,Alto Araguaia/MT,-17.3156528,-53.2169365,19,98.01393
1,Alto Bela Vista/SC,-27.4320737,-51.905771,103,5347.87124
D1,Alto Bela Vista/SC,-27.4320737,-51.905771,2,103.84216
1,Alto Boa Vista/MT,-11.6723985,-51.3744431,432,6228.37370
D1,Alto Boa Vista/MT,-11.6723985,-51.3744431,8,115.34025
1,Alto Caparaó/MG,-20.4405661,-41.8683799,304,5157.78758
D1,Alto Caparaó/MG,-20.4405661,-41.8683799,7,118.76485
1,Alto Feliz/RS,-29.3785943,-51.3123751,155,5105.40184
1,Alto Garças/MT,-16.9469683,-53.529427,451,3711.62867
D1,Alto Garças/MT,-16.9469683,-53.529427,21,172.82528
1,Alto Horizonte/GO,-14.1954948,-49.3366993,556,8417.86525
D1,Alto Horizonte/GO,-14.1954948,-49.3366993,6,90.84027
1,Alto Jequitibá/MG,-20.423611,-41.966111,472,5686.06192
D1,Alto Jequitibá/MG,-20.423611,-41.966111,9,108.42067
1,Alto Longá/PI,-5.2549051,-42.2072388,485,3382.38371
D1,Alto Longá/PI,-5.2549051,-42.2072388,11,76.71386
1,Alto Paraguai/MT,-14.513712,-56.4936374,533,4645.68988
D1,Alto Paraguai/MT,-14.513712,-56.4936374,14,122.02563
1,Alto Paraná/PR,-23.131247,-52.318893,604,4064.87651
D1,Alto Paraná/PR,-23.131247,-52.318893,14,94.21899
1,Alto Paraíso de Goiás/GO,-14.1304779,-47.5100161,484,6295.52549
D1,Alto Paraíso de Goiás/GO,-14.1304779,-47.5100161,3,39.02185
1,Alto Paraíso/PR,-23.508137,-53.728537,150,5586.59218
D1,Alto Paraíso/PR,-23.508137,-53.728537,2,74.48790
1,Alto Paraíso/RO,-9.7240103,-63.3188123,1437,6577.56214
D1,Alto Paraíso/RO,-9.7240103,-63.3188123,30,137.31862
1,Alto Parnaíba/MA,-9.112506,-45.9310154,650,5797.35997
D1,Alto Parnaíba/MA,-9.112506,-45.9310154,5,44.59508
1,Alto Piquiri/PR,-24.0239021,-53.4417448,431,4407.85437
D1,Alto Piquiri/PR,-24.0239021,-53.4417448,11,112.49744
1,Alto Rio Doce/MG,-21.0239537,-43.4133507,260,2394.32729
D1,Alto Rio Doce/MG,-21.0239537,-43.4133507,21,193.38797
1,Alto Rio Novo/ES,-19.0577208,-41.0171518,618,7848.61570
D1,Alto Rio Novo/ES,-19.0577208,-41.0171518,20,254.00051
1,Alto Santo/CE,-5.5190371,-38.2719351,706,4105.60595
D1,Alto Santo/CE,-5.5190371,-38.2719351,18,104.67551
1,Alto Taquari/MT,-17.8269099,-53.2831736,1082,9718.85386
D1,Alto Taquari/MT,-17.8269099,-53.2831736,19,170.66379
1,Alto do Rodrigues/RN,-5.290868,-36.7616726,1136,7713.19935
D1,Alto do Rodrigues/RN,-5.290868,-36.7616726,23,156.16513
1,Altos/PI,-5.0393915,-42.4611694,3384,8333.94902
D1,Altos/PI,-5.0393915,-42.4611694,62,152.69056
1,Altônia/PR,-23.8722004,-53.894037,810,3652.59740
D1,Altônia/PR,-23.8722004,-53.894037,13,58.62193
1,Alumínio/SP,-23.5203479,-47.2575256,950,5062.07705
D1,Alumínio/SP,-23.5203479,-47.2575256,29,154.52656
1,Alvarenga/MG,-19.4175,-41.728334,336,8740.89490
D1,Alvarenga/MG,-19.4175,-41.728334,4,104.05827
1,Alvarães/AM,-3.214786,-64.8143124,2638,16263.87176
D1,Alvarães/AM,-3.214786,-64.8143124,36,221.94821
1,Alvinlândia/SP,-22.4431852,-49.7643596,100,3089.28020
1,Alvinópolis/MG,-20.1105199,-43.0601805,427,2814.95155
D1,Alvinópolis/MG,-20.1105199,-43.0601805,7,46.14675
1,Alvorada D'Oeste/RO,-11.346271,-62.284697,739,5238.90543
D1,Alvorada D'Oeste/RO,-11.346271,-62.284697,18,127.60527
1,Alvorada de Minas/MG,-18.7318587,-43.3641479,209,5797.50347
D1,Alvorada de Minas/MG,-18.7318587,-43.3641479,1,27.73925
1,Alvorada do Gurguéia/PI,-8.4465288,-43.8655915,227,4168.96235
D1,Alvorada do Gurguéia/PI,-8.4465288,-43.8655915,6,110.19284
1,Alvorada do Norte/GO,-14.483911,-46.4959897,543,6237.79437
D1,Alvorada do Norte/GO,-14.483911,-46.4959897,2,22.97530
1,Alvorada do Sul/PR,-22.7807269,-51.2307721,614,5337.73798
D1,Alvorada do Sul/PR,-22.7807269,-51.2307721,13,113.01400
1,Alvorada/RS,-29.9981184,-51.0772509,15009,7101.42322
D1,Alvorada/RS,-29.9981184,-51.0772509,525,248.40077
1,Alvorada/TO,-12.478465,-49.124926,956,11386.37446
D1,Alvorada/TO,-12.478465,-49.124926,15,178.65650
1,Além Paraíba/MG,-21.8760576,-42.6810473,2284,6451.79515
D1,Além Paraíba/MG,-21.8760576,-42.6810473,101,285.30268
1,Amajari/RR,3.6523869,-61.4194315,817,6196.43534
D1,Amajari/RR,3.6523869,-61.4194315,18,136.51877
1,Amambai/MS,-23.1082701,-55.2284854,1960,4921.40813
D1,Amambai/MS,-23.1082701,-55.2284854,37,92.90413
1,Amaporã/PR,-23.094272,-52.786597,169,2668.98294
1,Amapá do Maranhão/MA,-1.6762114,-46.0109669,77,1099.21485
1,Amapá/AP,2.0529997,-50.7930003,1192,12974.85577
D1,Amapá/AP,2.0529997,-50.7930003,10,108.84946
1,Amaraji/PE,-8.373925,-35.4536527,411,1797.11412
D1,Amaraji/PE,-8.373925,-35.4536527,27,118.05859
1,Amaral Ferrador/RS,-30.8750633,-52.2542051,164,2314.74947
D1,Amaral Ferrador/RS,-30.8750633,-52.2542051,4,56.45730
1,Amaralina/GO,-13.9236199,-49.2962411,43,1118.33550
1,Amarante do Maranhão/MA,-5.56913,-46.747284,1290,3091.37530
D1,Amarante do Maranhão/MA,-5.56913,-46.747284,43,103.04584
1,Amarante/PI,-6.2459374,-42.8476238,1116,6339.46830
D1,Amarante/PI,-6.2459374,-42.8476238,24,136.33265
1,Amargosa/BA,-13.03793715,-39.60796443875596,2092,5587.45760
D1,Amargosa/BA,-13.03793715,-39.60796443875596,42,112.17649
1,Amaturá/AM,-3.3640509,-68.1994689,2060,17552.82890
D1,Amaturá/AM,-3.3640509,-68.1994689,17,144.85344
1,Americana/SP,-22.7392463,-47.3306032,13507,5580.98984
D1,Americana/SP,-22.7392463,-47.3306032,366,151.22842
1,Americano do Brasil/GO,-16.2515808,-49.9806104,326,5288.77352
D1,Americano do Brasil/GO,-16.2515808,-49.9806104,12,194.67878
1,Ametista do Sul/RS,-27.3617341,-53.1826575,472,6375.79360
D1,Ametista do Sul/RS,-27.3617341,-53.1826575,11,148.58841
1,Amontada/CE,-3.3634586,-39.8284791,1557,3552.44245
D1,Amontada/CE,-3.3634586,-39.8284791,26,59.32145
1,Amorinópolis/GO,-16.6211308,-51.0949921,143,4659.49821
D1,Amorinópolis/GO,-16.6211308,-51.0949921,1,32.58390
1,Amparo de São Francisco/SE,-10.1299754,-36.9269099,121,5084.03361
D1,Amparo de São Francisco/SE,-10.1299754,-36.9269099,3,126.05042
1,Amparo do Serra/MG,-20.5070255,-42.8028462,98,2094.91236
D1,Amparo do Serra/MG,-20.5070255,-42.8028462,3,64.12997
1,Amparo/PB,-7.56394725,-37.04652873235175,142,6308.30742
D1,Amparo/PB,-7.56394725,-37.04652873235175,4,177.69880
1,Amparo/SP,-22.70111,-46.76444,3447,4742.90353
D1,Amparo/SP,-22.70111,-46.76444,99,136.21916
1,Ampére/PR,-25.9168712,-53.4742414,841,4355.03081
D1,Ampére/PR,-25.9168712,-53.4742414,22,113.92471
1,Amélia Rodrigues/BA,-12.4015388,-38.7516971,1662,6635.26030
D1,Amélia Rodrigues/BA,-12.4015388,-38.7516971,32,127.75471
1,América Dourada/BA,-11.4515262,-41.4357517,492,3057.79988
D1,América Dourada/BA,-11.4515262,-41.4357517,2,12.43008
1,Américo Brasiliense/SP,-21.7297099,-48.1052092,2806,6838.56502
D1,Américo Brasiliense/SP,-21.7297099,-48.1052092,62,151.10158
1,Américo de Campos/SP,-20.298476,-49.735904,542,9062.02976
D1,Américo de Campos/SP,-20.298476,-49.735904,17,284.23341
1,Anadia/AL,-9.6830208,-36.3052699,976,5568.86911
D1,Anadia/AL,-9.6830208,-36.3052699,17,96.99874
1,Anagé/BA,-14.6134669,-41.1376308,617,2855.55607
D1,Anagé/BA,-14.6134669,-41.1376308,15,69.42195
1,Anahy/PR,-24.6450861,-53.1337957,222,7962.69727
D1,Anahy/PR,-24.6450861,-53.1337957,4,143.47202
1,Anajatuba/MA,-3.26441,-44.6179916,651,2412.18319
D1,Anajatuba/MA,-3.26441,-44.6179916,17,62.99096
1,Anajás/PA,-0.9878802,-49.9390114,1230,4143.08812
D1,Anajás/PA,-0.9878802,-49.9390114,14,47.15710
1,Analândia/SP,-22.128917,-47.661939,235,4647.94304
D1,Analândia/SP,-22.128917,-47.661939,3,59.33544
1,Anamã/AM,-3.5797356,-61.4049996,1607,11514.76068
D1,Anamã/AM,-3.5797356,-61.4049996,7,50.15764
1,Ananindeua/PA,-1.374035,-48.4016623,16644,3107.85048
D1,Ananindeua/PA,-1.374035,-48.4016623,560,104.56599
1,Ananás/TO,-6.3663053,-48.080238,1282,13506.11041
D1,Ananás/TO,-6.3663053,-48.080238,20,210.70375
1,Anapu/PA,-3.4668292,-51.2057035,1224,4278.67305
D1,Anapu/PA,-3.4668292,-51.2057035,28,97.87814
1,Anapurus/MA,-3.6751298,-43.1046001,828,5209.51302
D1,Anapurus/MA,-3.6751298,-43.1046001,11,69.20851
1,Anastácio/MS,-20.4832458,-55.8048448,1565,6201.21251
D1,Anastácio/MS,-20.4832458,-55.8048448,49,194.15937
1,Anaurilândia/MS,-22.185169,-52.719056,244,2688.40899
D1,Anaurilândia/MS,-22.185169,-52.719056,7,77.12649
1,Anchieta/ES,-20.8057672,-40.6454564,3719,12488.66651
D1,Anchieta/ES,-20.8057672,-40.6454564,50,167.90356
1,Anchieta/SC,-26.5350527,-53.3293938,386,6946.19399
D1,Anchieta/SC,-26.5350527,-53.3293938,6,107.97193
1,Andaraí/BA,-12.8059674,-41.3322919,598,4553.76180
D1,Andaraí/BA,-12.8059674,-41.3322919,5,38.07493
1,Andirá/PR,-23.0494761,-50.2310027,1319,6619.49212
D1,Andirá/PR,-23.0494761,-50.2310027,44,220.81702
1,Andorinha/BA,-10.3445708,-39.8334411,627,4323.24347
D1,Andorinha/BA,-10.3445708,-39.8334411,9,62.05613
1,Andradas/MG,-22.0680484,-46.5688976,2189,5287.95053
D1,Andradas/MG,-22.0680484,-46.5688976,56,135.27877
1,Andradina/SP,-20.896505,-51.3742765,3937,6882.62648
D1,Andradina/SP,-20.896505,-51.3742765,148,258.73221
1,Andrelândia/MG,-21.739722,-44.308889,206,1687.69458
D1,Andrelândia/MG,-21.739722,-44.308889,6,49.15615
1,André da Rocha/RS,-28.6309124,-51.5733328,74,5510.05212
1,Angatuba/SP,-23.4938938,-48.4110675,1828,7174.53589
D1,Angatuba/SP,-23.4938938,-48.4110675,38,149.14243
1,Angelim/PE,-8.8902038,-36.2872987,119,1060.03919
D1,Angelim/PE,-8.8902038,-36.2872987,4,35.63157
1,Angelina/SC,-27.5805287,-48.9838759,429,9044.90829
D1,Angelina/SC,-27.5805287,-48.9838759,1,21.08370
1,Angelândia/MG,-17.7253,-42.2728,80,934.90709
1,Angical do Piauí/PI,-6.0872666,-42.7366138,326,4806.13298
D1,Angical do Piauí/PI,-6.0872666,-42.7366138,8,117.94191
1,Angical/BA,-12.005623,-44.7000236,366,2625.91477
D1,Angical/BA,-12.005623,-44.7000236,7,50.22241
1,Angico/TO,-6.3893733,-47.8656722,199,5761.43602
D1,Angico/TO,-6.3893733,-47.8656722,3,86.85582
1,Angicos/RN,-5.6666344,-36.6009064,439,3750.53396
D1,Angicos/RN,-5.6666344,-36.6009064,10,85.43358
1,Angra dos Reis/RJ,-23.0063966,-44.316326,11556,5581.42231
D1,Angra dos Reis/RJ,-23.0063966,-44.316326,358,172.91011
1,Anguera/BA,-12.1509425,-39.2452469,297,2629.01655
D1,Anguera/BA,-12.1509425,-39.2452469,1,8.85191
1,Angélica/MS,-22.1588196,-53.7728504,553,5058.54372
D1,Angélica/MS,-22.1588196,-53.7728504,10,91.47457
1,Anhanguera/GO,-18.3338749,-48.220363,77,6637.93103
D1,Anhanguera/GO,-18.3338749,-48.220363,6,517.24138
1,Anhembi/SP,-22.7891096,-48.1316776,102,1495.82050
D1,Anhembi/SP,-22.7891096,-48.1316776,2,29.32981
1,Anhumas/SP,-22.2956478,-51.3873401,172,4150.57915
D1,Anhumas/SP,-22.2956478,-51.3873401,3,72.39382
1,Anicuns/GO,-16.4606451,-49.9572265,2083,9476.36595
D1,Anicuns/GO,-16.4606451,-49.9572265,45,204.72226
1,Anita Garibaldi/SC,-27.6855032,-51.1293873,761,10938.62297
D1,Anita Garibaldi/SC,-27.6855032,-51.1293873,5,71.87006
1,Anitápolis/SC,-27.9041185,-49.1287395,295,9138.78563
D1,Anitápolis/SC,-27.9041185,-49.1287395,1,30.97893
1,Anori/AM,-3.7435254,-61.6605203,1815,8450.90096
D1,Anori/AM,-3.7435254,-61.6605203,31,144.34046
1,Anta Gorda/RS,-28.9718745,-52.0069187,509,8538.83577
D1,Anta Gorda/RS,-28.9718745,-52.0069187,4,67.10284
1,Antas/BA,-10.4114649,-38.3308815,951,4882.18081
D1,Antas/BA,-10.4114649,-38.3308815,4,20.53494
1,Antonina do Norte/CE,-6.7754187,-39.9879345,139,1883.97940
D1,Antonina do Norte/CE,-6.7754187,-39.9879345,8,108.43047
1,Antonina/PR,-25.4298854,-48.7125431,1772,9351.41696
D1,Antonina/PR,-25.4298854,-48.7125431,43,226.92490
1,Antônio Almeida/PI,-7.2186016,-44.1950248,378,11924.29022
D1,Antônio Almeida/PI,-7.2186016,-44.1950248,10,315.45741
1,Antônio Cardoso/BA,-12.4363122,-39.1200307,299,2560.58919
D1,Antônio Cardoso/BA,-12.4363122,-39.1200307,7,59.94690
1,Antônio Carlos/MG,-21.318334,-43.746666,374,3263.81011
D1,Antônio Carlos/MG,-21.318334,-43.746666,7,61.08735
1,Antônio Carlos/SC,-27.5168462,-48.7684715,1401,16266.10937
D1,Antônio Carlos/SC,-27.5168462,-48.7684715,18,208.98642
1,Antônio Dias/MG,-19.6525,-42.872778,384,4140.16173
D1,Antônio Dias/MG,-19.6525,-42.872778,12,129.38005
1,Antônio Gonçalves/BA,-10.5715409,-40.2748824,547,4605.15238
D1,Antônio Gonçalves/BA,-10.5715409,-40.2748824,5,42.09463
1,Antônio João/MS,-22.1892837,-55.9508227,238,2638.58093
D1,Antônio João/MS,-22.1892837,-55.9508227,5,55.43237
1,Antônio Martins/RN,-6.2155812,-37.8890129,246,3438.63573
D1,Antônio Martins/RN,-6.2155812,-37.8890129,2,27.95639
1,Antônio Olinto/PR,-25.9849006,-50.1974516,261,3514.20493
D1,Antônio Olinto/PR,-25.9849006,-50.1974516,5,67.32193
1,Antônio Prado de Minas/MG,-21.0171988,-42.1101106,148,9325.77190
D1,Antônio Prado de Minas/MG,-21.0171988,-42.1101106,5,315.05986
1,Antônio Prado/RS,-28.8567806,-51.2801355,1497,11475.66117
D1,Antônio Prado/RS,-28.8567806,-51.2801355,16,122.65236
1,Anápolis/GO,-16.3332828,-48.9525756,26500,6764.13833
D1,Anápolis/GO,-16.3332828,-48.9525756,666,169.99683
1,Anísio de Abreu/PI,-9.185643,-43.04941,244,2455.22238
D1,Anísio de Abreu/PI,-9.185643,-43.04941,3,30.18716
1,Aparecida d'Oeste/SP,-20.4498109,-50.8808706,517,12433.86243
D1,Aparecida d'Oeste/SP,-20.4498109,-50.8808706,11,264.55026
1,Aparecida de Goiânia/GO,-16.8226769,-49.2452546,54286,9198.74065
D1,Aparecida de Goiânia/GO,-16.8226769,-49.2452546,973,164.87445
1,Aparecida do Rio Doce/GO,-18.2980167,-51.1491312,158,6386.41876
D1,Aparecida do Rio Doce/GO,-18.2980167,-51.1491312,2,80.84074
1,Aparecida do Rio Negro/TO,-9.9513491,-47.9773786,272,5610.56106
D1,Aparecida do Rio Negro/TO,-9.9513491,-47.9773786,5,103.13531
1,Aparecida do Taboado/MS,-20.0840304,-51.1013943,1895,7269.17028
D1,Aparecida do Taboado/MS,-20.0840304,-51.1013943,28,107.40727
1,Aparecida/PB,-6.7859598, -38.0831353,632,7509.50570
D1,Aparecida/PB,-6.7859598, -38.0831353,10,118.82129
1,Aparecida/SP,-22.851552,-45.2340924,1912,5283.95744
D1,Aparecida/SP,-22.851552,-45.2340924,50,138.17880
1,Aperibé/RJ,-21.6211928,-42.1028167,353,2966.13730
D1,Aperibé/RJ,-21.6211928,-42.1028167,15,126.03983
1,Apiacá/ES,-21.152272,-41.569297,563,7453.00503
D1,Apiacá/ES,-21.152272,-41.569297,17,225.04633
1,Apiacás/MT,-9.5678422,-57.394852,864,8402.21725
D1,Apiacás/MT,-9.5678422,-57.394852,7,68.07352
1,Apiaí/SP,-24.5076527,-48.8461582,859,3545.77726
D1,Apiaí/SP,-24.5076527,-48.8461582,33,136.21729
1,Apicum-Açu/MA,-1.5279295,-45.082278,327,1877.90731
D1,Apicum-Açu/MA,-1.5279295,-45.082278,3,17.22851
1,Apiúna/SC,-27.0374658,-49.3885037,657,6056.41593
D1,Apiúna/SC,-27.0374658,-49.3885037,13,119.83776
1,Apodi/RN,-5.6631109,-37.796927,4335,12083.96053
D1,Apodi/RN,-5.6631109,-37.796927,55,153.31438
1,Aporá/BA,-11.6599747,-38.0794757,412,2316.16820
D1,Aporá/BA,-11.6599747,-38.0794757,12,67.46121
1,Aporé/GO,-18.9642193,-51.92804,253,5978.26087
D1,Aporé/GO,-18.9642193,-51.92804,5,118.14745
1,Apuarema/BA,-13.8517897,-39.7457126,603,8258.01150
D1,Apuarema/BA,-13.8517897,-39.7457126,9,123.25390
1,Apucarana/PR,-23.5525327,-51.4610764,4945,3629.78405
D1,Apucarana/PR,-23.5525327,-51.4610764,165,121.11514
1,Apuiarés/CE,-3.9460303,-39.4313298,649,4423.39149
D1,Apuiarés/CE,-3.9460303,-39.4313298,13,88.60414
1,Apuí/AM,-7.1940195,-59.8830192,1081,4834.74216
D1,Apuí/AM,-7.1940195,-59.8830192,23,102.86685
1,Aquidabã/SE,-10.2837579,-37.0188687,1499,6913.88774
D1,Aquidabã/SE,-10.2837579,-37.0188687,25,115.30833
1,Aquidauana/MS,-20.473969,-55.7821375,3728,7761.97714
D1,Aquidauana/MS,-20.473969,-55.7821375,101,210.28962
1,Aquiraz/CE,-3.9063117,-38.387504,3792,4685.24124
D1,Aquiraz/CE,-3.9063117,-38.387504,60,74.13356
1,Arabutã/SC,-27.1587028,-52.1438142,343,8038.43450
D1,Arabutã/SC,-27.1587028,-52.1438142,4,93.74268
1,Aracaju/SE,-10.9162061,-37.0774655,89449,13452.83859
D1,Aracaju/SE,-10.9162061,-37.0774655,1399,210.40505
1,Aracati/CE,-4.558259,-37.767894,4077,5437.81260
D1,Aracati/CE,-4.558259,-37.767894,84,112.03735
1,Aracatu/BA,-14.4274236,-41.4604105,639,4898.42852
D1,Aracatu/BA,-14.4274236,-41.4604105,10,76.65772
1,Araci/BA,-11.3356065,-38.9573261,3087,5648.88011
D1,Araci/BA,-11.3356065,-38.9573261,32,58.55658
1,Aracitaba/MG,-21.3425,-43.378611,71,3448.27586
D1,Aracitaba/MG,-21.3425,-43.378611,7,339.97086
1,Aracoiaba/CE,-4.3702577,-38.8084313,1671,6297.34313
D1,Aracoiaba/CE,-4.3702577,-38.8084313,22,82.90936
1,Aracruz/ES,-19.8245218,-40.2735025,11911,11552.74925
D1,Aracruz/ES,-19.8245218,-40.2735025,166,161.00717
1,Aragarças/GO,-15.8957166,-52.2514538,1653,8153.70197
D1,Aragarças/GO,-15.8957166,-52.2514538,37,182.50876
1,Aragoiânia/GO,-16.9146388,-49.4499148,773,7364.71037
D1,Aragoiânia/GO,-16.9146388,-49.4499148,7,66.69207
1,Aragominas/TO,-7.1654101,-48.525488,435,7590.29838
D1,Aragominas/TO,-7.1654101,-48.525488,8,139.59169
1,Araguacema/TO,-8.8067391,-49.5560969,334,4668.06429
D1,Araguacema/TO,-8.8067391,-49.5560969,10,139.76240
1,Araguaiana/MT,-15.729144,-51.834112,105,3377.29173
D1,Araguaiana/MT,-15.729144,-51.834112,1,32.16468
1,Araguainha/MT,-16.857016,-53.031778,16,1691.33192
1,Araguanã/MA,-2.9508403,-45.6651986,687,4417.72233
D1,Araguanã/MA,-2.9508403,-45.6651986,5,32.15227
1,Araguanã/TO,-6.5799107,-48.6428482,246,4246.50440
D1,Araguanã/TO,-6.5799107,-48.6428482,11,189.88434
1,Araguapaz/GO,-15.0937927,-50.626417,377,4843.89053
D1,Araguapaz/GO,-15.0937927,-50.626417,15,192.72774
1,Araguari/MG,-18.6511256,-48.1933764,10376,8806.28050
D1,Araguari/MG,-18.6511256,-48.1933764,289,245.27902
1,Araguatins/TO,-5.6522925,-48.1158973,1505,4160.90683
D1,Araguatins/TO,-5.6522925,-48.1158973,43,118.88305
1,Araguaçu/TO,-12.928934,-49.823134,711,8397.30719
D1,Araguaçu/TO,-12.928934,-49.823134,14,165.34782
1,Araguaína/TO,-7.193241,-48.2018597,24524,13373.25023
D1,Araguaína/TO,-7.193241,-48.2018597,316,172.31883
1,Araioses/MA,-2.890914,-41.904993,605,1293.53659
D1,Araioses/MA,-2.890914,-41.904993,12,25.65692
1,Aral Moreira/MS,-22.951141,-55.6268421,327,2651.63801
D1,Aral Moreira/MS,-22.951141,-55.6268421,8,64.87188
1,Aramari/BA,-12.0907897,-38.4985065,491,4284.09388
D1,Aramari/BA,-12.0907897,-38.4985065,10,87.25242
1,Arambaré/RS,-30.9132252,-51.4994625,130,3649.63504
D1,Arambaré/RS,-30.9132252,-51.4994625,4,112.29646
1,Arame/MA,-4.8858769,-46.0102484,983,3000.24417
D1,Arame/MA,-4.8858769,-46.0102484,28,85.45965
1,Aramina/SP,-20.0876144,-47.789201,209,3695.84439
D1,Aramina/SP,-20.0876144,-47.789201,8,141.46773
1,Arandu/SP,-23.1345103,-49.0545651,221,3472.11312
D1,Arandu/SP,-23.1345103,-49.0545651,7,109.97643
1,Arantina/MG,-21.911667,-44.255833,68,2439.89953
D1,Arantina/MG,-21.911667,-44.255833,2,71.76175
1,Arapeí/SP,-22.6738889,-44.4477778,169,6869.91870
D1,Arapeí/SP,-22.6738889,-44.4477778,2,81.30081
1,Arapiraca/AL,-9.754866,-36.661471,19492,8363.97808
D1,Arapiraca/AL,-9.754866,-36.661471,301,129.15850
1,Arapoema/TO,-7.6575001,-49.0641484,392,5925.03023
D1,Arapoema/TO,-7.6575001,-49.0641484,5,75.57437
1,Araponga/MG,-20.666667,-42.520556,294,3478.05513
D1,Araponga/MG,-20.666667,-42.520556,3,35.49036
1,Arapongas/PR,-23.415296,-51.42592,8618,6904.89544
D1,Arapongas/PR,-23.415296,-51.42592,301,241.16657
1,Araporã/MG,-18.4318188,-49.188313,1449,20906.07416
D1,Araporã/MG,-18.4318188,-49.188313,18,259.70278
1,Arapoti/PR,-24.1457957,-49.8224605,1968,6954.06360
D1,Arapoti/PR,-24.1457957,-49.8224605,26,91.87279
1,Araputanga/MT,-15.4710868,-58.346796,1324,7810.74863
D1,Araputanga/MT,-15.4710868,-58.346796,32,188.77942
1,Arapuá/MG,-19.034444,-46.155556,98,3456.79012
D1,Arapuá/MG,-19.034444,-46.155556,1,35.27337
1,Arapuã/PR,-24.3079525,-51.7901941,160,5317.38119
D1,Arapuã/PR,-24.3079525,-51.7901941,5,166.16816
1,Araquari/SC,-26.3703324,-48.7210994,2640,6679.48588
D1,Araquari/SC,-26.3703324,-48.7210994,48,121.44520
1,Arara/PB,-6.8271895,-35.7605703,440,3249.15079
D1,Arara/PB,-6.8271895,-35.7605703,13,95.99764
1,Araranguá/SC,-28.9348832,-49.4858389,7827,11365.38545
D1,Araranguá/SC,-28.9348832,-49.4858389,152,220.71529
1,Araraquara/SP,-21.7886713,-48.1773096,14299,5999.43778
D1,Araraquara/SP,-21.7886713,-48.1773096,314,131.74512
1,Araras/SP,-22.3569477,-47.3838889,10993,8112.55590
D1,Araras/SP,-22.3569477,-47.3838889,237,174.90000
1,Ararendá/CE,-4.7504395,-40.8303611,575,5246.82909
D1,Ararendá/CE,-4.7504395,-40.8303611,11,100.37412
1,Arari/MA,-3.4547602,-44.7772723,382,1276.22611
D1,Arari/MA,-3.4547602,-44.7772723,16,53.45450
1,Araricá/RS,-29.6168543,-50.929121,861,14919.42471
D1,Araricá/RS,-29.6168543,-50.929121,21,363.88841
1,Araripe/CE,-7.212861,-40.1359222,638,2946.33786
D1,Araripe/CE,-7.212861,-40.1359222,7,32.32659
1,Araripina/PE,-7.5768582,-40.5038509,5001,5892.95814
D1,Araripina/PE,-7.5768582,-40.5038509,97,114.30053
1,Araruama/RJ,-22.8733203,-42.3428897,4124,3070.89722
D1,Araruama/RJ,-22.8733203,-42.3428897,181,134.77992
1,Araruna/PB,-6.5321155,-35.7397595,584,2853.93149
D1,Araruna/PB,-6.5321155,-35.7397595,15,73.30303
1,Araruna/PR,-23.9320308,-52.4976047,848,6057.14286
D1,Araruna/PR,-23.9320308,-52.4976047,17,121.42857
1,Arataca/BA,-15.2617424,-39.4122943,432,3941.24624
D1,Arataca/BA,-15.2617424,-39.4122943,12,109.47906
1,Aratiba/RS,-27.3955734,-52.3024325,295,4766.52125
D1,Aratiba/RS,-27.3955734,-52.3024325,5,80.78850
1,Aratuba/CE,-4.4195958,-39.0463737,649,5499.06795
D1,Aratuba/CE,-4.4195958,-39.0463737,3,25.41942
1,Aratuípe/BA,-13.077137,-39.0010786,262,2964.80706
D1,Aratuípe/BA,-13.077137,-39.0010786,7,79.21240
1,Araucária/PR,-25.5861107,-49.4051209,17768,12152.05110
D1,Araucária/PR,-25.5861107,-49.4051209,232,158.67154
1,Arauá/SE,-11.2644014,-37.6181058,685,6886.49844
D1,Arauá/SE,-11.2644014,-37.6181058,13,130.69267
1,Araxá/MG,-19.5928536,-46.940241,7757,7226.77176
D1,Araxá/MG,-19.5928536,-46.940241,112,104.34426
1,Araçagi/PB,-6.8519969,-35.3835602,854,5046.98304
D1,Araçagi/PB,-6.8519969,-35.3835602,11,65.00798
1,Araçariguama/SP,-23.438611,-47.061389,976,4269.46632
D1,Araçariguama/SP,-23.438611,-47.061389,27,118.11024
1,Araçatuba/SP,-21.207992,-50.4390225,19142,9661.38223
D1,Araçatuba/SP,-21.207992,-50.4390225,475,239.74279
1,Araçaí/MG,-19.200833,-44.2475,49,2081.56330
1,Araçoiaba da Serra/SP,-23.5045367,-47.6168158,1678,4825.16678
D1,Araçoiaba da Serra/SP,-23.5045367,-47.6168158,36,103.51967
1,Araçoiaba/PE,-7.7856903,-35.0898881,323,1557.90286
D1,Araçoiaba/PE,-7.7856903,-35.0898881,22,106.11103
1,Araçu/GO,-16.3561579,-49.6815269,335,9609.86804
D1,Araçu/GO,-16.3561579,-49.6815269,10,286.86173
1,Araçuaí/MG,-16.8484451,-42.0661868,941,2563.19460
D1,Araçuaí/MG,-16.8484451,-42.0661868,18,49.03029
1,Araçás/BA,-12.2139176,-38.2026159,511,4185.77982
D1,Araçás/BA,-12.2139176,-38.2026159,7,57.33945
1,Araújos/MG,-19.948055,-45.165556,519,5520.68929
D1,Araújos/MG,-19.948055,-45.165556,4,42.54867
1,Arceburgo/MG,-21.364444,-46.939722,475,4364.60535
D1,Arceburgo/MG,-21.364444,-46.939722,11,101.07507
1,Arco-Íris/SP,-21.7741308,-50.4668814,67,3778.90581
D1,Arco-Íris/SP,-21.7741308,-50.4668814,5,282.00790
1,Arcos/MG,-20.282223,-45.539444,3747,9279.34621
D1,Arcos/MG,-20.282223,-45.539444,47,116.39425
1,Arcoverde/PE,-8.415192,-37.057748,4451,5948.78512
D1,Arcoverde/PE,-8.415192,-37.057748,90,120.28548
1,Areado/MG,-21.3582771,-46.1476688,456,3003.75469
D1,Areado/MG,-21.3582771,-46.1476688,13,85.63336
1,Areal/RJ,-22.2314922,-43.1056264,591,4664.93014
D1,Areal/RJ,-22.2314922,-43.1056264,26,205.22535
1,Arealva/SP,-22.0301906,-48.9111936,499,5793.56786
D1,Arealva/SP,-22.0301906,-48.9111936,8,92.88285
1,Areia Branca/RN,-4.9506652,-37.1263312,1704,6092.89520
D1,Areia Branca/RN,-4.9506652,-37.1263312,68,243.14371
1,Areia Branca/SE,-10.7591455,-37.3148072,1237,6619.92936
D1,Areia Branca/SE,-10.7591455,-37.3148072,25,133.79000
1,Areia de Baraúnas/PB,-7.1233949,-36.9446216,57,2693.76181
D1,Areia de Baraúnas/PB,-7.1233949,-36.9446216,1,47.25898
1,Areia/PB,-6.9680243,-35.6994783,987,4356.46186
D1,Areia/PB,-6.9680243,-35.6994783,19,83.86299
1,Areial/PB,-7.0501306,-35.9245244,187,2661.16408
D1,Areial/PB,-7.0501306,-35.9245244,6,85.38494
1,Areias/SP,-22.5800929,-44.6975127,202,5184.80493
D1,Areias/SP,-22.5800929,-44.6975127,1,25.66735
1,Areiópolis/SP,-22.6758064,-48.6673653,612,5484.85392
D1,Areiópolis/SP,-22.6758064,-48.6673653,7,62.73526
1,Arenápolis/MT,-14.4610369,-56.8432806,1114,11723.84761
D1,Arenápolis/MT,-14.4610369,-56.8432806,18,189.43380
1,Arenópolis/GO,-16.3859286,-51.55937,139,5481.07256
D1,Arenópolis/GO,-16.3859286,-51.55937,1,39.43218
1,Argirita/MG,-21.612761,-42.8371922,236,8727.81065
D1,Argirita/MG,-21.612761,-42.8371922,5,184.91124
1,Aricanduva/MG,-17.8678,-42.5569,67,1271.58854
1,Arinos/MG,-15.917223,-46.106111,316,1769.11880
D1,Arinos/MG,-15.917223,-46.106111,10,55.98477
1,Aripuanã/MT,-10.175806,-59.4439663,1759,7744.12257
D1,Aripuanã/MT,-10.175806,-59.4439663,34,149.68742
1,Ariquemes/RO,-9.9076522,-63.033069,16557,15117.37261
D1,Ariquemes/RO,-9.9076522,-63.033069,337,307.69793
1,Ariranha do Ivaí/PR,-24.3834527,-51.5876772,114,5517.90900
D1,Ariranha do Ivaí/PR,-24.3834527,-51.5876772,2,96.80542
1,Ariranha/SP,-21.18716,-48.790418,314,3216.88352
D1,Ariranha/SP,-21.18716,-48.790418,13,133.18308
1,Armazém/SC,-28.2624996,-49.0190126,1224,13974.19797
D1,Armazém/SC,-28.2624996,-49.0190126,18,205.50291
1,Armação dos Búzios/RJ,-22.7597805,-41.8875267,3119,9046.61078
D1,Armação dos Búzios/RJ,-22.7597805,-41.8875267,30,87.01453
1,Arneiroz/CE,-6.3235099,-40.1603859,207,2638.95971
D1,Arneiroz/CE,-6.3235099,-40.1603859,8,101.98878
1,Aroazes/PI,-6.1108814,-41.7886137,457,7842.80076
D1,Aroazes/PI,-6.1108814,-41.7886137,11,188.77639
1,Aroeiras do Itaim/PI,-7.2797031,-41.5629681,97,3802.43042
D1,Aroeiras do Itaim/PI,-7.2797031,-41.5629681,1,39.20031
1,Aroeiras/PB,-7.5462904,-35.7080002,775,4054.19544
D1,Aroeiras/PB,-7.5462904,-35.7080002,5,26.15610
1,Arraial do Cabo/RJ,-22.9662839,-42.024427,539,1761.84094
D1,Arraial do Cabo/RJ,-22.9662839,-42.024427,13,42.49338
1,Arraial/PI,-6.6541632,-42.5335332,123,2605.93220
D1,Arraial/PI,-6.6541632,-42.5335332,2,42.37288
1,Arraias/TO,-12.9287788,-46.9437231,376,3569.39434
D1,Arraias/TO,-12.9287788,-46.9437231,3,28.47921
1,Arroio Grande/RS,-32.2384246,-53.0866661,843,4622.21735
D1,Arroio Grande/RS,-32.2384246,-53.0866661,28,153.52561
1,Arroio Trinta/SC,-26.9301976,-51.334928,374,10538.17977
D1,Arroio Trinta/SC,-26.9301976,-51.334928,7,197.23866
1,Arroio do Meio/RS,-29.4020392,-51.9444993,2233,10650.06916
D1,Arroio do Meio/RS,-29.4020392,-51.9444993,22,104.92679
1,Arroio do Padre/RS,-31.4428773,-52.4228985,112,3795.32362
D1,Arroio do Padre/RS,-31.4428773,-52.4228985,1,33.88682
1,Arroio do Sal/RS,-29.549852,-49.8874395,836,8133.08688
D1,Arroio do Sal/RS,-29.549852,-49.8874395,24,233.48575
1,Arroio do Tigre/RS,-29.334158,-53.0888935,878,6545.88832
D1,Arroio do Tigre/RS,-29.334158,-53.0888935,15,111.83180
1,Arroio dos Ratos/RS,-30.0894524,-51.7265541,722,5092.75587
D1,Arroio dos Ratos/RS,-30.0894524,-51.7265541,26,183.39564
1,Artur Nogueira/SP,-22.572737,-47.172679,2729,4931.33357
D1,Artur Nogueira/SP,-22.572737,-47.172679,65,117.45573
1,Aruanã/GO,-14.9162439,-51.0715692,347,3432.24530
D1,Aruanã/GO,-14.9162439,-51.0715692,9,89.02077
1,Arujá/SP,-23.396266,-46.3175449,4866,5338.04316
D1,Arujá/SP,-23.396266,-46.3175449,181,198.55853
1,Arvoredo/SC,-27.0752908,-52.4571847,254,11369.74038
D1,Arvoredo/SC,-27.0752908,-52.4571847,3,134.28827
1,Arvorezinha/RS,-28.87369,-52.17808,630,6044.32505
D1,Arvorezinha/RS,-28.87369,-52.17808,20,191.88333
1,Arês/RN,-6.1969216,-35.1642968,626,4342.09614
D1,Arês/RN,-6.1969216,-35.1642968,18,124.85260
1,Ascurra/SC,-26.9569975,-49.3767752,952,11932.81524
D1,Ascurra/SC,-26.9569975,-49.3767752,6,75.20682
1,Aspásia/SP,-20.160028,-50.728046,73,4015.40154
D1,Aspásia/SP,-20.160028,-50.728046,3,165.01650
1,Assaré/CE,-6.8746791,-39.8741385,1082,4608.56972
D1,Assaré/CE,-6.8746791,-39.8741385,24,102.22336
1,Assaí/PR,-23.3736041,-50.8454929,996,6660.42530
D1,Assaí/PR,-23.3736041,-50.8454929,27,180.55370
1,Assis Brasil/AC,-10.9409203,-69.5672108,1342,17812.58296
D1,Assis Brasil/AC,-10.9409203,-69.5672108,18,238.91691
1,Assis Chateaubriand/PR,-24.4054826,-53.5120468,2813,8437.31254
D1,Assis Chateaubriand/PR,-24.4054826,-53.5120468,41,122.97540
1,Assis/SP,-22.6620892,-50.420623,5686,5410.75490
D1,Assis/SP,-22.6620892,-50.420623,161,153.20639
1,Assunção do Piauí/PI,-5.8610212,-41.0485091,250,3179.44805
D1,Assunção do Piauí/PI,-5.8610212,-41.0485091,6,76.30675
1,Assunção/PB,-7.073396,-36.7274003,247,6130.55349
D1,Assunção/PB,-7.073396,-36.7274003,1,24.82005
1,Astolfo Dutra/MG,-21.3132636,-42.8624102,930,6517.16889
D1,Astolfo Dutra/MG,-21.3132636,-42.8624102,13,91.10021
1,Astorga/PR,-23.2350184,-51.6647074,2111,8054.48510
D1,Astorga/PR,-23.2350184,-51.6647074,43,164.06578
1,Atalaia do Norte/AM,-4.3658547,-70.1908742,2577,12633.59153
D1,Atalaia do Norte/AM,-4.3658547,-70.1908742,8,39.21953
1,Atalaia/AL,-9.5029595,-36.0219316,912,1925.47240
D1,Atalaia/AL,-9.5029595,-36.0219316,35,73.89423
1,Atalaia/PR,-23.1513833,-52.0529697,295,7601.13373
D1,Atalaia/PR,-23.1513833,-52.0529697,13,334.96522
1,Atalanta/SC,-27.421916,-49.778863,193,6040.68858
D1,Atalanta/SC,-27.421916,-49.778863,3,93.89671
1,Ataléia/MG,-18.04432,-41.1110524,900,7098.91150
D1,Ataléia/MG,-18.04432,-41.1110524,6,47.32608
1,Atibaia/SP,-23.1177393,-46.5547861,7587,5265.53217
D1,Atibaia/SP,-23.1177393,-46.5547861,178,123.53562
1,Atilio Vivacqua/ES,-20.9139369,-41.1947519,1161,9591.07807
D1,Atilio Vivacqua/ES,-20.9139369,-41.1947519,19,156.95993
1,Augustinópolis/TO,-5.4662267,-47.8897519,1211,6495.73566
D1,Augustinópolis/TO,-5.4662267,-47.8897519,18,96.55098
1,Augusto Corrêa/PA,-1.0229335,-46.6404029,1691,3638.82852
D1,Augusto Corrêa/PA,-1.0229335,-46.6404029,29,62.40451
1,Augusto Pestana/RS,-28.5148413,-53.9906433,273,4135.11057
D1,Augusto Pestana/RS,-28.5148413,-53.9906433,4,60.58770
1,Augusto de Lima/MG,-18.1092963,-44.2651945,171,3525.04638
D1,Augusto de Lima/MG,-18.1092963,-44.2651945,5,103.07153
1,Aurelino Leal/BA,-14.3167137,-39.3256107,785,6947.51748
D1,Aurelino Leal/BA,-14.3167137,-39.3256107,22,194.70750
1,Auriflama/SP,-20.6840418,-50.5554616,1385,9080.18095
D1,Auriflama/SP,-20.6840418,-50.5554616,37,242.57523
1,Aurilândia/GO,-16.6772599,-50.4641231,164,5362.98234
D1,Aurilândia/GO,-16.6772599,-50.4641231,3,98.10334
1,Aurora do Pará/PA,-2.1323199,-47.558436,927,2917.57152
D1,Aurora do Pará/PA,-2.1323199,-47.558436,11,34.62059
1,Aurora do Tocantins/TO,-12.71045,-46.407604,139,3674.33254
D1,Aurora do Tocantins/TO,-12.71045,-46.407604,2,52.86809
1,Aurora/CE,-6.9426019,-38.9693765,1088,4420.96709
D1,Aurora/CE,-6.9426019,-38.9693765,25,101.58472
1,Aurora/SC,-27.3166417,-49.6368502,587,10329.05156
D1,Aurora/SC,-27.3166417,-49.6368502,12,211.15608
1,Autazes/AM,-3.5833283,-59.1301518,2623,6510.30032
D1,Autazes/AM,-3.5833283,-59.1301518,86,213.45247
1,Avanhandava/SP,-21.4603331,-49.9465156,492,3550.03969
D1,Avanhandava/SP,-21.4603331,-49.9465156,21,151.52608
1,Avaré/SP,-23.1045215,-48.9259103,4504,4936.86426
D1,Avaré/SP,-23.1045215,-48.9259103,92,100.84181
1,Avaí/SP,-22.1564662,-49.3316395,209,3844.73878
D1,Avaí/SP,-22.1564662,-49.3316395,3,55.18764
1,Aveiro/PA,-3.6049239,-55.3310742,564,3438.18581
D1,Aveiro/PA,-3.6049239,-55.3310742,7,42.67252
1,Avelino Lopes/PI,-10.1346855,-43.9489525,250,2207.31061
D1,Avelino Lopes/PI,-10.1346855,-43.9489525,17,150.09712
1,Avelinópolis/GO,-16.4672409,-49.7578661,234,9713.57410
D1,Avelinópolis/GO,-16.4672409,-49.7578661,10,415.11000
1,Axixá do Tocantins/TO,-5.612747,-47.77007,822,8398.89650
D1,Axixá do Tocantins/TO,-5.612747,-47.77007,13,132.82926
1,Axixá/MA,-2.8379465,-44.0561053,184,1510.30124
D1,Axixá/MA,-2.8379465,-44.0561053,4,32.83264
1,Açailândia/MA,-4.9514278,-47.4844564,4377,3869.30809
D1,Açailândia/MA,-4.9514278,-47.4844564,150,132.60137
1,Açu/RN,-5.5836157,-36.9139541,3974,6806.65936
D1,Açu/RN,-5.5836157,-36.9139541,108,184.98219
1,Açucena/MG,-19.073056,-42.546666,485,5177.19898
D1,Açucena/MG,-19.073056,-42.546666,15,160.11956
1,Babaçulândia/TO,-7.2034355,-47.761613,537,5034.68967
D1,Babaçulândia/TO,-7.2034355,-47.761613,4,37.50234
1,Bacabal/MA,-4.2318132,-44.781167,4109,3921.17568
D1,Bacabal/MA,-4.2318132,-44.781167,122,116.42332
1,Bacabeira/MA,-2.9775747,-44.3155943,269,1559.23951
D1,Bacabeira/MA,-2.9775747,-44.3155943,5,28.98215
1,Bacuri/MA,-1.728894,-45.1417148,429,2299.77485
D1,Bacuri/MA,-1.728894,-45.1417148,4,21.44312
1,Bacurituba/MA,-2.7082587,-44.7381309,111,1957.67196
D1,Bacurituba/MA,-2.7082587,-44.7381309,1,17.63668
1,Bady Bassitt/SP,-20.9178969,-49.4517911,2060,11598.44603
D1,Bady Bassitt/SP,-20.9178969,-49.4517911,37,208.32160
1,Baependi/MG,-21.959162,-44.8899249,950,4948.17438
D1,Baependi/MG,-21.959162,-44.8899249,10,52.08605
1,Bagre/PA,-1.8994498,-50.2103844,784,2502.79330
D1,Bagre/PA,-1.8994498,-50.2103844,11,35.11572
1,Bagé/RS,-31.3314264,-54.1062808,5670,4673.01273
D1,Bagé/RS,-31.3314264,-54.1062808,139,114.55887
1,Baianópolis/BA,-12.3067564,-44.5383591,272,1952.76043
D1,Baianópolis/BA,-12.3067564,-44.5383591,2,14.35853
1,Baixa Grande do Ribeiro/PI,-7.862861,-45.2113289,1822,15611.34436
D1,Baixa Grande do Ribeiro/PI,-7.862861,-45.2113289,19,162.79668
1,Baixa Grande/BA,-11.9630941,-40.1657537,527,2577.14314
D1,Baixa Grande/BA,-11.9630941,-40.1657537,6,29.34129
1,Baixio/CE,-6.7303544,-38.7170095,268,4251.94352
D1,Baixio/CE,-6.7303544,-38.7170095,7,111.05823
1,Baixo Guandu/ES,-19.5138322,-41.0182089,2866,9205.96171
D1,Baixo Guandu/ES,-19.5138322,-41.0182089,56,179.87922
1,Baião/PA,-2.7903479,-49.6702845,599,1236.09649
D1,Baião/PA,-2.7903479,-49.6702845,21,43.33560
1,Balbinos/SP,-21.9006253,-49.3583966,291,4903.94338
D1,Balbinos/SP,-21.9006253,-49.3583966,3,50.55612
1,Baldim/MG,-19.2913568,-43.9558262,340,4357.29847
D1,Baldim/MG,-19.2913568,-43.9558262,7,89.70909
1,Baliza/GO,-16.1978119,-52.542789,147,2784.09091
D1,Baliza/GO,-16.1978119,-52.542789,5,94.69697
1,Balneário Arroio do Silva/SC,-28.9815269,-49.4189932,1556,11586.00149
D1,Balneário Arroio do Silva/SC,-28.9815269,-49.4189932,34,253.16456
1,Balneário Barra do Sul/SC,-26.459842,-48.6061471,1186,10747.62121
D1,Balneário Barra do Sul/SC,-26.459842,-48.6061471,23,208.42773
1,Balneário Camboriú/SC,-26.9924395,-48.6339782,21079,14457.87264
D1,Balneário Camboriú/SC,-26.9924395,-48.6339782,275,188.61972
1,Balneário Gaivota/SC,-29.1553098,-49.5808712,1029,9138.54352
D1,Balneário Gaivota/SC,-29.1553098,-49.5808712,18,159.85790
1,Balneário Pinhal/RS,-30.2482978,-50.234585,643,4476.78062
D1,Balneário Pinhal/RS,-30.2482978,-50.234585,29,201.90768
1,Balneário Piçarras/SC,-26.7638889,-48.6716667,3593,15114.42033
D1,Balneário Piçarras/SC,-26.7638889,-48.6716667,34,143.02541
1,Balneário Rincão/SC,-28.8235718,-49.2241642,1138,8790.35996
D1,Balneário Rincão/SC,-28.8235718,-49.2241642,28,216.28302
1,Balsa Nova/PR,-25.5842234,-49.6312741,1039,7936.14421
D1,Balsa Nova/PR,-25.5842234,-49.6312741,16,122.21204
1,Balsas/MA,-7.53214,-46.037163,7902,8237.34220
D1,Balsas/MA,-7.53214,-46.037163,102,106.32864
1,Bambuí/MG,-20.0131996,-45.9777034,857,3586.07415
D1,Bambuí/MG,-20.0131996,-45.9777034,9,37.66006
1,Banabuiú/CE,-5.3046404,-38.919766,874,4787.46713
D1,Banabuiú/CE,-5.3046404,-38.919766,7,38.34356
1,Bananal/SP,-22.6828195,-44.3221095,614,5585.37251
D1,Bananal/SP,-22.6828195,-44.3221095,2,18.19340
1,Bananeiras/PB,-6.7537682,-35.6338343,858,4034.04015
D1,Bananeiras/PB,-6.7537682,-35.6338343,11,51.71846
1,Bandeira do Sul/MG,-21.728056,-46.385555,139,2405.67670
D1,Bandeira do Sul/MG,-21.728056,-46.385555,5,86.53513
1,Bandeira/MG,-15.884444,-40.559167,433,9085.18674
D1,Bandeira/MG,-15.884444,-40.559167,9,188.83760
1,Bandeirante/SC,-26.7677402,-53.6397596,183,6910.87613
D1,Bandeirante/SC,-26.7677402,-53.6397596,2,75.52870
1,Bandeirantes do Tocantins/TO,-7.7635698,-48.579148,260,7238.30735
D1,Bandeirantes do Tocantins/TO,-7.7635698,-48.579148,4,111.35857
1,Bandeirantes/MS,-19.9179623,-54.3646768,413,5684.00771
D1,Bandeirantes/MS,-19.9179623,-54.3646768,7,96.33911
1,Bandeirantes/PR,-23.107788,-50.370407,2250,7208.99683
D1,Bandeirantes/PR,-23.107788,-50.370407,62,198.64791
1,Bannach/PA,-7.3508505,-50.4064531,527,16155.73268
D1,Bannach/PA,-7.3508505,-50.4064531,2,61.31208
1,Banzaê/BA,-10.5827616,-38.6122305,795,6004.53172
D1,Banzaê/BA,-10.5827616,-38.6122305,6,45.31722
1,Baraúna/PB,-6.643394,-36.2531932,203,4089.44400
D1,Baraúna/PB,-6.643394,-36.2531932,3,60.43513
1,Baraúna/RN,-5.0775002,-37.61752,738,2567.22441
D1,Baraúna/RN,-5.0775002,-37.61752,17,59.13661
1,Barbacena/MG,-21.2254524,-43.7735087,4541,3285.72256
D1,Barbacena/MG,-21.2254524,-43.7735087,119,86.10460
1,Barbalha/CE,-7.3121067,-39.3036427,3312,5409.28987
D1,Barbalha/CE,-7.3121067,-39.3036427,62,101.26086
1,Barbosa Ferraz/PR,-24.0287182,-52.00811,588,5146.15789
D1,Barbosa Ferraz/PR,-24.0287182,-52.00811,12,105.02363
1,Barbosa/SP,-21.265661,-49.951816,305,4084.09213
D1,Barbosa/SP,-21.265661,-49.951816,8,107.12373
1,Barcarena/PA,-1.5107945,-48.6190679,7999,6297.08645
D1,Barcarena/PA,-1.5107945,-48.6190679,152,119.65960
1,Barcelona/RN,-5.9514918,-35.9260284,51,1276.91537
D1,Barcelona/RN,-5.9514918,-35.9260284,3,75.11267
1,Barcelos/AM,-0.9729214,-62.925635,4022,14552.42782
D1,Barcelos/AM,-0.9729214,-62.925635,54,195.38317
1,Bariri/SP,-22.0746355,-48.7394852,2075,5835.53631
D1,Bariri/SP,-22.0746355,-48.7394852,76,213.73531
1,Barra Bonita/SC,-26.6526364,-53.4419581,97,5875.22714
D1,Barra Bonita/SC,-26.6526364,-53.4419581,1,60.56935
1,Barra Bonita/SP,-22.490859,-48.558349,2405,6657.25516
D1,Barra Bonita/SP,-22.490859,-48.558349,60,166.08537
1,Barra D'Alcântara/PI,-6.5209258,-42.1071089,99,2505.06073
D1,Barra D'Alcântara/PI,-6.5209258,-42.1071089,3,75.91093
1,Barra Funda/RS,-27.9230048,-53.0401045,353,13837.71070
D1,Barra Funda/RS,-27.9230048,-53.0401045,7,274.40220
1,Barra Longa/MG,-20.2833541,-43.0423516,178,3549.35194
D1,Barra Longa/MG,-20.2833541,-43.0423516,3,59.82054
1,Barra Mansa/RJ,-22.5394843,-44.1735129,11560,6254.29442
D1,Barra Mansa/RJ,-22.5394843,-44.1735129,323,174.75234
1,Barra Velha/SC,-26.6338203,-48.6835001,3145,10532.48493
D1,Barra Velha/SC,-26.6338203,-48.6835001,64,214.33356
1,Barra da Estiva/BA,-13.6269662,-41.3278287,1240,6080.81601
D1,Barra da Estiva/BA,-13.6269662,-41.3278287,8,39.23107
1,Barra de Guabiraba/PE,-8.4173522,-35.6626669,331,2281.18539
D1,Barra de Guabiraba/PE,-8.4173522,-35.6626669,12,82.70159
1,Barra de Santa Rosa/PB,-6.7218007,-36.0564638,657,4239.53023
D1,Barra de Santa Rosa/PB,-6.7218007,-36.0564638,3,19.35859
1,Barra de Santana/PB,-7.5230865,-35.9988518,292,3497.42484
D1,Barra de Santana/PB,-7.5230865,-35.9988518,4,47.90993
1,Barra de Santo Antônio/AL,-9.4038098,-35.5117693,195,1213.59223
D1,Barra de Santo Antônio/AL,-9.4038098,-35.5117693,15,93.35325
1,Barra de São Francisco/ES,-18.7570902,-40.8916119,3482,7741.39043
D1,Barra de São Francisco/ES,-18.7570902,-40.8916119,124,275.68421
1,Barra de São Miguel/AL,-9.8261357,-35.8837777,273,3258.53426
D1,Barra de São Miguel/AL,-9.8261357,-35.8837777,6,71.61614
1,Barra de São Miguel/PB,-7.7528088,-36.3170996,273,4501.23660
D1,Barra de São Miguel/PB,-7.7528088,-36.3170996,2,32.97609
1,Barra do Bugres/MT,-15.0683712,-57.1853688,1986,5624.94689
D1,Barra do Bugres/MT,-15.0683712,-57.1853688,45,127.45348
1,Barra do Chapéu/SP,-24.472203,-49.023784,203,3524.30556
1,Barra do Choça/BA,-14.8638173,-40.5761637,1644,5267.71124
D1,Barra do Choça/BA,-14.8638173,-40.5761637,24,76.90089
1,Barra do Corda/MA,-5.496823,-45.248496,4754,5372.23704
D1,Barra do Corda/MA,-5.496823,-45.248496,48,54.24219
1,Barra do Garças/MT,-15.8916033,-52.2615413,5652,9245.11327
D1,Barra do Garças/MT,-15.8916033,-52.2615413,193,315.69477
1,Barra do Guarita/RS,-27.1888016,-53.7147086,104,3193.12251
D1,Barra do Guarita/RS,-27.1888016,-53.7147086,3,92.10930
1,Barra do Jacaré/PR,-23.1151788,-50.1813945,138,4962.24380
D1,Barra do Jacaré/PR,-23.1151788,-50.1813945,1,35.95829
1,Barra do Mendes/BA,-11.8053298,-42.057037,586,4236.24666
D1,Barra do Mendes/BA,-11.8053298,-42.057037,9,65.06181
1,Barra do Ouro/TO,-7.7113784,-47.6743925,109,2353.19516
D1,Barra do Ouro/TO,-7.7113784,-47.6743925,5,107.94473
1,Barra do Piraí/RJ,-22.4703403,-43.8263256,4073,4042.11822
D1,Barra do Piraí/RJ,-22.4703403,-43.8263256,189,187.56699
1,Barra do Quaraí/RS,-30.208947,-57.5505128,194,4589.54341
D1,Barra do Quaraí/RS,-30.208947,-57.5505128,2,47.31488
1,Barra do Ribeiro/RS,-30.2930206,-51.301437,877,6469.46002
D1,Barra do Ribeiro/RS,-30.2930206,-51.301437,41,302.44910
1,Barra do Rio Azul/RS,-27.4101581,-52.4117471,59,3564.95468
D1,Barra do Rio Azul/RS,-27.4101581,-52.4117471,1,60.42296
1,Barra do Rocha/BA,-14.2090974,-39.6004395,305,5434.78261
D1,Barra do Rocha/BA,-14.2090974,-39.6004395,4,71.27584
1,Barra do Turvo/SP,-24.756421,-48.5056942,338,4428.72117
D1,Barra do Turvo/SP,-24.756421,-48.5056942,10,131.02725
1,Barra dos Coqueiros/SE,-10.9075694,-37.0386249,4668,15092.14355
D1,Barra dos Coqueiros/SE,-10.9075694,-37.0386249,51,164.88846
1,Barra/BA,-11.0892702,-43.1420453,1342,2489.33408
D1,Barra/BA,-11.0892702,-43.1420453,24,44.51864
1,Barracão/PR,-26.252395,-53.6349576,832,8068.26998
D1,Barracão/PR,-26.252395,-53.6349576,21,203.64624
1,Barracão/RS,-27.6728964,-51.4582928,241,4585.23592
D1,Barracão/RS,-27.6728964,-51.4582928,7,133.18113
1,Barras/PI,-4.2446153,-42.2920241,3822,8100.03179
D1,Barras/PI,-4.2446153,-42.2920241,74,156.82950
1,Barreira/CE,-4.2883361,-38.641094,792,3508.61649
D1,Barreira/CE,-4.2883361,-38.641094,27,119.61193
1,Barreiras do Piauí/PI,-9.9224524,-45.4763776,49,1461.81384
D1,Barreiras do Piauí/PI,-9.9224524,-45.4763776,1,29.83294
1,Barreiras/BA,-12.1440031,-44.9967406,10566,6731.00812
D1,Barreiras/BA,-12.1440031,-44.9967406,129,82.17869
1,Barreirinha/AM,-2.798863,-57.067897,2226,6852.81532
D1,Barreirinha/AM,-2.798863,-57.067897,60,184.71200
1,Barreirinhas/MA,-2.7541271,-42.8259693,1541,2437.63545
D1,Barreirinhas/MA,-2.7541271,-42.8259693,31,49.03744
1,Barreiros/PE,-8.8159644,-35.1831905,560,1309.51267
D1,Barreiros/PE,-8.8159644,-35.1831905,44,102.89028
1,Barretos/SP,-20.5531437,-48.5697509,9335,7599.74925
D1,Barretos/SP,-20.5531437,-48.5697509,247,201.08603
1,Barrinha/SP,-21.1898849,-48.1550642,1109,3342.37492
D1,Barrinha/SP,-21.1898849,-48.1550642,40,120.55455
1,Barro Alto/BA,-11.7618025,-41.9094904,602,3998.93716
D1,Barro Alto/BA,-11.7618025,-41.9094904,6,39.85652
1,Barro Alto/GO,-14.9696025,-48.9190985,1139,9984.22160
D1,Barro Alto/GO,-14.9696025,-48.9190985,12,105.18934
1,Barro Duro/PI,-5.8180139,-42.5106589,517,7357.33599
D1,Barro Duro/PI,-5.8180139,-42.5106589,7,99.61577
1,Barro Preto/BA,-14.8068289,-39.4727588,480,8810.57269
D1,Barro Preto/BA,-14.8068289,-39.4727588,7,128.48752
1,Barro/CE,-7.1713587,-38.7742136,612,2689.16425
D1,Barro/CE,-7.1713587,-38.7742136,14,61.51683
1,Barrocas/BA,-11.5165,-39.099282894736845,626,3886.99162
D1,Barrocas/BA,-11.5165,-39.099282894736845,16,99.34803
1,Barrolândia/TO,-9.837246,-48.7264346,593,10493.71793
D1,Barrolândia/TO,-9.837246,-48.7264346,10,176.95983
1,Barroquinha/CE,-3.0200371,-41.1339229,912,6062.21750
D1,Barroquinha/CE,-3.0200371,-41.1339229,23,152.88487
1,Barros Cassal/RS,-29.094938,-52.5832366,441,3943.83831
D1,Barros Cassal/RS,-29.094938,-52.5832366,6,53.65766
1,Barroso/MG,-21.187222,-43.976111,612,2928.65005
D1,Barroso/MG,-21.187222,-43.976111,11,52.63913
1,Barueri/SP,-23.5112184,-46.8764612,19776,7139.81414
D1,Barueri/SP,-23.5112184,-46.8764612,687,248.03056
1,Barão de Antonina/SP,-23.6295651,-49.5632104,107,3058.89079
D1,Barão de Antonina/SP,-23.6295651,-49.5632104,2,57.17553
1,Barão de Cocais/MG,-19.9452437,-43.4870298,2704,8227.34741
D1,Barão de Cocais/MG,-19.9452437,-43.4870298,36,109.53569
1,Barão de Cotegipe/RS,-27.6214694,-52.3765316,504,7613.29305
D1,Barão de Cotegipe/RS,-27.6214694,-52.3765316,6,90.63444
1,Barão de Grajaú/MA,-6.7542591,-43.0263477,252,1331.64236
D1,Barão de Grajaú/MA,-6.7542591,-43.0263477,2,10.56859
1,Barão de Melgaço/MT,-16.195776,-55.9668049,231,2829.49535
D1,Barão de Melgaço/MT,-16.195776,-55.9668049,10,122.48898
1,Barão de Monte Alto/MG,-21.244722,-42.2375,163,3044.45275
D1,Barão de Monte Alto/MG,-21.244722,-42.2375,7,130.74337
1,Barão do Triunfo/RS,-30.3909877,-51.7375349,331,4402.18114
D1,Barão do Triunfo/RS,-30.3909877,-51.7375349,4,53.19856
1,Barão/RS,-29.372474,-51.494908,429,6917.12351
D1,Barão/RS,-29.372474,-51.494908,7,112.86682
1,Bastos/SP,-21.9222474,-50.7317727,434,2071.30244
D1,Bastos/SP,-21.9222474,-50.7317727,17,81.13397
1,Bataguassu/MS,-21.715899,-52.422058,1857,7961.41479
D1,Bataguassu/MS,-21.715899,-52.422058,19,81.45766
1,Batalha/AL,-9.6733809,-37.1265481,814,4438.87011
D1,Batalha/AL,-9.6733809,-37.1265481,15,81.79736
1,Batalha/PI,-4.022391,-42.0780926,767,2850.77123
D1,Batalha/PI,-4.022391,-42.0780926,23,85.48597
1,Batatais/SP,-20.892867,-47.592149,1842,2924.73801
D1,Batatais/SP,-20.892867,-47.592149,66,104.79517
1,Batayporã/MS,-22.2976466,-53.2685608,568,5004.84624
D1,Batayporã/MS,-22.2976466,-53.2685608,11,96.92484
1,Baturité/CE,-4.3290203,-38.8821055,1627,4526.86347
D1,Baturité/CE,-4.3290203,-38.8821055,44,122.42286
1,Bauru/SP,-22.3218102,-49.0705863,30146,7947.86144
D1,Bauru/SP,-22.3218102,-49.0705863,591,155.81457
1,Bayeux/PB,-7.1301631,-34.936532,5333,5486.45618
D1,Bayeux/PB,-7.1301631,-34.936532,189,194.43844
1,Baía Formosa/RN,-6.3691885,-35.0063741,241,2585.28213
D1,Baía Formosa/RN,-6.3691885,-35.0063741,8,85.81849
1,Baía da Traição/PB,-6.691258,-34.9371244,1097,12060.24626
D1,Baía da Traição/PB,-6.691258,-34.9371244,10,109.93843
1,Bebedouro/SP,-20.949077,-48.479083,3091,3985.55864
D1,Bebedouro/SP,-20.949077,-48.479083,72,92.83734
1,Beberibe/CE,-4.1810469,-38.1298101,2432,4507.96122
D1,Beberibe/CE,-4.1810469,-38.1298101,47,87.11932
1,Bela Cruz/CE,-3.0529129,-40.167582,2210,6753.86590
D1,Bela Cruz/CE,-3.0529129,-40.167582,44,134.46611
1,Bela Vista da Caroba/PR,-25.8792818,-53.6672545,148,4281.16864
D1,Bela Vista da Caroba/PR,-25.8792818,-53.6672545,3,86.78045
1,Bela Vista de Goiás/GO,-16.9692949,-48.9513071,1852,6073.72426
D1,Bela Vista de Goiás/GO,-16.9692949,-48.9513071,40,131.18195
1,Bela Vista de Minas/MG,-19.8289721,-43.0973688,503,4901.57864
D1,Bela Vista de Minas/MG,-19.8289721,-43.0973688,9,87.70220
1,Bela Vista do Maranhão/MA,-3.7416367,-45.2514192,180,1595.88616
D1,Bela Vista do Maranhão/MA,-3.7416367,-45.2514192,11,97.52638
1,Bela Vista do Paraíso/PR,-22.9948493,-51.1907996,1465,9513.60478
D1,Bela Vista do Paraíso/PR,-22.9948493,-51.1907996,42,272.74498
1,Bela Vista do Piauí/PI,-7.9716353,-41.8715061,217,5384.61538
D1,Bela Vista do Piauí/PI,-7.9716353,-41.8715061,6,148.88337
1,Bela Vista do Toldo/SC,-26.274625,-50.466354,57,895.94467
D1,Bela Vista do Toldo/SC,-26.274625,-50.466354,1,15.71833
1,Bela Vista/MS,-22.107327,-56.5317344,570,2304.42693
D1,Bela Vista/MS,-22.107327,-56.5317344,15,60.64281
1,Belford Roxo/RJ,-22.7667284,-43.4033603,17948,3497.83091
D1,Belford Roxo/RJ,-22.7667284,-43.4033603,461,89.84288
1,Belmiro Braga/MG,-21.9486291,-43.413564,137,4000.00000
D1,Belmiro Braga/MG,-21.9486291,-43.413564,3,87.59124
1,Belmonte/BA,-15.8630837,-38.8792845,868,3703.54568
D1,Belmonte/BA,-15.8630837,-38.8792845,15,64.00137
1,Belmonte/SC,-26.8448262,-53.578916,197,7272.05611
D1,Belmonte/SC,-26.8448262,-53.578916,4,147.65596
1,Belo Campo/BA,-15.0338286,-41.2585109,523,3056.87065
D1,Belo Campo/BA,-15.0338286,-41.2585109,6,35.06926
1,Belo Horizonte/MG,-19.9227318,-43.9450948,146352,5804.01687
D1,Belo Horizonte/MG,-19.9227318,-43.9450948,3378,133.96448
1,Belo Jardim/PE,-8.3338293,-36.4176419,2198,2866.19636
D1,Belo Jardim/PE,-8.3338293,-36.4176419,56,73.02411
1,Belo Monte/AL,-9.8269944,-37.2787165,232,3457.52608
D1,Belo Monte/AL,-9.8269944,-37.2787165,6,89.41878
1,Belo Oriente/MG,-19.2232523,-42.4807033,2017,7472.03082
D1,Belo Oriente/MG,-19.2232523,-42.4807033,39,144.47655
1,Belo Vale/MG,-20.407778,-44.024167,429,5557.71473
D1,Belo Vale/MG,-20.407778,-44.024167,7,90.68532
1,Belterra/PA,-2.636091,-54.937392,1054,5908.40294
D1,Belterra/PA,-2.636091,-54.937392,18,100.90252
1,Belágua/MA,-3.1604031,-43.5085052,282,3746.01488
D1,Belágua/MA,-3.1604031,-43.5085052,2,26.56748
1,Belém de Maria/PE,-8.6242497,-35.8388934,136,1121.92707
D1,Belém de Maria/PE,-8.6242497,-35.8388934,4,32.99786
1,Belém do Brejo do Cruz/PB,-6.1880727,-37.5332267,478,6504.28630
D1,Belém do Brejo do Cruz/PB,-6.1880727,-37.5332267,5,68.03647
1,Belém do Piauí/PI,-7.3767305,-40.9712156,388,10816.83858
D1,Belém do Piauí/PI,-7.3767305,-40.9712156,7,195.14915
1,Belém do São Francisco/PE,-8.7517707,-38.9625715,432,2083.93632
D1,Belém do São Francisco/PE,-8.7517707,-38.9625715,7,33.76749
1,Belém/AL,-9.5715351,-36.492841,86,2007.46965
D1,Belém/AL,-9.5715351,-36.492841,3,70.02801
1,Belém/PA,-1.45056,-48.4682453,87266,5819.12604
D1,Belém/PA,-1.45056,-48.4682453,3690,246.05889
1,Belém/PB,-6.6967586,-35.5369626,1587,8963.56961
D1,Belém/PB,-6.6967586,-35.5369626,30,169.44366
1,Beneditinos/PI,-5.4565671,-42.3605061,612,5843.59782
D1,Beneditinos/PI,-5.4565671,-42.3605061,23,219.61234
1,Benedito Leite/MA,-7.2173453,-44.5523331,263,4664.77474
D1,Benedito Leite/MA,-7.2173453,-44.5523331,2,35.47357
1,Benedito Novo/SC,-26.7840657,-49.3629511,849,7210.19108
D1,Benedito Novo/SC,-26.7840657,-49.3629511,12,101.91083
1,Benevides/PA,-1.3555577,-48.252235,2938,4607.32656
D1,Benevides/PA,-1.3555577,-48.252235,71,111.34111
1,Benjamin Constant do Sul/RS,-27.5105555,-52.6007689,149,7609.80592
1,Benjamin Constant/AM,-4.3782748,-70.0290603,2594,5904.17662
D1,Benjamin Constant/AM,-4.3782748,-70.0290603,70,159.32628
1,Bento Fernandes/RN,-5.6926846,-35.8207423,72,1303.16742
D1,Bento Fernandes/RN,-5.6926846,-35.8207423,2,36.19910
1,Bento Gonçalves/RS,-29.1654014,-51.5197627,12715,10438.98755
D1,Bento Gonçalves/RS,-29.1654014,-51.5197627,223,183.08252
1,Bento de Abreu/SP,-21.2707225,-50.8120444,202,6722.12978
1,Bequimão/MA,-2.4495376,-44.7884889,269,1262.97009
D1,Bequimão/MA,-2.4495376,-44.7884889,15,70.42584
1,Berilo/MG,-16.9515764,-42.4643732,10,84.23181
D1,Berilo/MG,-16.9515764,-42.4643732,1,8.42318
1,Berizal/MG,-15.6118785,-41.7417382,95,1994.12259
D1,Berizal/MG,-15.6118785,-41.7417382,1,20.99076
1,Bernardino Batista/PB,-6.4532173,-38.5495418,208,5882.35294
1,Bernardino de Campos/SP,-23.0140216,-49.4760724,317,2841.01093
D1,Bernardino de Campos/SP,-23.0140216,-49.4760724,6,53.77308
1,Bernardo Sayão/TO,-7.8794244,-48.8968905,302,6789.56835
D1,Bernardo Sayão/TO,-7.8794244,-48.8968905,5,112.41007
1,Bernardo do Mearim/MA,-4.6315929,-44.7617508,205,3375.59690
D1,Bernardo do Mearim/MA,-4.6315929,-44.7617508,4,65.86531
1,Bertioga/SP,-23.848568,-46.139586,3490,5392.20988
D1,Bertioga/SP,-23.848568,-46.139586,80,123.60366
1,Bertolínia/PI,-7.6372159,-43.9540611,633,11494.46159
D1,Bertolínia/PI,-7.6372159,-43.9540611,6,108.95224
1,Bertópolis/MG,-17.063333,-40.573889,242,5252.87606
1,Beruri/AM,-3.9007135,-61.3717319,1999,9948.73837
D1,Beruri/AM,-3.9007135,-61.3717319,31,154.28259
1,Betim/MG,-19.968056,-44.198333,21043,4731.06047
D1,Betim/MG,-19.968056,-44.198333,643,144.56455
1,Betânia do Piauí/PI,-8.1460635,-40.7961387,148,2383.25282
D1,Betânia do Piauí/PI,-8.1460635,-40.7961387,2,32.20612
1,Betânia/PE,-8.2742779,-38.0351767,265,2075.98903
D1,Betânia/PE,-8.2742779,-38.0351767,5,39.16960
1,Bezerros/PE,-8.2372132,-35.7558262,2884,4737.18791
D1,Bezerros/PE,-8.2372132,-35.7558262,84,137.97635
1,Bias Fortes/MG,-21.605833,-43.756944,96,2883.74887
D1,Bias Fortes/MG,-21.605833,-43.756944,2,60.07810
1,Bicas/MG,-21.7213723,-43.0604327,776,5331.86753
D1,Bicas/MG,-21.7213723,-43.0604327,22,151.16119
1,Biguaçu/SC,-27.4961277,-48.6542432,9632,13861.78511
D1,Biguaçu/SC,-27.4961277,-48.6542432,130,187.08805
1,Bilac/SP,-21.403962,-50.47464,637,7847.72699
D1,Bilac/SP,-21.403962,-50.47464,11,135.51805
1,Biquinhas/MG,-18.783611,-45.502222,76,3042.43395
1,Birigui/SP,-21.2908491,-50.34144,9612,7696.80421
D1,Birigui/SP,-21.2908491,-50.34144,249,199.38663
1,Biritiba Mirim/SP,-23.5697765,-46.0407456,861,2614.16080
D1,Biritiba Mirim/SP,-23.5697765,-46.0407456,55,166.99053
1,Biritinga/BA,-11.6227908,-38.8066738,269,1682.93293
D1,Biritinga/BA,-11.6227908,-38.8066738,5,31.28128
1,Bituruna/PR,-26.161281,-51.5533319,481,2932.92683
D1,Bituruna/PR,-26.161281,-51.5533319,5,30.48780
1,Blumenau/SC,-26.9195567,-49.0658025,41763,11541.36325
D1,Blumenau/SC,-26.9195567,-49.0658025,425,117.45036
1,Boa Esperança do Iguaçu/PR,-25.6362851,-53.2139114,117,4736.84211
1,Boa Esperança do Sul/SP,-21.9930206,-48.3917372,649,4321.48089
D1,Boa Esperança do Sul/SP,-21.9930206,-48.3917372,11,73.24544
1,Boa Esperança/ES,-18.5395472,-40.2904088,942,6241.71747
D1,Boa Esperança/ES,-18.5395472,-40.2904088,32,212.03287
1,Boa Esperança/MG,-21.0901253,-45.5660195,2084,5181.63057
D1,Boa Esperança/MG,-21.0901253,-45.5660195,52,129.29213
1,Boa Esperança/PR,-24.2411024,-52.7860277,229,5658.51248
D1,Boa Esperança/PR,-24.2411024,-52.7860277,6,148.25797
1,Boa Hora/PI,-4.4094627,-42.1255341,413,6060.16141
D1,Boa Hora/PI,-4.4094627,-42.1255341,5,73.36757
1,Boa Nova/BA,-14.365907,-40.2063056,623,5053.12677
D1,Boa Nova/BA,-14.365907,-40.2063056,11,89.22054
1,Boa Ventura de São Roque/PR,-24.88177,-51.5441292,263,4131.97172
D1,Boa Ventura de São Roque/PR,-24.88177,-51.5441292,5,78.55460
1,Boa Ventura/PB,-7.4202462,-38.2156782,225,4239.68344
D1,Boa Ventura/PB,-7.4202462,-38.2156782,4,75.37215
1,Boa Viagem/CE,-5.1261877,-39.7300055,2266,4151.93213
D1,Boa Viagem/CE,-5.1261877,-39.7300055,56,102.60733
1,Boa Vista da Aparecida/PR,-25.4357216,-53.4067721,525,6962.86472
D1,Boa Vista da Aparecida/PR,-25.4357216,-53.4067721,17,225.46419
1,Boa Vista das Missões/RS,-27.6677983,-53.3127622,79,3776.29063
D1,Boa Vista das Missões/RS,-27.6677983,-53.3127622,2,95.60229
1,Boa Vista do Buricá/RS,-27.6687782,-54.1111913,553,8238.97497
D1,Boa Vista do Buricá/RS,-27.6687782,-54.1111913,7,104.29082
1,Boa Vista do Cadeado/RS,-28.5783827,-53.8123759,133,5388.97893
D1,Boa Vista do Cadeado/RS,-28.5783827,-53.8123759,1,40.51864
1,Boa Vista do Gurupi/MA,-1.7981168,-46.3071882,14,167.02458
D1,Boa Vista do Gurupi/MA,-1.7981168,-46.3071882,3,35.79098
1,Boa Vista do Incra/RS,-28.8195551,-53.3866624,152,5810.39755
D1,Boa Vista do Incra/RS,-28.8195551,-53.3866624,1,38.22630
1,Boa Vista do Ramos/AM,-2.9716927,-57.5869819,821,4183.22633
D1,Boa Vista do Ramos/AM,-2.9716927,-57.5869819,11,56.04810
1,Boa Vista do Sul/RS,-29.3510488,-51.6779679,233,8387.32901
D1,Boa Vista do Sul/RS,-29.3510488,-51.6779679,2,71.99424
1,Boa Vista do Tupim/BA,-12.6605988,-40.6083594,163,879.60714
D1,Boa Vista do Tupim/BA,-12.6605988,-40.6083594,4,21.58545
1,Boa Vista/PB,-7.2620711,-36.2415161,445,6235.98655
D1,Boa Vista/PB,-7.2620711,-36.2415161,5,70.06726
1,Boa Vista/RR,2.8208478,-60.6719582,68405,16300.41082
D1,Boa Vista/RR,2.8208478,-60.6719582,1035,246.63292
1,Boca da Mata/AL,-9.6452054,-36.2116658,1470,5373.59263
D1,Boca da Mata/AL,-9.6452054,-36.2116658,34,124.28718
1,Boca do Acre/AM,-8.7553487,-67.3930873,2380,6871.66161
D1,Boca do Acre/AM,-8.7553487,-67.3930873,22,63.51956
1,Bocaina de Minas/MG,-22.167778,-44.394722,98,1925.72215
D1,Bocaina de Minas/MG,-22.167778,-44.394722,2,39.30045
1,Bocaina do Sul/SC,-27.745494,-49.942279,349,10005.73394
D1,Bocaina do Sul/SC,-27.745494,-49.942279,3,86.00917
1,Bocaina/PI,-6.9445939,-41.3224599,218,4839.06770
D1,Bocaina/PI,-6.9445939,-41.3224599,3,66.59267
1,Bocaina/SP,-22.1421831,-48.522276,1051,8440.41118
D1,Bocaina/SP,-22.1421831,-48.522276,21,168.64761
1,Bocaiúva do Sul/PR,-25.206591,-49.114131,876,6672.25227
D1,Bocaiúva do Sul/PR,-25.206591,-49.114131,5,38.08363
1,Bocaiúva/MG,-17.1160208,-43.8122678,1464,2913.08500
D1,Bocaiúva/MG,-17.1160208,-43.8122678,33,65.66380
1,Bodocó/PE,-7.777592,-39.933797,1452,3783.41758
D1,Bodocó/PE,-7.777592,-39.933797,22,57.32451
1,Bodoquena/MS,-20.5508775,-56.6769653,197,2513.39627
D1,Bodoquena/MS,-20.5508775,-56.6769653,3,38.27507
1,Bodó/RN,-5.9866104,-36.4134824,93,4233.04506
1,Bofete/SP,-23.1019554,-48.2610535,486,4076.83919
D1,Bofete/SP,-23.1019554,-48.2610535,9,75.49702
1,Boituva/SP,-23.2838893,-47.6738231,3571,5743.92794
D1,Boituva/SP,-23.2838893,-47.6738231,63,101.33505
1,Bom Conselho/PE,-9.169191,-36.685683,1205,2470.93321
D1,Bom Conselho/PE,-9.169191,-36.685683,38,77.92155
1,Bom Despacho/MG,-19.7375242,-45.2517288,2446,4793.44674
D1,Bom Despacho/MG,-19.7375242,-45.2517288,51,99.94513
1,Bom Jardim da Serra/SC,-28.3380324,-49.625588,529,11085.49874
D1,Bom Jardim da Serra/SC,-28.3380324,-49.625588,3,62.86672
1,Bom Jardim de Goiás/GO,-16.2062659,-52.172793,525,5919.49487
D1,Bom Jardim de Goiás/GO,-16.2062659,-52.172793,10,112.75228
1,Bom Jardim de Minas/MG,-21.9476466,-44.1906033,205,3173.86592
D1,Bom Jardim de Minas/MG,-21.9476466,-44.1906033,1,15.48227
1,Bom Jardim/MA,-3.54129,-45.606004,1113,2661.27875
D1,Bom Jardim/MA,-3.54129,-45.606004,37,88.47018
1,Bom Jardim/PE,-7.7961572,-35.5871696,942,2356.00130
D1,Bom Jardim/PE,-7.7961572,-35.5871696,39,97.54146
1,Bom Jardim/RJ,-22.1515328,-42.4186683,772,2795.48088
D1,Bom Jardim/RJ,-22.1515328,-42.4186683,21,76.04287
1,Bom Jesus da Lapa/BA,-13.250571,-43.410754,2402,3448.07786
D1,Bom Jesus da Lapa/BA,-13.250571,-43.410754,36,51.67810
1,Bom Jesus da Penha/MG,-21.0165299,-46.5226644,257,6055.60792
D1,Bom Jesus da Penha/MG,-21.0165299,-46.5226644,5,117.81338
1,Bom Jesus da Serra/BA,-14.3724084,-40.5047119,390,3970.27385
D1,Bom Jesus da Serra/BA,-14.3724084,-40.5047119,6,61.08114
1,Bom Jesus das Selvas/MA,-4.4878075,-46.8526639,2259,6535.13467
D1,Bom Jesus das Selvas/MA,-4.4878075,-46.8526639,19,54.96572
1,Bom Jesus de Goiás/GO,-18.2174587,-49.739721,2150,8382.71990
D1,Bom Jesus de Goiás/GO,-18.2174587,-49.739721,76,296.31940
1,Bom Jesus do Amparo/MG,-19.7045132,-43.4752911,140,2282.73276
D1,Bom Jesus do Amparo/MG,-19.7045132,-43.4752911,4,65.22094
1,Bom Jesus do Araguaia/MT,-12.1725897,-51.5074425,560,8350.73069
D1,Bom Jesus do Araguaia/MT,-12.1725897,-51.5074425,11,164.03221
1,Bom Jesus do Galho/MG,-19.8283191,-42.3162256,424,2852.91347
D1,Bom Jesus do Galho/MG,-19.8283191,-42.3162256,11,74.01426
1,Bom Jesus do Itabapoana/RJ,-21.1341025,-41.680095,2333,6270.99965
D1,Bom Jesus do Itabapoana/RJ,-21.1341025,-41.680095,56,150.52550
1,Bom Jesus do Norte/ES,-21.1254776,-41.6711646,776,7789.60048
D1,Bom Jesus do Norte/ES,-21.1254776,-41.6711646,18,180.68661
1,Bom Jesus do Oeste/SC,-26.6929713,-53.0967453,116,5423.09490
D1,Bom Jesus do Oeste/SC,-26.6929713,-53.0967453,3,140.25245
1,Bom Jesus do Sul/PR,-26.1922507,-53.6002033,216,6160.86708
D1,Bom Jesus do Sul/PR,-26.1922507,-53.6002033,3,85.56760
1,Bom Jesus do Tocantins/PA,-5.0471796,-48.5978362,627,3662.81108
D1,Bom Jesus do Tocantins/PA,-5.0471796,-48.5978362,17,99.31067
1,Bom Jesus do Tocantins/TO,-8.96306,-48.165043,115,2296.32588
D1,Bom Jesus do Tocantins/TO,-8.96306,-48.165043,1,19.96805
1,Bom Jesus dos Perdões/SP,-23.1353864,-46.4648052,1213,4668.07774
D1,Bom Jesus dos Perdões/SP,-23.1353864,-46.4648052,16,61.57398
1,Bom Jesus/PB,-6.8156725,-38.6551841,101,3922.33010
D1,Bom Jesus/PB,-6.8156725,-38.6551841,3,116.50485
1,Bom Jesus/PI,-9.0711644,-44.3583926,2433,9583.64517
D1,Bom Jesus/PI,-9.0711644,-44.3583926,28,110.29267
1,Bom Jesus/RN,-5.9887544,-35.5821149,565,5503.06808
D1,Bom Jesus/RN,-5.9887544,-35.5821149,11,107.13938
1,Bom Jesus/RS,-28.6692723,-50.4346894,511,4518.52507
D1,Bom Jesus/RS,-28.6692723,-50.4346894,13,114.95269
1,Bom Jesus/SC,-26.7350604,-52.3916519,307,10042.52535
D1,Bom Jesus/SC,-26.7350604,-52.3916519,5,163.55904
1,Bom Lugar/MA,-4.3728019,-45.0366054,367,2232.63171
D1,Bom Lugar/MA,-4.3728019,-45.0366054,7,42.58426
1,Bom Princípio do Piauí/PI,-3.1912777,-41.6430185,89,1574.94249
D1,Bom Princípio do Piauí/PI,-3.1912777,-41.6430185,8,141.56786
1,Bom Princípio/RS,-29.489788,-51.3566782,1216,8530.34023
D1,Bom Princípio/RS,-29.489788,-51.3566782,21,147.31673
1,Bom Progresso/RS,-27.5490948,-53.8655601,99,5213.27014
D1,Bom Progresso/RS,-27.5490948,-53.8655601,1,52.65929
1,Bom Repouso/MG,-22.4657069,-46.1485376,384,3644.30103
D1,Bom Repouso/MG,-22.4657069,-46.1485376,12,113.88441
1,Bom Retiro do Sul/RS,-29.6000007,-51.9359243,851,6868.44229
D1,Bom Retiro do Sul/RS,-29.6000007,-51.9359243,20,161.42050
1,Bom Retiro/SC,-27.798993,-49.486994,550,5467.19682
D1,Bom Retiro/SC,-27.798993,-49.486994,13,129.22465
1,Bom Sucesso de Itararé/SP,-24.3190016,-49.1446207,98,2459.83936
D1,Bom Sucesso de Itararé/SP,-24.3190016,-49.1446207,4,100.40161
1,Bom Sucesso do Sul/PR,-26.0749256,-52.8348629,257,7897.97173
D1,Bom Sucesso do Sul/PR,-26.0749256,-52.8348629,5,153.65704
1,Bom Sucesso/MG,-21.0323516,-44.7598082,332,1885.61368
D1,Bom Sucesso/MG,-21.0323516,-44.7598082,4,22.71824
1,Bom Sucesso/PB,-6.4458948,-37.9297662,158,3188.05488
D1,Bom Sucesso/PB,-6.4458948,-37.9297662,1,20.17756
1,Bom Sucesso/PR,-23.7088019,-51.7651297,512,7243.91624
D1,Bom Sucesso/PR,-23.7088019,-51.7651297,11,155.63101
1,Bombinhas/SC,-27.1519159,-48.4875691,3100,15244.65208
D1,Bombinhas/SC,-27.1519159,-48.4875691,43,211.45808
1,Bonfim do Piauí/PI,-9.1648678,-42.8734415,220,3869.83289
D1,Bonfim do Piauí/PI,-9.1648678,-42.8734415,4,70.36060
1,Bonfim/MG,-20.3266626, -44.2386157,269,3921.28280
D1,Bonfim/MG,-20.3266626, -44.2386157,7,102.04082
1,Bonfim/RR,3.3613818,-59.8427241,1859,14804.49152
D1,Bonfim/RR,3.3613818,-59.8427241,24,191.12845
1,Bonfinópolis de Minas/MG,-16.5660011,-45.98645,318,5841.29317
D1,Bonfinópolis de Minas/MG,-16.5660011,-45.98645,10,183.68846
1,Bonfinópolis/GO,-16.6172709,-48.9615701,420,4234.29781
D1,Bonfinópolis/GO,-16.6172709,-48.9615701,14,141.14326
1,Boninal/BA,-12.7095183,-41.8299984,555,3841.89395
D1,Boninal/BA,-12.7095183,-41.8299984,6,41.53399
1,Bonito de Minas/MG,-15.3191266,-44.7544,38,334.24224
1,Bonito de Santa Fé/PB,-7.3143332,-38.5146677,353,2936.28348
D1,Bonito de Santa Fé/PB,-7.3143332,-38.5146677,11,91.49892
1,Bonito/BA,-11.9665473,-41.2649896,583,3452.97323
D1,Bonito/BA,-11.9665473,-41.2649896,6,35.53660
1,Bonito/MS,-21.1264766,-56.4902208,1927,8684.09193
D1,Bonito/MS,-21.1264766,-56.4902208,29,130.68950
1,Bonito/PA,-1.3605722,-47.3049907,331,2002.41984
D1,Bonito/PA,-1.3605722,-47.3049907,12,72.59528
1,Bonito/PE,-8.4721161,-35.7314591,561,1471.78424
D1,Bonito/PE,-8.4721161,-35.7314591,29,76.08154
1,Bonópolis/GO,-13.649331,-49.8329113,102,2270.19809
D1,Bonópolis/GO,-13.649331,-49.8329113,1,22.25684
1,Boqueirão do Leão/RS,-29.30332,-52.4296817,422,5479.09634
D1,Boqueirão do Leão/RS,-29.30332,-52.4296817,28,363.54194
1,Boqueirão do Piauí/PI,-4.4850148,-42.1095161,379,5897.91472
D1,Boqueirão do Piauí/PI,-4.4850148,-42.1095161,7,108.93246
1,Boqueirão/PB,-7.487004,-36.130887,1158,6480.13430
D1,Boqueirão/PB,-7.487004,-36.130887,22,123.11136
1,Boquim/SE,-11.1450175,-37.6204228,1512,5621.02680
D1,Boquim/SE,-11.1450175,-37.6204228,30,111.52831
1,Boquira/BA,-12.8184859,-42.7270883,393,1828.16207
D1,Boquira/BA,-12.8184859,-42.7270883,5,23.25906
1,Boracéia/SP,-22.195355,-48.7801925,722,14831.55300
D1,Boracéia/SP,-22.195355,-48.7801925,14,287.59244
1,Borba/AM,-4.3934778,-59.5947721,1580,3784.61244
D1,Borba/AM,-4.3934778,-59.5947721,49,117.37089
1,Borborema/PB,-6.8066718,-35.5990191,174,3291.09136
D1,Borborema/PB,-6.8066718,-35.5990191,3,56.74295
1,Borborema/SP,-21.6212706,-49.074135,762,4714.17966
D1,Borborema/SP,-21.6212706,-49.074135,25,154.66469
1,Borda da Mata/MG,-22.274167,-46.165278,921,4695.62557
D1,Borda da Mata/MG,-22.274167,-46.165278,26,132.55838
1,Borebi/SP,-22.5700178,-48.9714871,113,4211.70332
D1,Borebi/SP,-22.5700178,-48.9714871,2,74.54342
1,Borrazópolis/PR,-23.9393362,-51.5850786,461,7159.49682
D1,Borrazópolis/PR,-23.9393362,-51.5850786,13,201.89470
1,Borá/SP,-22.2701088,-50.544407,41,4892.60143
D1,Borá/SP,-22.2701088,-50.544407,1,119.33174
1,Bossoroca/RS,-28.7278885,-54.9120278,271,4367.44561
D1,Bossoroca/RS,-28.7278885,-54.9120278,17,273.97260
1,Botelhos/MG,-21.65,-46.394722,909,6080.67429
D1,Botelhos/MG,-21.65,-46.394722,6,40.13646
1,Botucatu/SP,-22.8879628,-48.4410712,10181,6873.01694
D1,Botucatu/SP,-22.8879628,-48.4410712,159,107.33815
1,Botumirim/MG,-16.862778,-43.011111,140,2226.46310
D1,Botumirim/MG,-16.862778,-43.011111,2,31.80662
1,Botuporã/BA,-13.3744752,-42.5198469,176,1737.58515
D1,Botuporã/BA,-13.3744752,-42.5198469,3,29.61793
1,Botuverá/SC,-27.200749,-49.068892,765,14374.29538
D1,Botuverá/SC,-27.200749,-49.068892,7,131.52950
1,Bozano/RS,-28.3669953,-53.7705165,187,8858.36097
D1,Bozano/RS,-28.3669953,-53.7705165,7,331.59640
1,Braga/RS,-27.617348,-53.740514,119,3594.08034
D1,Braga/RS,-27.617348,-53.740514,3,90.60707
1,Braganey/PR,-24.8179919,-53.118506,280,5202.52694
D1,Braganey/PR,-24.8179919,-53.118506,6,111.48272
1,Bragança Paulista/SP,-22.9520235,-46.5418586,9922,5818.22873
D1,Bragança Paulista/SP,-22.9520235,-46.5418586,251,147.18559
1,Bragança/PA,-1.0573967,-46.7635406,3332,2584.66885
D1,Bragança/PA,-1.0573967,-46.7635406,109,84.55249
1,Branquinha/AL,-9.2478057,-36.0152009,381,3642.44742
D1,Branquinha/AL,-9.2478057,-36.0152009,9,86.04207
1,Brasil Novo/PA,-3.3055853,-52.539198,1153,7695.38811
D1,Brasil Novo/PA,-3.3055853,-52.539198,23,153.50731
1,Brasileira/PI,-4.131182,-41.7824969,393,4708.27842
D1,Brasileira/PI,-4.131182,-41.7824969,8,95.84282
1,Brasilândia de Minas/MG,-17.0096469,-46.0087183,747,4460.23406
D1,Brasilândia de Minas/MG,-17.0096469,-46.0087183,9,53.73776
1,Brasilândia do Sul/PR,-24.1975793,-53.527551,272,10522.24371
D1,Brasilândia do Sul/PR,-24.1975793,-53.527551,7,270.79304
1,Brasilândia do Tocantins/TO,-8.3886619,-48.4842729,108,4884.66757
D1,Brasilândia do Tocantins/TO,-8.3886619,-48.4842729,1,45.22840
1,Brasilândia/MS,-21.255575,-52.0365617,475,4007.42428
D1,Brasilândia/MS,-21.255575,-52.0365617,10,84.36683
1,Brasiléia/AC,-11.0010413,-68.7487894,2134,7991.91072
D1,Brasiléia/AC,-11.0010413,-68.7487894,29,108.60610
1,Brasnorte/MT,-12.1227151,-58.0050109,1371,6807.34856
D1,Brasnorte/MT,-12.1227151,-58.0050109,19,94.33962
1,Brasília de Minas/MG,-16.2075114,-44.430559,642,1981.17574
D1,Brasília de Minas/MG,-16.2075114,-44.430559,5,15.42972
1,Brasília/DF,-15.7934036,-47.8823172,351163,11494.13662
D1,Brasília/DF,-15.7934036,-47.8823172,6366,208.36954
1,Brazabrantes/GO,-16.4291635,-49.3858216,331,8836.09183
D1,Brazabrantes/GO,-16.4291635,-49.3858216,2,53.39028
1,Brazópolis/MG,-22.4742842,-45.6165577,574,3983.34490
D1,Brazópolis/MG,-22.4742842,-45.6165577,21,145.73213
1,Braço do Norte/SC,-28.2728633,-49.1622712,6537,19296.84733
D1,Braço do Norte/SC,-28.2728633,-49.1622712,58,171.21266
1,Braço do Trombudo/SC,-27.358578,-49.882145,496,13159.98939
D1,Braço do Trombudo/SC,-27.358578,-49.882145,4,106.12895
1,Braúna/SP,-21.5015319,-50.3175246,326,5678.45323
D1,Braúna/SP,-21.5015319,-50.3175246,12,209.02282
1,Braúnas/MG,-19.055556,-42.716111,142,2977.56343
D1,Braúnas/MG,-19.055556,-42.716111,5,104.84378
1,Brejetuba/ES,-20.1465817,-41.2902303,1339,10774.92557
D1,Brejetuba/ES,-20.1465817,-41.2902303,11,88.51694
1,Brejinho de Nazaré/TO,-11.0205883,-48.5722906,299,5417.64812
D1,Brejinho de Nazaré/TO,-11.0205883,-48.5722906,7,126.83457
1,Brejinho/PE,-7.3482153,-37.28538,383,5114.85043
D1,Brejinho/PE,-7.3482153,-37.28538,4,53.41880
1,Brejinho/RN,-6.1957907,-35.3583019,724,5662.00047
D1,Brejinho/RN,-6.1957907,-35.3583019,7,54.74310
1,Brejo Alegre/SP,-21.1671191,-50.1850393,240,8307.37279
D1,Brejo Alegre/SP,-21.1671191,-50.1850393,10,346.14053
1,Brejo Grande do Araguaia/PA,-5.7011449,-48.4037308,722,9799.13138
D1,Brejo Grande do Araguaia/PA,-5.7011449,-48.4037308,4,54.28882
1,Brejo Grande/SE,-10.4287358,-36.4667918,272,3256.31510
D1,Brejo Grande/SE,-10.4287358,-36.4667918,10,119.71747
1,Brejo Santo/CE,-7.4909841,-38.9859152,5518,11070.98431
D1,Brejo Santo/CE,-7.4909841,-38.9859152,74,148.46916
1,Brejo da Madre de Deus/PE,-8.1409718,-36.3712527,1513,2953.63592
D1,Brejo da Madre de Deus/PE,-8.1409718,-36.3712527,41,80.03904
1,Brejo de Areia/MA,-4.3316785,-45.5833334,280,3106.27912
D1,Brejo de Areia/MA,-4.3316785,-45.5833334,7,77.65698
1,Brejo do Cruz/PB,-6.32926065,-37.48746163303929,1223,8609.03843
D1,Brejo do Cruz/PB,-6.32926065,-37.48746163303929,19,133.74630
1,Brejo do Piauí/PI,-8.207583,-42.8359849,58,1507.27651
D1,Brejo do Piauí/PI,-8.207583,-42.8359849,3,77.96258
1,Brejo dos Santos/PB,-6.3769367,-37.8243125,319,4935.02475
D1,Brejo dos Santos/PB,-6.3769367,-37.8243125,4,61.88119
1,Brejo/MA,-3.6804397,-42.7529313,765,2087.25546
D1,Brejo/MA,-3.6804397,-42.7529313,18,49.11189
1,Brejolândia/BA,-12.4843845,-43.9611861,129,1214.91806
D1,Brejolândia/BA,-12.4843845,-43.9611861,8,75.34376
1,Brejão/PE,-9.029146,-36.566034,140,1557.80572
D1,Brejão/PE,-9.029146,-36.566034,4,44.50873
1,Brejões/BA,-13.1033754,-39.7909837,502,3529.74265
D1,Brejões/BA,-13.1033754,-39.7909837,7,49.21952
1,Breu Branco/PA,-3.7785073,-49.5684795,533,791.59983
D1,Breu Branco/PA,-3.7785073,-49.5684795,31,46.04052
1,Breves/PA,-1.68036,-50.479085,3648,3524.73985
D1,Breves/PA,-1.68036,-50.479085,103,99.51979
1,Britânia/GO,-15.2427599,-51.1602061,394,6796.61894
D1,Britânia/GO,-15.2427599,-51.1602061,2,34.50060
1,Brochier/RS,-29.556766,-51.5963047,320,6269.59248
D1,Brochier/RS,-29.556766,-51.5963047,1,19.59248
1,Brodowski/SP,-20.984532,-47.657217,1530,6052.93350
D1,Brodowski/SP,-20.984532,-47.657217,39,154.29046
1,Brotas de Macaúbas/BA,-12.0019007,-42.6257506,56,552.81343
D1,Brotas de Macaúbas/BA,-12.0019007,-42.6257506,1,9.87167
1,Brotas/SP,-22.2840884,-48.1267265,348,1412.56698
D1,Brotas/SP,-22.2840884,-48.1267265,17,69.00471
1,Brumadinho/MG,-20.143611,-44.2,2506,6162.39610
D1,Brumadinho/MG,-20.143611,-44.2,45,110.65755
1,Brumado/BA,-14.29507325,-41.659307508575985,7177,10658.64706
D1,Brumado/BA,-14.29507325,-41.659307508575985,117,173.75808
1,Brunópolis/SC,-27.310953,-50.837585,158,6672.29730
D1,Brunópolis/SC,-27.310953,-50.837585,4,168.91892
1,Brusque/SC,-27.0964628,-48.9136323,20439,14844.32308
D1,Brusque/SC,-27.0964628,-48.9136323,202,146.70743
1,Brás Pires/MG,-20.8483109,-43.2430524,111,2585.60447
D1,Brás Pires/MG,-20.8483109,-43.2430524,5,116.46867
1,Bueno Brandão/MG,-22.441976,-46.3517971,477,4339.91448
D1,Bueno Brandão/MG,-22.441976,-46.3517971,15,136.47530
1,Buenos Aires/PE,-7.7218931,-35.326587,178,1349.50720
D1,Buenos Aires/PE,-7.7218931,-35.326587,17,128.88552
1,Buenópolis/MG,-17.8756607,-44.1749365,234,2260.21443
D1,Buenópolis/MG,-17.8756607,-44.1749365,7,67.61325
1,Buerarema/BA,-14.9571177,-39.3008035,1156,6314.86944
D1,Buerarema/BA,-14.9571177,-39.3008035,35,191.19414
1,Bugre/MG,-19.4257687,-42.2556,332,8335.42556
D1,Bugre/MG,-19.4257687,-42.2556,10,251.06703
1,Bujari/AC,-9.8309656,-67.9520886,974,9347.40883
D1,Bujari/AC,-9.8309656,-67.9520886,12,115.16315
1,Bujaru/PA,-1.5169239,-48.0410699,1109,3768.64784
D1,Bujaru/PA,-1.5169239,-48.0410699,29,98.54895
1,Buri/SP,-23.79849,-48.598924,1699,8509.89231
D1,Buri/SP,-23.79849,-48.598924,25,125.21913
1,Buritama/SP,-21.0664017,-50.1448077,1559,9021.46867
D1,Buritama/SP,-21.0664017,-50.1448077,40,231.46809
1,Buriti Alegre/GO,-18.1377879,-49.0404411,695,7328.13159
D1,Buriti Alegre/GO,-18.1377879,-49.0404411,25,263.60186
1,Buriti Bravo/MA,-5.8391884,-43.8367876,1088,4544.88492
D1,Buriti Bravo/MA,-5.8391884,-43.8367876,10,41.77284
1,Buriti de Goiás/GO,-16.180644,-50.4287479,164,6623.58643
D1,Buriti de Goiás/GO,-16.180644,-50.4287479,4,161.55089
1,Buriti do Tocantins/TO,-5.3187439,-48.2256609,501,4357.65852
D1,Buriti do Tocantins/TO,-5.3187439,-48.2256609,3,26.09376
1,Buriti dos Lopes/PI,-3.1776723,-41.8707444,1052,5311.25360
D1,Buriti dos Lopes/PI,-3.1776723,-41.8707444,22,111.07184
1,Buriti dos Montes/PI,-5.3136171,-41.0971256,472,5711.51985
D1,Buriti dos Montes/PI,-5.3136171,-41.0971256,4,48.40271
1,Buriti/MA,-3.9430944,-42.9244281,742,2576.56782
D1,Buriti/MA,-3.9430944,-42.9244281,7,24.30724
1,Buriticupu/MA,-4.3227472,-46.4516989,2810,3850.21169
D1,Buriticupu/MA,-4.3227472,-46.4516989,33,45.21601
1,Buritinópolis/GO,-14.4589282,-46.4293104,120,3655.19342
1,Buritirama/BA,-10.7148421,-43.6362327,655,3078.58620
D1,Buritirama/BA,-10.7148421,-43.6362327,15,70.50197
1,Buritirana/MA,-5.5897455,-47.0148915,280,1810.30581
D1,Buritirana/MA,-5.5897455,-47.0148915,21,135.77294
1,Buritis/MG,-15.621389,-46.423889,986,3941.95019
D1,Buritis/MG,-15.621389,-46.423889,18,71.96258
1,Buritis/RO,-10.2054937,-63.8281954,3931,9740.80682
D1,Buritis/RO,-10.2054937,-63.8281954,49,121.41937
1,Buritizal/SP,-20.1933264,-47.7097165,138,3057.15552
D1,Buritizal/SP,-20.1933264,-47.7097165,5,110.76650
1,Buritizeiro/MG,-17.3667765,-44.9647781,752,2674.15810
D1,Buritizeiro/MG,-17.3667765,-44.9647781,17,60.45304
1,Butiá/RS,-30.1256795,-51.9692224,1273,6075.79229
D1,Butiá/RS,-30.1256795,-51.9692224,37,176.59412
1,Buíque/PE,-8.6239732,-37.157296,1623,2754.62924
D1,Buíque/PE,-8.6239732,-37.157296,28,47.52287
1,Bálsamo/SP,-20.7343722,-49.5807484,1117,12222.34380
D1,Bálsamo/SP,-20.7343722,-49.5807484,40,437.68465
0,CASO SEM LOCALIZAÇÃO DEFINIDA/AL,-9.931093434363673,-35.609611600637464,2,0.05993
D0,CASO SEM LOCALIZAÇÃO DEFINIDA/AL,-9.931093434363673,-35.609611600637464,2,0.05993
0,CASO SEM LOCALIZAÇÃO DEFINIDA/BA,-13.415069300066518,-38.14174656569957,9788,65.81025
D0,CASO SEM LOCALIZAÇÃO DEFINIDA/BA,-13.415069300066518,-38.14174656569957,135,0.90768
0,CASO SEM LOCALIZAÇÃO DEFINIDA/CE,-3.3445126297392798,-38.624961942434304,7926,86.79295
0,CASO SEM LOCALIZAÇÃO DEFINIDA/ES,-20.30989267097039,-39.81745156645774,3182,79.18082
D0,CASO SEM LOCALIZAÇÃO DEFINIDA/ES,-20.30989267097039,-39.81745156645774,157,3.90678
0,CASO SEM LOCALIZAÇÃO DEFINIDA/GO,-16.701590966270153,-49.164524059025034,2383,33.95383
D0,CASO SEM LOCALIZAÇÃO DEFINIDA/GO,-16.701590966270153,-49.164524059025034,182,2.59320
0,CASO SEM LOCALIZAÇÃO DEFINIDA/MG,-19.97049116501593,-43.8852149072783,4266,20.15231
D0,CASO SEM LOCALIZAÇÃO DEFINIDA/MG,-19.97049116501593,-43.8852149072783,204,0.96368
0,CASO SEM LOCALIZAÇÃO DEFINIDA/MT,-15.54791153961863,-56.17143998972475,1959,56.22095
D0,CASO SEM LOCALIZAÇÃO DEFINIDA/MT,-15.54791153961863,-56.17143998972475,145,4.16133
0,CASO SEM LOCALIZAÇÃO DEFINIDA/PA,-0.09317078214359542,-48.0050231510481,2513,29.21120
D0,CASO SEM LOCALIZAÇÃO DEFINIDA/PA,-0.09317078214359542,-48.0050231510481,47,0.54633
0,CASO SEM LOCALIZAÇÃO DEFINIDA/PI,-2.683810218391744,-41.470898009352254,1505,45.97909
D0,CASO SEM LOCALIZAÇÃO DEFINIDA/PI,-2.683810218391744,-41.470898009352254,30,0.91653
0,CASO SEM LOCALIZAÇÃO DEFINIDA/PR,-25.69415946385943,-48.10141676336737,5377,47.02659
D0,CASO SEM LOCALIZAÇÃO DEFINIDA/PR,-25.69415946385943,-48.10141676336737,117,1.02327
0,CASO SEM LOCALIZAÇÃO DEFINIDA/RN,-5.749310788669161,-34.95302586257457,1599,45.59644
D0,CASO SEM LOCALIZAÇÃO DEFINIDA/RN,-5.749310788669161,-34.95302586257457,35,0.99805
0,CASO SEM LOCALIZAÇÃO DEFINIDA/RR,2.813328208465927,-60.663338675861986,2493,411.54845
D0,CASO SEM LOCALIZAÇÃO DEFINIDA/RR,2.813328208465927,-60.663338675861986,13,2.14606
0,CASO SEM LOCALIZAÇÃO DEFINIDA/SP,-24.30968974555485,-46.21366504207253,425,0.92554
1,Caapiranga/AM,-3.3188884,-61.2096404,542,4080.40352
D1,Caapiranga/AM,-3.3188884,-61.2096404,20,150.56840
1,Caaporã/PB,-7.510234,-34.9154114,1368,6230.92690
D1,Caaporã/PB,-7.510234,-34.9154114,25,113.86928
1,Caarapó/MS,-22.6349267,-54.8240903,2416,7897.23139
D1,Caarapó/MS,-22.6349267,-54.8240903,21,68.64315
1,Caatiba/BA,-14.9782759,-40.4092325,617,9509.86436
D1,Caatiba/BA,-14.9782759,-40.4092325,7,107.89149
1,Cabaceiras do Paraguaçu/BA,-12.5377868,-39.1901339,381,2014.70044
D1,Cabaceiras do Paraguaçu/BA,-12.5377868,-39.1901339,3,15.86378
1,Cabaceiras/PB,-7.4899156,-36.2860501,297,5246.42289
D1,Cabaceiras/PB,-7.4899156,-36.2860501,1,17.66472
1,Cabeceira Grande/MG,-16.0297,-47.0906,212,3033.77218
D1,Cabeceira Grande/MG,-16.0297,-47.0906,3,42.93074
1,Cabeceiras do Piauí/PI,-4.4733665,-42.3098716,388,3650.04704
D1,Cabeceiras do Piauí/PI,-4.4733665,-42.3098716,9,84.66604
1,Cabeceiras/GO,-15.7995459,-46.9264991,226,2808.84912
D1,Cabeceiras/GO,-15.7995459,-46.9264991,8,99.42829
1,Cabedelo/PB,-6.97324,-34.8351609,6729,9785.21675
D1,Cabedelo/PB,-6.97324,-34.8351609,145,210.85695
1,Cabixi/RO,-13.4956065,-60.5424442,559,10774.86507
D1,Cabixi/RO,-13.4956065,-60.5424442,13,250.57826
1,Cabo Frio/RJ,-22.8804369,-42.0189227,8661,3759.47356
D1,Cabo Frio/RJ,-22.8804369,-42.0189227,396,171.89141
1,Cabo Verde/MG,-21.4743338,-46.3964995,298,2117.22913
D1,Cabo Verde/MG,-21.4743338,-46.3964995,5,35.52398
1,Cabo de Santo Agostinho/PE,-8.2838945,-35.0320984,3805,1821.06210
D1,Cabo de Santo Agostinho/PE,-8.2838945,-35.0320984,351,167.98759
1,Cabreúva/SP,-23.3075813,-47.1324417,2718,5389.75589
D1,Cabreúva/SP,-23.3075813,-47.1324417,61,120.96214
1,Cabrobó/PE,-8.5083701,-39.3106961,1264,3663.44956
D1,Cabrobó/PE,-8.5083701,-39.3106961,13,37.67788
1,Cabrália Paulista/SP,-22.4562909,-49.3385645,188,4430.82724
D1,Cabrália Paulista/SP,-22.4562909,-49.3385645,2,47.13646
1,Cacaulândia/RO,-10.3380043,-62.9007231,654,10432.28585
D1,Cacaulândia/RO,-10.3380043,-62.9007231,8,127.61206
1,Cacequi/RS,-29.8838059,-54.8273443,137,1102.79321
D1,Cacequi/RS,-29.8838059,-54.8273443,4,32.19834
1,Cachoeira Alta/GO,-18.7618269,-50.9432431,1017,8029.36997
D1,Cachoeira Alta/GO,-18.7618269,-50.9432431,14,110.53213
1,Cachoeira Dourada/GO,-18.4934204,-49.481062,315,3922.30108
D1,Cachoeira Dourada/GO,-18.4934204,-49.481062,8,99.61400
1,Cachoeira Dourada/MG,-18.517136,-49.5002062,122,4508.49963
D1,Cachoeira Dourada/MG,-18.517136,-49.5002062,2,73.90983
1,Cachoeira Grande/MA,-2.9290492,-44.0573223,203,2141.80207
D1,Cachoeira Grande/MA,-2.9290492,-44.0573223,5,52.75375
1,Cachoeira Paulista/SP,-22.666498,-45.015384,1471,4380.45323
D1,Cachoeira Paulista/SP,-22.666498,-45.015384,27,80.40261
1,Cachoeira da Prata/MG,-19.524723,-44.453056,192,5346.70008
D1,Cachoeira da Prata/MG,-19.524723,-44.453056,3,83.54219
1,Cachoeira de Goiás/GO,-16.6688414,-50.6435997,46,3427.71982
1,Cachoeira de Minas/MG,-22.3554043,-45.7796324,461,3981.34554
D1,Cachoeira de Minas/MG,-22.3554043,-45.7796324,6,51.81795
1,Cachoeira de Pajeú/MG,-15.965833,-41.496666,293,3103.15611
D1,Cachoeira de Pajeú/MG,-15.965833,-41.496666,7,74.13684
1,Cachoeira do Arari/PA,-1.0143572,-48.9621089,350,1454.45479
D1,Cachoeira do Arari/PA,-1.0143572,-48.9621089,15,62.33378
1,Cachoeira do Piriá/PA,-1.7599443,-46.5446954,666,1924.35494
D1,Cachoeira do Piriá/PA,-1.7599443,-46.5446954,3,8.66827
1,Cachoeira do Sul/RS,-30.0474778,-52.8905413,5151,6291.75879
D1,Cachoeira do Sul/RS,-30.0474778,-52.8905413,79,96.49562
1,Cachoeira dos Índios/PB,-6.9259193,-38.6742159,500,4852.01359
D1,Cachoeira dos Índios/PB,-6.9259193,-38.6742159,13,126.15235
1,Cachoeira/BA,-12.5998256,-38.9665918,1104,3288.94450
D1,Cachoeira/BA,-12.5998256,-38.9665918,17,50.64498
1,Cachoeiras de Macacu/RJ,-22.4626861,-42.6534414,2142,3611.95892
D1,Cachoeiras de Macacu/RJ,-22.4626861,-42.6534414,66,111.29285
1,Cachoeirinha/PE,-8.4906364,-36.2338963,357,1741.37847
D1,Cachoeirinha/PE,-8.4906364,-36.2338963,22,107.31184
1,Cachoeirinha/RS,-29.9493353,-51.0898927,9742,7423.04176
D1,Cachoeirinha/RS,-29.9493353,-51.0898927,294,224.01707
1,Cachoeirinha/TO,-6.118647,-47.9208885,116,5078.80911
D1,Cachoeirinha/TO,-6.118647,-47.9208885,2,87.56567
1,Cachoeiro de Itapemirim/ES,-20.848084,-41.11129,20372,9673.81962
D1,Cachoeiro de Itapemirim/ES,-20.848084,-41.11129,389,184.72000
1,Cacimba de Areia/PB,-7.1288513,-37.1575194,26,703.65359
D1,Cacimba de Areia/PB,-7.1288513,-37.1575194,1,27.06360
1,Cacimba de Dentro/PB,-6.6425101,-35.7929304,817,4756.08336
D1,Cacimba de Dentro/PB,-6.6425101,-35.7929304,21,122.24939
1,Cacimbas/PB,-7.2125451,-37.0593398,184,2555.91054
D1,Cacimbas/PB,-7.2125451,-37.0593398,6,83.34491
1,Cacimbinhas/AL,-9.401212,-36.991082,447,4105.06015
D1,Cacimbinhas/AL,-9.401212,-36.991082,6,55.10148
1,Cacique Doble/RS,-27.7700117,-51.6616409,287,5656.28695
D1,Cacique Doble/RS,-27.7700117,-51.6616409,4,78.83327
1,Cacoal/RO,-11.4333,-61.4420502,9792,11400.23052
D1,Cacoal/RO,-11.4333,-61.4420502,158,183.94980
1,Caconde/SP,-21.527995,-46.643659,827,4350.57078
D1,Caconde/SP,-21.527995,-46.643659,9,47.34599
1,Caculé/BA,-14.4990734,-42.2233006,1072,4602.63621
D1,Caculé/BA,-14.4990734,-42.2233006,10,42.93504
1,Caetanos/BA,-14.3387456,-40.9085971,478,3272.17963
D1,Caetanos/BA,-14.3387456,-40.9085971,6,41.07338
1,Caetanópolis/MG,-19.2947496,-44.4138386,690,5872.84024
D1,Caetanópolis/MG,-19.2947496,-44.4138386,5,42.55681
1,Caetité/BA,-14.0691776,-42.4852428,1632,3194.92571
D1,Caetité/BA,-14.0691776,-42.4852428,13,25.44978
1,Caeté/MG,-19.897777,-43.670278,1244,2761.56015
D1,Caeté/MG,-19.897777,-43.670278,35,77.69663
1,Caetés/PE,-8.7728788,-36.6255835,990,3425.13147
D1,Caetés/PE,-8.7728788,-36.6255835,11,38.05702
1,Cafarnaum/BA,-11.691399,-41.468823,730,3943.17507
D1,Cafarnaum/BA,-11.691399,-41.468823,15,81.02415
1,Cafeara/PR,-22.78905,-51.714195,207,7007.44753
D1,Cafeara/PR,-22.78905,-51.714195,4,135.40961
1,Cafelândia/PR,-24.6176963,-53.3218057,1264,6848.72128
D1,Cafelândia/PR,-24.6176963,-53.3218057,9,48.76463
1,Cafelândia/SP,-21.8054355,-49.6030627,625,3502.77420
D1,Cafelândia/SP,-21.8054355,-49.6030627,27,151.31985
1,Cafezal do Sul/PR,-23.900508,-53.512418,181,4514.84161
D1,Cafezal do Sul/PR,-23.900508,-53.512418,1,24.94388
1,Caiabu/SP,-22.0143038,-51.2356597,62,1478.65490
D1,Caiabu/SP,-22.0143038,-51.2356597,4,95.39709
1,Caiana/MG,-20.695555,-41.924723,109,1967.15394
D1,Caiana/MG,-20.695555,-41.924723,2,36.09457
1,Caiapônia/GO,-16.9538779,-51.8090761,801,4192.18088
D1,Caiapônia/GO,-16.9538779,-51.8090761,24,125.60842
1,Caibaté/RS,-28.290475,-54.645407,111,2301.47211
D1,Caibaté/RS,-28.290475,-54.645407,7,145.13788
1,Caibi/SC,-27.0751925,-53.2502133,490,7993.47471
D1,Caibi/SC,-27.0751925,-53.2502133,9,146.81892
1,Caicó/RN,-6.4594544,-37.0971911,8387,12271.92251
D1,Caicó/RN,-6.4594544,-37.0971911,100,146.32076
1,Caieiras/SP,-23.3644621,-46.7484765,5410,5263.92605
D1,Caieiras/SP,-23.3644621,-46.7484765,173,168.32887
1,Cairu/BA,-13.4860505,-39.0455744,986,5350.84387
D1,Cairu/BA,-13.4860505,-39.0455744,9,48.84137
1,Caiuá/SP,-21.8319357,-51.9887179,201,3380.42381
D1,Caiuá/SP,-21.8319357,-51.9887179,3,50.45409
1,Caiçara do Norte/RN,-5.0645017,-36.0561226,243,3703.70370
D1,Caiçara do Norte/RN,-5.0645017,-36.0561226,5,76.20790
1,Caiçara do Rio do Vento/RN,-5.757968,-36.00089,179,4818.30417
D1,Caiçara do Rio do Vento/RN,-5.757968,-36.00089,6,161.50740
1,Caiçara/PB,-6.6146866,-35.4681434,564,7843.13725
D1,Caiçara/PB,-6.6146866,-35.4681434,12,166.87526
1,Caiçara/RS,-27.2750478,-53.4310053,380,8085.10638
D1,Caiçara/RS,-27.2750478,-53.4310053,7,148.93617
1,Cajamar/SP,-23.3561111,-46.8769444,2977,3819.89889
D1,Cajamar/SP,-23.3561111,-46.8769444,114,146.27762
1,Cajapió/MA,-2.8778715,-44.6746871,68,606.27675
D1,Cajapió/MA,-2.8778715,-44.6746871,3,26.74750
1,Cajari/MA,-3.3213076,-45.0118757,136,699.19284
D1,Cajari/MA,-3.3213076,-45.0118757,4,20.56450
1,Cajati/SP,-24.7272376,-48.1077914,2739,9612.55001
D1,Cajati/SP,-24.7272376,-48.1077914,62,217.58967
1,Cajazeiras do Piauí/PI,-6.794271,-42.3935024,30,839.63056
D1,Cajazeiras do Piauí/PI,-6.794271,-42.3935024,1,27.98769
1,Cajazeiras/PB,-6.8897849,-38.5570389,5909,9486.42617
D1,Cajazeiras/PB,-6.8897849,-38.5570389,107,171.77993
1,Cajazeirinhas/PB,-6.961442,-37.7993733,106,3307.33229
1,Cajobi/SP,-20.8776238,-48.8106972,582,5492.63873
D1,Cajobi/SP,-20.8776238,-48.8106972,21,198.18800
1,Cajueiro da Praia/PI,-2.931114,-41.340801,463,6033.35940
D1,Cajueiro da Praia/PI,-2.931114,-41.340801,12,156.37217
1,Cajueiro/AL,-9.399589,-36.1524309,462,2165.86189
D1,Cajueiro/AL,-9.399589,-36.1524309,18,84.38423
1,Cajuri/MG,-20.7901414,-42.7954489,221,5561.14746
D1,Cajuri/MG,-20.7901414,-42.7954489,1,25.16356
1,Cajuru/SP,-21.2759978,-47.3046035,573,2171.03020
D1,Cajuru/SP,-21.2759978,-47.3046035,19,71.98878
1,Caldas Brandão/PB,-7.1027959,-35.3254676,428,7079.06054
D1,Caldas Brandão/PB,-7.1027959,-35.3254676,6,99.23917
1,Caldas Novas/GO,-17.745,-48.625,6363,6827.54625
D1,Caldas Novas/GO,-17.745,-48.625,142,152.36705
1,Caldas/MG,-21.923611,-46.386111,513,3527.95544
D1,Caldas/MG,-21.923611,-46.386111,13,89.40238
1,Caldazinha/GO,-16.7116649,-49.0012601,187,4859.66736
D1,Caldazinha/GO,-16.7116649,-49.0012601,2,51.97505
1,Caldeirão Grande do Piauí/PI,-7.3310393,-40.6374433,250,4324.51133
D1,Caldeirão Grande do Piauí/PI,-7.3310393,-40.6374433,3,51.89414
1,Caldeirão Grande/BA,-11.0208483,-40.3041387,533,3980.28527
D1,Caldeirão Grande/BA,-11.0208483,-40.3041387,6,44.80621
1,Califórnia/PR,-23.6672543,-51.3554556,689,8006.04230
D1,Califórnia/PR,-23.6672543,-51.3554556,13,151.05740
1,Calmon/SC,-26.6023644,-51.0992893,21,629.68516
D1,Calmon/SC,-26.6023644,-51.0992893,2,59.97001
1,Calumbi/PE,-7.9389746,-38.1516871,378,6577.34470
D1,Calumbi/PE,-7.9389746,-38.1516871,2,34.80077
1,Calçado/PE,-8.7413446,-36.3351787,300,2722.81721
D1,Calçado/PE,-8.7413446,-36.3351787,2,18.15211
1,Calçoene/AP,2.4981757,-50.9539503,1580,13974.88059
D1,Calçoene/AP,2.4981757,-50.9539503,9,79.60375
1,Camacan/BA,-15.4166631,-39.4930088,2219,6933.07505
D1,Camacan/BA,-15.4166631,-39.4930088,50,156.22071
1,Camacho/MG,-20.625556,-45.156667,49,1707.91216
D1,Camacho/MG,-20.625556,-45.156667,1,34.85535
1,Camalaú/PB,-7.885031,-36.824191,300,4974.29945
D1,Camalaú/PB,-7.885031,-36.824191,5,82.90499
1,Camamu/BA,-13.9438142,-39.1060917,1843,5208.86326
D1,Camamu/BA,-13.9438142,-39.1060917,36,101.74665
1,Camanducaia/MG,-22.755278,-46.144444,2130,9770.19403
D1,Camanducaia/MG,-22.755278,-46.144444,35,160.54309
1,Camapuã/MS,-19.5291747,-54.0434641,492,3593.07675
D1,Camapuã/MS,-19.5291747,-54.0434641,15,109.54502
1,Camaquã/RS,-30.8524752,-51.8075619,4625,6957.18884
D1,Camaquã/RS,-30.8524752,-51.8075619,88,132.37462
1,Camaragibe/PE,-8.0213832,-34.9810768,3998,2516.06366
D1,Camaragibe/PE,-8.0213832,-34.9810768,267,168.03127
1,Camargo/RS,-28.5865661,-52.2031474,269,9810.35740
D1,Camargo/RS,-28.5865661,-52.2031474,4,145.87892
1,Camaçari/BA,-12.6998188,-38.3260762,18792,6175.44413
D1,Camaçari/BA,-12.6998188,-38.3260762,428,140.64975
1,Cambará do Sul/RS,-29.0489517,-50.145412,278,4339.68155
D1,Cambará do Sul/RS,-29.0489517,-50.145412,4,62.44146
1,Cambará/PR,-23.042273,-50.075281,1595,6263.25296
D1,Cambará/PR,-23.042273,-50.075281,19,74.60928
1,Cambira/PR,-23.600265,-51.581045,514,6492.35822
D1,Cambira/PR,-23.600265,-51.581045,12,151.57257
1,Camboriú/SC,-27.0273601,-48.6535657,10439,12266.02432
D1,Camboriú/SC,-27.0273601,-48.6535657,122,143.35233
1,Cambuci/RJ,-21.5749919,-41.9107833,613,3951.26982
D1,Cambuci/RJ,-21.5749919,-41.9107833,16,103.13265
1,Cambuquira/MG,-21.853056,-45.2953619,323,2521.07399
D1,Cambuquira/MG,-21.853056,-45.2953619,10,78.05183
1,Cambuí/MG,-22.6122501,-46.0572137,1888,6332.59542
D1,Cambuí/MG,-22.6122501,-46.0572137,29,97.26974
1,Cambé/PR,-23.2782035,-51.2779583,8242,7678.33354
D1,Cambé/PR,-23.2782035,-51.2779583,136,126.69902
1,Cametá/PA,-2.242949,-49.497885,6518,4676.96105
D1,Cametá/PA,-2.242949,-49.497885,155,111.21954
1,Camocim de São Félix/PE,-8.3616757,-35.7638903,370,1957.67196
D1,Camocim de São Félix/PE,-8.3616757,-35.7638903,11,58.20106
1,Camocim/CE,-2.9009918,-40.8427389,3683,5763.06195
D1,Camocim/CE,-2.9009918,-40.8427389,113,176.81944
1,Campanha/MG,-21.8361108,-45.401986,956,5703.37669
D1,Campanha/MG,-21.8361108,-45.401986,21,125.28338
1,Campanário/MG,-18.2398144,-41.7271768,140,3753.35121
D1,Campanário/MG,-18.2398144,-41.7271768,1,26.80965
1,Campestre da Serra/RS,-28.7966535,-51.0958149,131,3858.61561
1,Campestre de Goiás/GO,-16.7624179,-49.69497,360,9865.71663
D1,Campestre de Goiás/GO,-16.7624179,-49.69497,8,219.23815
1,Campestre do Maranhão/MA,-6.1729113,-47.3640512,818,5659.72462
D1,Campestre do Maranhão/MA,-6.1729113,-47.3640512,34,235.24528
1,Campestre/AL,-8.8481634,-35.5660033,220,3163.64682
D1,Campestre/AL,-8.8481634,-35.5660033,6,86.28128
1,Campestre/MG,-19.6142116,-43.219378,713,3386.52988
D1,Campestre/MG,-19.6142116,-43.219378,13,61.74599
1,Campina Grande do Sul/PR,-25.3046032,-49.0545355,3888,8900.08012
D1,Campina Grande do Sul/PR,-25.3046032,-49.0545355,62,141.92515
1,Campina Grande/PB,-7.2246743,-35.8771292,24242,5886.73821
D1,Campina Grande/PB,-7.2246743,-35.8771292,694,168.52555
1,Campina Verde/MG,-19.535277,-49.486389,676,3422.43823
D1,Campina Verde/MG,-19.535277,-49.486389,22,111.38113
1,Campina da Lagoa/PR,-24.5937926,-52.8038965,653,4650.00356
D1,Campina da Lagoa/PR,-24.5937926,-52.8038965,13,92.57281
1,Campina das Missões/RS,-27.9883295,-54.8411665,339,6280.10374
D1,Campina das Missões/RS,-27.9883295,-54.8411665,7,129.67766
1,Campina do Monte Alegre/SP,-23.5935653,-48.4801876,298,4919.92736
D1,Campina do Monte Alegre/SP,-23.5935653,-48.4801876,1,16.50982
1,Campina do Simão/PR,-25.1086375,-51.8076658,191,4949.46877
D1,Campina do Simão/PR,-25.1086375,-51.8076658,6,155.48069
1,Campinas do Piauí/PI,-7.6593687,-41.8814875,136,2419.92883
D1,Campinas do Piauí/PI,-7.6593687,-41.8814875,1,17.79359
1,Campinas do Sul/RS,-27.7167968,-52.6257885,363,6675.24825
D1,Campinas do Sul/RS,-27.7167968,-52.6257885,5,91.94557
1,Campinas/SP,-22.90556,-47.06083,68702,5660.11310
D1,Campinas/SP,-22.90556,-47.06083,2464,203.00018
1,Campinaçu/GO,-13.7869969,-48.5703841,167,4598.01762
