type,name,lat,lon,total,total_per_100k_inhabitants
1,Abadia de Goiás/GO,-16.7572644,-49.4412205,2745,29973.79340
D1,Abadia de Goiás/GO,-16.7572644,-49.4412205,45,491.37366
1,Abadia dos Dourados/MG,-18.4911191,-47.4063589,1410,20079.74936
D1,Abadia dos Dourados/MG,-18.4911191,-47.4063589,20,284.81914
1,Abadiânia/GO,-16.1940946,-48.7067767,1218,5835.28961
D1,Abadiânia/GO,-16.1940946,-48.7067767,52,249.12566
1,Abaetetuba/PA,-1.721828,-48.878843,10516,6554.51605
D1,Abaetetuba/PA,-1.721828,-48.878843,235,146.47311
1,Abaeté/MG,-19.1566833,-45.4481213,3132,13463.43980
D1,Abaeté/MG,-19.1566833,-45.4481213,46,197.73890
1,Abaiara/CE,-7.3607808,-39.0487878,985,8232.34434
D1,Abaiara/CE,-7.3607808,-39.0487878,19,158.79649
1,Abaré/BA,-8.7239913,-39.1139689,2222,10789.55035
D1,Abaré/BA,-8.7239913,-39.1139689,17,82.54832
1,Abatiá/PR,-23.3052967,-50.3102532,1564,21250.00000
D1,Abatiá/PR,-23.3052967,-50.3102532,23,312.50000
1,Abaíra/BA,-13.2503296,-41.6640342,330,3801.40537
D1,Abaíra/BA,-13.2503296,-41.6640342,17,195.82997
1,Abdon Batista/SC,-27.612419,-51.022992,507,20007.89266
D1,Abdon Batista/SC,-27.612419,-51.022992,4,157.85320
1,Abel Figueiredo/PA,-4.953001,-48.3958485,1294,17170.91295
D1,Abel Figueiredo/PA,-4.953001,-48.3958485,12,159.23567
1,Abelardo Luz/SC,-26.5705893,-52.3280339,2111,11718.01277
D1,Abelardo Luz/SC,-26.5705893,-52.3280339,67,371.91230
1,Abre Campo/MG,-20.2976097,-42.4764741,1909,14210.21289
D1,Abre Campo/MG,-20.2976097,-42.4764741,18,133.98839
1,Abreu e Lima/PE,-7.900719,-34.898389,4550,4518.46114
D1,Abreu e Lima/PE,-7.900719,-34.898389,253,251.24630
1,Abreulândia/TO,-9.6221526,-49.1558343,443,16979.68570
D1,Abreulândia/TO,-9.6221526,-49.1558343,8,306.63089
1,Acaiaca/MG,-20.3621646,-43.1444162,270,6758.44806
D1,Acaiaca/MG,-20.3621646,-43.1444162,12,300.37547
1,Acajutiba/BA,-11.6609659,-38.0186381,627,4121.20415
D1,Acajutiba/BA,-11.6609659,-38.0186381,24,157.74944
1,Acarape/CE,-4.2237866,-38.7071663,3176,20977.54293
D1,Acarape/CE,-4.2237866,-38.7071663,36,237.78071
1,Acaraú/CE,-2.8869514,-40.1194713,6587,10364.08836
D1,Acaraú/CE,-2.8869514,-40.1194713,120,188.80987
1,Acari/RN,-6.4364689,-36.6394777,1328,11957.50045
D1,Acari/RN,-6.4364689,-36.6394777,24,216.09941
1,Acará/PA,-1.961388,-48.1987043,2152,3860.50517
D1,Acará/PA,-1.961388,-48.1987043,41,73.55052
1,Acauã/PI,-8.219542,-41.083059,228,3202.69701
D1,Acauã/PI,-8.219542,-41.083059,2,28.09383
1,Aceguá/RS,-31.8695131,-54.1615593,740,14856.45453
D1,Aceguá/RS,-31.8695131,-54.1615593,8,160.61032
1,Acopiara/CE,-6.0936464,-39.4543204,5253,9605.57354
D1,Acopiara/CE,-6.0936464,-39.4543204,163,298.05987
1,Acorizal/MT,-15.2001544,-56.3668953,1175,22132.22829
D1,Acorizal/MT,-15.2001544,-56.3668953,24,452.06254
1,Acrelândia/AC,-10.0759167,-67.0526898,2840,18065.00859
D1,Acrelândia/AC,-10.0759167,-67.0526898,39,248.07582
1,Acreúna/GO,-17.3959899,-50.3749031,4614,20317.04095
D1,Acreúna/GO,-17.3959899,-50.3749031,81,356.67107
1,Adamantina/SP,-21.6866517,-51.0762975,6788,19309.87398
D1,Adamantina/SP,-21.6866517,-51.0762975,166,472.22143
1,Adelândia/GO,-16.4155077,-50.1665834,473,18807.15706
D1,Adelândia/GO,-16.4155077,-50.1665834,4,159.04573
1,Adolfo/SP,-21.2356597,-49.6441918,639,18025.38787
D1,Adolfo/SP,-21.2356597,-49.6441918,23,648.80113
1,Adrianópolis/PR,-24.6557863,-48.9912769,1838,31706.05486
D1,Adrianópolis/PR,-24.6557863,-48.9912769,30,517.50906
1,Adustina/BA,-10.5358875,-38.114479,1360,7902.84154
D1,Adustina/BA,-10.5358875,-38.114479,28,162.70556
1,Afogados da Ingazeira/PE,-7.750429,-37.6356375,7985,21267.24551
D1,Afogados da Ingazeira/PE,-7.750429,-37.6356375,78,207.74517
1,Afonso Bezerra/RN,-5.4745,-36.57625071327935,1094,9923.80261
D1,Afonso Bezerra/RN,-5.4745,-36.57625071327935,18,163.28012
1,Afonso Cláudio/ES,-20.077841,-41.12606,7157,23600.21104
D1,Afonso Cláudio/ES,-20.077841,-41.12606,82,270.39504
1,Afonso Cunha/MA,-4.1326105,-43.3230026,301,4539.28518
D1,Afonso Cunha/MA,-4.1326105,-43.3230026,3,45.24204
1,Afrânio/PE,-8.5198919,-41.0070197,1331,6661.32826
D1,Afrânio/PE,-8.5198919,-41.0070197,16,80.07607
1,Afuá/PA,-0.1535664,-50.3879223,3490,8744.67552
D1,Afuá/PA,-0.1535664,-50.3879223,16,40.09020
1,Agrestina/PE,-8.4558021,-35.9442663,2598,10293.18542
D1,Agrestina/PE,-8.4558021,-35.9442663,71,281.29952
1,Agricolândia/PI,-5.7967843,-42.6605131,829,16181.92465
D1,Agricolândia/PI,-5.7967843,-42.6605131,10,195.19813
1,Agrolândia/SC,-27.4122212,-49.8295774,2252,20179.21147
D1,Agrolândia/SC,-27.4122212,-49.8295774,33,295.69892
1,Agronômica/SC,-27.2660744,-49.7104753,1160,20825.85278
D1,Agronômica/SC,-27.2660744,-49.7104753,15,269.29982
1,Aguanil/MG,-20.9424533,-45.3927152,1249,27408.38271
D1,Aguanil/MG,-20.9424533,-45.3927152,8,175.55409
1,Aguaí/SP,-22.0592036,-46.979384,5514,14910.35937
D1,Aguaí/SP,-22.0592036,-46.979384,129,348.82778
1,Agudo/RS,-29.6423259,-53.2494005,2954,18073.91092
D1,Agudo/RS,-29.6423259,-53.2494005,36,220.26432
1,Agudos do Sul/PR,-25.9890808,-49.3328175,1490,15574.37023
D1,Agudos do Sul/PR,-25.9890808,-49.3328175,34,355.38831
1,Agudos/SP,-22.471162,-48.987822,5793,15414.29408
D1,Agudos/SP,-22.471162,-48.987822,118,313.98010
1,Aguiar/PB,-7.0928404,-38.1727215,841,14959.08929
D1,Aguiar/PB,-7.0928404,-38.1727215,7,124.51085
1,Aguiarnópolis/TO,-6.5600452,-47.4721189,963,13661.51227
D1,Aguiarnópolis/TO,-6.5600452,-47.4721189,14,198.60973
1,Aimorés/MG,-19.4917754,-41.0615603,3363,13389.87100
D1,Aimorés/MG,-19.4917754,-41.0615603,82,326.48511
1,Aiquara/BA,-14.126918,-39.8887574,605,13790.74538
D1,Aiquara/BA,-14.126918,-39.8887574,12,273.53545
1,Aiuaba/CE,-6.5710836,-40.1212278,1180,6710.64604
D1,Aiuaba/CE,-6.5710836,-40.1212278,16,90.99181
1,Aiuruoca/MG,-21.9759554,-44.6036637,725,12186.92217
D1,Aiuruoca/MG,-21.9759554,-44.6036637,12,201.71457
1,Ajuricaba/RS,-28.239654,-53.7693013,1684,24226.72997
D1,Ajuricaba/RS,-28.239654,-53.7693013,36,517.91109
1,Alagoa Grande/PB,-7.0415212,-35.6285322,5391,18993.09470
D1,Alagoa Grande/PB,-7.0415212,-35.6285322,77,271.27959
1,Alagoa Nova/PB,-7.0653703,-35.76695977336711,2772,13205.03049
D1,Alagoa Nova/PB,-7.0653703,-35.76695977336711,37,176.25762
1,Alagoa/MG,-22.1697202,-44.6400042,658,24764.77230
D1,Alagoa/MG,-22.1697202,-44.6400042,8,301.09146
1,Alagoinha do Piauí/PI,-7.0090952,-40.939675,402,5235.73847
D1,Alagoinha do Piauí/PI,-7.0090952,-40.939675,13,169.31493
1,Alagoinha/PB,-6.97063215,-35.51490901897793,2430,16610.84148
D1,Alagoinha/PB,-6.97063215,-35.51490901897793,26,177.72917
1,Alagoinha/PE,-8.50355635,-36.77701174370496,1957,13224.76010
D1,Alagoinha/PE,-8.50355635,-36.77701174370496,31,209.48777
1,Alagoinhas/BA,-12.133526,-38.420772,17366,11348.62080
D1,Alagoinhas/BA,-12.133526,-38.420772,345,225.45630
1,Alambari/SP,-23.550338,-47.897971,1037,16642.59348
D1,Alambari/SP,-23.550338,-47.897971,13,208.63425
1,Albertina/MG,-20.66164,-43.784039,630,20895.52239
D1,Albertina/MG,-20.66164,-43.784039,11,364.84245
1,Alcantil/PB,-7.7425491,-36.0609604,1177,21295.45866
D1,Alcantil/PB,-7.7425491,-36.0609604,9,162.83698
1,Alcinópolis/MS,-18.3264121,-53.7094463,750,13663.69102
D1,Alcinópolis/MS,-18.3264121,-53.7094463,12,218.61906
1,Alcobaça/BA,-17.5215875,-39.1965474,2222,9871.60691
D1,Alcobaça/BA,-17.5215875,-39.1965474,32,142.16536
1,Alcântara/MA,-2.4038956,-44.4154241,337,1523.09500
D1,Alcântara/MA,-2.4038956,-44.4154241,20,90.39139
1,Alcântaras/CE,-3.586247,-40.5457641,2112,17828.80297
D1,Alcântaras/CE,-3.586247,-40.5457641,23,194.15837
1,Aldeias Altas/MA,-4.6291957,-43.4708622,1023,3791.83810
D1,Aldeias Altas/MA,-4.6291957,-43.4708622,14,51.89221
1,Alecrim/RS,-27.6566142,-54.7653195,591,10350.26270
D1,Alecrim/RS,-27.6566142,-54.7653195,13,227.67075
1,Alegre/ES,-20.7625787,-41.5318886,7056,23623.15444
D1,Alegre/ES,-20.7625787,-41.5318886,83,277.88008
1,Alegrete do Piauí/PI,-7.2440138,-40.8602296,553,11237.55334
D1,Alegrete do Piauí/PI,-7.2440138,-40.8602296,9,182.88966
1,Alegrete/RS,-29.790166,-55.794862,14263,19675.00310
D1,Alegrete/RS,-29.790166,-55.794862,322,444.18082
1,Alegria/RS,-27.8332103,-54.0574959,525,15972.01095
D1,Alegria/RS,-27.8332103,-54.0574959,5,152.11439
1,Alenquer/PA,-1.946229,-54.738355,4727,8236.62659
D1,Alenquer/PA,-1.946229,-54.738355,158,275.30929
1,Alexandria/RN,-6.414779,-38.0135516,2394,17695.32116
D1,Alexandria/RN,-6.414779,-38.0135516,32,236.52894
1,Alexânia/GO,-16.0834049,-48.5077803,5713,20144.56982
D1,Alexânia/GO,-16.0834049,-48.5077803,110,387.87024
1,Alfenas/MG,-21.4297405,-45.9479419,17601,21736.87525
D1,Alfenas/MG,-21.4297405,-45.9479419,240,296.39509
1,Alfredo Chaves/ES,-20.624970400000002,-40.75006690147988,4307,29359.23654
D1,Alfredo Chaves/ES,-20.624970400000002,-40.75006690147988,47,320.38173
1,Alfredo Marcondes/SP,-21.9527,-51.413956,294,6998.33373
D1,Alfredo Marcondes/SP,-21.9527,-51.413956,16,380.86170
1,Alfredo Vasconcelos/MG,-21.145833,-43.776389,1143,16208.16790
D1,Alfredo Vasconcelos/MG,-21.145833,-43.776389,16,226.88599
1,Alfredo Wagner/SC,-27.6961513,-49.3326734,1400,13812.15470
D1,Alfredo Wagner/SC,-27.6961513,-49.3326734,12,118.38990
1,Algodão de Jandaíra/PB,-6.9040175,-36.0089879,431,16653.78671
D1,Algodão de Jandaíra/PB,-6.9040175,-36.0089879,1,38.63988
1,Alhandra/PB,-7.4304246,-34.9106103,2879,14492.82658
D1,Alhandra/PB,-7.4304246,-34.9106103,47,236.59703
1,Aliança do Tocantins/TO,-11.3055927,-48.9409096,1183,22308.12748
D1,Aliança do Tocantins/TO,-11.3055927,-48.9409096,25,471.43127
1,Aliança/PE,-7.60398,-35.222696,2018,5254.11373
D1,Aliança/PE,-7.60398,-35.222696,77,200.47907
1,Almadina/BA,-14.70466,-39.6381994,768,14564.76389
D1,Almadina/BA,-14.70466,-39.6381994,12,227.57444
1,Almas/TO,-11.5681309,-47.1702803,310,4489.50036
D1,Almas/TO,-11.5681309,-47.1702803,5,72.41130
1,Almeirim/PA,-1.5290377,-52.5788111,4371,12839.26683
D1,Almeirim/PA,-1.5290377,-52.5788111,54,158.61826
1,Almenara/MG,-16.1740678,-40.6904907,6619,15618.21614
D1,Almenara/MG,-16.1740678,-40.6904907,64,151.01463
1,Almino Afonso/RN,-6.1544208,-37.7649018,731,15602.98826
D1,Almino Afonso/RN,-6.1544208,-37.7649018,14,298.82604
1,Almirante Tamandaré do Sul/RS,-28.1141129,-52.9134874,515,26614.98708
D1,Almirante Tamandaré do Sul/RS,-28.1141129,-52.9134874,7,361.75711
1,Almirante Tamandaré/PR,-25.3133048,-49.2997838,14943,12306.86872
D1,Almirante Tamandaré/PR,-25.3133048,-49.2997838,447,368.14363
1,Aloândia/GO,-17.7277983,-49.4809338,338,17105.26316
D1,Aloândia/GO,-17.7277983,-49.4809338,11,556.68016
1,Alpercata/MG,-18.9803616,-41.9827637,583,7827.60473
D1,Alpercata/MG,-18.9803616,-41.9827637,23,308.80773
1,Alpestre/RS,-27.2512339,-53.0349646,1161,19728.12234
D1,Alpestre/RS,-27.2512339,-53.0349646,17,288.87001
1,Alpinópolis/MG,-20.863611,-46.387777,3842,19153.49718
D1,Alpinópolis/MG,-20.863611,-46.387777,51,254.24996
1,Alta Floresta D'Oeste/RO,-11.9296917,-61.9961284,7893,35055.07195
D1,Alta Floresta D'Oeste/RO,-11.9296917,-61.9961284,78,346.42032
1,Alta Floresta/MT,-9.8715018,-56.0839881,13112,25164.57154
D1,Alta Floresta/MT,-9.8715018,-56.0839881,166,318.58747
1,Altair/SP,-20.5238955,-49.0606135,320,7599.14510
D1,Altair/SP,-20.5238955,-49.0606135,17,403.70458
1,Altamira do Maranhão/MA,-4.1643006,-45.4674574,497,6024.24242
D1,Altamira do Maranhão/MA,-4.1643006,-45.4674574,15,181.81818
1,Altamira do Paraná/PR,-24.799114,-52.7128633,493,34499.65010
D1,Altamira do Paraná/PR,-24.799114,-52.7128633,14,979.70609
1,Altamira/PA,-3.204065,-52.209961,20957,17863.10944
D1,Altamira/PA,-3.204065,-52.209961,349,297.47699
1,Altaneira/CE,-6.9980933,-39.7385742,868,11255.18672
D1,Altaneira/CE,-6.9980933,-39.7385742,19,246.36929
1,Alterosa/MG,-21.249166,-46.143055,1577,10826.58245
D1,Alterosa/MG,-21.249166,-46.143055,41,281.47741
1,Altinho/PE,-8.4904095,-36.0607494,1677,7292.57262
D1,Altinho/PE,-8.4904095,-36.0607494,30,130.45747
1,Altinópolis/SP,-21.021364,-47.3712,1226,7558.10369
D1,Altinópolis/SP,-21.021364,-47.3712,65,400.71512
1,Alto Alegre do Maranhão/MA,-4.2055693,-44.4525287,1975,7036.98425
D1,Alto Alegre do Maranhão/MA,-4.2055693,-44.4525287,29,103.32787
1,Alto Alegre do Pindaré/MA,-3.6698186,-45.8462153,2354,7363.84396
D1,Alto Alegre do Pindaré/MA,-3.6698186,-45.8462153,55,172.05243
1,Alto Alegre dos Parecis/RO,-12.1314515,-61.856265,2223,16754.59753
D1,Alto Alegre dos Parecis/RO,-12.1314515,-61.856265,49,369.30962
1,Alto Alegre/RR,2.98858,-61.307167,2196,14400.94432
D1,Alto Alegre/RR,2.98858,-61.307167,39,255.75448
1,Alto Alegre/RS,-31.780844700000003,-52.81311114489171,387,24339.62264
D1,Alto Alegre/RS,-31.780844700000003,-52.81311114489171,2,125.78616
1,Alto Alegre/SP,-21.5820592,-50.1661976,407,9980.38254
D1,Alto Alegre/SP,-21.5820592,-50.1661976,23,564.00196
1,Alto Araguaia/MT,-17.3156528,-53.2169365,2754,13969.76768
D1,Alto Araguaia/MT,-17.3156528,-53.2169365,34,172.46627
1,Alto Bela Vista/SC,-27.4320737,-51.905771,412,21514.36031
D1,Alto Bela Vista/SC,-27.4320737,-51.905771,3,156.65796
1,Alto Boa Vista/MT,-11.6723985,-51.3744431,1270,17907.50141
D1,Alto Boa Vista/MT,-11.6723985,-51.3744431,19,267.90750
1,Alto Caparaó/MG,-20.4405661,-41.8683799,554,9329.74065
D1,Alto Caparaó/MG,-20.4405661,-41.8683799,9,151.56618
1,Alto Feliz/RS,-29.3785943,-51.3123751,643,21130.46336
D1,Alto Feliz/RS,-29.3785943,-51.3123751,4,131.44923
1,Alto Garças/MT,-16.9469683,-53.529427,1442,11701.69602
D1,Alto Garças/MT,-16.9469683,-53.529427,43,348.94100
1,Alto Horizonte/GO,-14.1954948,-49.3366993,2122,31224.24956
D1,Alto Horizonte/GO,-14.1954948,-49.3366993,16,235.43261
1,Alto Jequitibá/MG,-20.423611,-41.966111,1356,16364.95293
D1,Alto Jequitibá/MG,-20.423611,-41.966111,13,156.89114
1,Alto Longá/PI,-5.2549051,-42.2072388,857,5963.39851
D1,Alto Longá/PI,-5.2549051,-42.2072388,15,104.37687
1,Alto Paraguai/MT,-14.513712,-56.4936374,955,8241.99534
D1,Alto Paraguai/MT,-14.513712,-56.4936374,31,267.54121
1,Alto Paraná/PR,-23.131247,-52.318893,2642,17678.15323
D1,Alto Paraná/PR,-23.131247,-52.318893,27,180.66243
1,Alto Paraíso de Goiás/GO,-14.1304779,-47.5100161,1226,15817.31389
D1,Alto Paraíso de Goiás/GO,-14.1304779,-47.5100161,9,116.11405
1,Alto Paraíso/PR,-23.508137,-53.728537,923,35095.05703
D1,Alto Paraíso/PR,-23.508137,-53.728537,10,380.22814
1,Alto Paraíso/RO,-9.7240103,-63.3188123,3551,15953.81436
D1,Alto Paraíso/RO,-9.7240103,-63.3188123,63,283.04430
1,Alto Parnaíba/MA,-9.112506,-45.9310154,1021,9089.29048
D1,Alto Parnaíba/MA,-9.112506,-45.9310154,11,97.92575
1,Alto Piquiri/PR,-24.0239021,-53.4417448,2329,23955.97614
D1,Alto Piquiri/PR,-24.0239021,-53.4417448,31,318.86443
1,Alto Rio Doce/MG,-21.0239537,-43.4133507,930,8672.94600
D1,Alto Rio Doce/MG,-21.0239537,-43.4133507,31,289.09820
1,Alto Rio Novo/ES,-19.0577208,-41.0171518,1430,18076.09657
D1,Alto Rio Novo/ES,-19.0577208,-41.0171518,28,353.93756
1,Alto Santo/CE,-5.5190371,-38.2719351,2523,15693.22635
D1,Alto Santo/CE,-5.5190371,-38.2719351,41,255.02270
1,Alto Taquari/MT,-17.8269099,-53.2831736,1672,14649.96057
D1,Alto Taquari/MT,-17.8269099,-53.2831736,29,254.09621
1,Alto do Rodrigues/RN,-5.290868,-36.7616726,3525,23621.25578
D1,Alto do Rodrigues/RN,-5.290868,-36.7616726,43,288.14582
1,Altos/PI,-5.0393915,-42.4611694,5556,13657.48138
D1,Altos/PI,-5.0393915,-42.4611694,106,260.56390
1,Altônia/PR,-23.8722004,-53.894037,4207,18871.39461
D1,Altônia/PR,-23.8722004,-53.894037,53,237.74279
1,Alumínio/SP,-23.5203479,-47.2575256,1678,8876.89785
D1,Alumínio/SP,-23.5203479,-47.2575256,55,290.95911
1,Alvarenga/MG,-19.4175,-41.728334,541,14300.81946
D1,Alvarenga/MG,-19.4175,-41.728334,6,158.60428
1,Alvarães/AM,-3.214786,-64.8143124,3704,22590.87582
D1,Alvarães/AM,-3.214786,-64.8143124,46,280.55623
1,Alvinlândia/SP,-22.4431852,-49.7643596,148,4552.44540
D1,Alvinlândia/SP,-22.4431852,-49.7643596,9,276.83790
1,Alvinópolis/MG,-20.1105199,-43.0601805,1886,12461.18269
D1,Alvinópolis/MG,-20.1105199,-43.0601805,25,165.18005
1,Alvorada D'Oeste/RO,-11.346271,-62.284697,2012,14572.31839
D1,Alvorada D'Oeste/RO,-11.346271,-62.284697,36,260.73731
1,Alvorada de Minas/MG,-18.7318587,-43.3641479,455,12621.35922
D1,Alvorada de Minas/MG,-18.7318587,-43.3641479,4,110.95700
1,Alvorada do Gurguéia/PI,-8.4465288,-43.8655915,708,12945.69391
D1,Alvorada do Gurguéia/PI,-8.4465288,-43.8655915,13,237.70342
1,Alvorada do Norte/GO,-14.483911,-46.4959897,1205,13773.00263
D1,Alvorada do Norte/GO,-14.483911,-46.4959897,18,205.73780
1,Alvorada do Sul/PR,-22.7807269,-51.2307721,1292,11139.85170
D1,Alvorada do Sul/PR,-22.7807269,-51.2307721,31,267.28746
1,Alvorada/RS,-29.9981184,-51.0772509,29589,13933.93987
D1,Alvorada/RS,-29.9981184,-51.0772509,861,405.45886
1,Alvorada/TO,-12.478465,-49.124926,2761,32943.56282
D1,Alvorada/TO,-12.478465,-49.124926,32,381.81601
1,Além Paraíba/MG,-21.8760576,-42.6810473,5963,16826.57035
D1,Além Paraíba/MG,-21.8760576,-42.6810473,170,479.71104
1,Amajari/RR,3.6523869,-61.4194315,1257,9269.22793
D1,Amajari/RR,3.6523869,-61.4194315,25,184.35219
1,Amambai/MS,-23.1082701,-55.2284854,5713,14194.84682
D1,Amambai/MS,-23.1082701,-55.2284854,100,248.46572
1,Amaporã/PR,-23.094272,-52.786597,824,12864.94926
D1,Amaporã/PR,-23.094272,-52.786597,8,124.90242
1,Amapá do Maranhão/MA,-1.6762114,-46.0109669,172,2440.75493
D1,Amapá do Maranhão/MA,-1.6762114,-46.0109669,6,85.14261
1,Amapá/AP,2.0529997,-50.7930003,1876,20248.24609
D1,Amapá/AP,2.0529997,-50.7930003,13,140.31301
1,Amaraji/PE,-8.373925,-35.4536527,1189,5189.87342
D1,Amaraji/PE,-8.373925,-35.4536527,49,213.88040
1,Amaral Ferrador/RS,-30.8750633,-52.2542051,472,6614.34978
D1,Amaral Ferrador/RS,-30.8750633,-52.2542051,12,168.16143
1,Amaralina/GO,-13.9236199,-49.2962411,211,5445.16129
D1,Amaralina/GO,-13.9236199,-49.2962411,2,51.61290
1,Amarante do Maranhão/MA,-5.56913,-46.747284,1854,4412.49970
D1,Amarante do Maranhão/MA,-5.56913,-46.747284,61,145.17933
1,Amarante/PI,-6.2459374,-42.8476238,1735,9852.91612
D1,Amarante/PI,-6.2459374,-42.8476238,36,204.44091
1,Amargosa/BA,-13.03793715,-39.60796443875596,4515,11998.08668
D1,Amargosa/BA,-13.03793715,-39.60796443875596,60,159.44301
1,Amaturá/AM,-3.3640509,-68.1994689,2623,21979.21904
D1,Amaturá/AM,-3.3640509,-68.1994689,19,159.20898
1,Americana/SP,-22.7392463,-47.3306032,27789,11371.69047
D1,Americana/SP,-22.7392463,-47.3306032,944,386.29946
1,Americano do Brasil/GO,-16.2515808,-49.9806104,1353,21752.41158
D1,Americano do Brasil/GO,-16.2515808,-49.9806104,25,401.92926
1,Ametista do Sul/RS,-27.3617341,-53.1826575,1645,22241.75230
D1,Ametista do Sul/RS,-27.3617341,-53.1826575,27,365.06220
1,Amontada/CE,-3.3634586,-39.8284791,3559,8052.94717
D1,Amontada/CE,-3.3634586,-39.8284791,61,138.02466
1,Amorinópolis/GO,-16.6211308,-51.0949921,542,18000.66423
D1,Amorinópolis/GO,-16.6211308,-51.0949921,11,365.32713
1,Amparo de São Francisco/SE,-10.1299754,-36.9269099,258,10813.07628
D1,Amparo de São Francisco/SE,-10.1299754,-36.9269099,5,209.55574
1,Amparo do Serra/MG,-20.5070255,-42.8028462,284,6116.73487
D1,Amparo do Serra/MG,-20.5070255,-42.8028462,11,236.91579
1,Amparo/PB,-7.56394725,-37.04652873235175,282,12455.83039
D1,Amparo/PB,-7.56394725,-37.04652873235175,4,176.67845
1,Amparo/SP,-22.70111,-46.76444,9897,13530.65828
D1,Amparo/SP,-22.70111,-46.76444,244,333.58398
1,Ampére/PR,-25.9168712,-53.4742414,4969,25526.55913
D1,Ampére/PR,-25.9168712,-53.4742414,67,344.18987
1,Amélia Rodrigues/BA,-12.4015388,-38.7516971,2806,11225.34704
D1,Amélia Rodrigues/BA,-12.4015388,-38.7516971,53,212.02544
1,América Dourada/BA,-11.4515262,-41.4357517,1070,6651.74686
D1,América Dourada/BA,-11.4515262,-41.4357517,13,80.81562
1,Américo Brasiliense/SP,-21.7297099,-48.1052092,4961,11941.26850
D1,Américo Brasiliense/SP,-21.7297099,-48.1052092,104,250.33097
1,Américo de Campos/SP,-20.298476,-49.735904,1285,21441.68196
D1,Américo de Campos/SP,-20.298476,-49.735904,36,600.70082
1,Anadia/AL,-9.6830208,-36.3052699,1696,9687.55355
D1,Anadia/AL,-9.6830208,-36.3052699,37,211.34403
1,Anagé/BA,-14.6134669,-41.1376308,1213,5713.88195
D1,Anagé/BA,-14.6134669,-41.1376308,31,146.02666
1,Anahy/PR,-24.6450861,-53.1337957,671,24188.89690
D1,Anahy/PR,-24.6450861,-53.1337957,15,540.73540
1,Anajatuba/MA,-3.26441,-44.6179916,1547,5693.77990
D1,Anajatuba/MA,-3.26441,-44.6179916,29,106.73537
1,Anajás/PA,-0.9878802,-49.9390114,1385,4602.70513
D1,Anajás/PA,-0.9878802,-49.9390114,22,73.11156
1,Analândia/SP,-22.128917,-47.661939,479,9364.61388
D1,Analândia/SP,-22.128917,-47.661939,5,97.75171
1,Anamã/AM,-3.5797356,-61.4049996,2477,17331.37420
D1,Anamã/AM,-3.5797356,-61.4049996,11,76.96613
1,Ananindeua/PA,-1.374035,-48.4016623,29372,5435.13258
D1,Ananindeua/PA,-1.374035,-48.4016623,849,157.10294
1,Ananás/TO,-6.3663053,-48.080238,2183,23137.25490
D1,Ananás/TO,-6.3663053,-48.080238,28,296.76736
1,Anapu/PA,-3.4668292,-51.2057035,2156,7355.34934
D1,Anapu/PA,-3.4668292,-51.2057035,66,225.16376
1,Anapurus/MA,-3.6751298,-43.1046001,832,5182.50903
D1,Anapurus/MA,-3.6751298,-43.1046001,15,93.43466
1,Anastácio/MS,-20.4832458,-55.8048448,3183,12563.15125
D1,Anastácio/MS,-20.4832458,-55.8048448,92,363.11967
1,Anaurilândia/MS,-22.185169,-52.719056,1113,12209.30233
D1,Anaurilândia/MS,-22.185169,-52.719056,16,175.51558
1,Anchieta/ES,-20.8057672,-40.6454564,9218,30437.51032
D1,Anchieta/ES,-20.8057672,-40.6454564,111,366.51808
1,Anchieta/SC,-26.5350527,-53.3293938,1055,19262.36991
D1,Anchieta/SC,-26.5350527,-53.3293938,11,200.83988
1,Andaraí/BA,-12.8059674,-41.3322919,1262,9617.43637
D1,Andaraí/BA,-12.8059674,-41.3322919,14,106.69105
1,Andirá/PR,-23.0494761,-50.2310027,4898,24708.67174
D1,Andirá/PR,-23.0494761,-50.2310027,97,489.33058
1,Andorinha/BA,-10.3445708,-39.8334411,1280,8879.02331
D1,Andorinha/BA,-10.3445708,-39.8334411,18,124.86127
1,Andradas/MG,-22.0680484,-46.5688976,6523,15641.18550
D1,Andradas/MG,-22.0680484,-46.5688976,135,323.70996
1,Andradina/SP,-20.896505,-51.3742765,11280,19704.77771
D1,Andradina/SP,-20.896505,-51.3742765,306,534.54450
1,Andrelândia/MG,-21.739722,-44.308889,206,1690.04840
D1,Andrelândia/MG,-21.739722,-44.308889,18,147.67413
1,André da Rocha/RS,-28.6309124,-51.5733328,188,13915.61806
D1,André da Rocha/RS,-28.6309124,-51.5733328,1,74.01925
1,Angatuba/SP,-23.4938938,-48.4110675,3261,12676.87762
D1,Angatuba/SP,-23.4938938,-48.4110675,85,330.43073
1,Angelim/PE,-8.8902038,-36.2872987,278,2459.95930
D1,Angelim/PE,-8.8902038,-36.2872987,13,115.03407
1,Angelina/SC,-27.5805287,-48.9838759,863,18416.55997
D1,Angelina/SC,-27.5805287,-48.9838759,6,128.04097
1,Angelândia/MG,-17.7253,-42.2728,406,4724.22620
D1,Angelândia/MG,-17.7253,-42.2728,4,46.54410
1,Angical do Piauí/PI,-6.0872666,-42.7366138,901,13291.04588
D1,Angical do Piauí/PI,-6.0872666,-42.7366138,12,177.01726
1,Angical/BA,-12.005623,-44.7000236,1056,7596.02935
D1,Angical/BA,-12.005623,-44.7000236,20,143.86419
1,Angico/TO,-6.3893733,-47.8656722,259,7453.23741
D1,Angico/TO,-6.3893733,-47.8656722,5,143.88489
1,Angicos/RN,-5.6666344,-36.6009064,1190,10175.28858
D1,Angicos/RN,-5.6666344,-36.6009064,27,230.86789
1,Angra dos Reis/RJ,-23.0063966,-44.316326,21206,10089.87919
D1,Angra dos Reis/RJ,-23.0063966,-44.316326,591,281.19959
1,Anguera/BA,-12.1509425,-39.2452469,625,5497.40522
D1,Anguera/BA,-12.1509425,-39.2452469,2,17.59170
1,Angélica/MS,-22.1588196,-53.7728504,2065,18635.50221
D1,Angélica/MS,-22.1588196,-53.7728504,22,198.53804
1,Anhanguera/GO,-18.3338749,-48.220363,186,15883.85995
D1,Anhanguera/GO,-18.3338749,-48.220363,7,597.77968
1,Anhembi/SP,-22.7891096,-48.1316776,436,6308.78310
D1,Anhembi/SP,-22.7891096,-48.1316776,13,188.10592
1,Anhumas/SP,-22.2956478,-51.3873401,402,9635.66635
D1,Anhumas/SP,-22.2956478,-51.3873401,9,215.72387
1,Anicuns/GO,-16.4606451,-49.9572265,5795,26206.30398
D1,Anicuns/GO,-16.4606451,-49.9572265,78,352.73369
1,Anita Garibaldi/SC,-27.6855032,-51.1293873,1889,27849.03435
D1,Anita Garibaldi/SC,-27.6855032,-51.1293873,11,162.17013
1,Anitápolis/SC,-27.9041185,-49.1287395,428,13279.55321
D1,Anitápolis/SC,-27.9041185,-49.1287395,6,186.16196
1,Anori/AM,-3.7435254,-61.6605203,2670,12171.21758
D1,Anori/AM,-3.7435254,-61.6605203,33,150.43078
1,Anta Gorda/RS,-28.9718745,-52.0069187,965,16243.05672
D1,Anta Gorda/RS,-28.9718745,-52.0069187,8,134.65747
1,Antas/BA,-10.4114649,-38.3308815,1419,7218.06806
D1,Antas/BA,-10.4114649,-38.3308815,14,71.21420
1,Antonina do Norte/CE,-6.7754187,-39.9879345,990,13374.76358
D1,Antonina do Norte/CE,-6.7754187,-39.9879345,26,351.25642
1,Antonina/PR,-25.4298854,-48.7125431,4081,21570.90755
D1,Antonina/PR,-25.4298854,-48.7125431,74,391.14118
1,Antônio Almeida/PI,-7.2186016,-44.1950248,409,12881.88976
D1,Antônio Almeida/PI,-7.2186016,-44.1950248,11,346.45669
1,Antônio Cardoso/BA,-12.4363122,-39.1200307,849,7275.06427
D1,Antônio Cardoso/BA,-12.4363122,-39.1200307,11,94.25878
1,Antônio Carlos/MG,-21.318334,-43.746666,1701,14828.69846
D1,Antônio Carlos/MG,-21.318334,-43.746666,20,174.35272
1,Antônio Carlos/SC,-27.5168462,-48.7684715,2594,29775.02296
D1,Antônio Carlos/SC,-27.5168462,-48.7684715,29,332.87420
1,Antônio Dias/MG,-19.6525,-42.872778,793,8588.75772
D1,Antônio Dias/MG,-19.6525,-42.872778,29,314.09076
1,Antônio Gonçalves/BA,-10.5715409,-40.2748824,1018,8515.26558
D1,Antônio Gonçalves/BA,-10.5715409,-40.2748824,10,83.64701
1,Antônio João/MS,-22.1892837,-55.9508227,1037,11418.18983
D1,Antônio João/MS,-22.1892837,-55.9508227,21,231.22660
1,Antônio Martins/RN,-6.2155812,-37.8890129,959,13390.11449
D1,Antônio Martins/RN,-6.2155812,-37.8890129,7,97.73806
1,Antônio Olinto/PR,-25.9849006,-50.1974516,967,13030.58887
D1,Antônio Olinto/PR,-25.9849006,-50.1974516,16,215.60437
1,Antônio Prado de Minas/MG,-21.0171988,-42.1101106,166,10526.31579
D1,Antônio Prado de Minas/MG,-21.0171988,-42.1101106,5,317.05770
1,Antônio Prado/RS,-28.8567806,-51.2801355,4272,32758.22406
D1,Antônio Prado/RS,-28.8567806,-51.2801355,35,268.38433
1,Anápolis/GO,-16.3332828,-48.9525756,63757,16078.89520
D1,Anápolis/GO,-16.3332828,-48.9525756,1897,478.40495
1,Anísio de Abreu/PI,-9.185643,-43.04941,291,2911.74705
D1,Anísio de Abreu/PI,-9.185643,-43.04941,15,150.09005
1,Aparecida d'Oeste/SP,-20.4498109,-50.8808706,1339,32484.23096
D1,Aparecida d'Oeste/SP,-20.4498109,-50.8808706,22,533.72149
1,Aparecida de Goiânia/GO,-16.8226769,-49.2452546,111202,18476.88105
D1,Aparecida de Goiânia/GO,-16.8226769,-49.2452546,1896,315.03180
1,Aparecida do Rio Doce/GO,-18.2980167,-51.1491312,547,22109.94341
D1,Aparecida do Rio Doce/GO,-18.2980167,-51.1491312,5,202.10186
1,Aparecida do Rio Negro/TO,-9.9513491,-47.9773786,402,8202.40767
D1,Aparecida do Rio Negro/TO,-9.9513491,-47.9773786,13,265.25199
1,Aparecida do Taboado/MS,-20.0840304,-51.1013943,5614,21276.43447
D1,Aparecida do Taboado/MS,-20.0840304,-51.1013943,68,257.71242
1,Aparecida/PB,-6.7859598, -38.0831353,1495,17625.56001
D1,Aparecida/PB,-6.7859598, -38.0831353,16,188.63476
1,Aparecida/SP,-22.851552,-45.2340924,2951,8149.45735
D1,Aparecida/SP,-22.851552,-45.2340924,123,339.67579
1,Aperibé/RJ,-21.6211928,-42.1028167,1491,12387.83649
D1,Aperibé/RJ,-21.6211928,-42.1028167,32,265.86906
1,Apiacá/ES,-21.152272,-41.569297,2104,27897.10952
D1,Apiacá/ES,-21.152272,-41.569297,38,503.84513
1,Apiacás/MT,-9.5678422,-57.394852,2879,27600.42182
D1,Apiacás/MT,-9.5678422,-57.394852,19,182.14936
1,Apiaí/SP,-24.5076527,-48.8461582,1794,7449.85673
D1,Apiaí/SP,-24.5076527,-48.8461582,104,431.87575
1,Apicum-Açu/MA,-1.5279295,-45.082278,676,3844.84131
D1,Apicum-Açu/MA,-1.5279295,-45.082278,11,62.56399
1,Apiúna/SC,-27.0374658,-49.3885037,1482,13533.01068
D1,Apiúna/SC,-27.0374658,-49.3885037,20,182.63172
1,Apodi/RN,-5.6631109,-37.796927,8551,23816.28788
D1,Apodi/RN,-5.6631109,-37.796927,106,295.23173
1,Aporá/BA,-11.6599747,-38.0794757,709,3974.21525
D1,Aporá/BA,-11.6599747,-38.0794757,21,117.71300
1,Aporé/GO,-18.9642193,-51.92804,821,19245.19456
D1,Aporé/GO,-18.9642193,-51.92804,11,257.85279
1,Apuarema/BA,-13.8517897,-39.7457126,883,12139.12565
D1,Apuarema/BA,-13.8517897,-39.7457126,12,164.97113
1,Apucarana/PR,-23.5525327,-51.4610764,18521,13475.89459
D1,Apucarana/PR,-23.5525327,-51.4610764,527,383.44563
1,Apuiarés/CE,-3.9460303,-39.4313298,1630,11056.84439
D1,Apuiarés/CE,-3.9460303,-39.4313298,27,183.15018
1,Apuí/AM,-7.1940195,-59.8830192,2101,9239.63235
D1,Apuí/AM,-7.1940195,-59.8830192,36,158.31831
1,Aquidabã/SE,-10.2837579,-37.0188687,2593,11896.67829
D1,Aquidabã/SE,-10.2837579,-37.0188687,43,197.28391
1,Aquidauana/MS,-20.473969,-55.7821375,7307,15164.78499
D1,Aquidauana/MS,-20.473969,-55.7821375,173,359.04035
1,Aquiraz/CE,-3.9063117,-38.387504,9985,12239.36946
D1,Aquiraz/CE,-3.9063117,-38.387504,107,131.15799
1,Arabutã/SC,-27.1587028,-52.1438142,632,14807.87254
D1,Arabutã/SC,-27.1587028,-52.1438142,10,234.30178
1,Aracaju/SE,-10.9162061,-37.0774655,149967,22296.14608
D1,Aracaju/SE,-10.9162061,-37.0774655,2523,375.10370
1,Aracati/CE,-4.558259,-37.767894,12096,16044.14261
D1,Aracati/CE,-4.558259,-37.767894,178,236.09932
1,Aracatu/BA,-14.4274236,-41.4604105,1287,9930.55556
D1,Aracatu/BA,-14.4274236,-41.4604105,22,169.75309
1,Araci/BA,-11.3356065,-38.9573261,4276,7788.28115
D1,Araci/BA,-11.3356065,-38.9573261,60,109.28365
1,Aracitaba/MG,-21.3425,-43.378611,109,5301.55642
D1,Aracitaba/MG,-21.3425,-43.378611,11,535.01946
1,Aracoiaba/CE,-4.3702577,-38.8084313,4848,18225.56391
D1,Aracoiaba/CE,-4.3702577,-38.8084313,38,142.85714
1,Aracruz/ES,-19.8245218,-40.2735025,33301,31732.76667
D1,Aracruz/ES,-19.8245218,-40.2735025,270,257.28498
1,Aragarças/GO,-15.8957166,-52.2514538,4125,20210.68104
D1,Aragarças/GO,-15.8957166,-52.2514538,83,406.66340
1,Aragoiânia/GO,-16.9146388,-49.4499148,2238,20955.05618
D1,Aragoiânia/GO,-16.9146388,-49.4499148,30,280.89888
1,Aragominas/TO,-7.1654101,-48.525488,847,14846.62577
D1,Aragominas/TO,-7.1654101,-48.525488,11,192.81332
1,Araguacema/TO,-8.8067391,-49.5560969,1088,15062.99322
D1,Araguacema/TO,-8.8067391,-49.5560969,19,263.04859
1,Araguaiana/MT,-15.729144,-51.834112,536,17493.47258
D1,Araguaiana/MT,-15.729144,-51.834112,8,261.09661
1,Araguainha/MT,-16.857016,-53.031778,47,5170.51705
D1,Araguainha/MT,-16.857016,-53.031778,1,110.01100
1,Araguanã/MA,-2.9508403,-45.6651986,846,5397.12919
D1,Araguanã/MA,-2.9508403,-45.6651986,6,38.27751
1,Araguanã/TO,-6.5799107,-48.6428482,607,10365.43716
D1,Araguanã/TO,-6.5799107,-48.6428482,16,273.22404
1,Araguapaz/GO,-15.0937927,-50.626417,873,11199.48685
D1,Araguapaz/GO,-15.0937927,-50.626417,31,397.69083
1,Araguari/MG,-18.6511256,-48.1933764,27714,23414.80724
D1,Araguari/MG,-18.6511256,-48.1933764,497,419.90183
1,Araguatins/TO,-5.6522925,-48.1158973,3186,8711.34443
D1,Araguatins/TO,-5.6522925,-48.1158973,76,207.80357
1,Araguaçu/TO,-12.928934,-49.823134,1657,19684.01045
D1,Araguaçu/TO,-12.928934,-49.823134,25,296.98266
1,Araguaína/TO,-7.193241,-48.2018597,45934,24663.21244
D1,Araguaína/TO,-7.193241,-48.2018597,594,318.93474
1,Araioses/MA,-2.890914,-41.904993,687,1458.75358
D1,Araioses/MA,-2.890914,-41.904993,15,31.85051
1,Aral Moreira/MS,-22.951141,-55.6268421,579,4627.92742
D1,Aral Moreira/MS,-22.951141,-55.6268421,19,151.86636
1,Aramari/BA,-12.0907897,-38.4985065,1015,8811.52878
D1,Aramari/BA,-12.0907897,-38.4985065,14,121.53833
1,Arambaré/RS,-30.9132252,-51.4994625,357,10073.36343
D1,Arambaré/RS,-30.9132252,-51.4994625,10,282.16704
1,Arame/MA,-4.8858769,-46.0102484,1708,5203.35110
D1,Arame/MA,-4.8858769,-46.0102484,42,127.95126
1,Aramina/SP,-20.0876144,-47.789201,383,6732.29038
D1,Aramina/SP,-20.0876144,-47.789201,20,351.55563
1,Arandu/SP,-23.1345103,-49.0545651,660,10356.19018
D1,Arandu/SP,-23.1345103,-49.0545651,22,345.20634
1,Arantina/MG,-21.911667,-44.255833,466,16768.62181
D1,Arantina/MG,-21.911667,-44.255833,6,215.90500
1,Arapeí/SP,-22.6738889,-44.4477778,269,10970.63622
D1,Arapeí/SP,-22.6738889,-44.4477778,4,163.13214
1,Arapiraca/AL,-9.754866,-36.661471,35747,15256.34952
D1,Arapiraca/AL,-9.754866,-36.661471,560,239.00064
1,Arapoema/TO,-7.6575001,-49.0641484,620,9408.19423
D1,Arapoema/TO,-7.6575001,-49.0641484,12,182.09408
1,Araponga/MG,-20.666667,-42.520556,979,11562.53691
D1,Araponga/MG,-20.666667,-42.520556,14,165.34782
1,Arapongas/PR,-23.415296,-51.42592,23192,18327.07732
D1,Arapongas/PR,-23.415296,-51.42592,629,497.05638
1,Araporã/MG,-18.4318188,-49.188313,2670,38186.49886
D1,Araporã/MG,-18.4318188,-49.188313,43,614.98856
1,Arapoti/PR,-24.1457957,-49.8224605,5341,18753.51124
D1,Arapoti/PR,-24.1457957,-49.8224605,70,245.78652
1,Araputanga/MT,-15.4710868,-58.346796,3440,20142.87387
D1,Araputanga/MT,-15.4710868,-58.346796,56,327.90725
1,Arapuá/MG,-19.034444,-46.155556,444,15655.85331
D1,Arapuá/MG,-19.034444,-46.155556,3,105.78279
1,Arapuã/PR,-24.3079525,-51.7901941,756,25618.43443
D1,Arapuã/PR,-24.3079525,-51.7901941,9,304.98136
1,Araquari/SC,-26.3703324,-48.7210994,6459,15796.03815
D1,Araquari/SC,-26.3703324,-48.7210994,95,232.33064
1,Arara/PB,-6.8271895,-35.7605703,1150,8447.80724
D1,Arara/PB,-6.8271895,-35.7605703,31,227.72350
1,Araranguá/SC,-28.9348832,-49.4858389,15526,22341.81860
D1,Araranguá/SC,-28.9348832,-49.4858389,273,392.84532
1,Araraquara/SP,-21.7886713,-48.1773096,30529,12691.75445
D1,Araraquara/SP,-21.7886713,-48.1773096,590,245.27941
1,Araras/SP,-22.3569477,-47.3838889,19645,14366.78636
D1,Araras/SP,-22.3569477,-47.3838889,424,310.07979
1,Ararendá/CE,-4.7504395,-40.8303611,1825,16616.58927
D1,Ararendá/CE,-4.7504395,-40.8303611,22,200.30957
1,Arari/MA,-3.4547602,-44.7772723,1128,3758.24615
D1,Arari/MA,-3.4547602,-44.7772723,36,119.94403
1,Araricá/RS,-29.6168543,-50.929121,1606,27500.00000
D1,Araricá/RS,-29.6168543,-50.929121,29,496.57534
1,Araripe/CE,-7.212861,-40.1359222,1742,8025.06104
D1,Araripe/CE,-7.212861,-40.1359222,27,124.38384
1,Araripina/PE,-7.5768582,-40.5038509,9580,11230.81793
D1,Araripina/PE,-7.5768582,-40.5038509,175,205.15586
1,Araruama/RJ,-22.8733203,-42.3428897,9289,6824.67728
D1,Araruama/RJ,-22.8733203,-42.3428897,505,371.02616
1,Araruna/PB,-6.5321155,-35.7397595,921,4468.70451
D1,Araruna/PB,-6.5321155,-35.7397595,18,87.33624
1,Araruna/PR,-23.9320308,-52.4976047,2978,21227.45741
D1,Araruna/PR,-23.9320308,-52.4976047,38,270.86749
1,Arataca/BA,-15.2617424,-39.4122943,954,8749.08291
D1,Arataca/BA,-15.2617424,-39.4122943,16,146.73514
1,Aratiba/RS,-27.3955734,-52.3024325,804,13083.80797
D1,Aratiba/RS,-27.3955734,-52.3024325,8,130.18714
1,Aratuba/CE,-4.4195958,-39.0463737,2032,17280.38098
D1,Aratuba/CE,-4.4195958,-39.0463737,14,119.05774
1,Aratuípe/BA,-13.077137,-39.0010786,1134,12816.45570
D1,Aratuípe/BA,-13.077137,-39.0010786,12,135.62387
1,Araucária/PR,-25.5861107,-49.4051209,40233,27088.91612
D1,Araucária/PR,-25.5861107,-49.4051209,570,383.78153
1,Arauá/SE,-11.2644014,-37.6181058,1409,14319.10569
D1,Arauá/SE,-11.2644014,-37.6181058,23,233.73984
1,Araxá/MG,-19.5928536,-46.940241,30929,28531.49821
D1,Araxá/MG,-19.5928536,-46.940241,275,253.68302
1,Araçagi/PB,-6.8519969,-35.3835602,2234,13252.65468
D1,Araçagi/PB,-6.8519969,-35.3835602,27,160.17085
1,Araçariguama/SP,-23.438611,-47.061389,2606,11163.94637
D1,Araçariguama/SP,-23.438611,-47.061389,75,321.29546
1,Araçatuba/SP,-21.207992,-50.4390225,41739,20952.26143
D1,Araçatuba/SP,-21.207992,-50.4390225,976,489.93524
1,Araçaí/MG,-19.200833,-44.2475,241,10211.86441
D1,Araçaí/MG,-19.200833,-44.2475,2,84.74576
1,Araçoiaba da Serra/SP,-23.5045367,-47.6168158,3251,9186.47037
D1,Araçoiaba da Serra/SP,-23.5045367,-47.6168158,96,271.27073
1,Araçoiaba/PE,-7.7856903,-35.0898881,1082,5168.13145
D1,Araçoiaba/PE,-7.7856903,-35.0898881,33,157.62323
1,Araçu/GO,-16.3561579,-49.6815269,1241,35971.01449
D1,Araçu/GO,-16.3561579,-49.6815269,20,579.71014
1,Araçuaí/MG,-16.8484451,-42.0661868,3376,9195.15185
D1,Araçuaí/MG,-16.8484451,-42.0661868,61,166.14463
1,Araçás/BA,-12.2139176,-38.2026159,893,7297.54025
D1,Araçás/BA,-12.2139176,-38.2026159,17,138.92294
1,Araújos/MG,-19.948055,-45.165556,947,9944.34527
D1,Araújos/MG,-19.948055,-45.165556,14,147.01250
1,Arceburgo/MG,-21.364444,-46.939722,2055,18698.81711
D1,Arceburgo/MG,-21.364444,-46.939722,34,309.37216
1,Arco-Íris/SP,-21.7741308,-50.4668814,398,22678.06268
D1,Arco-Íris/SP,-21.7741308,-50.4668814,8,455.84046
1,Arcos/MG,-20.282223,-45.539444,10137,24932.36263
D1,Arcos/MG,-20.282223,-45.539444,142,349.25476
1,Arcoverde/PE,-8.415192,-37.057748,9322,12380.63616
D1,Arcoverde/PE,-8.415192,-37.057748,139,184.60721
1,Areado/MG,-21.3582771,-46.1476688,2546,16653.58451
D1,Areado/MG,-21.3582771,-46.1476688,35,228.93773
1,Areal/RJ,-22.2314922,-43.1056264,1817,14236.46478
D1,Areal/RJ,-22.2314922,-43.1056264,52,407.42772
1,Arealva/SP,-22.0301906,-48.9111936,1503,17345.64339
D1,Arealva/SP,-22.0301906,-48.9111936,23,265.43566
1,Areia Branca/RN,-4.9506652,-37.1263312,3951,14032.53303
D1,Areia Branca/RN,-4.9506652,-37.1263312,114,404.88706
1,Areia Branca/SE,-10.7591455,-37.3148072,2373,12605.57769
D1,Areia Branca/SE,-10.7591455,-37.3148072,50,265.60425
1,Areia de Baraúnas/PB,-7.1233949,-36.9446216,332,15771.97150
D1,Areia de Baraúnas/PB,-7.1233949,-36.9446216,7,332.54157
1,Areia/PB,-6.9680243,-35.6994783,2784,12377.18401
D1,Areia/PB,-6.9680243,-35.6994783,36,160.04979
1,Areial/PB,-7.0501306,-35.9245244,546,7740.28920
D1,Areial/PB,-7.0501306,-35.9245244,13,184.29260
1,Areias/SP,-22.5800929,-44.6975127,363,9293.39478
D1,Areias/SP,-22.5800929,-44.6975127,2,51.20328
1,Areiópolis/SP,-22.6758064,-48.6673653,1931,17262.64974
D1,Areiópolis/SP,-22.6758064,-48.6673653,28,250.31289
1,Arenápolis/MT,-14.4610369,-56.8432806,2714,28875.41228
D1,Arenápolis/MT,-14.4610369,-56.8432806,43,457.49548
1,Arenópolis/GO,-16.3859286,-51.55937,594,24126.72624
D1,Arenópolis/GO,-16.3859286,-51.55937,9,365.55646
1,Argirita/MG,-21.612761,-42.8371922,520,19395.74786
D1,Argirita/MG,-21.612761,-42.8371922,14,522.19321
1,Aricanduva/MG,-17.8678,-42.5569,348,6559.84920
1,Arinos/MG,-15.917223,-46.106111,2204,12347.33894
D1,Arinos/MG,-15.917223,-46.106111,30,168.06723
1,Aripuanã/MT,-10.175806,-59.4439663,5617,24350.80418
D1,Aripuanã/MT,-10.175806,-59.4439663,54,234.10066
1,Ariquemes/RO,-9.9076522,-63.033069,29637,26664.44740
D1,Ariquemes/RO,-9.9076522,-63.033069,549,493.93601
1,Ariranha do Ivaí/PR,-24.3834527,-51.5876772,548,27048.37117
D1,Ariranha do Ivaí/PR,-24.3834527,-51.5876772,5,246.79171
1,Ariranha/SP,-21.18716,-48.790418,1032,10476.09380
D1,Ariranha/SP,-21.18716,-48.790418,35,355.29388
1,Armazém/SC,-28.2624996,-49.0190126,1679,18986.76920
D1,Armazém/SC,-28.2624996,-49.0190126,36,407.10166
1,Armação dos Búzios/RJ,-22.7597805,-41.8875267,7624,21745.57901
D1,Armação dos Búzios/RJ,-22.7597805,-41.8875267,81,231.03252
1,Arneiroz/CE,-6.3235099,-40.1603859,832,10601.42712
D1,Arneiroz/CE,-6.3235099,-40.1603859,21,267.58410
1,Aroazes/PI,-6.1108814,-41.7886137,699,12012.37326
D1,Aroazes/PI,-6.1108814,-41.7886137,15,257.77625
1,Aroeiras do Itaim/PI,-7.2797031,-41.5629681,188,7369.65896
D1,Aroeiras do Itaim/PI,-7.2797031,-41.5629681,2,78.40063
1,Aroeiras/PB,-7.5462904,-35.7080002,2684,14066.34872
D1,Aroeiras/PB,-7.5462904,-35.7080002,20,104.81631
1,Arraial do Cabo/RJ,-22.9662839,-42.024427,2292,7435.04071
D1,Arraial do Cabo/RJ,-22.9662839,-42.024427,50,162.19548
1,Arraial/PI,-6.6541632,-42.5335332,172,3649.48016
D1,Arraial/PI,-6.6541632,-42.5335332,3,63.65372
1,Arraias/TO,-12.9287788,-46.9437231,1375,13092.74424
D1,Arraias/TO,-12.9287788,-46.9437231,13,123.78595
1,Arroio Grande/RS,-32.2384246,-53.0866661,2566,14110.53066
D1,Arroio Grande/RS,-32.2384246,-53.0866661,61,335.44130
1,Arroio Trinta/SC,-26.9301976,-51.334928,1061,29912.60220
D1,Arroio Trinta/SC,-26.9301976,-51.334928,15,422.89259
1,Arroio do Meio/RS,-29.4020392,-51.9444993,4662,22072.81852
D1,Arroio do Meio/RS,-29.4020392,-51.9444993,56,265.13896
1,Arroio do Padre/RS,-31.4428773,-52.4228985,384,12946.72960
D1,Arroio do Padre/RS,-31.4428773,-52.4228985,4,134.86177
1,Arroio do Sal/RS,-29.549852,-49.8874395,2771,26433.27292
D1,Arroio do Sal/RS,-29.549852,-49.8874395,43,410.18792
1,Arroio do Tigre/RS,-29.334158,-53.0888935,2460,18287.24353
D1,Arroio do Tigre/RS,-29.334158,-53.0888935,23,170.97829
1,Arroio dos Ratos/RS,-30.0894524,-51.7265541,1879,13231.46257
D1,Arroio dos Ratos/RS,-30.0894524,-51.7265541,48,338.00437
1,Artur Nogueira/SP,-22.572737,-47.172679,7557,13435.38322
D1,Artur Nogueira/SP,-22.572737,-47.172679,154,273.79238
1,Aruanã/GO,-14.9162439,-51.0715692,1351,13065.76402
D1,Aruanã/GO,-14.9162439,-51.0715692,20,193.42360
1,Arujá/SP,-23.396266,-46.3175449,10477,11332.24449
D1,Arujá/SP,-23.396266,-46.3175449,359,388.30541
1,Arvoredo/SC,-27.0752908,-52.4571847,428,19210.05386
D1,Arvoredo/SC,-27.0752908,-52.4571847,5,224.41652
1,Arvorezinha/RS,-28.87369,-52.17808,1527,14651.69833
D1,Arvorezinha/RS,-28.87369,-52.17808,31,297.44771
1,Arês/RN,-6.1969216,-35.1642968,1409,9699.84855
D1,Arês/RN,-6.1969216,-35.1642968,27,185.87361
1,Ascurra/SC,-26.9569975,-49.3767752,2173,27091.38511
D1,Ascurra/SC,-26.9569975,-49.3767752,13,162.07455
1,Aspásia/SP,-20.160028,-50.728046,336,18512.39669
D1,Aspásia/SP,-20.160028,-50.728046,10,550.96419
1,Assaré/CE,-6.8746791,-39.8741385,2861,12155.32991
D1,Assaré/CE,-6.8746791,-39.8741385,51,216.68012
1,Assaí/PR,-23.3736041,-50.8454929,2874,19429.42131
D1,Assaí/PR,-23.3736041,-50.8454929,61,412.38507
1,Assis Brasil/AC,-10.9409203,-69.5672108,1998,26121.06158
D1,Assis Brasil/AC,-10.9409203,-69.5672108,25,326.84011
1,Assis Chateaubriand/PR,-24.4054826,-53.5120468,8638,25935.26692
D1,Assis Chateaubriand/PR,-24.4054826,-53.5120468,139,417.34222
1,Assis/SP,-22.6620892,-50.420623,13671,12925.45950
D1,Assis/SP,-22.6620892,-50.420623,449,424.51403
1,Assunção do Piauí/PI,-5.8610212,-41.0485091,410,5203.70605
D1,Assunção do Piauí/PI,-5.8610212,-41.0485091,10,126.91966
1,Assunção/PB,-7.073396,-36.7274003,668,16424.88321
D1,Assunção/PB,-7.073396,-36.7274003,6,147.52889
1,Astolfo Dutra/MG,-21.3132636,-42.8624102,2109,14688.67530
D1,Astolfo Dutra/MG,-21.3132636,-42.8624102,30,208.94275
1,Astorga/PR,-23.2350184,-51.6647074,7604,28908.15085
D1,Astorga/PR,-23.2350184,-51.6647074,104,395.37713
1,Atalaia do Norte/AM,-4.3658547,-70.1908742,3910,18736.82193
D1,Atalaia do Norte/AM,-4.3658547,-70.1908742,11,52.71229
1,Atalaia/AL,-9.5029595,-36.0219316,1836,3862.01094
D1,Atalaia/AL,-9.5029595,-36.0219316,56,117.79554
1,Atalaia/PR,-23.1513833,-52.0529697,935,24153.96538
D1,Atalaia/PR,-23.1513833,-52.0529697,25,645.82795
1,Atalanta/SC,-27.421916,-49.778863,887,27901.85593
D1,Atalanta/SC,-27.421916,-49.778863,11,346.02076
1,Ataléia/MG,-18.04432,-41.1110524,1519,12155.88988
D1,Ataléia/MG,-18.04432,-41.1110524,12,96.03073
1,Atibaia/SP,-23.1177393,-46.5547861,12879,8858.97454
D1,Atibaia/SP,-23.1177393,-46.5547861,319,219.42797
1,Atilio Vivacqua/ES,-20.9139369,-41.1947519,2752,22428.68786
D1,Atilio Vivacqua/ES,-20.9139369,-41.1947519,36,293.39853
1,Augustinópolis/TO,-5.4662267,-47.8897519,2081,11028.08691
D1,Augustinópolis/TO,-5.4662267,-47.8897519,32,169.58135
1,Augusto Corrêa/PA,-1.0229335,-46.6404029,2525,5379.55131
D1,Augusto Corrêa/PA,-1.0229335,-46.6404029,53,112.91731
1,Augusto Pestana/RS,-28.5148413,-53.9906433,1658,25332.31474
D1,Augusto Pestana/RS,-28.5148413,-53.9906433,14,213.90374
1,Augusto de Lima/MG,-18.1092963,-44.2651945,327,6765.98386
D1,Augusto de Lima/MG,-18.1092963,-44.2651945,11,227.60190
1,Aurelino Leal/BA,-14.3167137,-39.3256107,1296,11697.80666
D1,Aurelino Leal/BA,-14.3167137,-39.3256107,38,342.99124
1,Auriflama/SP,-20.6840418,-50.5554616,2196,14337.94724
D1,Auriflama/SP,-20.6840418,-50.5554616,82,535.38783
1,Aurilândia/GO,-16.6772599,-50.4641231,845,28166.66667
D1,Aurilândia/GO,-16.6772599,-50.4641231,15,500.00000
1,Aurora do Pará/PA,-2.1323199,-47.558436,1926,5981.36646
D1,Aurora do Pará/PA,-2.1323199,-47.558436,17,52.79503
1,Aurora do Tocantins/TO,-12.71045,-46.407604,427,11210.29142
D1,Aurora do Tocantins/TO,-12.71045,-46.407604,8,210.02888
1,Aurora/CE,-6.9426019,-38.9693765,2467,10041.92616
D1,Aurora/CE,-6.9426019,-38.9693765,44,179.10205
1,Aurora/SC,-27.3166417,-49.6368502,1387,24388.95727
D1,Aurora/SC,-27.3166417,-49.6368502,20,351.67927
1,Autazes/AM,-3.5833283,-59.1301518,4038,9847.57956
D1,Autazes/AM,-3.5833283,-59.1301518,102,248.75015
1,Avanhandava/SP,-21.4603331,-49.9465156,1242,8831.68598
D1,Avanhandava/SP,-21.4603331,-49.9465156,48,341.32120
1,Avaré/SP,-23.1045215,-48.9259103,13174,14352.01325
D1,Avaré/SP,-23.1045215,-48.9259103,302,329.00471
1,Avaí/SP,-22.1564662,-49.3316395,809,14797.87818
D1,Avaí/SP,-22.1564662,-49.3316395,13,237.79038
1,Aveiro/PA,-3.6049239,-55.3310742,1052,6406.43079
D1,Aveiro/PA,-3.6049239,-55.3310742,16,97.43621
1,Avelino Lopes/PI,-10.1346855,-43.9489525,527,4638.67617
D1,Avelino Lopes/PI,-10.1346855,-43.9489525,23,202.44697
1,Avelinópolis/GO,-16.4672409,-49.7578661,453,18867.13869
D1,Avelinópolis/GO,-16.4672409,-49.7578661,17,708.03832
1,Axixá do Tocantins/TO,-5.612747,-47.77007,1251,12743.20057
D1,Axixá do Tocantins/TO,-5.612747,-47.77007,24,244.47387
1,Axixá/MA,-2.8379465,-44.0561053,192,1569.39676
D1,Axixá/MA,-2.8379465,-44.0561053,8,65.39153
1,Açailândia/MA,-4.9514278,-47.4844564,6419,5641.44029
D1,Açailândia/MA,-4.9514278,-47.4844564,290,254.87111
1,Açu/RN,-5.5836157,-36.9139541,9874,16808.81126
D1,Açu/RN,-5.5836157,-36.9139541,165,280.88453
1,Açucena/MG,-19.073056,-42.546666,845,9115.42611
D1,Açucena/MG,-19.073056,-42.546666,38,409.92449
1,Babaçulândia/TO,-7.2034355,-47.761613,896,8398.95013
D1,Babaçulândia/TO,-7.2034355,-47.761613,8,74.99063
1,Bacabal/MA,-4.2318132,-44.781167,5706,5429.42509
D1,Bacabal/MA,-4.2318132,-44.781167,216,205.53029
1,Bacabeira/MA,-2.9775747,-44.3155943,573,3284.42050
D1,Bacabeira/MA,-2.9775747,-44.3155943,11,63.05170
1,Bacuri/MA,-1.728894,-45.1417148,876,4677.98782
D1,Bacuri/MA,-1.728894,-45.1417148,4,21.36067
1,Bacurituba/MA,-2.7082587,-44.7381309,117,2054.07303
D1,Bacurituba/MA,-2.7082587,-44.7381309,2,35.11236
1,Bady Bassitt/SP,-20.9178969,-49.4517911,4390,24371.28740
D1,Bady Bassitt/SP,-20.9178969,-49.4517911,94,521.84533
1,Baependi/MG,-21.959162,-44.8899249,2870,14909.86545
D1,Baependi/MG,-21.959162,-44.8899249,36,187.02270
1,Bagre/PA,-1.8994498,-50.2103844,1324,4141.77120
D1,Bagre/PA,-1.8994498,-50.2103844,13,40.66694
1,Bagé/RS,-31.3314264,-54.1062808,16606,13665.46520
D1,Bagé/RS,-31.3314264,-54.1062808,324,266.62717
1,Baianópolis/BA,-12.3067564,-44.5383591,1236,8841.83418
D1,Baianópolis/BA,-12.3067564,-44.5383591,25,178.83969
1,Baixa Grande do Ribeiro/PI,-7.862861,-45.2113289,2672,22738.49034
D1,Baixa Grande do Ribeiro/PI,-7.862861,-45.2113289,36,306.35691
1,Baixa Grande/BA,-11.9630941,-40.1657537,1331,6514.61015
D1,Baixa Grande/BA,-11.9630941,-40.1657537,23,112.57403
1,Baixio/CE,-6.7303544,-38.7170095,835,13216.20766
D1,Baixio/CE,-6.7303544,-38.7170095,17,269.07249
1,Baixo Guandu/ES,-19.5138322,-41.0182089,9191,29398.97003
D1,Baixo Guandu/ES,-19.5138322,-41.0182089,99,316.66827
1,Baião/PA,-2.7903479,-49.6702845,935,1890.64585
D1,Baião/PA,-2.7903479,-49.6702845,39,78.86116
1,Balbinos/SP,-21.9006253,-49.3583966,599,9776.39954
D1,Balbinos/SP,-21.9006253,-49.3583966,4,65.28480
1,Baldim/MG,-19.2913568,-43.9558262,740,9511.56812
D1,Baldim/MG,-19.2913568,-43.9558262,24,308.48329
1,Baliza/GO,-16.1978119,-52.542789,665,12273.90181
D1,Baliza/GO,-16.1978119,-52.542789,11,203.02695
1,Balneário Arroio do Silva/SC,-28.9815269,-49.4189932,3303,23966.04266
D1,Balneário Arroio do Silva/SC,-28.9815269,-49.4189932,63,457.11798
1,Balneário Barra do Sul/SC,-26.459842,-48.6061471,2089,18534.29154
D1,Balneário Barra do Sul/SC,-26.459842,-48.6061471,52,461.36101
1,Balneário Camboriú/SC,-26.9924395,-48.6339782,34531,23139.91436
D1,Balneário Camboriú/SC,-26.9924395,-48.6339782,484,324.33809
1,Balneário Gaivota/SC,-29.1553098,-49.5808712,2823,24469.09942
D1,Balneário Gaivota/SC,-29.1553098,-49.5808712,40,346.71058
1,Balneário Pinhal/RS,-30.2482978,-50.234585,3135,21406.62342
D1,Balneário Pinhal/RS,-30.2482978,-50.234585,62,423.35268
1,Balneário Piçarras/SC,-26.7638889,-48.6716667,7013,28759.48329
D1,Balneário Piçarras/SC,-26.7638889,-48.6716667,71,291.16260
1,Balneário Rincão/SC,-28.8235718,-49.2241642,2272,17305.20222
D1,Balneário Rincão/SC,-28.8235718,-49.2241642,54,411.30322
1,Balsa Nova/PR,-25.5842234,-49.6312741,2769,20917.05696
D1,Balsa Nova/PR,-25.5842234,-49.6312741,36,271.94440
1,Balsas/MA,-7.53214,-46.037163,14882,15350.02218
D1,Balsas/MA,-7.53214,-46.037163,232,239.29614
1,Bambuí/MG,-20.0131996,-45.9777034,5442,22709.06360
D1,Bambuí/MG,-20.0131996,-45.9777034,41,171.08997
1,Banabuiú/CE,-5.3046404,-38.919766,2722,14863.75799
D1,Banabuiú/CE,-5.3046404,-38.919766,22,120.13324
1,Bananal/SP,-22.6828195,-44.3221095,1137,10299.84600
D1,Bananal/SP,-22.6828195,-44.3221095,4,36.23517
1,Bananeiras/PB,-6.7537682,-35.6338343,1998,9415.64562
D1,Bananeiras/PB,-6.7537682,-35.6338343,29,136.66352
1,Bandeira do Sul/MG,-21.728056,-46.385555,1209,20816.11570
D1,Bandeira do Sul/MG,-21.728056,-46.385555,16,275.48209
1,Bandeira/MG,-15.884444,-40.559167,663,13993.24610
D1,Bandeira/MG,-15.884444,-40.559167,11,232.16547
1,Bandeirante/SC,-26.7677402,-53.6397596,634,24216.95951
D1,Bandeirante/SC,-26.7677402,-53.6397596,7,267.37968
1,Bandeirantes do Tocantins/TO,-7.7635698,-48.579148,631,17378.13275
D1,Bandeirantes do Tocantins/TO,-7.7635698,-48.579148,8,220.32498
1,Bandeirantes/MS,-19.9179623,-54.3646768,724,9943.68905
D1,Bandeirantes/MS,-19.9179623,-54.3646768,12,164.81253
1,Bandeirantes/PR,-23.107788,-50.370407,8495,27349.40923
D1,Bandeirantes/PR,-23.107788,-50.370407,156,502.23753
1,Bannach/PA,-7.3508505,-50.4064531,656,20253.16456
D1,Bannach/PA,-7.3508505,-50.4064531,3,92.62118
1,Banzaê/BA,-10.5827616,-38.6122305,1295,9772.84733
D1,Banzaê/BA,-10.5827616,-38.6122305,12,90.55920
1,Baraúna/PB,-6.643394,-36.2531932,770,15299.02643
D1,Baraúna/PB,-6.643394,-36.2531932,9,178.81979
1,Baraúna/RN,-5.0775002,-37.61752,1747,6000.96180
D1,Baraúna/RN,-5.0775002,-37.61752,31,106.48530
1,Barbacena/MG,-21.2254524,-43.7735087,14398,10353.72966
D1,Barbacena/MG,-21.2254524,-43.7735087,333,239.46326
1,Barbalha/CE,-7.3121067,-39.3036427,9093,14746.52136
D1,Barbalha/CE,-7.3121067,-39.3036427,190,308.13143
1,Barbosa Ferraz/PR,-24.0287182,-52.00811,2929,25950.20820
D1,Barbosa Ferraz/PR,-24.0287182,-52.00811,49,434.12776
1,Barbosa/SP,-21.265661,-49.951816,881,11696.76049
D1,Barbosa/SP,-21.265661,-49.951816,23,305.36378
1,Barcarena/PA,-1.5107945,-48.6190679,12777,9879.14917
D1,Barcarena/PA,-1.5107945,-48.6190679,250,193.29947
1,Barcelona/RN,-5.9514918,-35.9260284,380,9526.19704
D1,Barcelona/RN,-5.9514918,-35.9260284,9,225.62046
1,Barcelos/AM,-0.9729214,-62.925635,5303,19094.77171
D1,Barcelos/AM,-0.9729214,-62.925635,60,216.04494
1,Bariri/SP,-22.0746355,-48.7394852,3620,10099.31927
D1,Bariri/SP,-22.0746355,-48.7394852,142,396.16114
1,Barra Bonita/SC,-26.6526364,-53.4419581,400,24615.38462
D1,Barra Bonita/SC,-26.6526364,-53.4419581,2,123.07692
1,Barra Bonita/SP,-22.490859,-48.558349,5071,14037.37024
D1,Barra Bonita/SP,-22.490859,-48.558349,127,351.55709
1,Barra D'Alcântara/PI,-6.5209258,-42.1071089,156,3946.36985
D1,Barra D'Alcântara/PI,-6.5209258,-42.1071089,5,126.48621
1,Barra Funda/RS,-27.9230048,-53.0401045,940,36675.77058
D1,Barra Funda/RS,-27.9230048,-53.0401045,14,546.23488
1,Barra Longa/MG,-20.2833541,-43.0423516,591,12048.92966
D1,Barra Longa/MG,-20.2833541,-43.0423516,13,265.03568
1,Barra Mansa/RJ,-22.5394843,-44.1735129,43138,23288.00402
D1,Barra Mansa/RJ,-22.5394843,-44.1735129,731,394.62958
1,Barra Velha/SC,-26.6338203,-48.6835001,6107,19997.38040
D1,Barra Velha/SC,-26.6338203,-48.6835001,142,464.97921
1,Barra da Estiva/BA,-13.6269662,-41.3278287,3488,17269.03654
D1,Barra da Estiva/BA,-13.6269662,-41.3278287,35,173.28448
1,Barra de Guabiraba/PE,-8.4173522,-35.6626669,645,4408.14653
D1,Barra de Guabiraba/PE,-8.4173522,-35.6626669,19,129.85238
1,Barra de Santa Rosa/PB,-6.7218007,-36.0564638,1743,11168.06561
D1,Barra de Santa Rosa/PB,-6.7218007,-36.0564638,16,102.51810
1,Barra de Santana/PB,-7.5230865,-35.9988518,1093,13108.65915
D1,Barra de Santana/PB,-7.5230865,-35.9988518,8,95.94627
1,Barra de Santo Antônio/AL,-9.4038098,-35.5117693,603,3721.99247
D1,Barra de Santo Antônio/AL,-9.4038098,-35.5117693,33,203.69113
1,Barra de São Francisco/ES,-18.7570902,-40.8916119,10694,23606.54290
D1,Barra de São Francisco/ES,-18.7570902,-40.8916119,253,558.48657
1,Barra de São Miguel/AL,-9.8261357,-35.8837777,929,11014.93953
D1,Barra de São Miguel/AL,-9.8261357,-35.8837777,10,118.56770
1,Barra de São Miguel/PB,-7.7528088,-36.3170996,1175,19278.09680
D1,Barra de São Miguel/PB,-7.7528088,-36.3170996,10,164.06891
1,Barra do Bugres/MT,-15.0683712,-57.1853688,5867,16460.91690
D1,Barra do Bugres/MT,-15.0683712,-57.1853688,96,269.34515
1,Barra do Chapéu/SP,-24.472203,-49.023784,454,7835.69210
D1,Barra do Chapéu/SP,-24.472203,-49.023784,12,207.11080
1,Barra do Choça/BA,-14.8638173,-40.5761637,2705,8773.63692
D1,Barra do Choça/BA,-14.8638173,-40.5761637,38,123.25257
1,Barra do Corda/MA,-5.496823,-45.248496,5876,6610.04556
D1,Barra do Corda/MA,-5.496823,-45.248496,79,88.86889
1,Barra do Garças/MT,-15.8916033,-52.2615413,13882,22498.46034
D1,Barra do Garças/MT,-15.8916033,-52.2615413,400,648.27720
1,Barra do Guarita/RS,-27.1888016,-53.7147086,131,4011.02266
D1,Barra do Guarita/RS,-27.1888016,-53.7147086,8,244.94795
1,Barra do Jacaré/PR,-23.1151788,-50.1813945,571,20532.18267
D1,Barra do Jacaré/PR,-23.1151788,-50.1813945,7,251.70802
1,Barra do Mendes/BA,-11.8053298,-42.057037,1050,7998.17185
D1,Barra do Mendes/BA,-11.8053298,-42.057037,19,144.72882
1,Barra do Ouro/TO,-7.7113784,-47.6743925,176,3766.31714
D1,Barra do Ouro/TO,-7.7113784,-47.6743925,8,171.19623
1,Barra do Piraí/RJ,-22.4703403,-43.8263256,10153,10038.65967
D1,Barra do Piraí/RJ,-22.4703403,-43.8263256,433,428.12367
1,Barra do Quaraí/RS,-30.208947,-57.5505128,882,20811.70363
D1,Barra do Quaraí/RS,-30.208947,-57.5505128,9,212.36432
1,Barra do Ribeiro/RS,-30.2930206,-51.301437,1588,11661.03686
D1,Barra do Ribeiro/RS,-30.2930206,-51.301437,56,411.22044
1,Barra do Rio Azul/RS,-27.4101581,-52.4117471,207,12769.89513
D1,Barra do Rio Azul/RS,-27.4101581,-52.4117471,1,61.69031
1,Barra do Rocha/BA,-14.2090974,-39.6004395,659,11949.22937
D1,Barra do Rocha/BA,-14.2090974,-39.6004395,8,145.05893
1,Barra do Turvo/SP,-24.756421,-48.5056942,744,9781.75125
D1,Barra do Turvo/SP,-24.756421,-48.5056942,25,328.68788
1,Barra dos Coqueiros/SE,-10.9075694,-37.0386249,8392,26692.96097
D1,Barra dos Coqueiros/SE,-10.9075694,-37.0386249,106,337.16085
1,Barra/BA,-11.0892702,-43.1420453,3184,5871.83034
D1,Barra/BA,-11.0892702,-43.1420453,70,129.09175
1,Barracão/PR,-26.252395,-53.6349576,2491,24074.61100
D1,Barracão/PR,-26.252395,-53.6349576,39,376.92085
1,Barracão/RS,-27.6728964,-51.4582928,829,15829.67348
D1,Barracão/RS,-27.6728964,-51.4582928,17,324.61333
1,Barras/PI,-4.2446153,-42.2920241,5936,12550.21354
D1,Barras/PI,-4.2446153,-42.2920241,103,217.76819
1,Barreira/CE,-4.2883361,-38.641094,2103,9258.19943
D1,Barreira/CE,-4.2883361,-38.641094,52,228.92362
1,Barreiras do Piauí/PI,-9.9224524,-45.4763776,114,3396.90107
D1,Barreiras do Piauí/PI,-9.9224524,-45.4763776,4,119.18951
1,Barreiras/BA,-12.1440031,-44.9967406,23329,14724.92931
D1,Barreiras/BA,-12.1440031,-44.9967406,352,222.17734
1,Barreirinha/AM,-2.798863,-57.067897,3752,11397.67308
D1,Barreirinha/AM,-2.798863,-57.067897,68,206.56764
1,Barreirinhas/MA,-2.7541271,-42.8259693,2773,4340.20441
D1,Barreirinhas/MA,-2.7541271,-42.8259693,48,75.12795
1,Barreiros/PE,-8.8159644,-35.1831905,921,2148.55597
D1,Barreiros/PE,-8.8159644,-35.1831905,67,156.30103
1,Barretos/SP,-20.5531437,-48.5697509,20774,16814.78963
D1,Barretos/SP,-20.5531437,-48.5697509,622,503.45620
1,Barrinha/SP,-21.1898849,-48.1550642,1736,5176.37236
D1,Barrinha/SP,-21.1898849,-48.1550642,89,265.37854
1,Barro Alto/BA,-11.7618025,-41.9094904,1158,7632.98398
D1,Barro Alto/BA,-11.7618025,-41.9094904,17,112.05590
1,Barro Alto/GO,-14.9696025,-48.9190985,1894,16267.28506
D1,Barro Alto/GO,-14.9696025,-48.9190985,24,206.13244
1,Barro Duro/PI,-5.8180139,-42.5106589,810,11535.17516
D1,Barro Duro/PI,-5.8180139,-42.5106589,12,170.89148
1,Barro Preto/BA,-14.8068289,-39.4727588,748,14081.32530
D1,Barro Preto/BA,-14.8068289,-39.4727588,14,263.55422
1,Barro/CE,-7.1713587,-38.7742136,2501,10952.96488
D1,Barro/CE,-7.1713587,-38.7742136,49,214.59227
1,Barrocas/BA,-11.5165,-39.099282894736845,1043,6428.35131
D1,Barrocas/BA,-11.5165,-39.099282894736845,27,166.40986
1,Barrolândia/TO,-9.837246,-48.7264346,841,14835.06791
D1,Barrolândia/TO,-9.837246,-48.7264346,20,352.79591
1,Barroquinha/CE,-3.0200371,-41.1339229,1598,10604.55239
D1,Barroquinha/CE,-3.0200371,-41.1339229,26,172.53965
1,Barros Cassal/RS,-29.094938,-52.5832366,1427,12778.72302
D1,Barros Cassal/RS,-29.094938,-52.5832366,15,134.32435
1,Barroso/MG,-21.187222,-43.976111,4891,23311.56761
D1,Barroso/MG,-21.187222,-43.976111,67,319.33654
1,Barueri/SP,-23.5112184,-46.8764612,38274,13683.75139
D1,Barueri/SP,-23.5112184,-46.8764612,1243,444.39836
1,Barão de Antonina/SP,-23.6295651,-49.5632104,658,18666.66667
D1,Barão de Antonina/SP,-23.6295651,-49.5632104,11,312.05674
1,Barão de Cocais/MG,-19.9452437,-43.4870298,6590,19830.28406
D1,Barão de Cocais/MG,-19.9452437,-43.4870298,84,252.76842
1,Barão de Cotegipe/RS,-27.6214694,-52.3765316,1020,15417.17050
D1,Barão de Cotegipe/RS,-27.6214694,-52.3765316,11,166.26360
1,Barão de Grajaú/MA,-6.7542591,-43.0263477,481,2528.11942
D1,Barão de Grajaú/MA,-6.7542591,-43.0263477,7,36.79176
1,Barão de Melgaço/MT,-16.195776,-55.9668049,915,11206.36865
D1,Barão de Melgaço/MT,-16.195776,-55.9668049,18,220.45315
1,Barão de Monte Alto/MG,-21.244722,-42.2375,387,7286.76332
D1,Barão de Monte Alto/MG,-21.244722,-42.2375,16,301.26153
1,Barão do Triunfo/RS,-30.3909877,-51.7375349,693,9178.80795
D1,Barão do Triunfo/RS,-30.3909877,-51.7375349,8,105.96026
1,Barão/RS,-29.372474,-51.494908,1155,18533.37612
D1,Barão/RS,-29.372474,-51.494908,14,224.64698
1,Bastos/SP,-21.9222474,-50.7317727,2237,10676.78503
D1,Bastos/SP,-21.9222474,-50.7317727,54,257.73196
1,Bataguassu/MS,-21.715899,-52.422058,4121,17447.07875
D1,Bataguassu/MS,-21.715899,-52.422058,53,224.38611
1,Batalha/AL,-9.6733809,-37.1265481,1261,6838.39479
D1,Batalha/AL,-9.6733809,-37.1265481,23,124.72885
1,Batalha/PI,-4.022391,-42.0780926,1452,5387.55519
D1,Batalha/PI,-4.022391,-42.0780926,40,148.41750
1,Batatais/SP,-20.892867,-47.592149,6676,10523.66090
D1,Batatais/SP,-20.892867,-47.592149,198,312.11577
1,Batayporã/MS,-22.2976466,-53.2685608,1720,15130.19001
D1,Batayporã/MS,-22.2976466,-53.2685608,30,263.89866
1,Baturité/CE,-4.3290203,-38.8821055,5268,14581.89166
D1,Baturité/CE,-4.3290203,-38.8821055,89,246.35314
1,Bauru/SP,-22.3218102,-49.0705863,69625,18240.47827
D1,Bauru/SP,-22.3218102,-49.0705863,1382,362.05876
1,Bayeux/PB,-7.1301631,-34.936532,10494,10760.97991
D1,Bayeux/PB,-7.1301631,-34.936532,269,275.84368
1,Baía Formosa/RN,-6.3691885,-35.0063741,661,7052.17113
D1,Baía Formosa/RN,-6.3691885,-35.0063741,10,106.68943
1,Baía da Traição/PB,-6.691258,-34.9371244,1605,17451.34283
D1,Baía da Traição/PB,-6.691258,-34.9371244,12,130.47733
1,Bebedouro/SP,-20.949077,-48.479083,4993,6433.28351
D1,Bebedouro/SP,-20.949077,-48.479083,337,434.21120
1,Beberibe/CE,-4.1810469,-38.1298101,8466,15586.85446
D1,Beberibe/CE,-4.1810469,-38.1298101,140,257.75568
1,Bela Cruz/CE,-3.0529129,-40.167582,4018,12230.98231
D1,Bela Cruz/CE,-3.0529129,-40.167582,77,234.39165
1,Bela Vista da Caroba/PR,-25.8792818,-53.6672545,666,19565.21739
D1,Bela Vista da Caroba/PR,-25.8792818,-53.6672545,8,235.01763
1,Bela Vista de Goiás/GO,-16.9692949,-48.9513071,4600,14836.79525
D1,Bela Vista de Goiás/GO,-16.9692949,-48.9513071,87,280.60895
1,Bela Vista de Minas/MG,-19.8289721,-43.0973688,1302,12678.93661
D1,Bela Vista de Minas/MG,-19.8289721,-43.0973688,25,243.45116
1,Bela Vista do Maranhão/MA,-3.7416367,-45.2514192,230,2026.96748
D1,Bela Vista do Maranhão/MA,-3.7416367,-45.2514192,20,176.25804
1,Bela Vista do Paraíso/PR,-22.9948493,-51.1907996,3167,20564.93506
D1,Bela Vista do Paraíso/PR,-22.9948493,-51.1907996,80,519.48052
1,Bela Vista do Piauí/PI,-7.9716353,-41.8715061,324,8011.86944
D1,Bela Vista do Piauí/PI,-7.9716353,-41.8715061,7,173.09594
1,Bela Vista do Toldo/SC,-26.274625,-50.466354,98,1534.60695
D1,Bela Vista do Toldo/SC,-26.274625,-50.466354,5,78.29627
1,Bela Vista/MS,-22.107327,-56.5317344,2483,9995.16947
D1,Bela Vista/MS,-22.107327,-56.5317344,41,165.04307
1,Belford Roxo/RJ,-22.7667284,-43.4033603,36920,7165.60664
D1,Belford Roxo/RJ,-22.7667284,-43.4033603,1001,194.27877
1,Belmiro Braga/MG,-21.9486291,-43.413564,651,19023.96259
D1,Belmiro Braga/MG,-21.9486291,-43.413564,4,116.89071
1,Belmonte/BA,-15.8630837,-38.8792845,1603,6809.68564
D1,Belmonte/BA,-15.8630837,-38.8792845,32,135.93883
1,Belmonte/SC,-26.8448262,-53.578916,567,20907.07965
D1,Belmonte/SC,-26.8448262,-53.578916,5,184.36578
1,Belo Campo/BA,-15.0338286,-41.2585109,1158,6806.55969
D1,Belo Campo/BA,-15.0338286,-41.2585109,21,123.43502
1,Belo Horizonte/MG,-19.9227318,-43.9450948,348643,13776.53860
D1,Belo Horizonte/MG,-19.9227318,-43.9450948,7483,295.68882
1,Belo Jardim/PE,-8.3338293,-36.4176419,8004,10404.26362
D1,Belo Jardim/PE,-8.3338293,-36.4176419,133,172.88444
1,Belo Monte/AL,-9.8269944,-37.2787165,598,8902.78398
D1,Belo Monte/AL,-9.8269944,-37.2787165,9,133.98839
1,Belo Oriente/MG,-19.2232523,-42.4807033,3311,12138.43165
D1,Belo Oriente/MG,-19.2232523,-42.4807033,78,285.95520
1,Belo Vale/MG,-20.407778,-44.024167,1701,22025.11977
D1,Belo Vale/MG,-20.407778,-44.024167,13,168.32837
1,Belterra/PA,-2.636091,-54.937392,2811,15665.40348
D1,Belterra/PA,-2.636091,-54.937392,39,217.34284
1,Belágua/MA,-3.1604031,-43.5085052,446,5879.25125
D1,Belágua/MA,-3.1604031,-43.5085052,4,52.72871
1,Belém de Maria/PE,-8.6242497,-35.8388934,507,4166.32427
D1,Belém de Maria/PE,-8.6242497,-35.8388934,8,65.74082
1,Belém do Brejo do Cruz/PB,-6.1880727,-37.5332267,816,11092.98532
D1,Belém do Brejo do Cruz/PB,-6.1880727,-37.5332267,8,108.75476
1,Belém do Piauí/PI,-7.3767305,-40.9712156,619,17161.07569
D1,Belém do Piauí/PI,-7.3767305,-40.9712156,8,221.79096
1,Belém do São Francisco/PE,-8.7517707,-38.9625715,1372,6618.42740
D1,Belém do São Francisco/PE,-8.7517707,-38.9625715,15,72.35890
1,Belém/AL,-9.5715351,-36.492841,210,4969.23805
D1,Belém/AL,-9.5715351,-36.492841,8,189.30431
1,Belém/PA,-1.45056,-48.4682453,131183,8708.26197
D1,Belém/PA,-1.45056,-48.4682453,5279,350.43348
1,Belém/PB,-6.6967586,-35.5369626,3060,17255.96346
D1,Belém/PB,-6.6967586,-35.5369626,48,270.68178
1,Beneditinos/PI,-5.4565671,-42.3605061,1445,13789.48373
D1,Beneditinos/PI,-5.4565671,-42.3605061,41,391.25871
1,Benedito Leite/MA,-7.2173453,-44.5523331,339,6007.44285
D1,Benedito Leite/MA,-7.2173453,-44.5523331,2,35.44214
1,Benedito Novo/SC,-26.7840657,-49.3629511,1487,12500.00000
D1,Benedito Novo/SC,-26.7840657,-49.3629511,22,184.93611
1,Benevides/PA,-1.3555577,-48.252235,6241,9634.14634
D1,Benevides/PA,-1.3555577,-48.252235,112,172.89287
1,Benjamin Constant do Sul/RS,-27.5105555,-52.6007689,203,10550.93555
D1,Benjamin Constant do Sul/RS,-27.5105555,-52.6007689,3,155.92516
1,Benjamin Constant/AM,-4.3782748,-70.0290603,3985,8880.61863
D1,Benjamin Constant/AM,-4.3782748,-70.0290603,88,196.10902
1,Bento Fernandes/RN,-5.6926846,-35.8207423,190,3422.19020
D1,Bento Fernandes/RN,-5.6926846,-35.8207423,3,54.03458
1,Bento Gonçalves/RS,-29.1654014,-51.5197627,34735,28219.18921
D1,Bento Gonçalves/RS,-29.1654014,-51.5197627,442,359.08685
1,Bento de Abreu/SP,-21.2707225,-50.8120444,603,19914.13474
D1,Bento de Abreu/SP,-21.2707225,-50.8120444,5,165.12550
1,Bequimão/MA,-2.4495376,-44.7884889,499,2340.85472
D1,Bequimão/MA,-2.4495376,-44.7884889,29,136.04166
1,Berilo/MG,-16.9515764,-42.4643732,387,3276.05181
D1,Berilo/MG,-16.9515764,-42.4643732,1,8.46525
1,Berizal/MG,-15.6118785,-41.7417382,331,6907.34558
D1,Berizal/MG,-15.6118785,-41.7417382,3,62.60434
1,Bernardino Batista/PB,-6.4532173,-38.5495418,436,12209.46514
D1,Bernardino Batista/PB,-6.4532173,-38.5495418,2,56.00672
1,Bernardino de Campos/SP,-23.0140216,-49.4760724,1962,17568.05158
D1,Bernardino de Campos/SP,-23.0140216,-49.4760724,38,340.25788
1,Bernardo Sayão/TO,-7.8794244,-48.8968905,947,21333.63370
D1,Bernardo Sayão/TO,-7.8794244,-48.8968905,13,292.85875
1,Bernardo do Mearim/MA,-4.6315929,-44.7617508,577,9455.91609
D1,Bernardo do Mearim/MA,-4.6315929,-44.7617508,7,114.71649
1,Bertioga/SP,-23.848568,-46.139586,7901,11943.34432
D1,Bertioga/SP,-23.848568,-46.139586,185,279.65051
1,Bertolínia/PI,-7.6372159,-43.9540611,1135,20591.43687
D1,Bertolínia/PI,-7.6372159,-43.9540611,12,217.70682
1,Bertópolis/MG,-17.063333,-40.573889,725,15730.09330
D1,Bertópolis/MG,-17.063333,-40.573889,6,130.18008
1,Beruri/AM,-3.9007135,-61.3717319,2883,14061.35687
D1,Beruri/AM,-3.9007135,-61.3717319,35,170.70673
1,Betim/MG,-19.968056,-44.198333,46282,10284.34039
D1,Betim/MG,-19.968056,-44.198333,1415,314.42767
1,Betânia do Piauí/PI,-8.1460635,-40.7961387,183,2944.96299
D1,Betânia do Piauí/PI,-8.1460635,-40.7961387,4,64.37078
1,Betânia/PE,-8.2742779,-38.0351767,552,4308.79713
D1,Betânia/PE,-8.2742779,-38.0351767,19,148.31005
1,Bezerros/PE,-8.2372132,-35.7558262,7242,11879.92126
D1,Bezerros/PE,-8.2372132,-35.7558262,129,211.61417
1,Bias Fortes/MG,-21.605833,-43.756944,119,3625.83790
D1,Bias Fortes/MG,-21.605833,-43.756944,4,121.87690
1,Bicas/MG,-21.7213723,-43.0604327,3357,22974.26773
D1,Bicas/MG,-21.7213723,-43.0604327,51,349.02820
1,Biguaçu/SC,-27.4961277,-48.6542432,15846,22485.84524
D1,Biguaçu/SC,-27.4961277,-48.6542432,182,258.26226
1,Bilac/SP,-21.403962,-50.47464,962,11736.00098
D1,Bilac/SP,-21.403962,-50.47464,23,280.59046
1,Biquinhas/MG,-18.783611,-45.502222,388,15632.55439
D1,Biquinhas/MG,-18.783611,-45.502222,4,161.16035
1,Birigui/SP,-21.2908491,-50.34144,21416,16984.15468
D1,Birigui/SP,-21.2908491,-50.34144,635,503.59256
1,Biritiba Mirim/SP,-23.5697765,-46.0407456,1575,4734.70615
D1,Biritiba Mirim/SP,-23.5697765,-46.0407456,116,348.71487
1,Biritinga/BA,-11.6227908,-38.8066738,728,4553.13028
D1,Biritinga/BA,-11.6227908,-38.8066738,10,62.54300
1,Bituruna/PR,-26.161281,-51.5533319,2513,15312.89988
D1,Bituruna/PR,-26.161281,-51.5533319,36,219.36506
1,Blumenau/SC,-26.9195567,-49.0658025,84685,23111.58295
D1,Blumenau/SC,-26.9195567,-49.0658025,768,209.59669
1,Boa Esperança do Iguaçu/PR,-25.6362851,-53.2139114,448,18383.25810
D1,Boa Esperança do Iguaçu/PR,-25.6362851,-53.2139114,1,41.03406
1,Boa Esperança do Sul/SP,-21.9930206,-48.3917372,2607,17252.33274
D1,Boa Esperança do Sul/SP,-21.9930206,-48.3917372,25,165.44239
1,Boa Esperança/ES,-18.5395472,-40.2904088,3905,25782.38479
D1,Boa Esperança/ES,-18.5395472,-40.2904088,51,336.72257
1,Boa Esperança/MG,-21.0901253,-45.5660195,7827,19417.98154
D1,Boa Esperança/MG,-21.0901253,-45.5660195,149,369.65367
1,Boa Esperança/PR,-24.2411024,-52.7860277,1308,32773.74092
D1,Boa Esperança/PR,-24.2411024,-52.7860277,20,501.12754
1,Boa Hora/PI,-4.4094627,-42.1255341,607,8863.90187
D1,Boa Hora/PI,-4.4094627,-42.1255341,7,102.21963
1,Boa Nova/BA,-14.365907,-40.2063056,1193,9909.46092
D1,Boa Nova/BA,-14.365907,-40.2063056,23,191.04577
1,Boa Ventura de São Roque/PR,-24.88177,-51.5441292,1048,16522.15040
D1,Boa Ventura de São Roque/PR,-24.88177,-51.5441292,9,141.88870
1,Boa Ventura/PB,-7.4202462,-38.2156782,923,17587.65244
D1,Boa Ventura/PB,-7.4202462,-38.2156782,12,228.65854
1,Boa Viagem/CE,-5.1261877,-39.7300055,5283,9661.66789
D1,Boa Viagem/CE,-5.1261877,-39.7300055,121,221.28749
1,Boa Vista da Aparecida/PR,-25.4357216,-53.4067721,1725,22926.63477
D1,Boa Vista da Aparecida/PR,-25.4357216,-53.4067721,38,505.05051
1,Boa Vista das Missões/RS,-27.6677983,-53.3127622,375,17968.37566
D1,Boa Vista das Missões/RS,-27.6677983,-53.3127622,7,335.40968
1,Boa Vista do Buricá/RS,-27.6687782,-54.1111913,1626,24225.26818
D1,Boa Vista do Buricá/RS,-27.6687782,-54.1111913,13,193.68296
1,Boa Vista do Cadeado/RS,-28.5783827,-53.8123759,341,13828.06164
D1,Boa Vista do Cadeado/RS,-28.5783827,-53.8123759,4,162.20600
1,Boa Vista do Gurupi/MA,-1.7981168,-46.3071882,16,188.36826
D1,Boa Vista do Gurupi/MA,-1.7981168,-46.3071882,5,58.86508
1,Boa Vista do Incra/RS,-28.8195551,-53.3866624,594,22602.73973
D1,Boa Vista do Incra/RS,-28.8195551,-53.3866624,5,190.25875
1,Boa Vista do Ramos/AM,-2.9716927,-57.5869819,1667,8318.36327
D1,Boa Vista do Ramos/AM,-2.9716927,-57.5869819,13,64.87026
1,Boa Vista do Sul/RS,-29.3510488,-51.6779679,535,19293.18428
D1,Boa Vista do Sul/RS,-29.3510488,-51.6779679,5,180.31013
1,Boa Vista do Tupim/BA,-12.6605988,-40.6083594,308,1665.67519
D1,Boa Vista do Tupim/BA,-12.6605988,-40.6083594,12,64.89644
1,Boa Vista/PB,-7.2620711,-36.2415161,1418,19645.33112
D1,Boa Vista/PB,-7.2620711,-36.2415161,16,221.66805
1,Boa Vista/RR,2.8208478,-60.6719582,119023,27261.89958
D1,Boa Vista/RR,2.8208478,-60.6719582,1614,369.68238
1,Boca da Mata/AL,-9.6452054,-36.2116658,2535,9242.04309
D1,Boca da Mata/AL,-9.6452054,-36.2116658,50,182.28882
1,Boca do Acre/AM,-8.7553487,-67.3930873,4175,11942.90291
D1,Boca do Acre/AM,-8.7553487,-67.3930873,32,91.53842
1,Bocaina de Minas/MG,-22.167778,-44.394722,441,8667.45283
D1,Bocaina de Minas/MG,-22.167778,-44.394722,7,137.57862
1,Bocaina do Sul/SC,-27.745494,-49.942279,764,21822.33648
D1,Bocaina do Sul/SC,-27.745494,-49.942279,5,142.81634
1,Bocaina/PI,-6.9445939,-41.3224599,451,10002.21779
D1,Bocaina/PI,-6.9445939,-41.3224599,11,243.95653
1,Bocaina/SP,-22.1421831,-48.522276,2233,17763.10556
D1,Bocaina/SP,-22.1421831,-48.522276,37,294.32822
1,Bocaiúva do Sul/PR,-25.206591,-49.114131,2957,22219.71746
D1,Bocaiúva do Sul/PR,-25.206591,-49.114131,29,217.91404
1,Bocaiúva/MG,-17.1160208,-43.8122678,4361,8632.05400
D1,Bocaiúva/MG,-17.1160208,-43.8122678,73,144.49437
1,Bodocó/PE,-7.777592,-39.933797,2260,5854.16397
D1,Bodocó/PE,-7.777592,-39.933797,44,113.97487
1,Bodoquena/MS,-20.5508775,-56.6769653,628,8049.21815
D1,Bodoquena/MS,-20.5508775,-56.6769653,22,281.97898
1,Bodó/RN,-5.9866104,-36.4134824,440,20267.15799
D1,Bodó/RN,-5.9866104,-36.4134824,1,46.06172
1,Bofete/SP,-23.1019554,-48.2610535,1764,14570.08342
D1,Bofete/SP,-23.1019554,-48.2610535,27,223.01148
1,Boituva/SP,-23.2838893,-47.6738231,7006,11066.18228
D1,Boituva/SP,-23.2838893,-47.6738231,208,328.54209
1,Bom Conselho/PE,-9.169191,-36.685683,3417,6977.02910
D1,Bom Conselho/PE,-9.169191,-36.685683,82,167.43236
1,Bom Despacho/MG,-19.7375242,-45.2517288,10703,20808.38323
D1,Bom Despacho/MG,-19.7375242,-45.2517288,121,235.24380
1,Bom Jardim da Serra/SC,-28.3380324,-49.625588,986,20537.38804
D1,Bom Jardim da Serra/SC,-28.3380324,-49.625588,8,166.63195
1,Bom Jardim de Goiás/GO,-16.2062659,-52.172793,1863,20904.39856
D1,Bom Jardim de Goiás/GO,-16.2062659,-52.172793,30,336.62478
1,Bom Jardim de Minas/MG,-21.9476466,-44.1906033,1089,16899.44134
D1,Bom Jardim de Minas/MG,-21.9476466,-44.1906033,5,77.59156
1,Bom Jardim/MA,-3.54129,-45.606004,1994,4746.48893
D1,Bom Jardim/MA,-3.54129,-45.606004,58,138.06237
1,Bom Jardim/PE,-7.7961572,-35.5871696,2235,5582.19691
D1,Bom Jardim/PE,-7.7961572,-35.5871696,73,182.32679
1,Bom Jardim/RJ,-22.1515328,-42.4186683,3954,14233.77371
D1,Bom Jardim/RJ,-22.1515328,-42.4186683,59,212.39065
1,Bom Jesus da Lapa/BA,-13.250571,-43.410754,7269,10361.93354
D1,Bom Jesus da Lapa/BA,-13.250571,-43.410754,105,149.67713
1,Bom Jesus da Penha/MG,-21.0165299,-46.5226644,1097,25690.86651
D1,Bom Jesus da Penha/MG,-21.0165299,-46.5226644,20,468.38407
1,Bom Jesus da Serra/BA,-14.3724084,-40.5047119,595,6091.31859
D1,Bom Jesus da Serra/BA,-14.3724084,-40.5047119,12,122.85012
1,Bom Jesus das Selvas/MA,-4.4878075,-46.8526639,4421,12597.23607
D1,Bom Jesus das Selvas/MA,-4.4878075,-46.8526639,48,136.77162
1,Bom Jesus de Goiás/GO,-18.2174587,-49.739721,4740,18182.51563
D1,Bom Jesus de Goiás/GO,-18.2174587,-49.739721,121,464.15283
1,Bom Jesus do Amparo/MG,-19.7045132,-43.4752911,482,7796.82951
D1,Bom Jesus do Amparo/MG,-19.7045132,-43.4752911,8,129.40796
1,Bom Jesus do Araguaia/MT,-12.1725897,-51.5074425,1130,16544.65593
D1,Bom Jesus do Araguaia/MT,-12.1725897,-51.5074425,17,248.90190
1,Bom Jesus do Galho/MG,-19.8283191,-42.3162256,1009,6821.25473
D1,Bom Jesus do Galho/MG,-19.8283191,-42.3162256,39,263.65603
1,Bom Jesus do Itabapoana/RJ,-21.1341025,-41.680095,7318,19616.14754
D1,Bom Jesus do Itabapoana/RJ,-21.1341025,-41.680095,118,316.30301
1,Bom Jesus do Norte/ES,-21.1254776,-41.6711646,2243,22456.94834
D1,Bom Jesus do Norte/ES,-21.1254776,-41.6711646,31,310.37245
1,Bom Jesus do Oeste/SC,-26.6929713,-53.0967453,359,16807.11610
D1,Bom Jesus do Oeste/SC,-26.6929713,-53.0967453,6,280.89888
1,Bom Jesus do Sul/PR,-26.1922507,-53.6002033,1211,34879.03226
D1,Bom Jesus do Sul/PR,-26.1922507,-53.6002033,7,201.61290
1,Bom Jesus do Tocantins/PA,-5.0471796,-48.5978362,1216,7047.64113
D1,Bom Jesus do Tocantins/PA,-5.0471796,-48.5978362,29,168.07697
1,Bom Jesus do Tocantins/TO,-8.96306,-48.165043,187,3652.34375
D1,Bom Jesus do Tocantins/TO,-8.96306,-48.165043,3,58.59375
1,Bom Jesus dos Perdões/SP,-23.1353864,-46.4648052,2498,9424.28129
D1,Bom Jesus dos Perdões/SP,-23.1353864,-46.4648052,32,120.72738
1,Bom Jesus/PB,-6.8156725,-38.6551841,362,13987.63524
D1,Bom Jesus/PB,-6.8156725,-38.6551841,3,115.91963
1,Bom Jesus/PI,-9.0711644,-44.3583926,3840,15009.38086
D1,Bom Jesus/PI,-9.0711644,-44.3583926,51,199.34334
1,Bom Jesus/RN,-5.9887544,-35.5821149,1320,12786.98053
D1,Bom Jesus/RN,-5.9887544,-35.5821149,20,193.74213
1,Bom Jesus/RS,-28.6692723,-50.4346894,1667,14791.48181
D1,Bom Jesus/RS,-28.6692723,-50.4346894,25,221.82786
1,Bom Jesus/SC,-26.7350604,-52.3916519,767,24710.05155
D1,Bom Jesus/SC,-26.7350604,-52.3916519,12,386.59794
1,Bom Lugar/MA,-4.3728019,-45.0366054,656,3957.05151
D1,Bom Lugar/MA,-4.3728019,-45.0366054,7,42.22464
1,Bom Princípio do Piauí/PI,-3.1912777,-41.6430185,240,4232.80423
D1,Bom Princípio do Piauí/PI,-3.1912777,-41.6430185,13,229.27690
1,Bom Princípio/RS,-29.489788,-51.3566782,3401,23542.84923
D1,Bom Princípio/RS,-29.489788,-51.3566782,34,235.35927
1,Bom Progresso/RS,-27.5490948,-53.8655601,306,16469.32185
D1,Bom Progresso/RS,-27.5490948,-53.8655601,3,161.46394
1,Bom Repouso/MG,-22.4657069,-46.1485376,1925,18286.31139
D1,Bom Repouso/MG,-22.4657069,-46.1485376,33,313.47962
1,Bom Retiro do Sul/RS,-29.6000007,-51.9359243,1995,16026.67095
D1,Bom Retiro do Sul/RS,-29.6000007,-51.9359243,39,313.30334
1,Bom Retiro/SC,-27.798993,-49.486994,1226,12075.24869
D1,Bom Retiro/SC,-27.798993,-49.486994,22,216.68472
1,Bom Sucesso de Itararé/SP,-24.3190016,-49.1446207,261,6503.86245
D1,Bom Sucesso de Itararé/SP,-24.3190016,-49.1446207,7,174.43309
1,Bom Sucesso do Sul/PR,-26.0749256,-52.8348629,855,26356.35018
D1,Bom Sucesso do Sul/PR,-26.0749256,-52.8348629,10,308.26141
1,Bom Sucesso/MG,-21.0323516,-44.7598082,1961,11134.45378
D1,Bom Sucesso/MG,-21.0323516,-44.7598082,30,170.33841
1,Bom Sucesso/PB,-6.4458948,-37.9297662,664,13449.46324
D1,Bom Sucesso/PB,-6.4458948,-37.9297662,5,101.27608
1,Bom Sucesso/PR,-23.7088019,-51.7651297,2231,31409.26369
D1,Bom Sucesso/PR,-23.7088019,-51.7651297,22,309.72828
1,Bombinhas/SC,-27.1519159,-48.4875691,4425,21183.39796
D1,Bombinhas/SC,-27.1519159,-48.4875691,74,354.25343
1,Bonfim do Piauí/PI,-9.1648678,-42.8734415,518,9087.71930
D1,Bonfim do Piauí/PI,-9.1648678,-42.8734415,8,140.35088
1,Bonfim/MG,-20.3266626, -44.2386157,828,12084.06305
D1,Bonfim/MG,-20.3266626, -44.2386157,19,277.29130
1,Bonfim/RR,3.3613818,-59.8427241,2874,22628.13952
D1,Bonfim/RR,3.3613818,-59.8427241,36,283.44225
1,Bonfinópolis de Minas/MG,-16.5660011,-45.98645,927,17176.20901
D1,Bonfinópolis de Minas/MG,-16.5660011,-45.98645,14,259.40337
1,Bonfinópolis/GO,-16.6172709,-48.9615701,569,5622.52964
D1,Bonfinópolis/GO,-16.6172709,-48.9615701,36,355.73123
1,Boninal/BA,-12.7095183,-41.8299984,905,6233.64100
D1,Boninal/BA,-12.7095183,-41.8299984,9,61.99201
1,Bonito de Minas/MG,-15.3191266,-44.7544,379,3295.07912
D1,Bonito de Minas/MG,-15.3191266,-44.7544,3,26.08242
1,Bonito de Santa Fé/PB,-7.3143332,-38.5146677,810,6679.86145
D1,Bonito de Santa Fé/PB,-7.3143332,-38.5146677,14,115.45440
1,Bonito/BA,-11.9665473,-41.2649896,1348,7929.87823
D1,Bonito/BA,-11.9665473,-41.2649896,14,82.35779
1,Bonito/MS,-21.1264766,-56.4902208,4738,21150.84148
D1,Bonito/MS,-21.1264766,-56.4902208,80,357.12691
1,Bonito/PA,-1.3605722,-47.3049907,514,3065.17980
D1,Bonito/PA,-1.3605722,-47.3049907,16,95.41416
1,Bonito/PE,-8.4721161,-35.7314591,2270,5957.84888
D1,Bonito/PE,-8.4721161,-35.7314591,46,120.73174
1,Bonópolis/GO,-13.649331,-49.8329113,658,14369.94977
D1,Bonópolis/GO,-13.649331,-49.8329113,3,65.51649
1,Boqueirão do Leão/RS,-29.30332,-52.4296817,708,9205.56495
D1,Boqueirão do Leão/RS,-29.30332,-52.4296817,35,455.07736
1,Boqueirão do Piauí/PI,-4.4850148,-42.1095161,884,13720.31662
D1,Boqueirão do Piauí/PI,-4.4850148,-42.1095161,14,217.29008
1,Boqueirão/PB,-7.487004,-36.130887,2453,13677.93019
D1,Boqueirão/PB,-7.487004,-36.130887,49,273.22404
1,Boquim/SE,-11.1450175,-37.6204228,3528,13076.35285
D1,Boquim/SE,-11.1450175,-37.6204228,76,281.69014
1,Boquira/BA,-12.8184859,-42.7270883,1044,4858.97794
D1,Boquira/BA,-12.8184859,-42.7270883,24,111.70064
1,Boracéia/SP,-22.195355,-48.7801925,1048,21331.16222
D1,Boracéia/SP,-22.195355,-48.7801925,26,529.20822
1,Borba/AM,-4.3934778,-59.5947721,3540,8363.25836
D1,Borba/AM,-4.3934778,-59.5947721,71,167.73767
1,Borborema/PB,-6.8066718,-35.5990191,476,8962.53060
D1,Borborema/PB,-6.8066718,-35.5990191,14,263.60384
1,Borborema/SP,-21.6212706,-49.074135,2877,17674.16144
D1,Borborema/SP,-21.6212706,-49.074135,58,356.30913
1,Borda da Mata/MG,-22.274167,-46.165278,4283,21621.48518
D1,Borda da Mata/MG,-22.274167,-46.165278,61,307.94083
1,Borebi/SP,-22.5700178,-48.9714871,299,11021.00995
D1,Borebi/SP,-22.5700178,-48.9714871,4,147.43826
1,Borrazópolis/PR,-23.9393362,-51.5850786,1639,26057.23370
D1,Borrazópolis/PR,-23.9393362,-51.5850786,36,572.33704
1,Borá/SP,-22.2701088,-50.544407,161,19189.51132
D1,Borá/SP,-22.2701088,-50.544407,1,119.18951
1,Bossoroca/RS,-28.7278885,-54.9120278,593,9665.85167
D1,Bossoroca/RS,-28.7278885,-54.9120278,22,358.59821
1,Botelhos/MG,-21.65,-46.394722,3223,21591.74650
D1,Botelhos/MG,-21.65,-46.394722,36,241.17371
1,Botucatu/SP,-22.8879628,-48.4410712,35183,23499.51242
D1,Botucatu/SP,-22.8879628,-48.4410712,360,240.45205
1,Botumirim/MG,-16.862778,-43.011111,659,10528.83847
D1,Botumirim/MG,-16.862778,-43.011111,4,63.90797
1,Botuporã/BA,-13.3744752,-42.5198469,689,6855.72139
D1,Botuporã/BA,-13.3744752,-42.5198469,8,79.60199
1,Botuverá/SC,-27.200749,-49.068892,1510,27983.69162
D1,Botuverá/SC,-27.200749,-49.068892,12,222.38695
1,Bozano/RS,-28.3669953,-53.7705165,502,23916.15055
D1,Bozano/RS,-28.3669953,-53.7705165,8,381.13387
1,Braga/RS,-27.617348,-53.740514,673,20574.74778
D1,Braga/RS,-27.617348,-53.740514,10,305.71691
1,Braganey/PR,-24.8179919,-53.118506,1198,22442.86250
D1,Braganey/PR,-24.8179919,-53.118506,12,224.80330
1,Bragança Paulista/SP,-22.9520235,-46.5418586,26010,15091.73407
D1,Bragança Paulista/SP,-22.9520235,-46.5418586,623,361.48213
1,Bragança/PA,-1.0573967,-46.7635406,6905,5306.55846
D1,Bragança/PA,-1.0573967,-46.7635406,179,137.56321
1,Branquinha/AL,-9.2478057,-36.0152009,1091,10464.22406
D1,Branquinha/AL,-9.2478057,-36.0152009,16,153.46250
1,Brasil Novo/PA,-3.3055853,-52.539198,4096,27521.33306
D1,Brasil Novo/PA,-3.3055853,-52.539198,44,295.63932
1,Brasileira/PI,-4.131182,-41.7824969,739,8835.48541
D1,Brasileira/PI,-4.131182,-41.7824969,20,239.12004
1,Brasilândia de Minas/MG,-17.0096469,-46.0087183,2775,16371.68142
D1,Brasilândia de Minas/MG,-17.0096469,-46.0087183,29,171.09145
1,Brasilândia do Sul/PR,-24.1975793,-53.527551,825,32725.10908
D1,Brasilândia do Sul/PR,-24.1975793,-53.527551,13,515.66839
1,Brasilândia do Tocantins/TO,-8.3886619,-48.4842729,258,11616.38901
D1,Brasilândia do Tocantins/TO,-8.3886619,-48.4842729,6,270.14858
1,Brasilândia/MS,-21.255575,-52.0365617,1795,15166.87790
D1,Brasilândia/MS,-21.255575,-52.0365617,27,228.13688
1,Brasiléia/AC,-11.0010413,-68.7487894,3574,13177.00844
D1,Brasiléia/AC,-11.0010413,-68.7487894,46,169.59776
1,Brasnorte/MT,-12.1227151,-58.0050109,3095,15045.45234
D1,Brasnorte/MT,-12.1227151,-58.0050109,44,213.89335
1,Brasília de Minas/MG,-16.2075114,-44.430559,2164,6666.66667
D1,Brasília de Minas/MG,-16.2075114,-44.430559,10,30.80715
1,Brasília/DF,-15.7934036,-47.8823172,687358,22213.50375
D1,Brasília/DF,-15.7934036,-47.8823172,11497,371.55115
1,Brazabrantes/GO,-16.4291635,-49.3858216,762,19989.50682
D1,Brazabrantes/GO,-16.4291635,-49.3858216,8,209.86359
1,Brazópolis/MG,-22.4742842,-45.6165577,1685,11730.71568
D1,Brazópolis/MG,-22.4742842,-45.6165577,36,250.62657
1,Braço do Norte/SC,-28.2728633,-49.1622712,12261,35752.60979
D1,Braço do Norte/SC,-28.2728633,-49.1622712,118,344.08351
1,Braço do Trombudo/SC,-27.358578,-49.882145,1232,32472.32472
D1,Braço do Trombudo/SC,-27.358578,-49.882145,7,184.50185
1,Braúna/SP,-21.5015319,-50.3175246,631,10888.69715
D1,Braúna/SP,-21.5015319,-50.3175246,26,448.66264
1,Braúnas/MG,-19.055556,-42.716111,341,7198.64893
D1,Braúnas/MG,-19.055556,-42.716111,11,232.21448
1,Brejetuba/ES,-20.1465817,-41.2902303,2882,23148.59438
D1,Brejetuba/ES,-20.1465817,-41.2902303,20,160.64257
1,Brejinho de Nazaré/TO,-11.0205883,-48.5722906,1103,19909.74729
D1,Brejinho de Nazaré/TO,-11.0205883,-48.5722906,19,342.96029
1,Brejinho/PE,-7.3482153,-37.28538,971,12965.68300
D1,Brejinho/PE,-7.3482153,-37.28538,22,293.76419
1,Brejinho/RN,-6.1957907,-35.3583019,1716,13330.22605
D1,Brejinho/RN,-6.1957907,-35.3583019,20,155.36394
1,Brejo Alegre/SP,-21.1671191,-50.1850393,629,21607.69495
D1,Brejo Alegre/SP,-21.1671191,-50.1850393,13,446.58193
1,Brejo Grande do Araguaia/PA,-5.7011449,-48.4037308,1128,15332.33655
D1,Brejo Grande do Araguaia/PA,-5.7011449,-48.4037308,6,81.55498
1,Brejo Grande/SE,-10.4287358,-36.4667918,600,7146.26012
D1,Brejo Grande/SE,-10.4287358,-36.4667918,13,154.83564
1,Brejo Santo/CE,-7.4909841,-38.9859152,9855,19633.42962
D1,Brejo Santo/CE,-7.4909841,-38.9859152,159,316.76462
1,Brejo da Madre de Deus/PE,-8.1409718,-36.3712527,2927,5661.94677
D1,Brejo da Madre de Deus/PE,-8.1409718,-36.3712527,59,114.12875
1,Brejo de Areia/MA,-4.3316785,-45.5833334,412,4660.10632
D1,Brejo de Areia/MA,-4.3316785,-45.5833334,11,124.42031
1,Brejo do Cruz/PB,-6.32926065,-37.48746163303929,2062,14432.70106
D1,Brejo do Cruz/PB,-6.32926065,-37.48746163303929,25,174.98425
1,Brejo do Piauí/PI,-8.207583,-42.8359849,160,4184.10042
D1,Brejo do Piauí/PI,-8.207583,-42.8359849,5,130.75314
1,Brejo dos Santos/PB,-6.3769367,-37.8243125,1338,20651.33508
D1,Brejo dos Santos/PB,-6.3769367,-37.8243125,8,123.47585
1,Brejo/MA,-3.6804397,-42.7529313,1076,2915.98916
D1,Brejo/MA,-3.6804397,-42.7529313,19,51.49051
1,Brejolândia/BA,-12.4843845,-43.9611861,219,2051.52225
D1,Brejolândia/BA,-12.4843845,-43.9611861,12,112.41218
1,Brejão/PE,-9.029146,-36.566034,570,6346.73199
D1,Brejão/PE,-9.029146,-36.566034,9,100.21156
1,Brejões/BA,-13.1033754,-39.7909837,1042,7361.35641
D1,Brejões/BA,-13.1033754,-39.7909837,14,98.90498
1,Breu Branco/PA,-3.7785073,-49.5684795,1373,2001.54526
D1,Breu Branco/PA,-3.7785073,-49.5684795,72,104.96086
1,Breves/PA,-1.68036,-50.479085,4866,4666.28308
D1,Breves/PA,-1.68036,-50.479085,125,119.86958
1,Britânia/GO,-15.2427599,-51.1602061,805,13843.50817
D1,Britânia/GO,-15.2427599,-51.1602061,9,154.77214
1,Brochier/RS,-29.556766,-51.5963047,1045,20362.43180
D1,Brochier/RS,-29.556766,-51.5963047,7,136.39906
1,Brodowski/SP,-20.984532,-47.657217,3364,13138.05897
D1,Brodowski/SP,-20.984532,-47.657217,83,324.15544
1,Brotas de Macaúbas/BA,-12.0019007,-42.6257506,465,4343.76460
D1,Brotas de Macaúbas/BA,-12.0019007,-42.6257506,9,84.07286
1,Brotas/SP,-22.2840884,-48.1267265,3216,12935.40343
D1,Brotas/SP,-22.2840884,-48.1267265,75,301.66519
1,Brumadinho/MG,-20.143611,-44.2,6503,15780.91633
D1,Brumadinho/MG,-20.143611,-44.2,104,252.37818
1,Brumado/BA,-14.29507325,-41.659307508575985,11131,16498.19174
D1,Brumado/BA,-14.29507325,-41.659307508575985,203,300.88338
1,Brunópolis/SC,-27.310953,-50.837585,630,27178.60224
D1,Brunópolis/SC,-27.310953,-50.837585,9,388.26575
1,Brusque/SC,-27.0964628,-48.9136323,35570,25299.25959
D1,Brusque/SC,-27.0964628,-48.9136323,349,248.22720
1,Brás Pires/MG,-20.8483109,-43.2430524,612,14383.07873
D1,Brás Pires/MG,-20.8483109,-43.2430524,10,235.01763
1,Bueno Brandão/MG,-22.441976,-46.3517971,1613,14687.67073
D1,Bueno Brandão/MG,-22.441976,-46.3517971,33,300.49171
1,Buenos Aires/PE,-7.7218931,-35.326587,671,5074.10768
D1,Buenos Aires/PE,-7.7218931,-35.326587,25,189.05021
1,Buenópolis/MG,-17.8756607,-44.1749365,790,7638.75459
D1,Buenópolis/MG,-17.8756607,-44.1749365,19,183.71688
1,Buerarema/BA,-14.9571177,-39.3008035,1571,8599.26652
D1,Buerarema/BA,-14.9571177,-39.3008035,50,273.68767
1,Bugre/MG,-19.4257687,-42.2556,378,9487.95181
D1,Bugre/MG,-19.4257687,-42.2556,13,326.30522
1,Bujari/AC,-9.8309656,-67.9520886,1592,15058.64548
D1,Bujari/AC,-9.8309656,-67.9520886,17,160.80212
1,Bujaru/PA,-1.5169239,-48.0410699,1886,6346.53565
D1,Bujaru/PA,-1.5169239,-48.0410699,43,144.69832
1,Buri/SP,-23.79849,-48.598924,3314,16528.67830
D1,Buri/SP,-23.79849,-48.598924,101,503.74065
1,Buritama/SP,-21.0664017,-50.1448077,4627,26570.57540
D1,Buritama/SP,-21.0664017,-50.1448077,87,499.59802
1,Buriti Alegre/GO,-18.1377879,-49.0404411,1514,15911.71834
D1,Buriti Alegre/GO,-18.1377879,-49.0404411,37,388.85970
1,Buriti Bravo/MA,-5.8391884,-43.8367876,2055,8564.99812
D1,Buriti Bravo/MA,-5.8391884,-43.8367876,21,87.52553
1,Buriti de Goiás/GO,-16.180644,-50.4287479,584,23701.29870
D1,Buriti de Goiás/GO,-16.180644,-50.4287479,9,365.25974
1,Buriti do Tocantins/TO,-5.3187439,-48.2256609,1637,14058.74270
D1,Buriti do Tocantins/TO,-5.3187439,-48.2256609,26,223.29097
1,Buriti dos Lopes/PI,-3.1776723,-41.8707444,1492,7523.19484
D1,Buriti dos Lopes/PI,-3.1776723,-41.8707444,37,186.56716
1,Buriti dos Montes/PI,-5.3136171,-41.0971256,722,8717.70104
D1,Buriti dos Montes/PI,-5.3136171,-41.0971256,10,120.74378
1,Buriti/MA,-3.9430944,-42.9244281,1141,3945.91230
D1,Buriti/MA,-3.9430944,-42.9244281,9,31.12464
1,Buriticupu/MA,-4.3227472,-46.4516989,4562,6198.79068
D1,Buriticupu/MA,-4.3227472,-46.4516989,87,118.21455
1,Buritinópolis/GO,-14.4589282,-46.4293104,444,13569.68215
D1,Buritinópolis/GO,-14.4589282,-46.4293104,3,91.68704
1,Buritirama/BA,-10.7148421,-43.6362327,1305,6105.54880
D1,Buritirama/BA,-10.7148421,-43.6362327,25,116.96454
1,Buritirana/MA,-5.5897455,-47.0148915,451,2909.11436
D1,Buritirana/MA,-5.5897455,-47.0148915,28,180.61020
1,Buritis/MG,-15.621389,-46.423889,4651,18471.74232
D1,Buritis/MG,-15.621389,-46.423889,55,218.43600
1,Buritis/RO,-10.2054937,-63.8281954,10455,25473.28412
D1,Buritis/RO,-10.2054937,-63.8281954,97,236.33750
1,Buritizal/SP,-20.1933264,-47.7097165,358,7873.32307
D1,Buritizal/SP,-20.1933264,-47.7097165,10,219.92523
1,Buritizeiro/MG,-17.3667765,-44.9647781,2695,9562.16293
D1,Buritizeiro/MG,-17.3667765,-44.9647781,43,152.56883
1,Butiá/RS,-30.1256795,-51.9692224,2952,14081.95392
D1,Butiá/RS,-30.1256795,-51.9692224,62,295.75919
1,Buíque/PE,-8.6239732,-37.157296,2665,4482.90943
D1,Buíque/PE,-8.6239732,-37.157296,49,82.42498
1,Bálsamo/SP,-20.7343722,-49.5807484,2299,24964.70844
D1,Bálsamo/SP,-20.7343722,-49.5807484,71,770.98491
0,CASO SEM LOCALIZAÇÃO DEFINIDA/BA,-13.415069300066518,-38.14174656569957,16706,112.32386
D0,CASO SEM LOCALIZAÇÃO DEFINIDA/BA,-13.415069300066518,-38.14174656569957,345,2.31963
0,CASO SEM LOCALIZAÇÃO DEFINIDA/CE,-3.3445126297392798,-38.624961942434304,16467,180.32040
0,CASO SEM LOCALIZAÇÃO DEFINIDA/ES,-20.30989267097039,-39.81745156645774,8518,211.96173
D0,CASO SEM LOCALIZAÇÃO DEFINIDA/ES,-20.30989267097039,-39.81745156645774,270,6.71867
0,CASO SEM LOCALIZAÇÃO DEFINIDA/GO,-16.701590966270153,-49.164524059025034,2000,28.49671
0,CASO SEM LOCALIZAÇÃO DEFINIDA/MG,-19.97049116501593,-43.8852149072783,4266,20.15231
D0,CASO SEM LOCALIZAÇÃO DEFINIDA/MG,-19.97049116501593,-43.8852149072783,405,1.91319
0,CASO SEM LOCALIZAÇÃO DEFINIDA/MT,-15.54791153961863,-56.17143998972475,5652,162.20563
D0,CASO SEM LOCALIZAÇÃO DEFINIDA/MT,-15.54791153961863,-56.17143998972475,276,7.92087
0,CASO SEM LOCALIZAÇÃO DEFINIDA/PA,-0.09317078214359542,-48.0050231510481,1439,16.72699
D0,CASO SEM LOCALIZAÇÃO DEFINIDA/PA,-0.09317078214359542,-48.0050231510481,15,0.17436
0,CASO SEM LOCALIZAÇÃO DEFINIDA/PI,-2.683810218391744,-41.470898009352254,212,6.47679
D0,CASO SEM LOCALIZAÇÃO DEFINIDA/PI,-2.683810218391744,-41.470898009352254,3,0.09165
0,CASO SEM LOCALIZAÇÃO DEFINIDA/PR,-25.69415946385943,-48.10141676336737,10669,93.30978
D0,CASO SEM LOCALIZAÇÃO DEFINIDA/PR,-25.69415946385943,-48.10141676336737,231,2.02030
0,CASO SEM LOCALIZAÇÃO DEFINIDA/RR,2.813328208465927,-60.663338675861986,3546,585.37938
D0,CASO SEM LOCALIZAÇÃO DEFINIDA/RR,2.813328208465927,-60.663338675861986,23,3.79688
0,CASO SEM LOCALIZAÇÃO DEFINIDA/SP,-24.30968974555485,-46.21366504207253,128,0.27875
1,Caapiranga/AM,-3.3188884,-61.2096404,994,7372.79335
D1,Caapiranga/AM,-3.3188884,-61.2096404,23,170.59783
1,Caaporã/PB,-7.510234,-34.9154114,2727,12351.10286
D1,Caaporã/PB,-7.510234,-34.9154114,39,176.63843
1,Caarapó/MS,-22.6349267,-54.8240903,5523,17813.25593
D1,Caarapó/MS,-22.6349267,-54.8240903,60,193.51717
1,Caatiba/BA,-14.9782759,-40.4092325,999,16030.16688
D1,Caatiba/BA,-14.9782759,-40.4092325,16,256.73941
1,Cabaceiras do Paraguaçu/BA,-12.5377868,-39.1901339,1383,7275.11836
D1,Cabaceiras do Paraguaçu/BA,-12.5377868,-39.1901339,7,36.82272
1,Cabaceiras/PB,-7.4899156,-36.2860501,567,9929.94746
D1,Cabaceiras/PB,-7.4899156,-36.2860501,5,87.56567
1,Cabeceira Grande/MG,-16.0297,-47.0906,876,12469.75089
D1,Cabeceira Grande/MG,-16.0297,-47.0906,7,99.64413
1,Cabeceiras do Piauí/PI,-4.4733665,-42.3098716,758,7103.36426
D1,Cabeceiras do Piauí/PI,-4.4733665,-42.3098716,17,159.31028
1,Cabeceiras/GO,-15.7995459,-46.9264991,971,11990.61497
D1,Cabeceiras/GO,-15.7995459,-46.9264991,18,222.27711
1,Cabedelo/PB,-6.97324,-34.8351609,12666,18153.15380
D1,Cabedelo/PB,-6.97324,-34.8351609,217,311.00856
1,Cabixi/RO,-13.4956065,-60.5424442,1697,33491.21768
D1,Cabixi/RO,-13.4956065,-60.5424442,22,434.18196
1,Cabo Frio/RJ,-22.8804369,-42.0189227,25394,10848.56692
D1,Cabo Frio/RJ,-22.8804369,-42.0189227,972,415.24797
1,Cabo Verde/MG,-21.4743338,-46.3964995,1804,12817.96220
D1,Cabo Verde/MG,-21.4743338,-46.3964995,13,92.36891
1,Cabo de Santo Agostinho/PE,-8.2838945,-35.0320984,11365,5391.46853
D1,Cabo de Santo Agostinho/PE,-8.2838945,-35.0320984,550,260.91577
1,Cabreúva/SP,-23.3075813,-47.1324417,6148,12024.25191
D1,Cabreúva/SP,-23.3075813,-47.1324417,149,291.41404
1,Cabrobó/PE,-8.5083701,-39.3106961,4490,12910.46064
D1,Cabrobó/PE,-8.5083701,-39.3106961,34,97.76295
1,Cabrália Paulista/SP,-22.4562909,-49.3385645,805,19066.79299
D1,Cabrália Paulista/SP,-22.4562909,-49.3385645,9,213.16911
1,Cacaulândia/RO,-10.3380043,-62.9007231,1718,27239.57508
D1,Cacaulândia/RO,-10.3380043,-62.9007231,17,269.54178
1,Cacequi/RS,-29.8838059,-54.8273443,1311,10666.34123
D1,Cacequi/RS,-29.8838059,-54.8273443,15,122.04052
1,Cachoeira Alta/GO,-18.7618269,-50.9432431,3176,24729.42459
D1,Cachoeira Alta/GO,-18.7618269,-50.9432431,33,256.94931
1,Cachoeira Dourada/GO,-18.4934204,-49.481062,1047,13092.40965
D1,Cachoeira Dourada/GO,-18.4934204,-49.481062,33,412.65475
1,Cachoeira Dourada/MG,-18.517136,-49.5002062,563,20698.52941
D1,Cachoeira Dourada/MG,-18.517136,-49.5002062,2,73.52941
1,Cachoeira Grande/MA,-2.9290492,-44.0573223,446,4682.90634
D1,Cachoeira Grande/MA,-2.9290492,-44.0573223,8,83.99832
1,Cachoeira Paulista/SP,-22.666498,-45.015384,3608,10666.03601
D1,Cachoeira Paulista/SP,-22.666498,-45.015384,52,153.72336
1,Cachoeira da Prata/MG,-19.524723,-44.453056,226,6312.84916
D1,Cachoeira da Prata/MG,-19.524723,-44.453056,15,418.99441
1,Cachoeira de Goiás/GO,-16.6688414,-50.6435997,349,26122.75449
D1,Cachoeira de Goiás/GO,-16.6688414,-50.6435997,6,449.10180
1,Cachoeira de Minas/MG,-22.3554043,-45.7796324,1925,16581.96227
D1,Cachoeira de Minas/MG,-22.3554043,-45.7796324,21,180.89413
1,Cachoeira de Pajeú/MG,-15.965833,-41.496666,663,7001.05597
D1,Cachoeira de Pajeú/MG,-15.965833,-41.496666,11,116.15628
1,Cachoeira do Arari/PA,-1.0143572,-48.9621089,621,2549.78444
D1,Cachoeira do Arari/PA,-1.0143572,-48.9621089,25,102.64833
1,Cachoeira do Piriá/PA,-1.7599443,-46.5446954,1570,4446.71028
D1,Cachoeira do Piriá/PA,-1.7599443,-46.5446954,11,31.15529
1,Cachoeira do Sul/RS,-30.0474778,-52.8905413,16252,19928.38925
D1,Cachoeira do Sul/RS,-30.0474778,-52.8905413,226,277.12380
1,Cachoeira dos Índios/PB,-6.9259193,-38.6742159,1415,13653.02972
D1,Cachoeira dos Índios/PB,-6.9259193,-38.6742159,24,231.57082
1,Cachoeira/BA,-12.5998256,-38.9665918,2114,6280.63817
D1,Cachoeira/BA,-12.5998256,-38.9665918,33,98.04213
1,Cachoeiras de Macacu/RJ,-22.4626861,-42.6534414,3776,6330.04761
D1,Cachoeiras de Macacu/RJ,-22.4626861,-42.6534414,118,197.81399
1,Cachoeirinha/PE,-8.4906364,-36.2338963,971,4709.47716
D1,Cachoeirinha/PE,-8.4906364,-36.2338963,35,169.75458
1,Cachoeirinha/RS,-29.9493353,-51.0898927,19173,14509.17181
D1,Cachoeirinha/RS,-29.9493353,-51.0898927,525,397.29386
1,Cachoeirinha/TO,-6.118647,-47.9208885,131,5713.03969
D1,Cachoeirinha/TO,-6.118647,-47.9208885,2,87.22198
1,Cachoeiro de Itapemirim/ES,-20.848084,-41.11129,48737,22970.51449
D1,Cachoeiro de Itapemirim/ES,-20.848084,-41.11129,706,332.74890
1,Cacimba de Areia/PB,-7.1288513,-37.1575194,324,8737.86408
D1,Cacimba de Areia/PB,-7.1288513,-37.1575194,5,134.84358
1,Cacimba de Dentro/PB,-6.6425101,-35.7929304,1479,8614.36310
D1,Cacimba de Dentro/PB,-6.6425101,-35.7929304,39,227.15359
1,Cacimbas/PB,-7.2125451,-37.0593398,451,6242.21453
D1,Cacimbas/PB,-7.2125451,-37.0593398,10,138.40830
1,Cacimbinhas/AL,-9.401212,-36.991082,1020,9340.65934
D1,Cacimbinhas/AL,-9.401212,-36.991082,12,109.89011
1,Cacique Doble/RS,-27.7700117,-51.6616409,1086,21365.33543
D1,Cacique Doble/RS,-27.7700117,-51.6616409,14,275.42790
1,Cacoal/RO,-11.4333,-61.4420502,25115,29062.90502
D1,Cacoal/RO,-11.4333,-61.4420502,338,391.13127
1,Caconde/SP,-21.527995,-46.643659,2419,12710.84021
D1,Caconde/SP,-21.527995,-46.643659,44,231.20172
1,Caculé/BA,-14.4990734,-42.2233006,3241,13846.28530
D1,Caculé/BA,-14.4990734,-42.2233006,29,123.89456
1,Caetanos/BA,-14.3387456,-40.9085971,814,5548.36071
D1,Caetanos/BA,-14.3387456,-40.9085971,12,81.79402
1,Caetanópolis/MG,-19.2947496,-44.4138386,1634,13766.95594
D1,Caetanópolis/MG,-19.2947496,-44.4138386,21,176.93150
1,Caetité/BA,-14.0691776,-42.4852428,4658,9100.50016
D1,Caetité/BA,-14.0691776,-42.4852428,50,97.68678
1,Caeté/MG,-19.897777,-43.670278,2936,6472.09241
D1,Caeté/MG,-19.897777,-43.670278,81,178.55568
1,Caetés/PE,-8.7728788,-36.6255835,2255,7758.47239
D1,Caetés/PE,-8.7728788,-36.6255835,25,86.01411
1,Cafarnaum/BA,-11.691399,-41.468823,1169,6290.01883
D1,Cafarnaum/BA,-11.691399,-41.468823,24,129.13640
1,Cafeara/PR,-22.78905,-51.714195,782,26303.39724
D1,Cafeara/PR,-22.78905,-51.714195,13,437.26875
1,Cafelândia/PR,-24.6176963,-53.3218057,4873,25943.67247
D1,Cafelândia/PR,-24.6176963,-53.3218057,47,250.22627
1,Cafelândia/SP,-21.8054355,-49.6030627,844,4710.61004
D1,Cafelândia/SP,-21.8054355,-49.6030627,58,323.71491
1,Cafezal do Sul/PR,-23.900508,-53.512418,983,24729.55975
D1,Cafezal do Sul/PR,-23.900508,-53.512418,10,251.57233
1,Caiabu/SP,-22.0143038,-51.2356597,326,7771.15614
D1,Caiabu/SP,-22.0143038,-51.2356597,8,190.70322
1,Caiana/MG,-20.695555,-41.924723,271,4853.15186
D1,Caiana/MG,-20.695555,-41.924723,7,125.35817
1,Caiapônia/GO,-16.9538779,-51.8090761,2852,14774.14007
D1,Caiapônia/GO,-16.9538779,-51.8090761,46,238.29258
1,Caibaté/RS,-28.290475,-54.645407,519,10807.99667
D1,Caibaté/RS,-28.290475,-54.645407,8,166.59725
1,Caibi/SC,-27.0751925,-53.2502133,1217,19911.64921
D1,Caibi/SC,-27.0751925,-53.2502133,16,261.78010
1,Caicó/RN,-6.4594544,-37.0971911,16569,24108.77979
D1,Caicó/RN,-6.4594544,-37.0971911,177,257.54445
1,Caieiras/SP,-23.3644621,-46.7484765,11244,10806.96628
D1,Caieiras/SP,-23.3644621,-46.7484765,348,334.47388
1,Cairu/BA,-13.4860505,-39.0455744,1766,9461.05218
D1,Cairu/BA,-13.4860505,-39.0455744,18,96.43202
1,Caiuá/SP,-21.8319357,-51.9887179,444,7379.09257
D1,Caiuá/SP,-21.8319357,-51.9887179,12,199.43493
1,Caiçara do Norte/RN,-5.0645017,-36.0561226,670,10194.76567
D1,Caiçara do Norte/RN,-5.0645017,-36.0561226,12,182.59282
1,Caiçara do Rio do Vento/RN,-5.757968,-36.00089,633,16902.53672
D1,Caiçara do Rio do Vento/RN,-5.757968,-36.00089,8,213.61816
1,Caiçara/PB,-6.6146866,-35.4681434,1081,15051.51768
D1,Caiçara/PB,-6.6146866,-35.4681434,15,208.85547
1,Caiçara/RS,-27.2750478,-53.4310053,1039,22300.92294
D1,Caiçara/RS,-27.2750478,-53.4310053,12,257.56600
1,Cajamar/SP,-23.3561111,-46.8769444,5598,7083.02756
D1,Cajamar/SP,-23.3561111,-46.8769444,256,323.91123
1,Cajapió/MA,-2.8778715,-44.6746871,393,3491.78143
D1,Cajapió/MA,-2.8778715,-44.6746871,8,71.07952
1,Cajari/MA,-3.3213076,-45.0118757,431,2207.87869
D1,Cajari/MA,-3.3213076,-45.0118757,9,46.10420
1,Cajati/SP,-24.7272376,-48.1077914,5911,20783.37611
D1,Cajati/SP,-24.7272376,-48.1077914,108,379.73348
1,Cajazeiras do Piauí/PI,-6.794271,-42.3935024,83,2314.55661
D1,Cajazeiras do Piauí/PI,-6.794271,-42.3935024,2,55.77245
1,Cajazeiras/PB,-6.8897849,-38.5570389,14958,23903.73306
D1,Cajazeiras/PB,-6.8897849,-38.5570389,185,295.64050
1,Cajazeirinhas/PB,-6.961442,-37.7993733,328,10195.83463
D1,Cajazeirinhas/PB,-6.961442,-37.7993733,1,31.08486
1,Cajobi/SP,-20.8776238,-48.8106972,1779,16705.79397
D1,Cajobi/SP,-20.8776238,-48.8106972,36,338.05991
1,Cajueiro da Praia/PI,-2.931114,-41.340801,499,6477.15472
D1,Cajueiro da Praia/PI,-2.931114,-41.340801,21,272.58567
1,Cajueiro/AL,-9.399589,-36.1524309,827,3865.02781
D1,Cajueiro/AL,-9.399589,-36.1524309,33,154.22723
1,Cajuri/MG,-20.7901414,-42.7954489,713,18000.50492
D1,Cajuri/MG,-20.7901414,-42.7954489,9,227.21535
1,Cajuru/SP,-21.2759978,-47.3046035,2035,7646.63886
D1,Cajuru/SP,-21.2759978,-47.3046035,66,247.99910
1,Caldas Brandão/PB,-7.1027959,-35.3254676,950,15632.71351
D1,Caldas Brandão/PB,-7.1027959,-35.3254676,12,197.46585
1,Caldas Novas/GO,-17.745,-48.625,15765,16562.83160
D1,Caldas Novas/GO,-17.745,-48.625,332,348.80178
1,Caldas/MG,-21.923611,-46.386111,1662,11383.56164
D1,Caldas/MG,-21.923611,-46.386111,42,287.67123
1,Caldazinha/GO,-16.7116649,-49.0012601,1013,25974.35897
D1,Caldazinha/GO,-16.7116649,-49.0012601,12,307.69231
1,Caldeirão Grande do Piauí/PI,-7.3310393,-40.6374433,551,9522.98652
D1,Caldeirão Grande do Piauí/PI,-7.3310393,-40.6374433,2,34.56619
1,Caldeirão Grande/BA,-11.0208483,-40.3041387,630,4683.31847
D1,Caldeirão Grande/BA,-11.0208483,-40.3041387,6,44.60303
1,Califórnia/PR,-23.6672543,-51.3554556,1983,22948.73279
D1,Califórnia/PR,-23.6672543,-51.3554556,40,462.90939
1,Calmon/SC,-26.6023644,-51.0992893,69,2075.18797
D1,Calmon/SC,-26.6023644,-51.0992893,7,210.52632
1,Calumbi/PE,-7.9389746,-38.1516871,1185,20630.22284
D1,Calumbi/PE,-7.9389746,-38.1516871,5,87.04735
1,Calçado/PE,-8.7413446,-36.3351787,706,6428.11618
D1,Calçado/PE,-8.7413446,-36.3351787,9,81.94482
1,Calçoene/AP,2.4981757,-50.9539503,2634,22918.29809
D1,Calçoene/AP,2.4981757,-50.9539503,15,130.51423
1,Camacan/BA,-15.4166631,-39.4930088,3517,10982.73116
D1,Camacan/BA,-15.4166631,-39.4930088,95,296.66177
1,Camacho/MG,-20.625556,-45.156667,349,12293.06094
D1,Camacho/MG,-20.625556,-45.156667,2,70.44734
1,Camalaú/PB,-7.885031,-36.824191,894,14781.74603
D1,Camalaú/PB,-7.885031,-36.824191,8,132.27513
1,Camamu/BA,-13.9438142,-39.1060917,2933,8275.02539
D1,Camamu/BA,-13.9438142,-39.1060917,62,174.92382
1,Camanducaia/MG,-22.755278,-46.144444,4490,20567.08351
D1,Camanducaia/MG,-22.755278,-46.144444,75,343.54817
1,Camapuã/MS,-19.5291747,-54.0434641,1720,12577.69653
D1,Camapuã/MS,-19.5291747,-54.0434641,37,270.56673
1,Camaquã/RS,-30.8524752,-51.8075619,8808,13208.16963
D1,Camaquã/RS,-30.8524752,-51.8075619,177,265.42303
1,Camaragibe/PE,-8.0213832,-34.9810768,9712,6072.08728
D1,Camaragibe/PE,-8.0213832,-34.9810768,465,290.72494
1,Camargo/RS,-28.5865661,-52.2031474,659,23963.63636
D1,Camargo/RS,-28.5865661,-52.2031474,8,290.90909
1,Camaçari/BA,-12.6998188,-38.3260762,31526,10195.72585
D1,Camaçari/BA,-12.6998188,-38.3260762,667,215.71240
1,Cambará do Sul/RS,-29.0489517,-50.145412,404,6329.31224
D1,Cambará do Sul/RS,-29.0489517,-50.145412,12,187.99937
1,Cambará/PR,-23.042273,-50.075281,5295,20708.67066
D1,Cambará/PR,-23.042273,-50.075281,70,273.76902
1,Cambira/PR,-23.600265,-51.581045,2284,28668.25656
D1,Cambira/PR,-23.600265,-51.581045,31,389.10506
1,Camboriú/SC,-27.0273601,-48.6535657,17992,20637.99768
D1,Camboriú/SC,-27.0273601,-48.6535657,207,237.44250
1,Cambuci/RJ,-21.5749919,-41.9107833,2760,17782.35938
D1,Cambuci/RJ,-21.5749919,-41.9107833,45,289.92977
1,Cambuquira/MG,-21.853056,-45.2953619,1443,11264.63700
D1,Cambuquira/MG,-21.853056,-45.2953619,35,273.22404
1,Cambuí/MG,-22.6122501,-46.0572137,7447,24767.19436
D1,Cambuí/MG,-22.6122501,-46.0572137,63,209.52508
