type,name,lat,lon,total,total_per_100k_inhabitants
1,Abadia de Goiás/GO,-16.7572644,-49.4412205,1275,14233.08774
D1,Abadia de Goiás/GO,-16.7572644,-49.4412205,26,290.24336
1,Abadia dos Dourados/MG,-18.4911191,-47.4063589,354,5052.81188
D1,Abadia dos Dourados/MG,-18.4911191,-47.4063589,12,171.28176
1,Abadiânia/GO,-16.1940946,-48.7067767,320,1563.95093
D1,Abadiânia/GO,-16.1940946,-48.7067767,27,131.95836
1,Abaetetuba/PA,-1.721828,-48.878843,6841,4300.35202
D1,Abaetetuba/PA,-1.721828,-48.878843,184,115.66507
1,Abaeté/MG,-19.1566833,-45.4481213,936,4025.80645
D1,Abaeté/MG,-19.1566833,-45.4481213,21,90.32258
1,Abaiara/CE,-7.3607808,-39.0487878,405,3416.85649
D1,Abaiara/CE,-7.3607808,-39.0487878,9,75.93014
1,Abaré/BA,-8.7239913,-39.1139689,731,3592.66722
D1,Abaré/BA,-8.7239913,-39.1139689,6,29.48838
1,Abatiá/PR,-23.3052967,-50.3102532,594,8018.35853
D1,Abatiá/PR,-23.3052967,-50.3102532,9,121.49028
1,Abaíra/BA,-13.2503296,-41.6640342,251,2881.74512
D1,Abaíra/BA,-13.2503296,-41.6640342,10,114.81056
1,Abdon Batista/SC,-27.612419,-51.022992,293,11499.21507
D1,Abdon Batista/SC,-27.612419,-51.022992,2,78.49294
1,Abel Figueiredo/PA,-4.953001,-48.3958485,802,10713.33155
D1,Abel Figueiredo/PA,-4.953001,-48.3958485,9,120.22442
1,Abelardo Luz/SC,-26.5705893,-52.3280339,1264,7037.86192
D1,Abelardo Luz/SC,-26.5705893,-52.3280339,41,228.28508
1,Abre Campo/MG,-20.2976097,-42.4764741,856,6367.15263
D1,Abre Campo/MG,-20.2976097,-42.4764741,13,96.69741
1,Abreu e Lima/PE,-7.900719,-34.898389,2410,2401.69015
D1,Abreu e Lima/PE,-7.900719,-34.898389,185,184.36211
1,Abreulândia/TO,-9.6221526,-49.1558343,252,9714.72629
D1,Abreulândia/TO,-9.6221526,-49.1558343,6,231.30301
1,Acaiaca/MG,-20.3621646,-43.1444162,214,5358.03706
D1,Acaiaca/MG,-20.3621646,-43.1444162,8,200.30045
1,Acajutiba/BA,-11.6609659,-38.0186381,476,3134.25956
D1,Acajutiba/BA,-11.6609659,-38.0186381,13,85.59953
1,Acarape/CE,-4.2237866,-38.7071663,2567,17072.35967
D1,Acarape/CE,-4.2237866,-38.7071663,24,159.61692
1,Acaraú/CE,-2.8869514,-40.1194713,4333,6866.44270
D1,Acaraú/CE,-2.8869514,-40.1194713,87,137.86765
1,Acari/RN,-6.4364689,-36.6394777,795,7148.63771
D1,Acari/RN,-6.4364689,-36.6394777,12,107.90397
1,Acará/PA,-1.961388,-48.1987043,1118,2008.29905
D1,Acará/PA,-1.961388,-48.1987043,25,44.90830
1,Acauã/PI,-8.219542,-41.083059,175,2464.09462
D1,Acauã/PI,-8.219542,-41.083059,1,14.08054
1,Aceguá/RS,-31.8695131,-54.1615593,290,5868.06961
D1,Aceguá/RS,-31.8695131,-54.1615593,4,80.93889
1,Acopiara/CE,-6.0936464,-39.4543204,2658,4878.76507
D1,Acopiara/CE,-6.0936464,-39.4543204,104,190.89224
1,Acorizal/MT,-15.2001544,-56.3668953,456,8548.93138
D1,Acorizal/MT,-15.2001544,-56.3668953,18,337.45782
1,Acrelândia/AC,-10.0759167,-67.0526898,1500,9683.66688
D1,Acrelândia/AC,-10.0759167,-67.0526898,29,187.21756
1,Acreúna/GO,-17.3959899,-50.3749031,1657,7349.41897
D1,Acreúna/GO,-17.3959899,-50.3749031,39,172.97969
1,Adamantina/SP,-21.6866517,-51.0762975,2430,6920.90798
D1,Adamantina/SP,-21.6866517,-51.0762975,69,196.51961
1,Adelândia/GO,-16.4155077,-50.1665834,142,5643.87917
D1,Adelândia/GO,-16.4155077,-50.1665834,3,119.23688
1,Adolfo/SP,-21.2356597,-49.6441918,387,10889.13900
D1,Adolfo/SP,-21.2356597,-49.6441918,9,253.23579
1,Adrianópolis/PR,-24.6557863,-48.9912769,1066,18200.44391
D1,Adrianópolis/PR,-24.6557863,-48.9912769,21,358.54533
1,Adustina/BA,-10.5358875,-38.114479,626,3655.26101
D1,Adustina/BA,-10.5358875,-38.114479,10,58.39075
1,Afogados da Ingazeira/PE,-7.750429,-37.6356375,3623,9686.12983
D1,Afogados da Ingazeira/PE,-7.750429,-37.6356375,53,141.69608
1,Afonso Bezerra/RN,-5.4745,-36.57625071327935,495,4488.16756
D1,Afonso Bezerra/RN,-5.4745,-36.57625071327935,12,108.80406
1,Afonso Cláudio/ES,-20.077841,-41.12606,3102,10185.51962
D1,Afonso Cláudio/ES,-20.077841,-41.12606,54,177.31079
1,Afonso Cunha/MA,-4.1326105,-43.3230026,158,2401.94588
D1,Afonso Cunha/MA,-4.1326105,-43.3230026,2,30.40438
1,Afrânio/PE,-8.5198919,-41.0070197,717,3619.38415
D1,Afrânio/PE,-8.5198919,-41.0070197,13,65.62342
1,Afuá/PA,-0.1535664,-50.3879223,2844,7187.80802
D1,Afuá/PA,-0.1535664,-50.3879223,14,35.38302
1,Agrestina/PE,-8.4558021,-35.9442663,1246,4971.07520
D1,Agrestina/PE,-8.4558021,-35.9442663,45,179.53321
1,Agricolândia/PI,-5.7967843,-42.6605131,365,7113.62308
D1,Agricolândia/PI,-5.7967843,-42.6605131,3,58.46813
1,Agrolândia/SC,-27.4122212,-49.8295774,1017,9234.54100
D1,Agrolândia/SC,-27.4122212,-49.8295774,14,127.12249
1,Agronômica/SC,-27.2660744,-49.7104753,477,8658.55872
D1,Agronômica/SC,-27.2660744,-49.7104753,9,163.36903
1,Aguanil/MG,-20.9424533,-45.3927152,426,9420.61035
D1,Aguanil/MG,-20.9424533,-45.3927152,8,176.91287
1,Aguaí/SP,-22.0592036,-46.979384,1961,5350.90592
D1,Aguaí/SP,-22.0592036,-46.979384,53,144.61908
1,Agudo/RS,-29.6423259,-53.2494005,1094,6670.32498
D1,Agudo/RS,-29.6423259,-53.2494005,18,109.74941
1,Agudos do Sul/PR,-25.9890808,-49.3328175,474,5005.27983
D1,Agudos do Sul/PR,-25.9890808,-49.3328175,16,168.95459
1,Agudos/SP,-22.471162,-48.987822,2779,7430.28261
D1,Agudos/SP,-22.471162,-48.987822,60,160.42352
1,Aguiar/PB,-7.0928404,-38.1727215,288,5115.45293
D1,Aguiar/PB,-7.0928404,-38.1727215,3,53.28597
1,Aguiarnópolis/TO,-6.5600452,-47.4721189,523,7588.50842
D1,Aguiarnópolis/TO,-6.5600452,-47.4721189,12,174.11492
1,Aimorés/MG,-19.4917754,-41.0615603,1685,6702.19959
D1,Aimorés/MG,-19.4917754,-41.0615603,45,178.99049
1,Aiquara/BA,-14.126918,-39.8887574,439,9941.12319
D1,Aiquara/BA,-14.126918,-39.8887574,9,203.80435
1,Aiuaba/CE,-6.5710836,-40.1212278,377,2155.14777
D1,Aiuaba/CE,-6.5710836,-40.1212278,9,51.44915
1,Aiuruoca/MG,-21.9759554,-44.6036637,79,1321.95448
D1,Aiuruoca/MG,-21.9759554,-44.6036637,6,100.40161
1,Ajuricaba/RS,-28.239654,-53.7693013,724,10362.10104
D1,Ajuricaba/RS,-28.239654,-53.7693013,22,314.87047
1,Alagoa Grande/PB,-7.0415212,-35.6285322,2652,9325.22241
D1,Alagoa Grande/PB,-7.0415212,-35.6285322,49,172.29860
1,Alagoa Nova/PB,-7.0653703,-35.76695977336711,729,3484.53707
D1,Alagoa Nova/PB,-7.0653703,-35.76695977336711,14,66.91841
1,Alagoa/MG,-22.1697202,-44.6400042,335,12570.35647
D1,Alagoa/MG,-22.1697202,-44.6400042,4,150.09381
1,Alagoinha do Piauí/PI,-7.0090952,-40.939675,260,3392.04175
D1,Alagoinha do Piauí/PI,-7.0090952,-40.939675,9,117.41683
1,Alagoinha/PB,-6.97063215,-35.51490901897793,1457,10006.86813
D1,Alagoinha/PB,-6.97063215,-35.51490901897793,23,157.96703
1,Alagoinha/PE,-8.50355635,-36.77701174370496,545,3702.94877
D1,Alagoinha/PE,-8.50355635,-36.77701174370496,17,115.50482
1,Alagoinhas/BA,-12.133526,-38.420772,10850,7122.83443
D1,Alagoinhas/BA,-12.133526,-38.420772,210,137.86131
1,Alambari/SP,-23.550338,-47.897971,433,7064.77403
D1,Alambari/SP,-23.550338,-47.897971,9,146.84288
1,Albertina/MG,-20.66164,-43.784039,182,6044.50349
D1,Albertina/MG,-20.66164,-43.784039,6,199.26935
1,Alcantil/PB,-7.7425491,-36.0609604,301,5463.78653
D1,Alcantil/PB,-7.7425491,-36.0609604,6,108.91269
1,Alcinópolis/MS,-18.3264121,-53.7094463,171,3156.72882
D1,Alcinópolis/MS,-18.3264121,-53.7094463,6,110.76241
1,Alcobaça/BA,-17.5215875,-39.1965474,1238,5504.66874
D1,Alcobaça/BA,-17.5215875,-39.1965474,20,88.92841
1,Alcântara/MA,-2.4038956,-44.4154241,263,1189.39942
D1,Alcântara/MA,-2.4038956,-44.4154241,14,63.31404
1,Alcântaras/CE,-3.586247,-40.5457641,1234,10474.49283
D1,Alcântaras/CE,-3.586247,-40.5457641,16,135.81190
1,Aldeias Altas/MA,-4.6291957,-43.4708622,975,3643.90627
D1,Aldeias Altas/MA,-4.6291957,-43.4708622,13,48.58542
1,Alecrim/RS,-27.6566142,-54.7653195,239,4101.59602
D1,Alecrim/RS,-27.6566142,-54.7653195,9,154.45341
1,Alegre/ES,-20.7625787,-41.5318886,1879,6268.55713
D1,Alegre/ES,-20.7625787,-41.5318886,45,150.12510
1,Alegrete do Piauí/PI,-7.2440138,-40.8602296,462,9394.06263
D1,Alegrete do Piauí/PI,-7.2440138,-40.8602296,5,101.66734
1,Alegrete/RS,-29.790166,-55.794862,7371,10093.38884
D1,Alegrete/RS,-29.790166,-55.794862,212,290.29961
1,Alegria/RS,-27.8332103,-54.0574959,305,9039.71547
D1,Alegria/RS,-27.8332103,-54.0574959,2,59.27682
1,Alenquer/PA,-1.946229,-54.738355,2566,4494.50011
D1,Alenquer/PA,-1.946229,-54.738355,94,164.64654
1,Alexandria/RN,-6.414779,-38.0135516,1029,7592.41496
D1,Alexandria/RN,-6.414779,-38.0135516,14,103.29816
1,Alexânia/GO,-16.0834049,-48.5077803,2680,9568.01142
D1,Alexânia/GO,-16.0834049,-48.5077803,63,224.91967
1,Alfenas/MG,-21.4297405,-45.9479419,6219,7726.04169
D1,Alfenas/MG,-21.4297405,-45.9479419,139,172.68368
1,Alfredo Chaves/ES,-20.624970400000002,-40.75006690147988,2072,14156.87346
D1,Alfredo Chaves/ES,-20.624970400000002,-40.75006690147988,30,204.97404
1,Alfredo Marcondes/SP,-21.9527,-51.413956,205,4899.61759
D1,Alfredo Marcondes/SP,-21.9527,-51.413956,9,215.10516
1,Alfredo Vasconcelos/MG,-21.145833,-43.776389,287,4111.15886
D1,Alfredo Vasconcelos/MG,-21.145833,-43.776389,10,143.24595
1,Alfredo Wagner/SC,-27.6961513,-49.3326734,615,6097.56098
D1,Alfredo Wagner/SC,-27.6961513,-49.3326734,7,69.40313
1,Algodão de Jandaíra/PB,-6.9040175,-36.0089879,104,4035.70043
1,Alhandra/PB,-7.4304246,-34.9106103,1567,7943.42779
D1,Alhandra/PB,-7.4304246,-34.9106103,29,147.00664
1,Aliança do Tocantins/TO,-11.3055927,-48.9409096,550,10288.06584
D1,Aliança do Tocantins/TO,-11.3055927,-48.9409096,20,374.11149
1,Aliança/PE,-7.60398,-35.222696,532,1385.52491
D1,Aliança/PE,-7.60398,-35.222696,44,114.59229
1,Almadina/BA,-14.70466,-39.6381994,587,10939.24711
D1,Almadina/BA,-14.70466,-39.6381994,9,167.72270
1,Almas/TO,-11.5681309,-47.1702803,188,2693.79567
D1,Almas/TO,-11.5681309,-47.1702803,4,57.31480
1,Almeirim/PA,-1.5290377,-52.5788111,3282,9631.41214
D1,Almeirim/PA,-1.5290377,-52.5788111,32,93.90774
1,Almenara/MG,-16.1740678,-40.6904907,3413,8098.61661
D1,Almenara/MG,-16.1740678,-40.6904907,36,85.42344
1,Almino Afonso/RN,-6.1544208,-37.7649018,355,7537.15499
D1,Almino Afonso/RN,-6.1544208,-37.7649018,10,212.31423
1,Almirante Tamandaré do Sul/RS,-28.1141129,-52.9134874,176,9030.27193
D1,Almirante Tamandaré do Sul/RS,-28.1141129,-52.9134874,2,102.61673
1,Almirante Tamandaré/PR,-25.3133048,-49.2997838,7807,6503.61127
D1,Almirante Tamandaré/PR,-25.3133048,-49.2997838,290,241.58413
1,Aloândia/GO,-17.7277983,-49.4809338,213,10725.07553
D1,Aloândia/GO,-17.7277983,-49.4809338,6,302.11480
1,Alpercata/MG,-18.9803616,-41.9827637,407,5473.37278
D1,Alpercata/MG,-18.9803616,-41.9827637,15,201.72136
1,Alpestre/RS,-27.2512339,-53.0349646,278,4582.16582
D1,Alpestre/RS,-27.2512339,-53.0349646,7,115.37828
1,Alpinópolis/MG,-20.863611,-46.387777,770,3858.10201
D1,Alpinópolis/MG,-20.863611,-46.387777,19,95.19992
1,Alta Floresta D'Oeste/RO,-11.9296917,-61.9961284,3463,15236.71243
D1,Alta Floresta D'Oeste/RO,-11.9296917,-61.9961284,55,241.99226
1,Alta Floresta/MT,-9.8715018,-56.0839881,7025,13520.27560
D1,Alta Floresta/MT,-9.8715018,-56.0839881,104,200.15782
1,Altair/SP,-20.5238955,-49.0606135,139,3320.59245
D1,Altair/SP,-20.5238955,-49.0606135,9,215.00239
1,Altamira do Maranhão/MA,-4.1643006,-45.4674574,288,3516.91293
D1,Altamira do Maranhão/MA,-4.1643006,-45.4674574,8,97.69203
1,Altamira do Paraná/PR,-24.799114,-52.7128633,119,7074.91082
D1,Altamira do Paraná/PR,-24.799114,-52.7128633,3,178.35910
1,Altamira/PA,-3.204065,-52.209961,12113,10445.03272
D1,Altamira/PA,-3.204065,-52.209961,268,231.09624
1,Altaneira/CE,-6.9980933,-39.7385742,382,4993.46405
D1,Altaneira/CE,-6.9980933,-39.7385742,14,183.00654
1,Alterosa/MG,-21.249166,-46.143055,534,3678.44596
D1,Alterosa/MG,-21.249166,-46.143055,28,192.87732
1,Altinho/PE,-8.4904095,-36.0607494,888,3863.55726
D1,Altinho/PE,-8.4904095,-36.0607494,18,78.31535
1,Altinópolis/SP,-21.021364,-47.3712,692,4270.81405
D1,Altinópolis/SP,-21.021364,-47.3712,23,141.94902
1,Alto Alegre do Maranhão/MA,-4.2055693,-44.4525287,848,3044.00890
D1,Alto Alegre do Maranhão/MA,-4.2055693,-44.4525287,22,78.97193
1,Alto Alegre do Pindaré/MA,-3.6698186,-45.8462153,1766,5528.59781
D1,Alto Alegre do Pindaré/MA,-3.6698186,-45.8462153,36,112.70075
1,Alto Alegre dos Parecis/RO,-12.1314515,-61.856265,1274,9611.46737
D1,Alto Alegre dos Parecis/RO,-12.1314515,-61.856265,32,241.41833
1,Alto Alegre/RR,2.98858,-61.307167,1228,7984.39532
D1,Alto Alegre/RR,2.98858,-61.307167,28,182.05462
1,Alto Alegre/RS,-31.780844700000003,-52.81311114489171,155,9609.42343
D1,Alto Alegre/RS,-31.780844700000003,-52.81311114489171,1,61.99628
1,Alto Alegre/SP,-21.5820592,-50.1661976,259,6335.61644
D1,Alto Alegre/SP,-21.5820592,-50.1661976,12,293.54207
1,Alto Araguaia/MT,-17.3156528,-53.2169365,1013,5225.68997
D1,Alto Araguaia/MT,-17.3156528,-53.2169365,22,113.48981
1,Alto Bela Vista/SC,-27.4320737,-51.905771,145,7528.55659
D1,Alto Bela Vista/SC,-27.4320737,-51.905771,2,103.84216
1,Alto Boa Vista/MT,-11.6723985,-51.3744431,548,7900.80738
D1,Alto Boa Vista/MT,-11.6723985,-51.3744431,10,144.17532
1,Alto Caparaó/MG,-20.4405661,-41.8683799,345,5853.41025
D1,Alto Caparaó/MG,-20.4405661,-41.8683799,8,135.73125
1,Alto Feliz/RS,-29.3785943,-51.3123751,196,6455.86298
D1,Alto Feliz/RS,-29.3785943,-51.3123751,1,32.93808
1,Alto Garças/MT,-16.9469683,-53.529427,621,5110.69048
D1,Alto Garças/MT,-16.9469683,-53.529427,24,197.51461
1,Alto Horizonte/GO,-14.1954948,-49.3366993,649,9825.88948
D1,Alto Horizonte/GO,-14.1954948,-49.3366993,7,105.98032
1,Alto Jequitibá/MG,-20.423611,-41.966111,590,7107.57740
D1,Alto Jequitibá/MG,-20.423611,-41.966111,9,108.42067
1,Alto Longá/PI,-5.2549051,-42.2072388,553,3856.61483
D1,Alto Longá/PI,-5.2549051,-42.2072388,13,90.66183
1,Alto Paraguai/MT,-14.513712,-56.4936374,709,6179.72631
D1,Alto Paraguai/MT,-14.513712,-56.4936374,23,200.47067
1,Alto Paraná/PR,-23.131247,-52.318893,701,4717.67952
D1,Alto Paraná/PR,-23.131247,-52.318893,17,114.40878
1,Alto Paraíso de Goiás/GO,-14.1304779,-47.5100161,524,6815.81686
D1,Alto Paraíso de Goiás/GO,-14.1304779,-47.5100161,6,78.04370
1,Alto Paraíso/PR,-23.508137,-53.728537,154,5735.56797
D1,Alto Paraíso/PR,-23.508137,-53.728537,2,74.48790
1,Alto Paraíso/RO,-9.7240103,-63.3188123,1625,7438.09219
D1,Alto Paraíso/RO,-9.7240103,-63.3188123,37,169.35964
1,Alto Parnaíba/MA,-9.112506,-45.9310154,681,6073.84945
D1,Alto Parnaíba/MA,-9.112506,-45.9310154,5,44.59508
1,Alto Piquiri/PR,-24.0239021,-53.4417448,520,5318.06095
D1,Alto Piquiri/PR,-24.0239021,-53.4417448,12,122.72448
1,Alto Rio Doce/MG,-21.0239537,-43.4133507,288,2652.17792
D1,Alto Rio Doce/MG,-21.0239537,-43.4133507,23,211.80588
1,Alto Rio Novo/ES,-19.0577208,-41.0171518,657,8343.91669
D1,Alto Rio Novo/ES,-19.0577208,-41.0171518,21,266.70053
1,Alto Santo/CE,-5.5190371,-38.2719351,950,5524.54059
D1,Alto Santo/CE,-5.5190371,-38.2719351,19,110.49081
1,Alto Taquari/MT,-17.8269099,-53.2831736,1316,11820.71320
D1,Alto Taquari/MT,-17.8269099,-53.2831736,26,233.53993
1,Alto do Rodrigues/RN,-5.290868,-36.7616726,1445,9811.24389
D1,Alto do Rodrigues/RN,-5.290868,-36.7616726,26,176.53449
1,Altos/PI,-5.0393915,-42.4611694,3809,9380.61815
D1,Altos/PI,-5.0393915,-42.4611694,73,179.78082
1,Altônia/PR,-23.8722004,-53.894037,851,3837.48196
D1,Altônia/PR,-23.8722004,-53.894037,14,63.13131
1,Alumínio/SP,-23.5203479,-47.2575256,1130,6021.20744
D1,Alumínio/SP,-23.5203479,-47.2575256,37,197.15458
1,Alvarenga/MG,-19.4175,-41.728334,364,9469.30281
D1,Alvarenga/MG,-19.4175,-41.728334,4,104.05827
1,Alvarães/AM,-3.214786,-64.8143124,2719,16763.25524
D1,Alvarães/AM,-3.214786,-64.8143124,42,258.93958
1,Alvinlândia/SP,-22.4431852,-49.7643596,112,3459.99382
D1,Alvinlândia/SP,-22.4431852,-49.7643596,7,216.24961
1,Alvinópolis/MG,-20.1105199,-43.0601805,521,3434.63643
D1,Alvinópolis/MG,-20.1105199,-43.0601805,16,105.47828
1,Alvorada D'Oeste/RO,-11.346271,-62.284697,850,6025.80462
D1,Alvorada D'Oeste/RO,-11.346271,-62.284697,24,170.14037
1,Alvorada de Minas/MG,-18.7318587,-43.3641479,235,6518.72399
D1,Alvorada de Minas/MG,-18.7318587,-43.3641479,1,27.73925
1,Alvorada do Gurguéia/PI,-8.4465288,-43.8655915,274,5032.13958
D1,Alvorada do Gurguéia/PI,-8.4465288,-43.8655915,8,146.92378
1,Alvorada do Norte/GO,-14.483911,-46.4959897,604,6938.54107
D1,Alvorada do Norte/GO,-14.483911,-46.4959897,2,22.97530
1,Alvorada do Sul/PR,-22.7807269,-51.2307721,630,5476.83213
D1,Alvorada do Sul/PR,-22.7807269,-51.2307721,21,182.56107
1,Alvorada/RS,-29.9981184,-51.0772509,17612,8333.01790
D1,Alvorada/RS,-29.9981184,-51.0772509,645,305.17809
1,Alvorada/TO,-12.478465,-49.124926,1012,12053.35874
D1,Alvorada/TO,-12.478465,-49.124926,17,202.47737
1,Além Paraíba/MG,-21.8760576,-42.6810473,2635,7443.29256
D1,Além Paraíba/MG,-21.8760576,-42.6810473,124,350.27259
1,Amajari/RR,3.6523869,-61.4194315,859,6514.97914
D1,Amajari/RR,3.6523869,-61.4194315,19,144.10315
1,Amambai/MS,-23.1082701,-55.2284854,2140,5373.37418
D1,Amambai/MS,-23.1082701,-55.2284854,40,100.43690
1,Amaporã/PR,-23.094272,-52.786597,235,3711.30764
D1,Amaporã/PR,-23.094272,-52.786597,5,78.96399
1,Amapá do Maranhão/MA,-1.6762114,-46.0109669,138,1970.02141
D1,Amapá do Maranhão/MA,-1.6762114,-46.0109669,2,28.55103
1,Amapá/AP,2.0529997,-50.7930003,1234,13432.02351
D1,Amapá/AP,2.0529997,-50.7930003,10,108.84946
1,Amaraji/PE,-8.373925,-35.4536527,436,1906.42763
D1,Amaraji/PE,-8.373925,-35.4536527,28,122.43113
1,Amaral Ferrador/RS,-30.8750633,-52.2542051,198,2794.63656
D1,Amaral Ferrador/RS,-30.8750633,-52.2542051,4,56.45730
1,Amaralina/GO,-13.9236199,-49.2962411,51,1326.39792
1,Amarante do Maranhão/MA,-5.56913,-46.747284,1493,3577.84754
D1,Amarante do Maranhão/MA,-5.56913,-46.747284,53,127.00999
1,Amarante/PI,-6.2459374,-42.8476238,1310,7441.49057
D1,Amarante/PI,-6.2459374,-42.8476238,30,170.41581
1,Amargosa/BA,-13.03793715,-39.60796443875596,2268,6057.53051
D1,Amargosa/BA,-13.03793715,-39.60796443875596,45,120.18910
1,Amaturá/AM,-3.3640509,-68.1994689,2319,19759.71370
D1,Amaturá/AM,-3.3640509,-68.1994689,17,144.85344
1,Americana/SP,-22.7392463,-47.3306032,15890,6565.62735
D1,Americana/SP,-22.7392463,-47.3306032,492,203.29066
1,Americano do Brasil/GO,-16.2515808,-49.9806104,384,6229.72096
D1,Americano do Brasil/GO,-16.2515808,-49.9806104,15,243.34848
1,Ametista do Sul/RS,-27.3617341,-53.1826575,511,6902.60705
D1,Ametista do Sul/RS,-27.3617341,-53.1826575,12,162.09645
1,Amontada/CE,-3.3634586,-39.8284791,2254,5142.71373
D1,Amontada/CE,-3.3634586,-39.8284791,40,91.26378
1,Amorinópolis/GO,-16.6211308,-51.0949921,164,5343.76018
D1,Amorinópolis/GO,-16.6211308,-51.0949921,2,65.16781
1,Amparo de São Francisco/SE,-10.1299754,-36.9269099,157,6596.63866
D1,Amparo de São Francisco/SE,-10.1299754,-36.9269099,3,126.05042
1,Amparo do Serra/MG,-20.5070255,-42.8028462,110,2351.43224
D1,Amparo do Serra/MG,-20.5070255,-42.8028462,4,85.50663
1,Amparo/PB,-7.56394725,-37.04652873235175,158,7019.10262
D1,Amparo/PB,-7.56394725,-37.04652873235175,4,177.69880
1,Amparo/SP,-22.70111,-46.76444,4217,5802.38590
D1,Amparo/SP,-22.70111,-46.76444,107,147.22677
1,Ampére/PR,-25.9168712,-53.4742414,978,5064.47103
D1,Ampére/PR,-25.9168712,-53.4742414,28,144.99508
1,Amélia Rodrigues/BA,-12.4015388,-38.7516971,1804,7202.17183
D1,Amélia Rodrigues/BA,-12.4015388,-38.7516971,37,147.71638
1,América Dourada/BA,-11.4515262,-41.4357517,720,4474.82909
D1,América Dourada/BA,-11.4515262,-41.4357517,5,31.07520
1,Américo Brasiliense/SP,-21.7297099,-48.1052092,3097,7547.76760
D1,Américo Brasiliense/SP,-21.7297099,-48.1052092,72,175.47280
1,Américo de Campos/SP,-20.298476,-49.735904,621,10382.87912
D1,Américo de Campos/SP,-20.298476,-49.735904,22,367.83147
1,Anadia/AL,-9.6830208,-36.3052699,1095,6247.86032
D1,Anadia/AL,-9.6830208,-36.3052699,23,131.23360
1,Anagé/BA,-14.6134669,-41.1376308,753,3484.98172
D1,Anagé/BA,-14.6134669,-41.1376308,16,74.05008
1,Anahy/PR,-24.6450861,-53.1337957,311,11154.94978
D1,Anahy/PR,-24.6450861,-53.1337957,6,215.20803
1,Anajatuba/MA,-3.26441,-44.6179916,753,2790.12895
D1,Anajatuba/MA,-3.26441,-44.6179916,18,66.69631
1,Anajás/PA,-0.9878802,-49.9390114,1300,4378.87362
D1,Anajás/PA,-0.9878802,-49.9390114,17,57.26219
1,Analândia/SP,-22.128917,-47.661939,256,5063.29114
D1,Analândia/SP,-22.128917,-47.661939,3,59.33544
1,Anamã/AM,-3.5797356,-61.4049996,1712,12267.12525
D1,Anamã/AM,-3.5797356,-61.4049996,9,64.48839
1,Ananindeua/PA,-1.374035,-48.4016623,19620,3663.54400
D1,Ananindeua/PA,-1.374035,-48.4016623,699,130.52076
1,Ananás/TO,-6.3663053,-48.080238,1388,14622.84029
D1,Ananás/TO,-6.3663053,-48.080238,20,210.70375
1,Anapu/PA,-3.4668292,-51.2057035,1294,4523.36841
D1,Anapu/PA,-3.4668292,-51.2057035,31,108.36509
1,Anapurus/MA,-3.6751298,-43.1046001,828,5209.51302
D1,Anapurus/MA,-3.6751298,-43.1046001,11,69.20851
1,Anastácio/MS,-20.4832458,-55.8048448,1705,6755.95356
D1,Anastácio/MS,-20.4832458,-55.8048448,54,213.97155
1,Anaurilândia/MS,-22.185169,-52.719056,295,3250.33054
D1,Anaurilândia/MS,-22.185169,-52.719056,10,110.18070
1,Anchieta/ES,-20.8057672,-40.6454564,4161,13972.93395
D1,Anchieta/ES,-20.8057672,-40.6454564,68,228.34884
1,Anchieta/SC,-26.5350527,-53.3293938,397,7144.14252
D1,Anchieta/SC,-26.5350527,-53.3293938,6,107.97193
1,Andaraí/BA,-12.8059674,-41.3322919,640,4873.59123
D1,Andaraí/BA,-12.8059674,-41.3322919,6,45.68992
1,Andirá/PR,-23.0494761,-50.2310027,1519,7623.20586
D1,Andirá/PR,-23.0494761,-50.2310027,54,271.00271
1,Andorinha/BA,-10.3445708,-39.8334411,700,4826.58760
D1,Andorinha/BA,-10.3445708,-39.8334411,10,68.95125
1,Andradas/MG,-22.0680484,-46.5688976,2588,6251.81177
D1,Andradas/MG,-22.0680484,-46.5688976,71,171.51416
1,Andradina/SP,-20.896505,-51.3742765,4583,8011.95762
D1,Andradina/SP,-20.896505,-51.3742765,196,342.64536
1,Andrelândia/MG,-21.739722,-44.308889,206,1687.69458
D1,Andrelândia/MG,-21.739722,-44.308889,7,57.34884
1,André da Rocha/RS,-28.6309124,-51.5733328,94,6999.25540
1,Angatuba/SP,-23.4938938,-48.4110675,2160,8477.56976
D1,Angatuba/SP,-23.4938938,-48.4110675,58,227.63845
1,Angelim/PE,-8.8902038,-36.2872987,147,1309.46018
D1,Angelim/PE,-8.8902038,-36.2872987,5,44.53946
1,Angelina/SC,-27.5805287,-48.9838759,443,9340.08012
D1,Angelina/SC,-27.5805287,-48.9838759,1,21.08370
1,Angelândia/MG,-17.7253,-42.2728,88,1028.39780
D1,Angelândia/MG,-17.7253,-42.2728,1,11.68634
1,Angical do Piauí/PI,-6.0872666,-42.7366138,481,7091.25756
D1,Angical do Piauí/PI,-6.0872666,-42.7366138,8,117.94191
1,Angical/BA,-12.005623,-44.7000236,452,3242.93299
D1,Angical/BA,-12.005623,-44.7000236,10,71.74631
1,Angico/TO,-6.3893733,-47.8656722,205,5935.14765
D1,Angico/TO,-6.3893733,-47.8656722,3,86.85582
1,Angicos/RN,-5.6666344,-36.6009064,592,5057.66766
D1,Angicos/RN,-5.6666344,-36.6009064,14,119.60701
1,Angra dos Reis/RJ,-23.0063966,-44.316326,12327,5953.80692
D1,Angra dos Reis/RJ,-23.0063966,-44.316326,396,191.26369
1,Anguera/BA,-12.1509425,-39.2452469,328,2903.42569
D1,Anguera/BA,-12.1509425,-39.2452469,1,8.85191
1,Angélica/MS,-22.1588196,-53.7728504,645,5900.10977
D1,Angélica/MS,-22.1588196,-53.7728504,14,128.06440
1,Anhanguera/GO,-18.3338749,-48.220363,89,7672.41379
D1,Anhanguera/GO,-18.3338749,-48.220363,6,517.24138
1,Anhembi/SP,-22.7891096,-48.1316776,137,2009.09224
D1,Anhembi/SP,-22.7891096,-48.1316776,4,58.65963
1,Anhumas/SP,-22.2956478,-51.3873401,189,4560.81081
D1,Anhumas/SP,-22.2956478,-51.3873401,4,96.52510
1,Anicuns/GO,-16.4606451,-49.9572265,2229,10140.57595
D1,Anicuns/GO,-16.4606451,-49.9572265,54,245.66671
1,Anita Garibaldi/SC,-27.6855032,-51.1293873,964,13856.54736
D1,Anita Garibaldi/SC,-27.6855032,-51.1293873,8,114.99209
1,Anitápolis/SC,-27.9041185,-49.1287395,297,9200.74349
D1,Anitápolis/SC,-27.9041185,-49.1287395,1,30.97893
1,Anori/AM,-3.7435254,-61.6605203,1838,8557.99227
D1,Anori/AM,-3.7435254,-61.6605203,31,144.34046
1,Anta Gorda/RS,-28.9718745,-52.0069187,532,8924.67707
D1,Anta Gorda/RS,-28.9718745,-52.0069187,4,67.10284
1,Antas/BA,-10.4114649,-38.3308815,1045,5364.75178
D1,Antas/BA,-10.4114649,-38.3308815,5,25.66867
1,Antonina do Norte/CE,-6.7754187,-39.9879345,498,6749.79669
D1,Antonina do Norte/CE,-6.7754187,-39.9879345,17,230.41475
1,Antonina/PR,-25.4298854,-48.7125431,2109,11129.87493
D1,Antonina/PR,-25.4298854,-48.7125431,52,274.42081
1,Antônio Almeida/PI,-7.2186016,-44.1950248,401,12649.84227
D1,Antônio Almeida/PI,-7.2186016,-44.1950248,10,315.45741
1,Antônio Cardoso/BA,-12.4363122,-39.1200307,326,2791.81297
D1,Antônio Cardoso/BA,-12.4363122,-39.1200307,7,59.94690
1,Antônio Carlos/MG,-21.318334,-43.746666,452,3944.49777
D1,Antônio Carlos/MG,-21.318334,-43.746666,8,69.81412
1,Antônio Carlos/SC,-27.5168462,-48.7684715,1429,16591.19935
D1,Antônio Carlos/SC,-27.5168462,-48.7684715,20,232.20713
1,Antônio Dias/MG,-19.6525,-42.872778,480,5175.20216
D1,Antônio Dias/MG,-19.6525,-42.872778,20,215.63342
1,Antônio Gonçalves/BA,-10.5715409,-40.2748824,656,5522.81529
D1,Antônio Gonçalves/BA,-10.5715409,-40.2748824,7,58.93248
1,Antônio João/MS,-22.1892837,-55.9508227,313,3470.06652
D1,Antônio João/MS,-22.1892837,-55.9508227,6,66.51885
1,Antônio Martins/RN,-6.2155812,-37.8890129,384,5367.62650
D1,Antônio Martins/RN,-6.2155812,-37.8890129,4,55.91278
1,Antônio Olinto/PR,-25.9849006,-50.1974516,321,4322.06813
D1,Antônio Olinto/PR,-25.9849006,-50.1974516,8,107.71509
1,Antônio Prado de Minas/MG,-21.0171988,-42.1101106,153,9640.83176
D1,Antônio Prado de Minas/MG,-21.0171988,-42.1101106,5,315.05986
1,Antônio Prado/RS,-28.8567806,-51.2801355,1866,14304.33116
D1,Antônio Prado/RS,-28.8567806,-51.2801355,17,130.31813
1,Anápolis/GO,-16.3332828,-48.9525756,31571,8058.51363
D1,Anápolis/GO,-16.3332828,-48.9525756,1093,278.98880
1,Anísio de Abreu/PI,-9.185643,-43.04941,284,2857.71785
D1,Anísio de Abreu/PI,-9.185643,-43.04941,8,80.49909
1,Aparecida d'Oeste/SP,-20.4498109,-50.8808706,591,14213.56421
D1,Aparecida d'Oeste/SP,-20.4498109,-50.8808706,12,288.60029
1,Aparecida de Goiânia/GO,-16.8226769,-49.2452546,61620,10441.48397
D1,Aparecida de Goiânia/GO,-16.8226769,-49.2452546,1180,199.95052
1,Aparecida do Rio Doce/GO,-18.2980167,-51.1491312,183,7396.92805
D1,Aparecida do Rio Doce/GO,-18.2980167,-51.1491312,3,121.26112
1,Aparecida do Rio Negro/TO,-9.9513491,-47.9773786,294,6064.35644
D1,Aparecida do Rio Negro/TO,-9.9513491,-47.9773786,5,103.13531
1,Aparecida do Taboado/MS,-20.0840304,-51.1013943,2351,9018.37431
D1,Aparecida do Taboado/MS,-20.0840304,-51.1013943,36,138.09506
1,Aparecida/PB,-6.7859598, -38.0831353,674,8008.55513
D1,Aparecida/PB,-6.7859598, -38.0831353,11,130.70342
1,Aparecida/SP,-22.851552,-45.2340924,2069,5717.83888
D1,Aparecida/SP,-22.851552,-45.2340924,69,190.68675
1,Aperibé/RJ,-21.6211928,-42.1028167,476,3999.66389
D1,Aperibé/RJ,-21.6211928,-42.1028167,19,159.65045
1,Apiacá/ES,-21.152272,-41.569297,637,8432.61848
D1,Apiacá/ES,-21.152272,-41.569297,26,344.18851
1,Apiacás/MT,-9.5678422,-57.394852,1236,12019.83857
D1,Apiacás/MT,-9.5678422,-57.394852,12,116.69746
1,Apiaí/SP,-24.5076527,-48.8461582,945,3900.76777
D1,Apiaí/SP,-24.5076527,-48.8461582,43,177.49525
1,Apicum-Açu/MA,-1.5279295,-45.082278,417,2394.76253
D1,Apicum-Açu/MA,-1.5279295,-45.082278,3,17.22851
1,Apiúna/SC,-27.0374658,-49.3885037,734,6766.22419
D1,Apiúna/SC,-27.0374658,-49.3885037,15,138.27434
1,Apodi/RN,-5.6631109,-37.796927,4639,12931.37091
D1,Apodi/RN,-5.6631109,-37.796927,68,189.55232
1,Aporá/BA,-11.6599747,-38.0794757,450,2529.79537
D1,Aporá/BA,-11.6599747,-38.0794757,18,101.19181
1,Aporé/GO,-18.9642193,-51.92804,315,7443.28922
D1,Aporé/GO,-18.9642193,-51.92804,7,165.40643
1,Apuarema/BA,-13.8517897,-39.7457126,629,8614.07833
D1,Apuarema/BA,-13.8517897,-39.7457126,9,123.25390
1,Apucarana/PR,-23.5525327,-51.4610764,6930,5086.83589
D1,Apucarana/PR,-23.5525327,-51.4610764,235,172.49732
1,Apuiarés/CE,-3.9460303,-39.4313298,865,5895.58342
D1,Apuiarés/CE,-3.9460303,-39.4313298,15,102.23555
1,Apuí/AM,-7.1940195,-59.8830192,1210,5411.69104
D1,Apuí/AM,-7.1940195,-59.8830192,26,116.28427
1,Aquidabã/SE,-10.2837579,-37.0188687,1768,8154.60541
D1,Aquidabã/SE,-10.2837579,-37.0188687,28,129.14533
1,Aquidauana/MS,-20.473969,-55.7821375,3994,8315.80920
D1,Aquidauana/MS,-20.473969,-55.7821375,118,245.68490
1,Aquiraz/CE,-3.9063117,-38.387504,5028,6212.39266
D1,Aquiraz/CE,-3.9063117,-38.387504,73,90.19584
1,Arabutã/SC,-27.1587028,-52.1438142,381,8928.98992
D1,Arabutã/SC,-27.1587028,-52.1438142,6,140.61401
1,Aracaju/SE,-10.9162061,-37.0774655,99968,15034.86197
D1,Aracaju/SE,-10.9162061,-37.0774655,1765,265.45026
1,Aracati/CE,-4.558259,-37.767894,5261,7017.00567
D1,Aracati/CE,-4.558259,-37.767894,114,152.05068
1,Aracatu/BA,-14.4274236,-41.4604105,710,5442.69835
D1,Aracatu/BA,-14.4274236,-41.4604105,13,99.65504
1,Araci/BA,-11.3356065,-38.9573261,3192,5841.01888
D1,Araci/BA,-11.3356065,-38.9573261,41,75.02562
1,Aracitaba/MG,-21.3425,-43.378611,85,4128.21758
D1,Aracitaba/MG,-21.3425,-43.378611,7,339.97086
1,Aracoiaba/CE,-4.3702577,-38.8084313,2685,10118.71114
D1,Aracoiaba/CE,-4.3702577,-38.8084313,26,97.98379
1,Aracruz/ES,-19.8245218,-40.2735025,13347,12945.55824
D1,Aracruz/ES,-19.8245218,-40.2735025,190,184.28531
1,Aragarças/GO,-15.8957166,-52.2514538,1858,9164.89913
D1,Aragarças/GO,-15.8957166,-52.2514538,43,212.10477
1,Aragoiânia/GO,-16.9146388,-49.4499148,872,8307.92683
D1,Aragoiânia/GO,-16.9146388,-49.4499148,14,133.38415
1,Aragominas/TO,-7.1654101,-48.525488,456,7956.72657
D1,Aragominas/TO,-7.1654101,-48.525488,8,139.59169
1,Araguacema/TO,-8.8067391,-49.5560969,424,5925.92593
D1,Araguacema/TO,-8.8067391,-49.5560969,11,153.73864
1,Araguaiana/MT,-15.729144,-51.834112,171,5500.16082
D1,Araguaiana/MT,-15.729144,-51.834112,4,128.65873
1,Araguainha/MT,-16.857016,-53.031778,21,2219.87315
1,Araguanã/MA,-2.9508403,-45.6651986,750,4822.84097
D1,Araguanã/MA,-2.9508403,-45.6651986,5,32.15227
1,Araguanã/TO,-6.5799107,-48.6428482,378,6525.11652
D1,Araguanã/TO,-6.5799107,-48.6428482,12,207.14656
1,Araguapaz/GO,-15.0937927,-50.626417,449,5768.98368
D1,Araguapaz/GO,-15.0937927,-50.626417,19,244.12180
1,Araguari/MG,-18.6511256,-48.1933764,11845,10053.04477
D1,Araguari/MG,-18.6511256,-48.1933764,328,278.37895
1,Araguatins/TO,-5.6522925,-48.1158973,1810,5004.14708
D1,Araguatins/TO,-5.6522925,-48.1158973,48,132.70666
1,Araguaçu/TO,-12.928934,-49.823134,757,8940.59289
D1,Araguaçu/TO,-12.928934,-49.823134,16,188.96894
1,Araguaína/TO,-7.193241,-48.2018597,27325,14900.67128
D1,Araguaína/TO,-7.193241,-48.2018597,360,196.31260
1,Araioses/MA,-2.890914,-41.904993,631,1349.12660
D1,Araioses/MA,-2.890914,-41.904993,12,25.65692
1,Aral Moreira/MS,-22.951141,-55.6268421,357,2894.90756
D1,Aral Moreira/MS,-22.951141,-55.6268421,9,72.98086
1,Aramari/BA,-12.0907897,-38.4985065,510,4449.87348
D1,Aramari/BA,-12.0907897,-38.4985065,11,95.97766
1,Arambaré/RS,-30.9132252,-51.4994625,155,4351.48793
D1,Arambaré/RS,-30.9132252,-51.4994625,5,140.37058
1,Arame/MA,-4.8858769,-46.0102484,1050,3204.73691
D1,Arame/MA,-4.8858769,-46.0102484,30,91.56391
1,Aramina/SP,-20.0876144,-47.789201,250,4420.86649
D1,Aramina/SP,-20.0876144,-47.789201,10,176.83466
1,Arandu/SP,-23.1345103,-49.0545651,269,4226.23723
D1,Arandu/SP,-23.1345103,-49.0545651,7,109.97643
1,Arantina/MG,-21.911667,-44.255833,113,4054.53893
D1,Arantina/MG,-21.911667,-44.255833,3,107.64263
1,Arapeí/SP,-22.6738889,-44.4477778,180,7317.07317
D1,Arapeí/SP,-22.6738889,-44.4477778,2,81.30081
1,Arapiraca/AL,-9.754866,-36.661471,21929,9409.68989
D1,Arapiraca/AL,-9.754866,-36.661471,345,148.03881
1,Arapoema/TO,-7.6575001,-49.0641484,408,6166.86820
D1,Arapoema/TO,-7.6575001,-49.0641484,6,90.68924
1,Araponga/MG,-20.666667,-42.520556,343,4057.73098
D1,Araponga/MG,-20.666667,-42.520556,6,70.98072
1,Arapongas/PR,-23.415296,-51.42592,9720,7787.83751
D1,Arapongas/PR,-23.415296,-51.42592,378,302.86035
1,Araporã/MG,-18.4318188,-49.188313,1610,23228.97129
D1,Araporã/MG,-18.4318188,-49.188313,22,317.41451
1,Arapoti/PR,-24.1457957,-49.8224605,2253,7961.13074
D1,Arapoti/PR,-24.1457957,-49.8224605,39,137.80919
1,Araputanga/MT,-15.4710868,-58.346796,1580,9320.98401
D1,Araputanga/MT,-15.4710868,-58.346796,36,212.37685
1,Arapuá/MG,-19.034444,-46.155556,171,6031.74603
D1,Arapuá/MG,-19.034444,-46.155556,2,70.54674
1,Arapuã/PR,-24.3079525,-51.7901941,177,5882.35294
D1,Arapuã/PR,-24.3079525,-51.7901941,5,166.16816
1,Araquari/SC,-26.3703324,-48.7210994,3042,7696.58941
D1,Araquari/SC,-26.3703324,-48.7210994,63,159.39682
1,Arara/PB,-6.8271895,-35.7605703,614,4534.04224
D1,Arara/PB,-6.8271895,-35.7605703,19,140.30424
1,Araranguá/SC,-28.9348832,-49.4858389,8702,12635.95046
D1,Araranguá/SC,-28.9348832,-49.4858389,188,272.98997
1,Araraquara/SP,-21.7886713,-48.1773096,16306,6841.51566
D1,Araraquara/SP,-21.7886713,-48.1773096,369,154.82149
1,Araras/SP,-22.3569477,-47.3838889,13271,9793.66227
D1,Araras/SP,-22.3569477,-47.3838889,295,217.70254
1,Ararendá/CE,-4.7504395,-40.8303611,701,6396.56903
D1,Ararendá/CE,-4.7504395,-40.8303611,16,145.99872
1,Arari/MA,-3.4547602,-44.7772723,552,1844.18014
D1,Arari/MA,-3.4547602,-44.7772723,21,70.15903
1,Araricá/RS,-29.6168543,-50.929121,949,16444.29042
D1,Araricá/RS,-29.6168543,-50.929121,24,415.87247
1,Araripe/CE,-7.212861,-40.1359222,798,3685.23137
D1,Araripe/CE,-7.212861,-40.1359222,11,50.79893
1,Araripina/PE,-7.5768582,-40.5038509,5560,6551.65913
D1,Araripina/PE,-7.5768582,-40.5038509,114,134.33258
1,Araruama/RJ,-22.8733203,-42.3428897,4750,3537.04214
D1,Araruama/RJ,-22.8733203,-42.3428897,253,188.39403
1,Araruna/PB,-6.5321155,-35.7397595,593,2897.91331
D1,Araruna/PB,-6.5321155,-35.7397595,16,78.18990
1,Araruna/PR,-23.9320308,-52.4976047,1038,7414.28571
D1,Araruna/PR,-23.9320308,-52.4976047,19,135.71429
1,Arataca/BA,-15.2617424,-39.4122943,485,4424.77876
D1,Arataca/BA,-15.2617424,-39.4122943,13,118.60232
1,Aratiba/RS,-27.3955734,-52.3024325,345,5574.40620
D1,Aratiba/RS,-27.3955734,-52.3024325,6,96.94619
1,Aratuba/CE,-4.4195958,-39.0463737,1138,9642.43349
D1,Aratuba/CE,-4.4195958,-39.0463737,7,59.31198
1,Aratuípe/BA,-13.077137,-39.0010786,304,3440.08148
D1,Aratuípe/BA,-13.077137,-39.0010786,8,90.52846
1,Araucária/PR,-25.5861107,-49.4051209,19547,13368.76086
D1,Araucária/PR,-25.5861107,-49.4051209,305,208.59836
1,Arauá/SE,-11.2644014,-37.6181058,926,9309.33950
D1,Arauá/SE,-11.2644014,-37.6181058,17,170.90580
1,Araxá/MG,-19.5928536,-46.940241,8781,8180.77643
D1,Araxá/MG,-19.5928536,-46.940241,138,128.56704
1,Araçagi/PB,-6.8519969,-35.3835602,979,5785.71006
D1,Araçagi/PB,-6.8519969,-35.3835602,12,70.91779
1,Araçariguama/SP,-23.438611,-47.061389,1177,5148.73141
D1,Araçariguama/SP,-23.438611,-47.061389,38,166.22922
1,Araçatuba/SP,-21.207992,-50.4390225,21439,10820.72791
D1,Araçatuba/SP,-21.207992,-50.4390225,632,318.98410
1,Araçaí/MG,-19.200833,-44.2475,49,2081.56330
1,Araçoiaba da Serra/SP,-23.5045367,-47.6168158,2012,5785.59926
D1,Araçoiaba da Serra/SP,-23.5045367,-47.6168158,45,129.39959
1,Araçoiaba/PE,-7.7856903,-35.0898881,405,1953.40761
D1,Araçoiaba/PE,-7.7856903,-35.0898881,24,115.75749
1,Araçu/GO,-16.3561579,-49.6815269,373,10699.94263
D1,Araçu/GO,-16.3561579,-49.6815269,15,430.29260
1,Araçuaí/MG,-16.8484451,-42.0661868,1203,3276.85770
D1,Araçuaí/MG,-16.8484451,-42.0661868,25,68.09762
1,Araçás/BA,-12.2139176,-38.2026159,541,4431.52031
D1,Araçás/BA,-12.2139176,-38.2026159,7,57.33945
1,Araújos/MG,-19.948055,-45.165556,559,5946.17594
D1,Araújos/MG,-19.948055,-45.165556,6,63.82300
1,Arceburgo/MG,-21.364444,-46.939722,718,6597.44556
D1,Arceburgo/MG,-21.364444,-46.939722,16,147.01829
1,Arco-Íris/SP,-21.7741308,-50.4668814,90,5076.14213
D1,Arco-Íris/SP,-21.7741308,-50.4668814,6,338.40948
1,Arcos/MG,-20.282223,-45.539444,4245,10512.63001
D1,Arcos/MG,-20.282223,-45.539444,70,173.35315
1,Arcoverde/PE,-8.415192,-37.057748,4875,6515.46337
D1,Arcoverde/PE,-8.415192,-37.057748,99,132.31403
1,Areado/MG,-21.3582771,-46.1476688,517,3405.57276
D1,Areado/MG,-21.3582771,-46.1476688,15,98.80772
1,Areal/RJ,-22.2314922,-43.1056264,811,6401.45236
D1,Areal/RJ,-22.2314922,-43.1056264,36,284.15818
1,Arealva/SP,-22.0301906,-48.9111936,596,6919.77244
D1,Arealva/SP,-22.0301906,-48.9111936,8,92.88285
1,Areia Branca/RN,-4.9506652,-37.1263312,1900,6793.72117
D1,Areia Branca/RN,-4.9506652,-37.1263312,79,282.47578
1,Areia Branca/SE,-10.7591455,-37.3148072,1390,7438.72418
D1,Areia Branca/SE,-10.7591455,-37.3148072,35,187.30600
1,Areia de Baraúnas/PB,-7.1233949,-36.9446216,90,4253.30813
D1,Areia de Baraúnas/PB,-7.1233949,-36.9446216,3,141.77694
1,Areia/PB,-6.9680243,-35.6994783,1045,4612.46469
D1,Areia/PB,-6.9680243,-35.6994783,21,92.69068
1,Areial/PB,-7.0501306,-35.9245244,246,3500.78270
D1,Areial/PB,-7.0501306,-35.9245244,6,85.38494
1,Areias/SP,-22.5800929,-44.6975127,233,5980.49281
D1,Areias/SP,-22.5800929,-44.6975127,1,25.66735
1,Areiópolis/SP,-22.6758064,-48.6673653,901,8074.92382
D1,Areiópolis/SP,-22.6758064,-48.6673653,12,107.54616
1,Arenápolis/MT,-14.4610369,-56.8432806,1234,12986.73963
D1,Arenápolis/MT,-14.4610369,-56.8432806,19,199.95790
1,Arenópolis/GO,-16.3859286,-51.55937,165,6506.30915
D1,Arenópolis/GO,-16.3859286,-51.55937,8,315.45741
1,Argirita/MG,-21.612761,-42.8371922,246,9097.63314
D1,Argirita/MG,-21.612761,-42.8371922,5,184.91124
1,Aricanduva/MG,-17.8678,-42.5569,80,1518.31467
1,Arinos/MG,-15.917223,-46.106111,466,2608.89038
D1,Arinos/MG,-15.917223,-46.106111,11,61.58325
1,Aripuanã/MT,-10.175806,-59.4439663,2108,9280.61988
D1,Aripuanã/MT,-10.175806,-59.4439663,40,176.10284
1,Ariquemes/RO,-9.9076522,-63.033069,18536,16924.29901
D1,Ariquemes/RO,-9.9076522,-63.033069,400,365.22009
1,Ariranha do Ivaí/PR,-24.3834527,-51.5876772,129,6243.94966
D1,Ariranha do Ivaí/PR,-24.3834527,-51.5876772,2,96.80542
1,Ariranha/SP,-21.18716,-48.790418,396,4056.96138
D1,Ariranha/SP,-21.18716,-48.790418,13,133.18308
1,Armazém/SC,-28.2624996,-49.0190126,1318,15047.37984
D1,Armazém/SC,-28.2624996,-49.0190126,27,308.25437
1,Armação dos Búzios/RJ,-22.7597805,-41.8875267,3946,11445.31137
D1,Armação dos Búzios/RJ,-22.7597805,-41.8875267,41,118.91986
1,Arneiroz/CE,-6.3235099,-40.1603859,424,5405.40541
D1,Arneiroz/CE,-6.3235099,-40.1603859,11,140.23457
1,Aroazes/PI,-6.1108814,-41.7886137,523,8975.45907
D1,Aroazes/PI,-6.1108814,-41.7886137,12,205.93788
1,Aroeiras do Itaim/PI,-7.2797031,-41.5629681,97,3802.43042
D1,Aroeiras do Itaim/PI,-7.2797031,-41.5629681,1,39.20031
1,Aroeiras/PB,-7.5462904,-35.7080002,854,4467.46181
D1,Aroeiras/PB,-7.5462904,-35.7080002,6,31.38732
1,Arraial do Cabo/RJ,-22.9662839,-42.024427,593,1938.35191
D1,Arraial do Cabo/RJ,-22.9662839,-42.024427,23,75.18060
1,Arraial/PI,-6.6541632,-42.5335332,137,2902.54237
D1,Arraial/PI,-6.6541632,-42.5335332,2,42.37288
1,Arraias/TO,-12.9287788,-46.9437231,442,4195.93697
D1,Arraias/TO,-12.9287788,-46.9437231,4,37.97228
1,Arroio Grande/RS,-32.2384246,-53.0866661,1363,7473.40717
D1,Arroio Grande/RS,-32.2384246,-53.0866661,48,263.18675
1,Arroio Trinta/SC,-26.9301976,-51.334928,462,13017.75148
D1,Arroio Trinta/SC,-26.9301976,-51.334928,8,225.41561
1,Arroio do Meio/RS,-29.4020392,-51.9444993,2634,12562.59837
D1,Arroio do Meio/RS,-29.4020392,-51.9444993,33,157.39018
1,Arroio do Padre/RS,-31.4428773,-52.4228985,128,4337.51271
D1,Arroio do Padre/RS,-31.4428773,-52.4228985,2,67.77364
1,Arroio do Sal/RS,-29.549852,-49.8874395,898,8736.25839
D1,Arroio do Sal/RS,-29.549852,-49.8874395,31,301.58576
1,Arroio do Tigre/RS,-29.334158,-53.0888935,949,7075.22553
D1,Arroio do Tigre/RS,-29.334158,-53.0888935,17,126.74271
1,Arroio dos Ratos/RS,-30.0894524,-51.7265541,791,5579.45969
D1,Arroio dos Ratos/RS,-30.0894524,-51.7265541,29,204.55668
1,Artur Nogueira/SP,-22.572737,-47.172679,3238,5851.10228
D1,Artur Nogueira/SP,-22.572737,-47.172679,93,168.05204
1,Aruanã/GO,-14.9162439,-51.0715692,405,4005.93472
D1,Aruanã/GO,-14.9162439,-51.0715692,10,98.91197
1,Arujá/SP,-23.396266,-46.3175449,5950,6527.20032
D1,Arujá/SP,-23.396266,-46.3175449,223,244.63289
1,Arvoredo/SC,-27.0752908,-52.4571847,271,12130.70725
D1,Arvoredo/SC,-27.0752908,-52.4571847,4,179.05103
1,Arvorezinha/RS,-28.87369,-52.17808,697,6687.13422
D1,Arvorezinha/RS,-28.87369,-52.17808,24,230.26000
1,Arês/RN,-6.1969216,-35.1642968,723,5014.91295
D1,Arês/RN,-6.1969216,-35.1642968,20,138.72512
1,Ascurra/SC,-26.9569975,-49.3767752,1011,12672.34896
D1,Ascurra/SC,-26.9569975,-49.3767752,9,112.81023
1,Aspásia/SP,-20.160028,-50.728046,93,5115.51155
D1,Aspásia/SP,-20.160028,-50.728046,4,220.02200
1,Assaré/CE,-6.8746791,-39.8741385,1365,5813.95349
D1,Assaré/CE,-6.8746791,-39.8741385,27,115.00128
1,Assaí/PR,-23.3736041,-50.8454929,1127,7536.44510
D1,Assaí/PR,-23.3736041,-50.8454929,35,234.05109
1,Assis Brasil/AC,-10.9409203,-69.5672108,1518,20148.65941
D1,Assis Brasil/AC,-10.9409203,-69.5672108,21,278.73640
1,Assis Chateaubriand/PR,-24.4054826,-53.5120468,3017,9049.19016
D1,Assis Chateaubriand/PR,-24.4054826,-53.5120468,75,224.95501
1,Assis/SP,-22.6620892,-50.420623,7156,6809.59586
D1,Assis/SP,-22.6620892,-50.420623,236,224.57583
1,Assunção do Piauí/PI,-5.8610212,-41.0485091,286,3637.28857
D1,Assunção do Piauí/PI,-5.8610212,-41.0485091,6,76.30675
1,Assunção/PB,-7.073396,-36.7274003,280,6949.61529
D1,Assunção/PB,-7.073396,-36.7274003,2,49.64011
1,Astolfo Dutra/MG,-21.3132636,-42.8624102,1098,7694.46391
D1,Astolfo Dutra/MG,-21.3132636,-42.8624102,15,105.11563
1,Astorga/PR,-23.2350184,-51.6647074,2443,9321.22553
D1,Astorga/PR,-23.2350184,-51.6647074,57,217.48254
1,Atalaia do Norte/AM,-4.3658547,-70.1908742,2692,13197.37229
D1,Atalaia do Norte/AM,-4.3658547,-70.1908742,8,39.21953
1,Atalaia/AL,-9.5029595,-36.0219316,1034,2183.04655
D1,Atalaia/AL,-9.5029595,-36.0219316,41,86.56181
1,Atalaia/PR,-23.1513833,-52.0529697,328,8451.43004
D1,Atalaia/PR,-23.1513833,-52.0529697,15,386.49833
1,Atalanta/SC,-27.421916,-49.778863,269,8419.40532
D1,Atalanta/SC,-27.421916,-49.778863,5,156.49452
1,Ataléia/MG,-18.04432,-41.1110524,1029,8116.42215
D1,Ataléia/MG,-18.04432,-41.1110524,8,63.10144
1,Atibaia/SP,-23.1177393,-46.5547861,8669,6016.46216
D1,Atibaia/SP,-23.1177393,-46.5547861,208,144.35623
1,Atilio Vivacqua/ES,-20.9139369,-41.1947519,1304,10772.40810
D1,Atilio Vivacqua/ES,-20.9139369,-41.1947519,23,190.00413
1,Augustinópolis/TO,-5.4662267,-47.8897519,1325,7107.22523
D1,Augustinópolis/TO,-5.4662267,-47.8897519,24,128.73465
1,Augusto Corrêa/PA,-1.0229335,-46.6404029,1889,4064.90069
D1,Augusto Corrêa/PA,-1.0229335,-46.6404029,33,71.01203
1,Augusto Pestana/RS,-28.5148413,-53.9906433,369,5589.21539
D1,Augusto Pestana/RS,-28.5148413,-53.9906433,6,90.88155
1,Augusto de Lima/MG,-18.1092963,-44.2651945,215,4432.07586
D1,Augusto de Lima/MG,-18.1092963,-44.2651945,7,144.30014
1,Aurelino Leal/BA,-14.3167137,-39.3256107,822,7274.98009
D1,Aurelino Leal/BA,-14.3167137,-39.3256107,22,194.70750
1,Auriflama/SP,-20.6840418,-50.5554616,1610,10555.30060
D1,Auriflama/SP,-20.6840418,-50.5554616,56,367.14089
1,Aurilândia/GO,-16.6772599,-50.4641231,170,5559.18901
D1,Aurilândia/GO,-16.6772599,-50.4641231,5,163.50556
1,Aurora do Pará/PA,-2.1323199,-47.558436,1190,3745.31835
D1,Aurora do Pará/PA,-2.1323199,-47.558436,13,40.91524
1,Aurora do Tocantins/TO,-12.71045,-46.407604,167,4414.48586
D1,Aurora do Tocantins/TO,-12.71045,-46.407604,2,52.86809
1,Aurora/CE,-6.9426019,-38.9693765,1286,5225.51808
D1,Aurora/CE,-6.9426019,-38.9693765,29,117.83828
1,Aurora/SC,-27.3166417,-49.6368502,657,11560.79535
D1,Aurora/SC,-27.3166417,-49.6368502,14,246.34876
1,Autazes/AM,-3.5833283,-59.1301518,2762,6855.29908
D1,Autazes/AM,-3.5833283,-59.1301518,86,213.45247
1,Avanhandava/SP,-21.4603331,-49.9465156,556,4011.83347
D1,Avanhandava/SP,-21.4603331,-49.9465156,24,173.17267
1,Avaré/SP,-23.1045215,-48.9259103,6246,6846.28201
D1,Avaré/SP,-23.1045215,-48.9259103,139,152.35882
1,Avaí/SP,-22.1564662,-49.3316395,262,4819.72038
D1,Avaí/SP,-22.1564662,-49.3316395,5,91.97940
1,Aveiro/PA,-3.6049239,-55.3310742,577,3517.43477
D1,Aveiro/PA,-3.6049239,-55.3310742,9,54.86467
1,Avelino Lopes/PI,-10.1346855,-43.9489525,307,2710.57743
D1,Avelino Lopes/PI,-10.1346855,-43.9489525,19,167.75561
1,Avelinópolis/GO,-16.4672409,-49.7578661,264,10958.90411
D1,Avelinópolis/GO,-16.4672409,-49.7578661,11,456.62100
1,Axixá do Tocantins/TO,-5.612747,-47.77007,985,10064.37110
D1,Axixá do Tocantins/TO,-5.612747,-47.77007,16,163.48217
1,Axixá/MA,-2.8379465,-44.0561053,189,1551.34203
D1,Axixá/MA,-2.8379465,-44.0561053,4,32.83264
1,Açailândia/MA,-4.9514278,-47.4844564,4769,4215.83968
D1,Açailândia/MA,-4.9514278,-47.4844564,170,150.28156
1,Açu/RN,-5.5836157,-36.9139541,4515,7733.28309
D1,Açu/RN,-5.5836157,-36.9139541,122,208.96136
1,Açucena/MG,-19.073056,-42.546666,682,7280.10248
D1,Açucena/MG,-19.073056,-42.546666,22,234.84202
1,Babaçulândia/TO,-7.2034355,-47.761613,556,5212.82580
D1,Babaçulândia/TO,-7.2034355,-47.761613,4,37.50234
1,Bacabal/MA,-4.2318132,-44.781167,4389,4188.37675
D1,Bacabal/MA,-4.2318132,-44.781167,155,147.91488
1,Bacabeira/MA,-2.9775747,-44.3155943,317,1837.46812
D1,Bacabeira/MA,-2.9775747,-44.3155943,6,34.77858
1,Bacuri/MA,-1.728894,-45.1417148,429,2299.77485
D1,Bacuri/MA,-1.728894,-45.1417148,4,21.44312
1,Bacurituba/MA,-2.7082587,-44.7381309,112,1975.30864
D1,Bacurituba/MA,-2.7082587,-44.7381309,1,17.63668
1,Bady Bassitt/SP,-20.9178969,-49.4517911,2377,13383.25545
D1,Bady Bassitt/SP,-20.9178969,-49.4517911,51,287.14599
1,Baependi/MG,-21.959162,-44.8899249,1045,5442.99182
D1,Baependi/MG,-21.959162,-44.8899249,12,62.50326
1,Bagre/PA,-1.8994498,-50.2103844,832,2656.02554
D1,Bagre/PA,-1.8994498,-50.2103844,11,35.11572
1,Bagé/RS,-31.3314264,-54.1062808,7259,5982.61013
D1,Bagé/RS,-31.3314264,-54.1062808,199,164.00874
1,Baianópolis/BA,-12.3067564,-44.5383591,457,3280.92469
D1,Baianópolis/BA,-12.3067564,-44.5383591,4,28.71707
1,Baixa Grande do Ribeiro/PI,-7.862861,-45.2113289,1933,16562.41967
D1,Baixa Grande do Ribeiro/PI,-7.862861,-45.2113289,19,162.79668
1,Baixa Grande/BA,-11.9630941,-40.1657537,610,2983.03096
D1,Baixa Grande/BA,-11.9630941,-40.1657537,7,34.23150
1,Baixio/CE,-6.7303544,-38.7170095,352,5584.64223
D1,Baixio/CE,-6.7303544,-38.7170095,8,126.92369
1,Baixo Guandu/ES,-19.5138322,-41.0182089,3093,9935.11499
D1,Baixo Guandu/ES,-19.5138322,-41.0182089,70,224.84903
1,Baião/PA,-2.7903479,-49.6702845,657,1355.78530
D1,Baião/PA,-2.7903479,-49.6702845,22,45.39920
1,Balbinos/SP,-21.9006253,-49.3583966,309,5207.28008
D1,Balbinos/SP,-21.9006253,-49.3583966,4,67.40816
1,Baldim/MG,-19.2913568,-43.9558262,448,5741.38152
D1,Baldim/MG,-19.2913568,-43.9558262,8,102.52467
1,Baliza/GO,-16.1978119,-52.542789,206,3901.51515
D1,Baliza/GO,-16.1978119,-52.542789,6,113.63636
1,Balneário Arroio do Silva/SC,-28.9815269,-49.4189932,1739,12948.62249
D1,Balneário Arroio do Silva/SC,-28.9815269,-49.4189932,38,282.94862
1,Balneário Barra do Sul/SC,-26.459842,-48.6061471,1273,11536.02175
D1,Balneário Barra do Sul/SC,-26.459842,-48.6061471,29,262.80018
1,Balneário Camboriú/SC,-26.9924395,-48.6339782,22075,15141.01896
D1,Balneário Camboriú/SC,-26.9924395,-48.6339782,322,220.85654
1,Balneário Gaivota/SC,-29.1553098,-49.5808712,1097,9742.45115
D1,Balneário Gaivota/SC,-29.1553098,-49.5808712,28,248.66785
1,Balneário Pinhal/RS,-30.2482978,-50.234585,655,4560.32862
D1,Balneário Pinhal/RS,-30.2482978,-50.234585,37,257.60635
1,Balneário Piçarras/SC,-26.7638889,-48.6716667,3969,16696.11307
D1,Balneário Piçarras/SC,-26.7638889,-48.6716667,42,176.67845
1,Balneário Rincão/SC,-28.8235718,-49.2241642,1229,9493.27978
D1,Balneário Rincão/SC,-28.8235718,-49.2241642,34,262.62938
1,Balsa Nova/PR,-25.5842234,-49.6312741,1153,8806.90498
D1,Balsa Nova/PR,-25.5842234,-49.6312741,23,175.67980
1,Balsas/MA,-7.53214,-46.037163,8499,8859.67747
D1,Balsas/MA,-7.53214,-46.037163,135,140.72908
1,Bambuí/MG,-20.0131996,-45.9777034,1061,4439.70207
D1,Bambuí/MG,-20.0131996,-45.9777034,15,62.76676
1,Banabuiú/CE,-5.3046404,-38.919766,1157,6337.64242
D1,Banabuiú/CE,-5.3046404,-38.919766,9,49.29886
1,Bananal/SP,-22.6828195,-44.3221095,742,6749.74984
D1,Bananal/SP,-22.6828195,-44.3221095,2,18.19340
1,Bananeiras/PB,-6.7537682,-35.6338343,920,4325.54422
D1,Bananeiras/PB,-6.7537682,-35.6338343,17,79.92853
1,Bandeira do Sul/MG,-21.728056,-46.385555,208,3599.86154
D1,Bandeira do Sul/MG,-21.728056,-46.385555,7,121.14919
1,Bandeira/MG,-15.884444,-40.559167,448,9399.91607
D1,Bandeira/MG,-15.884444,-40.559167,9,188.83760
1,Bandeirante/SC,-26.7677402,-53.6397596,226,8534.74320
D1,Bandeirante/SC,-26.7677402,-53.6397596,2,75.52870
1,Bandeirantes do Tocantins/TO,-7.7635698,-48.579148,280,7795.10022
D1,Bandeirantes do Tocantins/TO,-7.7635698,-48.579148,4,111.35857
1,Bandeirantes/MS,-19.9179623,-54.3646768,439,6041.83870
D1,Bandeirantes/MS,-19.9179623,-54.3646768,8,110.10184
1,Bandeirantes/PR,-23.107788,-50.370407,2764,8855.85210
D1,Bandeirantes/PR,-23.107788,-50.370407,81,259.52389
1,Bannach/PA,-7.3508505,-50.4064531,530,16247.70080
D1,Bannach/PA,-7.3508505,-50.4064531,2,61.31208
1,Banzaê/BA,-10.5827616,-38.6122305,815,6155.58912
D1,Banzaê/BA,-10.5827616,-38.6122305,7,52.87009
1,Baraúna/PB,-6.643394,-36.2531932,239,4814.66559
D1,Baraúna/PB,-6.643394,-36.2531932,3,60.43513
1,Baraúna/RN,-5.0775002,-37.61752,803,2793.33496
D1,Baraúna/RN,-5.0775002,-37.61752,21,73.05110
1,Barbacena/MG,-21.2254524,-43.7735087,5631,4074.41174
D1,Barbacena/MG,-21.2254524,-43.7735087,177,128.07155
1,Barbalha/CE,-7.3121067,-39.3036427,4050,6614.62076
D1,Barbalha/CE,-7.3121067,-39.3036427,78,127.39270
1,Barbosa Ferraz/PR,-24.0287182,-52.00811,711,6222.65010
D1,Barbosa Ferraz/PR,-24.0287182,-52.00811,15,131.27954
1,Barbosa/SP,-21.265661,-49.951816,351,4700.05356
D1,Barbosa/SP,-21.265661,-49.951816,10,133.90466
1,Barcarena/PA,-1.5107945,-48.6190679,9634,7584.21438
D1,Barcarena/PA,-1.5107945,-48.6190679,193,151.93620
1,Barcelona/RN,-5.9514918,-35.9260284,57,1427.14071
D1,Barcelona/RN,-5.9514918,-35.9260284,3,75.11267
1,Barcelos/AM,-0.9729214,-62.925635,4085,14780.37485
D1,Barcelos/AM,-0.9729214,-62.925635,56,202.61958
1,Bariri/SP,-22.0746355,-48.7394852,2252,6333.31458
D1,Bariri/SP,-22.0746355,-48.7394852,89,250.29529
1,Barra Bonita/SC,-26.6526364,-53.4419581,134,8116.29316
D1,Barra Bonita/SC,-26.6526364,-53.4419581,1,60.56935
1,Barra Bonita/SP,-22.490859,-48.558349,2593,7177.65598
D1,Barra Bonita/SP,-22.490859,-48.558349,68,188.23008
1,Barra D'Alcântara/PI,-6.5209258,-42.1071089,105,2656.88259
D1,Barra D'Alcântara/PI,-6.5209258,-42.1071089,3,75.91093
1,Barra Funda/RS,-27.9230048,-53.0401045,381,14935.31948
D1,Barra Funda/RS,-27.9230048,-53.0401045,7,274.40220
1,Barra Longa/MG,-20.2833541,-43.0423516,238,4745.76271
D1,Barra Longa/MG,-20.2833541,-43.0423516,7,139.58126
1,Barra Mansa/RJ,-22.5394843,-44.1735129,13102,7088.56103
D1,Barra Mansa/RJ,-22.5394843,-44.1735129,452,244.54508
1,Barra Velha/SC,-26.6338203,-48.6835001,3546,11875.41862
D1,Barra Velha/SC,-26.6338203,-48.6835001,79,264.56798
1,Barra da Estiva/BA,-13.6269662,-41.3278287,1418,6953.70734
D1,Barra da Estiva/BA,-13.6269662,-41.3278287,12,58.84661
1,Barra de Guabiraba/PE,-8.4173522,-35.6626669,339,2336.31978
D1,Barra de Guabiraba/PE,-8.4173522,-35.6626669,14,96.48518
1,Barra de Santa Rosa/PB,-6.7218007,-36.0564638,734,4736.40059
D1,Barra de Santa Rosa/PB,-6.7218007,-36.0564638,4,25.81145
1,Barra de Santana/PB,-7.5230865,-35.9988518,314,3760.92945
D1,Barra de Santana/PB,-7.5230865,-35.9988518,4,47.90993
1,Barra de Santo Antônio/AL,-9.4038098,-35.5117693,278,1730.14688
D1,Barra de Santo Antônio/AL,-9.4038098,-35.5117693,19,118.24745
1,Barra de São Francisco/ES,-18.7570902,-40.8916119,4311,9584.47275
D1,Barra de São Francisco/ES,-18.7570902,-40.8916119,177,393.51697
1,Barra de São Miguel/AL,-9.8261357,-35.8837777,384,4583.43280
D1,Barra de São Miguel/AL,-9.8261357,-35.8837777,6,71.61614
1,Barra de São Miguel/PB,-7.7528088,-36.3170996,349,5754.32811
D1,Barra de São Miguel/PB,-7.7528088,-36.3170996,5,82.44023
1,Barra do Bugres/MT,-15.0683712,-57.1853688,2240,6344.35098
D1,Barra do Bugres/MT,-15.0683712,-57.1853688,54,152.94418
1,Barra do Chapéu/SP,-24.472203,-49.023784,220,3819.44444
D1,Barra do Chapéu/SP,-24.472203,-49.023784,1,17.36111
1,Barra do Choça/BA,-14.8638173,-40.5761637,1759,5636.19469
D1,Barra do Choça/BA,-14.8638173,-40.5761637,27,86.51351
1,Barra do Corda/MA,-5.496823,-45.248496,5058,5715.77092
D1,Barra do Corda/MA,-5.496823,-45.248496,50,56.50228
1,Barra do Garças/MT,-15.8916033,-52.2615413,6281,10273.98381
D1,Barra do Garças/MT,-15.8916033,-52.2615413,225,368.03795
1,Barra do Guarita/RS,-27.1888016,-53.7147086,107,3285.23181
D1,Barra do Guarita/RS,-27.1888016,-53.7147086,4,122.81240
1,Barra do Jacaré/PR,-23.1151788,-50.1813945,157,5645.45128
D1,Barra do Jacaré/PR,-23.1151788,-50.1813945,1,35.95829
1,Barra do Mendes/BA,-11.8053298,-42.057037,644,4655.53387
D1,Barra do Mendes/BA,-11.8053298,-42.057037,10,72.29090
1,Barra do Ouro/TO,-7.7113784,-47.6743925,114,2461.13990
D1,Barra do Ouro/TO,-7.7113784,-47.6743925,5,107.94473
1,Barra do Piraí/RJ,-22.4703403,-43.8263256,4877,4840.02223
D1,Barra do Piraí/RJ,-22.4703403,-43.8263256,260,258.02866
1,Barra do Quaraí/RS,-30.208947,-57.5505128,305,7215.51928
D1,Barra do Quaraí/RS,-30.208947,-57.5505128,2,47.31488
1,Barra do Ribeiro/RS,-30.2930206,-51.301437,954,7037.47418
D1,Barra do Ribeiro/RS,-30.2930206,-51.301437,46,339.33314
1,Barra do Rio Azul/RS,-27.4101581,-52.4117471,65,3927.49245
D1,Barra do Rio Azul/RS,-27.4101581,-52.4117471,1,60.42296
1,Barra do Rocha/BA,-14.2090974,-39.6004395,362,6450.46329
D1,Barra do Rocha/BA,-14.2090974,-39.6004395,4,71.27584
1,Barra do Turvo/SP,-24.756421,-48.5056942,458,6001.04822
D1,Barra do Turvo/SP,-24.756421,-48.5056942,11,144.12998
1,Barra dos Coqueiros/SE,-10.9075694,-37.0386249,5522,17853.21694
D1,Barra dos Coqueiros/SE,-10.9075694,-37.0386249,71,229.55060
1,Barra/BA,-11.0892702,-43.1420453,1619,3003.15340
D1,Barra/BA,-11.0892702,-43.1420453,31,57.50325
1,Barracão/PR,-26.252395,-53.6349576,979,9493.79364
D1,Barracão/PR,-26.252395,-53.6349576,25,242.43600
1,Barracão/RS,-27.6728964,-51.4582928,289,5498.47793
D1,Barracão/RS,-27.6728964,-51.4582928,11,209.28463
1,Barras/PI,-4.2446153,-42.2920241,4095,8678.60549
D1,Barras/PI,-4.2446153,-42.2920241,81,171.66472
1,Barreira/CE,-4.2883361,-38.641094,1092,4837.63789
D1,Barreira/CE,-4.2883361,-38.641094,31,137.33221
1,Barreiras do Piauí/PI,-9.9224524,-45.4763776,59,1760.14320
D1,Barreiras do Piauí/PI,-9.9224524,-45.4763776,1,29.83294
1,Barreiras/BA,-12.1440031,-44.9967406,12875,8201.94298
D1,Barreiras/BA,-12.1440031,-44.9967406,184,117.21612
1,Barreirinha/AM,-2.798863,-57.067897,2290,7049.84146
D1,Barreirinha/AM,-2.798863,-57.067897,61,187.79054
1,Barreirinhas/MA,-2.7541271,-42.8259693,1768,2796.71607
D1,Barreirinhas/MA,-2.7541271,-42.8259693,33,52.20115
1,Barreiros/PE,-8.8159644,-35.1831905,680,1590.12253
D1,Barreiros/PE,-8.8159644,-35.1831905,48,112.24394
1,Barretos/SP,-20.5531437,-48.5697509,10630,8654.02620
D1,Barretos/SP,-20.5531437,-48.5697509,324,263.77276
1,Barrinha/SP,-21.1898849,-48.1550642,1227,3698.01085
D1,Barrinha/SP,-21.1898849,-48.1550642,51,153.70705
1,Barro Alto/BA,-11.7618025,-41.9094904,721,4789.42474
D1,Barro Alto/BA,-11.7618025,-41.9094904,8,53.14202
1,Barro Alto/GO,-14.9696025,-48.9190985,1206,10571.52875
D1,Barro Alto/GO,-14.9696025,-48.9190985,13,113.95512
1,Barro Duro/PI,-5.8180139,-42.5106589,629,8951.18827
D1,Barro Duro/PI,-5.8180139,-42.5106589,9,128.07742
1,Barro Preto/BA,-14.8068289,-39.4727588,549,10077.09251
D1,Barro Preto/BA,-14.8068289,-39.4727588,10,183.55360
1,Barro/CE,-7.1713587,-38.7742136,807,3546.00580
D1,Barro/CE,-7.1713587,-38.7742136,18,79.09307
1,Barrocas/BA,-11.5165,-39.099282894736845,675,4191.24495
D1,Barrocas/BA,-11.5165,-39.099282894736845,17,105.55728
1,Barrolândia/TO,-9.837246,-48.7264346,672,11891.70058
D1,Barrolândia/TO,-9.837246,-48.7264346,18,318.52769
1,Barroquinha/CE,-3.0200371,-41.1339229,937,6228.39670
D1,Barroquinha/CE,-3.0200371,-41.1339229,23,152.88487
1,Barros Cassal/RS,-29.094938,-52.5832366,507,4534.07262
D1,Barros Cassal/RS,-29.094938,-52.5832366,6,53.65766
1,Barroso/MG,-21.187222,-43.976111,1044,4995.93243
D1,Barroso/MG,-21.187222,-43.976111,19,90.92214
1,Barueri/SP,-23.5112184,-46.8764612,22911,8271.65664
D1,Barueri/SP,-23.5112184,-46.8764612,873,315.18294
1,Barão de Antonina/SP,-23.6295651,-49.5632104,194,5546.02630
D1,Barão de Antonina/SP,-23.6295651,-49.5632104,3,85.76329
1,Barão de Cocais/MG,-19.9452437,-43.4870298,3107,9453.53861
D1,Barão de Cocais/MG,-19.9452437,-43.4870298,52,158.21822
1,Barão de Cotegipe/RS,-27.6214694,-52.3765316,545,8232.62840
D1,Barão de Cotegipe/RS,-27.6214694,-52.3765316,6,90.63444
1,Barão de Grajaú/MA,-6.7542591,-43.0263477,309,1632.84718
D1,Barão de Grajaú/MA,-6.7542591,-43.0263477,2,10.56859
1,Barão de Melgaço/MT,-16.195776,-55.9668049,293,3588.92700
D1,Barão de Melgaço/MT,-16.195776,-55.9668049,12,146.98677
1,Barão de Monte Alto/MG,-21.244722,-42.2375,190,3548.74860
D1,Barão de Monte Alto/MG,-21.244722,-42.2375,7,130.74337
1,Barão do Triunfo/RS,-30.3909877,-51.7375349,367,4880.96821
D1,Barão do Triunfo/RS,-30.3909877,-51.7375349,6,79.79785
1,Barão/RS,-29.372474,-51.494908,492,7932.92486
D1,Barão/RS,-29.372474,-51.494908,8,128.99065
1,Bastos/SP,-21.9222474,-50.7317727,676,3226.26831
D1,Bastos/SP,-21.9222474,-50.7317727,24,114.54207
1,Bataguassu/MS,-21.715899,-52.422058,2109,9041.80064
D1,Bataguassu/MS,-21.715899,-52.422058,24,102.89389
1,Batalha/AL,-9.6733809,-37.1265481,910,4962.37321
D1,Batalha/AL,-9.6733809,-37.1265481,15,81.79736
1,Batalha/PI,-4.022391,-42.0780926,873,3244.75005
D1,Batalha/PI,-4.022391,-42.0780926,30,111.50344
1,Batatais/SP,-20.892867,-47.592149,2147,3409.01874
D1,Batatais/SP,-20.892867,-47.592149,89,141.31470
1,Batayporã/MS,-22.2976466,-53.2685608,643,5665.69742
D1,Batayporã/MS,-22.2976466,-53.2685608,11,96.92484
1,Baturité/CE,-4.3290203,-38.8821055,2595,7220.16638
D1,Baturité/CE,-4.3290203,-38.8821055,65,180.85195
1,Bauru/SP,-22.3218102,-49.0705863,35355,9321.19157
D1,Bauru/SP,-22.3218102,-49.0705863,774,204.06172
1,Bayeux/PB,-7.1301631,-34.936532,5938,6108.86495
D1,Bayeux/PB,-7.1301631,-34.936532,213,219.12904
1,Baía Formosa/RN,-6.3691885,-35.0063741,308,3304.01201
D1,Baía Formosa/RN,-6.3691885,-35.0063741,8,85.81849
1,Baía da Traição/PB,-6.691258,-34.9371244,1199,13181.61829
D1,Baía da Traição/PB,-6.691258,-34.9371244,11,120.93228
1,Bebedouro/SP,-20.949077,-48.479083,3281,4230.54606
D1,Bebedouro/SP,-20.949077,-48.479083,85,109.59964
1,Beberibe/CE,-4.1810469,-38.1298101,3574,6624.77525
D1,Beberibe/CE,-4.1810469,-38.1298101,92,170.53143
1,Bela Cruz/CE,-3.0529129,-40.167582,2809,8584.43860
D1,Bela Cruz/CE,-3.0529129,-40.167582,49,149.74635
1,Bela Vista da Caroba/PR,-25.8792818,-53.6672545,159,4599.36361
D1,Bela Vista da Caroba/PR,-25.8792818,-53.6672545,5,144.63408
1,Bela Vista de Goiás/GO,-16.9692949,-48.9513071,2086,6841.13866
D1,Bela Vista de Goiás/GO,-16.9692949,-48.9513071,52,170.53653
1,Bela Vista de Minas/MG,-19.8289721,-43.0973688,660,6431.49484
D1,Bela Vista de Minas/MG,-19.8289721,-43.0973688,12,116.93627
1,Bela Vista do Maranhão/MA,-3.7416367,-45.2514192,290,2571.14992
D1,Bela Vista do Maranhão/MA,-3.7416367,-45.2514192,3,26.59810
1,Bela Vista do Paraíso/PR,-22.9948493,-51.1907996,1600,10390.28508
D1,Bela Vista do Paraíso/PR,-22.9948493,-51.1907996,57,370.15391
1,Bela Vista do Piauí/PI,-7.9716353,-41.8715061,228,5657.56824
D1,Bela Vista do Piauí/PI,-7.9716353,-41.8715061,6,148.88337
1,Bela Vista do Toldo/SC,-26.274625,-50.466354,60,943.09965
D1,Bela Vista do Toldo/SC,-26.274625,-50.466354,2,31.43666
1,Bela Vista/MS,-22.107327,-56.5317344,709,2866.38367
D1,Bela Vista/MS,-22.107327,-56.5317344,20,80.85709
1,Belford Roxo/RJ,-22.7667284,-43.4033603,18933,3689.79455
D1,Belford Roxo/RJ,-22.7667284,-43.4033603,550,107.18782
1,Belmiro Braga/MG,-21.9486291,-43.413564,151,4408.75912
D1,Belmiro Braga/MG,-21.9486291,-43.413564,3,87.59124
1,Belmonte/BA,-15.8630837,-38.8792845,888,3788.88083
D1,Belmonte/BA,-15.8630837,-38.8792845,17,72.53488
1,Belmonte/SC,-26.8448262,-53.578916,205,7567.36803
D1,Belmonte/SC,-26.8448262,-53.578916,4,147.65596
1,Belo Campo/BA,-15.0338286,-41.2585109,665,3886.84318
D1,Belo Campo/BA,-15.0338286,-41.2585109,9,52.60389
1,Belo Horizonte/MG,-19.9227318,-43.9450948,179539,7120.14448
D1,Belo Horizonte/MG,-19.9227318,-43.9450948,4338,172.03609
1,Belo Jardim/PE,-8.3338293,-36.4176419,2586,3372.14913
D1,Belo Jardim/PE,-8.3338293,-36.4176419,79,103.01616
1,Belo Monte/AL,-9.8269944,-37.2787165,244,3636.36364
D1,Belo Monte/AL,-9.8269944,-37.2787165,6,89.41878
1,Belo Oriente/MG,-19.2232523,-42.4807033,2329,8627.84322
D1,Belo Oriente/MG,-19.2232523,-42.4807033,55,203.74898
1,Belo Vale/MG,-20.407778,-44.024167,556,7203.00557
D1,Belo Vale/MG,-20.407778,-44.024167,10,129.55046
1,Belterra/PA,-2.636091,-54.937392,1216,6816.52559
D1,Belterra/PA,-2.636091,-54.937392,24,134.53669
1,Belágua/MA,-3.1604031,-43.5085052,197,2616.89692
D1,Belágua/MA,-3.1604031,-43.5085052,14,185.97237
1,Belém de Maria/PE,-8.6242497,-35.8388934,179,1476.65402
D1,Belém de Maria/PE,-8.6242497,-35.8388934,6,49.49678
1,Belém do Brejo do Cruz/PB,-6.1880727,-37.5332267,487,6626.75194
D1,Belém do Brejo do Cruz/PB,-6.1880727,-37.5332267,5,68.03647
1,Belém do Piauí/PI,-7.3767305,-40.9712156,417,11625.31363
D1,Belém do Piauí/PI,-7.3767305,-40.9712156,7,195.14915
1,Belém do São Francisco/PE,-8.7517707,-38.9625715,564,2720.69465
D1,Belém do São Francisco/PE,-8.7517707,-38.9625715,8,38.59141
1,Belém/AL,-9.5715351,-36.492841,100,2334.26704
D1,Belém/AL,-9.5715351,-36.492841,3,70.02801
1,Belém/PA,-1.45056,-48.4682453,96130,6410.20084
D1,Belém/PA,-1.45056,-48.4682453,4520,301.40547
1,Belém/PB,-6.6967586,-35.5369626,1851,10454.67382
D1,Belém/PB,-6.6967586,-35.5369626,31,175.09178
1,Beneditinos/PI,-5.4565671,-42.3605061,896,8555.33276
D1,Beneditinos/PI,-5.4565671,-42.3605061,30,286.45087
1,Benedito Leite/MA,-7.2173453,-44.5523331,295,5232.35190
D1,Benedito Leite/MA,-7.2173453,-44.5523331,2,35.47357
1,Benedito Novo/SC,-26.7840657,-49.3629511,913,7753.71550
D1,Benedito Novo/SC,-26.7840657,-49.3629511,16,135.88110
1,Benevides/PA,-1.3555577,-48.252235,3574,5604.69201
D1,Benevides/PA,-1.3555577,-48.252235,86,134.86388
1,Benjamin Constant do Sul/RS,-27.5105555,-52.6007689,152,7763.02349
1,Benjamin Constant/AM,-4.3782748,-70.0290603,2667,6070.33117
D1,Benjamin Constant/AM,-4.3782748,-70.0290603,83,188.91544
1,Bento Fernandes/RN,-5.6926846,-35.8207423,101,1828.05430
D1,Bento Fernandes/RN,-5.6926846,-35.8207423,3,54.29864
1,Bento Gonçalves/RS,-29.1654014,-51.5197627,14323,11759.15207
D1,Bento Gonçalves/RS,-29.1654014,-51.5197627,257,210.99645
1,Bento de Abreu/SP,-21.2707225,-50.8120444,243,8086.52246
1,Bequimão/MA,-2.4495376,-44.7884889,275,1291.14043
D1,Bequimão/MA,-2.4495376,-44.7884889,17,79.81595
1,Berilo/MG,-16.9515764,-42.4643732,126,1061.32075
D1,Berilo/MG,-16.9515764,-42.4643732,1,8.42318
1,Berizal/MG,-15.6118785,-41.7417382,103,2162.04870
D1,Berizal/MG,-15.6118785,-41.7417382,1,20.99076
1,Bernardino Batista/PB,-6.4532173,-38.5495418,232,6561.08597
1,Bernardino de Campos/SP,-23.0140216,-49.4760724,392,3513.17440
D1,Bernardino de Campos/SP,-23.0140216,-49.4760724,7,62.73526
1,Bernardo Sayão/TO,-7.8794244,-48.8968905,398,8947.84173
D1,Bernardo Sayão/TO,-7.8794244,-48.8968905,6,134.89209
1,Bernardo do Mearim/MA,-4.6315929,-44.7617508,268,4412.97547
D1,Bernardo do Mearim/MA,-4.6315929,-44.7617508,6,98.79796
1,Bertioga/SP,-23.848568,-46.139586,4594,7097.94045
D1,Bertioga/SP,-23.848568,-46.139586,117,180.77036
1,Bertolínia/PI,-7.6372159,-43.9540611,764,13873.25222
D1,Bertolínia/PI,-7.6372159,-43.9540611,10,181.58707
1,Bertópolis/MG,-17.063333,-40.573889,266,5773.82244
1,Beruri/AM,-3.9007135,-61.3717319,2084,10371.77126
D1,Beruri/AM,-3.9007135,-61.3717319,31,154.28259
1,Betim/MG,-19.968056,-44.198333,24816,5579.33739
D1,Betim/MG,-19.968056,-44.198333,864,194.25159
1,Betânia do Piauí/PI,-8.1460635,-40.7961387,155,2495.97424
D1,Betânia do Piauí/PI,-8.1460635,-40.7961387,2,32.20612
1,Betânia/PE,-8.2742779,-38.0351767,374,2929.88641
D1,Betânia/PE,-8.2742779,-38.0351767,10,78.33921
1,Bezerros/PE,-8.2372132,-35.7558262,3182,5226.67543
D1,Bezerros/PE,-8.2372132,-35.7558262,95,156.04468
1,Bias Fortes/MG,-21.605833,-43.756944,99,2973.86603
D1,Bias Fortes/MG,-21.605833,-43.756944,2,60.07810
1,Bicas/MG,-21.7213723,-43.0604327,983,6754.15693
D1,Bicas/MG,-21.7213723,-43.0604327,30,206.12890
1,Biguaçu/SC,-27.4961277,-48.6542432,10107,14545.37605
D1,Biguaçu/SC,-27.4961277,-48.6542432,148,212.99255
1,Bilac/SP,-21.403962,-50.47464,720,8870.27227
D1,Bilac/SP,-21.403962,-50.47464,12,147.83787
1,Biquinhas/MG,-18.783611,-45.502222,100,4003.20256
D1,Biquinhas/MG,-18.783611,-45.502222,1,40.03203
1,Birigui/SP,-21.2908491,-50.34144,11083,8874.70673
D1,Birigui/SP,-21.2908491,-50.34144,378,302.68331
1,Biritiba Mirim/SP,-23.5697765,-46.0407456,1009,3063.51712
D1,Biritiba Mirim/SP,-23.5697765,-46.0407456,64,194.31625
1,Biritinga/BA,-11.6227908,-38.8066738,294,1839.33934
D1,Biritinga/BA,-11.6227908,-38.8066738,6,37.53754
1,Bituruna/PR,-26.161281,-51.5533319,565,3445.12195
D1,Bituruna/PR,-26.161281,-51.5533319,10,60.97561
1,Blumenau/SC,-26.9195567,-49.0658025,44319,12247.72354
D1,Blumenau/SC,-26.9195567,-49.0658025,500,138.17689
1,Boa Esperança do Iguaçu/PR,-25.6362851,-53.2139114,134,5425.10121
1,Boa Esperança do Sul/SP,-21.9930206,-48.3917372,684,4554.53456
D1,Boa Esperança do Sul/SP,-21.9930206,-48.3917372,11,73.24544
1,Boa Esperança/ES,-18.5395472,-40.2904088,1137,7533.79274
D1,Boa Esperança/ES,-18.5395472,-40.2904088,34,225.28492
1,Boa Esperança/MG,-21.0901253,-45.5660195,2807,6979.28840
D1,Boa Esperança/MG,-21.0901253,-45.5660195,73,181.50625
1,Boa Esperança/PR,-24.2411024,-52.7860277,244,6029.15740
D1,Boa Esperança/PR,-24.2411024,-52.7860277,7,172.96763
1,Boa Hora/PI,-4.4094627,-42.1255341,474,6955.24578
D1,Boa Hora/PI,-4.4094627,-42.1255341,5,73.36757
1,Boa Nova/BA,-14.365907,-40.2063056,722,5856.11161
D1,Boa Nova/BA,-14.365907,-40.2063056,11,89.22054
1,Boa Ventura de São Roque/PR,-24.88177,-51.5441292,350,5498.82168
D1,Boa Ventura de São Roque/PR,-24.88177,-51.5441292,5,78.55460
1,Boa Ventura/PB,-7.4202462,-38.2156782,274,5162.99227
D1,Boa Ventura/PB,-7.4202462,-38.2156782,4,75.37215
1,Boa Viagem/CE,-5.1261877,-39.7300055,2873,5264.12225
D1,Boa Viagem/CE,-5.1261877,-39.7300055,78,142.91735
1,Boa Vista da Aparecida/PR,-25.4357216,-53.4067721,677,8978.77984
D1,Boa Vista da Aparecida/PR,-25.4357216,-53.4067721,19,251.98939
1,Boa Vista das Missões/RS,-27.6677983,-53.3127622,111,5305.92734
D1,Boa Vista das Missões/RS,-27.6677983,-53.3127622,4,191.20459
1,Boa Vista do Buricá/RS,-27.6687782,-54.1111913,576,8581.64482
D1,Boa Vista do Buricá/RS,-27.6687782,-54.1111913,8,119.18951
1,Boa Vista do Cadeado/RS,-28.5783827,-53.8123759,145,5875.20259
D1,Boa Vista do Cadeado/RS,-28.5783827,-53.8123759,2,81.03728
1,Boa Vista do Gurupi/MA,-1.7981168,-46.3071882,15,178.95490
D1,Boa Vista do Gurupi/MA,-1.7981168,-46.3071882,4,47.72131
1,Boa Vista do Incra/RS,-28.8195551,-53.3866624,157,6001.52905
D1,Boa Vista do Incra/RS,-28.8195551,-53.3866624,2,76.45260
1,Boa Vista do Ramos/AM,-2.9716927,-57.5869819,860,4381.94232
D1,Boa Vista do Ramos/AM,-2.9716927,-57.5869819,11,56.04810
1,Boa Vista do Sul/RS,-29.3510488,-51.6779679,251,9035.27718
D1,Boa Vista do Sul/RS,-29.3510488,-51.6779679,3,107.99136
1,Boa Vista do Tupim/BA,-12.6605988,-40.6083594,177,955.15622
D1,Boa Vista do Tupim/BA,-12.6605988,-40.6083594,4,21.58545
1,Boa Vista/PB,-7.2620711,-36.2415161,544,7623.31839
D1,Boa Vista/PB,-7.2620711,-36.2415161,9,126.12108
1,Boa Vista/RR,2.8208478,-60.6719582,73740,17571.70227
D1,Boa Vista/RR,2.8208478,-60.6719582,1168,278.32585
1,Boca da Mata/AL,-9.6452054,-36.2116658,1597,5837.84179
D1,Boca da Mata/AL,-9.6452054,-36.2116658,39,142.56470
1,Boca do Acre/AM,-8.7553487,-67.3930873,2477,7151.72513
D1,Boca do Acre/AM,-8.7553487,-67.3930873,22,63.51956
1,Bocaina de Minas/MG,-22.167778,-44.394722,137,2692.08096
D1,Bocaina de Minas/MG,-22.167778,-44.394722,5,98.25113
1,Bocaina do Sul/SC,-27.745494,-49.942279,357,10235.09174
D1,Bocaina do Sul/SC,-27.745494,-49.942279,3,86.00917
1,Bocaina/PI,-6.9445939,-41.3224599,234,5194.22863
D1,Bocaina/PI,-6.9445939,-41.3224599,3,66.59267
1,Bocaina/SP,-22.1421831,-48.522276,1088,8737.55220
D1,Bocaina/SP,-22.1421831,-48.522276,25,200.77096
1,Bocaiúva do Sul/PR,-25.206591,-49.114131,1245,9482.82428
D1,Bocaiúva do Sul/PR,-25.206591,-49.114131,12,91.40072
1,Bocaiúva/MG,-17.1160208,-43.8122678,1768,3517.98790
D1,Bocaiúva/MG,-17.1160208,-43.8122678,42,83.57211
1,Bodocó/PE,-7.777592,-39.933797,1564,4075.25145
D1,Bodocó/PE,-7.777592,-39.933797,23,59.93017
1,Bodoquena/MS,-20.5508775,-56.6769653,265,3380.96453
D1,Bodoquena/MS,-20.5508775,-56.6769653,11,140.34192
1,Bodó/RN,-5.9866104,-36.4134824,98,4460.62813
1,Bofete/SP,-23.1019554,-48.2610535,561,4705.98104
D1,Bofete/SP,-23.1019554,-48.2610535,13,109.05125
1,Boituva/SP,-23.2838893,-47.6738231,4219,6786.23130
D1,Boituva/SP,-23.2838893,-47.6738231,102,164.06627
1,Bom Conselho/PE,-9.169191,-36.685683,1296,2657.53481
D1,Bom Conselho/PE,-9.169191,-36.685683,44,90.22495
1,Bom Despacho/MG,-19.7375242,-45.2517288,2788,5463.66701
D1,Bom Despacho/MG,-19.7375242,-45.2517288,59,115.62280
1,Bom Jardim da Serra/SC,-28.3380324,-49.625588,540,11316.01006
D1,Bom Jardim da Serra/SC,-28.3380324,-49.625588,4,83.82230
1,Bom Jardim de Goiás/GO,-16.2062659,-52.172793,594,6697.48562
D1,Bom Jardim de Goiás/GO,-16.2062659,-52.172793,12,135.30274
1,Bom Jardim de Minas/MG,-21.9476466,-44.1906033,348,5387.83093
D1,Bom Jardim de Minas/MG,-21.9476466,-44.1906033,1,15.48227
1,Bom Jardim/MA,-3.54129,-45.606004,1175,2809.52609
D1,Bom Jardim/MA,-3.54129,-45.606004,40,95.64344
1,Bom Jardim/PE,-7.7961572,-35.5871696,1064,2661.13098
D1,Bom Jardim/PE,-7.7961572,-35.5871696,46,115.04890
1,Bom Jardim/RJ,-22.1515328,-42.4186683,1198,4338.06489
D1,Bom Jardim/RJ,-22.1515328,-42.4186683,27,97.76941
1,Bom Jesus da Lapa/BA,-13.250571,-43.410754,3403,4885.01622
D1,Bom Jesus da Lapa/BA,-13.250571,-43.410754,52,74.64615
1,Bom Jesus da Penha/MG,-21.0165299,-46.5226644,285,6715.36287
D1,Bom Jesus da Penha/MG,-21.0165299,-46.5226644,8,188.50141
1,Bom Jesus da Serra/BA,-14.3724084,-40.5047119,410,4173.87763
D1,Bom Jesus da Serra/BA,-14.3724084,-40.5047119,8,81.44151
1,Bom Jesus das Selvas/MA,-4.4878075,-46.8526639,2649,7663.37837
D1,Bom Jesus das Selvas/MA,-4.4878075,-46.8526639,22,63.64452
1,Bom Jesus de Goiás/GO,-18.2174587,-49.739721,2414,9412.03993
D1,Bom Jesus de Goiás/GO,-18.2174587,-49.739721,92,358.70243
1,Bom Jesus do Amparo/MG,-19.7045132,-43.4752911,177,2886.02641
D1,Bom Jesus do Amparo/MG,-19.7045132,-43.4752911,5,81.52617
1,Bom Jesus do Araguaia/MT,-12.1725897,-51.5074425,833,12421.71190
D1,Bom Jesus do Araguaia/MT,-12.1725897,-51.5074425,14,208.76827
1,Bom Jesus do Galho/MG,-19.8283191,-42.3162256,532,3579.59898
D1,Bom Jesus do Galho/MG,-19.8283191,-42.3162256,24,161.48567
1,Bom Jesus do Itabapoana/RJ,-21.1341025,-41.680095,2638,7090.82601
D1,Bom Jesus do Itabapoana/RJ,-21.1341025,-41.680095,72,193.53278
1,Bom Jesus do Norte/ES,-21.1254776,-41.6711646,856,8592.65208
D1,Bom Jesus do Norte/ES,-21.1254776,-41.6711646,21,210.80104
1,Bom Jesus do Oeste/SC,-26.6929713,-53.0967453,140,6545.11454
D1,Bom Jesus do Oeste/SC,-26.6929713,-53.0967453,5,233.75409
1,Bom Jesus do Sul/PR,-26.1922507,-53.6002033,233,6645.75014
D1,Bom Jesus do Sul/PR,-26.1922507,-53.6002033,3,85.56760
1,Bom Jesus do Tocantins/PA,-5.0471796,-48.5978362,691,4036.68653
D1,Bom Jesus do Tocantins/PA,-5.0471796,-48.5978362,22,128.51969
1,Bom Jesus do Tocantins/TO,-8.96306,-48.165043,123,2456.07029
D1,Bom Jesus do Tocantins/TO,-8.96306,-48.165043,2,39.93610
1,Bom Jesus dos Perdões/SP,-23.1353864,-46.4648052,1692,6511.44891
D1,Bom Jesus dos Perdões/SP,-23.1353864,-46.4648052,21,80.81586
1,Bom Jesus/PB,-6.8156725,-38.6551841,118,4582.52427
D1,Bom Jesus/PB,-6.8156725,-38.6551841,3,116.50485
1,Bom Jesus/PI,-9.0711644,-44.3583926,2734,10769.29137
D1,Bom Jesus/PI,-9.0711644,-44.3583926,29,114.23169
1,Bom Jesus/RN,-5.9887544,-35.5821149,609,5931.62560
D1,Bom Jesus/RN,-5.9887544,-35.5821149,12,116.87932
1,Bom Jesus/RS,-28.6692723,-50.4346894,613,5420.46158
D1,Bom Jesus/RS,-28.6692723,-50.4346894,14,123.79521
1,Bom Jesus/SC,-26.7350604,-52.3916519,318,10402.35525
D1,Bom Jesus/SC,-26.7350604,-52.3916519,6,196.27085
1,Bom Lugar/MA,-4.3728019,-45.0366054,432,2628.05694
D1,Bom Lugar/MA,-4.3728019,-45.0366054,7,42.58426
1,Bom Princípio do Piauí/PI,-3.1912777,-41.6430185,111,1964.25411
D1,Bom Princípio do Piauí/PI,-3.1912777,-41.6430185,10,176.95983
1,Bom Princípio/RS,-29.489788,-51.3566782,1368,9596.63276
D1,Bom Princípio/RS,-29.489788,-51.3566782,25,175.37706
1,Bom Progresso/RS,-27.5490948,-53.8655601,115,6055.81885
D1,Bom Progresso/RS,-27.5490948,-53.8655601,3,157.97788
1,Bom Repouso/MG,-22.4657069,-46.1485376,622,5903.00845
D1,Bom Repouso/MG,-22.4657069,-46.1485376,13,123.37477
1,Bom Retiro do Sul/RS,-29.6000007,-51.9359243,904,7296.20662
D1,Bom Retiro do Sul/RS,-29.6000007,-51.9359243,23,185.63358
1,Bom Retiro/SC,-27.798993,-49.486994,597,5934.39364
D1,Bom Retiro/SC,-27.798993,-49.486994,14,139.16501
1,Bom Sucesso de Itararé/SP,-24.3190016,-49.1446207,119,2986.94779
D1,Bom Sucesso de Itararé/SP,-24.3190016,-49.1446207,5,125.50201
1,Bom Sucesso do Sul/PR,-26.0749256,-52.8348629,306,9403.81069
D1,Bom Sucesso do Sul/PR,-26.0749256,-52.8348629,6,184.38844
1,Bom Sucesso/MG,-21.0323516,-44.7598082,513,2913.61390
D1,Bom Sucesso/MG,-21.0323516,-44.7598082,5,28.39780
1,Bom Sucesso/PB,-6.4458948,-37.9297662,197,3974.97982
D1,Bom Sucesso/PB,-6.4458948,-37.9297662,2,40.35513
1,Bom Sucesso/PR,-23.7088019,-51.7651297,620,8771.92982
D1,Bom Sucesso/PR,-23.7088019,-51.7651297,12,169.77929
1,Bombinhas/SC,-27.1519159,-48.4875691,3244,15952.79075
D1,Bombinhas/SC,-27.1519159,-48.4875691,50,245.88149
1,Bonfim do Piauí/PI,-9.1648678,-42.8734415,279,4907.65172
D1,Bonfim do Piauí/PI,-9.1648678,-42.8734415,5,87.95075
1,Bonfim/MG,-20.3266626, -44.2386157,340,4956.26822
D1,Bonfim/MG,-20.3266626, -44.2386157,13,189.50437
1,Bonfim/RR,3.3613818,-59.8427241,2121,16890.97714
D1,Bonfim/RR,3.3613818,-59.8427241,24,191.12845
1,Bonfinópolis de Minas/MG,-16.5660011,-45.98645,371,6814.84203
D1,Bonfinópolis de Minas/MG,-16.5660011,-45.98645,10,183.68846
1,Bonfinópolis/GO,-16.6172709,-48.9615701,434,4375.44107
D1,Bonfinópolis/GO,-16.6172709,-48.9615701,16,161.30658
1,Boninal/BA,-12.7095183,-41.8299984,568,3931.88426
D1,Boninal/BA,-12.7095183,-41.8299984,7,48.45632
1,Bonito de Minas/MG,-15.3191266,-44.7544,43,378.22148
1,Bonito de Santa Fé/PB,-7.3143332,-38.5146677,402,3343.86957
D1,Bonito de Santa Fé/PB,-7.3143332,-38.5146677,11,91.49892
1,Bonito/BA,-11.9665473,-41.2649896,638,3778.72542
D1,Bonito/BA,-11.9665473,-41.2649896,9,53.30490
1,Bonito/MS,-21.1264766,-56.4902208,2161,9738.62100
D1,Bonito/MS,-21.1264766,-56.4902208,45,202.79405
1,Bonito/PA,-1.3605722,-47.3049907,350,2117.36237
D1,Bonito/PA,-1.3605722,-47.3049907,12,72.59528
1,Bonito/PE,-8.4721161,-35.7314591,599,1571.47729
D1,Bonito/PE,-8.4721161,-35.7314591,34,89.19905
1,Bonópolis/GO,-13.649331,-49.8329113,135,3004.67394
D1,Bonópolis/GO,-13.649331,-49.8329113,1,22.25684
1,Boqueirão do Leão/RS,-29.30332,-52.4296817,548,7115.03506
D1,Boqueirão do Leão/RS,-29.30332,-52.4296817,28,363.54194
1,Boqueirão do Piauí/PI,-4.4850148,-42.1095161,478,7438.53097
D1,Boqueirão do Piauí/PI,-4.4850148,-42.1095161,7,108.93246
1,Boqueirão/PB,-7.487004,-36.130887,1291,7224.39843
D1,Boqueirão/PB,-7.487004,-36.130887,22,123.11136
1,Boquim/SE,-11.1450175,-37.6204228,1808,6721.43946
D1,Boquim/SE,-11.1450175,-37.6204228,41,152.42202
1,Boquira/BA,-12.8184859,-42.7270883,455,2116.57441
D1,Boquira/BA,-12.8184859,-42.7270883,10,46.51812
1,Boracéia/SP,-22.195355,-48.7801925,766,15735.41495
D1,Boracéia/SP,-22.195355,-48.7801925,19,390.30403
1,Borba/AM,-4.3934778,-59.5947721,1834,4393.02482
D1,Borba/AM,-4.3934778,-59.5947721,53,126.95219
1,Borborema/PB,-6.8066718,-35.5990191,317,5995.83885
D1,Borborema/PB,-6.8066718,-35.5990191,8,151.31455
1,Borborema/SP,-21.6212706,-49.074135,973,6019.54962
D1,Borborema/SP,-21.6212706,-49.074135,32,197.97080
1,Borda da Mata/MG,-22.274167,-46.165278,1075,5480.77904
D1,Borda da Mata/MG,-22.274167,-46.165278,34,173.34557
1,Borebi/SP,-22.5700178,-48.9714871,128,4770.77898
D1,Borebi/SP,-22.5700178,-48.9714871,2,74.54342
1,Borrazópolis/PR,-23.9393362,-51.5850786,499,7749.65057
D1,Borrazópolis/PR,-23.9393362,-51.5850786,16,248.48579
1,Borá/SP,-22.2701088,-50.544407,58,6921.24105
1,Bossoroca/RS,-28.7278885,-54.9120278,348,5608.38034
D1,Bossoroca/RS,-28.7278885,-54.9120278,19,306.20467
1,Botelhos/MG,-21.65,-46.394722,1159,7753.02696
D1,Botelhos/MG,-21.65,-46.394722,13,86.96234
1,Botucatu/SP,-22.8879628,-48.4410712,11035,7449.53757
D1,Botucatu/SP,-22.8879628,-48.4410712,207,139.74212
1,Botumirim/MG,-16.862778,-43.011111,166,2639.94911
D1,Botumirim/MG,-16.862778,-43.011111,2,31.80662
1,Botuporã/BA,-13.3744752,-42.5198469,188,1856.05687
D1,Botuporã/BA,-13.3744752,-42.5198469,3,29.61793
1,Botuverá/SC,-27.200749,-49.068892,822,15445.32131
D1,Botuverá/SC,-27.200749,-49.068892,8,150.31943
1,Bozano/RS,-28.3669953,-53.7705165,205,9711.03742
D1,Bozano/RS,-28.3669953,-53.7705165,7,331.59640
1,Braga/RS,-27.617348,-53.740514,155,4681.36515
D1,Braga/RS,-27.617348,-53.740514,4,120.80942
1,Braganey/PR,-24.8179919,-53.118506,301,5592.71646
D1,Braganey/PR,-24.8179919,-53.118506,7,130.06317
1,Bragança Paulista/SP,-22.9520235,-46.5418586,12585,7379.80332
D1,Bragança Paulista/SP,-22.9520235,-46.5418586,324,189.99255
1,Bragança/PA,-1.0573967,-46.7635406,3515,2726.62395
D1,Bragança/PA,-1.0573967,-46.7635406,120,93.08531
1,Branquinha/AL,-9.2478057,-36.0152009,444,4244.74187
D1,Branquinha/AL,-9.2478057,-36.0152009,9,86.04207
1,Brasil Novo/PA,-3.3055853,-52.539198,1463,9764.39965
D1,Brasil Novo/PA,-3.3055853,-52.539198,32,213.57539
1,Brasileira/PI,-4.131182,-41.7824969,466,5582.84414
D1,Brasileira/PI,-4.131182,-41.7824969,9,107.82317
1,Brasilândia de Minas/MG,-17.0096469,-46.0087183,910,5433.48460
D1,Brasilândia de Minas/MG,-17.0096469,-46.0087183,10,59.70862
1,Brasilândia do Sul/PR,-24.1975793,-53.527551,317,12263.05609
D1,Brasilândia do Sul/PR,-24.1975793,-53.527551,7,270.79304
1,Brasilândia do Tocantins/TO,-8.3886619,-48.4842729,134,6060.60606
D1,Brasilândia do Tocantins/TO,-8.3886619,-48.4842729,4,180.91361
1,Brasilândia/MS,-21.255575,-52.0365617,743,6268.45524
D1,Brasilândia/MS,-21.255575,-52.0365617,13,109.67688
1,Brasiléia/AC,-11.0010413,-68.7487894,2485,9306.41899
D1,Brasiléia/AC,-11.0010413,-68.7487894,35,131.07632
1,Brasnorte/MT,-12.1227151,-58.0050109,1711,8495.53128
D1,Brasnorte/MT,-12.1227151,-58.0050109,28,139.02681
1,Brasília de Minas/MG,-16.2075114,-44.430559,817,2521.21586
D1,Brasília de Minas/MG,-16.2075114,-44.430559,6,18.51566
1,Brasília/DF,-15.7934036,-47.8823172,382231,12511.04283
D1,Brasília/DF,-15.7934036,-47.8823172,7926,259.43088
1,Brazabrantes/GO,-16.4291635,-49.3858216,356,9503.47037
D1,Brazabrantes/GO,-16.4291635,-49.3858216,3,80.08542
1,Brazópolis/MG,-22.4742842,-45.6165577,658,4566.27342
D1,Brazópolis/MG,-22.4742842,-45.6165577,27,187.36988
1,Braço do Norte/SC,-28.2728633,-49.1622712,7030,20752.15492
D1,Braço do Norte/SC,-28.2728633,-49.1622712,71,209.58791
1,Braço do Trombudo/SC,-27.358578,-49.882145,559,14831.52030
D1,Braço do Trombudo/SC,-27.358578,-49.882145,4,106.12895
1,Braúna/SP,-21.5015319,-50.3175246,359,6253.26598
D1,Braúna/SP,-21.5015319,-50.3175246,19,330.95280
1,Braúnas/MG,-19.055556,-42.716111,189,3963.09499
D1,Braúnas/MG,-19.055556,-42.716111,6,125.81254
1,Brejetuba/ES,-20.1465817,-41.2902303,1423,11450.87310
D1,Brejetuba/ES,-20.1465817,-41.2902303,13,104.61093
1,Brejinho de Nazaré/TO,-11.0205883,-48.5722906,388,7030.25910
D1,Brejinho de Nazaré/TO,-11.0205883,-48.5722906,8,144.95380
1,Brejinho/PE,-7.3482153,-37.28538,562,7505.34188
D1,Brejinho/PE,-7.3482153,-37.28538,11,146.90171
1,Brejinho/RN,-6.1957907,-35.3583019,923,7218.26855
D1,Brejinho/RN,-6.1957907,-35.3583019,8,62.56354
1,Brejo Alegre/SP,-21.1671191,-50.1850393,262,9068.88197
D1,Brejo Alegre/SP,-21.1671191,-50.1850393,10,346.14053
1,Brejo Grande do Araguaia/PA,-5.7011449,-48.4037308,751,10192.72530
D1,Brejo Grande do Araguaia/PA,-5.7011449,-48.4037308,4,54.28882
1,Brejo Grande/SE,-10.4287358,-36.4667918,319,3818.98719
D1,Brejo Grande/SE,-10.4287358,-36.4667918,12,143.66096
1,Brejo Santo/CE,-7.4909841,-38.9859152,6964,13972.15200
D1,Brejo Santo/CE,-7.4909841,-38.9859152,118,236.74812
1,Brejo da Madre de Deus/PE,-8.1409718,-36.3712527,1722,3361.63982
D1,Brejo da Madre de Deus/PE,-8.1409718,-36.3712527,46,89.79990
1,Brejo de Areia/MA,-4.3316785,-45.5833334,281,3117.37298
D1,Brejo de Areia/MA,-4.3316785,-45.5833334,8,88.75083
1,Brejo do Cruz/PB,-6.32926065,-37.48746163303929,1232,8672.39195
D1,Brejo do Cruz/PB,-6.32926065,-37.48746163303929,19,133.74630
1,Brejo do Piauí/PI,-8.207583,-42.8359849,60,1559.25156
D1,Brejo do Piauí/PI,-8.207583,-42.8359849,3,77.96258
1,Brejo dos Santos/PB,-6.3769367,-37.8243125,357,5522.89604
D1,Brejo dos Santos/PB,-6.3769367,-37.8243125,4,61.88119
1,Brejo/MA,-3.6804397,-42.7529313,805,2196.39300
D1,Brejo/MA,-3.6804397,-42.7529313,19,51.84033
1,Brejolândia/BA,-12.4843845,-43.9611861,129,1214.91806
D1,Brejolândia/BA,-12.4843845,-43.9611861,8,75.34376
1,Brejão/PE,-9.029146,-36.566034,174,1936.12997
D1,Brejão/PE,-9.029146,-36.566034,5,55.63592
1,Brejões/BA,-13.1033754,-39.7909837,547,3846.15385
D1,Brejões/BA,-13.1033754,-39.7909837,8,56.25088
1,Breu Branco/PA,-3.7785073,-49.5684795,576,855.46248
D1,Breu Branco/PA,-3.7785073,-49.5684795,40,59.40712
1,Breves/PA,-1.68036,-50.479085,3795,3666.77295
D1,Breves/PA,-1.68036,-50.479085,107,103.38464
1,Britânia/GO,-15.2427599,-51.1602061,451,7779.88615
D1,Britânia/GO,-15.2427599,-51.1602061,3,51.75091
1,Brochier/RS,-29.556766,-51.5963047,349,6837.77429
D1,Brochier/RS,-29.556766,-51.5963047,1,19.59248
1,Brodowski/SP,-20.984532,-47.657217,1784,7057.79958
D1,Brodowski/SP,-20.984532,-47.657217,47,185.93979
1,Brotas de Macaúbas/BA,-12.0019007,-42.6257506,62,612.04344
D1,Brotas de Macaúbas/BA,-12.0019007,-42.6257506,1,9.87167
1,Brotas/SP,-22.2840884,-48.1267265,436,1769.76782
D1,Brotas/SP,-22.2840884,-48.1267265,29,117.71391
1,Brumadinho/MG,-20.143611,-44.2,2881,7084.54237
D1,Brumadinho/MG,-20.143611,-44.2,67,164.75680
1,Brumado/BA,-14.29507325,-41.659307508575985,8189,12161.58016
D1,Brumado/BA,-14.29507325,-41.659307508575985,161,239.10299
1,Brunópolis/SC,-27.310953,-50.837585,210,8868.24324
D1,Brunópolis/SC,-27.310953,-50.837585,5,211.14865
1,Brusque/SC,-27.0964628,-48.9136323,22773,16539.44760
D1,Brusque/SC,-27.0964628,-48.9136323,232,168.49567
1,Brás Pires/MG,-20.8483109,-43.2430524,172,4006.52225
D1,Brás Pires/MG,-20.8483109,-43.2430524,6,139.76240
1,Bueno Brandão/MG,-22.441976,-46.3517971,540,4913.11073
D1,Bueno Brandão/MG,-22.441976,-46.3517971,18,163.77036
1,Buenos Aires/PE,-7.7218931,-35.326587,197,1493.55572
D1,Buenos Aires/PE,-7.7218931,-35.326587,19,144.04852
1,Buenópolis/MG,-17.8756607,-44.1749365,264,2549.98551
D1,Buenópolis/MG,-17.8756607,-44.1749365,8,77.27229
1,Buerarema/BA,-14.9571177,-39.3008035,1231,6724.57118
D1,Buerarema/BA,-14.9571177,-39.3008035,36,196.65683
1,Bugre/MG,-19.4257687,-42.2556,347,8712.02611
D1,Bugre/MG,-19.4257687,-42.2556,10,251.06703
1,Bujari/AC,-9.8309656,-67.9520886,1072,10287.90787
D1,Bujari/AC,-9.8309656,-67.9520886,13,124.76008
1,Bujaru/PA,-1.5169239,-48.0410699,1263,4291.97676
D1,Bujaru/PA,-1.5169239,-48.0410699,36,122.33663
1,Buri/SP,-23.79849,-48.598924,2113,10583.52116
D1,Buri/SP,-23.79849,-48.598924,55,275.48209
1,Buritama/SP,-21.0664017,-50.1448077,1813,10491.29101
D1,Buritama/SP,-21.0664017,-50.1448077,53,306.69521
1,Buriti Alegre/GO,-18.1377879,-49.0404411,795,8382.53901
D1,Buriti Alegre/GO,-18.1377879,-49.0404411,27,284.69000
1,Buriti Bravo/MA,-5.8391884,-43.8367876,1198,5004.38615
D1,Buriti Bravo/MA,-5.8391884,-43.8367876,11,45.95012
1,Buriti de Goiás/GO,-16.180644,-50.4287479,173,6987.07593
D1,Buriti de Goiás/GO,-16.180644,-50.4287479,7,282.71405
1,Buriti do Tocantins/TO,-5.3187439,-48.2256609,667,5801.51344
D1,Buriti do Tocantins/TO,-5.3187439,-48.2256609,8,69.58337
1,Buriti dos Lopes/PI,-3.1776723,-41.8707444,1161,5861.56409
D1,Buriti dos Lopes/PI,-3.1776723,-41.8707444,22,111.07184
1,Buriti dos Montes/PI,-5.3136171,-41.0971256,539,6522.26525
D1,Buriti dos Montes/PI,-5.3136171,-41.0971256,7,84.70474
1,Buriti/MA,-3.9430944,-42.9244281,751,2607.81999
D1,Buriti/MA,-3.9430944,-42.9244281,7,24.30724
1,Buriticupu/MA,-4.3227472,-46.4516989,2944,4033.81609
D1,Buriticupu/MA,-4.3227472,-46.4516989,38,52.06692
1,Buritinópolis/GO,-14.4589282,-46.4293104,155,4721.29150
D1,Buritinópolis/GO,-14.4589282,-46.4293104,1,30.45995
1,Buritirama/BA,-10.7148421,-43.6362327,766,3600.30081
D1,Buritirama/BA,-10.7148421,-43.6362327,18,84.60237
1,Buritirana/MA,-5.5897455,-47.0148915,282,1823.23657
D1,Buritirana/MA,-5.5897455,-47.0148915,23,148.70369
1,Buritis/MG,-15.621389,-46.423889,1342,5365.21009
D1,Buritis/MG,-15.621389,-46.423889,25,99.94803
1,Buritis/RO,-10.2054937,-63.8281954,4193,10390.02874
D1,Buritis/RO,-10.2054937,-63.8281954,60,148.67678
1,Buritizal/SP,-20.1933264,-47.7097165,224,4962.33939
D1,Buritizal/SP,-20.1933264,-47.7097165,9,199.37971
1,Buritizeiro/MG,-17.3667765,-44.9647781,928,3300.02489
D1,Buritizeiro/MG,-17.3667765,-44.9647781,28,99.56972
1,Butiá/RS,-30.1256795,-51.9692224,1655,7899.00725
D1,Butiá/RS,-30.1256795,-51.9692224,46,219.54945
1,Buíque/PE,-8.6239732,-37.157296,1727,2931.14276
D1,Buíque/PE,-8.6239732,-37.157296,35,59.40359
1,Bálsamo/SP,-20.7343722,-49.5807484,1261,13798.00853
D1,Bálsamo/SP,-20.7343722,-49.5807484,49,536.16369
0,CASO SEM LOCALIZAÇÃO DEFINIDA/BA,-13.415069300066518,-38.14174656569957,10091,67.84749
D0,CASO SEM LOCALIZAÇÃO DEFINIDA/BA,-13.415069300066518,-38.14174656569957,175,1.17662
0,CASO SEM LOCALIZAÇÃO DEFINIDA/CE,-3.3445126297392798,-38.624961942434304,11132,121.89997
D0,CASO SEM LOCALIZAÇÃO DEFINIDA/CE,-3.3445126297392798,-38.624961942434304,74,0.81033
0,CASO SEM LOCALIZAÇÃO DEFINIDA/ES,-20.30989267097039,-39.81745156645774,3337,83.03784
D0,CASO SEM LOCALIZAÇÃO DEFINIDA/ES,-20.30989267097039,-39.81745156645774,169,4.20539
0,CASO SEM LOCALIZAÇÃO DEFINIDA/GO,-16.701590966270153,-49.164524059025034,1073,15.28849
0,CASO SEM LOCALIZAÇÃO DEFINIDA/MG,-19.97049116501593,-43.8852149072783,4266,20.15231
D0,CASO SEM LOCALIZAÇÃO DEFINIDA/MG,-19.97049116501593,-43.8852149072783,257,1.21405
0,CASO SEM LOCALIZAÇÃO DEFINIDA/MT,-15.54791153961863,-56.17143998972475,664,19.05600
D0,CASO SEM LOCALIZAÇÃO DEFINIDA/MT,-15.54791153961863,-56.17143998972475,118,3.38646
0,CASO SEM LOCALIZAÇÃO DEFINIDA/PR,-25.69415946385943,-48.10141676336737,5749,50.28006
D0,CASO SEM LOCALIZAÇÃO DEFINIDA/PR,-25.69415946385943,-48.10141676336737,146,1.27690
0,CASO SEM LOCALIZAÇÃO DEFINIDA/RN,-5.749310788669161,-34.95302586257457,1382,39.40855
D0,CASO SEM LOCALIZAÇÃO DEFINIDA/RN,-5.749310788669161,-34.95302586257457,24,0.68437
0,CASO SEM LOCALIZAÇÃO DEFINIDA/RR,2.813328208465927,-60.663338675861986,2535,418.48188
D0,CASO SEM LOCALIZAÇÃO DEFINIDA/RR,2.813328208465927,-60.663338675861986,14,2.31114
0,CASO SEM LOCALIZAÇÃO DEFINIDA/SP,-24.30968974555485,-46.21366504207253,658,1.43296
1,Caapiranga/AM,-3.3188884,-61.2096404,555,4178.27298
D1,Caapiranga/AM,-3.3188884,-61.2096404,20,150.56840
1,Caaporã/PB,-7.510234,-34.9154114,1625,7401.50307
D1,Caaporã/PB,-7.510234,-34.9154114,28,127.53359
1,Caarapó/MS,-22.6349267,-54.8240903,2583,8443.10790
D1,Caarapó/MS,-22.6349267,-54.8240903,25,81.71804
1,Caatiba/BA,-14.9782759,-40.4092325,718,11066.58446
D1,Caatiba/BA,-14.9782759,-40.4092325,8,123.30456
1,Cabaceiras do Paraguaçu/BA,-12.5377868,-39.1901339,439,2321.40024
D1,Cabaceiras do Paraguaçu/BA,-12.5377868,-39.1901339,4,21.15171
1,Cabaceiras/PB,-7.4899156,-36.2860501,307,5423.07013
D1,Cabaceiras/PB,-7.4899156,-36.2860501,1,17.66472
1,Cabeceira Grande/MG,-16.0297,-47.0906,272,3892.38695
D1,Cabeceira Grande/MG,-16.0297,-47.0906,4,57.24098
1,Cabeceiras do Piauí/PI,-4.4733665,-42.3098716,449,4223.89464
D1,Cabeceiras do Piauí/PI,-4.4733665,-42.3098716,10,94.07338
1,Cabeceiras/GO,-15.7995459,-46.9264991,288,3579.41834
D1,Cabeceiras/GO,-15.7995459,-46.9264991,11,136.71390
1,Cabedelo/PB,-6.97324,-34.8351609,7433,10808.96360
D1,Cabedelo/PB,-6.97324,-34.8351609,168,244.30323
1,Cabixi/RO,-13.4956065,-60.5424442,639,12316.88512
D1,Cabixi/RO,-13.4956065,-60.5424442,14,269.85351
1,Cabo Frio/RJ,-22.8804369,-42.0189227,10282,4463.09978
D1,Cabo Frio/RJ,-22.8804369,-42.0189227,529,229.62262
1,Cabo Verde/MG,-21.4743338,-46.3964995,343,2436.94494
D1,Cabo Verde/MG,-21.4743338,-46.3964995,5,35.52398
1,Cabo de Santo Agostinho/PE,-8.2838945,-35.0320984,4671,2235.52722
D1,Cabo de Santo Agostinho/PE,-8.2838945,-35.0320984,398,190.48166
1,Cabreúva/SP,-23.3075813,-47.1324417,3012,5972.75377
D1,Cabreúva/SP,-23.3075813,-47.1324417,70,138.80902
1,Cabrobó/PE,-8.5083701,-39.3106961,1549,4489.46468
D1,Cabrobó/PE,-8.5083701,-39.3106961,19,55.06768
1,Cabrália Paulista/SP,-22.4562909,-49.3385645,244,5750.64813
D1,Cabrália Paulista/SP,-22.4562909,-49.3385645,2,47.13646
1,Cacaulândia/RO,-10.3380043,-62.9007231,753,12011.48509
D1,Cacaulândia/RO,-10.3380043,-62.9007231,9,143.56357
1,Cacequi/RS,-29.8838059,-54.8273443,338,2720.75988
D1,Cacequi/RS,-29.8838059,-54.8273443,6,48.29751
1,Cachoeira Alta/GO,-18.7618269,-50.9432431,1163,9182.06221
D1,Cachoeira Alta/GO,-18.7618269,-50.9432431,17,134.21759
1,Cachoeira Dourada/GO,-18.4934204,-49.481062,379,4719.21305
D1,Cachoeira Dourada/GO,-18.4934204,-49.481062,15,186.77624
1,Cachoeira Dourada/MG,-18.517136,-49.5002062,134,4951.95861
D1,Cachoeira Dourada/MG,-18.517136,-49.5002062,2,73.90983
1,Cachoeira Grande/MA,-2.9290492,-44.0573223,217,2289.51256
D1,Cachoeira Grande/MA,-2.9290492,-44.0573223,5,52.75375
1,Cachoeira Paulista/SP,-22.666498,-45.015384,1907,5678.80647
D1,Cachoeira Paulista/SP,-22.666498,-45.015384,29,86.35836
1,Cachoeira da Prata/MG,-19.524723,-44.453056,226,6293.51156
D1,Cachoeira da Prata/MG,-19.524723,-44.453056,4,111.38959
1,Cachoeira de Goiás/GO,-16.6688414,-50.6435997,54,4023.84501
D1,Cachoeira de Goiás/GO,-16.6688414,-50.6435997,2,149.03130
1,Cachoeira de Minas/MG,-22.3554043,-45.7796324,515,4447.70706
D1,Cachoeira de Minas/MG,-22.3554043,-45.7796324,7,60.45427
1,Cachoeira de Pajeú/MG,-15.965833,-41.496666,293,3103.15611
D1,Cachoeira de Pajeú/MG,-15.965833,-41.496666,8,84.72781
1,Cachoeira do Arari/PA,-1.0143572,-48.9621089,448,1861.70213
D1,Cachoeira do Arari/PA,-1.0143572,-48.9621089,19,78.95612
1,Cachoeira do Piriá/PA,-1.7599443,-46.5446954,703,2031.26354
D1,Cachoeira do Piriá/PA,-1.7599443,-46.5446954,4,11.55769
1,Cachoeira do Sul/RS,-30.0474778,-52.8905413,6368,7778.27994
D1,Cachoeira do Sul/RS,-30.0474778,-52.8905413,105,128.25367
1,Cachoeira dos Índios/PB,-6.9259193,-38.6742159,565,5482.77535
D1,Cachoeira dos Índios/PB,-6.9259193,-38.6742159,13,126.15235
1,Cachoeira/BA,-12.5998256,-38.9665918,1242,3700.06256
D1,Cachoeira/BA,-12.5998256,-38.9665918,18,53.62410
1,Cachoeiras de Macacu/RJ,-22.4626861,-42.6534414,2383,4018.34646
D1,Cachoeiras de Macacu/RJ,-22.4626861,-42.6534414,84,141.64545
1,Cachoeirinha/PE,-8.4906364,-36.2338963,404,1970.63558
D1,Cachoeirinha/PE,-8.4906364,-36.2338963,23,112.18965
1,Cachoeirinha/RS,-29.9493353,-51.0898927,11982,9129.83846
D1,Cachoeirinha/RS,-29.9493353,-51.0898927,350,266.68699
1,Cachoeirinha/TO,-6.118647,-47.9208885,117,5122.59194
D1,Cachoeirinha/TO,-6.118647,-47.9208885,2,87.56567
1,Cachoeiro de Itapemirim/ES,-20.848084,-41.11129,22333,10605.01736
D1,Cachoeiro de Itapemirim/ES,-20.848084,-41.11129,463,219.85954
1,Cacimba de Areia/PB,-7.1288513,-37.1575194,29,784.84438
D1,Cacimba de Areia/PB,-7.1288513,-37.1575194,1,27.06360
1,Cacimba de Dentro/PB,-6.6425101,-35.7929304,869,5058.79613
D1,Cacimba de Dentro/PB,-6.6425101,-35.7929304,24,139.71359
1,Cacimbas/PB,-7.2125451,-37.0593398,196,2722.60036
D1,Cacimbas/PB,-7.2125451,-37.0593398,6,83.34491
1,Cacimbinhas/AL,-9.401212,-36.991082,560,5142.80467
D1,Cacimbinhas/AL,-9.401212,-36.991082,7,64.28506
1,Cacique Doble/RS,-27.7700117,-51.6616409,360,7094.99409
D1,Cacique Doble/RS,-27.7700117,-51.6616409,6,118.24990
1,Cacoal/RO,-11.4333,-61.4420502,11229,13073.24229
D1,Cacoal/RO,-11.4333,-61.4420502,212,246.81872
1,Caconde/SP,-21.527995,-46.643659,975,5129.14935
D1,Caconde/SP,-21.527995,-46.643659,18,94.69199
1,Caculé/BA,-14.4990734,-42.2233006,1312,5633.07715
D1,Caculé/BA,-14.4990734,-42.2233006,11,47.22854
1,Caetanos/BA,-14.3387456,-40.9085971,563,3854.05257
D1,Caetanos/BA,-14.3387456,-40.9085971,9,61.61008
1,Caetanópolis/MG,-19.2947496,-44.4138386,755,6426.07882
D1,Caetanópolis/MG,-19.2947496,-44.4138386,7,59.57954
1,Caetité/BA,-14.0691776,-42.4852428,1941,3799.84730
D1,Caetité/BA,-14.0691776,-42.4852428,20,39.15350
1,Caeté/MG,-19.897777,-43.670278,1487,3300.99674
D1,Caeté/MG,-19.897777,-43.670278,41,91.01605
1,Caetés/PE,-8.7728788,-36.6255835,1131,3912.95322
D1,Caetés/PE,-8.7728788,-36.6255835,16,55.35566
1,Cafarnaum/BA,-11.691399,-41.468823,753,4067.41209
D1,Cafarnaum/BA,-11.691399,-41.468823,16,86.42575
1,Cafeara/PR,-22.78905,-51.714195,224,7582.93839
D1,Cafeara/PR,-22.78905,-51.714195,8,270.81923
1,Cafelândia/PR,-24.6176963,-53.3218057,1439,7796.92241
D1,Cafelândia/PR,-24.6176963,-53.3218057,11,59.60121
1,Cafelândia/SP,-21.8054355,-49.6030627,639,3581.23634
D1,Cafelândia/SP,-21.8054355,-49.6030627,30,168.13316
1,Cafezal do Sul/PR,-23.900508,-53.512418,231,5762.03542
D1,Cafezal do Sul/PR,-23.900508,-53.512418,3,74.83163
1,Caiabu/SP,-22.0143038,-51.2356597,70,1669.44908
D1,Caiabu/SP,-22.0143038,-51.2356597,5,119.24636
1,Caiana/MG,-20.695555,-41.924723,122,2201.76863
D1,Caiana/MG,-20.695555,-41.924723,7,126.33099
1,Caiapônia/GO,-16.9538779,-51.8090761,960,5024.33663
D1,Caiapônia/GO,-16.9538779,-51.8090761,32,167.47789
1,Caibaté/RS,-28.290475,-54.645407,209,4333.40245
D1,Caibaté/RS,-28.290475,-54.645407,7,145.13788
1,Caibi/SC,-27.0751925,-53.2502133,546,8907.01468
D1,Caibi/SC,-27.0751925,-53.2502133,10,163.13214
1,Caicó/RN,-6.4594544,-37.0971911,8877,12988.89425
D1,Caicó/RN,-6.4594544,-37.0971911,110,160.95284
1,Caieiras/SP,-23.3644621,-46.7484765,6366,6194.11335
D1,Caieiras/SP,-23.3644621,-46.7484765,229,222.81683
1,Cairu/BA,-13.4860505,-39.0455744,1029,5584.19710
D1,Cairu/BA,-13.4860505,-39.0455744,10,54.26819
1,Caiuá/SP,-21.8319357,-51.9887179,248,4170.87117
D1,Caiuá/SP,-21.8319357,-51.9887179,5,84.09014
1,Caiçara do Norte/RN,-5.0645017,-36.0561226,295,4496.26581
D1,Caiçara do Norte/RN,-5.0645017,-36.0561226,9,137.17421
1,Caiçara do Rio do Vento/RN,-5.757968,-36.00089,209,5625.84118
D1,Caiçara do Rio do Vento/RN,-5.757968,-36.00089,7,188.42530
1,Caiçara/PB,-6.6146866,-35.4681434,619,8607.98220
D1,Caiçara/PB,-6.6146866,-35.4681434,13,180.78153
1,Caiçara/RS,-27.2750478,-53.4310053,410,8723.40426
D1,Caiçara/RS,-27.2750478,-53.4310053,8,170.21277
1,Cajamar/SP,-23.3561111,-46.8769444,3448,4424.25642
D1,Cajamar/SP,-23.3561111,-46.8769444,164,210.43447
1,Cajapió/MA,-2.8778715,-44.6746871,71,633.02425
D1,Cajapió/MA,-2.8778715,-44.6746871,3,26.74750
1,Cajari/MA,-3.3213076,-45.0118757,170,873.99105
D1,Cajari/MA,-3.3213076,-45.0118757,5,25.70562
1,Cajati/SP,-24.7272376,-48.1077914,2828,9924.89647
D1,Cajati/SP,-24.7272376,-48.1077914,71,249.17526
1,Cajazeiras do Piauí/PI,-6.794271,-42.3935024,38,1063.53205
D1,Cajazeiras do Piauí/PI,-6.794271,-42.3935024,1,27.98769
1,Cajazeiras/PB,-6.8897849,-38.5570389,6584,10570.08461
D1,Cajazeiras/PB,-6.8897849,-38.5570389,116,186.22871
1,Cajazeirinhas/PB,-6.961442,-37.7993733,114,3556.94228
1,Cajobi/SP,-20.8776238,-48.8106972,694,6549.64137
D1,Cajobi/SP,-20.8776238,-48.8106972,21,198.18800
1,Cajueiro da Praia/PI,-2.931114,-41.340801,468,6098.51446
D1,Cajueiro da Praia/PI,-2.931114,-41.340801,15,195.46521
1,Cajueiro/AL,-9.399589,-36.1524309,500,2344.00638
D1,Cajueiro/AL,-9.399589,-36.1524309,20,93.76026
1,Cajuri/MG,-20.7901414,-42.7954489,299,7523.90539
D1,Cajuri/MG,-20.7901414,-42.7954489,1,25.16356
1,Cajuru/SP,-21.2759978,-47.3046035,741,2807.56261
D1,Cajuru/SP,-21.2759978,-47.3046035,21,79.56655
1,Caldas Brandão/PB,-7.1027959,-35.3254676,459,7591.79623
D1,Caldas Brandão/PB,-7.1027959,-35.3254676,7,115.77903
1,Caldas Novas/GO,-17.745,-48.625,7072,7588.30851
D1,Caldas Novas/GO,-17.745,-48.625,178,190.99532
1,Caldas/MG,-21.923611,-46.386111,593,4078.12393
D1,Caldas/MG,-21.923611,-46.386111,20,137.54212
1,Caldazinha/GO,-16.7116649,-49.0012601,215,5587.31809
D1,Caldazinha/GO,-16.7116649,-49.0012601,4,103.95010
1,Caldeirão Grande do Piauí/PI,-7.3310393,-40.6374433,275,4756.96246
D1,Caldeirão Grande do Piauí/PI,-7.3310393,-40.6374433,2,34.59609
1,Caldeirão Grande/BA,-11.0208483,-40.3041387,539,4025.09148
D1,Caldeirão Grande/BA,-11.0208483,-40.3041387,6,44.80621
1,Califórnia/PR,-23.6672543,-51.3554556,785,9121.54311
D1,Califórnia/PR,-23.6672543,-51.3554556,15,174.29700
1,Calmon/SC,-26.6023644,-51.0992893,27,809.59520
D1,Calmon/SC,-26.6023644,-51.0992893,3,89.95502
1,Calumbi/PE,-7.9389746,-38.1516871,436,7586.56690
D1,Calumbi/PE,-7.9389746,-38.1516871,3,52.20115
1,Calçado/PE,-8.7413446,-36.3351787,350,3176.62008
D1,Calçado/PE,-8.7413446,-36.3351787,2,18.15211
1,Calçoene/AP,2.4981757,-50.9539503,1591,14072.17407
D1,Calçoene/AP,2.4981757,-50.9539503,10,88.44861
1,Camacan/BA,-15.4166631,-39.4930088,2403,7507.96726
D1,Camacan/BA,-15.4166631,-39.4930088,62,193.71368
1,Camacho/MG,-20.625556,-45.156667,49,1707.91216
D1,Camacho/MG,-20.625556,-45.156667,1,34.85535
1,Camalaú/PB,-7.885031,-36.824191,365,6052.06433
D1,Camalaú/PB,-7.885031,-36.824191,5,82.90499
1,Camamu/BA,-13.9438142,-39.1060917,1932,5460.40360
D1,Camamu/BA,-13.9438142,-39.1060917,39,110.22554
1,Camanducaia/MG,-22.755278,-46.144444,2338,10724.27870
D1,Camanducaia/MG,-22.755278,-46.144444,49,224.76033
1,Camapuã/MS,-19.5291747,-54.0434641,605,4418.31593
D1,Camapuã/MS,-19.5291747,-54.0434641,20,146.06003
1,Camaquã/RS,-30.8524752,-51.8075619,5923,8909.71449
D1,Camaquã/RS,-30.8524752,-51.8075619,114,171.48530
1,Camaragibe/PE,-8.0213832,-34.9810768,4501,2832.61695
D1,Camaragibe/PE,-8.0213832,-34.9810768,316,198.86846
1,Camargo/RS,-28.5865661,-52.2031474,277,10102.11524
D1,Camargo/RS,-28.5865661,-52.2031474,5,182.34865
1,Camaçari/BA,-12.6998188,-38.3260762,20485,6731.79933
D1,Camaçari/BA,-12.6998188,-38.3260762,519,170.55425
1,Cambará do Sul/RS,-29.0489517,-50.145412,292,4558.22666
D1,Cambará do Sul/RS,-29.0489517,-50.145412,8,124.88292
1,Cambará/PR,-23.042273,-50.075281,1823,7158.56436
D1,Cambará/PR,-23.042273,-50.075281,36,141.36496
1,Cambira/PR,-23.600265,-51.581045,659,8323.86005
D1,Cambira/PR,-23.600265,-51.581045,14,176.83466
1,Camboriú/SC,-27.0273601,-48.6535657,10941,12855.88391
D1,Camboriú/SC,-27.0273601,-48.6535657,142,166.85271
1,Cambuci/RJ,-21.5749919,-41.9107833,711,4582.95733
D1,Cambuci/RJ,-21.5749919,-41.9107833,24,154.69898
1,Cambuquira/MG,-21.853056,-45.2953619,419,3270.37153
D1,Cambuquira/MG,-21.853056,-45.2953619,13,101.46737
1,Cambuí/MG,-22.6122501,-46.0572137,2454,8231.03240
D1,Cambuí/MG,-22.6122501,-46.0572137,35,117.39451
1,Cambé/PR,-23.2782035,-51.2779583,9053,8433.86963
D1,Cambé/PR,-23.2782035,-51.2779583,180,167.68989
1,Cametá/PA,-2.242949,-49.497885,6758,4849.17195
D1,Cametá/PA,-2.242949,-49.497885,194,139.20381
1,Camocim de São Félix/PE,-8.3616757,-35.7638903,426,2253.96825
D1,Camocim de São Félix/PE,-8.3616757,-35.7638903,12,63.49206
1,Camocim/CE,-2.9009918,-40.8427389,4982,7795.70313
D1,Camocim/CE,-2.9009918,-40.8427389,135,211.24446
1,Campanha/MG,-21.8361108,-45.401986,1099,6556.49684
D1,Campanha/MG,-21.8361108,-45.401986,22,131.24925
1,Campanário/MG,-18.2398144,-41.7271768,180,4825.73727
D1,Campanário/MG,-18.2398144,-41.7271768,2,53.61930
1,Campestre da Serra/RS,-28.7966535,-51.0958149,140,4123.71134
1,Campestre de Goiás/GO,-16.7624179,-49.69497,425,11647.02658
D1,Campestre de Goiás/GO,-16.7624179,-49.69497,10,274.04768
1,Campestre do Maranhão/MA,-6.1729113,-47.3640512,894,6185.56701
D1,Campestre do Maranhão/MA,-6.1729113,-47.3640512,39,269.84017
1,Campestre/AL,-8.8481634,-35.5660033,238,3422.49065
D1,Campestre/AL,-8.8481634,-35.5660033,6,86.28128
1,Campestre/MG,-19.6142116,-43.219378,854,4056.23634
D1,Campestre/MG,-19.6142116,-43.219378,20,94.99383
1,Campina Grande do Sul/PR,-25.3046032,-49.0545355,4230,9682.95754
D1,Campina Grande do Sul/PR,-25.3046032,-49.0545355,88,201.44214
1,Campina Grande/PB,-7.2246743,-35.8771292,26968,6548.69878
D1,Campina Grande/PB,-7.2246743,-35.8771292,778,188.92345
1,Campina Verde/MG,-19.535277,-49.486389,847,4288.17335
D1,Campina Verde/MG,-19.535277,-49.486389,24,121.50668
1,Campina da Lagoa/PR,-24.5937926,-52.8038965,919,6544.18572
D1,Campina da Lagoa/PR,-24.5937926,-52.8038965,20,142.41971
1,Campina das Missões/RS,-27.9883295,-54.8411665,382,7076.69507
D1,Campina das Missões/RS,-27.9883295,-54.8411665,8,148.20304
1,Campina do Monte Alegre/SP,-23.5935653,-48.4801876,388,6405.81146
D1,Campina do Monte Alegre/SP,-23.5935653,-48.4801876,12,198.11788
1,Campina do Simão/PR,-25.1086375,-51.8076658,239,6193.31433
D1,Campina do Simão/PR,-25.1086375,-51.8076658,11,285.04794
1,Campinas do Piauí/PI,-7.6593687,-41.8814875,160,2846.97509
