type,name,lat,lon,total,total_per_100k_inhabitants
1,Abadia de Goiás/GO,-16.7572644,-49.4412205,327,3727.34526
D1,Abadia de Goiás/GO,-16.7572644,-49.4412205,2,22.79722
1,Abadia dos Dourados/MG,-18.4911191,-47.4063589,49,701.10173
D1,Abadia dos Dourados/MG,-18.4911191,-47.4063589,1,14.30820
1,Abadiânia/GO,-16.1940946,-48.7067767,86,429.09889
D1,Abadiânia/GO,-16.1940946,-48.7067767,7,34.92665
1,Abaetetuba/PA,-1.721828,-48.878843,2918,1850.37223
D1,Abaetetuba/PA,-1.721828,-48.878843,113,71.65595
1,Abaeté/MG,-19.1566833,-45.4481213,34,146.31837
D1,Abaeté/MG,-19.1566833,-45.4481213,2,8.60696
1,Abaiara/CE,-7.3607808,-39.0487878,65,553.80421
D1,Abaiara/CE,-7.3607808,-39.0487878,2,17.04013
1,Abaré/BA,-8.7239913,-39.1139689,49,243.95101
1,Abatiá/PR,-23.3052967,-50.3102532,58,777.79268
1,Abaíra/BA,-13.2503296,-41.6640342,17,194.53027
1,Abdon Batista/SC,-27.612419,-51.022992,82,3199.37573
1,Abel Figueiredo/PA,-4.953001,-48.3958485,268,3605.05784
D1,Abel Figueiredo/PA,-4.953001,-48.3958485,1,13.45171
1,Abelardo Luz/SC,-26.5705893,-52.3280339,168,938.33780
D1,Abelardo Luz/SC,-26.5705893,-52.3280339,3,16.75603
1,Abre Campo/MG,-20.2976097,-42.4764741,30,222.98201
1,Abreu e Lima/PE,-7.900719,-34.898389,728,728.07281
D1,Abreu e Lima/PE,-7.900719,-34.898389,91,91.00910
1,Abreulândia/TO,-9.6221526,-49.1558343,28,1085.69213
D1,Abreulândia/TO,-9.6221526,-49.1558343,2,77.54944
1,Acaiaca/MG,-20.3621646,-43.1444162,17,425.63846
D1,Acaiaca/MG,-20.3621646,-43.1444162,1,25.03756
1,Acajutiba/BA,-11.6609659,-38.0186381,84,554.12626
D1,Acajutiba/BA,-11.6609659,-38.0186381,3,19.79022
1,Acarape/CE,-4.2237866,-38.7071663,1334,8935.62864
D1,Acarape/CE,-4.2237866,-38.7071663,14,93.77721
1,Acaraú/CE,-2.8869514,-40.1194713,2609,4165.00375
D1,Acaraú/CE,-2.8869514,-40.1194713,56,89.39832
1,Acari/RN,-6.4364689,-36.6394777,60,538.79310
D1,Acari/RN,-6.4364689,-36.6394777,3,26.93966
1,Acará/PA,-1.961388,-48.1987043,711,1278.98401
D1,Acará/PA,-1.961388,-48.1987043,12,21.58623
1,Acauã/PI,-8.219542,-41.083059,24,338.79164
1,Acopiara/CE,-6.0936464,-39.4543204,548,1009.76598
D1,Acopiara/CE,-6.0936464,-39.4543204,30,55.27916
1,Acorizal/MT,-15.2001544,-56.3668953,115,2130.02408
D1,Acorizal/MT,-15.2001544,-56.3668953,3,55.56585
1,Acrelândia/AC,-10.0759167,-67.0526898,398,2608.80965
D1,Acrelândia/AC,-10.0759167,-67.0526898,8,52.43838
1,Acreúna/GO,-17.3959899,-50.3749031,279,1247.42913
D1,Acreúna/GO,-17.3959899,-50.3749031,8,35.76858
1,Adamantina/SP,-21.6866517,-51.0762975,216,615.94616
D1,Adamantina/SP,-21.6866517,-51.0762975,7,19.96122
1,Adelândia/GO,-16.4155077,-50.1665834,46,1828.29889
1,Adolfo/SP,-21.2356597,-49.6441918,61,1712.52106
D1,Adolfo/SP,-21.2356597,-49.6441918,3,84.22235
1,Adrianópolis/PR,-24.6557863,-48.9912769,160,2703.15932
D1,Adrianópolis/PR,-24.6557863,-48.9912769,2,33.78949
1,Adustina/BA,-10.5358875,-38.114479,66,387.32394
D1,Adustina/BA,-10.5358875,-38.114479,1,5.86854
1,Afogados da Ingazeira/PE,-7.750429,-37.6356375,301,807.85850
D1,Afogados da Ingazeira/PE,-7.750429,-37.6356375,7,18.78741
1,Afonso Bezerra/RN,-5.4745,-36.57625071327935,97,879.02130
D1,Afonso Bezerra/RN,-5.4745,-36.57625071327935,6,54.37245
1,Afonso Cláudio/ES,-20.077841,-41.12606,618,2020.53227
D1,Afonso Cláudio/ES,-20.077841,-41.12606,15,49.04205
1,Afonso Cunha/MA,-4.1326105,-43.3230026,134,2053.95463
D1,Afonso Cunha/MA,-4.1326105,-43.3230026,2,30.65604
1,Afrânio/PE,-8.5198919,-41.0070197,121,616.24650
D1,Afrânio/PE,-8.5198919,-41.0070197,1,5.09295
1,Afuá/PA,-0.1535664,-50.3879223,1820,4640.72620
D1,Afuá/PA,-0.1535664,-50.3879223,10,25.49850
1,Agrestina/PE,-8.4558021,-35.9442663,512,2057.46434
D1,Agrestina/PE,-8.4558021,-35.9442663,30,120.55455
1,Agricolândia/PI,-5.7967843,-42.6605131,40,778.36155
1,Agrolândia/SC,-27.4122212,-49.8295774,103,948.08542
D1,Agrolândia/SC,-27.4122212,-49.8295774,2,18.40943
1,Agronômica/SC,-27.2660744,-49.7104753,65,1193.09838
D1,Agronômica/SC,-27.2660744,-49.7104753,3,55.06608
1,Aguanil/MG,-20.9424533,-45.3927152,24,534.99777
D1,Aguanil/MG,-20.9424533,-45.3927152,3,66.87472
1,Aguaí/SP,-22.0592036,-46.979384,211,581.18716
D1,Aguaí/SP,-22.0592036,-46.979384,5,13.77221
1,Agudo/RS,-29.6423259,-53.2494005,9,54.67469
1,Agudos do Sul/PR,-25.9890808,-49.3328175,68,725.64294
1,Agudos/SP,-22.471162,-48.987822,395,1061.42849
D1,Agudos/SP,-22.471162,-48.987822,7,18.81013
1,Aguiar/PB,-7.0928404,-38.1727215,24,425.53191
1,Aguiarnópolis/TO,-6.5600452,-47.4721189,356,5287.39046
D1,Aguiarnópolis/TO,-6.5600452,-47.4721189,6,89.11332
1,Aimorés/MG,-19.4917754,-41.0615603,254,1009.25816
D1,Aimorés/MG,-19.4917754,-41.0615603,1,3.97346
1,Aiquara/BA,-14.126918,-39.8887574,140,3148.89789
D1,Aiquara/BA,-14.126918,-39.8887574,3,67.47638
1,Aiuaba/CE,-6.5710836,-40.1212278,19,109.20168
D1,Aiuaba/CE,-6.5710836,-40.1212278,1,5.74746
1,Aiuruoca/MG,-21.9759554,-44.6036637,1,16.65834
1,Ajuricaba/RS,-28.239654,-53.7693013,9,128.13212
1,Alagoa Grande/PB,-7.0415212,-35.6285322,872,3060.07861
D1,Alagoa Grande/PB,-7.0415212,-35.6285322,19,66.67602
1,Alagoa Nova/PB,-7.0653703,-35.76695977336711,274,1314.21171
D1,Alagoa Nova/PB,-7.0653703,-35.76695977336711,7,33.57475
1,Alagoinha do Piauí/PI,-7.0090952,-40.939675,76,993.33420
D1,Alagoinha do Piauí/PI,-7.0090952,-40.939675,1,13.07019
1,Alagoinha/PB,-6.97063215,-35.51490901897793,882,6087.37663
D1,Alagoinha/PB,-6.97063215,-35.51490901897793,7,48.31251
1,Alagoinha/PE,-8.50355635,-36.77701174370496,147,1004.37278
D1,Alagoinha/PE,-8.50355635,-36.77701174370496,3,20.49740
1,Alagoinhas/BA,-12.133526,-38.420772,3129,2064.03863
D1,Alagoinhas/BA,-12.133526,-38.420772,33,21.76838
1,Alambari/SP,-23.550338,-47.897971,50,829.87552
1,Albertina/MG,-20.66164,-43.784039,8,266.04589
1,Alcantil/PB,-7.7425491,-36.0609604,57,1037.87327
1,Alcinópolis/MS,-18.3264121,-53.7094463,8,149.72862
D1,Alcinópolis/MS,-18.3264121,-53.7094463,2,37.43215
1,Alcobaça/BA,-17.5215875,-39.1965474,348,1548.73164
D1,Alcobaça/BA,-17.5215875,-39.1965474,4,17.80151
1,Alcântara/MA,-2.4038956,-44.4154241,40,181.02005
D1,Alcântara/MA,-2.4038956,-44.4154241,6,27.15301
1,Alcântaras/CE,-3.586247,-40.5457641,408,3483.01178
D1,Alcântaras/CE,-3.586247,-40.5457641,3,25.61038
1,Aldeias Altas/MA,-4.6291957,-43.4708622,758,2856.92748
D1,Aldeias Altas/MA,-4.6291957,-43.4708622,4,15.07613
1,Alecrim/RS,-27.6566142,-54.7653195,13,218.48739
1,Alegre/ES,-20.7625787,-41.5318886,293,973.93964
D1,Alegre/ES,-20.7625787,-41.5318886,15,49.86039
1,Alegrete do Piauí/PI,-7.2440138,-40.8602296,49,996.94812
1,Alegrete/RS,-29.790166,-55.794862,393,534.04721
D1,Alegrete/RS,-29.790166,-55.794862,12,16.30678
1,Alegria/RS,-27.8332103,-54.0574959,23,663.97229
1,Alenquer/PA,-1.946229,-54.738355,1197,2107.80257
D1,Alenquer/PA,-1.946229,-54.738355,28,49.30532
1,Alexandria/RN,-6.414779,-38.0135516,45,331.44288
D1,Alexandria/RN,-6.414779,-38.0135516,4,29.46159
1,Alexânia/GO,-16.0834049,-48.5077803,573,2072.10791
D1,Alexânia/GO,-16.0834049,-48.5077803,10,36.16244
1,Alfenas/MG,-21.4297405,-45.9479419,399,498.77494
D1,Alfenas/MG,-21.4297405,-45.9479419,23,28.75144
1,Alfredo Chaves/ES,-20.624970400000002,-40.75006690147988,327,2239.57263
D1,Alfredo Chaves/ES,-20.624970400000002,-40.75006690147988,5,34.24423
1,Alfredo Marcondes/SP,-21.9527,-51.413956,37,888.14210
D1,Alfredo Marcondes/SP,-21.9527,-51.413956,2,48.00768
1,Alfredo Vasconcelos/MG,-21.145833,-43.776389,13,188.21485
D1,Alfredo Vasconcelos/MG,-21.145833,-43.776389,1,14.47807
1,Alfredo Wagner/SC,-27.6961513,-49.3326734,119,1185.73137
1,Algodão de Jandaíra/PB,-6.9040175,-36.0089879,14,545.38372
1,Alhandra/PB,-7.4304246,-34.9106103,611,3119.25669
D1,Alhandra/PB,-7.4304246,-34.9106103,16,81.68266
1,Aliança do Tocantins/TO,-11.3055927,-48.9409096,35,649.35065
1,Aliança/PE,-7.60398,-35.222696,340,885.73959
D1,Aliança/PE,-7.60398,-35.222696,25,65.12791
1,Almadina/BA,-14.70466,-39.6381994,262,4795.02196
D1,Almadina/BA,-14.70466,-39.6381994,3,54.90483
1,Almas/TO,-11.5681309,-47.1702803,51,722.89157
D1,Almas/TO,-11.5681309,-47.1702803,2,28.34869
1,Almeirim/PA,-1.5290377,-52.5788111,226,662.58172
D1,Almeirim/PA,-1.5290377,-52.5788111,18,52.77200
1,Almenara/MG,-16.1740678,-40.6904907,546,1303.22704
D1,Almenara/MG,-16.1740678,-40.6904907,10,23.86863
1,Almino Afonso/RN,-6.1544208,-37.7649018,19,401.26716
1,Almirante Tamandaré do Sul/RS,-28.1141129,-52.9134874,6,305.49898
1,Almirante Tamandaré/PR,-25.3133048,-49.2997838,1124,947.53968
D1,Almirante Tamandaré/PR,-25.3133048,-49.2997838,29,24.44720
1,Aloândia/GO,-17.7277983,-49.4809338,14,701.75439
D1,Aloândia/GO,-17.7277983,-49.4809338,1,50.12531
1,Alpercata/MG,-18.9803616,-41.9827637,155,2087.82328
D1,Alpercata/MG,-18.9803616,-41.9827637,5,67.34914
1,Alpestre/RS,-27.2512339,-53.0349646,31,495.36593
1,Alpinópolis/MG,-20.863611,-46.387777,62,312.29537
D1,Alpinópolis/MG,-20.863611,-46.387777,4,20.14809
1,Alta Floresta D'Oeste/RO,-11.9296917,-61.9961284,415,1808.67291
D1,Alta Floresta D'Oeste/RO,-11.9296917,-61.9961284,4,17.43299
1,Alta Floresta/MT,-9.8715018,-56.0839881,603,1164.49732
D1,Alta Floresta/MT,-9.8715018,-56.0839881,15,28.96759
1,Altair/SP,-20.5238955,-49.0606135,27,649.03846
D1,Altair/SP,-20.5238955,-49.0606135,1,24.03846
1,Altamira do Maranhão/MA,-4.1643006,-45.4674574,251,3088.09055
D1,Altamira do Maranhão/MA,-4.1643006,-45.4674574,5,61.51575
1,Altamira do Paraná/PR,-24.799114,-52.7128633,7,360.45314
1,Altamira/PA,-3.204065,-52.209961,3523,3074.33199
D1,Altamira/PA,-3.204065,-52.209961,102,89.00990
1,Altaneira/CE,-6.9980933,-39.7385742,10,131.82178
1,Alterosa/MG,-21.249166,-46.143055,13,89.86589
D1,Alterosa/MG,-21.249166,-46.143055,1,6.91276
1,Altinho/PE,-8.4904095,-36.0607494,393,1710.77834
D1,Altinho/PE,-8.4904095,-36.0607494,7,30.47188
1,Altinópolis/SP,-21.021364,-47.3712,154,951.55709
D1,Altinópolis/SP,-21.021364,-47.3712,6,37.07365
1,Alto Alegre do Maranhão/MA,-4.2055693,-44.4525287,323,1193.95261
D1,Alto Alegre do Maranhão/MA,-4.2055693,-44.4525287,11,40.66092
1,Alto Alegre do Pindaré/MA,-3.6698186,-45.8462153,1290,4041.48000
D1,Alto Alegre do Pindaré/MA,-3.6698186,-45.8462153,15,46.99395
1,Alto Alegre dos Parecis/RO,-12.1314515,-61.856265,152,1147.94955
D1,Alto Alegre dos Parecis/RO,-12.1314515,-61.856265,4,30.20920
1,Alto Alegre/RR,2.98858,-61.307167,493,3178.59446
D1,Alto Alegre/RR,2.98858,-61.307167,14,90.26435
1,Alto Alegre/RS,-31.780844700000003,-52.81311114489171,1,61.05006
1,Alto Alegre/SP,-21.5820592,-50.1661976,35,853.86680
D1,Alto Alegre/SP,-21.5820592,-50.1661976,1,24.39619
1,Alto Araguaia/MT,-17.3156528,-53.2169365,134,703.63369
D1,Alto Araguaia/MT,-17.3156528,-53.2169365,3,15.75299
1,Alto Bela Vista/SC,-27.4320737,-51.905771,11,567.88849
1,Alto Boa Vista/MT,-11.6723985,-51.3744431,63,923.48285
D1,Alto Boa Vista/MT,-11.6723985,-51.3744431,3,43.97537
1,Alto Caparaó/MG,-20.4405661,-41.8683799,12,205.23345
1,Alto Feliz/RS,-29.3785943,-51.3123751,17,561.42668
1,Alto Garças/MT,-16.9469683,-53.529427,164,1363.25852
D1,Alto Garças/MT,-16.9469683,-53.529427,4,33.25021
1,Alto Horizonte/GO,-14.1954948,-49.3366993,95,1481.13502
D1,Alto Horizonte/GO,-14.1954948,-49.3366993,1,15.59089
1,Alto Jequitibá/MG,-20.423611,-41.966111,47,565.10761
D1,Alto Jequitibá/MG,-20.423611,-41.966111,3,36.07070
1,Alto Longá/PI,-5.2549051,-42.2072388,95,664.14989
D1,Alto Longá/PI,-5.2549051,-42.2072388,2,13.98210
1,Alto Paraguai/MT,-14.513712,-56.4936374,81,713.27932
D1,Alto Paraguai/MT,-14.513712,-56.4936374,1,8.80592
1,Alto Paraná/PR,-23.131247,-52.318893,36,243.73731
1,Alto Paraíso de Goiás/GO,-14.1304779,-47.5100161,84,1101.78384
1,Alto Paraíso/PR,-23.508137,-53.728537,2,72.96607
1,Alto Paraíso/RO,-9.7240103,-63.3188123,235,1096.69591
D1,Alto Paraíso/RO,-9.7240103,-63.3188123,4,18.66716
1,Alto Parnaíba/MA,-9.112506,-45.9310154,151,1349.41912
D1,Alto Parnaíba/MA,-9.112506,-45.9310154,1,8.93655
1,Alto Piquiri/PR,-24.0239021,-53.4417448,73,742.17161
D1,Alto Piquiri/PR,-24.0239021,-53.4417448,4,40.66694
1,Alto Rio Doce/MG,-21.0239537,-43.4133507,59,536.36364
D1,Alto Rio Doce/MG,-21.0239537,-43.4133507,1,9.09091
1,Alto Rio Novo/ES,-19.0577208,-41.0171518,152,1939.76519
D1,Alto Rio Novo/ES,-19.0577208,-41.0171518,8,102.09290
1,Alto Santo/CE,-5.5190371,-38.2719351,284,1656.36300
D1,Alto Santo/CE,-5.5190371,-38.2719351,6,34.99358
1,Alto Taquari/MT,-17.8269099,-53.2831736,96,885.03734
D1,Alto Taquari/MT,-17.8269099,-53.2831736,5,46.09569
1,Alto do Rodrigues/RN,-5.290868,-36.7616726,330,2271.31943
D1,Alto do Rodrigues/RN,-5.290868,-36.7616726,12,82.59343
1,Altos/PI,-5.0393915,-42.4611694,1086,2679.89340
D1,Altos/PI,-5.0393915,-42.4611694,14,34.54743
1,Altônia/PR,-23.8722004,-53.894037,91,412.58614
D1,Altônia/PR,-23.8722004,-53.894037,1,4.53391
1,Alumínio/SP,-23.5203479,-47.2575256,128,687.13764
D1,Alumínio/SP,-23.5203479,-47.2575256,6,32.20958
1,Alvarenga/MG,-19.4175,-41.728334,116,2969.02995
D1,Alvarenga/MG,-19.4175,-41.728334,1,25.59509
1,Alvarães/AM,-3.214786,-64.8143124,1203,7499.53245
D1,Alvarães/AM,-3.214786,-64.8143124,13,81.04233
1,Alvinlândia/SP,-22.4431852,-49.7643596,21,651.76909
1,Alvinópolis/MG,-20.1105199,-43.0601805,37,243.37302
1,Alvorada D'Oeste/RO,-11.346271,-62.284697,95,659.21865
D1,Alvorada D'Oeste/RO,-11.346271,-62.284697,3,20.81743
1,Alvorada de Minas/MG,-18.7318587,-43.3641479,47,1303.38325
D1,Alvorada de Minas/MG,-18.7318587,-43.3641479,1,27.73156
1,Alvorada do Gurguéia/PI,-8.4465288,-43.8655915,40,738.14357
D1,Alvorada do Gurguéia/PI,-8.4465288,-43.8655915,2,36.90718
1,Alvorada do Norte/GO,-14.483911,-46.4959897,135,1558.89145
1,Alvorada do Sul/PR,-22.7807269,-51.2307721,30,263.01946
D1,Alvorada do Sul/PR,-22.7807269,-51.2307721,2,17.53463
1,Alvorada/RS,-29.9981184,-51.0772509,2033,966.69123
D1,Alvorada/RS,-29.9981184,-51.0772509,82,38.99099
1,Alvorada/TO,-12.478465,-49.124926,376,4469.80504
D1,Alvorada/TO,-12.478465,-49.124926,4,47.55112
1,Além Paraíba/MG,-21.8760576,-42.6810473,319,902.09830
D1,Além Paraíba/MG,-21.8760576,-42.6810473,11,31.10684
1,Amajari/RR,3.6523869,-61.4194315,277,2164.73898
D1,Amajari/RR,3.6523869,-61.4194315,6,46.88965
1,Amambai/MS,-23.1082701,-55.2284854,120,304.59945
D1,Amambai/MS,-23.1082701,-55.2284854,3,7.61499
1,Amaporã/PR,-23.094272,-52.786597,24,383.57040
1,Amapá do Maranhão/MA,-1.6762114,-46.0109669,3,43.09107
1,Amapá/AP,2.0529997,-50.7930003,445,4885.27830
D1,Amapá/AP,2.0529997,-50.7930003,4,43.91261
1,Amaraji/PE,-8.373925,-35.4536527,145,635.15704
D1,Amaraji/PE,-8.373925,-35.4536527,22,96.36865
1,Amaral Ferrador/RS,-30.8750633,-52.2542051,2,28.44546
1,Amaralina/GO,-13.9236199,-49.2962411,2,52.46590
1,Amarante do Maranhão/MA,-5.56913,-46.747284,805,1942.80198
D1,Amarante do Maranhão/MA,-5.56913,-46.747284,16,38.61470
1,Amarante/PI,-6.2459374,-42.8476238,204,1159.22264
D1,Amarante/PI,-6.2459374,-42.8476238,5,28.41232
1,Amargosa/BA,-13.03793715,-39.60796443875596,263,706.21090
D1,Amargosa/BA,-13.03793715,-39.60796443875596,8,21.48170
1,Amaturá/AM,-3.3640509,-68.1994689,560,4854.36893
D1,Amaturá/AM,-3.3640509,-68.1994689,8,69.34813
1,Americana/SP,-22.7392463,-47.3306032,3220,1343.92334
D1,Americana/SP,-22.7392463,-47.3306032,98,40.90201
1,Americano do Brasil/GO,-16.2515808,-49.9806104,117,1914.58027
D1,Americano do Brasil/GO,-16.2515808,-49.9806104,2,32.72787
1,Ametista do Sul/RS,-27.3617341,-53.1826575,45,607.36942
1,Amontada/CE,-3.3634586,-39.8284791,753,1732.94670
D1,Amontada/CE,-3.3634586,-39.8284791,16,36.82224
1,Amorinópolis/GO,-16.6211308,-51.0949921,17,543.82598
1,Amparo de São Francisco/SE,-10.1299754,-36.9269099,70,2948.60994
1,Amparo do Serra/MG,-20.5070255,-42.8028462,10,212.17908
1,Amparo/PB,-7.56394725,-37.04652873235175,17,759.60679
1,Amparo/SP,-22.70111,-46.76444,605,838.00817
D1,Amparo/SP,-22.70111,-46.76444,18,24.93247
1,Ampére/PR,-25.9168712,-53.4742414,64,334.16876
D1,Ampére/PR,-25.9168712,-53.4742414,2,10.44277
1,Amélia Rodrigues/BA,-12.4015388,-38.7516971,246,980.00159
D1,Amélia Rodrigues/BA,-12.4015388,-38.7516971,3,11.95124
1,América Dourada/BA,-11.4515262,-41.4357517,90,559.21461
1,Américo Brasiliense/SP,-21.7297099,-48.1052092,344,849.29883
D1,Américo Brasiliense/SP,-21.7297099,-48.1052092,4,9.87557
1,Américo de Campos/SP,-20.298476,-49.735904,188,3149.60630
D1,Américo de Campos/SP,-20.298476,-49.735904,1,16.75322
1,Anadia/AL,-9.6830208,-36.3052699,425,2422.34255
D1,Anadia/AL,-9.6830208,-36.3052699,6,34.19778
1,Anagé/BA,-14.6134669,-41.1376308,77,349.92047
D1,Anagé/BA,-14.6134669,-41.1376308,1,4.54442
1,Anahy/PR,-24.6450861,-53.1337957,23,821.13531
1,Anajatuba/MA,-3.26441,-44.6179916,320,1193.89621
D1,Anajatuba/MA,-3.26441,-44.6179916,8,29.84741
1,Anajás/PA,-0.9878802,-49.9390114,543,1854.69823
D1,Anajás/PA,-0.9878802,-49.9390114,12,40.98781
1,Analândia/SP,-22.128917,-47.661939,31,620.62062
1,Anamã/AM,-3.5797356,-61.4049996,625,4590.86235
1,Ananindeua/PA,-1.374035,-48.4016623,6347,1196.19750
D1,Ananindeua/PA,-1.374035,-48.4016623,348,65.58638
1,Ananás/TO,-6.3663053,-48.080238,129,1350.92680
D1,Ananás/TO,-6.3663053,-48.080238,6,62.83380
1,Anapu/PA,-3.4668292,-51.2057035,668,2395.12370
D1,Anapu/PA,-3.4668292,-51.2057035,16,57.36823
1,Anapurus/MA,-3.6751298,-43.1046001,704,4474.95550
D1,Anapurus/MA,-3.6751298,-43.1046001,6,38.13883
1,Anastácio/MS,-20.4832458,-55.8048448,281,1117.96300
D1,Anastácio/MS,-20.4832458,-55.8048448,8,31.82813
1,Anaurilândia/MS,-22.185169,-52.719056,29,320.97399
1,Anchieta/ES,-20.8057672,-40.6454564,660,2255.40785
D1,Anchieta/ES,-20.8057672,-40.6454564,19,64.92841
1,Anchieta/SC,-26.5350527,-53.3293938,25,443.41965
D1,Anchieta/SC,-26.5350527,-53.3293938,1,17.73679
1,Andaraí/BA,-12.8059674,-41.3322919,27,205.43255
1,Andirá/PR,-23.0494761,-50.2310027,173,863.66132
D1,Andirá/PR,-23.0494761,-50.2310027,2,9.98452
1,Andorinha/BA,-10.3445708,-39.8334411,51,349.43474
D1,Andorinha/BA,-10.3445708,-39.8334411,1,6.85166
1,Andradas/MG,-22.0680484,-46.5688976,153,372.47121
D1,Andradas/MG,-22.0680484,-46.5688976,5,12.17226
1,Andradina/SP,-20.896505,-51.3742765,246,430.39348
D1,Andradina/SP,-20.896505,-51.3742765,5,8.74783
1,Andrelândia/MG,-21.739722,-44.308889,49,400.85079
1,André da Rocha/RS,-28.6309124,-51.5733328,15,1125.28132
1,Angatuba/SP,-23.4938938,-48.4110675,211,836.37228
D1,Angatuba/SP,-23.4938938,-48.4110675,4,15.85540
1,Angelim/PE,-8.8902038,-36.2872987,47,421.52466
D1,Angelim/PE,-8.8902038,-36.2872987,1,8.96861
1,Angelina/SC,-27.5805287,-48.9838759,63,1312.22662
1,Angelândia/MG,-17.7253,-42.2728,12,140.84507
1,Angical do Piauí/PI,-6.0872666,-42.7366138,74,1090.15910
D1,Angical do Piauí/PI,-6.0872666,-42.7366138,2,29.46376
1,Angical/BA,-12.005623,-44.7000236,65,465.04972
1,Angico/TO,-6.3893733,-47.8656722,35,1019.51646
1,Angicos/RN,-5.6666344,-36.6009064,89,759.77463
D1,Angicos/RN,-5.6666344,-36.6009064,4,34.14717
1,Angra dos Reis/RJ,-23.0063966,-44.316326,4287,2103.68771
D1,Angra dos Reis/RJ,-23.0063966,-44.316326,131,64.28344
1,Anguera/BA,-12.1509425,-39.2452469,53,472.32867
1,Angélica/MS,-22.1588196,-53.7728504,61,565.86271
D1,Angélica/MS,-22.1588196,-53.7728504,3,27.82931
1,Anhanguera/GO,-18.3338749,-48.220363,13,1131.41862
D1,Anhanguera/GO,-18.3338749,-48.220363,3,261.09661
1,Anhembi/SP,-22.7891096,-48.1316776,11,163.59310
1,Anhumas/SP,-22.2956478,-51.3873401,23,558.93074
1,Anicuns/GO,-16.4606451,-49.9572265,404,1848.97025
D1,Anicuns/GO,-16.4606451,-49.9572265,3,13.72998
1,Anita Garibaldi/SC,-27.6855032,-51.1293873,142,1990.74723
D1,Anita Garibaldi/SC,-27.6855032,-51.1293873,1,14.01935
1,Anitápolis/SC,-27.9041185,-49.1287395,36,1113.86139
1,Anori/AM,-3.7435254,-61.6605203,724,3445.97811
D1,Anori/AM,-3.7435254,-61.6605203,11,52.35602
1,Anta Gorda/RS,-28.9718745,-52.0069187,37,618.62565
1,Antas/BA,-10.4114649,-38.3308815,116,601.31668
1,Antonina do Norte/CE,-6.7754187,-39.9879345,13,176.79859
1,Antonina/PR,-25.4298854,-48.7125431,213,1122.23393
D1,Antonina/PR,-25.4298854,-48.7125431,4,21.07482
1,Antônio Almeida/PI,-7.2186016,-44.1950248,187,5910.24020
D1,Antônio Almeida/PI,-7.2186016,-44.1950248,1,31.60556
1,Antônio Cardoso/BA,-12.4363122,-39.1200307,41,350.93726
1,Antônio Carlos/MG,-21.318334,-43.746666,23,200.96112
1,Antônio Carlos/SC,-27.5168462,-48.7684715,224,2631.26982
D1,Antônio Carlos/SC,-27.5168462,-48.7684715,11,129.21414
1,Antônio Dias/MG,-19.6525,-42.872778,59,633.18309
D1,Antônio Dias/MG,-19.6525,-42.872778,1,10.73192
1,Antônio Gonçalves/BA,-10.5715409,-40.2748824,139,1178.16579
D1,Antônio Gonçalves/BA,-10.5715409,-40.2748824,1,8.47601
1,Antônio João/MS,-22.1892837,-55.9508227,51,569.45065
1,Antônio Martins/RN,-6.2155812,-37.8890129,4,55.98321
D1,Antônio Martins/RN,-6.2155812,-37.8890129,1,13.99580
1,Antônio Olinto/PR,-25.9849006,-50.1974516,11,147.96879
1,Antônio Prado/RS,-28.8567806,-51.2801355,137,1049.80843
D1,Antônio Prado/RS,-28.8567806,-51.2801355,3,22.98851
1,Anápolis/GO,-16.3332828,-48.9525756,4072,1052.40578
D1,Anápolis/GO,-16.3332828,-48.9525756,129,33.33997
1,Anísio de Abreu/PI,-9.185643,-43.04941,94,951.41700
1,Aparecida d'Oeste/SP,-20.4498109,-50.8808706,28,667.30219
1,Aparecida de Goiânia/GO,-16.8226769,-49.2452546,15342,2653.50350
D1,Aparecida de Goiânia/GO,-16.8226769,-49.2452546,276,47.73608
1,Aparecida do Rio Doce/GO,-18.2980167,-51.1491312,41,1657.23525
D1,Aparecida do Rio Doce/GO,-18.2980167,-51.1491312,2,80.84074
1,Aparecida do Rio Negro/TO,-9.9513491,-47.9773786,21,437.95620
1,Aparecida do Taboado/MS,-20.0840304,-51.1013943,254,986.59934
D1,Aparecida do Taboado/MS,-20.0840304,-51.1013943,6,23.30550
1,Aparecida/PB,-6.7859598, -38.0831353,72,862.58536
D1,Aparecida/PB,-6.7859598, -38.0831353,2,23.96070
1,Aparecida/SP,-22.851552,-45.2340924,187,517.18893
D1,Aparecida/SP,-22.851552,-45.2340924,2,5.53143
1,Aperibé/RJ,-21.6211928,-42.1028167,167,1420.18879
D1,Aperibé/RJ,-21.6211928,-42.1028167,6,51.02475
1,Apiacá/ES,-21.152272,-41.569297,106,1400.81935
D1,Apiacá/ES,-21.152272,-41.569297,2,26.43055
1,Apiacás/MT,-9.5678422,-57.394852,17,167.76868
D1,Apiacás/MT,-9.5678422,-57.394852,1,9.86875
1,Apiaí/SP,-24.5076527,-48.8461582,99,406.17051
D1,Apiaí/SP,-24.5076527,-48.8461582,5,20.51366
1,Apicum-Açu/MA,-1.5279295,-45.082278,197,1142.75770
D1,Apicum-Açu/MA,-1.5279295,-45.082278,3,17.40240
1,Apiúna/SC,-27.0374658,-49.3885037,51,474.72773
D1,Apiúna/SC,-27.0374658,-49.3885037,3,27.92516
1,Apodi/RN,-5.6631109,-37.796927,1393,3886.17659
D1,Apodi/RN,-5.6631109,-37.796927,21,58.58558
1,Aporá/BA,-11.6599747,-38.0794757,123,693.70030
D1,Aporá/BA,-11.6599747,-38.0794757,2,11.27968
1,Aporé/GO,-18.9642193,-51.92804,2,47.64173
D1,Aporé/GO,-18.9642193,-51.92804,1,23.82087
1,Apuarema/BA,-13.8517897,-39.7457126,229,3124.14734
D1,Apuarema/BA,-13.8517897,-39.7457126,1,13.64256
1,Apucarana/PR,-23.5525327,-51.4610764,467,345.93618
D1,Apucarana/PR,-23.5525327,-51.4610764,21,15.55602
1,Apuiarés/CE,-3.9460303,-39.4313298,204,1397.26027
D1,Apuiarés/CE,-3.9460303,-39.4313298,11,75.34247
1,Apuí/AM,-7.1940195,-59.8830192,126,573.43103
1,Aquidabã/SE,-10.2837579,-37.0188687,497,2304.87409
D1,Aquidabã/SE,-10.2837579,-37.0188687,11,51.01331
1,Aquidauana/MS,-20.473969,-55.7821375,1043,2178.77212
D1,Aquidauana/MS,-20.473969,-55.7821375,29,60.57947
1,Aquiraz/CE,-3.9063117,-38.387504,921,1147.36331
D1,Aquiraz/CE,-3.9063117,-38.387504,30,37.37340
1,Arabutã/SC,-27.1587028,-52.1438142,56,1312.39747
1,Aracaju/SE,-10.9162061,-37.0774655,31777,4836.58619
D1,Aracaju/SE,-10.9162061,-37.0774655,640,97.41055
1,Aracati/CE,-4.558259,-37.767894,1431,1919.59435
D1,Aracati/CE,-4.558259,-37.767894,48,64.38891
1,Aracatu/BA,-14.4274236,-41.4604105,25,190.33118
1,Araci/BA,-11.3356065,-38.9573261,855,1572.29813
D1,Araci/BA,-11.3356065,-38.9573261,6,11.03367
1,Aracitaba/MG,-21.3425,-43.378611,2,96.94619
1,Aracoiaba/CE,-4.3702577,-38.8084313,724,2735.27523
D1,Aracoiaba/CE,-4.3702577,-38.8084313,13,49.11406
1,Aracruz/ES,-19.8245218,-40.2735025,2849,2814.66113
D1,Aracruz/ES,-19.8245218,-40.2735025,64,63.22861
1,Aragarças/GO,-15.8957166,-52.2514538,471,2341.18700
D1,Aragarças/GO,-15.8957166,-52.2514538,10,49.70673
1,Aragoiânia/GO,-16.9146388,-49.4499148,147,1426.07683
D1,Aragoiânia/GO,-16.9146388,-49.4499148,2,19.40241
1,Aragominas/TO,-7.1654101,-48.525488,88,1528.30844
D1,Aragominas/TO,-7.1654101,-48.525488,2,34.73428
1,Araguacema/TO,-8.8067391,-49.5560969,13,183.46034
1,Araguaiana/MT,-15.729144,-51.834112,22,709.67742
1,Araguainha/MT,-16.857016,-53.031778,2,213.90374
1,Araguanã/MA,-2.9508403,-45.6651986,480,3111.62972
D1,Araguanã/MA,-2.9508403,-45.6651986,2,12.96512
1,Araguanã/TO,-6.5799107,-48.6428482,71,1239.30878
D1,Araguanã/TO,-6.5799107,-48.6428482,5,87.27527
1,Araguapaz/GO,-15.0937927,-50.626417,98,1261.26126
D1,Araguapaz/GO,-15.0937927,-50.626417,2,25.74003
1,Araguari/MG,-18.6511256,-48.1933764,1910,1628.76171
D1,Araguari/MG,-18.6511256,-48.1933764,53,45.19601
1,Araguatins/TO,-5.6522925,-48.1158973,553,1546.37734
D1,Araguatins/TO,-5.6522925,-48.1158973,21,58.72319
1,Araguaçu/TO,-12.928934,-49.823134,317,3721.96783
D1,Araguaçu/TO,-12.928934,-49.823134,6,70.44734
1,Araguaína/TO,-7.193241,-48.2018597,9673,5359.89361
D1,Araguaína/TO,-7.193241,-48.2018597,125,69.26359
1,Araioses/MA,-2.890914,-41.904993,538,1158.48407
D1,Araioses/MA,-2.890914,-41.904993,10,21.53316
1,Aral Moreira/MS,-22.951141,-55.6268421,31,255.16503
D1,Aral Moreira/MS,-22.951141,-55.6268421,1,8.23113
1,Aramari/BA,-12.0907897,-38.4985065,102,894.97236
1,Arambaré/RS,-30.9132252,-51.4994625,12,335.10193
D1,Arambaré/RS,-30.9132252,-51.4994625,1,27.92516
1,Arame/MA,-4.8858769,-46.0102484,715,2186.47748
D1,Arame/MA,-4.8858769,-46.0102484,7,21.40607
1,Aramina/SP,-20.0876144,-47.789201,58,1032.02847
D1,Aramina/SP,-20.0876144,-47.789201,1,17.79359
1,Arandu/SP,-23.1345103,-49.0545651,26,408.99796
D1,Arandu/SP,-23.1345103,-49.0545651,2,31.46138
1,Arantina/MG,-21.911667,-44.255833,8,286.22540
D1,Arantina/MG,-21.911667,-44.255833,1,35.77818
1,Arapeí/SP,-22.6738889,-44.4477778,3,121.50668
D1,Arapeí/SP,-22.6738889,-44.4477778,1,40.50223
1,Arapiraca/AL,-9.754866,-36.661471,9895,4269.74243
D1,Arapiraca/AL,-9.754866,-36.661471,123,53.07512
1,Arapoema/TO,-7.6575001,-49.0641484,40,602.13759
D1,Arapoema/TO,-7.6575001,-49.0641484,2,30.10688
1,Araponga/MG,-20.666667,-42.520556,1,11.84975
1,Arapongas/PR,-23.415296,-51.42592,1700,1381.81050
D1,Arapongas/PR,-23.415296,-51.42592,63,51.20827
1,Araporã/MG,-18.4318188,-49.188313,266,3872.47052
D1,Araporã/MG,-18.4318188,-49.188313,3,43.67448
1,Arapoti/PR,-24.1457957,-49.8224605,156,554.86395
D1,Arapoti/PR,-24.1457957,-49.8224605,1,3.55682
1,Araputanga/MT,-15.4710868,-58.346796,293,1741.76673
D1,Araputanga/MT,-15.4710868,-58.346796,4,23.77839
1,Arapuá/MG,-19.034444,-46.155556,17,599.85886
1,Arapuã/PR,-24.3079525,-51.7901941,27,880.05215
D1,Arapuã/PR,-24.3079525,-51.7901941,1,32.59452
1,Araquari/SC,-26.3703324,-48.7210994,566,1484.43442
D1,Araquari/SC,-26.3703324,-48.7210994,7,18.35873
1,Arara/PB,-6.8271895,-35.7605703,198,1469.93318
D1,Arara/PB,-6.8271895,-35.7605703,6,44.54343
1,Araranguá/SC,-28.9348832,-49.4858389,1298,1902.44474
D1,Araranguá/SC,-28.9348832,-49.4858389,28,41.03887
1,Araraquara/SP,-21.7886713,-48.1773096,2790,1181.84283
D1,Araraquara/SP,-21.7886713,-48.1773096,21,8.89559
1,Araras/SP,-22.3569477,-47.3838889,2050,1527.16112
D1,Araras/SP,-22.3569477,-47.3838889,47,35.01296
1,Ararendá/CE,-4.7504395,-40.8303611,42,384.08779
D1,Ararendá/CE,-4.7504395,-40.8303611,2,18.28989
1,Arari/MA,-3.4547602,-44.7772723,195,653.31010
D1,Arari/MA,-3.4547602,-44.7772723,7,23.45216
1,Araricá/RS,-29.6168543,-50.929121,47,824.85082
D1,Araricá/RS,-29.6168543,-50.929121,4,70.20007
1,Araripe/CE,-7.212861,-40.1359222,190,879.62963
D1,Araripe/CE,-7.212861,-40.1359222,2,9.25926
1,Araripina/PE,-7.5768582,-40.5038509,1073,1271.05594
D1,Araripina/PE,-7.5768582,-40.5038509,27,31.98370
1,Araruama/RJ,-22.8733203,-42.3428897,855,645.77039
D1,Araruama/RJ,-22.8733203,-42.3428897,48,36.25378
1,Araruna/PB,-6.5321155,-35.7397595,228,1122.48917
D1,Araruna/PB,-6.5321155,-35.7397595,7,34.46239
1,Araruna/PR,-23.9320308,-52.4976047,115,823.19256
D1,Araruna/PR,-23.9320308,-52.4976047,7,50.10737
1,Arataca/BA,-15.2617424,-39.4122943,136,1234.23178
D1,Arataca/BA,-15.2617424,-39.4122943,1,9.07523
1,Aratiba/RS,-27.3955734,-52.3024325,31,497.19326
D1,Aratiba/RS,-27.3955734,-52.3024325,1,16.03849
1,Aratuba/CE,-4.4195958,-39.0463737,197,1662.86824
D1,Aratuba/CE,-4.4195958,-39.0463737,1,8.44096
1,Aratuípe/BA,-13.077137,-39.0010786,60,679.88669
D1,Aratuípe/BA,-13.077137,-39.0010786,4,45.32578
1,Araucária/PR,-25.5861107,-49.4051209,2247,1562.11981
D1,Araucária/PR,-25.5861107,-49.4051209,37,25.72249
1,Arauá/SE,-11.2644014,-37.6181058,292,2903.73906
D1,Arauá/SE,-11.2644014,-37.6181058,7,69.61018
1,Araxá/MG,-19.5928536,-46.940241,679,639.18516
D1,Araxá/MG,-19.5928536,-46.940241,14,13.17908
1,Araçagi/PB,-6.8519969,-35.3835602,484,2849.23765
D1,Araçagi/PB,-6.8519969,-35.3835602,4,23.54742
1,Araçariguama/SP,-23.438611,-47.061389,244,1091.03917
D1,Araçariguama/SP,-23.438611,-47.061389,5,22.35736
1,Araças/BA,-12.2139176,-38.2026159,83,681.61288
D1,Araças/BA,-12.2139176,-38.2026159,1,8.21220
1,Araçatuba/SP,-21.207992,-50.4390225,4872,2472.89560
D1,Araçatuba/SP,-21.207992,-50.4390225,106,53.80274
1,Araçaí/MG,-19.200833,-44.2475,4,170.43034
1,Araçoiaba da Serra/SP,-23.5045367,-47.6168158,500,1464.30036
D1,Araçoiaba da Serra/SP,-23.5045367,-47.6168158,10,29.28601
1,Araçoiaba/PE,-7.7856903,-35.0898881,101,492.10680
D1,Araçoiaba/PE,-7.7856903,-35.0898881,12,58.46813
1,Araçu/GO,-16.3561579,-49.6815269,23,653.03805
1,Araçuaí/MG,-16.8484451,-42.0661868,32,87.17446
1,Araújos/MG,-19.948055,-45.165556,21,226.46393
1,Arceburgo/MG,-21.364444,-46.939722,29,269.21649
1,Arco-Íris/SP,-21.7741308,-50.4668814,7,390.84310
1,Arcos/MG,-20.282223,-45.539444,215,536.26659
D1,Arcos/MG,-20.282223,-45.539444,3,7.48279
1,Arcoverde/PE,-8.415192,-37.057748,784,1054.64231
D1,Arcoverde/PE,-8.415192,-37.057748,32,43.04662
1,Areado/MG,-21.3582771,-46.1476688,3,19.90710
1,Areal/RJ,-22.2314922,-43.1056264,140,1113.58575
D1,Areal/RJ,-22.2314922,-43.1056264,4,31.81674
1,Arealva/SP,-22.0301906,-48.9111936,83,969.62617
D1,Arealva/SP,-22.0301906,-48.9111936,1,11.68224
1,Areia Branca/RN,-4.9506652,-37.1263312,735,2646.35990
D1,Areia Branca/RN,-4.9506652,-37.1263312,49,176.42399
1,Areia Branca/SE,-10.7591455,-37.3148072,609,3284.43534
D1,Areia Branca/SE,-10.7591455,-37.3148072,16,86.29058
1,Areia de Baraúnas/PB,-7.1233949,-36.9446216,10,469.92481
1,Areia/PB,-6.9680243,-35.6994783,390,1709.10206
D1,Areia/PB,-6.9680243,-35.6994783,3,13.14694
1,Areial/PB,-7.0501306,-35.9245244,48,685.91026
D1,Areial/PB,-7.0501306,-35.9245244,2,28.57959
1,Areias/SP,-22.5800929,-44.6975127,38,977.86927
1,Areiópolis/SP,-22.6758064,-48.6673653,57,512.17540
D1,Areiópolis/SP,-22.6758064,-48.6673653,3,26.95660
1,Arenápolis/MT,-14.4610369,-56.8432806,187,1946.49735
D1,Arenápolis/MT,-14.4610369,-56.8432806,3,31.22723
1,Arenópolis/GO,-16.3859286,-51.55937,21,803.98162
1,Argirita/MG,-21.612761,-42.8371922,5,183.35167
D1,Argirita/MG,-21.612761,-42.8371922,1,36.67033
1,Aricanduva/MG,-17.8678,-42.5569,1,19.11680
1,Arinos/MG,-15.917223,-46.106111,52,290.90909
D1,Arinos/MG,-15.917223,-46.106111,1,5.59441
1,Aripuanã/MT,-10.175806,-59.4439663,207,926.00877
D1,Aripuanã/MT,-10.175806,-59.4439663,7,31.31431
1,Ariquemes/RO,-9.9076522,-63.033069,3786,3510.00807
D1,Ariquemes/RO,-9.9076522,-63.033069,61,56.55322
1,Ariranha do Ivaí/PR,-24.3834527,-51.5876772,15,711.57495
D1,Ariranha do Ivaí/PR,-24.3834527,-51.5876772,1,47.43833
1,Ariranha/SP,-21.18716,-48.790418,90,930.90608
D1,Ariranha/SP,-21.18716,-48.790418,3,31.03020
1,Armazém/SC,-28.2624996,-49.0190126,172,1982.93751
D1,Armazém/SC,-28.2624996,-49.0190126,4,46.11483
1,Armação dos Búzios/RJ,-22.7597805,-41.8875267,341,1006.79067
D1,Armação dos Búzios/RJ,-22.7597805,-41.8875267,11,32.47712
1,Arneiroz/CE,-6.3235099,-40.1603859,41,522.95918
D1,Arneiroz/CE,-6.3235099,-40.1603859,2,25.51020
1,Aroazes/PI,-6.1108814,-41.7886137,41,702.65638
D1,Aroazes/PI,-6.1108814,-41.7886137,2,34.27592
1,Aroeiras do Itaim/PI,-7.2797031,-41.5629681,24,940.80753
1,Aroeiras/PB,-7.5462904,-35.7080002,203,1059.88618
1,Arraial do Cabo/RJ,-22.9662839,-42.024427,143,471.18521
D1,Arraial do Cabo/RJ,-22.9662839,-42.024427,6,19.77001
1,Arraias/TO,-12.9287788,-46.9437231,38,359.61011
1,Arroio Grande/RS,-32.2384246,-53.0866661,29,158.53059
1,Arroio Trinta/SC,-26.9301976,-51.334928,48,1352.11268
1,Arroio do Meio/RS,-29.4020392,-51.9444993,310,1490.02644
1,Arroio do Sal/RS,-29.549852,-49.8874395,58,576.25435
D1,Arroio do Sal/RS,-29.549852,-49.8874395,3,29.80626
1,Arroio do Tigre/RS,-29.334158,-53.0888935,17,127.12181
1,Arroio dos Ratos/RS,-30.0894524,-51.7265541,73,515.86460
D1,Arroio dos Ratos/RS,-30.0894524,-51.7265541,7,49.46647
1,Artur Nogueira/SP,-22.572737,-47.172679,517,950.22791
D1,Artur Nogueira/SP,-22.572737,-47.172679,7,12.86576
1,Aruanã/GO,-14.9162439,-51.0715692,45,455.69620
1,Arujá/SP,-23.396266,-46.3175449,1405,1564.16993
D1,Arujá/SP,-23.396266,-46.3175449,66,73.47702
1,Arvoredo/SC,-27.0752908,-52.4571847,35,1562.50000
D1,Arvoredo/SC,-27.0752908,-52.4571847,1,44.64286
1,Arvorezinha/RS,-28.87369,-52.17808,29,278.20414
D1,Arvorezinha/RS,-28.87369,-52.17808,3,28.77974
1,Arês/RN,-6.1969216,-35.1642968,205,1432.96519
D1,Arês/RN,-6.1969216,-35.1642968,8,55.92059
1,Ascurra/SC,-26.9569975,-49.3767752,92,1159.56642
D1,Ascurra/SC,-26.9569975,-49.3767752,2,25.20797
1,Aspásia/SP,-20.160028,-50.728046,28,1536.77278
1,Assaré/CE,-6.8746791,-39.8741385,273,1165.81970
D1,Assaré/CE,-6.8746791,-39.8741385,7,29.89281
1,Assaí/PR,-23.3736041,-50.8454929,177,1170.71235
D1,Assaí/PR,-23.3736041,-50.8454929,7,46.29936
1,Assis Brasil/AC,-10.9409203,-69.5672108,440,5932.31765
D1,Assis Brasil/AC,-10.9409203,-69.5672108,9,121.34286
1,Assis Chateaubriand/PR,-24.4054826,-53.5120468,332,995.14418
D1,Assis Chateaubriand/PR,-24.4054826,-53.5120468,4,11.98969
1,Assis/SP,-22.6620892,-50.420623,828,793.20982
D1,Assis/SP,-22.6620892,-50.420623,18,17.24369
1,Assunção do Piauí/PI,-5.8610212,-41.0485091,114,1452.96967
D1,Assunção do Piauí/PI,-5.8610212,-41.0485091,1,12.74535
1,Assunção/PB,-7.073396,-36.7274003,45,1127.81955
1,Astolfo Dutra/MG,-21.3132636,-42.8624102,91,641.79420
D1,Astolfo Dutra/MG,-21.3132636,-42.8624102,2,14.10537
1,Astorga/PR,-23.2350184,-51.6647074,254,972.77010
D1,Astorga/PR,-23.2350184,-51.6647074,4,15.31921
1,Atalaia do Norte/AM,-4.3658547,-70.1908742,839,4211.63596
D1,Atalaia do Norte/AM,-4.3658547,-70.1908742,4,20.07931
1,Atalaia/AL,-9.5029595,-36.0219316,540,1144.43149
D1,Atalaia/AL,-9.5029595,-36.0219316,17,36.02840
1,Atalaia/PR,-23.1513833,-52.0529697,58,1490.23638
D1,Atalaia/PR,-23.1513833,-52.0529697,1,25.69373
1,Atalanta/SC,-27.421916,-49.778863,13,404.98442
1,Ataléia/MG,-18.04432,-41.1110524,82,637.23966
D1,Ataléia/MG,-18.04432,-41.1110524,3,23.31365
1,Atibaia/SP,-23.1177393,-46.5547861,1045,731.99263
D1,Atibaia/SP,-23.1177393,-46.5547861,39,27.31839
1,Atilio Vivacqua/ES,-20.9139369,-41.1947519,271,2270.44236
D1,Atilio Vivacqua/ES,-20.9139369,-41.1947519,5,41.89008
1,Augustinópolis/TO,-5.4662267,-47.8897519,500,2715.62025
D1,Augustinópolis/TO,-5.4662267,-47.8897519,5,27.15620
1,Augusto Corrêa/PA,-1.0229335,-46.6404029,1181,2567.50293
D1,Augusto Corrêa/PA,-1.0229335,-46.6404029,20,43.48015
1,Augusto Pestana/RS,-28.5148413,-53.9906433,2,30.02552
1,Augusto de Lima/MG,-18.1092963,-44.2651945,31,636.68104
1,Aurelino Leal/BA,-14.3167137,-39.3256107,339,2939.90114
D1,Aurelino Leal/BA,-14.3167137,-39.3256107,4,34.68910
1,Auriflama/SP,-20.6840418,-50.5554616,274,1803.93706
D1,Auriflama/SP,-20.6840418,-50.5554616,8,52.66970
1,Aurilândia/GO,-16.6772599,-50.4641231,35,1121.79487
1,Aurora do Pará/PA,-2.1323199,-47.558436,603,1924.18150
D1,Aurora do Pará/PA,-2.1323199,-47.558436,7,22.33710
1,Aurora do Tocantins/TO,-12.71045,-46.407604,15,399.25472
1,Aurora/CE,-6.9426019,-38.9693765,188,762.55374
D1,Aurora/CE,-6.9426019,-38.9693765,11,44.61751
1,Aurora/SC,-27.3166417,-49.6368502,51,898.04543
1,Autazes/AM,-3.5833283,-59.1301518,1203,3040.56616
D1,Autazes/AM,-3.5833283,-59.1301518,36,90.98951
1,Avanhandava/SP,-21.4603331,-49.9465156,89,652.06242
D1,Avanhandava/SP,-21.4603331,-49.9465156,2,14.65309
1,Avaré/SP,-23.1045215,-48.9259103,374,412.55309
D1,Avaré/SP,-23.1045215,-48.9259103,13,14.34008
1,Avaí/SP,-22.1564662,-49.3316395,36,666.29650
D1,Avaí/SP,-22.1564662,-49.3316395,1,18.50824
1,Aveiro/PA,-3.6049239,-55.3310742,378,2306.56578
D1,Aveiro/PA,-3.6049239,-55.3310742,4,24.40810
1,Avelino Lopes/PI,-10.1346855,-43.9489525,18,159.44725
D1,Avelino Lopes/PI,-10.1346855,-43.9489525,1,8.85818
1,Avelinópolis/GO,-16.4672409,-49.7578661,54,2234.17460
D1,Avelinópolis/GO,-16.4672409,-49.7578661,1,41.37360
1,Axixá do Tocantins/TO,-5.612747,-47.77007,148,1517.01517
D1,Axixá do Tocantins/TO,-5.612747,-47.77007,3,30.75031
1,Axixá/MA,-2.8379465,-44.0561053,123,1014.01484
D1,Axixá/MA,-2.8379465,-44.0561053,3,24.73207
1,Açailândia/MA,-4.9514278,-47.4844564,2944,2618.16888
D1,Açailândia/MA,-4.9514278,-47.4844564,77,68.47792
1,Açu/RN,-5.5836157,-36.9139541,1127,1942.53408
D1,Açu/RN,-5.5836157,-36.9139541,47,81.01074
1,Açucena/MG,-19.073056,-42.546666,47,496.30412
D1,Açucena/MG,-19.073056,-42.546666,2,21.11932
1,Babaçulândia/TO,-7.2034355,-47.761613,108,1012.75319
D1,Babaçulândia/TO,-7.2034355,-47.761613,1,9.37734
1,Bacabal/MA,-4.2318132,-44.781167,3105,2958.57988
D1,Bacabal/MA,-4.2318132,-44.781167,47,44.78366
1,Bacabeira/MA,-2.9775747,-44.3155943,144,844.32718
D1,Bacabeira/MA,-2.9775747,-44.3155943,2,11.72677
1,Bacuri/MA,-1.728894,-45.1417148,408,2195.67323
D1,Bacuri/MA,-1.728894,-45.1417148,3,16.14466
1,Bacurituba/MA,-2.7082587,-44.7381309,39,690.99929
1,Bady Bassitt/SP,-20.9178969,-49.4517911,548,3131.07073
D1,Bady Bassitt/SP,-20.9178969,-49.4517911,14,79.99086
1,Baependi/MG,-21.959162,-44.8899249,58,302.90370
D1,Baependi/MG,-21.959162,-44.8899249,1,5.22248
1,Bagre/PA,-1.8994498,-50.2103844,307,1000.88025
D1,Bagre/PA,-1.8994498,-50.2103844,10,32.60196
1,Bagé/RS,-31.3314264,-54.1062808,534,440.80137
D1,Bagé/RS,-31.3314264,-54.1062808,8,6.60377
1,Baianópolis/BA,-12.3067564,-44.5383591,56,403.54543
1,Baixa Grande do Ribeiro/PI,-7.862861,-45.2113289,615,5308.13050
D1,Baixa Grande do Ribeiro/PI,-7.862861,-45.2113289,8,69.04885
1,Baixa Grande/BA,-11.9630941,-40.1657537,21,102.59918
D1,Baixa Grande/BA,-11.9630941,-40.1657537,2,9.77135
1,Baixio/CE,-6.7303544,-38.7170095,68,1081.42494
D1,Baixio/CE,-6.7303544,-38.7170095,1,15.90331
1,Baixo Guandu/ES,-19.5138322,-41.0182089,596,1922.70469
D1,Baixo Guandu/ES,-19.5138322,-41.0182089,15,48.39022
1,Baião/PA,-2.7903479,-49.6702845,301,634.40543
D1,Baião/PA,-2.7903479,-49.6702845,14,29.50723
1,Balbinos/SP,-21.9006253,-49.3583966,80,1394.94333
D1,Balbinos/SP,-21.9006253,-49.3583966,1,17.43679
1,Baldim/MG,-19.2913568,-43.9558262,19,242.78048
D1,Baldim/MG,-19.2913568,-43.9558262,1,12.77792
1,Baliza/GO,-16.1978119,-52.542789,12,233.55391
1,Balneário Arroio do Silva/SC,-28.9815269,-49.4189932,284,2172.74883
D1,Balneário Arroio do Silva/SC,-28.9815269,-49.4189932,5,38.25262
1,Balneário Barra do Sul/SC,-26.459842,-48.6061471,369,3418.24919
D1,Balneário Barra do Sul/SC,-26.459842,-48.6061471,2,18.52710
1,Balneário Camboriú/SC,-26.9924395,-48.6339782,5273,3705.68186
D1,Balneário Camboriú/SC,-26.9924395,-48.6339782,66,46.38252
1,Balneário Gaivota/SC,-29.1553098,-49.5808712,111,1011.02104
D1,Balneário Gaivota/SC,-29.1553098,-49.5808712,4,36.43319
1,Balneário Pinhal/RS,-30.2482978,-50.234585,41,291.44157
D1,Balneário Pinhal/RS,-30.2482978,-50.234585,1,7.10833
1,Balneário Piçarras/SC,-26.7638889,-48.6716667,464,2004.57943
D1,Balneário Piçarras/SC,-26.7638889,-48.6716667,7,30.24150
1,Balneário Rincão/SC,-28.8235718,-49.2241642,162,1269.59248
D1,Balneário Rincão/SC,-28.8235718,-49.2241642,7,54.85893
1,Balsa Nova/PR,-25.5842234,-49.6312741,175,1352.29117
D1,Balsa Nova/PR,-25.5842234,-49.6312741,3,23.18213
1,Balsas/MA,-7.53214,-46.037163,3887,4096.45157
D1,Balsas/MA,-7.53214,-46.037163,24,25.29324
1,Bambuí/MG,-20.0131996,-45.9777034,25,104.91418
1,Banabuiú/CE,-5.3046404,-38.919766,475,2610.32038
D1,Banabuiú/CE,-5.3046404,-38.919766,3,16.48623
1,Bananal/SP,-22.6828195,-44.3221095,116,1059.84468
D1,Bananal/SP,-22.6828195,-44.3221095,1,9.13659
1,Bananeiras/PB,-6.7537682,-35.6338343,242,1135.19092
D1,Bananeiras/PB,-6.7537682,-35.6338343,2,9.38174
1,Bandeira do Sul/MG,-21.728056,-46.385555,12,208.84093
1,Bandeira/MG,-15.884444,-40.559167,198,4129.30136
D1,Bandeira/MG,-15.884444,-40.559167,1,20.85506
1,Bandeirante/SC,-26.7677402,-53.6397596,6,224.04780
1,Bandeirantes do Tocantins/TO,-7.7635698,-48.579148,25,703.63073
D1,Bandeirantes do Tocantins/TO,-7.7635698,-48.579148,1,28.14523
1,Bandeirantes/MS,-19.9179623,-54.3646768,61,898.64467
1,Bandeirantes/PR,-23.107788,-50.370407,338,1077.56559
D1,Bandeirantes/PR,-23.107788,-50.370407,12,38.25677
1,Bannach/PA,-7.3508505,-50.4064531,108,3286.67072
D1,Bannach/PA,-7.3508505,-50.4064531,2,60.86427
1,Banzaê/BA,-10.5827616,-38.6122305,112,846.62484
1,Baraúna/PB,-6.643394,-36.2531932,131,2677.84137
1,Baraúna/RN,-5.0775002,-37.61752,379,1335.72989
D1,Baraúna/RN,-5.0775002,-37.61752,12,42.29224
1,Barbacena/MG,-21.2254524,-43.7735087,565,411.46869
D1,Barbacena/MG,-21.2254524,-43.7735087,9,6.55437
1,Barbalha/CE,-7.3121067,-39.3036427,1014,1668.28450
D1,Barbalha/CE,-7.3121067,-39.3036427,43,70.74579
1,Barbosa Ferraz/PR,-24.0287182,-52.00811,114,985.47718
D1,Barbosa Ferraz/PR,-24.0287182,-52.00811,4,34.57815
1,Barbosa/SP,-21.265661,-49.951816,89,1202.37774
1,Barcarena/PA,-1.5107945,-48.6190679,3664,2938.72313
D1,Barcarena/PA,-1.5107945,-48.6190679,105,84.21559
1,Barcelona/RN,-5.9514918,-35.9260284,31,775.38769
D1,Barcelona/RN,-5.9514918,-35.9260284,2,50.02501
1,Barcelos/AM,-0.9729214,-62.925635,2335,8490.29162
D1,Barcelos/AM,-0.9729214,-62.925635,24,87.26638
1,Bariri/SP,-22.0746355,-48.7394852,420,1191.01633
D1,Bariri/SP,-22.0746355,-48.7394852,10,28.35753
1,Barra Bonita/SC,-26.6526364,-53.4419581,1,59.63029
1,Barra Bonita/SP,-22.490859,-48.558349,424,1173.66993
D1,Barra Bonita/SP,-22.490859,-48.558349,9,24.91281
1,Barra D'Alcântara/PI,-6.5209258,-42.1071089,9,227.79043
1,Barra Funda/RS,-27.9230048,-53.0401045,65,2560.06302
D1,Barra Funda/RS,-27.9230048,-53.0401045,2,78.77117
1,Barra Longa/MG,-20.2833541,-43.0423516,59,1149.87332
1,Barra Mansa/RJ,-22.5394843,-44.1735129,1266,686.50630
D1,Barra Mansa/RJ,-22.5394843,-44.1735129,80,43.38112
1,Barra Velha/SC,-26.6338203,-48.6835001,470,1611.35491
D1,Barra Velha/SC,-26.6338203,-48.6835001,7,23.99890
1,Barra da Estiva/BA,-13.6269662,-41.3278287,7,33.98388
1,Barra de Guabiraba/PE,-8.4173522,-35.6626669,163,1133.12478
D1,Barra de Guabiraba/PE,-8.4173522,-35.6626669,11,76.46854
1,Barra de Santa Rosa/PB,-6.7218007,-36.0564638,69,448.51794
D1,Barra de Santa Rosa/PB,-6.7218007,-36.0564638,1,6.50026
1,Barra de Santana/PB,-7.5230865,-35.9988518,103,1232.20481
D1,Barra de Santana/PB,-7.5230865,-35.9988518,2,23.92631
1,Barra de Santo Antônio/AL,-9.4038098,-35.5117693,122,765.75446
D1,Barra de Santo Antônio/AL,-9.4038098,-35.5117693,9,56.49008
1,Barra de São Francisco/ES,-18.7570902,-40.8916119,433,969.76484
D1,Barra de São Francisco/ES,-18.7570902,-40.8916119,18,40.31355
1,Barra de São Miguel/AL,-9.8261357,-35.8837777,129,1550.10815
D1,Barra de São Miguel/AL,-9.8261357,-35.8837777,5,60.08171
1,Barra de São Miguel/PB,-7.7528088,-36.3170996,48,795.22863
D1,Barra de São Miguel/PB,-7.7528088,-36.3170996,1,16.56726
1,Barra do Bugres/MT,-15.0683712,-57.1853688,361,1032.43150
D1,Barra do Bugres/MT,-15.0683712,-57.1853688,10,28.59921
1,Barra do Chapéu/SP,-24.472203,-49.023784,42,733.75262
D1,Barra do Chapéu/SP,-24.472203,-49.023784,1,17.47030
1,Barra do Choça/BA,-14.8638173,-40.5761637,312,987.24805
D1,Barra do Choça/BA,-14.8638173,-40.5761637,3,9.49277
1,Barra do Corda/MA,-5.496823,-45.248496,2987,3386.16061
D1,Barra do Corda/MA,-5.496823,-45.248496,24,27.20718
1,Barra do Garças/MT,-15.8916033,-52.2615413,1187,1945.51891
D1,Barra do Garças/MT,-15.8916033,-52.2615413,62,101.61935
1,Barra do Guarita/RS,-27.1888016,-53.7147086,53,1631.77340
1,Barra do Jacaré/PR,-23.1151788,-50.1813945,11,395.54117
1,Barra do Mendes/BA,-11.8053298,-42.057037,10,72.12405
1,Barra do Ouro/TO,-7.7113784,-47.6743925,30,653.45241
D1,Barra do Ouro/TO,-7.7113784,-47.6743925,4,87.12699
1,Barra do Piraí/RJ,-22.4703403,-43.8263256,814,810.96698
D1,Barra do Piraí/RJ,-22.4703403,-43.8263256,41,40.84723
1,Barra do Quaraí/RS,-30.208947,-57.5505128,12,284.69751
D1,Barra do Quaraí/RS,-30.208947,-57.5505128,1,23.72479
1,Barra do Ribeiro/RS,-30.2930206,-51.301437,69,511.45208
D1,Barra do Ribeiro/RS,-30.2930206,-51.301437,7,51.88644
1,Barra do Rio Azul/RS,-27.4101581,-52.4117471,4,236.68639
1,Barra do Rocha/BA,-14.2090974,-39.6004395,56,980.04900
1,Barra do Turvo/SP,-24.756421,-48.5056942,75,979.24011
D1,Barra do Turvo/SP,-24.756421,-48.5056942,2,26.11307
1,Barra dos Coqueiros/SE,-10.9075694,-37.0386249,1045,3436.70865
D1,Barra dos Coqueiros/SE,-10.9075694,-37.0386249,17,55.90818
1,Barra/BA,-11.0892702,-43.1420453,120,223.97253
D1,Barra/BA,-11.0892702,-43.1420453,3,5.59931
1,Barracão/PR,-26.252395,-53.6349576,52,506.08273
D1,Barracão/PR,-26.252395,-53.6349576,1,9.73236
1,Barracão/RS,-27.6728964,-51.4582928,31,587.67773
D1,Barracão/RS,-27.6728964,-51.4582928,1,18.95735
1,Barras/PI,-4.2446153,-42.2920241,2049,4353.46110
D1,Barras/PI,-4.2446153,-42.2920241,43,91.36107
1,Barreira/CE,-4.2883361,-38.641094,310,1382.38573
D1,Barreira/CE,-4.2883361,-38.641094,19,84.72687
1,Barreiras do Piauí/PI,-9.9224524,-45.4763776,13,388.29152
1,Barreiras/BA,-12.1440031,-44.9967406,2701,1737.65915
D1,Barreiras/BA,-12.1440031,-44.9967406,41,26.37691
1,Barreirinha/AM,-2.798863,-57.067897,811,2531.13199
D1,Barreirinha/AM,-2.798863,-57.067897,12,37.45201
1,Barreirinhas/MA,-2.7541271,-42.8259693,550,879.60594
D1,Barreirinhas/MA,-2.7541271,-42.8259693,23,36.78352
1,Barreiros/PE,-8.8159644,-35.1831905,291,682.15382
D1,Barreiros/PE,-8.8159644,-35.1831905,40,93.76685
1,Barretos/SP,-20.5531437,-48.5697509,2720,2227.71872
D1,Barretos/SP,-20.5531437,-48.5697509,84,68.79720
1,Barrinha/SP,-21.1898849,-48.1550642,462,1408.02146
D1,Barrinha/SP,-21.1898849,-48.1550642,18,54.85798
1,Barro Alto/BA,-11.7618025,-41.9094904,17,113.85708
1,Barro Alto/GO,-14.9696025,-48.9190985,135,1208.91914
1,Barro Duro/PI,-5.8180139,-42.5106589,227,3228.10011
D1,Barro Duro/PI,-5.8180139,-42.5106589,4,56.88282
1,Barro Preto/BA,-14.8068289,-39.4727588,197,3523.51994
D1,Barro Preto/BA,-14.8068289,-39.4727588,3,53.65766
1,Barro/CE,-7.1713587,-38.7742136,105,462.96296
D1,Barro/CE,-7.1713587,-38.7742136,8,35.27337
1,Barrocas/BA,-11.5165,-39.099282894736845,88,550.75729
1,Barrolândia/TO,-9.837246,-48.7264346,58,1029.82955
D1,Barrolândia/TO,-9.837246,-48.7264346,1,17.75568
1,Barroquinha/CE,-3.0200371,-41.1339229,734,4887.79383
D1,Barroquinha/CE,-3.0200371,-41.1339229,17,113.20503
1,Barros Cassal/RS,-29.094938,-52.5832366,14,125.01116
D1,Barros Cassal/RS,-29.094938,-52.5832366,1,8.92937
1,Barroso/MG,-21.187222,-43.976111,115,552.61893
1,Barueri/SP,-23.5112184,-46.8764612,4889,1783.12216
D1,Barueri/SP,-23.5112184,-46.8764612,304,110.87526
1,Barão de Antonina/SP,-23.6295651,-49.5632104,10,288.26751
1,Barão de Cocais/MG,-19.9452437,-43.4870298,331,1018.93181
D1,Barão de Cocais/MG,-19.9452437,-43.4870298,2,6.15669
1,Barão de Cotegipe/RS,-27.6214694,-52.3765316,87,1313.60411
D1,Barão de Cotegipe/RS,-27.6214694,-52.3765316,3,45.29669
1,Barão de Grajaú/MA,-6.7542591,-43.0263477,16,85.01594
D1,Barão de Grajaú/MA,-6.7542591,-43.0263477,1,5.31350
1,Barão de Melgaço/MT,-16.195776,-55.9668049,82,957.49650
D1,Barão de Melgaço/MT,-16.195776,-55.9668049,4,46.70715
1,Barão de Monte Alto/MG,-21.244722,-42.2375,45,833.79655
D1,Barão de Monte Alto/MG,-21.244722,-42.2375,1,18.52881
1,Barão do Triunfo/RS,-30.3909877,-51.7375349,45,601.04181
D1,Barão do Triunfo/RS,-30.3909877,-51.7375349,1,13.35648
1,Barão/RS,-29.372474,-51.494908,42,680.60282
D1,Barão/RS,-29.372474,-51.494908,2,32.40966
1,Bastos/SP,-21.9222474,-50.7317727,46,219.53897
D1,Bastos/SP,-21.9222474,-50.7317727,1,4.77259
1,Bataguassu/MS,-21.715899,-52.422058,692,3005.55942
D1,Bataguassu/MS,-21.715899,-52.422058,4,17.37318
1,Batalha/AL,-9.6733809,-37.1265481,427,2342.03598
D1,Batalha/AL,-9.6733809,-37.1265481,6,32.90917
1,Batalha/PI,-4.022391,-42.0780926,315,1172.87858
D1,Batalha/PI,-4.022391,-42.0780926,7,26.06397
1,Batatais/SP,-20.892867,-47.592149,241,385.55065
D1,Batatais/SP,-20.892867,-47.592149,16,25.59672
1,Batayporã/MS,-22.2976466,-53.2685608,86,759.11378
D1,Batayporã/MS,-22.2976466,-53.2685608,3,26.48071
1,Baturité/CE,-4.3290203,-38.8821055,529,1479.72028
D1,Baturité/CE,-4.3290203,-38.8821055,28,78.32168
1,Bauru/SP,-22.3218102,-49.0705863,5316,1410.76063
D1,Bauru/SP,-22.3218102,-49.0705863,112,29.72257
1,Bayeux/PB,-7.1301631,-34.936532,1680,1734.10405
D1,Bayeux/PB,-7.1301631,-34.936532,91,93.93064
1,Baía Formosa/RN,-6.3691885,-35.0063741,87,938.41010
D1,Baía Formosa/RN,-6.3691885,-35.0063741,3,32.35897
1,Baía da Traição/PB,-6.691258,-34.9371244,565,6282.66429
D1,Baía da Traição/PB,-6.691258,-34.9371244,5,55.59880
1,Bebedouro/SP,-20.949077,-48.479083,390,503.25178
D1,Bebedouro/SP,-20.949077,-48.479083,21,27.09817
1,Beberibe/CE,-4.1810469,-38.1298101,710,1325.29446
D1,Beberibe/CE,-4.1810469,-38.1298101,28,52.26513
1,Bela Cruz/CE,-3.0529129,-40.167582,1148,3522.44485
D1,Bela Cruz/CE,-3.0529129,-40.167582,19,58.29830
1,Bela Vista da Caroba/PR,-25.8792818,-53.6672545,17,484.19254
1,Bela Vista de Goiás/GO,-16.9692949,-48.9513071,442,1474.56214
D1,Bela Vista de Goiás/GO,-16.9692949,-48.9513071,7,23.35279
1,Bela Vista de Minas/MG,-19.8289721,-43.0973688,28,273.03754
D1,Bela Vista de Minas/MG,-19.8289721,-43.0973688,1,9.75134
1,Bela Vista do Maranhão/MA,-3.7416367,-45.2514192,122,1088.41110
D1,Bela Vista do Maranhão/MA,-3.7416367,-45.2514192,3,26.76421
1,Bela Vista do Paraíso/PR,-22.9948493,-51.1907996,77,500.09742
D1,Bela Vista do Paraíso/PR,-22.9948493,-51.1907996,4,25.97909
1,Bela Vista do Piauí/PI,-7.9716353,-41.8715061,10,249.06600
1,Bela Vista do Toldo/SC,-26.274625,-50.466354,5,78.90169
1,Bela Vista/MS,-22.107327,-56.5317344,17,69.02432
1,Belford Roxo/RJ,-22.7667284,-43.4033603,4498,880.39679
D1,Belford Roxo/RJ,-22.7667284,-43.4033603,233,45.60526
1,Belmiro Braga/MG,-21.9486291,-43.413564,12,349.95626
D1,Belmiro Braga/MG,-21.9486291,-43.413564,2,58.32604
1,Belmonte/BA,-15.8630837,-38.8792845,333,1427.46914
D1,Belmonte/BA,-15.8630837,-38.8792845,2,8.57339
1,Belmonte/SC,-26.8448262,-53.578916,2,73.90983
1,Belo Campo/BA,-15.0338286,-41.2585109,7,40.67166
1,Belo Horizonte/MG,-19.9227318,-43.9450948,28462,1133.00983
D1,Belo Horizonte/MG,-19.9227318,-43.9450948,808,32.16471
1,Belo Jardim/PE,-8.3338293,-36.4176419,824,1077.98375
D1,Belo Jardim/PE,-8.3338293,-36.4176419,29,37.93875
1,Belo Monte/AL,-9.8269944,-37.2787165,61,909.90453
D1,Belo Monte/AL,-9.8269944,-37.2787165,2,29.83294
1,Belo Oriente/MG,-19.2232523,-42.4807033,361,1352.05993
D1,Belo Oriente/MG,-19.2232523,-42.4807033,7,26.21723
1,Belo Vale/MG,-20.407778,-44.024167,61,790.66753
D1,Belo Vale/MG,-20.407778,-44.024167,1,12.96176
1,Belterra/PA,-2.636091,-54.937392,221,1246.33431
D1,Belterra/PA,-2.636091,-54.937392,7,39.47665
1,Belágua/MA,-3.1604031,-43.5085052,201,2691.12331
D1,Belágua/MA,-3.1604031,-43.5085052,1,13.38867
1,Belém de Maria/PE,-8.6242497,-35.8388934,84,695.76741
D1,Belém de Maria/PE,-8.6242497,-35.8388934,1,8.28295
1,Belém do Brejo do Cruz/PB,-6.1880727,-37.5332267,35,476.70934
D1,Belém do Brejo do Cruz/PB,-6.1880727,-37.5332267,1,13.62027
1,Belém do Piauí/PI,-7.3767305,-40.9712156,47,1318.00337
D1,Belém do Piauí/PI,-7.3767305,-40.9712156,1,28.04262
1,Belém do São Francisco/PE,-8.7517707,-38.9625715,64,308.74620
1,Belém/AL,-9.5715351,-36.492841,50,1151.01289
D1,Belém/AL,-9.5715351,-36.492841,1,23.02026
1,Belém/PA,-1.45056,-48.4682453,29262,1960.28123
D1,Belém/PA,-1.45056,-48.4682453,2074,138.93867
1,Belém/PB,-6.6967586,-35.5369626,947,5357.54696
D1,Belém/PB,-6.6967586,-35.5369626,9,50.91650
1,Beneditinos/PI,-5.4565671,-42.3605061,175,1671.92128
D1,Beneditinos/PI,-5.4565671,-42.3605061,6,57.32302
1,Benedito Leite/MA,-7.2173453,-44.5523331,89,1580.25568
1,Benedito Novo/SC,-26.7840657,-49.3629511,90,772.39959
D1,Benedito Novo/SC,-26.7840657,-49.3629511,2,17.16444
1,Benevides/PA,-1.3555577,-48.252235,1326,2113.58528
D1,Benevides/PA,-1.3555577,-48.252235,49,78.10383
1,Benjamin Constant do Sul/RS,-27.5105555,-52.6007689,62,3109.32798
1,Benjamin Constant/AM,-4.3782748,-70.0290603,1534,3568.76977
D1,Benjamin Constant/AM,-4.3782748,-70.0290603,35,81.42565
1,Bento Fernandes/RN,-5.6926846,-35.8207423,24,436.60178
D1,Bento Fernandes/RN,-5.6926846,-35.8207423,1,18.19174
1,Bento Gonçalves/RS,-29.1654014,-51.5197627,2611,2167.63246
D1,Bento Gonçalves/RS,-29.1654014,-51.5197627,95,78.86828
1,Bento de Abreu/SP,-21.2707225,-50.8120444,29,973.15436
1,Bequimão/MA,-2.4495376,-44.7884889,206,968.04511
D1,Bequimão/MA,-2.4495376,-44.7884889,10,46.99248
1,Berilo/MG,-16.9515764,-42.4643732,5,41.90412
1,Bernardino Batista/PB,-6.4532173,-38.5495418,7,199.94287
1,Bernardino de Campos/SP,-23.0140216,-49.4760724,74,663.79620
D1,Bernardino de Campos/SP,-23.0140216,-49.4760724,3,26.91066
1,Bernardo Sayão/TO,-7.8794244,-48.8968905,27,605.51693
D1,Bernardo Sayão/TO,-7.8794244,-48.8968905,1,22.42655
1,Bernardo do Mearim/MA,-4.6315929,-44.7617508,49,810.85554
D1,Bernardo do Mearim/MA,-4.6315929,-44.7617508,3,49.64422
1,Bertioga/SP,-23.848568,-46.139586,1348,2131.25899
D1,Bertioga/SP,-23.848568,-46.139586,34,53.75579
1,Bertolínia/PI,-7.6372159,-43.9540611,84,1526.99509
1,Bertópolis/MG,-17.063333,-40.573889,6,130.32146
1,Beruri/AM,-3.9007135,-61.3717319,713,3623.15158
D1,Beruri/AM,-3.9007135,-61.3717319,8,40.65247
1,Betim/MG,-19.968056,-44.198333,3590,817.13479
D1,Betim/MG,-19.968056,-44.198333,135,30.72791
1,Betânia do Piauí/PI,-8.1460635,-40.7961387,12,193.39243
1,Betânia/PE,-8.2742779,-38.0351767,47,369.52591
D1,Betânia/PE,-8.2742779,-38.0351767,2,15.72451
1,Bezerros/PE,-8.2372132,-35.7558262,768,1263.19945
D1,Bezerros/PE,-8.2372132,-35.7558262,41,67.43643
1,Bias Fortes/MG,-21.605833,-43.756944,13,384.72921
1,Bicas/MG,-21.7213723,-43.0604327,37,255.27805
1,Biguaçu/SC,-27.4961277,-48.6542432,1470,2146.58080
D1,Biguaçu/SC,-27.4961277,-48.6542432,24,35.04622
1,Bilac/SP,-21.403962,-50.47464,63,784.16729
D1,Bilac/SP,-21.403962,-50.47464,2,24.89420
1,Biquinhas/MG,-18.783611,-45.502222,27,1073.55865
1,Birigui/SP,-21.2908491,-50.34144,1447,1170.35216
D1,Birigui/SP,-21.2908491,-50.34144,51,41.24945
1,Biritiba-Mirim/SP,-23.5697765,-46.0407456,246,754.64752
D1,Biritiba-Mirim/SP,-23.5697765,-46.0407456,17,52.15044
1,Biritinga/BA,-11.6227908,-38.8066738,64,400.52569
1,Bituruna/PR,-26.161281,-51.5533319,34,207.45622
1,Blumenau/SC,-26.9195567,-49.0658025,7231,2024.36177
D1,Blumenau/SC,-26.9195567,-49.0658025,99,27.71564
1,Boa Esperança do Iguaçu/PR,-25.6362851,-53.2139114,30,1198.56173
1,Boa Esperança do Sul/SP,-21.9930206,-48.3917372,112,750.51933
D1,Boa Esperança do Sul/SP,-21.9930206,-48.3917372,3,20.10320
1,Boa Esperança/ES,-18.5395472,-40.2904088,307,2041.63064
D1,Boa Esperança/ES,-18.5395472,-40.2904088,12,79.80315
1,Boa Esperança/MG,-21.0901253,-45.5660195,78,194.38283
D1,Boa Esperança/MG,-21.0901253,-45.5660195,7,17.44461
1,Boa Esperança/PR,-24.2411024,-52.7860277,31,755.17661
1,Boa Hora/PI,-4.4094627,-42.1255341,80,1179.76700
1,Boa Nova/BA,-14.365907,-40.2063056,63,498.69390
D1,Boa Nova/BA,-14.365907,-40.2063056,2,15.83155
1,Boa Ventura/PB,-7.4202462,-38.2156782,5,93.17928
1,Boa Viagem/CE,-5.1261877,-39.7300055,374,686.61649
D1,Boa Viagem/CE,-5.1261877,-39.7300055,19,34.88159
1,Boa Vista da Aparecida/PR,-25.4357216,-53.4067721,83,1093.40008
D1,Boa Vista da Aparecida/PR,-25.4357216,-53.4067721,2,26.34699
1,Boa Vista das Missões/RS,-27.6677983,-53.3127622,4,190.65777
1,Boa Vista do Buricá/RS,-27.6687782,-54.1111913,46,685.33969
1,Boa Vista do Cadeado/RS,-28.5783827,-53.8123759,4,161.94332
1,Boa Vista do Gurupi/MA,-1.7981168,-46.3071882,13,139.98062
D1,Boa Vista do Gurupi/MA,-1.7981168,-46.3071882,3,32.30322
1,Boa Vista do Incra/RS,-28.8195551,-53.3866624,10,384.17211
1,Boa Vista do Ramos/AM,-2.9716927,-57.5869819,307,1598.37559
D1,Boa Vista do Ramos/AM,-2.9716927,-57.5869819,2,10.41287
1,Boa Vista do Sul/RS,-29.3510488,-51.6779679,38,1365.43299
D1,Boa Vista do Sul/RS,-29.3510488,-51.6779679,1,35.93245
1,Boa Vista do Tupim/BA,-12.6605988,-40.6083594,26,139.96555
1,Boa Vista/PB,-7.2620711,-36.2415161,87,1233.86754
D1,Boa Vista/PB,-7.2620711,-36.2415161,1,14.18239
1,Boa Vista/RR,2.8208478,-60.6719582,29978,7509.27450
D1,Boa Vista/RR,2.8208478,-60.6719582,444,111.21882
1,Boca da Mata/AL,-9.6452054,-36.2116658,1156,4237.38133
D1,Boca da Mata/AL,-9.6452054,-36.2116658,18,65.97999
1,Boca do Acre/AM,-8.7553487,-67.3930873,1023,2981.81182
D1,Boca do Acre/AM,-8.7553487,-67.3930873,11,32.06249
1,Bocaina de Minas/MG,-22.167778,-44.394722,7,137.52456
1,Bocaina do Sul/SC,-27.745494,-49.942279,10,287.85262
1,Bocaina/PI,-6.9445939,-41.3224599,94,2088.88889
1,Bocaina/SP,-22.1421831,-48.522276,95,770.54100
D1,Bocaina/SP,-22.1421831,-48.522276,3,24.33287
1,Bocaiúva do Sul/PR,-25.206591,-49.114131,147,1135.66131
D1,Bocaiúva do Sul/PR,-25.206591,-49.114131,2,15.45117
1,Bocaiúva/MG,-17.1160208,-43.8122678,135,270.11345
D1,Bocaiúva/MG,-17.1160208,-43.8122678,2,4.00168
1,Bodocó/PE,-7.777592,-39.933797,162,424.68411
D1,Bodocó/PE,-7.777592,-39.933797,6,15.72904
1,Bodoquena/MS,-20.5508775,-56.6769653,6,76.19048
1,Bodó/RN,-5.9866104,-36.4134824,5,224.92128
1,Bofete/SP,-23.1019554,-48.2610535,96,818.41432
D1,Bofete/SP,-23.1019554,-48.2610535,3,25.57545
1,Boituva/SP,-23.2838893,-47.6738231,578,947.58759
D1,Boituva/SP,-23.2838893,-47.6738231,14,22.95195
1,Bom Conselho/PE,-9.169191,-36.685683,500,1029.78127
D1,Bom Conselho/PE,-9.169191,-36.685683,17,35.01256
1,Bom Despacho/MG,-19.7375242,-45.2517288,307,606.65942
D1,Bom Despacho/MG,-19.7375242,-45.2517288,3,5.92827
1,Bom Jardim da Serra/SC,-28.3380324,-49.625588,34,716.84588
1,Bom Jardim de Goiás/GO,-16.2062659,-52.172793,92,1040.60627
D1,Bom Jardim de Goiás/GO,-16.2062659,-52.172793,2,22.62188
1,Bom Jardim de Minas/MG,-21.9476466,-44.1906033,4,61.78560
1,Bom Jardim/MA,-3.54129,-45.606004,790,1897.66995
D1,Bom Jardim/MA,-3.54129,-45.606004,22,52.84650
1,Bom Jardim/PE,-7.7961572,-35.5871696,502,1281.13516
D1,Bom Jardim/PE,-7.7961572,-35.5871696,25,63.80155
1,Bom Jardim/RJ,-22.1515328,-42.4186683,112,408.07404
D1,Bom Jardim/RJ,-22.1515328,-42.4186683,3,10.93055
1,Bom Jesus da Lapa/BA,-13.250571,-43.410754,197,284.89616
1,Bom Jesus da Penha/MG,-21.0165299,-46.5226644,17,403.13019
1,Bom Jesus da Serra/BA,-14.3724084,-40.5047119,73,738.86640
1,Bom Jesus das Selvas/MA,-4.4878075,-46.8526639,1447,4252.38039
D1,Bom Jesus das Selvas/MA,-4.4878075,-46.8526639,10,29.38756
1,Bom Jesus de Goiás/GO,-18.2174587,-49.739721,162,642.44924
D1,Bom Jesus de Goiás/GO,-18.2174587,-49.739721,5,19.82868
1,Bom Jesus do Amparo/MG,-19.7045132,-43.4752911,21,345.22440
1,Bom Jesus do Araguaia/MT,-12.1725897,-51.5074425,53,805.47112
1,Bom Jesus do Galho/MG,-19.8283191,-42.3162256,74,495.48042
D1,Bom Jesus do Galho/MG,-19.8283191,-42.3162256,4,26.78273
1,Bom Jesus do Itabapoana/RJ,-21.1341025,-41.680095,569,1533.85810
D1,Bom Jesus do Itabapoana/RJ,-21.1341025,-41.680095,15,40.43563
1,Bom Jesus do Norte/ES,-21.1254776,-41.6711646,247,2485.90982
D1,Bom Jesus do Norte/ES,-21.1254776,-41.6711646,5,50.32206
1,Bom Jesus do Oeste/SC,-26.6929713,-53.0967453,11,513.53875
1,Bom Jesus do Sul/PR,-26.1922507,-53.6002033,12,338.88732
D1,Bom Jesus do Sul/PR,-26.1922507,-53.6002033,1,28.24061
1,Bom Jesus do Tocantins/PA,-5.0471796,-48.5978362,307,1807.90295
D1,Bom Jesus do Tocantins/PA,-5.0471796,-48.5978362,2,11.77787
1,Bom Jesus do Tocantins/TO,-8.96306,-48.165043,50,1021.65917
1,Bom Jesus dos Perdões/SP,-23.1353864,-46.4648052,167,656.24018
D1,Bom Jesus dos Perdões/SP,-23.1353864,-46.4648052,1,3.92958
1,Bom Jesus/PB,-6.8156725,-38.6551841,8,312.37798
1,Bom Jesus/PI,-9.0711644,-44.3583926,858,3407.60157
D1,Bom Jesus/PI,-9.0711644,-44.3583926,9,35.74407
1,Bom Jesus/RN,-5.9887544,-35.5821149,113,1106.75808
D1,Bom Jesus/RN,-5.9887544,-35.5821149,3,29.38296
1,Bom Jesus/RS,-28.6692723,-50.4346894,85,748.96467
1,Bom Jesus/SC,-26.7350604,-52.3916519,73,2425.24917
1,Bom Lugar/MA,-4.3728019,-45.0366054,188,1153.79894
1,Bom Princípio do Piauí/PI,-3.1912777,-41.6430185,39,692.71758
D1,Bom Princípio do Piauí/PI,-3.1912777,-41.6430185,3,53.28597
1,Bom Princípio/RS,-29.489788,-51.3566782,239,1700.46247
D1,Bom Princípio/RS,-29.489788,-51.3566782,1,7.11491
1,Bom Progresso/RS,-27.5490948,-53.8655601,12,617.91967
1,Bom Repouso/MG,-22.4657069,-46.1485376,30,284.44107
D1,Bom Repouso/MG,-22.4657069,-46.1485376,1,9.48137
1,Bom Retiro do Sul/RS,-29.6000007,-51.9359243,159,1289.74692
D1,Bom Retiro do Sul/RS,-29.6000007,-51.9359243,3,24.33485
1,Bom Retiro/SC,-27.798993,-49.486994,55,551.87638
D1,Bom Retiro/SC,-27.798993,-49.486994,2,20.06823
1,Bom Sucesso de Itararé/SP,-24.3190016,-49.1446207,2,50.58169
1,Bom Sucesso do Sul/PR,-26.0749256,-52.8348629,3,91.91176
1,Bom Sucesso/MG,-21.0323516,-44.7598082,23,130.65955
D1,Bom Sucesso/MG,-21.0323516,-44.7598082,1,5.68085
1,Bom Sucesso/PB,-6.4458948,-37.9297662,20,402.01005
1,Bom Sucesso/PR,-23.7088019,-51.7651297,66,938.56655
D1,Bom Sucesso/PR,-23.7088019,-51.7651297,1,14.22071
1,Bombinhas/SC,-27.1519159,-48.4875691,888,4491.88123
D1,Bombinhas/SC,-27.1519159,-48.4875691,7,35.40897
1,Bonfim do Piauí/PI,-9.1648678,-42.8734415,68,1199.29453
D1,Bonfim do Piauí/PI,-9.1648678,-42.8734415,1,17.63668
1,Bonfim/MG,-20.3266626, -44.2386157,23,334.88643
D1,Bonfim/MG,-20.3266626, -44.2386157,1,14.56028
1,Bonfim/RR,3.3613818,-59.8427241,609,4907.72826
D1,Bonfim/RR,3.3613818,-59.8427241,11,88.64534
1,Bonfinópolis de Minas/MG,-16.5660011,-45.98645,56,1019.47934
1,Bonfinópolis/GO,-16.6172709,-48.9615701,192,1978.15784
D1,Bonfinópolis/GO,-16.6172709,-48.9615701,4,41.21162
1,Boninal/BA,-12.7095183,-41.8299984,7,48.71938
D1,Boninal/BA,-12.7095183,-41.8299984,1,6.95991
1,Bonito de Minas/MG,-15.3191266,-44.7544,4,35.61888
1,Bonito de Santa Fé/PB,-7.3143332,-38.5146677,24,201.39297
D1,Bonito de Santa Fé/PB,-7.3143332,-38.5146677,1,8.39137
1,Bonito/BA,-11.9665473,-41.2649896,34,202.81556
D1,Bonito/BA,-11.9665473,-41.2649896,2,11.93033
1,Bonito/MS,-21.1264766,-56.4902208,226,1028.39461
D1,Bonito/MS,-21.1264766,-56.4902208,1,4.55042
1,Bonito/PA,-1.3605722,-47.3049907,237,1455.23763
D1,Bonito/PA,-1.3605722,-47.3049907,7,42.98170
1,Bonito/PE,-8.4721161,-35.7314591,274,718.51891
D1,Bonito/PE,-8.4721161,-35.7314591,23,60.31363
1,Bonópolis/GO,-13.649331,-49.8329113,12,272.41771
D1,Bonópolis/GO,-13.649331,-49.8329113,1,22.70148
1,Boqueirão do Leão/RS,-29.30332,-52.4296817,7,90.74410
1,Boqueirão do Piauí/PI,-4.4850148,-42.1095161,124,1935.38317
D1,Boqueirão do Piauí/PI,-4.4850148,-42.1095161,1,15.60793
1,Boqueirão/PB,-7.487004,-36.130887,355,1993.93395
D1,Boqueirão/PB,-7.487004,-36.130887,6,33.70029
1,Boquim/SE,-11.1450175,-37.6204228,409,1525.20883
D1,Boquim/SE,-11.1450175,-37.6204228,13,48.47852
1,Boquira/BA,-12.8184859,-42.7270883,23,106.93695
1,Boracéia/SP,-22.195355,-48.7801925,57,1181.83703
D1,Boracéia/SP,-22.195355,-48.7801925,1,20.73398
1,Borba/AM,-4.3934778,-59.5947721,696,1690.92102
D1,Borba/AM,-4.3934778,-59.5947721,22,53.44865
1,Borborema/PB,-6.8066718,-35.5990191,40,760.02280
1,Borborema/SP,-21.6212706,-49.074135,94,585.81578
D1,Borborema/SP,-21.6212706,-49.074135,1,6.23208
1,Borda da Mata/MG,-22.274167,-46.165278,164,844.83824
D1,Borda da Mata/MG,-22.274167,-46.165278,9,46.36307
1,Borebi/SP,-22.5700178,-48.9714871,23,866.94308
D1,Borebi/SP,-22.5700178,-48.9714871,1,37.69318
1,Borrazópolis/PR,-23.9393362,-51.5850786,41,621.96602
1,Borá/SP,-22.2701088,-50.544407,2,238.94863
1,Bossoroca/RS,-28.7278885,-54.9120278,16,254.81765
D1,Bossoroca/RS,-28.7278885,-54.9120278,1,15.92610
1,Botelhos/MG,-21.65,-46.394722,44,293.90154
D1,Botelhos/MG,-21.65,-46.394722,1,6.67958
1,Botucatu/SP,-22.8879628,-48.4410712,1561,1065.55083
D1,Botucatu/SP,-22.8879628,-48.4410712,28,19.11302
1,Botuporã/BA,-13.3744752,-42.5198469,3,29.38008
D1,Botuporã/BA,-13.3744752,-42.5198469,1,9.79336
1,Botuverá/SC,-27.200749,-49.068892,107,2039.64926
1,Bozano/RS,-28.3669953,-53.7705165,4,188.41262
1,Braga/RS,-27.617348,-53.740514,12,357.88846
1,Braganey/PR,-24.8179919,-53.118506,43,792.33462
D1,Braganey/PR,-24.8179919,-53.118506,2,36.85277
1,Bragança Paulista/SP,-22.9520235,-46.5418586,1824,1081.41438
D1,Bragança Paulista/SP,-22.9520235,-46.5418586,39,23.12235
1,Bragança/PA,-1.0573967,-46.7635406,2154,1686.95080
D1,Bragança/PA,-1.0573967,-46.7635406,92,72.05175
1,Branquinha/AL,-9.2478057,-36.0152009,232,2210.78712
D1,Branquinha/AL,-9.2478057,-36.0152009,6,57.17553
1,Brasil Novo/PA,-3.3055853,-52.539198,591,3917.53944
D1,Brasil Novo/PA,-3.3055853,-52.539198,9,59.65796
1,Brasileira/PI,-4.131182,-41.7824969,74,888.46200
D1,Brasileira/PI,-4.131182,-41.7824969,1,12.00624
1,Brasilândia de Minas/MG,-17.0096469,-46.0087183,89,538.15455
D1,Brasilândia de Minas/MG,-17.0096469,-46.0087183,1,6.04668
1,Brasilândia do Sul/PR,-24.1975793,-53.527551,21,792.15390
1,Brasilândia do Tocantins/TO,-8.3886619,-48.4842729,9,408.90504
1,Brasilândia/MS,-21.255575,-52.0365617,76,640.16173
D1,Brasilândia/MS,-21.255575,-52.0365617,2,16.84636
1,Brasiléia/AC,-11.0010413,-68.7487894,1035,3938.65591
D1,Brasiléia/AC,-11.0010413,-68.7487894,15,57.08197
1,Brasnorte/MT,-12.1227151,-58.0050109,76,385.88474
1,Brasília de Minas/MG,-16.2075114,-44.430559,34,105.11021
D1,Brasília de Minas/MG,-16.2075114,-44.430559,2,6.18295
1,Brasília/DF,-15.7934036,-47.8823172,140170,4648.67468
D1,Brasília/DF,-15.7934036,-47.8823172,2100,69.64555
1,Brazabrantes/GO,-16.4291635,-49.3858216,61,1647.31299
D1,Brazabrantes/GO,-16.4291635,-49.3858216,2,54.01026
1,Brazópolis/MG,-22.4742842,-45.6165577,197,1362.47320
D1,Brazópolis/MG,-22.4742842,-45.6165577,1,6.91611
1,Braço do Norte/SC,-28.2728633,-49.1622712,1336,3994.02093
D1,Braço do Norte/SC,-28.2728633,-49.1622712,12,35.87444
1,Braço do Trombudo/SC,-27.358578,-49.882145,27,721.34651
D1,Braço do Trombudo/SC,-27.358578,-49.882145,1,26.71654
1,Braúna/SP,-21.5015319,-50.3175246,66,1160.74569
D1,Braúna/SP,-21.5015319,-50.3175246,4,70.34822
1,Braúnas/MG,-19.055556,-42.716111,13,270.77692
D1,Braúnas/MG,-19.055556,-42.716111,1,20.82899
1,Brejetuba/ES,-20.1465817,-41.2902303,360,2902.28958
1,Brejinho de Nazaré/TO,-11.0205883,-48.5722906,54,982.35401
D1,Brejinho de Nazaré/TO,-11.0205883,-48.5722906,3,54.57522
1,Brejinho/PE,-7.3482153,-37.28538,56,747.96314
1,Brejinho/RN,-6.1957907,-35.3583019,147,1157.57146
D1,Brejinho/RN,-6.1957907,-35.3583019,3,23.62391
1,Brejo Alegre/SP,-21.1671191,-50.1850393,23,802.79232
1,Brejo Grande do Araguaia/PA,-5.7011449,-48.4037308,147,1991.86992
D1,Brejo Grande do Araguaia/PA,-5.7011449,-48.4037308,1,13.55014
1,Brejo Grande/SE,-10.4287358,-36.4667918,153,1841.37682
D1,Brejo Grande/SE,-10.4287358,-36.4667918,6,72.21086
1,Brejo Santo/CE,-7.4909841,-38.9859152,1045,2112.09249
D1,Brejo Santo/CE,-7.4909841,-38.9859152,19,38.40168
1,Brejo da Madre de Deus/PE,-8.1409718,-36.3712527,797,1570.69095
D1,Brejo da Madre de Deus/PE,-8.1409718,-36.3712527,18,35.47357
1,Brejo de Areia/MA,-4.3316785,-45.5833334,179,1948.19330
D1,Brejo de Areia/MA,-4.3316785,-45.5833334,1,10.88376
1,Brejo do Cruz/PB,-6.32926065,-37.48746163303929,363,2570.45744
D1,Brejo do Cruz/PB,-6.32926065,-37.48746163303929,6,42.48690
1,Brejo do Piauí/PI,-8.207583,-42.8359849,8,206.45161
1,Brejo dos Santos/PB,-6.3769367,-37.8243125,26,403.16328
1,Brejo/MA,-3.6804397,-42.7529313,623,1711.67953
D1,Brejo/MA,-3.6804397,-42.7529313,18,49.45463
1,Brejolândia/BA,-12.4843845,-43.9611861,4,37.88955
D1,Brejolândia/BA,-12.4843845,-43.9611861,1,9.47239
1,Brejão/PE,-9.029146,-36.566034,24,266.87424
1,Brejões/BA,-13.1033754,-39.7909837,29,202.86814
1,Breu Branco/PA,-3.7785073,-49.5684795,277,419.40466
D1,Breu Branco/PA,-3.7785073,-49.5684795,19,28.76783
1,Breves/PA,-1.68036,-50.479085,1877,1827.63556
D1,Breves/PA,-1.68036,-50.479085,82,79.84343
1,Britânia/GO,-15.2427599,-51.1602061,25,432.60080
D1,Britânia/GO,-15.2427599,-51.1602061,1,17.30403
1,Brochier/RS,-29.556766,-51.5963047,22,433.58297
1,Brodowski/SP,-20.984532,-47.657217,324,1299.16997
D1,Brodowski/SP,-20.984532,-47.657217,12,48.11741
1,Brotas/SP,-22.2840884,-48.1267265,77,315.53498
D1,Brotas/SP,-22.2840884,-48.1267265,1,4.09786
1,Brumadinho/MG,-20.143611,-44.2,623,1553.49974
D1,Brumadinho/MG,-20.143611,-44.2,5,12.46790
1,Brumado/BA,-14.29507325,-41.659307508575985,662,985.19235
D1,Brumado/BA,-14.29507325,-41.659307508575985,7,10.41744
1,Brunópolis/SC,-27.310953,-50.837585,26,1074.38017
1,Brusque/SC,-27.0964628,-48.9136323,3668,2722.62346
D1,Brusque/SC,-27.0964628,-48.9136323,47,34.88640
1,Brás Pires/MG,-20.8483109,-43.2430524,5,115.39349
1,Bueno Brandão/MG,-22.441976,-46.3517971,35,318.15290
D1,Bueno Brandão/MG,-22.441976,-46.3517971,3,27.27025
1,Buenos Aires/PE,-7.7218931,-35.326587,43,326.87191
D1,Buenos Aires/PE,-7.7218931,-35.326587,5,38.00836
1,Buenópolis/MG,-17.8756607,-44.1749365,87,839.36324
D1,Buenópolis/MG,-17.8756607,-44.1749365,1,9.64785
1,Buerarema/BA,-14.9571177,-39.3008035,369,2011.00877
D1,Buerarema/BA,-14.9571177,-39.3008035,10,54.49888
1,Bugre/MG,-19.4257687,-42.2556,41,1029.63335
D1,Bugre/MG,-19.4257687,-42.2556,1,25.11301
1,Bujari/AC,-9.8309656,-67.9520886,353,3438.53497
D1,Bujari/AC,-9.8309656,-67.9520886,6,58.44535
1,Bujaru/PA,-1.5169239,-48.0410699,457,1568.72168
D1,Bujaru/PA,-1.5169239,-48.0410699,21,72.08568
1,Buri/SP,-23.79849,-48.598924,190,955.83057
D1,Buri/SP,-23.79849,-48.598924,4,20.12275
1,Buritama/SP,-21.0664017,-50.1448077,186,1084.92767
D1,Buritama/SP,-21.0664017,-50.1448077,9,52.49650
1,Buriti Alegre/GO,-18.1377879,-49.0404411,185,1955.80928
1,Buriti Bravo/MA,-5.8391884,-43.8367876,247,1034.16513
1,Buriti de Goiás/GO,-16.180644,-50.4287479,28,1125.40193
D1,Buriti de Goiás/GO,-16.180644,-50.4287479,1,40.19293
1,Buriti do Tocantins/TO,-5.3187439,-48.2256609,173,1524.49771
1,Buriti dos Lopes/PI,-3.1776723,-41.8707444,662,3346.64577
D1,Buriti dos Lopes/PI,-3.1776723,-41.8707444,12,60.66427
1,Buriti dos Montes/PI,-5.3136171,-41.0971256,11,133.43037
D1,Buriti dos Montes/PI,-5.3136171,-41.0971256,1,12.13003
1,Buriti/MA,-3.9430944,-42.9244281,467,1628.42597
D1,Buriti/MA,-3.9430944,-42.9244281,1,3.48699
1,Buriticupu/MA,-4.3227472,-46.4516989,2092,2891.17997
D1,Buriticupu/MA,-4.3227472,-46.4516989,4,5.52807
1,Buritinópolis/GO,-14.4589282,-46.4293104,26,789.79344
1,Buritirama/BA,-10.7148421,-43.6362327,142,670.63380
D1,Buritirama/BA,-10.7148421,-43.6362327,2,9.44555
1,Buritirana/MA,-5.5897455,-47.0148915,235,1523.00713
D1,Buritirana/MA,-5.5897455,-47.0148915,6,38.88529
1,Buritis/MG,-15.621389,-46.423889,168,676.30128
D1,Buritis/MG,-15.621389,-46.423889,1,4.02560
1,Buritis/RO,-10.2054937,-63.8281954,393,991.07278
D1,Buritis/RO,-10.2054937,-63.8281954,6,15.13088
1,Buritizal/SP,-20.1933264,-47.7097165,48,1071.18947
1,Buritizeiro/MG,-17.3667765,-44.9647781,121,431.28030
D1,Buritizeiro/MG,-17.3667765,-44.9647781,4,14.25720
1,Butiá/RS,-30.1256795,-51.9692224,141,673.32028
D1,Butiá/RS,-30.1256795,-51.9692224,6,28.65193
1,Buíque/PE,-8.6239732,-37.157296,253,433.38244
D1,Buíque/PE,-8.6239732,-37.157296,4,6.85190
1,Bálsamo/SP,-20.7343722,-49.5807484,228,2514.33613
D1,Bálsamo/SP,-20.7343722,-49.5807484,8,88.22232
0,CASO SEM LOCALIZAÇÃO DEFINIDA/AL,-9.931093434363673,-35.609611600637464,954,28.58549
D0,CASO SEM LOCALIZAÇÃO DEFINIDA/AL,-9.931093434363673,-35.609611600637464,19,0.56931
0,CASO SEM LOCALIZAÇÃO DEFINIDA/AM,-3.07518492149711,-60.16169212873594,618,14.91098
D0,CASO SEM LOCALIZAÇÃO DEFINIDA/AM,-3.07518492149711,-60.16169212873594,19,0.45843
0,CASO SEM LOCALIZAÇÃO DEFINIDA/AP,2.677150600275196,-50.477785111870624,254,30.03319
D0,CASO SEM LOCALIZAÇÃO DEFINIDA/AP,2.677150600275196,-50.477785111870624,2,0.23648
0,CASO SEM LOCALIZAÇÃO DEFINIDA/BA,-13.415069300066518,-38.14174656569957,7955,53.48595
D0,CASO SEM LOCALIZAÇÃO DEFINIDA/BA,-13.415069300066518,-38.14174656569957,93,0.62529
0,CASO SEM LOCALIZAÇÃO DEFINIDA/CE,-3.3445126297392798,-38.624961942434304,3428,37.53801
D0,CASO SEM LOCALIZAÇÃO DEFINIDA/CE,-3.3445126297392798,-38.624961942434304,30,0.32851
0,CASO SEM LOCALIZAÇÃO DEFINIDA/ES,-20.30989267097039,-39.81745156645774,3211,79.90245
D0,CASO SEM LOCALIZAÇÃO DEFINIDA/ES,-20.30989267097039,-39.81745156645774,79,1.96583
0,CASO SEM LOCALIZAÇÃO DEFINIDA/GO,-16.701590966270153,-49.164524059025034,3070,43.74245
D0,CASO SEM LOCALIZAÇÃO DEFINIDA/GO,-16.701590966270153,-49.164524059025034,86,1.22536
0,CASO SEM LOCALIZAÇÃO DEFINIDA/MA,-2.171256551718846,-43.98946796681719,1777,25.11597
D0,CASO SEM LOCALIZAÇÃO DEFINIDA/MA,-2.171256551718846,-43.98946796681719,12,0.16961
0,CASO SEM LOCALIZAÇÃO DEFINIDA/MG,-19.97049116501593,-43.8852149072783,2622,12.38616
D0,CASO SEM LOCALIZAÇÃO DEFINIDA/MG,-19.97049116501593,-43.8852149072783,126,0.59522
0,CASO SEM LOCALIZAÇÃO DEFINIDA/MS,-20.391549234908513,-54.645156949758444,1851,66.60703
D0,CASO SEM LOCALIZAÇÃO DEFINIDA/MS,-20.391549234908513,-54.645156949758444,59,2.12308
0,CASO SEM LOCALIZAÇÃO DEFINIDA/MT,-15.54791153961863,-56.17143998972475,11478,329.40485
D0,CASO SEM LOCALIZAÇÃO DEFINIDA/MT,-15.54791153961863,-56.17143998972475,270,7.74868
0,CASO SEM LOCALIZAÇÃO DEFINIDA/PA,-0.09317078214359542,-48.0050231510481,2141,24.88706
D0,CASO SEM LOCALIZAÇÃO DEFINIDA/PA,-0.09317078214359542,-48.0050231510481,40,0.46496
0,CASO SEM LOCALIZAÇÃO DEFINIDA/PB,-7.1049355696146606,-34.68696690234351,1274,31.70631
D0,CASO SEM LOCALIZAÇÃO DEFINIDA/PB,-7.1049355696146606,-34.68696690234351,20,0.49774
0,CASO SEM LOCALIZAÇÃO DEFINIDA/PE,-8.121628543819208,-34.57313921302556,854,8.93579
D0,CASO SEM LOCALIZAÇÃO DEFINIDA/PE,-8.121628543819208,-34.57313921302556,104,1.08820
0,CASO SEM LOCALIZAÇÃO DEFINIDA/PI,-2.683810218391744,-41.470898009352254,1249,38.15806
D0,CASO SEM LOCALIZAÇÃO DEFINIDA/PI,-2.683810218391744,-41.470898009352254,16,0.48881
0,CASO SEM LOCALIZAÇÃO DEFINIDA/PR,-25.69415946385943,-48.10141676336737,3053,26.70117
D0,CASO SEM LOCALIZAÇÃO DEFINIDA/PR,-25.69415946385943,-48.10141676336737,77,0.67343
0,CASO SEM LOCALIZAÇÃO DEFINIDA/RJ,-23.210238986465157,-43.12864305824042,4829,27.96997
D0,CASO SEM LOCALIZAÇÃO DEFINIDA/RJ,-23.210238986465157,-43.12864305824042,162,0.93832
0,CASO SEM LOCALIZAÇÃO DEFINIDA/RN,-5.749310788669161,-34.95302586257457,633,18.05037
D0,CASO SEM LOCALIZAÇÃO DEFINIDA/RN,-5.749310788669161,-34.95302586257457,97,2.76601
0,CASO SEM LOCALIZAÇÃO DEFINIDA/RO,-8.681174926655274,-63.9216949899276,691,38.88084
D0,CASO SEM LOCALIZAÇÃO DEFINIDA/RO,-8.681174926655274,-63.9216949899276,9,0.50641
0,CASO SEM LOCALIZAÇÃO DEFINIDA/RR,2.813328208465927,-60.663338675861986,1005,165.90702
D0,CASO SEM LOCALIZAÇÃO DEFINIDA/RR,2.813328208465927,-60.663338675861986,1,0.16508
0,CASO SEM LOCALIZAÇÃO DEFINIDA/SC,-27.675643660562308,-48.18313219398259,6152,85.86437
D0,CASO SEM LOCALIZAÇÃO DEFINIDA/SC,-27.675643660562308,-48.18313219398259,46,0.64203
0,CASO SEM LOCALIZAÇÃO DEFINIDA/SE,-11.03002091978736,-36.89283180376513,386,16.79213
D0,CASO SEM LOCALIZAÇÃO DEFINIDA/SE,-11.03002091978736,-36.89283180376513,12,0.52204
0,CASO SEM LOCALIZAÇÃO DEFINIDA/SP,-24.30968974555485,-46.21366504207253,9006,19.61278
D0,CASO SEM LOCALIZAÇÃO DEFINIDA/SP,-24.30968974555485,-46.21366504207253,416,0.90594
1,Caapiranga/AM,-3.3188884,-61.2096404,272,2079.35173
D1,Caapiranga/AM,-3.3188884,-61.2096404,6,45.86805
1,Caaporã/PB,-7.510234,-34.9154114,921,4219.35129
D1,Caaporã/PB,-7.510234,-34.9154114,12,54.97526
1,Caarapó/MS,-22.6349267,-54.8240903,286,947.83589
D1,Caarapó/MS,-22.6349267,-54.8240903,1,3.31411
1,Caatiba/BA,-14.9782759,-40.4092325,151,2234.38887
1,Cabaceiras do Paraguaçu/BA,-12.5377868,-39.1901339,51,271.17563
D1,Cabaceiras do Paraguaçu/BA,-12.5377868,-39.1901339,1,5.31717
1,Cabaceiras/PB,-7.4899156,-36.2860501,61,1087.15024
1,Cabeceira Grande/MG,-16.0297,-47.0906,18,259.03008
1,Cabeceiras do Piauí/PI,-4.4733665,-42.3098716,174,1643.68033
D1,Cabeceiras do Piauí/PI,-4.4733665,-42.3098716,2,18.89288
1,Cabeceiras/GO,-15.7995459,-46.9264991,24,300.26273
D1,Cabeceiras/GO,-15.7995459,-46.9264991,3,37.53284
1,Cabedelo/PB,-6.97324,-34.8351609,2622,3870.91059
D1,Cabedelo/PB,-6.97324,-34.8351609,57,84.15023
1,Cabixi/RO,-13.4956065,-60.5424442,69,1298.94578
D1,Cabixi/RO,-13.4956065,-60.5424442,4,75.30120
1,Cabo Frio/RJ,-22.8804369,-42.0189227,1776,784.01942
D1,Cabo Frio/RJ,-22.8804369,-42.0189227,94,41.49652
1,Cabo Verde/MG,-21.4743338,-46.3964995,9,63.94316
1,Cabo de Santo Agostinho/PE,-8.2838945,-35.0320984,1606,775.66555
D1,Cabo de Santo Agostinho/PE,-8.2838945,-35.0320984,221,106.73853
1,Cabreúva/SP,-23.3075813,-47.1324417,917,1844.81059
D1,Cabreúva/SP,-23.3075813,-47.1324417,36,72.42441
1,Cabrobó/PE,-8.5083701,-39.3106961,370,1081.20745
D1,Cabrobó/PE,-8.5083701,-39.3106961,2,5.84436
1,Cabrália Paulista/SP,-22.4562909,-49.3385645,56,1313.32083
1,Cacaulândia/RO,-10.3380043,-62.9007231,60,963.08186
1,Cacequi/RS,-29.8838059,-54.8273443,13,103.49494
1,Cachoeira Alta/GO,-18.7618269,-50.9432431,307,2459.14771
D1,Cachoeira Alta/GO,-18.7618269,-50.9432431,1,8.01025
1,Cachoeira Dourada/GO,-18.4934204,-49.481062,25,309.90455
1,Cachoeira Dourada/MG,-18.517136,-49.5002062,4,148.58841
1,Cachoeira Grande/MA,-2.9290492,-44.0573223,171,1813.16934
D1,Cachoeira Grande/MA,-2.9290492,-44.0573223,4,42.41332
1,Cachoeira Paulista/SP,-22.666498,-45.015384,200,600.11402
D1,Cachoeira Paulista/SP,-22.666498,-45.015384,7,21.00399
1,Cachoeira da Prata/MG,-19.524723,-44.453056,24,666.11157
1,Cachoeira de Goiás/GO,-16.6688414,-50.6435997,11,814.21170
1,Cachoeira de Minas/MG,-22.3554043,-45.7796324,45,389.71161
1,Cachoeira de Pajeú/MG,-15.965833,-41.496666,85,903.10242
1,Cachoeira do Arari/PA,-1.0143572,-48.9621089,259,1089.74629
D1,Cachoeira do Arari/PA,-1.0143572,-48.9621089,11,46.28266
1,Cachoeira do Piriá/PA,-1.7599443,-46.5446954,446,1315.63422
D1,Cachoeira do Piriá/PA,-1.7599443,-46.5446954,2,5.89971
1,Cachoeira do Sul/RS,-30.0474778,-52.8905413,322,391.72273
D1,Cachoeira do Sul/RS,-30.0474778,-52.8905413,3,3.64959
1,Cachoeira dos Índios/PB,-6.9259193,-38.6742159,99,966.41937
D1,Cachoeira dos Índios/PB,-6.9259193,-38.6742159,6,58.57087
1,Cachoeira/BA,-12.5998256,-38.9665918,382,1141.32059
D1,Cachoeira/BA,-12.5998256,-38.9665918,7,20.91425
1,Cachoeiras de Macacu/RJ,-22.4626861,-42.6534414,509,863.63405
D1,Cachoeiras de Macacu/RJ,-22.4626861,-42.6534414,26,44.11490
1,Cachoeirinha/PE,-8.4906364,-36.2338963,277,1359.17566
D1,Cachoeirinha/PE,-8.4906364,-36.2338963,18,88.32188
1,Cachoeirinha/RS,-29.9493353,-51.0898927,1710,1312.42661
D1,Cachoeirinha/RS,-29.9493353,-51.0898927,37,28.39753
1,Cachoeirinha/TO,-6.118647,-47.9208885,23,1010.98901
1,Cachoeiro de Itapemirim/ES,-20.848084,-41.11129,4214,2016.53810
D1,Cachoeiro de Itapemirim/ES,-20.848084,-41.11129,126,60.29516
1,Cacimba de Areia/PB,-7.1288513,-37.1575194,9,244.43237
1,Cacimba de Dentro/PB,-6.6425101,-35.7929304,260,1512.77128
D1,Cacimba de Dentro/PB,-6.6425101,-35.7929304,6,34.91011
1,Cacimbas/PB,-7.2125451,-37.0593398,46,641.29374
D1,Cacimbas/PB,-7.2125451,-37.0593398,1,13.94117
1,Cacimbinhas/AL,-9.401212,-36.991082,215,1980.10683
D1,Cacimbinhas/AL,-9.401212,-36.991082,3,27.62940
1,Cacique Doble/RS,-27.7700117,-51.6616409,56,1105.62685
1,Cacoal/RO,-11.4333,-61.4420502,1227,1437.45826
D1,Cacoal/RO,-11.4333,-61.4420502,19,22.25893
1,Caconde/SP,-21.527995,-46.643659,64,337.10824
1,Caculé/BA,-14.4990734,-42.2233006,58,250.32369
D1,Caculé/BA,-14.4990734,-42.2233006,2,8.63185
1,Caetanos/BA,-14.3387456,-40.9085971,20,137.53266
1,Caetanópolis/MG,-19.2947496,-44.4138386,48,412.93875
1,Caetité/BA,-14.0691776,-42.4852428,99,194.21285
D1,Caetité/BA,-14.0691776,-42.4852428,3,5.88524
1,Caeté/MG,-19.897777,-43.670278,213,476.31826
D1,Caeté/MG,-19.897777,-43.670278,3,6.70871
1,Caetés/PE,-8.7728788,-36.6255835,375,1304.84707
D1,Caetés/PE,-8.7728788,-36.6255835,5,17.39796
1,Cafarnaum/BA,-11.691399,-41.468823,127,688.83224
1,Cafeara/PR,-22.78905,-51.714195,47,1601.90866
1,Cafelândia/PR,-24.6176963,-53.3218057,96,529.80132
D1,Cafelândia/PR,-24.6176963,-53.3218057,1,5.51876
1,Cafelândia/SP,-21.8054355,-49.6030627,190,1069.39832
D1,Cafelândia/SP,-21.8054355,-49.6030627,2,11.25682
1,Cafezal do Sul/PR,-23.900508,-53.512418,9,222.55193
1,Caiabu/SP,-22.0143038,-51.2356597,31,739.68027
D1,Caiabu/SP,-22.0143038,-51.2356597,2,47.72131
1,Caiana/MG,-20.695555,-41.924723,14,254.73071
D1,Caiana/MG,-20.695555,-41.924723,1,18.19505
1,Caiapônia/GO,-16.9538779,-51.8090761,76,401.84000
1,Caibaté/RS,-28.290475,-54.645407,2,41.27115
1,Caibi/SC,-27.0751925,-53.2502133,29,471.69811
D1,Caibi/SC,-27.0751925,-53.2502133,2,32.53090
1,Caicó/RN,-6.4594544,-37.0971911,1303,1917.53002
D1,Caicó/RN,-6.4594544,-37.0971911,18,26.48929
1,Caieiras/SP,-23.3644621,-46.7484765,1512,1490.09559
D1,Caieiras/SP,-23.3644621,-46.7484765,79,77.85552
1,Cairu/BA,-13.4860505,-39.0455744,150,825.26408
D1,Cairu/BA,-13.4860505,-39.0455744,3,16.50528
1,Caiuá/SP,-21.8319357,-51.9887179,50,851.20872
1,Caiçara do Norte/RN,-5.0645017,-36.0561226,85,1297.90808
D1,Caiçara do Norte/RN,-5.0645017,-36.0561226,3,45.80852
1,Caiçara do Rio do Vento/RN,-5.757968,-36.00089,60,1628.66450
D1,Caiçara do Rio do Vento/RN,-5.757968,-36.00089,1,27.14441
1,Caiçara/PB,-6.6146866,-35.4681434,419,5818.63630
D1,Caiçara/PB,-6.6146866,-35.4681434,6,83.32176
1,Caiçara/RS,-27.2750478,-53.4310053,23,484.92515
D1,Caiçara/RS,-27.2750478,-53.4310053,1,21.08370
1,Cajamar/SP,-23.3561111,-46.8769444,1221,1589.82305
D1,Cajamar/SP,-23.3561111,-46.8769444,66,85.93638
1,Cajapió/MA,-2.8778715,-44.6746871,5,44.73472
D1,Cajapió/MA,-2.8778715,-44.6746871,2,17.89389
1,Cajari/MA,-3.3213076,-45.0118757,121,624.38722
D1,Cajari/MA,-3.3213076,-45.0118757,4,20.64090
1,Cajati/SP,-24.7272376,-48.1077914,1282,4490.52506
D1,Cajati/SP,-24.7272376,-48.1077914,16,56.04399
1,Cajazeiras do Piauí/PI,-6.794271,-42.3935024,6,168.58668
1,Cajazeiras/PB,-6.8897849,-38.5570389,1476,2380.91397
D1,Cajazeiras/PB,-6.8897849,-38.5570389,37,59.68416
1,Cajazeirinhas/PB,-6.961442,-37.7993733,31,970.87379
1,Cajobi/SP,-20.8776238,-48.8106972,113,1071.90286
D1,Cajobi/SP,-20.8776238,-48.8106972,5,47.42933
1,Cajueiro da Praia/PI,-2.931114,-41.340801,219,2865.74195
D1,Cajueiro da Praia/PI,-2.931114,-41.340801,7,91.59906
1,Cajueiro/AL,-9.399589,-36.1524309,228,1072.23476
D1,Cajueiro/AL,-9.399589,-36.1524309,12,56.43341
1,Cajuri/MG,-20.7901414,-42.7954489,41,1028.34211
1,Cajuru/SP,-21.2759978,-47.3046035,301,1150.30382
D1,Cajuru/SP,-21.2759978,-47.3046035,7,26.75125
1,Caldas Brandão/PB,-7.1027959,-35.3254676,227,3774.52611
D1,Caldas Brandão/PB,-7.1027959,-35.3254676,2,33.25574
1,Caldas Novas/GO,-17.745,-48.625,677,742.63399
D1,Caldas Novas/GO,-17.745,-48.625,14,15.35728
1,Caldas/MG,-21.923611,-46.386111,57,393.64641
1,Caldazinha/GO,-16.7116649,-49.0012601,41,1077.81283
D1,Caldazinha/GO,-16.7116649,-49.0012601,1,26.28812
1,Caldeirão Grande do Piauí/PI,-7.3310393,-40.6374433,64,1108.03324
1,Caldeirão Grande/BA,-11.0208483,-40.3041387,112,840.39919
D1,Caldeirão Grande/BA,-11.0208483,-40.3041387,1,7.50356
1,Califórnia/PR,-23.6672543,-51.3554556,39,455.07585
D1,Califórnia/PR,-23.6672543,-51.3554556,2,23.33722
1,Calmon/SC,-26.6023644,-51.0992893,5,149.43216
1,Calumbi/PE,-7.9389746,-38.1516871,125,2173.91304
D1,Calumbi/PE,-7.9389746,-38.1516871,1,17.39130
1,Calçado/PE,-8.7413446,-36.3351787,45,407.12929
D1,Calçado/PE,-8.7413446,-36.3351787,1,9.04732
1,Calçoene/AP,2.4981757,-50.9539503,1117,10047.67473
D1,Calçoene/AP,2.4981757,-50.9539503,5,44.97616
1,Camacan/BA,-15.4166631,-39.4930088,1099,3435.66337
D1,Camacan/BA,-15.4166631,-39.4930088,22,68.77579
1,Camalaú/PB,-7.885031,-36.824191,3,49.89190
1,Camamu/BA,-13.9438142,-39.1060917,740,2095.36754
D1,Camamu/BA,-13.9438142,-39.1060917,12,33.97893
1,Camanducaia/MG,-22.755278,-46.144444,318,1460.72577
D1,Camanducaia/MG,-22.755278,-46.144444,4,18.37391
1,Camapuã/MS,-19.5291747,-54.0434641,28,204.21559
D1,Camapuã/MS,-19.5291747,-54.0434641,1,7.29341
1,Camaquã/RS,-30.8524752,-51.8075619,519,783.26617
D1,Camaquã/RS,-30.8524752,-51.8075619,13,19.61938
1,Camaragibe/PE,-8.0213832,-34.9810768,1788,1132.87883
D1,Camaragibe/PE,-8.0213832,-34.9810768,158,100.10898
1,Camargo/RS,-28.5865661,-52.2031474,29,1061.10501
1,Camaçari/BA,-12.6998188,-38.3260762,4954,1656.12506
D1,Camaçari/BA,-12.6998188,-38.3260762,66,22.06384
1,Cambará do Sul/RS,-29.0489517,-50.145412,52,808.58342
1,Cambará/PR,-23.042273,-50.075281,98,386.43533
D1,Cambará/PR,-23.042273,-50.075281,3,11.82965
1,Cambira/PR,-23.600265,-51.581045,20,254.29116
D1,Cambira/PR,-23.600265,-51.581045,1,12.71456
1,Camboriú/SC,-27.0273601,-48.6535657,1904,2294.27996
D1,Camboriú/SC,-27.0273601,-48.6535657,31,37.35435
1,Cambuci/RJ,-21.5749919,-41.9107833,144,928.73267
D1,Cambuci/RJ,-21.5749919,-41.9107833,2,12.89906
1,Cambuquira/MG,-21.853056,-45.2953619,9,70.23568
1,Cambuí/MG,-22.6122501,-46.0572137,218,737.70769
D1,Cambuí/MG,-22.6122501,-46.0572137,6,20.30388
1,Cambé/PR,-23.2782035,-51.2779583,741,695.55912
D1,Cambé/PR,-23.2782035,-51.2779583,14,13.14147
1,Cametá/PA,-2.242949,-49.497885,4539,3291.75430
D1,Cametá/PA,-2.242949,-49.497885,91,65.99463
1,Camocim de São Félix/PE,-8.3616757,-35.7638903,155,826.00586
D1,Camocim de São Félix/PE,-8.3616757,-35.7638903,7,37.30349
1,Camocim/CE,-2.9009918,-40.8427389,2268,3562.62076
D1,Camocim/CE,-2.9009918,-40.8427389,79,124.09481
1,Campanha/MG,-21.8361108,-45.401986,58,348.03480
D1,Campanha/MG,-21.8361108,-45.401986,2,12.00120
1,Campanário/MG,-18.2398144,-41.7271768,11,295.61946
1,Campestre da Serra/RS,-28.7966535,-51.0958149,23,678.86659
1,Campestre de Goiás/GO,-16.7624179,-49.69497,80,2203.85675
D1,Campestre de Goiás/GO,-16.7624179,-49.69497,1,27.54821
1,Campestre do Maranhão/MA,-6.1729113,-47.3640512,315,2191.45680
D1,Campestre do Maranhão/MA,-6.1729113,-47.3640512,3,20.87102
1,Campestre/AL,-8.8481634,-35.5660033,89,1283.16032
D1,Campestre/AL,-8.8481634,-35.5660033,3,43.25260
1,Campestre/MG,-19.6142116,-43.219378,93,441.70031
D1,Campestre/MG,-19.6142116,-43.219378,3,14.24840
1,Campina Grande do Sul/PR,-25.3046032,-49.0545355,645,1490.02033
D1,Campina Grande do Sul/PR,-25.3046032,-49.0545355,18,41.58196
1,Campina Grande/PB,-7.2246743,-35.8771292,11776,2874.08080
D1,Campina Grande/PB,-7.2246743,-35.8771292,274,66.87314
1,Campina Verde/MG,-19.535277,-49.486389,73,369.71385
D1,Campina Verde/MG,-19.535277,-49.486389,3,15.19372
1,Campina da Lagoa/PR,-24.5937926,-52.8038965,16,112.66019
D1,Campina da Lagoa/PR,-24.5937926,-52.8038965,2,14.08252
1,Campina das Missões/RS,-27.9883295,-54.8411665,7,127.87724
1,Campina do Monte Alegre/SP,-23.5935653,-48.4801876,72,1195.21912
1,Campina do Simão/PR,-25.1086375,-51.8076658,4,102.90713
1,Campinas do Piauí/PI,-7.6593687,-41.8814875,22,391.94727
1,Campinas do Sul/RS,-27.7167968,-52.6257885,34,623.39567
D1,Campinas do Sul/RS,-27.7167968,-52.6257885,1,18.33517
1,Campinas/SP,-22.90556,-47.06083,23825,1978.70063
D1,Campinas/SP,-22.90556,-47.06083,882,73.25137
1,Campinaçu/GO,-13.7869969,-48.5703841,104,2857.14286
1,Campinorte/GO,-14.3136699,-49.1510931,197,1560.27245
D1,Campinorte/GO,-14.3136699,-49.1510931,3,23.76049
1,Campinápolis/MT,-14.5403731,-52.7970626,200,1251.56446
D1,Campinápolis/MT,-14.5403731,-52.7970626,8,50.06258
1,Campo Alegre de Goiás/GO,-17.6337896,-47.779291,5,65.88483
1,Campo Alegre de Lourdes/BA,-9.5160326,-43.0101338,88,305.57678
D1,Campo Alegre de Lourdes/BA,-9.5160326,-43.0101338,2,6.94493
1,Campo Alegre do Fidalgo/PI,-8.3753852,-41.8364191,13,257.68087
D1,Campo Alegre do Fidalgo/PI,-8.3753852,-41.8364191,1,19.82161
1,Campo Alegre/AL,-9.7798607,-36.3575793,1210,2120.46335
D1,Campo Alegre/AL,-9.7798607,-36.3575793,26,45.56368
1,Campo Alegre/SC,-26.1941684,-49.2657484,88,734.68025
D1,Campo Alegre/SC,-26.1941684,-49.2657484,2,16.69728
1,Campo Azul/MG,-16.5078525,-44.8133524,1,26.19859
1,Campo Belo do Sul/SC,-27.8987563,-50.7586887,29,413.34094
D1,Campo Belo do Sul/SC,-27.8987563,-50.7586887,1,14.25314
1,Campo Belo/MG,-20.8975,-45.277223,428,792.16717
D1,Campo Belo/MG,-20.8975,-45.277223,9,16.65772
1,Campo Bom/RS,-29.674694,-51.060601,1477,2213.99448
D1,Campo Bom/RS,-29.674694,-51.060601,32,47.96738
1,Campo Bonito/PR,-25.0328004,-52.992976,39,1017.47978
1,Campo Erê/SC,-26.3947432,-53.0790495,64,750.64509
1,Campo Florido/MG,-19.760833,-48.572223,60,736.10600
1,Campo Formoso/BA,-10.51055,-40.320031,843,1183.88900
D1,Campo Formoso/BA,-10.51055,-40.320031,8,11.23501
1,Campo Grande do Piauí/PI,-7.1327559,-41.0381164,89,1497.56015
D1,Campo Grande do Piauí/PI,-7.1327559,-41.0381164,1,16.82652
1,Campo Grande/AL,-9.9725,-36.74791447368421,168,1757.68989
D1,Campo Grande/AL,-9.9725,-36.74791447368421,5,52.31220
1,Campo Grande/MS,-20.4640173,-54.6162947,15448,1724.14178
D1,Campo Grande/MS,-20.4640173,-54.6162947,226,25.22372
1,Campo Largo do Piauí/PI,-3.8104731,-42.6288333,122,1676.05440
D1,Campo Largo do Piauí/PI,-3.8104731,-42.6288333,4,54.95260
1,Campo Largo/PR,-25.4597726,-49.5270851,2018,1528.76472
D1,Campo Largo/PR,-25.4597726,-49.5270851,48,36.36309
1,Campo Limpo Paulista/SP,-23.207791,-46.788919,864,1020.67336
D1,Campo Limpo Paulista/SP,-23.207791,-46.788919,62,73.24276
1,Campo Limpo de Goiás/GO,-16.297101,-49.0894994,18,231.09513
D1,Campo Limpo de Goiás/GO,-16.297101,-49.0894994,1,12.83862
1,Campo Magro/PR,-25.3691533,-49.4496921,325,1108.53401
D1,Campo Magro/PR,-25.3691533,-49.4496921,5,17.05437
1,Campo Maior/PI,-4.8339574,-42.1739786,1930,4121.02577
D1,Campo Maior/PI,-4.8339574,-42.1739786,38,81.13937
1,Campo Mourão/PR,-24.046329,-52.37802,735,774.83423
D1,Campo Mourão/PR,-24.046329,-52.37802,24,25.30071
1,Campo Novo de Rondônia/RO,-10.5704235,-63.6199511,106,749.69941
D1,Campo Novo de Rondônia/RO,-10.5704235,-63.6199511,4,28.29054
1,Campo Novo do Parecis/MT,-13.658735,-57.890723,1271,3594.45701
D1,Campo Novo do Parecis/MT,-13.658735,-57.890723,13,36.76471
1,Campo Novo/RS,-28.91500235,-52.331375687737626,14,312.22123
1,Campo Redondo/RN,-6.2420373,-36.1830606,172,1533.38682
D1,Campo Redondo/RN,-6.2420373,-36.1830606,2,17.83008
1,Campo Verde/MT,-15.5430787,-55.1590511,1019,2313.75309
D1,Campo Verde/MT,-15.5430787,-55.1590511,15,34.05917
1,Campo do Brito/SE,-10.7496246,-37.4942276,489,2700.31476
D1,Campo do Brito/SE,-10.7496246,-37.4942276,9,49.69904
1,Campo do Meio/MG,-21.1072006,-45.8301735,27,231.66023
1,Campo do Tenente/PR,-25.9814143,-49.684518,58,727.63769
D1,Campo do Tenente/PR,-25.9814143,-49.684518,3,37.63643
1,Campos Altos/MG,-19.696389,-46.171389,96,620.91715
D1,Campos Altos/MG,-19.696389,-46.171389,2,12.93577
1,Campos Belos/GO,-13.0349839,-46.768112,122,613.46608
D1,Campos Belos/GO,-13.0349839,-46.768112,1,5.02841
1,Campos Borges/RS,-28.8852198,-52.999098,5,150.60241
1,Campos Gerais/MG,-21.2333342,-45.7584127,67,232.84910
D1,Campos Gerais/MG,-21.2333342,-45.7584127,2,6.95072
1,Campos Lindos/TO,-7.9740597,-46.8023881,72,711.74377
D1,Campos Lindos/TO,-7.9740597,-46.8023881,1,9.88533
1,Campos Novos Paulista/SP,-22.601952,-49.998726,30,604.22961
1,Campos Novos/SC,-27.3962904,-51.2224397,624,1721.66428
D1,Campos Novos/SC,-27.3962904,-51.2224397,12,33.10893
1,Campos Sales/CE,-7.0742675,-40.3740367,261,951.65172
D1,Campos Sales/CE,-7.0742675,-40.3740367,7,25.52323
1,Campos Verdes/GO,-14.2709062,-49.65746,20,934.14292
1,Campos de Júlio/MT,-13.7223646,-59.2645296,274,3976.20084
D1,Campos de Júlio/MT,-13.7223646,-59.2645296,4,58.04673
1,Campos do Jordão/SP,-22.7395263,-45.5912829,491,942.63554
D1,Campos do Jordão/SP,-22.7395263,-45.5912829,7,13.43880
1,Campos dos Goytacazes/RJ,-21.7558619,-41.3326895,3785,745.74227
D1,Campos dos Goytacazes/RJ,-21.7558619,-41.3326895,262,51.62073
1,Camutanga/PE,-7.4092965,-35.2738166,141,1648.92995
D1,Camutanga/PE,-7.4092965,-35.2738166,4,46.77815
1,Cana Verde/MG,-21.021308,-45.1817881,65,1160.09281
D1,Cana Verde/MG,-21.021308,-45.1817881,1,17.84758
1,Canabrava do Norte/MT,-11.0516481,-51.8301897,50,1054.18511
D1,Canabrava do Norte/MT,-11.0516481,-51.8301897,1,21.08370
1,Cananéia/SP,-25.0104609,-47.9315628,130,1036.68262
D1,Cananéia/SP,-25.0104609,-47.9315628,7,55.82137
1,Canapi/AL,-9.1173572,-37.6011704,56,315.99142
D1,Canapi/AL,-9.1173572,-37.6011704,3,16.92811
1,Canarana/BA,-11.6870151,-41.7683675,74,282.70171
D1,Canarana/BA,-11.6870151,-41.7683675,1,3.82029
1,Canarana/MT,-13.5564602,-52.2691167,384,1779.50785
D1,Canarana/MT,-13.5564602,-52.2691167,8,37.07308
1,Canas/SP,-22.7029347,-45.0526508,20,389.25652
D1,Canas/SP,-22.7029347,-45.0526508,1,19.46283
1,Canavieiras/BA,-15.61621745,-39.08485321304444,143,459.82186
D1,Canavieiras/BA,-15.61621745,-39.08485321304444,5,16.07769
1,Canaã dos Carajás/PA,-6.5296837,-49.8516592,3007,8108.39962
D1,Canaã dos Carajás/PA,-6.5296837,-49.8516592,38,102.46730
1,Candeal/BA,-11.8053441,-39.1206515,47,569.14507
1,Candeias do Jamari/RO,-8.7949939,-63.7018851,1072,4016.03417
D1,Candeias do Jamari/RO,-8.7949939,-63.7018851,21,78.67231
1,Candeias/BA,-12.6693806,-38.5406462,1796,2062.56603
D1,Candeias/BA,-12.6693806,-38.5406462,36,41.34319
1,Candeias/MG,-20.7676161,-45.2763777,64,429.93417
D1,Candeias/MG,-20.7676161,-45.2763777,2,13.43544
1,Candelária/RS,-29.668391,-52.789495,107,341.14459
D1,Candelária/RS,-29.668391,-52.789495,1,3.18827
1,Candiba/BA,-14.4125032,-42.8714102,24,167.60947
1,Candiota/RS,-31.5451894,-53.719538,64,667.77963
D1,Candiota/RS,-31.5451894,-53.719538,1,10.43406
1,Candói/PR,-25.5711951,-52.051107,57,356.71819
1,Canela/RS,-29.3624657,-50.8134204,376,835.59269
D1,Canela/RS,-29.3624657,-50.8134204,16,35.55714
1,Canelinha/SC,-27.2660341,-48.7666708,351,2867.64706
D1,Canelinha/SC,-27.2660341,-48.7666708,4,32.67974
1,Canguaretama/RN,-6.3751942,-35.137463,299,872.33049
D1,Canguaretama/RN,-6.3751942,-35.137463,16,46.67989
1,Canguçu/RS,-31.398276,-52.6773522,74,132.03676
D1,Canguçu/RS,-31.398276,-52.6773522,2,3.56856
1,Canhoba/SE,-10.1373681,-36.9710796,81,2020.95808
1,Canhotinho/PE,-8.876519,-36.197935,250,1007.90195
D1,Canhotinho/PE,-8.876519,-36.197935,11,44.34769
1,Canindé de São Francisco/SE,-9.6597475,-37.7904456,269,899.66555
D1,Canindé de São Francisco/SE,-9.6597475,-37.7904456,7,23.41137
1,Canindé/CE,-4.3547946,-39.3108516,1845,2396.19725
D1,Canindé/CE,-4.3547946,-39.3108516,68,88.31513
1,Canitar/SP,-23.0066616,-49.7840632,30,575.15337
D1,Canitar/SP,-23.0066616,-49.7840632,1,19.17178
1,Canoas/RS,-29.9216045,-51.1799525,3338,963.02537
D1,Canoas/RS,-29.9216045,-51.1799525,150,43.27556
1,Canoinhas/SC,-26.176591,-50.395001,315,579.03347
D1,Canoinhas/SC,-26.176591,-50.395001,8,14.70561
1,Cansanção/BA,-10.6671448,-39.498199,117,335.87874
D1,Cansanção/BA,-10.6671448,-39.498199,2,5.74152
1,Cantagalo/PR,-25.3735238,-52.1238114,55,413.00593
D1,Cantagalo/PR,-25.3735238,-52.1238114,1,7.50920
1,Cantagalo/RJ,-21.9811325,-42.3682522,61,302.39937
D1,Cantagalo/RJ,-21.9811325,-42.3682522,1,4.95737
1,Cantanhede/MA,-3.6355005,-44.3778738,381,1732.21187
D1,Cantanhede/MA,-3.6355005,-44.3778738,3,13.63946
1,Canto do Buriti/PI,-8.1112473,-42.944844,231,1090.29122
D1,Canto do Buriti/PI,-8.1112473,-42.944844,3,14.15963
1,Cantá/RR,2.60994,-60.605827,839,4575.94764
D1,Cantá/RR,2.60994,-60.605827,9,49.08645
1,Canudos do Vale/RS,-29.3240418,-52.2348494,5,291.37529
1,Canudos/BA,-9.8948692,-39.0266244,93,557.95536
D1,Canudos/BA,-9.8948692,-39.0266244,3,17.99856
1,Canutama/AM,-6.5330019,-64.3834966,352,2252.22343
1,Canápolis/MG,-18.7228793,-49.2016329,201,1654.32099
D1,Canápolis/MG,-18.7228793,-49.2016329,3,24.69136
1,Capanema/PA,-1.1933054,-47.1828679,1131,1638.48929
D1,Capanema/PA,-1.1933054,-47.1828679,63,91.26863
1,Capanema/PR,-25.6704878,-53.8083036,362,1892.90943
D1,Capanema/PR,-25.6704878,-53.8083036,3,15.68709
1,Caparaó/MG,-20.5232726,-41.9049984,16,294.22582
D1,Caparaó/MG,-20.5232726,-41.9049984,2,36.77823
1,Capela Nova/MG,-20.9236773,-43.6179487,2,42.98302
1,Capela de Santana/RS,-29.6926603,-51.3206659,39,326.63317
D1,Capela de Santana/RS,-29.6926603,-51.3206659,1,8.37521
1,Capela do Alto Alegre/BA,-11.6703944,-39.8362745,138,1185.87265
D1,Capela do Alto Alegre/BA,-11.6703944,-39.8362745,1,8.59328
1,Capela do Alto/SP,-23.4704798,-47.7352309,209,1009.36926
D1,Capela do Alto/SP,-23.4704798,-47.7352309,1,4.82952
1,Capela/AL,-9.415041,-36.082583,499,2926.17135
D1,Capela/AL,-9.415041,-36.082583,5,29.32035
1,Capela/SE,-10.50494,-37.0552566,666,1946.62847
D1,Capela/SE,-10.50494,-37.0552566,16,46.76585
1,Capelinha/MG,-17.693889,-42.518611,28,74.10544
1,Capetinga/MG,-20.6193382,-47.0577418,16,231.21387
1,Capim Branco/MG,-19.548333,-44.133056,28,287.06172
D1,Capim Branco/MG,-19.548333,-44.133056,1,10.25220
1,Capim Grosso/BA,-11.3793228,-40.0112095,720,2348.18342
D1,Capim Grosso/BA,-11.3793228,-40.0112095,4,13.04546
1,Capim/PB,-6.9174091,-35.1720326,149,2284.22505
D1,Capim/PB,-6.9174091,-35.1720326,5,76.65185
1,Capinzal do Norte/MA,-4.7304006,-44.3249063,339,3100.42071
D1,Capinzal do Norte/MA,-4.7304006,-44.3249063,1,9.14578
1,Capinzal/SC,-27.3440651,-51.6110403,922,4035.36415
D1,Capinzal/SC,-27.3440651,-51.6110403,5,21.88375
1,Capinópolis/MG,-18.682778,-49.569723,168,1038.76832
D1,Capinópolis/MG,-18.682778,-49.569723,1,6.18314
1,Capistrano/CE,-4.4644692,-38.8956734,638,3596.79784
D1,Capistrano/CE,-4.4644692,-38.8956734,12,67.65137
1,Capitão Andrade/MG,-19.0675,-41.859722,16,292.61156
D1,Capitão Andrade/MG,-19.0675,-41.859722,1,18.28822
1,Capitão Enéas/MG,-16.3236018,-43.7154584,79,518.57687
D1,Capitão Enéas/MG,-16.3236018,-43.7154584,2,13.12853
1,Capitão Gervásio Oliveira/PI,-8.4954657,-41.8169342,17,414.63415
1,Capitão Leônidas Marques/PR,-25.481645,-53.611238,113,716.09632
1,Capitão Poço/PA,-1.7447162,-47.0638495,772,1421.65258
D1,Capitão Poço/PA,-1.7447162,-47.0638495,34,62.61164
1,Capitão de Campos/PI,-4.4584198,-41.9415301,144,1261.27704
D1,Capitão de Campos/PI,-4.4584198,-41.9415301,1,8.75887
1,Capitão/RS,-29.2718294,-51.9869716,19,689.15488
1,Capitólio/MG,-20.6142437,-46.0487652,24,278.03522
D1,Capitólio/MG,-20.6142437,-46.0487652,3,34.75440
1,Capivari de Baixo/SC,-28.449773,-48.963144,631,2537.09139
D1,Capivari de Baixo/SC,-28.449773,-48.963144,9,36.18672
1,Capivari do Sul/RS,-30.1437605,-50.5129169,22,472.10300
1,Capivari/SP,-22.995144,-47.50715,577,1034.64352
D1,Capivari/SP,-22.995144,-47.50715,4,7.17257
1,Capixaba/AC,-10.5741345,-67.6759719,240,2045.51266
D1,Capixaba/AC,-10.5741345,-67.6759719,7,59.66079
1,Capoeiras/PE,-8.7386788,-36.6268109,295,1471.46848
D1,Capoeiras/PE,-8.7386788,-36.6268109,4,19.95211
1,Caputira/MG,-20.171945,-42.270278,24,258.12003
1,Capão Alto/SC,-27.9382827,-50.511491,6,237.62376
D1,Capão Alto/SC,-27.9382827,-50.511491,1,39.60396
1,Capão Bonito do Sul/RS,-28.1287941,-51.393771,5,302.29746
D1,Capão Bonito do Sul/RS,-28.1287941,-51.393771,1,60.45949
1,Capão Bonito/SP,-24.0048759,-48.3489848,515,1092.53681
D1,Capão Bonito/SP,-24.0048759,-48.3489848,18,38.18575
1,Capão da Canoa/RS,-29.7542937,-50.0215684,387,729.51422
D1,Capão da Canoa/RS,-29.7542937,-50.0215684,13,24.50565
1,Capão do Cipó/RS,-28.9317296,-54.5555783,3,82.16927
1,Capão do Leão/RS,-31.766133,-52.5013148,63,248.48150
D1,Capão do Leão/RS,-31.766133,-52.5013148,2,7.88830
1,Caracaraí/RR,1.827598,-61.125389,750,3420.59655
D1,Caracaraí/RR,1.827598,-61.125389,8,36.48636
1,Caracol/MS,-22.0169949,-57.0298349,18,294.31001
1,Caracol/PI,-9.2804898,-43.3284924,152,1392.45145
D1,Caracol/PI,-9.2804898,-43.3284924,1,9.16086
1,Caraguatatuba/SP,-23.62028,-45.41306,1422,1170.06221
D1,Caraguatatuba/SP,-23.62028,-45.41306,59,48.54688
1,Carambeí/PR,-24.9513298,-50.1171293,160,683.32266
D1,Carambeí/PR,-24.9513298,-50.1171293,4,17.08307
1,Caranaíba/MG,-20.8736914,-43.7379458,7,219.91832
D1,Caranaíba/MG,-20.8736914,-43.7379458,1,31.41690
1,Carandaí/MG,-20.9523934,-43.8043903,111,435.27705
D1,Carandaí/MG,-20.9523934,-43.8043903,3,11.76424
1,Carangola/MG,-20.733056,-42.029445,365,1106.06061
D1,Carangola/MG,-20.733056,-42.029445,9,27.27273
1,Carapebus/RJ,-22.1869969,-41.6633764,253,1552.05202
D1,Carapebus/RJ,-22.1869969,-41.6633764,4,24.53837
1,Carapicuíba/SP,-23.5234673,-46.8406808,5511,1374.56445
D1,Carapicuíba/SP,-23.5234673,-46.8406808,257,64.10144
1,Caratinga/MG,-19.7900887,-42.140533,1027,1115.55256
D1,Caratinga/MG,-19.7900887,-42.140533,27,29.32806
1,Carauari/AM,-4.8766426,-66.8961433,861,3043.04800
D1,Carauari/AM,-4.8766426,-66.8961433,8,28.27455
1,Caravelas/BA,-17.7296514,-39.2660082,213,967.47820
1,Carazinho/RS,-28.2981634,-52.7942363,391,629.52826
D1,Carazinho/RS,-28.2981634,-52.7942363,10,16.10047
1,Caraá/RS,-29.7900698,-50.4302307,71,858.52479
D1,Caraá/RS,-29.7900698,-50.4302307,1,12.09190
1,Caraí/MG,-17.1884104,-41.6976554,97,409.54190
D1,Caraí/MG,-17.1884104,-41.6976554,3,12.66624
