type,name,lat,lon,total,total_per_100k_inhabitants
1,Abadia de Goiás/GO,-16.7572644,-49.4412205,63,718.11239
1,Abadia dos Dourados/MG,-18.4911191,-47.4063589,5,71.54099
1,Abadiânia/GO,-16.1940946,-48.7067767,55,274.42371
D1,Abadiânia/GO,-16.1940946,-48.7067767,3,14.96857
1,Abaetetuba/PA,-1.721828,-48.878843,2378,1507.94557
D1,Abaetetuba/PA,-1.721828,-48.878843,101,64.04647
1,Abaeté/MG,-19.1566833,-45.4481213,20,86.06963
1,Abaiara/CE,-7.3607808,-39.0487878,21,178.92136
D1,Abaiara/CE,-7.3607808,-39.0487878,1,8.52006
1,Abaré/BA,-8.7239913,-39.1139689,5,24.89296
1,Abatiá/PR,-23.3052967,-50.3102532,52,697.33137
1,Abaíra/BA,-13.2503296,-41.6640342,5,57.21478
1,Abdon Batista/SC,-27.612419,-51.022992,46,1794.77175
1,Abel Figueiredo/PA,-4.953001,-48.3958485,92,1237.55717
1,Abelardo Luz/SC,-26.5705893,-52.3280339,58,323.94996
D1,Abelardo Luz/SC,-26.5705893,-52.3280339,2,11.17069
1,Abre Campo/MG,-20.2976097,-42.4764741,9,66.89460
1,Abreu e Lima/PE,-7.900719,-34.898389,513,513.05131
D1,Abreu e Lima/PE,-7.900719,-34.898389,63,63.00630
1,Abreulândia/TO,-9.6221526,-49.1558343,5,193.87359
D1,Abreulândia/TO,-9.6221526,-49.1558343,1,38.77472
1,Acaiaca/MG,-20.3621646,-43.1444162,11,275.41312
D1,Acaiaca/MG,-20.3621646,-43.1444162,1,25.03756
1,Acajutiba/BA,-11.6609659,-38.0186381,31,204.49898
D1,Acajutiba/BA,-11.6609659,-38.0186381,2,13.19348
1,Acarape/CE,-4.2237866,-38.7071663,643,4307.05339
D1,Acarape/CE,-4.2237866,-38.7071663,12,80.38047
1,Acaraú/CE,-2.8869514,-40.1194713,1820,2905.44532
D1,Acaraú/CE,-2.8869514,-40.1194713,47,75.03073
1,Acari/RN,-6.4364689,-36.6394777,25,224.49713
D1,Acari/RN,-6.4364689,-36.6394777,1,8.97989
1,Acará/PA,-1.961388,-48.1987043,492,885.03535
D1,Acará/PA,-1.961388,-48.1987043,10,17.98852
1,Acauã/PI,-8.219542,-41.083059,7,98.81423
1,Acopiara/CE,-6.0936464,-39.4543204,318,585.95909
D1,Acopiara/CE,-6.0936464,-39.4543204,18,33.16750
1,Acorizal/MT,-15.2001544,-56.3668953,50,926.09743
D1,Acorizal/MT,-15.2001544,-56.3668953,1,18.52195
1,Acrelândia/AC,-10.0759167,-67.0526898,211,1383.06240
D1,Acrelândia/AC,-10.0759167,-67.0526898,3,19.66439
1,Acreúna/GO,-17.3959899,-50.3749031,92,411.33864
D1,Acreúna/GO,-17.3959899,-50.3749031,1,4.47107
1,Adamantina/SP,-21.6866517,-51.0762975,70,199.61218
D1,Adamantina/SP,-21.6866517,-51.0762975,5,14.25801
1,Adelândia/GO,-16.4155077,-50.1665834,35,1391.09698
1,Adolfo/SP,-21.2356597,-49.6441918,24,673.77878
D1,Adolfo/SP,-21.2356597,-49.6441918,2,56.14823
1,Adrianópolis/PR,-24.6557863,-48.9912769,54,912.31627
D1,Adrianópolis/PR,-24.6557863,-48.9912769,2,33.78949
1,Adustina/BA,-10.5358875,-38.114479,32,187.79343
D1,Adustina/BA,-10.5358875,-38.114479,1,5.86854
1,Afogados da Ingazeira/PE,-7.750429,-37.6356375,109,292.54677
D1,Afogados da Ingazeira/PE,-7.750429,-37.6356375,4,10.73566
1,Afonso Bezerra/RN,-5.4745,-36.57625071327935,52,471.22791
D1,Afonso Bezerra/RN,-5.4745,-36.57625071327935,5,45.31038
1,Afonso Cláudio/ES,-20.077841,-41.12606,392,1281.63212
D1,Afonso Cláudio/ES,-20.077841,-41.12606,10,32.69470
1,Afonso Cunha/MA,-4.1326105,-43.3230026,83,1272.22563
D1,Afonso Cunha/MA,-4.1326105,-43.3230026,1,15.32802
1,Afrânio/PE,-8.5198919,-41.0070197,65,331.04151
D1,Afrânio/PE,-8.5198919,-41.0070197,1,5.09295
1,Afuá/PA,-0.1535664,-50.3879223,870,2218.36912
D1,Afuá/PA,-0.1535664,-50.3879223,8,20.39880
1,Agrestina/PE,-8.4558021,-35.9442663,230,924.25156
D1,Agrestina/PE,-8.4558021,-35.9442663,16,64.29576
1,Agricolândia/PI,-5.7967843,-42.6605131,10,194.59039
1,Agrolândia/SC,-27.4122212,-49.8295774,21,193.29897
D1,Agrolândia/SC,-27.4122212,-49.8295774,2,18.40943
1,Agronômica/SC,-27.2660744,-49.7104753,18,330.39648
D1,Agronômica/SC,-27.2660744,-49.7104753,2,36.71072
1,Aguanil/MG,-20.9424533,-45.3927152,5,111.45787
1,Aguaí/SP,-22.0592036,-46.979384,83,228.61865
D1,Aguaí/SP,-22.0592036,-46.979384,4,11.01777
1,Agudo/RS,-29.6423259,-53.2494005,2,12.14993
1,Agudos do Sul/PR,-25.9890808,-49.3328175,33,352.15025
1,Agudos/SP,-22.471162,-48.987822,144,386.95115
D1,Agudos/SP,-22.471162,-48.987822,3,8.06148
1,Aguiar/PB,-7.0928404,-38.1727215,17,301.41844
1,Aguiarnópolis/TO,-6.5600452,-47.4721189,187,2777.36522
D1,Aguiarnópolis/TO,-6.5600452,-47.4721189,4,59.40888
1,Aimorés/MG,-19.4917754,-41.0615603,103,409.26610
1,Aiquara/BA,-14.126918,-39.8887574,15,337.38192
D1,Aiquara/BA,-14.126918,-39.8887574,1,22.49213
1,Aiuaba/CE,-6.5710836,-40.1212278,9,51.72711
D1,Aiuaba/CE,-6.5710836,-40.1212278,1,5.74746
1,Ajuricaba/RS,-28.239654,-53.7693013,4,56.94761
1,Alagoa Grande/PB,-7.0415212,-35.6285322,455,1596.71533
D1,Alagoa Grande/PB,-7.0415212,-35.6285322,8,28.07412
1,Alagoa Nova/PB,-7.0653703,-35.76695977336711,178,853.75797
D1,Alagoa Nova/PB,-7.0653703,-35.76695977336711,6,28.77836
1,Alagoinha do Piauí/PI,-7.0090952,-40.939675,22,287.54411
1,Alagoinha/PB,-6.97063215,-35.51490901897793,488,3368.07233
D1,Alagoinha/PB,-6.97063215,-35.51490901897793,2,13.80358
1,Alagoinha/PE,-8.50355635,-36.77701174370496,68,464.60782
D1,Alagoinha/PE,-8.50355635,-36.77701174370496,1,6.83247
1,Alagoinhas/BA,-12.133526,-38.420772,620,408.98177
D1,Alagoinhas/BA,-12.133526,-38.420772,15,9.89472
1,Alambari/SP,-23.550338,-47.897971,22,365.14523
1,Alcantil/PB,-7.7425491,-36.0609604,21,382.37436
1,Alcinópolis/MS,-18.3264121,-53.7094463,2,37.43215
D1,Alcinópolis/MS,-18.3264121,-53.7094463,1,18.71608
1,Alcobaça/BA,-17.5215875,-39.1965474,92,409.43480
D1,Alcobaça/BA,-17.5215875,-39.1965474,1,4.45038
1,Alcântara/MA,-2.4038956,-44.4154241,32,144.81604
D1,Alcântara/MA,-2.4038956,-44.4154241,5,22.62751
1,Alcântaras/CE,-3.586247,-40.5457641,308,2629.33242
D1,Alcântaras/CE,-3.586247,-40.5457641,3,25.61038
1,Aldeias Altas/MA,-4.6291957,-43.4708622,89,335.44399
1,Alecrim/RS,-27.6566142,-54.7653195,2,33.61345
1,Alegre/ES,-20.7625787,-41.5318886,150,498.60391
D1,Alegre/ES,-20.7625787,-41.5318886,8,26.59221
1,Alegrete do Piauí/PI,-7.2440138,-40.8602296,5,101.72940
1,Alegrete/RS,-29.790166,-55.794862,86,116.86529
D1,Alegrete/RS,-29.790166,-55.794862,6,8.15339
1,Alegria/RS,-27.8332103,-54.0574959,7,202.07852
1,Alenquer/PA,-1.946229,-54.738355,634,1116.41339
D1,Alenquer/PA,-1.946229,-54.738355,18,31.69628
1,Alexandria/RN,-6.414779,-38.0135516,17,125.21176
D1,Alexandria/RN,-6.414779,-38.0135516,2,14.73079
1,Alexânia/GO,-16.0834049,-48.5077803,80,289.29953
D1,Alexânia/GO,-16.0834049,-48.5077803,3,10.84873
1,Alfenas/MG,-21.4297405,-45.9479419,70,87.50438
1,Alfredo Chaves/ES,-20.624970400000002,-40.75006690147988,175,1198.54804
D1,Alfredo Chaves/ES,-20.624970400000002,-40.75006690147988,3,20.54654
1,Alfredo Marcondes/SP,-21.9527,-51.413956,6,144.02304
D1,Alfredo Marcondes/SP,-21.9527,-51.413956,1,24.00384
1,Alfredo Vasconcelos/MG,-21.145833,-43.776389,8,115.82453
D1,Alfredo Vasconcelos/MG,-21.145833,-43.776389,1,14.47807
1,Alfredo Wagner/SC,-27.6961513,-49.3326734,7,69.74890
1,Algodão de Jandaíra/PB,-6.9040175,-36.0089879,3,116.86794
1,Alhandra/PB,-7.4304246,-34.9106103,362,1848.07025
D1,Alhandra/PB,-7.4304246,-34.9106103,10,51.05166
1,Aliança do Tocantins/TO,-11.3055927,-48.9409096,9,166.97588
1,Aliança/PE,-7.60398,-35.222696,225,586.15120
D1,Aliança/PE,-7.60398,-35.222696,17,44.28698
1,Almadina/BA,-14.70466,-39.6381994,46,841.87408
D1,Almadina/BA,-14.70466,-39.6381994,1,18.30161
1,Almas/TO,-11.5681309,-47.1702803,4,56.69738
D1,Almas/TO,-11.5681309,-47.1702803,1,14.17434
1,Almeirim/PA,-1.5290377,-52.5788111,148,433.90308
D1,Almeirim/PA,-1.5290377,-52.5788111,15,43.97666
1,Almenara/MG,-16.1740678,-40.6904907,188,448.73019
D1,Almenara/MG,-16.1740678,-40.6904907,1,2.38686
1,Almino Afonso/RN,-6.1544208,-37.7649018,15,316.78986
1,Almirante Tamandaré/PR,-25.3133048,-49.2997838,269,226.76884
D1,Almirante Tamandaré/PR,-25.3133048,-49.2997838,3,2.52902
1,Aloândia/GO,-17.7277983,-49.4809338,1,50.12531
1,Alpercata/MG,-18.9803616,-41.9827637,79,1064.11638
1,Alpestre/RS,-27.2512339,-53.0349646,15,239.69319
1,Alpinópolis/MG,-20.863611,-46.387777,6,30.22213
1,Alta Floresta D'Oeste/RO,-11.9296917,-61.9961284,130,566.57224
1,Alta Floresta/MT,-9.8715018,-56.0839881,199,384.30343
D1,Alta Floresta/MT,-9.8715018,-56.0839881,5,9.65586
1,Altair/SP,-20.5238955,-49.0606135,2,48.07692
1,Altamira do Maranhão/MA,-4.1643006,-45.4674574,146,1796.25984
D1,Altamira do Maranhão/MA,-4.1643006,-45.4674574,5,61.51575
1,Altamira do Paraná/PR,-24.799114,-52.7128633,1,51.49331
1,Altamira/PA,-3.204065,-52.209961,2145,1871.82575
D1,Altamira/PA,-3.204065,-52.209961,64,55.84935
1,Altaneira/CE,-6.9980933,-39.7385742,2,26.36436
1,Alterosa/MG,-21.249166,-46.143055,2,13.82552
1,Altinho/PE,-8.4904095,-36.0607494,194,844.50636
D1,Altinho/PE,-8.4904095,-36.0607494,4,17.41250
1,Altinópolis/SP,-21.021364,-47.3712,30,185.36826
D1,Altinópolis/SP,-21.021364,-47.3712,2,12.35788
1,Alto Alegre do Maranhão/MA,-4.2055693,-44.4525287,318,1175.47037
D1,Alto Alegre do Maranhão/MA,-4.2055693,-44.4525287,9,33.26803
1,Alto Alegre do Pindaré/MA,-3.6698186,-45.8462153,1132,3546.47702
D1,Alto Alegre do Pindaré/MA,-3.6698186,-45.8462153,2,6.26586
1,Alto Alegre dos Parecis/RO,-12.1314515,-61.856265,49,370.06268
D1,Alto Alegre dos Parecis/RO,-12.1314515,-61.856265,1,7.55230
1,Alto Alegre/RR,2.98858,-61.307167,248,1598.96841
D1,Alto Alegre/RR,2.98858,-61.307167,7,45.13217
1,Alto Alegre/SP,-21.5820592,-50.1661976,8,195.16955
D1,Alto Alegre/SP,-21.5820592,-50.1661976,1,24.39619
1,Alto Araguaia/MT,-17.3156528,-53.2169365,57,299.30687
D1,Alto Araguaia/MT,-17.3156528,-53.2169365,3,15.75299
1,Alto Bela Vista/SC,-27.4320737,-51.905771,6,309.75736
1,Alto Boa Vista/MT,-11.6723985,-51.3744431,35,513.04603
D1,Alto Boa Vista/MT,-11.6723985,-51.3744431,2,29.31692
1,Alto Caparaó/MG,-20.4405661,-41.8683799,6,102.61673
1,Alto Feliz/RS,-29.3785943,-51.3123751,7,231.17569
1,Alto Garças/MT,-16.9469683,-53.529427,75,623.44140
1,Alto Horizonte/GO,-14.1954948,-49.3366993,28,436.54506
1,Alto Jequitibá/MG,-20.423611,-41.966111,23,276.54202
D1,Alto Jequitibá/MG,-20.423611,-41.966111,1,12.02357
1,Alto Longá/PI,-5.2549051,-42.2072388,41,286.63311
D1,Alto Longá/PI,-5.2549051,-42.2072388,1,6.99105
1,Alto Paraguai/MT,-14.513712,-56.4936374,18,158.50652
1,Alto Paraná/PR,-23.131247,-52.318893,15,101.55721
1,Alto Paraíso de Goiás/GO,-14.1304779,-47.5100161,43,564.00839
1,Alto Paraíso/PR,-23.508137,-53.728537,1,36.48304
1,Alto Paraíso/RO,-9.7240103,-63.3188123,79,368.67650
D1,Alto Paraíso/RO,-9.7240103,-63.3188123,4,18.66716
1,Alto Parnaíba/MA,-9.112506,-45.9310154,73,652.36819
D1,Alto Parnaíba/MA,-9.112506,-45.9310154,1,8.93655
1,Alto Piquiri/PR,-24.0239021,-53.4417448,18,183.00122
1,Alto Rio Doce/MG,-21.0239537,-43.4133507,56,509.09091
D1,Alto Rio Doce/MG,-21.0239537,-43.4133507,1,9.09091
1,Alto Rio Novo/ES,-19.0577208,-41.0171518,50,638.08065
D1,Alto Rio Novo/ES,-19.0577208,-41.0171518,5,63.80807
1,Alto Santo/CE,-5.5190371,-38.2719351,102,594.89094
D1,Alto Santo/CE,-5.5190371,-38.2719351,4,23.32906
1,Alto Taquari/MT,-17.8269099,-53.2831736,10,92.19139
D1,Alto Taquari/MT,-17.8269099,-53.2831736,1,9.21914
1,Alto do Rodrigues/RN,-5.290868,-36.7616726,200,1376.55723
D1,Alto do Rodrigues/RN,-5.290868,-36.7616726,8,55.06229
1,Altos/PI,-5.0393915,-42.4611694,494,1219.03070
D1,Altos/PI,-5.0393915,-42.4611694,6,14.80604
1,Altônia/PR,-23.8722004,-53.894037,16,72.54262
1,Alumínio/SP,-23.5203479,-47.2575256,53,284.51793
D1,Alumínio/SP,-23.5203479,-47.2575256,4,21.47305
1,Alvarenga/MG,-19.4175,-41.728334,105,2687.48400
D1,Alvarenga/MG,-19.4175,-41.728334,1,25.59509
1,Alvarães/AM,-3.214786,-64.8143124,1028,6408.57802
D1,Alvarães/AM,-3.214786,-64.8143124,13,81.04233
1,Alvinlândia/SP,-22.4431852,-49.7643596,1,31.03662
1,Alvinópolis/MG,-20.1105199,-43.0601805,10,65.77649
1,Alvorada D'Oeste/RO,-11.346271,-62.284697,30,208.17431
D1,Alvorada D'Oeste/RO,-11.346271,-62.284697,1,6.93914
1,Alvorada de Minas/MG,-18.7318587,-43.3641479,18,499.16805
D1,Alvorada de Minas/MG,-18.7318587,-43.3641479,1,27.73156
1,Alvorada do Gurguéia/PI,-8.4465288,-43.8655915,9,166.08230
1,Alvorada do Norte/GO,-14.483911,-46.4959897,21,242.49423
1,Alvorada do Sul/PR,-22.7807269,-51.2307721,10,87.67315
D1,Alvorada do Sul/PR,-22.7807269,-51.2307721,2,17.53463
1,Alvorada/RS,-29.9981184,-51.0772509,620,294.80992
D1,Alvorada/RS,-29.9981184,-51.0772509,14,6.65700
1,Alvorada/TO,-12.478465,-49.124926,25,297.19448
1,Além Paraíba/MG,-21.8760576,-42.6810473,184,520.33256
D1,Além Paraíba/MG,-21.8760576,-42.6810473,2,5.65579
1,Amajari/RR,3.6523869,-61.4194315,181,1414.50453
D1,Amajari/RR,3.6523869,-61.4194315,3,23.44483
1,Amambai/MS,-23.1082701,-55.2284854,24,60.91989
D1,Amambai/MS,-23.1082701,-55.2284854,2,5.07666
1,Amaporã/PR,-23.094272,-52.786597,20,319.64200
1,Amapá do Maranhão/MA,-1.6762114,-46.0109669,3,43.09107
1,Amapá/AP,2.0529997,-50.7930003,346,3798.44110
D1,Amapá/AP,2.0529997,-50.7930003,4,43.91261
1,Amaraji/PE,-8.373925,-35.4536527,108,473.08248
D1,Amaraji/PE,-8.373925,-35.4536527,17,74.46669
1,Amaralina/GO,-13.9236199,-49.2962411,3,78.69885
1,Amarante do Maranhão/MA,-5.56913,-46.747284,518,1250.15084
D1,Amarante do Maranhão/MA,-5.56913,-46.747284,11,26.54760
1,Amarante/PI,-6.2459374,-42.8476238,16,90.91942
1,Amargosa/BA,-13.03793715,-39.60796443875596,60,161.11275
D1,Amargosa/BA,-13.03793715,-39.60796443875596,1,2.68521
1,Amaturá/AM,-3.3640509,-68.1994689,444,3848.82108
D1,Amaturá/AM,-3.3640509,-68.1994689,8,69.34813
1,Americana/SP,-22.7392463,-47.3306032,877,366.03129
D1,Americana/SP,-22.7392463,-47.3306032,37,15.44260
1,Americano do Brasil/GO,-16.2515808,-49.9806104,51,834.56063
D1,Americano do Brasil/GO,-16.2515808,-49.9806104,1,16.36393
1,Ametista do Sul/RS,-27.3617341,-53.1826575,17,229.45067
1,Amontada/CE,-3.3634586,-39.8284791,677,1558.04106
D1,Amontada/CE,-3.3634586,-39.8284791,15,34.52085
1,Amorinópolis/GO,-16.6211308,-51.0949921,2,63.97953
1,Amparo de São Francisco/SE,-10.1299754,-36.9269099,16,673.96799
1,Amparo do Serra/MG,-20.5070255,-42.8028462,2,42.43582
1,Amparo/PB,-7.56394725,-37.04652873235175,12,536.19303
1,Amparo/SP,-22.70111,-46.76444,192,265.94640
D1,Amparo/SP,-22.70111,-46.76444,8,11.08110
1,Ampére/PR,-25.9168712,-53.4742414,7,36.54971
D1,Ampére/PR,-25.9168712,-53.4742414,1,5.22139
1,Amélia Rodrigues/BA,-12.4015388,-38.7516971,111,442.19584
1,América Dourada/BA,-11.4515262,-41.4357517,57,354.16926
1,Américo Brasiliense/SP,-21.7297099,-48.1052092,157,387.61604
D1,Américo Brasiliense/SP,-21.7297099,-48.1052092,2,4.93778
1,Américo de Campos/SP,-20.298476,-49.735904,39,653.37577
1,Anadia/AL,-9.6830208,-36.3052699,266,1516.10145
D1,Anadia/AL,-9.6830208,-36.3052699,2,11.39926
1,Anagé/BA,-14.6134669,-41.1376308,13,59.07748
D1,Anagé/BA,-14.6134669,-41.1376308,1,4.54442
1,Anahy/PR,-24.6450861,-53.1337957,16,571.22456
1,Anajatuba/MA,-3.26441,-44.6179916,242,902.88401
D1,Anajatuba/MA,-3.26441,-44.6179916,6,22.38555
1,Anajás/PA,-0.9878802,-49.9390114,391,1335.51935
D1,Anajás/PA,-0.9878802,-49.9390114,11,37.57216
1,Analândia/SP,-22.128917,-47.661939,9,180.18018
1,Anamã/AM,-3.5797356,-61.4049996,320,2350.52152
1,Ananindeua/PA,-1.374035,-48.4016623,4739,893.14321
D1,Ananindeua/PA,-1.374035,-48.4016623,338,63.70171
1,Ananás/TO,-6.3663053,-48.080238,46,481.72584
1,Anapu/PA,-3.4668292,-51.2057035,516,1850.12549
D1,Anapu/PA,-3.4668292,-51.2057035,7,25.09860
1,Anapurus/MA,-3.6751298,-43.1046001,517,3286.29545
D1,Anapurus/MA,-3.6751298,-43.1046001,4,25.42588
1,Anastácio/MS,-20.4832458,-55.8048448,5,19.89258
D1,Anastácio/MS,-20.4832458,-55.8048448,1,3.97852
1,Anchieta/ES,-20.8057672,-40.6454564,373,1274.64717
D1,Anchieta/ES,-20.8057672,-40.6454564,11,37.59013
1,Anchieta/SC,-26.5350527,-53.3293938,9,159.63107
1,Andaraí/BA,-12.8059674,-41.3322919,5,38.04306
1,Andirá/PR,-23.0494761,-50.2310027,50,249.61310
D1,Andirá/PR,-23.0494761,-50.2310027,1,4.99226
1,Andorinha/BA,-10.3445708,-39.8334411,16,109.62658
D1,Andorinha/BA,-10.3445708,-39.8334411,1,6.85166
1,Andradas/MG,-22.0680484,-46.5688976,25,60.86131
D1,Andradas/MG,-22.0680484,-46.5688976,1,2.43445
1,Andradina/SP,-20.896505,-51.3742765,68,118.97055
D1,Andradina/SP,-20.896505,-51.3742765,5,8.74783
1,Andrelândia/MG,-21.739722,-44.308889,17,139.07068
1,André da Rocha/RS,-28.6309124,-51.5733328,2,150.03751
1,Angatuba/SP,-23.4938938,-48.4110675,83,328.99952
D1,Angatuba/SP,-23.4938938,-48.4110675,2,7.92770
1,Angelim/PE,-8.8902038,-36.2872987,23,206.27803
1,Angelina/SC,-27.5805287,-48.9838759,10,208.28994
1,Angical do Piauí/PI,-6.0872666,-42.7366138,35,515.61579
D1,Angical do Piauí/PI,-6.0872666,-42.7366138,2,29.46376
1,Angical/BA,-12.005623,-44.7000236,1,7.15461
1,Angico/TO,-6.3893733,-47.8656722,11,320.41946
1,Angicos/RN,-5.6666344,-36.6009064,81,691.48028
D1,Angicos/RN,-5.6666344,-36.6009064,2,17.07359
1,Angra dos Reis/RJ,-23.0063966,-44.316326,2351,1153.66685
D1,Angra dos Reis/RJ,-23.0063966,-44.316326,87,42.69205
1,Anguera/BA,-12.1509425,-39.2452469,29,258.44399
1,Angélica/MS,-22.1588196,-53.7728504,9,83.48794
1,Anhanguera/GO,-18.3338749,-48.220363,2,174.06440
1,Anhembi/SP,-22.7891096,-48.1316776,2,29.74420
1,Anhumas/SP,-22.2956478,-51.3873401,8,194.41069
1,Anicuns/GO,-16.4606451,-49.9572265,137,627.00229
1,Anita Garibaldi/SC,-27.6855032,-51.1293873,25,350.48367
1,Anitápolis/SC,-27.9041185,-49.1287395,6,185.64356
1,Anori/AM,-3.7435254,-61.6605203,584,2779.62875
D1,Anori/AM,-3.7435254,-61.6605203,10,47.59638
1,Anta Gorda/RS,-28.9718745,-52.0069187,13,217.35496
1,Antas/BA,-10.4114649,-38.3308815,13,67.38894
1,Antonina do Norte/CE,-6.7754187,-39.9879345,12,163.19869
1,Antonina/PR,-25.4298854,-48.7125431,41,216.01686
1,Antônio Almeida/PI,-7.2186016,-44.1950248,13,410.87231
1,Antônio Cardoso/BA,-12.4363122,-39.1200307,14,119.83223
1,Antônio Carlos/MG,-21.318334,-43.746666,15,131.06160
1,Antônio Carlos/SC,-27.5168462,-48.7684715,67,787.03160
D1,Antônio Carlos/SC,-27.5168462,-48.7684715,4,46.98696
1,Antônio Dias/MG,-19.6525,-42.872778,31,332.68942
D1,Antônio Dias/MG,-19.6525,-42.872778,1,10.73192
1,Antônio Gonçalves/BA,-10.5715409,-40.2748824,24,203.42431
1,Antônio Martins/RN,-6.2155812,-37.8890129,3,41.98740
D1,Antônio Martins/RN,-6.2155812,-37.8890129,1,13.99580
1,Antônio Olinto/PR,-25.9849006,-50.1974516,9,121.06538
1,Antônio Prado/RS,-28.8567806,-51.2801355,15,114.94253
1,Anápolis/GO,-16.3332828,-48.9525756,1247,322.28635
D1,Anápolis/GO,-16.3332828,-48.9525756,21,5.42744
1,Anísio de Abreu/PI,-9.185643,-43.04941,27,273.27935
1,Aparecida d'Oeste/SP,-20.4498109,-50.8808706,11,262.15443
1,Aparecida de Goiânia/GO,-16.8226769,-49.2452546,3848,665.53784
D1,Aparecida de Goiânia/GO,-16.8226769,-49.2452546,74,12.79880
1,Aparecida do Rio Doce/GO,-18.2980167,-51.1491312,26,1050.92967
D1,Aparecida do Rio Doce/GO,-18.2980167,-51.1491312,1,40.42037
1,Aparecida do Rio Negro/TO,-9.9513491,-47.9773786,4,83.42023
1,Aparecida do Taboado/MS,-20.0840304,-51.1013943,22,85.45349
1,Aparecida/PB,-6.7859598, -38.0831353,33,395.35162
D1,Aparecida/PB,-6.7859598, -38.0831353,1,11.98035
1,Aparecida/SP,-22.851552,-45.2340924,36,99.56578
1,Aperibé/RJ,-21.6211928,-42.1028167,94,799.38770
D1,Aperibé/RJ,-21.6211928,-42.1028167,2,17.00825
1,Apiacá/ES,-21.152272,-41.569297,48,634.33329
D1,Apiacá/ES,-21.152272,-41.569297,2,26.43055
1,Apiacás/MT,-9.5678422,-57.394852,3,29.60624
D1,Apiacás/MT,-9.5678422,-57.394852,1,9.86875
1,Apiaí/SP,-24.5076527,-48.8461582,47,192.82842
D1,Apiaí/SP,-24.5076527,-48.8461582,2,8.20546
1,Apicum-Açu/MA,-1.5279295,-45.082278,196,1136.95690
D1,Apicum-Açu/MA,-1.5279295,-45.082278,3,17.40240
1,Apiúna/SC,-27.0374658,-49.3885037,16,148.93419
1,Apodi/RN,-5.6631109,-37.796927,834,2326.68434
D1,Apodi/RN,-5.6631109,-37.796927,13,36.26726
1,Aporá/BA,-11.6599747,-38.0794757,43,242.51311
D1,Aporá/BA,-11.6599747,-38.0794757,2,11.27968
1,Apuarema/BA,-13.8517897,-39.7457126,86,1173.26057
1,Apucarana/PR,-23.5525327,-51.4610764,176,130.37423
D1,Apucarana/PR,-23.5525327,-51.4610764,11,8.14839
1,Apuiarés/CE,-3.9460303,-39.4313298,129,883.56164
D1,Apuiarés/CE,-3.9460303,-39.4313298,10,68.49315
1,Apuí/AM,-7.1940195,-59.8830192,62,282.16447
1,Aquidabã/SE,-10.2837579,-37.0188687,152,704.91119
D1,Aquidabã/SE,-10.2837579,-37.0188687,6,27.82544
1,Aquidauana/MS,-20.473969,-55.7821375,6,12.53368
1,Aquiraz/CE,-3.9063117,-38.387504,692,862.07970
D1,Aquiraz/CE,-3.9063117,-38.387504,24,29.89872
1,Arabutã/SC,-27.1587028,-52.1438142,33,773.37708
1,Aracaju/SE,-10.9162061,-37.0774655,17396,2647.74061
D1,Aracaju/SE,-10.9162061,-37.0774655,356,54.18462
1,Aracati/CE,-4.558259,-37.767894,837,1122.78160
D1,Aracati/CE,-4.558259,-37.767894,39,52.31599
1,Aracatu/BA,-14.4274236,-41.4604105,16,121.81195
1,Araci/BA,-11.3356065,-38.9573261,320,588.46246
D1,Araci/BA,-11.3356065,-38.9573261,3,5.51684
1,Aracoiaba/CE,-4.3702577,-38.8084313,481,1817.22014
D1,Aracoiaba/CE,-4.3702577,-38.8084313,9,34.00204
1,Aracruz/ES,-19.8245218,-40.2735025,1259,1243.82533
D1,Aracruz/ES,-19.8245218,-40.2735025,35,34.57815
1,Aragarças/GO,-15.8957166,-52.2514538,54,268.41634
D1,Aragarças/GO,-15.8957166,-52.2514538,2,9.94135
1,Aragoiânia/GO,-16.9146388,-49.4499148,31,300.73729
D1,Aragoiânia/GO,-16.9146388,-49.4499148,1,9.70120
1,Aragominas/TO,-7.1654101,-48.525488,42,729.41994
1,Araguacema/TO,-8.8067391,-49.5560969,1,14.11233
1,Araguaiana/MT,-15.729144,-51.834112,7,225.80645
1,Araguainha/MT,-16.857016,-53.031778,1,106.95187
1,Araguanã/MA,-2.9508403,-45.6651986,422,2735.64113
D1,Araguanã/MA,-2.9508403,-45.6651986,2,12.96512
1,Araguanã/TO,-6.5799107,-48.6428482,37,645.83697
D1,Araguanã/TO,-6.5799107,-48.6428482,1,17.45505
1,Araguapaz/GO,-15.0937927,-50.626417,4,51.48005
D1,Araguapaz/GO,-15.0937927,-50.626417,1,12.87001
1,Araguari/MG,-18.6511256,-48.1933764,750,639.56612
D1,Araguari/MG,-18.6511256,-48.1933764,9,7.67479
1,Araguatins/TO,-5.6522925,-48.1158973,238,665.52949
D1,Araguatins/TO,-5.6522925,-48.1158973,16,44.74148
1,Araguaçu/TO,-12.928934,-49.823134,102,1197.60479
D1,Araguaçu/TO,-12.928934,-49.823134,1,11.74122
1,Araguaína/TO,-7.193241,-48.2018597,4658,2581.03840
D1,Araguaína/TO,-7.193241,-48.2018597,66,36.57118
1,Araioses/MA,-2.890914,-41.904993,436,938.84582
D1,Araioses/MA,-2.890914,-41.904993,5,10.76658
1,Aral Moreira/MS,-22.951141,-55.6268421,18,148.16034
1,Aramari/BA,-12.0907897,-38.4985065,9,78.96815
1,Arambaré/RS,-30.9132252,-51.4994625,1,27.92516
1,Arame/MA,-4.8858769,-46.0102484,151,461.75958
D1,Arame/MA,-4.8858769,-46.0102484,4,12.23204
1,Aramina/SP,-20.0876144,-47.789201,11,195.72954
D1,Aramina/SP,-20.0876144,-47.789201,1,17.79359
1,Arandu/SP,-23.1345103,-49.0545651,13,204.49898
D1,Arandu/SP,-23.1345103,-49.0545651,2,31.46138
1,Arantina/MG,-21.911667,-44.255833,4,143.11270
D1,Arantina/MG,-21.911667,-44.255833,1,35.77818
1,Arapeí/SP,-22.6738889,-44.4477778,1,40.50223
D1,Arapeí/SP,-22.6738889,-44.4477778,1,40.50223
1,Arapiraca/AL,-9.754866,-36.661471,3650,1574.99342
D1,Arapiraca/AL,-9.754866,-36.661471,54,23.30127
1,Arapoema/TO,-7.6575001,-49.0641484,18,270.96191
D1,Arapoema/TO,-7.6575001,-49.0641484,2,30.10688
1,Arapongas/PR,-23.415296,-51.42592,278,225.96666
D1,Arapongas/PR,-23.415296,-51.42592,8,6.50264
1,Araporã/MG,-18.4318188,-49.188313,51,742.46615
D1,Araporã/MG,-18.4318188,-49.188313,2,29.11632
1,Arapoti/PR,-24.1457957,-49.8224605,82,291.65926
D1,Arapoti/PR,-24.1457957,-49.8224605,1,3.55682
1,Araputanga/MT,-15.4710868,-58.346796,53,315.06361
D1,Araputanga/MT,-15.4710868,-58.346796,2,11.88919
1,Arapuá/MG,-19.034444,-46.155556,17,599.85886
1,Arapuã/PR,-24.3079525,-51.7901941,6,195.56714
D1,Arapuã/PR,-24.3079525,-51.7901941,1,32.59452
1,Araquari/SC,-26.3703324,-48.7210994,100,262.26757
D1,Araquari/SC,-26.3703324,-48.7210994,1,2.62268
1,Arara/PB,-6.8271895,-35.7605703,105,779.51002
D1,Arara/PB,-6.8271895,-35.7605703,1,7.42390
1,Araranguá/SC,-28.9348832,-49.4858389,137,200.79733
D1,Araranguá/SC,-28.9348832,-49.4858389,3,4.39702
1,Araraquara/SP,-21.7886713,-48.1773096,1149,486.71592
D1,Araraquara/SP,-21.7886713,-48.1773096,14,5.93039
1,Araras/SP,-22.3569477,-47.3838889,557,414.94085
D1,Araras/SP,-22.3569477,-47.3838889,21,15.64409
1,Ararendá/CE,-4.7504395,-40.8303611,17,155.46411
D1,Ararendá/CE,-4.7504395,-40.8303611,1,9.14495
1,Arari/MA,-3.4547602,-44.7772723,163,546.10024
D1,Arari/MA,-3.4547602,-44.7772723,4,13.40123
1,Araricá/RS,-29.6168543,-50.929121,16,280.80028
D1,Araricá/RS,-29.6168543,-50.929121,1,17.55002
1,Araripe/CE,-7.212861,-40.1359222,94,435.18519
D1,Araripe/CE,-7.212861,-40.1359222,1,4.62963
1,Araripina/PE,-7.5768582,-40.5038509,250,296.14537
D1,Araripina/PE,-7.5768582,-40.5038509,6,7.10749
1,Araruama/RJ,-22.8733203,-42.3428897,381,287.76435
D1,Araruama/RJ,-22.8733203,-42.3428897,36,27.19033
1,Araruna/PB,-6.5321155,-35.7397595,111,546.47499
D1,Araruna/PB,-6.5321155,-35.7397595,4,19.69279
1,Araruna/PR,-23.9320308,-52.4976047,46,329.27702
D1,Araruna/PR,-23.9320308,-52.4976047,3,21.47459
1,Arataca/BA,-15.2617424,-39.4122943,3,27.22570
1,Aratiba/RS,-27.3955734,-52.3024325,10,160.38492
1,Aratuba/CE,-4.4195958,-39.0463737,121,1021.35562
D1,Aratuba/CE,-4.4195958,-39.0463737,1,8.44096
1,Aratuípe/BA,-13.077137,-39.0010786,4,45.32578
D1,Aratuípe/BA,-13.077137,-39.0010786,1,11.33144
1,Araucária/PR,-25.5861107,-49.4051209,660,458.83359
D1,Araucária/PR,-25.5861107,-49.4051209,9,6.25682
1,Arauá/SE,-11.2644014,-37.6181058,60,596.65871
D1,Arauá/SE,-11.2644014,-37.6181058,6,59.66587
1,Araxá/MG,-19.5928536,-46.940241,276,259.81606
D1,Araxá/MG,-19.5928536,-46.940241,6,5.64818
1,Araçagi/PB,-6.8519969,-35.3835602,306,1801.37752
D1,Araçagi/PB,-6.8519969,-35.3835602,2,11.77371
1,Araçariguama/SP,-23.438611,-47.061389,93,415.84690
D1,Araçariguama/SP,-23.438611,-47.061389,2,8.94294
1,Araças/BA,-12.2139176,-38.2026159,9,73.90983
1,Araçatuba/SP,-21.207992,-50.4390225,1213,615.68604
D1,Araçatuba/SP,-21.207992,-50.4390225,33,16.74991
1,Araçaí/MG,-19.200833,-44.2475,1,42.60758
1,Araçoiaba da Serra/SP,-23.5045367,-47.6168158,113,330.93188
D1,Araçoiaba da Serra/SP,-23.5045367,-47.6168158,4,11.71440
1,Araçoiaba/PE,-7.7856903,-35.0898881,63,306.95771
D1,Araçoiaba/PE,-7.7856903,-35.0898881,8,38.97876
1,Araçu/GO,-16.3561579,-49.6815269,8,227.14367
1,Araçuaí/MG,-16.8484451,-42.0661868,11,29.96622
1,Araújos/MG,-19.948055,-45.165556,7,75.48798
1,Arceburgo/MG,-21.364444,-46.939722,9,83.54994
1,Arcos/MG,-20.282223,-45.539444,63,157.13858
D1,Arcos/MG,-20.282223,-45.539444,1,2.49426
1,Arcoverde/PE,-8.415192,-37.057748,346,465.44163
D1,Arcoverde/PE,-8.415192,-37.057748,23,30.93976
1,Areal/RJ,-22.2314922,-43.1056264,98,779.51002
D1,Areal/RJ,-22.2314922,-43.1056264,1,7.95418
1,Arealva/SP,-22.0301906,-48.9111936,6,70.09346
1,Areia Branca/RN,-4.9506652,-37.1263312,585,2106.28645
D1,Areia Branca/RN,-4.9506652,-37.1263312,42,151.22057
1,Areia Branca/SE,-10.7591455,-37.3148072,193,1040.88016
D1,Areia Branca/SE,-10.7591455,-37.3148072,8,43.14529
1,Areia de Baraúnas/PB,-7.1233949,-36.9446216,1,46.99248
1,Areia/PB,-6.9680243,-35.6994783,178,780.05171
D1,Areia/PB,-6.9680243,-35.6994783,1,4.38231
1,Areial/PB,-7.0501306,-35.9245244,30,428.69391
D1,Areial/PB,-7.0501306,-35.9245244,1,14.28980
1,Areias/SP,-22.5800929,-44.6975127,1,25.73340
1,Areiópolis/SP,-22.6758064,-48.6673653,21,188.69620
D1,Areiópolis/SP,-22.6758064,-48.6673653,3,26.95660
1,Arenápolis/MT,-14.4610369,-56.8432806,48,499.63568
D1,Arenápolis/MT,-14.4610369,-56.8432806,1,10.40908
1,Argirita/MG,-21.612761,-42.8371922,1,36.67033
1,Aricanduva/MG,-17.8678,-42.5569,1,19.11680
1,Arinos/MG,-15.917223,-46.106111,32,179.02098
1,Aripuanã/MT,-10.175806,-59.4439663,88,393.66556
D1,Aripuanã/MT,-10.175806,-59.4439663,2,8.94694
1,Ariquemes/RO,-9.9076522,-63.033069,1530,1418.46602
D1,Ariquemes/RO,-9.9076522,-63.033069,23,21.32335
1,Ariranha/SP,-21.18716,-48.790418,49,506.82664
1,Armazém/SC,-28.2624996,-49.0190126,41,472.67697
1,Armação dos Búzios/RJ,-22.7597805,-41.8875267,185,546.20608
D1,Armação dos Búzios/RJ,-22.7597805,-41.8875267,9,26.57219
1,Arneiroz/CE,-6.3235099,-40.1603859,38,484.69388
D1,Arneiroz/CE,-6.3235099,-40.1603859,2,25.51020
1,Aroazes/PI,-6.1108814,-41.7886137,14,239.93145
D1,Aroazes/PI,-6.1108814,-41.7886137,1,17.13796
1,Aroeiras do Itaim/PI,-7.2797031,-41.5629681,2,78.40063
1,Aroeiras/PB,-7.5462904,-35.7080002,96,501.22696
1,Arraial do Cabo/RJ,-22.9662839,-42.024427,86,283.37013
D1,Arraial do Cabo/RJ,-22.9662839,-42.024427,5,16.47501
1,Arraias/TO,-12.9287788,-46.9437231,6,56.78054
1,Arroio Grande/RS,-32.2384246,-53.0866661,7,38.26600
1,Arroio Trinta/SC,-26.9301976,-51.334928,28,788.73239
1,Arroio do Meio/RS,-29.4020392,-51.9444993,160,769.04590
1,Arroio do Sal/RS,-29.549852,-49.8874395,13,129.16046
D1,Arroio do Sal/RS,-29.549852,-49.8874395,2,19.87084
1,Arroio dos Ratos/RS,-30.0894524,-51.7265541,20,141.33277
D1,Arroio dos Ratos/RS,-30.0894524,-51.7265541,2,14.13328
1,Artur Nogueira/SP,-22.572737,-47.172679,98,180.12057
D1,Artur Nogueira/SP,-22.572737,-47.172679,2,3.67593
1,Aruanã/GO,-14.9162439,-51.0715692,7,70.88608
1,Arujá/SP,-23.396266,-46.3175449,643,715.84432
D1,Arujá/SP,-23.396266,-46.3175449,44,48.98468
1,Arvoredo/SC,-27.0752908,-52.4571847,24,1071.42857
D1,Arvoredo/SC,-27.0752908,-52.4571847,1,44.64286
1,Arvorezinha/RS,-28.87369,-52.17808,10,95.93246
D1,Arvorezinha/RS,-28.87369,-52.17808,1,9.59325
1,Arês/RN,-6.1969216,-35.1642968,127,887.73941
1,Ascurra/SC,-26.9569975,-49.3767752,25,315.09957
1,Aspásia/SP,-20.160028,-50.728046,21,1152.57958
1,Assaré/CE,-6.8746791,-39.8741385,129,550.88184
D1,Assaré/CE,-6.8746791,-39.8741385,2,8.54080
1,Assaí/PR,-23.3736041,-50.8454929,27,178.58324
D1,Assaí/PR,-23.3736041,-50.8454929,6,39.68516
1,Assis Brasil/AC,-10.9409203,-69.5672108,206,2777.40326
D1,Assis Brasil/AC,-10.9409203,-69.5672108,5,67.41270
1,Assis Chateaubriand/PR,-24.4054826,-53.5120468,121,362.68809
D1,Assis Chateaubriand/PR,-24.4054826,-53.5120468,2,5.99484
1,Assis/SP,-22.6620892,-50.420623,282,270.15117
D1,Assis/SP,-22.6620892,-50.420623,13,12.45378
1,Assunção do Piauí/PI,-5.8610212,-41.0485091,37,471.57787
D1,Assunção do Piauí/PI,-5.8610212,-41.0485091,1,12.74535
1,Assunção/PB,-7.073396,-36.7274003,26,651.62907
1,Astolfo Dutra/MG,-21.3132636,-42.8624102,23,162.21172
D1,Astolfo Dutra/MG,-21.3132636,-42.8624102,2,14.10537
1,Astorga/PR,-23.2350184,-51.6647074,28,107.23450
1,Atalaia do Norte/AM,-4.3658547,-70.1908742,582,2921.54008
D1,Atalaia do Norte/AM,-4.3658547,-70.1908742,4,20.07931
1,Atalaia/AL,-9.5029595,-36.0219316,439,930.38042
D1,Atalaia/AL,-9.5029595,-36.0219316,10,21.19318
1,Atalaia/PR,-23.1513833,-52.0529697,2,51.38746
1,Atalanta/SC,-27.421916,-49.778863,6,186.91589
1,Ataléia/MG,-18.04432,-41.1110524,35,271.99254
D1,Ataléia/MG,-18.04432,-41.1110524,2,15.54243
1,Atibaia/SP,-23.1177393,-46.5547861,309,216.44567
D1,Atibaia/SP,-23.1177393,-46.5547861,13,9.10613
1,Atilio Vivacqua/ES,-20.9139369,-41.1947519,117,980.22788
D1,Atilio Vivacqua/ES,-20.9139369,-41.1947519,2,16.75603
1,Augustinópolis/TO,-5.4662267,-47.8897519,298,1618.50967
D1,Augustinópolis/TO,-5.4662267,-47.8897519,4,21.72496
1,Augusto Corrêa/PA,-1.0229335,-46.6404029,784,1704.42193
D1,Augusto Corrêa/PA,-1.0229335,-46.6404029,18,39.13214
1,Augusto de Lima/MG,-18.1092963,-44.2651945,13,266.99528
1,Aurelino Leal/BA,-14.3167137,-39.3256107,142,1231.46301
D1,Aurelino Leal/BA,-14.3167137,-39.3256107,1,8.67227
1,Auriflama/SP,-20.6840418,-50.5554616,57,375.27158
D1,Auriflama/SP,-20.6840418,-50.5554616,2,13.16742
1,Aurilândia/GO,-16.6772599,-50.4641231,15,480.76923
1,Aurora do Pará/PA,-2.1323199,-47.558436,367,1171.10218
D1,Aurora do Pará/PA,-2.1323199,-47.558436,6,19.14608
1,Aurora do Tocantins/TO,-12.71045,-46.407604,9,239.55283
1,Aurora/CE,-6.9426019,-38.9693765,76,308.26641
D1,Aurora/CE,-6.9426019,-38.9693765,4,16.22455
1,Aurora/SC,-27.3166417,-49.6368502,15,264.13101
1,Autazes/AM,-3.5833283,-59.1301518,1022,2583.09112
D1,Autazes/AM,-3.5833283,-59.1301518,32,80.87957
1,Avanhandava/SP,-21.4603331,-49.9465156,10,73.26544
1,Avaré/SP,-23.1045215,-48.9259103,141,155.53472
D1,Avaré/SP,-23.1045215,-48.9259103,10,11.03083
1,Avaí/SP,-22.1564662,-49.3316395,14,259.11531
1,Aveiro/PA,-3.6049239,-55.3310742,176,1073.95655
D1,Aveiro/PA,-3.6049239,-55.3310742,4,24.40810
1,Avelino Lopes/PI,-10.1346855,-43.9489525,4,35.43272
D1,Avelino Lopes/PI,-10.1346855,-43.9489525,1,8.85818
1,Avelinópolis/GO,-16.4672409,-49.7578661,7,289.61523
1,Axixá do Tocantins/TO,-5.612747,-47.77007,101,1035.26035
D1,Axixá do Tocantins/TO,-5.612747,-47.77007,3,30.75031
1,Axixá/MA,-2.8379465,-44.0561053,70,577.08162
D1,Axixá/MA,-2.8379465,-44.0561053,2,16.48805
1,Açailândia/MA,-4.9514278,-47.4844564,2580,2294.45507
D1,Açailândia/MA,-4.9514278,-47.4844564,54,48.02348
1,Açu/RN,-5.5836157,-36.9139541,503,866.98726
D1,Açu/RN,-5.5836157,-36.9139541,24,41.36719
1,Açucena/MG,-19.073056,-42.546666,16,168.95459
D1,Açucena/MG,-19.073056,-42.546666,1,10.55966
1,Babaçulândia/TO,-7.2034355,-47.761613,35,328.20705
1,Bacabal/MA,-4.2318132,-44.781167,2139,2038.13281
D1,Bacabal/MA,-4.2318132,-44.781167,23,21.91541
1,Bacabeira/MA,-2.9775747,-44.3155943,124,727.05951
D1,Bacabeira/MA,-2.9775747,-44.3155943,1,5.86338
1,Bacuri/MA,-1.728894,-45.1417148,365,1964.26649
D1,Bacuri/MA,-1.728894,-45.1417148,2,10.76310
1,Bacurituba/MA,-2.7082587,-44.7381309,19,336.64068
1,Bady Bassitt/SP,-20.9178969,-49.4517911,135,771.34042
D1,Bady Bassitt/SP,-20.9178969,-49.4517911,5,28.56816
1,Baependi/MG,-21.959162,-44.8899249,5,26.11239
1,Bagre/PA,-1.8994498,-50.2103844,203,661.81984
D1,Bagre/PA,-1.8994498,-50.2103844,8,26.08157
1,Bagé/RS,-31.3314264,-54.1062808,128,105.66025
1,Baianópolis/BA,-12.3067564,-44.5383591,3,21.61851
1,Baixa Grande do Ribeiro/PI,-7.862861,-45.2113289,91,785.43069
D1,Baixa Grande do Ribeiro/PI,-7.862861,-45.2113289,3,25.89332
1,Baixa Grande/BA,-11.9630941,-40.1657537,2,9.77135
1,Baixio/CE,-6.7303544,-38.7170095,15,238.54962
1,Baixo Guandu/ES,-19.5138322,-41.0182089,257,829.08575
D1,Baixo Guandu/ES,-19.5138322,-41.0182089,9,29.03413
1,Baião/PA,-2.7903479,-49.6702845,234,493.19226
D1,Baião/PA,-2.7903479,-49.6702845,11,23.18425
1,Baldim/MG,-19.2913568,-43.9558262,1,12.77792
1,Baliza/GO,-16.1978119,-52.542789,1,19.46283
1,Balneário Arroio do Silva/SC,-28.9815269,-49.4189932,68,520.23564
D1,Balneário Arroio do Silva/SC,-28.9815269,-49.4189932,1,7.65052
1,Balneário Barra do Sul/SC,-26.459842,-48.6061471,46,426.12321
1,Balneário Camboriú/SC,-26.9924395,-48.6339782,2233,1569.27510
D1,Balneário Camboriú/SC,-26.9924395,-48.6339782,23,16.16360
1,Balneário Gaivota/SC,-29.1553098,-49.5808712,18,163.94936
D1,Balneário Gaivota/SC,-29.1553098,-49.5808712,3,27.32489
1,Balneário Pinhal/RS,-30.2482978,-50.234585,11,78.19164
1,Balneário Piçarras/SC,-26.7638889,-48.6716667,122,527.06614
D1,Balneário Piçarras/SC,-26.7638889,-48.6716667,1,4.32021
1,Balneário Rincão/SC,-28.8235718,-49.2241642,12,94.04389
D1,Balneário Rincão/SC,-28.8235718,-49.2241642,2,15.67398
1,Balsa Nova/PR,-25.5842234,-49.6312741,85,656.82714
D1,Balsa Nova/PR,-25.5842234,-49.6312741,2,15.45476
1,Balsas/MA,-7.53214,-46.037163,1257,1324.73363
D1,Balsas/MA,-7.53214,-46.037163,9,9.48497
1,Bambuí/MG,-20.0131996,-45.9777034,6,25.17940
1,Banabuiú/CE,-5.3046404,-38.919766,285,1566.19223
D1,Banabuiú/CE,-5.3046404,-38.919766,1,5.49541
1,Bananal/SP,-22.6828195,-44.3221095,12,109.63910
1,Bananeiras/PB,-6.7537682,-35.6338343,83,389.34234
D1,Bananeiras/PB,-6.7537682,-35.6338343,1,4.69087
1,Bandeira/MG,-15.884444,-40.559167,82,1710.11470
D1,Bandeira/MG,-15.884444,-40.559167,1,20.85506
1,Bandeirantes do Tocantins/TO,-7.7635698,-48.579148,15,422.17844
1,Bandeirantes/MS,-19.9179623,-54.3646768,6,88.39128
1,Bandeirantes/PR,-23.107788,-50.370407,39,124.33449
D1,Bandeirantes/PR,-23.107788,-50.370407,3,9.56419
1,Bannach/PA,-7.3508505,-50.4064531,54,1643.33536
D1,Bannach/PA,-7.3508505,-50.4064531,3,91.29641
1,Banzaê/BA,-10.5827616,-38.6122305,26,196.53791
1,Baraúna/PB,-6.643394,-36.2531932,116,2371.21832
1,Baraúna/RN,-5.0775002,-37.61752,229,807.07690
D1,Baraúna/RN,-5.0775002,-37.61752,9,31.71918
1,Barbacena/MG,-21.2254524,-43.7735087,392,285.47916
D1,Barbacena/MG,-21.2254524,-43.7735087,5,3.64132
1,Barbalha/CE,-7.3121067,-39.3036427,458,753.52495
D1,Barbalha/CE,-7.3121067,-39.3036427,8,13.16201
1,Barbosa Ferraz/PR,-24.0287182,-52.00811,18,155.60166
1,Barbosa/SP,-21.265661,-49.951816,5,67.54931
1,Barcarena/PA,-1.5107945,-48.6190679,2134,1711.58165
D1,Barcarena/PA,-1.5107945,-48.6190679,102,81.80943
1,Barcelona/RN,-5.9514918,-35.9260284,18,450.22511
1,Barcelos/AM,-0.9729214,-62.925635,1402,5097.81107
D1,Barcelos/AM,-0.9729214,-62.925635,24,87.26638
1,Bariri/SP,-22.0746355,-48.7394852,98,277.90381
D1,Bariri/SP,-22.0746355,-48.7394852,2,5.67151
1,Barra Bonita/SP,-22.490859,-48.558349,161,445.66240
D1,Barra Bonita/SP,-22.490859,-48.558349,4,11.07236
1,Barra D'Alcântara/PI,-6.5209258,-42.1071089,1,25.31005
1,Barra Funda/RS,-27.9230048,-53.0401045,1,39.38558
1,Barra Longa/MG,-20.2833541,-43.0423516,54,1052.42643
1,Barra Mansa/RJ,-22.5394843,-44.1735129,572,310.17504
D1,Barra Mansa/RJ,-22.5394843,-44.1735129,35,18.97924
1,Barra Velha/SC,-26.6338203,-48.6835001,89,305.12891
1,Barra da Estiva/BA,-13.6269662,-41.3278287,4,19.41936
1,Barra de Guabiraba/PE,-8.4173522,-35.6626669,110,764.68544
D1,Barra de Guabiraba/PE,-8.4173522,-35.6626669,7,48.66180
1,Barra de Santa Rosa/PB,-6.7218007,-36.0564638,18,117.00468
1,Barra de Santana/PB,-7.5230865,-35.9988518,60,717.78921
1,Barra de Santo Antônio/AL,-9.4038098,-35.5117693,98,615.11424
D1,Barra de Santo Antônio/AL,-9.4038098,-35.5117693,7,43.93673
1,Barra de São Francisco/ES,-18.7570902,-40.8916119,231,517.35722
D1,Barra de São Francisco/ES,-18.7570902,-40.8916119,7,15.67749
1,Barra de São Miguel/AL,-9.8261357,-35.8837777,98,1177.60154
D1,Barra de São Miguel/AL,-9.8261357,-35.8837777,4,48.06537
1,Barra de São Miguel/PB,-7.7528088,-36.3170996,7,115.97084
D1,Barra de São Miguel/PB,-7.7528088,-36.3170996,1,16.56726
1,Barra do Bugres/MT,-15.0683712,-57.1853688,69,197.33455
D1,Barra do Bugres/MT,-15.0683712,-57.1853688,2,5.71984
1,Barra do Chapéu/SP,-24.472203,-49.023784,4,69.88120
1,Barra do Choça/BA,-14.8638173,-40.5761637,75,237.31924
D1,Barra do Choça/BA,-14.8638173,-40.5761637,1,3.16426
1,Barra do Corda/MA,-5.496823,-45.248496,1868,2117.62572
D1,Barra do Corda/MA,-5.496823,-45.248496,16,18.13812
1,Barra do Garças/MT,-15.8916033,-52.2615413,310,508.09677
D1,Barra do Garças/MT,-15.8916033,-52.2615413,27,44.25359
1,Barra do Guarita/RS,-27.1888016,-53.7147086,9,277.09360
1,Barra do Jacaré/PR,-23.1151788,-50.1813945,1,35.95829
1,Barra do Mendes/BA,-11.8053298,-42.057037,3,21.63722
1,Barra do Ouro/TO,-7.7113784,-47.6743925,11,239.59922
D1,Barra do Ouro/TO,-7.7113784,-47.6743925,2,43.56349
1,Barra do Piraí/RJ,-22.4703403,-43.8263256,484,482.19658
D1,Barra do Piraí/RJ,-22.4703403,-43.8263256,27,26.89940
1,Barra do Ribeiro/RS,-30.2930206,-51.301437,22,163.07168
D1,Barra do Ribeiro/RS,-30.2930206,-51.301437,2,14.82470
1,Barra do Rio Azul/RS,-27.4101581,-52.4117471,2,118.34320
1,Barra do Rocha/BA,-14.2090974,-39.6004395,7,122.50613
1,Barra do Turvo/SP,-24.756421,-48.5056942,16,208.90456
D1,Barra do Turvo/SP,-24.756421,-48.5056942,1,13.05653
1,Barra dos Coqueiros/SE,-10.9075694,-37.0386249,579,1904.16680
D1,Barra dos Coqueiros/SE,-10.9075694,-37.0386249,9,29.59845
1,Barra/BA,-11.0892702,-43.1420453,33,61.59244
1,Barracão/PR,-26.252395,-53.6349576,20,194.64720
1,Barracão/RS,-27.6728964,-51.4582928,13,246.44550
1,Barras/PI,-4.2446153,-42.2920241,730,1551.01347
D1,Barras/PI,-4.2446153,-42.2920241,18,38.24417
1,Barreira/CE,-4.2883361,-38.641094,262,1168.33891
D1,Barreira/CE,-4.2883361,-38.641094,16,71.34894
1,Barreiras do Piauí/PI,-9.9224524,-45.4763776,2,59.73716
1,Barreiras/BA,-12.1440031,-44.9967406,482,310.08949
D1,Barreiras/BA,-12.1440031,-44.9967406,5,3.21670
1,Barreirinha/AM,-2.798863,-57.067897,687,2144.12784
D1,Barreirinha/AM,-2.798863,-57.067897,7,21.84701
1,Barreirinhas/MA,-2.7541271,-42.8259693,338,540.55783
D1,Barreirinhas/MA,-2.7541271,-42.8259693,18,28.78710
1,Barreiros/PE,-8.8159644,-35.1831905,229,536.81521
D1,Barreiros/PE,-8.8159644,-35.1831905,24,56.26011
1,Barretos/SP,-20.5531437,-48.5697509,1284,1051.61428
D1,Barretos/SP,-20.5531437,-48.5697509,47,38.49367
1,Barrinha/SP,-21.1898849,-48.1550642,139,423.62550
D1,Barrinha/SP,-21.1898849,-48.1550642,6,18.28599
1,Barro Alto/BA,-11.7618025,-41.9094904,2,13.39495
1,Barro Alto/GO,-14.9696025,-48.9190985,37,331.33339
1,Barro Duro/PI,-5.8180139,-42.5106589,62,881.68373
D1,Barro Duro/PI,-5.8180139,-42.5106589,1,14.22071
1,Barro Preto/BA,-14.8068289,-39.4727588,53,947.95207
D1,Barro Preto/BA,-14.8068289,-39.4727588,1,17.88589
1,Barro/CE,-7.1713587,-38.7742136,37,163.13933
D1,Barro/CE,-7.1713587,-38.7742136,6,26.45503
1,Barrocas/BA,-11.5165,-39.099282894736845,42,262.86143
1,Barrolândia/TO,-9.837246,-48.7264346,36,639.20455
D1,Barrolândia/TO,-9.837246,-48.7264346,1,17.75568
1,Barroquinha/CE,-3.0200371,-41.1339229,577,3842.31205
D1,Barroquinha/CE,-3.0200371,-41.1339229,11,73.25032
1,Barros Cassal/RS,-29.094938,-52.5832366,2,17.85874
D1,Barros Cassal/RS,-29.094938,-52.5832366,1,8.92937
1,Barroso/MG,-21.187222,-43.976111,36,172.99375
1,Barueri/SP,-23.5112184,-46.8764612,2411,879.34292
D1,Barueri/SP,-23.5112184,-46.8764612,225,82.06228
1,Barão de Antonina/SP,-23.6295651,-49.5632104,10,288.26751
1,Barão de Cocais/MG,-19.9452437,-43.4870298,156,480.22164
1,Barão de Cotegipe/RS,-27.6214694,-52.3765316,62,936.13166
D1,Barão de Cotegipe/RS,-27.6214694,-52.3765316,2,30.19780
1,Barão de Grajaú/MA,-6.7542591,-43.0263477,13,69.07545
1,Barão de Melgaço/MT,-16.195776,-55.9668049,9,105.09108
D1,Barão de Melgaço/MT,-16.195776,-55.9668049,1,11.67679
1,Barão de Monte Alto/MG,-21.244722,-42.2375,15,277.93218
1,Barão do Triunfo/RS,-30.3909877,-51.7375349,1,13.35648
1,Barão/RS,-29.372474,-51.494908,8,129.63863
1,Bastos/SP,-21.9222474,-50.7317727,11,52.49845
1,Bataguassu/MS,-21.715899,-52.422058,62,269.28423
1,Batalha/AL,-9.6733809,-37.1265481,206,1129.88153
D1,Batalha/AL,-9.6733809,-37.1265481,6,32.90917
1,Batalha/PI,-4.022391,-42.0780926,170,632.98209
D1,Batalha/PI,-4.022391,-42.0780926,4,14.89370
1,Batatais/SP,-20.892867,-47.592149,79,126.38382
D1,Batatais/SP,-20.892867,-47.592149,1,1.59980
1,Batayporã/MS,-22.2976466,-53.2685608,41,361.90308
D1,Batayporã/MS,-22.2976466,-53.2685608,3,26.48071
1,Baturité/CE,-4.3290203,-38.8821055,457,1278.32168
D1,Baturité/CE,-4.3290203,-38.8821055,25,69.93007
1,Bauru/SP,-22.3218102,-49.0705863,1818,482.46103
D1,Bauru/SP,-22.3218102,-49.0705863,35,9.28830
1,Bayeux/PB,-7.1301631,-34.936532,932,962.01486
D1,Bayeux/PB,-7.1301631,-34.936532,57,58.83567
1,Baía Formosa/RN,-6.3691885,-35.0063741,38,409.88027
D1,Baía Formosa/RN,-6.3691885,-35.0063741,1,10.78632
1,Baía da Traição/PB,-6.691258,-34.9371244,201,2235.07172
D1,Baía da Traição/PB,-6.691258,-34.9371244,3,33.35928
1,Bebedouro/SP,-20.949077,-48.479083,118,152.26592
D1,Bebedouro/SP,-20.949077,-48.479083,6,7.74234
1,Beberibe/CE,-4.1810469,-38.1298101,455,849.30842
D1,Beberibe/CE,-4.1810469,-38.1298101,24,44.79869
1,Bela Cruz/CE,-3.0529129,-40.167582,992,3043.78509
D1,Bela Cruz/CE,-3.0529129,-40.167582,14,42.95664
1,Bela Vista de Goiás/GO,-16.9692949,-48.9513071,133,443.70309
D1,Bela Vista de Goiás/GO,-16.9692949,-48.9513071,2,6.67223
1,Bela Vista de Minas/MG,-19.8289721,-43.0973688,9,87.76207
D1,Bela Vista de Minas/MG,-19.8289721,-43.0973688,1,9.75134
1,Bela Vista do Maranhão/MA,-3.7416367,-45.2514192,108,963.51146
D1,Bela Vista do Maranhão/MA,-3.7416367,-45.2514192,2,17.84280
1,Bela Vista do Paraíso/PR,-22.9948493,-51.1907996,26,168.86406
D1,Bela Vista do Paraíso/PR,-22.9948493,-51.1907996,3,19.48432
1,Bela Vista do Piauí/PI,-7.9716353,-41.8715061,1,24.90660
1,Bela Vista do Toldo/SC,-26.274625,-50.466354,2,31.56068
1,Bela Vista/MS,-22.107327,-56.5317344,2,8.12051
1,Belford Roxo/RJ,-22.7667284,-43.4033603,1545,302.40396
D1,Belford Roxo/RJ,-22.7667284,-43.4033603,184,36.01445
1,Belmiro Braga/MG,-21.9486291,-43.413564,8,233.30417
D1,Belmiro Braga/MG,-21.9486291,-43.413564,1,29.16302
1,Belmonte/BA,-15.8630837,-38.8792845,110,471.53635
D1,Belmonte/BA,-15.8630837,-38.8792845,1,4.28669
1,Belmonte/SC,-26.8448262,-53.578916,1,36.95492
1,Belo Horizonte/MG,-19.9227318,-43.9450948,8774,349.27371
D1,Belo Horizonte/MG,-19.9227318,-43.9450948,200,7.96156
1,Belo Jardim/PE,-8.3338293,-36.4176419,253,330.98288
D1,Belo Jardim/PE,-8.3338293,-36.4176419,12,15.69879
1,Belo Monte/AL,-9.8269944,-37.2787165,14,208.83055
1,Belo Oriente/MG,-19.2232523,-42.4807033,141,528.08989
D1,Belo Oriente/MG,-19.2232523,-42.4807033,5,18.72659
1,Belo Vale/MG,-20.407778,-44.024167,26,337.00583
D1,Belo Vale/MG,-20.407778,-44.024167,1,12.96176
1,Belterra/PA,-2.636091,-54.937392,86,484.99887
D1,Belterra/PA,-2.636091,-54.937392,7,39.47665
1,Belágua/MA,-3.1604031,-43.5085052,158,2115.41036
D1,Belágua/MA,-3.1604031,-43.5085052,1,13.38867
1,Belém de Maria/PE,-8.6242497,-35.8388934,35,289.90309
1,Belém do Brejo do Cruz/PB,-6.1880727,-37.5332267,9,122.58240
1,Belém do Piauí/PI,-7.3767305,-40.9712156,11,308.46887
D1,Belém do Piauí/PI,-7.3767305,-40.9712156,1,28.04262
1,Belém do São Francisco/PE,-8.7517707,-38.9625715,11,53.06575
1,Belém/AL,-9.5715351,-36.492841,34,782.68877
D1,Belém/AL,-9.5715351,-36.492841,1,23.02026
1,Belém/PA,-1.45056,-48.4682453,21373,1431.79177
D1,Belém/PA,-1.45056,-48.4682453,1972,132.10562
1,Belém/PB,-6.6967586,-35.5369626,348,1968.77122
D1,Belém/PB,-6.6967586,-35.5369626,3,16.97217
1,Beneditinos/PI,-5.4565671,-42.3605061,24,229.29206
D1,Beneditinos/PI,-5.4565671,-42.3605061,3,28.66151
1,Benedito Leite/MA,-7.2173453,-44.5523331,20,355.11364
1,Benedito Novo/SC,-26.7840657,-49.3629511,23,197.39101
1,Benevides/PA,-1.3555577,-48.252235,1321,2105.61551
D1,Benevides/PA,-1.3555577,-48.252235,51,81.29174
1,Benjamin Constant do Sul/RS,-27.5105555,-52.6007689,24,1203.61083
1,Benjamin Constant/AM,-4.3782748,-70.0290603,1464,3405.91848
D1,Benjamin Constant/AM,-4.3782748,-70.0290603,27,62.81407
1,Bento Fernandes/RN,-5.6926846,-35.8207423,13,236.49263
D1,Bento Fernandes/RN,-5.6926846,-35.8207423,1,18.19174
1,Bento Gonçalves/RS,-29.1654014,-51.5197627,1542,1280.15674
D1,Bento Gonçalves/RS,-29.1654014,-51.5197627,38,31.54731
1,Bento de Abreu/SP,-21.2707225,-50.8120444,6,201.34228
1,Bequimão/MA,-2.4495376,-44.7884889,170,798.87218
D1,Bequimão/MA,-2.4495376,-44.7884889,9,42.29323
1,Berilo/MG,-16.9515764,-42.4643732,5,41.90412
1,Bernardino Batista/PB,-6.4532173,-38.5495418,3,85.68980
1,Bernardino de Campos/SP,-23.0140216,-49.4760724,28,251.16613
1,Bernardo Sayão/TO,-7.8794244,-48.8968905,4,89.70621
1,Bernardo do Mearim/MA,-4.6315929,-44.7617508,48,794.30746
D1,Bernardo do Mearim/MA,-4.6315929,-44.7617508,2,33.09614
1,Bertioga/SP,-23.848568,-46.139586,721,1139.93897
D1,Bertioga/SP,-23.848568,-46.139586,17,26.87790
1,Bertolínia/PI,-7.6372159,-43.9540611,22,399.92729
1,Beruri/AM,-3.9007135,-61.3717319,460,2337.51715
D1,Beruri/AM,-3.9007135,-61.3717319,7,35.57091
1,Betim/MG,-19.968056,-44.198333,1354,308.18956
D1,Betim/MG,-19.968056,-44.198333,42,9.55979
1,Betânia do Piauí/PI,-8.1460635,-40.7961387,3,48.34811
1,Betânia/PE,-8.2742779,-38.0351767,20,157.24507
D1,Betânia/PE,-8.2742779,-38.0351767,1,7.86225
1,Bezerros/PE,-8.2372132,-35.7558262,277,455.60709
D1,Bezerros/PE,-8.2372132,-35.7558262,18,29.60624
1,Bias Fortes/MG,-21.605833,-43.756944,4,118.37822
1,Bicas/MG,-21.7213723,-43.0604327,20,137.98813
1,Biguaçu/SC,-27.4961277,-48.6542432,363,530.07404
D1,Biguaçu/SC,-27.4961277,-48.6542432,6,8.76155
1,Bilac/SP,-21.403962,-50.47464,10,124.47100
1,Biquinhas/MG,-18.783611,-45.502222,2,79.52286
1,Birigui/SP,-21.2908491,-50.34144,378,305.73125
D1,Birigui/SP,-21.2908491,-50.34144,13,10.51457
1,Biritiba-Mirim/SP,-23.5697765,-46.0407456,86,263.81987
D1,Biritiba-Mirim/SP,-23.5697765,-46.0407456,7,21.47371
1,Biritinga/BA,-11.6227908,-38.8066738,2,12.51643
1,Bituruna/PR,-26.161281,-51.5533319,28,170.84630
1,Blumenau/SC,-26.9195567,-49.0658025,2512,703.24945
D1,Blumenau/SC,-26.9195567,-49.0658025,13,3.63943
1,Boa Esperança do Sul/SP,-21.9930206,-48.3917372,27,180.92877
D1,Boa Esperança do Sul/SP,-21.9930206,-48.3917372,1,6.70107
1,Boa Esperança/ES,-18.5395472,-40.2904088,171,1137.19492
D1,Boa Esperança/ES,-18.5395472,-40.2904088,4,26.60105
1,Boa Esperança/MG,-21.0901253,-45.5660195,58,144.54108
D1,Boa Esperança/MG,-21.0901253,-45.5660195,5,12.46044
1,Boa Esperança/PR,-24.2411024,-52.7860277,12,292.32643
1,Boa Hora/PI,-4.4094627,-42.1255341,40,589.88350
1,Boa Nova/BA,-14.365907,-40.2063056,3,23.74733
1,Boa Ventura/PB,-7.4202462,-38.2156782,3,55.90757
1,Boa Viagem/CE,-5.1261877,-39.7300055,161,295.57555
D1,Boa Viagem/CE,-5.1261877,-39.7300055,12,22.03048
1,Boa Vista da Aparecida/PR,-25.4357216,-53.4067721,35,461.07232
D1,Boa Vista da Aparecida/PR,-25.4357216,-53.4067721,1,13.17349
1,Boa Vista das Missões/RS,-27.6677983,-53.3127622,3,142.99333
1,Boa Vista do Gurupi/MA,-1.7981168,-46.3071882,13,139.98062
D1,Boa Vista do Gurupi/MA,-1.7981168,-46.3071882,2,21.53548
1,Boa Vista do Ramos/AM,-2.9716927,-57.5869819,242,1259.95731
D1,Boa Vista do Ramos/AM,-2.9716927,-57.5869819,2,10.41287
1,Boa Vista do Sul/RS,-29.3510488,-51.6779679,13,467.12181
D1,Boa Vista do Sul/RS,-29.3510488,-51.6779679,1,35.93245
1,Boa Vista do Tupim/BA,-12.6605988,-40.6083594,6,32.29974
1,Boa Vista/PB,-7.2620711,-36.2415161,53,751.66643
1,Boa Vista/RR,2.8208478,-60.6719582,14915,3736.10078
D1,Boa Vista/RR,2.8208478,-60.6719582,308,77.15180
1,Boca da Mata/AL,-9.6452054,-36.2116658,582,2133.35288
D1,Boca da Mata/AL,-9.6452054,-36.2116658,11,40.32110
1,Boca do Acre/AM,-8.7553487,-67.3930873,661,1926.66433
D1,Boca do Acre/AM,-8.7553487,-67.3930873,10,29.14772
1,Bocaina de Minas/MG,-22.167778,-44.394722,4,78.58546
1,Bocaina do Sul/SC,-27.745494,-49.942279,1,28.78526
1,Bocaina/PI,-6.9445939,-41.3224599,29,644.44444
1,Bocaina/SP,-22.1421831,-48.522276,56,454.21364
D1,Bocaina/SP,-22.1421831,-48.522276,2,16.22192
1,Bocaiúva do Sul/PR,-25.206591,-49.114131,24,185.41409
D1,Bocaiúva do Sul/PR,-25.206591,-49.114131,1,7.72559
1,Bocaiúva/MG,-17.1160208,-43.8122678,75,150.06303
D1,Bocaiúva/MG,-17.1160208,-43.8122678,1,2.00084
1,Bodocó/PE,-7.777592,-39.933797,45,117.96781
D1,Bodocó/PE,-7.777592,-39.933797,3,7.86452
1,Bodoquena/MS,-20.5508775,-56.6769653,2,25.39683
1,Bodó/RN,-5.9866104,-36.4134824,2,89.96851
1,Bofete/SP,-23.1019554,-48.2610535,54,460.35806
D1,Bofete/SP,-23.1019554,-48.2610535,3,25.57545
1,Boituva/SP,-23.2838893,-47.6738231,311,509.86114
D1,Boituva/SP,-23.2838893,-47.6738231,9,14.75482
1,Bom Conselho/PE,-9.169191,-36.685683,190,391.31688
D1,Bom Conselho/PE,-9.169191,-36.685683,11,22.65519
1,Bom Despacho/MG,-19.7375242,-45.2517288,92,181.80022
D1,Bom Despacho/MG,-19.7375242,-45.2517288,1,1.97609
1,Bom Jardim da Serra/SC,-28.3380324,-49.625588,1,21.08370
1,Bom Jardim de Goiás/GO,-16.2062659,-52.172793,17,192.28594
1,Bom Jardim de Minas/MG,-21.9476466,-44.1906033,2,30.89280
1,Bom Jardim/MA,-3.54129,-45.606004,525,1261.10978
D1,Bom Jardim/MA,-3.54129,-45.606004,8,19.21691
1,Bom Jardim/PE,-7.7961572,-35.5871696,141,359.84075
D1,Bom Jardim/PE,-7.7961572,-35.5871696,13,33.17681
1,Bom Jardim/RJ,-22.1515328,-42.4186683,58,211.32405
D1,Bom Jardim/RJ,-22.1515328,-42.4186683,2,7.28704
1,Bom Jesus da Lapa/BA,-13.250571,-43.410754,71,102.67831
1,Bom Jesus da Serra/BA,-14.3724084,-40.5047119,22,222.67206
1,Bom Jesus das Selvas/MA,-4.4878075,-46.8526639,786,2309.86247
D1,Bom Jesus das Selvas/MA,-4.4878075,-46.8526639,4,11.75503
1,Bom Jesus de Goiás/GO,-18.2174587,-49.739721,54,214.14975
1,Bom Jesus do Amparo/MG,-19.7045132,-43.4752911,6,98.63554
1,Bom Jesus do Araguaia/MT,-12.1725897,-51.5074425,31,471.12462
1,Bom Jesus do Galho/MG,-19.8283191,-42.3162256,8,53.56545
D1,Bom Jesus do Galho/MG,-19.8283191,-42.3162256,3,20.08704
1,Bom Jesus do Itabapoana/RJ,-21.1341025,-41.680095,158,425.92193
D1,Bom Jesus do Itabapoana/RJ,-21.1341025,-41.680095,3,8.08713
1,Bom Jesus do Norte/ES,-21.1254776,-41.6711646,91,915.86151
D1,Bom Jesus do Norte/ES,-21.1254776,-41.6711646,2,20.12882
1,Bom Jesus do Sul/PR,-26.1922507,-53.6002033,4,112.96244
D1,Bom Jesus do Sul/PR,-26.1922507,-53.6002033,1,28.24061
1,Bom Jesus do Tocantins/PA,-5.0471796,-48.5978362,119,700.78323
1,Bom Jesus do Tocantins/TO,-8.96306,-48.165043,11,224.76502
1,Bom Jesus dos Perdões/SP,-23.1353864,-46.4648052,43,168.97202
1,Bom Jesus/PB,-6.8156725,-38.6551841,6,234.28348
1,Bom Jesus/PI,-9.0711644,-44.3583926,355,1409.90508
D1,Bom Jesus/PI,-9.0711644,-44.3583926,4,15.88625
1,Bom Jesus/RN,-5.9887544,-35.5821149,73,714.98531
D1,Bom Jesus/RN,-5.9887544,-35.5821149,2,19.58864
1,Bom Jesus/RS,-28.6692723,-50.4346894,55,484.62420
1,Bom Jesus/SC,-26.7350604,-52.3916519,36,1196.01329
1,Bom Lugar/MA,-4.3728019,-45.0366054,147,902.17258
1,Bom Princípio do Piauí/PI,-3.1912777,-41.6430185,14,248.66785
D1,Bom Princípio do Piauí/PI,-3.1912777,-41.6430185,1,17.76199
1,Bom Princípio/RS,-29.489788,-51.3566782,94,668.80114
1,Bom Progresso/RS,-27.5490948,-53.8655601,6,308.95984
1,Bom Repouso/MG,-22.4657069,-46.1485376,9,85.33232
1,Bom Retiro do Sul/RS,-29.6000007,-51.9359243,82,665.15250
D1,Bom Retiro do Sul/RS,-29.6000007,-51.9359243,1,8.11162
1,Bom Retiro/SC,-27.798993,-49.486994,2,20.06823
1,Bom Sucesso/MG,-21.0323516,-44.7598082,10,56.80850
1,Bom Sucesso/PB,-6.4458948,-37.9297662,7,140.70352
1,Bom Sucesso/PR,-23.7088019,-51.7651297,3,42.66212
D1,Bom Sucesso/PR,-23.7088019,-51.7651297,1,14.22071
1,Bombinhas/SC,-27.1519159,-48.4875691,308,1557.99484
1,Bonfim do Piauí/PI,-9.1648678,-42.8734415,2,35.27337
1,Bonfim/MG,-20.3266626, -44.2386157,13,189.28363
D1,Bonfim/MG,-20.3266626, -44.2386157,1,14.56028
1,Bonfim/RR,3.3613818,-59.8427241,213,1716.49609
D1,Bonfim/RR,3.3613818,-59.8427241,6,48.35200
1,Bonfinópolis de Minas/MG,-16.5660011,-45.98645,4,72.81995
1,Bonfinópolis/GO,-16.6172709,-48.9615701,58,597.56851
D1,Bonfinópolis/GO,-16.6172709,-48.9615701,2,20.60581
1,Boninal/BA,-12.7095183,-41.8299984,4,27.83964
1,Bonito de Minas/MG,-15.3191266,-44.7544,3,26.71416
1,Bonito de Santa Fé/PB,-7.3143332,-38.5146677,3,25.17412
1,Bonito/MS,-21.1264766,-56.4902208,91,414.08810
1,Bonito/PA,-1.3605722,-47.3049907,195,1197.34741
D1,Bonito/PA,-1.3605722,-47.3049907,6,36.84146
1,Bonito/PE,-8.4721161,-35.7314591,124,325.16914
D1,Bonito/PE,-8.4721161,-35.7314591,15,39.33498
1,Boqueirão do Leão/RS,-29.30332,-52.4296817,3,38.89033
1,Boqueirão do Piauí/PI,-4.4850148,-42.1095161,47,733.57265
D1,Boqueirão do Piauí/PI,-4.4850148,-42.1095161,1,15.60793
1,Boqueirão/PB,-7.487004,-36.130887,151,848.12402
D1,Boqueirão/PB,-7.487004,-36.130887,2,11.23343
1,Boquim/SE,-11.1450175,-37.6204228,112,417.66110
D1,Boquim/SE,-11.1450175,-37.6204228,7,26.10382
1,Boquira/BA,-12.8184859,-42.7270883,15,69.74149
1,Boracéia/SP,-22.195355,-48.7801925,17,352.47771
1,Borba/AM,-4.3934778,-59.5947721,535,1299.77406
D1,Borba/AM,-4.3934778,-59.5947721,19,46.16020
1,Borborema/PB,-6.8066718,-35.5990191,7,133.00399
1,Borborema/SP,-21.6212706,-49.074135,33,205.65873
1,Borda da Mata/MG,-22.274167,-46.165278,16,82.42324
1,Borebi/SP,-22.5700178,-48.9714871,12,452.31813
D1,Borebi/SP,-22.5700178,-48.9714871,1,37.69318
1,Borá/SP,-22.2701088,-50.544407,1,119.47431
1,Bossoroca/RS,-28.7278885,-54.9120278,3,47.77831
1,Botelhos/MG,-21.65,-46.394722,17,113.55287
D1,Botelhos/MG,-21.65,-46.394722,1,6.67958
1,Botucatu/SP,-22.8879628,-48.4410712,772,526.97325
D1,Botucatu/SP,-22.8879628,-48.4410712,16,10.92173
1,Botuporã/BA,-13.3744752,-42.5198469,2,19.58672
1,Botuverá/SC,-27.200749,-49.068892,18,343.11857
1,Braga/RS,-27.617348,-53.740514,3,89.47211
1,Braganey/PR,-24.8179919,-53.118506,32,589.64437
D1,Braganey/PR,-24.8179919,-53.118506,1,18.42639
1,Bragança Paulista/SP,-22.9520235,-46.5418586,696,412.64496
D1,Bragança Paulista/SP,-22.9520235,-46.5418586,14,8.30033
1,Bragança/PA,-1.0573967,-46.7635406,1842,1442.60138
D1,Bragança/PA,-1.0573967,-46.7635406,81,63.43687
1,Branquinha/AL,-9.2478057,-36.0152009,81,771.86964
D1,Branquinha/AL,-9.2478057,-36.0152009,3,28.58776
1,Brasil Novo/PA,-3.3055853,-52.539198,313,2074.77131
D1,Brasil Novo/PA,-3.3055853,-52.539198,2,13.25732
1,Brasileira/PI,-4.131182,-41.7824969,36,432.22476
1,Brasilândia de Minas/MG,-17.0096469,-46.0087183,20,120.93361
1,Brasilândia do Sul/PR,-24.1975793,-53.527551,6,226.32969
1,Brasilândia do Tocantins/TO,-8.3886619,-48.4842729,2,90.86779
1,Brasilândia/MS,-21.255575,-52.0365617,36,303.23450
D1,Brasilândia/MS,-21.255575,-52.0365617,2,16.84636
1,Brasiléia/AC,-11.0010413,-68.7487894,465,1769.54106
D1,Brasiléia/AC,-11.0010413,-68.7487894,7,26.63825
1,Brasnorte/MT,-12.1227151,-58.0050109,7,35.54202
1,Brasília de Minas/MG,-16.2075114,-44.430559,16,49.46363
1,Brasília/DF,-15.7934036,-47.8823172,64314,2132.94473
D1,Brasília/DF,-15.7934036,-47.8823172,801,26.56480
1,Brazabrantes/GO,-16.4291635,-49.3858216,16,432.08210
1,Brazópolis/MG,-22.4742842,-45.6165577,8,55.32886
1,Braço do Norte/SC,-28.2728633,-49.1622712,386,1153.96114
D1,Braço do Norte/SC,-28.2728633,-49.1622712,3,8.96861
1,Braço do Trombudo/SC,-27.358578,-49.882145,8,213.73230
1,Braúna/SP,-21.5015319,-50.3175246,19,334.15406
D1,Braúna/SP,-21.5015319,-50.3175246,1,17.58706
1,Braúnas/MG,-19.055556,-42.716111,2,41.65799
1,Brejetuba/ES,-20.1465817,-41.2902303,173,1394.71138
1,Brejinho de Nazaré/TO,-11.0205883,-48.5722906,14,254.68437
D1,Brejinho de Nazaré/TO,-11.0205883,-48.5722906,1,18.19174
1,Brejinho/PE,-7.3482153,-37.28538,29,387.33805
1,Brejinho/RN,-6.1957907,-35.3583019,80,629.97086
D1,Brejinho/RN,-6.1957907,-35.3583019,2,15.74927
1,Brejo Alegre/SP,-21.1671191,-50.1850393,5,174.52007
1,Brejo Grande do Araguaia/PA,-5.7011449,-48.4037308,52,704.60705
1,Brejo Grande/SE,-10.4287358,-36.4667918,16,192.56228
D1,Brejo Grande/SE,-10.4287358,-36.4667918,1,12.03514
1,Brejo Santo/CE,-7.4909841,-38.9859152,240,485.07387
D1,Brejo Santo/CE,-7.4909841,-38.9859152,5,10.10571
1,Brejo da Madre de Deus/PE,-8.1409718,-36.3712527,380,748.88652
D1,Brejo da Madre de Deus/PE,-8.1409718,-36.3712527,10,19.70754
1,Brejo de Areia/MA,-4.3316785,-45.5833334,104,1131.91119
1,Brejo do Cruz/PB,-6.32926065,-37.48746163303929,118,835.57570
D1,Brejo do Cruz/PB,-6.32926065,-37.48746163303929,1,7.08115
1,Brejo do Piauí/PI,-8.207583,-42.8359849,3,77.41935
1,Brejo dos Santos/PB,-6.3769367,-37.8243125,8,124.05024
1,Brejo/MA,-3.6804397,-42.7529313,439,1206.14336
D1,Brejo/MA,-3.6804397,-42.7529313,11,30.22227
1,Brejão/PE,-9.029146,-36.566034,11,122.31736
1,Brejões/BA,-13.1033754,-39.7909837,12,83.94544
1,Breu Branco/PA,-3.7785073,-49.5684795,216,327.04479
D1,Breu Branco/PA,-3.7785073,-49.5684795,16,24.22554
1,Breves/PA,-1.68036,-50.479085,1376,1339.81169
D1,Breves/PA,-1.68036,-50.479085,74,72.05383
1,Britânia/GO,-15.2427599,-51.1602061,7,121.12822
1,Brochier/RS,-29.556766,-51.5963047,19,374.45802
1,Brodowski/SP,-20.984532,-47.657217,106,425.03709
D1,Brodowski/SP,-20.984532,-47.657217,2,8.01957
1,Brotas de Macaúbas/BA,-12.0019007,-42.6257506,1,9.77422
1,Brotas/SP,-22.2840884,-48.1267265,14,57.37000
1,Brumadinho/MG,-20.143611,-44.2,282,703.18929
1,Brumado/BA,-14.29507325,-41.659307508575985,218,324.42890
D1,Brumado/BA,-14.29507325,-41.659307508575985,3,4.46462
1,Brunópolis/SC,-27.310953,-50.837585,10,413.22314
1,Brusque/SC,-27.0964628,-48.9136323,563,417.89449
D1,Brusque/SC,-27.0964628,-48.9136323,4,2.96906
1,Brás Pires/MG,-20.8483109,-43.2430524,2,46.15740
1,Bueno Brandão/MG,-22.441976,-46.3517971,13,118.17108
D1,Bueno Brandão/MG,-22.441976,-46.3517971,3,27.27025
1,Buenos Aires/PE,-7.7218931,-35.326587,34,258.45686
D1,Buenos Aires/PE,-7.7218931,-35.326587,3,22.80502
1,Buenópolis/MG,-17.8756607,-44.1749365,75,723.58900
D1,Buenópolis/MG,-17.8756607,-44.1749365,1,9.64785
1,Buerarema/BA,-14.9571177,-39.3008035,125,681.23603
D1,Buerarema/BA,-14.9571177,-39.3008035,9,49.04899
1,Bugre/MG,-19.4257687,-42.2556,9,226.01708
1,Bujari/AC,-9.8309656,-67.9520886,237,2308.59147
D1,Bujari/AC,-9.8309656,-67.9520886,3,29.22268
1,Bujaru/PA,-1.5169239,-48.0410699,222,762.04861
D1,Bujaru/PA,-1.5169239,-48.0410699,21,72.08568
1,Buri/SP,-23.79849,-48.598924,42,211.28886
D1,Buri/SP,-23.79849,-48.598924,4,20.12275
1,Buritama/SP,-21.0664017,-50.1448077,54,314.97900
D1,Buritama/SP,-21.0664017,-50.1448077,4,23.33178
1,Buriti Alegre/GO,-18.1377879,-49.0404411,73,771.75177
D1,Buriti Alegre/GO,-18.1377879,-49.0404411,1,10.57194
1,Buriti Bravo/MA,-5.8391884,-43.8367876,51,213.53207
1,Buriti de Goiás/GO,-16.180644,-50.4287479,17,683.27974
1,Buriti do Tocantins/TO,-5.3187439,-48.2256609,99,872.40042
1,Buriti dos Lopes/PI,-3.1776723,-41.8707444,310,1567.16041
D1,Buriti dos Lopes/PI,-3.1776723,-41.8707444,6,30.33214
1,Buriti dos Montes/PI,-5.3136171,-41.0971256,4,48.52014
D1,Buriti dos Montes/PI,-5.3136171,-41.0971256,1,12.13003
1,Buriti/MA,-3.9430944,-42.9244281,248,864.77439
1,Buriticupu/MA,-4.3227472,-46.4516989,1281,1770.36402
D1,Buriticupu/MA,-4.3227472,-46.4516989,4,5.52807
1,Buritinópolis/GO,-14.4589282,-46.4293104,3,91.13001
1,Buritirama/BA,-10.7148421,-43.6362327,32,151.12874
1,Buritirana/MA,-5.5897455,-47.0148915,208,1348.02333
D1,Buritirana/MA,-5.5897455,-47.0148915,6,38.88529
1,Buritis/MG,-15.621389,-46.423889,40,161.02411
1,Buritis/RO,-10.2054937,-63.8281954,154,388.35931
D1,Buritis/RO,-10.2054937,-63.8281954,2,5.04363
1,Buritizal/SP,-20.1933264,-47.7097165,6,133.89868
1,Buritizeiro/MG,-17.3667765,-44.9647781,51,181.77930
D1,Buritizeiro/MG,-17.3667765,-44.9647781,1,3.56430
1,Butiá/RS,-30.1256795,-51.9692224,50,238.76606
D1,Butiá/RS,-30.1256795,-51.9692224,1,4.77532
1,Buíque/PE,-8.6239732,-37.157296,67,114.76926
D1,Buíque/PE,-8.6239732,-37.157296,2,3.42595
1,Bálsamo/SP,-20.7343722,-49.5807484,42,463.16718
0,CASO SEM LOCALIZAÇÃO DEFINIDA/AC,-9.884083190922777,-67.85119819780795,226,25.62547
D0,CASO SEM LOCALIZAÇÃO DEFINIDA/AC,-9.884083190922777,-67.85119819780795,5,0.56694
0,CASO SEM LOCALIZAÇÃO DEFINIDA/AL,-9.931093434363673,-35.609611600637464,120,3.59566
D0,CASO SEM LOCALIZAÇÃO DEFINIDA/AL,-9.931093434363673,-35.609611600637464,7,0.20975
0,CASO SEM LOCALIZAÇÃO DEFINIDA/AM,-3.07518492149711,-60.16169212873594,915,22.07694
D0,CASO SEM LOCALIZAÇÃO DEFINIDA/AM,-3.07518492149711,-60.16169212873594,15,0.36192
0,CASO SEM LOCALIZAÇÃO DEFINIDA/AP,2.677150600275196,-50.477785111870624,230,27.19541
D0,CASO SEM LOCALIZAÇÃO DEFINIDA/AP,2.677150600275196,-50.477785111870624,7,0.82769
0,CASO SEM LOCALIZAÇÃO DEFINIDA/BA,-13.415069300066518,-38.14174656569957,6977,46.91031
D0,CASO SEM LOCALIZAÇÃO DEFINIDA/BA,-13.415069300066518,-38.14174656569957,70,0.47065
0,CASO SEM LOCALIZAÇÃO DEFINIDA/CE,-3.3445126297392798,-38.624961942434304,4119,45.10474
D0,CASO SEM LOCALIZAÇÃO DEFINIDA/CE,-3.3445126297392798,-38.624961942434304,102,1.11694
0,CASO SEM LOCALIZAÇÃO DEFINIDA/ES,-20.30989267097039,-39.81745156645774,2370,58.97503
D0,CASO SEM LOCALIZAÇÃO DEFINIDA/ES,-20.30989267097039,-39.81745156645774,37,0.92071
0,CASO SEM LOCALIZAÇÃO DEFINIDA/MG,-19.97049116501593,-43.8852149072783,522,2.46589
D0,CASO SEM LOCALIZAÇÃO DEFINIDA/MG,-19.97049116501593,-43.8852149072783,21,0.09920
0,CASO SEM LOCALIZAÇÃO DEFINIDA/MS,-20.391549234908513,-54.645156949758444,376,13.53011
D0,CASO SEM LOCALIZAÇÃO DEFINIDA/MS,-20.391549234908513,-54.645156949758444,6,0.21591
0,CASO SEM LOCALIZAÇÃO DEFINIDA/MT,-15.54791153961863,-56.17143998972475,452,12.97186
D0,CASO SEM LOCALIZAÇÃO DEFINIDA/MT,-15.54791153961863,-56.17143998972475,17,0.48788
0,CASO SEM LOCALIZAÇÃO DEFINIDA/PB,-7.1049355696146606,-34.68696690234351,3616,89.99218
D0,CASO SEM LOCALIZAÇÃO DEFINIDA/PB,-7.1049355696146606,-34.68696690234351,72,1.79188
0,CASO SEM LOCALIZAÇÃO DEFINIDA/PE,-8.121628543819208,-34.57313921302556,1612,16.86709
D0,CASO SEM LOCALIZAÇÃO DEFINIDA/PE,-8.121628543819208,-34.57313921302556,128,1.33932
0,CASO SEM LOCALIZAÇÃO DEFINIDA/PR,-25.69415946385943,-48.10141676336737,1775,15.52393
D0,CASO SEM LOCALIZAÇÃO DEFINIDA/PR,-25.69415946385943,-48.10141676336737,58,0.50726
0,CASO SEM LOCALIZAÇÃO DEFINIDA/RJ,-23.210238986465157,-43.12864305824042,2243,12.99164
D0,CASO SEM LOCALIZAÇÃO DEFINIDA/RJ,-23.210238986465157,-43.12864305824042,89,0.51550
0,CASO SEM LOCALIZAÇÃO DEFINIDA/RN,-5.749310788669161,-34.95302586257457,704,20.07498
D0,CASO SEM LOCALIZAÇÃO DEFINIDA/RN,-5.749310788669161,-34.95302586257457,35,0.99805
0,CASO SEM LOCALIZAÇÃO DEFINIDA/RO,-8.681174926655274,-63.9216949899276,504,28.35882
D0,CASO SEM LOCALIZAÇÃO DEFINIDA/RO,-8.681174926655274,-63.9216949899276,8,0.45014
0,CASO SEM LOCALIZAÇÃO DEFINIDA/RR,2.813328208465927,-60.663338675861986,207,34.17189
D0,CASO SEM LOCALIZAÇÃO DEFINIDA/RR,2.813328208465927,-60.663338675861986,1,0.16508
0,CASO SEM LOCALIZAÇÃO DEFINIDA/SC,-27.675643660562308,-48.18313219398259,600,8.37429
D0,CASO SEM LOCALIZAÇÃO DEFINIDA/SC,-27.675643660562308,-48.18313219398259,6,0.08374
0,CASO SEM LOCALIZAÇÃO DEFINIDA/SE,-11.03002091978736,-36.89283180376513,1772,77.08718
D0,CASO SEM LOCALIZAÇÃO DEFINIDA/SE,-11.03002091978736,-36.89283180376513,49,2.13164
0,CASO SEM LOCALIZAÇÃO DEFINIDA/SP,-24.30968974555485,-46.21366504207253,56,0.12195
1,Caapiranga/AM,-3.3188884,-61.2096404,158,1207.85873
D1,Caapiranga/AM,-3.3188884,-61.2096404,4,30.57870
1,Caaporã/PB,-7.510234,-34.9154114,778,3564.22943
D1,Caaporã/PB,-7.510234,-34.9154114,9,41.23145
1,Caarapó/MS,-22.6349267,-54.8240903,35,115.99390
1,Caatiba/BA,-14.9782759,-40.4092325,64,947.02575
1,Cabaceiras do Paraguaçu/BA,-12.5377868,-39.1901339,20,106.34338
D1,Cabaceiras do Paraguaçu/BA,-12.5377868,-39.1901339,1,5.31717
1,Cabaceiras/PB,-7.4899156,-36.2860501,11,196.04349
1,Cabeceira Grande/MG,-16.0297,-47.0906,5,71.95280
1,Cabeceiras do Piauí/PI,-4.4733665,-42.3098716,41,387.30399
1,Cabeceiras/GO,-15.7995459,-46.9264991,5,62.55474
D1,Cabeceiras/GO,-15.7995459,-46.9264991,1,12.51095
1,Cabedelo/PB,-6.97324,-34.8351609,1934,2855.20255
D1,Cabedelo/PB,-6.97324,-34.8351609,20,29.52640
1,Cabixi/RO,-13.4956065,-60.5424442,12,225.90361
D1,Cabixi/RO,-13.4956065,-60.5424442,1,18.82530
1,Cabo Frio/RJ,-22.8804369,-42.0189227,1005,443.65964
D1,Cabo Frio/RJ,-22.8804369,-42.0189227,50,22.07262
1,Cabo Verde/MG,-21.4743338,-46.3964995,4,28.41918
1,Cabo de Santo Agostinho/PE,-8.2838945,-35.0320984,1062,512.92454
D1,Cabo de Santo Agostinho/PE,-8.2838945,-35.0320984,166,80.17465
1,Cabreúva/SP,-23.3075813,-47.1324417,398,800.69206
D1,Cabreúva/SP,-23.3075813,-47.1324417,21,42.24757
1,Cabrobó/PE,-8.5083701,-39.3106961,113,330.20660
D1,Cabrobó/PE,-8.5083701,-39.3106961,2,5.84436
1,Cabrália Paulista/SP,-22.4562909,-49.3385645,23,539.39962
1,Cacaulândia/RO,-10.3380043,-62.9007231,15,240.77047
1,Cacequi/RS,-29.8838059,-54.8273443,2,15.92230
1,Cachoeira Alta/GO,-18.7618269,-50.9432431,37,296.37937
D1,Cachoeira Alta/GO,-18.7618269,-50.9432431,1,8.01025
1,Cachoeira Dourada/GO,-18.4934204,-49.481062,12,148.75418
1,Cachoeira Dourada/MG,-18.517136,-49.5002062,2,74.29421
1,Cachoeira Grande/MA,-2.9290492,-44.0573223,82,869.47301
D1,Cachoeira Grande/MA,-2.9290492,-44.0573223,3,31.80999
1,Cachoeira Paulista/SP,-22.666498,-45.015384,56,168.03193
D1,Cachoeira Paulista/SP,-22.666498,-45.015384,1,3.00057
1,Cachoeira da Prata/MG,-19.524723,-44.453056,1,27.75465
1,Cachoeira de Goiás/GO,-16.6688414,-50.6435997,1,74.01925
1,Cachoeira de Minas/MG,-22.3554043,-45.7796324,13,112.58335
1,Cachoeira de Pajeú/MG,-15.965833,-41.496666,4,42.49894
1,Cachoeira do Arari/PA,-1.0143572,-48.9621089,183,769.97518
D1,Cachoeira do Arari/PA,-1.0143572,-48.9621089,10,42.07515
1,Cachoeira do Piriá/PA,-1.7599443,-46.5446954,287,846.60767
D1,Cachoeira do Piriá/PA,-1.7599443,-46.5446954,1,2.94985
1,Cachoeira do Sul/RS,-30.0474778,-52.8905413,119,144.76710
1,Cachoeira dos Índios/PB,-6.9259193,-38.6742159,44,429.51972
D1,Cachoeira dos Índios/PB,-6.9259193,-38.6742159,3,29.28544
1,Cachoeira/BA,-12.5998256,-38.9665918,92,274.87302
D1,Cachoeira/BA,-12.5998256,-38.9665918,1,2.98775
1,Cachoeiras de Macacu/RJ,-22.4626861,-42.6534414,345,585.37082
D1,Cachoeiras de Macacu/RJ,-22.4626861,-42.6534414,20,33.93454
1,Cachoeirinha/PE,-8.4906364,-36.2338963,146,716.38862
D1,Cachoeirinha/PE,-8.4906364,-36.2338963,10,49.06771
1,Cachoeirinha/RS,-29.9493353,-51.0898927,529,406.00800
D1,Cachoeirinha/RS,-29.9493353,-51.0898927,7,5.37251
1,Cachoeirinha/TO,-6.118647,-47.9208885,9,395.60440
1,Cachoeiro de Itapemirim/ES,-20.848084,-41.11129,2179,1042.72343
D1,Cachoeiro de Itapemirim/ES,-20.848084,-41.11129,78,37.32557
1,Cacimba de Areia/PB,-7.1288513,-37.1575194,7,190.11407
1,Cacimba de Dentro/PB,-6.6425101,-35.7929304,53,308.37261
1,Cacimbas/PB,-7.2125451,-37.0593398,40,557.64673
D1,Cacimbas/PB,-7.2125451,-37.0593398,1,13.94117
1,Cacimbinhas/AL,-9.401212,-36.991082,56,515.74876
D1,Cacimbinhas/AL,-9.401212,-36.991082,2,18.41960
1,Cacique Doble/RS,-27.7700117,-51.6616409,19,375.12340
1,Cacoal/RO,-11.4333,-61.4420502,340,398.31769
D1,Cacoal/RO,-11.4333,-61.4420502,5,5.85761
1,Caconde/SP,-21.527995,-46.643659,8,42.13853
1,Caculé/BA,-14.4990734,-42.2233006,3,12.94778
D1,Caculé/BA,-14.4990734,-42.2233006,1,4.31593
1,Caetanos/BA,-14.3387456,-40.9085971,4,27.50653
1,Caetanópolis/MG,-19.2947496,-44.4138386,13,111.83758
1,Caetité/BA,-14.0691776,-42.4852428,46,90.24031
1,Caeté/MG,-19.897777,-43.670278,69,154.30028
1,Caetés/PE,-8.7728788,-36.6255835,100,347.95922
D1,Caetés/PE,-8.7728788,-36.6255835,4,13.91837
1,Cafarnaum/BA,-11.691399,-41.468823,3,16.27163
1,Cafeara/PR,-22.78905,-51.714195,8,272.66530
1,Cafelândia/PR,-24.6176963,-53.3218057,51,281.45695
D1,Cafelândia/PR,-24.6176963,-53.3218057,1,5.51876
1,Cafelândia/SP,-21.8054355,-49.6030627,24,135.08189
D1,Cafelândia/SP,-21.8054355,-49.6030627,2,11.25682
1,Cafezal do Sul/PR,-23.900508,-53.512418,3,74.18398
1,Caiabu/SP,-22.0143038,-51.2356597,9,214.74588
D1,Caiabu/SP,-22.0143038,-51.2356597,1,23.86065
1,Caiana/MG,-20.695555,-41.924723,9,163.75546
D1,Caiana/MG,-20.695555,-41.924723,1,18.19505
1,Caiapônia/GO,-16.9538779,-51.8090761,8,42.29895
1,Caibaté/RS,-28.290475,-54.645407,1,20.63558
1,Caibi/SC,-27.0751925,-53.2502133,19,309.04359
D1,Caibi/SC,-27.0751925,-53.2502133,1,16.26545
1,Caicó/RN,-6.4594544,-37.0971911,406,597.48057
D1,Caicó/RN,-6.4594544,-37.0971911,10,14.71627
1,Caieiras/SP,-23.3644621,-46.7484765,731,720.40997
D1,Caieiras/SP,-23.3644621,-46.7484765,55,54.20321
1,Cairu/BA,-13.4860505,-39.0455744,59,324.60387
D1,Cairu/BA,-13.4860505,-39.0455744,2,11.00352
1,Caiuá/SP,-21.8319357,-51.9887179,2,34.04835
1,Caiçara do Norte/RN,-5.0645017,-36.0561226,55,839.82287
D1,Caiçara do Norte/RN,-5.0645017,-36.0561226,2,30.53901
1,Caiçara do Rio do Vento/RN,-5.757968,-36.00089,49,1330.07600
D1,Caiçara do Rio do Vento/RN,-5.757968,-36.00089,1,27.14441
1,Caiçara/PB,-6.6146866,-35.4681434,249,3457.85308
D1,Caiçara/PB,-6.6146866,-35.4681434,2,27.77392
1,Caiçara/RS,-27.2750478,-53.4310053,7,147.58592
1,Cajamar/SP,-23.3561111,-46.8769444,729,949.20639
D1,Cajamar/SP,-23.3561111,-46.8769444,46,59.89505
1,Cajapió/MA,-2.8778715,-44.6746871,5,44.73472
D1,Cajapió/MA,-2.8778715,-44.6746871,2,17.89389
1,Cajari/MA,-3.3213076,-45.0118757,119,614.06677
D1,Cajari/MA,-3.3213076,-45.0118757,1,5.16022
1,Cajati/SP,-24.7272376,-48.1077914,174,609.47844
D1,Cajati/SP,-24.7272376,-48.1077914,2,7.00550
1,Cajazeiras do Piauí/PI,-6.794271,-42.3935024,4,112.39112
1,Cajazeiras/PB,-6.8897849,-38.5570389,646,1042.05314
D1,Cajazeiras/PB,-6.8897849,-38.5570389,16,25.80937
1,Cajazeirinhas/PB,-6.961442,-37.7993733,1,31.31851
1,Cajobi/SP,-20.8776238,-48.8106972,25,237.14665
D1,Cajobi/SP,-20.8776238,-48.8106972,1,9.48587
1,Cajueiro da Praia/PI,-2.931114,-41.340801,106,1387.07145
D1,Cajueiro da Praia/PI,-2.931114,-41.340801,3,39.25674
1,Cajueiro/AL,-9.399589,-36.1524309,145,681.90369
D1,Cajueiro/AL,-9.399589,-36.1524309,9,42.32506
1,Cajuri/MG,-20.7901414,-42.7954489,20,501.63030
1,Cajuru/SP,-21.2759978,-47.3046035,47,179.61555
D1,Cajuru/SP,-21.2759978,-47.3046035,2,7.64321
1,Caldas Brandão/PB,-7.1027959,-35.3254676,97,1612.90323
D1,Caldas Brandão/PB,-7.1027959,-35.3254676,2,33.25574
1,Caldas Novas/GO,-17.745,-48.625,124,136.02159
D1,Caldas Novas/GO,-17.745,-48.625,4,4.38779
1,Caldas/MG,-21.923611,-46.386111,22,151.93370
1,Caldazinha/GO,-16.7116649,-49.0012601,4,105.15247
1,Caldeirão Grande do Piauí/PI,-7.3310393,-40.6374433,18,311.63435
1,Caldeirão Grande/BA,-11.0208483,-40.3041387,53,397.68890
D1,Caldeirão Grande/BA,-11.0208483,-40.3041387,1,7.50356
1,Califórnia/PR,-23.6672543,-51.3554556,22,256.70945
D1,Califórnia/PR,-23.6672543,-51.3554556,1,11.66861
1,Calmon/SC,-26.6023644,-51.0992893,2,59.77286
1,Calumbi/PE,-7.9389746,-38.1516871,27,469.56522
D1,Calumbi/PE,-7.9389746,-38.1516871,1,17.39130
1,Calçado/PE,-8.7413446,-36.3351787,24,217.13562
D1,Calçado/PE,-8.7413446,-36.3351787,1,9.04732
1,Calçoene/AP,2.4981757,-50.9539503,628,5649.00603
D1,Calçoene/AP,2.4981757,-50.9539503,4,35.98093
1,Camacan/BA,-15.4166631,-39.4930088,383,1197.32400
D1,Camacan/BA,-15.4166631,-39.4930088,8,25.00938
1,Camalaú/PB,-7.885031,-36.824191,1,16.63063
1,Camamu/BA,-13.9438142,-39.1060917,223,631.44184
D1,Camamu/BA,-13.9438142,-39.1060917,2,5.66316
1,Camanducaia/MG,-22.755278,-46.144444,103,473.12816
D1,Camanducaia/MG,-22.755278,-46.144444,2,9.18695
1,Camapuã/MS,-19.5291747,-54.0434641,7,51.05390
1,Camaquã/RS,-30.8524752,-51.8075619,125,188.64792
D1,Camaquã/RS,-30.8524752,-51.8075619,5,7.54592
1,Camaragibe/PE,-8.0213832,-34.9810768,1327,840.78871
D1,Camaragibe/PE,-8.0213832,-34.9810768,99,62.72651
1,Camargo/RS,-28.5865661,-52.2031474,21,768.38639
1,Camaçari/BA,-12.6998188,-38.3260762,1816,607.08985
D1,Camaçari/BA,-12.6998188,-38.3260762,32,10.69762
1,Cambará do Sul/RS,-29.0489517,-50.145412,13,202.14586
1,Cambará/PR,-23.042273,-50.075281,48,189.27445
D1,Cambará/PR,-23.042273,-50.075281,1,3.94322
1,Cambira/PR,-23.600265,-51.581045,1,12.71456
1,Camboriú/SC,-27.0273601,-48.6535657,696,838.66537
D1,Camboriú/SC,-27.0273601,-48.6535657,10,12.04979
1,Cambuci/RJ,-21.5749919,-41.9107833,66,425.66914
D1,Cambuci/RJ,-21.5749919,-41.9107833,1,6.44953
1,Cambuquira/MG,-21.853056,-45.2953619,3,23.41189
1,Cambuí/MG,-22.6122501,-46.0572137,62,209.80677
D1,Cambuí/MG,-22.6122501,-46.0572137,2,6.76796
1,Cambé/PR,-23.2782035,-51.2779583,182,170.83908
D1,Cambé/PR,-23.2782035,-51.2779583,8,7.50941
1,Cametá/PA,-2.242949,-49.497885,3925,2846.47183
D1,Cametá/PA,-2.242949,-49.497885,78,56.56683
1,Camocim de São Félix/PE,-8.3616757,-35.7638903,78,415.66747
D1,Camocim de São Félix/PE,-8.3616757,-35.7638903,3,15.98721
1,Camocim/CE,-2.9009918,-40.8427389,1909,2998.69622
D1,Camocim/CE,-2.9009918,-40.8427389,67,105.24497
1,Campanha/MG,-21.8361108,-45.401986,9,54.00540
D1,Campanha/MG,-21.8361108,-45.401986,1,6.00060
1,Campanário/MG,-18.2398144,-41.7271768,2,53.74899
1,Campestre da Serra/RS,-28.7966535,-51.0958149,15,442.73908
1,Campestre de Goiás/GO,-16.7624179,-49.69497,9,247.93388
1,Campestre do Maranhão/MA,-6.1729113,-47.3640512,183,1273.13204
D1,Campestre do Maranhão/MA,-6.1729113,-47.3640512,1,6.95701
1,Campestre/AL,-8.8481634,-35.5660033,43,619.95386
D1,Campestre/AL,-8.8481634,-35.5660033,3,43.25260
1,Campestre/MG,-19.6142116,-43.219378,11,52.24412
1,Campina Grande do Sul/PR,-25.3046032,-49.0545355,200,462.02181
D1,Campina Grande do Sul/PR,-25.3046032,-49.0545355,6,13.86065
1,Campina Grande/PB,-7.2246743,-35.8771292,7126,1739.18986
D1,Campina Grande/PB,-7.2246743,-35.8771292,135,32.94845
1,Campina Verde/MG,-19.535277,-49.486389,35,177.26007
D1,Campina Verde/MG,-19.535277,-49.486389,1,5.06457
1,Campina da Lagoa/PR,-24.5937926,-52.8038965,4,28.16505
D1,Campina da Lagoa/PR,-24.5937926,-52.8038965,1,7.04126
1,Campina das Missões/RS,-27.9883295,-54.8411665,1,18.26818
1,Campina do Monte Alegre/SP,-23.5935653,-48.4801876,43,713.81142
1,Campinas do Piauí/PI,-7.6593687,-41.8814875,7,124.71049
1,Campinas do Sul/RS,-27.7167968,-52.6257885,9,165.01650
1,Campinas/SP,-22.90556,-47.06083,10460,868.71809
D1,Campinas/SP,-22.90556,-47.06083,403,33.46973
1,Campinorte/GO,-14.3136699,-49.1510931,20,158.40329
1,Campinápolis/MT,-14.5403731,-52.7970626,36,225.28160
D1,Campinápolis/MT,-14.5403731,-52.7970626,4,25.03129
1,Campo Alegre de Goiás/GO,-17.6337896,-47.779291,2,26.35393
1,Campo Alegre de Lourdes/BA,-9.5160326,-43.0101338,41,142.37100
D1,Campo Alegre de Lourdes/BA,-9.5160326,-43.0101338,1,3.47246
1,Campo Alegre do Fidalgo/PI,-8.3753852,-41.8364191,3,59.46482
D1,Campo Alegre do Fidalgo/PI,-8.3753852,-41.8364191,1,19.82161
1,Campo Alegre/AL,-9.7798607,-36.3575793,674,1181.15066
D1,Campo Alegre/AL,-9.7798607,-36.3575793,8,14.01959
1,Campo Alegre/SC,-26.1941684,-49.2657484,4,33.39456
1,Campo Belo/MG,-20.8975,-45.277223,183,338.70699
D1,Campo Belo/MG,-20.8975,-45.277223,3,5.55257
1,Campo Bom/RS,-29.674694,-51.060601,324,485.66974
D1,Campo Bom/RS,-29.674694,-51.060601,12,17.98777
1,Campo Bonito/PR,-25.0328004,-52.992976,30,782.67675
1,Campo Erê/SC,-26.3947432,-53.0790495,29,340.13605
1,Campo Florido/MG,-19.760833,-48.572223,19,233.10023
1,Campo Formoso/BA,-10.51055,-40.320031,152,213.46516
1,Campo Grande do Piauí/PI,-7.1327559,-41.0381164,39,656.23423
D1,Campo Grande do Piauí/PI,-7.1327559,-41.0381164,1,16.82652
1,Campo Grande/AL,-9.9725,-36.74791447368421,89,931.15715
D1,Campo Grande/AL,-9.9725,-36.74791447368421,1,10.46244
1,Campo Grande/MS,-20.4640173,-54.6162947,3391,378.46742
D1,Campo Grande/MS,-20.4640173,-54.6162947,24,2.67863
1,Campo Largo do Piauí/PI,-3.8104731,-42.6288333,28,384.66822
D1,Campo Largo do Piauí/PI,-3.8104731,-42.6288333,2,27.47630
1,Campo Largo/PR,-25.4597726,-49.5270851,626,474.23524
D1,Campo Largo/PR,-25.4597726,-49.5270851,12,9.09077
1,Campo Limpo Paulista/SP,-23.207791,-46.788919,301,355.58181
D1,Campo Limpo Paulista/SP,-23.207791,-46.788919,33,38.98405
1,Campo Limpo de Goiás/GO,-16.297101,-49.0894994,11,141.22480
1,Campo Magro/PR,-25.3691533,-49.4496921,66,225.11768
D1,Campo Magro/PR,-25.3691533,-49.4496921,1,3.41087
1,Campo Maior/PI,-4.8339574,-42.1739786,946,2019.94320
D1,Campo Maior/PI,-4.8339574,-42.1739786,17,36.29919
1,Campo Mourão/PR,-24.046329,-52.37802,273,287.79557
D1,Campo Mourão/PR,-24.046329,-52.37802,8,8.43357
1,Campo Novo de Rondônia/RO,-10.5704235,-63.6199511,62,438.50343
D1,Campo Novo de Rondônia/RO,-10.5704235,-63.6199511,3,21.21791
1,Campo Novo do Parecis/MT,-13.658735,-57.890723,281,794.68326
D1,Campo Novo do Parecis/MT,-13.658735,-57.890723,3,8.48416
1,Campo Novo/RS,-28.91500235,-52.331375687737626,5,111.50758
1,Campo Redondo/RN,-6.2420373,-36.1830606,59,525.98734
D1,Campo Redondo/RN,-6.2420373,-36.1830606,1,8.91504
1,Campo Verde/MT,-15.5430787,-55.1590511,414,940.03315
D1,Campo Verde/MT,-15.5430787,-55.1590511,6,13.62367
1,Campo do Brito/SE,-10.7496246,-37.4942276,60,331.32696
D1,Campo do Brito/SE,-10.7496246,-37.4942276,3,16.56635
1,Campo do Meio/MG,-21.1072006,-45.8301735,5,42.90004
1,Campo do Tenente/PR,-25.9814143,-49.684518,15,188.18216
D1,Campo do Tenente/PR,-25.9814143,-49.684518,1,12.54548
1,Campos Altos/MG,-19.696389,-46.171389,36,232.84393
D1,Campos Altos/MG,-19.696389,-46.171389,1,6.46789
1,Campos Belos/GO,-13.0349839,-46.768112,36,181.02278
D1,Campos Belos/GO,-13.0349839,-46.768112,1,5.02841
1,Campos Gerais/MG,-21.2333342,-45.7584127,53,184.19406
D1,Campos Gerais/MG,-21.2333342,-45.7584127,1,3.47536
1,Campos Lindos/TO,-7.9740597,-46.8023881,3,29.65599
1,Campos Novos Paulista/SP,-22.601952,-49.998726,3,60.42296
1,Campos Novos/SC,-27.3962904,-51.2224397,167,460.76592
D1,Campos Novos/SC,-27.3962904,-51.2224397,2,5.51815
1,Campos Sales/CE,-7.0742675,-40.3740367,162,590.68038
D1,Campos Sales/CE,-7.0742675,-40.3740367,2,7.29235
1,Campos Verdes/GO,-14.2709062,-49.65746,5,233.53573
1,Campos de Júlio/MT,-13.7223646,-59.2645296,121,1755.91351
D1,Campos de Júlio/MT,-13.7223646,-59.2645296,2,29.02336
1,Campos do Jordão/SP,-22.7395263,-45.5912829,176,337.88973
D1,Campos do Jordão/SP,-22.7395263,-45.5912829,1,1.91983
1,Campos dos Goytacazes/RJ,-21.7558619,-41.3326895,2052,404.29674
D1,Campos dos Goytacazes/RJ,-21.7558619,-41.3326895,112,22.06688
1,Camutanga/PE,-7.4092965,-35.2738166,93,1087.59209
D1,Camutanga/PE,-7.4092965,-35.2738166,3,35.08362
1,Cana Verde/MG,-21.021308,-45.1817881,41,731.75085
D1,Cana Verde/MG,-21.021308,-45.1817881,1,17.84758
1,Canabrava do Norte/MT,-11.0516481,-51.8301897,28,590.34366
D1,Canabrava do Norte/MT,-11.0516481,-51.8301897,1,21.08370
1,Cananéia/SP,-25.0104609,-47.9315628,48,382.77512
D1,Cananéia/SP,-25.0104609,-47.9315628,3,23.92344
1,Canapi/AL,-9.1173572,-37.6011704,13,73.35515
D1,Canapi/AL,-9.1173572,-37.6011704,1,5.64270
1,Canarana/BA,-11.6870151,-41.7683675,33,126.06968
1,Canarana/MT,-13.5564602,-52.2691167,102,472.68177
D1,Canarana/MT,-13.5564602,-52.2691167,2,9.26827
1,Canas/SP,-22.7029347,-45.0526508,2,38.92565
1,Canavieiras/BA,-15.61621745,-39.08485321304444,48,154.34580
D1,Canavieiras/BA,-15.61621745,-39.08485321304444,3,9.64661
1,Canaã dos Carajás/PA,-6.5296837,-49.8516592,2300,6201.96845
D1,Canaã dos Carajás/PA,-6.5296837,-49.8516592,27,72.80572
1,Candeal/BA,-11.8053441,-39.1206515,21,254.29886
1,Candeias do Jamari/RO,-8.7949939,-63.7018851,642,2405.12494
D1,Candeias do Jamari/RO,-8.7949939,-63.7018851,11,41.20931
1,Candeias/BA,-12.6693806,-38.5406462,824,946.29978
D1,Candeias/BA,-12.6693806,-38.5406462,21,24.11686
1,Candeias/MG,-20.7676161,-45.2763777,29,194.81392
1,Candelária/RS,-29.668391,-52.789495,12,38.25921
1,Candiba/BA,-14.4125032,-42.8714102,13,90.78846
1,Candiota/RS,-31.5451894,-53.719538,6,62.60434
1,Candói/PR,-25.5711951,-52.051107,13,81.35678
1,Canela/RS,-29.3624657,-50.8134204,39,86.67052
D1,Canela/RS,-29.3624657,-50.8134204,1,2.22232
1,Canelinha/SC,-27.2660341,-48.7666708,152,1241.83007
1,Canguaretama/RN,-6.3751942,-35.137463,157,458.04645
D1,Canguaretama/RN,-6.3751942,-35.137463,13,37.92741
1,Canguçu/RS,-31.398276,-52.6773522,41,73.15550
D1,Canguçu/RS,-31.398276,-52.6773522,2,3.56856
1,Canhoba/SE,-10.1373681,-36.9710796,11,274.45110
1,Canhotinho/PE,-8.876519,-36.197935,112,451.54007
D1,Canhotinho/PE,-8.876519,-36.197935,5,20.15804
1,Canindé de São Francisco/SE,-9.6597475,-37.7904456,81,270.90301
D1,Canindé de São Francisco/SE,-9.6597475,-37.7904456,4,13.37793
1,Canindé/CE,-4.3547946,-39.3108516,1430,1857.21522
D1,Canindé/CE,-4.3547946,-39.3108516,49,63.63884
1,Canitar/SP,-23.0066616,-49.7840632,4,76.68712
1,Canoas/RS,-29.9216045,-51.1799525,816,235.41902
D1,Canoas/RS,-29.9216045,-51.1799525,31,8.94361
1,Canoinhas/SC,-26.176591,-50.395001,148,272.05382
D1,Canoinhas/SC,-26.176591,-50.395001,1,1.83820
1,Cansanção/BA,-10.6671448,-39.498199,66,189.47006
D1,Cansanção/BA,-10.6671448,-39.498199,2,5.74152
1,Cantagalo/PR,-25.3735238,-52.1238114,26,195.23917
D1,Cantagalo/PR,-25.3735238,-52.1238114,1,7.50920
1,Cantagalo/RJ,-21.9811325,-42.3682522,25,123.93417
D1,Cantagalo/RJ,-21.9811325,-42.3682522,1,4.95737
1,Cantanhede/MA,-3.6355005,-44.3778738,342,1554.89884
D1,Cantanhede/MA,-3.6355005,-44.3778738,1,4.54649
1,Canto do Buriti/PI,-8.1112473,-42.944844,80,377.59003
D1,Canto do Buriti/PI,-8.1112473,-42.944844,2,9.43975
1,Cantá/RR,2.60994,-60.605827,435,2372.51159
D1,Cantá/RR,2.60994,-60.605827,7,38.17835
1,Canudos do Vale/RS,-29.3240418,-52.2348494,4,233.10023
1,Canudos/BA,-9.8948692,-39.0266244,16,95.99232
D1,Canudos/BA,-9.8948692,-39.0266244,1,5.99952
1,Canutama/AM,-6.5330019,-64.3834966,93,595.04767
1,Canápolis/MG,-18.7228793,-49.2016329,24,197.53086
1,Capanema/PA,-1.1933054,-47.1828679,887,1285.00442
D1,Capanema/PA,-1.1933054,-47.1828679,58,84.02509
1,Capanema/PR,-25.6704878,-53.8083036,30,156.87095
1,Caparaó/MG,-20.5232726,-41.9049984,13,239.05848
D1,Caparaó/MG,-20.5232726,-41.9049984,2,36.77823
1,Capela Nova/MG,-20.9236773,-43.6179487,2,42.98302
1,Capela de Santana/RS,-29.6926603,-51.3206659,7,58.62647
1,Capela do Alto Alegre/BA,-11.6703944,-39.8362745,38,326.54464
1,Capela do Alto/SP,-23.4704798,-47.7352309,100,482.95180
1,Capela/AL,-9.415041,-36.082583,375,2199.02656
D1,Capela/AL,-9.415041,-36.082583,3,17.59221
1,Capela/SE,-10.50494,-37.0552566,292,853.47675
D1,Capela/SE,-10.50494,-37.0552566,9,26.30579
1,Capelinha/MG,-17.693889,-42.518611,8,21.17298
1,Capetinga/MG,-20.6193382,-47.0577418,2,28.90173
1,Capim Branco/MG,-19.548333,-44.133056,15,153.78306
1,Capim Grosso/BA,-11.3793228,-40.0112095,159,518.55717
D1,Capim Grosso/BA,-11.3793228,-40.0112095,4,13.04546
1,Capim/PB,-6.9174091,-35.1720326,103,1579.02805
D1,Capim/PB,-6.9174091,-35.1720326,4,61.32148
1,Capinzal do Norte/MA,-4.7304006,-44.3249063,258,2359.61222
1,Capinzal/SC,-27.3440651,-51.6110403,60,262.60504
1,Capinópolis/MG,-18.682778,-49.569723,83,513.20101
1,Capistrano/CE,-4.4644692,-38.8956734,390,2198.66952
D1,Capistrano/CE,-4.4644692,-38.8956734,9,50.73853
1,Capitão Andrade/MG,-19.0675,-41.859722,3,54.86467
1,Capitão Enéas/MG,-16.3236018,-43.7154584,21,137.84955
D1,Capitão Enéas/MG,-16.3236018,-43.7154584,3,19.69279
1,Capitão Gervásio Oliveira/PI,-8.4954657,-41.8169342,7,170.73171
1,Capitão Leônidas Marques/PR,-25.481645,-53.611238,35,221.79975
1,Capitão Poço/PA,-1.7447162,-47.0638495,519,955.74830
D1,Capitão Poço/PA,-1.7447162,-47.0638495,25,46.03797
1,Capitão de Campos/PI,-4.4584198,-41.9415301,39,341.59587
1,Capitão/RS,-29.2718294,-51.9869716,17,616.61226
1,Capitólio/MG,-20.6142437,-46.0487652,2,23.16960
D1,Capitólio/MG,-20.6142437,-46.0487652,2,23.16960
1,Capivari de Baixo/SC,-28.449773,-48.963144,144,578.98758
1,Capivari do Sul/RS,-30.1437605,-50.5129169,1,21.45923
1,Capivari/SP,-22.995144,-47.50715,298,534.35662
1,Capixaba/AC,-10.5741345,-67.6759719,159,1355.15214
D1,Capixaba/AC,-10.5741345,-67.6759719,5,42.61485
1,Capoeiras/PE,-8.7386788,-36.6268109,43,214.48524
D1,Capoeiras/PE,-8.7386788,-36.6268109,3,14.96409
1,Capão Alto/SC,-27.9382827,-50.511491,1,39.60396
1,Capão Bonito/SP,-24.0048759,-48.3489848,147,311.85031
D1,Capão Bonito/SP,-24.0048759,-48.3489848,10,21.21431
1,Capão da Canoa/RS,-29.7542937,-50.0215684,99,186.61992
D1,Capão da Canoa/RS,-29.7542937,-50.0215684,3,5.65515
1,Capão do Cipó/RS,-28.9317296,-54.5555783,3,82.16927
1,Capão do Leão/RS,-31.766133,-52.5013148,10,39.44151
1,Caracaraí/RR,1.827598,-61.125389,209,953.20624
D1,Caracaraí/RR,1.827598,-61.125389,4,18.24318
1,Caracol/MS,-22.0169949,-57.0298349,17,277.95945
1,Caracol/PI,-9.2804898,-43.3284924,32,293.14767
1,Caraguatatuba/SP,-23.62028,-45.41306,499,410.59145
D1,Caraguatatuba/SP,-23.62028,-45.41306,34,27.97617
1,Carambeí/PR,-24.9513298,-50.1171293,91,388.63976
D1,Carambeí/PR,-24.9513298,-50.1171293,4,17.08307
1,Caranaíba/MG,-20.8736914,-43.7379458,4,125.66761
1,Carandaí/MG,-20.9523934,-43.8043903,40,156.85659
D1,Carandaí/MG,-20.9523934,-43.8043903,3,11.76424
1,Carangola/MG,-20.733056,-42.029445,156,472.72727
D1,Carangola/MG,-20.733056,-42.029445,3,9.09091
1,Carapebus/RJ,-22.1869969,-41.6633764,153,938.59272
D1,Carapebus/RJ,-22.1869969,-41.6633764,4,24.53837
1,Carapicuíba/SP,-23.5234673,-46.8406808,2842,708.85722
D1,Carapicuíba/SP,-23.5234673,-46.8406808,172,42.90058
1,Caratinga/MG,-19.7900887,-42.140533,385,418.19643
D1,Caratinga/MG,-19.7900887,-42.140533,9,9.77602
1,Carauari/AM,-4.8766426,-66.8961433,545,1926.20344
D1,Carauari/AM,-4.8766426,-66.8961433,7,24.74023
1,Caravelas/BA,-17.7296514,-39.2660082,73,331.57703
1,Carazinho/RS,-28.2981634,-52.7942363,138,222.18644
D1,Carazinho/RS,-28.2981634,-52.7942363,4,6.44019
1,Caraá/RS,-29.7900698,-50.4302307,39,471.58404
D1,Caraá/RS,-29.7900698,-50.4302307,1,12.09190
1,Caraí/MG,-17.1884104,-41.6976554,12,50.66498
D1,Caraí/MG,-17.1884104,-41.6976554,1,4.22208
1,Caraíbas/BA,-14.72496,-41.2566163,7,78.20355
1,Caraúbas do Piauí/PI,-3.4757229,-41.8431178,40,681.66326
1,Caraúbas/PB,-7.7273231,-36.4923357,24,576.64584
1,Caraúbas/RN,-5.7889323,-37.5548751,162,790.51383
D1,Caraúbas/RN,-5.7889323,-37.5548751,1,4.87972
1,Carbonita/MG,-17.5308667,-43.0136207,4,42.53057
1,Cardeal da Silva/BA,-11.9428154,-37.9494462,8,86.06778
D1,Cardeal da Silva/BA,-11.9428154,-37.9494462,1,10.75847
1,Cardoso Moreira/RJ,-21.4894916,-41.6152776,150,1169.77306
1,Cardoso/SP,-20.080447,-49.9139767,29,235.27503
D1,Cardoso/SP,-20.080447,-49.9139767,1,8.11293
1,Careaçu/MG,-22.0440585,-45.6949091,4,59.19787
1,Careiro da Várzea/AM,-3.197024,-59.8259104,105,347.39454
D1,Careiro da Várzea/AM,-3.197024,-59.8259104,4,13.23408
1,Careiro/AM,-3.8185277,-60.3616505,967,2553.53983
D1,Careiro/AM,-3.8185277,-60.3616505,14,36.96955
1,Cariacica/ES,-20.263202,-40.416549,6192,1623.98206
D1,Cariacica/ES,-20.263202,-40.416549,257,67.40365
1,Caridade do Piauí/PI,-7.7331063,-40.9883665,9,177.61989
1,Caridade/CE,-4.2316487,-39.1946515,262,1162.01712
D1,Caridade/CE,-4.2316487,-39.1946515,12,53.22216
1,Carinhanha/BA,-14.298524,-43.772349,2,6.89227
1,Carira/SE,-10.358303,-37.701473,117,529.84331
D1,Carira/SE,-10.358303,-37.701473,6,27.17145
1,Cariri do Tocantins/TO,-11.8882727,-49.1604216,63,1437.69968
D1,Cariri do Tocantins/TO,-11.8882727,-49.1604216,1,22.82063
1,Caririaçu/CE,-7.0417053,-39.2835527,174,645.28092
D1,Caririaçu/CE,-7.0417053,-39.2835527,3,11.12553
1,Cariré/CE,-3.948584,-40.476028,455,2466.39202
D1,Cariré/CE,-3.948584,-40.476028,10,54.20642
1,Cariús/CE,-6.5348688,-39.4966658,142,759.39890
D1,Cariús/CE,-6.5348688,-39.4966658,2,10.69576
1,Carlos Barbosa/RS,-29.2978372,-51.5005613,296,992.18986
D1,Carlos Barbosa/RS,-29.2978372,-51.5005613,7,23.46395
1,Carlos Chagas/MG,-21.744351,-43.3908675,77,408.76997
D1,Carlos Chagas/MG,-21.744351,-43.3908675,1,5.30870
1,Carlópolis/PR,-23.4224762,-49.7194008,48,335.19553
1,Carmo da Cachoeira/MG,-21.460556,-45.223334,5,41.08463
1,Carmo da Mata/MG,-20.558334,-44.8703774,9,78.42454
1,Carmo de Minas/MG,-22.1216655,-45.1323836,6,40.37957
1,Carmo do Cajuru/MG,-20.184444,-44.770834,80,355.90355
D1,Carmo do Cajuru/MG,-20.184444,-44.770834,3,13.34638
1,Carmo do Paranaíba/MG,-18.9992327,-46.306916,80,263.77395
D1,Carmo do Paranaíba/MG,-18.9992327,-46.306916,2,6.59435
1,Carmo do Rio Claro/MG,-20.973315,-46.1186754,22,103.65135
D1,Carmo do Rio Claro/MG,-20.973315,-46.1186754,1,4.71143
1,Carmo do Rio Verde/GO,-15.3549139,-49.707975,12,119.02400
1,Carmo/RJ,-21.9341749,-42.6091737,74,391.63800
D1,Carmo/RJ,-21.9341749,-42.6091737,2,10.58481
1,Carmolândia/TO,-7.033804,-48.3951295,15,581.39535
D1,Carmolândia/TO,-7.033804,-48.3951295,1,38.75969
1,Carmésia/MG,-19.0854535,-43.1392003,5,189.96960
1,Carmópolis de Minas/MG,-20.541224,-44.6350611,105,542.49548
D1,Carmópolis de Minas/MG,-20.541224,-44.6350611,3,15.49987
1,Carmópolis/SE,-10.64835,-36.98493,120,721.41397
D1,Carmópolis/SE,-10.64835,-36.98493,5,30.05892
1,Carnaubais/RN,-5.3383681,-36.8335566,70,650.61809
D1,Carnaubais/RN,-5.3383681,-36.8335566,2,18.58909
1,Carnaubal/CE,-4.1611842,-40.9412317,174,988.29944
D1,Carnaubal/CE,-4.1611842,-40.9412317,3,17.03965
1,Carnaubeira da Penha/PE,-8.3192809,-38.7435891,14,108.25858
D1,Carnaubeira da Penha/PE,-8.3192809,-38.7435891,1,7.73276
1,Carnaíba/PE,-7.805964,-37.7947314,56,286.43036
D1,Carnaíba/PE,-7.805964,-37.7947314,6,30.68897
1,Carnaúba dos Dantas/RN,-6.5560588,-36.5930811,24,293.39853
D1,Carnaúba dos Dantas/RN,-6.5560588,-36.5930811,2,24.44988
1,Carneirinho/MG,-19.6975,-50.688055,10,99.73073
1,Carneiros/AL,-9.4832948,-37.3757121,28,308.33609
1,Caroebe/RR,0.8812315,-59.6932274,423,4159.70105
D1,Caroebe/RR,0.8812315,-59.6932274,2,19.66762
1,Carolina/MA,-7.3313437,-47.4738762,155,637.28312
1,Carpina/PE,-7.8459151,-35.2538861,267,319.22143
D1,Carpina/PE,-7.8459151,-35.2538861,40,47.82344
1,Carrapateira/PB,-7.0395225,-38.3432281,20,752.16247
1,Carrasco Bonito/TO,-5.3205734,-48.0376667,21,512.82051
1,Caruaru/PE,-8.2829702,-35.9722852,2339,647.71072
D1,Caruaru/PE,-8.2829702,-35.9722852,154,42.64534
1,Carutapera/MA,-1.2016638,-46.0205618,249,1045.91087
D1,Carutapera/MA,-1.2016638,-46.0205618,15,63.00668
1,Carvalhópolis/MG,-21.7773461,-45.8412117,1,27.94077
1,Casa Branca/SP,-21.7743137,-47.0852175,34,111.91573
D1,Casa Branca/SP,-21.7743137,-47.0852175,1,3.29164
1,Casa Nova/BA,-9.1736775,-40.9734475,135,187.58076
D1,Casa Nova/BA,-9.1736775,-40.9734475,3,4.16846
1,Casca/RS,-28.5634054,-51.9741902,21,232.53239
1,Cascalho Rico/MG,-18.579344,-47.875774,8,260.16260
D1,Cascalho Rico/MG,-18.579344,-47.875774,1,32.52033
1,Cascavel/CE,-4.129666,-38.241178,1066,1485.85925
D1,Cascavel/CE,-4.129666,-38.241178,75,104.53982
1,Cascavel/PR,-24.9554996,-53.4560544,3430,1044.28626
D1,Cascavel/PR,-24.9554996,-53.4560544,60,18.26740
1,Caseara/TO,-9.273159,-49.9576837,6,111.75265
D1,Caseara/TO,-9.273159,-49.9576837,1,18.62544
1,Caseiros/RS,-28.2721149,-51.6873536,10,312.30481
1,Casimiro de Abreu/RJ,-22.4809932,-42.2039976,383,866.82962
D1,Casimiro de Abreu/RJ,-22.4809932,-42.2039976,10,22.63263
1,Casinhas/PE,-7.744698,-35.7250923,24,167.35235
D1,Casinhas/PE,-7.744698,-35.7250923,3,20.91904
1,Casserengue/PB,-6.779538,-35.817875,136,1821.10337
D1,Casserengue/PB,-6.779538,-35.817875,1,13.39047
1,Cassilândia/MS,-19.1128242,-51.7345354,24,109.39423
D1,Cassilândia/MS,-19.1128242,-51.7345354,1,4.55809
1,Castanhal/PA,-1.2927031,-47.9223903,1659,826.22402
D1,Castanhal/PA,-1.2927031,-47.9223903,172,85.66036
1,Castanheira/MT,-11.1391946,-58.6088547,8,91.64853
1,Castanheiras/RO,-11.4277212,-61.9486802,22,720.83879
1,Castelo do Piauí/PI,-5.3230426,-41.5546185,23,116.65652
D1,Castelo do Piauí/PI,-5.3230426,-41.5546185,3,15.21607
1,Castelo/ES,-20.6034476,-41.2033505,371,988.43715
D1,Castelo/ES,-20.6034476,-41.2033505,10,26.64251
1,Castelândia/GO,-18.089062,-50.220798,5,145.56041
1,Castilho/SP,-20.8695636,-51.4877792,22,104.73198
D1,Castilho/SP,-20.8695636,-51.4877792,1,4.76054
1,Castro Alves/BA,-12.7616941,-39.4281088,80,304.59945
D1,Castro Alves/BA,-12.7616941,-39.4281088,1,3.80749
1,Castro/PR,-24.794072,-49.9972914,108,151.08276
1,Cataguases/MG,-21.387426,-42.6957219,121,161.06918
D1,Cataguases/MG,-21.387426,-42.6957219,7,9.31805
1,Catalão/GO,-18.1702546,-47.9447082,292,268.32563
D1,Catalão/GO,-18.1702546,-47.9447082,6,5.51354
1,Catanduva/SP,-21.1331035,-48.9712817,577,473.48640
D1,Catanduva/SP,-21.1331035,-48.9712817,29,23.79741
1,Catanduvas/PR,-25.2043528,-53.154826,44,431.83826
1,Catanduvas/SC,-27.0689719,-51.660158,29,267.01040
1,Catarina/CE,-6.1341578,-39.8795321,58,280.22031
D1,Catarina/CE,-6.1341578,-39.8795321,2,9.66277
1,Catas Altas da Noruega/MG,-20.690277,-43.4975,13,357.04477
1,Catas Altas/MG,-20.0744,-43.4075,18,334.82143
1,Catende/PE,-8.6900588,-35.748470825,403,939.56915
D1,Catende/PE,-8.6900588,-35.748470825,24,55.95449
1,Catiguá/SP,-21.0491485,-49.0578923,38,486.92978
D1,Catiguá/SP,-21.0491485,-49.0578923,1,12.81394
1,Catingueira/PB,-7.120081,-37.60638,15,304.13625
D1,Catingueira/PB,-7.120081,-37.60638,2,40.55150
1,Catolândia/BA,-12.315088,-44.8616434,1,27.95639
1,Catolé do Rocha/PB,-6.340625,-37.746967,169,553.26393
D1,Catolé do Rocha/PB,-6.340625,-37.746967,7,22.91626
1,Catu/BA,-12.351274,-38.379108,393,718.41182
D1,Catu/BA,-12.351274,-38.379108,3,5.48406
1,Catuji/MG,-17.3024568,-41.5168387,9,142.60814
1,Catunda/CE,-4.6494224,-40.2002603,116,1121.63991
D1,Catunda/CE,-4.6494224,-40.2002603,2,19.33862
1,Caturaí/GO,-16.4473559,-49.4919149,10,197.23866
1,Caturité/PB,-7.4199652,-36.0207132,61,1257.21352
1,Catuípe/RS,-28.255356,-54.013215,7,79.78117
1,Caucaia/CE,-3.7300563,-38.6593082,4028,1114.55451
D1,Caucaia/CE,-3.7300563,-38.6593082,292,80.79690
1,Cavalcante/GO,-13.7928414,-47.4568521,4,41.19889
1,Caxambu do Sul/SC,-27.1615046,-52.8796675,35,961.01043
D1,Caxambu do Sul/SC,-27.1615046,-52.8796675,1,27.45744
1,Caxambu/MG,-21.9770359,-44.9318289,18,83.11784
D1,Caxambu/MG,-21.9770359,-44.9318289,1,4.61766
1,Caxias do Sul/RS,-29.1684796,-51.1793861,1440,281.85224
D1,Caxias do Sul/RS,-29.1684796,-51.1793861,24,4.69754
1,Caxias/MA,-4.8654201,-43.353664,1965,1191.77584
D1,Caxias/MA,-4.8654201,-43.353664,27,16.37555
1,Caxingó/PI,-3.4208396,-41.8925637,49,903.39233
1,Caçador/SC,-26.77567,-51.0120041,93,118.32814
D1,Caçador/SC,-26.77567,-51.0120041,4,5.08938
1,Caçapava do Sul/RS,-30.5113286,-53.4916761,197,585.89103
D1,Caçapava do Sul/RS,-30.5113286,-53.4916761,3,8.92220
1,Caçapava/SP,-23.099204,-45.707645,239,253.54593
D1,Caçapava/SP,-23.099204,-45.707645,8,8.48689
1,Caçu/GO,-18.5637222,-51.1369685,140,874.50809
D1,Caçu/GO,-18.5637222,-51.1369685,4,24.98595
1,Caém/BA,-11.0909658,-40.4322187,29,314.77260
1,Ceará-Mirim/RN,-5.633588,-35.4248407,519,706.15127
D1,Ceará-Mirim/RN,-5.633588,-35.4248407,26,35.37559
1,Cedral/MA,-2.000269,-44.528114,93,871.19438
1,Cedral/SP,-20.9028433,-49.2699665,28,303.12872
D1,Cedral/SP,-20.9028433,-49.2699665,1,10.82603
1,Cedro de São João/SE,-10.2506778,-36.8816067,77,1305.74869
1,Cedro/CE,-6.6065382,-39.0599487,77,301.28732
D1,Cedro/CE,-6.6065382,-39.0599487,5,19.56411
1,Cedro/PE,-7.7186318,-39.2363385,41,347.25163
D1,Cedro/PE,-7.7186318,-39.2363385,1,8.46955
1,Celso Ramos/SC,-27.6335797,-51.3368111,11,403.22581
1,Centenário do Sul/PR,-22.821497,-51.5951456,11,101.59786
1,Centenário/RS,-27.7633568,-51.989010104551,2,69.18021
1,Central de Minas/MG,-18.7612885,-41.3071204,1,14.22071
1,Central do Maranhão/MA,-2.1967253,-44.8290757,16,184.48057
D1,Central do Maranhão/MA,-2.1967253,-44.8290757,1,11.53004
1,Centralina/MG,-18.5843349,-49.1954739,29,280.19324
D1,Centralina/MG,-18.5843349,-49.1954739,1,9.66184
1,Centro Novo do Maranhão/MA,-2.1361032,-46.1248528,301,1392.10064
D1,Centro Novo do Maranhão/MA,-2.1361032,-46.1248528,5,23.12460
1,Centro do Guilherme/MA,-2.4511749,-46.039127,51,378.95675
D1,Centro do Guilherme/MA,-2.4511749,-46.039127,1,7.43052
1,Cerejeiras/RO,-13.186987,-60.816836,36,220.54769
D1,Cerejeiras/RO,-13.186987,-60.816836,2,12.25265
1,Ceres/GO,-15.3103568,-49.6032054,130,585.82308
D1,Ceres/GO,-15.3103568,-49.6032054,1,4.50633
1,Cerqueira César/SP,-23.0353135,-49.1650519,23,115.08631
D1,Cerqueira César/SP,-23.0353135,-49.1650519,1,5.00375
1,Cerquilho/SP,-23.1626556,-47.7433878,75,153.22070
D1,Cerquilho/SP,-23.1626556,-47.7433878,7,14.30060
1,Cerro Azul/PR,-24.8245108,-49.2615181,30,168.73840
D1,Cerro Azul/PR,-24.8245108,-49.2615181,4,22.49845
1,Cerro Corá/RN,-6.0412685,-36.3464694,14,125.23482
D1,Cerro Corá/RN,-6.0412685,-36.3464694,1,8.94534
1,Cerro Grande do Sul/RS,-30.5962963,-51.7517196,2,16.34120
D1,Cerro Grande do Sul/RS,-30.5962963,-51.7517196,1,8.17060
1,Cerro Grande/RS,-27.6088939,-53.1663055,1,43.27131
1,Cerro Largo/RS,-28.147498,-54.7383681,4,28.30255
1,Cesário Lange/SP,-23.226035,-47.954453,26,143.26648
D1,Cesário Lange/SP,-23.226035,-47.954453,2,11.02050
1,Cezarina/GO,-16.9718289,-49.775814,18,209.15640
D1,Cezarina/GO,-16.9718289,-49.775814,2,23.23960
1,Chalé/MG,-20.0419748,-41.6914563,10,175.31557
1,Chapada de Areia/TO,-10.1409456,-49.1783677,2,142.24751
1,Chapada dos Guimarães/MT,-15.464343,-55.749857,119,602.47064
D1,Chapada dos Guimarães/MT,-15.464343,-55.749857,4,20.25111
1,Chapada/RS,-28.0587829,-53.0657459,11,118.67515
1,Chapadinha/MA,-3.7416803,-43.3548006,1925,2416.06527
D1,Chapadinha/MA,-3.7416803,-43.3548006,26,32.63257
1,Chapadão do Céu/GO,-18.3951972,-52.6670783,43,422.93695
1,Chapadão do Sul/MS,-18.7949051,-52.6199512,191,757.39551
1,Chapecó/SC,-27.0922364,-52.6166878,2712,1230.67428
D1,Chapecó/SC,-27.0922364,-52.6166878,11,4.99167
1,Charqueada/SP,-22.50958,-47.775468,112,651.54159
D1,Charqueada/SP,-22.50958,-47.775468,3,17.45201
1,Charqueadas/RS,-29.955012,-51.6249195,183,448.65037
D1,Charqueadas/RS,-29.955012,-51.6249195,1,2.45164
1,Charrua/RS,-27.9533747,-52.0312591,8,243.97682
1,Chaval/CE,-3.0339874,-41.2438452,500,3825.84743
D1,Chaval/CE,-3.0339874,-41.2438452,8,61.21356
1,Chavantes/SP,-23.0406405,-49.7071698,8,64.42261
1,Chaves/PA,-0.164154,-49.987006,139,586.07750
D1,Chaves/PA,-0.164154,-49.987006,1,4.21638
1,Chiador/MG,-22.002778,-43.057222,22,818.75698
1,Chiapetta/RS,-27.923162,-53.9419052,24,638.97764
1,Chopinzinho/PR,-25.8566167,-52.5294107,16,83.09962
D1,Chopinzinho/PR,-25.8566167,-52.5294107,1,5.19373
1,Chorozinho/CE,-4.3010895,-38.4976923,390,1924.59534
D1,Chorozinho/CE,-4.3010895,-38.4976923,12,59.21832
1,Chorrochó/BA,-8.9774059,-39.0993132,2,17.89389
1,Choró/CE,-4.8435726,-39.1393071,203,1501.36824
D1,Choró/CE,-4.8435726,-39.1393071,4,29.58361
1,Chupinguaia/RO,-12.5528918,-60.9027819,15,134.14416
1,Chuvisca/RS,-30.7557984,-51.9784928,7,128.65282
D1,Chuvisca/RS,-30.7557984,-51.9784928,1,18.37897
1,Chuí/RS,-33.6895237,-53.454704,3,44.74940
1,Chácara/MG,-21.6727567,-43.2206851,2,63.41154
1,Chã Grande/PE,-8.238271,-35.457148,187,861.83058
D1,Chã Grande/PE,-8.238271,-35.457148,11,50.69592
1,Chã Preta/AL,-9.255605,-36.298334,22,300.91643
1,Chã de Alegria/PE,-7.9959409,-35.2134636,153,1131.82423
D1,Chã de Alegria/PE,-7.9959409,-35.2134636,6,44.38526
1,Cianorte/PR,-23.662036,-52.6103989,583,705.64028
D1,Cianorte/PR,-23.662036,-52.6103989,6,7.26216
1,Cidade Gaúcha/PR,-23.3816558,-52.9444098,73,576.98388
D1,Cidade Gaúcha/PR,-23.3816558,-52.9444098,1,7.90389
1,Cidade Ocidental/GO,-16.1000758,-47.9445014,455,637.46918
D1,Cidade Ocidental/GO,-16.1000758,-47.9445014,9,12.60928
1,Cidelândia/MA,-5.174655,-47.7833531,218,1483.29591
1,Cidreira/RS,-30.1657063,-50.218331,45,276.85493
D1,Cidreira/RS,-30.1657063,-50.218331,2,12.30466
1,Cipotânea/MG,-20.905278,-43.365556,13,191.54266
1,Cipó/BA,-11.0990534,-38.5153006,33,190.75145
1,Ciríaco/RS,-28.3429139,-51.8763682,10,210.65936
1,Claraval/MG,-20.398889,-47.283056,5,103.24179
1,Clementina/SP,-21.5594631,-50.448624,16,185.67947
