type,name,lat,lon,total,total_per_100k_inhabitants
1,Abadia de Goiás/GO,-16.7572644,-49.4412205,1425,15907.56865
D1,Abadia de Goiás/GO,-16.7572644,-49.4412205,33,368.38580
1,Abadia dos Dourados/MG,-18.4911191,-47.4063589,428,6109.04939
D1,Abadia dos Dourados/MG,-18.4911191,-47.4063589,14,199.82872
1,Abadiânia/GO,-16.1940946,-48.7067767,421,2057.57294
D1,Abadiânia/GO,-16.1940946,-48.7067767,31,151.50775
1,Abaetetuba/PA,-1.721828,-48.878843,8819,5543.75157
D1,Abaetetuba/PA,-1.721828,-48.878843,219,137.66658
1,Abaeté/MG,-19.1566833,-45.4481213,1213,5217.20430
D1,Abaeté/MG,-19.1566833,-45.4481213,27,116.12903
1,Abaiara/CE,-7.3607808,-39.0487878,577,4867.96592
D1,Abaiara/CE,-7.3607808,-39.0487878,15,126.55024
1,Abaré/BA,-8.7239913,-39.1139689,934,4590.35730
D1,Abaré/BA,-8.7239913,-39.1139689,11,54.06202
1,Abatiá/PR,-23.3052967,-50.3102532,940,12688.98488
D1,Abatiá/PR,-23.3052967,-50.3102532,15,202.48380
1,Abaíra/BA,-13.2503296,-41.6640342,279,3203.21470
D1,Abaíra/BA,-13.2503296,-41.6640342,11,126.29162
1,Abdon Batista/SC,-27.612419,-51.022992,397,15580.84772
D1,Abdon Batista/SC,-27.612419,-51.022992,4,156.98587
1,Abel Figueiredo/PA,-4.953001,-48.3958485,943,12596.84745
D1,Abel Figueiredo/PA,-4.953001,-48.3958485,10,133.58269
1,Abelardo Luz/SC,-26.5705893,-52.3280339,1456,8106.90423
D1,Abelardo Luz/SC,-26.5705893,-52.3280339,48,267.26058
1,Abre Campo/MG,-20.2976097,-42.4764741,1069,7951.50253
D1,Abre Campo/MG,-20.2976097,-42.4764741,15,111.57394
1,Abreu e Lima/PE,-7.900719,-34.898389,3058,3047.45580
D1,Abreu e Lima/PE,-7.900719,-34.898389,221,220.23798
1,Abreulândia/TO,-9.6221526,-49.1558343,270,10408.63531
D1,Abreulândia/TO,-9.6221526,-49.1558343,6,231.30301
1,Acaiaca/MG,-20.3621646,-43.1444162,223,5583.37506
D1,Acaiaca/MG,-20.3621646,-43.1444162,11,275.41312
1,Acajutiba/BA,-11.6609659,-38.0186381,510,3358.13525
D1,Acajutiba/BA,-11.6609659,-38.0186381,16,105.35326
1,Acarape/CE,-4.2237866,-38.7071663,2762,18369.24714
D1,Acarape/CE,-4.2237866,-38.7071663,27,179.56903
1,Acaraú/CE,-2.8869514,-40.1194713,4846,7679.38641
D1,Acaraú/CE,-2.8869514,-40.1194713,103,163.22262
1,Acari/RN,-6.4364689,-36.6394777,1015,9126.87708
D1,Acari/RN,-6.4364689,-36.6394777,16,143.87195
1,Acará/PA,-1.961388,-48.1987043,1314,2360.38010
D1,Acará/PA,-1.961388,-48.1987043,29,52.09362
1,Acauã/PI,-8.219542,-41.083059,196,2759.78598
D1,Acauã/PI,-8.219542,-41.083059,1,14.08054
1,Aceguá/RS,-31.8695131,-54.1615593,340,6879.80575
D1,Aceguá/RS,-31.8695131,-54.1615593,5,101.17361
1,Acopiara/CE,-6.0936464,-39.4543204,3533,6484.82957
D1,Acopiara/CE,-6.0936464,-39.4543204,132,242.28630
1,Acorizal/MT,-15.2001544,-56.3668953,485,9092.61342
D1,Acorizal/MT,-15.2001544,-56.3668953,19,356.20547
1,Acrelândia/AC,-10.0759167,-67.0526898,1640,10587.47579
D1,Acrelândia/AC,-10.0759167,-67.0526898,35,225.95223
1,Acreúna/GO,-17.3959899,-50.3749031,1928,8551.40601
D1,Acreúna/GO,-17.3959899,-50.3749031,47,208.46270
1,Adamantina/SP,-21.6866517,-51.0762975,3155,8985.78793
D1,Adamantina/SP,-21.6866517,-51.0762975,94,267.72237
1,Adelândia/GO,-16.4155077,-50.1665834,192,7631.16057
D1,Adelândia/GO,-16.4155077,-50.1665834,4,158.98251
1,Adolfo/SP,-21.2356597,-49.6441918,502,14124.92966
D1,Adolfo/SP,-21.2356597,-49.6441918,14,393.92234
1,Adrianópolis/PR,-24.6557863,-48.9912769,1287,21973.70668
D1,Adrianópolis/PR,-24.6557863,-48.9912769,27,460.98685
1,Adustina/BA,-10.5358875,-38.114479,918,5360.27093
D1,Adustina/BA,-10.5358875,-38.114479,20,116.78150
1,Afogados da Ingazeira/PE,-7.750429,-37.6356375,4919,13150.99989
D1,Afogados da Ingazeira/PE,-7.750429,-37.6356375,66,176.45172
1,Afonso Bezerra/RN,-5.4745,-36.57625071327935,696,6310.63560
D1,Afonso Bezerra/RN,-5.4745,-36.57625071327935,17,154.13909
1,Afonso Cláudio/ES,-20.077841,-41.12606,3376,11085.20768
D1,Afonso Cláudio/ES,-20.077841,-41.12606,56,183.87785
1,Afonso Cunha/MA,-4.1326105,-43.3230026,179,2721.19185
D1,Afonso Cunha/MA,-4.1326105,-43.3230026,2,30.40438
1,Afrânio/PE,-8.5198919,-41.0070197,875,4416.96113
D1,Afrânio/PE,-8.5198919,-41.0070197,14,70.67138
1,Afuá/PA,-0.1535664,-50.3879223,2970,7506.25521
D1,Afuá/PA,-0.1535664,-50.3879223,14,35.38302
1,Agrestina/PE,-8.4558021,-35.9442663,1634,6519.05047
D1,Agrestina/PE,-8.4558021,-35.9442663,60,239.37762
1,Agricolândia/PI,-5.7967843,-42.6605131,475,9257.45469
D1,Agricolândia/PI,-5.7967843,-42.6605131,6,116.93627
1,Agrolândia/SC,-27.4122212,-49.8295774,1512,13729.22909
D1,Agrolândia/SC,-27.4122212,-49.8295774,22,199.76392
1,Agronômica/SC,-27.2660744,-49.7104753,622,11290.61536
D1,Agronômica/SC,-27.2660744,-49.7104753,13,235.97749
1,Aguanil/MG,-20.9424533,-45.3927152,605,13379.03582
D1,Aguanil/MG,-20.9424533,-45.3927152,8,176.91287
1,Aguaí/SP,-22.0592036,-46.979384,2808,7662.08251
D1,Aguaí/SP,-22.0592036,-46.979384,88,240.12224
1,Agudo/RS,-29.6423259,-53.2494005,1632,9950.61277
D1,Agudo/RS,-29.6423259,-53.2494005,29,176.81849
1,Agudos do Sul/PR,-25.9890808,-49.3328175,586,6187.96199
D1,Agudos do Sul/PR,-25.9890808,-49.3328175,24,253.43189
1,Agudos/SP,-22.471162,-48.987822,3612,9657.49579
D1,Agudos/SP,-22.471162,-48.987822,84,224.59293
1,Aguiar/PB,-7.0928404,-38.1727215,480,8525.75488
D1,Aguiar/PB,-7.0928404,-38.1727215,5,88.80995
1,Aguiarnópolis/TO,-6.5600452,-47.4721189,627,9097.50435
D1,Aguiarnópolis/TO,-6.5600452,-47.4721189,12,174.11492
1,Aimorés/MG,-19.4917754,-41.0615603,1913,7609.08476
D1,Aimorés/MG,-19.4917754,-41.0615603,61,242.63156
1,Aiquara/BA,-14.126918,-39.8887574,469,10620.47101
D1,Aiquara/BA,-14.126918,-39.8887574,11,249.09420
1,Aiuaba/CE,-6.5710836,-40.1212278,718,4104.49894
D1,Aiuaba/CE,-6.5710836,-40.1212278,11,62.88230
1,Aiuruoca/MG,-21.9759554,-44.6036637,288,4819.27711
D1,Aiuruoca/MG,-21.9759554,-44.6036637,7,117.13521
1,Ajuricaba/RS,-28.239654,-53.7693013,1011,14469.72950
D1,Ajuricaba/RS,-28.239654,-53.7693013,26,372.11965
1,Alagoa Grande/PB,-7.0415212,-35.6285322,3853,13548.29635
D1,Alagoa Grande/PB,-7.0415212,-35.6285322,69,242.62456
1,Alagoa Nova/PB,-7.0653703,-35.76695977336711,1007,4813.34544
D1,Alagoa Nova/PB,-7.0653703,-35.76695977336711,18,86.03795
1,Alagoa/MG,-22.1697202,-44.6400042,439,16472.79550
D1,Alagoa/MG,-22.1697202,-44.6400042,6,225.14071
1,Alagoinha do Piauí/PI,-7.0090952,-40.939675,342,4461.83953
D1,Alagoinha do Piauí/PI,-7.0090952,-40.939675,10,130.46314
1,Alagoinha/PB,-6.97063215,-35.51490901897793,1921,13193.68132
D1,Alagoinha/PB,-6.97063215,-35.51490901897793,24,164.83516
1,Alagoinha/PE,-8.50355635,-36.77701174370496,1201,8160.07610
D1,Alagoinha/PE,-8.50355635,-36.77701174370496,25,169.86004
1,Alagoinhas/BA,-12.133526,-38.420772,12963,8509.98182
D1,Alagoinhas/BA,-12.133526,-38.420772,253,166.09006
1,Alambari/SP,-23.550338,-47.897971,511,8337.41230
D1,Alambari/SP,-23.550338,-47.897971,10,163.15875
1,Albertina/MG,-20.66164,-43.784039,229,7605.44670
D1,Albertina/MG,-20.66164,-43.784039,9,298.90402
1,Alcantil/PB,-7.7425491,-36.0609604,474,8604.10238
D1,Alcantil/PB,-7.7425491,-36.0609604,6,108.91269
1,Alcinópolis/MS,-18.3264121,-53.7094463,322,5944.24958
D1,Alcinópolis/MS,-18.3264121,-53.7094463,8,147.68322
1,Alcobaça/BA,-17.5215875,-39.1965474,1454,6465.09560
D1,Alcobaça/BA,-17.5215875,-39.1965474,29,128.94620
1,Alcântara/MA,-2.4038956,-44.4154241,306,1383.86397
D1,Alcântara/MA,-2.4038956,-44.4154241,17,76.88133
1,Alcântaras/CE,-3.586247,-40.5457641,1658,14073.50819
D1,Alcântaras/CE,-3.586247,-40.5457641,21,178.25312
1,Aldeias Altas/MA,-4.6291957,-43.4708622,976,3647.64361
D1,Aldeias Altas/MA,-4.6291957,-43.4708622,14,52.32276
1,Alecrim/RS,-27.6566142,-54.7653195,296,5079.80093
D1,Alecrim/RS,-27.6566142,-54.7653195,11,188.77639
1,Alegre/ES,-20.7625787,-41.5318886,2311,7709.75813
D1,Alegre/ES,-20.7625787,-41.5318886,50,166.80567
1,Alegrete do Piauí/PI,-7.2440138,-40.8602296,495,10065.06710
D1,Alegrete do Piauí/PI,-7.2440138,-40.8602296,6,122.00081
1,Alegrete/RS,-29.790166,-55.794862,8817,12073.45128
D1,Alegrete/RS,-29.790166,-55.794862,263,360.13584
1,Alegria/RS,-27.8332103,-54.0574959,363,10758.74333
D1,Alegria/RS,-27.8332103,-54.0574959,2,59.27682
1,Alenquer/PA,-1.946229,-54.738355,3344,5857.21292
D1,Alenquer/PA,-1.946229,-54.738355,130,227.70266
1,Alexandria/RN,-6.414779,-38.0135516,1530,11289.01350
D1,Alexandria/RN,-6.414779,-38.0135516,25,184.46100
1,Alexânia/GO,-16.0834049,-48.5077803,3042,10860.40700
D1,Alexânia/GO,-16.0834049,-48.5077803,76,271.33167
1,Alfenas/MG,-21.4297405,-45.9479419,8680,10783.41243
D1,Alfenas/MG,-21.4297405,-45.9479419,159,197.53025
1,Alfredo Chaves/ES,-20.624970400000002,-40.75006690147988,2357,16104.12681
D1,Alfredo Chaves/ES,-20.624970400000002,-40.75006690147988,35,239.13638
1,Alfredo Marcondes/SP,-21.9527,-51.413956,236,5640.53537
D1,Alfredo Marcondes/SP,-21.9527,-51.413956,10,239.00574
1,Alfredo Vasconcelos/MG,-21.145833,-43.776389,466,6675.26142
D1,Alfredo Vasconcelos/MG,-21.145833,-43.776389,12,171.89514
1,Alfredo Wagner/SC,-27.6961513,-49.3326734,661,6553.63871
D1,Alfredo Wagner/SC,-27.6961513,-49.3326734,7,69.40313
1,Algodão de Jandaíra/PB,-6.9040175,-36.0089879,178,6907.25650
1,Alhandra/PB,-7.4304246,-34.9106103,2157,10934.25255
D1,Alhandra/PB,-7.4304246,-34.9106103,35,177.42181
1,Aliança do Tocantins/TO,-11.3055927,-48.9409096,598,11185.93341
D1,Aliança do Tocantins/TO,-11.3055927,-48.9409096,20,374.11149
1,Aliança/PE,-7.60398,-35.222696,632,1645.96192
D1,Aliança/PE,-7.60398,-35.222696,58,151.05347
1,Almadina/BA,-14.70466,-39.6381994,608,11330.60007
D1,Almadina/BA,-14.70466,-39.6381994,9,167.72270
1,Almas/TO,-11.5681309,-47.1702803,229,3281.27239
D1,Almas/TO,-11.5681309,-47.1702803,5,71.64350
1,Almeirim/PA,-1.5290377,-52.5788111,3583,10514.73178
D1,Almeirim/PA,-1.5290377,-52.5788111,43,126.18852
1,Almenara/MG,-16.1740678,-40.6904907,3789,8990.81698
D1,Almenara/MG,-16.1740678,-40.6904907,45,106.77930
1,Almino Afonso/RN,-6.1544208,-37.7649018,420,8917.19745
D1,Almino Afonso/RN,-6.1544208,-37.7649018,12,254.77707
1,Almirante Tamandaré do Sul/RS,-28.1141129,-52.9134874,314,16110.82606
D1,Almirante Tamandaré do Sul/RS,-28.1141129,-52.9134874,4,205.23345
1,Almirante Tamandaré/PR,-25.3133048,-49.2997838,9262,7715.69714
D1,Almirante Tamandaré/PR,-25.3133048,-49.2997838,353,294.06619
1,Aloândia/GO,-17.7277983,-49.4809338,260,13091.64149
D1,Aloândia/GO,-17.7277983,-49.4809338,7,352.46727
1,Alpercata/MG,-18.9803616,-41.9827637,473,6360.94675
D1,Alpercata/MG,-18.9803616,-41.9827637,19,255.51372
1,Alpestre/RS,-27.2512339,-53.0349646,324,5340.36591
D1,Alpestre/RS,-27.2512339,-53.0349646,8,131.86089
1,Alpinópolis/MG,-20.863611,-46.387777,1276,6393.42620
D1,Alpinópolis/MG,-20.863611,-46.387777,33,165.34723
1,Alta Floresta D'Oeste/RO,-11.9296917,-61.9961284,3848,16930.65822
D1,Alta Floresta D'Oeste/RO,-11.9296917,-61.9961284,64,281.59099
1,Alta Floresta/MT,-9.8715018,-56.0839881,8391,16149.27154
D1,Alta Floresta/MT,-9.8715018,-56.0839881,120,230.95133
1,Altair/SP,-20.5238955,-49.0606135,180,4300.04778
D1,Altair/SP,-20.5238955,-49.0606135,12,286.66985
1,Altamira do Maranhão/MA,-4.1643006,-45.4674574,318,3883.25803
D1,Altamira do Maranhão/MA,-4.1643006,-45.4674574,10,122.11503
1,Altamira do Paraná/PR,-24.799114,-52.7128633,202,12009.51249
D1,Altamira do Paraná/PR,-24.799114,-52.7128633,10,594.53032
1,Altamira/PA,-3.204065,-52.209961,13370,11528.94308
D1,Altamira/PA,-3.204065,-52.209961,281,242.30613
1,Altaneira/CE,-6.9980933,-39.7385742,547,7150.32680
D1,Altaneira/CE,-6.9980933,-39.7385742,16,209.15033
1,Alterosa/MG,-21.249166,-46.143055,674,4642.83254
D1,Alterosa/MG,-21.249166,-46.143055,31,213.54274
1,Altinho/PE,-8.4904095,-36.0607494,1126,4899.06022
D1,Altinho/PE,-8.4904095,-36.0607494,24,104.42047
1,Altinópolis/SP,-21.021364,-47.3712,809,4992.90255
D1,Altinópolis/SP,-21.021364,-47.3712,39,240.69617
1,Alto Alegre do Maranhão/MA,-4.2055693,-44.4525287,1156,4149.61591
D1,Alto Alegre do Maranhão/MA,-4.2055693,-44.4525287,25,89.74083
1,Alto Alegre do Pindaré/MA,-3.6698186,-45.8462153,1924,6023.22888
D1,Alto Alegre do Pindaré/MA,-3.6698186,-45.8462153,45,140.87594
1,Alto Alegre dos Parecis/RO,-12.1314515,-61.856265,1440,10863.82497
D1,Alto Alegre dos Parecis/RO,-12.1314515,-61.856265,44,331.95021
1,Alto Alegre/RR,2.98858,-61.307167,1373,8927.17815
D1,Alto Alegre/RR,2.98858,-61.307167,31,201.56047
1,Alto Alegre/RS,-31.780844700000003,-52.81311114489171,194,12027.27836
D1,Alto Alegre/RS,-31.780844700000003,-52.81311114489171,1,61.99628
1,Alto Alegre/SP,-21.5820592,-50.1661976,332,8121.33072
D1,Alto Alegre/SP,-21.5820592,-50.1661976,19,464.77495
1,Alto Araguaia/MT,-17.3156528,-53.2169365,1210,6241.93964
D1,Alto Araguaia/MT,-17.3156528,-53.2169365,24,123.80707
1,Alto Bela Vista/SC,-27.4320737,-51.905771,171,8878.50467
D1,Alto Bela Vista/SC,-27.4320737,-51.905771,3,155.76324
1,Alto Boa Vista/MT,-11.6723985,-51.3744431,744,10726.64360
D1,Alto Boa Vista/MT,-11.6723985,-51.3744431,14,201.84544
1,Alto Caparaó/MG,-20.4405661,-41.8683799,386,6549.03291
D1,Alto Caparaó/MG,-20.4405661,-41.8683799,9,152.69766
1,Alto Feliz/RS,-29.3785943,-51.3123751,257,8465.08564
D1,Alto Feliz/RS,-29.3785943,-51.3123751,2,65.87615
1,Alto Garças/MT,-16.9469683,-53.529427,850,6995.30903
D1,Alto Garças/MT,-16.9469683,-53.529427,36,296.27191
1,Alto Horizonte/GO,-14.1954948,-49.3366993,833,12611.65783
D1,Alto Horizonte/GO,-14.1954948,-49.3366993,10,151.40045
1,Alto Jequitibá/MG,-20.423611,-41.966111,723,8709.79400
D1,Alto Jequitibá/MG,-20.423611,-41.966111,10,120.46741
1,Alto Longá/PI,-5.2549051,-42.2072388,630,4393.61183
D1,Alto Longá/PI,-5.2549051,-42.2072388,13,90.66183
1,Alto Paraguai/MT,-14.513712,-56.4936374,865,7539.44043
D1,Alto Paraguai/MT,-14.513712,-56.4936374,28,244.05125
1,Alto Paraná/PR,-23.131247,-52.318893,941,6332.86224
D1,Alto Paraná/PR,-23.131247,-52.318893,24,161.51827
1,Alto Paraíso de Goiás/GO,-14.1304779,-47.5100161,623,8103.53798
D1,Alto Paraíso de Goiás/GO,-14.1304779,-47.5100161,8,104.05827
1,Alto Paraíso/PR,-23.508137,-53.728537,230,8566.10801
D1,Alto Paraíso/PR,-23.508137,-53.728537,5,186.21974
1,Alto Paraíso/RO,-9.7240103,-63.3188123,1797,8225.38564
D1,Alto Paraíso/RO,-9.7240103,-63.3188123,46,210.55522
1,Alto Parnaíba/MA,-9.112506,-45.9310154,865,7714.94827
D1,Alto Parnaíba/MA,-9.112506,-45.9310154,10,89.19015
1,Alto Piquiri/PR,-24.0239021,-53.4417448,865,8846.38985
D1,Alto Piquiri/PR,-24.0239021,-53.4417448,21,214.76785
1,Alto Rio Doce/MG,-21.0239537,-43.4133507,424,3904.59527
D1,Alto Rio Doce/MG,-21.0239537,-43.4133507,26,239.43273
1,Alto Rio Novo/ES,-19.0577208,-41.0171518,683,8674.11735
D1,Alto Rio Novo/ES,-19.0577208,-41.0171518,21,266.70053
1,Alto Santo/CE,-5.5190371,-38.2719351,1776,10327.98325
D1,Alto Santo/CE,-5.5190371,-38.2719351,27,157.01326
1,Alto Taquari/MT,-17.8269099,-53.2831736,1416,12718.94368
D1,Alto Taquari/MT,-17.8269099,-53.2831736,27,242.52223
1,Alto do Rodrigues/RN,-5.290868,-36.7616726,2066,14027.70234
D1,Alto do Rodrigues/RN,-5.290868,-36.7616726,36,244.43237
1,Altos/PI,-5.0393915,-42.4611694,4318,10634.15835
D1,Altos/PI,-5.0393915,-42.4611694,89,219.18483
1,Altônia/PR,-23.8722004,-53.894037,1072,4834.05483
D1,Altônia/PR,-23.8722004,-53.894037,21,94.69697
1,Alumínio/SP,-23.5203479,-47.2575256,1392,7417.27500
D1,Alumínio/SP,-23.5203479,-47.2575256,39,207.81158
1,Alvarenga/MG,-19.4175,-41.728334,448,11654.52653
D1,Alvarenga/MG,-19.4175,-41.728334,4,104.05827
1,Alvarães/AM,-3.214786,-64.8143124,2851,17577.06535
D1,Alvarães/AM,-3.214786,-64.8143124,45,277.43527
1,Alvinlândia/SP,-22.4431852,-49.7643596,137,4232.31387
D1,Alvinlândia/SP,-22.4431852,-49.7643596,8,247.14242
1,Alvinópolis/MG,-20.1105199,-43.0601805,647,4265.27787
D1,Alvinópolis/MG,-20.1105199,-43.0601805,21,138.44024
1,Alvorada D'Oeste/RO,-11.346271,-62.284697,1072,7599.60301
D1,Alvorada D'Oeste/RO,-11.346271,-62.284697,29,205.58628
1,Alvorada de Minas/MG,-18.7318587,-43.3641479,256,7101.24827
D1,Alvorada de Minas/MG,-18.7318587,-43.3641479,3,83.21775
1,Alvorada do Gurguéia/PI,-8.4465288,-43.8655915,385,7070.70707
D1,Alvorada do Gurguéia/PI,-8.4465288,-43.8655915,9,165.28926
1,Alvorada do Norte/GO,-14.483911,-46.4959897,741,8512.34922
D1,Alvorada do Norte/GO,-14.483911,-46.4959897,5,57.43825
1,Alvorada do Sul/PR,-22.7807269,-51.2307721,745,6476.57133
D1,Alvorada do Sul/PR,-22.7807269,-51.2307721,23,199.94784
1,Alvorada/RS,-29.9981184,-51.0772509,20058,9490.32893
D1,Alvorada/RS,-29.9981184,-51.0772509,710,335.93247
1,Alvorada/TO,-12.478465,-49.124926,1101,13113.38733
D1,Alvorada/TO,-12.478465,-49.124926,20,238.20867
1,Além Paraíba/MG,-21.8760576,-42.6810473,3080,8700.31920
D1,Além Paraíba/MG,-21.8760576,-42.6810473,138,389.81950
1,Amajari/RR,3.6523869,-61.4194315,1013,7682.97308
D1,Amajari/RR,3.6523869,-61.4194315,20,151.68752
1,Amambai/MS,-23.1082701,-55.2284854,2936,7372.06850
D1,Amambai/MS,-23.1082701,-55.2284854,71,178.27550
1,Amaporã/PR,-23.094272,-52.786597,310,4895.76753
D1,Amaporã/PR,-23.094272,-52.786597,6,94.75679
1,Amapá do Maranhão/MA,-1.6762114,-46.0109669,172,2455.38901
D1,Amapá do Maranhão/MA,-1.6762114,-46.0109669,4,57.10207
1,Amapá/AP,2.0529997,-50.7930003,1308,14237.50952
D1,Amapá/AP,2.0529997,-50.7930003,10,108.84946
1,Amaraji/PE,-8.373925,-35.4536527,567,2479.23043
D1,Amaraji/PE,-8.373925,-35.4536527,36,157.41146
1,Amaral Ferrador/RS,-30.8750633,-52.2542051,291,4107.26888
D1,Amaral Ferrador/RS,-30.8750633,-52.2542051,7,98.80028
1,Amaralina/GO,-13.9236199,-49.2962411,76,1976.59298
D1,Amaralina/GO,-13.9236199,-49.2962411,1,26.00780
1,Amarante do Maranhão/MA,-5.56913,-46.747284,1581,3788.73206
D1,Amarante do Maranhão/MA,-5.56913,-46.747284,55,131.80282
1,Amarante/PI,-6.2459374,-42.8476238,1494,8486.70757
D1,Amarante/PI,-6.2459374,-42.8476238,34,193.13792
1,Amargosa/BA,-13.03793715,-39.60796443875596,2673,7139.23239
D1,Amargosa/BA,-13.03793715,-39.60796443875596,49,130.87257
1,Amaturá/AM,-3.3640509,-68.1994689,2353,20049.42059
D1,Amaturá/AM,-3.3640509,-68.1994689,17,144.85344
1,Americana/SP,-22.7392463,-47.3306032,20640,8528.29128
D1,Americana/SP,-22.7392463,-47.3306032,623,257.41887
1,Americano do Brasil/GO,-16.2515808,-49.9806104,670,10869.56522
D1,Americano do Brasil/GO,-16.2515808,-49.9806104,21,340.68787
1,Ametista do Sul/RS,-27.3617341,-53.1826575,724,9779.81899
D1,Ametista do Sul/RS,-27.3617341,-53.1826575,17,229.63663
1,Amontada/CE,-3.3634586,-39.8284791,2817,6427.25136
D1,Amontada/CE,-3.3634586,-39.8284791,53,120.92450
1,Amorinópolis/GO,-16.6211308,-51.0949921,231,7526.88172
D1,Amorinópolis/GO,-16.6211308,-51.0949921,4,130.33561
1,Amparo de São Francisco/SE,-10.1299754,-36.9269099,239,10042.01681
D1,Amparo de São Francisco/SE,-10.1299754,-36.9269099,4,168.06723
1,Amparo do Serra/MG,-20.5070255,-42.8028462,147,3142.36853
D1,Amparo do Serra/MG,-20.5070255,-42.8028462,8,171.01325
1,Amparo/PB,-7.56394725,-37.04652873235175,164,7285.65082
D1,Amparo/PB,-7.56394725,-37.04652873235175,4,177.69880
1,Amparo/SP,-22.70111,-46.76444,6053,8328.63217
D1,Amparo/SP,-22.70111,-46.76444,131,180.24960
1,Ampére/PR,-25.9168712,-53.4742414,1772,9176.11724
D1,Ampére/PR,-25.9168712,-53.4742414,39,201.95743
1,Amélia Rodrigues/BA,-12.4015388,-38.7516971,2197,8771.15937
D1,Amélia Rodrigues/BA,-12.4015388,-38.7516971,41,163.68572
1,América Dourada/BA,-11.4515262,-41.4357517,874,5431.94531
D1,América Dourada/BA,-11.4515262,-41.4357517,11,68.36544
1,Américo Brasiliense/SP,-21.7297099,-48.1052092,3673,8951.55001
D1,Américo Brasiliense/SP,-21.7297099,-48.1052092,86,209.59251
1,Américo de Campos/SP,-20.298476,-49.735904,893,14930.61361
D1,Américo de Campos/SP,-20.298476,-49.735904,24,401.27069
1,Anadia/AL,-9.6830208,-36.3052699,1363,7777.01700
D1,Anadia/AL,-9.6830208,-36.3052699,29,165.46845
1,Anagé/BA,-14.6134669,-41.1376308,857,3966.30722
D1,Anagé/BA,-14.6134669,-41.1376308,20,92.56260
1,Anahy/PR,-24.6450861,-53.1337957,345,12374.46198
D1,Anahy/PR,-24.6450861,-53.1337957,9,322.81205
1,Anajatuba/MA,-3.26441,-44.6179916,925,3427.44924
D1,Anajatuba/MA,-3.26441,-44.6179916,23,85.22306
1,Anajás/PA,-0.9878802,-49.9390114,1347,4537.18674
D1,Anajás/PA,-0.9878802,-49.9390114,22,74.10402
1,Analândia/SP,-22.128917,-47.661939,311,6151.10759
D1,Analândia/SP,-22.128917,-47.661939,4,79.11392
1,Anamã/AM,-3.5797356,-61.4049996,1774,12711.37862
D1,Anamã/AM,-3.5797356,-61.4049996,9,64.48839
1,Ananindeua/PA,-1.374035,-48.4016623,23761,4436.77212
D1,Ananindeua/PA,-1.374035,-48.4016623,799,149.19325
1,Ananás/TO,-6.3663053,-48.080238,1541,16234.72398
D1,Ananás/TO,-6.3663053,-48.080238,24,252.84450
1,Anapu/PA,-3.4668292,-51.2057035,1522,5320.37613
D1,Anapu/PA,-3.4668292,-51.2057035,37,129.33897
1,Anapurus/MA,-3.6751298,-43.1046001,829,5215.80471
D1,Anapurus/MA,-3.6751298,-43.1046001,12,75.50019
1,Anastácio/MS,-20.4832458,-55.8048448,2311,9157.18984
D1,Anastácio/MS,-20.4832458,-55.8048448,68,269.44566
1,Anaurilândia/MS,-22.185169,-52.719056,496,5464.96254
D1,Anaurilândia/MS,-22.185169,-52.719056,14,154.25297
1,Anchieta/ES,-20.8057672,-40.6454564,4670,15682.19215
D1,Anchieta/ES,-20.8057672,-40.6454564,85,285.43605
1,Anchieta/SC,-26.5350527,-53.3293938,636,11445.02429
D1,Anchieta/SC,-26.5350527,-53.3293938,9,161.95789
1,Andaraí/BA,-12.8059674,-41.3322919,828,6305.20865
D1,Andaraí/BA,-12.8059674,-41.3322919,8,60.91989
1,Andirá/PR,-23.0494761,-50.2310027,2027,10172.63876
D1,Andirá/PR,-23.0494761,-50.2310027,71,356.31838
1,Andorinha/BA,-10.3445708,-39.8334411,805,5550.57574
D1,Andorinha/BA,-10.3445708,-39.8334411,16,110.32200
1,Andradas/MG,-22.0680484,-46.5688976,3543,8558.79795
D1,Andradas/MG,-22.0680484,-46.5688976,107,258.47908
1,Andradina/SP,-20.896505,-51.3742765,5802,10143.00199
D1,Andradina/SP,-20.896505,-51.3742765,240,419.56575
1,Andrelândia/MG,-21.739722,-44.308889,206,1687.69458
D1,Andrelândia/MG,-21.739722,-44.308889,9,73.73423
1,André da Rocha/RS,-28.6309124,-51.5733328,112,8339.53835
1,Angatuba/SP,-23.4938938,-48.4110675,2514,9866.94925
D1,Angatuba/SP,-23.4938938,-48.4110675,62,243.33765
1,Angelim/PE,-8.8902038,-36.2872987,213,1897.38108
D1,Angelim/PE,-8.8902038,-36.2872987,8,71.26314
1,Angelina/SC,-27.5805287,-48.9838759,510,10752.68817
D1,Angelina/SC,-27.5805287,-48.9838759,2,42.16740
1,Angelândia/MG,-17.7253,-42.2728,122,1425.73332
D1,Angelândia/MG,-17.7253,-42.2728,1,11.68634
1,Angical do Piauí/PI,-6.0872666,-42.7366138,799,11779.44862
D1,Angical do Piauí/PI,-6.0872666,-42.7366138,11,162.17013
1,Angical/BA,-12.005623,-44.7000236,624,4476.96944
D1,Angical/BA,-12.005623,-44.7000236,14,100.44483
1,Angico/TO,-6.3893733,-47.8656722,231,6687.89809
D1,Angico/TO,-6.3893733,-47.8656722,3,86.85582
1,Angicos/RN,-5.6666344,-36.6009064,843,7202.05041
D1,Angicos/RN,-5.6666344,-36.6009064,21,179.41051
1,Angra dos Reis/RJ,-23.0063966,-44.316326,13602,6569.61805
D1,Angra dos Reis/RJ,-23.0063966,-44.316326,468,226.03891
1,Anguera/BA,-12.1509425,-39.2452469,439,3885.98743
D1,Anguera/BA,-12.1509425,-39.2452469,2,17.70382
1,Angélica/MS,-22.1588196,-53.7728504,1208,11050.12806
D1,Angélica/MS,-22.1588196,-53.7728504,19,173.80168
1,Anhanguera/GO,-18.3338749,-48.220363,88,7586.20690
D1,Anhanguera/GO,-18.3338749,-48.220363,6,517.24138
1,Anhembi/SP,-22.7891096,-48.1316776,250,3666.22672
D1,Anhembi/SP,-22.7891096,-48.1316776,5,73.32453
1,Anhumas/SP,-22.2956478,-51.3873401,210,5067.56757
D1,Anhumas/SP,-22.2956478,-51.3873401,5,120.65637
1,Anicuns/GO,-16.4606451,-49.9572265,2646,12037.66890
D1,Anicuns/GO,-16.4606451,-49.9572265,61,277.51240
1,Anita Garibaldi/SC,-27.6855032,-51.1293873,1138,16357.62541
D1,Anita Garibaldi/SC,-27.6855032,-51.1293873,10,143.74012
1,Anitápolis/SC,-27.9041185,-49.1287395,326,10099.13259
D1,Anitápolis/SC,-27.9041185,-49.1287395,4,123.91574
1,Anori/AM,-3.7435254,-61.6605203,1885,8776.83103
D1,Anori/AM,-3.7435254,-61.6605203,31,144.34046
1,Anta Gorda/RS,-28.9718745,-52.0069187,596,9998.32243
D1,Anta Gorda/RS,-28.9718745,-52.0069187,4,67.10284
1,Antas/BA,-10.4114649,-38.3308815,1285,6596.84789
D1,Antas/BA,-10.4114649,-38.3308815,11,56.47107
1,Antonina do Norte/CE,-6.7754187,-39.9879345,682,9243.69748
D1,Antonina do Norte/CE,-6.7754187,-39.9879345,26,352.39902
1,Antonina/PR,-25.4298854,-48.7125431,2429,12818.61840
D1,Antonina/PR,-25.4298854,-48.7125431,64,337.74869
1,Antônio Almeida/PI,-7.2186016,-44.1950248,405,12776.02524
D1,Antônio Almeida/PI,-7.2186016,-44.1950248,10,315.45741
1,Antônio Cardoso/BA,-12.4363122,-39.1200307,490,4196.28329
D1,Antônio Cardoso/BA,-12.4363122,-39.1200307,10,85.63843
1,Antônio Carlos/MG,-21.318334,-43.746666,658,5742.21136
D1,Antônio Carlos/MG,-21.318334,-43.746666,13,113.44794
1,Antônio Carlos/SC,-27.5168462,-48.7684715,1550,17996.05248
D1,Antônio Carlos/SC,-27.5168462,-48.7684715,24,278.64855
1,Antônio Dias/MG,-19.6525,-42.872778,563,6070.08086
D1,Antônio Dias/MG,-19.6525,-42.872778,23,247.97844
1,Antônio Gonçalves/BA,-10.5715409,-40.2748824,836,7038.22192
D1,Antônio Gonçalves/BA,-10.5715409,-40.2748824,8,67.35141
1,Antônio João/MS,-22.1892837,-55.9508227,492,5454.54545
D1,Antônio João/MS,-22.1892837,-55.9508227,11,121.95122
1,Antônio Martins/RN,-6.2155812,-37.8890129,632,8834.21862
D1,Antônio Martins/RN,-6.2155812,-37.8890129,6,83.86916
1,Antônio Olinto/PR,-25.9849006,-50.1974516,403,5426.14784
D1,Antônio Olinto/PR,-25.9849006,-50.1974516,10,134.64387
1,Antônio Prado de Minas/MG,-21.0171988,-42.1101106,160,10081.91556
D1,Antônio Prado de Minas/MG,-21.0171988,-42.1101106,5,315.05986
1,Antônio Prado/RS,-28.8567806,-51.2801355,2568,19685.70333
D1,Antônio Prado/RS,-28.8567806,-51.2801355,28,214.64163
1,Anápolis/GO,-16.3332828,-48.9525756,38568,9844.50139
D1,Anápolis/GO,-16.3332828,-48.9525756,1376,351.22469
1,Anísio de Abreu/PI,-9.185643,-43.04941,290,2918.09217
D1,Anísio de Abreu/PI,-9.185643,-43.04941,11,110.68625
1,Aparecida d'Oeste/SP,-20.4498109,-50.8808706,717,17243.86724
D1,Aparecida d'Oeste/SP,-20.4498109,-50.8808706,13,312.65031
1,Aparecida de Goiânia/GO,-16.8226769,-49.2452546,68079,11535.95890
D1,Aparecida de Goiânia/GO,-16.8226769,-49.2452546,1366,231.46815
1,Aparecida do Rio Doce/GO,-18.2980167,-51.1491312,226,9135.00404
D1,Aparecida do Rio Doce/GO,-18.2980167,-51.1491312,3,121.26112
1,Aparecida do Rio Negro/TO,-9.9513491,-47.9773786,329,6786.30363
D1,Aparecida do Rio Negro/TO,-9.9513491,-47.9773786,7,144.38944
1,Aparecida do Taboado/MS,-20.0840304,-51.1013943,3396,13026.96690
D1,Aparecida do Taboado/MS,-20.0840304,-51.1013943,50,191.79869
1,Aparecida/PB,-6.7859598, -38.0831353,894,10622.62357
D1,Aparecida/PB,-6.7859598, -38.0831353,13,154.46768
1,Aparecida/SP,-22.851552,-45.2340924,2205,6093.68523
D1,Aparecida/SP,-22.851552,-45.2340924,88,243.19469
1,Aperibé/RJ,-21.6211928,-42.1028167,558,4688.68162
D1,Aperibé/RJ,-21.6211928,-42.1028167,25,210.06638
1,Apiacá/ES,-21.152272,-41.569297,805,10656.60577
D1,Apiacá/ES,-21.152272,-41.569297,33,436.85465
1,Apiacás/MT,-9.5678422,-57.394852,1731,16833.60887
D1,Apiacás/MT,-9.5678422,-57.394852,15,145.87183
1,Apiaí/SP,-24.5076527,-48.8461582,1290,5324.85759
D1,Apiaí/SP,-24.5076527,-48.8461582,69,284.81796
1,Apicum-Açu/MA,-1.5279295,-45.082278,503,2888.64641
D1,Apicum-Açu/MA,-1.5279295,-45.082278,5,28.71418
1,Apiúna/SC,-27.0374658,-49.3885037,813,7494.46903
D1,Apiúna/SC,-27.0374658,-49.3885037,15,138.27434
1,Apodi/RN,-5.6631109,-37.796927,5854,16318.22490
D1,Apodi/RN,-5.6631109,-37.796927,93,259.24068
1,Aporá/BA,-11.6599747,-38.0794757,515,2895.21025
D1,Aporá/BA,-11.6599747,-38.0794757,19,106.81358
1,Aporé/GO,-18.9642193,-51.92804,361,8530.24575
D1,Aporé/GO,-18.9642193,-51.92804,10,236.29490
1,Apuarema/BA,-13.8517897,-39.7457126,687,9408.38127
D1,Apuarema/BA,-13.8517897,-39.7457126,9,123.25390
1,Apucarana/PR,-23.5525327,-51.4610764,8618,6325.88047
D1,Apucarana/PR,-23.5525327,-51.4610764,388,284.80409
1,Apuiarés/CE,-3.9460303,-39.4313298,1168,7960.74155
D1,Apuiarés/CE,-3.9460303,-39.4313298,24,163.57688
1,Apuí/AM,-7.1940195,-59.8830192,1373,6140.70397
D1,Apuí/AM,-7.1940195,-59.8830192,31,138.64663
1,Aquidabã/SE,-10.2837579,-37.0188687,2174,10027.21277
D1,Aquidabã/SE,-10.2837579,-37.0188687,37,170.65634
1,Aquidauana/MS,-20.473969,-55.7821375,5000,10410.37706
D1,Aquidauana/MS,-20.473969,-55.7821375,137,285.24433
1,Aquiraz/CE,-3.9063117,-38.387504,6359,7856.92222
D1,Aquiraz/CE,-3.9063117,-38.387504,85,105.02255
1,Arabutã/SC,-27.1587028,-52.1438142,413,9678.93133
D1,Arabutã/SC,-27.1587028,-52.1438142,8,187.48535
1,Aracaju/SE,-10.9162061,-37.0774655,118176,17773.28593
D1,Aracaju/SE,-10.9162061,-37.0774655,2249,338.24228
1,Aracati/CE,-4.558259,-37.767894,7364,9821.94065
D1,Aracati/CE,-4.558259,-37.767894,150,200.06669
1,Aracatu/BA,-14.4274236,-41.4604105,797,6109.62054
D1,Aracatu/BA,-14.4274236,-41.4604105,14,107.32081
1,Araci/BA,-11.3356065,-38.9573261,3446,6305.81174
D1,Araci/BA,-11.3356065,-38.9573261,48,87.83487
1,Aracitaba/MG,-21.3425,-43.378611,85,4128.21758
D1,Aracitaba/MG,-21.3425,-43.378611,8,388.53813
1,Aracoiaba/CE,-4.3702577,-38.8084313,3966,14946.29734
D1,Aracoiaba/CE,-4.3702577,-38.8084313,30,113.05822
1,Aracruz/ES,-19.8245218,-40.2735025,15464,14998.88459
D1,Aracruz/ES,-19.8245218,-40.2735025,219,212.41307
1,Aragarças/GO,-15.8957166,-52.2514538,2354,11611.50298
D1,Aragarças/GO,-15.8957166,-52.2514538,54,266.36413
1,Aragoiânia/GO,-16.9146388,-49.4499148,1014,9660.82317
D1,Aragoiânia/GO,-16.9146388,-49.4499148,21,200.07622
1,Aragominas/TO,-7.1654101,-48.525488,528,9213.05182
D1,Aragominas/TO,-7.1654101,-48.525488,9,157.04066
1,Araguacema/TO,-8.8067391,-49.5560969,630,8805.03145
D1,Araguacema/TO,-8.8067391,-49.5560969,11,153.73864
1,Araguaiana/MT,-15.729144,-51.834112,261,8394.98231
D1,Araguaiana/MT,-15.729144,-51.834112,6,192.98810
1,Araguainha/MT,-16.857016,-53.031778,26,2748.41438
1,Araguanã/MA,-2.9508403,-45.6651986,806,5182.94643
D1,Araguanã/MA,-2.9508403,-45.6651986,5,32.15227
1,Araguanã/TO,-6.5799107,-48.6428482,545,9407.90609
D1,Araguanã/TO,-6.5799107,-48.6428482,13,224.40877
1,Araguapaz/GO,-15.0937927,-50.626417,545,7002.44122
D1,Araguapaz/GO,-15.0937927,-50.626417,21,269.81884
1,Araguari/MG,-18.6511256,-48.1933764,15091,12807.97793
D1,Araguari/MG,-18.6511256,-48.1933764,382,324.20963
1,Araguatins/TO,-5.6522925,-48.1158973,2320,6414.15538
D1,Araguatins/TO,-5.6522925,-48.1158973,57,157.58916
1,Araguaçu/TO,-12.928934,-49.823134,820,9684.65808
D1,Araguaçu/TO,-12.928934,-49.823134,18,212.59006
1,Araguaína/TO,-7.193241,-48.2018597,33007,17999.13841
D1,Araguaína/TO,-7.193241,-48.2018597,435,237.21105
1,Araioses/MA,-2.890914,-41.904993,651,1391.88814
D1,Araioses/MA,-2.890914,-41.904993,13,27.79500
1,Aral Moreira/MS,-22.951141,-55.6268421,504,4086.92832
D1,Aral Moreira/MS,-22.951141,-55.6268421,11,89.19883
1,Aramari/BA,-12.0907897,-38.4985065,592,5165.34334
D1,Aramari/BA,-12.0907897,-38.4985065,12,104.70291
1,Arambaré/RS,-30.9132252,-51.4994625,179,5025.26670
D1,Arambaré/RS,-30.9132252,-51.4994625,8,224.59293
1,Arame/MA,-4.8858769,-46.0102484,1370,4181.41863
D1,Arame/MA,-4.8858769,-46.0102484,36,109.87669
1,Aramina/SP,-20.0876144,-47.789201,305,5393.45712
D1,Aramina/SP,-20.0876144,-47.789201,15,265.25199
1,Arandu/SP,-23.1345103,-49.0545651,466,7321.28830
D1,Arandu/SP,-23.1345103,-49.0545651,12,188.53103
1,Arantina/MG,-21.911667,-44.255833,156,5597.41658
D1,Arantina/MG,-21.911667,-44.255833,3,107.64263
1,Arapeí/SP,-22.6738889,-44.4477778,204,8292.68293
D1,Arapeí/SP,-22.6738889,-44.4477778,3,121.95122
1,Arapiraca/AL,-9.754866,-36.661471,27610,11847.39559
D1,Arapiraca/AL,-9.754866,-36.661471,427,183.22484
1,Arapoema/TO,-7.6575001,-49.0641484,481,7270.25393
D1,Arapoema/TO,-7.6575001,-49.0641484,10,151.14873
1,Araponga/MG,-20.666667,-42.520556,435,5146.10198
D1,Araponga/MG,-20.666667,-42.520556,6,70.98072
1,Arapongas/PR,-23.415296,-51.42592,11951,9575.35454
D1,Arapongas/PR,-23.415296,-51.42592,467,374.16874
1,Araporã/MG,-18.4318188,-49.188313,1814,26172.26951
D1,Araporã/MG,-18.4318188,-49.188313,28,403.98211
1,Arapoti/PR,-24.1457957,-49.8224605,2825,9982.33216
D1,Arapoti/PR,-24.1457957,-49.8224605,54,190.81272
1,Araputanga/MT,-15.4710868,-58.346796,1916,11303.16795
D1,Araputanga/MT,-15.4710868,-58.346796,52,306.76656
1,Arapuá/MG,-19.034444,-46.155556,255,8994.70899
D1,Arapuá/MG,-19.034444,-46.155556,2,70.54674
1,Arapuã/PR,-24.3079525,-51.7901941,195,6480.55833
D1,Arapuã/PR,-24.3079525,-51.7901941,5,166.16816
1,Araquari/SC,-26.3703324,-48.7210994,3471,8782.00587
D1,Araquari/SC,-26.3703324,-48.7210994,73,184.69791
1,Arara/PB,-6.8271895,-35.7605703,958,7074.28740
D1,Arara/PB,-6.8271895,-35.7605703,27,199.37971
1,Araranguá/SC,-28.9348832,-49.4858389,10022,14552.68852
D1,Araranguá/SC,-28.9348832,-49.4858389,231,335.42916
1,Araraquara/SP,-21.7886713,-48.1773096,20141,8450.56831
D1,Araraquara/SP,-21.7886713,-48.1773096,427,179.15658
1,Araras/SP,-22.3569477,-47.3838889,15089,11135.30028
D1,Araras/SP,-22.3569477,-47.3838889,333,245.74558
1,Ararendá/CE,-4.7504395,-40.8303611,1214,11077.65307
D1,Ararendá/CE,-4.7504395,-40.8303611,20,182.49840
1,Arari/MA,-3.4547602,-44.7772723,681,2275.15702
D1,Arari/MA,-3.4547602,-44.7772723,30,100.22718
1,Araricá/RS,-29.6168543,-50.929121,978,16946.80298
D1,Araricá/RS,-29.6168543,-50.929121,24,415.87247
1,Araripe/CE,-7.212861,-40.1359222,1280,5911.14806
D1,Araripe/CE,-7.212861,-40.1359222,17,78.50744
1,Araripina/PE,-7.5768582,-40.5038509,6486,7642.81674
D1,Araripina/PE,-7.5768582,-40.5038509,138,162.61312
1,Araruama/RJ,-22.8733203,-42.3428897,5879,4377.74121
D1,Araruama/RJ,-22.8733203,-42.3428897,389,289.66514
1,Araruna/PB,-6.5321155,-35.7397595,634,3098.27494
D1,Araruna/PB,-6.5321155,-35.7397595,16,78.18990
1,Araruna/PR,-23.9320308,-52.4976047,1717,12264.28571
D1,Araruna/PR,-23.9320308,-52.4976047,29,207.14286
1,Arataca/BA,-15.2617424,-39.4122943,755,6888.05766
D1,Arataca/BA,-15.2617424,-39.4122943,15,136.84883
1,Aratiba/RS,-27.3955734,-52.3024325,366,5913.71789
D1,Aratiba/RS,-27.3955734,-52.3024325,6,96.94619
1,Aratuba/CE,-4.4195958,-39.0463737,1307,11074.39417
D1,Aratuba/CE,-4.4195958,-39.0463737,8,67.78512
1,Aratuípe/BA,-13.077137,-39.0010786,395,4469.84271
D1,Aratuípe/BA,-13.077137,-39.0010786,9,101.84452
1,Araucária/PR,-25.5861107,-49.4051209,24094,16478.58618
D1,Araucária/PR,-25.5861107,-49.4051209,386,263.99661
1,Arauá/SE,-11.2644014,-37.6181058,1211,12174.52498
D1,Arauá/SE,-11.2644014,-37.6181058,20,201.06565
1,Araxá/MG,-19.5928536,-46.940241,12429,11579.41809
D1,Araxá/MG,-19.5928536,-46.940241,199,185.39739
1,Araçagi/PB,-6.8519969,-35.3835602,1357,8019.62059
D1,Araçagi/PB,-6.8519969,-35.3835602,17,100.46688
1,Araçariguama/SP,-23.438611,-47.061389,1648,7209.09886
D1,Araçariguama/SP,-23.438611,-47.061389,56,244.96938
1,Araçatuba/SP,-21.207992,-50.4390225,24783,12508.51718
D1,Araçatuba/SP,-21.207992,-50.4390225,735,370.97043
1,Araçaí/MG,-19.200833,-44.2475,72,3058.62362
D1,Araçaí/MG,-19.200833,-44.2475,1,42.48088
1,Araçoiaba da Serra/SP,-23.5045367,-47.6168158,2360,6786.28939
D1,Araçoiaba da Serra/SP,-23.5045367,-47.6168158,60,172.53278
1,Araçoiaba/PE,-7.7856903,-35.0898881,626,3019.34115
D1,Araçoiaba/PE,-7.7856903,-35.0898881,29,139.87363
1,Araçu/GO,-16.3561579,-49.6815269,408,11703.95869
D1,Araçu/GO,-16.3561579,-49.6815269,16,458.97877
1,Araçuaí/MG,-16.8484451,-42.0661868,1611,4388.21094
D1,Araçuaí/MG,-16.8484451,-42.0661868,41,111.68010
1,Araçás/BA,-12.2139176,-38.2026159,635,5201.50721
D1,Araçás/BA,-12.2139176,-38.2026159,10,81.91350
1,Araújos/MG,-19.948055,-45.165556,706,7509.83938
D1,Araújos/MG,-19.948055,-45.165556,9,95.73450
1,Arceburgo/MG,-21.364444,-46.939722,1043,9583.75448
D1,Arceburgo/MG,-21.364444,-46.939722,27,248.09336
1,Arco-Íris/SP,-21.7741308,-50.4668814,141,7952.62267
D1,Arco-Íris/SP,-21.7741308,-50.4668814,7,394.81105
1,Arcos/MG,-20.282223,-45.539444,4769,11810.30213
D1,Arcos/MG,-20.282223,-45.539444,109,269.93561
1,Arcoverde/PE,-8.415192,-37.057748,5577,7453.69009
D1,Arcoverde/PE,-8.415192,-37.057748,125,167.06316
1,Areado/MG,-21.3582771,-46.1476688,876,5770.37086
D1,Areado/MG,-21.3582771,-46.1476688,18,118.56926
1,Areal/RJ,-22.2314922,-43.1056264,1240,9787.67069
D1,Areal/RJ,-22.2314922,-43.1056264,41,323.62460
1,Arealva/SP,-22.0301906,-48.9111936,877,10182.28260
D1,Arealva/SP,-22.0301906,-48.9111936,14,162.54499
1,Areia Branca/RN,-4.9506652,-37.1263312,2406,8602.99639
D1,Areia Branca/RN,-4.9506652,-37.1263312,92,328.95913
1,Areia Branca/SE,-10.7591455,-37.3148072,1968,10531.94905
D1,Areia Branca/SE,-10.7591455,-37.3148072,46,246.17361
1,Areia de Baraúnas/PB,-7.1233949,-36.9446216,171,8081.28544
D1,Areia de Baraúnas/PB,-7.1233949,-36.9446216,3,141.77694
1,Areia/PB,-6.9680243,-35.6994783,1376,6073.44633
D1,Areia/PB,-6.9680243,-35.6994783,26,114.75989
1,Areial/PB,-7.0501306,-35.9245244,342,4866.94180
D1,Areial/PB,-7.0501306,-35.9245244,10,142.30824
1,Areias/SP,-22.5800929,-44.6975127,298,7648.87064
D1,Areias/SP,-22.5800929,-44.6975127,1,25.66735
1,Areiópolis/SP,-22.6758064,-48.6673653,1170,10485.75013
D1,Areiópolis/SP,-22.6758064,-48.6673653,17,152.35705
1,Arenápolis/MT,-14.4610369,-56.8432806,1721,18111.97643
D1,Arenápolis/MT,-14.4610369,-56.8432806,30,315.72301
1,Arenópolis/GO,-16.3859286,-51.55937,195,7689.27445
D1,Arenópolis/GO,-16.3859286,-51.55937,8,315.45741
1,Argirita/MG,-21.612761,-42.8371922,254,9393.49112
D1,Argirita/MG,-21.612761,-42.8371922,5,184.91124
1,Aricanduva/MG,-17.8678,-42.5569,83,1575.25147
1,Arinos/MG,-15.917223,-46.106111,676,3784.57060
D1,Arinos/MG,-15.917223,-46.106111,19,106.37107
1,Aripuanã/MT,-10.175806,-59.4439663,2736,12045.43453
D1,Aripuanã/MT,-10.175806,-59.4439663,43,189.31056
1,Ariquemes/RO,-9.9076522,-63.033069,21235,19388.62157
D1,Ariquemes/RO,-9.9076522,-63.033069,456,416.35090
1,Ariranha do Ivaí/PR,-24.3834527,-51.5876772,169,8180.05808
D1,Ariranha do Ivaí/PR,-24.3834527,-51.5876772,3,145.20813
1,Ariranha/SP,-21.18716,-48.790418,773,7919.27057
D1,Ariranha/SP,-21.18716,-48.790418,23,235.63160
1,Armazém/SC,-28.2624996,-49.0190126,1381,15766.64003
D1,Armazém/SC,-28.2624996,-49.0190126,30,342.50485
1,Armação dos Búzios/RJ,-22.7597805,-41.8875267,4398,12756.33031
D1,Armação dos Búzios/RJ,-22.7597805,-41.8875267,56,162.42713
1,Arneiroz/CE,-6.3235099,-40.1603859,624,7955.12494
D1,Arneiroz/CE,-6.3235099,-40.1603859,16,203.97756
1,Aroazes/PI,-6.1108814,-41.7886137,574,9850.69504
D1,Aroazes/PI,-6.1108814,-41.7886137,12,205.93788
1,Aroeiras do Itaim/PI,-7.2797031,-41.5629681,123,4821.63857
D1,Aroeiras do Itaim/PI,-7.2797031,-41.5629681,2,78.40063
1,Aroeiras/PB,-7.5462904,-35.7080002,1585,8291.48357
D1,Aroeiras/PB,-7.5462904,-35.7080002,9,47.08098
1,Arraial do Cabo/RJ,-22.9662839,-42.024427,705,2304.44873
D1,Arraial do Cabo/RJ,-22.9662839,-42.024427,35,114.40526
1,Arraial/PI,-6.6541632,-42.5335332,153,3241.52542
D1,Arraial/PI,-6.6541632,-42.5335332,3,63.55932
1,Arraias/TO,-12.9287788,-46.9437231,866,8220.99867
D1,Arraias/TO,-12.9287788,-46.9437231,7,66.45149
1,Arroio Grande/RS,-32.2384246,-53.0866661,1805,9896.91852
D1,Arroio Grande/RS,-32.2384246,-53.0866661,51,279.63592
1,Arroio Trinta/SC,-26.9301976,-51.334928,585,16483.51648
D1,Arroio Trinta/SC,-26.9301976,-51.334928,13,366.30037
1,Arroio do Meio/RS,-29.4020392,-51.9444993,3011,14360.66199
D1,Arroio do Meio/RS,-29.4020392,-51.9444993,42,200.31478
1,Arroio do Padre/RS,-31.4428773,-52.4228985,188,6370.72179
D1,Arroio do Padre/RS,-31.4428773,-52.4228985,3,101.66045
1,Arroio do Sal/RS,-29.549852,-49.8874395,1080,10506.85864
D1,Arroio do Sal/RS,-29.549852,-49.8874395,34,330.77148
1,Arroio do Tigre/RS,-29.334158,-53.0888935,1116,8320.28629
D1,Arroio do Tigre/RS,-29.334158,-53.0888935,19,141.65362
1,Arroio dos Ratos/RS,-30.0894524,-51.7265541,943,6651.61882
D1,Arroio dos Ratos/RS,-30.0894524,-51.7265541,31,218.66403
1,Artur Nogueira/SP,-22.572737,-47.172679,4320,7806.28840
D1,Artur Nogueira/SP,-22.572737,-47.172679,113,204.19227
1,Aruanã/GO,-14.9162439,-51.0715692,523,5173.09594
D1,Aruanã/GO,-14.9162439,-51.0715692,13,128.58556
1,Arujá/SP,-23.396266,-46.3175449,7059,7743.78270
D1,Arujá/SP,-23.396266,-46.3175449,277,303.87134
1,Arvoredo/SC,-27.0752908,-52.4571847,295,13205.01343
D1,Arvoredo/SC,-27.0752908,-52.4571847,4,179.05103
1,Arvorezinha/RS,-28.87369,-52.17808,798,7656.14506
D1,Arvorezinha/RS,-28.87369,-52.17808,25,239.85417
1,Arês/RN,-6.1969216,-35.1642968,971,6735.10439
D1,Arês/RN,-6.1969216,-35.1642968,21,145.66137
1,Ascurra/SC,-26.9569975,-49.3767752,1136,14239.15768
D1,Ascurra/SC,-26.9569975,-49.3767752,10,125.34470
1,Aspásia/SP,-20.160028,-50.728046,150,8250.82508
D1,Aspásia/SP,-20.160028,-50.728046,5,275.02750
1,Assaré/CE,-6.8746791,-39.8741385,2019,8599.53999
D1,Assaré/CE,-6.8746791,-39.8741385,38,161.85365
1,Assaí/PR,-23.3736041,-50.8454929,1289,8619.76729
D1,Assaí/PR,-23.3736041,-50.8454929,42,280.86131
1,Assis Brasil/AC,-10.9409203,-69.5672108,1732,22989.11601
D1,Assis Brasil/AC,-10.9409203,-69.5672108,24,318.55588
1,Assis Chateaubriand/PR,-24.4054826,-53.5120468,4009,12024.59508
D1,Assis Chateaubriand/PR,-24.4054826,-53.5120468,92,275.94481
1,Assis/SP,-22.6620892,-50.420623,10270,9772.85487
D1,Assis/SP,-22.6620892,-50.420623,346,329.25100
1,Assunção do Piauí/PI,-5.8610212,-41.0485091,330,4196.87142
D1,Assunção do Piauí/PI,-5.8610212,-41.0485091,8,101.74234
1,Assunção/PB,-7.073396,-36.7274003,393,9754.28146
D1,Assunção/PB,-7.073396,-36.7274003,4,99.28022
1,Astolfo Dutra/MG,-21.3132636,-42.8624102,1298,9096.00561
D1,Astolfo Dutra/MG,-21.3132636,-42.8624102,22,154.16959
1,Astorga/PR,-23.2350184,-51.6647074,2837,10824.52593
D1,Astorga/PR,-23.2350184,-51.6647074,73,278.53028
1,Atalaia do Norte/AM,-4.3658547,-70.1908742,2793,13692.51887
D1,Atalaia do Norte/AM,-4.3658547,-70.1908742,9,44.12197
1,Atalaia/AL,-9.5029595,-36.0219316,1153,2434.28692
D1,Atalaia/AL,-9.5029595,-36.0219316,46,97.11813
1,Atalaia/PR,-23.1513833,-52.0529697,410,10564.28755
D1,Atalaia/PR,-23.1513833,-52.0529697,18,463.79799
1,Atalanta/SC,-27.421916,-49.778863,421,13176.83881
D1,Atalanta/SC,-27.421916,-49.778863,11,344.28795
1,Ataléia/MG,-18.04432,-41.1110524,1085,8558.13220
D1,Ataléia/MG,-18.04432,-41.1110524,8,63.10144
1,Atibaia/SP,-23.1177393,-46.5547861,10201,7079.70129
D1,Atibaia/SP,-23.1177393,-46.5547861,236,163.78880
1,Atilio Vivacqua/ES,-20.9139369,-41.1947519,1463,12085.91491
D1,Atilio Vivacqua/ES,-20.9139369,-41.1947519,27,223.04833
1,Augustinópolis/TO,-5.4662267,-47.8897519,1460,7831.35761
D1,Augustinópolis/TO,-5.4662267,-47.8897519,27,144.82648
1,Augusto Corrêa/PA,-1.0229335,-46.6404029,1994,4290.84806
D1,Augusto Corrêa/PA,-1.0229335,-46.6404029,43,92.53083
1,Augusto Pestana/RS,-28.5148413,-53.9906433,729,11042.10845
D1,Augusto Pestana/RS,-28.5148413,-53.9906433,11,166.61618
1,Augusto de Lima/MG,-18.1092963,-44.2651945,259,5339.10534
D1,Augusto de Lima/MG,-18.1092963,-44.2651945,8,164.91445
1,Aurelino Leal/BA,-14.3167137,-39.3256107,959,8487.47677
D1,Aurelino Leal/BA,-14.3167137,-39.3256107,26,230.10886
1,Auriflama/SP,-20.6840418,-50.5554616,1826,11971.41546
D1,Auriflama/SP,-20.6840418,-50.5554616,65,426.14568
1,Aurilândia/GO,-16.6772599,-50.4641231,189,6180.51014
D1,Aurilândia/GO,-16.6772599,-50.4641231,7,228.90778
1,Aurora do Pará/PA,-2.1323199,-47.558436,1473,4636.01171
D1,Aurora do Pará/PA,-2.1323199,-47.558436,14,44.06257
1,Aurora do Tocantins/TO,-12.71045,-46.407604,187,4943.16680
D1,Aurora do Tocantins/TO,-12.71045,-46.407604,5,132.17024
1,Aurora/CE,-6.9426019,-38.9693765,1636,6647.70419
D1,Aurora/CE,-6.9426019,-38.9693765,36,146.28200
1,Aurora/SC,-27.3166417,-49.6368502,802,14112.26465
D1,Aurora/SC,-27.3166417,-49.6368502,14,246.34876
1,Autazes/AM,-3.5833283,-59.1301518,2867,7115.90966
D1,Autazes/AM,-3.5833283,-59.1301518,95,235.79052
1,Avanhandava/SP,-21.4603331,-49.9465156,877,6328.01789
D1,Avanhandava/SP,-21.4603331,-49.9465156,29,209.25031
1,Avaré/SP,-23.1045215,-48.9259103,9354,10252.98141
D1,Avaré/SP,-23.1045215,-48.9259103,210,230.18239
1,Avaí/SP,-22.1564662,-49.3316395,380,6990.43414
D1,Avaí/SP,-22.1564662,-49.3316395,12,220.75055
1,Aveiro/PA,-3.6049239,-55.3310742,631,3846.62277
D1,Aveiro/PA,-3.6049239,-55.3310742,12,73.15289
1,Avelino Lopes/PI,-10.1346855,-43.9489525,384,3390.42910
D1,Avelino Lopes/PI,-10.1346855,-43.9489525,19,167.75561
1,Avelinópolis/GO,-16.4672409,-49.7578661,277,11498.54711
D1,Avelinópolis/GO,-16.4672409,-49.7578661,13,539.64301
1,Axixá do Tocantins/TO,-5.612747,-47.77007,1025,10473.07653
D1,Axixá do Tocantins/TO,-5.612747,-47.77007,17,173.69981
1,Axixá/MA,-2.8379465,-44.0561053,191,1567.75835
D1,Axixá/MA,-2.8379465,-44.0561053,6,49.24895
1,Açailândia/MA,-4.9514278,-47.4844564,5257,4647.23615
D1,Açailândia/MA,-4.9514278,-47.4844564,205,181.22188
1,Açu/RN,-5.5836157,-36.9139541,6161,10552.54864
D1,Açu/RN,-5.5836157,-36.9139541,140,239.79172
1,Açucena/MG,-19.073056,-42.546666,745,7952.60461
D1,Açucena/MG,-19.073056,-42.546666,30,320.23911
1,Babaçulândia/TO,-7.2034355,-47.761613,779,7303.58147
D1,Babaçulândia/TO,-7.2034355,-47.761613,5,46.87793
1,Bacabal/MA,-4.2318132,-44.781167,4957,4730.41321
D1,Bacabal/MA,-4.2318132,-44.781167,178,169.86354
1,Bacabeira/MA,-2.9775747,-44.3155943,333,1930.21099
D1,Bacabeira/MA,-2.9775747,-44.3155943,7,40.57501
1,Bacuri/MA,-1.728894,-45.1417148,565,3028.84100
D1,Bacuri/MA,-1.728894,-45.1417148,4,21.44312
1,Bacurituba/MA,-2.7082587,-44.7381309,117,2063.49206
D1,Bacurituba/MA,-2.7082587,-44.7381309,1,17.63668
1,Bady Bassitt/SP,-20.9178969,-49.4517911,3157,17774.90006
D1,Bady Bassitt/SP,-20.9178969,-49.4517911,68,382.86133
1,Baependi/MG,-21.959162,-44.8899249,1413,7359.75832
D1,Baependi/MG,-21.959162,-44.8899249,13,67.71186
1,Bagre/PA,-1.8994498,-50.2103844,910,2905.02793
D1,Bagre/PA,-1.8994498,-50.2103844,12,38.30806
1,Bagé/RS,-31.3314264,-54.1062808,9653,7955.65995
D1,Bagé/RS,-31.3314264,-54.1062808,265,218.40359
1,Baianópolis/BA,-12.3067564,-44.5383591,817,5865.46055
D1,Baianópolis/BA,-12.3067564,-44.5383591,11,78.97193
1,Baixa Grande do Ribeiro/PI,-7.862861,-45.2113289,2416,20700.88253
D1,Baixa Grande do Ribeiro/PI,-7.862861,-45.2113289,29,248.47914
1,Baixa Grande/BA,-11.9630941,-40.1657537,726,3550.29586
D1,Baixa Grande/BA,-11.9630941,-40.1657537,12,58.68258
1,Baixio/CE,-6.7303544,-38.7170095,525,8329.36697
D1,Baixio/CE,-6.7303544,-38.7170095,11,174.52007
1,Baixo Guandu/ES,-19.5138322,-41.0182089,3413,10962.99627
D1,Baixo Guandu/ES,-19.5138322,-41.0182089,71,228.06116
1,Baião/PA,-2.7903479,-49.6702845,737,1520.87332
D1,Baião/PA,-2.7903479,-49.6702845,34,70.16241
1,Balbinos/SP,-21.9006253,-49.3583966,341,5746.54533
D1,Balbinos/SP,-21.9006253,-49.3583966,4,67.40816
1,Baldim/MG,-19.2913568,-43.9558262,605,7753.42817
D1,Baldim/MG,-19.2913568,-43.9558262,20,256.31167
1,Baliza/GO,-16.1978119,-52.542789,311,5890.15152
D1,Baliza/GO,-16.1978119,-52.542789,7,132.57576
1,Balneário Arroio do Silva/SC,-28.9815269,-49.4189932,1991,14825.01862
D1,Balneário Arroio do Silva/SC,-28.9815269,-49.4189932,54,402.08488
1,Balneário Barra do Sul/SC,-26.459842,-48.6061471,1386,12560.03625
D1,Balneário Barra do Sul/SC,-26.459842,-48.6061471,38,344.35886
1,Balneário Camboriú/SC,-26.9924395,-48.6339782,23815,16334.46734
D1,Balneário Camboriú/SC,-26.9924395,-48.6339782,358,245.54857
1,Balneário Gaivota/SC,-29.1553098,-49.5808712,1231,10932.50444
D1,Balneário Gaivota/SC,-29.1553098,-49.5808712,33,293.07282
1,Balneário Pinhal/RS,-30.2482978,-50.234585,698,4859.70897
D1,Balneário Pinhal/RS,-30.2482978,-50.234585,43,299.38035
1,Balneário Piçarras/SC,-26.7638889,-48.6716667,4569,19220.09086
D1,Balneário Piçarras/SC,-26.7638889,-48.6716667,49,206.12485
1,Balneário Rincão/SC,-28.8235718,-49.2241642,1345,10389.30944
D1,Balneário Rincão/SC,-28.8235718,-49.2241642,41,316.70014
1,Balsa Nova/PR,-25.5842234,-49.6312741,1490,11380.99603
D1,Balsa Nova/PR,-25.5842234,-49.6312741,28,213.87107
1,Balsas/MA,-7.53214,-46.037163,9644,10053.26856
D1,Balsas/MA,-7.53214,-46.037163,183,190.76609
1,Bambuí/MG,-20.0131996,-45.9777034,1543,6456.60725
D1,Bambuí/MG,-20.0131996,-45.9777034,24,100.42681
1,Banabuiú/CE,-5.3046404,-38.919766,1985,10873.13760
D1,Banabuiú/CE,-5.3046404,-38.919766,19,104.07537
1,Bananal/SP,-22.6828195,-44.3221095,955,8687.34649
D1,Bananal/SP,-22.6828195,-44.3221095,3,27.29009
1,Bananeiras/PB,-6.7537682,-35.6338343,1302,6121.58541
D1,Bananeiras/PB,-6.7537682,-35.6338343,24,112.84028
1,Bandeira do Sul/MG,-21.728056,-46.385555,511,8843.89062
D1,Bandeira do Sul/MG,-21.728056,-46.385555,12,207.68432
1,Bandeira/MG,-15.884444,-40.559167,454,9525.80781
D1,Bandeira/MG,-15.884444,-40.559167,9,188.83760
1,Bandeirante/SC,-26.7677402,-53.6397596,339,12802.11480
D1,Bandeirante/SC,-26.7677402,-53.6397596,4,151.05740
1,Bandeirantes do Tocantins/TO,-7.7635698,-48.579148,460,12806.23608
D1,Bandeirantes do Tocantins/TO,-7.7635698,-48.579148,7,194.87751
1,Bandeirantes/MS,-19.9179623,-54.3646768,553,7610.78998
D1,Bandeirantes/MS,-19.9179623,-54.3646768,10,137.62731
1,Bandeirantes/PR,-23.107788,-50.370407,4557,14600.62158
D1,Bandeirantes/PR,-23.107788,-50.370407,117,374.86784
1,Bannach/PA,-7.3508505,-50.4064531,641,19650.52115
D1,Bannach/PA,-7.3508505,-50.4064531,3,91.96812
1,Banzaê/BA,-10.5827616,-38.6122305,1052,7945.61934
D1,Banzaê/BA,-10.5827616,-38.6122305,8,60.42296
1,Baraúna/PB,-6.643394,-36.2531932,653,13154.71394
D1,Baraúna/PB,-6.643394,-36.2531932,9,181.30540
1,Baraúna/RN,-5.0775002,-37.61752,1108,3854.31523
D1,Baraúna/RN,-5.0775002,-37.61752,23,80.00835
1,Barbacena/MG,-21.2254524,-43.7735087,7691,5564.96194
D1,Barbacena/MG,-21.2254524,-43.7735087,253,183.06272
1,Barbalha/CE,-7.3121067,-39.3036427,6268,10237.14640
D1,Barbalha/CE,-7.3121067,-39.3036427,133,217.22088
1,Barbosa Ferraz/PR,-24.0287182,-52.00811,1106,9679.67793
D1,Barbosa Ferraz/PR,-24.0287182,-52.00811,31,271.31104
1,Barbosa/SP,-21.265661,-49.951816,477,6387.25228
D1,Barbosa/SP,-21.265661,-49.951816,12,160.68559
1,Barcarena/PA,-1.5107945,-48.6190679,11009,8666.66142
D1,Barcarena/PA,-1.5107945,-48.6190679,213,167.68089
1,Barcelona/RN,-5.9514918,-35.9260284,106,2653.98097
D1,Barcelona/RN,-5.9514918,-35.9260284,4,100.15023
1,Barcelos/AM,-0.9729214,-62.925635,4311,15598.08959
D1,Barcelos/AM,-0.9729214,-62.925635,59,213.47420
1,Bariri/SP,-22.0746355,-48.7394852,2561,7202.31734
D1,Bariri/SP,-22.0746355,-48.7394852,106,298.10451
1,Barra Bonita/SC,-26.6526364,-53.4419581,174,10539.06723
D1,Barra Bonita/SC,-26.6526364,-53.4419581,2,121.13870
1,Barra Bonita/SP,-22.490859,-48.558349,3071,8500.80275
D1,Barra Bonita/SP,-22.490859,-48.558349,85,235.28760
1,Barra D'Alcântara/PI,-6.5209258,-42.1071089,136,3441.29555
D1,Barra D'Alcântara/PI,-6.5209258,-42.1071089,4,101.21457
1,Barra Funda/RS,-27.9230048,-53.0401045,562,22030.57624
D1,Barra Funda/RS,-27.9230048,-53.0401045,12,470.40376
1,Barra Longa/MG,-20.2833541,-43.0423516,377,7517.44766
D1,Barra Longa/MG,-20.2833541,-43.0423516,9,179.46162
1,Barra Mansa/RJ,-22.5394843,-44.1735129,15107,8173.32403
D1,Barra Mansa/RJ,-22.5394843,-44.1735129,567,306.76340
1,Barra Velha/SC,-26.6338203,-48.6835001,4020,13462.82652
D1,Barra Velha/SC,-26.6338203,-48.6835001,92,308.10449
1,Barra da Estiva/BA,-13.6269662,-41.3278287,2247,11019.02707
D1,Barra da Estiva/BA,-13.6269662,-41.3278287,22,107.88545
1,Barra de Guabiraba/PE,-8.4173522,-35.6626669,392,2701.58511
D1,Barra de Guabiraba/PE,-8.4173522,-35.6626669,15,103.37698
1,Barra de Santa Rosa/PB,-6.7218007,-36.0564638,1535,9905.14293
D1,Barra de Santa Rosa/PB,-6.7218007,-36.0564638,12,77.43434
1,Barra de Santana/PB,-7.5230865,-35.9988518,489,5856.98886
D1,Barra de Santana/PB,-7.5230865,-35.9988518,6,71.86489
1,Barra de Santo Antônio/AL,-9.4038098,-35.5117693,423,2632.56161
D1,Barra de Santo Antônio/AL,-9.4038098,-35.5117693,26,161.81230
1,Barra de São Francisco/ES,-18.7570902,-40.8916119,4649,10335.93455
D1,Barra de São Francisco/ES,-18.7570902,-40.8916119,190,422.41935
1,Barra de São Miguel/AL,-9.8261357,-35.8837777,532,6349.96419
D1,Barra de São Miguel/AL,-9.8261357,-35.8837777,7,83.55216
1,Barra de São Miguel/PB,-7.7528088,-36.3170996,512,8441.87964
D1,Barra de São Miguel/PB,-7.7528088,-36.3170996,7,115.41632
1,Barra do Bugres/MT,-15.0683712,-57.1853688,2916,8258.98547
D1,Barra do Bugres/MT,-15.0683712,-57.1853688,69,195.42867
1,Barra do Chapéu/SP,-24.472203,-49.023784,287,4982.63889
D1,Barra do Chapéu/SP,-24.472203,-49.023784,2,34.72222
1,Barra do Choça/BA,-14.8638173,-40.5761637,2023,6482.10452
D1,Barra do Choça/BA,-14.8638173,-40.5761637,29,92.92191
1,Barra do Corda/MA,-5.496823,-45.248496,5690,6429.95977
D1,Barra do Corda/MA,-5.496823,-45.248496,56,63.28256
1,Barra do Garças/MT,-15.8916033,-52.2615413,7894,12912.40697
D1,Barra do Garças/MT,-15.8916033,-52.2615413,279,456.36706
1,Barra do Guarita/RS,-27.1888016,-53.7147086,111,3408.04421
D1,Barra do Guarita/RS,-27.1888016,-53.7147086,7,214.92171
1,Barra do Jacaré/PR,-23.1151788,-50.1813945,211,7587.19885
D1,Barra do Jacaré/PR,-23.1151788,-50.1813945,1,35.95829
1,Barra do Mendes/BA,-11.8053298,-42.057037,700,5060.36290
D1,Barra do Mendes/BA,-11.8053298,-42.057037,12,86.74908
1,Barra do Ouro/TO,-7.7113784,-47.6743925,144,3108.80829
D1,Barra do Ouro/TO,-7.7113784,-47.6743925,6,129.53368
1,Barra do Piraí/RJ,-22.4703403,-43.8263256,5980,5934.65920
D1,Barra do Piraí/RJ,-22.4703403,-43.8263256,346,343.37660
1,Barra do Quaraí/RS,-30.208947,-57.5505128,406,9604.92075
D1,Barra do Quaraí/RS,-30.208947,-57.5505128,6,141.94464
1,Barra do Ribeiro/RS,-30.2930206,-51.301437,1026,7568.60431
D1,Barra do Ribeiro/RS,-30.2930206,-51.301437,47,346.70994
1,Barra do Rio Azul/RS,-27.4101581,-52.4117471,101,6102.71903
D1,Barra do Rio Azul/RS,-27.4101581,-52.4117471,1,60.42296
1,Barra do Rocha/BA,-14.2090974,-39.6004395,408,7270.13542
D1,Barra do Rocha/BA,-14.2090974,-39.6004395,7,124.73272
1,Barra do Turvo/SP,-24.756421,-48.5056942,565,7403.03983
D1,Barra do Turvo/SP,-24.756421,-48.5056942,18,235.84906
1,Barra dos Coqueiros/SE,-10.9075694,-37.0386249,6752,21829.93857
D1,Barra dos Coqueiros/SE,-10.9075694,-37.0386249,89,287.74652
1,Barra/BA,-11.0892702,-43.1420453,2063,3826.74828
D1,Barra/BA,-11.0892702,-43.1420453,43,79.76257
1,Barracão/PR,-26.252395,-53.6349576,1181,11452.67649
D1,Barracão/PR,-26.252395,-53.6349576,34,329.71296
1,Barracão/RS,-27.6728964,-51.4582928,440,8371.38508
D1,Barracão/RS,-27.6728964,-51.4582928,16,304.41400
1,Barras/PI,-4.2446153,-42.2920241,4778,10126.09940
D1,Barras/PI,-4.2446153,-42.2920241,89,188.61926
1,Barreira/CE,-4.2883361,-38.641094,1453,6436.89363
D1,Barreira/CE,-4.2883361,-38.641094,39,172.77278
1,Barreiras do Piauí/PI,-9.9224524,-45.4763776,70,2088.30549
D1,Barreiras do Piauí/PI,-9.9224524,-45.4763776,1,29.83294
1,Barreiras/BA,-12.1440031,-44.9967406,17818,11350.85205
D1,Barreiras/BA,-12.1440031,-44.9967406,300,191.11323
1,Barreirinha/AM,-2.798863,-57.067897,2399,7385.40159
D1,Barreirinha/AM,-2.798863,-57.067897,62,190.86907
1,Barreirinhas/MA,-2.7541271,-42.8259693,2122,3356.69203
D1,Barreirinhas/MA,-2.7541271,-42.8259693,36,56.94671
1,Barreiros/PE,-8.8159644,-35.1831905,765,1788.88785
D1,Barreiros/PE,-8.8159644,-35.1831905,59,137.96651
1,Barretos/SP,-20.5531437,-48.5697509,14030,11422.01200
D1,Barretos/SP,-20.5531437,-48.5697509,422,343.55588
1,Barrinha/SP,-21.1898849,-48.1550642,1512,4556.96203
D1,Barrinha/SP,-21.1898849,-48.1550642,60,180.83183
1,Barro Alto/BA,-11.7618025,-41.9094904,867,5759.26664
D1,Barro Alto/BA,-11.7618025,-41.9094904,12,79.71303
1,Barro Alto/GO,-14.9696025,-48.9190985,1284,11255.25947
D1,Barro Alto/GO,-14.9696025,-48.9190985,17,149.01823
1,Barro Duro/PI,-5.8180139,-42.5106589,683,9719.65277
D1,Barro Duro/PI,-5.8180139,-42.5106589,11,156.53906
1,Barro Preto/BA,-14.8068289,-39.4727588,581,10664.46402
D1,Barro Preto/BA,-14.8068289,-39.4727588,10,183.55360
1,Barro/CE,-7.1713587,-38.7742136,1652,7258.98585
D1,Barro/CE,-7.1713587,-38.7742136,33,145.00395
1,Barrocas/BA,-11.5165,-39.099282894736845,750,4656.93884
D1,Barrocas/BA,-11.5165,-39.099282894736845,23,142.81279
1,Barrolândia/TO,-9.837246,-48.7264346,750,13271.98726
D1,Barrolândia/TO,-9.837246,-48.7264346,20,353.91966
1,Barroquinha/CE,-3.0200371,-41.1339229,1183,7863.60011
D1,Barroquinha/CE,-3.0200371,-41.1339229,25,166.17921
1,Barros Cassal/RS,-29.094938,-52.5832366,704,6295.83259
D1,Barros Cassal/RS,-29.094938,-52.5832366,12,107.31533
1,Barroso/MG,-21.187222,-43.976111,1810,8661.53036
D1,Barroso/MG,-21.187222,-43.976111,47,224.91267
1,Barueri/SP,-23.5112184,-46.8764612,28098,10144.34151
D1,Barueri/SP,-23.5112184,-46.8764612,1003,362.11739
1,Barão de Antonina/SP,-23.6295651,-49.5632104,389,11120.64037
D1,Barão de Antonina/SP,-23.6295651,-49.5632104,8,228.70212
1,Barão de Cocais/MG,-19.9452437,-43.4870298,3552,10807.52145
D1,Barão de Cocais/MG,-19.9452437,-43.4870298,61,185.60214
1,Barão de Cotegipe/RS,-27.6214694,-52.3765316,716,10815.70997
D1,Barão de Cotegipe/RS,-27.6214694,-52.3765316,7,105.74018
1,Barão de Grajaú/MA,-6.7542591,-43.0263477,437,2309.23695
D1,Barão de Grajaú/MA,-6.7542591,-43.0263477,2,10.56859
1,Barão de Melgaço/MT,-16.195776,-55.9668049,356,4360.60755
D1,Barão de Melgaço/MT,-16.195776,-55.9668049,14,171.48457
1,Barão de Monte Alto/MG,-21.244722,-42.2375,326,6088.90549
D1,Barão de Monte Alto/MG,-21.244722,-42.2375,12,224.13149
1,Barão do Triunfo/RS,-30.3909877,-51.7375349,445,5918.34020
D1,Barão do Triunfo/RS,-30.3909877,-51.7375349,6,79.79785
1,Barão/RS,-29.372474,-51.494908,596,9609.80329
D1,Barão/RS,-29.372474,-51.494908,8,128.99065
1,Bastos/SP,-21.9222474,-50.7317727,1290,6156.63628
D1,Bastos/SP,-21.9222474,-50.7317727,35,167.04052
1,Bataguassu/MS,-21.715899,-52.422058,3070,13161.84352
D1,Bataguassu/MS,-21.715899,-52.422058,36,154.34084
1,Batalha/AL,-9.6733809,-37.1265481,1093,5960.30101
D1,Batalha/AL,-9.6733809,-37.1265481,15,81.79736
1,Batalha/PI,-4.022391,-42.0780926,1058,3932.35458
D1,Batalha/PI,-4.022391,-42.0780926,31,115.22022
1,Batatais/SP,-20.892867,-47.592149,3010,4779.29501
D1,Batatais/SP,-20.892867,-47.592149,146,231.81963
1,Batayporã/MS,-22.2976466,-53.2685608,1009,8890.65116
D1,Batayporã/MS,-22.2976466,-53.2685608,18,158.60428
1,Baturité/CE,-4.3290203,-38.8821055,3978,11068.13945
D1,Baturité/CE,-4.3290203,-38.8821055,76,211.45767
1,Bauru/SP,-22.3218102,-49.0705863,44221,11658.67381
D1,Bauru/SP,-22.3218102,-49.0705863,1000,263.64564
1,Bayeux/PB,-7.1301631,-34.936532,7015,7216.85545
D1,Bayeux/PB,-7.1301631,-34.936532,231,237.64699
1,Baía Formosa/RN,-6.3691885,-35.0063741,348,3733.10448
D1,Baía Formosa/RN,-6.3691885,-35.0063741,8,85.81849
1,Baía da Traição/PB,-6.691258,-34.9371244,1275,14017.15040
D1,Baía da Traição/PB,-6.691258,-34.9371244,12,131.92612
1,Bebedouro/SP,-20.949077,-48.479083,3679,4743.73026
D1,Bebedouro/SP,-20.949077,-48.479083,143,184.38527
1,Beberibe/CE,-4.1810469,-38.1298101,4722,8752.71089
D1,Beberibe/CE,-4.1810469,-38.1298101,98,181.65304
1,Bela Cruz/CE,-3.0529129,-40.167582,3343,10216.36819
D1,Bela Cruz/CE,-3.0529129,-40.167582,69,210.86731
1,Bela Vista da Caroba/PR,-25.8792818,-53.6672545,171,4946.48539
D1,Bela Vista da Caroba/PR,-25.8792818,-53.6672545,6,173.56089
1,Bela Vista de Goiás/GO,-16.9692949,-48.9513071,2407,7893.87380
D1,Bela Vista de Goiás/GO,-16.9692949,-48.9513071,65,213.17067
1,Bela Vista de Minas/MG,-19.8289721,-43.0973688,783,7630.09160
D1,Bela Vista de Minas/MG,-19.8289721,-43.0973688,22,214.38316
1,Bela Vista do Maranhão/MA,-3.7416367,-45.2514192,213,1888.46529
D1,Bela Vista do Maranhão/MA,-3.7416367,-45.2514192,17,150.72258
1,Bela Vista do Paraíso/PR,-22.9948493,-51.1907996,1805,11721.54036
D1,Bela Vista do Paraíso/PR,-22.9948493,-51.1907996,60,389.63569
1,Bela Vista do Piauí/PI,-7.9716353,-41.8715061,261,6476.42680
D1,Bela Vista do Piauí/PI,-7.9716353,-41.8715061,6,148.88337
1,Bela Vista do Toldo/SC,-26.274625,-50.466354,79,1241.74788
D1,Bela Vista do Toldo/SC,-26.274625,-50.466354,3,47.15498
1,Bela Vista/MS,-22.107327,-56.5317344,962,3889.22579
D1,Bela Vista/MS,-22.107327,-56.5317344,29,117.24277
1,Belford Roxo/RJ,-22.7667284,-43.4033603,20291,3954.45102
D1,Belford Roxo/RJ,-22.7667284,-43.4033603,694,135.25154
1,Belmiro Braga/MG,-21.9486291,-43.413564,198,5781.02190
D1,Belmiro Braga/MG,-21.9486291,-43.413564,3,87.59124
1,Belmonte/BA,-15.8630837,-38.8792845,1070,4565.43073
D1,Belmonte/BA,-15.8630837,-38.8792845,23,98.13543
1,Belmonte/SC,-26.8448262,-53.578916,250,9228.49760
D1,Belmonte/SC,-26.8448262,-53.578916,5,184.56995
1,Belo Campo/BA,-15.0338286,-41.2585109,857,5009.05956
D1,Belo Campo/BA,-15.0338286,-41.2585109,14,81.82828
1,Belo Horizonte/MG,-19.9227318,-43.9450948,227764,9032.64799
D1,Belo Horizonte/MG,-19.9227318,-43.9450948,5567,220.77568
1,Belo Jardim/PE,-8.3338293,-36.4176419,3678,4796.11929
D1,Belo Jardim/PE,-8.3338293,-36.4176419,113,147.35222
1,Belo Monte/AL,-9.8269944,-37.2787165,425,6333.83010
D1,Belo Monte/AL,-9.8269944,-37.2787165,9,134.12817
1,Belo Oriente/MG,-19.2232523,-42.4807033,2552,9453.95273
D1,Belo Oriente/MG,-19.2232523,-42.4807033,60,222.27162
1,Belo Vale/MG,-20.407778,-44.024167,833,10791.55331
D1,Belo Vale/MG,-20.407778,-44.024167,10,129.55046
1,Belterra/PA,-2.636091,-54.937392,1454,8150.68109
D1,Belterra/PA,-2.636091,-54.937392,25,140.14238
1,Belágua/MA,-3.1604031,-43.5085052,408,5419.76621
D1,Belágua/MA,-3.1604031,-43.5085052,3,39.85122
1,Belém de Maria/PE,-8.6242497,-35.8388934,248,2045.86702
D1,Belém de Maria/PE,-8.6242497,-35.8388934,6,49.49678
1,Belém do Brejo do Cruz/PB,-6.1880727,-37.5332267,508,6912.50510
D1,Belém do Brejo do Cruz/PB,-6.1880727,-37.5332267,5,68.03647
1,Belém do Piauí/PI,-7.3767305,-40.9712156,454,12656.81628
D1,Belém do Piauí/PI,-7.3767305,-40.9712156,7,195.14915
1,Belém do São Francisco/PE,-8.7517707,-38.9625715,744,3589.00145
D1,Belém do São Francisco/PE,-8.7517707,-38.9625715,10,48.23927
1,Belém/AL,-9.5715351,-36.492841,117,2731.09244
D1,Belém/AL,-9.5715351,-36.492841,4,93.37068
1,Belém/PA,-1.45056,-48.4682453,102106,6808.69621
D1,Belém/PA,-1.45056,-48.4682453,4880,325.41122
1,Belém/PB,-6.6967586,-35.5369626,2069,11685.96442
D1,Belém/PB,-6.6967586,-35.5369626,44,248.51737
1,Beneditinos/PI,-5.4565671,-42.3605061,1165,11123.84226
D1,Beneditinos/PI,-5.4565671,-42.3605061,38,362.83777
1,Benedito Leite/MA,-7.2173453,-44.5523331,300,5321.03583
D1,Benedito Leite/MA,-7.2173453,-44.5523331,2,35.47357
1,Benedito Novo/SC,-26.7840657,-49.3629511,997,8467.09130
D1,Benedito Novo/SC,-26.7840657,-49.3629511,18,152.86624
1,Benevides/PA,-1.3555577,-48.252235,3854,6043.78372
D1,Benevides/PA,-1.3555577,-48.252235,100,156.81847
1,Benjamin Constant do Sul/RS,-27.5105555,-52.6007689,157,8018.38611
1,Benjamin Constant/AM,-4.3782748,-70.0290603,2693,6129.50950
D1,Benjamin Constant/AM,-4.3782748,-70.0290603,87,198.01980
1,Bento Fernandes/RN,-5.6926846,-35.8207423,148,2678.73303
D1,Bento Fernandes/RN,-5.6926846,-35.8207423,3,54.29864
1,Bento Gonçalves/RS,-29.1654014,-51.5197627,17466,14339.54829
D1,Bento Gonçalves/RS,-29.1654014,-51.5197627,299,245.47835
1,Bento de Abreu/SP,-21.2707225,-50.8120444,305,10149.75042
D1,Bento de Abreu/SP,-21.2707225,-50.8120444,1,33.27787
1,Bequimão/MA,-2.4495376,-44.7884889,277,1300.53054
D1,Bequimão/MA,-2.4495376,-44.7884889,19,89.20607
1,Berilo/MG,-16.9515764,-42.4643732,149,1255.05391
D1,Berilo/MG,-16.9515764,-42.4643732,1,8.42318
1,Berizal/MG,-15.6118785,-41.7417382,174,3652.39295
D1,Berizal/MG,-15.6118785,-41.7417382,1,20.99076
1,Bernardino Batista/PB,-6.4532173,-38.5495418,261,7381.22172
1,Bernardino de Campos/SP,-23.0140216,-49.4760724,681,6103.24431
D1,Bernardino de Campos/SP,-23.0140216,-49.4760724,18,161.31923
1,Bernardo Sayão/TO,-7.8794244,-48.8968905,587,13196.94245
D1,Bernardo Sayão/TO,-7.8794244,-48.8968905,8,179.85612
1,Bernardo do Mearim/MA,-4.6315929,-44.7617508,292,4808.16730
D1,Bernardo do Mearim/MA,-4.6315929,-44.7617508,6,98.79796
1,Bertioga/SP,-23.848568,-46.139586,5396,8337.06719
D1,Bertioga/SP,-23.848568,-46.139586,145,224.03164
1,Bertolínia/PI,-7.6372159,-43.9540611,847,15380.42491
D1,Bertolínia/PI,-7.6372159,-43.9540611,10,181.58707
1,Bertópolis/MG,-17.063333,-40.573889,353,7662.25309
1,Beruri/AM,-3.9007135,-61.3717319,2217,11033.69333
D1,Beruri/AM,-3.9007135,-61.3717319,33,164.23630
1,Betim/MG,-19.968056,-44.198333,29000,6520.01871
D1,Betim/MG,-19.968056,-44.198333,1180,265.29731
1,Betânia do Piauí/PI,-8.1460635,-40.7961387,157,2528.18035
D1,Betânia do Piauí/PI,-8.1460635,-40.7961387,2,32.20612
1,Betânia/PE,-8.2742779,-38.0351767,473,3705.44458
D1,Betânia/PE,-8.2742779,-38.0351767,14,109.67489
1,Bezerros/PE,-8.2372132,-35.7558262,3748,6156.37319
D1,Bezerros/PE,-8.2372132,-35.7558262,113,185.61104
1,Bias Fortes/MG,-21.605833,-43.756944,111,3334.33464
D1,Bias Fortes/MG,-21.605833,-43.756944,3,90.11715
1,Bicas/MG,-21.7213723,-43.0604327,1377,9461.31648
D1,Bicas/MG,-21.7213723,-43.0604327,43,295.45142
1,Biguaçu/SC,-27.4961277,-48.6542432,10814,15562.84719
D1,Biguaçu/SC,-27.4961277,-48.6542432,162,233.14049
1,Bilac/SP,-21.403962,-50.47464,835,10287.05187
D1,Bilac/SP,-21.403962,-50.47464,13,160.15769
1,Biquinhas/MG,-18.783611,-45.502222,119,4763.81105
D1,Biquinhas/MG,-18.783611,-45.502222,1,40.03203
1,Birigui/SP,-21.2908491,-50.34144,14164,11341.81594
D1,Birigui/SP,-21.2908491,-50.34144,482,385.96126
1,Biritiba Mirim/SP,-23.5697765,-46.0407456,1341,4071.53267
D1,Biritiba Mirim/SP,-23.5697765,-46.0407456,85,258.07627
1,Biritinga/BA,-11.6227908,-38.8066738,481,3009.25926
D1,Biritinga/BA,-11.6227908,-38.8066738,7,43.79379
1,Bituruna/PR,-26.161281,-51.5533319,1106,6743.90244
D1,Bituruna/PR,-26.161281,-51.5533319,16,97.56098
1,Blumenau/SC,-26.9195567,-49.0658025,49858,13778.44717
D1,Blumenau/SC,-26.9195567,-49.0658025,553,152.82364
1,Boa Esperança do Iguaçu/PR,-25.6362851,-53.2139114,153,6194.33198
1,Boa Esperança do Sul/SP,-21.9930206,-48.3917372,1077,7171.39433
D1,Boa Esperança do Sul/SP,-21.9930206,-48.3917372,17,113.19750
1,Boa Esperança/ES,-18.5395472,-40.2904088,1542,10217.33369
D1,Boa Esperança/ES,-18.5395472,-40.2904088,39,258.41505
1,Boa Esperança/MG,-21.0901253,-45.5660195,4008,9965.43922
D1,Boa Esperança/MG,-21.0901253,-45.5660195,107,266.04341
1,Boa Esperança/PR,-24.2411024,-52.7860277,392,9686.18730
D1,Boa Esperança/PR,-24.2411024,-52.7860277,15,370.64492
1,Boa Hora/PI,-4.4094627,-42.1255341,548,8041.08584
D1,Boa Hora/PI,-4.4094627,-42.1255341,6,88.04109
1,Boa Nova/BA,-14.365907,-40.2063056,886,7186.30870
D1,Boa Nova/BA,-14.365907,-40.2063056,16,129.77533
1,Boa Ventura de São Roque/PR,-24.88177,-51.5441292,422,6630.00786
D1,Boa Ventura de São Roque/PR,-24.88177,-51.5441292,5,78.55460
1,Boa Ventura/PB,-7.4202462,-38.2156782,433,8159.03524
D1,Boa Ventura/PB,-7.4202462,-38.2156782,8,150.74430
1,Boa Viagem/CE,-5.1261877,-39.7300055,3865,7081.73773
D1,Boa Viagem/CE,-5.1261877,-39.7300055,94,172.23372
1,Boa Vista da Aparecida/PR,-25.4357216,-53.4067721,833,11047.74536
D1,Boa Vista da Aparecida/PR,-25.4357216,-53.4067721,26,344.82759
1,Boa Vista das Missões/RS,-27.6677983,-53.3127622,212,10133.84321
D1,Boa Vista das Missões/RS,-27.6677983,-53.3127622,4,191.20459
1,Boa Vista do Buricá/RS,-27.6687782,-54.1111913,811,12082.83671
D1,Boa Vista do Buricá/RS,-27.6687782,-54.1111913,9,134.08820
1,Boa Vista do Cadeado/RS,-28.5783827,-53.8123759,172,6969.20583
D1,Boa Vista do Cadeado/RS,-28.5783827,-53.8123759,2,81.03728
1,Boa Vista do Gurupi/MA,-1.7981168,-46.3071882,15,178.95490
D1,Boa Vista do Gurupi/MA,-1.7981168,-46.3071882,4,47.72131
1,Boa Vista do Incra/RS,-28.8195551,-53.3866624,249,9518.34862
D1,Boa Vista do Incra/RS,-28.8195551,-53.3866624,4,152.90520
1,Boa Vista do Ramos/AM,-2.9716927,-57.5869819,954,4860.89881
D1,Boa Vista do Ramos/AM,-2.9716927,-57.5869819,11,56.04810
1,Boa Vista do Sul/RS,-29.3510488,-51.6779679,296,10655.14759
D1,Boa Vista do Sul/RS,-29.3510488,-51.6779679,3,107.99136
1,Boa Vista do Tupim/BA,-12.6605988,-40.6083594,255,1376.07253
D1,Boa Vista do Tupim/BA,-12.6605988,-40.6083594,8,43.17090
1,Boa Vista/PB,-7.2620711,-36.2415161,736,10313.90135
D1,Boa Vista/PB,-7.2620711,-36.2415161,12,168.16143
1,Boa Vista/RR,2.8208478,-60.6719582,84216,20068.05639
D1,Boa Vista/RR,2.8208478,-60.6719582,1312,312.64000
1,Boca da Mata/AL,-9.6452054,-36.2116658,1787,6532.38778
D1,Boca da Mata/AL,-9.6452054,-36.2116658,43,157.18672
1,Boca do Acre/AM,-8.7553487,-67.3930873,2616,7553.05327
D1,Boca do Acre/AM,-8.7553487,-67.3930873,25,72.18132
1,Bocaina de Minas/MG,-22.167778,-44.394722,176,3458.43977
D1,Bocaina de Minas/MG,-22.167778,-44.394722,7,137.55158
1,Bocaina do Sul/SC,-27.745494,-49.942279,370,10607.79817
D1,Bocaina do Sul/SC,-27.745494,-49.942279,3,86.00917
1,Bocaina/PI,-6.9445939,-41.3224599,271,6015.53829
D1,Bocaina/PI,-6.9445939,-41.3224599,4,88.79023
1,Bocaina/SP,-22.1421831,-48.522276,1220,9797.62287
D1,Bocaina/SP,-22.1421831,-48.522276,30,240.92515
1,Bocaiúva do Sul/PR,-25.206591,-49.114131,1699,12940.81804
D1,Bocaiúva do Sul/PR,-25.206591,-49.114131,15,114.25089
1,Bocaiúva/MG,-17.1160208,-43.8122678,2229,4435.29131
D1,Bocaiúva/MG,-17.1160208,-43.8122678,57,113.41929
1,Bodocó/PE,-7.777592,-39.933797,1902,4955.96435
D1,Bodocó/PE,-7.777592,-39.933797,29,75.56413
1,Bodoquena/MS,-20.5508775,-56.6769653,484,6175.04465
D1,Bodoquena/MS,-20.5508775,-56.6769653,14,178.61699
1,Bodó/RN,-5.9866104,-36.4134824,161,7328.17478
1,Bofete/SP,-23.1019554,-48.2610535,710,5955.87618
D1,Bofete/SP,-23.1019554,-48.2610535,13,109.05125
1,Boituva/SP,-23.2838893,-47.6738231,5523,8883.70597
D1,Boituva/SP,-23.2838893,-47.6738231,155,249.31639
1,Bom Conselho/PE,-9.169191,-36.685683,1835,3762.79041
D1,Bom Conselho/PE,-9.169191,-36.685683,60,123.03402
1,Bom Despacho/MG,-19.7375242,-45.2517288,4139,8111.23305
D1,Bom Despacho/MG,-19.7375242,-45.2517288,74,145.01842
1,Bom Jardim da Serra/SC,-28.3380324,-49.625588,592,12405.69992
D1,Bom Jardim da Serra/SC,-28.3380324,-49.625588,4,83.82230
1,Bom Jardim de Goiás/GO,-16.2062659,-52.172793,760,8569.17353
D1,Bom Jardim de Goiás/GO,-16.2062659,-52.172793,15,169.12842
1,Bom Jardim de Minas/MG,-21.9476466,-44.1906033,459,7106.36321
D1,Bom Jardim de Minas/MG,-21.9476466,-44.1906033,3,46.44682
1,Bom Jardim/MA,-3.54129,-45.606004,1394,3333.17393
D1,Bom Jardim/MA,-3.54129,-45.606004,47,112.38104
1,Bom Jardim/PE,-7.7961572,-35.5871696,1574,3936.67309
D1,Bom Jardim/PE,-7.7961572,-35.5871696,67,167.57122
1,Bom Jardim/RJ,-22.1515328,-42.4186683,1583,5732.18424
D1,Bom Jardim/RJ,-22.1515328,-42.4186683,41,148.46466
1,Bom Jesus da Lapa/BA,-13.250571,-43.410754,5343,7669.89176
D1,Bom Jesus da Lapa/BA,-13.250571,-43.410754,69,99.04970
1,Bom Jesus da Penha/MG,-21.0165299,-46.5226644,628,14797.36098
D1,Bom Jesus da Penha/MG,-21.0165299,-46.5226644,14,329.87747
1,Bom Jesus da Serra/BA,-14.3724084,-40.5047119,432,4397.84180
D1,Bom Jesus da Serra/BA,-14.3724084,-40.5047119,8,81.44151
1,Bom Jesus das Selvas/MA,-4.4878075,-46.8526639,3133,9063.55773
D1,Bom Jesus das Selvas/MA,-4.4878075,-46.8526639,24,69.43038
1,Bom Jesus de Goiás/GO,-18.2174587,-49.739721,2697,10515.43980
D1,Bom Jesus de Goiás/GO,-18.2174587,-49.739721,104,405.48971
1,Bom Jesus do Amparo/MG,-19.7045132,-43.4752911,227,3701.28811
D1,Bom Jesus do Amparo/MG,-19.7045132,-43.4752911,6,97.83140
1,Bom Jesus do Araguaia/MT,-12.1725897,-51.5074425,1005,14986.57918
D1,Bom Jesus do Araguaia/MT,-12.1725897,-51.5074425,16,238.59231
1,Bom Jesus do Galho/MG,-19.8283191,-42.3162256,616,4144.79882
D1,Bom Jesus do Galho/MG,-19.8283191,-42.3162256,28,188.39995
1,Bom Jesus do Itabapoana/RJ,-21.1341025,-41.680095,3261,8765.42214
D1,Bom Jesus do Itabapoana/RJ,-21.1341025,-41.680095,83,223.10029
1,Bom Jesus do Norte/ES,-21.1254776,-41.6711646,1038,10419.59446
D1,Bom Jesus do Norte/ES,-21.1254776,-41.6711646,25,250.95362
1,Bom Jesus do Oeste/SC,-26.6929713,-53.0967453,182,8508.64890
D1,Bom Jesus do Oeste/SC,-26.6929713,-53.0967453,6,280.50491
1,Bom Jesus do Sul/PR,-26.1922507,-53.6002033,425,12122.07644
D1,Bom Jesus do Sul/PR,-26.1922507,-53.6002033,5,142.61266
1,Bom Jesus do Tocantins/PA,-5.0471796,-48.5978362,759,4433.92920
D1,Bom Jesus do Tocantins/PA,-5.0471796,-48.5978362,25,146.04510
1,Bom Jesus do Tocantins/TO,-8.96306,-48.165043,129,2575.87859
D1,Bom Jesus do Tocantins/TO,-8.96306,-48.165043,3,59.90415
1,Bom Jesus dos Perdões/SP,-23.1353864,-46.4648052,1956,7527.41967
D1,Bom Jesus dos Perdões/SP,-23.1353864,-46.4648052,23,88.51260
1,Bom Jesus/PB,-6.8156725,-38.6551841,156,6058.25243
D1,Bom Jesus/PB,-6.8156725,-38.6551841,3,116.50485
1,Bom Jesus/PI,-9.0711644,-44.3583926,3380,13313.90082
D1,Bom Jesus/PI,-9.0711644,-44.3583926,36,141.80486
1,Bom Jesus/RN,-5.9887544,-35.5821149,777,7567.93611
D1,Bom Jesus/RN,-5.9887544,-35.5821149,15,146.09915
1,Bom Jesus/RS,-28.6692723,-50.4346894,855,7560.35016
D1,Bom Jesus/RS,-28.6692723,-50.4346894,19,168.00778
1,Bom Jesus/SC,-26.7350604,-52.3916519,408,13346.41806
D1,Bom Jesus/SC,-26.7350604,-52.3916519,7,228.98266
1,Bom Lugar/MA,-4.3728019,-45.0366054,464,2822.72783
D1,Bom Lugar/MA,-4.3728019,-45.0366054,7,42.58426
1,Bom Princípio do Piauí/PI,-3.1912777,-41.6430185,129,2282.78181
D1,Bom Princípio do Piauí/PI,-3.1912777,-41.6430185,12,212.35180
1,Bom Princípio/RS,-29.489788,-51.3566782,1851,12984.91757
D1,Bom Princípio/RS,-29.489788,-51.3566782,26,182.39214
1,Bom Progresso/RS,-27.5490948,-53.8655601,137,7214.32333
D1,Bom Progresso/RS,-27.5490948,-53.8655601,3,157.97788
1,Bom Repouso/MG,-22.4657069,-46.1485376,923,8759.60900
D1,Bom Repouso/MG,-22.4657069,-46.1485376,19,180.31698
1,Bom Retiro do Sul/RS,-29.6000007,-51.9359243,989,7982.24374
D1,Bom Retiro do Sul/RS,-29.6000007,-51.9359243,28,225.98870
1,Bom Retiro/SC,-27.798993,-49.486994,742,7375.74553
D1,Bom Retiro/SC,-27.798993,-49.486994,15,149.10537
1,Bom Sucesso de Itararé/SP,-24.3190016,-49.1446207,161,4041.16466
D1,Bom Sucesso de Itararé/SP,-24.3190016,-49.1446207,5,125.50201
1,Bom Sucesso do Sul/PR,-26.0749256,-52.8348629,410,12599.87707
D1,Bom Sucesso do Sul/PR,-26.0749256,-52.8348629,7,215.11985
1,Bom Sucesso/MG,-21.0323516,-44.7598082,951,5401.26086
D1,Bom Sucesso/MG,-21.0323516,-44.7598082,12,68.15471
1,Bom Sucesso/PB,-6.4458948,-37.9297662,390,7869.24939
D1,Bom Sucesso/PB,-6.4458948,-37.9297662,4,80.71025
1,Bom Sucesso/PR,-23.7088019,-51.7651297,848,11997.73628
D1,Bom Sucesso/PR,-23.7088019,-51.7651297,16,226.37238
1,Bombinhas/SC,-27.1519159,-48.4875691,3404,16739.61151
D1,Bombinhas/SC,-27.1519159,-48.4875691,56,275.38726
1,Bonfim do Piauí/PI,-9.1648678,-42.8734415,349,6138.96218
D1,Bonfim do Piauí/PI,-9.1648678,-42.8734415,7,123.13105
1,Bonfim/MG,-20.3266626, -44.2386157,397,5787.17201
D1,Bonfim/MG,-20.3266626, -44.2386157,13,189.50437
1,Bonfim/RR,3.3613818,-59.8427241,2236,17806.80099
D1,Bonfim/RR,3.3613818,-59.8427241,26,207.05583
1,Bonfinópolis de Minas/MG,-16.5660011,-45.98645,471,8651.72667
D1,Bonfinópolis de Minas/MG,-16.5660011,-45.98645,12,220.42616
1,Bonfinópolis/GO,-16.6172709,-48.9615701,453,4566.99264
D1,Bonfinópolis/GO,-16.6172709,-48.9615701,19,191.55157
1,Boninal/BA,-12.7095183,-41.8299984,608,4208.77752
D1,Boninal/BA,-12.7095183,-41.8299984,7,48.45632
1,Bonito de Minas/MG,-15.3191266,-44.7544,70,615.70939
1,Bonito de Santa Fé/PB,-7.3143332,-38.5146677,452,3759.77375
D1,Bonito de Santa Fé/PB,-7.3143332,-38.5146677,11,91.49892
1,Bonito/BA,-11.9665473,-41.2649896,847,5016.58375
D1,Bonito/BA,-11.9665473,-41.2649896,12,71.07321
1,Bonito/MS,-21.1264766,-56.4902208,2915,13136.54799
D1,Bonito/MS,-21.1264766,-56.4902208,62,279.40514
1,Bonito/PA,-1.3605722,-47.3049907,382,2310.94979
D1,Bonito/PA,-1.3605722,-47.3049907,13,78.64489
1,Bonito/PE,-8.4721161,-35.7314591,924,2424.11522
D1,Bonito/PE,-8.4721161,-35.7314591,39,102.31655
1,Bonópolis/GO,-13.649331,-49.8329113,160,3561.09504
D1,Bonópolis/GO,-13.649331,-49.8329113,1,22.25684
1,Boqueirão do Leão/RS,-29.30332,-52.4296817,567,7361.72423
D1,Boqueirão do Leão/RS,-29.30332,-52.4296817,31,402.49286
1,Boqueirão do Piauí/PI,-4.4850148,-42.1095161,660,10270.77498
D1,Boqueirão do Piauí/PI,-4.4850148,-42.1095161,10,155.61780
1,Boqueirão/PB,-7.487004,-36.130887,1750,9792.94908
D1,Boqueirão/PB,-7.487004,-36.130887,36,201.45495
1,Boquim/SE,-11.1450175,-37.6204228,2547,9468.75349
D1,Boquim/SE,-11.1450175,-37.6204228,63,234.20945
1,Boquira/BA,-12.8184859,-42.7270883,612,2846.90887
D1,Boquira/BA,-12.8184859,-42.7270883,12,55.82174
1,Boracéia/SP,-22.195355,-48.7801925,881,18097.78143
D1,Boracéia/SP,-22.195355,-48.7801925,22,451.93098
1,Borba/AM,-4.3934778,-59.5947721,2174,5207.43509
D1,Borba/AM,-4.3934778,-59.5947721,60,143.71946
1,Borborema/PB,-6.8066718,-35.5990191,383,7244.18385
D1,Borborema/PB,-6.8066718,-35.5990191,13,245.88614
1,Borborema/SP,-21.6212706,-49.074135,1485,9187.08241
D1,Borborema/SP,-21.6212706,-49.074135,46,284.58302
1,Borda da Mata/MG,-22.274167,-46.165278,1481,7550.72907
D1,Borda da Mata/MG,-22.274167,-46.165278,43,219.23116
1,Borebi/SP,-22.5700178,-48.9714871,232,8647.03690
D1,Borebi/SP,-22.5700178,-48.9714871,3,111.81513
1,Borrazópolis/PR,-23.9393362,-51.5850786,781,12129.21261
D1,Borrazópolis/PR,-23.9393362,-51.5850786,22,341.66796
1,Borá/SP,-22.2701088,-50.544407,107,12768.49642
D1,Borá/SP,-22.2701088,-50.544407,1,119.33174
1,Bossoroca/RS,-28.7278885,-54.9120278,390,6285.25383
D1,Bossoroca/RS,-28.7278885,-54.9120278,22,354.55278
1,Botelhos/MG,-21.65,-46.394722,1622,10850.22410
D1,Botelhos/MG,-21.65,-46.394722,20,133.78821
1,Botucatu/SP,-22.8879628,-48.4410712,13207,8915.81719
D1,Botucatu/SP,-22.8879628,-48.4410712,260,175.52150
1,Botumirim/MG,-16.862778,-43.011111,228,3625.95420
D1,Botumirim/MG,-16.862778,-43.011111,4,63.61323
1,Botuporã/BA,-13.3744752,-42.5198469,207,2043.63708
D1,Botuporã/BA,-13.3744752,-42.5198469,3,29.61793
1,Botuverá/SC,-27.200749,-49.068892,885,16629.08681
D1,Botuverá/SC,-27.200749,-49.068892,8,150.31943
1,Bozano/RS,-28.3669953,-53.7705165,241,11416.39034
D1,Bozano/RS,-28.3669953,-53.7705165,7,331.59640
1,Braga/RS,-27.617348,-53.740514,337,10178.19390
D1,Braga/RS,-27.617348,-53.740514,9,271.82120
1,Braganey/PR,-24.8179919,-53.118506,437,8119.65812
D1,Braganey/PR,-24.8179919,-53.118506,7,130.06317
1,Bragança Paulista/SP,-22.9520235,-46.5418586,16352,9588.75995
D1,Bragança Paulista/SP,-22.9520235,-46.5418586,447,262.11936
1,Bragança/PA,-1.0573967,-46.7635406,3998,3101.29233
D1,Bragança/PA,-1.0573967,-46.7635406,142,110.15095
1,Branquinha/AL,-9.2478057,-36.0152009,519,4961.75908
D1,Branquinha/AL,-9.2478057,-36.0152009,9,86.04207
1,Brasil Novo/PA,-3.3055853,-52.539198,1857,12394.04659
D1,Brasil Novo/PA,-3.3055853,-52.539198,42,280.31769
1,Brasileira/PI,-4.131182,-41.7824969,577,6912.66323
D1,Brasileira/PI,-4.131182,-41.7824969,15,179.70528
1,Brasilândia de Minas/MG,-17.0096469,-46.0087183,1202,7176.97636
D1,Brasilândia de Minas/MG,-17.0096469,-46.0087183,18,107.47552
1,Brasilândia do Sul/PR,-24.1975793,-53.527551,377,14584.13926
D1,Brasilândia do Sul/PR,-24.1975793,-53.527551,9,348.16248
1,Brasilândia do Tocantins/TO,-8.3886619,-48.4842729,241,10900.04523
D1,Brasilândia do Tocantins/TO,-8.3886619,-48.4842729,5,226.14202
1,Brasilândia/MS,-21.255575,-52.0365617,1139,9609.38159
D1,Brasilândia/MS,-21.255575,-52.0365617,19,160.29697
1,Brasiléia/AC,-11.0010413,-68.7487894,2840,10635.90742
D1,Brasiléia/AC,-11.0010413,-68.7487894,38,142.31144
1,Brasnorte/MT,-12.1227151,-58.0050109,1932,9592.85005
D1,Brasnorte/MT,-12.1227151,-58.0050109,33,163.85303
1,Brasília de Minas/MG,-16.2075114,-44.430559,1033,3187.77966
D1,Brasília de Minas/MG,-16.2075114,-44.430559,8,24.68755
1,Brasília/DF,-15.7934036,-47.8823172,423833,13872.74401
D1,Brasília/DF,-15.7934036,-47.8823172,9113,298.28332
1,Brazabrantes/GO,-16.4291635,-49.3858216,455,12146.28938
D1,Brazabrantes/GO,-16.4291635,-49.3858216,3,80.08542
1,Brazópolis/MG,-22.4742842,-45.6165577,790,5482.30396
D1,Brazópolis/MG,-22.4742842,-45.6165577,29,201.24913
1,Braço do Norte/SC,-28.2728633,-49.1622712,8066,23810.36722
D1,Braço do Norte/SC,-28.2728633,-49.1622712,93,274.53064
1,Braço do Trombudo/SC,-27.358578,-49.882145,618,16396.92226
D1,Braço do Trombudo/SC,-27.358578,-49.882145,5,132.66118
1,Braúna/SP,-21.5015319,-50.3175246,518,9022.81832
D1,Braúna/SP,-21.5015319,-50.3175246,20,348.37136
1,Braúnas/MG,-19.055556,-42.716111,219,4592.15769
D1,Braúnas/MG,-19.055556,-42.716111,7,146.78130
1,Brejetuba/ES,-20.1465817,-41.2902303,1607,12931.52008
D1,Brejetuba/ES,-20.1465817,-41.2902303,14,112.65792
1,Brejinho de Nazaré/TO,-11.0205883,-48.5722906,538,9748.14278
D1,Brejinho de Nazaré/TO,-11.0205883,-48.5722906,13,235.54992
1,Brejinho/PE,-7.3482153,-37.28538,646,8627.13675
D1,Brejinho/PE,-7.3482153,-37.28538,20,267.09402
1,Brejinho/RN,-6.1957907,-35.3583019,1242,9712.98976
D1,Brejinho/RN,-6.1957907,-35.3583019,15,117.30664
1,Brejo Alegre/SP,-21.1671191,-50.1850393,346,11976.46244
D1,Brejo Alegre/SP,-21.1671191,-50.1850393,13,449.98269
1,Brejo Grande do Araguaia/PA,-5.7011449,-48.4037308,804,10912.05212
D1,Brejo Grande do Araguaia/PA,-5.7011449,-48.4037308,4,54.28882
1,Brejo Grande/SE,-10.4287358,-36.4667918,438,5243.62504
D1,Brejo Grande/SE,-10.4287358,-36.4667918,12,143.66096
1,Brejo Santo/CE,-7.4909841,-38.9859152,8126,16303.51912
D1,Brejo Santo/CE,-7.4909841,-38.9859152,152,304.96369
1,Brejo da Madre de Deus/PE,-8.1409718,-36.3712527,2028,3959.00439
D1,Brejo da Madre de Deus/PE,-8.1409718,-36.3712527,49,95.65642
1,Brejo de Areia/MA,-4.3316785,-45.5833334,305,3383.62547
D1,Brejo de Areia/MA,-4.3316785,-45.5833334,9,99.84469
1,Brejo do Cruz/PB,-6.32926065,-37.48746163303929,1615,11368.43587
D1,Brejo do Cruz/PB,-6.32926065,-37.48746163303929,21,147.82486
1,Brejo do Piauí/PI,-8.207583,-42.8359849,115,2988.56549
D1,Brejo do Piauí/PI,-8.207583,-42.8359849,4,103.95010
1,Brejo dos Santos/PB,-6.3769367,-37.8243125,664,10272.27723
D1,Brejo dos Santos/PB,-6.3769367,-37.8243125,7,108.29208
1,Brejo/MA,-3.6804397,-42.7529313,886,2417.39652
D1,Brejo/MA,-3.6804397,-42.7529313,20,54.56877
1,Brejolândia/BA,-12.4843845,-43.9611861,142,1337.35167
D1,Brejolândia/BA,-12.4843845,-43.9611861,11,103.59766
1,Brejão/PE,-9.029146,-36.566034,459,5107.37732
D1,Brejão/PE,-9.029146,-36.566034,7,77.89029
1,Brejões/BA,-13.1033754,-39.7909837,734,5161.01814
D1,Brejões/BA,-13.1033754,-39.7909837,10,70.31360
1,Breu Branco/PA,-3.7785073,-49.5684795,761,1130.22040
D1,Breu Branco/PA,-3.7785073,-49.5684795,44,65.34783
1,Breves/PA,-1.68036,-50.479085,4017,3881.27192
D1,Breves/PA,-1.68036,-50.479085,116,112.08054
1,Britânia/GO,-15.2427599,-51.1602061,533,9194.41090
D1,Britânia/GO,-15.2427599,-51.1602061,5,86.25151
1,Brochier/RS,-29.556766,-51.5963047,405,7934.95298
D1,Brochier/RS,-29.556766,-51.5963047,5,97.96238
1,Brodowski/SP,-20.984532,-47.657217,2578,10198.99513
D1,Brodowski/SP,-20.984532,-47.657217,59,233.41378
1,Brotas de Macaúbas/BA,-12.0019007,-42.6257506,137,1352.41856
D1,Brotas de Macaúbas/BA,-12.0019007,-42.6257506,3,29.61500
1,Brotas/SP,-22.2840884,-48.1267265,883,3584.18574
D1,Brotas/SP,-22.2840884,-48.1267265,44,178.60042
1,Brumadinho/MG,-20.143611,-44.2,3479,8555.05828
D1,Brumadinho/MG,-20.143611,-44.2,75,184.42925
1,Brumado/BA,-14.29507325,-41.659307508575985,8920,13247.19685
D1,Brumado/BA,-14.29507325,-41.659307508575985,181,268.80523
1,Brunópolis/SC,-27.310953,-50.837585,262,11064.18919
D1,Brunópolis/SC,-27.310953,-50.837585,8,337.83784
1,Brusque/SC,-27.0964628,-48.9136323,26311,19109.00653
D1,Brusque/SC,-27.0964628,-48.9136323,273,198.27292
1,Brás Pires/MG,-20.8483109,-43.2430524,214,4984.85907
D1,Brás Pires/MG,-20.8483109,-43.2430524,7,163.05614
1,Bueno Brandão/MG,-22.441976,-46.3517971,794,7224.09244
D1,Bueno Brandão/MG,-22.441976,-46.3517971,25,227.45883
1,Buenos Aires/PE,-7.7218931,-35.326587,340,2577.71039
D1,Buenos Aires/PE,-7.7218931,-35.326587,21,159.21152
1,Buenópolis/MG,-17.8756607,-44.1749365,305,2946.00599
D1,Buenópolis/MG,-17.8756607,-44.1749365,11,106.24940
1,Buerarema/BA,-14.9571177,-39.3008035,1306,7134.27292
D1,Buerarema/BA,-14.9571177,-39.3008035,40,218.50759
1,Bugre/MG,-19.4257687,-42.2556,363,9113.73337
D1,Bugre/MG,-19.4257687,-42.2556,12,301.28044
1,Bujari/AC,-9.8309656,-67.9520886,1132,10863.72361
D1,Bujari/AC,-9.8309656,-67.9520886,17,163.14779
1,Bujaru/PA,-1.5169239,-48.0410699,1406,4777.92503
D1,Bujaru/PA,-1.5169239,-48.0410699,38,129.13311
1,Buri/SP,-23.79849,-48.598924,2339,11715.50213
D1,Buri/SP,-23.79849,-48.598924,74,370.64864
1,Buritama/SP,-21.0664017,-50.1448077,2212,12800.18517
D1,Buritama/SP,-21.0664017,-50.1448077,60,347.20213
1,Buriti Alegre/GO,-18.1377879,-49.0404411,946,9974.69422
D1,Buriti Alegre/GO,-18.1377879,-49.0404411,30,316.32223
1,Buriti Bravo/MA,-5.8391884,-43.8367876,1396,5831.48837
D1,Buriti Bravo/MA,-5.8391884,-43.8367876,15,62.65926
1,Buriti de Goiás/GO,-16.180644,-50.4287479,212,8562.19709
D1,Buriti de Goiás/GO,-16.180644,-50.4287479,8,323.10178
1,Buriti do Tocantins/TO,-5.3187439,-48.2256609,898,7810.73323
D1,Buriti do Tocantins/TO,-5.3187439,-48.2256609,16,139.16674
1,Buriti dos Lopes/PI,-3.1776723,-41.8707444,1277,6447.21563
D1,Buriti dos Lopes/PI,-3.1776723,-41.8707444,32,161.55904
1,Buriti dos Montes/PI,-5.3136171,-41.0971256,618,7478.21878
D1,Buriti dos Montes/PI,-5.3136171,-41.0971256,8,96.80542
1,Buriti/MA,-3.9430944,-42.9244281,752,2611.29245
D1,Buriti/MA,-3.9430944,-42.9244281,8,27.77971
1,Buriticupu/MA,-4.3227472,-46.4516989,3320,4549.00456
D1,Buriticupu/MA,-4.3227472,-46.4516989,48,65.76874
1,Buritinópolis/GO,-14.4589282,-46.4293104,166,5056.35090
D1,Buritinópolis/GO,-14.4589282,-46.4293104,3,91.37984
1,Buritirama/BA,-10.7148421,-43.6362327,844,3966.91107
D1,Buritirama/BA,-10.7148421,-43.6362327,22,103.40290
1,Buritirana/MA,-5.5897455,-47.0148915,441,2851.23165
D1,Buritirana/MA,-5.5897455,-47.0148915,24,155.16907
1,Buritis/MG,-15.621389,-46.423889,1670,6676.52821
D1,Buritis/MG,-15.621389,-46.423889,34,135.92932
1,Buritis/RO,-10.2054937,-63.8281954,4591,11376.25136
D1,Buritis/RO,-10.2054937,-63.8281954,72,178.41213
1,Buritizal/SP,-20.1933264,-47.7097165,265,5870.62472
D1,Buritizal/SP,-20.1933264,-47.7097165,10,221.53301
1,Buritizeiro/MG,-17.3667765,-44.9647781,1273,4526.86604
D1,Buritizeiro/MG,-17.3667765,-44.9647781,31,110.23790
1,Butiá/RS,-30.1256795,-51.9692224,1981,9454.94464
D1,Butiá/RS,-30.1256795,-51.9692224,54,257.73196
1,Buíque/PE,-8.6239732,-37.157296,2264,3842.56352
D1,Buíque/PE,-8.6239732,-37.157296,42,71.28431
1,Bálsamo/SP,-20.7343722,-49.5807484,1532,16763.32203
D1,Bálsamo/SP,-20.7343722,-49.5807484,59,645.58486
0,CASO SEM LOCALIZAÇÃO DEFINIDA/AC,-9.884083190922777,-67.85119819780795,69,7.82371
D0,CASO SEM LOCALIZAÇÃO DEFINIDA/AC,-9.884083190922777,-67.85119819780795,2,0.22677
0,CASO SEM LOCALIZAÇÃO DEFINIDA/AL,-9.931093434363673,-35.609611600637464,730,21.87360
D0,CASO SEM LOCALIZAÇÃO DEFINIDA/AL,-9.931093434363673,-35.609611600637464,21,0.62924
0,CASO SEM LOCALIZAÇÃO DEFINIDA/AM,-3.07518492149711,-60.16169212873594,393,9.48222
D0,CASO SEM LOCALIZAÇÃO DEFINIDA/AM,-3.07518492149711,-60.16169212873594,6,0.14477
0,CASO SEM LOCALIZAÇÃO DEFINIDA/AP,2.677150600275196,-50.477785111870624,164,19.39151
D0,CASO SEM LOCALIZAÇÃO DEFINIDA/AP,2.677150600275196,-50.477785111870624,9,1.06417
0,CASO SEM LOCALIZAÇÃO DEFINIDA/BA,-13.415069300066518,-38.14174656569957,12869,86.52555
D0,CASO SEM LOCALIZAÇÃO DEFINIDA/BA,-13.415069300066518,-38.14174656569957,315,2.11792
0,CASO SEM LOCALIZAÇÃO DEFINIDA/CE,-3.3445126297392798,-38.624961942434304,11513,126.07207
D0,CASO SEM LOCALIZAÇÃO DEFINIDA/CE,-3.3445126297392798,-38.624961942434304,33,0.36136
0,CASO SEM LOCALIZAÇÃO DEFINIDA/ES,-20.30989267097039,-39.81745156645774,4814,119.79147
D0,CASO SEM LOCALIZAÇÃO DEFINIDA/ES,-20.30989267097039,-39.81745156645774,222,5.52424
0,CASO SEM LOCALIZAÇÃO DEFINIDA/GO,-16.701590966270153,-49.164524059025034,788,11.22770
D0,CASO SEM LOCALIZAÇÃO DEFINIDA/GO,-16.701590966270153,-49.164524059025034,18,0.25647
0,CASO SEM LOCALIZAÇÃO DEFINIDA/MA,-2.171256551718846,-43.98946796681719,587,8.29661
D0,CASO SEM LOCALIZAÇÃO DEFINIDA/MA,-2.171256551718846,-43.98946796681719,30,0.42402
0,CASO SEM LOCALIZAÇÃO DEFINIDA/MG,-19.97049116501593,-43.8852149072783,5853,27.64919
D0,CASO SEM LOCALIZAÇÃO DEFINIDA/MG,-19.97049116501593,-43.8852149072783,355,1.67700
0,CASO SEM LOCALIZAÇÃO DEFINIDA/MS,-20.391549234908513,-54.645156949758444,606,21.80652
D0,CASO SEM LOCALIZAÇÃO DEFINIDA/MS,-20.391549234908513,-54.645156949758444,21,0.75567
0,CASO SEM LOCALIZAÇÃO DEFINIDA/MT,-15.54791153961863,-56.17143998972475,2580,74.04291
D0,CASO SEM LOCALIZAÇÃO DEFINIDA/MT,-15.54791153961863,-56.17143998972475,200,5.73976
0,CASO SEM LOCALIZAÇÃO DEFINIDA/PA,-0.09317078214359542,-48.0050231510481,67,0.77881
D0,CASO SEM LOCALIZAÇÃO DEFINIDA/PA,-0.09317078214359542,-48.0050231510481,19,0.22086
0,CASO SEM LOCALIZAÇÃO DEFINIDA/PI,-2.683810218391744,-41.470898009352254,373,11.39548
D0,CASO SEM LOCALIZAÇÃO DEFINIDA/PI,-2.683810218391744,-41.470898009352254,25,0.76377
0,CASO SEM LOCALIZAÇÃO DEFINIDA/PR,-25.69415946385943,-48.10141676336737,30477,266.54814
D0,CASO SEM LOCALIZAÇÃO DEFINIDA/PR,-25.69415946385943,-48.10141676336737,231,2.02030
0,CASO SEM LOCALIZAÇÃO DEFINIDA/RJ,-23.210238986465157,-43.12864305824042,883,5.11441
D0,CASO SEM LOCALIZAÇÃO DEFINIDA/RJ,-23.210238986465157,-43.12864305824042,17,0.09847
0,CASO SEM LOCALIZAÇÃO DEFINIDA/RR,2.813328208465927,-60.663338675861986,2652,437.79642
D0,CASO SEM LOCALIZAÇÃO DEFINIDA/RR,2.813328208465927,-60.663338675861986,15,2.47622
0,CASO SEM LOCALIZAÇÃO DEFINIDA/RS,-30.50647488532064,-49.906261466443524,846,7.43590
D0,CASO SEM LOCALIZAÇÃO DEFINIDA/RS,-30.50647488532064,-49.906261466443524,49,0.43068
0,CASO SEM LOCALIZAÇÃO DEFINIDA/SC,-27.675643660562308,-48.18313219398259,941,13.13368
D0,CASO SEM LOCALIZAÇÃO DEFINIDA/SC,-27.675643660562308,-48.18313219398259,46,0.64203
0,CASO SEM LOCALIZAÇÃO DEFINIDA/SP,-24.30968974555485,-46.21366504207253,5756,12.53510
D0,CASO SEM LOCALIZAÇÃO DEFINIDA/SP,-24.30968974555485,-46.21366504207253,98,0.21342
1,Caapiranga/AM,-3.3188884,-61.2096404,649,4885.94444
D1,Caapiranga/AM,-3.3188884,-61.2096404,22,165.62524
1,Caaporã/PB,-7.510234,-34.9154114,1853,8439.99089
D1,Caaporã/PB,-7.510234,-34.9154114,32,145.75268
1,Caarapó/MS,-22.6349267,-54.8240903,3932,12852.61334
D1,Caarapó/MS,-22.6349267,-54.8240903,49,160.16736
1,Caatiba/BA,-14.9782759,-40.4092325,875,13486.43650
D1,Caatiba/BA,-14.9782759,-40.4092325,12,184.95684
1,Cabaceiras do Paraguaçu/BA,-12.5377868,-39.1901339,558,2950.66363
D1,Cabaceiras do Paraguaçu/BA,-12.5377868,-39.1901339,4,21.15171
1,Cabaceiras/PB,-7.4899156,-36.2860501,368,6500.61827
D1,Cabaceiras/PB,-7.4899156,-36.2860501,3,52.99417
1,Cabeceira Grande/MG,-16.0297,-47.0906,393,5623.92673
D1,Cabeceira Grande/MG,-16.0297,-47.0906,5,71.55123
1,Cabeceiras do Piauí/PI,-4.4733665,-42.3098716,542,5098.77705
D1,Cabeceiras do Piauí/PI,-4.4733665,-42.3098716,10,94.07338
1,Cabeceiras/GO,-15.7995459,-46.9264991,352,4374.84464
D1,Cabeceiras/GO,-15.7995459,-46.9264991,16,198.85657
1,Cabedelo/PB,-6.97324,-34.8351609,8632,12552.53246
D1,Cabedelo/PB,-6.97324,-34.8351609,189,274.84113
1,Cabixi/RO,-13.4956065,-60.5424442,793,15285.27371
D1,Cabixi/RO,-13.4956065,-60.5424442,20,385.50501
1,Cabo Frio/RJ,-22.8804369,-42.0189227,12789,5551.31132
D1,Cabo Frio/RJ,-22.8804369,-42.0189227,669,290.39231
1,Cabo Verde/MG,-21.4743338,-46.3964995,628,4461.81172
D1,Cabo Verde/MG,-21.4743338,-46.3964995,9,63.94316
1,Cabo de Santo Agostinho/PE,-8.2838945,-35.0320984,7745,3706.73482
D1,Cabo de Santo Agostinho/PE,-8.2838945,-35.0320984,471,225.41925
1,Cabreúva/SP,-23.3075813,-47.1324417,3481,6902.77420
D1,Cabreúva/SP,-23.3075813,-47.1324417,86,170.53679
1,Cabrobó/PE,-8.5083701,-39.3106961,2200,6376.25714
D1,Cabrobó/PE,-8.5083701,-39.3106961,27,78.25406
1,Cabrália Paulista/SP,-22.4562909,-49.3385645,384,9050.20033
D1,Cabrália Paulista/SP,-22.4562909,-49.3385645,6,141.40938
1,Cacaulândia/RO,-10.3380043,-62.9007231,809,12904.76950
D1,Cacaulândia/RO,-10.3380043,-62.9007231,10,159.51507
1,Cacequi/RS,-29.8838059,-54.8273443,459,3694.75972
D1,Cacequi/RS,-29.8838059,-54.8273443,7,56.34710
1,Cachoeira Alta/GO,-18.7618269,-50.9432431,1455,11487.44671
D1,Cachoeira Alta/GO,-18.7618269,-50.9432431,20,157.90305
1,Cachoeira Dourada/GO,-18.4934204,-49.481062,408,5080.31378
D1,Cachoeira Dourada/GO,-18.4934204,-49.481062,25,311.29374
1,Cachoeira Dourada/MG,-18.517136,-49.5002062,145,5358.46268
D1,Cachoeira Dourada/MG,-18.517136,-49.5002062,2,73.90983
1,Cachoeira Grande/MA,-2.9290492,-44.0573223,287,3028.06499
D1,Cachoeira Grande/MA,-2.9290492,-44.0573223,7,73.85524
1,Cachoeira Paulista/SP,-22.666498,-45.015384,2338,6962.27033
D1,Cachoeira Paulista/SP,-22.666498,-45.015384,35,104.22560
1,Cachoeira da Prata/MG,-19.524723,-44.453056,226,6293.51156
D1,Cachoeira da Prata/MG,-19.524723,-44.453056,11,306.32136
1,Cachoeira de Goiás/GO,-16.6688414,-50.6435997,77,5737.70492
D1,Cachoeira de Goiás/GO,-16.6688414,-50.6435997,2,149.03130
1,Cachoeira de Minas/MG,-22.3554043,-45.7796324,659,5691.33777
D1,Cachoeira de Minas/MG,-22.3554043,-45.7796324,9,77.72692
1,Cachoeira de Pajeú/MG,-15.965833,-41.496666,492,5210.76043
D1,Cachoeira de Pajeú/MG,-15.965833,-41.496666,10,105.90976
1,Cachoeira do Arari/PA,-1.0143572,-48.9621089,492,2044.54787
D1,Cachoeira do Arari/PA,-1.0143572,-48.9621089,22,91.42287
1,Cachoeira do Piriá/PA,-1.7599443,-46.5446954,876,2531.13352
D1,Cachoeira do Piriá/PA,-1.7599443,-46.5446954,5,14.44711
1,Cachoeira do Sul/RS,-30.0474778,-52.8905413,9705,11854.30383
D1,Cachoeira do Sul/RS,-30.0474778,-52.8905413,150,183.21953
1,Cachoeira dos Índios/PB,-6.9259193,-38.6742159,801,7772.92576
D1,Cachoeira dos Índios/PB,-6.9259193,-38.6742159,14,135.85638
1,Cachoeira/BA,-12.5998256,-38.9665918,1550,4617.63041
D1,Cachoeira/BA,-12.5998256,-38.9665918,26,77.45703
1,Cachoeiras de Macacu/RJ,-22.4626861,-42.6534414,2806,4731.63246
D1,Cachoeiras de Macacu/RJ,-22.4626861,-42.6534414,91,153.44924
1,Cachoeirinha/PE,-8.4906364,-36.2338963,597,2912.05307
D1,Cachoeirinha/PE,-8.4906364,-36.2338963,29,141.45651
1,Cachoeirinha/RS,-29.9493353,-51.0898927,13843,10547.85126
D1,Cachoeirinha/RS,-29.9493353,-51.0898927,403,307.07101
1,Cachoeirinha/TO,-6.118647,-47.9208885,117,5122.59194
D1,Cachoeirinha/TO,-6.118647,-47.9208885,2,87.56567
1,Cachoeiro de Itapemirim/ES,-20.848084,-41.11129,25862,12280.79339
D1,Cachoeiro de Itapemirim/ES,-20.848084,-41.11129,549,260.69738
1,Cacimba de Areia/PB,-7.1288513,-37.1575194,52,1407.30717
D1,Cacimba de Areia/PB,-7.1288513,-37.1575194,4,108.25440
1,Cacimba de Dentro/PB,-6.6425101,-35.7929304,1136,6613.10979
D1,Cacimba de Dentro/PB,-6.6425101,-35.7929304,33,192.10618
1,Cacimbas/PB,-7.2125451,-37.0593398,224,3111.54327
D1,Cacimbas/PB,-7.2125451,-37.0593398,7,97.23573
1,Cacimbinhas/AL,-9.401212,-36.991082,711,6529.52521
D1,Cacimbinhas/AL,-9.401212,-36.991082,9,82.65222
1,Cacique Doble/RS,-27.7700117,-51.6616409,529,10425.69965
D1,Cacique Doble/RS,-27.7700117,-51.6616409,10,197.08317
1,Cacoal/RO,-11.4333,-61.4420502,13250,15426.16977
D1,Cacoal/RO,-11.4333,-61.4420502,269,313.18035
1,Caconde/SP,-21.527995,-46.643659,1246,6554.78984
D1,Caconde/SP,-21.527995,-46.643659,31,163.08065
1,Caculé/BA,-14.4990734,-42.2233006,1700,7298.95668
D1,Caculé/BA,-14.4990734,-42.2233006,12,51.52205
1,Caetanos/BA,-14.3387456,-40.9085971,656,4490.69003
D1,Caetanos/BA,-14.3387456,-40.9085971,10,68.45564
1,Caetanópolis/MG,-19.2947496,-44.4138386,898,7643.20368
D1,Caetanópolis/MG,-19.2947496,-44.4138386,15,127.67044
1,Caetité/BA,-14.0691776,-42.4852428,2521,4935.29884
D1,Caetité/BA,-14.0691776,-42.4852428,25,48.94188
1,Caeté/MG,-19.897777,-43.670278,1909,4237.79608
D1,Caeté/MG,-19.897777,-43.670278,56,124.31460
1,Caetés/PE,-8.7728788,-36.6255835,1542,5334.90174
D1,Caetés/PE,-8.7728788,-36.6255835,20,69.19458
1,Cafarnaum/BA,-11.691399,-41.468823,866,4677.79398
D1,Cafarnaum/BA,-11.691399,-41.468823,21,113.43380
1,Cafeara/PR,-22.78905,-51.714195,323,10934.32634
D1,Cafeara/PR,-22.78905,-51.714195,11,372.37644
1,Cafelândia/PR,-24.6176963,-53.3218057,2082,11280.88427
D1,Cafelândia/PR,-24.6176963,-53.3218057,17,92.11097
1,Cafelândia/SP,-21.8054355,-49.6030627,709,3973.54705
D1,Cafelândia/SP,-21.8054355,-49.6030627,32,179.34204
1,Cafezal do Sul/PR,-23.900508,-53.512418,384,9578.44849
D1,Cafezal do Sul/PR,-23.900508,-53.512418,4,99.77551
1,Caiabu/SP,-22.0143038,-51.2356597,206,4912.95016
D1,Caiabu/SP,-22.0143038,-51.2356597,7,166.94491
1,Caiana/MG,-20.695555,-41.924723,138,2490.52518
D1,Caiana/MG,-20.695555,-41.924723,7,126.33099
1,Caiapônia/GO,-16.9538779,-51.8090761,1134,5934.99764
D1,Caiapônia/GO,-16.9538779,-51.8090761,34,177.94526
1,Caibaté/RS,-28.290475,-54.645407,257,5328.63363
D1,Caibaté/RS,-28.290475,-54.645407,7,145.13788
1,Caibi/SC,-27.0751925,-53.2502133,605,9869.49429
D1,Caibi/SC,-27.0751925,-53.2502133,12,195.75856
1,Caicó/RN,-6.4594544,-37.0971911,10549,15435.37743
D1,Caicó/RN,-6.4594544,-37.0971911,129,188.75379
1,Caieiras/SP,-23.3644621,-46.7484765,7783,7572.85332
D1,Caieiras/SP,-23.3644621,-46.7484765,279,271.46680
1,Cairu/BA,-13.4860505,-39.0455744,1279,6940.90194
D1,Cairu/BA,-13.4860505,-39.0455744,14,75.97547
1,Caiuá/SP,-21.8319357,-51.9887179,326,5482.67743
D1,Caiuá/SP,-21.8319357,-51.9887179,6,100.90817
1,Caiçara do Norte/RN,-5.0645017,-36.0561226,404,6157.59793
D1,Caiçara do Norte/RN,-5.0645017,-36.0561226,10,152.41579
1,Caiçara do Rio do Vento/RN,-5.757968,-36.00089,267,7187.07941
D1,Caiçara do Rio do Vento/RN,-5.757968,-36.00089,8,215.34320
1,Caiçara/PB,-6.6146866,-35.4681434,743,10332.35989
D1,Caiçara/PB,-6.6146866,-35.4681434,14,194.68780
1,Caiçara/RS,-27.2750478,-53.4310053,571,12148.93617
D1,Caiçara/RS,-27.2750478,-53.4310053,8,170.21277
1,Cajamar/SP,-23.3561111,-46.8769444,4326,5550.85072
D1,Cajamar/SP,-23.3561111,-46.8769444,215,275.87446
1,Cajapió/MA,-2.8778715,-44.6746871,103,918.33096
D1,Cajapió/MA,-2.8778715,-44.6746871,5,44.57917
1,Cajari/MA,-3.3213076,-45.0118757,232,1192.74073
D1,Cajari/MA,-3.3213076,-45.0118757,8,41.12899
1,Cajati/SP,-24.7272376,-48.1077914,3153,11065.48747
D1,Cajati/SP,-24.7272376,-48.1077914,90,315.85597
1,Cajazeiras do Piauí/PI,-6.794271,-42.3935024,60,1679.26113
D1,Cajazeiras do Piauí/PI,-6.794271,-42.3935024,1,27.98769
1,Cajazeiras/PB,-6.8897849,-38.5570389,8719,13997.65609
D1,Cajazeiras/PB,-6.8897849,-38.5570389,138,221.54795
1,Cajazeirinhas/PB,-6.961442,-37.7993733,167,5210.60842
D1,Cajazeirinhas/PB,-6.961442,-37.7993733,1,31.20125
1,Cajobi/SP,-20.8776238,-48.8106972,911,8597.58399
D1,Cajobi/SP,-20.8776238,-48.8106972,28,264.25066
1,Cajueiro da Praia/PI,-2.931114,-41.340801,475,6189.73156
D1,Cajueiro da Praia/PI,-2.931114,-41.340801,20,260.62028
1,Cajueiro/AL,-9.399589,-36.1524309,569,2667.47926
D1,Cajueiro/AL,-9.399589,-36.1524309,23,107.82429
1,Cajuri/MG,-20.7901414,-42.7954489,378,9511.82687
D1,Cajuri/MG,-20.7901414,-42.7954489,2,50.32713
1,Cajuru/SP,-21.2759978,-47.3046035,1039,3936.64987
D1,Cajuru/SP,-21.2759978,-47.3046035,36,136.39980
1,Caldas Brandão/PB,-7.1027959,-35.3254676,547,9047.30400
D1,Caldas Brandão/PB,-7.1027959,-35.3254676,8,132.31889
1,Caldas Novas/GO,-17.745,-48.625,8376,8987.51019
D1,Caldas Novas/GO,-17.745,-48.625,206,221.03953
1,Caldas/MG,-21.923611,-46.386111,840,5776.76914
D1,Caldas/MG,-21.923611,-46.386111,29,199.43608
1,Caldazinha/GO,-16.7116649,-49.0012601,295,7666.32017
D1,Caldazinha/GO,-16.7116649,-49.0012601,6,155.92516
1,Caldeirão Grande do Piauí/PI,-7.3310393,-40.6374433,399,6901.92008
D1,Caldeirão Grande do Piauí/PI,-7.3310393,-40.6374433,2,34.59609
1,Caldeirão Grande/BA,-11.0208483,-40.3041387,565,4219.25174
D1,Caldeirão Grande/BA,-11.0208483,-40.3041387,6,44.80621
1,Califórnia/PR,-23.6672543,-51.3554556,1137,13211.71276
D1,Califórnia/PR,-23.6672543,-51.3554556,28,325.35440
1,Calmon/SC,-26.6023644,-51.0992893,35,1049.47526
D1,Calmon/SC,-26.6023644,-51.0992893,4,119.94003
1,Calumbi/PE,-7.9389746,-38.1516871,644,11205.84653
D1,Calumbi/PE,-7.9389746,-38.1516871,4,69.60153
1,Calçado/PE,-8.7413446,-36.3351787,470,4265.74696
D1,Calçado/PE,-8.7413446,-36.3351787,5,45.38029
1,Calçoene/AP,2.4981757,-50.9539503,1633,14443.65823
D1,Calçoene/AP,2.4981757,-50.9539503,10,88.44861
1,Camacan/BA,-15.4166631,-39.4930088,2864,8948.32219
D1,Camacan/BA,-15.4166631,-39.4930088,76,237.45548
1,Camacho/MG,-20.625556,-45.156667,107,3729.52248
D1,Camacho/MG,-20.625556,-45.156667,2,69.71070
1,Camalaú/PB,-7.885031,-36.824191,422,6997.18123
D1,Camalaú/PB,-7.885031,-36.824191,6,99.48599
1,Camamu/BA,-13.9438142,-39.1060917,2267,6407.21271
D1,Camamu/BA,-13.9438142,-39.1060917,51,144.14109
1,Camanducaia/MG,-22.755278,-46.144444,2960,13577.35884
D1,Camanducaia/MG,-22.755278,-46.144444,60,275.21673
1,Camapuã/MS,-19.5291747,-54.0434641,798,5827.79522
D1,Camapuã/MS,-19.5291747,-54.0434641,29,211.78704
1,Camaquã/RS,-30.8524752,-51.8075619,6720,10108.60736
D1,Camaquã/RS,-30.8524752,-51.8075619,133,200.06619
1,Camaragibe/PE,-8.0213832,-34.9810768,6653,4186.93636
D1,Camaragibe/PE,-8.0213832,-34.9810768,383,241.03361
1,Camargo/RS,-28.5865661,-52.2031474,412,15025.52881
D1,Camargo/RS,-28.5865661,-52.2031474,6,218.81838
1,Camaçari/BA,-12.6998188,-38.3260762,23085,7586.21370
D1,Camaçari/BA,-12.6998188,-38.3260762,586,192.57185
1,Cambará do Sul/RS,-29.0489517,-50.145412,294,4589.44739
D1,Cambará do Sul/RS,-29.0489517,-50.145412,10,156.10365
1,Cambará/PR,-23.042273,-50.075281,2480,9738.47483
D1,Cambará/PR,-23.042273,-50.075281,48,188.48661
