type,name,lat,lon,total,total_per_100k_inhabitants
1,Abadia de Goiás/GO,-16.7572644,-49.4412205,1440,16075.01674
D1,Abadia de Goiás/GO,-16.7572644,-49.4412205,34,379.54901
1,Abadia dos Dourados/MG,-18.4911191,-47.4063589,429,6123.32287
D1,Abadia dos Dourados/MG,-18.4911191,-47.4063589,14,199.82872
1,Abadiânia/GO,-16.1940946,-48.7067767,440,2150.43253
D1,Abadiânia/GO,-16.1940946,-48.7067767,33,161.28244
1,Abaetetuba/PA,-1.721828,-48.878843,8880,5582.09706
D1,Abaetetuba/PA,-1.721828,-48.878843,219,137.66658
1,Abaeté/MG,-19.1566833,-45.4481213,1243,5346.23656
D1,Abaeté/MG,-19.1566833,-45.4481213,27,116.12903
1,Abaiara/CE,-7.3607808,-39.0487878,576,4859.52923
D1,Abaiara/CE,-7.3607808,-39.0487878,14,118.11356
1,Abaré/BA,-8.7239913,-39.1139689,947,4654.24878
D1,Abaré/BA,-8.7239913,-39.1139689,11,54.06202
1,Abatiá/PR,-23.3052967,-50.3102532,974,13147.94816
D1,Abatiá/PR,-23.3052967,-50.3102532,15,202.48380
1,Abaíra/BA,-13.2503296,-41.6640342,282,3237.65786
D1,Abaíra/BA,-13.2503296,-41.6640342,11,126.29162
1,Abdon Batista/SC,-27.612419,-51.022992,406,15934.06593
D1,Abdon Batista/SC,-27.612419,-51.022992,4,156.98587
1,Abel Figueiredo/PA,-4.953001,-48.3958485,955,12757.14667
D1,Abel Figueiredo/PA,-4.953001,-48.3958485,10,133.58269
1,Abelardo Luz/SC,-26.5705893,-52.3280339,1488,8285.07795
D1,Abelardo Luz/SC,-26.5705893,-52.3280339,52,289.53229
1,Abre Campo/MG,-20.2976097,-42.4764741,1121,8338.29217
D1,Abre Campo/MG,-20.2976097,-42.4764741,15,111.57394
1,Abreu e Lima/PE,-7.900719,-34.898389,3080,3069.37995
D1,Abreu e Lima/PE,-7.900719,-34.898389,223,222.23108
1,Abreulândia/TO,-9.6221526,-49.1558343,270,10408.63531
D1,Abreulândia/TO,-9.6221526,-49.1558343,6,231.30301
1,Acaiaca/MG,-20.3621646,-43.1444162,226,5658.48773
D1,Acaiaca/MG,-20.3621646,-43.1444162,11,275.41312
1,Acajutiba/BA,-11.6609659,-38.0186381,517,3404.22730
D1,Acajutiba/BA,-11.6609659,-38.0186381,16,105.35326
1,Acarape/CE,-4.2237866,-38.7071663,2768,18409.15137
D1,Acarape/CE,-4.2237866,-38.7071663,27,179.56903
1,Acaraú/CE,-2.8869514,-40.1194713,4866,7711.08012
D1,Acaraú/CE,-2.8869514,-40.1194713,103,163.22262
1,Acari/RN,-6.4364689,-36.6394777,1016,9135.86908
D1,Acari/RN,-6.4364689,-36.6394777,17,152.86395
1,Acará/PA,-1.961388,-48.1987043,1315,2362.17644
D1,Acará/PA,-1.961388,-48.1987043,29,52.09362
1,Acauã/PI,-8.219542,-41.083059,199,2802.02760
D1,Acauã/PI,-8.219542,-41.083059,1,14.08054
1,Aceguá/RS,-31.8695131,-54.1615593,345,6980.97936
D1,Aceguá/RS,-31.8695131,-54.1615593,6,121.40834
1,Acopiara/CE,-6.0936464,-39.4543204,3574,6560.08517
D1,Acopiara/CE,-6.0936464,-39.4543204,140,256.97032
1,Acorizal/MT,-15.2001544,-56.3668953,489,9167.60405
D1,Acorizal/MT,-15.2001544,-56.3668953,19,356.20547
1,Acrelândia/AC,-10.0759167,-67.0526898,1648,10639.12201
D1,Acrelândia/AC,-10.0759167,-67.0526898,36,232.40801
1,Acreúna/GO,-17.3959899,-50.3749031,2001,8875.18850
D1,Acreúna/GO,-17.3959899,-50.3749031,47,208.46270
1,Adamantina/SP,-21.6866517,-51.0762975,3242,9233.57352
D1,Adamantina/SP,-21.6866517,-51.0762975,100,284.81103
1,Adelândia/GO,-16.4155077,-50.1665834,195,7750.39746
D1,Adelândia/GO,-16.4155077,-50.1665834,4,158.98251
1,Adolfo/SP,-21.2356597,-49.6441918,511,14378.16545
D1,Adolfo/SP,-21.2356597,-49.6441918,14,393.92234
1,Adrianópolis/PR,-24.6557863,-48.9912769,1324,22605.42940
D1,Adrianópolis/PR,-24.6557863,-48.9912769,27,460.98685
1,Adustina/BA,-10.5358875,-38.114479,957,5587.99486
D1,Adustina/BA,-10.5358875,-38.114479,20,116.78150
1,Afogados da Ingazeira/PE,-7.750429,-37.6356375,4990,13340.81916
D1,Afogados da Ingazeira/PE,-7.750429,-37.6356375,69,184.47225
1,Afonso Bezerra/RN,-5.4745,-36.57625071327935,738,6691.44981
D1,Afonso Bezerra/RN,-5.4745,-36.57625071327935,18,163.20609
1,Afonso Cláudio/ES,-20.077841,-41.12606,3386,11118.04301
D1,Afonso Cláudio/ES,-20.077841,-41.12606,56,183.87785
1,Afonso Cunha/MA,-4.1326105,-43.3230026,206,3131.65096
D1,Afonso Cunha/MA,-4.1326105,-43.3230026,3,45.60657
1,Afrânio/PE,-8.5198919,-41.0070197,886,4472.48864
D1,Afrânio/PE,-8.5198919,-41.0070197,14,70.67138
1,Afuá/PA,-0.1535664,-50.3879223,2984,7541.63823
D1,Afuá/PA,-0.1535664,-50.3879223,15,37.91038
1,Agrestina/PE,-8.4558021,-35.9442663,1663,6634.74965
D1,Agrestina/PE,-8.4558021,-35.9442663,61,243.36725
1,Agricolândia/PI,-5.7967843,-42.6605131,476,9276.94407
D1,Agricolândia/PI,-5.7967843,-42.6605131,6,116.93627
1,Agrolândia/SC,-27.4122212,-49.8295774,1555,14119.67675
D1,Agrolândia/SC,-27.4122212,-49.8295774,22,199.76392
1,Agronômica/SC,-27.2660744,-49.7104753,628,11399.52805
D1,Agronômica/SC,-27.2660744,-49.7104753,13,235.97749
1,Aguanil/MG,-20.9424533,-45.3927152,624,13799.20389
D1,Aguanil/MG,-20.9424533,-45.3927152,8,176.91287
1,Aguaí/SP,-22.0592036,-46.979384,2915,7954.04933
D1,Aguaí/SP,-22.0592036,-46.979384,92,251.03689
1,Agudo/RS,-29.6423259,-53.2494005,1678,10231.08347
D1,Agudo/RS,-29.6423259,-53.2494005,29,176.81849
1,Agudos do Sul/PR,-25.9890808,-49.3328175,627,6620.90813
D1,Agudos do Sul/PR,-25.9890808,-49.3328175,24,253.43189
1,Agudos/SP,-22.471162,-48.987822,3738,9994.38518
D1,Agudos/SP,-22.471162,-48.987822,86,229.94038
1,Aguiar/PB,-7.0928404,-38.1727215,490,8703.37478
D1,Aguiar/PB,-7.0928404,-38.1727215,5,88.80995
1,Aguiarnópolis/TO,-6.5600452,-47.4721189,639,9271.61927
D1,Aguiarnópolis/TO,-6.5600452,-47.4721189,12,174.11492
1,Aimorés/MG,-19.4917754,-41.0615603,1922,7644.88286
D1,Aimorés/MG,-19.4917754,-41.0615603,61,242.63156
1,Aiquara/BA,-14.126918,-39.8887574,471,10665.76087
D1,Aiquara/BA,-14.126918,-39.8887574,12,271.73913
1,Aiuaba/CE,-6.5710836,-40.1212278,725,4144.51495
D1,Aiuaba/CE,-6.5710836,-40.1212278,11,62.88230
1,Aiuruoca/MG,-21.9759554,-44.6036637,296,4953.14592
D1,Aiuruoca/MG,-21.9759554,-44.6036637,7,117.13521
1,Ajuricaba/RS,-28.239654,-53.7693013,1017,14555.60326
D1,Ajuricaba/RS,-28.239654,-53.7693013,27,386.43195
1,Alagoa Grande/PB,-7.0415212,-35.6285322,3908,13741.69275
D1,Alagoa Grande/PB,-7.0415212,-35.6285322,69,242.62456
1,Alagoa Nova/PB,-7.0653703,-35.76695977336711,1045,4994.98112
D1,Alagoa Nova/PB,-7.0653703,-35.76695977336711,18,86.03795
1,Alagoa/MG,-22.1697202,-44.6400042,440,16510.31895
D1,Alagoa/MG,-22.1697202,-44.6400042,6,225.14071
1,Alagoinha do Piauí/PI,-7.0090952,-40.939675,345,4500.97847
D1,Alagoinha do Piauí/PI,-7.0090952,-40.939675,10,130.46314
1,Alagoinha/PB,-6.97063215,-35.51490901897793,1972,13543.95604
D1,Alagoinha/PB,-6.97063215,-35.51490901897793,24,164.83516
1,Alagoinha/PE,-8.50355635,-36.77701174370496,1216,8261.99212
D1,Alagoinha/PE,-8.50355635,-36.77701174370496,25,169.86004
1,Alagoinhas/BA,-12.133526,-38.420772,13257,8702.98765
D1,Alagoinhas/BA,-12.133526,-38.420772,263,172.65488
1,Alambari/SP,-23.550338,-47.897971,513,8370.04405
D1,Alambari/SP,-23.550338,-47.897971,10,163.15875
1,Albertina/MG,-20.66164,-43.784039,238,7904.35071
D1,Albertina/MG,-20.66164,-43.784039,9,298.90402
1,Alcantil/PB,-7.7425491,-36.0609604,476,8640.40661
D1,Alcantil/PB,-7.7425491,-36.0609604,6,108.91269
1,Alcinópolis/MS,-18.3264121,-53.7094463,325,5999.63079
D1,Alcinópolis/MS,-18.3264121,-53.7094463,8,147.68322
1,Alcobaça/BA,-17.5215875,-39.1965474,1467,6522.89907
D1,Alcobaça/BA,-17.5215875,-39.1965474,29,128.94620
1,Alcântara/MA,-2.4038956,-44.4154241,306,1383.86397
D1,Alcântara/MA,-2.4038956,-44.4154241,16,72.35890
1,Alcântaras/CE,-3.586247,-40.5457641,1669,14166.87887
D1,Alcântaras/CE,-3.586247,-40.5457641,21,178.25312
1,Aldeias Altas/MA,-4.6291957,-43.4708622,976,3647.64361
D1,Aldeias Altas/MA,-4.6291957,-43.4708622,14,52.32276
1,Alecrim/RS,-27.6566142,-54.7653195,301,5165.60837
D1,Alecrim/RS,-27.6566142,-54.7653195,11,188.77639
1,Alegre/ES,-20.7625787,-41.5318886,2361,7876.56380
D1,Alegre/ES,-20.7625787,-41.5318886,51,170.14178
1,Alegrete do Piauí/PI,-7.2440138,-40.8602296,495,10065.06710
D1,Alegrete do Piauí/PI,-7.2440138,-40.8602296,6,122.00081
1,Alegrete/RS,-29.790166,-55.794862,9163,12547.24215
D1,Alegrete/RS,-29.790166,-55.794862,269,368.35187
1,Alegria/RS,-27.8332103,-54.0574959,369,10936.57380
D1,Alegria/RS,-27.8332103,-54.0574959,3,88.91523
1,Alenquer/PA,-1.946229,-54.738355,3454,6049.88440
D1,Alenquer/PA,-1.946229,-54.738355,130,227.70266
1,Alexandria/RN,-6.414779,-38.0135516,1449,10691.35985
D1,Alexandria/RN,-6.414779,-38.0135516,25,184.46100
1,Alexânia/GO,-16.0834049,-48.5077803,3059,10921.09961
D1,Alexânia/GO,-16.0834049,-48.5077803,76,271.33167
1,Alfenas/MG,-21.4297405,-45.9479419,8932,11096.47924
D1,Alfenas/MG,-21.4297405,-45.9479419,164,203.74189
1,Alfredo Chaves/ES,-20.624970400000002,-40.75006690147988,2379,16254.44110
D1,Alfredo Chaves/ES,-20.624970400000002,-40.75006690147988,35,239.13638
1,Alfredo Marcondes/SP,-21.9527,-51.413956,241,5760.03824
D1,Alfredo Marcondes/SP,-21.9527,-51.413956,10,239.00574
1,Alfredo Vasconcelos/MG,-21.145833,-43.776389,492,7047.70090
D1,Alfredo Vasconcelos/MG,-21.145833,-43.776389,12,171.89514
1,Alfredo Wagner/SC,-27.6961513,-49.3326734,727,7208.01110
D1,Alfredo Wagner/SC,-27.6961513,-49.3326734,7,69.40313
1,Algodão de Jandaíra/PB,-6.9040175,-36.0089879,188,7295.30462
1,Alhandra/PB,-7.4304246,-34.9106103,2219,11248.54261
D1,Alhandra/PB,-7.4304246,-34.9106103,35,177.42181
1,Aliança do Tocantins/TO,-11.3055927,-48.9409096,605,11316.87243
D1,Aliança do Tocantins/TO,-11.3055927,-48.9409096,20,374.11149
1,Aliança/PE,-7.60398,-35.222696,635,1653.77503
D1,Aliança/PE,-7.60398,-35.222696,59,153.65784
1,Almadina/BA,-14.70466,-39.6381994,609,11349.23593
D1,Almadina/BA,-14.70466,-39.6381994,9,167.72270
1,Almas/TO,-11.5681309,-47.1702803,235,3367.24459
D1,Almas/TO,-11.5681309,-47.1702803,5,71.64350
1,Almeirim/PA,-1.5290377,-52.5788111,3658,10734.82803
D1,Almeirim/PA,-1.5290377,-52.5788111,43,126.18852
1,Almenara/MG,-16.1740678,-40.6904907,3789,8990.81698
D1,Almenara/MG,-16.1740678,-40.6904907,45,106.77930
1,Almino Afonso/RN,-6.1544208,-37.7649018,505,10721.86837
D1,Almino Afonso/RN,-6.1544208,-37.7649018,12,254.77707
1,Almirante Tamandaré do Sul/RS,-28.1141129,-52.9134874,316,16213.44279
D1,Almirante Tamandaré do Sul/RS,-28.1141129,-52.9134874,4,205.23345
1,Almirante Tamandaré/PR,-25.3133048,-49.2997838,9582,7982.27272
D1,Almirante Tamandaré/PR,-25.3133048,-49.2997838,353,294.06619
1,Aloândia/GO,-17.7277983,-49.4809338,268,13494.46123
D1,Aloândia/GO,-17.7277983,-49.4809338,8,402.81974
1,Alpercata/MG,-18.9803616,-41.9827637,476,6401.29102
D1,Alpercata/MG,-18.9803616,-41.9827637,19,255.51372
1,Alpestre/RS,-27.2512339,-53.0349646,381,6279.87473
D1,Alpestre/RS,-27.2512339,-53.0349646,8,131.86089
1,Alpinópolis/MG,-20.863611,-46.387777,1298,6503.65768
D1,Alpinópolis/MG,-20.863611,-46.387777,35,175.36827
1,Alta Floresta D'Oeste/RO,-11.9296917,-61.9961284,3872,17036.25484
D1,Alta Floresta D'Oeste/RO,-11.9296917,-61.9961284,64,281.59099
1,Alta Floresta/MT,-9.8715018,-56.0839881,8549,16453.35745
D1,Alta Floresta/MT,-9.8715018,-56.0839881,122,234.80052
1,Altair/SP,-20.5238955,-49.0606135,194,4634.49594
D1,Altair/SP,-20.5238955,-49.0606135,12,286.66985
1,Altamira do Maranhão/MA,-4.1643006,-45.4674574,318,3883.25803
D1,Altamira do Maranhão/MA,-4.1643006,-45.4674574,11,134.32654
1,Altamira do Paraná/PR,-24.799114,-52.7128633,213,12663.49584
D1,Altamira do Paraná/PR,-24.799114,-52.7128633,10,594.53032
1,Altamira/PA,-3.204065,-52.209961,13471,11616.03532
D1,Altamira/PA,-3.204065,-52.209961,284,244.89303
1,Altaneira/CE,-6.9980933,-39.7385742,563,7359.47712
D1,Altaneira/CE,-6.9980933,-39.7385742,18,235.29412
1,Alterosa/MG,-21.249166,-46.143055,681,4691.05187
D1,Alterosa/MG,-21.249166,-46.143055,31,213.54274
1,Altinho/PE,-8.4904095,-36.0607494,1209,5260.18100
D1,Altinho/PE,-8.4904095,-36.0607494,24,104.42047
1,Altinópolis/SP,-21.021364,-47.3712,815,5029.93273
D1,Altinópolis/SP,-21.021364,-47.3712,39,240.69617
1,Alto Alegre do Maranhão/MA,-4.2055693,-44.4525287,1174,4214.22931
D1,Alto Alegre do Maranhão/MA,-4.2055693,-44.4525287,27,96.92009
1,Alto Alegre do Pindaré/MA,-3.6698186,-45.8462153,1968,6160.97424
D1,Alto Alegre do Pindaré/MA,-3.6698186,-45.8462153,45,140.87594
1,Alto Alegre dos Parecis/RO,-12.1314515,-61.856265,1443,10886.45794
D1,Alto Alegre dos Parecis/RO,-12.1314515,-61.856265,44,331.95021
1,Alto Alegre/RR,2.98858,-61.307167,1405,9135.24057
D1,Alto Alegre/RR,2.98858,-61.307167,31,201.56047
1,Alto Alegre/RS,-31.780844700000003,-52.81311114489171,196,12151.27092
D1,Alto Alegre/RS,-31.780844700000003,-52.81311114489171,1,61.99628
1,Alto Alegre/SP,-21.5820592,-50.1661976,340,8317.02544
D1,Alto Alegre/SP,-21.5820592,-50.1661976,20,489.23679
1,Alto Araguaia/MT,-17.3156528,-53.2169365,1270,6551.45731
D1,Alto Araguaia/MT,-17.3156528,-53.2169365,24,123.80707
1,Alto Bela Vista/SC,-27.4320737,-51.905771,177,9190.03115
D1,Alto Bela Vista/SC,-27.4320737,-51.905771,3,155.76324
1,Alto Boa Vista/MT,-11.6723985,-51.3744431,753,10856.40138
D1,Alto Boa Vista/MT,-11.6723985,-51.3744431,14,201.84544
1,Alto Caparaó/MG,-20.4405661,-41.8683799,386,6549.03291
D1,Alto Caparaó/MG,-20.4405661,-41.8683799,9,152.69766
1,Alto Feliz/RS,-29.3785943,-51.3123751,258,8498.02372
D1,Alto Feliz/RS,-29.3785943,-51.3123751,2,65.87615
1,Alto Garças/MT,-16.9469683,-53.529427,854,7028.22813
D1,Alto Garças/MT,-16.9469683,-53.529427,38,312.73146
1,Alto Horizonte/GO,-14.1954948,-49.3366993,850,12869.03861
D1,Alto Horizonte/GO,-14.1954948,-49.3366993,10,151.40045
1,Alto Jequitibá/MG,-20.423611,-41.966111,734,8842.30816
D1,Alto Jequitibá/MG,-20.423611,-41.966111,10,120.46741
1,Alto Longá/PI,-5.2549051,-42.2072388,634,4421.50778
D1,Alto Longá/PI,-5.2549051,-42.2072388,13,90.66183
1,Alto Paraguai/MT,-14.513712,-56.4936374,872,7600.45324
D1,Alto Paraguai/MT,-14.513712,-56.4936374,28,244.05125
1,Alto Paraná/PR,-23.131247,-52.318893,1039,6992.39518
D1,Alto Paraná/PR,-23.131247,-52.318893,24,161.51827
1,Alto Paraíso de Goiás/GO,-14.1304779,-47.5100161,623,8103.53798
D1,Alto Paraíso de Goiás/GO,-14.1304779,-47.5100161,8,104.05827
1,Alto Paraíso/PR,-23.508137,-53.728537,262,9757.91434
D1,Alto Paraíso/PR,-23.508137,-53.728537,5,186.21974
1,Alto Paraíso/RO,-9.7240103,-63.3188123,1800,8239.11750
D1,Alto Paraíso/RO,-9.7240103,-63.3188123,48,219.70980
1,Alto Parnaíba/MA,-9.112506,-45.9310154,880,7848.73350
D1,Alto Parnaíba/MA,-9.112506,-45.9310154,10,89.19015
1,Alto Piquiri/PR,-24.0239021,-53.4417448,951,9725.91532
D1,Alto Piquiri/PR,-24.0239021,-53.4417448,22,224.99489
1,Alto Rio Doce/MG,-21.0239537,-43.4133507,431,3969.05792
D1,Alto Rio Doce/MG,-21.0239537,-43.4133507,26,239.43273
1,Alto Rio Novo/ES,-19.0577208,-41.0171518,700,8890.01778
D1,Alto Rio Novo/ES,-19.0577208,-41.0171518,21,266.70053
1,Alto Santo/CE,-5.5190371,-38.2719351,1807,10508.25773
D1,Alto Santo/CE,-5.5190371,-38.2719351,27,157.01326
1,Alto Taquari/MT,-17.8269099,-53.2831736,1453,13051.28896
D1,Alto Taquari/MT,-17.8269099,-53.2831736,27,242.52223
1,Alto do Rodrigues/RN,-5.290868,-36.7616726,2390,16227.59370
D1,Alto do Rodrigues/RN,-5.290868,-36.7616726,36,244.43237
1,Altos/PI,-5.0393915,-42.4611694,4337,10680.95062
D1,Altos/PI,-5.0393915,-42.4611694,89,219.18483
1,Altônia/PR,-23.8722004,-53.894037,1123,5064.03319
D1,Altônia/PR,-23.8722004,-53.894037,21,94.69697
1,Alumínio/SP,-23.5203479,-47.2575256,1415,7539.83055
D1,Alumínio/SP,-23.5203479,-47.2575256,40,213.14009
1,Alvarenga/MG,-19.4175,-41.728334,460,11966.70135
D1,Alvarenga/MG,-19.4175,-41.728334,4,104.05827
1,Alvarães/AM,-3.214786,-64.8143124,2857,17614.05672
D1,Alvarães/AM,-3.214786,-64.8143124,45,277.43527
1,Alvinlândia/SP,-22.4431852,-49.7643596,138,4263.20667
D1,Alvinlândia/SP,-22.4431852,-49.7643596,8,247.14242
1,Alvinópolis/MG,-20.1105199,-43.0601805,656,4324.60940
D1,Alvinópolis/MG,-20.1105199,-43.0601805,21,138.44024
1,Alvorada D'Oeste/RO,-11.346271,-62.284697,1089,7720.11910
D1,Alvorada D'Oeste/RO,-11.346271,-62.284697,29,205.58628
1,Alvorada de Minas/MG,-18.7318587,-43.3641479,257,7128.98752
D1,Alvorada de Minas/MG,-18.7318587,-43.3641479,3,83.21775
1,Alvorada do Gurguéia/PI,-8.4465288,-43.8655915,398,7309.45822
D1,Alvorada do Gurguéia/PI,-8.4465288,-43.8655915,10,183.65473
1,Alvorada do Norte/GO,-14.483911,-46.4959897,748,8592.76278
D1,Alvorada do Norte/GO,-14.483911,-46.4959897,7,80.41356
1,Alvorada do Sul/PR,-22.7807269,-51.2307721,810,7041.64131
D1,Alvorada do Sul/PR,-22.7807269,-51.2307721,24,208.64122
1,Alvorada/RS,-29.9981184,-51.0772509,20116,9517.77130
D1,Alvorada/RS,-29.9981184,-51.0772509,721,341.13706
1,Alvorada/TO,-12.478465,-49.124926,1116,13292.04383
D1,Alvorada/TO,-12.478465,-49.124926,20,238.20867
1,Além Paraíba/MG,-21.8760576,-42.6810473,3112,8790.71213
D1,Além Paraíba/MG,-21.8760576,-42.6810473,142,401.11861
1,Amajari/RR,3.6523869,-61.4194315,1013,7682.97308
D1,Amajari/RR,3.6523869,-61.4194315,20,151.68752
1,Amambai/MS,-23.1082701,-55.2284854,3004,7542.81123
D1,Amambai/MS,-23.1082701,-55.2284854,73,183.29734
1,Amaporã/PR,-23.094272,-52.786597,356,5622.23626
D1,Amaporã/PR,-23.094272,-52.786597,7,110.54959
1,Amapá do Maranhão/MA,-1.6762114,-46.0109669,172,2455.38901
D1,Amapá do Maranhão/MA,-1.6762114,-46.0109669,6,85.65310
1,Amapá/AP,2.0529997,-50.7930003,1316,14324.58909
D1,Amapá/AP,2.0529997,-50.7930003,10,108.84946
1,Amaraji/PE,-8.373925,-35.4536527,583,2549.19108
D1,Amaraji/PE,-8.373925,-35.4536527,36,157.41146
1,Amaral Ferrador/RS,-30.8750633,-52.2542051,291,4107.26888
D1,Amaral Ferrador/RS,-30.8750633,-52.2542051,7,98.80028
1,Amaralina/GO,-13.9236199,-49.2962411,92,2392.71782
D1,Amaralina/GO,-13.9236199,-49.2962411,1,26.00780
1,Amarante do Maranhão/MA,-5.56913,-46.747284,1585,3798.31772
D1,Amarante do Maranhão/MA,-5.56913,-46.747284,53,127.00999
1,Amarante/PI,-6.2459374,-42.8476238,1501,8526.47126
D1,Amarante/PI,-6.2459374,-42.8476238,34,193.13792
1,Amargosa/BA,-13.03793715,-39.60796443875596,2739,7315.50974
D1,Amargosa/BA,-13.03793715,-39.60796443875596,49,130.87257
1,Amaturá/AM,-3.3640509,-68.1994689,2354,20057.94138
D1,Amaturá/AM,-3.3640509,-68.1994689,17,144.85344
1,Americana/SP,-22.7392463,-47.3306032,21279,8792.32123
D1,Americana/SP,-22.7392463,-47.3306032,640,264.44314
1,Americano do Brasil/GO,-16.2515808,-49.9806104,704,11421.15509
D1,Americano do Brasil/GO,-16.2515808,-49.9806104,22,356.91110
1,Ametista do Sul/RS,-27.3617341,-53.1826575,742,10022.96366
D1,Ametista do Sul/RS,-27.3617341,-53.1826575,19,256.65271
1,Amontada/CE,-3.3634586,-39.8284791,2844,6488.85441
D1,Amontada/CE,-3.3634586,-39.8284791,54,123.20610
1,Amorinópolis/GO,-16.6211308,-51.0949921,246,8015.64027
D1,Amorinópolis/GO,-16.6211308,-51.0949921,4,130.33561
1,Amparo de São Francisco/SE,-10.1299754,-36.9269099,250,10504.20168
D1,Amparo de São Francisco/SE,-10.1299754,-36.9269099,5,210.08403
1,Amparo do Serra/MG,-20.5070255,-42.8028462,149,3185.12185
D1,Amparo do Serra/MG,-20.5070255,-42.8028462,8,171.01325
1,Amparo/PB,-7.56394725,-37.04652873235175,164,7285.65082
D1,Amparo/PB,-7.56394725,-37.04652873235175,4,177.69880
1,Amparo/SP,-22.70111,-46.76444,6209,8543.28054
D1,Amparo/SP,-22.70111,-46.76444,132,181.62555
1,Ampére/PR,-25.9168712,-53.4742414,1995,10330.89949
D1,Ampére/PR,-25.9168712,-53.4742414,41,212.31423
1,Amélia Rodrigues/BA,-12.4015388,-38.7516971,2223,8874.96008
D1,Amélia Rodrigues/BA,-12.4015388,-38.7516971,44,175.66273
1,América Dourada/BA,-11.4515262,-41.4357517,912,5668.11684
D1,América Dourada/BA,-11.4515262,-41.4357517,12,74.58048
1,Américo Brasiliense/SP,-21.7297099,-48.1052092,3725,9078.28037
D1,Américo Brasiliense/SP,-21.7297099,-48.1052092,87,212.02964
1,Américo de Campos/SP,-20.298476,-49.735904,936,15649.55693
D1,Américo de Campos/SP,-20.298476,-49.735904,24,401.27069
1,Anadia/AL,-9.6830208,-36.3052699,1378,7862.60413
D1,Anadia/AL,-9.6830208,-36.3052699,29,165.46845
1,Anagé/BA,-14.6134669,-41.1376308,859,3975.56347
D1,Anagé/BA,-14.6134669,-41.1376308,21,97.19073
1,Anahy/PR,-24.6450861,-53.1337957,350,12553.80201
D1,Anahy/PR,-24.6450861,-53.1337957,9,322.81205
1,Anajatuba/MA,-3.26441,-44.6179916,932,3453.38669
D1,Anajatuba/MA,-3.26441,-44.6179916,23,85.22306
1,Anajás/PA,-0.9878802,-49.9390114,1356,4567.50202
D1,Anajás/PA,-0.9878802,-49.9390114,22,74.10402
1,Analândia/SP,-22.128917,-47.661939,312,6170.88608
D1,Analândia/SP,-22.128917,-47.661939,4,79.11392
1,Anamã/AM,-3.5797356,-61.4049996,1774,12711.37862
D1,Anamã/AM,-3.5797356,-61.4049996,9,64.48839
1,Ananindeua/PA,-1.374035,-48.4016623,24051,4490.92237
D1,Ananindeua/PA,-1.374035,-48.4016623,801,149.56670
1,Ananás/TO,-6.3663053,-48.080238,1543,16255.79435
D1,Ananás/TO,-6.3663053,-48.080238,24,252.84450
1,Anapu/PA,-3.4668292,-51.2057035,1590,5558.08019
D1,Anapu/PA,-3.4668292,-51.2057035,37,129.33897
1,Anapurus/MA,-3.6751298,-43.1046001,829,5215.80471
D1,Anapurus/MA,-3.6751298,-43.1046001,12,75.50019
1,Anastácio/MS,-20.4832458,-55.8048448,2366,9375.12383
D1,Anastácio/MS,-20.4832458,-55.8048448,69,273.40809
1,Anaurilândia/MS,-22.185169,-52.719056,525,5784.48656
D1,Anaurilândia/MS,-22.185169,-52.719056,14,154.25297
1,Anchieta/ES,-20.8057672,-40.6454564,4723,15860.16992
D1,Anchieta/ES,-20.8057672,-40.6454564,86,288.79412
1,Anchieta/SC,-26.5350527,-53.3293938,651,11714.95411
D1,Anchieta/SC,-26.5350527,-53.3293938,9,161.95789
1,Andaraí/BA,-12.8059674,-41.3322919,866,6594.57813
D1,Andaraí/BA,-12.8059674,-41.3322919,8,60.91989
1,Andirá/PR,-23.0494761,-50.2310027,2174,10910.36836
D1,Andirá/PR,-23.0494761,-50.2310027,71,356.31838
1,Andorinha/BA,-10.3445708,-39.8334411,822,5667.79287
D1,Andorinha/BA,-10.3445708,-39.8334411,16,110.32200
1,Andradas/MG,-22.0680484,-46.5688976,3605,8708.57088
D1,Andradas/MG,-22.0680484,-46.5688976,108,260.89477
1,Andradina/SP,-20.896505,-51.3742765,5930,10366.77039
D1,Andradina/SP,-20.896505,-51.3742765,248,433.55127
1,Andrelândia/MG,-21.739722,-44.308889,206,1687.69458
D1,Andrelândia/MG,-21.739722,-44.308889,10,81.92692
1,André da Rocha/RS,-28.6309124,-51.5733328,112,8339.53835
1,Angatuba/SP,-23.4938938,-48.4110675,2541,9972.91887
D1,Angatuba/SP,-23.4938938,-48.4110675,62,243.33765
1,Angelim/PE,-8.8902038,-36.2872987,215,1915.19686
D1,Angelim/PE,-8.8902038,-36.2872987,8,71.26314
1,Angelina/SC,-27.5805287,-48.9838759,514,10837.02298
D1,Angelina/SC,-27.5805287,-48.9838759,2,42.16740
1,Angelândia/MG,-17.7253,-42.2728,122,1425.73332
D1,Angelândia/MG,-17.7253,-42.2728,1,11.68634
1,Angical do Piauí/PI,-6.0872666,-42.7366138,808,11912.13327
D1,Angical do Piauí/PI,-6.0872666,-42.7366138,12,176.91287
1,Angical/BA,-12.005623,-44.7000236,642,4606.11279
D1,Angical/BA,-12.005623,-44.7000236,15,107.61946
1,Angico/TO,-6.3893733,-47.8656722,231,6687.89809
D1,Angico/TO,-6.3893733,-47.8656722,3,86.85582
1,Angicos/RN,-5.6666344,-36.6009064,1041,8893.63520
D1,Angicos/RN,-5.6666344,-36.6009064,21,179.41051
1,Angra dos Reis/RJ,-23.0063966,-44.316326,13707,6620.33191
D1,Angra dos Reis/RJ,-23.0063966,-44.316326,470,227.00489
1,Anguera/BA,-12.1509425,-39.2452469,447,3956.80269
D1,Anguera/BA,-12.1509425,-39.2452469,2,17.70382
1,Angélica/MS,-22.1588196,-53.7728504,1232,11269.66703
D1,Angélica/MS,-22.1588196,-53.7728504,19,173.80168
1,Anhanguera/GO,-18.3338749,-48.220363,90,7758.62069
D1,Anhanguera/GO,-18.3338749,-48.220363,6,517.24138
1,Anhembi/SP,-22.7891096,-48.1316776,250,3666.22672
D1,Anhembi/SP,-22.7891096,-48.1316776,6,87.98944
1,Anhumas/SP,-22.2956478,-51.3873401,212,5115.83012
D1,Anhumas/SP,-22.2956478,-51.3873401,5,120.65637
1,Anicuns/GO,-16.4606451,-49.9572265,2716,12356.12574
D1,Anicuns/GO,-16.4606451,-49.9572265,62,282.06178
1,Anita Garibaldi/SC,-27.6855032,-51.1293873,1158,16645.10565
D1,Anita Garibaldi/SC,-27.6855032,-51.1293873,10,143.74012
1,Anitápolis/SC,-27.9041185,-49.1287395,326,10099.13259
D1,Anitápolis/SC,-27.9041185,-49.1287395,4,123.91574
1,Anori/AM,-3.7435254,-61.6605203,1887,8786.14332
D1,Anori/AM,-3.7435254,-61.6605203,31,144.34046
1,Anta Gorda/RS,-28.9718745,-52.0069187,600,10065.42526
D1,Anta Gorda/RS,-28.9718745,-52.0069187,4,67.10284
1,Antas/BA,-10.4114649,-38.3308815,1300,6673.85389
D1,Antas/BA,-10.4114649,-38.3308815,11,56.47107
1,Antonina do Norte/CE,-6.7754187,-39.9879345,697,9447.00461
D1,Antonina do Norte/CE,-6.7754187,-39.9879345,26,352.39902
1,Antonina/PR,-25.4298854,-48.7125431,2467,13019.15668
D1,Antonina/PR,-25.4298854,-48.7125431,65,343.02602
1,Antônio Almeida/PI,-7.2186016,-44.1950248,405,12776.02524
D1,Antônio Almeida/PI,-7.2186016,-44.1950248,10,315.45741
1,Antônio Cardoso/BA,-12.4363122,-39.1200307,502,4299.04941
D1,Antônio Cardoso/BA,-12.4363122,-39.1200307,10,85.63843
1,Antônio Carlos/MG,-21.318334,-43.746666,668,5829.47901
D1,Antônio Carlos/MG,-21.318334,-43.746666,13,113.44794
1,Antônio Carlos/SC,-27.5168462,-48.7684715,1560,18112.15604
D1,Antônio Carlos/SC,-27.5168462,-48.7684715,24,278.64855
1,Antônio Dias/MG,-19.6525,-42.872778,565,6091.64420
D1,Antônio Dias/MG,-19.6525,-42.872778,24,258.76011
1,Antônio Gonçalves/BA,-10.5715409,-40.2748824,854,7189.76259
D1,Antônio Gonçalves/BA,-10.5715409,-40.2748824,9,75.77033
1,Antônio João/MS,-22.1892837,-55.9508227,502,5565.41020
D1,Antônio João/MS,-22.1892837,-55.9508227,13,144.12417
1,Antônio Martins/RN,-6.2155812,-37.8890129,634,8862.17501
D1,Antônio Martins/RN,-6.2155812,-37.8890129,6,83.86916
1,Antônio Olinto/PR,-25.9849006,-50.1974516,486,6543.69193
D1,Antônio Olinto/PR,-25.9849006,-50.1974516,11,148.10825
1,Antônio Prado de Minas/MG,-21.0171988,-42.1101106,160,10081.91556
D1,Antônio Prado de Minas/MG,-21.0171988,-42.1101106,5,315.05986
1,Antônio Prado/RS,-28.8567806,-51.2801355,2603,19954.00537
D1,Antônio Prado/RS,-28.8567806,-51.2801355,28,214.64163
1,Anápolis/GO,-16.3332828,-48.9525756,39127,9987.18642
D1,Anápolis/GO,-16.3332828,-48.9525756,1403,358.11646
1,Anísio de Abreu/PI,-9.185643,-43.04941,290,2918.09217
D1,Anísio de Abreu/PI,-9.185643,-43.04941,11,110.68625
1,Aparecida d'Oeste/SP,-20.4498109,-50.8808706,720,17316.01732
D1,Aparecida d'Oeste/SP,-20.4498109,-50.8808706,13,312.65031
1,Aparecida de Goiânia/GO,-16.8226769,-49.2452546,68566,11618.48085
D1,Aparecida de Goiânia/GO,-16.8226769,-49.2452546,1394,236.21273
1,Aparecida do Rio Doce/GO,-18.2980167,-51.1491312,230,9296.68553
D1,Aparecida do Rio Doce/GO,-18.2980167,-51.1491312,3,121.26112
1,Aparecida do Rio Negro/TO,-9.9513491,-47.9773786,339,6992.57426
D1,Aparecida do Rio Negro/TO,-9.9513491,-47.9773786,8,165.01650
1,Aparecida do Taboado/MS,-20.0840304,-51.1013943,3481,13353.02467
D1,Aparecida do Taboado/MS,-20.0840304,-51.1013943,50,191.79869
1,Aparecida/PB,-6.7859598, -38.0831353,908,10788.97338
D1,Aparecida/PB,-6.7859598, -38.0831353,13,154.46768
1,Aparecida/SP,-22.851552,-45.2340924,2216,6124.08457
D1,Aparecida/SP,-22.851552,-45.2340924,90,248.72185
1,Aperibé/RJ,-21.6211928,-42.1028167,567,4764.30552
D1,Aperibé/RJ,-21.6211928,-42.1028167,27,226.87169
1,Apiacá/ES,-21.152272,-41.569297,815,10788.98597
D1,Apiacá/ES,-21.152272,-41.569297,33,436.85465
1,Apiacás/MT,-9.5678422,-57.394852,1751,17028.10464
D1,Apiacás/MT,-9.5678422,-57.394852,15,145.87183
1,Apiaí/SP,-24.5076527,-48.8461582,1323,5461.07488
D1,Apiaí/SP,-24.5076527,-48.8461582,70,288.94576
1,Apicum-Açu/MA,-1.5279295,-45.082278,503,2888.64641
D1,Apicum-Açu/MA,-1.5279295,-45.082278,5,28.71418
1,Apiúna/SC,-27.0374658,-49.3885037,818,7540.56047
D1,Apiúna/SC,-27.0374658,-49.3885037,15,138.27434
1,Apodi/RN,-5.6631109,-37.796927,6109,17029.04611
D1,Apodi/RN,-5.6631109,-37.796927,93,259.24068
1,Aporá/BA,-11.6599747,-38.0794757,526,2957.04970
D1,Aporá/BA,-11.6599747,-38.0794757,19,106.81358
1,Aporé/GO,-18.9642193,-51.92804,359,8482.98677
D1,Aporé/GO,-18.9642193,-51.92804,10,236.29490
1,Apuarema/BA,-13.8517897,-39.7457126,690,9449.46590
D1,Apuarema/BA,-13.8517897,-39.7457126,9,123.25390
1,Apucarana/PR,-23.5525327,-51.4610764,9657,7088.53884
D1,Apucarana/PR,-23.5525327,-51.4610764,395,289.94231
1,Apuiarés/CE,-3.9460303,-39.4313298,1187,8090.23991
D1,Apuiarés/CE,-3.9460303,-39.4313298,24,163.57688
1,Apuí/AM,-7.1940195,-59.8830192,1373,6140.70397
D1,Apuí/AM,-7.1940195,-59.8830192,31,138.64663
1,Aquidabã/SE,-10.2837579,-37.0188687,2216,10220.93077
D1,Aquidabã/SE,-10.2837579,-37.0188687,39,179.88100
1,Aquidauana/MS,-20.473969,-55.7821375,5120,10660.22611
D1,Aquidauana/MS,-20.473969,-55.7821375,141,293.57263
1,Aquiraz/CE,-3.9063117,-38.387504,6373,7874.22005
D1,Aquiraz/CE,-3.9063117,-38.387504,85,105.02255
1,Arabutã/SC,-27.1587028,-52.1438142,414,9702.36700
D1,Arabutã/SC,-27.1587028,-52.1438142,8,187.48535
1,Aracaju/SE,-10.9162061,-37.0774655,119350,17949.85171
D1,Aracaju/SE,-10.9162061,-37.0774655,2278,342.60379
1,Aracati/CE,-4.558259,-37.767894,7496,9997.99933
D1,Aracati/CE,-4.558259,-37.767894,154,205.40180
1,Aracatu/BA,-14.4274236,-41.4604105,799,6124.95209
D1,Aracatu/BA,-14.4274236,-41.4604105,14,107.32081
1,Araci/BA,-11.3356065,-38.9573261,3479,6366.19821
D1,Araci/BA,-11.3356065,-38.9573261,48,87.83487
1,Aracitaba/MG,-21.3425,-43.378611,85,4128.21758
D1,Aracitaba/MG,-21.3425,-43.378611,8,388.53813
1,Aracoiaba/CE,-4.3702577,-38.8084313,4016,15134.72772
D1,Aracoiaba/CE,-4.3702577,-38.8084313,30,113.05822
1,Aracruz/ES,-19.8245218,-40.2735025,15611,15141.46323
D1,Aracruz/ES,-19.8245218,-40.2735025,220,213.38299
1,Aragarças/GO,-15.8957166,-52.2514538,2462,12144.23124
D1,Aragarças/GO,-15.8957166,-52.2514538,55,271.29680
1,Aragoiânia/GO,-16.9146388,-49.4499148,1022,9737.04268
D1,Aragoiânia/GO,-16.9146388,-49.4499148,21,200.07622
1,Aragominas/TO,-7.1654101,-48.525488,539,9404.99040
D1,Aragominas/TO,-7.1654101,-48.525488,9,157.04066
1,Araguacema/TO,-8.8067391,-49.5560969,639,8930.81761
D1,Araguacema/TO,-8.8067391,-49.5560969,11,153.73864
1,Araguaiana/MT,-15.729144,-51.834112,277,8909.61724
D1,Araguaiana/MT,-15.729144,-51.834112,6,192.98810
1,Araguainha/MT,-16.857016,-53.031778,29,3065.53911
1,Araguanã/MA,-2.9508403,-45.6651986,806,5182.94643
D1,Araguanã/MA,-2.9508403,-45.6651986,5,32.15227
1,Araguanã/TO,-6.5799107,-48.6428482,555,9580.52822
D1,Araguanã/TO,-6.5799107,-48.6428482,14,241.67098
1,Araguapaz/GO,-15.0937927,-50.626417,567,7285.10857
D1,Araguapaz/GO,-15.0937927,-50.626417,21,269.81884
1,Araguari/MG,-18.6511256,-48.1933764,15241,12935.28538
D1,Araguari/MG,-18.6511256,-48.1933764,387,328.45321
1,Araguatins/TO,-5.6522925,-48.1158973,2342,6474.97926
D1,Araguatins/TO,-5.6522925,-48.1158973,57,157.58916
1,Araguaçu/TO,-12.928934,-49.823134,824,9731.90032
D1,Araguaçu/TO,-12.928934,-49.823134,18,212.59006
1,Araguaína/TO,-7.193241,-48.2018597,33361,18192.17912
D1,Araguaína/TO,-7.193241,-48.2018597,450,245.39074
1,Araioses/MA,-2.890914,-41.904993,651,1391.88814
D1,Araioses/MA,-2.890914,-41.904993,13,27.79500
1,Aral Moreira/MS,-22.951141,-55.6268421,515,4176.12715
D1,Aral Moreira/MS,-22.951141,-55.6268421,11,89.19883
1,Aramari/BA,-12.0907897,-38.4985065,598,5217.69479
D1,Aramari/BA,-12.0907897,-38.4985065,12,104.70291
1,Arambaré/RS,-30.9132252,-51.4994625,180,5053.34082
D1,Arambaré/RS,-30.9132252,-51.4994625,8,224.59293
1,Arame/MA,-4.8858769,-46.0102484,1454,4437.79758
D1,Arame/MA,-4.8858769,-46.0102484,36,109.87669
1,Aramina/SP,-20.0876144,-47.789201,307,5428.82405
D1,Aramina/SP,-20.0876144,-47.789201,15,265.25199
1,Arandu/SP,-23.1345103,-49.0545651,488,7666.92852
D1,Arandu/SP,-23.1345103,-49.0545651,12,188.53103
1,Arantina/MG,-21.911667,-44.255833,156,5597.41658
D1,Arantina/MG,-21.911667,-44.255833,3,107.64263
1,Arapeí/SP,-22.6738889,-44.4477778,210,8536.58537
D1,Arapeí/SP,-22.6738889,-44.4477778,3,121.95122
1,Arapiraca/AL,-9.754866,-36.661471,28043,12033.19502
D1,Arapiraca/AL,-9.754866,-36.661471,442,189.66131
1,Arapoema/TO,-7.6575001,-49.0641484,484,7315.59855
D1,Arapoema/TO,-7.6575001,-49.0641484,10,151.14873
1,Araponga/MG,-20.666667,-42.520556,445,5264.40317
D1,Araponga/MG,-20.666667,-42.520556,7,82.81084
1,Arapongas/PR,-23.415296,-51.42592,13053,10458.29661
D1,Arapongas/PR,-23.415296,-51.42592,472,378.17483
1,Araporã/MG,-18.4318188,-49.188313,1837,26504.11196
D1,Araporã/MG,-18.4318188,-49.188313,28,403.98211
1,Arapoti/PR,-24.1457957,-49.8224605,2920,10318.02120
D1,Arapoti/PR,-24.1457957,-49.8224605,54,190.81272
1,Araputanga/MT,-15.4710868,-58.346796,1930,11385.75895
D1,Araputanga/MT,-15.4710868,-58.346796,53,312.66592
1,Arapuá/MG,-19.034444,-46.155556,260,9171.07584
D1,Arapuá/MG,-19.034444,-46.155556,2,70.54674
1,Arapuã/PR,-24.3079525,-51.7901941,207,6879.36191
D1,Arapuã/PR,-24.3079525,-51.7901941,5,166.16816
1,Araquari/SC,-26.3703324,-48.7210994,3491,8832.60804
D1,Araquari/SC,-26.3703324,-48.7210994,73,184.69791
1,Arara/PB,-6.8271895,-35.7605703,965,7125.97844
D1,Arara/PB,-6.8271895,-35.7605703,27,199.37971
1,Araranguá/SC,-28.9348832,-49.4858389,10154,14744.36232
D1,Araranguá/SC,-28.9348832,-49.4858389,234,339.78538
1,Araraquara/SP,-21.7886713,-48.1773096,20723,8694.75831
D1,Araraquara/SP,-21.7886713,-48.1773096,431,180.83486
1,Araras/SP,-22.3569477,-47.3838889,15232,11240.83066
D1,Araras/SP,-22.3569477,-47.3838889,342,252.38735
1,Ararendá/CE,-4.7504395,-40.8303611,1252,11424.40004
D1,Ararendá/CE,-4.7504395,-40.8303611,20,182.49840
1,Arari/MA,-3.4547602,-44.7772723,681,2275.15702
D1,Arari/MA,-3.4547602,-44.7772723,31,103.56809
1,Araricá/RS,-29.6168543,-50.929121,989,17137.41119
D1,Araricá/RS,-29.6168543,-50.929121,24,415.87247
1,Araripe/CE,-7.212861,-40.1359222,1289,5952.71082
D1,Araripe/CE,-7.212861,-40.1359222,17,78.50744
1,Araripina/PE,-7.5768582,-40.5038509,6560,7730.01508
D1,Araripina/PE,-7.5768582,-40.5038509,143,168.50490
1,Araruama/RJ,-22.8733203,-42.3428897,6003,4470.07662
D1,Araruama/RJ,-22.8733203,-42.3428897,401,298.60082
1,Araruna/PB,-6.5321155,-35.7397595,642,3137.36989
D1,Araruna/PB,-6.5321155,-35.7397595,16,78.18990
1,Araruna/PR,-23.9320308,-52.4976047,1906,13614.28571
D1,Araruna/PR,-23.9320308,-52.4976047,29,207.14286
1,Arataca/BA,-15.2617424,-39.4122943,768,7006.65998
D1,Arataca/BA,-15.2617424,-39.4122943,15,136.84883
1,Aratiba/RS,-27.3955734,-52.3024325,366,5913.71789
D1,Aratiba/RS,-27.3955734,-52.3024325,6,96.94619
1,Aratuba/CE,-4.4195958,-39.0463737,1328,11252.33011
D1,Aratuba/CE,-4.4195958,-39.0463737,8,67.78512
1,Aratuípe/BA,-13.077137,-39.0010786,413,4673.53174
D1,Aratuípe/BA,-13.077137,-39.0010786,9,101.84452
1,Araucária/PR,-25.5861107,-49.4051209,24935,17053.77050
D1,Araucária/PR,-25.5861107,-49.4051209,389,266.04839
1,Arauá/SE,-11.2644014,-37.6181058,1215,12214.73811
D1,Arauá/SE,-11.2644014,-37.6181058,20,201.06565
1,Araxá/MG,-19.5928536,-46.940241,12625,11762.02055
D1,Araxá/MG,-19.5928536,-46.940241,201,187.26068
1,Araçagi/PB,-6.8519969,-35.3835602,1412,8344.66048
D1,Araçagi/PB,-6.8519969,-35.3835602,19,112.28651
1,Araçariguama/SP,-23.438611,-47.061389,1720,7524.05949
D1,Araçariguama/SP,-23.438611,-47.061389,57,249.34383
1,Araçatuba/SP,-21.207992,-50.4390225,25279,12758.85913
D1,Araçatuba/SP,-21.207992,-50.4390225,755,381.06486
1,Araçaí/MG,-19.200833,-44.2475,72,3058.62362
D1,Araçaí/MG,-19.200833,-44.2475,1,42.48088
1,Araçoiaba da Serra/SP,-23.5045367,-47.6168158,2674,7689.21095
D1,Araçoiaba da Serra/SP,-23.5045367,-47.6168158,64,184.03497
1,Araçoiaba/PE,-7.7856903,-35.0898881,633,3053.10375
D1,Araçoiaba/PE,-7.7856903,-35.0898881,29,139.87363
1,Araçu/GO,-16.3561579,-49.6815269,421,12076.87894
D1,Araçu/GO,-16.3561579,-49.6815269,16,458.97877
1,Araçuaí/MG,-16.8484451,-42.0661868,1654,4505.33885
D1,Araçuaí/MG,-16.8484451,-42.0661868,41,111.68010
1,Araçás/BA,-12.2139176,-38.2026159,646,5291.61206
D1,Araçás/BA,-12.2139176,-38.2026159,11,90.10485
1,Araújos/MG,-19.948055,-45.165556,706,7509.83938
D1,Araújos/MG,-19.948055,-45.165556,9,95.73450
1,Arceburgo/MG,-21.364444,-46.939722,1078,9905.35698
D1,Arceburgo/MG,-21.364444,-46.939722,28,257.28200
1,Arco-Íris/SP,-21.7741308,-50.4668814,141,7952.62267
D1,Arco-Íris/SP,-21.7741308,-50.4668814,8,451.21263
1,Arcos/MG,-20.282223,-45.539444,4860,12035.66122
D1,Arcos/MG,-20.282223,-45.539444,109,269.93561
1,Arcoverde/PE,-8.415192,-37.057748,5709,7630.10879
D1,Arcoverde/PE,-8.415192,-37.057748,127,169.73617
1,Areado/MG,-21.3582771,-46.1476688,972,6402.74027
D1,Areado/MG,-21.3582771,-46.1476688,19,125.15645
1,Areal/RJ,-22.2314922,-43.1056264,1258,9929.74978
D1,Areal/RJ,-22.2314922,-43.1056264,44,347.30444
1,Arealva/SP,-22.0301906,-48.9111936,902,10472.54151
D1,Arealva/SP,-22.0301906,-48.9111936,14,162.54499
1,Areia Branca/RN,-4.9506652,-37.1263312,2701,9657.81099
D1,Areia Branca/RN,-4.9506652,-37.1263312,92,328.95913
1,Areia Branca/SE,-10.7591455,-37.3148072,2001,10708.55186
D1,Areia Branca/SE,-10.7591455,-37.3148072,46,246.17361
1,Areia de Baraúnas/PB,-7.1233949,-36.9446216,188,8884.68809
D1,Areia de Baraúnas/PB,-7.1233949,-36.9446216,4,189.03592
1,Areia/PB,-6.9680243,-35.6994783,1468,6479.51977
D1,Areia/PB,-6.9680243,-35.6994783,27,119.17373
1,Areial/PB,-7.0501306,-35.9245244,345,4909.63427
D1,Areial/PB,-7.0501306,-35.9245244,10,142.30824
1,Areias/SP,-22.5800929,-44.6975127,318,8162.21766
D1,Areias/SP,-22.5800929,-44.6975127,1,25.66735
1,Areiópolis/SP,-22.6758064,-48.6673653,1211,10853.19950
D1,Areiópolis/SP,-22.6758064,-48.6673653,17,152.35705
1,Arenápolis/MT,-14.4610369,-56.8432806,1759,18511.89223
D1,Arenápolis/MT,-14.4610369,-56.8432806,32,336.77121
1,Arenópolis/GO,-16.3859286,-51.55937,206,8123.02839
D1,Arenópolis/GO,-16.3859286,-51.55937,8,315.45741
1,Argirita/MG,-21.612761,-42.8371922,255,9430.47337
D1,Argirita/MG,-21.612761,-42.8371922,6,221.89349
1,Aricanduva/MG,-17.8678,-42.5569,104,1973.80907
1,Arinos/MG,-15.917223,-46.106111,690,3862.94928
D1,Arinos/MG,-15.917223,-46.106111,21,117.56802
1,Aripuanã/MT,-10.175806,-59.4439663,2821,12419.65308
D1,Aripuanã/MT,-10.175806,-59.4439663,43,189.31056
1,Ariquemes/RO,-9.9076522,-63.033069,21423,19560.27501
D1,Ariquemes/RO,-9.9076522,-63.033069,461,420.91615
1,Ariranha do Ivaí/PR,-24.3834527,-51.5876772,176,8518.87706
D1,Ariranha do Ivaí/PR,-24.3834527,-51.5876772,3,145.20813
1,Ariranha/SP,-21.18716,-48.790418,858,8790.08298
D1,Ariranha/SP,-21.18716,-48.790418,23,235.63160
1,Armazém/SC,-28.2624996,-49.0190126,1384,15800.89051
D1,Armazém/SC,-28.2624996,-49.0190126,30,342.50485
1,Armação dos Búzios/RJ,-22.7597805,-41.8875267,4495,13037.67729
D1,Armação dos Búzios/RJ,-22.7597805,-41.8875267,56,162.42713
1,Arneiroz/CE,-6.3235099,-40.1603859,635,8095.35951
D1,Arneiroz/CE,-6.3235099,-40.1603859,16,203.97756
1,Aroazes/PI,-6.1108814,-41.7886137,575,9867.85653
D1,Aroazes/PI,-6.1108814,-41.7886137,12,205.93788
1,Aroeiras do Itaim/PI,-7.2797031,-41.5629681,123,4821.63857
D1,Aroeiras do Itaim/PI,-7.2797031,-41.5629681,2,78.40063
1,Aroeiras/PB,-7.5462904,-35.7080002,1610,8422.26407
D1,Aroeiras/PB,-7.5462904,-35.7080002,10,52.31220
1,Arraial do Cabo/RJ,-22.9662839,-42.024427,709,2317.52362
D1,Arraial do Cabo/RJ,-22.9662839,-42.024427,36,117.67398
1,Arraial/PI,-6.6541632,-42.5335332,153,3241.52542
D1,Arraial/PI,-6.6541632,-42.5335332,3,63.55932
1,Arraias/TO,-12.9287788,-46.9437231,918,8714.63831
D1,Arraias/TO,-12.9287788,-46.9437231,7,66.45149
1,Arroio Grande/RS,-32.2384246,-53.0866661,1814,9946.26604
D1,Arroio Grande/RS,-32.2384246,-53.0866661,52,285.11898
1,Arroio Trinta/SC,-26.9301976,-51.334928,586,16511.69343
D1,Arroio Trinta/SC,-26.9301976,-51.334928,13,366.30037
1,Arroio do Meio/RS,-29.4020392,-51.9444993,3031,14456.04998
D1,Arroio do Meio/RS,-29.4020392,-51.9444993,43,205.08418
1,Arroio do Padre/RS,-31.4428773,-52.4228985,216,7319.55269
D1,Arroio do Padre/RS,-31.4428773,-52.4228985,3,101.66045
1,Arroio do Sal/RS,-29.549852,-49.8874395,1097,10672.24438
D1,Arroio do Sal/RS,-29.549852,-49.8874395,36,350.22862
1,Arroio do Tigre/RS,-29.334158,-53.0888935,1128,8409.75173
D1,Arroio do Tigre/RS,-29.334158,-53.0888935,19,141.65362
1,Arroio dos Ratos/RS,-30.0894524,-51.7265541,966,6813.85342
D1,Arroio dos Ratos/RS,-30.0894524,-51.7265541,32,225.71771
1,Artur Nogueira/SP,-22.572737,-47.172679,4447,8035.77882
D1,Artur Nogueira/SP,-22.572737,-47.172679,113,204.19227
1,Aruanã/GO,-14.9162439,-51.0715692,533,5272.00791
D1,Aruanã/GO,-14.9162439,-51.0715692,13,128.58556
1,Arujá/SP,-23.396266,-46.3175449,7122,7812.89424
D1,Arujá/SP,-23.396266,-46.3175449,283,310.45339
1,Arvoredo/SC,-27.0752908,-52.4571847,298,13339.30170
D1,Arvoredo/SC,-27.0752908,-52.4571847,4,179.05103
1,Arvorezinha/RS,-28.87369,-52.17808,806,7732.89840
D1,Arvorezinha/RS,-28.87369,-52.17808,26,249.44834
1,Arês/RN,-6.1969216,-35.1642968,1111,7706.18020
D1,Arês/RN,-6.1969216,-35.1642968,22,152.59763
1,Ascurra/SC,-26.9569975,-49.3767752,1138,14264.22662
D1,Ascurra/SC,-26.9569975,-49.3767752,10,125.34470
1,Aspásia/SP,-20.160028,-50.728046,170,9350.93509
D1,Aspásia/SP,-20.160028,-50.728046,5,275.02750
1,Assaré/CE,-6.8746791,-39.8741385,2054,8748.61573
D1,Assaré/CE,-6.8746791,-39.8741385,41,174.63157
1,Assaí/PR,-23.3736041,-50.8454929,1319,8820.38251
D1,Assaí/PR,-23.3736041,-50.8454929,42,280.86131
1,Assis Brasil/AC,-10.9409203,-69.5672108,1738,23068.75498
D1,Assis Brasil/AC,-10.9409203,-69.5672108,24,318.55588
1,Assis Chateaubriand/PR,-24.4054826,-53.5120468,4203,12606.47870
D1,Assis Chateaubriand/PR,-24.4054826,-53.5120468,92,275.94481
1,Assis/SP,-22.6620892,-50.420623,10423,9918.44852
D1,Assis/SP,-22.6620892,-50.420623,359,341.62170
1,Assunção do Piauí/PI,-5.8610212,-41.0485091,330,4196.87142
D1,Assunção do Piauí/PI,-5.8610212,-41.0485091,8,101.74234
1,Assunção/PB,-7.073396,-36.7274003,395,9803.92157
D1,Assunção/PB,-7.073396,-36.7274003,5,124.10027
1,Astolfo Dutra/MG,-21.3132636,-42.8624102,1300,9110.02102
D1,Astolfo Dutra/MG,-21.3132636,-42.8624102,22,154.16959
1,Astorga/PR,-23.2350184,-51.6647074,3119,11900.49220
D1,Astorga/PR,-23.2350184,-51.6647074,73,278.53028
1,Atalaia do Norte/AM,-4.3658547,-70.1908742,2795,13702.32376
D1,Atalaia do Norte/AM,-4.3658547,-70.1908742,9,44.12197
1,Atalaia/AL,-9.5029595,-36.0219316,1158,2444.84324
D1,Atalaia/AL,-9.5029595,-36.0219316,46,97.11813
1,Atalaia/PR,-23.1513833,-52.0529697,430,11079.61865
D1,Atalaia/PR,-23.1513833,-52.0529697,18,463.79799
1,Atalanta/SC,-27.421916,-49.778863,427,13364.63224
D1,Atalanta/SC,-27.421916,-49.778863,11,344.28795
1,Ataléia/MG,-18.04432,-41.1110524,1085,8558.13220
D1,Ataléia/MG,-18.04432,-41.1110524,8,63.10144
1,Atibaia/SP,-23.1177393,-46.5547861,10425,7235.16185
D1,Atibaia/SP,-23.1177393,-46.5547861,238,165.17684
1,Atilio Vivacqua/ES,-20.9139369,-41.1947519,1476,12193.30855
D1,Atilio Vivacqua/ES,-20.9139369,-41.1947519,28,231.30938
1,Augustinópolis/TO,-5.4662267,-47.8897519,1476,7917.18071
D1,Augustinópolis/TO,-5.4662267,-47.8897519,27,144.82648
1,Augusto Corrêa/PA,-1.0229335,-46.6404029,1996,4295.15182
D1,Augusto Corrêa/PA,-1.0229335,-46.6404029,44,94.68271
1,Augusto Pestana/RS,-28.5148413,-53.9906433,734,11117.84308
D1,Augusto Pestana/RS,-28.5148413,-53.9906433,13,196.91003
1,Augusto de Lima/MG,-18.1092963,-44.2651945,259,5339.10534
D1,Augusto de Lima/MG,-18.1092963,-44.2651945,10,206.14306
1,Aurelino Leal/BA,-14.3167137,-39.3256107,974,8620.23188
D1,Aurelino Leal/BA,-14.3167137,-39.3256107,28,247.80954
1,Auriflama/SP,-20.6840418,-50.5554616,1863,12213.99069
D1,Auriflama/SP,-20.6840418,-50.5554616,67,439.25785
1,Aurilândia/GO,-16.6772599,-50.4641231,194,6344.01570
D1,Aurilândia/GO,-16.6772599,-50.4641231,7,228.90778
1,Aurora do Pará/PA,-2.1323199,-47.558436,1507,4743.02080
D1,Aurora do Pará/PA,-2.1323199,-47.558436,14,44.06257
1,Aurora do Tocantins/TO,-12.71045,-46.407604,188,4969.60085
D1,Aurora do Tocantins/TO,-12.71045,-46.407604,5,132.17024
1,Aurora/CE,-6.9426019,-38.9693765,1660,6745.22552
D1,Aurora/CE,-6.9426019,-38.9693765,37,150.34539
1,Aurora/SC,-27.3166417,-49.6368502,811,14270.63171
D1,Aurora/SC,-27.3166417,-49.6368502,14,246.34876
1,Autazes/AM,-3.5833283,-59.1301518,2867,7115.90966
D1,Autazes/AM,-3.5833283,-59.1301518,95,235.79052
1,Avanhandava/SP,-21.4603331,-49.9465156,922,6652.71665
D1,Avanhandava/SP,-21.4603331,-49.9465156,32,230.89689
1,Avaré/SP,-23.1045215,-48.9259103,9749,10685.94353
D1,Avaré/SP,-23.1045215,-48.9259103,216,236.75903
1,Avaí/SP,-22.1564662,-49.3316395,419,7707.87344
D1,Avaí/SP,-22.1564662,-49.3316395,12,220.75055
1,Aveiro/PA,-3.6049239,-55.3310742,632,3852.71885
D1,Aveiro/PA,-3.6049239,-55.3310742,12,73.15289
1,Avelino Lopes/PI,-10.1346855,-43.9489525,392,3461.06304
D1,Avelino Lopes/PI,-10.1346855,-43.9489525,19,167.75561
1,Avelinópolis/GO,-16.4672409,-49.7578661,282,11706.10212
D1,Avelinópolis/GO,-16.4672409,-49.7578661,14,581.15401
1,Axixá do Tocantins/TO,-5.612747,-47.77007,1025,10473.07653
D1,Axixá do Tocantins/TO,-5.612747,-47.77007,17,173.69981
1,Axixá/MA,-2.8379465,-44.0561053,191,1567.75835
D1,Axixá/MA,-2.8379465,-44.0561053,7,57.45711
1,Açailândia/MA,-4.9514278,-47.4844564,5307,4691.43660
D1,Açailândia/MA,-4.9514278,-47.4844564,213,188.29395
1,Açu/RN,-5.5836157,-36.9139541,7387,12652.43902
D1,Açu/RN,-5.5836157,-36.9139541,141,241.50452
1,Açucena/MG,-19.073056,-42.546666,747,7973.95389
D1,Açucena/MG,-19.073056,-42.546666,30,320.23911
1,Babaçulândia/TO,-7.2034355,-47.761613,796,7462.96644
D1,Babaçulândia/TO,-7.2034355,-47.761613,5,46.87793
1,Bacabal/MA,-4.2318132,-44.781167,5029,4799.12205
D1,Bacabal/MA,-4.2318132,-44.781167,183,174.63498
1,Bacabeira/MA,-2.9775747,-44.3155943,342,1982.37885
D1,Bacabeira/MA,-2.9775747,-44.3155943,9,52.16786
1,Bacuri/MA,-1.728894,-45.1417148,577,3093.17037
D1,Bacuri/MA,-1.728894,-45.1417148,4,21.44312
1,Bacurituba/MA,-2.7082587,-44.7381309,117,2063.49206
D1,Bacurituba/MA,-2.7082587,-44.7381309,2,35.27337
1,Bady Bassitt/SP,-20.9178969,-49.4517911,3360,18917.85372
D1,Bady Bassitt/SP,-20.9178969,-49.4517911,69,388.49164
1,Baependi/MG,-21.959162,-44.8899249,1425,7422.26158
D1,Baependi/MG,-21.959162,-44.8899249,13,67.71186
1,Bagre/PA,-1.8994498,-50.2103844,910,2905.02793
D1,Bagre/PA,-1.8994498,-50.2103844,12,38.30806
1,Bagé/RS,-31.3314264,-54.1062808,9881,8143.56946
D1,Bagé/RS,-31.3314264,-54.1062808,269,221.70025
1,Baianópolis/BA,-12.3067564,-44.5383591,829,5951.61175
D1,Baianópolis/BA,-12.3067564,-44.5383591,11,78.97193
1,Baixa Grande do Ribeiro/PI,-7.862861,-45.2113289,2454,21026.47588
D1,Baixa Grande do Ribeiro/PI,-7.862861,-45.2113289,29,248.47914
1,Baixa Grande/BA,-11.9630941,-40.1657537,741,3623.64908
D1,Baixa Grande/BA,-11.9630941,-40.1657537,13,63.57279
1,Baixio/CE,-6.7303544,-38.7170095,546,8662.54165
D1,Baixio/CE,-6.7303544,-38.7170095,11,174.52007
1,Baixo Guandu/ES,-19.5138322,-41.0182089,3442,11056.14801
D1,Baixo Guandu/ES,-19.5138322,-41.0182089,71,228.06116
1,Baião/PA,-2.7903479,-49.6702845,740,1527.06412
D1,Baião/PA,-2.7903479,-49.6702845,34,70.16241
1,Balbinos/SP,-21.9006253,-49.3583966,343,5780.24941
D1,Balbinos/SP,-21.9006253,-49.3583966,4,67.40816
1,Baldim/MG,-19.2913568,-43.9558262,618,7920.03076
D1,Baldim/MG,-19.2913568,-43.9558262,19,243.49609
1,Baliza/GO,-16.1978119,-52.542789,319,6041.66667
D1,Baliza/GO,-16.1978119,-52.542789,9,170.45455
1,Balneário Arroio do Silva/SC,-28.9815269,-49.4189932,2010,14966.49293
D1,Balneário Arroio do Silva/SC,-28.9815269,-49.4189932,54,402.08488
1,Balneário Barra do Sul/SC,-26.459842,-48.6061471,1391,12605.34662
D1,Balneário Barra do Sul/SC,-26.459842,-48.6061471,40,362.48301
1,Balneário Camboriú/SC,-26.9924395,-48.6339782,23982,16449.01095
D1,Balneário Camboriú/SC,-26.9924395,-48.6339782,359,246.23446
1,Balneário Gaivota/SC,-29.1553098,-49.5808712,1245,11056.83837
D1,Balneário Gaivota/SC,-29.1553098,-49.5808712,33,293.07282
1,Balneário Pinhal/RS,-30.2482978,-50.234585,707,4922.36998
D1,Balneário Pinhal/RS,-30.2482978,-50.234585,44,306.34269
1,Balneário Piçarras/SC,-26.7638889,-48.6716667,4639,19514.55494
D1,Balneário Piçarras/SC,-26.7638889,-48.6716667,50,210.33148
1,Balneário Rincão/SC,-28.8235718,-49.2241642,1361,10512.89974
D1,Balneário Rincão/SC,-28.8235718,-49.2241642,43,332.14893
1,Balsa Nova/PR,-25.5842234,-49.6312741,1546,11808.73816
D1,Balsa Nova/PR,-25.5842234,-49.6312741,28,213.87107
1,Balsas/MA,-7.53214,-46.037163,9778,10192.95521
D1,Balsas/MA,-7.53214,-46.037163,181,188.68121
1,Bambuí/MG,-20.0131996,-45.9777034,1582,6619.80082
D1,Bambuí/MG,-20.0131996,-45.9777034,25,104.61126
1,Banabuiú/CE,-5.3046404,-38.919766,2035,11147.02016
D1,Banabuiú/CE,-5.3046404,-38.919766,20,109.55302
1,Bananal/SP,-22.6828195,-44.3221095,957,8705.53989
D1,Bananal/SP,-22.6828195,-44.3221095,3,27.29009
1,Bananeiras/PB,-6.7537682,-35.6338343,1405,6605.85829
D1,Bananeiras/PB,-6.7537682,-35.6338343,25,117.54196
1,Bandeira do Sul/MG,-21.728056,-46.385555,532,9207.33818
D1,Bandeira do Sul/MG,-21.728056,-46.385555,12,207.68432
1,Bandeira/MG,-15.884444,-40.559167,454,9525.80781
D1,Bandeira/MG,-15.884444,-40.559167,9,188.83760
1,Bandeirante/SC,-26.7677402,-53.6397596,353,13330.81571
D1,Bandeirante/SC,-26.7677402,-53.6397596,4,151.05740
1,Bandeirantes do Tocantins/TO,-7.7635698,-48.579148,468,13028.95323
D1,Bandeirantes do Tocantins/TO,-7.7635698,-48.579148,7,194.87751
1,Bandeirantes/MS,-19.9179623,-54.3646768,560,7707.12909
D1,Bandeirantes/MS,-19.9179623,-54.3646768,10,137.62731
1,Bandeirantes/PR,-23.107788,-50.370407,4681,14997.91740
D1,Bandeirantes/PR,-23.107788,-50.370407,117,374.86784
1,Bannach/PA,-7.3508505,-50.4064531,641,19650.52115
D1,Bannach/PA,-7.3508505,-50.4064531,3,91.96812
1,Banzaê/BA,-10.5827616,-38.6122305,1077,8134.44109
D1,Banzaê/BA,-10.5827616,-38.6122305,8,60.42296
1,Baraúna/PB,-6.643394,-36.2531932,668,13456.88961
D1,Baraúna/PB,-6.643394,-36.2531932,9,181.30540
1,Baraúna/RN,-5.0775002,-37.61752,115,400.04174
D1,Baraúna/RN,-5.0775002,-37.61752,24,83.48697
1,Barbacena/MG,-21.2254524,-43.7735087,7810,5651.06654
D1,Barbacena/MG,-21.2254524,-43.7735087,255,184.50985
1,Barbalha/CE,-7.3121067,-39.3036427,6364,10393.93741
D1,Barbalha/CE,-7.3121067,-39.3036427,147,240.08624
1,Barbosa Ferraz/PR,-24.0287182,-52.00811,1168,10222.30002
D1,Barbosa Ferraz/PR,-24.0287182,-52.00811,31,271.31104
1,Barbosa/SP,-21.265661,-49.951816,516,6909.48045
D1,Barbosa/SP,-21.265661,-49.951816,12,160.68559
1,Barcarena/PA,-1.5107945,-48.6190679,11126,8758.76782
D1,Barcarena/PA,-1.5107945,-48.6190679,214,168.46812
1,Barcelona/RN,-5.9514918,-35.9260284,157,3930.89634
D1,Barcelona/RN,-5.9514918,-35.9260284,4,100.15023
1,Barcelos/AM,-0.9729214,-62.925635,4322,15637.88986
D1,Barcelos/AM,-0.9729214,-62.925635,59,213.47420
1,Bariri/SP,-22.0746355,-48.7394852,2722,7655.09871
D1,Bariri/SP,-22.0746355,-48.7394852,114,320.60296
1,Barra Bonita/SC,-26.6526364,-53.4419581,182,11023.62205
D1,Barra Bonita/SC,-26.6526364,-53.4419581,2,121.13870
1,Barra Bonita/SP,-22.490859,-48.558349,3114,8619.83059
D1,Barra Bonita/SP,-22.490859,-48.558349,88,243.59187
1,Barra D'Alcântara/PI,-6.5209258,-42.1071089,136,3441.29555
D1,Barra D'Alcântara/PI,-6.5209258,-42.1071089,4,101.21457
1,Barra Funda/RS,-27.9230048,-53.0401045,570,22344.17875
D1,Barra Funda/RS,-27.9230048,-53.0401045,12,470.40376
1,Barra Longa/MG,-20.2833541,-43.0423516,384,7657.02891
D1,Barra Longa/MG,-20.2833541,-43.0423516,9,179.46162
1,Barra Mansa/RJ,-22.5394843,-44.1735129,15252,8251.77322
D1,Barra Mansa/RJ,-22.5394843,-44.1735129,577,312.17369
1,Barra Velha/SC,-26.6338203,-48.6835001,4069,13626.92565
D1,Barra Velha/SC,-26.6338203,-48.6835001,94,314.80241
1,Barra da Estiva/BA,-13.6269662,-41.3278287,2279,11175.95135
D1,Barra da Estiva/BA,-13.6269662,-41.3278287,25,122.59710
1,Barra de Guabiraba/PE,-8.4173522,-35.6626669,400,2756.71950
D1,Barra de Guabiraba/PE,-8.4173522,-35.6626669,15,103.37698
1,Barra de Santa Rosa/PB,-6.7218007,-36.0564638,1600,10324.57895
D1,Barra de Santa Rosa/PB,-6.7218007,-36.0564638,12,77.43434
1,Barra de Santana/PB,-7.5230865,-35.9988518,504,6036.65110
D1,Barra de Santana/PB,-7.5230865,-35.9988518,6,71.86489
1,Barra de Santo Antônio/AL,-9.4038098,-35.5117693,434,2701.02066
D1,Barra de Santo Antônio/AL,-9.4038098,-35.5117693,28,174.25940
1,Barra de São Francisco/ES,-18.7570902,-40.8916119,4686,10418.19516
D1,Barra de São Francisco/ES,-18.7570902,-40.8916119,190,422.41935
1,Barra de São Miguel/AL,-9.8261357,-35.8837777,542,6469.32442
D1,Barra de São Miguel/AL,-9.8261357,-35.8837777,7,83.55216
1,Barra de São Miguel/PB,-7.7528088,-36.3170996,533,8788.12861
D1,Barra de São Miguel/PB,-7.7528088,-36.3170996,6,98.92828
1,Barra do Bugres/MT,-15.0683712,-57.1853688,2990,8468.57564
D1,Barra do Bugres/MT,-15.0683712,-57.1853688,71,201.09327
1,Barra do Chapéu/SP,-24.472203,-49.023784,336,5833.33333
D1,Barra do Chapéu/SP,-24.472203,-49.023784,3,52.08333
1,Barra do Choça/BA,-14.8638173,-40.5761637,2041,6539.78019
D1,Barra do Choça/BA,-14.8638173,-40.5761637,31,99.33032
1,Barra do Corda/MA,-5.496823,-45.248496,5698,6439.00014
D1,Barra do Corda/MA,-5.496823,-45.248496,57,64.41260
1,Barra do Garças/MT,-15.8916033,-52.2615413,8062,13187.20864
D1,Barra do Garças/MT,-15.8916033,-52.2615413,287,469.45285
1,Barra do Guarita/RS,-27.1888016,-53.7147086,111,3408.04421
D1,Barra do Guarita/RS,-27.1888016,-53.7147086,7,214.92171
1,Barra do Jacaré/PR,-23.1151788,-50.1813945,235,8450.19777
D1,Barra do Jacaré/PR,-23.1151788,-50.1813945,2,71.91658
1,Barra do Mendes/BA,-11.8053298,-42.057037,707,5110.96653
D1,Barra do Mendes/BA,-11.8053298,-42.057037,12,86.74908
1,Barra do Ouro/TO,-7.7113784,-47.6743925,147,3173.57513
D1,Barra do Ouro/TO,-7.7113784,-47.6743925,6,129.53368
1,Barra do Piraí/RJ,-22.4703403,-43.8263256,6055,6009.09055
D1,Barra do Piraí/RJ,-22.4703403,-43.8263256,350,347.34627
1,Barra do Quaraí/RS,-30.208947,-57.5505128,407,9628.57819
D1,Barra do Quaraí/RS,-30.208947,-57.5505128,6,141.94464
1,Barra do Ribeiro/RS,-30.2930206,-51.301437,1027,7575.98112
D1,Barra do Ribeiro/RS,-30.2930206,-51.301437,47,346.70994
1,Barra do Rio Azul/RS,-27.4101581,-52.4117471,101,6102.71903
D1,Barra do Rio Azul/RS,-27.4101581,-52.4117471,1,60.42296
1,Barra do Rocha/BA,-14.2090974,-39.6004395,407,7252.31646
D1,Barra do Rocha/BA,-14.2090974,-39.6004395,7,124.73272
1,Barra do Turvo/SP,-24.756421,-48.5056942,565,7403.03983
D1,Barra do Turvo/SP,-24.756421,-48.5056942,18,235.84906
1,Barra dos Coqueiros/SE,-10.9075694,-37.0386249,6785,21936.63110
D1,Barra dos Coqueiros/SE,-10.9075694,-37.0386249,89,287.74652
1,Barra/BA,-11.0892702,-43.1420453,2088,3873.12187
D1,Barra/BA,-11.0892702,-43.1420453,44,81.61751
1,Barracão/PR,-26.252395,-53.6349576,1285,12461.21024
D1,Barracão/PR,-26.252395,-53.6349576,34,329.71296
1,Barracão/RS,-27.6728964,-51.4582928,439,8352.35921
D1,Barracão/RS,-27.6728964,-51.4582928,16,304.41400
1,Barras/PI,-4.2446153,-42.2920241,4815,10204.51415
D1,Barras/PI,-4.2446153,-42.2920241,89,188.61926
1,Barreira/CE,-4.2883361,-38.641094,1464,6485.62442
D1,Barreira/CE,-4.2883361,-38.641094,39,172.77278
1,Barreiras do Piauí/PI,-9.9224524,-45.4763776,76,2267.30310
D1,Barreiras do Piauí/PI,-9.9224524,-45.4763776,1,29.83294
1,Barreiras/BA,-12.1440031,-44.9967406,18086,11521.57987
D1,Barreiras/BA,-12.1440031,-44.9967406,293,186.65393
1,Barreirinha/AM,-2.798863,-57.067897,2415,7434.65813
D1,Barreirinha/AM,-2.798863,-57.067897,62,190.86907
1,Barreirinhas/MA,-2.7541271,-42.8259693,2163,3421.54800
D1,Barreirinhas/MA,-2.7541271,-42.8259693,39,61.69227
1,Barreiros/PE,-8.8159644,-35.1831905,766,1791.22627
D1,Barreiros/PE,-8.8159644,-35.1831905,59,137.96651
1,Barretos/SP,-20.5531437,-48.5697509,14617,11899.89661
D1,Barretos/SP,-20.5531437,-48.5697509,438,356.58170
1,Barrinha/SP,-21.1898849,-48.1550642,1550,4671.48885
D1,Barrinha/SP,-21.1898849,-48.1550642,61,183.84569
1,Barro Alto/BA,-11.7618025,-41.9094904,880,5845.62243
D1,Barro Alto/BA,-11.7618025,-41.9094904,13,86.35579
1,Barro Alto/GO,-14.9696025,-48.9190985,1287,11281.55680
D1,Barro Alto/GO,-14.9696025,-48.9190985,17,149.01823
1,Barro Duro/PI,-5.8180139,-42.5106589,686,9762.34524
D1,Barro Duro/PI,-5.8180139,-42.5106589,11,156.53906
1,Barro Preto/BA,-14.8068289,-39.4727588,584,10719.53010
D1,Barro Preto/BA,-14.8068289,-39.4727588,10,183.55360
1,Barro/CE,-7.1713587,-38.7742136,1672,7346.86704
D1,Barro/CE,-7.1713587,-38.7742136,36,158.18613
1,Barrocas/BA,-11.5165,-39.099282894736845,755,4687.98510
D1,Barrocas/BA,-11.5165,-39.099282894736845,23,142.81279
1,Barrolândia/TO,-9.837246,-48.7264346,750,13271.98726
D1,Barrolândia/TO,-9.837246,-48.7264346,20,353.91966
1,Barroquinha/CE,-3.0200371,-41.1339229,1198,7963.30763
D1,Barroquinha/CE,-3.0200371,-41.1339229,25,166.17921
1,Barros Cassal/RS,-29.094938,-52.5832366,713,6376.31908
D1,Barros Cassal/RS,-29.094938,-52.5832366,12,107.31533
1,Barroso/MG,-21.187222,-43.976111,1862,8910.36991
D1,Barroso/MG,-21.187222,-43.976111,49,234.48342
1,Barueri/SP,-23.5112184,-46.8764612,28593,10323.05348
D1,Barueri/SP,-23.5112184,-46.8764612,1021,368.61601
1,Barão de Antonina/SP,-23.6295651,-49.5632104,398,11377.93025
D1,Barão de Antonina/SP,-23.6295651,-49.5632104,8,228.70212
1,Barão de Cocais/MG,-19.9452437,-43.4870298,3602,10959.65435
D1,Barão de Cocais/MG,-19.9452437,-43.4870298,64,194.73012
1,Barão de Cotegipe/RS,-27.6214694,-52.3765316,719,10861.02719
D1,Barão de Cotegipe/RS,-27.6214694,-52.3765316,8,120.84592
1,Barão de Grajaú/MA,-6.7542591,-43.0263477,449,2372.64849
D1,Barão de Grajaú/MA,-6.7542591,-43.0263477,2,10.56859
1,Barão de Melgaço/MT,-16.195776,-55.9668049,360,4409.60314
D1,Barão de Melgaço/MT,-16.195776,-55.9668049,14,171.48457
1,Barão de Monte Alto/MG,-21.244722,-42.2375,326,6088.90549
D1,Barão de Monte Alto/MG,-21.244722,-42.2375,12,224.13149
1,Barão do Triunfo/RS,-30.3909877,-51.7375349,450,5984.83841
D1,Barão do Triunfo/RS,-30.3909877,-51.7375349,6,79.79785
1,Barão/RS,-29.372474,-51.494908,602,9706.54628
D1,Barão/RS,-29.372474,-51.494908,9,145.11448
1,Bastos/SP,-21.9222474,-50.7317727,1299,6199.58956
D1,Bastos/SP,-21.9222474,-50.7317727,35,167.04052
1,Bataguassu/MS,-21.715899,-52.422058,3167,13577.70632
D1,Bataguassu/MS,-21.715899,-52.422058,38,162.91533
1,Batalha/AL,-9.6733809,-37.1265481,1100,5998.47312
D1,Batalha/AL,-9.6733809,-37.1265481,17,92.70368
1,Batalha/PI,-4.022391,-42.0780926,1086,4036.42446
D1,Batalha/PI,-4.022391,-42.0780926,32,118.93700
1,Batatais/SP,-20.892867,-47.592149,3146,4995.23658
D1,Batatais/SP,-20.892867,-47.592149,148,234.99524
1,Batayporã/MS,-22.2976466,-53.2685608,1021,8996.38735
D1,Batayporã/MS,-22.2976466,-53.2685608,19,167.41563
1,Baturité/CE,-4.3290203,-38.8821055,4017,11176.65062
D1,Baturité/CE,-4.3290203,-38.8821055,76,211.45767
1,Bauru/SP,-22.3218102,-49.0705863,45112,11893.58207
D1,Bauru/SP,-22.3218102,-49.0705863,1037,273.40053
1,Bayeux/PB,-7.1301631,-34.936532,7123,7327.96313
D1,Bayeux/PB,-7.1301631,-34.936532,231,237.64699
1,Baía Formosa/RN,-6.3691885,-35.0063741,1269,13612.95859
D1,Baía Formosa/RN,-6.3691885,-35.0063741,8,85.81849
1,Baía da Traição/PB,-6.691258,-34.9371244,1290,14182.05805
D1,Baía da Traição/PB,-6.691258,-34.9371244,12,131.92612
1,Bebedouro/SP,-20.949077,-48.479083,3702,4773.38663
D1,Bebedouro/SP,-20.949077,-48.479083,145,186.96409
1,Beberibe/CE,-4.1810469,-38.1298101,4782,8863.92704
D1,Beberibe/CE,-4.1810469,-38.1298101,99,183.50665
1,Bela Cruz/CE,-3.0529129,-40.167582,3373,10308.04963
D1,Bela Cruz/CE,-3.0529129,-40.167582,69,210.86731
1,Bela Vista da Caroba/PR,-25.8792818,-53.6672545,179,5177.89991
D1,Bela Vista da Caroba/PR,-25.8792818,-53.6672545,6,173.56089
1,Bela Vista de Goiás/GO,-16.9692949,-48.9513071,2484,8146.39906
D1,Bela Vista de Goiás/GO,-16.9692949,-48.9513071,65,213.17067
1,Bela Vista de Minas/MG,-19.8289721,-43.0973688,794,7737.28318
D1,Bela Vista de Minas/MG,-19.8289721,-43.0973688,22,214.38316
1,Bela Vista do Maranhão/MA,-3.7416367,-45.2514192,218,1932.79546
D1,Bela Vista do Maranhão/MA,-3.7416367,-45.2514192,3,26.59810
1,Bela Vista do Paraíso/PR,-22.9948493,-51.1907996,1876,12182.60926
D1,Bela Vista do Paraíso/PR,-22.9948493,-51.1907996,60,389.63569
1,Bela Vista do Piauí/PI,-7.9716353,-41.8715061,262,6501.24069
D1,Bela Vista do Piauí/PI,-7.9716353,-41.8715061,6,148.88337
1,Bela Vista do Toldo/SC,-26.274625,-50.466354,79,1241.74788
D1,Bela Vista do Toldo/SC,-26.274625,-50.466354,3,47.15498
1,Bela Vista/MS,-22.107327,-56.5317344,981,3966.04002
D1,Bela Vista/MS,-22.107327,-56.5317344,29,117.24277
1,Belford Roxo/RJ,-22.7667284,-43.4033603,20449,3985.24316
D1,Belford Roxo/RJ,-22.7667284,-43.4033603,697,135.83620
1,Belmiro Braga/MG,-21.9486291,-43.413564,199,5810.21898
D1,Belmiro Braga/MG,-21.9486291,-43.413564,3,87.59124
1,Belmonte/BA,-15.8630837,-38.8792845,1092,4659.29940
D1,Belmonte/BA,-15.8630837,-38.8792845,23,98.13543
1,Belmonte/SC,-26.8448262,-53.578916,261,9634.55150
D1,Belmonte/SC,-26.8448262,-53.578916,5,184.56995
1,Belo Campo/BA,-15.0338286,-41.2585109,876,5120.11222
D1,Belo Campo/BA,-15.0338286,-41.2585109,14,81.82828
1,Belo Horizonte/MG,-19.9227318,-43.9450948,232048,9202.54255
D1,Belo Horizonte/MG,-19.9227318,-43.9450948,5626,223.11549
1,Belo Jardim/PE,-8.3338293,-36.4176419,3763,4906.95946
D1,Belo Jardim/PE,-8.3338293,-36.4176419,116,151.26423
1,Belo Monte/AL,-9.8269944,-37.2787165,425,6333.83010
D1,Belo Monte/AL,-9.8269944,-37.2787165,9,134.12817
1,Belo Oriente/MG,-19.2232523,-42.4807033,2566,9505.81611
D1,Belo Oriente/MG,-19.2232523,-42.4807033,61,225.97614
1,Belo Vale/MG,-20.407778,-44.024167,866,11219.06983
D1,Belo Vale/MG,-20.407778,-44.024167,10,129.55046
1,Belterra/PA,-2.636091,-54.937392,1454,8150.68109
D1,Belterra/PA,-2.636091,-54.937392,26,145.74808
1,Belágua/MA,-3.1604031,-43.5085052,410,5446.33369
D1,Belágua/MA,-3.1604031,-43.5085052,18,239.10733
1,Belém de Maria/PE,-8.6242497,-35.8388934,250,2062.36595
D1,Belém de Maria/PE,-8.6242497,-35.8388934,6,49.49678
1,Belém do Brejo do Cruz/PB,-6.1880727,-37.5332267,508,6912.50510
D1,Belém do Brejo do Cruz/PB,-6.1880727,-37.5332267,5,68.03647
1,Belém do Piauí/PI,-7.3767305,-40.9712156,456,12712.57318
D1,Belém do Piauí/PI,-7.3767305,-40.9712156,7,195.14915
1,Belém do São Francisco/PE,-8.7517707,-38.9625715,825,3979.73951
D1,Belém do São Francisco/PE,-8.7517707,-38.9625715,10,48.23927
1,Belém/AL,-9.5715351,-36.492841,118,2754.43511
D1,Belém/AL,-9.5715351,-36.492841,4,93.37068
1,Belém/PA,-1.45056,-48.4682453,102458,6832.16850
D1,Belém/PA,-1.45056,-48.4682453,4911,327.47838
1,Belém/PB,-6.6967586,-35.5369626,2117,11957.07427
D1,Belém/PB,-6.6967586,-35.5369626,44,248.51737
1,Beneditinos/PI,-5.4565671,-42.3605061,1218,11629.90547
D1,Beneditinos/PI,-5.4565671,-42.3605061,38,362.83777
1,Benedito Leite/MA,-7.2173453,-44.5523331,309,5480.66690
D1,Benedito Leite/MA,-7.2173453,-44.5523331,2,35.47357
1,Benedito Novo/SC,-26.7840657,-49.3629511,1008,8560.50955
D1,Benedito Novo/SC,-26.7840657,-49.3629511,18,152.86624
1,Benevides/PA,-1.3555577,-48.252235,3858,6050.05645
D1,Benevides/PA,-1.3555577,-48.252235,101,158.38665
1,Benjamin Constant do Sul/RS,-27.5105555,-52.6007689,167,8529.11134
1,Benjamin Constant/AM,-4.3782748,-70.0290603,2694,6131.78559
D1,Benjamin Constant/AM,-4.3782748,-70.0290603,87,198.01980
1,Bento Fernandes/RN,-5.6926846,-35.8207423,291,5266.96833
D1,Bento Fernandes/RN,-5.6926846,-35.8207423,3,54.29864
1,Bento Gonçalves/RS,-29.1654014,-51.5197627,17661,14499.64287
D1,Bento Gonçalves/RS,-29.1654014,-51.5197627,315,258.61432
1,Bento de Abreu/SP,-21.2707225,-50.8120444,314,10449.25125
D1,Bento de Abreu/SP,-21.2707225,-50.8120444,2,66.55574
1,Bequimão/MA,-2.4495376,-44.7884889,278,1305.22560
D1,Bequimão/MA,-2.4495376,-44.7884889,20,93.90112
1,Berilo/MG,-16.9515764,-42.4643732,152,1280.32345
D1,Berilo/MG,-16.9515764,-42.4643732,1,8.42318
1,Berizal/MG,-15.6118785,-41.7417382,191,4009.23594
D1,Berizal/MG,-15.6118785,-41.7417382,1,20.99076
1,Bernardino Batista/PB,-6.4532173,-38.5495418,270,7635.74661
1,Bernardino de Campos/SP,-23.0140216,-49.4760724,719,6443.80713
D1,Bernardino de Campos/SP,-23.0140216,-49.4760724,18,161.31923
1,Bernardo Sayão/TO,-7.8794244,-48.8968905,614,13803.95683
D1,Bernardo Sayão/TO,-7.8794244,-48.8968905,11,247.30216
1,Bernardo do Mearim/MA,-4.6315929,-44.7617508,292,4808.16730
D1,Bernardo do Mearim/MA,-4.6315929,-44.7617508,6,98.79796
1,Bertioga/SP,-23.848568,-46.139586,5436,8398.86903
D1,Bertioga/SP,-23.848568,-46.139586,148,228.66678
1,Bertolínia/PI,-7.6372159,-43.9540611,852,15471.21845
D1,Bertolínia/PI,-7.6372159,-43.9540611,10,181.58707
1,Bertópolis/MG,-17.063333,-40.573889,368,7987.84458
D1,Bertópolis/MG,-17.063333,-40.573889,1,21.70610
1,Beruri/AM,-3.9007135,-61.3717319,2226,11078.48504
D1,Beruri/AM,-3.9007135,-61.3717319,33,164.23630
1,Betim/MG,-19.968056,-44.198333,29296,6586.56786
D1,Betim/MG,-19.968056,-44.198333,1195,268.66974
1,Betânia do Piauí/PI,-8.1460635,-40.7961387,158,2544.28341
D1,Betânia do Piauí/PI,-8.1460635,-40.7961387,2,32.20612
1,Betânia/PE,-8.2742779,-38.0351767,486,3807.28555
D1,Betânia/PE,-8.2742779,-38.0351767,14,109.67489
1,Bezerros/PE,-8.2372132,-35.7558262,3763,6181.01183
D1,Bezerros/PE,-8.2372132,-35.7558262,114,187.25361
1,Bias Fortes/MG,-21.605833,-43.756944,111,3334.33464
D1,Bias Fortes/MG,-21.605833,-43.756944,3,90.11715
1,Bicas/MG,-21.7213723,-43.0604327,1377,9461.31648
D1,Bicas/MG,-21.7213723,-43.0604327,43,295.45142
1,Biguaçu/SC,-27.4961277,-48.6542432,10877,15653.51294
D1,Biguaçu/SC,-27.4961277,-48.6542432,162,233.14049
1,Bilac/SP,-21.403962,-50.47464,845,10410.25009
D1,Bilac/SP,-21.403962,-50.47464,13,160.15769
1,Biquinhas/MG,-18.783611,-45.502222,119,4763.81105
D1,Biquinhas/MG,-18.783611,-45.502222,1,40.03203
1,Birigui/SP,-21.2908491,-50.34144,14594,11686.13823
D1,Birigui/SP,-21.2908491,-50.34144,492,393.96875
1,Biritiba Mirim/SP,-23.5697765,-46.0407456,1373,4168.69079
D1,Biritiba Mirim/SP,-23.5697765,-46.0407456,86,261.11246
1,Biritinga/BA,-11.6227908,-38.8066738,498,3115.61562
D1,Biritinga/BA,-11.6227908,-38.8066738,7,43.79379
1,Bituruna/PR,-26.161281,-51.5533319,1167,7115.85366
D1,Bituruna/PR,-26.161281,-51.5533319,16,97.56098
1,Blumenau/SC,-26.9195567,-49.0658025,50475,13948.95746
D1,Blumenau/SC,-26.9195567,-49.0658025,556,153.65271
1,Boa Esperança do Iguaçu/PR,-25.6362851,-53.2139114,159,6437.24696
1,Boa Esperança do Sul/SP,-21.9930206,-48.3917372,1096,7297.90918
D1,Boa Esperança do Sul/SP,-21.9930206,-48.3917372,17,113.19750
1,Boa Esperança/ES,-18.5395472,-40.2904088,1560,10336.60217
D1,Boa Esperança/ES,-18.5395472,-40.2904088,40,265.04108
1,Boa Esperança/MG,-21.0901253,-45.5660195,4134,10278.72399
D1,Boa Esperança/MG,-21.0901253,-45.5660195,111,275.98896
1,Boa Esperança/PR,-24.2411024,-52.7860277,398,9834.44527
D1,Boa Esperança/PR,-24.2411024,-52.7860277,15,370.64492
1,Boa Hora/PI,-4.4094627,-42.1255341,550,8070.43287
D1,Boa Hora/PI,-4.4094627,-42.1255341,6,88.04109
1,Boa Nova/BA,-14.365907,-40.2063056,899,7291.75116
D1,Boa Nova/BA,-14.365907,-40.2063056,17,137.88628
1,Boa Ventura de São Roque/PR,-24.88177,-51.5441292,449,7054.20267
D1,Boa Ventura de São Roque/PR,-24.88177,-51.5441292,5,78.55460
1,Boa Ventura/PB,-7.4202462,-38.2156782,444,8366.30865
D1,Boa Ventura/PB,-7.4202462,-38.2156782,8,150.74430
1,Boa Viagem/CE,-5.1261877,-39.7300055,3871,7092.73137
D1,Boa Viagem/CE,-5.1261877,-39.7300055,97,177.73055
1,Boa Vista da Aparecida/PR,-25.4357216,-53.4067721,895,11870.02653
D1,Boa Vista da Aparecida/PR,-25.4357216,-53.4067721,26,344.82759
1,Boa Vista das Missões/RS,-27.6677983,-53.3127622,216,10325.04780
D1,Boa Vista das Missões/RS,-27.6677983,-53.3127622,5,239.00574
1,Boa Vista do Buricá/RS,-27.6687782,-54.1111913,835,12440.40524
D1,Boa Vista do Buricá/RS,-27.6687782,-54.1111913,9,134.08820
1,Boa Vista do Cadeado/RS,-28.5783827,-53.8123759,185,7495.94814
D1,Boa Vista do Cadeado/RS,-28.5783827,-53.8123759,2,81.03728
1,Boa Vista do Gurupi/MA,-1.7981168,-46.3071882,15,178.95490
D1,Boa Vista do Gurupi/MA,-1.7981168,-46.3071882,4,47.72131
1,Boa Vista do Incra/RS,-28.8195551,-53.3866624,291,11123.85321
D1,Boa Vista do Incra/RS,-28.8195551,-53.3866624,4,152.90520
1,Boa Vista do Ramos/AM,-2.9716927,-57.5869819,956,4871.08937
D1,Boa Vista do Ramos/AM,-2.9716927,-57.5869819,11,56.04810
1,Boa Vista do Sul/RS,-29.3510488,-51.6779679,299,10763.13895
D1,Boa Vista do Sul/RS,-29.3510488,-51.6779679,3,107.99136
1,Boa Vista do Tupim/BA,-12.6605988,-40.6083594,259,1397.65798
D1,Boa Vista do Tupim/BA,-12.6605988,-40.6083594,8,43.17090
1,Boa Vista/PB,-7.2620711,-36.2415161,748,10482.06278
D1,Boa Vista/PB,-7.2620711,-36.2415161,13,182.17489
1,Boa Vista/RR,2.8208478,-60.6719582,85188,20299.67688
D1,Boa Vista/RR,2.8208478,-60.6719582,1330,316.92927
1,Boca da Mata/AL,-9.6452054,-36.2116658,1802,6587.22035
D1,Boca da Mata/AL,-9.6452054,-36.2116658,43,157.18672
1,Boca do Acre/AM,-8.7553487,-67.3930873,2621,7567.48953
D1,Boca do Acre/AM,-8.7553487,-67.3930873,26,75.06857
1,Bocaina de Minas/MG,-22.167778,-44.394722,177,3478.09000
D1,Bocaina de Minas/MG,-22.167778,-44.394722,7,137.55158
1,Bocaina do Sul/SC,-27.745494,-49.942279,374,10722.47706
D1,Bocaina do Sul/SC,-27.745494,-49.942279,3,86.00917
1,Bocaina/PI,-6.9445939,-41.3224599,271,6015.53829
D1,Bocaina/PI,-6.9445939,-41.3224599,4,88.79023
1,Bocaina/SP,-22.1421831,-48.522276,1228,9861.86958
D1,Bocaina/SP,-22.1421831,-48.522276,30,240.92515
1,Bocaiúva do Sul/PR,-25.206591,-49.114131,1814,13816.74156
D1,Bocaiúva do Sul/PR,-25.206591,-49.114131,15,114.25089
1,Bocaiúva/MG,-17.1160208,-43.8122678,2253,4483.04680
D1,Bocaiúva/MG,-17.1160208,-43.8122678,60,119.38873
1,Bodocó/PE,-7.777592,-39.933797,1910,4976.80963
D1,Bodocó/PE,-7.777592,-39.933797,30,78.16978
1,Bodoquena/MS,-20.5508775,-56.6769653,501,6391.93672
D1,Bodoquena/MS,-20.5508775,-56.6769653,14,178.61699
1,Bodó/RN,-5.9866104,-36.4134824,176,8010.92399
1,Bofete/SP,-23.1019554,-48.2610535,730,6123.64735
D1,Bofete/SP,-23.1019554,-48.2610535,13,109.05125
1,Boituva/SP,-23.2838893,-47.6738231,5699,9166.80071
D1,Boituva/SP,-23.2838893,-47.6738231,160,257.35885
1,Bom Conselho/PE,-9.169191,-36.685683,1888,3871.47046
D1,Bom Conselho/PE,-9.169191,-36.685683,62,127.13515
1,Bom Despacho/MG,-19.7375242,-45.2517288,4287,8401.26989
D1,Bom Despacho/MG,-19.7375242,-45.2517288,76,148.93784
1,Bom Jardim da Serra/SC,-28.3380324,-49.625588,596,12489.52221
D1,Bom Jardim da Serra/SC,-28.3380324,-49.625588,4,83.82230
1,Bom Jardim de Goiás/GO,-16.2062659,-52.172793,803,9054.00834
D1,Bom Jardim de Goiás/GO,-16.2062659,-52.172793,15,169.12842
1,Bom Jardim de Minas/MG,-21.9476466,-44.1906033,461,7137.32776
D1,Bom Jardim de Minas/MG,-21.9476466,-44.1906033,3,46.44682
1,Bom Jardim/MA,-3.54129,-45.606004,1398,3342.73827
D1,Bom Jardim/MA,-3.54129,-45.606004,47,112.38104
1,Bom Jardim/PE,-7.7961572,-35.5871696,1625,4064.22730
D1,Bom Jardim/PE,-7.7961572,-35.5871696,69,172.57334
1,Bom Jardim/RJ,-22.1515328,-42.4186683,1614,5844.43801
D1,Bom Jardim/RJ,-22.1515328,-42.4186683,44,159.32793
1,Bom Jesus da Lapa/BA,-13.250571,-43.410754,5499,7893.83021
D1,Bom Jesus da Lapa/BA,-13.250571,-43.410754,75,107.66271
1,Bom Jesus da Penha/MG,-21.0165299,-46.5226644,638,15032.98775
D1,Bom Jesus da Penha/MG,-21.0165299,-46.5226644,14,329.87747
1,Bom Jesus da Serra/BA,-14.3724084,-40.5047119,435,4428.38237
D1,Bom Jesus da Serra/BA,-14.3724084,-40.5047119,9,91.62170
1,Bom Jesus das Selvas/MA,-4.4878075,-46.8526639,3198,9251.59835
D1,Bom Jesus das Selvas/MA,-4.4878075,-46.8526639,24,69.43038
1,Bom Jesus de Goiás/GO,-18.2174587,-49.739721,2751,10725.98253
D1,Bom Jesus de Goiás/GO,-18.2174587,-49.739721,105,409.38865
1,Bom Jesus do Amparo/MG,-19.7045132,-43.4752911,233,3799.11952
D1,Bom Jesus do Amparo/MG,-19.7045132,-43.4752911,6,97.83140
1,Bom Jesus do Araguaia/MT,-12.1725897,-51.5074425,1022,15240.08351
D1,Bom Jesus do Araguaia/MT,-12.1725897,-51.5074425,16,238.59231
1,Bom Jesus do Galho/MG,-19.8283191,-42.3162256,645,4339.92733
D1,Bom Jesus do Galho/MG,-19.8283191,-42.3162256,29,195.12852
1,Bom Jesus do Itabapoana/RJ,-21.1341025,-41.680095,3319,8921.32355
D1,Bom Jesus do Itabapoana/RJ,-21.1341025,-41.680095,84,225.78824
1,Bom Jesus do Norte/ES,-21.1254776,-41.6711646,1052,10560.12849
D1,Bom Jesus do Norte/ES,-21.1254776,-41.6711646,26,260.99177
1,Bom Jesus do Oeste/SC,-26.6929713,-53.0967453,182,8508.64890
D1,Bom Jesus do Oeste/SC,-26.6929713,-53.0967453,6,280.50491
1,Bom Jesus do Sul/PR,-26.1922507,-53.6002033,468,13348.54535
D1,Bom Jesus do Sul/PR,-26.1922507,-53.6002033,5,142.61266
1,Bom Jesus do Tocantins/PA,-5.0471796,-48.5978362,761,4445.61281
D1,Bom Jesus do Tocantins/PA,-5.0471796,-48.5978362,25,146.04510
1,Bom Jesus do Tocantins/TO,-8.96306,-48.165043,135,2695.68690
D1,Bom Jesus do Tocantins/TO,-8.96306,-48.165043,3,59.90415
1,Bom Jesus dos Perdões/SP,-23.1353864,-46.4648052,1976,7604.38715
D1,Bom Jesus dos Perdões/SP,-23.1353864,-46.4648052,23,88.51260
1,Bom Jesus/PB,-6.8156725,-38.6551841,160,6213.59223
D1,Bom Jesus/PB,-6.8156725,-38.6551841,3,116.50485
1,Bom Jesus/PI,-9.0711644,-44.3583926,3443,13562.05932
D1,Bom Jesus/PI,-9.0711644,-44.3583926,37,145.74388
1,Bom Jesus/RN,-5.9887544,-35.5821149,833,8113.37294
D1,Bom Jesus/RN,-5.9887544,-35.5821149,15,146.09915
1,Bom Jesus/RS,-28.6692723,-50.4346894,868,7675.30286
D1,Bom Jesus/RS,-28.6692723,-50.4346894,20,176.85030
1,Bom Jesus/SC,-26.7350604,-52.3916519,426,13935.23062
D1,Bom Jesus/SC,-26.7350604,-52.3916519,7,228.98266
1,Bom Lugar/MA,-4.3728019,-45.0366054,473,2877.47901
D1,Bom Lugar/MA,-4.3728019,-45.0366054,7,42.58426
1,Bom Princípio do Piauí/PI,-3.1912777,-41.6430185,130,2300.47779
D1,Bom Princípio do Piauí/PI,-3.1912777,-41.6430185,13,230.04778
1,Bom Princípio/RS,-29.489788,-51.3566782,1897,13307.61136
D1,Bom Princípio/RS,-29.489788,-51.3566782,27,189.40723
1,Bom Progresso/RS,-27.5490948,-53.8655601,137,7214.32333
D1,Bom Progresso/RS,-27.5490948,-53.8655601,3,157.97788
1,Bom Repouso/MG,-22.4657069,-46.1485376,950,9015.84891
D1,Bom Repouso/MG,-22.4657069,-46.1485376,19,180.31698
1,Bom Retiro do Sul/RS,-29.6000007,-51.9359243,1005,8111.38015
D1,Bom Retiro do Sul/RS,-29.6000007,-51.9359243,28,225.98870
1,Bom Retiro/SC,-27.798993,-49.486994,771,7664.01590
D1,Bom Retiro/SC,-27.798993,-49.486994,16,159.04573
1,Bom Sucesso de Itararé/SP,-24.3190016,-49.1446207,171,4292.16867
D1,Bom Sucesso de Itararé/SP,-24.3190016,-49.1446207,5,125.50201
1,Bom Sucesso do Sul/PR,-26.0749256,-52.8348629,479,14720.34419
D1,Bom Sucesso do Sul/PR,-26.0749256,-52.8348629,7,215.11985
1,Bom Sucesso/MG,-21.0323516,-44.7598082,1034,5872.66428
D1,Bom Sucesso/MG,-21.0323516,-44.7598082,13,73.83427
1,Bom Sucesso/PB,-6.4458948,-37.9297662,445,8979.01533
D1,Bom Sucesso/PB,-6.4458948,-37.9297662,4,80.71025
1,Bom Sucesso/PR,-23.7088019,-51.7651297,1082,15308.43237
D1,Bom Sucesso/PR,-23.7088019,-51.7651297,16,226.37238
1,Bombinhas/SC,-27.1519159,-48.4875691,3412,16778.95254
D1,Bombinhas/SC,-27.1519159,-48.4875691,56,275.38726
1,Bonfim do Piauí/PI,-9.1648678,-42.8734415,368,6473.17502
D1,Bonfim do Piauí/PI,-9.1648678,-42.8734415,7,123.13105
1,Bonfim/MG,-20.3266626, -44.2386157,397,5787.17201
D1,Bonfim/MG,-20.3266626, -44.2386157,13,189.50437
1,Bonfim/RR,3.3613818,-59.8427241,2262,18013.85681
D1,Bonfim/RR,3.3613818,-59.8427241,26,207.05583
1,Bonfinópolis de Minas/MG,-16.5660011,-45.98645,474,8706.83321
D1,Bonfinópolis de Minas/MG,-16.5660011,-45.98645,12,220.42616
1,Bonfinópolis/GO,-16.6172709,-48.9615701,454,4577.07430
D1,Bonfinópolis/GO,-16.6172709,-48.9615701,21,211.71489
1,Boninal/BA,-12.7095183,-41.8299984,613,4243.38917
D1,Boninal/BA,-12.7095183,-41.8299984,7,48.45632
1,Bonito de Minas/MG,-15.3191266,-44.7544,70,615.70939
1,Bonito de Santa Fé/PB,-7.3143332,-38.5146677,452,3759.77375
D1,Bonito de Santa Fé/PB,-7.3143332,-38.5146677,11,91.49892
1,Bonito/BA,-11.9665473,-41.2649896,857,5075.81142
D1,Bonito/BA,-11.9665473,-41.2649896,12,71.07321
1,Bonito/MS,-21.1264766,-56.4902208,2943,13262.73096
D1,Bonito/MS,-21.1264766,-56.4902208,62,279.40514
1,Bonito/PA,-1.3605722,-47.3049907,386,2335.14822
D1,Bonito/PA,-1.3605722,-47.3049907,13,78.64489
1,Bonito/PE,-8.4721161,-35.7314591,941,2468.71475
D1,Bonito/PE,-8.4721161,-35.7314591,40,104.94005
1,Bonópolis/GO,-13.649331,-49.8329113,177,3939.46138
D1,Bonópolis/GO,-13.649331,-49.8329113,1,22.25684
1,Boqueirão do Leão/RS,-29.30332,-52.4296817,568,7374.70787
D1,Boqueirão do Leão/RS,-29.30332,-52.4296817,31,402.49286
1,Boqueirão do Piauí/PI,-4.4850148,-42.1095161,674,10488.63990
D1,Boqueirão do Piauí/PI,-4.4850148,-42.1095161,10,155.61780
1,Boqueirão/PB,-7.487004,-36.130887,1817,10167.87913
D1,Boqueirão/PB,-7.487004,-36.130887,36,201.45495
1,Boquim/SE,-11.1450175,-37.6204228,2568,9546.82330
D1,Boquim/SE,-11.1450175,-37.6204228,63,234.20945
1,Boquira/BA,-12.8184859,-42.7270883,633,2944.59692
D1,Boquira/BA,-12.8184859,-42.7270883,12,55.82174
1,Boracéia/SP,-22.195355,-48.7801925,901,18508.62777
D1,Boracéia/SP,-22.195355,-48.7801925,22,451.93098
1,Borba/AM,-4.3934778,-59.5947721,2183,5228.99301
D1,Borba/AM,-4.3934778,-59.5947721,64,153.30076
1,Borborema/PB,-6.8066718,-35.5990191,385,7282.01248
D1,Borborema/PB,-6.8066718,-35.5990191,13,245.88614
1,Borborema/SP,-21.6212706,-49.074135,1531,9471.66543
D1,Borborema/SP,-21.6212706,-49.074135,46,284.58302
1,Borda da Mata/MG,-22.274167,-46.165278,1551,7907.61701
D1,Borda da Mata/MG,-22.274167,-46.165278,44,224.32956
1,Borebi/SP,-22.5700178,-48.9714871,243,9057.02572
D1,Borebi/SP,-22.5700178,-48.9714871,3,111.81513
1,Borrazópolis/PR,-23.9393362,-51.5850786,806,12517.47166
D1,Borrazópolis/PR,-23.9393362,-51.5850786,23,357.19832
1,Borá/SP,-22.2701088,-50.544407,109,13007.15990
D1,Borá/SP,-22.2701088,-50.544407,1,119.33174
1,Bossoroca/RS,-28.7278885,-54.9120278,398,6414.18211
D1,Bossoroca/RS,-28.7278885,-54.9120278,22,354.55278
1,Botelhos/MG,-21.65,-46.394722,1678,11224.83109
D1,Botelhos/MG,-21.65,-46.394722,21,140.47762
1,Botucatu/SP,-22.8879628,-48.4410712,13433,9068.38588
D1,Botucatu/SP,-22.8879628,-48.4410712,265,178.89691
1,Botumirim/MG,-16.862778,-43.011111,229,3641.85751
D1,Botumirim/MG,-16.862778,-43.011111,4,63.61323
1,Botuporã/BA,-13.3744752,-42.5198469,208,2053.50972
D1,Botuporã/BA,-13.3744752,-42.5198469,3,29.61793
1,Botuverá/SC,-27.200749,-49.068892,894,16798.19617
D1,Botuverá/SC,-27.200749,-49.068892,8,150.31943
1,Bozano/RS,-28.3669953,-53.7705165,243,11511.13216
D1,Bozano/RS,-28.3669953,-53.7705165,7,331.59640
1,Braga/RS,-27.617348,-53.740514,340,10268.80097
D1,Braga/RS,-27.617348,-53.740514,9,271.82120
1,Braganey/PR,-24.8179919,-53.118506,461,8565.58900
D1,Braganey/PR,-24.8179919,-53.118506,7,130.06317
1,Bragança Paulista/SP,-22.9520235,-46.5418586,16734,9812.76351
D1,Bragança Paulista/SP,-22.9520235,-46.5418586,456,267.39693
1,Bragança/PA,-1.0573967,-46.7635406,4107,3185.84483
D1,Bragança/PA,-1.0573967,-46.7635406,143,110.92666
1,Branquinha/AL,-9.2478057,-36.0152009,526,5028.68069
D1,Branquinha/AL,-9.2478057,-36.0152009,9,86.04207
1,Brasil Novo/PA,-3.3055853,-52.539198,1866,12454.11466
D1,Brasil Novo/PA,-3.3055853,-52.539198,42,280.31769
1,Brasileira/PI,-4.131182,-41.7824969,587,7032.46675
D1,Brasileira/PI,-4.131182,-41.7824969,15,179.70528
1,Brasilândia de Minas/MG,-17.0096469,-46.0087183,1218,7272.51015
D1,Brasilândia de Minas/MG,-17.0096469,-46.0087183,18,107.47552
1,Brasilândia do Sul/PR,-24.1975793,-53.527551,384,14854.93230
D1,Brasilândia do Sul/PR,-24.1975793,-53.527551,9,348.16248
1,Brasilândia do Tocantins/TO,-8.3886619,-48.4842729,240,10854.81682
D1,Brasilândia do Tocantins/TO,-8.3886619,-48.4842729,5,226.14202
1,Brasilândia/MS,-21.255575,-52.0365617,1148,9685.31174
D1,Brasilândia/MS,-21.255575,-52.0365617,20,168.73365
1,Brasiléia/AC,-11.0010413,-68.7487894,2876,10770.72878
D1,Brasiléia/AC,-11.0010413,-68.7487894,38,142.31144
1,Brasnorte/MT,-12.1227151,-58.0050109,1950,9682.22443
D1,Brasnorte/MT,-12.1227151,-58.0050109,35,173.78352
1,Brasília de Minas/MG,-16.2075114,-44.430559,1055,3255.67042
D1,Brasília de Minas/MG,-16.2075114,-44.430559,8,24.68755
1,Brasília/DF,-15.7934036,-47.8823172,426646,13964.81808
D1,Brasília/DF,-15.7934036,-47.8823172,9172,300.21449
1,Brazabrantes/GO,-16.4291635,-49.3858216,455,12146.28938
D1,Brazabrantes/GO,-16.4291635,-49.3858216,3,80.08542
1,Brazópolis/MG,-22.4742842,-45.6165577,797,5530.88133
D1,Brazópolis/MG,-22.4742842,-45.6165577,29,201.24913
1,Braço do Norte/SC,-28.2728633,-49.1622712,8184,24158.69642
D1,Braço do Norte/SC,-28.2728633,-49.1622712,97,286.33841
1,Braço do Trombudo/SC,-27.358578,-49.882145,629,16688.77686
D1,Braço do Trombudo/SC,-27.358578,-49.882145,5,132.66118
1,Braúna/SP,-21.5015319,-50.3175246,548,9545.37537
D1,Braúna/SP,-21.5015319,-50.3175246,20,348.37136
1,Braúnas/MG,-19.055556,-42.716111,227,4759.90774
D1,Braúnas/MG,-19.055556,-42.716111,7,146.78130
1,Brejetuba/ES,-20.1465817,-41.2902303,1625,13076.36598
D1,Brejetuba/ES,-20.1465817,-41.2902303,14,112.65792
1,Brejinho de Nazaré/TO,-11.0205883,-48.5722906,567,10273.60029
D1,Brejinho de Nazaré/TO,-11.0205883,-48.5722906,14,253.66914
1,Brejinho/PE,-7.3482153,-37.28538,648,8653.84615
D1,Brejinho/PE,-7.3482153,-37.28538,20,267.09402
1,Brejinho/RN,-6.1957907,-35.3583019,1452,11355.28271
D1,Brejinho/RN,-6.1957907,-35.3583019,15,117.30664
1,Brejo Alegre/SP,-21.1671191,-50.1850393,350,12114.91866
D1,Brejo Alegre/SP,-21.1671191,-50.1850393,13,449.98269
1,Brejo Grande do Araguaia/PA,-5.7011449,-48.4037308,812,11020.62975
D1,Brejo Grande do Araguaia/PA,-5.7011449,-48.4037308,4,54.28882
1,Brejo Grande/SE,-10.4287358,-36.4667918,446,5339.39902
D1,Brejo Grande/SE,-10.4287358,-36.4667918,13,155.63271
1,Brejo Santo/CE,-7.4909841,-38.9859152,8163,16377.75370
D1,Brejo Santo/CE,-7.4909841,-38.9859152,152,304.96369
1,Brejo da Madre de Deus/PE,-8.1409718,-36.3712527,2039,3980.47828
D1,Brejo da Madre de Deus/PE,-8.1409718,-36.3712527,49,95.65642
1,Brejo de Areia/MA,-4.3316785,-45.5833334,306,3394.71933
D1,Brejo de Areia/MA,-4.3316785,-45.5833334,10,110.93854
1,Brejo do Cruz/PB,-6.32926065,-37.48746163303929,1639,11537.37857
D1,Brejo do Cruz/PB,-6.32926065,-37.48746163303929,21,147.82486
1,Brejo do Piauí/PI,-8.207583,-42.8359849,123,3196.46570
D1,Brejo do Piauí/PI,-8.207583,-42.8359849,4,103.95010
1,Brejo dos Santos/PB,-6.3769367,-37.8243125,667,10318.68812
D1,Brejo dos Santos/PB,-6.3769367,-37.8243125,7,108.29208
1,Brejo/MA,-3.6804397,-42.7529313,893,2436.49559
D1,Brejo/MA,-3.6804397,-42.7529313,19,51.84033
1,Brejolândia/BA,-12.4843845,-43.9611861,142,1337.35167
D1,Brejolândia/BA,-12.4843845,-43.9611861,11,103.59766
1,Brejão/PE,-9.029146,-36.566034,468,5207.52198
D1,Brejão/PE,-9.029146,-36.566034,9,100.14465
1,Brejões/BA,-13.1033754,-39.7909837,752,5287.58262
D1,Brejões/BA,-13.1033754,-39.7909837,11,77.34496
1,Breu Branco/PA,-3.7785073,-49.5684795,768,1140.61665
D1,Breu Branco/PA,-3.7785073,-49.5684795,44,65.34783
1,Breves/PA,-1.68036,-50.479085,4033,3896.73131
D1,Breves/PA,-1.68036,-50.479085,117,113.04675
1,Britânia/GO,-15.2427599,-51.1602061,553,9539.41694
D1,Britânia/GO,-15.2427599,-51.1602061,5,86.25151
1,Brochier/RS,-29.556766,-51.5963047,410,8032.91536
D1,Brochier/RS,-29.556766,-51.5963047,5,97.96238
1,Brodowski/SP,-20.984532,-47.657217,2598,10278.11845
D1,Brodowski/SP,-20.984532,-47.657217,64,253.19460
1,Brotas de Macaúbas/BA,-12.0019007,-42.6257506,139,1372.16190
D1,Brotas de Macaúbas/BA,-12.0019007,-42.6257506,3,29.61500
1,Brotas/SP,-22.2840884,-48.1267265,1174,4765.38399
D1,Brotas/SP,-22.2840884,-48.1267265,45,182.65952
1,Brumadinho/MG,-20.143611,-44.2,3523,8663.25677
D1,Brumadinho/MG,-20.143611,-44.2,77,189.34737
1,Brumado/BA,-14.29507325,-41.659307508575985,8991,13352.63979
D1,Brumado/BA,-14.29507325,-41.659307508575985,182,270.29034
1,Brunópolis/SC,-27.310953,-50.837585,264,11148.64865
D1,Brunópolis/SC,-27.310953,-50.837585,8,337.83784
1,Brusque/SC,-27.0964628,-48.9136323,26732,19414.76806
D1,Brusque/SC,-27.0964628,-48.9136323,273,198.27292
1,Brás Pires/MG,-20.8483109,-43.2430524,214,4984.85907
D1,Brás Pires/MG,-20.8483109,-43.2430524,7,163.05614
1,Bueno Brandão/MG,-22.441976,-46.3517971,825,7506.14139
D1,Bueno Brandão/MG,-22.441976,-46.3517971,26,236.55718
1,Buenos Aires/PE,-7.7218931,-35.326587,342,2592.87339
D1,Buenos Aires/PE,-7.7218931,-35.326587,22,166.79303
1,Buenópolis/MG,-17.8756607,-44.1749365,305,2946.00599
D1,Buenópolis/MG,-17.8756607,-44.1749365,11,106.24940
1,Buerarema/BA,-14.9571177,-39.3008035,1319,7205.28788
D1,Buerarema/BA,-14.9571177,-39.3008035,40,218.50759
1,Bugre/MG,-19.4257687,-42.2556,365,9163.94677
D1,Bugre/MG,-19.4257687,-42.2556,12,301.28044
1,Bujari/AC,-9.8309656,-67.9520886,1135,10892.51440
D1,Bujari/AC,-9.8309656,-67.9520886,17,163.14779
1,Bujaru/PA,-1.5169239,-48.0410699,1413,4801.71271
D1,Bujaru/PA,-1.5169239,-48.0410699,38,129.13311
1,Buri/SP,-23.79849,-48.598924,2385,11945.90533
D1,Buri/SP,-23.79849,-48.598924,77,385.67493
1,Buritama/SP,-21.0664017,-50.1448077,2251,13025.86656
D1,Buritama/SP,-21.0664017,-50.1448077,62,358.77553
1,Buriti Alegre/GO,-18.1377879,-49.0404411,951,10027.41459
D1,Buriti Alegre/GO,-18.1377879,-49.0404411,30,316.32223
1,Buriti Bravo/MA,-5.8391884,-43.8367876,1455,6077.94812
D1,Buriti Bravo/MA,-5.8391884,-43.8367876,15,62.65926
1,Buriti de Goiás/GO,-16.180644,-50.4287479,221,8925.68659
D1,Buriti de Goiás/GO,-16.180644,-50.4287479,8,323.10178
1,Buriti do Tocantins/TO,-5.3187439,-48.2256609,898,7810.73323
D1,Buriti do Tocantins/TO,-5.3187439,-48.2256609,16,139.16674
1,Buriti dos Lopes/PI,-3.1776723,-41.8707444,1277,6447.21563
D1,Buriti dos Lopes/PI,-3.1776723,-41.8707444,32,161.55904
1,Buriti dos Montes/PI,-5.3136171,-41.0971256,625,7562.92352
D1,Buriti dos Montes/PI,-5.3136171,-41.0971256,8,96.80542
1,Buriti/MA,-3.9430944,-42.9244281,752,2611.29245
D1,Buriti/MA,-3.9430944,-42.9244281,8,27.77971
1,Buriticupu/MA,-4.3227472,-46.4516989,3371,4618.88385
D1,Buriticupu/MA,-4.3227472,-46.4516989,53,72.61965
1,Buritinópolis/GO,-14.4589282,-46.4293104,170,5178.19068
D1,Buritinópolis/GO,-14.4589282,-46.4293104,3,91.37984
1,Buritirama/BA,-10.7148421,-43.6362327,846,3976.31134
D1,Buritirama/BA,-10.7148421,-43.6362327,23,108.10303
1,Buritirana/MA,-5.5897455,-47.0148915,441,2851.23165
D1,Buritirana/MA,-5.5897455,-47.0148915,24,155.16907
1,Buritis/MG,-15.621389,-46.423889,1705,6816.45544
D1,Buritis/MG,-15.621389,-46.423889,34,135.92932
1,Buritis/RO,-10.2054937,-63.8281954,4634,11482.80305
D1,Buritis/RO,-10.2054937,-63.8281954,74,183.36802
1,Buritizal/SP,-20.1933264,-47.7097165,286,6335.84404
D1,Buritizal/SP,-20.1933264,-47.7097165,10,221.53301
1,Buritizeiro/MG,-17.3667765,-44.9647781,1287,4576.65090
D1,Buritizeiro/MG,-17.3667765,-44.9647781,31,110.23790
1,Butiá/RS,-30.1256795,-51.9692224,2026,9669.72127
D1,Butiá/RS,-30.1256795,-51.9692224,54,257.73196
1,Buíque/PE,-8.6239732,-37.157296,2318,3934.21477
D1,Buíque/PE,-8.6239732,-37.157296,43,72.98155
1,Bálsamo/SP,-20.7343722,-49.5807484,1588,17376.08053
D1,Bálsamo/SP,-20.7343722,-49.5807484,60,656.52697
0,CASO SEM LOCALIZAÇÃO DEFINIDA/AC,-9.884083190922777,-67.85119819780795,145,16.44112
D0,CASO SEM LOCALIZAÇÃO DEFINIDA/AC,-9.884083190922777,-67.85119819780795,1,0.11339
0,CASO SEM LOCALIZAÇÃO DEFINIDA/AL,-9.931093434363673,-35.609611600637464,400,11.98553
D0,CASO SEM LOCALIZAÇÃO DEFINIDA/AL,-9.931093434363673,-35.609611600637464,21,0.62924
0,CASO SEM LOCALIZAÇÃO DEFINIDA/AM,-3.07518492149711,-60.16169212873594,661,15.94847
D0,CASO SEM LOCALIZAÇÃO DEFINIDA/AM,-3.07518492149711,-60.16169212873594,15,0.36192
0,CASO SEM LOCALIZAÇÃO DEFINIDA/AP,2.677150600275196,-50.477785111870624,103,12.17881
D0,CASO SEM LOCALIZAÇÃO DEFINIDA/AP,2.677150600275196,-50.477785111870624,3,0.35472
0,CASO SEM LOCALIZAÇÃO DEFINIDA/BA,-13.415069300066518,-38.14174656569957,12859,86.45831
D0,CASO SEM LOCALIZAÇÃO DEFINIDA/BA,-13.415069300066518,-38.14174656569957,338,2.27256
0,CASO SEM LOCALIZAÇÃO DEFINIDA/CE,-3.3445126297392798,-38.624961942434304,14050,153.85326
D0,CASO SEM LOCALIZAÇÃO DEFINIDA/CE,-3.3445126297392798,-38.624961942434304,48,0.52562
0,CASO SEM LOCALIZAÇÃO DEFINIDA/ES,-20.30989267097039,-39.81745156645774,5244,130.49158
D0,CASO SEM LOCALIZAÇÃO DEFINIDA/ES,-20.30989267097039,-39.81745156645774,227,5.64866
0,CASO SEM LOCALIZAÇÃO DEFINIDA/GO,-16.701590966270153,-49.164524059025034,3140,44.73984
D0,CASO SEM LOCALIZAÇÃO DEFINIDA/GO,-16.701590966270153,-49.164524059025034,81,1.15412
0,CASO SEM LOCALIZAÇÃO DEFINIDA/MA,-2.171256551718846,-43.98946796681719,1453,20.53658
D0,CASO SEM LOCALIZAÇÃO DEFINIDA/MA,-2.171256551718846,-43.98946796681719,41,0.57949
0,CASO SEM LOCALIZAÇÃO DEFINIDA/MG,-19.97049116501593,-43.8852149072783,12309,58.14692
D0,CASO SEM LOCALIZAÇÃO DEFINIDA/MG,-19.97049116501593,-43.8852149072783,562,2.65485
0,CASO SEM LOCALIZAÇÃO DEFINIDA/MS,-20.391549234908513,-54.645156949758444,2130,76.64666
D0,CASO SEM LOCALIZAÇÃO DEFINIDA/MS,-20.391549234908513,-54.645156949758444,40,1.43937
0,CASO SEM LOCALIZAÇÃO DEFINIDA/MT,-15.54791153961863,-56.17143998972475,4217,121.02285
D0,CASO SEM LOCALIZAÇÃO DEFINIDA/MT,-15.54791153961863,-56.17143998972475,233,6.68682
0,CASO SEM LOCALIZAÇÃO DEFINIDA/PA,-0.09317078214359542,-48.0050231510481,1262,14.66953
D0,CASO SEM LOCALIZAÇÃO DEFINIDA/PA,-0.09317078214359542,-48.0050231510481,37,0.43009
0,CASO SEM LOCALIZAÇÃO DEFINIDA/PB,-7.1049355696146606,-34.68696690234351,2693,67.02128
D0,CASO SEM LOCALIZAÇÃO DEFINIDA/PB,-7.1049355696146606,-34.68696690234351,20,0.49774
0,CASO SEM LOCALIZAÇÃO DEFINIDA/PE,-8.121628543819208,-34.57313921302556,716,7.49184
D0,CASO SEM LOCALIZAÇÃO DEFINIDA/PE,-8.121628543819208,-34.57313921302556,24,0.25112
0,CASO SEM LOCALIZAÇÃO DEFINIDA/PI,-2.683810218391744,-41.470898009352254,933,28.50398
D0,CASO SEM LOCALIZAÇÃO DEFINIDA/PI,-2.683810218391744,-41.470898009352254,22,0.67212
0,CASO SEM LOCALIZAÇÃO DEFINIDA/PR,-25.69415946385943,-48.10141676336737,14784,129.29907
D0,CASO SEM LOCALIZAÇÃO DEFINIDA/PR,-25.69415946385943,-48.10141676336737,212,1.85413
0,CASO SEM LOCALIZAÇÃO DEFINIDA/RJ,-23.210238986465157,-43.12864305824042,3954,22.90190
D0,CASO SEM LOCALIZAÇÃO DEFINIDA/RJ,-23.210238986465157,-43.12864305824042,159,0.92094
0,CASO SEM LOCALIZAÇÃO DEFINIDA/RN,-5.749310788669161,-34.95302586257457,3772,107.56082
D0,CASO SEM LOCALIZAÇÃO DEFINIDA/RN,-5.749310788669161,-34.95302586257457,22,0.62734
0,CASO SEM LOCALIZAÇÃO DEFINIDA/RO,-8.681174926655274,-63.9216949899276,594,33.42289
D0,CASO SEM LOCALIZAÇÃO DEFINIDA/RO,-8.681174926655274,-63.9216949899276,13,0.73148
0,CASO SEM LOCALIZAÇÃO DEFINIDA/RR,2.813328208465927,-60.663338675861986,2891,477.25093
D0,CASO SEM LOCALIZAÇÃO DEFINIDA/RR,2.813328208465927,-60.663338675861986,19,3.13655
0,CASO SEM LOCALIZAÇÃO DEFINIDA/RS,-30.50647488532064,-49.906261466443524,5620,49.39687
D0,CASO SEM LOCALIZAÇÃO DEFINIDA/RS,-30.50647488532064,-49.906261466443524,127,1.11626
0,CASO SEM LOCALIZAÇÃO DEFINIDA/SC,-27.675643660562308,-48.18313219398259,3259,45.48634
D0,CASO SEM LOCALIZAÇÃO DEFINIDA/SC,-27.675643660562308,-48.18313219398259,73,1.01887
0,CASO SEM LOCALIZAÇÃO DEFINIDA/SE,-11.03002091978736,-36.89283180376513,1071,46.59163
D0,CASO SEM LOCALIZAÇÃO DEFINIDA/SE,-11.03002091978736,-36.89283180376513,17,0.73955
0,CASO SEM LOCALIZAÇÃO DEFINIDA/SP,-24.30968974555485,-46.21366504207253,21909,47.71223
D0,CASO SEM LOCALIZAÇÃO DEFINIDA/SP,-24.30968974555485,-46.21366504207253,772,1.68122
0,CASO SEM LOCALIZAÇÃO DEFINIDA/TO,-10.213012114749148,-48.40023803990334,691,43.93254
D0,CASO SEM LOCALIZAÇÃO DEFINIDA/TO,-10.213012114749148,-48.40023803990334,11,0.69936
1,Caapiranga/AM,-3.3188884,-61.2096404,661,4976.28548
D1,Caapiranga/AM,-3.3188884,-61.2096404,22,165.62524
1,Caaporã/PB,-7.510234,-34.9154114,1908,8690.50330
D1,Caaporã/PB,-7.510234,-34.9154114,32,145.75268
1,Caarapó/MS,-22.6349267,-54.8240903,3976,12996.43709
D1,Caarapó/MS,-22.6349267,-54.8240903,51,166.70480
1,Caatiba/BA,-14.9782759,-40.4092325,894,13779.28483
D1,Caatiba/BA,-14.9782759,-40.4092325,12,184.95684
1,Cabaceiras do Paraguaçu/BA,-12.5377868,-39.1901339,586,3098.72561
D1,Cabaceiras do Paraguaçu/BA,-12.5377868,-39.1901339,4,21.15171
1,Cabaceiras/PB,-7.4899156,-36.2860501,379,6694.93022
D1,Cabaceiras/PB,-7.4899156,-36.2860501,3,52.99417
1,Cabeceira Grande/MG,-16.0297,-47.0906,401,5738.40870
D1,Cabeceira Grande/MG,-16.0297,-47.0906,5,71.55123
1,Cabeceiras do Piauí/PI,-4.4733665,-42.3098716,555,5221.07244
D1,Cabeceiras do Piauí/PI,-4.4733665,-42.3098716,10,94.07338
1,Cabeceiras/GO,-15.7995459,-46.9264991,352,4374.84464
D1,Cabeceiras/GO,-15.7995459,-46.9264991,16,198.85657
1,Cabedelo/PB,-6.97324,-34.8351609,8756,12732.85151
D1,Cabedelo/PB,-6.97324,-34.8351609,191,277.74950
1,Cabixi/RO,-13.4956065,-60.5424442,813,15670.77872
D1,Cabixi/RO,-13.4956065,-60.5424442,20,385.50501
1,Cabo Frio/RJ,-22.8804369,-42.0189227,12879,5590.37755
D1,Cabo Frio/RJ,-22.8804369,-42.0189227,674,292.56266
1,Cabo Verde/MG,-21.4743338,-46.3964995,657,4667.85080
D1,Cabo Verde/MG,-21.4743338,-46.3964995,9,63.94316
1,Cabo de Santo Agostinho/PE,-8.2838945,-35.0320984,7941,3800.53986
D1,Cabo de Santo Agostinho/PE,-8.2838945,-35.0320984,476,227.81224
1,Cabreúva/SP,-23.3075813,-47.1324417,3519,6978.12766
D1,Cabreúva/SP,-23.3075813,-47.1324417,87,172.51978
1,Cabrobó/PE,-8.5083701,-39.3106961,2210,6405.24012
D1,Cabrobó/PE,-8.5083701,-39.3106961,27,78.25406
1,Cabrália Paulista/SP,-22.4562909,-49.3385645,391,9215.17794
D1,Cabrália Paulista/SP,-22.4562909,-49.3385645,6,141.40938
1,Cacaulândia/RO,-10.3380043,-62.9007231,813,12968.57553
D1,Cacaulândia/RO,-10.3380043,-62.9007231,10,159.51507
1,Cacequi/RS,-29.8838059,-54.8273443,493,3968.44563
D1,Cacequi/RS,-29.8838059,-54.8273443,7,56.34710
1,Cachoeira Alta/GO,-18.7618269,-50.9432431,1494,11795.35765
D1,Cachoeira Alta/GO,-18.7618269,-50.9432431,20,157.90305
1,Cachoeira Dourada/GO,-18.4934204,-49.481062,533,6636.78247
D1,Cachoeira Dourada/GO,-18.4934204,-49.481062,26,323.74549
1,Cachoeira Dourada/MG,-18.517136,-49.5002062,152,5617.14708
D1,Cachoeira Dourada/MG,-18.517136,-49.5002062,2,73.90983
1,Cachoeira Grande/MA,-2.9290492,-44.0573223,299,3154.67398
D1,Cachoeira Grande/MA,-2.9290492,-44.0573223,7,73.85524
1,Cachoeira Paulista/SP,-22.666498,-45.015384,2372,7063.51806
D1,Cachoeira Paulista/SP,-22.666498,-45.015384,36,107.20348
1,Cachoeira da Prata/MG,-19.524723,-44.453056,226,6293.51156
D1,Cachoeira da Prata/MG,-19.524723,-44.453056,11,306.32136
1,Cachoeira de Goiás/GO,-16.6688414,-50.6435997,77,5737.70492
D1,Cachoeira de Goiás/GO,-16.6688414,-50.6435997,2,149.03130
1,Cachoeira de Minas/MG,-22.3554043,-45.7796324,703,6071.33604
D1,Cachoeira de Minas/MG,-22.3554043,-45.7796324,10,86.36324
1,Cachoeira de Pajeú/MG,-15.965833,-41.496666,498,5274.30629
D1,Cachoeira de Pajeú/MG,-15.965833,-41.496666,10,105.90976
1,Cachoeira do Arari/PA,-1.0143572,-48.9621089,493,2048.70346
D1,Cachoeira do Arari/PA,-1.0143572,-48.9621089,23,95.57846
1,Cachoeira do Piriá/PA,-1.7599443,-46.5446954,888,2565.80658
D1,Cachoeira do Piriá/PA,-1.7599443,-46.5446954,5,14.44711
1,Cachoeira do Sul/RS,-30.0474778,-52.8905413,9945,12147.45508
D1,Cachoeira do Sul/RS,-30.0474778,-52.8905413,161,196.65563
1,Cachoeira dos Índios/PB,-6.9259193,-38.6742159,820,7957.30228
D1,Cachoeira dos Índios/PB,-6.9259193,-38.6742159,14,135.85638
1,Cachoeira/BA,-12.5998256,-38.9665918,1567,4668.27539
D1,Cachoeira/BA,-12.5998256,-38.9665918,26,77.45703
1,Cachoeiras de Macacu/RJ,-22.4626861,-42.6534414,2863,4827.74902
D1,Cachoeiras de Macacu/RJ,-22.4626861,-42.6534414,93,156.82175
1,Cachoeirinha/PE,-8.4906364,-36.2338963,601,2931.56431
D1,Cachoeirinha/PE,-8.4906364,-36.2338963,29,141.45651
1,Cachoeirinha/RS,-29.9493353,-51.0898927,14097,10741.38982
D1,Cachoeirinha/RS,-29.9493353,-51.0898927,408,310.88083
1,Cachoeirinha/TO,-6.118647,-47.9208885,117,5122.59194
D1,Cachoeirinha/TO,-6.118647,-47.9208885,2,87.56567
1,Cachoeiro de Itapemirim/ES,-20.848084,-41.11129,26212,12446.99391
D1,Cachoeiro de Itapemirim/ES,-20.848084,-41.11129,559,265.44596
1,Cacimba de Areia/PB,-7.1288513,-37.1575194,52,1407.30717
D1,Cacimba de Areia/PB,-7.1288513,-37.1575194,4,108.25440
1,Cacimba de Dentro/PB,-6.6425101,-35.7929304,1141,6642.21679
D1,Cacimba de Dentro/PB,-6.6425101,-35.7929304,33,192.10618
1,Cacimbas/PB,-7.2125451,-37.0593398,228,3167.10654
D1,Cacimbas/PB,-7.2125451,-37.0593398,7,97.23573
1,Cacimbinhas/AL,-9.401212,-36.991082,715,6566.25953
D1,Cacimbinhas/AL,-9.401212,-36.991082,9,82.65222
1,Cacique Doble/RS,-27.7700117,-51.6616409,529,10425.69965
D1,Cacique Doble/RS,-27.7700117,-51.6616409,10,197.08317
1,Cacoal/RO,-11.4333,-61.4420502,13425,15629.91163
D1,Cacoal/RO,-11.4333,-61.4420502,275,320.16579
1,Caconde/SP,-21.527995,-46.643659,1268,6670.52449
D1,Caconde/SP,-21.527995,-46.643659,33,173.60198
1,Caculé/BA,-14.4990734,-42.2233006,1756,7539.39290
D1,Caculé/BA,-14.4990734,-42.2233006,14,60.10905
1,Caetanos/BA,-14.3387456,-40.9085971,660,4518.07229
D1,Caetanos/BA,-14.3387456,-40.9085971,10,68.45564
1,Caetanópolis/MG,-19.2947496,-44.4138386,898,7643.20368
D1,Caetanópolis/MG,-19.2947496,-44.4138386,15,127.67044
1,Caetité/BA,-14.0691776,-42.4852428,2583,5056.67469
D1,Caetité/BA,-14.0691776,-42.4852428,28,54.81490
1,Caeté/MG,-19.897777,-43.670278,1918,4257.77521
D1,Caeté/MG,-19.897777,-43.670278,58,128.75441
1,Caetés/PE,-8.7728788,-36.6255835,1555,5379.87822
D1,Caetés/PE,-8.7728788,-36.6255835,20,69.19458
1,Cafarnaum/BA,-11.691399,-41.468823,881,4758.81813
D1,Cafarnaum/BA,-11.691399,-41.468823,21,113.43380
1,Cafeara/PR,-22.78905,-51.714195,354,11983.75085
D1,Cafeara/PR,-22.78905,-51.714195,11,372.37644
1,Cafelândia/PR,-24.6176963,-53.3218057,2199,11914.82445
D1,Cafelândia/PR,-24.6176963,-53.3218057,18,97.52926
1,Cafelândia/SP,-21.8054355,-49.6030627,712,3990.36037
D1,Cafelândia/SP,-21.8054355,-49.6030627,34,190.55092
1,Cafezal do Sul/PR,-23.900508,-53.512418,414,10326.76478
D1,Cafezal do Sul/PR,-23.900508,-53.512418,4,99.77551
1,Caiabu/SP,-22.0143038,-51.2356597,209,4984.49797
D1,Caiabu/SP,-22.0143038,-51.2356597,7,166.94491
1,Caiana/MG,-20.695555,-41.924723,141,2544.66703
D1,Caiana/MG,-20.695555,-41.924723,7,126.33099
1,Caiapônia/GO,-16.9538779,-51.8090761,1145,5992.56817
D1,Caiapônia/GO,-16.9538779,-51.8090761,34,177.94526
1,Caibaté/RS,-28.290475,-54.645407,281,5826.24922
D1,Caibaté/RS,-28.290475,-54.645407,7,145.13788
1,Caibi/SC,-27.0751925,-53.2502133,616,10048.93964
D1,Caibi/SC,-27.0751925,-53.2502133,12,195.75856
1,Caicó/RN,-6.4594544,-37.0971911,10906,15957.74256
D1,Caicó/RN,-6.4594544,-37.0971911,134,196.06982
1,Caieiras/SP,-23.3644621,-46.7484765,7954,7739.23620
D1,Caieiras/SP,-23.3644621,-46.7484765,285,277.30479
1,Cairu/BA,-13.4860505,-39.0455744,1321,7168.82835
D1,Cairu/BA,-13.4860505,-39.0455744,15,81.40229
1,Caiuá/SP,-21.8319357,-51.9887179,335,5634.03969
D1,Caiuá/SP,-21.8319357,-51.9887179,6,100.90817
1,Caiçara do Norte/RN,-5.0645017,-36.0561226,502,7651.27267
D1,Caiçara do Norte/RN,-5.0645017,-36.0561226,10,152.41579
1,Caiçara do Rio do Vento/RN,-5.757968,-36.00089,341,9179.00404
D1,Caiçara do Rio do Vento/RN,-5.757968,-36.00089,8,215.34320
1,Caiçara/PB,-6.6146866,-35.4681434,753,10471.42261
D1,Caiçara/PB,-6.6146866,-35.4681434,14,194.68780
1,Caiçara/RS,-27.2750478,-53.4310053,571,12148.93617
D1,Caiçara/RS,-27.2750478,-53.4310053,8,170.21277
1,Cajamar/SP,-23.3561111,-46.8769444,4419,5670.18246
D1,Cajamar/SP,-23.3561111,-46.8769444,216,277.15759
1,Cajapió/MA,-2.8778715,-44.6746871,122,1087.73181
D1,Cajapió/MA,-2.8778715,-44.6746871,7,62.41084
1,Cajari/MA,-3.3213076,-45.0118757,232,1192.74073
D1,Cajari/MA,-3.3213076,-45.0118757,8,41.12899
1,Cajati/SP,-24.7272376,-48.1077914,3184,11174.28231
D1,Cajati/SP,-24.7272376,-48.1077914,94,329.89401
1,Cajazeiras do Piauí/PI,-6.794271,-42.3935024,62,1735.23650
D1,Cajazeiras do Piauí/PI,-6.794271,-42.3935024,1,27.98769
1,Cajazeiras/PB,-6.8897849,-38.5570389,8919,14318.74007
D1,Cajazeiras/PB,-6.8897849,-38.5570389,140,224.75879
1,Cajazeirinhas/PB,-6.961442,-37.7993733,168,5241.80967
D1,Cajazeirinhas/PB,-6.961442,-37.7993733,1,31.20125
1,Cajobi/SP,-20.8776238,-48.8106972,944,8909.02227
D1,Cajobi/SP,-20.8776238,-48.8106972,29,273.68818
1,Cajueiro da Praia/PI,-2.931114,-41.340801,475,6189.73156
D1,Cajueiro da Praia/PI,-2.931114,-41.340801,20,260.62028
1,Cajueiro/AL,-9.399589,-36.1524309,583,2733.11143
D1,Cajueiro/AL,-9.399589,-36.1524309,25,117.20032
1,Cajuri/MG,-20.7901414,-42.7954489,391,9838.95320
D1,Cajuri/MG,-20.7901414,-42.7954489,2,50.32713
1,Cajuru/SP,-21.2759978,-47.3046035,1058,4008.63865
D1,Cajuru/SP,-21.2759978,-47.3046035,36,136.39980
1,Caldas Brandão/PB,-7.1027959,-35.3254676,555,9179.62289
D1,Caldas Brandão/PB,-7.1027959,-35.3254676,9,148.85875
1,Caldas Novas/GO,-17.745,-48.625,8580,9206.40371
D1,Caldas Novas/GO,-17.745,-48.625,211,226.40457
1,Caldas/MG,-21.923611,-46.386111,851,5852.41730
D1,Caldas/MG,-21.923611,-46.386111,29,199.43608
1,Caldazinha/GO,-16.7116649,-49.0012601,300,7796.25780
D1,Caldazinha/GO,-16.7116649,-49.0012601,6,155.92516
1,Caldeirão Grande do Piauí/PI,-7.3310393,-40.6374433,399,6901.92008
D1,Caldeirão Grande do Piauí/PI,-7.3310393,-40.6374433,2,34.59609
1,Caldeirão Grande/BA,-11.0208483,-40.3041387,565,4219.25174
D1,Caldeirão Grande/BA,-11.0208483,-40.3041387,6,44.80621
1,Califórnia/PR,-23.6672543,-51.3554556,1193,13862.42157
D1,Califórnia/PR,-23.6672543,-51.3554556,28,325.35440
1,Calmon/SC,-26.6023644,-51.0992893,35,1049.47526
D1,Calmon/SC,-26.6023644,-51.0992893,4,119.94003
1,Calumbi/PE,-7.9389746,-38.1516871,668,11623.45572
D1,Calumbi/PE,-7.9389746,-38.1516871,4,69.60153
1,Calçado/PE,-8.7413446,-36.3351787,489,4438.19205
D1,Calçado/PE,-8.7413446,-36.3351787,5,45.38029
1,Calçoene/AP,2.4981757,-50.9539503,1640,14505.57226
D1,Calçoene/AP,2.4981757,-50.9539503,10,88.44861
1,Camacan/BA,-15.4166631,-39.4930088,2897,9051.42786
D1,Camacan/BA,-15.4166631,-39.4930088,77,240.57989
