type,name,lat,lon,total,total_per_100k_inhabitants
1,Abadia de Goiás/GO,-16.7572644,-49.4412205,2367,25846.25464
D1,Abadia de Goiás/GO,-16.7572644,-49.4412205,45,491.37366
1,Abadia dos Dourados/MG,-18.4911191,-47.4063589,1238,17630.30476
D1,Abadia dos Dourados/MG,-18.4911191,-47.4063589,20,284.81914
1,Abadiânia/GO,-16.1940946,-48.7067767,732,3506.92282
D1,Abadiânia/GO,-16.1940946,-48.7067767,51,244.33479
1,Abaetetuba/PA,-1.721828,-48.878843,10311,6426.74163
D1,Abaetetuba/PA,-1.721828,-48.878843,232,144.60324
1,Abaeté/MG,-19.1566833,-45.4481213,2891,12427.45991
D1,Abaeté/MG,-19.1566833,-45.4481213,45,193.44023
1,Abaiara/CE,-7.3607808,-39.0487878,960,8023.40159
D1,Abaiara/CE,-7.3607808,-39.0487878,18,150.43878
1,Abaré/BA,-8.7239913,-39.1139689,2153,10454.50131
D1,Abaré/BA,-8.7239913,-39.1139689,15,72.83675
1,Abatiá/PR,-23.3052967,-50.3102532,1535,20855.97826
D1,Abatiá/PR,-23.3052967,-50.3102532,23,312.50000
1,Abaíra/BA,-13.2503296,-41.6640342,325,3743.80832
D1,Abaíra/BA,-13.2503296,-41.6640342,16,184.31056
1,Abdon Batista/SC,-27.612419,-51.022992,483,19060.77348
D1,Abdon Batista/SC,-27.612419,-51.022992,4,157.85320
1,Abel Figueiredo/PA,-4.953001,-48.3958485,1205,15989.91507
D1,Abel Figueiredo/PA,-4.953001,-48.3958485,12,159.23567
1,Abelardo Luz/SC,-26.5705893,-52.3280339,2103,11673.60533
D1,Abelardo Luz/SC,-26.5705893,-52.3280339,67,371.91230
1,Abre Campo/MG,-20.2976097,-42.4764741,1786,13294.62558
D1,Abre Campo/MG,-20.2976097,-42.4764741,18,133.98839
1,Abreu e Lima/PE,-7.900719,-34.898389,4297,4267.21484
D1,Abreu e Lima/PE,-7.900719,-34.898389,251,249.26016
1,Abreulândia/TO,-9.6221526,-49.1558343,433,16596.39709
D1,Abreulândia/TO,-9.6221526,-49.1558343,8,306.63089
1,Acaiaca/MG,-20.3621646,-43.1444162,270,6758.44806
D1,Acaiaca/MG,-20.3621646,-43.1444162,12,300.37547
1,Acajutiba/BA,-11.6609659,-38.0186381,624,4101.48547
D1,Acajutiba/BA,-11.6609659,-38.0186381,24,157.74944
1,Acarape/CE,-4.2237866,-38.7071663,3171,20944.51783
D1,Acarape/CE,-4.2237866,-38.7071663,35,231.17569
1,Acaraú/CE,-2.8869514,-40.1194713,6574,10343.63396
D1,Acaraú/CE,-2.8869514,-40.1194713,118,185.66304
1,Acari/RN,-6.4364689,-36.6394777,1288,11597.33477
D1,Acari/RN,-6.4364689,-36.6394777,24,216.09941
1,Acará/PA,-1.961388,-48.1987043,1963,3521.45522
D1,Acará/PA,-1.961388,-48.1987043,41,73.55052
1,Acauã/PI,-8.219542,-41.083059,228,3202.69701
D1,Acauã/PI,-8.219542,-41.083059,2,28.09383
1,Aceguá/RS,-31.8695131,-54.1615593,709,14234.08954
D1,Aceguá/RS,-31.8695131,-54.1615593,8,160.61032
1,Acopiara/CE,-6.0936464,-39.4543204,5084,9296.54214
D1,Acopiara/CE,-6.0936464,-39.4543204,161,294.40269
1,Acorizal/MT,-15.2001544,-56.3668953,1143,21529.47824
D1,Acorizal/MT,-15.2001544,-56.3668953,23,433.22660
1,Acrelândia/AC,-10.0759167,-67.0526898,2581,16417.53069
D1,Acrelândia/AC,-10.0759167,-67.0526898,39,248.07582
1,Acreúna/GO,-17.3959899,-50.3749031,4451,19599.29546
D1,Acreúna/GO,-17.3959899,-50.3749031,79,347.86438
1,Adamantina/SP,-21.6866517,-51.0762975,6233,17731.06136
D1,Adamantina/SP,-21.6866517,-51.0762975,159,452.30848
1,Adelândia/GO,-16.4155077,-50.1665834,412,16381.70974
D1,Adelândia/GO,-16.4155077,-50.1665834,4,159.04573
1,Adolfo/SP,-21.2356597,-49.6441918,636,17940.76164
D1,Adolfo/SP,-21.2356597,-49.6441918,22,620.59238
1,Adrianópolis/PR,-24.6557863,-48.9912769,1791,30895.29067
D1,Adrianópolis/PR,-24.6557863,-48.9912769,30,517.50906
1,Adustina/BA,-10.5358875,-38.114479,1278,7426.34668
D1,Adustina/BA,-10.5358875,-38.114479,27,156.89465
1,Afogados da Ingazeira/PE,-7.750429,-37.6356375,6915,18417.40798
D1,Afogados da Ingazeira/PE,-7.750429,-37.6356375,78,207.74517
1,Afonso Bezerra/RN,-5.4745,-36.57625071327935,1088,9869.37591
D1,Afonso Bezerra/RN,-5.4745,-36.57625071327935,18,163.28012
1,Afonso Cláudio/ES,-20.077841,-41.12606,6985,23033.04095
D1,Afonso Cláudio/ES,-20.077841,-41.12606,78,257.20504
1,Afonso Cunha/MA,-4.1326105,-43.3230026,301,4539.28518
D1,Afonso Cunha/MA,-4.1326105,-43.3230026,3,45.24204
1,Afrânio/PE,-8.5198919,-41.0070197,1238,6195.88609
D1,Afrânio/PE,-8.5198919,-41.0070197,16,80.07607
1,Afuá/PA,-0.1535664,-50.3879223,3486,8734.65297
D1,Afuá/PA,-0.1535664,-50.3879223,16,40.09020
1,Agrestina/PE,-8.4558021,-35.9442663,2522,9992.07607
D1,Agrestina/PE,-8.4558021,-35.9442663,70,277.33756
1,Agricolândia/PI,-5.7967843,-42.6605131,826,16123.36522
D1,Agricolândia/PI,-5.7967843,-42.6605131,10,195.19813
1,Agrolândia/SC,-27.4122212,-49.8295774,2240,20071.68459
D1,Agrolândia/SC,-27.4122212,-49.8295774,32,286.73835
1,Agronômica/SC,-27.2660744,-49.7104753,1121,20125.67325
D1,Agronômica/SC,-27.2660744,-49.7104753,15,269.29982
1,Aguanil/MG,-20.9424533,-45.3927152,1203,26398.94668
D1,Aguanil/MG,-20.9424533,-45.3927152,8,175.55409
1,Aguaí/SP,-22.0592036,-46.979384,5386,14564.23569
D1,Aguaí/SP,-22.0592036,-46.979384,126,340.71550
1,Agudo/RS,-29.6423259,-53.2494005,2776,16984.82624
D1,Agudo/RS,-29.6423259,-53.2494005,34,208.02741
1,Agudos do Sul/PR,-25.9890808,-49.3328175,1442,15072.64555
D1,Agudos do Sul/PR,-25.9890808,-49.3328175,33,344.93572
1,Agudos/SP,-22.471162,-48.987822,5332,14187.64302
D1,Agudos/SP,-22.471162,-48.987822,115,305.99755
1,Aguiar/PB,-7.0928404,-38.1727215,816,14514.40768
D1,Aguiar/PB,-7.0928404,-38.1727215,7,124.51085
1,Aguiarnópolis/TO,-6.5600452,-47.4721189,914,12966.37821
D1,Aguiarnópolis/TO,-6.5600452,-47.4721189,14,198.60973
1,Aimorés/MG,-19.4917754,-41.0615603,3271,13023.57063
D1,Aimorés/MG,-19.4917754,-41.0615603,79,314.54053
1,Aiquara/BA,-14.126918,-39.8887574,604,13767.95076
D1,Aiquara/BA,-14.126918,-39.8887574,12,273.53545
1,Aiuaba/CE,-6.5710836,-40.1212278,1127,6409.23567
D1,Aiuaba/CE,-6.5710836,-40.1212278,16,90.99181
1,Aiuruoca/MG,-21.9759554,-44.6036637,711,11951.58850
D1,Aiuruoca/MG,-21.9759554,-44.6036637,12,201.71457
1,Ajuricaba/RS,-28.239654,-53.7693013,1659,23867.06949
D1,Ajuricaba/RS,-28.239654,-53.7693013,34,489.13825
1,Alagoa Grande/PB,-7.0415212,-35.6285322,5355,18866.26268
D1,Alagoa Grande/PB,-7.0415212,-35.6285322,77,271.27959
1,Alagoa Nova/PB,-7.0653703,-35.76695977336711,2737,13038.30030
D1,Alagoa Nova/PB,-7.0653703,-35.76695977336711,35,166.73018
1,Alagoa/MG,-22.1697202,-44.6400042,619,23296.95145
D1,Alagoa/MG,-22.1697202,-44.6400042,8,301.09146
1,Alagoinha do Piauí/PI,-7.0090952,-40.939675,402,5235.73847
D1,Alagoinha do Piauí/PI,-7.0090952,-40.939675,13,169.31493
1,Alagoinha/PB,-6.97063215,-35.51490901897793,2414,16501.46968
D1,Alagoinha/PB,-6.97063215,-35.51490901897793,26,177.72917
1,Alagoinha/PE,-8.50355635,-36.77701174370496,1611,10886.60630
D1,Alagoinha/PE,-8.50355635,-36.77701174370496,31,209.48777
1,Alagoinhas/BA,-12.133526,-38.420772,16987,11100.94561
D1,Alagoinhas/BA,-12.133526,-38.420772,337,220.22833
1,Alambari/SP,-23.550338,-47.897971,837,13432.83582
D1,Alambari/SP,-23.550338,-47.897971,13,208.63425
1,Albertina/MG,-20.66164,-43.784039,621,20597.01493
D1,Albertina/MG,-20.66164,-43.784039,11,364.84245
1,Alcantil/PB,-7.7425491,-36.0609604,1154,20879.31970
D1,Alcantil/PB,-7.7425491,-36.0609604,9,162.83698
1,Alcinópolis/MS,-18.3264121,-53.7094463,677,12333.75843
D1,Alcinópolis/MS,-18.3264121,-53.7094463,12,218.61906
1,Alcobaça/BA,-17.5215875,-39.1965474,2209,9813.85224
D1,Alcobaça/BA,-17.5215875,-39.1965474,32,142.16536
1,Alcântara/MA,-2.4038956,-44.4154241,337,1523.09500
D1,Alcântara/MA,-2.4038956,-44.4154241,20,90.39139
1,Alcântaras/CE,-3.586247,-40.5457641,2090,17643.08627
D1,Alcântaras/CE,-3.586247,-40.5457641,23,194.15837
1,Aldeias Altas/MA,-4.6291957,-43.4708622,997,3695.46684
D1,Aldeias Altas/MA,-4.6291957,-43.4708622,14,51.89221
1,Alecrim/RS,-27.6566142,-54.7653195,546,9562.17163
D1,Alecrim/RS,-27.6566142,-54.7653195,13,227.67075
1,Alegre/ES,-20.7625787,-41.5318886,6808,22792.86216
D1,Alegre/ES,-20.7625787,-41.5318886,83,277.88008
1,Alegrete do Piauí/PI,-7.2440138,-40.8602296,553,11237.55334
D1,Alegrete do Piauí/PI,-7.2440138,-40.8602296,9,182.88966
1,Alegrete/RS,-29.790166,-55.794862,13621,18789.40036
D1,Alegrete/RS,-29.790166,-55.794862,316,435.90416
1,Alegria/RS,-27.8332103,-54.0574959,503,15302.70764
D1,Alegria/RS,-27.8332103,-54.0574959,5,152.11439
1,Alenquer/PA,-1.946229,-54.738355,4542,7914.27078
D1,Alenquer/PA,-1.946229,-54.738355,149,259.62711
1,Alexandria/RN,-6.414779,-38.0135516,2374,17547.49058
D1,Alexandria/RN,-6.414779,-38.0135516,32,236.52894
1,Alexânia/GO,-16.0834049,-48.5077803,5543,19545.13399
D1,Alexânia/GO,-16.0834049,-48.5077803,108,380.81805
1,Alfenas/MG,-21.4297405,-45.9479419,15934,19678.16433
D1,Alfenas/MG,-21.4297405,-45.9479419,236,291.45518
1,Alfredo Chaves/ES,-20.624970400000002,-40.75006690147988,4187,28541.24063
D1,Alfredo Chaves/ES,-20.624970400000002,-40.75006690147988,47,320.38173
1,Alfredo Marcondes/SP,-21.9527,-51.413956,291,6926.92216
D1,Alfredo Marcondes/SP,-21.9527,-51.413956,15,357.05784
1,Alfredo Vasconcelos/MG,-21.145833,-43.776389,1097,15555.87067
D1,Alfredo Vasconcelos/MG,-21.145833,-43.776389,16,226.88599
1,Alfredo Wagner/SC,-27.6961513,-49.3326734,1386,13674.03315
D1,Alfredo Wagner/SC,-27.6961513,-49.3326734,10,98.65825
1,Algodão de Jandaíra/PB,-6.9040175,-36.0089879,383,14799.07264
D1,Algodão de Jandaíra/PB,-6.9040175,-36.0089879,1,38.63988
1,Alhandra/PB,-7.4304246,-34.9106103,2779,13989.42864
D1,Alhandra/PB,-7.4304246,-34.9106103,46,231.56305
1,Aliança do Tocantins/TO,-11.3055927,-48.9409096,1179,22232.69847
D1,Aliança do Tocantins/TO,-11.3055927,-48.9409096,25,471.43127
1,Aliança/PE,-7.60398,-35.222696,1938,5045.82379
D1,Aliança/PE,-7.60398,-35.222696,76,197.87544
1,Almadina/BA,-14.70466,-39.6381994,763,14469.94121
D1,Almadina/BA,-14.70466,-39.6381994,12,227.57444
1,Almas/TO,-11.5681309,-47.1702803,307,4446.05358
D1,Almas/TO,-11.5681309,-47.1702803,5,72.41130
1,Almeirim/PA,-1.5290377,-52.5788111,4186,12295.85243
D1,Almeirim/PA,-1.5290377,-52.5788111,53,155.68088
1,Almenara/MG,-16.1740678,-40.6904907,6426,15162.81265
D1,Almenara/MG,-16.1740678,-40.6904907,58,136.85701
1,Almino Afonso/RN,-6.1544208,-37.7649018,723,15432.23052
D1,Almino Afonso/RN,-6.1544208,-37.7649018,14,298.82604
1,Almirante Tamandaré do Sul/RS,-28.1141129,-52.9134874,496,25633.07494
D1,Almirante Tamandaré do Sul/RS,-28.1141129,-52.9134874,7,361.75711
1,Almirante Tamandaré/PR,-25.3133048,-49.2997838,14355,11822.59924
D1,Almirante Tamandaré/PR,-25.3133048,-49.2997838,448,368.96722
1,Aloândia/GO,-17.7277983,-49.4809338,338,17105.26316
D1,Aloândia/GO,-17.7277983,-49.4809338,11,556.68016
1,Alpercata/MG,-18.9803616,-41.9827637,583,7827.60473
D1,Alpercata/MG,-18.9803616,-41.9827637,22,295.38131
1,Alpestre/RS,-27.2512339,-53.0349646,1066,18113.84877
D1,Alpestre/RS,-27.2512339,-53.0349646,17,288.87001
1,Alpinópolis/MG,-20.863611,-46.387777,3632,18106.58557
D1,Alpinópolis/MG,-20.863611,-46.387777,50,249.26467
1,Alta Floresta D'Oeste/RO,-11.9296917,-61.9961284,7438,33034.28673
D1,Alta Floresta D'Oeste/RO,-11.9296917,-61.9961284,76,337.53775
1,Alta Floresta/MT,-9.8715018,-56.0839881,12639,24256.78918
D1,Alta Floresta/MT,-9.8715018,-56.0839881,163,312.82986
1,Altair/SP,-20.5238955,-49.0606135,317,7527.90311
D1,Altair/SP,-20.5238955,-49.0606135,17,403.70458
1,Altamira do Maranhão/MA,-4.1643006,-45.4674574,456,5527.27273
D1,Altamira do Maranhão/MA,-4.1643006,-45.4674574,14,169.69697
1,Altamira do Paraná/PR,-24.799114,-52.7128633,425,29741.07768
D1,Altamira do Paraná/PR,-24.799114,-52.7128633,14,979.70609
1,Altamira/PA,-3.204065,-52.209961,20396,17384.93011
D1,Altamira/PA,-3.204065,-52.209961,349,297.47699
1,Altaneira/CE,-6.9980933,-39.7385742,861,11164.41909
D1,Altaneira/CE,-6.9980933,-39.7385742,19,246.36929
1,Alterosa/MG,-21.249166,-46.143055,1485,10194.97460
D1,Alterosa/MG,-21.249166,-46.143055,41,281.47741
1,Altinho/PE,-8.4904095,-36.0607494,1624,7062.09776
D1,Altinho/PE,-8.4904095,-36.0607494,30,130.45747
1,Altinópolis/SP,-21.021364,-47.3712,1222,7533.44430
D1,Altinópolis/SP,-21.021364,-47.3712,63,388.38543
1,Alto Alegre do Maranhão/MA,-4.2055693,-44.4525287,1839,6552.41217
D1,Alto Alegre do Maranhão/MA,-4.2055693,-44.4525287,29,103.32787
1,Alto Alegre do Pindaré/MA,-3.6698186,-45.8462153,2354,7363.84396
D1,Alto Alegre do Pindaré/MA,-3.6698186,-45.8462153,55,172.05243
1,Alto Alegre dos Parecis/RO,-12.1314515,-61.856265,2092,15767.25957
D1,Alto Alegre dos Parecis/RO,-12.1314515,-61.856265,48,361.77269
1,Alto Alegre/RR,2.98858,-61.307167,2189,14355.03967
D1,Alto Alegre/RR,2.98858,-61.307167,39,255.75448
1,Alto Alegre/RS,-31.780844700000003,-52.81311114489171,366,23018.86792
D1,Alto Alegre/RS,-31.780844700000003,-52.81311114489171,2,125.78616
1,Alto Alegre/SP,-21.5820592,-50.1661976,407,9980.38254
D1,Alto Alegre/SP,-21.5820592,-50.1661976,23,564.00196
1,Alto Araguaia/MT,-17.3156528,-53.2169365,2665,13518.31186
D1,Alto Araguaia/MT,-17.3156528,-53.2169365,34,172.46627
1,Alto Bela Vista/SC,-27.4320737,-51.905771,376,19634.46475
D1,Alto Bela Vista/SC,-27.4320737,-51.905771,3,156.65796
1,Alto Boa Vista/MT,-11.6723985,-51.3744431,1262,17794.69825
D1,Alto Boa Vista/MT,-11.6723985,-51.3744431,19,267.90750
1,Alto Caparaó/MG,-20.4405661,-41.8683799,539,9077.13035
D1,Alto Caparaó/MG,-20.4405661,-41.8683799,9,151.56618
1,Alto Feliz/RS,-29.3785943,-51.3123751,587,19290.17417
D1,Alto Feliz/RS,-29.3785943,-51.3123751,4,131.44923
1,Alto Garças/MT,-16.9469683,-53.529427,1438,11669.23639
D1,Alto Garças/MT,-16.9469683,-53.529427,43,348.94100
1,Alto Horizonte/GO,-14.1954948,-49.3366993,1607,23646.26251
D1,Alto Horizonte/GO,-14.1954948,-49.3366993,16,235.43261
1,Alto Jequitibá/MG,-20.423611,-41.966111,1316,15882.21096
D1,Alto Jequitibá/MG,-20.423611,-41.966111,13,156.89114
1,Alto Longá/PI,-5.2549051,-42.2072388,850,5914.68930
D1,Alto Longá/PI,-5.2549051,-42.2072388,15,104.37687
1,Alto Paraguai/MT,-14.513712,-56.4936374,955,8241.99534
D1,Alto Paraguai/MT,-14.513712,-56.4936374,31,267.54121
1,Alto Paraná/PR,-23.131247,-52.318893,2493,16681.16427
D1,Alto Paraná/PR,-23.131247,-52.318893,26,173.97123
1,Alto Paraíso de Goiás/GO,-14.1304779,-47.5100161,1206,15559.28267
D1,Alto Paraíso de Goiás/GO,-14.1304779,-47.5100161,9,116.11405
1,Alto Paraíso/PR,-23.508137,-53.728537,832,31634.98099
D1,Alto Paraíso/PR,-23.508137,-53.728537,10,380.22814
1,Alto Paraíso/RO,-9.7240103,-63.3188123,3418,15356.27640
D1,Alto Paraíso/RO,-9.7240103,-63.3188123,61,274.05877
1,Alto Parnaíba/MA,-9.112506,-45.9310154,1021,9089.29048
D1,Alto Parnaíba/MA,-9.112506,-45.9310154,11,97.92575
1,Alto Piquiri/PR,-24.0239021,-53.4417448,1980,20366.17980
D1,Alto Piquiri/PR,-24.0239021,-53.4417448,31,318.86443
1,Alto Rio Doce/MG,-21.0239537,-43.4133507,930,8672.94600
D1,Alto Rio Doce/MG,-21.0239537,-43.4133507,29,270.44670
1,Alto Rio Novo/ES,-19.0577208,-41.0171518,1353,17102.76830
D1,Alto Rio Novo/ES,-19.0577208,-41.0171518,28,353.93756
1,Alto Santo/CE,-5.5190371,-38.2719351,2519,15668.34608
D1,Alto Santo/CE,-5.5190371,-38.2719351,41,255.02270
1,Alto Taquari/MT,-17.8269099,-53.2831736,1668,14614.91282
D1,Alto Taquari/MT,-17.8269099,-53.2831736,29,254.09621
1,Alto do Rodrigues/RN,-5.290868,-36.7616726,3420,22917.64391
D1,Alto do Rodrigues/RN,-5.290868,-36.7616726,42,281.44475
1,Altos/PI,-5.0393915,-42.4611694,5519,13566.52983
D1,Altos/PI,-5.0393915,-42.4611694,103,253.18945
1,Altônia/PR,-23.8722004,-53.894037,3835,17202.70937
D1,Altônia/PR,-23.8722004,-53.894037,52,233.25708
1,Alumínio/SP,-23.5203479,-47.2575256,1656,8760.51420
D1,Alumínio/SP,-23.5203479,-47.2575256,55,290.95911
1,Alvarenga/MG,-19.4175,-41.728334,541,14300.81946
D1,Alvarenga/MG,-19.4175,-41.728334,6,158.60428
1,Alvarães/AM,-3.214786,-64.8143124,3704,22590.87582
D1,Alvarães/AM,-3.214786,-64.8143124,46,280.55623
1,Alvinlândia/SP,-22.4431852,-49.7643596,148,4552.44540
D1,Alvinlândia/SP,-22.4431852,-49.7643596,9,276.83790
1,Alvinópolis/MG,-20.1105199,-43.0601805,1840,12157.25140
D1,Alvinópolis/MG,-20.1105199,-43.0601805,23,151.96564
1,Alvorada D'Oeste/RO,-11.346271,-62.284697,1866,13514.88375
D1,Alvorada D'Oeste/RO,-11.346271,-62.284697,33,239.00920
1,Alvorada de Minas/MG,-18.7318587,-43.3641479,448,12427.18447
D1,Alvorada de Minas/MG,-18.7318587,-43.3641479,4,110.95700
1,Alvorada do Gurguéia/PI,-8.4465288,-43.8655915,695,12707.99049
D1,Alvorada do Gurguéia/PI,-8.4465288,-43.8655915,13,237.70342
1,Alvorada do Norte/GO,-14.483911,-46.4959897,1164,13304.37764
D1,Alvorada do Norte/GO,-14.483911,-46.4959897,17,194.30792
1,Alvorada do Sul/PR,-22.7807269,-51.2307721,1234,10639.76548
D1,Alvorada do Sul/PR,-22.7807269,-51.2307721,31,267.28746
1,Alvorada/RS,-29.9981184,-51.0772509,28385,13366.95675
D1,Alvorada/RS,-29.9981184,-51.0772509,852,401.22061
1,Alvorada/TO,-12.478465,-49.124926,2604,31070.27801
D1,Alvorada/TO,-12.478465,-49.124926,31,369.88426
1,Além Paraíba/MG,-21.8760576,-42.6810473,5793,16346.85930
D1,Além Paraíba/MG,-21.8760576,-42.6810473,168,474.06739
1,Amajari/RR,3.6523869,-61.4194315,1247,9195.48706
D1,Amajari/RR,3.6523869,-61.4194315,25,184.35219
1,Amambai/MS,-23.1082701,-55.2284854,5426,13481.75019
D1,Amambai/MS,-23.1082701,-55.2284854,95,236.04244
1,Amaporã/PR,-23.094272,-52.786597,802,12521.46760
D1,Amaporã/PR,-23.094272,-52.786597,8,124.90242
1,Amapá do Maranhão/MA,-1.6762114,-46.0109669,172,2440.75493
D1,Amapá do Maranhão/MA,-1.6762114,-46.0109669,6,85.14261
1,Amapá/AP,2.0529997,-50.7930003,1874,20226.65947
D1,Amapá/AP,2.0529997,-50.7930003,13,140.31301
1,Amaraji/PE,-8.373925,-35.4536527,982,4286.33784
D1,Amaraji/PE,-8.373925,-35.4536527,49,213.88040
1,Amaral Ferrador/RS,-30.8750633,-52.2542051,468,6558.29596
D1,Amaral Ferrador/RS,-30.8750633,-52.2542051,12,168.16143
1,Amaralina/GO,-13.9236199,-49.2962411,198,5109.67742
D1,Amaralina/GO,-13.9236199,-49.2962411,2,51.61290
1,Amarante do Maranhão/MA,-5.56913,-46.747284,1821,4333.96006
D1,Amarante do Maranhão/MA,-5.56913,-46.747284,59,140.41935
1,Amarante/PI,-6.2459374,-42.8476238,1731,9830.20047
D1,Amarante/PI,-6.2459374,-42.8476238,36,204.44091
1,Amargosa/BA,-13.03793715,-39.60796443875596,4469,11875.84704
D1,Amargosa/BA,-13.03793715,-39.60796443875596,60,159.44301
1,Amaturá/AM,-3.3640509,-68.1994689,2622,21970.83962
D1,Amaturá/AM,-3.3640509,-68.1994689,19,159.20898
1,Americana/SP,-22.7392463,-47.3306032,27650,11314.80951
D1,Americana/SP,-22.7392463,-47.3306032,930,380.57045
1,Americano do Brasil/GO,-16.2515808,-49.9806104,1186,19067.52412
D1,Americano do Brasil/GO,-16.2515808,-49.9806104,25,401.92926
1,Ametista do Sul/RS,-27.3617341,-53.1826575,1573,21268.25311
D1,Ametista do Sul/RS,-27.3617341,-53.1826575,26,351.54137
1,Amontada/CE,-3.3634586,-39.8284791,3554,8041.63367
D1,Amontada/CE,-3.3634586,-39.8284791,60,135.76196
1,Amorinópolis/GO,-16.6211308,-51.0949921,540,17934.24112
D1,Amorinópolis/GO,-16.6211308,-51.0949921,11,365.32713
1,Amparo de São Francisco/SE,-10.1299754,-36.9269099,258,10813.07628
D1,Amparo de São Francisco/SE,-10.1299754,-36.9269099,5,209.55574
1,Amparo do Serra/MG,-20.5070255,-42.8028462,272,5858.28128
D1,Amparo do Serra/MG,-20.5070255,-42.8028462,10,215.37799
1,Amparo/PB,-7.56394725,-37.04652873235175,281,12411.66078
D1,Amparo/PB,-7.56394725,-37.04652873235175,4,176.67845
1,Amparo/SP,-22.70111,-46.76444,9868,13491.01101
D1,Amparo/SP,-22.70111,-46.76444,241,329.48253
1,Ampére/PR,-25.9168712,-53.4742414,4663,23954.58749
D1,Ampére/PR,-25.9168712,-53.4742414,63,323.64122
1,Amélia Rodrigues/BA,-12.4015388,-38.7516971,2799,11197.34368
D1,Amélia Rodrigues/BA,-12.4015388,-38.7516971,53,212.02544
1,América Dourada/BA,-11.4515262,-41.4357517,1066,6626.88052
D1,América Dourada/BA,-11.4515262,-41.4357517,13,80.81562
1,Américo Brasiliense/SP,-21.7297099,-48.1052092,4859,11695.75159
D1,Américo Brasiliense/SP,-21.7297099,-48.1052092,103,247.92394
1,Américo de Campos/SP,-20.298476,-49.735904,1278,21324.87903
D1,Américo de Campos/SP,-20.298476,-49.735904,36,600.70082
1,Anadia/AL,-9.6830208,-36.3052699,1692,9664.70555
D1,Anadia/AL,-9.6830208,-36.3052699,36,205.63203
1,Anagé/BA,-14.6134669,-41.1376308,1213,5713.88195
D1,Anagé/BA,-14.6134669,-41.1376308,31,146.02666
1,Anahy/PR,-24.6450861,-53.1337957,647,23323.72026
D1,Anahy/PR,-24.6450861,-53.1337957,15,540.73540
1,Anajatuba/MA,-3.26441,-44.6179916,1482,5454.54545
D1,Anajatuba/MA,-3.26441,-44.6179916,27,99.37431
1,Anajás/PA,-0.9878802,-49.9390114,1385,4602.70513
D1,Anajás/PA,-0.9878802,-49.9390114,22,73.11156
1,Analândia/SP,-22.128917,-47.661939,467,9130.00978
D1,Analândia/SP,-22.128917,-47.661939,5,97.75171
1,Anamã/AM,-3.5797356,-61.4049996,2477,17331.37420
D1,Anamã/AM,-3.5797356,-61.4049996,11,76.96613
1,Ananindeua/PA,-1.374035,-48.4016623,28782,5325.95622
D1,Ananindeua/PA,-1.374035,-48.4016623,845,156.36276
1,Ananás/TO,-6.3663053,-48.080238,2072,21960.78431
D1,Ananás/TO,-6.3663053,-48.080238,28,296.76736
1,Anapu/PA,-3.4668292,-51.2057035,2108,7191.59389
D1,Anapu/PA,-3.4668292,-51.2057035,64,218.34061
1,Anapurus/MA,-3.6751298,-43.1046001,832,5182.50903
D1,Anapurus/MA,-3.6751298,-43.1046001,15,93.43466
1,Anastácio/MS,-20.4832458,-55.8048448,3093,12207.92548
D1,Anastácio/MS,-20.4832458,-55.8048448,90,355.22577
1,Anaurilândia/MS,-22.185169,-52.719056,641,7031.59280
D1,Anaurilândia/MS,-22.185169,-52.719056,16,175.51558
1,Anchieta/ES,-20.8057672,-40.6454564,9012,29757.30560
D1,Anchieta/ES,-20.8057672,-40.6454564,109,359.91415
1,Anchieta/SC,-26.5350527,-53.3293938,991,18093.84700
D1,Anchieta/SC,-26.5350527,-53.3293938,11,200.83988
1,Andaraí/BA,-12.8059674,-41.3322919,1230,9373.57110
D1,Andaraí/BA,-12.8059674,-41.3322919,12,91.44947
1,Andirá/PR,-23.0494761,-50.2310027,4718,23800.63563
D1,Andirá/PR,-23.0494761,-50.2310027,97,489.33058
1,Andorinha/BA,-10.3445708,-39.8334411,1195,8289.40067
D1,Andorinha/BA,-10.3445708,-39.8334411,18,124.86127
1,Andradas/MG,-22.0680484,-46.5688976,6372,15279.10992
D1,Andradas/MG,-22.0680484,-46.5688976,130,311.72070
1,Andradina/SP,-20.896505,-51.3742765,10170,17765.74373
D1,Andradina/SP,-20.896505,-51.3742765,298,520.56948
1,Andrelândia/MG,-21.739722,-44.308889,206,1690.04840
D1,Andrelândia/MG,-21.739722,-44.308889,17,139.47001
1,André da Rocha/RS,-28.6309124,-51.5733328,177,13101.40637
D1,André da Rocha/RS,-28.6309124,-51.5733328,1,74.01925
1,Angatuba/SP,-23.4938938,-48.4110675,3254,12649.66568
D1,Angatuba/SP,-23.4938938,-48.4110675,84,326.54331
1,Angelim/PE,-8.8902038,-36.2872987,257,2274.13503
D1,Angelim/PE,-8.8902038,-36.2872987,13,115.03407
1,Angelina/SC,-27.5805287,-48.9838759,823,17562.95348
D1,Angelina/SC,-27.5805287,-48.9838759,6,128.04097
1,Angelândia/MG,-17.7253,-42.2728,275,3199.90691
D1,Angelândia/MG,-17.7253,-42.2728,4,46.54410
1,Angical do Piauí/PI,-6.0872666,-42.7366138,901,13291.04588
D1,Angical do Piauí/PI,-6.0872666,-42.7366138,12,177.01726
1,Angical/BA,-12.005623,-44.7000236,1050,7552.87009
D1,Angical/BA,-12.005623,-44.7000236,20,143.86419
1,Angico/TO,-6.3893733,-47.8656722,259,7453.23741
D1,Angico/TO,-6.3893733,-47.8656722,5,143.88489
1,Angicos/RN,-5.6666344,-36.6009064,1149,9824.71142
D1,Angicos/RN,-5.6666344,-36.6009064,26,222.31723
1,Angra dos Reis/RJ,-23.0063966,-44.316326,21106,10042.29889
D1,Angra dos Reis/RJ,-23.0063966,-44.316326,590,280.72379
1,Anguera/BA,-12.1509425,-39.2452469,624,5488.60938
D1,Anguera/BA,-12.1509425,-39.2452469,2,17.59170
1,Angélica/MS,-22.1588196,-53.7728504,2012,18157.20603
D1,Angélica/MS,-22.1588196,-53.7728504,21,189.51358
1,Anhanguera/GO,-18.3338749,-48.220363,180,15371.47737
D1,Anhanguera/GO,-18.3338749,-48.220363,7,597.77968
1,Anhembi/SP,-22.7891096,-48.1316776,397,5744.46535
D1,Anhembi/SP,-22.7891096,-48.1316776,11,159.16655
1,Anhumas/SP,-22.2956478,-51.3873401,397,9515.81975
D1,Anhumas/SP,-22.2956478,-51.3873401,9,215.72387
1,Anicuns/GO,-16.4606451,-49.9572265,5623,25428.48098
D1,Anicuns/GO,-16.4606451,-49.9572265,78,352.73369
1,Anita Garibaldi/SC,-27.6855032,-51.1293873,1790,26389.50317
D1,Anita Garibaldi/SC,-27.6855032,-51.1293873,11,162.17013
1,Anitápolis/SC,-27.9041185,-49.1287395,429,13310.58020
D1,Anitápolis/SC,-27.9041185,-49.1287395,6,186.16196
1,Anori/AM,-3.7435254,-61.6605203,2670,12171.21758
D1,Anori/AM,-3.7435254,-61.6605203,33,150.43078
1,Anta Gorda/RS,-28.9718745,-52.0069187,956,16091.56708
D1,Anta Gorda/RS,-28.9718745,-52.0069187,8,134.65747
1,Antas/BA,-10.4114649,-38.3308815,1402,7131.59367
D1,Antas/BA,-10.4114649,-38.3308815,13,66.12747
1,Antonina do Norte/CE,-6.7754187,-39.9879345,988,13347.74385
D1,Antonina do Norte/CE,-6.7754187,-39.9879345,26,351.25642
1,Antonina/PR,-25.4298854,-48.7125431,3828,20233.62757
D1,Antonina/PR,-25.4298854,-48.7125431,73,385.85549
1,Antônio Almeida/PI,-7.2186016,-44.1950248,409,12881.88976
D1,Antônio Almeida/PI,-7.2186016,-44.1950248,10,314.96063
1,Antônio Cardoso/BA,-12.4363122,-39.1200307,664,5689.80291
D1,Antônio Cardoso/BA,-12.4363122,-39.1200307,11,94.25878
1,Antônio Carlos/MG,-21.318334,-43.746666,1584,13808.73507
D1,Antônio Carlos/MG,-21.318334,-43.746666,19,165.63508
1,Antônio Carlos/SC,-27.5168462,-48.7684715,2336,26813.59045
D1,Antônio Carlos/SC,-27.5168462,-48.7684715,29,332.87420
1,Antônio Dias/MG,-19.6525,-42.872778,778,8426.29698
D1,Antônio Dias/MG,-19.6525,-42.872778,29,314.09076
1,Antônio Gonçalves/BA,-10.5715409,-40.2748824,988,8264.32455
D1,Antônio Gonçalves/BA,-10.5715409,-40.2748824,10,83.64701
1,Antônio João/MS,-22.1892837,-55.9508227,1016,11186.96322
D1,Antônio João/MS,-22.1892837,-55.9508227,20,220.21581
1,Antônio Martins/RN,-6.2155812,-37.8890129,946,13208.60095
D1,Antônio Martins/RN,-6.2155812,-37.8890129,7,97.73806
1,Antônio Olinto/PR,-25.9849006,-50.1974516,917,12356.82523
D1,Antônio Olinto/PR,-25.9849006,-50.1974516,16,215.60437
1,Antônio Prado de Minas/MG,-21.0171988,-42.1101106,166,10526.31579
D1,Antônio Prado de Minas/MG,-21.0171988,-42.1101106,5,317.05770
1,Antônio Prado/RS,-28.8567806,-51.2801355,4056,31101.90936
D1,Antônio Prado/RS,-28.8567806,-51.2801355,35,268.38433
1,Anápolis/GO,-16.3332828,-48.9525756,61416,15488.51778
D1,Anápolis/GO,-16.3332828,-48.9525756,1881,474.36990
1,Anísio de Abreu/PI,-9.185643,-43.04941,291,2911.74705
D1,Anísio de Abreu/PI,-9.185643,-43.04941,15,150.09005
1,Aparecida d'Oeste/SP,-20.4498109,-50.8808706,1274,30907.32654
D1,Aparecida d'Oeste/SP,-20.4498109,-50.8808706,22,533.72149
1,Aparecida de Goiânia/GO,-16.8226769,-49.2452546,107070,17790.32440
D1,Aparecida de Goiânia/GO,-16.8226769,-49.2452546,1846,306.72400
1,Aparecida do Rio Doce/GO,-18.2980167,-51.1491312,283,11438.96524
D1,Aparecida do Rio Doce/GO,-18.2980167,-51.1491312,5,202.10186
1,Aparecida do Rio Negro/TO,-9.9513491,-47.9773786,401,8182.00367
D1,Aparecida do Rio Negro/TO,-9.9513491,-47.9773786,13,265.25199
1,Aparecida do Taboado/MS,-20.0840304,-51.1013943,5369,20347.91177
D1,Aparecida do Taboado/MS,-20.0840304,-51.1013943,67,253.92253
1,Aparecida/PB,-6.7859598, -38.0831353,1476,17401.55624
D1,Aparecida/PB,-6.7859598, -38.0831353,16,188.63476
1,Aparecida/SP,-22.851552,-45.2340924,2946,8135.64939
D1,Aparecida/SP,-22.851552,-45.2340924,120,331.39101
1,Aperibé/RJ,-21.6211928,-42.1028167,1461,12138.58425
D1,Aperibé/RJ,-21.6211928,-42.1028167,32,265.86906
1,Apiacá/ES,-21.152272,-41.569297,1993,26425.35137
D1,Apiacá/ES,-21.152272,-41.569297,38,503.84513
1,Apiacás/MT,-9.5678422,-57.394852,2629,25203.71968
D1,Apiacás/MT,-9.5678422,-57.394852,19,182.14936
1,Apiaí/SP,-24.5076527,-48.8461582,1786,7416.63552
D1,Apiaí/SP,-24.5076527,-48.8461582,100,415.26515
1,Apicum-Açu/MA,-1.5279295,-45.082278,673,3827.77841
D1,Apicum-Açu/MA,-1.5279295,-45.082278,11,62.56399
1,Apiúna/SC,-27.0374658,-49.3885037,1337,12208.93069
D1,Apiúna/SC,-27.0374658,-49.3885037,20,182.63172
1,Apodi/RN,-5.6631109,-37.796927,8218,22888.81462
D1,Apodi/RN,-5.6631109,-37.796927,106,295.23173
1,Aporá/BA,-11.6599747,-38.0794757,709,3974.21525
D1,Aporá/BA,-11.6599747,-38.0794757,20,112.10762
1,Aporé/GO,-18.9642193,-51.92804,782,18330.98922
D1,Aporé/GO,-18.9642193,-51.92804,11,257.85279
1,Apuarema/BA,-13.8517897,-39.7457126,882,12125.37806
D1,Apuarema/BA,-13.8517897,-39.7457126,11,151.22354
1,Apucarana/PR,-23.5525327,-51.4610764,17471,12711.91374
D1,Apucarana/PR,-23.5525327,-51.4610764,518,376.89722
1,Apuiarés/CE,-3.9460303,-39.4313298,1606,10894.04423
D1,Apuiarés/CE,-3.9460303,-39.4313298,26,176.36684
1,Apuí/AM,-7.1940195,-59.8830192,2101,9239.63235
D1,Apuí/AM,-7.1940195,-59.8830192,36,158.31831
1,Aquidabã/SE,-10.2837579,-37.0188687,2588,11873.73830
D1,Aquidabã/SE,-10.2837579,-37.0188687,43,197.28391
1,Aquidauana/MS,-20.473969,-55.7821375,7071,14674.99585
D1,Aquidauana/MS,-20.473969,-55.7821375,169,350.73883
1,Aquiraz/CE,-3.9063117,-38.387504,9955,12202.59619
D1,Aquiraz/CE,-3.9063117,-38.387504,102,125.02911
1,Arabutã/SC,-27.1587028,-52.1438142,630,14761.01218
D1,Arabutã/SC,-27.1587028,-52.1438142,10,234.30178
1,Aracaju/SE,-10.9162061,-37.0774655,148630,22097.36937
D1,Aracaju/SE,-10.9162061,-37.0774655,2501,371.83288
1,Aracati/CE,-4.558259,-37.767894,11800,15651.52801
D1,Aracati/CE,-4.558259,-37.767894,175,232.12012
1,Aracatu/BA,-14.4274236,-41.4604105,1257,9699.07407
D1,Aracatu/BA,-14.4274236,-41.4604105,22,169.75309
1,Araci/BA,-11.3356065,-38.9573261,4267,7771.88860
D1,Araci/BA,-11.3356065,-38.9573261,59,107.46225
1,Aracitaba/MG,-21.3425,-43.378611,109,5301.55642
D1,Aracitaba/MG,-21.3425,-43.378611,11,535.01946
1,Aracoiaba/CE,-4.3702577,-38.8084313,4840,18195.48872
D1,Aracoiaba/CE,-4.3702577,-38.8084313,37,139.09774
1,Aracruz/ES,-19.8245218,-40.2735025,33413,31839.49229
D1,Aracruz/ES,-19.8245218,-40.2735025,267,254.42625
1,Aragarças/GO,-15.8957166,-52.2514538,3846,18843.70407
D1,Aragarças/GO,-15.8957166,-52.2514538,82,401.76384
1,Aragoiânia/GO,-16.9146388,-49.4499148,2136,20000.00000
D1,Aragoiânia/GO,-16.9146388,-49.4499148,30,280.89888
1,Aragominas/TO,-7.1654101,-48.525488,822,14408.41367
D1,Aragominas/TO,-7.1654101,-48.525488,11,192.81332
1,Araguacema/TO,-8.8067391,-49.5560969,1064,14730.72131
D1,Araguacema/TO,-8.8067391,-49.5560969,19,263.04859
1,Araguaiana/MT,-15.729144,-51.834112,525,17134.46475
D1,Araguaiana/MT,-15.729144,-51.834112,8,261.09661
1,Araguainha/MT,-16.857016,-53.031778,47,5170.51705
D1,Araguainha/MT,-16.857016,-53.031778,1,110.01100
1,Araguanã/MA,-2.9508403,-45.6651986,845,5390.74960
D1,Araguanã/MA,-2.9508403,-45.6651986,6,38.27751
1,Araguanã/TO,-6.5799107,-48.6428482,607,10365.43716
D1,Araguanã/TO,-6.5799107,-48.6428482,16,273.22404
1,Araguapaz/GO,-15.0937927,-50.626417,854,10955.74086
D1,Araguapaz/GO,-15.0937927,-50.626417,31,397.69083
1,Araguari/MG,-18.6511256,-48.1933764,26690,22549.65740
D1,Araguari/MG,-18.6511256,-48.1933764,492,415.67746
1,Araguatins/TO,-5.6522925,-48.1158973,3138,8580.10007
D1,Araguatins/TO,-5.6522925,-48.1158973,76,207.80357
1,Araguaçu/TO,-12.928934,-49.823134,1617,19208.83820
D1,Araguaçu/TO,-12.928934,-49.823134,23,273.22404
1,Araguaína/TO,-7.193241,-48.2018597,45529,24445.75693
D1,Araguaína/TO,-7.193241,-48.2018597,589,316.25010
1,Araioses/MA,-2.890914,-41.904993,687,1458.75358
D1,Araioses/MA,-2.890914,-41.904993,15,31.85051
1,Aral Moreira/MS,-22.951141,-55.6268421,573,4579.96963
D1,Aral Moreira/MS,-22.951141,-55.6268421,19,151.86636
1,Aramari/BA,-12.0907897,-38.4985065,1009,8759.44092
D1,Aramari/BA,-12.0907897,-38.4985065,14,121.53833
1,Arambaré/RS,-30.9132252,-51.4994625,348,9819.41309
D1,Arambaré/RS,-30.9132252,-51.4994625,9,253.95034
1,Arame/MA,-4.8858769,-46.0102484,1708,5203.35110
D1,Arame/MA,-4.8858769,-46.0102484,42,127.95126
1,Aramina/SP,-20.0876144,-47.789201,383,6732.29038
D1,Aramina/SP,-20.0876144,-47.789201,20,351.55563
1,Arandu/SP,-23.1345103,-49.0545651,658,10324.80778
D1,Arandu/SP,-23.1345103,-49.0545651,22,345.20634
1,Arantina/MG,-21.911667,-44.255833,443,15940.98597
D1,Arantina/MG,-21.911667,-44.255833,6,215.90500
1,Arapeí/SP,-22.6738889,-44.4477778,272,11092.98532
D1,Arapeí/SP,-22.6738889,-44.4477778,4,163.13214
1,Arapiraca/AL,-9.754866,-36.661471,35567,15179.52789
D1,Arapiraca/AL,-9.754866,-36.661471,545,232.59883
1,Arapoema/TO,-7.6575001,-49.0641484,618,9377.84522
D1,Arapoema/TO,-7.6575001,-49.0641484,12,182.09408
1,Araponga/MG,-20.666667,-42.520556,949,11208.22015
D1,Araponga/MG,-20.666667,-42.520556,13,153.53726
1,Arapongas/PR,-23.415296,-51.42592,21686,17136.98684
D1,Arapongas/PR,-23.415296,-51.42592,619,489.15406
1,Araporã/MG,-18.4318188,-49.188313,2635,37685.92677
D1,Araporã/MG,-18.4318188,-49.188313,43,614.98856
1,Arapoti/PR,-24.1457957,-49.8224605,5144,18061.79775
D1,Arapoti/PR,-24.1457957,-49.8224605,68,238.76404
1,Araputanga/MT,-15.4710868,-58.346796,3344,19580.74716
D1,Araputanga/MT,-15.4710868,-58.346796,56,327.90725
1,Arapuá/MG,-19.034444,-46.155556,435,15338.50494
D1,Arapuá/MG,-19.034444,-46.155556,3,105.78279
1,Arapuã/PR,-24.3079525,-51.7901941,717,24296.84853
D1,Arapuã/PR,-24.3079525,-51.7901941,9,304.98136
1,Araquari/SC,-26.3703324,-48.7210994,6419,15698.21472
D1,Araquari/SC,-26.3703324,-48.7210994,93,227.43947
1,Arara/PB,-6.8271895,-35.7605703,1133,8322.92661
D1,Arara/PB,-6.8271895,-35.7605703,30,220.37758
1,Araranguá/SC,-28.9348832,-49.4858389,14620,21038.09017
D1,Araranguá/SC,-28.9348832,-49.4858389,272,391.40633
1,Araraquara/SP,-21.7886713,-48.1773096,24312,10107.17463
D1,Araraquara/SP,-21.7886713,-48.1773096,581,241.53786
1,Araras/SP,-22.3569477,-47.3838889,19532,14284.14717
D1,Araras/SP,-22.3569477,-47.3838889,422,308.61715
1,Ararendá/CE,-4.7504395,-40.8303611,1785,16252.39006
D1,Ararendá/CE,-4.7504395,-40.8303611,22,200.30957
1,Arari/MA,-3.4547602,-44.7772723,1088,3624.97501
D1,Arari/MA,-3.4547602,-44.7772723,36,119.94403
1,Araricá/RS,-29.6168543,-50.929121,1436,24589.04110
D1,Araricá/RS,-29.6168543,-50.929121,28,479.45205
1,Araripe/CE,-7.212861,-40.1359222,1702,7840.78869
D1,Araripe/CE,-7.212861,-40.1359222,25,115.17022
1,Araripina/PE,-7.5768582,-40.5038509,9341,10950.63364
D1,Araripina/PE,-7.5768582,-40.5038509,175,205.15586
1,Araruama/RJ,-22.8733203,-42.3428897,9031,6635.12332
D1,Araruama/RJ,-22.8733203,-42.3428897,498,365.88323
1,Araruna/PB,-6.5321155,-35.7397595,906,4395.92431
D1,Araruna/PB,-6.5321155,-35.7397595,18,87.33624
1,Araruna/PR,-23.9320308,-52.4976047,2917,20792.64381
D1,Araruna/PR,-23.9320308,-52.4976047,37,263.73940
1,Arataca/BA,-15.2617424,-39.4122943,954,8749.08291
D1,Arataca/BA,-15.2617424,-39.4122943,16,146.73514
1,Aratiba/RS,-27.3955734,-52.3024325,735,11960.94386
D1,Aratiba/RS,-27.3955734,-52.3024325,8,130.18714
1,Aratuba/CE,-4.4195958,-39.0463737,2029,17254.86861
D1,Aratuba/CE,-4.4195958,-39.0463737,14,119.05774
1,Aratuípe/BA,-13.077137,-39.0010786,1041,11765.37071
D1,Aratuípe/BA,-13.077137,-39.0010786,12,135.62387
1,Araucária/PR,-25.5861107,-49.4051209,39585,26652.61712
D1,Araucária/PR,-25.5861107,-49.4051209,566,381.08832
1,Arauá/SE,-11.2644014,-37.6181058,1406,14288.61789
D1,Arauá/SE,-11.2644014,-37.6181058,23,233.73984
1,Araxá/MG,-19.5928536,-46.940241,29824,27512.15372
D1,Araxá/MG,-19.5928536,-46.940241,267,246.30315
1,Araçagi/PB,-6.8519969,-35.3835602,2149,12748.41312
D1,Araçagi/PB,-6.8519969,-35.3835602,27,160.17085
1,Araçariguama/SP,-23.438611,-47.061389,2578,11043.99606
D1,Araçariguama/SP,-23.438611,-47.061389,75,321.29546
1,Araçatuba/SP,-21.207992,-50.4390225,40084,20121.47985
D1,Araçatuba/SP,-21.207992,-50.4390225,972,487.92731
1,Araçaí/MG,-19.200833,-44.2475,104,4406.77966
D1,Araçaí/MG,-19.200833,-44.2475,2,84.74576
1,Araçoiaba da Serra/SP,-23.5045367,-47.6168158,3203,9050.83501
D1,Araçoiaba da Serra/SP,-23.5045367,-47.6168158,95,268.44500
1,Araçoiaba/PE,-7.7856903,-35.0898881,1076,5139.47268
D1,Araçoiaba/PE,-7.7856903,-35.0898881,34,162.39969
1,Araçu/GO,-16.3561579,-49.6815269,1178,34144.92754
D1,Araçu/GO,-16.3561579,-49.6815269,20,579.71014
1,Araçuaí/MG,-16.8484451,-42.0661868,3281,8936.40202
D1,Araçuaí/MG,-16.8484451,-42.0661868,60,163.42095
1,Araçás/BA,-12.2139176,-38.2026159,875,7150.44537
D1,Araçás/BA,-12.2139176,-38.2026159,17,138.92294
1,Araújos/MG,-19.948055,-45.165556,947,9944.34527
D1,Araújos/MG,-19.948055,-45.165556,14,147.01250
1,Arceburgo/MG,-21.364444,-46.939722,2006,18252.95723
D1,Arceburgo/MG,-21.364444,-46.939722,34,309.37216
1,Arco-Íris/SP,-21.7741308,-50.4668814,305,17378.91738
D1,Arco-Íris/SP,-21.7741308,-50.4668814,8,455.84046
1,Arcos/MG,-20.282223,-45.539444,9650,23734.56638
D1,Arcos/MG,-20.282223,-45.539444,142,349.25476
1,Arcoverde/PE,-8.415192,-37.057748,8624,11453.61578
D1,Arcoverde/PE,-8.415192,-37.057748,138,183.27910
1,Areado/MG,-21.3582771,-46.1476688,2325,15208.00628
D1,Areado/MG,-21.3582771,-46.1476688,34,222.39665
1,Areal/RJ,-22.2314922,-43.1056264,1813,14205.12419
D1,Areal/RJ,-22.2314922,-43.1056264,52,407.42772
1,Arealva/SP,-22.0301906,-48.9111936,1469,16953.26024
D1,Arealva/SP,-22.0301906,-48.9111936,22,253.89498
1,Areia Branca/RN,-4.9506652,-37.1263312,3938,13986.36170
D1,Areia Branca/RN,-4.9506652,-37.1263312,113,401.33542
1,Areia Branca/SE,-10.7591455,-37.3148072,2366,12568.39309
D1,Areia Branca/SE,-10.7591455,-37.3148072,50,265.60425
1,Areia de Baraúnas/PB,-7.1233949,-36.9446216,314,14916.86461
D1,Areia de Baraúnas/PB,-7.1233949,-36.9446216,7,332.54157
1,Areia/PB,-6.9680243,-35.6994783,2725,12114.88018
D1,Areia/PB,-6.9680243,-35.6994783,35,155.60397
1,Areial/PB,-7.0501306,-35.9245244,537,7612.70201
D1,Areial/PB,-7.0501306,-35.9245244,13,184.29260
1,Areias/SP,-22.5800929,-44.6975127,363,9293.39478
D1,Areias/SP,-22.5800929,-44.6975127,2,51.20328
1,Areiópolis/SP,-22.6758064,-48.6673653,1822,16288.21741
D1,Areiópolis/SP,-22.6758064,-48.6673653,28,250.31289
1,Arenápolis/MT,-14.4610369,-56.8432806,2666,28364.71965
D1,Arenápolis/MT,-14.4610369,-56.8432806,43,457.49548
1,Arenópolis/GO,-16.3859286,-51.55937,590,23964.25670
D1,Arenópolis/GO,-16.3859286,-51.55937,9,365.55646
1,Argirita/MG,-21.612761,-42.8371922,520,19395.74786
D1,Argirita/MG,-21.612761,-42.8371922,13,484.89370
1,Aricanduva/MG,-17.8678,-42.5569,320,6032.04524
1,Arinos/MG,-15.917223,-46.106111,2044,11450.98039
D1,Arinos/MG,-15.917223,-46.106111,30,168.06723
1,Aripuanã/MT,-10.175806,-59.4439663,5142,22291.58538
D1,Aripuanã/MT,-10.175806,-59.4439663,54,234.10066
1,Ariquemes/RO,-9.9076522,-63.033069,28826,25934.78965
D1,Ariquemes/RO,-9.9076522,-63.033069,538,484.03930
1,Ariranha do Ivaí/PR,-24.3834527,-51.5876772,497,24531.09576
D1,Ariranha do Ivaí/PR,-24.3834527,-51.5876772,4,197.43337
1,Ariranha/SP,-21.18716,-48.790418,1031,10465.94254
D1,Ariranha/SP,-21.18716,-48.790418,34,345.14263
1,Armazém/SC,-28.2624996,-49.0190126,1585,17923.78152
D1,Armazém/SC,-28.2624996,-49.0190126,36,407.10166
1,Armação dos Búzios/RJ,-22.7597805,-41.8875267,7295,20807.18768
D1,Armação dos Búzios/RJ,-22.7597805,-41.8875267,80,228.18026
1,Arneiroz/CE,-6.3235099,-40.1603859,829,10563.20082
D1,Arneiroz/CE,-6.3235099,-40.1603859,21,267.58410
1,Aroazes/PI,-6.1108814,-41.7886137,694,11926.44784
D1,Aroazes/PI,-6.1108814,-41.7886137,14,240.59117
1,Aroeiras do Itaim/PI,-7.2797031,-41.5629681,188,7369.65896
D1,Aroeiras do Itaim/PI,-7.2797031,-41.5629681,2,78.40063
1,Aroeiras/PB,-7.5462904,-35.7080002,2637,13820.03040
D1,Aroeiras/PB,-7.5462904,-35.7080002,19,99.57549
1,Arraial do Cabo/RJ,-22.9662839,-42.024427,1980,6422.94093
D1,Arraial do Cabo/RJ,-22.9662839,-42.024427,49,158.95157
1,Arraial/PI,-6.6541632,-42.5335332,172,3649.48016
D1,Arraial/PI,-6.6541632,-42.5335332,3,63.65372
1,Arraias/TO,-12.9287788,-46.9437231,1217,11588.26890
D1,Arraias/TO,-12.9287788,-46.9437231,13,123.78595
1,Arroio Grande/RS,-32.2384246,-53.0866661,2460,13527.63266
D1,Arroio Grande/RS,-32.2384246,-53.0866661,60,329.94226
1,Arroio Trinta/SC,-26.9301976,-51.334928,1034,29151.39555
D1,Arroio Trinta/SC,-26.9301976,-51.334928,15,422.89259
1,Arroio do Meio/RS,-29.4020392,-51.9444993,4165,19719.71024
D1,Arroio do Meio/RS,-29.4020392,-51.9444993,54,255.66971
1,Arroio do Padre/RS,-31.4428773,-52.4228985,360,12137.55900
D1,Arroio do Padre/RS,-31.4428773,-52.4228985,4,134.86177
1,Arroio do Sal/RS,-29.549852,-49.8874395,2694,25698.75036
D1,Arroio do Sal/RS,-29.549852,-49.8874395,41,391.10942
1,Arroio do Tigre/RS,-29.334158,-53.0888935,2328,17305.97681
D1,Arroio do Tigre/RS,-29.334158,-53.0888935,23,170.97829
1,Arroio dos Ratos/RS,-30.0894524,-51.7265541,1750,12323.07584
D1,Arroio dos Ratos/RS,-30.0894524,-51.7265541,45,316.87909
1,Artur Nogueira/SP,-22.572737,-47.172679,7437,13222.03851
D1,Artur Nogueira/SP,-22.572737,-47.172679,151,268.45876
1,Aruanã/GO,-14.9162439,-51.0715692,1136,10986.46035
D1,Aruanã/GO,-14.9162439,-51.0715692,20,193.42360
1,Arujá/SP,-23.396266,-46.3175449,9117,9861.22679
D1,Arujá/SP,-23.396266,-46.3175449,354,382.89726
1,Arvoredo/SC,-27.0752908,-52.4571847,423,18985.63734
D1,Arvoredo/SC,-27.0752908,-52.4571847,5,224.41652
1,Arvorezinha/RS,-28.87369,-52.17808,1409,13519.47803
D1,Arvorezinha/RS,-28.87369,-52.17808,30,287.85262
1,Arês/RN,-6.1969216,-35.1642968,1407,9686.08013
D1,Arês/RN,-6.1969216,-35.1642968,27,185.87361
1,Ascurra/SC,-26.9569975,-49.3767752,2132,26580.22690
D1,Ascurra/SC,-26.9569975,-49.3767752,13,162.07455
1,Aspásia/SP,-20.160028,-50.728046,323,17796.14325
D1,Aspásia/SP,-20.160028,-50.728046,9,495.86777
1,Assaré/CE,-6.8746791,-39.8741385,2843,12078.85457
D1,Assaré/CE,-6.8746791,-39.8741385,51,216.68012
1,Assaí/PR,-23.3736041,-50.8454929,2795,18895.34884
D1,Assaí/PR,-23.3736041,-50.8454929,58,392.10384
1,Assis Brasil/AC,-10.9409203,-69.5672108,1992,26042.61995
D1,Assis Brasil/AC,-10.9409203,-69.5672108,24,313.76651
1,Assis Chateaubriand/PR,-24.4054826,-53.5120468,8282,24866.39044
D1,Assis Chateaubriand/PR,-24.4054826,-53.5120468,138,414.33976
1,Assis/SP,-22.6620892,-50.420623,13505,12768.51222
D1,Assis/SP,-22.6620892,-50.420623,439,415.05938
1,Assunção do Piauí/PI,-5.8610212,-41.0485091,410,5203.70605
D1,Assunção do Piauí/PI,-5.8610212,-41.0485091,10,126.91966
1,Assunção/PB,-7.073396,-36.7274003,662,16277.35432
D1,Assunção/PB,-7.073396,-36.7274003,6,147.52889
1,Astolfo Dutra/MG,-21.3132636,-42.8624102,2082,14500.62683
D1,Astolfo Dutra/MG,-21.3132636,-42.8624102,29,201.97799
1,Astorga/PR,-23.2350184,-51.6647074,7301,27756.23479
D1,Astorga/PR,-23.2350184,-51.6647074,102,387.77372
1,Atalaia do Norte/AM,-4.3658547,-70.1908742,3909,18732.02990
D1,Atalaia do Norte/AM,-4.3658547,-70.1908742,11,52.71229
1,Atalaia/AL,-9.5029595,-36.0219316,1798,3782.07825
D1,Atalaia/AL,-9.5029595,-36.0219316,55,115.69205
1,Atalaia/PR,-23.1513833,-52.0529697,913,23585.63679
D1,Atalaia/PR,-23.1513833,-52.0529697,25,645.82795
1,Atalanta/SC,-27.421916,-49.778863,795,25007.86411
D1,Atalanta/SC,-27.421916,-49.778863,11,346.02076
1,Ataléia/MG,-18.04432,-41.1110524,1491,11931.81818
D1,Ataléia/MG,-18.04432,-41.1110524,12,96.03073
1,Atibaia/SP,-23.1177393,-46.5547861,12845,8835.58723
D1,Atibaia/SP,-23.1177393,-46.5547861,312,214.61294
1,Atilio Vivacqua/ES,-20.9139369,-41.1947519,2730,22249.38875
D1,Atilio Vivacqua/ES,-20.9139369,-41.1947519,35,285.24857
1,Augustinópolis/TO,-5.4662267,-47.8897519,2057,10900.90090
D1,Augustinópolis/TO,-5.4662267,-47.8897519,32,169.58135
1,Augusto Corrêa/PA,-1.0229335,-46.6404029,2387,5085.54019
D1,Augusto Corrêa/PA,-1.0229335,-46.6404029,52,110.78680
1,Augusto Pestana/RS,-28.5148413,-53.9906433,1485,22689.07563
D1,Augusto Pestana/RS,-28.5148413,-53.9906433,14,213.90374
1,Augusto de Lima/MG,-18.1092963,-44.2651945,327,6765.98386
D1,Augusto de Lima/MG,-18.1092963,-44.2651945,11,227.60190
1,Aurelino Leal/BA,-14.3167137,-39.3256107,1288,11625.59798
D1,Aurelino Leal/BA,-14.3167137,-39.3256107,37,333.96516
1,Auriflama/SP,-20.6840418,-50.5554616,2264,14781.92740
D1,Auriflama/SP,-20.6840418,-50.5554616,82,535.38783
1,Aurilândia/GO,-16.6772599,-50.4641231,816,27200.00000
D1,Aurilândia/GO,-16.6772599,-50.4641231,14,466.66667
1,Aurora do Pará/PA,-2.1323199,-47.558436,1902,5906.83230
D1,Aurora do Pará/PA,-2.1323199,-47.558436,16,49.68944
1,Aurora do Tocantins/TO,-12.71045,-46.407604,424,11131.53059
D1,Aurora do Tocantins/TO,-12.71045,-46.407604,8,210.02888
1,Aurora/CE,-6.9426019,-38.9693765,2431,9895.38812
D1,Aurora/CE,-6.9426019,-38.9693765,44,179.10205
1,Aurora/SC,-27.3166417,-49.6368502,1360,23914.19026
D1,Aurora/SC,-27.3166417,-49.6368502,20,351.67927
1,Autazes/AM,-3.5833283,-59.1301518,4037,9845.14084
D1,Autazes/AM,-3.5833283,-59.1301518,101,246.31143
1,Avanhandava/SP,-21.4603331,-49.9465156,1234,8774.79912
D1,Avanhandava/SP,-21.4603331,-49.9465156,47,334.21034
1,Avaré/SP,-23.1045215,-48.9259103,12538,13659.14241
D1,Avaré/SP,-23.1045215,-48.9259103,296,322.46819
1,Avaí/SP,-22.1564662,-49.3316395,736,13462.59374
D1,Avaí/SP,-22.1564662,-49.3316395,13,237.79038
1,Aveiro/PA,-3.6049239,-55.3310742,1037,6315.08434
D1,Aveiro/PA,-3.6049239,-55.3310742,15,91.34645
1,Avelino Lopes/PI,-10.1346855,-43.9489525,527,4638.67617
D1,Avelino Lopes/PI,-10.1346855,-43.9489525,22,193.64493
1,Avelinópolis/GO,-16.4672409,-49.7578661,453,18867.13869
D1,Avelinópolis/GO,-16.4672409,-49.7578661,17,708.03832
1,Axixá do Tocantins/TO,-5.612747,-47.77007,1250,12733.01416
D1,Axixá do Tocantins/TO,-5.612747,-47.77007,24,244.47387
1,Axixá/MA,-2.8379465,-44.0561053,192,1569.39676
D1,Axixá/MA,-2.8379465,-44.0561053,8,65.39153
1,Açailândia/MA,-4.9514278,-47.4844564,6317,5551.79596
D1,Açailândia/MA,-4.9514278,-47.4844564,286,251.35565
1,Açu/RN,-5.5836157,-36.9139541,9582,16311.73076
D1,Açu/RN,-5.5836157,-36.9139541,165,280.88453
1,Açucena/MG,-19.073056,-42.546666,843,9093.85113
D1,Açucena/MG,-19.073056,-42.546666,38,409.92449
1,Babaçulândia/TO,-7.2034355,-47.761613,896,8398.95013
D1,Babaçulândia/TO,-7.2034355,-47.761613,8,74.99063
1,Bacabal/MA,-4.2318132,-44.781167,5699,5422.76438
D1,Bacabal/MA,-4.2318132,-44.781167,212,201.72417
1,Bacabeira/MA,-2.9775747,-44.3155943,572,3278.68852
D1,Bacabeira/MA,-2.9775747,-44.3155943,11,63.05170
1,Bacuri/MA,-1.728894,-45.1417148,771,4117.27011
D1,Bacuri/MA,-1.728894,-45.1417148,4,21.36067
1,Bacurituba/MA,-2.7082587,-44.7381309,117,2054.07303
D1,Bacurituba/MA,-2.7082587,-44.7381309,2,35.11236
1,Bady Bassitt/SP,-20.9178969,-49.4517911,4375,24288.01421
D1,Bady Bassitt/SP,-20.9178969,-49.4517911,89,494.08760
1,Baependi/MG,-21.959162,-44.8899249,2811,14603.35602
D1,Baependi/MG,-21.959162,-44.8899249,35,181.82763
1,Bagre/PA,-1.8994498,-50.2103844,1318,4123.00185
D1,Bagre/PA,-1.8994498,-50.2103844,12,37.53871
1,Bagé/RS,-31.3314264,-54.1062808,15454,12717.45750
D1,Bagé/RS,-31.3314264,-54.1062808,315,259.22086
1,Baianópolis/BA,-12.3067564,-44.5383591,1233,8820.37342
D1,Baianópolis/BA,-12.3067564,-44.5383591,22,157.37893
1,Baixa Grande do Ribeiro/PI,-7.862861,-45.2113289,2672,22738.49034
D1,Baixa Grande do Ribeiro/PI,-7.862861,-45.2113289,36,306.35691
1,Baixa Grande/BA,-11.9630941,-40.1657537,1272,6225.83329
D1,Baixa Grande/BA,-11.9630941,-40.1657537,22,107.67951
1,Baixio/CE,-6.7303544,-38.7170095,829,13121.24090
D1,Baixio/CE,-6.7303544,-38.7170095,16,253.24470
1,Baixo Guandu/ES,-19.5138322,-41.0182089,8592,27482.96709
D1,Baixo Guandu/ES,-19.5138322,-41.0182089,98,313.46960
1,Baião/PA,-2.7903479,-49.6702845,905,1829.98342
D1,Baião/PA,-2.7903479,-49.6702845,39,78.86116
1,Balbinos/SP,-21.9006253,-49.3583966,568,9270.44230
D1,Balbinos/SP,-21.9006253,-49.3583966,4,65.28480
1,Baldim/MG,-19.2913568,-43.9558262,725,9318.76607
D1,Baldim/MG,-19.2913568,-43.9558262,24,308.48329
1,Baliza/GO,-16.1978119,-52.542789,660,12181.61683
D1,Baliza/GO,-16.1978119,-52.542789,11,203.02695
1,Balneário Arroio do Silva/SC,-28.9815269,-49.4189932,3036,22028.73313
D1,Balneário Arroio do Silva/SC,-28.9815269,-49.4189932,62,449.86214
1,Balneário Barra do Sul/SC,-26.459842,-48.6061471,2036,18064.05820
D1,Balneário Barra do Sul/SC,-26.459842,-48.6061471,51,452.48869
1,Balneário Camboriú/SC,-26.9924395,-48.6339782,34255,22954.96123
D1,Balneário Camboriú/SC,-26.9924395,-48.6339782,475,318.30701
1,Balneário Gaivota/SC,-29.1553098,-49.5808712,2731,23671.66508
D1,Balneário Gaivota/SC,-29.1553098,-49.5808712,39,338.04282
1,Balneário Pinhal/RS,-30.2482978,-50.234585,2447,16708.77433
D1,Balneário Pinhal/RS,-30.2482978,-50.234585,62,423.35268
1,Balneário Piçarras/SC,-26.7638889,-48.6716667,6832,28017.22370
D1,Balneário Piçarras/SC,-26.7638889,-48.6716667,71,291.16260
1,Balneário Rincão/SC,-28.8235718,-49.2241642,2260,17213.80151
D1,Balneário Rincão/SC,-28.8235718,-49.2241642,54,411.30322
1,Balsa Nova/PR,-25.5842234,-49.6312741,2715,20509.14035
D1,Balsa Nova/PR,-25.5842234,-49.6312741,37,279.49841
1,Balsas/MA,-7.53214,-46.037163,14800,15265.44337
D1,Balsas/MA,-7.53214,-46.037163,227,234.13889
1,Bambuí/MG,-20.0131996,-45.9777034,4898,20438.99182
D1,Bambuí/MG,-20.0131996,-45.9777034,40,166.91704
1,Banabuiú/CE,-5.3046404,-38.919766,2670,14579.80669
D1,Banabuiú/CE,-5.3046404,-38.919766,22,120.13324
1,Bananal/SP,-22.6828195,-44.3221095,1134,10272.66963
D1,Bananal/SP,-22.6828195,-44.3221095,4,36.23517
1,Bananeiras/PB,-6.7537682,-35.6338343,1858,8755.89067
D1,Bananeiras/PB,-6.7537682,-35.6338343,28,131.95099
1,Bandeira do Sul/MG,-21.728056,-46.385555,1170,20144.62810
D1,Bandeira do Sul/MG,-21.728056,-46.385555,15,258.26446
1,Bandeira/MG,-15.884444,-40.559167,639,13486.70325
D1,Bandeira/MG,-15.884444,-40.559167,10,211.05952
1,Bandeirante/SC,-26.7677402,-53.6397596,576,22001.52788
D1,Bandeirante/SC,-26.7677402,-53.6397596,7,267.37968
1,Bandeirantes do Tocantins/TO,-7.7635698,-48.579148,631,17378.13275
D1,Bandeirantes do Tocantins/TO,-7.7635698,-48.579148,8,220.32498
1,Bandeirantes/MS,-19.9179623,-54.3646768,683,9380.57959
D1,Bandeirantes/MS,-19.9179623,-54.3646768,12,164.81253
1,Bandeirantes/PR,-23.107788,-50.370407,8250,26560.63874
D1,Bandeirantes/PR,-23.107788,-50.370407,153,492.57912
1,Bannach/PA,-7.3508505,-50.4064531,656,20253.16456
D1,Bannach/PA,-7.3508505,-50.4064531,3,92.62118
1,Banzaê/BA,-10.5827616,-38.6122305,1294,9765.30073
D1,Banzaê/BA,-10.5827616,-38.6122305,12,90.55920
1,Baraúna/PB,-6.643394,-36.2531932,769,15279.15756
D1,Baraúna/PB,-6.643394,-36.2531932,9,178.81979
1,Baraúna/RN,-5.0775002,-37.61752,1744,5990.65677
D1,Baraúna/RN,-5.0775002,-37.61752,30,103.05029
1,Barbacena/MG,-21.2254524,-43.7735087,13605,9783.47632
D1,Barbacena/MG,-21.2254524,-43.7735087,323,232.27217
1,Barbalha/CE,-7.3121067,-39.3036427,8928,14478.93354
D1,Barbalha/CE,-7.3121067,-39.3036427,189,306.50968
1,Barbosa Ferraz/PR,-24.0287182,-52.00811,2719,24089.66067
D1,Barbosa Ferraz/PR,-24.0287182,-52.00811,47,416.40826
1,Barbosa/SP,-21.265661,-49.951816,877,11643.65374
D1,Barbosa/SP,-21.265661,-49.951816,23,305.36378
1,Barcarena/PA,-1.5107945,-48.6190679,12331,9534.30292
D1,Barcarena/PA,-1.5107945,-48.6190679,246,190.20668
1,Barcelona/RN,-5.9514918,-35.9260284,377,9450.99022
D1,Barcelona/RN,-5.9514918,-35.9260284,8,200.55152
1,Barcelos/AM,-0.9729214,-62.925635,5303,19094.77171
D1,Barcelos/AM,-0.9729214,-62.925635,60,216.04494
1,Bariri/SP,-22.0746355,-48.7394852,3501,9767.32508
D1,Bariri/SP,-22.0746355,-48.7394852,139,387.79154
1,Barra Bonita/SC,-26.6526364,-53.4419581,390,24000.00000
D1,Barra Bonita/SC,-26.6526364,-53.4419581,2,123.07692
1,Barra Bonita/SP,-22.490859,-48.558349,5056,13995.84775
D1,Barra Bonita/SP,-22.490859,-48.558349,124,343.25260
1,Barra D'Alcântara/PI,-6.5209258,-42.1071089,156,3946.36985
D1,Barra D'Alcântara/PI,-6.5209258,-42.1071089,5,126.48621
1,Barra Funda/RS,-27.9230048,-53.0401045,900,35115.09949
D1,Barra Funda/RS,-27.9230048,-53.0401045,14,546.23488
1,Barra Longa/MG,-20.2833541,-43.0423516,586,11946.99286
D1,Barra Longa/MG,-20.2833541,-43.0423516,13,265.03568
1,Barra Mansa/RJ,-22.5394843,-44.1735129,41902,22620.75071
D1,Barra Mansa/RJ,-22.5394843,-44.1735129,722,389.77094
1,Barra Velha/SC,-26.6338203,-48.6835001,5939,19447.26415
D1,Barra Velha/SC,-26.6338203,-48.6835001,140,458.43020
1,Barra da Estiva/BA,-13.6269662,-41.3278287,3444,17051.19319
D1,Barra da Estiva/BA,-13.6269662,-41.3278287,35,173.28448
1,Barra de Guabiraba/PE,-8.4173522,-35.6626669,549,3752.05030
D1,Barra de Guabiraba/PE,-8.4173522,-35.6626669,18,123.01804
1,Barra de Santa Rosa/PB,-6.7218007,-36.0564638,1739,11142.43609
D1,Barra de Santa Rosa/PB,-6.7218007,-36.0564638,16,102.51810
1,Barra de Santana/PB,-7.5230865,-35.9988518,1057,12676.90094
D1,Barra de Santana/PB,-7.5230865,-35.9988518,8,95.94627
1,Barra de Santo Antônio/AL,-9.4038098,-35.5117693,572,3530.64626
D1,Barra de Santo Antônio/AL,-9.4038098,-35.5117693,33,203.69113
1,Barra de São Francisco/ES,-18.7570902,-40.8916119,10366,22882.49708
D1,Barra de São Francisco/ES,-18.7570902,-40.8916119,247,545.24183
1,Barra de São Miguel/AL,-9.8261357,-35.8837777,928,11003.08276
D1,Barra de São Miguel/AL,-9.8261357,-35.8837777,8,94.85416
1,Barra de São Miguel/PB,-7.7528088,-36.3170996,1145,18785.89007
D1,Barra de São Miguel/PB,-7.7528088,-36.3170996,10,164.06891
1,Barra do Bugres/MT,-15.0683712,-57.1853688,5769,16185.96038
D1,Barra do Bugres/MT,-15.0683712,-57.1853688,95,266.53948
1,Barra do Chapéu/SP,-24.472203,-49.023784,453,7818.43286
D1,Barra do Chapéu/SP,-24.472203,-49.023784,11,189.85157
1,Barra do Choça/BA,-14.8638173,-40.5761637,2647,8585.51458
D1,Barra do Choça/BA,-14.8638173,-40.5761637,37,120.00908
1,Barra do Corda/MA,-5.496823,-45.248496,5875,6608.92064
D1,Barra do Corda/MA,-5.496823,-45.248496,78,87.74397
1,Barra do Garças/MT,-15.8916033,-52.2615413,13495,21871.25215
D1,Barra do Garças/MT,-15.8916033,-52.2615413,397,643.41512
1,Barra do Guarita/RS,-27.1888016,-53.7147086,129,3949.78567
D1,Barra do Guarita/RS,-27.1888016,-53.7147086,8,244.94795
1,Barra do Jacaré/PR,-23.1151788,-50.1813945,547,19669.18375
D1,Barra do Jacaré/PR,-23.1151788,-50.1813945,7,251.70802
1,Barra do Mendes/BA,-11.8053298,-42.057037,959,7304.99695
D1,Barra do Mendes/BA,-11.8053298,-42.057037,19,144.72882
1,Barra do Ouro/TO,-7.7113784,-47.6743925,174,3723.51808
D1,Barra do Ouro/TO,-7.7113784,-47.6743925,8,171.19623
1,Barra do Piraí/RJ,-22.4703403,-43.8263256,9711,9601.63735
D1,Barra do Piraí/RJ,-22.4703403,-43.8263256,432,427.13493
1,Barra do Quaraí/RS,-30.208947,-57.5505128,696,16422.84096
D1,Barra do Quaraí/RS,-30.208947,-57.5505128,9,212.36432
1,Barra do Ribeiro/RS,-30.2930206,-51.301437,1457,10699.07475
D1,Barra do Ribeiro/RS,-30.2930206,-51.301437,55,403.87722
1,Barra do Rio Azul/RS,-27.4101581,-52.4117471,207,12769.89513
D1,Barra do Rio Azul/RS,-27.4101581,-52.4117471,1,61.69031
1,Barra do Rocha/BA,-14.2090974,-39.6004395,660,11967.36174
D1,Barra do Rocha/BA,-14.2090974,-39.6004395,7,126.92656
1,Barra do Turvo/SP,-24.756421,-48.5056942,743,9768.60373
D1,Barra do Turvo/SP,-24.756421,-48.5056942,24,315.54036
1,Barra dos Coqueiros/SE,-10.9075694,-37.0386249,8368,26616.62267
D1,Barra dos Coqueiros/SE,-10.9075694,-37.0386249,106,337.16085
1,Barra/BA,-11.0892702,-43.1420453,2868,5289.07331
D1,Barra/BA,-11.0892702,-43.1420453,70,129.09175
1,Barracão/PR,-26.252395,-53.6349576,2352,22731.22644
D1,Barracão/PR,-26.252395,-53.6349576,39,376.92085
1,Barracão/RS,-27.6728964,-51.4582928,784,14970.40290
D1,Barracão/RS,-27.6728964,-51.4582928,17,324.61333
1,Barras/PI,-4.2446153,-42.2920241,5927,12531.18525
D1,Barras/PI,-4.2446153,-42.2920241,103,217.76819
1,Barreira/CE,-4.2883361,-38.641094,2092,9209.77328
D1,Barreira/CE,-4.2883361,-38.641094,52,228.92362
1,Barreiras do Piauí/PI,-9.9224524,-45.4763776,114,3396.90107
D1,Barreiras do Piauí/PI,-9.9224524,-45.4763776,4,119.18951
1,Barreiras/BA,-12.1440031,-44.9967406,23155,14615.10301
D1,Barreiras/BA,-12.1440031,-44.9967406,351,221.54615
1,Barreirinha/AM,-2.798863,-57.067897,3743,11370.33324
D1,Barreirinha/AM,-2.798863,-57.067897,67,203.52988
1,Barreirinhas/MA,-2.7541271,-42.8259693,2739,4286.98878
D1,Barreirinhas/MA,-2.7541271,-42.8259693,48,75.12795
1,Barreiros/PE,-8.8159644,-35.1831905,886,2066.90617
D1,Barreiros/PE,-8.8159644,-35.1831905,67,156.30103
1,Barretos/SP,-20.5531437,-48.5697509,20004,16191.53999
D1,Barretos/SP,-20.5531437,-48.5697509,613,496.17147
1,Barrinha/SP,-21.1898849,-48.1550642,1729,5155.49990
D1,Barrinha/SP,-21.1898849,-48.1550642,82,244.50607
1,Barro Alto/BA,-11.7618025,-41.9094904,1119,7375.91457
D1,Barro Alto/BA,-11.7618025,-41.9094904,17,112.05590
1,Barro Alto/GO,-14.9696025,-48.9190985,1897,16293.05162
D1,Barro Alto/GO,-14.9696025,-48.9190985,24,206.13244
1,Barro Duro/PI,-5.8180139,-42.5106589,808,11506.69325
D1,Barro Duro/PI,-5.8180139,-42.5106589,12,170.89148
1,Barro Preto/BA,-14.8068289,-39.4727588,746,14043.67470
D1,Barro Preto/BA,-14.8068289,-39.4727588,14,263.55422
1,Barro/CE,-7.1713587,-38.7742136,2458,10764.64921
D1,Barro/CE,-7.1713587,-38.7742136,49,214.59227
1,Barrocas/BA,-11.5165,-39.099282894736845,1041,6416.02465
D1,Barrocas/BA,-11.5165,-39.099282894736845,27,166.40986
1,Barrolândia/TO,-9.837246,-48.7264346,841,14835.06791
D1,Barrolândia/TO,-9.837246,-48.7264346,20,352.79591
1,Barroquinha/CE,-3.0200371,-41.1339229,1598,10604.55239
D1,Barroquinha/CE,-3.0200371,-41.1339229,26,172.53965
1,Barros Cassal/RS,-29.094938,-52.5832366,1327,11883.22737
D1,Barros Cassal/RS,-29.094938,-52.5832366,15,134.32435
1,Barroso/MG,-21.187222,-43.976111,4694,22372.62285
D1,Barroso/MG,-21.187222,-43.976111,62,295.50546
1,Barueri/SP,-23.5112184,-46.8764612,36971,13217.90178
D1,Barueri/SP,-23.5112184,-46.8764612,1217,435.10282
1,Barão de Antonina/SP,-23.6295651,-49.5632104,522,14808.51064
D1,Barão de Antonina/SP,-23.6295651,-49.5632104,11,312.05674
1,Barão de Cocais/MG,-19.9452437,-43.4870298,6450,19409.00337
D1,Barão de Cocais/MG,-19.9452437,-43.4870298,83,249.75927
1,Barão de Cotegipe/RS,-27.6214694,-52.3765316,1003,15160.21765
D1,Barão de Cotegipe/RS,-27.6214694,-52.3765316,10,151.14873
1,Barão de Grajaú/MA,-6.7542591,-43.0263477,481,2528.11942
D1,Barão de Grajaú/MA,-6.7542591,-43.0263477,7,36.79176
1,Barão de Melgaço/MT,-16.195776,-55.9668049,904,11071.64727
D1,Barão de Melgaço/MT,-16.195776,-55.9668049,18,220.45315
1,Barão de Monte Alto/MG,-21.244722,-42.2375,387,7286.76332
D1,Barão de Monte Alto/MG,-21.244722,-42.2375,16,301.26153
1,Barão do Triunfo/RS,-30.3909877,-51.7375349,665,8807.94702
D1,Barão do Triunfo/RS,-30.3909877,-51.7375349,8,105.96026
1,Barão/RS,-29.372474,-51.494908,1115,17891.52760
D1,Barão/RS,-29.372474,-51.494908,14,224.64698
1,Bastos/SP,-21.9222474,-50.7317727,2179,10399.96182
D1,Bastos/SP,-21.9222474,-50.7317727,53,252.95914
1,Bataguassu/MS,-21.715899,-52.422058,4071,17235.39373
D1,Bataguassu/MS,-21.715899,-52.422058,51,215.91871
1,Batalha/AL,-9.6733809,-37.1265481,1258,6822.12581
D1,Batalha/AL,-9.6733809,-37.1265481,23,124.72885
1,Batalha/PI,-4.022391,-42.0780926,1434,5320.76732
D1,Batalha/PI,-4.022391,-42.0780926,39,144.70706
1,Batatais/SP,-20.892867,-47.592149,6630,10451.14915
D1,Batatais/SP,-20.892867,-47.592149,192,302.65771
1,Batayporã/MS,-22.2976466,-53.2685608,1691,14875.08797
D1,Batayporã/MS,-22.2976466,-53.2685608,30,263.89866
1,Baturité/CE,-4.3290203,-38.8821055,5263,14568.05160
D1,Baturité/CE,-4.3290203,-38.8821055,89,246.35314
1,Bauru/SP,-22.3218102,-49.0705863,66896,17525.53012
D1,Bauru/SP,-22.3218102,-49.0705863,1362,356.81912
1,Bayeux/PB,-7.1301631,-34.936532,10246,10506.67049
D1,Bayeux/PB,-7.1301631,-34.936532,267,273.79280
1,Baía Formosa/RN,-6.3691885,-35.0063741,644,6870.79910
D1,Baía Formosa/RN,-6.3691885,-35.0063741,10,106.68943
1,Baía da Traição/PB,-6.691258,-34.9371244,1602,17418.72350
D1,Baía da Traição/PB,-6.691258,-34.9371244,12,130.47733
1,Bebedouro/SP,-20.949077,-48.479083,4969,6402.36046
D1,Bebedouro/SP,-20.949077,-48.479083,327,421.32660
1,Beberibe/CE,-4.1810469,-38.1298101,8278,15240.72540
D1,Beberibe/CE,-4.1810469,-38.1298101,140,257.75568
1,Bela Cruz/CE,-3.0529129,-40.167582,4007,12197.49779
D1,Bela Cruz/CE,-3.0529129,-40.167582,77,234.39165
1,Bela Vista da Caroba/PR,-25.8792818,-53.6672545,586,17215.04113
D1,Bela Vista da Caroba/PR,-25.8792818,-53.6672545,7,205.64042
1,Bela Vista de Goiás/GO,-16.9692949,-48.9513071,4356,14049.80003
D1,Bela Vista de Goiás/GO,-16.9692949,-48.9513071,88,283.83434
1,Bela Vista de Minas/MG,-19.8289721,-43.0973688,1270,12367.31912
D1,Bela Vista de Minas/MG,-19.8289721,-43.0973688,25,243.45116
1,Bela Vista do Maranhão/MA,-3.7416367,-45.2514192,230,2026.96748
D1,Bela Vista do Maranhão/MA,-3.7416367,-45.2514192,20,176.25804
1,Bela Vista do Paraíso/PR,-22.9948493,-51.1907996,3048,19792.20779
D1,Bela Vista do Paraíso/PR,-22.9948493,-51.1907996,80,519.48052
1,Bela Vista do Piauí/PI,-7.9716353,-41.8715061,324,8011.86944
D1,Bela Vista do Piauí/PI,-7.9716353,-41.8715061,7,173.09594
1,Bela Vista do Toldo/SC,-26.274625,-50.466354,97,1518.94770
D1,Bela Vista do Toldo/SC,-26.274625,-50.466354,5,78.29627
1,Bela Vista/MS,-22.107327,-56.5317344,2334,9395.37879
D1,Bela Vista/MS,-22.107327,-56.5317344,39,156.99219
1,Belford Roxo/RJ,-22.7667284,-43.4033603,35298,6850.80128
D1,Belford Roxo/RJ,-22.7667284,-43.4033603,997,193.50243
1,Belmiro Braga/MG,-21.9486291,-43.413564,604,17650.49679
D1,Belmiro Braga/MG,-21.9486291,-43.413564,4,116.89071
1,Belmonte/BA,-15.8630837,-38.8792845,1601,6801.18946
D1,Belmonte/BA,-15.8630837,-38.8792845,30,127.44265
1,Belmonte/SC,-26.8448262,-53.578916,516,19026.54867
D1,Belmonte/SC,-26.8448262,-53.578916,5,184.36578
1,Belo Campo/BA,-15.0338286,-41.2585109,1140,6700.75824
D1,Belo Campo/BA,-15.0338286,-41.2585109,21,123.43502
1,Belo Horizonte/MG,-19.9227318,-43.9450948,332471,13137.50617
D1,Belo Horizonte/MG,-19.9227318,-43.9450948,7324,289.40598
1,Belo Jardim/PE,-8.3338293,-36.4176419,7826,10172.88444
D1,Belo Jardim/PE,-8.3338293,-36.4176419,131,170.28467
1,Belo Monte/AL,-9.8269944,-37.2787165,596,8873.00878
D1,Belo Monte/AL,-9.8269944,-37.2787165,9,133.98839
1,Belo Oriente/MG,-19.2232523,-42.4807033,3213,11779.15460
D1,Belo Oriente/MG,-19.2232523,-42.4807033,74,271.29083
1,Belo Vale/MG,-20.407778,-44.024167,1586,20536.06112
D1,Belo Vale/MG,-20.407778,-44.024167,13,168.32837
1,Belterra/PA,-2.636091,-54.937392,2752,15336.60276
D1,Belterra/PA,-2.636091,-54.937392,38,211.76995
1,Belágua/MA,-3.1604031,-43.5085052,445,5866.06907
D1,Belágua/MA,-3.1604031,-43.5085052,4,52.72871
1,Belém de Maria/PE,-8.6242497,-35.8388934,479,3936.23141
D1,Belém de Maria/PE,-8.6242497,-35.8388934,8,65.74082
1,Belém do Brejo do Cruz/PB,-6.1880727,-37.5332267,815,11079.39097
D1,Belém do Brejo do Cruz/PB,-6.1880727,-37.5332267,8,108.75476
1,Belém do Piauí/PI,-7.3767305,-40.9712156,574,15913.50152
D1,Belém do Piauí/PI,-7.3767305,-40.9712156,8,221.79096
1,Belém do São Francisco/PE,-8.7517707,-38.9625715,1299,6266.28075
D1,Belém do São Francisco/PE,-8.7517707,-38.9625715,15,72.35890
1,Belém/AL,-9.5715351,-36.492841,210,4969.23805
D1,Belém/AL,-9.5715351,-36.492841,8,189.30431
1,Belém/PA,-1.45056,-48.4682453,122696,8144.87328
D1,Belém/PA,-1.45056,-48.4682453,5217,346.31776
1,Belém/PB,-6.6967586,-35.5369626,2994,16883.77601
D1,Belém/PB,-6.6967586,-35.5369626,46,259.40337
1,Beneditinos/PI,-5.4565671,-42.3605061,1431,13655.88319
D1,Beneditinos/PI,-5.4565671,-42.3605061,41,391.25871
1,Benedito Leite/MA,-7.2173453,-44.5523331,339,6007.44285
D1,Benedito Leite/MA,-7.2173453,-44.5523331,2,35.44214
1,Benedito Novo/SC,-26.7840657,-49.3629511,1431,12029.25353
D1,Benedito Novo/SC,-26.7840657,-49.3629511,20,168.12374
1,Benevides/PA,-1.3555577,-48.252235,6200,9570.85520
D1,Benevides/PA,-1.3555577,-48.252235,111,171.34918
1,Benjamin Constant do Sul/RS,-27.5105555,-52.6007689,200,10395.01040
D1,Benjamin Constant do Sul/RS,-27.5105555,-52.6007689,3,155.92516
1,Benjamin Constant/AM,-4.3782748,-70.0290603,3983,8876.16161
D1,Benjamin Constant/AM,-4.3782748,-70.0290603,88,196.10902
1,Bento Fernandes/RN,-5.6926846,-35.8207423,190,3422.19020
D1,Bento Fernandes/RN,-5.6926846,-35.8207423,3,54.03458
1,Bento Gonçalves/RS,-29.1654014,-51.5197627,33580,27280.85141
D1,Bento Gonçalves/RS,-29.1654014,-51.5197627,435,353.39995
1,Bento de Abreu/SP,-21.2707225,-50.8120444,562,18560.10568
D1,Bento de Abreu/SP,-21.2707225,-50.8120444,5,165.12550
1,Bequimão/MA,-2.4495376,-44.7884889,456,2139.13778
D1,Bequimão/MA,-2.4495376,-44.7884889,26,121.96838
1,Berilo/MG,-16.9515764,-42.4643732,345,2920.51130
D1,Berilo/MG,-16.9515764,-42.4643732,1,8.46525
1,Berizal/MG,-15.6118785,-41.7417382,317,6615.19199
D1,Berizal/MG,-15.6118785,-41.7417382,3,62.60434
1,Bernardino Batista/PB,-6.4532173,-38.5495418,406,11369.36432
D1,Bernardino Batista/PB,-6.4532173,-38.5495418,2,56.00672
1,Bernardino de Campos/SP,-23.0140216,-49.4760724,1767,15821.99140
D1,Bernardino de Campos/SP,-23.0140216,-49.4760724,37,331.30372
1,Bernardo Sayão/TO,-7.8794244,-48.8968905,923,20792.97139
D1,Bernardo Sayão/TO,-7.8794244,-48.8968905,13,292.85875
1,Bernardo do Mearim/MA,-4.6315929,-44.7617508,569,9324.81154
D1,Bernardo do Mearim/MA,-4.6315929,-44.7617508,7,114.71649
1,Bertioga/SP,-23.848568,-46.139586,7343,11099.85791
D1,Bertioga/SP,-23.848568,-46.139586,183,276.62726
1,Bertolínia/PI,-7.6372159,-43.9540611,1048,19013.06241
D1,Bertolínia/PI,-7.6372159,-43.9540611,12,217.70682
1,Bertópolis/MG,-17.063333,-40.573889,724,15708.39662
D1,Bertópolis/MG,-17.063333,-40.573889,6,130.18008
1,Beruri/AM,-3.9007135,-61.3717319,2881,14051.60220
D1,Beruri/AM,-3.9007135,-61.3717319,35,170.70673
1,Betim/MG,-19.968056,-44.198333,44816,9958.57999
D1,Betim/MG,-19.968056,-44.198333,1402,311.53894
1,Betânia do Piauí/PI,-8.1460635,-40.7961387,182,2928.87029
D1,Betânia do Piauí/PI,-8.1460635,-40.7961387,4,64.37078
1,Betânia/PE,-8.2742779,-38.0351767,551,4300.99134
D1,Betânia/PE,-8.2742779,-38.0351767,19,148.31005
1,Bezerros/PE,-8.2372132,-35.7558262,6638,10889.10761
D1,Bezerros/PE,-8.2372132,-35.7558262,129,211.61417
1,Bias Fortes/MG,-21.605833,-43.756944,119,3625.83790
D1,Bias Fortes/MG,-21.605833,-43.756944,4,121.87690
1,Bicas/MG,-21.7213723,-43.0604327,3311,22659.45798
D1,Bicas/MG,-21.7213723,-43.0604327,51,349.02820
1,Biguaçu/SC,-27.4961277,-48.6542432,15183,21545.03271
D1,Biguaçu/SC,-27.4961277,-48.6542432,181,256.84324
1,Bilac/SP,-21.403962,-50.47464,962,11736.00098
D1,Bilac/SP,-21.403962,-50.47464,23,280.59046
1,Biquinhas/MG,-18.783611,-45.502222,352,14182.11120
D1,Biquinhas/MG,-18.783611,-45.502222,4,161.16035
1,Birigui/SP,-21.2908491,-50.34144,19618,15558.23433
D1,Birigui/SP,-21.2908491,-50.34144,631,500.42032
1,Biritiba Mirim/SP,-23.5697765,-46.0407456,1571,4722.68150
D1,Biritiba Mirim/SP,-23.5697765,-46.0407456,114,342.70254
1,Biritinga/BA,-11.6227908,-38.8066738,723,4521.85878
D1,Biritinga/BA,-11.6227908,-38.8066738,7,43.78010
1,Bituruna/PR,-26.161281,-51.5533319,2405,14654.80470
D1,Bituruna/PR,-26.161281,-51.5533319,36,219.36506
1,Blumenau/SC,-26.9195567,-49.0658025,81935,22361.07396
D1,Blumenau/SC,-26.9195567,-49.0658025,752,205.23009
1,Boa Esperança do Iguaçu/PR,-25.6362851,-53.2139114,406,16659.82766
D1,Boa Esperança do Iguaçu/PR,-25.6362851,-53.2139114,1,41.03406
1,Boa Esperança do Sul/SP,-21.9930206,-48.3917372,2589,17133.21421
D1,Boa Esperança do Sul/SP,-21.9930206,-48.3917372,25,165.44239
1,Boa Esperança/ES,-18.5395472,-40.2904088,3697,24409.08491
D1,Boa Esperança/ES,-18.5395472,-40.2904088,50,330.12016
1,Boa Esperança/MG,-21.0901253,-45.5660195,7574,18790.31458
D1,Boa Esperança/MG,-21.0901253,-45.5660195,148,367.17277
1,Boa Esperança/PR,-24.2411024,-52.7860277,1203,30142.82135
D1,Boa Esperança/PR,-24.2411024,-52.7860277,19,476.07116
1,Boa Hora/PI,-4.4094627,-42.1255341,607,8863.90187
D1,Boa Hora/PI,-4.4094627,-42.1255341,7,102.21963
1,Boa Nova/BA,-14.365907,-40.2063056,1189,9876.23557
D1,Boa Nova/BA,-14.365907,-40.2063056,23,191.04577
1,Boa Ventura de São Roque/PR,-24.88177,-51.5441292,993,15655.05281
D1,Boa Ventura de São Roque/PR,-24.88177,-51.5441292,8,126.12329
1,Boa Ventura/PB,-7.4202462,-38.2156782,922,17568.59756
D1,Boa Ventura/PB,-7.4202462,-38.2156782,12,228.65854
1,Boa Viagem/CE,-5.1261877,-39.7300055,5134,9389.17337
D1,Boa Viagem/CE,-5.1261877,-39.7300055,120,219.45867
1,Boa Vista da Aparecida/PR,-25.4357216,-53.4067721,1666,22142.47741
D1,Boa Vista da Aparecida/PR,-25.4357216,-53.4067721,37,491.75970
1,Boa Vista das Missões/RS,-27.6677983,-53.3127622,356,17057.97796
D1,Boa Vista das Missões/RS,-27.6677983,-53.3127622,7,335.40968
1,Boa Vista do Buricá/RS,-27.6687782,-54.1111913,1520,22646.00715
D1,Boa Vista do Buricá/RS,-27.6687782,-54.1111913,13,193.68296
1,Boa Vista do Cadeado/RS,-28.5783827,-53.8123759,322,13057.58313
D1,Boa Vista do Cadeado/RS,-28.5783827,-53.8123759,4,162.20600
1,Boa Vista do Gurupi/MA,-1.7981168,-46.3071882,15,176.59524
D1,Boa Vista do Gurupi/MA,-1.7981168,-46.3071882,4,47.09206
1,Boa Vista do Incra/RS,-28.8195551,-53.3866624,513,19520.54795
D1,Boa Vista do Incra/RS,-28.8195551,-53.3866624,5,190.25875
1,Boa Vista do Ramos/AM,-2.9716927,-57.5869819,1664,8303.39321
D1,Boa Vista do Ramos/AM,-2.9716927,-57.5869819,13,64.87026
1,Boa Vista do Sul/RS,-29.3510488,-51.6779679,503,18139.19942
D1,Boa Vista do Sul/RS,-29.3510488,-51.6779679,4,144.24811
1,Boa Vista do Tupim/BA,-12.6605988,-40.6083594,304,1644.04305
D1,Boa Vista do Tupim/BA,-12.6605988,-40.6083594,12,64.89644
1,Boa Vista/PB,-7.2620711,-36.2415161,1395,19326.68329
D1,Boa Vista/PB,-7.2620711,-36.2415161,16,221.66805
1,Boa Vista/RR,2.8208478,-60.6719582,116485,26680.57747
D1,Boa Vista/RR,2.8208478,-60.6719582,1606,367.85000
1,Boca da Mata/AL,-9.6452054,-36.2116658,2294,8363.41099
D1,Boca da Mata/AL,-9.6452054,-36.2116658,49,178.64304
1,Boca do Acre/AM,-8.7553487,-67.3930873,4160,11899.99428
D1,Boca do Acre/AM,-8.7553487,-67.3930873,31,88.67784
1,Bocaina de Minas/MG,-22.167778,-44.394722,399,7841.98113
D1,Bocaina de Minas/MG,-22.167778,-44.394722,7,137.57862
1,Bocaina do Sul/SC,-27.745494,-49.942279,727,20765.49557
D1,Bocaina do Sul/SC,-27.745494,-49.942279,5,142.81634
1,Bocaina/PI,-6.9445939,-41.3224599,448,9935.68419
D1,Bocaina/PI,-6.9445939,-41.3224599,10,221.77866
1,Bocaina/SP,-22.1421831,-48.522276,2172,17277.86175
D1,Bocaina/SP,-22.1421831,-48.522276,37,294.32822
1,Bocaiúva do Sul/PR,-25.206591,-49.114131,2889,21708.74662
D1,Bocaiúva do Sul/PR,-25.206591,-49.114131,29,217.91404
1,Bocaiúva/MG,-17.1160208,-43.8122678,4156,8226.28214
D1,Bocaiúva/MG,-17.1160208,-43.8122678,73,144.49437
1,Bodocó/PE,-7.777592,-39.933797,2242,5807.53788
D1,Bodocó/PE,-7.777592,-39.933797,43,111.38454
1,Bodoquena/MS,-20.5508775,-56.6769653,628,8049.21815
D1,Bodoquena/MS,-20.5508775,-56.6769653,22,281.97898
1,Bodó/RN,-5.9866104,-36.4134824,432,19898.66421
D1,Bodó/RN,-5.9866104,-36.4134824,1,46.06172
1,Bofete/SP,-23.1019554,-48.2610535,1661,13719.33592
D1,Bofete/SP,-23.1019554,-48.2610535,26,214.75180
1,Boituva/SP,-23.2838893,-47.6738231,6995,11048.80746
D1,Boituva/SP,-23.2838893,-47.6738231,205,323.80351
1,Bom Conselho/PE,-9.169191,-36.685683,3327,6793.26187
D1,Bom Conselho/PE,-9.169191,-36.685683,80,163.34865
1,Bom Despacho/MG,-19.7375242,-45.2517288,9929,19303.60059
D1,Bom Despacho/MG,-19.7375242,-45.2517288,116,225.52298
1,Bom Jardim da Serra/SC,-28.3380324,-49.625588,964,20079.15018
D1,Bom Jardim da Serra/SC,-28.3380324,-49.625588,8,166.63195
1,Bom Jardim de Goiás/GO,-16.2062659,-52.172793,1824,20466.78636
D1,Bom Jardim de Goiás/GO,-16.2062659,-52.172793,30,336.62478
1,Bom Jardim de Minas/MG,-21.9476466,-44.1906033,1013,15720.04966
D1,Bom Jardim de Minas/MG,-21.9476466,-44.1906033,5,77.59156
1,Bom Jardim/MA,-3.54129,-45.606004,1992,4741.72816
D1,Bom Jardim/MA,-3.54129,-45.606004,58,138.06237
1,Bom Jardim/PE,-7.7961572,-35.5871696,2204,5504.77047
D1,Bom Jardim/PE,-7.7961572,-35.5871696,73,182.32679
1,Bom Jardim/RJ,-22.1515328,-42.4186683,3724,13405.81014
D1,Bom Jardim/RJ,-22.1515328,-42.4186683,58,208.79081
1,Bom Jesus da Lapa/BA,-13.250571,-43.410754,7235,10313.46666
D1,Bom Jesus da Lapa/BA,-13.250571,-43.410754,105,149.67713
1,Bom Jesus da Penha/MG,-21.0165299,-46.5226644,1066,24964.87119
D1,Bom Jesus da Penha/MG,-21.0165299,-46.5226644,20,468.38407
1,Bom Jesus da Serra/BA,-14.3724084,-40.5047119,591,6050.36855
D1,Bom Jesus da Serra/BA,-14.3724084,-40.5047119,12,122.85012
1,Bom Jesus das Selvas/MA,-4.4878075,-46.8526639,4399,12534.54908
D1,Bom Jesus das Selvas/MA,-4.4878075,-46.8526639,48,136.77162
1,Bom Jesus de Goiás/GO,-18.2174587,-49.739721,4429,16989.52779
D1,Bom Jesus de Goiás/GO,-18.2174587,-49.739721,120,460.31685
1,Bom Jesus do Amparo/MG,-19.7045132,-43.4752911,482,7796.82951
D1,Bom Jesus do Amparo/MG,-19.7045132,-43.4752911,8,129.40796
1,Bom Jesus do Araguaia/MT,-12.1725897,-51.5074425,1128,16515.37335
D1,Bom Jesus do Araguaia/MT,-12.1725897,-51.5074425,17,248.90190
1,Bom Jesus do Galho/MG,-19.8283191,-42.3162256,989,6686.04651
D1,Bom Jesus do Galho/MG,-19.8283191,-42.3162256,38,256.89562
1,Bom Jesus do Itabapoana/RJ,-21.1341025,-41.680095,6662,17857.71726
D1,Bom Jesus do Itabapoana/RJ,-21.1341025,-41.680095,116,310.94194
1,Bom Jesus do Norte/ES,-21.1254776,-41.6711646,2179,21816.17942
D1,Bom Jesus do Norte/ES,-21.1254776,-41.6711646,30,300.36043
1,Bom Jesus do Oeste/SC,-26.6929713,-53.0967453,337,15777.15356
D1,Bom Jesus do Oeste/SC,-26.6929713,-53.0967453,6,280.89888
1,Bom Jesus do Sul/PR,-26.1922507,-53.6002033,1132,32603.68664
D1,Bom Jesus do Sul/PR,-26.1922507,-53.6002033,6,172.81106
1,Bom Jesus do Tocantins/PA,-5.0471796,-48.5978362,1196,6931.72598
D1,Bom Jesus do Tocantins/PA,-5.0471796,-48.5978362,28,162.28121
1,Bom Jesus do Tocantins/TO,-8.96306,-48.165043,186,3632.81250
D1,Bom Jesus do Tocantins/TO,-8.96306,-48.165043,3,58.59375
1,Bom Jesus dos Perdões/SP,-23.1353864,-46.4648052,2489,9390.32672
D1,Bom Jesus dos Perdões/SP,-23.1353864,-46.4648052,32,120.72738
1,Bom Jesus/PB,-6.8156725,-38.6551841,352,13601.23648
D1,Bom Jesus/PB,-6.8156725,-38.6551841,3,115.91963
1,Bom Jesus/PI,-9.0711644,-44.3583926,3838,15001.56348
D1,Bom Jesus/PI,-9.0711644,-44.3583926,51,199.34334
1,Bom Jesus/RN,-5.9887544,-35.5821149,1305,12641.67393
D1,Bom Jesus/RN,-5.9887544,-35.5821149,20,193.74213
1,Bom Jesus/RS,-28.6692723,-50.4346894,1498,13291.92547
D1,Bom Jesus/RS,-28.6692723,-50.4346894,25,221.82786
1,Bom Jesus/SC,-26.7350604,-52.3916519,736,23711.34021
D1,Bom Jesus/SC,-26.7350604,-52.3916519,11,354.38144
1,Bom Lugar/MA,-4.3728019,-45.0366054,655,3951.01942
D1,Bom Lugar/MA,-4.3728019,-45.0366054,7,42.22464
1,Bom Princípio do Piauí/PI,-3.1912777,-41.6430185,209,3686.06702
D1,Bom Princípio do Piauí/PI,-3.1912777,-41.6430185,13,229.27690
1,Bom Princípio/RS,-29.489788,-51.3566782,3288,22760.62578
D1,Bom Princípio/RS,-29.489788,-51.3566782,34,235.35927
1,Bom Progresso/RS,-27.5490948,-53.8655601,267,14370.29064
D1,Bom Progresso/RS,-27.5490948,-53.8655601,3,161.46394
1,Bom Repouso/MG,-22.4657069,-46.1485376,1865,17716.34844
D1,Bom Repouso/MG,-22.4657069,-46.1485376,33,313.47962
1,Bom Retiro do Sul/RS,-29.6000007,-51.9359243,1936,15552.69923
D1,Bom Retiro do Sul/RS,-29.6000007,-51.9359243,39,313.30334
1,Bom Retiro/SC,-27.798993,-49.486994,1200,11819.16675
D1,Bom Retiro/SC,-27.798993,-49.486994,22,216.68472
1,Bom Sucesso de Itararé/SP,-24.3190016,-49.1446207,261,6503.86245
D1,Bom Sucesso de Itararé/SP,-24.3190016,-49.1446207,7,174.43309
1,Bom Sucesso do Sul/PR,-26.0749256,-52.8348629,825,25431.56597
D1,Bom Sucesso do Sul/PR,-26.0749256,-52.8348629,10,308.26141
1,Bom Sucesso/MG,-21.0323516,-44.7598082,1906,10822.16670
D1,Bom Sucesso/MG,-21.0323516,-44.7598082,30,170.33841
1,Bom Sucesso/PB,-6.4458948,-37.9297662,661,13388.69759
D1,Bom Sucesso/PB,-6.4458948,-37.9297662,5,101.27608
1,Bom Sucesso/PR,-23.7088019,-51.7651297,2175,30620.86442
D1,Bom Sucesso/PR,-23.7088019,-51.7651297,20,281.57117
1,Bombinhas/SC,-27.1519159,-48.4875691,4387,21001.48403
D1,Bombinhas/SC,-27.1519159,-48.4875691,73,349.46623
1,Bonfim do Piauí/PI,-9.1648678,-42.8734415,518,9087.71930
D1,Bonfim do Piauí/PI,-9.1648678,-42.8734415,8,140.35088
1,Bonfim/MG,-20.3266626, -44.2386157,776,11325.16054
D1,Bonfim/MG,-20.3266626, -44.2386157,19,277.29130
1,Bonfim/RR,3.3613818,-59.8427241,2858,22502.16518
D1,Bonfim/RR,3.3613818,-59.8427241,36,283.44225
1,Bonfinópolis de Minas/MG,-16.5660011,-45.98645,877,16249.76839
D1,Bonfinópolis de Minas/MG,-16.5660011,-45.98645,14,259.40337
1,Bonfinópolis/GO,-16.6172709,-48.9615701,559,5523.71542
D1,Bonfinópolis/GO,-16.6172709,-48.9615701,34,335.96838
1,Boninal/BA,-12.7095183,-41.8299984,869,5985.67296
D1,Boninal/BA,-12.7095183,-41.8299984,9,61.99201
1,Bonito de Minas/MG,-15.3191266,-44.7544,379,3295.07912
D1,Bonito de Minas/MG,-15.3191266,-44.7544,2,17.38828
1,Bonito de Santa Fé/PB,-7.3143332,-38.5146677,807,6655.12123
D1,Bonito de Santa Fé/PB,-7.3143332,-38.5146677,14,115.45440
1,Bonito/BA,-11.9665473,-41.2649896,1335,7853.40314
D1,Bonito/BA,-11.9665473,-41.2649896,14,82.35779
1,Bonito/MS,-21.1264766,-56.4902208,4639,20708.89692
D1,Bonito/MS,-21.1264766,-56.4902208,79,352.66283
1,Bonito/PA,-1.3605722,-47.3049907,512,3053.25303
D1,Bonito/PA,-1.3605722,-47.3049907,15,89.45077
1,Bonito/PE,-8.4721161,-35.7314591,2114,5548.41080
D1,Bonito/PE,-8.4721161,-35.7314591,46,120.73174
1,Bonópolis/GO,-13.649331,-49.8329113,613,13387.20245
D1,Bonópolis/GO,-13.649331,-49.8329113,3,65.51649
1,Boqueirão do Leão/RS,-29.30332,-52.4296817,700,9101.54726
D1,Boqueirão do Leão/RS,-29.30332,-52.4296817,35,455.07736
1,Boqueirão do Piauí/PI,-4.4850148,-42.1095161,882,13689.27518
D1,Boqueirão do Piauí/PI,-4.4850148,-42.1095161,14,217.29008
1,Boqueirão/PB,-7.487004,-36.130887,2447,13644.47418
D1,Boqueirão/PB,-7.487004,-36.130887,48,267.64804
1,Boquim/SE,-11.1450175,-37.6204228,3518,13039.28836
D1,Boquim/SE,-11.1450175,-37.6204228,73,270.57079
1,Boquira/BA,-12.8184859,-42.7270883,1028,4784.51084
D1,Boquira/BA,-12.8184859,-42.7270883,24,111.70064
1,Boracéia/SP,-22.195355,-48.7801925,1028,20924.07897
D1,Boracéia/SP,-22.195355,-48.7801925,26,529.20822
1,Borba/AM,-4.3934778,-59.5947721,3537,8356.17086
D1,Borba/AM,-4.3934778,-59.5947721,71,167.73767
1,Borborema/PB,-6.8066718,-35.5990191,476,8962.53060
D1,Borborema/PB,-6.8066718,-35.5990191,14,263.60384
1,Borborema/SP,-21.6212706,-49.074135,2546,15640.74211
D1,Borborema/SP,-21.6212706,-49.074135,55,337.87935
1,Borda da Mata/MG,-22.274167,-46.165278,4120,20798.62689
D1,Borda da Mata/MG,-22.274167,-46.165278,61,307.94083
1,Borebi/SP,-22.5700178,-48.9714871,294,10836.71213
D1,Borebi/SP,-22.5700178,-48.9714871,4,147.43826
1,Borrazópolis/PR,-23.9393362,-51.5850786,1592,25310.01590
D1,Borrazópolis/PR,-23.9393362,-51.5850786,36,572.33704
1,Borá/SP,-22.2701088,-50.544407,161,19189.51132
D1,Borá/SP,-22.2701088,-50.544407,1,119.18951
1,Bossoroca/RS,-28.7278885,-54.9120278,578,9421.35289
D1,Bossoroca/RS,-28.7278885,-54.9120278,22,358.59821
1,Botelhos/MG,-21.65,-46.394722,2987,20010.71883
D1,Botelhos/MG,-21.65,-46.394722,35,234.47444
1,Botucatu/SP,-22.8879628,-48.4410712,33435,22331.98413
D1,Botucatu/SP,-22.8879628,-48.4410712,349,233.10490
1,Botumirim/MG,-16.862778,-43.011111,568,9074.93210
D1,Botumirim/MG,-16.862778,-43.011111,4,63.90797
1,Botuporã/BA,-13.3744752,-42.5198469,634,6308.45771
D1,Botuporã/BA,-13.3744752,-42.5198469,8,79.60199
1,Botuverá/SC,-27.200749,-49.068892,1450,26871.75686
D1,Botuverá/SC,-27.200749,-49.068892,12,222.38695
1,Bozano/RS,-28.3669953,-53.7705165,455,21676.98904
D1,Bozano/RS,-28.3669953,-53.7705165,8,381.13387
1,Braga/RS,-27.617348,-53.740514,631,19290.73678
D1,Braga/RS,-27.617348,-53.740514,10,305.71691
1,Braganey/PR,-24.8179919,-53.118506,1127,21112.77632
D1,Braganey/PR,-24.8179919,-53.118506,12,224.80330
1,Bragança Paulista/SP,-22.9520235,-46.5418586,25384,14728.51125
D1,Bragança Paulista/SP,-22.9520235,-46.5418586,617,358.00077
1,Bragança/PA,-1.0573967,-46.7635406,6299,4840.84167
D1,Bragança/PA,-1.0573967,-46.7635406,179,137.56321
1,Branquinha/AL,-9.2478057,-36.0152009,1055,10118.93344
D1,Branquinha/AL,-9.2478057,-36.0152009,16,153.46250
1,Brasil Novo/PA,-3.3055853,-52.539198,3952,26553.78620
D1,Brasil Novo/PA,-3.3055853,-52.539198,44,295.63932
1,Brasileira/PI,-4.131182,-41.7824969,737,8811.57341
D1,Brasileira/PI,-4.131182,-41.7824969,18,215.20803
1,Brasilândia de Minas/MG,-17.0096469,-46.0087183,2695,15899.70501
D1,Brasilândia de Minas/MG,-17.0096469,-46.0087183,28,165.19174
1,Brasilândia do Sul/PR,-24.1975793,-53.527551,788,31257.43752
D1,Brasilândia do Sul/PR,-24.1975793,-53.527551,13,515.66839
1,Brasilândia do Tocantins/TO,-8.3886619,-48.4842729,258,11616.38901
D1,Brasilândia do Tocantins/TO,-8.3886619,-48.4842729,6,270.14858
1,Brasilândia/MS,-21.255575,-52.0365617,1560,13181.24208
D1,Brasilândia/MS,-21.255575,-52.0365617,27,228.13688
1,Brasiléia/AC,-11.0010413,-68.7487894,3564,13140.13937
D1,Brasiléia/AC,-11.0010413,-68.7487894,46,169.59776
1,Brasnorte/MT,-12.1227151,-58.0050109,3058,14865.58748
D1,Brasnorte/MT,-12.1227151,-58.0050109,44,213.89335
1,Brasília de Minas/MG,-16.2075114,-44.430559,2097,6460.25878
D1,Brasília de Minas/MG,-16.2075114,-44.430559,10,30.80715
1,Brasília/DF,-15.7934036,-47.8823172,675874,21842.37273
D1,Brasília/DF,-15.7934036,-47.8823172,11361,367.15600
1,Brazabrantes/GO,-16.4291635,-49.3858216,744,19517.31375
D1,Brazabrantes/GO,-16.4291635,-49.3858216,7,183.63064
1,Brazópolis/MG,-22.4742842,-45.6165577,1674,11654.13534
D1,Brazópolis/MG,-22.4742842,-45.6165577,36,250.62657
1,Braço do Norte/SC,-28.2728633,-49.1622712,12161,35461.01359
D1,Braço do Norte/SC,-28.2728633,-49.1622712,118,344.08351
1,Braço do Trombudo/SC,-27.358578,-49.882145,1188,31312.59884
D1,Braço do Trombudo/SC,-27.358578,-49.882145,7,184.50185
1,Braúna/SP,-21.5015319,-50.3175246,630,10871.44090
D1,Braúna/SP,-21.5015319,-50.3175246,26,448.66264
1,Braúnas/MG,-19.055556,-42.716111,338,7135.31771
D1,Braúnas/MG,-19.055556,-42.716111,11,232.21448
1,Brejetuba/ES,-20.1465817,-41.2902303,2785,22369.47791
D1,Brejetuba/ES,-20.1465817,-41.2902303,19,152.61044
1,Brejinho de Nazaré/TO,-11.0205883,-48.5722906,1092,19711.19134
D1,Brejinho de Nazaré/TO,-11.0205883,-48.5722906,19,342.96029
1,Brejinho/PE,-7.3482153,-37.28538,970,12952.33008
D1,Brejinho/PE,-7.3482153,-37.28538,22,293.76419
1,Brejinho/RN,-6.1957907,-35.3583019,1713,13306.92146
D1,Brejinho/RN,-6.1957907,-35.3583019,20,155.36394
1,Brejo Alegre/SP,-21.1671191,-50.1850393,565,19409.13775
D1,Brejo Alegre/SP,-21.1671191,-50.1850393,13,446.58193
1,Brejo Grande do Araguaia/PA,-5.7011449,-48.4037308,1123,15264.37407
D1,Brejo Grande do Araguaia/PA,-5.7011449,-48.4037308,6,81.55498
1,Brejo Grande/SE,-10.4287358,-36.4667918,600,7146.26012
D1,Brejo Grande/SE,-10.4287358,-36.4667918,13,154.83564
1,Brejo Santo/CE,-7.4909841,-38.9859152,9549,19023.80715
D1,Brejo Santo/CE,-7.4909841,-38.9859152,158,314.77239
1,Brejo da Madre de Deus/PE,-8.1409718,-36.3712527,2849,5511.06469
D1,Brejo da Madre de Deus/PE,-8.1409718,-36.3712527,58,112.19437
1,Brejo de Areia/MA,-4.3316785,-45.5833334,412,4660.10632
D1,Brejo de Areia/MA,-4.3316785,-45.5833334,11,124.42031
1,Brejo do Cruz/PB,-6.32926065,-37.48746163303929,2051,14355.70799
D1,Brejo do Cruz/PB,-6.32926065,-37.48746163303929,25,174.98425
1,Brejo do Piauí/PI,-8.207583,-42.8359849,159,4157.94979
D1,Brejo do Piauí/PI,-8.207583,-42.8359849,5,130.75314
1,Brejo dos Santos/PB,-6.3769367,-37.8243125,1264,19509.18352
D1,Brejo dos Santos/PB,-6.3769367,-37.8243125,8,123.47585
1,Brejo/MA,-3.6804397,-42.7529313,1076,2915.98916
D1,Brejo/MA,-3.6804397,-42.7529313,19,51.49051
1,Brejolândia/BA,-12.4843845,-43.9611861,210,1967.21311
D1,Brejolândia/BA,-12.4843845,-43.9611861,12,112.41218
1,Brejão/PE,-9.029146,-36.566034,554,6168.57811
D1,Brejão/PE,-9.029146,-36.566034,9,100.21156
1,Brejões/BA,-13.1033754,-39.7909837,1038,7333.09785
D1,Brejões/BA,-13.1033754,-39.7909837,14,98.90498
1,Breu Branco/PA,-3.7785073,-49.5684795,1320,1924.28240
D1,Breu Branco/PA,-3.7785073,-49.5684795,70,102.04528
1,Breves/PA,-1.68036,-50.479085,4668,4476.40967
D1,Breves/PA,-1.68036,-50.479085,125,119.86958
1,Britânia/GO,-15.2427599,-51.1602061,801,13774.72055
D1,Britânia/GO,-15.2427599,-51.1602061,9,154.77214
1,Brochier/RS,-29.556766,-51.5963047,1013,19738.89322
D1,Brochier/RS,-29.556766,-51.5963047,6,116.91348
1,Brodowski/SP,-20.984532,-47.657217,3161,12345.24507
D1,Brodowski/SP,-20.984532,-47.657217,82,320.24995
1,Brotas de Macaúbas/BA,-12.0019007,-42.6257506,464,4334.42317
D1,Brotas de Macaúbas/BA,-12.0019007,-42.6257506,9,84.07286
1,Brotas/SP,-22.2840884,-48.1267265,2730,10980.61298
D1,Brotas/SP,-22.2840884,-48.1267265,73,293.62079
1,Brumadinho/MG,-20.143611,-44.2,6309,15310.13395
D1,Brumadinho/MG,-20.143611,-44.2,100,242.67133
1,Brumado/BA,-14.29507325,-41.659307508575985,11085,16430.01126
D1,Brumado/BA,-14.29507325,-41.659307508575985,202,299.40120
1,Brunópolis/SC,-27.310953,-50.837585,616,26574.63330
D1,Brunópolis/SC,-27.310953,-50.837585,9,388.26575
1,Brusque/SC,-27.0964628,-48.9136323,35140,24993.42091
D1,Brusque/SC,-27.0964628,-48.9136323,345,245.38219
1,Brás Pires/MG,-20.8483109,-43.2430524,380,8930.66980
D1,Brás Pires/MG,-20.8483109,-43.2430524,10,235.01763
1,Bueno Brandão/MG,-22.441976,-46.3517971,1537,13995.62921
D1,Bueno Brandão/MG,-22.441976,-46.3517971,33,300.49171
1,Buenos Aires/PE,-7.7218931,-35.326587,631,4771.62734
D1,Buenos Aires/PE,-7.7218931,-35.326587,25,189.05021
1,Buenópolis/MG,-17.8756607,-44.1749365,735,7106.94256
D1,Buenópolis/MG,-17.8756607,-44.1749365,17,164.37826
1,Buerarema/BA,-14.9571177,-39.3008035,1566,8571.89775
D1,Buerarema/BA,-14.9571177,-39.3008035,49,268.21391
1,Bugre/MG,-19.4257687,-42.2556,378,9487.95181
D1,Bugre/MG,-19.4257687,-42.2556,13,326.30522
1,Bujari/AC,-9.8309656,-67.9520886,1545,14614.07491
D1,Bujari/AC,-9.8309656,-67.9520886,17,160.80212
1,Bujaru/PA,-1.5169239,-48.0410699,1838,6185.01195
D1,Bujaru/PA,-1.5169239,-48.0410699,43,144.69832
1,Buri/SP,-23.79849,-48.598924,3152,15720.69825
D1,Buri/SP,-23.79849,-48.598924,99,493.76559
1,Buritama/SP,-21.0664017,-50.1448077,4520,25956.12725
D1,Buritama/SP,-21.0664017,-50.1448077,83,476.62800
1,Buriti Alegre/GO,-18.1377879,-49.0404411,1511,15880.18917
D1,Buriti Alegre/GO,-18.1377879,-49.0404411,37,388.85970
1,Buriti Bravo/MA,-5.8391884,-43.8367876,1981,8256.57483
D1,Buriti Bravo/MA,-5.8391884,-43.8367876,21,87.52553
1,Buriti de Goiás/GO,-16.180644,-50.4287479,580,23538.96104
D1,Buriti de Goiás/GO,-16.180644,-50.4287479,9,365.25974
1,Buriti do Tocantins/TO,-5.3187439,-48.2256609,1605,13783.92305
D1,Buriti do Tocantins/TO,-5.3187439,-48.2256609,26,223.29097
1,Buriti dos Lopes/PI,-3.1776723,-41.8707444,1461,7366.88181
D1,Buriti dos Lopes/PI,-3.1776723,-41.8707444,37,186.56716
1,Buriti dos Montes/PI,-5.3136171,-41.0971256,721,8705.62666
D1,Buriti dos Montes/PI,-5.3136171,-41.0971256,10,120.74378
1,Buriti/MA,-3.9430944,-42.9244281,1063,3676.16544
D1,Buriti/MA,-3.9430944,-42.9244281,9,31.12464
1,Buriticupu/MA,-4.3227472,-46.4516989,4529,6153.95068
D1,Buriticupu/MA,-4.3227472,-46.4516989,87,118.21455
1,Buritinópolis/GO,-14.4589282,-46.4293104,423,12927.87286
D1,Buritinópolis/GO,-14.4589282,-46.4293104,3,91.68704
1,Buritirama/BA,-10.7148421,-43.6362327,1239,5796.76242
D1,Buritirama/BA,-10.7148421,-43.6362327,25,116.96454
1,Buritirana/MA,-5.5897455,-47.0148915,451,2909.11436
D1,Buritirana/MA,-5.5897455,-47.0148915,28,180.61020
1,Buritis/MG,-15.621389,-46.423889,4206,16704.39652
D1,Buritis/MG,-15.621389,-46.423889,54,214.46443
1,Buritis/RO,-10.2054937,-63.8281954,8774,21377.57961
D1,Buritis/RO,-10.2054937,-63.8281954,95,231.46456
1,Buritizal/SP,-20.1933264,-47.7097165,357,7851.33055
D1,Buritizal/SP,-20.1933264,-47.7097165,10,219.92523
1,Buritizeiro/MG,-17.3667765,-44.9647781,2630,9331.53562
D1,Buritizeiro/MG,-17.3667765,-44.9647781,43,152.56883
1,Butiá/RS,-30.1256795,-51.9692224,2816,13433.19181
D1,Butiá/RS,-30.1256795,-51.9692224,61,290.98889
1,Buíque/PE,-8.6239732,-37.157296,2659,4472.81658
D1,Buíque/PE,-8.6239732,-37.157296,48,80.74283
1,Bálsamo/SP,-20.7343722,-49.5807484,2266,24606.36334
D1,Bálsamo/SP,-20.7343722,-49.5807484,71,770.98491
0,CASO SEM LOCALIZAÇÃO DEFINIDA/BA,-13.415069300066518,-38.14174656569957,16307,109.64116
D0,CASO SEM LOCALIZAÇÃO DEFINIDA/BA,-13.415069300066518,-38.14174656569957,334,2.24567
0,CASO SEM LOCALIZAÇÃO DEFINIDA/CE,-3.3445126297392798,-38.624961942434304,16441,180.03569
0,CASO SEM LOCALIZAÇÃO DEFINIDA/ES,-20.30989267097039,-39.81745156645774,8294,206.38772
D0,CASO SEM LOCALIZAÇÃO DEFINIDA/ES,-20.30989267097039,-39.81745156645774,267,6.64402
0,CASO SEM LOCALIZAÇÃO DEFINIDA/MG,-19.97049116501593,-43.8852149072783,4266,20.15231
D0,CASO SEM LOCALIZAÇÃO DEFINIDA/MG,-19.97049116501593,-43.8852149072783,406,1.91792
0,CASO SEM LOCALIZAÇÃO DEFINIDA/MT,-15.54791153961863,-56.17143998972475,3045,87.38785
D0,CASO SEM LOCALIZAÇÃO DEFINIDA/MT,-15.54791153961863,-56.17143998972475,253,7.26080
0,CASO SEM LOCALIZAÇÃO DEFINIDA/PR,-25.69415946385943,-48.10141676336737,10410,91.04460
D0,CASO SEM LOCALIZAÇÃO DEFINIDA/PR,-25.69415946385943,-48.10141676336737,229,2.00281
0,CASO SEM LOCALIZAÇÃO DEFINIDA/RR,2.813328208465927,-60.663338675861986,3527,582.24283
D0,CASO SEM LOCALIZAÇÃO DEFINIDA/RR,2.813328208465927,-60.663338675861986,23,3.79688
0,CASO SEM LOCALIZAÇÃO DEFINIDA/SP,-24.30968974555485,-46.21366504207253,128,0.27875
1,Caapiranga/AM,-3.3188884,-61.2096404,994,7372.79335
D1,Caapiranga/AM,-3.3188884,-61.2096404,23,170.59783
1,Caaporã/PB,-7.510234,-34.9154114,2623,11880.06703
D1,Caaporã/PB,-7.510234,-34.9154114,39,176.63843
1,Caarapó/MS,-22.6349267,-54.8240903,5519,17800.35478
D1,Caarapó/MS,-22.6349267,-54.8240903,59,190.29189
1,Caatiba/BA,-14.9782759,-40.4092325,999,16030.16688
D1,Caatiba/BA,-14.9782759,-40.4092325,16,256.73941
1,Cabaceiras do Paraguaçu/BA,-12.5377868,-39.1901339,1260,6628.09048
D1,Cabaceiras do Paraguaçu/BA,-12.5377868,-39.1901339,6,31.56234
1,Cabaceiras/PB,-7.4899156,-36.2860501,560,9807.35552
D1,Cabaceiras/PB,-7.4899156,-36.2860501,5,87.56567
1,Cabeceira Grande/MG,-16.0297,-47.0906,821,11686.83274
D1,Cabeceira Grande/MG,-16.0297,-47.0906,7,99.64413
1,Cabeceiras do Piauí/PI,-4.4733665,-42.3098716,744,6972.16756
D1,Cabeceiras do Piauí/PI,-4.4733665,-42.3098716,17,159.31028
1,Cabeceiras/GO,-15.7995459,-46.9264991,736,9088.66387
D1,Cabeceiras/GO,-15.7995459,-46.9264991,18,222.27711
1,Cabedelo/PB,-6.97324,-34.8351609,12206,17493.87299
D1,Cabedelo/PB,-6.97324,-34.8351609,214,306.70890
1,Cabixi/RO,-13.4956065,-60.5424442,1562,30826.91928
D1,Cabixi/RO,-13.4956065,-60.5424442,22,434.18196
1,Cabo Frio/RJ,-22.8804369,-42.0189227,24360,10406.83194
D1,Cabo Frio/RJ,-22.8804369,-42.0189227,962,410.97588
1,Cabo Verde/MG,-21.4743338,-46.3964995,1692,12022.16854
D1,Cabo Verde/MG,-21.4743338,-46.3964995,12,85.26361
1,Cabo de Santo Agostinho/PE,-8.2838945,-35.0320984,10860,5151.90042
D1,Cabo de Santo Agostinho/PE,-8.2838945,-35.0320984,547,259.49259
1,Cabreúva/SP,-23.3075813,-47.1324417,5722,11191.08156
D1,Cabreúva/SP,-23.3075813,-47.1324417,148,289.45824
1,Cabrobó/PE,-8.5083701,-39.3106961,4328,12444.64892
D1,Cabrobó/PE,-8.5083701,-39.3106961,34,97.76295
1,Cabrália Paulista/SP,-22.4562909,-49.3385645,755,17882.52013
D1,Cabrália Paulista/SP,-22.4562909,-49.3385645,9,213.16911
1,Cacaulândia/RO,-10.3380043,-62.9007231,1383,21928.01649
D1,Cacaulândia/RO,-10.3380043,-62.9007231,17,269.54178
1,Cacequi/RS,-29.8838059,-54.8273443,1169,9511.02433
D1,Cacequi/RS,-29.8838059,-54.8273443,14,113.90448
1,Cachoeira Alta/GO,-18.7618269,-50.9432431,2677,20844.03955
D1,Cachoeira Alta/GO,-18.7618269,-50.9432431,33,256.94931
1,Cachoeira Dourada/GO,-18.4934204,-49.481062,1044,13054.89559
D1,Cachoeira Dourada/GO,-18.4934204,-49.481062,33,412.65475
1,Cachoeira Dourada/MG,-18.517136,-49.5002062,537,19742.64706
D1,Cachoeira Dourada/MG,-18.517136,-49.5002062,2,73.52941
1,Cachoeira Grande/MA,-2.9290492,-44.0573223,444,4661.90676
D1,Cachoeira Grande/MA,-2.9290492,-44.0573223,8,83.99832
1,Cachoeira Paulista/SP,-22.666498,-45.015384,3411,10083.66098
D1,Cachoeira Paulista/SP,-22.666498,-45.015384,51,150.76714
1,Cachoeira da Prata/MG,-19.524723,-44.453056,226,6312.84916
D1,Cachoeira da Prata/MG,-19.524723,-44.453056,15,418.99441
1,Cachoeira de Goiás/GO,-16.6688414,-50.6435997,319,23877.24551
D1,Cachoeira de Goiás/GO,-16.6688414,-50.6435997,6,449.10180
1,Cachoeira de Minas/MG,-22.3554043,-45.7796324,1841,15858.38574
D1,Cachoeira de Minas/MG,-22.3554043,-45.7796324,20,172.28013
1,Cachoeira de Pajeú/MG,-15.965833,-41.496666,652,6884.89968
D1,Cachoeira de Pajeú/MG,-15.965833,-41.496666,11,116.15628
1,Cachoeira do Arari/PA,-1.0143572,-48.9621089,620,2545.67851
D1,Cachoeira do Arari/PA,-1.0143572,-48.9621089,25,102.64833
1,Cachoeira do Piriá/PA,-1.7599443,-46.5446954,1458,4129.49274
D1,Cachoeira do Piriá/PA,-1.7599443,-46.5446954,9,25.49070
1,Cachoeira do Sul/RS,-30.0474778,-52.8905413,15508,19016.08789
D1,Cachoeira do Sul/RS,-30.0474778,-52.8905413,219,268.54032
1,Cachoeira dos Índios/PB,-6.9259193,-38.6742159,1367,13189.88807
D1,Cachoeira dos Índios/PB,-6.9259193,-38.6742159,24,231.57082
1,Cachoeira/BA,-12.5998256,-38.9665918,2102,6244.98648
D1,Cachoeira/BA,-12.5998256,-38.9665918,33,98.04213
1,Cachoeiras de Macacu/RJ,-22.4626861,-42.6534414,3718,6232.81701
D1,Cachoeiras de Macacu/RJ,-22.4626861,-42.6534414,118,197.81399
1,Cachoeirinha/PE,-8.4906364,-36.2338963,954,4627.02493
D1,Cachoeirinha/PE,-8.4906364,-36.2338963,35,169.75458
1,Cachoeirinha/RS,-29.9493353,-51.0898927,18510,14007.44642
D1,Cachoeirinha/RS,-29.9493353,-51.0898927,511,386.69936
1,Cachoeirinha/TO,-6.118647,-47.9208885,131,5713.03969
D1,Cachoeirinha/TO,-6.118647,-47.9208885,2,87.22198
1,Cachoeiro de Itapemirim/ES,-20.848084,-41.11129,47944,22596.76112
D1,Cachoeiro de Itapemirim/ES,-20.848084,-41.11129,693,326.62180
1,Cacimba de Areia/PB,-7.1288513,-37.1575194,321,8656.95793
D1,Cacimba de Areia/PB,-7.1288513,-37.1575194,5,134.84358
1,Cacimba de Dentro/PB,-6.6425101,-35.7929304,1441,8393.03396
D1,Cacimba de Dentro/PB,-6.6425101,-35.7929304,39,227.15359
1,Cacimbas/PB,-7.2125451,-37.0593398,442,6117.64706
D1,Cacimbas/PB,-7.2125451,-37.0593398,9,124.56747
1,Cacimbinhas/AL,-9.401212,-36.991082,1000,9157.50916
D1,Cacimbinhas/AL,-9.401212,-36.991082,12,109.89011
1,Cacique Doble/RS,-27.7700117,-51.6616409,952,18729.09699
D1,Cacique Doble/RS,-27.7700117,-51.6616409,14,275.42790
1,Cacoal/RO,-11.4333,-61.4420502,23510,27205.61007
D1,Cacoal/RO,-11.4333,-61.4420502,333,385.34531
1,Caconde/SP,-21.527995,-46.643659,2196,11539.06784
D1,Caconde/SP,-21.527995,-46.643659,43,225.94714
1,Caculé/BA,-14.4990734,-42.2233006,3162,13508.77942
D1,Caculé/BA,-14.4990734,-42.2233006,25,106.80566
1,Caetanos/BA,-14.3387456,-40.9085971,811,5527.91221
D1,Caetanos/BA,-14.3387456,-40.9085971,12,81.79402
1,Caetanópolis/MG,-19.2947496,-44.4138386,1595,13438.36886
D1,Caetanópolis/MG,-19.2947496,-44.4138386,21,176.93150
1,Caetité/BA,-14.0691776,-42.4852428,4627,9039.93435
D1,Caetité/BA,-14.0691776,-42.4852428,49,95.73304
1,Caeté/MG,-19.897777,-43.670278,2857,6297.94551
D1,Caeté/MG,-19.897777,-43.670278,80,176.35129
1,Caetés/PE,-8.7728788,-36.6255835,2180,7500.43007
D1,Caetés/PE,-8.7728788,-36.6255835,24,82.57354
1,Cafarnaum/BA,-11.691399,-41.468823,1158,6230.83132
D1,Cafarnaum/BA,-11.691399,-41.468823,24,129.13640
1,Cafeara/PR,-22.78905,-51.714195,757,25462.49580
D1,Cafeara/PR,-22.78905,-51.714195,13,437.26875
1,Cafelândia/PR,-24.6176963,-53.3218057,4722,25139.75403
D1,Cafelândia/PR,-24.6176963,-53.3218057,45,239.57834
1,Cafelândia/SP,-21.8054355,-49.6030627,841,4693.86616
D1,Cafelândia/SP,-21.8054355,-49.6030627,55,306.97103
1,Cafezal do Sul/PR,-23.900508,-53.512418,929,23371.06918
D1,Cafezal do Sul/PR,-23.900508,-53.512418,8,201.25786
1,Caiabu/SP,-22.0143038,-51.2356597,325,7747.31824
D1,Caiabu/SP,-22.0143038,-51.2356597,8,190.70322
1,Caiana/MG,-20.695555,-41.924723,263,4709.88539
D1,Caiana/MG,-20.695555,-41.924723,7,125.35817
1,Caiapônia/GO,-16.9538779,-51.8090761,2477,12831.53751
D1,Caiapônia/GO,-16.9538779,-51.8090761,46,238.29258
1,Caibaté/RS,-28.290475,-54.645407,513,10683.04873
D1,Caibaté/RS,-28.290475,-54.645407,8,166.59725
1,Caibi/SC,-27.0751925,-53.2502133,1179,19289.92147
D1,Caibi/SC,-27.0751925,-53.2502133,16,261.78010
1,Caicó/RN,-6.4594544,-37.0971911,16097,23421.99459
D1,Caicó/RN,-6.4594544,-37.0971911,176,256.08940
1,Caieiras/SP,-23.3644621,-46.7484765,10949,10523.43239
D1,Caieiras/SP,-23.3644621,-46.7484765,345,331.59048
1,Cairu/BA,-13.4860505,-39.0455744,1755,9402.12150
D1,Cairu/BA,-13.4860505,-39.0455744,17,91.07468
1,Caiuá/SP,-21.8319357,-51.9887179,430,7146.41848
D1,Caiuá/SP,-21.8319357,-51.9887179,12,199.43493
1,Caiçara do Norte/RN,-5.0645017,-36.0561226,664,10103.46926
D1,Caiçara do Norte/RN,-5.0645017,-36.0561226,12,182.59282
1,Caiçara do Rio do Vento/RN,-5.757968,-36.00089,628,16769.02537
D1,Caiçara do Rio do Vento/RN,-5.757968,-36.00089,8,213.61816
1,Caiçara/PB,-6.6146866,-35.4681434,1072,14926.20440
D1,Caiçara/PB,-6.6146866,-35.4681434,15,208.85547
1,Caiçara/RS,-27.2750478,-53.4310053,992,21292.12277
D1,Caiçara/RS,-27.2750478,-53.4310053,11,236.10217
1,Cajamar/SP,-23.3561111,-46.8769444,5522,6986.86641
D1,Cajamar/SP,-23.3561111,-46.8769444,252,318.85012
1,Cajapió/MA,-2.8778715,-44.6746871,386,3429.58685
D1,Cajapió/MA,-2.8778715,-44.6746871,8,71.07952
1,Cajari/MA,-3.3213076,-45.0118757,431,2207.87869
D1,Cajari/MA,-3.3213076,-45.0118757,9,46.10420
1,Cajati/SP,-24.7272376,-48.1077914,5729,20143.45487
D1,Cajati/SP,-24.7272376,-48.1077914,107,376.21743
1,Cajazeiras do Piauí/PI,-6.794271,-42.3935024,83,2314.55661
D1,Cajazeiras do Piauí/PI,-6.794271,-42.3935024,2,55.77245
1,Cajazeiras/PB,-6.8897849,-38.5570389,14685,23467.46356
D1,Cajazeiras/PB,-6.8897849,-38.5570389,183,292.44439
1,Cajazeirinhas/PB,-6.961442,-37.7993733,309,9605.22226
D1,Cajazeirinhas/PB,-6.961442,-37.7993733,1,31.08486
1,Cajobi/SP,-20.8776238,-48.8106972,1681,15785.51977
D1,Cajobi/SP,-20.8776238,-48.8106972,36,338.05991
1,Cajueiro da Praia/PI,-2.931114,-41.340801,498,6464.17445
D1,Cajueiro da Praia/PI,-2.931114,-41.340801,21,272.58567
1,Cajueiro/AL,-9.399589,-36.1524309,821,3836.98649
D1,Cajueiro/AL,-9.399589,-36.1524309,33,154.22723
1,Cajuri/MG,-20.7901414,-42.7954489,689,17394.59732
D1,Cajuri/MG,-20.7901414,-42.7954489,8,201.96920
1,Cajuru/SP,-21.2759978,-47.3046035,2015,7571.48762
D1,Cajuru/SP,-21.2759978,-47.3046035,60,225.45373
1,Caldas Brandão/PB,-7.1027959,-35.3254676,935,15385.88119
D1,Caldas Brandão/PB,-7.1027959,-35.3254676,12,197.46585
1,Caldas Novas/GO,-17.745,-48.625,15178,15946.12483
D1,Caldas Novas/GO,-17.745,-48.625,331,347.75117
1,Caldas/MG,-21.923611,-46.386111,1618,11082.19178
D1,Caldas/MG,-21.923611,-46.386111,41,280.82192
1,Caldazinha/GO,-16.7116649,-49.0012601,932,23897.43590
D1,Caldazinha/GO,-16.7116649,-49.0012601,12,307.69231
1,Caldeirão Grande do Piauí/PI,-7.3310393,-40.6374433,551,9522.98652
D1,Caldeirão Grande do Piauí/PI,-7.3310393,-40.6374433,2,34.56619
1,Caldeirão Grande/BA,-11.0208483,-40.3041387,629,4675.88463
D1,Caldeirão Grande/BA,-11.0208483,-40.3041387,6,44.60303
1,Califórnia/PR,-23.6672543,-51.3554556,1910,22103.92316
D1,Califórnia/PR,-23.6672543,-51.3554556,40,462.90939
1,Calmon/SC,-26.6023644,-51.0992893,69,2075.18797
D1,Calmon/SC,-26.6023644,-51.0992893,7,210.52632
1,Calumbi/PE,-7.9389746,-38.1516871,1176,20473.53760
D1,Calumbi/PE,-7.9389746,-38.1516871,5,87.04735
1,Calçado/PE,-8.7413446,-36.3351787,651,5927.34226
D1,Calçado/PE,-8.7413446,-36.3351787,8,72.83984
1,Calçoene/AP,2.4981757,-50.9539503,2631,22892.19525
D1,Calçoene/AP,2.4981757,-50.9539503,15,130.51423
1,Camacan/BA,-15.4166631,-39.4930088,3507,10951.50361
D1,Camacan/BA,-15.4166631,-39.4930088,94,293.53902
1,Camacho/MG,-20.625556,-45.156667,339,11940.82423
D1,Camacho/MG,-20.625556,-45.156667,2,70.44734
1,Camalaú/PB,-7.885031,-36.824191,877,14500.66138
D1,Camalaú/PB,-7.885031,-36.824191,8,132.27513
1,Camamu/BA,-13.9438142,-39.1060917,2931,8269.38269
D1,Camamu/BA,-13.9438142,-39.1060917,60,169.28112
1,Camanducaia/MG,-22.755278,-46.144444,4436,20319.72883
D1,Camanducaia/MG,-22.755278,-46.144444,75,343.54817
1,Camapuã/MS,-19.5291747,-54.0434641,1659,12131.62706
D1,Camapuã/MS,-19.5291747,-54.0434641,36,263.25411
1,Camaquã/RS,-30.8524752,-51.8075619,8680,13016.22529
D1,Camaquã/RS,-30.8524752,-51.8075619,167,250.42738
1,Camaragibe/PE,-8.0213832,-34.9810768,9187,5743.84945
D1,Camaragibe/PE,-8.0213832,-34.9810768,464,290.09972
1,Camargo/RS,-28.5865661,-52.2031474,654,23781.81818
D1,Camargo/RS,-28.5865661,-52.2031474,8,290.90909
1,Camaçari/BA,-12.6998188,-38.3260762,30850,9977.10279
D1,Camaçari/BA,-12.6998188,-38.3260762,661,213.77196
1,Cambará do Sul/RS,-29.0489517,-50.145412,398,6235.31255
D1,Cambará do Sul/RS,-29.0489517,-50.145412,11,172.33276
1,Cambará/PR,-23.042273,-50.075281,5109,19981.22727
D1,Cambará/PR,-23.042273,-50.075281,69,269.85803
1,Cambira/PR,-23.600265,-51.581045,2215,27802.18401
D1,Cambira/PR,-23.600265,-51.581045,30,376.55328
1,Camboriú/SC,-27.0273601,-48.6535657,17746,20355.81964
D1,Camboriú/SC,-27.0273601,-48.6535657,204,234.00131
1,Cambuci/RJ,-21.5749919,-41.9107833,2703,17415.11501
D1,Cambuci/RJ,-21.5749919,-41.9107833,44,283.48689
1,Cambuquira/MG,-21.853056,-45.2953619,1344,10491.80328
D1,Cambuquira/MG,-21.853056,-45.2953619,32,249.80484
1,Cambuí/MG,-22.6122501,-46.0572137,7303,24288.27990
D1,Cambuí/MG,-22.6122501,-46.0572137,63,209.52508
1,Cambé/PR,-23.2782035,-51.2779583,19407,17948.50452
D1,Cambé/PR,-23.2782035,-51.2779583,368,340.34367
1,Cametá/PA,-2.242949,-49.497885,10404,7388.46990
D1,Cametá/PA,-2.242949,-49.497885,296,210.20637
1,Camocim de São Félix/PE,-8.3616757,-35.7638903,932,4897.01555
D1,Camocim de São Félix/PE,-8.3616757,-35.7638903,21,110.34048
1,Camocim/CE,-2.9009918,-40.8427389,7474,11651.36327
D1,Camocim/CE,-2.9009918,-40.8427389,165,257.22169
1,Campanha/MG,-21.8361108,-45.401986,3292,19531.29635
D1,Campanha/MG,-21.8361108,-45.401986,63,373.77633
