type,name,lat,lon,total,total_per_100k_inhabitants
1,Abadia de Goiás/GO,-16.7572644,-49.4412205,2321,25343.96156
D1,Abadia de Goiás/GO,-16.7572644,-49.4412205,45,491.37366
1,Abadia dos Dourados/MG,-18.4911191,-47.4063589,1064,15152.37824
D1,Abadia dos Dourados/MG,-18.4911191,-47.4063589,20,284.81914
1,Abadiânia/GO,-16.1940946,-48.7067767,692,3315.28769
D1,Abadiânia/GO,-16.1940946,-48.7067767,49,234.75303
1,Abaetetuba/PA,-1.721828,-48.878843,10075,6279.64522
D1,Abaetetuba/PA,-1.721828,-48.878843,229,142.73338
1,Abaeté/MG,-19.1566833,-45.4481213,2371,10192.15063
D1,Abaeté/MG,-19.1566833,-45.4481213,45,193.44023
1,Abaiara/CE,-7.3607808,-39.0487878,878,7338.06937
D1,Abaiara/CE,-7.3607808,-39.0487878,18,150.43878
1,Abaré/BA,-8.7239913,-39.1139689,1771,8599.59211
D1,Abaré/BA,-8.7239913,-39.1139689,13,63.12518
1,Abatiá/PR,-23.3052967,-50.3102532,1471,19986.41304
D1,Abatiá/PR,-23.3052967,-50.3102532,21,285.32609
1,Abaíra/BA,-13.2503296,-41.6640342,319,3674.69186
D1,Abaíra/BA,-13.2503296,-41.6640342,14,161.27174
1,Abdon Batista/SC,-27.612419,-51.022992,455,17955.80110
D1,Abdon Batista/SC,-27.612419,-51.022992,4,157.85320
1,Abel Figueiredo/PA,-4.953001,-48.3958485,1193,15830.67941
D1,Abel Figueiredo/PA,-4.953001,-48.3958485,12,159.23567
1,Abelardo Luz/SC,-26.5705893,-52.3280339,2073,11507.07744
D1,Abelardo Luz/SC,-26.5705893,-52.3280339,65,360.81044
1,Abre Campo/MG,-20.2976097,-42.4764741,1605,11947.29790
D1,Abre Campo/MG,-20.2976097,-42.4764741,17,126.54459
1,Abreu e Lima/PE,-7.900719,-34.898389,4111,4082.50412
D1,Abreu e Lima/PE,-7.900719,-34.898389,251,249.26016
1,Abreulândia/TO,-9.6221526,-49.1558343,414,15868.14872
D1,Abreulândia/TO,-9.6221526,-49.1558343,8,306.63089
1,Acaiaca/MG,-20.3621646,-43.1444162,270,6758.44806
D1,Acaiaca/MG,-20.3621646,-43.1444162,12,300.37547
1,Acajutiba/BA,-11.6609659,-38.0186381,618,4062.04811
D1,Acajutiba/BA,-11.6609659,-38.0186381,24,157.74944
1,Acarape/CE,-4.2237866,-38.7071663,3117,20587.84676
D1,Acarape/CE,-4.2237866,-38.7071663,35,231.17569
1,Acaraú/CE,-2.8869514,-40.1194713,6533,10279.12392
D1,Acaraú/CE,-2.8869514,-40.1194713,117,184.08962
1,Acari/RN,-6.4364689,-36.6394777,1264,11381.23537
D1,Acari/RN,-6.4364689,-36.6394777,22,198.09112
1,Acará/PA,-1.961388,-48.1987043,1867,3349.23938
D1,Acará/PA,-1.961388,-48.1987043,41,73.55052
1,Acauã/PI,-8.219542,-41.083059,228,3202.69701
D1,Acauã/PI,-8.219542,-41.083059,2,28.09383
1,Aceguá/RS,-31.8695131,-54.1615593,666,13370.80907
D1,Aceguá/RS,-31.8695131,-54.1615593,8,160.61032
1,Acopiara/CE,-6.0936464,-39.4543204,4783,8746.13711
D1,Acopiara/CE,-6.0936464,-39.4543204,156,285.25975
1,Acorizal/MT,-15.2001544,-56.3668953,1103,20776.04069
D1,Acorizal/MT,-15.2001544,-56.3668953,23,433.22660
1,Acrelândia/AC,-10.0759167,-67.0526898,2215,14089.43451
D1,Acrelândia/AC,-10.0759167,-67.0526898,38,241.71490
1,Acreúna/GO,-17.3959899,-50.3749031,4053,17846.76354
D1,Acreúna/GO,-17.3959899,-50.3749031,78,343.46103
1,Adamantina/SP,-21.6866517,-51.0762975,5329,15159.44585
D1,Adamantina/SP,-21.6866517,-51.0762975,149,423.86141
1,Adelândia/GO,-16.4155077,-50.1665834,264,10497.01789
D1,Adelândia/GO,-16.4155077,-50.1665834,4,159.04573
1,Adolfo/SP,-21.2356597,-49.6441918,633,17856.13540
D1,Adolfo/SP,-21.2356597,-49.6441918,20,564.17489
1,Adrianópolis/PR,-24.6557863,-48.9912769,1722,29705.01984
D1,Adrianópolis/PR,-24.6557863,-48.9912769,29,500.25875
1,Adustina/BA,-10.5358875,-38.114479,1204,6996.33912
D1,Adustina/BA,-10.5358875,-38.114479,27,156.89465
1,Afogados da Ingazeira/PE,-7.750429,-37.6356375,6032,16065.62617
D1,Afogados da Ingazeira/PE,-7.750429,-37.6356375,76,202.41837
1,Afonso Bezerra/RN,-5.4745,-36.57625071327935,1009,9152.75762
D1,Afonso Bezerra/RN,-5.4745,-36.57625071327935,18,163.28012
1,Afonso Cláudio/ES,-20.077841,-41.12606,6421,21173.25068
D1,Afonso Cláudio/ES,-20.077841,-41.12606,76,250.61004
1,Afonso Cunha/MA,-4.1326105,-43.3230026,301,4539.28518
D1,Afonso Cunha/MA,-4.1326105,-43.3230026,3,45.24204
1,Afrânio/PE,-8.5198919,-41.0070197,1102,5515.23948
D1,Afrânio/PE,-8.5198919,-41.0070197,16,80.07607
1,Afuá/PA,-0.1535664,-50.3879223,3467,8687.04585
D1,Afuá/PA,-0.1535664,-50.3879223,16,40.09020
1,Agrestina/PE,-8.4558021,-35.9442663,2174,8613.31220
D1,Agrestina/PE,-8.4558021,-35.9442663,68,269.41363
1,Agricolândia/PI,-5.7967843,-42.6605131,794,15498.73121
D1,Agricolândia/PI,-5.7967843,-42.6605131,10,195.19813
1,Agrolândia/SC,-27.4122212,-49.8295774,2210,19802.86738
D1,Agrolândia/SC,-27.4122212,-49.8295774,31,277.77778
1,Agronômica/SC,-27.2660744,-49.7104753,1054,18922.80072
D1,Agronômica/SC,-27.2660744,-49.7104753,14,251.34650
1,Aguanil/MG,-20.9424533,-45.3927152,1028,22558.70090
D1,Aguanil/MG,-20.9424533,-45.3927152,8,175.55409
1,Aguaí/SP,-22.0592036,-46.979384,4171,11278.76477
D1,Aguaí/SP,-22.0592036,-46.979384,115,310.97050
1,Agudo/RS,-29.6423259,-53.2494005,2553,15620.41116
D1,Agudo/RS,-29.6423259,-53.2494005,32,195.79050
1,Agudos do Sul/PR,-25.9890808,-49.3328175,1341,14016.93321
D1,Agudos do Sul/PR,-25.9890808,-49.3328175,33,344.93572
1,Agudos/SP,-22.471162,-48.987822,5157,13721.99457
D1,Agudos/SP,-22.471162,-48.987822,113,300.67586
1,Aguiar/PB,-7.0928404,-38.1727215,737,13109.21380
D1,Aguiar/PB,-7.0928404,-38.1727215,5,88.93632
1,Aguiarnópolis/TO,-6.5600452,-47.4721189,772,10951.90807
D1,Aguiarnópolis/TO,-6.5600452,-47.4721189,14,198.60973
1,Aimorés/MG,-19.4917754,-41.0615603,2980,11864.94665
D1,Aimorés/MG,-19.4917754,-41.0615603,79,314.54053
1,Aiquara/BA,-14.126918,-39.8887574,590,13448.82608
D1,Aiquara/BA,-14.126918,-39.8887574,12,273.53545
1,Aiuaba/CE,-6.5710836,-40.1212278,1032,5868.97179
D1,Aiuaba/CE,-6.5710836,-40.1212278,16,90.99181
1,Aiuruoca/MG,-21.9759554,-44.6036637,668,11228.77795
D1,Aiuruoca/MG,-21.9759554,-44.6036637,11,184.90503
1,Ajuricaba/RS,-28.239654,-53.7693013,1642,23622.50036
D1,Ajuricaba/RS,-28.239654,-53.7693013,33,474.75183
1,Alagoa Grande/PB,-7.0415212,-35.6285322,5102,17974.91545
D1,Alagoa Grande/PB,-7.0415212,-35.6285322,75,264.23337
1,Alagoa Nova/PB,-7.0653703,-35.76695977336711,2496,11890.24390
D1,Alagoa Nova/PB,-7.0653703,-35.76695977336711,34,161.96646
1,Alagoa/MG,-22.1697202,-44.6400042,575,21640.94844
D1,Alagoa/MG,-22.1697202,-44.6400042,8,301.09146
1,Alagoinha do Piauí/PI,-7.0090952,-40.939675,402,5235.73847
D1,Alagoinha do Piauí/PI,-7.0090952,-40.939675,13,169.31493
1,Alagoinha/PB,-6.97063215,-35.51490901897793,2319,15852.07465
D1,Alagoinha/PB,-6.97063215,-35.51490901897793,26,177.72917
1,Alagoinha/PE,-8.50355635,-36.77701174370496,1494,10095.95891
D1,Alagoinha/PE,-8.50355635,-36.77701174370496,30,202.73010
1,Alagoinhas/BA,-12.133526,-38.420772,16132,10542.20607
D1,Alagoinhas/BA,-12.133526,-38.420772,335,218.92134
1,Alambari/SP,-23.550338,-47.897971,688,11041.56636
D1,Alambari/SP,-23.550338,-47.897971,13,208.63425
1,Albertina/MG,-20.66164,-43.784039,590,19568.82255
D1,Albertina/MG,-20.66164,-43.784039,11,364.84245
1,Alcantil/PB,-7.7425491,-36.0609604,990,17912.06803
D1,Alcantil/PB,-7.7425491,-36.0609604,8,144.74398
1,Alcinópolis/MS,-18.3264121,-53.7094463,481,8762.98051
D1,Alcinópolis/MS,-18.3264121,-53.7094463,11,200.40080
1,Alcobaça/BA,-17.5215875,-39.1965474,2070,9196.32147
D1,Alcobaça/BA,-17.5215875,-39.1965474,31,137.72269
1,Alcântara/MA,-2.4038956,-44.4154241,337,1523.09500
D1,Alcântara/MA,-2.4038956,-44.4154241,20,90.39139
1,Alcântaras/CE,-3.586247,-40.5457641,2057,17364.51123
D1,Alcântaras/CE,-3.586247,-40.5457641,23,194.15837
1,Aldeias Altas/MA,-4.6291957,-43.4708622,997,3695.46684
D1,Aldeias Altas/MA,-4.6291957,-43.4708622,14,51.89221
1,Alecrim/RS,-27.6566142,-54.7653195,458,8021.01576
D1,Alecrim/RS,-27.6566142,-54.7653195,12,210.15762
1,Alegre/ES,-20.7625787,-41.5318886,6109,20452.64321
D1,Alegre/ES,-20.7625787,-41.5318886,83,277.88008
1,Alegrete do Piauí/PI,-7.2440138,-40.8602296,531,10790.48974
D1,Alegrete do Piauí/PI,-7.2440138,-40.8602296,9,182.88966
1,Alegrete/RS,-29.790166,-55.794862,13078,18040.36252
D1,Alegrete/RS,-29.790166,-55.794862,314,433.14527
1,Alegria/RS,-27.8332103,-54.0574959,453,13781.56374
D1,Alegria/RS,-27.8332103,-54.0574959,5,152.11439
1,Alenquer/PA,-1.946229,-54.738355,4038,7036.06900
D1,Alenquer/PA,-1.946229,-54.738355,148,257.88465
1,Alexandria/RN,-6.414779,-38.0135516,2043,15100.89438
D1,Alexandria/RN,-6.414779,-38.0135516,32,236.52894
1,Alexânia/GO,-16.0834049,-48.5077803,5263,18557.82793
D1,Alexânia/GO,-16.0834049,-48.5077803,107,377.29196
1,Alfenas/MG,-21.4297405,-45.9479419,15155,18716.11525
D1,Alfenas/MG,-21.4297405,-45.9479419,233,287.75024
1,Alfredo Chaves/ES,-20.624970400000002,-40.75006690147988,3929,26782.54942
D1,Alfredo Chaves/ES,-20.624970400000002,-40.75006690147988,47,320.38173
1,Alfredo Marcondes/SP,-21.9527,-51.413956,290,6903.11831
D1,Alfredo Marcondes/SP,-21.9527,-51.413956,15,357.05784
1,Alfredo Vasconcelos/MG,-21.145833,-43.776389,1023,14506.52297
D1,Alfredo Vasconcelos/MG,-21.145833,-43.776389,16,226.88599
1,Alfredo Wagner/SC,-27.6961513,-49.3326734,1272,12549.32912
D1,Alfredo Wagner/SC,-27.6961513,-49.3326734,10,98.65825
1,Algodão de Jandaíra/PB,-6.9040175,-36.0089879,346,13369.39722
D1,Algodão de Jandaíra/PB,-6.9040175,-36.0089879,1,38.63988
1,Alhandra/PB,-7.4304246,-34.9106103,2720,13692.42386
D1,Alhandra/PB,-7.4304246,-34.9106103,41,206.39315
1,Aliança do Tocantins/TO,-11.3055927,-48.9409096,1156,21798.98171
D1,Aliança do Tocantins/TO,-11.3055927,-48.9409096,25,471.43127
1,Aliança/PE,-7.60398,-35.222696,1668,4342.84524
D1,Aliança/PE,-7.60398,-35.222696,76,197.87544
1,Almadina/BA,-14.70466,-39.6381994,722,13692.39522
D1,Almadina/BA,-14.70466,-39.6381994,12,227.57444
1,Almas/TO,-11.5681309,-47.1702803,307,4446.05358
D1,Almas/TO,-11.5681309,-47.1702803,5,72.41130
1,Almeirim/PA,-1.5290377,-52.5788111,4148,12184.23217
D1,Almeirim/PA,-1.5290377,-52.5788111,53,155.68088
1,Almenara/MG,-16.1740678,-40.6904907,5927,13985.37046
D1,Almenara/MG,-16.1740678,-40.6904907,58,136.85701
1,Almino Afonso/RN,-6.1544208,-37.7649018,697,14877.26788
D1,Almino Afonso/RN,-6.1544208,-37.7649018,13,277.48132
1,Almirante Tamandaré do Sul/RS,-28.1141129,-52.9134874,484,25012.91990
D1,Almirante Tamandaré do Sul/RS,-28.1141129,-52.9134874,7,361.75711
1,Almirante Tamandaré/PR,-25.3133048,-49.2997838,13838,11396.80448
D1,Almirante Tamandaré/PR,-25.3133048,-49.2997838,444,365.67287
1,Aloândia/GO,-17.7277983,-49.4809338,338,17105.26316
D1,Aloândia/GO,-17.7277983,-49.4809338,11,556.68016
1,Alpercata/MG,-18.9803616,-41.9827637,583,7827.60473
D1,Alpercata/MG,-18.9803616,-41.9827637,22,295.38131
1,Alpestre/RS,-27.2512339,-53.0349646,1016,17264.23110
D1,Alpestre/RS,-27.2512339,-53.0349646,17,288.87001
1,Alpinópolis/MG,-20.863611,-46.387777,3340,16650.87990
D1,Alpinópolis/MG,-20.863611,-46.387777,48,239.29408
1,Alta Floresta D'Oeste/RO,-11.9296917,-61.9961284,6263,27815.77545
D1,Alta Floresta D'Oeste/RO,-11.9296917,-61.9961284,77,341.97904
1,Alta Floresta/MT,-9.8715018,-56.0839881,12436,23867.19125
D1,Alta Floresta/MT,-9.8715018,-56.0839881,161,308.99146
1,Altair/SP,-20.5238955,-49.0606135,316,7504.15578
D1,Altair/SP,-20.5238955,-49.0606135,17,403.70458
1,Altamira do Maranhão/MA,-4.1643006,-45.4674574,431,5224.24242
D1,Altamira do Maranhão/MA,-4.1643006,-45.4674574,14,169.69697
1,Altamira do Paraná/PR,-24.799114,-52.7128633,379,26522.04339
D1,Altamira do Paraná/PR,-24.799114,-52.7128633,14,979.70609
1,Altamira/PA,-3.204065,-52.209961,18430,15709.17150
D1,Altamira/PA,-3.204065,-52.209961,347,295.77225
1,Altaneira/CE,-6.9980933,-39.7385742,824,10684.64730
D1,Altaneira/CE,-6.9980933,-39.7385742,19,246.36929
1,Alterosa/MG,-21.249166,-46.143055,1393,9563.36674
D1,Alterosa/MG,-21.249166,-46.143055,41,281.47741
1,Altinho/PE,-8.4904095,-36.0607494,1590,6914.24596
D1,Altinho/PE,-8.4904095,-36.0607494,30,130.45747
1,Altinópolis/SP,-21.021364,-47.3712,1058,6522.40922
D1,Altinópolis/SP,-21.021364,-47.3712,62,382.22058
1,Alto Alegre do Maranhão/MA,-4.2055693,-44.4525287,1708,6085.65524
D1,Alto Alegre do Maranhão/MA,-4.2055693,-44.4525287,29,103.32787
1,Alto Alegre do Pindaré/MA,-3.6698186,-45.8462153,2346,7338.81816
D1,Alto Alegre do Pindaré/MA,-3.6698186,-45.8462153,55,172.05243
1,Alto Alegre dos Parecis/RO,-12.1314515,-61.856265,1874,14124.20862
D1,Alto Alegre dos Parecis/RO,-12.1314515,-61.856265,47,354.23576
1,Alto Alegre/RR,2.98858,-61.307167,2136,14007.47590
D1,Alto Alegre/RR,2.98858,-61.307167,39,255.75448
1,Alto Alegre/RS,-31.780844700000003,-52.81311114489171,339,21320.75472
D1,Alto Alegre/RS,-31.780844700000003,-52.81311114489171,2,125.78616
1,Alto Alegre/SP,-21.5820592,-50.1661976,404,9906.81707
D1,Alto Alegre/SP,-21.5820592,-50.1661976,23,564.00196
1,Alto Araguaia/MT,-17.3156528,-53.2169365,2466,12508.87694
D1,Alto Araguaia/MT,-17.3156528,-53.2169365,33,167.39373
1,Alto Bela Vista/SC,-27.4320737,-51.905771,330,17232.37598
D1,Alto Bela Vista/SC,-27.4320737,-51.905771,3,156.65796
1,Alto Boa Vista/MT,-11.6723985,-51.3744431,1238,17456.28878
D1,Alto Boa Vista/MT,-11.6723985,-51.3744431,19,267.90750
1,Alto Caparaó/MG,-20.4405661,-41.8683799,506,8521.38767
D1,Alto Caparaó/MG,-20.4405661,-41.8683799,9,151.56618
1,Alto Feliz/RS,-29.3785943,-51.3123751,569,18698.65265
D1,Alto Feliz/RS,-29.3785943,-51.3123751,3,98.58692
1,Alto Garças/MT,-16.9469683,-53.529427,1436,11653.00657
D1,Alto Garças/MT,-16.9469683,-53.529427,42,340.82610
1,Alto Horizonte/GO,-14.1954948,-49.3366993,1546,22748.67569
D1,Alto Horizonte/GO,-14.1954948,-49.3366993,16,235.43261
1,Alto Jequitibá/MG,-20.423611,-41.966111,1214,14651.21892
D1,Alto Jequitibá/MG,-20.423611,-41.966111,13,156.89114
1,Alto Longá/PI,-5.2549051,-42.2072388,795,5531.97411
D1,Alto Longá/PI,-5.2549051,-42.2072388,15,104.37687
1,Alto Paraguai/MT,-14.513712,-56.4936374,949,8190.21317
D1,Alto Paraguai/MT,-14.513712,-56.4936374,31,267.54121
1,Alto Paraná/PR,-23.131247,-52.318893,2120,14185.34627
D1,Alto Paraná/PR,-23.131247,-52.318893,26,173.97123
1,Alto Paraíso de Goiás/GO,-14.1304779,-47.5100161,1157,14927.10618
D1,Alto Paraíso de Goiás/GO,-14.1304779,-47.5100161,9,116.11405
1,Alto Paraíso/PR,-23.508137,-53.728537,678,25779.46768
D1,Alto Paraíso/PR,-23.508137,-53.728537,9,342.20532
1,Alto Paraíso/RO,-9.7240103,-63.3188123,2911,13078.44371
D1,Alto Paraíso/RO,-9.7240103,-63.3188123,60,269.56600
1,Alto Parnaíba/MA,-9.112506,-45.9310154,1021,9089.29048
D1,Alto Parnaíba/MA,-9.112506,-45.9310154,11,97.92575
1,Alto Piquiri/PR,-24.0239021,-53.4417448,1799,18504.42296
D1,Alto Piquiri/PR,-24.0239021,-53.4417448,30,308.57848
1,Alto Rio Doce/MG,-21.0239537,-43.4133507,794,7404.64422
D1,Alto Rio Doce/MG,-21.0239537,-43.4133507,29,270.44670
1,Alto Rio Novo/ES,-19.0577208,-41.0171518,1161,14675.76792
D1,Alto Rio Novo/ES,-19.0577208,-41.0171518,28,353.93756
1,Alto Santo/CE,-5.5190371,-38.2719351,2483,15444.42371
D1,Alto Santo/CE,-5.5190371,-38.2719351,40,248.80264
1,Alto Taquari/MT,-17.8269099,-53.2831736,1666,14597.38894
D1,Alto Taquari/MT,-17.8269099,-53.2831736,29,254.09621
1,Alto do Rodrigues/RN,-5.290868,-36.7616726,3023,20257.32091
D1,Alto do Rodrigues/RN,-5.290868,-36.7616726,41,274.74368
1,Altos/PI,-5.0393915,-42.4611694,5346,13141.26988
D1,Altos/PI,-5.0393915,-42.4611694,102,250.73130
1,Altônia/PR,-23.8722004,-53.894037,3348,15018.16714
D1,Altônia/PR,-23.8722004,-53.894037,50,224.28565
1,Alumínio/SP,-23.5203479,-47.2575256,1651,8734.06338
D1,Alumínio/SP,-23.5203479,-47.2575256,56,296.24927
1,Alvarenga/MG,-19.4175,-41.728334,541,14300.81946
D1,Alvarenga/MG,-19.4175,-41.728334,6,158.60428
1,Alvarães/AM,-3.214786,-64.8143124,3698,22554.28153
D1,Alvarães/AM,-3.214786,-64.8143124,46,280.55623
1,Alvinlândia/SP,-22.4431852,-49.7643596,146,4490.92587
D1,Alvinlândia/SP,-22.4431852,-49.7643596,9,276.83790
1,Alvinópolis/MG,-20.1105199,-43.0601805,1612,10650.80938
D1,Alvinópolis/MG,-20.1105199,-43.0601805,23,151.96564
1,Alvorada D'Oeste/RO,-11.346271,-62.284697,1692,12254.65344
D1,Alvorada D'Oeste/RO,-11.346271,-62.284697,31,224.52379
1,Alvorada de Minas/MG,-18.7318587,-43.3641479,429,11900.13870
D1,Alvorada de Minas/MG,-18.7318587,-43.3641479,3,83.21775
1,Alvorada do Gurguéia/PI,-8.4465288,-43.8655915,663,12122.87438
D1,Alvorada do Gurguéia/PI,-8.4465288,-43.8655915,13,237.70342
1,Alvorada do Norte/GO,-14.483911,-46.4959897,1102,12595.72523
D1,Alvorada do Norte/GO,-14.483911,-46.4959897,17,194.30792
1,Alvorada do Sul/PR,-22.7807269,-51.2307721,1152,9932.74703
D1,Alvorada do Sul/PR,-22.7807269,-51.2307721,30,258.66529
1,Alvorada/RS,-29.9981184,-51.0772509,27011,12719.91787
D1,Alvorada/RS,-29.9981184,-51.0772509,842,396.51145
1,Alvorada/TO,-12.478465,-49.124926,2369,28266.31667
D1,Alvorada/TO,-12.478465,-49.124926,31,369.88426
1,Além Paraíba/MG,-21.8760576,-42.6810473,5472,15441.05198
D1,Além Paraíba/MG,-21.8760576,-42.6810473,167,471.24556
1,Amajari/RR,3.6523869,-61.4194315,1231,9077.50166
D1,Amajari/RR,3.6523869,-61.4194315,25,184.35219
1,Amambai/MS,-23.1082701,-55.2284854,4609,11451.78523
D1,Amambai/MS,-23.1082701,-55.2284854,92,228.58847
1,Amaporã/PR,-23.094272,-52.786597,732,11428.57143
D1,Amaporã/PR,-23.094272,-52.786597,8,124.90242
1,Amapá do Maranhão/MA,-1.6762114,-46.0109669,172,2440.75493
D1,Amapá do Maranhão/MA,-1.6762114,-46.0109669,6,85.14261
1,Amapá/AP,2.0529997,-50.7930003,1836,19816.51376
D1,Amapá/AP,2.0529997,-50.7930003,13,140.31301
1,Amaraji/PE,-8.373925,-35.4536527,882,3849.84723
D1,Amaraji/PE,-8.373925,-35.4536527,49,213.88040
1,Amaral Ferrador/RS,-30.8750633,-52.2542051,355,4974.77578
D1,Amaral Ferrador/RS,-30.8750633,-52.2542051,12,168.16143
1,Amaralina/GO,-13.9236199,-49.2962411,165,4258.06452
D1,Amaralina/GO,-13.9236199,-49.2962411,2,51.61290
1,Amarante do Maranhão/MA,-5.56913,-46.747284,1799,4281.60030
D1,Amarante do Maranhão/MA,-5.56913,-46.747284,59,140.41935
1,Amarante/PI,-6.2459374,-42.8476238,1697,9637.11738
D1,Amarante/PI,-6.2459374,-42.8476238,36,204.44091
1,Amargosa/BA,-13.03793715,-39.60796443875596,3888,10331.90720
D1,Amargosa/BA,-13.03793715,-39.60796443875596,57,151.47086
1,Amaturá/AM,-3.3640509,-68.1994689,2620,21954.08078
D1,Amaturá/AM,-3.3640509,-68.1994689,18,150.82956
1,Americana/SP,-22.7392463,-47.3306032,27520,11261.61149
D1,Americana/SP,-22.7392463,-47.3306032,896,366.65712
1,Americano do Brasil/GO,-16.2515808,-49.9806104,1079,17347.26688
D1,Americano do Brasil/GO,-16.2515808,-49.9806104,25,401.92926
1,Ametista do Sul/RS,-27.3617341,-53.1826575,1423,19240.12980
D1,Ametista do Sul/RS,-27.3617341,-53.1826575,26,351.54137
1,Amontada/CE,-3.3634586,-39.8284791,3537,8003.16778
D1,Amontada/CE,-3.3634586,-39.8284791,60,135.76196
1,Amorinópolis/GO,-16.6211308,-51.0949921,513,17037.52906
D1,Amorinópolis/GO,-16.6211308,-51.0949921,11,365.32713
1,Amparo de São Francisco/SE,-10.1299754,-36.9269099,257,10771.16513
D1,Amparo de São Francisco/SE,-10.1299754,-36.9269099,5,209.55574
1,Amparo do Serra/MG,-20.5070255,-42.8028462,228,4910.61813
D1,Amparo do Serra/MG,-20.5070255,-42.8028462,9,193.84019
1,Amparo/PB,-7.56394725,-37.04652873235175,270,11925.79505
D1,Amparo/PB,-7.56394725,-37.04652873235175,4,176.67845
1,Amparo/SP,-22.70111,-46.76444,9644,13184.76998
D1,Amparo/SP,-22.70111,-46.76444,238,325.38109
1,Ampére/PR,-25.9168712,-53.4742414,4105,21088.05096
D1,Ampére/PR,-25.9168712,-53.4742414,62,318.50406
1,Amélia Rodrigues/BA,-12.4015388,-38.7516971,2700,10801.29616
D1,Amélia Rodrigues/BA,-12.4015388,-38.7516971,52,208.02496
1,América Dourada/BA,-11.4515262,-41.4357517,1018,6328.48440
D1,América Dourada/BA,-11.4515262,-41.4357517,13,80.81562
1,Américo Brasiliense/SP,-21.7297099,-48.1052092,4546,10942.35167
D1,Américo Brasiliense/SP,-21.7297099,-48.1052092,102,245.51691
1,Américo de Campos/SP,-20.298476,-49.735904,1275,21274.82062
D1,Américo de Campos/SP,-20.298476,-49.735904,35,584.01468
1,Anadia/AL,-9.6830208,-36.3052699,1656,9459.07351
D1,Anadia/AL,-9.6830208,-36.3052699,35,199.92003
1,Anagé/BA,-14.6134669,-41.1376308,1211,5704.46088
D1,Anagé/BA,-14.6134669,-41.1376308,31,146.02666
1,Anahy/PR,-24.6450861,-53.1337957,597,21521.26893
D1,Anahy/PR,-24.6450861,-53.1337957,13,468.63735
1,Anajatuba/MA,-3.26441,-44.6179916,1323,4869.34119
D1,Anajatuba/MA,-3.26441,-44.6179916,27,99.37431
1,Anajás/PA,-0.9878802,-49.9390114,1385,4602.70513
D1,Anajás/PA,-0.9878802,-49.9390114,22,73.11156
1,Analândia/SP,-22.128917,-47.661939,407,7956.98925
D1,Analândia/SP,-22.128917,-47.661939,5,97.75171
1,Anamã/AM,-3.5797356,-61.4049996,2477,17331.37420
D1,Anamã/AM,-3.5797356,-61.4049996,11,76.96613
1,Ananindeua/PA,-1.374035,-48.4016623,27673,5120.74166
D1,Ananindeua/PA,-1.374035,-48.4016623,838,155.06745
1,Ananás/TO,-6.3663053,-48.080238,1982,21006.88924
D1,Ananás/TO,-6.3663053,-48.080238,28,296.76736
1,Anapu/PA,-3.4668292,-51.2057035,2052,7000.54585
D1,Anapu/PA,-3.4668292,-51.2057035,62,211.51747
1,Anapurus/MA,-3.6751298,-43.1046001,832,5182.50903
D1,Anapurus/MA,-3.6751298,-43.1046001,15,93.43466
1,Anastácio/MS,-20.4832458,-55.8048448,2846,11233.02810
D1,Anastácio/MS,-20.4832458,-55.8048448,90,355.22577
1,Anaurilândia/MS,-22.185169,-52.719056,571,6263.71215
D1,Anaurilândia/MS,-22.185169,-52.719056,16,175.51558
1,Anchieta/ES,-20.8057672,-40.6454564,8519,28129.43702
D1,Anchieta/ES,-20.8057672,-40.6454564,106,350.00825
1,Anchieta/SC,-26.5350527,-53.3293938,780,14241.37301
D1,Anchieta/SC,-26.5350527,-53.3293938,11,200.83988
1,Andaraí/BA,-12.8059674,-41.3322919,1160,8840.11584
D1,Andaraí/BA,-12.8059674,-41.3322919,12,91.44947
1,Andirá/PR,-23.0494761,-50.2310027,4216,21268.22378
D1,Andirá/PR,-23.0494761,-50.2310027,96,484.28593
1,Andorinha/BA,-10.3445708,-39.8334411,1098,7616.53718
D1,Andorinha/BA,-10.3445708,-39.8334411,18,124.86127
1,Andradas/MG,-22.0680484,-46.5688976,6063,14538.17380
D1,Andradas/MG,-22.0680484,-46.5688976,129,309.32285
1,Andradina/SP,-20.896505,-51.3742765,9079,15859.90043
D1,Andradina/SP,-20.896505,-51.3742765,294,513.58197
1,Andrelândia/MG,-21.739722,-44.308889,206,1690.04840
D1,Andrelândia/MG,-21.739722,-44.308889,16,131.26590
1,André da Rocha/RS,-28.6309124,-51.5733328,162,11991.11769
D1,André da Rocha/RS,-28.6309124,-51.5733328,1,74.01925
1,Angatuba/SP,-23.4938938,-48.4110675,3248,12626.34116
D1,Angatuba/SP,-23.4938938,-48.4110675,83,322.65589
1,Angelim/PE,-8.8902038,-36.2872987,251,2221.04239
D1,Angelim/PE,-8.8902038,-36.2872987,12,106.18529
1,Angelina/SC,-27.5805287,-48.9838759,660,14084.50704
D1,Angelina/SC,-27.5805287,-48.9838759,5,106.70081
1,Angelândia/MG,-17.7253,-42.2728,275,3199.90691
D1,Angelândia/MG,-17.7253,-42.2728,4,46.54410
1,Angical do Piauí/PI,-6.0872666,-42.7366138,895,13202.53725
D1,Angical do Piauí/PI,-6.0872666,-42.7366138,12,177.01726
1,Angical/BA,-12.005623,-44.7000236,1030,7409.00590
D1,Angical/BA,-12.005623,-44.7000236,20,143.86419
1,Angico/TO,-6.3893733,-47.8656722,257,7395.68345
D1,Angico/TO,-6.3893733,-47.8656722,5,143.88489
1,Angicos/RN,-5.6666344,-36.6009064,1147,9807.61009
D1,Angicos/RN,-5.6666344,-36.6009064,26,222.31723
1,Angra dos Reis/RJ,-23.0063966,-44.316326,20555,9780.13142
D1,Angra dos Reis/RJ,-23.0063966,-44.316326,587,279.29638
1,Anguera/BA,-12.1509425,-39.2452469,585,5145.57129
D1,Anguera/BA,-12.1509425,-39.2452469,2,17.59170
1,Angélica/MS,-22.1588196,-53.7728504,1615,14574.49689
D1,Angélica/MS,-22.1588196,-53.7728504,21,189.51358
1,Anhanguera/GO,-18.3338749,-48.220363,168,14346.71221
D1,Anhanguera/GO,-18.3338749,-48.220363,7,597.77968
1,Anhembi/SP,-22.7891096,-48.1316776,375,5426.13225
D1,Anhembi/SP,-22.7891096,-48.1316776,11,159.16655
1,Anhumas/SP,-22.2956478,-51.3873401,390,9348.03452
D1,Anhumas/SP,-22.2956478,-51.3873401,8,191.75455
1,Anicuns/GO,-16.4606451,-49.9572265,5384,24347.66879
D1,Anicuns/GO,-16.4606451,-49.9572265,77,348.21146
1,Anita Garibaldi/SC,-27.6855032,-51.1293873,1673,24664.60268
D1,Anita Garibaldi/SC,-27.6855032,-51.1293873,10,147.42739
1,Anitápolis/SC,-27.9041185,-49.1287395,427,13248.52622
D1,Anitápolis/SC,-27.9041185,-49.1287395,5,155.13497
1,Anori/AM,-3.7435254,-61.6605203,2669,12166.65907
D1,Anori/AM,-3.7435254,-61.6605203,33,150.43078
1,Anta Gorda/RS,-28.9718745,-52.0069187,934,15721.25905
D1,Anta Gorda/RS,-28.9718745,-52.0069187,8,134.65747
1,Antas/BA,-10.4114649,-38.3308815,1349,6861.99705
D1,Antas/BA,-10.4114649,-38.3308815,13,66.12747
1,Antonina do Norte/CE,-6.7754187,-39.9879345,887,11983.24777
D1,Antonina do Norte/CE,-6.7754187,-39.9879345,26,351.25642
1,Antonina/PR,-25.4298854,-48.7125431,3543,18727.20545
D1,Antonina/PR,-25.4298854,-48.7125431,73,385.85549
1,Antônio Almeida/PI,-7.2186016,-44.1950248,408,12850.39370
D1,Antônio Almeida/PI,-7.2186016,-44.1950248,10,314.96063
1,Antônio Cardoso/BA,-12.4363122,-39.1200307,656,5621.25107
D1,Antônio Cardoso/BA,-12.4363122,-39.1200307,11,94.25878
1,Antônio Carlos/MG,-21.318334,-43.746666,1443,12579.54843
D1,Antônio Carlos/MG,-21.318334,-43.746666,19,165.63508
1,Antônio Carlos/SC,-27.5168462,-48.7684715,2169,24896.69421
D1,Antônio Carlos/SC,-27.5168462,-48.7684715,28,321.39578
1,Antônio Dias/MG,-19.6525,-42.872778,710,7689.80830
D1,Antônio Dias/MG,-19.6525,-42.872778,28,303.26005
1,Antônio Gonçalves/BA,-10.5715409,-40.2748824,951,7954.83061
D1,Antônio Gonçalves/BA,-10.5715409,-40.2748824,10,83.64701
1,Antônio João/MS,-22.1892837,-55.9508227,939,10339.13235
D1,Antônio João/MS,-22.1892837,-55.9508227,20,220.21581
1,Antônio Martins/RN,-6.2155812,-37.8890129,921,12859.53644
D1,Antônio Martins/RN,-6.2155812,-37.8890129,7,97.73806
1,Antônio Olinto/PR,-25.9849006,-50.1974516,767,10335.53429
D1,Antônio Olinto/PR,-25.9849006,-50.1974516,16,215.60437
1,Antônio Prado de Minas/MG,-21.0171988,-42.1101106,166,10526.31579
D1,Antônio Prado de Minas/MG,-21.0171988,-42.1101106,5,317.05770
1,Antônio Prado/RS,-28.8567806,-51.2801355,3819,29284.56407
D1,Antônio Prado/RS,-28.8567806,-51.2801355,35,268.38433
1,Anápolis/GO,-16.3332828,-48.9525756,58500,14753.13094
D1,Anápolis/GO,-16.3332828,-48.9525756,1860,469.07391
1,Anísio de Abreu/PI,-9.185643,-43.04941,291,2911.74705
D1,Anísio de Abreu/PI,-9.185643,-43.04941,15,150.09005
1,Aparecida d'Oeste/SP,-20.4498109,-50.8808706,1215,29475.98253
D1,Aparecida d'Oeste/SP,-20.4498109,-50.8808706,22,533.72149
1,Aparecida de Goiânia/GO,-16.8226769,-49.2452546,104689,17394.70693
D1,Aparecida de Goiânia/GO,-16.8226769,-49.2452546,1826,303.40088
1,Aparecida do Rio Doce/GO,-18.2980167,-51.1491312,279,11277.28375
D1,Aparecida do Rio Doce/GO,-18.2980167,-51.1491312,4,161.68149
1,Aparecida do Rio Negro/TO,-9.9513491,-47.9773786,400,8161.59967
D1,Aparecida do Rio Negro/TO,-9.9513491,-47.9773786,13,265.25199
1,Aparecida do Taboado/MS,-20.0840304,-51.1013943,5117,19392.85985
D1,Aparecida do Taboado/MS,-20.0840304,-51.1013943,64,242.55287
1,Aparecida/PB,-6.7859598, -38.0831353,1425,16800.28295
D1,Aparecida/PB,-6.7859598, -38.0831353,16,188.63476
1,Aparecida/SP,-22.851552,-45.2340924,2938,8113.55665
D1,Aparecida/SP,-22.851552,-45.2340924,119,328.62942
1,Aperibé/RJ,-21.6211928,-42.1028167,1451,12055.50017
D1,Aperibé/RJ,-21.6211928,-42.1028167,32,265.86906
1,Apiacá/ES,-21.152272,-41.569297,1811,24012.19836
D1,Apiacá/ES,-21.152272,-41.569297,38,503.84513
1,Apiacás/MT,-9.5678422,-57.394852,2379,22807.01754
D1,Apiacás/MT,-9.5678422,-57.394852,19,182.14936
1,Apiaí/SP,-24.5076527,-48.8461582,1785,7412.48287
D1,Apiaí/SP,-24.5076527,-48.8461582,100,415.26515
1,Apicum-Açu/MA,-1.5279295,-45.082278,658,3742.46388
D1,Apicum-Açu/MA,-1.5279295,-45.082278,11,62.56399
1,Apiúna/SC,-27.0374658,-49.3885037,1258,11487.53538
D1,Apiúna/SC,-27.0374658,-49.3885037,19,173.50014
1,Apodi/RN,-5.6631109,-37.796927,7839,21833.22193
D1,Apodi/RN,-5.6631109,-37.796927,103,286.87611
1,Aporá/BA,-11.6599747,-38.0794757,704,3946.18834
D1,Aporá/BA,-11.6599747,-38.0794757,19,106.50224
1,Aporé/GO,-18.9642193,-51.92804,663,15541.49086
D1,Aporé/GO,-18.9642193,-51.92804,11,257.85279
1,Apuarema/BA,-13.8517897,-39.7457126,839,11534.23151
D1,Apuarema/BA,-13.8517897,-39.7457126,11,151.22354
1,Apucarana/PR,-23.5525327,-51.4610764,16124,11731.83545
D1,Apucarana/PR,-23.5525327,-51.4610764,503,365.98321
1,Apuiarés/CE,-3.9460303,-39.4313298,1549,10507.39384
D1,Apuiarés/CE,-3.9460303,-39.4313298,26,176.36684
1,Apuí/AM,-7.1940195,-59.8830192,1984,8725.09785
D1,Apuí/AM,-7.1940195,-59.8830192,36,158.31831
1,Aquidabã/SE,-10.2837579,-37.0188687,2529,11603.04643
D1,Aquidabã/SE,-10.2837579,-37.0188687,41,188.10791
1,Aquidauana/MS,-20.473969,-55.7821375,6577,13649.75926
D1,Aquidauana/MS,-20.473969,-55.7821375,169,350.73883
1,Aquiraz/CE,-3.9063117,-38.387504,9863,12089.82484
D1,Aquiraz/CE,-3.9063117,-38.387504,100,122.57756
1,Arabutã/SC,-27.1587028,-52.1438142,445,10426.42924
D1,Arabutã/SC,-27.1587028,-52.1438142,10,234.30178
1,Aracaju/SE,-10.9162061,-37.0774655,144114,21425.95902
D1,Aracaju/SE,-10.9162061,-37.0774655,2475,367.96736
1,Aracati/CE,-4.558259,-37.767894,10547,13989.54796
D1,Aracati/CE,-4.558259,-37.767894,172,228.14092
1,Aracatu/BA,-14.4274236,-41.4604105,1172,9043.20988
D1,Aracatu/BA,-14.4274236,-41.4604105,22,169.75309
1,Araci/BA,-11.3356065,-38.9573261,4081,7433.10930
D1,Araci/BA,-11.3356065,-38.9573261,58,105.64086
1,Aracitaba/MG,-21.3425,-43.378611,109,5301.55642
D1,Aracitaba/MG,-21.3425,-43.378611,11,535.01946
1,Aracoiaba/CE,-4.3702577,-38.8084313,4793,18018.79699
D1,Aracoiaba/CE,-4.3702577,-38.8084313,36,135.33835
1,Aracruz/ES,-19.8245218,-40.2735025,32267,30747.46050
D1,Aracruz/ES,-19.8245218,-40.2735025,261,248.70881
1,Aragarças/GO,-15.8957166,-52.2514538,3698,18118.56933
D1,Aragarças/GO,-15.8957166,-52.2514538,80,391.96472
1,Aragoiânia/GO,-16.9146388,-49.4499148,1971,18455.05618
D1,Aragoiânia/GO,-16.9146388,-49.4499148,30,280.89888
1,Aragominas/TO,-7.1654101,-48.525488,785,13759.85977
D1,Aragominas/TO,-7.1654101,-48.525488,11,192.81332
1,Araguacema/TO,-8.8067391,-49.5560969,950,13152.42974
D1,Araguacema/TO,-8.8067391,-49.5560969,19,263.04859
1,Araguaiana/MT,-15.729144,-51.834112,485,15828.98172
D1,Araguaiana/MT,-15.729144,-51.834112,8,261.09661
1,Araguainha/MT,-16.857016,-53.031778,44,4840.48405
D1,Araguainha/MT,-16.857016,-53.031778,1,110.01100
1,Araguanã/MA,-2.9508403,-45.6651986,845,5390.74960
D1,Araguanã/MA,-2.9508403,-45.6651986,5,31.89793
1,Araguanã/TO,-6.5799107,-48.6428482,605,10331.28415
D1,Araguanã/TO,-6.5799107,-48.6428482,16,273.22404
1,Araguapaz/GO,-15.0937927,-50.626417,845,10840.28223
D1,Araguapaz/GO,-15.0937927,-50.626417,31,397.69083
1,Araguari/MG,-18.6511256,-48.1933764,25231,21316.98786
D1,Araguari/MG,-18.6511256,-48.1933764,486,410.60822
1,Araguatins/TO,-5.6522925,-48.1158973,3067,8385.96779
D1,Araguatins/TO,-5.6522925,-48.1158973,74,202.33506
1,Araguaçu/TO,-12.928934,-49.823134,1530,18175.33856
D1,Araguaçu/TO,-12.928934,-49.823134,23,273.22404
1,Araguaína/TO,-7.193241,-48.2018597,44771,24038.76614
D1,Araguaína/TO,-7.193241,-48.2018597,579,310.88083
1,Araioses/MA,-2.890914,-41.904993,687,1458.75358
D1,Araioses/MA,-2.890914,-41.904993,15,31.85051
1,Aral Moreira/MS,-22.951141,-55.6268421,571,4563.98369
D1,Aral Moreira/MS,-22.951141,-55.6268421,19,151.86636
1,Aramari/BA,-12.0907897,-38.4985065,965,8377.46332
D1,Aramari/BA,-12.0907897,-38.4985065,14,121.53833
1,Arambaré/RS,-30.9132252,-51.4994625,329,9283.29571
D1,Arambaré/RS,-30.9132252,-51.4994625,9,253.95034
1,Arame/MA,-4.8858769,-46.0102484,1630,4965.72734
D1,Arame/MA,-4.8858769,-46.0102484,42,127.95126
1,Aramina/SP,-20.0876144,-47.789201,382,6714.71260
D1,Aramina/SP,-20.0876144,-47.789201,20,351.55563
1,Arandu/SP,-23.1345103,-49.0545651,658,10324.80778
D1,Arandu/SP,-23.1345103,-49.0545651,22,345.20634
1,Arantina/MG,-21.911667,-44.255833,402,14465.63512
D1,Arantina/MG,-21.911667,-44.255833,6,215.90500
1,Arapeí/SP,-22.6738889,-44.4477778,271,11052.20228
D1,Arapeí/SP,-22.6738889,-44.4477778,4,163.13214
1,Arapiraca/AL,-9.754866,-36.661471,33263,14196.21099
D1,Arapiraca/AL,-9.754866,-36.661471,541,230.89169
1,Arapoema/TO,-7.6575001,-49.0641484,610,9256.44917
D1,Arapoema/TO,-7.6575001,-49.0641484,12,182.09408
1,Araponga/MG,-20.666667,-42.520556,864,10204.32266
D1,Araponga/MG,-20.666667,-42.520556,12,141.72670
1,Arapongas/PR,-23.415296,-51.42592,19609,15495.67348
D1,Arapongas/PR,-23.415296,-51.42592,609,481.25173
1,Araporã/MG,-18.4318188,-49.188313,2584,36956.52174
D1,Araporã/MG,-18.4318188,-49.188313,42,600.68650
1,Arapoti/PR,-24.1457957,-49.8224605,4827,16948.73596
D1,Arapoti/PR,-24.1457957,-49.8224605,68,238.76404
1,Araputanga/MT,-15.4710868,-58.346796,3066,17952.92189
D1,Araputanga/MT,-15.4710868,-58.346796,57,333.76274
1,Arapuá/MG,-19.034444,-46.155556,411,14492.24260
D1,Arapuá/MG,-19.034444,-46.155556,3,105.78279
1,Arapuã/PR,-24.3079525,-51.7901941,619,20975.94036
D1,Arapuã/PR,-24.3079525,-51.7901941,9,304.98136
1,Araquari/SC,-26.3703324,-48.7210994,6168,15084.37271
D1,Araquari/SC,-26.3703324,-48.7210994,92,224.99389
1,Arara/PB,-6.8271895,-35.7605703,1129,8293.54294
D1,Arara/PB,-6.8271895,-35.7605703,30,220.37758
1,Araranguá/SC,-28.9348832,-49.4858389,13839,19914.23597
D1,Araranguá/SC,-28.9348832,-49.4858389,266,382.77237
1,Araraquara/SP,-21.7886713,-48.1773096,24279,10093.45561
D1,Araraquara/SP,-21.7886713,-48.1773096,576,239.45922
1,Araras/SP,-22.3569477,-47.3838889,19319,14128.37596
D1,Araras/SP,-22.3569477,-47.3838889,422,308.61715
1,Ararendá/CE,-4.7504395,-40.8303611,1689,15378.31194
D1,Ararendá/CE,-4.7504395,-40.8303611,22,200.30957
1,Arari/MA,-3.4547602,-44.7772723,1087,3621.64323
D1,Arari/MA,-3.4547602,-44.7772723,35,116.61225
1,Araricá/RS,-29.6168543,-50.929121,1200,20547.94521
D1,Araricá/RS,-29.6168543,-50.929121,28,479.45205
1,Araripe/CE,-7.212861,-40.1359222,1600,7370.89418
D1,Araripe/CE,-7.212861,-40.1359222,25,115.17022
1,Araripina/PE,-7.5768582,-40.5038509,8897,10430.12391
D1,Araripina/PE,-7.5768582,-40.5038509,173,202.81122
1,Araruama/RJ,-22.8733203,-42.3428897,8802,6466.87581
D1,Araruama/RJ,-22.8733203,-42.3428897,496,364.41382
1,Araruna/PB,-6.5321155,-35.7397595,807,3915.57496
D1,Araruna/PB,-6.5321155,-35.7397595,18,87.33624
1,Araruna/PR,-23.9320308,-52.4976047,2850,20315.06166
D1,Araruna/PR,-23.9320308,-52.4976047,37,263.73940
1,Arataca/BA,-15.2617424,-39.4122943,921,8446.44167
D1,Arataca/BA,-15.2617424,-39.4122943,16,146.73514
1,Aratiba/RS,-27.3955734,-52.3024325,685,11147.27421
D1,Aratiba/RS,-27.3955734,-52.3024325,8,130.18714
1,Aratuba/CE,-4.4195958,-39.0463737,1982,16855.17476
D1,Aratuba/CE,-4.4195958,-39.0463737,14,119.05774
1,Aratuípe/BA,-13.077137,-39.0010786,629,7108.95118
D1,Aratuípe/BA,-13.077137,-39.0010786,12,135.62387
1,Araucária/PR,-25.5861107,-49.4051209,38130,25672.96427
D1,Araucária/PR,-25.5861107,-49.4051209,563,379.06842
1,Arauá/SE,-11.2644014,-37.6181058,1376,13983.73984
D1,Arauá/SE,-11.2644014,-37.6181058,23,233.73984
1,Araxá/MG,-19.5928536,-46.940241,27767,25614.60476
D1,Araxá/MG,-19.5928536,-46.940241,258,238.00079
1,Araçagi/PB,-6.8519969,-35.3835602,2045,12131.45874
D1,Araçagi/PB,-6.8519969,-35.3835602,26,154.23860
1,Araçariguama/SP,-23.438611,-47.061389,2531,10842.65090
D1,Araçariguama/SP,-23.438611,-47.061389,75,321.29546
1,Araçatuba/SP,-21.207992,-50.4390225,36026,18084.43351
D1,Araçatuba/SP,-21.207992,-50.4390225,962,482.90748
1,Araçaí/MG,-19.200833,-44.2475,104,4406.77966
D1,Araçaí/MG,-19.200833,-44.2475,2,84.74576
1,Araçoiaba da Serra/SP,-23.5045367,-47.6168158,3136,8861.51064
D1,Araçoiaba da Serra/SP,-23.5045367,-47.6168158,91,257.14205
1,Araçoiaba/PE,-7.7856903,-35.0898881,943,4504.20329
D1,Araçoiaba/PE,-7.7856903,-35.0898881,34,162.39969
1,Araçu/GO,-16.3561579,-49.6815269,1110,32173.91304
D1,Araçu/GO,-16.3561579,-49.6815269,20,579.71014
1,Araçuaí/MG,-16.8484451,-42.0661868,3042,8285.44192
D1,Araçuaí/MG,-16.8484451,-42.0661868,54,147.07885
1,Araçás/BA,-12.2139176,-38.2026159,770,6292.39193
D1,Araçás/BA,-12.2139176,-38.2026159,17,138.92294
1,Araújos/MG,-19.948055,-45.165556,947,9944.34527
D1,Araújos/MG,-19.948055,-45.165556,14,147.01250
1,Arceburgo/MG,-21.364444,-46.939722,1919,17461.32848
D1,Arceburgo/MG,-21.364444,-46.939722,34,309.37216
1,Arco-Íris/SP,-21.7741308,-50.4668814,178,10142.45014
D1,Arco-Íris/SP,-21.7741308,-50.4668814,8,455.84046
1,Arcos/MG,-20.282223,-45.539444,9391,23097.54538
D1,Arcos/MG,-20.282223,-45.539444,140,344.33568
1,Arcoverde/PE,-8.415192,-37.057748,8172,10853.31031
D1,Arcoverde/PE,-8.415192,-37.057748,136,180.62288
1,Areado/MG,-21.3582771,-46.1476688,2107,13782.05128
D1,Areado/MG,-21.3582771,-46.1476688,33,215.85557
1,Areal/RJ,-22.2314922,-43.1056264,1796,14071.92666
D1,Areal/RJ,-22.2314922,-43.1056264,51,399.59257
1,Arealva/SP,-22.0301906,-48.9111936,1371,15822.27351
D1,Arealva/SP,-22.0301906,-48.9111936,22,253.89498
1,Areia Branca/RN,-4.9506652,-37.1263312,3821,13570.81972
D1,Areia Branca/RN,-4.9506652,-37.1263312,111,394.23214
1,Areia Branca/SE,-10.7591455,-37.3148072,2327,12361.22178
D1,Areia Branca/SE,-10.7591455,-37.3148072,50,265.60425
1,Areia de Baraúnas/PB,-7.1233949,-36.9446216,285,13539.19240
D1,Areia de Baraúnas/PB,-7.1233949,-36.9446216,7,332.54157
1,Areia/PB,-6.9680243,-35.6994783,2686,11941.49291
D1,Areia/PB,-6.9680243,-35.6994783,35,155.60397
1,Areial/PB,-7.0501306,-35.9245244,487,6903.88432
D1,Areial/PB,-7.0501306,-35.9245244,12,170.11625
1,Areias/SP,-22.5800929,-44.6975127,366,9370.19969
D1,Areias/SP,-22.5800929,-44.6975127,2,51.20328
1,Areiópolis/SP,-22.6758064,-48.6673653,1452,12980.51135
D1,Areiópolis/SP,-22.6758064,-48.6673653,24,214.55391
1,Arenápolis/MT,-14.4610369,-56.8432806,2573,27375.25269
D1,Arenápolis/MT,-14.4610369,-56.8432806,41,436.21662
1,Arenópolis/GO,-16.3859286,-51.55937,589,23923.63932
D1,Arenópolis/GO,-16.3859286,-51.55937,9,365.55646
1,Argirita/MG,-21.612761,-42.8371922,514,19171.95076
D1,Argirita/MG,-21.612761,-42.8371922,12,447.59418
1,Aricanduva/MG,-17.8678,-42.5569,289,5447.69086
1,Arinos/MG,-15.917223,-46.106111,1869,10470.58824
D1,Arinos/MG,-15.917223,-46.106111,30,168.06723
1,Aripuanã/MT,-10.175806,-59.4439663,4642,20123.98665
D1,Aripuanã/MT,-10.175806,-59.4439663,52,225.43027
1,Ariquemes/RO,-9.9076522,-63.033069,27684,24907.33077
D1,Ariquemes/RO,-9.9076522,-63.033069,538,484.03930
1,Ariranha do Ivaí/PR,-24.3834527,-51.5876772,426,21026.65350
D1,Ariranha do Ivaí/PR,-24.3834527,-51.5876772,4,197.43337
1,Ariranha/SP,-21.18716,-48.790418,1028,10435.48878
D1,Ariranha/SP,-21.18716,-48.790418,34,345.14263
1,Armazém/SC,-28.2624996,-49.0190126,1538,17392.28769
D1,Armazém/SC,-28.2624996,-49.0190126,36,407.10166
1,Armação dos Búzios/RJ,-22.7597805,-41.8875267,6852,19543.63948
D1,Armação dos Búzios/RJ,-22.7597805,-41.8875267,77,219.62350
1,Arneiroz/CE,-6.3235099,-40.1603859,811,10333.84302
D1,Arneiroz/CE,-6.3235099,-40.1603859,21,267.58410
1,Aroazes/PI,-6.1108814,-41.7886137,692,11892.07768
D1,Aroazes/PI,-6.1108814,-41.7886137,14,240.59117
1,Aroeiras do Itaim/PI,-7.2797031,-41.5629681,187,7330.45864
D1,Aroeiras do Itaim/PI,-7.2797031,-41.5629681,2,78.40063
1,Aroeiras/PB,-7.5462904,-35.7080002,2486,13028.66726
D1,Aroeiras/PB,-7.5462904,-35.7080002,18,94.33468
1,Arraial do Cabo/RJ,-22.9662839,-42.024427,1680,5449.76806
D1,Arraial do Cabo/RJ,-22.9662839,-42.024427,48,155.70766
1,Arraial/PI,-6.6541632,-42.5335332,172,3649.48016
D1,Arraial/PI,-6.6541632,-42.5335332,3,63.65372
1,Arraias/TO,-12.9287788,-46.9437231,1199,11416.87298
D1,Arraias/TO,-12.9287788,-46.9437231,13,123.78595
1,Arroio Grande/RS,-32.2384246,-53.0866661,2429,13357.16250
D1,Arroio Grande/RS,-32.2384246,-53.0866661,59,324.44322
1,Arroio Trinta/SC,-26.9301976,-51.334928,981,27657.17508
D1,Arroio Trinta/SC,-26.9301976,-51.334928,15,422.89259
1,Arroio do Meio/RS,-29.4020392,-51.9444993,3846,18209.36509
D1,Arroio do Meio/RS,-29.4020392,-51.9444993,52,246.20046
1,Arroio do Padre/RS,-31.4428773,-52.4228985,321,10822.65678
D1,Arroio do Padre/RS,-31.4428773,-52.4228985,4,134.86177
1,Arroio do Sal/RS,-29.549852,-49.8874395,2527,24105.69493
D1,Arroio do Sal/RS,-29.549852,-49.8874395,41,391.10942
1,Arroio do Tigre/RS,-29.334158,-53.0888935,2078,15447.51710
D1,Arroio do Tigre/RS,-29.334158,-53.0888935,22,163.54445
1,Arroio dos Ratos/RS,-30.0894524,-51.7265541,1697,11949.86269
D1,Arroio dos Ratos/RS,-30.0894524,-51.7265541,45,316.87909
1,Artur Nogueira/SP,-22.572737,-47.172679,7215,12827.35079
D1,Artur Nogueira/SP,-22.572737,-47.172679,150,266.68089
1,Aruanã/GO,-14.9162439,-51.0715692,1072,10367.50484
D1,Aruanã/GO,-14.9162439,-51.0715692,20,193.42360
1,Arujá/SP,-23.396266,-46.3175449,8928,9656.79859
D1,Arujá/SP,-23.396266,-46.3175449,352,380.73399
1,Arvoredo/SC,-27.0752908,-52.4571847,403,18087.97127
D1,Arvoredo/SC,-27.0752908,-52.4571847,5,224.41652
1,Arvorezinha/RS,-28.87369,-52.17808,1337,12828.63174
D1,Arvorezinha/RS,-28.87369,-52.17808,30,287.85262
1,Arês/RN,-6.1969216,-35.1642968,1403,9658.54330
D1,Arês/RN,-6.1969216,-35.1642968,27,185.87361
1,Ascurra/SC,-26.9569975,-49.3767752,2059,25670.11595
D1,Ascurra/SC,-26.9569975,-49.3767752,13,162.07455
1,Aspásia/SP,-20.160028,-50.728046,316,17410.46832
D1,Aspásia/SP,-20.160028,-50.728046,9,495.86777
1,Assaré/CE,-6.8746791,-39.8741385,2701,11475.54914
D1,Assaré/CE,-6.8746791,-39.8741385,50,212.43149
1,Assaí/PR,-23.3736041,-50.8454929,2580,17441.86047
D1,Assaí/PR,-23.3736041,-50.8454929,57,385.34343
1,Assis Brasil/AC,-10.9409203,-69.5672108,1930,25232.05648
D1,Assis Brasil/AC,-10.9409203,-69.5672108,24,313.76651
1,Assis Chateaubriand/PR,-24.4054826,-53.5120468,7773,23338.13727
D1,Assis Chateaubriand/PR,-24.4054826,-53.5120468,135,405.33237
1,Assis/SP,-22.6620892,-50.420623,13402,12671.12926
D1,Assis/SP,-22.6620892,-50.420623,435,411.27751
1,Assunção do Piauí/PI,-5.8610212,-41.0485091,410,5203.70605
D1,Assunção do Piauí/PI,-5.8610212,-41.0485091,9,114.22769
1,Assunção/PB,-7.073396,-36.7274003,652,16031.47283
D1,Assunção/PB,-7.073396,-36.7274003,5,122.94074
1,Astolfo Dutra/MG,-21.3132636,-42.8624102,1991,13866.83382
D1,Astolfo Dutra/MG,-21.3132636,-42.8624102,29,201.97799
1,Astorga/PR,-23.2350184,-51.6647074,6695,25452.40268
D1,Astorga/PR,-23.2350184,-51.6647074,98,372.56691
1,Atalaia do Norte/AM,-4.3658547,-70.1908742,3907,18722.44585
D1,Atalaia do Norte/AM,-4.3658547,-70.1908742,11,52.71229
1,Atalaia/AL,-9.5029595,-36.0219316,1732,3643.24779
D1,Atalaia/AL,-9.5029595,-36.0219316,55,115.69205
1,Atalaia/PR,-23.1513833,-52.0529697,867,22397.31336
D1,Atalaia/PR,-23.1513833,-52.0529697,25,645.82795
1,Atalanta/SC,-27.421916,-49.778863,764,24032.71469
D1,Atalanta/SC,-27.421916,-49.778863,11,346.02076
1,Ataléia/MG,-18.04432,-41.1110524,1458,11667.73367
D1,Ataléia/MG,-18.04432,-41.1110524,11,88.02817
1,Atibaia/SP,-23.1177393,-46.5547861,12822,8819.76640
D1,Atibaia/SP,-23.1177393,-46.5547861,302,207.73432
1,Atilio Vivacqua/ES,-20.9139369,-41.1947519,2626,21401.79299
D1,Atilio Vivacqua/ES,-20.9139369,-41.1947519,34,277.09861
1,Augustinópolis/TO,-5.4662267,-47.8897519,2021,10710.12189
D1,Augustinópolis/TO,-5.4662267,-47.8897519,32,169.58135
1,Augusto Corrêa/PA,-1.0229335,-46.6404029,2311,4923.62102
D1,Augusto Corrêa/PA,-1.0229335,-46.6404029,52,110.78680
1,Augusto Pestana/RS,-28.5148413,-53.9906433,1336,20412.52865
D1,Augusto Pestana/RS,-28.5148413,-53.9906433,14,213.90374
1,Augusto de Lima/MG,-18.1092963,-44.2651945,327,6765.98386
D1,Augusto de Lima/MG,-18.1092963,-44.2651945,11,227.60190
1,Aurelino Leal/BA,-14.3167137,-39.3256107,1252,11300.65890
D1,Aurelino Leal/BA,-14.3167137,-39.3256107,36,324.93907
1,Auriflama/SP,-20.6840418,-50.5554616,2286,14925.56803
D1,Auriflama/SP,-20.6840418,-50.5554616,81,528.85871
1,Aurilândia/GO,-16.6772599,-50.4641231,771,25700.00000
D1,Aurilândia/GO,-16.6772599,-50.4641231,14,466.66667
1,Aurora do Pará/PA,-2.1323199,-47.558436,1867,5798.13665
D1,Aurora do Pará/PA,-2.1323199,-47.558436,15,46.58385
1,Aurora do Tocantins/TO,-12.71045,-46.407604,419,11000.26254
D1,Aurora do Tocantins/TO,-12.71045,-46.407604,7,183.77527
1,Aurora/CE,-6.9426019,-38.9693765,2327,9472.05601
D1,Aurora/CE,-6.9426019,-38.9693765,43,175.03155
1,Aurora/SC,-27.3166417,-49.6368502,1290,22683.31282
D1,Aurora/SC,-27.3166417,-49.6368502,20,351.67927
1,Autazes/AM,-3.5833283,-59.1301518,4022,9808.55993
D1,Autazes/AM,-3.5833283,-59.1301518,101,246.31143
1,Avanhandava/SP,-21.4603331,-49.9465156,1233,8767.68826
D1,Avanhandava/SP,-21.4603331,-49.9465156,47,334.21034
1,Avaré/SP,-23.1045215,-48.9259103,12353,13457.59979
D1,Avaré/SP,-23.1045215,-48.9259103,293,319.19993
1,Avaí/SP,-22.1564662,-49.3316395,733,13407.71904
D1,Avaí/SP,-22.1564662,-49.3316395,13,237.79038
1,Aveiro/PA,-3.6049239,-55.3310742,1026,6248.09695
D1,Aveiro/PA,-3.6049239,-55.3310742,15,91.34645
1,Avelino Lopes/PI,-10.1346855,-43.9489525,527,4638.67617
D1,Avelino Lopes/PI,-10.1346855,-43.9489525,22,193.64493
1,Avelinópolis/GO,-16.4672409,-49.7578661,453,18867.13869
D1,Avelinópolis/GO,-16.4672409,-49.7578661,17,708.03832
1,Axixá do Tocantins/TO,-5.612747,-47.77007,1187,12091.27025
D1,Axixá do Tocantins/TO,-5.612747,-47.77007,23,234.28746
1,Axixá/MA,-2.8379465,-44.0561053,192,1569.39676
D1,Axixá/MA,-2.8379465,-44.0561053,8,65.39153
1,Açailândia/MA,-4.9514278,-47.4844564,6193,5442.81659
D1,Açailândia/MA,-4.9514278,-47.4844564,281,246.96132
1,Açu/RN,-5.5836157,-36.9139541,9119,15523.55174
D1,Açu/RN,-5.5836157,-36.9139541,161,274.07521
1,Açucena/MG,-19.073056,-42.546666,830,8953.61381
D1,Açucena/MG,-19.073056,-42.546666,38,409.92449
1,Babaçulândia/TO,-7.2034355,-47.761613,894,8380.20247
D1,Babaçulândia/TO,-7.2034355,-47.761613,8,74.99063
1,Bacabal/MA,-4.2318132,-44.781167,5690,5414.20062
D1,Bacabal/MA,-4.2318132,-44.781167,210,199.82111
1,Bacabeira/MA,-2.9775747,-44.3155943,566,3244.29669
D1,Bacabeira/MA,-2.9775747,-44.3155943,11,63.05170
1,Bacuri/MA,-1.728894,-45.1417148,669,3572.57289
D1,Bacuri/MA,-1.728894,-45.1417148,4,21.36067
1,Bacurituba/MA,-2.7082587,-44.7381309,117,2054.07303
D1,Bacurituba/MA,-2.7082587,-44.7381309,2,35.11236
1,Bady Bassitt/SP,-20.9178969,-49.4517911,4338,24082.60701
D1,Bady Bassitt/SP,-20.9178969,-49.4517911,89,494.08760
1,Baependi/MG,-21.959162,-44.8899249,2748,14276.06629
D1,Baependi/MG,-21.959162,-44.8899249,36,187.02270
1,Bagre/PA,-1.8994498,-50.2103844,967,3024.99453
D1,Bagre/PA,-1.8994498,-50.2103844,12,37.53871
1,Bagé/RS,-31.3314264,-54.1062808,14023,11539.85418
D1,Bagé/RS,-31.3314264,-54.1062808,310,255.10624
1,Baianópolis/BA,-12.3067564,-44.5383591,1211,8662.99449
D1,Baianópolis/BA,-12.3067564,-44.5383591,22,157.37893
1,Baixa Grande do Ribeiro/PI,-7.862861,-45.2113289,2672,22738.49034
D1,Baixa Grande do Ribeiro/PI,-7.862861,-45.2113289,36,306.35691
1,Baixa Grande/BA,-11.9630941,-40.1657537,1197,5858.74407
D1,Baixa Grande/BA,-11.9630941,-40.1657537,21,102.78498
1,Baixio/CE,-6.7303544,-38.7170095,785,12424.81798
D1,Baixio/CE,-6.7303544,-38.7170095,15,237.41690
1,Baixo Guandu/ES,-19.5138322,-41.0182089,7441,23801.29866
D1,Baixo Guandu/ES,-19.5138322,-41.0182089,97,310.27093
1,Baião/PA,-2.7903479,-49.6702845,883,1785.49763
D1,Baião/PA,-2.7903479,-49.6702845,39,78.86116
1,Balbinos/SP,-21.9006253,-49.3583966,519,8470.70344
D1,Balbinos/SP,-21.9006253,-49.3583966,4,65.28480
1,Baldim/MG,-19.2913568,-43.9558262,715,9190.23136
D1,Baldim/MG,-19.2913568,-43.9558262,22,282.77635
1,Baliza/GO,-16.1978119,-52.542789,572,10557.40126
D1,Baliza/GO,-16.1978119,-52.542789,11,203.02695
1,Balneário Arroio do Silva/SC,-28.9815269,-49.4189932,2706,19634.30562
D1,Balneário Arroio do Silva/SC,-28.9815269,-49.4189932,62,449.86214
1,Balneário Barra do Sul/SC,-26.459842,-48.6061471,1974,17513.97392
D1,Balneário Barra do Sul/SC,-26.459842,-48.6061471,49,434.74403
1,Balneário Camboriú/SC,-26.9924395,-48.6339782,33147,22212.46825
D1,Balneário Camboriú/SC,-26.9924395,-48.6339782,467,312.94605
1,Balneário Gaivota/SC,-29.1553098,-49.5808712,2367,20516.59877
D1,Balneário Gaivota/SC,-29.1553098,-49.5808712,39,338.04282
1,Balneário Pinhal/RS,-30.2482978,-50.234585,2054,14025.26460
D1,Balneário Pinhal/RS,-30.2482978,-50.234585,60,409.69614
1,Balneário Piçarras/SC,-26.7638889,-48.6716667,6307,25864.26082
D1,Balneário Piçarras/SC,-26.7638889,-48.6716667,70,287.06172
1,Balneário Rincão/SC,-28.8235718,-49.2241642,2205,16794.88156
D1,Balneário Rincão/SC,-28.8235718,-49.2241642,54,411.30322
1,Balsa Nova/PR,-25.5842234,-49.6312741,2578,19474.24082
D1,Balsa Nova/PR,-25.5842234,-49.6312741,37,279.49841
1,Balsas/MA,-7.53214,-46.037163,14765,15229.34266
D1,Balsas/MA,-7.53214,-46.037163,220,226.91875
1,Bambuí/MG,-20.0131996,-45.9777034,4239,17689.03355
D1,Bambuí/MG,-20.0131996,-45.9777034,40,166.91704
1,Banabuiú/CE,-5.3046404,-38.919766,2619,14301.31601
D1,Banabuiú/CE,-5.3046404,-38.919766,22,120.13324
1,Bananal/SP,-22.6828195,-44.3221095,1134,10272.66963
D1,Bananal/SP,-22.6828195,-44.3221095,4,36.23517
1,Bananeiras/PB,-6.7537682,-35.6338343,1667,7855.79642
D1,Bananeiras/PB,-6.7537682,-35.6338343,28,131.95099
1,Bandeira do Sul/MG,-21.728056,-46.385555,1124,19352.61708
D1,Bandeira do Sul/MG,-21.728056,-46.385555,15,258.26446
1,Bandeira/MG,-15.884444,-40.559167,550,11608.27353
D1,Bandeira/MG,-15.884444,-40.559167,10,211.05952
1,Bandeirante/SC,-26.7677402,-53.6397596,503,19213.13980
D1,Bandeirante/SC,-26.7677402,-53.6397596,6,229.18258
1,Bandeirantes do Tocantins/TO,-7.7635698,-48.579148,630,17350.59212
D1,Bandeirantes do Tocantins/TO,-7.7635698,-48.579148,8,220.32498
1,Bandeirantes/MS,-19.9179623,-54.3646768,650,8927.34514
D1,Bandeirantes/MS,-19.9179623,-54.3646768,12,164.81253
1,Bandeirantes/PR,-23.107788,-50.370407,7821,25179.48553
D1,Bandeirantes/PR,-23.107788,-50.370407,150,482.92070
1,Bannach/PA,-7.3508505,-50.4064531,656,20253.16456
D1,Bannach/PA,-7.3508505,-50.4064531,3,92.62118
1,Banzaê/BA,-10.5827616,-38.6122305,1283,9682.28813
D1,Banzaê/BA,-10.5827616,-38.6122305,11,83.01260
1,Baraúna/PB,-6.643394,-36.2531932,769,15279.15756
D1,Baraúna/PB,-6.643394,-36.2531932,9,178.81979
1,Baraúna/RN,-5.0775002,-37.61752,1742,5983.78675
D1,Baraúna/RN,-5.0775002,-37.61752,29,99.61528
1,Barbacena/MG,-21.2254524,-43.7735087,12353,8883.15200
D1,Barbacena/MG,-21.2254524,-43.7735087,318,228.67662
1,Barbalha/CE,-7.3121067,-39.3036427,8519,13815.64010
D1,Barbalha/CE,-7.3121067,-39.3036427,183,296.77922
1,Barbosa Ferraz/PR,-24.0287182,-52.00811,2563,22707.53965
D1,Barbosa Ferraz/PR,-24.0287182,-52.00811,47,416.40826
1,Barbosa/SP,-21.265661,-49.951816,841,11165.69304
D1,Barbosa/SP,-21.265661,-49.951816,23,305.36378
1,Barcarena/PA,-1.5107945,-48.6190679,12256,9476.31308
D1,Barcarena/PA,-1.5107945,-48.6190679,245,189.43348
1,Barcelona/RN,-5.9514918,-35.9260284,361,9049.88719
D1,Barcelona/RN,-5.9514918,-35.9260284,8,200.55152
1,Barcelos/AM,-0.9729214,-62.925635,5296,19069.56647
D1,Barcelos/AM,-0.9729214,-62.925635,60,216.04494
1,Bariri/SP,-22.0746355,-48.7394852,3368,9396.27274
D1,Bariri/SP,-22.0746355,-48.7394852,136,379.42194
1,Barra Bonita/SC,-26.6526364,-53.4419581,358,22030.76923
D1,Barra Bonita/SC,-26.6526364,-53.4419581,2,123.07692
1,Barra Bonita/SP,-22.490859,-48.558349,5024,13907.26644
D1,Barra Bonita/SP,-22.490859,-48.558349,119,329.41176
1,Barra D'Alcântara/PI,-6.5209258,-42.1071089,156,3946.36985
D1,Barra D'Alcântara/PI,-6.5209258,-42.1071089,4,101.18897
1,Barra Funda/RS,-27.9230048,-53.0401045,847,33047.21030
D1,Barra Funda/RS,-27.9230048,-53.0401045,14,546.23488
1,Barra Longa/MG,-20.2833541,-43.0423516,562,11457.69623
D1,Barra Longa/MG,-20.2833541,-43.0423516,13,265.03568
1,Barra Mansa/RJ,-22.5394843,-44.1735129,40798,22024.75747
D1,Barra Mansa/RJ,-22.5394843,-44.1735129,716,386.53185
1,Barra Velha/SC,-26.6338203,-48.6835001,5791,18962.63794
D1,Barra Velha/SC,-26.6338203,-48.6835001,141,461.70471
1,Barra da Estiva/BA,-13.6269662,-41.3278287,3299,16333.30033
D1,Barra da Estiva/BA,-13.6269662,-41.3278287,34,168.33350
1,Barra de Guabiraba/PE,-8.4173522,-35.6626669,498,3403.49918
D1,Barra de Guabiraba/PE,-8.4173522,-35.6626669,17,116.18371
1,Barra de Santa Rosa/PB,-6.7218007,-36.0564638,1733,11103.99180
D1,Barra de Santa Rosa/PB,-6.7218007,-36.0564638,15,96.11072
1,Barra de Santana/PB,-7.5230865,-35.9988518,966,11585.51211
D1,Barra de Santana/PB,-7.5230865,-35.9988518,8,95.94627
1,Barra de Santo Antônio/AL,-9.4038098,-35.5117693,550,3394.85217
D1,Barra de Santo Antônio/AL,-9.4038098,-35.5117693,33,203.69113
1,Barra de São Francisco/ES,-18.7570902,-40.8916119,9019,19909.05278
D1,Barra de São Francisco/ES,-18.7570902,-40.8916119,246,543.03437
1,Barra de São Miguel/AL,-9.8261357,-35.8837777,907,10754.09059
D1,Barra de São Miguel/AL,-9.8261357,-35.8837777,8,94.85416
1,Barra de São Miguel/PB,-7.7528088,-36.3170996,1063,17440.52502
D1,Barra de São Miguel/PB,-7.7528088,-36.3170996,10,164.06891
1,Barra do Bugres/MT,-15.0683712,-57.1853688,5593,15692.16093
D1,Barra do Bugres/MT,-15.0683712,-57.1853688,95,266.53948
1,Barra do Chapéu/SP,-24.472203,-49.023784,452,7801.17363
D1,Barra do Chapéu/SP,-24.472203,-49.023784,11,189.85157
1,Barra do Choça/BA,-14.8638173,-40.5761637,2547,8261.16571
D1,Barra do Choça/BA,-14.8638173,-40.5761637,37,120.00908
1,Barra do Corda/MA,-5.496823,-45.248496,5875,6608.92064
D1,Barra do Corda/MA,-5.496823,-45.248496,78,87.74397
1,Barra do Garças/MT,-15.8916033,-52.2615413,12838,20806.45684
D1,Barra do Garças/MT,-15.8916033,-52.2615413,395,640.17374
1,Barra do Guarita/RS,-27.1888016,-53.7147086,129,3949.78567
D1,Barra do Guarita/RS,-27.1888016,-53.7147086,8,244.94795
1,Barra do Jacaré/PR,-23.1151788,-50.1813945,501,18015.10248
D1,Barra do Jacaré/PR,-23.1151788,-50.1813945,7,251.70802
1,Barra do Mendes/BA,-11.8053298,-42.057037,909,6924.13163
D1,Barra do Mendes/BA,-11.8053298,-42.057037,19,144.72882
1,Barra do Ouro/TO,-7.7113784,-47.6743925,174,3723.51808
D1,Barra do Ouro/TO,-7.7113784,-47.6743925,8,171.19623
1,Barra do Piraí/RJ,-22.4703403,-43.8263256,9038,8936.21649
D1,Barra do Piraí/RJ,-22.4703403,-43.8263256,421,416.25881
1,Barra do Quaraí/RS,-30.208947,-57.5505128,629,14841.90656
D1,Barra do Quaraí/RS,-30.208947,-57.5505128,9,212.36432
1,Barra do Ribeiro/RS,-30.2930206,-51.301437,1399,10273.16787
D1,Barra do Ribeiro/RS,-30.2930206,-51.301437,55,403.87722
1,Barra do Rio Azul/RS,-27.4101581,-52.4117471,173,10672.42443
D1,Barra do Rio Azul/RS,-27.4101581,-52.4117471,1,61.69031
1,Barra do Rocha/BA,-14.2090974,-39.6004395,621,11260.19946
D1,Barra do Rocha/BA,-14.2090974,-39.6004395,7,126.92656
1,Barra do Turvo/SP,-24.756421,-48.5056942,742,9755.45622
D1,Barra do Turvo/SP,-24.756421,-48.5056942,23,302.39285
1,Barra dos Coqueiros/SE,-10.9075694,-37.0386249,8153,25932.75868
D1,Barra dos Coqueiros/SE,-10.9075694,-37.0386249,101,321.25704
1,Barra/BA,-11.0892702,-43.1420453,2543,4689.71876
D1,Barra/BA,-11.0892702,-43.1420453,67,123.55924
1,Barracão/PR,-26.252395,-53.6349576,2087,20170.09761
D1,Barracão/PR,-26.252395,-53.6349576,39,376.92085
1,Barracão/RS,-27.6728964,-51.4582928,746,14244.79664
D1,Barracão/RS,-27.6728964,-51.4582928,17,324.61333
1,Barras/PI,-4.2446153,-42.2920241,5799,12260.56070
D1,Barras/PI,-4.2446153,-42.2920241,101,213.53968
1,Barreira/CE,-4.2883361,-38.641094,2044,8998.45917
D1,Barreira/CE,-4.2883361,-38.641094,52,228.92362
1,Barreiras do Piauí/PI,-9.9224524,-45.4763776,114,3396.90107
D1,Barreiras do Piauí/PI,-9.9224524,-45.4763776,4,119.18951
1,Barreiras/BA,-12.1440031,-44.9967406,22816,14401.13108
D1,Barreiras/BA,-12.1440031,-44.9967406,350,220.91497
1,Barreirinha/AM,-2.798863,-57.067897,3709,11267.04942
D1,Barreirinha/AM,-2.798863,-57.067897,67,203.52988
1,Barreirinhas/MA,-2.7541271,-42.8259693,2708,4238.46864
D1,Barreirinhas/MA,-2.7541271,-42.8259693,48,75.12795
1,Barreiros/PE,-8.8159644,-35.1831905,861,2008.58489
D1,Barreiros/PE,-8.8159644,-35.1831905,67,156.30103
1,Barretos/SP,-20.5531437,-48.5697509,19525,15803.83015
D1,Barretos/SP,-20.5531437,-48.5697509,602,487.26790
1,Barrinha/SP,-21.1898849,-48.1550642,1725,5143.57277
D1,Barrinha/SP,-21.1898849,-48.1550642,81,241.52429
1,Barro Alto/BA,-11.7618025,-41.9094904,1028,6776.08595
D1,Barro Alto/BA,-11.7618025,-41.9094904,15,98.87285
1,Barro Alto/GO,-14.9696025,-48.9190985,1876,16112.68573
D1,Barro Alto/GO,-14.9696025,-48.9190985,24,206.13244
1,Barro Duro/PI,-5.8180139,-42.5106589,791,11264.59698
D1,Barro Duro/PI,-5.8180139,-42.5106589,12,170.89148
1,Barro Preto/BA,-14.8068289,-39.4727588,735,13836.59639
D1,Barro Preto/BA,-14.8068289,-39.4727588,14,263.55422
1,Barro/CE,-7.1713587,-38.7742136,2325,10182.18446
D1,Barro/CE,-7.1713587,-38.7742136,49,214.59227
1,Barrocas/BA,-11.5165,-39.099282894736845,988,6089.36826
D1,Barrocas/BA,-11.5165,-39.099282894736845,27,166.40986
1,Barrolândia/TO,-9.837246,-48.7264346,838,14782.14853
D1,Barrolândia/TO,-9.837246,-48.7264346,20,352.79591
1,Barroquinha/CE,-3.0200371,-41.1339229,1561,10359.01520
D1,Barroquinha/CE,-3.0200371,-41.1339229,26,172.53965
1,Barros Cassal/RS,-29.094938,-52.5832366,1250,11193.69571
D1,Barros Cassal/RS,-29.094938,-52.5832366,15,134.32435
1,Barroso/MG,-21.187222,-43.976111,4291,20451.83738
D1,Barroso/MG,-21.187222,-43.976111,61,290.73924
1,Barueri/SP,-23.5112184,-46.8764612,36350,12995.88136
D1,Barueri/SP,-23.5112184,-46.8764612,1198,428.30993
1,Barão de Antonina/SP,-23.6295651,-49.5632104,522,14808.51064
D1,Barão de Antonina/SP,-23.6295651,-49.5632104,11,312.05674
1,Barão de Cocais/MG,-19.9452437,-43.4870298,6201,18659.72557
D1,Barão de Cocais/MG,-19.9452437,-43.4870298,81,243.74097
1,Barão de Cotegipe/RS,-27.6214694,-52.3765316,973,14706.77146
D1,Barão de Cotegipe/RS,-27.6214694,-52.3765316,10,151.14873
1,Barão de Grajaú/MA,-6.7542591,-43.0263477,481,2528.11942
D1,Barão de Grajaú/MA,-6.7542591,-43.0263477,7,36.79176
1,Barão de Melgaço/MT,-16.195776,-55.9668049,865,10593.99878
D1,Barão de Melgaço/MT,-16.195776,-55.9668049,17,208.20576
1,Barão de Monte Alto/MG,-21.244722,-42.2375,387,7286.76332
D1,Barão de Monte Alto/MG,-21.244722,-42.2375,14,263.60384
1,Barão do Triunfo/RS,-30.3909877,-51.7375349,613,8119.20530
D1,Barão do Triunfo/RS,-30.3909877,-51.7375349,8,105.96026
1,Barão/RS,-29.372474,-51.494908,1029,16511.55327
D1,Barão/RS,-29.372474,-51.494908,13,208.60077
1,Bastos/SP,-21.9222474,-50.7317727,2176,10385.64338
D1,Bastos/SP,-21.9222474,-50.7317727,51,243.41352
1,Bataguassu/MS,-21.715899,-52.422058,3939,16676.54530
D1,Bataguassu/MS,-21.715899,-52.422058,51,215.91871
1,Batalha/AL,-9.6733809,-37.1265481,1238,6713.66594
D1,Batalha/AL,-9.6733809,-37.1265481,23,124.72885
1,Batalha/PI,-4.022391,-42.0780926,1400,5194.61244
D1,Batalha/PI,-4.022391,-42.0780926,37,137.28619
1,Batatais/SP,-20.892867,-47.592149,6593,10392.82449
D1,Batatais/SP,-20.892867,-47.592149,190,299.50503
1,Batayporã/MS,-22.2976466,-53.2685608,1535,13502.81492
D1,Batayporã/MS,-22.2976466,-53.2685608,30,263.89866
1,Baturité/CE,-4.3290203,-38.8821055,5242,14509.92333
D1,Baturité/CE,-4.3290203,-38.8821055,87,240.81712
1,Bauru/SP,-22.3218102,-49.0705863,61733,16172.91842
D1,Bauru/SP,-22.3218102,-49.0705863,1337,350.26958
1,Bayeux/PB,-7.1301631,-34.936532,10054,10309.78579
D1,Bayeux/PB,-7.1301631,-34.936532,264,270.71648
1,Baía Formosa/RN,-6.3691885,-35.0063741,643,6860.13016
D1,Baía Formosa/RN,-6.3691885,-35.0063741,10,106.68943
1,Baía da Traição/PB,-6.691258,-34.9371244,1547,16820.70240
D1,Baía da Traição/PB,-6.691258,-34.9371244,12,130.47733
1,Bebedouro/SP,-20.949077,-48.479083,4949,6376.59125
D1,Bebedouro/SP,-20.949077,-48.479083,324,417.46122
1,Beberibe/CE,-4.1810469,-38.1298101,8122,14953.51192
D1,Beberibe/CE,-4.1810469,-38.1298101,133,244.86790
1,Bela Cruz/CE,-3.0529129,-40.167582,3944,12005.72281
D1,Bela Cruz/CE,-3.0529129,-40.167582,73,222.21546
1,Bela Vista da Caroba/PR,-25.8792818,-53.6672545,540,15863.68978
D1,Bela Vista da Caroba/PR,-25.8792818,-53.6672545,7,205.64042
1,Bela Vista de Goiás/GO,-16.9692949,-48.9513071,4222,13617.59773
D1,Bela Vista de Goiás/GO,-16.9692949,-48.9513071,88,283.83434
1,Bela Vista de Minas/MG,-19.8289721,-43.0973688,1154,11237.70572
D1,Bela Vista de Minas/MG,-19.8289721,-43.0973688,25,243.45116
1,Bela Vista do Maranhão/MA,-3.7416367,-45.2514192,230,2026.96748
D1,Bela Vista do Maranhão/MA,-3.7416367,-45.2514192,20,176.25804
1,Bela Vista do Paraíso/PR,-22.9948493,-51.1907996,2878,18688.31169
D1,Bela Vista do Paraíso/PR,-22.9948493,-51.1907996,80,519.48052
1,Bela Vista do Piauí/PI,-7.9716353,-41.8715061,323,7987.14144
D1,Bela Vista do Piauí/PI,-7.9716353,-41.8715061,7,173.09594
1,Bela Vista do Toldo/SC,-26.274625,-50.466354,95,1487.62919
D1,Bela Vista do Toldo/SC,-26.274625,-50.466354,5,78.29627
1,Bela Vista/MS,-22.107327,-56.5317344,1993,8022.70349
D1,Bela Vista/MS,-22.107327,-56.5317344,37,148.94131
1,Belford Roxo/RJ,-22.7667284,-43.4033603,33780,6556.18072
D1,Belford Roxo/RJ,-22.7667284,-43.4033603,983,190.78525
1,Belmiro Braga/MG,-21.9486291,-43.413564,560,16364.69901
D1,Belmiro Braga/MG,-21.9486291,-43.413564,4,116.89071
1,Belmonte/BA,-15.8630837,-38.8792845,1593,6767.20476
D1,Belmonte/BA,-15.8630837,-38.8792845,30,127.44265
1,Belmonte/SC,-26.8448262,-53.578916,501,18473.45133
D1,Belmonte/SC,-26.8448262,-53.578916,5,184.36578
1,Belo Campo/BA,-15.0338286,-41.2585109,1076,6324.57532
D1,Belo Campo/BA,-15.0338286,-41.2585109,20,117.55716
1,Belo Horizonte/MG,-19.9227318,-43.9450948,321900,12719.79582
D1,Belo Horizonte/MG,-19.9227318,-43.9450948,7208,284.82227
1,Belo Jardim/PE,-8.3338293,-36.4176419,6776,8808.00728
D1,Belo Jardim/PE,-8.3338293,-36.4176419,131,170.28467
1,Belo Monte/AL,-9.8269944,-37.2787165,573,8530.59402
D1,Belo Monte/AL,-9.8269944,-37.2787165,9,133.98839
1,Belo Oriente/MG,-19.2232523,-42.4807033,3136,11496.86549
D1,Belo Oriente/MG,-19.2232523,-42.4807033,74,271.29083
1,Belo Vale/MG,-20.407778,-44.024167,1283,16612.71527
D1,Belo Vale/MG,-20.407778,-44.024167,12,155.38003
1,Belterra/PA,-2.636091,-54.937392,2424,13508.69371
D1,Belterra/PA,-2.636091,-54.937392,38,211.76995
1,Belágua/MA,-3.1604031,-43.5085052,445,5866.06907
D1,Belágua/MA,-3.1604031,-43.5085052,4,52.72871
1,Belém de Maria/PE,-8.6242497,-35.8388934,384,3155.55921
D1,Belém de Maria/PE,-8.6242497,-35.8388934,8,65.74082
1,Belém do Brejo do Cruz/PB,-6.1880727,-37.5332267,746,10141.38119
D1,Belém do Brejo do Cruz/PB,-6.1880727,-37.5332267,8,108.75476
1,Belém do Piauí/PI,-7.3767305,-40.9712156,495,13723.31577
D1,Belém do Piauí/PI,-7.3767305,-40.9712156,8,221.79096
1,Belém do São Francisco/PE,-8.7517707,-38.9625715,1180,5692.23348
D1,Belém do São Francisco/PE,-8.7517707,-38.9625715,14,67.53497
1,Belém/AL,-9.5715351,-36.492841,196,4637.95551
D1,Belém/AL,-9.5715351,-36.492841,8,189.30431
1,Belém/PA,-1.45056,-48.4682453,115293,7653.44326
D1,Belém/PA,-1.45056,-48.4682453,5188,344.39267
1,Belém/PB,-6.6967586,-35.5369626,2882,16252.18519
D1,Belém/PB,-6.6967586,-35.5369626,45,253.76417
1,Beneditinos/PI,-5.4565671,-42.3605061,1386,13226.45291
D1,Beneditinos/PI,-5.4565671,-42.3605061,41,391.25871
1,Benedito Leite/MA,-7.2173453,-44.5523331,339,6007.44285
D1,Benedito Leite/MA,-7.2173453,-44.5523331,2,35.44214
1,Benedito Novo/SC,-26.7840657,-49.3629511,1268,10659.04506
D1,Benedito Novo/SC,-26.7840657,-49.3629511,20,168.12374
1,Benevides/PA,-1.3555577,-48.252235,5335,8235.56653
D1,Benevides/PA,-1.3555577,-48.252235,111,171.34918
1,Benjamin Constant do Sul/RS,-27.5105555,-52.6007689,200,10395.01040
D1,Benjamin Constant do Sul/RS,-27.5105555,-52.6007689,3,155.92516
1,Benjamin Constant/AM,-4.3782748,-70.0290603,3976,8860.56203
D1,Benjamin Constant/AM,-4.3782748,-70.0290603,88,196.10902
1,Bento Fernandes/RN,-5.6926846,-35.8207423,190,3422.19020
D1,Bento Fernandes/RN,-5.6926846,-35.8207423,3,54.03458
1,Bento Gonçalves/RS,-29.1654014,-51.5197627,31271,25404.98822
D1,Bento Gonçalves/RS,-29.1654014,-51.5197627,426,346.08823
1,Bento de Abreu/SP,-21.2707225,-50.8120444,402,13276.08983
D1,Bento de Abreu/SP,-21.2707225,-50.8120444,5,165.12550
1,Bequimão/MA,-2.4495376,-44.7884889,394,1848.29010
D1,Bequimão/MA,-2.4495376,-44.7884889,26,121.96838
1,Berilo/MG,-16.9515764,-42.4643732,318,2691.94955
D1,Berilo/MG,-16.9515764,-42.4643732,1,8.46525
1,Berizal/MG,-15.6118785,-41.7417382,285,5947.41235
D1,Berizal/MG,-15.6118785,-41.7417382,2,41.73623
1,Bernardino Batista/PB,-6.4532173,-38.5495418,381,10669.28031
D1,Bernardino Batista/PB,-6.4532173,-38.5495418,2,56.00672
1,Bernardino de Campos/SP,-23.0140216,-49.4760724,1078,9652.57880
D1,Bernardino de Campos/SP,-23.0140216,-49.4760724,35,313.39542
1,Bernardo Sayão/TO,-7.8794244,-48.8968905,883,19891.86754
D1,Bernardo Sayão/TO,-7.8794244,-48.8968905,13,292.85875
1,Bernardo do Mearim/MA,-4.6315929,-44.7617508,555,9095.37856
D1,Bernardo do Mearim/MA,-4.6315929,-44.7617508,7,114.71649
1,Bertioga/SP,-23.848568,-46.139586,7071,10688.69607
D1,Bertioga/SP,-23.848568,-46.139586,183,276.62726
1,Bertolínia/PI,-7.6372159,-43.9540611,1004,18214.80406
D1,Bertolínia/PI,-7.6372159,-43.9540611,12,217.70682
1,Bertópolis/MG,-17.063333,-40.573889,640,13885.87546
D1,Bertópolis/MG,-17.063333,-40.573889,6,130.18008
1,Beruri/AM,-3.9007135,-61.3717319,2880,14046.72487
D1,Beruri/AM,-3.9007135,-61.3717319,35,170.70673
1,Betim/MG,-19.968056,-44.198333,40843,9075.73818
D1,Betim/MG,-19.968056,-44.198333,1392,309.31684
1,Betânia do Piauí/PI,-8.1460635,-40.7961387,182,2928.87029
D1,Betânia do Piauí/PI,-8.1460635,-40.7961387,4,64.37078
1,Betânia/PE,-8.2742779,-38.0351767,543,4238.54500
D1,Betânia/PE,-8.2742779,-38.0351767,17,132.69846
1,Bezerros/PE,-8.2372132,-35.7558262,5907,9689.96063
D1,Bezerros/PE,-8.2372132,-35.7558262,129,211.61417
1,Bias Fortes/MG,-21.605833,-43.756944,119,3625.83790
D1,Bias Fortes/MG,-21.605833,-43.756944,4,121.87690
1,Bicas/MG,-21.7213723,-43.0604327,2898,19833.01396
D1,Bicas/MG,-21.7213723,-43.0604327,49,335.34082
1,Biguaçu/SC,-27.4961277,-48.6542432,14580,20689.36158
D1,Biguaçu/SC,-27.4961277,-48.6542432,178,252.58617
1,Bilac/SP,-21.403962,-50.47464,960,11711.60181
D1,Bilac/SP,-21.403962,-50.47464,22,268.39087
1,Biquinhas/MG,-18.783611,-45.502222,221,8904.10959
D1,Biquinhas/MG,-18.783611,-45.502222,4,161.16035
1,Birigui/SP,-21.2908491,-50.34144,18885,14976.92198
D1,Birigui/SP,-21.2908491,-50.34144,623,494.07585
1,Biritiba Mirim/SP,-23.5697765,-46.0407456,1571,4722.68150
D1,Biritiba Mirim/SP,-23.5697765,-46.0407456,112,336.69021
1,Biritinga/BA,-11.6227908,-38.8066738,663,4146.60079
D1,Biritinga/BA,-11.6227908,-38.8066738,7,43.78010
1,Bituruna/PR,-26.161281,-51.5533319,2217,13509.23161
D1,Bituruna/PR,-26.161281,-51.5533319,35,213.27159
1,Blumenau/SC,-26.9195567,-49.0658025,78368,21387.59559
D1,Blumenau/SC,-26.9195567,-49.0658025,729,198.95311
1,Boa Esperança do Iguaçu/PR,-25.6362851,-53.2139114,347,14238.81822
D1,Boa Esperança do Iguaçu/PR,-25.6362851,-53.2139114,1,41.03406
1,Boa Esperança do Sul/SP,-21.9930206,-48.3917372,2553,16894.97717
D1,Boa Esperança do Sul/SP,-21.9930206,-48.3917372,24,158.82470
1,Boa Esperança/ES,-18.5395472,-40.2904088,3237,21371.97940
D1,Boa Esperança/ES,-18.5395472,-40.2904088,50,330.12016
1,Boa Esperança/MG,-21.0901253,-45.5660195,7016,17405.97400
D1,Boa Esperança/MG,-21.0901253,-45.5660195,146,362.21098
1,Boa Esperança/PR,-24.2411024,-52.7860277,961,24079.17815
D1,Boa Esperança/PR,-24.2411024,-52.7860277,19,476.07116
1,Boa Hora/PI,-4.4094627,-42.1255341,607,8863.90187
D1,Boa Hora/PI,-4.4094627,-42.1255341,7,102.21963
1,Boa Nova/BA,-14.365907,-40.2063056,1157,9610.43276
D1,Boa Nova/BA,-14.365907,-40.2063056,23,191.04577
1,Boa Ventura de São Roque/PR,-24.88177,-51.5441292,870,13715.90730
D1,Boa Ventura de São Roque/PR,-24.88177,-51.5441292,8,126.12329
1,Boa Ventura/PB,-7.4202462,-38.2156782,907,17282.77439
D1,Boa Ventura/PB,-7.4202462,-38.2156782,12,228.65854
1,Boa Viagem/CE,-5.1261877,-39.7300055,4977,9102.04828
D1,Boa Viagem/CE,-5.1261877,-39.7300055,118,215.80102
1,Boa Vista da Aparecida/PR,-25.4357216,-53.4067721,1524,20255.18341
D1,Boa Vista da Aparecida/PR,-25.4357216,-53.4067721,37,491.75970
1,Boa Vista das Missões/RS,-27.6677983,-53.3127622,334,16003.83325
D1,Boa Vista das Missões/RS,-27.6677983,-53.3127622,7,335.40968
1,Boa Vista do Buricá/RS,-27.6687782,-54.1111913,1329,19800.35757
D1,Boa Vista do Buricá/RS,-27.6687782,-54.1111913,11,163.88558
1,Boa Vista do Cadeado/RS,-28.5783827,-53.8123759,313,12692.61963
D1,Boa Vista do Cadeado/RS,-28.5783827,-53.8123759,4,162.20600
1,Boa Vista do Gurupi/MA,-1.7981168,-46.3071882,15,176.59524
D1,Boa Vista do Gurupi/MA,-1.7981168,-46.3071882,4,47.09206
1,Boa Vista do Incra/RS,-28.8195551,-53.3866624,462,17579.90868
D1,Boa Vista do Incra/RS,-28.8195551,-53.3866624,5,190.25875
1,Boa Vista do Ramos/AM,-2.9716927,-57.5869819,1647,8218.56287
D1,Boa Vista do Ramos/AM,-2.9716927,-57.5869819,13,64.87026
1,Boa Vista do Sul/RS,-29.3510488,-51.6779679,481,17345.83484
D1,Boa Vista do Sul/RS,-29.3510488,-51.6779679,4,144.24811
1,Boa Vista do Tupim/BA,-12.6605988,-40.6083594,299,1617.00287
D1,Boa Vista do Tupim/BA,-12.6605988,-40.6083594,11,59.48840
1,Boa Vista/PB,-7.2620711,-36.2415161,1279,17719.58991
D1,Boa Vista/PB,-7.2620711,-36.2415161,16,221.66805
1,Boa Vista/RR,2.8208478,-60.6719582,112363,25736.44441
D1,Boa Vista/RR,2.8208478,-60.6719582,1594,365.10143
1,Boca da Mata/AL,-9.6452054,-36.2116658,2030,7400.92603
D1,Boca da Mata/AL,-9.6452054,-36.2116658,46,167.70571
1,Boca do Acre/AM,-8.7553487,-67.3930873,4090,11699.75399
D1,Boca do Acre/AM,-8.7553487,-67.3930873,30,85.81727
1,Bocaina de Minas/MG,-22.167778,-44.394722,380,7468.55346
D1,Bocaina de Minas/MG,-22.167778,-44.394722,7,137.57862
1,Bocaina do Sul/SC,-27.745494,-49.942279,674,19251.64239
D1,Bocaina do Sul/SC,-27.745494,-49.942279,4,114.25307
1,Bocaina/PI,-6.9445939,-41.3224599,445,9869.15059
D1,Bocaina/PI,-6.9445939,-41.3224599,10,221.77866
1,Bocaina/SP,-22.1421831,-48.522276,2066,16434.65118
D1,Bocaina/SP,-22.1421831,-48.522276,37,294.32822
1,Bocaiúva do Sul/PR,-25.206591,-49.114131,2529,19003.60685
D1,Bocaiúva do Sul/PR,-25.206591,-49.114131,29,217.91404
1,Bocaiúva/MG,-17.1160208,-43.8122678,3727,7377.13030
D1,Bocaiúva/MG,-17.1160208,-43.8122678,72,142.51499
1,Bodocó/PE,-7.777592,-39.933797,2223,5758.32146
D1,Bodocó/PE,-7.777592,-39.933797,42,108.79420
1,Bodoquena/MS,-20.5508775,-56.6769653,627,8036.40092
D1,Bodoquena/MS,-20.5508775,-56.6769653,20,256.34453
1,Bodó/RN,-5.9866104,-36.4134824,371,17088.89912
D1,Bodó/RN,-5.9866104,-36.4134824,1,46.06172
1,Bofete/SP,-23.1019554,-48.2610535,1340,11067.97720
D1,Bofete/SP,-23.1019554,-48.2610535,24,198.23243
1,Boituva/SP,-23.2838893,-47.6738231,6927,10941.39946
D1,Boituva/SP,-23.2838893,-47.6738231,204,322.22398
1,Bom Conselho/PE,-9.169191,-36.685683,3112,6354.26238
D1,Bom Conselho/PE,-9.169191,-36.685683,77,157.22307
1,Bom Despacho/MG,-19.7375242,-45.2517288,8450,16428.18260
D1,Bom Despacho/MG,-19.7375242,-45.2517288,115,223.57882
1,Bom Jardim da Serra/SC,-28.3380324,-49.625588,910,18954.38450
D1,Bom Jardim da Serra/SC,-28.3380324,-49.625588,8,166.63195
1,Bom Jardim de Goiás/GO,-16.2062659,-52.172793,1765,19804.75763
D1,Bom Jardim de Goiás/GO,-16.2062659,-52.172793,30,336.62478
1,Bom Jardim de Minas/MG,-21.9476466,-44.1906033,934,14494.10304
D1,Bom Jardim de Minas/MG,-21.9476466,-44.1906033,5,77.59156
1,Bom Jardim/MA,-3.54129,-45.606004,1934,4603.66579
D1,Bom Jardim/MA,-3.54129,-45.606004,57,135.68198
1,Bom Jardim/PE,-7.7961572,-35.5871696,2151,5372.39622
D1,Bom Jardim/PE,-7.7961572,-35.5871696,73,182.32679
1,Bom Jardim/RJ,-22.1515328,-42.4186683,3121,11235.10566
D1,Bom Jardim/RJ,-22.1515328,-42.4186683,54,194.39145
1,Bom Jesus da Lapa/BA,-13.250571,-43.410754,7117,10145.25809
D1,Bom Jesus da Lapa/BA,-13.250571,-43.410754,99,141.12415
1,Bom Jesus da Penha/MG,-21.0165299,-46.5226644,1007,23583.13817
D1,Bom Jesus da Penha/MG,-21.0165299,-46.5226644,20,468.38407
1,Bom Jesus da Serra/BA,-14.3724084,-40.5047119,582,5958.23096
D1,Bom Jesus da Serra/BA,-14.3724084,-40.5047119,11,112.61261
1,Bom Jesus das Selvas/MA,-4.4878075,-46.8526639,4346,12383.53042
D1,Bom Jesus das Selvas/MA,-4.4878075,-46.8526639,47,133.92221
1,Bom Jesus de Goiás/GO,-18.2174587,-49.739721,4131,15846.40761
D1,Bom Jesus de Goiás/GO,-18.2174587,-49.739721,119,456.48088
1,Bom Jesus do Amparo/MG,-19.7045132,-43.4752911,482,7796.82951
D1,Bom Jesus do Amparo/MG,-19.7045132,-43.4752911,8,129.40796
1,Bom Jesus do Araguaia/MT,-12.1725897,-51.5074425,1127,16500.73206
D1,Bom Jesus do Araguaia/MT,-12.1725897,-51.5074425,17,248.90190
1,Bom Jesus do Galho/MG,-19.8283191,-42.3162256,911,6158.73445
D1,Bom Jesus do Galho/MG,-19.8283191,-42.3162256,38,256.89562
1,Bom Jesus do Itabapoana/RJ,-21.1341025,-41.680095,5882,15766.90077
D1,Bom Jesus do Itabapoana/RJ,-21.1341025,-41.680095,116,310.94194
1,Bom Jesus do Norte/ES,-21.1254776,-41.6711646,1909,19112.93552
D1,Bom Jesus do Norte/ES,-21.1254776,-41.6711646,30,300.36043
1,Bom Jesus do Oeste/SC,-26.6929713,-53.0967453,310,14513.10861
D1,Bom Jesus do Oeste/SC,-26.6929713,-53.0967453,6,280.89888
1,Bom Jesus do Sul/PR,-26.1922507,-53.6002033,973,28024.19355
D1,Bom Jesus do Sul/PR,-26.1922507,-53.6002033,6,172.81106
1,Bom Jesus do Tocantins/PA,-5.0471796,-48.5978362,1004,5818.94054
D1,Bom Jesus do Tocantins/PA,-5.0471796,-48.5978362,28,162.28121
1,Bom Jesus do Tocantins/TO,-8.96306,-48.165043,186,3632.81250
D1,Bom Jesus do Tocantins/TO,-8.96306,-48.165043,3,58.59375
1,Bom Jesus dos Perdões/SP,-23.1353864,-46.4648052,2485,9375.23580
D1,Bom Jesus dos Perdões/SP,-23.1353864,-46.4648052,32,120.72738
1,Bom Jesus/PB,-6.8156725,-38.6551841,324,12519.31994
D1,Bom Jesus/PB,-6.8156725,-38.6551841,3,115.91963
1,Bom Jesus/PI,-9.0711644,-44.3583926,3828,14962.47655
D1,Bom Jesus/PI,-9.0711644,-44.3583926,50,195.43465
1,Bom Jesus/RN,-5.9887544,-35.5821149,1269,12292.93810
D1,Bom Jesus/RN,-5.9887544,-35.5821149,19,184.05502
1,Bom Jesus/RS,-28.6692723,-50.4346894,1425,12644.18811
D1,Bom Jesus/RS,-28.6692723,-50.4346894,25,221.82786
1,Bom Jesus/SC,-26.7350604,-52.3916519,712,22938.14433
D1,Bom Jesus/SC,-26.7350604,-52.3916519,10,322.16495
1,Bom Lugar/MA,-4.3728019,-45.0366054,641,3866.57015
D1,Bom Lugar/MA,-4.3728019,-45.0366054,7,42.22464
1,Bom Princípio do Piauí/PI,-3.1912777,-41.6430185,160,2821.86949
D1,Bom Princípio do Piauí/PI,-3.1912777,-41.6430185,13,229.27690
1,Bom Princípio/RS,-29.489788,-51.3566782,3078,21306.93618
D1,Bom Princípio/RS,-29.489788,-51.3566782,34,235.35927
1,Bom Progresso/RS,-27.5490948,-53.8655601,245,13186.22174
D1,Bom Progresso/RS,-27.5490948,-53.8655601,3,161.46394
1,Bom Repouso/MG,-22.4657069,-46.1485376,1773,16842.40524
D1,Bom Repouso/MG,-22.4657069,-46.1485376,30,284.98148
1,Bom Retiro do Sul/RS,-29.6000007,-51.9359243,1806,14508.35476
D1,Bom Retiro do Sul/RS,-29.6000007,-51.9359243,38,305.26992
1,Bom Retiro/SC,-27.798993,-49.486994,1117,11001.67438
D1,Bom Retiro/SC,-27.798993,-49.486994,22,216.68472
1,Bom Sucesso de Itararé/SP,-24.3190016,-49.1446207,261,6503.86245
D1,Bom Sucesso de Itararé/SP,-24.3190016,-49.1446207,7,174.43309
1,Bom Sucesso do Sul/PR,-26.0749256,-52.8348629,756,23304.56227
D1,Bom Sucesso do Sul/PR,-26.0749256,-52.8348629,9,277.43527
1,Bom Sucesso/MG,-21.0323516,-44.7598082,1785,10135.13514
D1,Bom Sucesso/MG,-21.0323516,-44.7598082,29,164.66046
1,Bom Sucesso/PB,-6.4458948,-37.9297662,638,12922.82763
D1,Bom Sucesso/PB,-6.4458948,-37.9297662,5,101.27608
1,Bom Sucesso/PR,-23.7088019,-51.7651297,2072,29170.77291
D1,Bom Sucesso/PR,-23.7088019,-51.7651297,20,281.57117
1,Bombinhas/SC,-27.1519159,-48.4875691,4353,20838.71894
D1,Bombinhas/SC,-27.1519159,-48.4875691,71,339.89181
1,Bonfim do Piauí/PI,-9.1648678,-42.8734415,512,8982.45614
D1,Bonfim do Piauí/PI,-9.1648678,-42.8734415,8,140.35088
1,Bonfim/MG,-20.3266626, -44.2386157,698,10186.80677
D1,Bonfim/MG,-20.3266626, -44.2386157,18,262.69702
1,Bonfim/RR,3.3613818,-59.8427241,2812,22139.98898
D1,Bonfim/RR,3.3613818,-59.8427241,36,283.44225
1,Bonfinópolis de Minas/MG,-16.5660011,-45.98645,803,14878.63628
D1,Bonfinópolis de Minas/MG,-16.5660011,-45.98645,14,259.40337
1,Bonfinópolis/GO,-16.6172709,-48.9615701,554,5474.30830
D1,Bonfinópolis/GO,-16.6172709,-48.9615701,34,335.96838
1,Boninal/BA,-12.7095183,-41.8299984,831,5723.92892
D1,Boninal/BA,-12.7095183,-41.8299984,9,61.99201
1,Bonito de Minas/MG,-15.3191266,-44.7544,291,2529.99478
D1,Bonito de Minas/MG,-15.3191266,-44.7544,2,17.38828
1,Bonito de Santa Fé/PB,-7.3143332,-38.5146677,777,6407.71895
D1,Bonito de Santa Fé/PB,-7.3143332,-38.5146677,14,115.45440
1,Bonito/BA,-11.9665473,-41.2649896,1291,7594.56439
D1,Bonito/BA,-11.9665473,-41.2649896,14,82.35779
1,Bonito/MS,-21.1264766,-56.4902208,4487,20030.35579
D1,Bonito/MS,-21.1264766,-56.4902208,79,352.66283
1,Bonito/PA,-1.3605722,-47.3049907,496,2957.83887
D1,Bonito/PA,-1.3605722,-47.3049907,15,89.45077
1,Bonito/PE,-8.4721161,-35.7314591,1761,4621.92593
D1,Bonito/PE,-8.4721161,-35.7314591,46,120.73174
1,Bonópolis/GO,-13.649331,-49.8329113,462,10089.53920
D1,Bonópolis/GO,-13.649331,-49.8329113,3,65.51649
1,Boqueirão do Leão/RS,-29.30332,-52.4296817,685,8906.51411
D1,Boqueirão do Leão/RS,-29.30332,-52.4296817,33,429.07294
1,Boqueirão do Piauí/PI,-4.4850148,-42.1095161,874,13565.10942
D1,Boqueirão do Piauí/PI,-4.4850148,-42.1095161,14,217.29008
1,Boqueirão/PB,-7.487004,-36.130887,2388,13315.49013
D1,Boqueirão/PB,-7.487004,-36.130887,45,250.92004
1,Boquim/SE,-11.1450175,-37.6204228,3241,12012.60193
D1,Boquim/SE,-11.1450175,-37.6204228,70,259.45145
1,Boquira/BA,-12.8184859,-42.7270883,993,4621.61407
D1,Boquira/BA,-12.8184859,-42.7270883,24,111.70064
1,Boracéia/SP,-22.195355,-48.7801925,1026,20883.37065
D1,Boracéia/SP,-22.195355,-48.7801925,25,508.85406
1,Borba/AM,-4.3934778,-59.5947721,3521,8318.37082
D1,Borba/AM,-4.3934778,-59.5947721,70,165.37517
1,Borborema/PB,-6.8066718,-35.5990191,470,8849.55752
D1,Borborema/PB,-6.8066718,-35.5990191,14,263.60384
1,Borborema/SP,-21.6212706,-49.074135,1853,11383.46234
D1,Borborema/SP,-21.6212706,-49.074135,54,331.73609
1,Borda da Mata/MG,-22.274167,-46.165278,3747,18915.64440
D1,Borda da Mata/MG,-22.274167,-46.165278,59,297.84441
1,Borebi/SP,-22.5700178,-48.9714871,293,10799.85256
D1,Borebi/SP,-22.5700178,-48.9714871,4,147.43826
1,Borrazópolis/PR,-23.9393362,-51.5850786,1439,22877.58347
D1,Borrazópolis/PR,-23.9393362,-51.5850786,35,556.43879
1,Borá/SP,-22.2701088,-50.544407,159,18951.13230
D1,Borá/SP,-22.2701088,-50.544407,1,119.18951
1,Bossoroca/RS,-28.7278885,-54.9120278,565,9209.45395
D1,Bossoroca/RS,-28.7278885,-54.9120278,22,358.59821
1,Botelhos/MG,-21.65,-46.394722,2801,18764.65465
D1,Botelhos/MG,-21.65,-46.394722,34,227.77517
1,Botucatu/SP,-22.8879628,-48.4410712,29630,19790.53955
D1,Botucatu/SP,-22.8879628,-48.4410712,340,227.09360
1,Botumirim/MG,-16.862778,-43.011111,487,7780.79565
D1,Botumirim/MG,-16.862778,-43.011111,4,63.90797
1,Botuporã/BA,-13.3744752,-42.5198469,556,5532.33831
D1,Botuporã/BA,-13.3744752,-42.5198469,6,59.70149
1,Botuverá/SC,-27.200749,-49.068892,1252,23202.37213
D1,Botuverá/SC,-27.200749,-49.068892,11,203.85471
1,Bozano/RS,-28.3669953,-53.7705165,373,17770.36684
D1,Bozano/RS,-28.3669953,-53.7705165,8,381.13387
1,Braga/RS,-27.617348,-53.740514,601,18373.58606
D1,Braga/RS,-27.617348,-53.740514,10,305.71691
1,Braganey/PR,-24.8179919,-53.118506,1005,18827.27613
D1,Braganey/PR,-24.8179919,-53.118506,12,224.80330
1,Bragança Paulista/SP,-22.9520235,-46.5418586,24920,14459.28539
D1,Bragança Paulista/SP,-22.9520235,-46.5418586,612,355.09963
1,Bragança/PA,-1.0573967,-46.7635406,5510,4234.48763
D1,Bragança/PA,-1.0573967,-46.7635406,179,137.56321
1,Branquinha/AL,-9.2478057,-36.0152009,950,9111.83580
D1,Branquinha/AL,-9.2478057,-36.0152009,15,143.87109
1,Brasil Novo/PA,-3.3055853,-52.539198,3594,24148.35719
D1,Brasil Novo/PA,-3.3055853,-52.539198,44,295.63932
1,Brasileira/PI,-4.131182,-41.7824969,730,8727.88140
D1,Brasileira/PI,-4.131182,-41.7824969,18,215.20803
1,Brasilândia de Minas/MG,-17.0096469,-46.0087183,2567,15144.54277
D1,Brasilândia de Minas/MG,-17.0096469,-46.0087183,28,165.19174
1,Brasilândia do Sul/PR,-24.1975793,-53.527551,732,29036.09679
D1,Brasilândia do Sul/PR,-24.1975793,-53.527551,13,515.66839
1,Brasilândia do Tocantins/TO,-8.3886619,-48.4842729,256,11526.33949
D1,Brasilândia do Tocantins/TO,-8.3886619,-48.4842729,6,270.14858
1,Brasilândia/MS,-21.255575,-52.0365617,1508,12741.86734
D1,Brasilândia/MS,-21.255575,-52.0365617,26,219.68737
1,Brasiléia/AC,-11.0010413,-68.7487894,3498,12896.80345
D1,Brasiléia/AC,-11.0010413,-68.7487894,45,165.91085
1,Brasnorte/MT,-12.1227151,-58.0050109,2998,14573.91473
D1,Brasnorte/MT,-12.1227151,-58.0050109,44,213.89335
1,Brasília de Minas/MG,-16.2075114,-44.430559,1943,5985.82871
D1,Brasília de Minas/MG,-16.2075114,-44.430559,10,30.80715
1,Brasília/DF,-15.7934036,-47.8823172,649550,20991.65408
D1,Brasília/DF,-15.7934036,-47.8823172,11256,363.76269
1,Brazabrantes/GO,-16.4291635,-49.3858216,717,18809.02413
D1,Brazabrantes/GO,-16.4291635,-49.3858216,7,183.63064
1,Brazópolis/MG,-22.4742842,-45.6165577,1638,11403.50877
D1,Brazópolis/MG,-22.4742842,-45.6165577,34,236.70287
1,Braço do Norte/SC,-28.2728633,-49.1622712,11982,34939.05639
D1,Braço do Norte/SC,-28.2728633,-49.1622712,117,341.16755
1,Braço do Trombudo/SC,-27.358578,-49.882145,1139,30021.08593
D1,Braço do Trombudo/SC,-27.358578,-49.882145,7,184.50185
1,Braúna/SP,-21.5015319,-50.3175246,628,10836.92839
D1,Braúna/SP,-21.5015319,-50.3175246,25,431.40638
1,Braúnas/MG,-19.055556,-42.716111,310,6544.22630
D1,Braúnas/MG,-19.055556,-42.716111,11,232.21448
1,Brejetuba/ES,-20.1465817,-41.2902303,2429,19510.04016
D1,Brejetuba/ES,-20.1465817,-41.2902303,17,136.54618
1,Brejinho de Nazaré/TO,-11.0205883,-48.5722906,1061,19151.62455
D1,Brejinho de Nazaré/TO,-11.0205883,-48.5722906,19,342.96029
1,Brejinho/PE,-7.3482153,-37.28538,930,12418.21338
D1,Brejinho/PE,-7.3482153,-37.28538,22,293.76419
1,Brejinho/RN,-6.1957907,-35.3583019,1705,13244.77589
D1,Brejinho/RN,-6.1957907,-35.3583019,18,139.82755
1,Brejo Alegre/SP,-21.1671191,-50.1850393,404,13878.39231
D1,Brejo Alegre/SP,-21.1671191,-50.1850393,13,446.58193
1,Brejo Grande do Araguaia/PA,-5.7011449,-48.4037308,1106,15033.30162
D1,Brejo Grande do Araguaia/PA,-5.7011449,-48.4037308,6,81.55498
1,Brejo Grande/SE,-10.4287358,-36.4667918,575,6848.49929
D1,Brejo Grande/SE,-10.4287358,-36.4667918,13,154.83564
1,Brejo Santo/CE,-7.4909841,-38.9859152,8979,17888.23588
D1,Brejo Santo/CE,-7.4909841,-38.9859152,156,310.78793
1,Brejo da Madre de Deus/PE,-8.1409718,-36.3712527,2730,5280.87279
D1,Brejo da Madre de Deus/PE,-8.1409718,-36.3712527,58,112.19437
1,Brejo de Areia/MA,-4.3316785,-45.5833334,411,4648.79539
D1,Brejo de Areia/MA,-4.3316785,-45.5833334,11,124.42031
1,Brejo do Cruz/PB,-6.32926065,-37.48746163303929,2032,14222.71996
D1,Brejo do Cruz/PB,-6.32926065,-37.48746163303929,24,167.98488
1,Brejo do Piauí/PI,-8.207583,-42.8359849,159,4157.94979
D1,Brejo do Piauí/PI,-8.207583,-42.8359849,5,130.75314
1,Brejo dos Santos/PB,-6.3769367,-37.8243125,986,15218.39790
D1,Brejo dos Santos/PB,-6.3769367,-37.8243125,8,123.47585
1,Brejo/MA,-3.6804397,-42.7529313,1076,2915.98916
D1,Brejo/MA,-3.6804397,-42.7529313,19,51.49051
1,Brejolândia/BA,-12.4843845,-43.9611861,195,1826.69789
D1,Brejolândia/BA,-12.4843845,-43.9611861,12,112.41218
1,Brejão/PE,-9.029146,-36.566034,545,6068.36655
D1,Brejão/PE,-9.029146,-36.566034,9,100.21156
1,Brejões/BA,-13.1033754,-39.7909837,1034,7304.83928
D1,Brejões/BA,-13.1033754,-39.7909837,13,91.84034
1,Breu Branco/PA,-3.7785073,-49.5684795,1283,1870.34418
D1,Breu Branco/PA,-3.7785073,-49.5684795,67,97.67191
1,Breves/PA,-1.68036,-50.479085,4576,4388.18565
D1,Breves/PA,-1.68036,-50.479085,123,117.95167
1,Britânia/GO,-15.2427599,-51.1602061,761,13086.84437
D1,Britânia/GO,-15.2427599,-51.1602061,9,154.77214
1,Brochier/RS,-29.556766,-51.5963047,963,18764.61419
D1,Brochier/RS,-29.556766,-51.5963047,6,116.91348
1,Brodowski/SP,-20.984532,-47.657217,3056,11935.16891
D1,Brodowski/SP,-20.984532,-47.657217,81,316.34446
1,Brotas de Macaúbas/BA,-12.0019007,-42.6257506,423,3951.42457
D1,Brotas de Macaúbas/BA,-12.0019007,-42.6257506,9,84.07286
1,Brotas/SP,-22.2840884,-48.1267265,2589,10413.48242
D1,Brotas/SP,-22.2840884,-48.1267265,71,285.57638
1,Brumadinho/MG,-20.143611,-44.2,5783,14033.68278
D1,Brumadinho/MG,-20.143611,-44.2,94,228.11105
1,Brumado/BA,-14.29507325,-41.659307508575985,10686,15838.61979
D1,Brumado/BA,-14.29507325,-41.659307508575985,200,296.43683
1,Brunópolis/SC,-27.310953,-50.837585,573,24719.58585
D1,Brunópolis/SC,-27.310953,-50.837585,9,388.26575
1,Brusque/SC,-27.0964628,-48.9136323,34312,24404.50365
D1,Brusque/SC,-27.0964628,-48.9136323,335,238.26966
1,Brás Pires/MG,-20.8483109,-43.2430524,380,8930.66980
D1,Brás Pires/MG,-20.8483109,-43.2430524,9,211.51586
1,Bueno Brandão/MG,-22.441976,-46.3517971,1464,13330.90512
D1,Bueno Brandão/MG,-22.441976,-46.3517971,33,300.49171
1,Buenos Aires/PE,-7.7218931,-35.326587,567,4287.65880
D1,Buenos Aires/PE,-7.7218931,-35.326587,25,189.05021
1,Buenópolis/MG,-17.8756607,-44.1749365,305,2949.13943
D1,Buenópolis/MG,-17.8756607,-44.1749365,16,154.70895
1,Buerarema/BA,-14.9571177,-39.3008035,1558,8528.10772
D1,Buerarema/BA,-14.9571177,-39.3008035,49,268.21391
1,Bugre/MG,-19.4257687,-42.2556,376,9437.75100
D1,Bugre/MG,-19.4257687,-42.2556,13,326.30522
1,Bujari/AC,-9.8309656,-67.9520886,1470,13904.65380
D1,Bujari/AC,-9.8309656,-67.9520886,17,160.80212
1,Bujaru/PA,-1.5169239,-48.0410699,1726,5808.12330
D1,Bujaru/PA,-1.5169239,-48.0410699,43,144.69832
1,Buri/SP,-23.79849,-48.598924,2967,14798.00499
D1,Buri/SP,-23.79849,-48.598924,95,473.81546
1,Buritama/SP,-21.0664017,-50.1448077,3985,22883.88653
D1,Buritama/SP,-21.0664017,-50.1448077,83,476.62800
1,Buriti Alegre/GO,-18.1377879,-49.0404411,1452,15260.11561
D1,Buriti Alegre/GO,-18.1377879,-49.0404411,37,388.85970
1,Buriti Bravo/MA,-5.8391884,-43.8367876,1878,7827.28296
D1,Buriti Bravo/MA,-5.8391884,-43.8367876,20,83.35765
1,Buriti de Goiás/GO,-16.180644,-50.4287479,442,17938.31169
D1,Buriti de Goiás/GO,-16.180644,-50.4287479,9,365.25974
1,Buriti do Tocantins/TO,-5.3187439,-48.2256609,1515,13010.99279
D1,Buriti do Tocantins/TO,-5.3187439,-48.2256609,26,223.29097
1,Buriti dos Lopes/PI,-3.1776723,-41.8707444,1429,7205.52642
D1,Buriti dos Lopes/PI,-3.1776723,-41.8707444,35,176.48245
1,Buriti dos Montes/PI,-5.3136171,-41.0971256,719,8681.47790
D1,Buriti dos Montes/PI,-5.3136171,-41.0971256,10,120.74378
1,Buriti/MA,-3.9430944,-42.9244281,1032,3568.95836
D1,Buriti/MA,-3.9430944,-42.9244281,9,31.12464
1,Buriticupu/MA,-4.3227472,-46.4516989,4458,6057.47673
D1,Buriticupu/MA,-4.3227472,-46.4516989,84,114.13819
1,Buritinópolis/GO,-14.4589282,-46.4293104,357,10910.75795
D1,Buritinópolis/GO,-14.4589282,-46.4293104,3,91.68704
1,Buritirama/BA,-10.7148421,-43.6362327,1136,5314.86853
D1,Buritirama/BA,-10.7148421,-43.6362327,25,116.96454
1,Buritirana/MA,-5.5897455,-47.0148915,448,2889.76327
D1,Buritirana/MA,-5.5897455,-47.0148915,25,161.25911
1,Buritis/MG,-15.621389,-46.423889,3868,15362.00802
D1,Buritis/MG,-15.621389,-46.423889,54,214.46443
1,Buritis/RO,-10.2054937,-63.8281954,8156,19871.84173
D1,Buritis/RO,-10.2054937,-63.8281954,94,229.02809
1,Buritizal/SP,-20.1933264,-47.7097165,357,7851.33055
D1,Buritizal/SP,-20.1933264,-47.7097165,10,219.92523
1,Buritizeiro/MG,-17.3667765,-44.9647781,2403,8526.11411
D1,Buritizeiro/MG,-17.3667765,-44.9647781,41,145.47261
1,Butiá/RS,-30.1256795,-51.9692224,2772,13223.29819
D1,Butiá/RS,-30.1256795,-51.9692224,61,290.98889
1,Buíque/PE,-8.6239732,-37.157296,2648,4454.31301
D1,Buíque/PE,-8.6239732,-37.157296,48,80.74283
1,Bálsamo/SP,-20.7343722,-49.5807484,2176,23629.05853
D1,Bálsamo/SP,-20.7343722,-49.5807484,70,760.12596
0,CASO SEM LOCALIZAÇÃO DEFINIDA/BA,-13.415069300066518,-38.14174656569957,15555,104.58504
D0,CASO SEM LOCALIZAÇÃO DEFINIDA/BA,-13.415069300066518,-38.14174656569957,330,2.21878
0,CASO SEM LOCALIZAÇÃO DEFINIDA/CE,-3.3445126297392798,-38.624961942434304,16389,179.46627
0,CASO SEM LOCALIZAÇÃO DEFINIDA/ES,-20.30989267097039,-39.81745156645774,10656,265.16367
D0,CASO SEM LOCALIZAÇÃO DEFINIDA/ES,-20.30989267097039,-39.81745156645774,275,6.84309
0,CASO SEM LOCALIZAÇÃO DEFINIDA/GO,-16.701590966270153,-49.164524059025034,5703,81.25837
D0,CASO SEM LOCALIZAÇÃO DEFINIDA/GO,-16.701590966270153,-49.164524059025034,29,0.41320
0,CASO SEM LOCALIZAÇÃO DEFINIDA/MG,-19.97049116501593,-43.8852149072783,4266,20.15231
D0,CASO SEM LOCALIZAÇÃO DEFINIDA/MG,-19.97049116501593,-43.8852149072783,396,1.87068
D0,CASO SEM LOCALIZAÇÃO DEFINIDA/MS,-20.391549234908513,-54.645156949758444,2,0.07197
0,CASO SEM LOCALIZAÇÃO DEFINIDA/MT,-15.54791153961863,-56.17143998972475,4816,138.21343
D0,CASO SEM LOCALIZAÇÃO DEFINIDA/MT,-15.54791153961863,-56.17143998972475,268,7.69128
0,CASO SEM LOCALIZAÇÃO DEFINIDA/PA,-0.09317078214359542,-48.0050231510481,3287,38.20820
D0,CASO SEM LOCALIZAÇÃO DEFINIDA/PA,-0.09317078214359542,-48.0050231510481,18,0.20923
0,CASO SEM LOCALIZAÇÃO DEFINIDA/PI,-2.683810218391744,-41.470898009352254,905,27.64856
D0,CASO SEM LOCALIZAÇÃO DEFINIDA/PI,-2.683810218391744,-41.470898009352254,18,0.54992
0,CASO SEM LOCALIZAÇÃO DEFINIDA/PR,-25.69415946385943,-48.10141676336737,9989,87.36258
D0,CASO SEM LOCALIZAÇÃO DEFINIDA/PR,-25.69415946385943,-48.10141676336737,225,1.96782
0,CASO SEM LOCALIZAÇÃO DEFINIDA/RR,2.813328208465927,-60.663338675861986,3475,573.65859
D0,CASO SEM LOCALIZAÇÃO DEFINIDA/RR,2.813328208465927,-60.663338675861986,21,3.46671
0,CASO SEM LOCALIZAÇÃO DEFINIDA/SP,-24.30968974555485,-46.21366504207253,128,0.27875
1,Caapiranga/AM,-3.3188884,-61.2096404,994,7372.79335
D1,Caapiranga/AM,-3.3188884,-61.2096404,23,170.59783
1,Caaporã/PB,-7.510234,-34.9154114,2397,10856.46995
D1,Caaporã/PB,-7.510234,-34.9154114,37,167.58005
1,Caarapó/MS,-22.6349267,-54.8240903,5043,16265.11853
D1,Caarapó/MS,-22.6349267,-54.8240903,58,187.06660
1,Caatiba/BA,-14.9782759,-40.4092325,991,15901.79718
D1,Caatiba/BA,-14.9782759,-40.4092325,15,240.69320
1,Cabaceiras do Paraguaçu/BA,-12.5377868,-39.1901339,1096,5765.38664
D1,Cabaceiras do Paraguaçu/BA,-12.5377868,-39.1901339,6,31.56234
1,Cabaceiras/PB,-7.4899156,-36.2860501,526,9211.90893
D1,Cabaceiras/PB,-7.4899156,-36.2860501,5,87.56567
1,Cabeceira Grande/MG,-16.0297,-47.0906,716,10192.17082
D1,Cabeceira Grande/MG,-16.0297,-47.0906,7,99.64413
1,Cabeceiras do Piauí/PI,-4.4733665,-42.3098716,738,6915.94040
D1,Cabeceiras do Piauí/PI,-4.4733665,-42.3098716,17,159.31028
1,Cabeceiras/GO,-15.7995459,-46.9264991,661,8162.50926
D1,Cabeceiras/GO,-15.7995459,-46.9264991,18,222.27711
1,Cabedelo/PB,-6.97324,-34.8351609,11302,16198.24287
D1,Cabedelo/PB,-6.97324,-34.8351609,209,299.54280
1,Cabixi/RO,-13.4956065,-60.5424442,1356,26761.39728
D1,Cabixi/RO,-13.4956065,-60.5424442,22,434.18196
1,Cabo Frio/RJ,-22.8804369,-42.0189227,22925,9793.78581
D1,Cabo Frio/RJ,-22.8804369,-42.0189227,952,406.70378
1,Cabo Verde/MG,-21.4743338,-46.3964995,1545,10977.68936
D1,Cabo Verde/MG,-21.4743338,-46.3964995,12,85.26361
1,Cabo de Santo Agostinho/PE,-8.2838945,-35.0320984,10502,4982.06797
D1,Cabo de Santo Agostinho/PE,-8.2838945,-35.0320984,543,257.59502
1,Cabreúva/SP,-23.3075813,-47.1324417,5386,10533.93311
D1,Cabreúva/SP,-23.3075813,-47.1324417,147,287.50244
1,Cabrobó/PE,-8.5083701,-39.3106961,3842,11047.21376
D1,Cabrobó/PE,-8.5083701,-39.3106961,33,94.88757
1,Cabrália Paulista/SP,-22.4562909,-49.3385645,698,16532.44908
D1,Cabrália Paulista/SP,-22.4562909,-49.3385645,9,213.16911
1,Cacaulândia/RO,-10.3380043,-62.9007231,1443,22879.34042
D1,Cacaulândia/RO,-10.3380043,-62.9007231,17,269.54178
1,Cacequi/RS,-29.8838059,-54.8273443,1087,8843.86950
D1,Cacequi/RS,-29.8838059,-54.8273443,14,113.90448
1,Cachoeira Alta/GO,-18.7618269,-50.9432431,2407,18741.72701
D1,Cachoeira Alta/GO,-18.7618269,-50.9432431,31,241.37663
1,Cachoeira Dourada/GO,-18.4934204,-49.481062,1024,12804.80180
D1,Cachoeira Dourada/GO,-18.4934204,-49.481062,33,412.65475
1,Cachoeira Dourada/MG,-18.517136,-49.5002062,513,18860.29412
D1,Cachoeira Dourada/MG,-18.517136,-49.5002062,2,73.52941
1,Cachoeira Grande/MA,-2.9290492,-44.0573223,443,4651.40697
D1,Cachoeira Grande/MA,-2.9290492,-44.0573223,8,83.99832
1,Cachoeira Paulista/SP,-22.666498,-45.015384,3230,9548.58545
D1,Cachoeira Paulista/SP,-22.666498,-45.015384,50,147.81092
1,Cachoeira da Prata/MG,-19.524723,-44.453056,226,6312.84916
D1,Cachoeira da Prata/MG,-19.524723,-44.453056,14,391.06145
1,Cachoeira de Goiás/GO,-16.6688414,-50.6435997,294,22005.98802
D1,Cachoeira de Goiás/GO,-16.6688414,-50.6435997,6,449.10180
1,Cachoeira de Minas/MG,-22.3554043,-45.7796324,1604,13816.86622
D1,Cachoeira de Minas/MG,-22.3554043,-45.7796324,20,172.28013
1,Cachoeira de Pajeú/MG,-15.965833,-41.496666,610,6441.39388
D1,Cachoeira de Pajeú/MG,-15.965833,-41.496666,11,116.15628
1,Cachoeira do Arari/PA,-1.0143572,-48.9621089,616,2529.25477
D1,Cachoeira do Arari/PA,-1.0143572,-48.9621089,25,102.64833
1,Cachoeira do Piriá/PA,-1.7599443,-46.5446954,1300,3681.98941
D1,Cachoeira do Piriá/PA,-1.7599443,-46.5446954,9,25.49070
1,Cachoeira do Sul/RS,-30.0474778,-52.8905413,14910,18282.81342
D1,Cachoeira do Sul/RS,-30.0474778,-52.8905413,217,266.08789
1,Cachoeira dos Índios/PB,-6.9259193,-38.6742159,1243,11993.43883
D1,Cachoeira dos Índios/PB,-6.9259193,-38.6742159,23,221.92204
1,Cachoeira/BA,-12.5998256,-38.9665918,2043,6069.69904
D1,Cachoeira/BA,-12.5998256,-38.9665918,32,95.07115
1,Cachoeiras de Macacu/RJ,-22.4626861,-42.6534414,3685,6177.49614
D1,Cachoeiras de Macacu/RJ,-22.4626861,-42.6534414,117,196.13760
1,Cachoeirinha/PE,-8.4906364,-36.2338963,873,4234.16432
D1,Cachoeirinha/PE,-8.4906364,-36.2338963,35,169.75458
1,Cachoeirinha/RS,-29.9493353,-51.0898927,17862,13517.07228
D1,Cachoeirinha/RS,-29.9493353,-51.0898927,504,381.40211
1,Cachoeirinha/TO,-6.118647,-47.9208885,129,5625.81771
D1,Cachoeirinha/TO,-6.118647,-47.9208885,2,87.22198
1,Cachoeiro de Itapemirim/ES,-20.848084,-41.11129,45396,21395.84865
D1,Cachoeiro de Itapemirim/ES,-20.848084,-41.11129,669,315.31022
1,Cacimba de Areia/PB,-7.1288513,-37.1575194,296,7982.74002
D1,Cacimba de Areia/PB,-7.1288513,-37.1575194,5,134.84358
1,Cacimba de Dentro/PB,-6.6425101,-35.7929304,1319,7682.45093
D1,Cacimba de Dentro/PB,-6.6425101,-35.7929304,38,221.32914
1,Cacimbas/PB,-7.2125451,-37.0593398,429,5937.71626
D1,Cacimbas/PB,-7.2125451,-37.0593398,9,124.56747
1,Cacimbinhas/AL,-9.401212,-36.991082,973,8910.25641
D1,Cacimbinhas/AL,-9.401212,-36.991082,12,109.89011
1,Cacique Doble/RS,-27.7700117,-51.6616409,849,16702.73461
D1,Cacique Doble/RS,-27.7700117,-51.6616409,14,275.42790
1,Cacoal/RO,-11.4333,-61.4420502,22349,25862.10887
D1,Cacoal/RO,-11.4333,-61.4420502,331,383.03092
1,Caconde/SP,-21.527995,-46.643659,1823,9579.10777
D1,Caconde/SP,-21.527995,-46.643659,40,210.18339
1,Caculé/BA,-14.4990734,-42.2233006,3110,13286.62366
D1,Caculé/BA,-14.4990734,-42.2233006,23,98.26120
1,Caetanos/BA,-14.3387456,-40.9085971,790,5384.77268
D1,Caetanos/BA,-14.3387456,-40.9085971,12,81.79402
1,Caetanópolis/MG,-19.2947496,-44.4138386,1180,9941.86536
D1,Caetanópolis/MG,-19.2947496,-44.4138386,21,176.93150
1,Caetité/BA,-14.0691776,-42.4852428,4533,8856.28321
D1,Caetité/BA,-14.0691776,-42.4852428,48,93.77931
1,Caeté/MG,-19.897777,-43.670278,2730,6017.98783
D1,Caeté/MG,-19.897777,-43.670278,78,171.94251
1,Caetés/PE,-8.7728788,-36.6255835,2025,6967.14261
D1,Caetés/PE,-8.7728788,-36.6255835,24,82.57354
1,Cafarnaum/BA,-11.691399,-41.468823,1102,5929.51305
D1,Cafarnaum/BA,-11.691399,-41.468823,24,129.13640
1,Cafeara/PR,-22.78905,-51.714195,713,23982.50925
D1,Cafeara/PR,-22.78905,-51.714195,13,437.26875
1,Cafelândia/PR,-24.6176963,-53.3218057,4424,23553.21301
D1,Cafelândia/PR,-24.6176963,-53.3218057,44,234.25438
1,Cafelândia/SP,-21.8054355,-49.6030627,839,4682.70358
D1,Cafelândia/SP,-21.8054355,-49.6030627,55,306.97103
1,Cafezal do Sul/PR,-23.900508,-53.512418,856,21534.59119
D1,Cafezal do Sul/PR,-23.900508,-53.512418,8,201.25786
1,Caiabu/SP,-22.0143038,-51.2356597,324,7723.48033
D1,Caiabu/SP,-22.0143038,-51.2356597,8,190.70322
1,Caiana/MG,-20.695555,-41.924723,242,4333.81089
D1,Caiana/MG,-20.695555,-41.924723,7,125.35817
1,Caiapônia/GO,-16.9538779,-51.8090761,2230,11552.00995
D1,Caiapônia/GO,-16.9538779,-51.8090761,45,233.11231
1,Caibaté/RS,-28.290475,-54.645407,504,10495.62682
D1,Caibaté/RS,-28.290475,-54.645407,7,145.77259
1,Caibi/SC,-27.0751925,-53.2502133,1081,17686.51832
D1,Caibi/SC,-27.0751925,-53.2502133,16,261.78010
1,Caicó/RN,-6.4594544,-37.0971911,15394,22399.09205
D1,Caicó/RN,-6.4594544,-37.0971911,170,247.35908
1,Caieiras/SP,-23.3644621,-46.7484765,10578,10166.85249
D1,Caieiras/SP,-23.3644621,-46.7484765,341,327.74595
1,Cairu/BA,-13.4860505,-39.0455744,1741,9327.11883
D1,Cairu/BA,-13.4860505,-39.0455744,17,91.07468
1,Caiuá/SP,-21.8319357,-51.9887179,425,7063.32059
D1,Caiuá/SP,-21.8319357,-51.9887179,11,182.81536
1,Caiçara do Norte/RN,-5.0645017,-36.0561226,656,9981.74072
D1,Caiçara do Norte/RN,-5.0645017,-36.0561226,12,182.59282
1,Caiçara do Rio do Vento/RN,-5.757968,-36.00089,606,16181.57543
D1,Caiçara do Rio do Vento/RN,-5.757968,-36.00089,8,213.61816
1,Caiçara/PB,-6.6146866,-35.4681434,1049,14605.95934
D1,Caiçara/PB,-6.6146866,-35.4681434,14,194.93177
1,Caiçara/RS,-27.2750478,-53.4310053,931,19982.82893
D1,Caiçara/RS,-27.2750478,-53.4310053,11,236.10217
1,Cajamar/SP,-23.3561111,-46.8769444,5504,6964.09140
D1,Cajamar/SP,-23.3561111,-46.8769444,252,318.85012
1,Cajapió/MA,-2.8778715,-44.6746871,351,3118.61395
D1,Cajapió/MA,-2.8778715,-44.6746871,7,62.19458
1,Cajari/MA,-3.3213076,-45.0118757,420,2151.52912
D1,Cajari/MA,-3.3213076,-45.0118757,9,46.10420
1,Cajati/SP,-24.7272376,-48.1077914,5428,19085.12359
D1,Cajati/SP,-24.7272376,-48.1077914,105,369.18533
1,Cajazeiras do Piauí/PI,-6.794271,-42.3935024,83,2314.55661
D1,Cajazeiras do Piauí/PI,-6.794271,-42.3935024,2,55.77245
1,Cajazeiras/PB,-6.8897849,-38.5570389,13687,21872.60291
D1,Cajazeiras/PB,-6.8897849,-38.5570389,181,289.24827
1,Cajazeirinhas/PB,-6.961442,-37.7993733,262,8144.23376
D1,Cajazeirinhas/PB,-6.961442,-37.7993733,1,31.08486
1,Cajobi/SP,-20.8776238,-48.8106972,1590,14930.97943
D1,Cajobi/SP,-20.8776238,-48.8106972,36,338.05991
1,Cajueiro da Praia/PI,-2.931114,-41.340801,498,6464.17445
D1,Cajueiro da Praia/PI,-2.931114,-41.340801,20,259.60540
1,Cajueiro/AL,-9.399589,-36.1524309,791,3696.77992
D1,Cajueiro/AL,-9.399589,-36.1524309,31,144.88012
1,Cajuri/MG,-20.7901414,-42.7954489,667,16839.18202
D1,Cajuri/MG,-20.7901414,-42.7954489,8,201.96920
1,Cajuru/SP,-21.2759978,-47.3046035,2012,7560.21493
D1,Cajuru/SP,-21.2759978,-47.3046035,59,221.69616
1,Caldas Brandão/PB,-7.1027959,-35.3254676,803,13213.75679
D1,Caldas Brandão/PB,-7.1027959,-35.3254676,11,181.01037
1,Caldas Novas/GO,-17.745,-48.625,14597,15335.72172
D1,Caldas Novas/GO,-17.745,-48.625,323,339.34631
1,Caldas/MG,-21.923611,-46.386111,1521,10417.80822
D1,Caldas/MG,-21.923611,-46.386111,40,273.97260
1,Caldazinha/GO,-16.7116649,-49.0012601,906,23230.76923
D1,Caldazinha/GO,-16.7116649,-49.0012601,12,307.69231
1,Caldeirão Grande do Piauí/PI,-7.3310393,-40.6374433,551,9522.98652
D1,Caldeirão Grande do Piauí/PI,-7.3310393,-40.6374433,2,34.56619
1,Caldeirão Grande/BA,-11.0208483,-40.3041387,602,4475.17098
D1,Caldeirão Grande/BA,-11.0208483,-40.3041387,6,44.60303
1,Califórnia/PR,-23.6672543,-51.3554556,1809,20935.07696
D1,Califórnia/PR,-23.6672543,-51.3554556,40,462.90939
1,Calmon/SC,-26.6023644,-51.0992893,67,2015.03759
D1,Calmon/SC,-26.6023644,-51.0992893,7,210.52632
1,Calumbi/PE,-7.9389746,-38.1516871,1054,18349.58217
D1,Calumbi/PE,-7.9389746,-38.1516871,5,87.04735
1,Calçado/PE,-8.7413446,-36.3351787,631,5745.24265
D1,Calçado/PE,-8.7413446,-36.3351787,7,63.73486
1,Calçoene/AP,2.4981757,-50.9539503,2580,22448.44688
D1,Calçoene/AP,2.4981757,-50.9539503,15,130.51423
1,Camacan/BA,-15.4166631,-39.4930088,3423,10689.19214
D1,Camacan/BA,-15.4166631,-39.4930088,92,287.29351
1,Camacho/MG,-20.625556,-45.156667,303,10672.77210
D1,Camacho/MG,-20.625556,-45.156667,2,70.44734
1,Camalaú/PB,-7.885031,-36.824191,770,12731.48148
D1,Camalaú/PB,-7.885031,-36.824191,7,115.74074
1,Camamu/BA,-13.9438142,-39.1060917,2846,8029.56777
D1,Camamu/BA,-13.9438142,-39.1060917,59,166.45977
1,Camanducaia/MG,-22.755278,-46.144444,4330,19834.18075
D1,Camanducaia/MG,-22.755278,-46.144444,75,343.54817
1,Camapuã/MS,-19.5291747,-54.0434641,1519,11107.86106
D1,Camapuã/MS,-19.5291747,-54.0434641,34,248.62888
1,Camaquã/RS,-30.8524752,-51.8075619,8437,12651.83097
D1,Camaquã/RS,-30.8524752,-51.8075619,166,248.92781
1,Camaragibe/PE,-8.0213832,-34.9810768,8721,5452.49930
D1,Camaragibe/PE,-8.0213832,-34.9810768,460,287.59886
1,Camargo/RS,-28.5865661,-52.2031474,626,22763.63636
D1,Camargo/RS,-28.5865661,-52.2031474,8,290.90909
1,Camaçari/BA,-12.6998188,-38.3260762,29398,9507.51598
D1,Camaçari/BA,-12.6998188,-38.3260762,646,208.92086
1,Cambará do Sul/RS,-29.0489517,-50.145412,375,5874.98042
D1,Cambará do Sul/RS,-29.0489517,-50.145412,11,172.33276
1,Cambará/PR,-23.042273,-50.075281,4905,19183.38613
D1,Cambará/PR,-23.042273,-50.075281,69,269.85803
1,Cambira/PR,-23.600265,-51.581045,2109,26471.69574
D1,Cambira/PR,-23.600265,-51.581045,29,364.00151
1,Camboriú/SC,-27.0273601,-48.6535657,17352,19903.87593
D1,Camboriú/SC,-27.0273601,-48.6535657,200,229.41305
1,Cambuci/RJ,-21.5749919,-41.9107833,2580,16622.64029
D1,Cambuci/RJ,-21.5749919,-41.9107833,42,270.60112
1,Cambuquira/MG,-21.853056,-45.2953619,1249,9750.19516
D1,Cambuquira/MG,-21.853056,-45.2953619,32,249.80484
1,Cambuí/MG,-22.6122501,-46.0572137,6989,23243.98031
