type,name,lat,lon,total,total_per_100k_inhabitants
1,Abadia de Goiás/GO,-16.7572644,-49.4412205,967,10794.82027
D1,Abadia de Goiás/GO,-16.7572644,-49.4412205,13,145.12168
1,Abadia dos Dourados/MG,-18.4911191,-47.4063589,298,4253.49700
D1,Abadia dos Dourados/MG,-18.4911191,-47.4063589,7,99.91436
1,Abadiânia/GO,-16.1940946,-48.7067767,232,1133.86443
D1,Abadiânia/GO,-16.1940946,-48.7067767,18,87.97224
1,Abaetetuba/PA,-1.721828,-48.878843,5854,3679.90948
D1,Abaetetuba/PA,-1.721828,-48.878843,128,80.46266
1,Abaeté/MG,-19.1566833,-45.4481213,539,2318.27957
D1,Abaeté/MG,-19.1566833,-45.4481213,10,43.01075
1,Abaiara/CE,-7.3607808,-39.0487878,251,2117.60736
D1,Abaiara/CE,-7.3607808,-39.0487878,6,50.62010
1,Abaré/BA,-8.7239913,-39.1139689,454,2231.28717
D1,Abaré/BA,-8.7239913,-39.1139689,1,4.91473
1,Abatiá/PR,-23.3052967,-50.3102532,289,3901.18790
D1,Abatiá/PR,-23.3052967,-50.3102532,3,40.49676
1,Abaíra/BA,-13.2503296,-41.6640342,233,2675.08611
D1,Abaíra/BA,-13.2503296,-41.6640342,7,80.36739
1,Abdon Batista/SC,-27.612419,-51.022992,192,7535.32182
D1,Abdon Batista/SC,-27.612419,-51.022992,1,39.24647
1,Abel Figueiredo/PA,-4.953001,-48.3958485,624,8335.55971
D1,Abel Figueiredo/PA,-4.953001,-48.3958485,5,66.79134
1,Abelardo Luz/SC,-26.5705893,-52.3280339,978,5445.43430
D1,Abelardo Luz/SC,-26.5705893,-52.3280339,29,161.46993
1,Abre Campo/MG,-20.2976097,-42.4764741,413,3072.00238
D1,Abre Campo/MG,-20.2976097,-42.4764741,6,44.62957
1,Abreu e Lima/PE,-7.900719,-34.898389,1658,1652.28310
D1,Abreu e Lima/PE,-7.900719,-34.898389,158,157.45520
1,Abreulândia/TO,-9.6221526,-49.1558343,157,6052.42868
D1,Abreulândia/TO,-9.6221526,-49.1558343,4,154.20200
1,Acaiaca/MG,-20.3621646,-43.1444162,120,3004.50676
D1,Acaiaca/MG,-20.3621646,-43.1444162,4,100.15023
1,Acajutiba/BA,-11.6609659,-38.0186381,367,2416.54046
D1,Acajutiba/BA,-11.6609659,-38.0186381,8,52.67663
1,Acarape/CE,-4.2237866,-38.7071663,2059,13693.80154
D1,Acarape/CE,-4.2237866,-38.7071663,15,99.76057
1,Acaraú/CE,-2.8869514,-40.1194713,3183,5044.05426
D1,Acaraú/CE,-2.8869514,-40.1194713,60,95.08114
1,Acari/RN,-6.4364689,-36.6394777,518,4657.85451
D1,Acari/RN,-6.4364689,-36.6394777,8,71.93598
1,Acará/PA,-1.961388,-48.1987043,955,1715.49696
D1,Acará/PA,-1.961388,-48.1987043,16,28.74131
1,Acauã/PI,-8.219542,-41.083059,149,2098.00056
D1,Acauã/PI,-8.219542,-41.083059,1,14.08054
1,Aceguá/RS,-31.8695131,-54.1615593,84,1699.71671
1,Acopiara/CE,-6.0936464,-39.4543204,1709,3136.87341
D1,Acopiara/CE,-6.0936464,-39.4543204,72,132.15616
1,Acorizal/MT,-15.2001544,-56.3668953,311,5830.52118
D1,Acorizal/MT,-15.2001544,-56.3668953,9,168.72891
1,Acrelândia/AC,-10.0759167,-67.0526898,973,6281.47192
D1,Acrelândia/AC,-10.0759167,-67.0526898,16,103.29245
1,Acreúna/GO,-17.3959899,-50.3749031,1273,5646.23437
D1,Acreúna/GO,-17.3959899,-50.3749031,31,137.49667
1,Adamantina/SP,-21.6866517,-51.0762975,1558,4437.35581
D1,Adamantina/SP,-21.6866517,-51.0762975,36,102.53197
1,Adelândia/GO,-16.4155077,-50.1665834,99,3934.81717
D1,Adelândia/GO,-16.4155077,-50.1665834,2,79.49126
1,Adolfo/SP,-21.2356597,-49.6441918,254,7146.87676
D1,Adolfo/SP,-21.2356597,-49.6441918,6,168.82386
1,Adrianópolis/PR,-24.6557863,-48.9912769,884,15093.05105
D1,Adrianópolis/PR,-24.6557863,-48.9912769,12,204.88305
1,Adustina/BA,-10.5358875,-38.114479,417,2434.89431
D1,Adustina/BA,-10.5358875,-38.114479,5,29.19538
1,Afogados da Ingazeira/PE,-7.750429,-37.6356375,2370,6336.22073
D1,Afogados da Ingazeira/PE,-7.750429,-37.6356375,33,88.22586
1,Afonso Bezerra/RN,-5.4745,-36.57625071327935,290,2629.43150
D1,Afonso Bezerra/RN,-5.4745,-36.57625071327935,11,99.73706
1,Afonso Cláudio/ES,-20.077841,-41.12606,2597,8527.33541
D1,Afonso Cláudio/ES,-20.077841,-41.12606,43,141.19192
1,Afonso Cunha/MA,-4.1326105,-43.3230026,152,2310.73275
D1,Afonso Cunha/MA,-4.1326105,-43.3230026,2,30.40438
1,Afrânio/PE,-8.5198919,-41.0070197,579,2922.76628
D1,Afrânio/PE,-8.5198919,-41.0070197,9,45.43160
1,Afuá/PA,-0.1535664,-50.3879223,2702,6828.92309
D1,Afuá/PA,-0.1535664,-50.3879223,14,35.38302
1,Agrestina/PE,-8.4558021,-35.9442663,841,3355.27628
D1,Agrestina/PE,-8.4558021,-35.9442663,35,139.63694
1,Agricolândia/PI,-5.7967843,-42.6605131,87,1695.57591
1,Agrolândia/SC,-27.4122212,-49.8295774,609,5529.82838
D1,Agrolândia/SC,-27.4122212,-49.8295774,6,54.48107
1,Agronômica/SC,-27.2660744,-49.7104753,319,5790.52460
D1,Agronômica/SC,-27.2660744,-49.7104753,7,127.06480
1,Aguanil/MG,-20.9424533,-45.3927152,259,5727.55418
D1,Aguanil/MG,-20.9424533,-45.3927152,7,154.79876
1,Aguaí/SP,-22.0592036,-46.979384,1162,3170.70509
D1,Aguaí/SP,-22.0592036,-46.979384,23,62.75922
1,Agudo/RS,-29.6423259,-53.2494005,664,4048.53363
D1,Agudo/RS,-29.6423259,-53.2494005,4,24.38876
1,Agudos do Sul/PR,-25.9890808,-49.3328175,327,3453.00950
D1,Agudos do Sul/PR,-25.9890808,-49.3328175,2,21.11932
1,Agudos/SP,-22.471162,-48.987822,1636,4374.21459
D1,Agudos/SP,-22.471162,-48.987822,31,82.88548
1,Aguiar/PB,-7.0928404,-38.1727215,166,2948.49023
D1,Aguiar/PB,-7.0928404,-38.1727215,1,17.76199
1,Aguiarnópolis/TO,-6.5600452,-47.4721189,485,7037.14452
D1,Aguiarnópolis/TO,-6.5600452,-47.4721189,10,145.09576
1,Aimorés/MG,-19.4917754,-41.0615603,1188,4725.34903
D1,Aimorés/MG,-19.4917754,-41.0615603,29,115.34943
1,Aiquara/BA,-14.126918,-39.8887574,392,8876.81159
D1,Aiquara/BA,-14.126918,-39.8887574,9,203.80435
1,Aiuaba/CE,-6.5710836,-40.1212278,217,1240.49620
D1,Aiuaba/CE,-6.5710836,-40.1212278,2,11.43314
1,Aiuruoca/MG,-21.9759554,-44.6036637,76,1271.75368
D1,Aiuruoca/MG,-21.9759554,-44.6036637,5,83.66801
1,Ajuricaba/RS,-28.239654,-53.7693013,538,7700.01431
D1,Ajuricaba/RS,-28.239654,-53.7693013,11,157.43524
1,Alagoa Grande/PB,-7.0415212,-35.6285322,2017,7092.37315
D1,Alagoa Grande/PB,-7.0415212,-35.6285322,36,126.58673
1,Alagoa Nova/PB,-7.0653703,-35.76695977336711,635,3035.22776
D1,Alagoa Nova/PB,-7.0653703,-35.76695977336711,13,62.13852
1,Alagoa/MG,-22.1697202,-44.6400042,178,6679.17448
1,Alagoinha do Piauí/PI,-7.0090952,-40.939675,232,3026.74494
D1,Alagoinha do Piauí/PI,-7.0090952,-40.939675,9,117.41683
1,Alagoinha/PB,-6.97063215,-35.51490901897793,1252,8598.90110
D1,Alagoinha/PB,-6.97063215,-35.51490901897793,16,109.89011
1,Alagoinha/PE,-8.50355635,-36.77701174370496,442,3003.12542
D1,Alagoinha/PE,-8.50355635,-36.77701174370496,13,88.32722
1,Alagoinhas/BA,-12.133526,-38.420772,9115,5983.83740
D1,Alagoinhas/BA,-12.133526,-38.420772,148,97.15940
1,Alambari/SP,-23.550338,-47.897971,233,3801.59896
D1,Alambari/SP,-23.550338,-47.897971,7,114.21113
1,Albertina/MG,-20.66164,-43.784039,139,4616.40651
D1,Albertina/MG,-20.66164,-43.784039,5,166.05779
1,Alcantil/PB,-7.7425491,-36.0609604,162,2940.64258
D1,Alcantil/PB,-7.7425491,-36.0609604,2,36.30423
1,Alcinópolis/MS,-18.3264121,-53.7094463,80,1476.83219
D1,Alcinópolis/MS,-18.3264121,-53.7094463,2,36.92080
1,Alcobaça/BA,-17.5215875,-39.1965474,1076,4784.34860
D1,Alcobaça/BA,-17.5215875,-39.1965474,16,71.14273
1,Alcântara/MA,-2.4038956,-44.4154241,202,913.53111
D1,Alcântara/MA,-2.4038956,-44.4154241,8,36.17945
1,Alcântaras/CE,-3.586247,-40.5457641,767,6510.48298
D1,Alcântaras/CE,-3.586247,-40.5457641,5,42.44122
1,Aldeias Altas/MA,-4.6291957,-43.4708622,973,3636.43159
D1,Aldeias Altas/MA,-4.6291957,-43.4708622,11,41.11074
1,Alecrim/RS,-27.6566142,-54.7653195,152,2608.54642
D1,Alecrim/RS,-27.6566142,-54.7653195,4,68.64596
1,Alegre/ES,-20.7625787,-41.5318886,1313,4380.31693
D1,Alegre/ES,-20.7625787,-41.5318886,32,106.75563
1,Alegrete do Piauí/PI,-7.2440138,-40.8602296,370,7523.38349
D1,Alegrete do Piauí/PI,-7.2440138,-40.8602296,4,81.33388
1,Alegrete/RS,-29.790166,-55.794862,2991,4095.68932
D1,Alegrete/RS,-29.790166,-55.794862,77,105.43901
1,Alegria/RS,-27.8332103,-54.0574959,257,7617.07172
D1,Alegria/RS,-27.8332103,-54.0574959,1,29.63841
1,Alenquer/PA,-1.946229,-54.738355,1892,3313.94941
D1,Alenquer/PA,-1.946229,-54.738355,47,82.32327
1,Alexandria/RN,-6.414779,-38.0135516,872,6433.99985
D1,Alexandria/RN,-6.414779,-38.0135516,9,66.40596
1,Alexânia/GO,-16.0834049,-48.5077803,1733,6187.07604
D1,Alexânia/GO,-16.0834049,-48.5077803,27,96.39414
1,Alfenas/MG,-21.4297405,-45.9479419,4182,5195.41829
D1,Alfenas/MG,-21.4297405,-45.9479419,95,118.02122
1,Alfredo Chaves/ES,-20.624970400000002,-40.75006690147988,1706,11656.19022
D1,Alfredo Chaves/ES,-20.624970400000002,-40.75006690147988,23,157.14676
1,Alfredo Marcondes/SP,-21.9527,-51.413956,147,3513.38432
D1,Alfredo Marcondes/SP,-21.9527,-51.413956,4,95.60229
1,Alfredo Vasconcelos/MG,-21.145833,-43.776389,145,2077.06632
D1,Alfredo Vasconcelos/MG,-21.145833,-43.776389,5,71.62298
1,Alfredo Wagner/SC,-27.6961513,-49.3326734,543,5383.70018
D1,Alfredo Wagner/SC,-27.6961513,-49.3326734,1,9.91473
1,Algodão de Jandaíra/PB,-6.9040175,-36.0089879,69,2677.53201
1,Alhandra/PB,-7.4304246,-34.9106103,967,4901.91109
D1,Alhandra/PB,-7.4304246,-34.9106103,22,111.52228
1,Aliança do Tocantins/TO,-11.3055927,-48.9409096,368,6883.65133
D1,Aliança do Tocantins/TO,-11.3055927,-48.9409096,8,149.64459
1,Aliança/PE,-7.60398,-35.222696,432,1125.08790
D1,Aliança/PE,-7.60398,-35.222696,30,78.13110
1,Almadina/BA,-14.70466,-39.6381994,518,9653.37309
D1,Almadina/BA,-14.70466,-39.6381994,9,167.72270
1,Almas/TO,-11.5681309,-47.1702803,150,2149.30506
D1,Almas/TO,-11.5681309,-47.1702803,3,42.98610
1,Almeirim/PA,-1.5290377,-52.5788111,2295,6734.94542
D1,Almeirim/PA,-1.5290377,-52.5788111,20,58.69233
1,Almenara/MG,-16.1740678,-40.6904907,2444,5799.30238
D1,Almenara/MG,-16.1740678,-40.6904907,26,61.69471
1,Almino Afonso/RN,-6.1544208,-37.7649018,237,5031.84713
D1,Almino Afonso/RN,-6.1544208,-37.7649018,6,127.38854
1,Almirante Tamandaré do Sul/RS,-28.1141129,-52.9134874,124,6362.23704
1,Almirante Tamandaré/PR,-25.3133048,-49.2997838,5744,4785.03178
D1,Almirante Tamandaré/PR,-25.3133048,-49.2997838,150,124.95731
1,Aloândia/GO,-17.7277983,-49.4809338,182,9164.14904
D1,Aloândia/GO,-17.7277983,-49.4809338,6,302.11480
1,Alpercata/MG,-18.9803616,-41.9827637,337,4532.00646
D1,Alpercata/MG,-18.9803616,-41.9827637,12,161.37708
1,Alpestre/RS,-27.2512339,-53.0349646,189,3115.21345
D1,Alpestre/RS,-27.2512339,-53.0349646,3,49.44783
1,Alpinópolis/MG,-20.863611,-46.387777,446,2234.69285
D1,Alpinópolis/MG,-20.863611,-46.387777,7,35.07365
1,Alta Floresta D'Oeste/RO,-11.9296917,-61.9961284,2516,11070.04576
D1,Alta Floresta D'Oeste/RO,-11.9296917,-61.9961284,32,140.79549
1,Alta Floresta/MT,-9.8715018,-56.0839881,4770,9180.31525
D1,Alta Floresta/MT,-9.8715018,-56.0839881,53,102.00350
1,Altair/SP,-20.5238955,-49.0606135,84,2006.68896
D1,Altair/SP,-20.5238955,-49.0606135,5,119.44577
1,Altamira do Maranhão/MA,-4.1643006,-45.4674574,275,3358.16339
D1,Altamira do Maranhão/MA,-4.1643006,-45.4674574,7,85.48052
1,Altamira do Paraná/PR,-24.799114,-52.7128633,67,3983.35315
D1,Altamira do Paraná/PR,-24.799114,-52.7128633,2,118.90606
1,Altamira/PA,-3.204065,-52.209961,8682,7486.48346
D1,Altamira/PA,-3.204065,-52.209961,174,150.04010
1,Altaneira/CE,-6.9980933,-39.7385742,273,3568.62745
D1,Altaneira/CE,-6.9980933,-39.7385742,9,117.64706
1,Alterosa/MG,-21.249166,-46.143055,463,3189.36419
D1,Alterosa/MG,-21.249166,-46.143055,24,165.32341
1,Altinho/PE,-8.4904095,-36.0607494,737,3206.57849
D1,Altinho/PE,-8.4904095,-36.0607494,13,56.56109
1,Altinópolis/SP,-21.021364,-47.3712,510,3147.56527
D1,Altinópolis/SP,-21.021364,-47.3712,15,92.57545
1,Alto Alegre do Maranhão/MA,-4.2055693,-44.4525287,560,2010.19456
D1,Alto Alegre do Maranhão/MA,-4.2055693,-44.4525287,18,64.61340
1,Alto Alegre do Pindaré/MA,-3.6698186,-45.8462153,1672,5234.32364
D1,Alto Alegre do Pindaré/MA,-3.6698186,-45.8462153,25,78.26441
1,Alto Alegre dos Parecis/RO,-12.1314515,-61.856265,666,5024.51905
D1,Alto Alegre dos Parecis/RO,-12.1314515,-61.856265,17,128.25349
1,Alto Alegre/RR,2.98858,-61.307167,1077,7002.60078
D1,Alto Alegre/RR,2.98858,-61.307167,23,149.54486
1,Alto Alegre/RS,-31.780844700000003,-52.81311114489171,44,2727.83633
1,Alto Alegre/SP,-21.5820592,-50.1661976,162,3962.81800
D1,Alto Alegre/SP,-21.5820592,-50.1661976,4,97.84736
1,Alto Araguaia/MT,-17.3156528,-53.2169365,778,4013.41243
D1,Alto Araguaia/MT,-17.3156528,-53.2169365,12,61.90353
1,Alto Bela Vista/SC,-27.4320737,-51.905771,90,4672.89720
D1,Alto Bela Vista/SC,-27.4320737,-51.905771,2,103.84216
1,Alto Boa Vista/MT,-11.6723985,-51.3744431,350,5046.13610
D1,Alto Boa Vista/MT,-11.6723985,-51.3744431,6,86.50519
1,Alto Caparaó/MG,-20.4405661,-41.8683799,264,4479.13132
D1,Alto Caparaó/MG,-20.4405661,-41.8683799,7,118.76485
1,Alto Feliz/RS,-29.3785943,-51.3123751,134,4413.70224
1,Alto Garças/MT,-16.9469683,-53.529427,399,3283.68036
D1,Alto Garças/MT,-16.9469683,-53.529427,19,156.36573
1,Alto Horizonte/GO,-14.1954948,-49.3366993,408,6177.13853
D1,Alto Horizonte/GO,-14.1954948,-49.3366993,3,45.42014
1,Alto Jequitibá/MG,-20.423611,-41.966111,424,5107.81834
D1,Alto Jequitibá/MG,-20.423611,-41.966111,9,108.42067
1,Alto Longá/PI,-5.2549051,-42.2072388,387,2698.93298
D1,Alto Longá/PI,-5.2549051,-42.2072388,10,69.73987
1,Alto Paraguai/MT,-14.513712,-56.4936374,381,3320.84023
D1,Alto Paraguai/MT,-14.513712,-56.4936374,12,104.59339
1,Alto Paraná/PR,-23.131247,-52.318893,507,3412.07349
D1,Alto Paraná/PR,-23.131247,-52.318893,6,40.37957
1,Alto Paraíso de Goiás/GO,-14.1304779,-47.5100161,457,5944.32882
1,Alto Paraíso/PR,-23.508137,-53.728537,104,3873.37058
D1,Alto Paraíso/PR,-23.508137,-53.728537,1,37.24395
1,Alto Paraíso/RO,-9.7240103,-63.3188123,992,4540.66920
D1,Alto Paraíso/RO,-9.7240103,-63.3188123,18,82.39117
1,Alto Parnaíba/MA,-9.112506,-45.9310154,604,5387.08527
D1,Alto Parnaíba/MA,-9.112506,-45.9310154,5,44.59508
1,Alto Piquiri/PR,-24.0239021,-53.4417448,359,3671.50747
D1,Alto Piquiri/PR,-24.0239021,-53.4417448,9,92.04336
1,Alto Rio Doce/MG,-21.0239537,-43.4133507,216,1989.13344
D1,Alto Rio Doce/MG,-21.0239537,-43.4133507,16,147.34322
1,Alto Rio Novo/ES,-19.0577208,-41.0171518,488,6197.61240
D1,Alto Rio Novo/ES,-19.0577208,-41.0171518,17,215.90043
1,Alto Santo/CE,-5.5190371,-38.2719351,644,3745.05699
D1,Alto Santo/CE,-5.5190371,-38.2719351,14,81.41428
1,Alto Taquari/MT,-17.8269099,-53.2831736,787,7069.07392
D1,Alto Taquari/MT,-17.8269099,-53.2831736,12,107.78766
1,Alto do Rodrigues/RN,-5.290868,-36.7616726,946,6423.13960
D1,Alto do Rodrigues/RN,-5.290868,-36.7616726,20,135.79576
1,Altos/PI,-5.0393915,-42.4611694,2829,6967.12228
D1,Altos/PI,-5.0393915,-42.4611694,39,96.04728
1,Altônia/PR,-23.8722004,-53.894037,761,3431.63781
D1,Altônia/PR,-23.8722004,-53.894037,11,49.60317
1,Alumínio/SP,-23.5203479,-47.2575256,701,3735.28001
D1,Alumínio/SP,-23.5203479,-47.2575256,21,111.89855
1,Alvarenga/MG,-19.4175,-41.728334,330,8584.80749
D1,Alvarenga/MG,-19.4175,-41.728334,3,78.04370
1,Alvarães/AM,-3.214786,-64.8143124,2400,14796.54747
D1,Alvarães/AM,-3.214786,-64.8143124,33,203.45253
1,Alvinlândia/SP,-22.4431852,-49.7643596,58,1791.78251
1,Alvinópolis/MG,-20.1105199,-43.0601805,301,1984.31011
D1,Alvinópolis/MG,-20.1105199,-43.0601805,3,19.77718
1,Alvorada D'Oeste/RO,-11.346271,-62.284697,611,4331.49015
D1,Alvorada D'Oeste/RO,-11.346271,-62.284697,14,99.24855
1,Alvorada de Minas/MG,-18.7318587,-43.3641479,144,3994.45215
D1,Alvorada de Minas/MG,-18.7318587,-43.3641479,1,27.73925
1,Alvorada do Gurguéia/PI,-8.4465288,-43.8655915,194,3562.90174
D1,Alvorada do Gurguéia/PI,-8.4465288,-43.8655915,5,91.82736
1,Alvorada do Norte/GO,-14.483911,-46.4959897,464,5330.26996
D1,Alvorada do Norte/GO,-14.483911,-46.4959897,2,22.97530
1,Alvorada do Sul/PR,-22.7807269,-51.2307721,418,3633.83465
D1,Alvorada do Sul/PR,-22.7807269,-51.2307721,8,69.54707
1,Alvorada/RS,-29.9981184,-51.0772509,12291,5815.41693
D1,Alvorada/RS,-29.9981184,-51.0772509,332,157.08392
1,Alvorada/TO,-12.478465,-49.124926,798,9504.52596
D1,Alvorada/TO,-12.478465,-49.124926,11,131.01477
1,Além Paraíba/MG,-21.8760576,-42.6810473,1789,5053.52956
D1,Além Paraíba/MG,-21.8760576,-42.6810473,70,197.73453
1,Amajari/RR,3.6523869,-61.4194315,757,5741.37277
D1,Amajari/RR,3.6523869,-61.4194315,17,128.93440
1,Amambai/MS,-23.1082701,-55.2284854,1791,4497.06222
D1,Amambai/MS,-23.1082701,-55.2284854,35,87.88229
1,Amaporã/PR,-23.094272,-52.786597,116,1831.96462
1,Amapá do Maranhão/MA,-1.6762114,-46.0109669,41,585.29622
1,Amapá/AP,2.0529997,-50.7930003,1109,12071.40525
D1,Amapá/AP,2.0529997,-50.7930003,9,97.96452
1,Amaraji/PE,-8.373925,-35.4536527,395,1727.15348
D1,Amaraji/PE,-8.373925,-35.4536527,24,104.94097
1,Amaral Ferrador/RS,-30.8750633,-52.2542051,162,2286.52082
D1,Amaral Ferrador/RS,-30.8750633,-52.2542051,3,42.34298
1,Amaralina/GO,-13.9236199,-49.2962411,26,676.20286
1,Amarante do Maranhão/MA,-5.56913,-46.747284,1183,2834.95890
D1,Amarante do Maranhão/MA,-5.56913,-46.747284,32,76.68528
1,Amarante/PI,-6.2459374,-42.8476238,952,5407.86185
D1,Amarante/PI,-6.2459374,-42.8476238,18,102.24949
1,Amargosa/BA,-13.03793715,-39.60796443875596,1737,4639.29916
D1,Amargosa/BA,-13.03793715,-39.60796443875596,30,80.12607
1,Amaturá/AM,-3.3640509,-68.1994689,1737,14800.61350
D1,Amaturá/AM,-3.3640509,-68.1994689,15,127.81186
1,Americana/SP,-22.7392463,-47.3306032,11410,4714.52537
D1,Americana/SP,-22.7392463,-47.3306032,291,120.23899
1,Americano do Brasil/GO,-16.2515808,-49.9806104,249,4039.58469
D1,Americano do Brasil/GO,-16.2515808,-49.9806104,4,64.89293
1,Ametista do Sul/RS,-27.3617341,-53.1826575,330,4457.65230
D1,Ametista do Sul/RS,-27.3617341,-53.1826575,5,67.54019
1,Amontada/CE,-3.3634586,-39.8284791,1237,2822.33225
D1,Amontada/CE,-3.3634586,-39.8284791,22,50.19508
1,Amorinópolis/GO,-16.6211308,-51.0949921,124,4040.40404
D1,Amorinópolis/GO,-16.6211308,-51.0949921,1,32.58390
1,Amparo de São Francisco/SE,-10.1299754,-36.9269099,77,3235.29412
D1,Amparo de São Francisco/SE,-10.1299754,-36.9269099,2,84.03361
1,Amparo do Serra/MG,-20.5070255,-42.8028462,79,1688.75588
D1,Amparo do Serra/MG,-20.5070255,-42.8028462,3,64.12997
1,Amparo/PB,-7.56394725,-37.04652873235175,75,3331.85251
D1,Amparo/PB,-7.56394725,-37.04652873235175,2,88.84940
1,Amparo/SP,-22.70111,-46.76444,2863,3939.34807
D1,Amparo/SP,-22.70111,-46.76444,54,74.30136
1,Ampére/PR,-25.9168712,-53.4742414,708,3666.30418
D1,Ampére/PR,-25.9168712,-53.4742414,17,88.03273
1,Amélia Rodrigues/BA,-12.4015388,-38.7516971,1324,5285.85117
D1,Amélia Rodrigues/BA,-12.4015388,-38.7516971,23,91.82370
1,América Dourada/BA,-11.4515262,-41.4357517,469,2914.85395
D1,América Dourada/BA,-11.4515262,-41.4357517,2,12.43008
1,Américo Brasiliense/SP,-21.7297099,-48.1052092,2450,5970.94950
D1,Américo Brasiliense/SP,-21.7297099,-48.1052092,43,104.79626
1,Américo de Campos/SP,-20.298476,-49.735904,457,7640.86273
D1,Américo de Campos/SP,-20.298476,-49.735904,15,250.79418
1,Anadia/AL,-9.6830208,-36.3052699,807,4604.58747
D1,Anadia/AL,-9.6830208,-36.3052699,15,85.58713
1,Anagé/BA,-14.6134669,-41.1376308,481,2226.13042
D1,Anagé/BA,-14.6134669,-41.1376308,10,46.28130
1,Anahy/PR,-24.6450861,-53.1337957,145,5200.86083
D1,Anahy/PR,-24.6450861,-53.1337957,3,107.60402
1,Anajatuba/MA,-3.26441,-44.6179916,542,2008.29999
D1,Anajatuba/MA,-3.26441,-44.6179916,14,51.87491
1,Anajás/PA,-0.9878802,-49.9390114,1065,3587.30800
D1,Anajás/PA,-0.9878802,-49.9390114,11,37.05201
1,Analândia/SP,-22.128917,-47.661939,202,3995.25316
D1,Analândia/SP,-22.128917,-47.661939,3,59.33544
1,Anamã/AM,-3.5797356,-61.4049996,1512,10834.04987
D1,Anamã/AM,-3.5797356,-61.4049996,4,28.66151
1,Ananindeua/PA,-1.374035,-48.4016623,14564,2719.46253
D1,Ananindeua/PA,-1.374035,-48.4016623,444,82.90589
1,Ananás/TO,-6.3663053,-48.080238,1146,12073.32491
D1,Ananás/TO,-6.3663053,-48.080238,19,200.16856
1,Anapu/PA,-3.4668292,-51.2057035,1159,4051.45594
D1,Anapu/PA,-3.4668292,-51.2057035,23,80.39990
1,Anapurus/MA,-3.6751298,-43.1046001,827,5203.22134
D1,Anapurus/MA,-3.6751298,-43.1046001,10,62.91682
1,Anastácio/MS,-20.4832458,-55.8048448,1498,5935.72929
D1,Anastácio/MS,-20.4832458,-55.8048448,43,170.38475
1,Anaurilândia/MS,-22.185169,-52.719056,181,1994.27060
D1,Anaurilândia/MS,-22.185169,-52.719056,5,55.09035
1,Anchieta/ES,-20.8057672,-40.6454564,2888,9698.10941
D1,Anchieta/ES,-20.8057672,-40.6454564,41,137.68092
1,Anchieta/SC,-26.5350527,-53.3293938,292,5254.63380
D1,Anchieta/SC,-26.5350527,-53.3293938,4,71.98128
1,Andaraí/BA,-12.8059674,-41.3322919,555,4226.31739
D1,Andaraí/BA,-12.8059674,-41.3322919,4,30.45995
1,Andirá/PR,-23.0494761,-50.2310027,1140,5721.16832
D1,Andirá/PR,-23.0494761,-50.2310027,29,145.53849
1,Andorinha/BA,-10.3445708,-39.8334411,563,3881.95546
D1,Andorinha/BA,-10.3445708,-39.8334411,9,62.05613
1,Andradas/MG,-22.0680484,-46.5688976,1672,4039.03759
D1,Andradas/MG,-22.0680484,-46.5688976,38,91.79631
1,Andradina/SP,-20.896505,-51.3742765,3151,5508.54865
D1,Andradina/SP,-20.896505,-51.3742765,107,187.05640
1,Andrelândia/MG,-21.739722,-44.308889,194,1589.38227
D1,Andrelândia/MG,-21.739722,-44.308889,6,49.15615
1,André da Rocha/RS,-28.6309124,-51.5733328,64,4765.45048
1,Angatuba/SP,-23.4938938,-48.4110675,1015,3983.67283
D1,Angatuba/SP,-23.4938938,-48.4110675,23,90.27042
1,Angelim/PE,-8.8902038,-36.2872987,116,1033.31552
D1,Angelim/PE,-8.8902038,-36.2872987,4,35.63157
1,Angelina/SC,-27.5805287,-48.9838759,348,7337.12840
1,Angelândia/MG,-17.7253,-42.2728,72,841.41638
1,Angical do Piauí/PI,-6.0872666,-42.7366138,279,4113.22424
D1,Angical do Piauí/PI,-6.0872666,-42.7366138,6,88.45644
1,Angical/BA,-12.005623,-44.7000236,327,2346.10418
D1,Angical/BA,-12.005623,-44.7000236,5,35.87315
1,Angico/TO,-6.3893733,-47.8656722,184,5327.15692
D1,Angico/TO,-6.3893733,-47.8656722,3,86.85582
1,Angicos/RN,-5.6666344,-36.6009064,360,3075.60871
D1,Angicos/RN,-5.6666344,-36.6009064,9,76.89022
1,Angra dos Reis/RJ,-23.0063966,-44.316326,11112,5366.97514
D1,Angra dos Reis/RJ,-23.0063966,-44.316326,352,170.01217
1,Anguera/BA,-12.1509425,-39.2452469,268,2372.31123
D1,Anguera/BA,-12.1509425,-39.2452469,1,8.85191
1,Angélica/MS,-22.1588196,-53.7728504,436,3988.29126
D1,Angélica/MS,-22.1588196,-53.7728504,7,64.03220
1,Anhanguera/GO,-18.3338749,-48.220363,66,5689.65517
D1,Anhanguera/GO,-18.3338749,-48.220363,6,517.24138
1,Anhembi/SP,-22.7891096,-48.1316776,92,1349.17143
D1,Anhembi/SP,-22.7891096,-48.1316776,2,29.32981
1,Anhumas/SP,-22.2956478,-51.3873401,154,3716.21622
D1,Anhumas/SP,-22.2956478,-51.3873401,1,24.13127
1,Anicuns/GO,-16.4606451,-49.9572265,1648,7497.38410
D1,Anicuns/GO,-16.4606451,-49.9572265,29,131.93212
1,Anita Garibaldi/SC,-27.6855032,-51.1293873,662,9515.59580
D1,Anita Garibaldi/SC,-27.6855032,-51.1293873,4,57.49605
1,Anitápolis/SC,-27.9041185,-49.1287395,206,6381.66047
1,Anori/AM,-3.7435254,-61.6605203,1769,8236.71835
D1,Anori/AM,-3.7435254,-61.6605203,29,135.02817
1,Anta Gorda/RS,-28.9718745,-52.0069187,465,7800.70458
D1,Anta Gorda/RS,-28.9718745,-52.0069187,3,50.32713
1,Antas/BA,-10.4114649,-38.3308815,778,3994.04487
1,Antonina do Norte/CE,-6.7754187,-39.9879345,109,1477.36514
D1,Antonina do Norte/CE,-6.7754187,-39.9879345,7,94.87666
1,Antonina/PR,-25.4298854,-48.7125431,1571,8290.67497
D1,Antonina/PR,-25.4298854,-48.7125431,40,211.09293
1,Antônio Almeida/PI,-7.2186016,-44.1950248,349,11009.46372
D1,Antônio Almeida/PI,-7.2186016,-44.1950248,9,283.91167
1,Antônio Cardoso/BA,-12.4363122,-39.1200307,252,2158.08855
D1,Antônio Cardoso/BA,-12.4363122,-39.1200307,5,42.81922
1,Antônio Carlos/MG,-21.318334,-43.746666,340,2967.10010
D1,Antônio Carlos/MG,-21.318334,-43.746666,6,52.36059
1,Antônio Carlos/SC,-27.5168462,-48.7684715,1127,13084.87171
D1,Antônio Carlos/SC,-27.5168462,-48.7684715,16,185.76570
1,Antônio Dias/MG,-19.6525,-42.872778,298,3212.93801
D1,Antônio Dias/MG,-19.6525,-42.872778,6,64.69003
1,Antônio Gonçalves/BA,-10.5715409,-40.2748824,502,4226.30072
D1,Antônio Gonçalves/BA,-10.5715409,-40.2748824,4,33.67570
1,Antônio João/MS,-22.1892837,-55.9508227,214,2372.50554
D1,Antônio João/MS,-22.1892837,-55.9508227,4,44.34590
1,Antônio Martins/RN,-6.2155812,-37.8890129,224,3131.11546
D1,Antônio Martins/RN,-6.2155812,-37.8890129,2,27.95639
1,Antônio Olinto/PR,-25.9849006,-50.1974516,178,2396.66083
D1,Antônio Olinto/PR,-25.9849006,-50.1974516,1,13.46439
1,Antônio Prado de Minas/MG,-21.0171988,-42.1101106,137,8632.64020
D1,Antônio Prado de Minas/MG,-21.0171988,-42.1101106,3,189.03592
1,Antônio Prado/RS,-28.8567806,-51.2801355,1254,9612.87850
D1,Antônio Prado/RS,-28.8567806,-51.2801355,12,91.98927
1,Anápolis/GO,-16.3332828,-48.9525756,21882,5585.39150
D1,Anápolis/GO,-16.3332828,-48.9525756,521,132.98551
1,Anísio de Abreu/PI,-9.185643,-43.04941,241,2425.03522
D1,Anísio de Abreu/PI,-9.185643,-43.04941,2,20.12477
1,Aparecida d'Oeste/SP,-20.4498109,-50.8808706,424,10197.21020
D1,Aparecida d'Oeste/SP,-20.4498109,-50.8808706,11,264.55026
1,Aparecida de Goiânia/GO,-16.8226769,-49.2452546,48101,8150.69491
D1,Aparecida de Goiânia/GO,-16.8226769,-49.2452546,750,127.08720
1,Aparecida do Rio Doce/GO,-18.2980167,-51.1491312,134,5416.32983
D1,Aparecida do Rio Doce/GO,-18.2980167,-51.1491312,3,121.26112
1,Aparecida do Rio Negro/TO,-9.9513491,-47.9773786,213,4393.56436
D1,Aparecida do Rio Negro/TO,-9.9513491,-47.9773786,3,61.88119
1,Aparecida do Taboado/MS,-20.0840304,-51.1013943,1583,6072.34647
D1,Aparecida do Taboado/MS,-20.0840304,-51.1013943,25,95.89934
1,Aparecida/PB,-6.7859598, -38.0831353,606,7200.57034
D1,Aparecida/PB,-6.7859598, -38.0831353,9,106.93916
1,Aparecida/SP,-22.851552,-45.2340924,1374,3797.15352
D1,Aparecida/SP,-22.851552,-45.2340924,35,96.72516
1,Aperibé/RJ,-21.6211928,-42.1028167,306,2571.21250
D1,Aperibé/RJ,-21.6211928,-42.1028167,10,84.02655
1,Apiacá/ES,-21.152272,-41.569297,455,6023.29891
D1,Apiacá/ES,-21.152272,-41.569297,13,172.09425
1,Apiacás/MT,-9.5678422,-57.394852,478,4648.44890
D1,Apiacás/MT,-9.5678422,-57.394852,1,9.72479
1,Apiaí/SP,-24.5076527,-48.8461582,666,2749.11252
D1,Apiaí/SP,-24.5076527,-48.8461582,20,82.55593
1,Apicum-Açu/MA,-1.5279295,-45.082278,239,1372.53776
D1,Apicum-Açu/MA,-1.5279295,-45.082278,3,17.22851
1,Apiúna/SC,-27.0374658,-49.3885037,556,5125.36873
D1,Apiúna/SC,-27.0374658,-49.3885037,11,101.40118
1,Apodi/RN,-5.6631109,-37.796927,4259,11872.10793
D1,Apodi/RN,-5.6631109,-37.796927,52,144.95178
1,Aporá/BA,-11.6599747,-38.0794757,368,2068.81043
D1,Aporá/BA,-11.6599747,-38.0794757,11,61.83944
1,Aporé/GO,-18.9642193,-51.92804,202,4773.15690
D1,Aporé/GO,-18.9642193,-51.92804,5,118.14745
1,Apuarema/BA,-13.8517897,-39.7457126,585,8011.50370
D1,Apuarema/BA,-13.8517897,-39.7457126,9,123.25390
1,Apucarana/PR,-23.5525327,-51.4610764,4266,3131.37690
D1,Apucarana/PR,-23.5525327,-51.4610764,144,105.70049
1,Apuiarés/CE,-3.9460303,-39.4313298,390,2658.12432
D1,Apuiarés/CE,-3.9460303,-39.4313298,12,81.78844
1,Apuí/AM,-7.1940195,-59.8830192,896,4007.33485
D1,Apuí/AM,-7.1940195,-59.8830192,18,80.50449
1,Aquidabã/SE,-10.2837579,-37.0188687,1386,6392.69406
D1,Aquidabã/SE,-10.2837579,-37.0188687,22,101.47133
1,Aquidauana/MS,-20.473969,-55.7821375,3444,7170.66772
D1,Aquidauana/MS,-20.473969,-55.7821375,89,185.30471
1,Aquiraz/CE,-3.9063117,-38.387504,2672,3301.41472
D1,Aquiraz/CE,-3.9063117,-38.387504,48,59.30685
1,Arabutã/SC,-27.1587028,-52.1438142,267,6257.32365
D1,Arabutã/SC,-27.1587028,-52.1438142,2,46.87134
1,Aracaju/SE,-10.9162061,-37.0774655,79155,11904.65448
D1,Aracaju/SE,-10.9162061,-37.0774655,1128,169.64753
1,Aracati/CE,-4.558259,-37.767894,3311,4416.13871
D1,Aracati/CE,-4.558259,-37.767894,79,105.36846
1,Aracatu/BA,-14.4274236,-41.4604105,523,4009.19893
D1,Aracatu/BA,-14.4274236,-41.4604105,8,61.32618
1,Araci/BA,-11.3356065,-38.9573261,2750,5032.20612
D1,Araci/BA,-11.3356065,-38.9573261,31,56.72669
1,Aracitaba/MG,-21.3425,-43.378611,69,3351.14133
D1,Aracitaba/MG,-21.3425,-43.378611,6,291.40359
1,Aracoiaba/CE,-4.3702577,-38.8084313,1144,4311.28698
D1,Aracoiaba/CE,-4.3702577,-38.8084313,20,75.37215
1,Aracruz/ES,-19.8245218,-40.2735025,10910,10581.85663
D1,Aracruz/ES,-19.8245218,-40.2735025,144,139.66887
1,Aragarças/GO,-15.8957166,-52.2514538,1506,7428.59962
D1,Aragarças/GO,-15.8957166,-52.2514538,29,143.04740
1,Aragoiânia/GO,-16.9146388,-49.4499148,601,5725.99085
D1,Aragoiânia/GO,-16.9146388,-49.4499148,6,57.16463
1,Aragominas/TO,-7.1654101,-48.525488,406,7084.27849
D1,Aragominas/TO,-7.1654101,-48.525488,7,122.14273
1,Araguacema/TO,-8.8067391,-49.5560969,267,3731.65618
D1,Araguacema/TO,-8.8067391,-49.5560969,4,55.90496
1,Araguaiana/MT,-15.729144,-51.834112,90,2894.82149
D1,Araguaiana/MT,-15.729144,-51.834112,1,32.16468
1,Araguainha/MT,-16.857016,-53.031778,16,1691.33192
1,Araguanã/MA,-2.9508403,-45.6651986,625,4019.03415
D1,Araguanã/MA,-2.9508403,-45.6651986,4,25.72182
1,Araguanã/TO,-6.5799107,-48.6428482,195,3366.13154
D1,Araguanã/TO,-6.5799107,-48.6428482,11,189.88434
1,Araguapaz/GO,-15.0937927,-50.626417,275,3533.34190
D1,Araguapaz/GO,-15.0937927,-50.626417,7,89.93961
1,Araguari/MG,-18.6511256,-48.1933764,8980,7621.47252
D1,Araguari/MG,-18.6511256,-48.1933764,225,190.96117
1,Araguatins/TO,-5.6522925,-48.1158973,1365,3773.84573
D1,Araguatins/TO,-5.6522925,-48.1158973,37,102.29472
1,Araguaçu/TO,-12.928934,-49.823134,662,7818.58982
D1,Araguaçu/TO,-12.928934,-49.823134,12,141.72670
1,Araguaína/TO,-7.193241,-48.2018597,21741,11855.64481
D1,Araguaína/TO,-7.193241,-48.2018597,277,151.05164
1,Araioses/MA,-2.890914,-41.904993,591,1263.60351
D1,Araioses/MA,-2.890914,-41.904993,10,21.38077
1,Aral Moreira/MS,-22.951141,-55.6268421,307,2489.45832
D1,Aral Moreira/MS,-22.951141,-55.6268421,7,56.76289
1,Aramari/BA,-12.0907897,-38.4985065,425,3708.22790
D1,Aramari/BA,-12.0907897,-38.4985065,9,78.52718
1,Arambaré/RS,-30.9132252,-51.4994625,107,3003.93038
D1,Arambaré/RS,-30.9132252,-51.4994625,2,56.14823
1,Arame/MA,-4.8858769,-46.0102484,971,2963.61861
D1,Arame/MA,-4.8858769,-46.0102484,24,73.25113
1,Aramina/SP,-20.0876144,-47.789201,192,3395.22546
D1,Aramina/SP,-20.0876144,-47.789201,7,123.78426
1,Arandu/SP,-23.1345103,-49.0545651,147,2309.50511
D1,Arandu/SP,-23.1345103,-49.0545651,7,109.97643
1,Arantina/MG,-21.911667,-44.255833,54,1937.56728
D1,Arantina/MG,-21.911667,-44.255833,2,71.76175
1,Arapeí/SP,-22.6738889,-44.4477778,150,6097.56098
D1,Arapeí/SP,-22.6738889,-44.4477778,2,81.30081
1,Arapiraca/AL,-9.754866,-36.661471,17263,7407.51866
D1,Arapiraca/AL,-9.754866,-36.661471,243,104.27081
1,Arapoema/TO,-7.6575001,-49.0641484,330,4987.90810
D1,Arapoema/TO,-7.6575001,-49.0641484,5,75.57437
1,Araponga/MG,-20.666667,-42.520556,233,2756.41784
D1,Araponga/MG,-20.666667,-42.520556,2,23.66024
1,Arapongas/PR,-23.415296,-51.42592,7362,5898.56582
D1,Arapongas/PR,-23.415296,-51.42592,214,171.46062
1,Araporã/MG,-18.4318188,-49.188313,1255,18107.05526
D1,Araporã/MG,-18.4318188,-49.188313,15,216.41899
1,Arapoti/PR,-24.1457957,-49.8224605,1744,6162.54417
D1,Arapoti/PR,-24.1457957,-49.8224605,21,74.20495
1,Araputanga/MT,-15.4710868,-58.346796,1169,6896.34830
D1,Araputanga/MT,-15.4710868,-58.346796,23,135.68521
1,Arapuá/MG,-19.034444,-46.155556,77,2716.04938
D1,Arapuá/MG,-19.034444,-46.155556,1,35.27337
1,Arapuã/PR,-24.3079525,-51.7901941,133,4420.07311
D1,Arapuã/PR,-24.3079525,-51.7901941,3,99.70090
1,Araquari/SC,-26.3703324,-48.7210994,2108,5333.46827
D1,Araquari/SC,-26.3703324,-48.7210994,32,80.96347
1,Arara/PB,-6.8271895,-35.7605703,355,2621.47393
D1,Arara/PB,-6.8271895,-35.7605703,10,73.84434
1,Araranguá/SC,-28.9348832,-49.4858389,6860,9961.22962
D1,Araranguá/SC,-28.9348832,-49.4858389,111,161.18025
1,Araraquara/SP,-21.7886713,-48.1773096,12232,5132.18567
D1,Araraquara/SP,-21.7886713,-48.1773096,214,89.78807
1,Araras/SP,-22.3569477,-47.3838889,9065,6689.74068
D1,Araras/SP,-22.3569477,-47.3838889,170,125.45570
1,Ararendá/CE,-4.7504395,-40.8303611,498,4544.21024
D1,Ararendá/CE,-4.7504395,-40.8303611,9,82.12428
1,Arari/MA,-3.4547602,-44.7772723,381,1272.88521
D1,Arari/MA,-3.4547602,-44.7772723,15,50.11359
1,Araricá/RS,-29.6168543,-50.929121,509,8819.96188
D1,Araricá/RS,-29.6168543,-50.929121,13,225.26425
1,Araripe/CE,-7.212861,-40.1359222,579,2673.87088
D1,Araripe/CE,-7.212861,-40.1359222,6,27.70851
1,Araripina/PE,-7.5768582,-40.5038509,4312,5081.07089
D1,Araripina/PE,-7.5768582,-40.5038509,70,82.48492
1,Araruama/RJ,-22.8733203,-42.3428897,3642,2711.98052
D1,Araruama/RJ,-22.8733203,-42.3428897,111,82.65509
1,Araruna/PB,-6.5321155,-35.7397595,542,2648.68299
D1,Araruna/PB,-6.5321155,-35.7397595,15,73.30303
1,Araruna/PR,-23.9320308,-52.4976047,702,5014.28571
D1,Araruna/PR,-23.9320308,-52.4976047,13,92.85714
1,Arataca/BA,-15.2617424,-39.4122943,379,3457.71371
D1,Arataca/BA,-15.2617424,-39.4122943,10,91.23255
1,Aratiba/RS,-27.3955734,-52.3024325,240,3877.84779
D1,Aratiba/RS,-27.3955734,-52.3024325,5,80.78850
1,Aratuba/CE,-4.4195958,-39.0463737,351,2974.07219
D1,Aratuba/CE,-4.4195958,-39.0463737,2,16.94628
1,Aratuípe/BA,-13.077137,-39.0010786,230,2602.69322
D1,Aratuípe/BA,-13.077137,-39.0010786,7,79.21240
1,Araucária/PR,-25.5861107,-49.4051209,14368,9826.69238
D1,Araucária/PR,-25.5861107,-49.4051209,171,116.95187
1,Arauá/SE,-11.2644014,-37.6181058,612,6152.60883
D1,Arauá/SE,-11.2644014,-37.6181058,12,120.63939
1,Araxá/MG,-19.5928536,-46.940241,6170,5748.25084
D1,Araxá/MG,-19.5928536,-46.940241,71,66.14681
1,Araçagi/PB,-6.8519969,-35.3835602,767,4532.82903
D1,Araçagi/PB,-6.8519969,-35.3835602,8,47.27853
1,Araçariguama/SP,-23.438611,-47.061389,812,3552.05599
D1,Araçariguama/SP,-23.438611,-47.061389,23,100.61242
1,Araçatuba/SP,-21.207992,-50.4390225,15557,7851.95504
D1,Araçatuba/SP,-21.207992,-50.4390225,320,161.51093
1,Araçaí/MG,-19.200833,-44.2475,33,1401.86916
1,Araçoiaba da Serra/SP,-23.5045367,-47.6168158,1410,4054.52036
D1,Araçoiaba da Serra/SP,-23.5045367,-47.6168158,31,89.14194
1,Araçoiaba/PE,-7.7856903,-35.0898881,266,1282.97883
D1,Araçoiaba/PE,-7.7856903,-35.0898881,20,96.46457
1,Araçu/GO,-16.3561579,-49.6815269,244,6999.42628
D1,Araçu/GO,-16.3561579,-49.6815269,5,143.43087
1,Araçuaí/MG,-16.8484451,-42.0661868,604,1645.23861
D1,Araçuaí/MG,-16.8484451,-42.0661868,16,43.58248
1,Araçás/BA,-12.2139176,-38.2026159,476,3899.08257
D1,Araçás/BA,-12.2139176,-38.2026159,7,57.33945
1,Araújos/MG,-19.948055,-45.165556,366,3893.20285
D1,Araújos/MG,-19.948055,-45.165556,2,21.27433
1,Arceburgo/MG,-21.364444,-46.939722,393,3611.13664
D1,Arceburgo/MG,-21.364444,-46.939722,7,64.32050
1,Arco-Íris/SP,-21.7741308,-50.4668814,60,3384.09475
D1,Arco-Íris/SP,-21.7741308,-50.4668814,4,225.60632
1,Arcos/MG,-20.282223,-45.539444,2543,6297.67211
D1,Arcos/MG,-20.282223,-45.539444,23,56.95889
1,Arcoverde/PE,-8.415192,-37.057748,4201,5614.65879
D1,Arcoverde/PE,-8.415192,-37.057748,86,114.93946
1,Areado/MG,-21.3582771,-46.1476688,398,2621.69818
D1,Areado/MG,-21.3582771,-46.1476688,8,52.69745
1,Areal/RJ,-22.2314922,-43.1056264,388,3062.59373
D1,Areal/RJ,-22.2314922,-43.1056264,15,118.39924
1,Arealva/SP,-22.0301906,-48.9111936,388,4504.81830
D1,Arealva/SP,-22.0301906,-48.9111936,2,23.22071
1,Areia Branca/RN,-4.9506652,-37.1263312,1440,5148.92552
D1,Areia Branca/RN,-4.9506652,-37.1263312,62,221.68985
1,Areia Branca/SE,-10.7591455,-37.3148072,1101,5892.11174
D1,Areia Branca/SE,-10.7591455,-37.3148072,23,123.08680
1,Areia de Baraúnas/PB,-7.1233949,-36.9446216,20,945.17958
1,Areia/PB,-6.9680243,-35.6994783,834,3681.14407
D1,Areia/PB,-6.9680243,-35.6994783,14,61.79379
1,Areial/PB,-7.0501306,-35.9245244,161,2291.16266
D1,Areial/PB,-7.0501306,-35.9245244,5,71.15412
1,Areias/SP,-22.5800929,-44.6975127,180,4620.12320
D1,Areias/SP,-22.5800929,-44.6975127,1,25.66735
1,Areiópolis/SP,-22.6758064,-48.6673653,411,3683.45582
D1,Areiópolis/SP,-22.6758064,-48.6673653,5,44.81090
1,Arenápolis/MT,-14.4610369,-56.8432806,911,9587.45527
D1,Arenápolis/MT,-14.4610369,-56.8432806,13,136.81330
1,Arenópolis/GO,-16.3859286,-51.55937,66,2602.52366
1,Argirita/MG,-21.612761,-42.8371922,205,7581.36095
D1,Argirita/MG,-21.612761,-42.8371922,5,184.91124
1,Aricanduva/MG,-17.8678,-42.5569,32,607.32587
1,Arinos/MG,-15.917223,-46.106111,194,1086.10458
D1,Arinos/MG,-15.917223,-46.106111,5,27.99239
1,Aripuanã/MT,-10.175806,-59.4439663,1458,6418.94867
D1,Aripuanã/MT,-10.175806,-59.4439663,22,96.85656
1,Ariquemes/RO,-9.9076522,-63.033069,13391,12226.65559
D1,Ariquemes/RO,-9.9076522,-63.033069,235,214.56680
1,Ariranha do Ivaí/PR,-24.3834527,-51.5876772,89,4307.84124
D1,Ariranha do Ivaí/PR,-24.3834527,-51.5876772,1,48.40271
1,Ariranha/SP,-21.18716,-48.790418,264,2704.64092
D1,Ariranha/SP,-21.18716,-48.790418,12,122.93822
1,Armazém/SC,-28.2624996,-49.0190126,918,10480.64848
D1,Armazém/SC,-28.2624996,-49.0190126,8,91.33463
1,Armação dos Búzios/RJ,-22.7597805,-41.8875267,2958,8579.63280
D1,Armação dos Búzios/RJ,-22.7597805,-41.8875267,27,78.31308
1,Arneiroz/CE,-6.3235099,-40.1603859,102,1300.35696
D1,Arneiroz/CE,-6.3235099,-40.1603859,6,76.49159
1,Aroazes/PI,-6.1108814,-41.7886137,331,5680.45306
D1,Aroazes/PI,-6.1108814,-41.7886137,9,154.45341
1,Aroeiras do Itaim/PI,-7.2797031,-41.5629681,94,3684.82948
D1,Aroeiras do Itaim/PI,-7.2797031,-41.5629681,1,39.20031
1,Aroeiras/PB,-7.5462904,-35.7080002,633,3311.36221
D1,Aroeiras/PB,-7.5462904,-35.7080002,3,15.69366
1,Arraial do Cabo/RJ,-22.9662839,-42.024427,503,1644.16697
D1,Arraial do Cabo/RJ,-22.9662839,-42.024427,9,29.41849
1,Arraial/PI,-6.6541632,-42.5335332,112,2372.88136
D1,Arraial/PI,-6.6541632,-42.5335332,2,42.37288
1,Arraias/TO,-12.9287788,-46.9437231,254,2411.23979
1,Arroio Grande/RS,-32.2384246,-53.0866661,810,4441.27646
D1,Arroio Grande/RS,-32.2384246,-53.0866661,14,76.76280
1,Arroio Trinta/SC,-26.9301976,-51.334928,333,9382.92477
D1,Arroio Trinta/SC,-26.9301976,-51.334928,3,84.53085
1,Arroio do Meio/RS,-29.4020392,-51.9444993,1322,6305.14618
D1,Arroio do Meio/RS,-29.4020392,-51.9444993,13,62.00219
1,Arroio do Padre/RS,-31.4428773,-52.4228985,84,2846.49271
D1,Arroio do Padre/RS,-31.4428773,-52.4228985,1,33.88682
1,Arroio do Sal/RS,-29.549852,-49.8874395,630,6129.00088
D1,Arroio do Sal/RS,-29.549852,-49.8874395,15,145.92859
1,Arroio do Tigre/RS,-29.334158,-53.0888935,718,5353.01573
D1,Arroio do Tigre/RS,-29.334158,-53.0888935,5,37.27727
1,Arroio dos Ratos/RS,-30.0894524,-51.7265541,530,3738.44960
D1,Arroio dos Ratos/RS,-30.0894524,-51.7265541,20,141.07357
1,Artur Nogueira/SP,-22.572737,-47.172679,2099,3792.91652
D1,Artur Nogueira/SP,-22.572737,-47.172679,50,90.35056
1,Aruanã/GO,-14.9162439,-51.0715692,289,2858.55589
D1,Aruanã/GO,-14.9162439,-51.0715692,5,49.45598
1,Arujá/SP,-23.396266,-46.3175449,4103,4501.02570
D1,Arujá/SP,-23.396266,-46.3175449,133,145.90212
1,Arvoredo/SC,-27.0752908,-52.4571847,208,9310.65354
D1,Arvoredo/SC,-27.0752908,-52.4571847,2,89.52551
1,Arvorezinha/RS,-28.87369,-52.17808,569,5459.08088
D1,Arvorezinha/RS,-28.87369,-52.17808,15,143.91250
1,Arês/RN,-6.1969216,-35.1642968,536,3717.83311
D1,Arês/RN,-6.1969216,-35.1642968,16,110.98009
1,Ascurra/SC,-26.9569975,-49.3767752,846,10604.16144
D1,Ascurra/SC,-26.9569975,-49.3767752,4,50.13788
1,Aspásia/SP,-20.160028,-50.728046,68,3740.37404
D1,Aspásia/SP,-20.160028,-50.728046,2,110.01100
1,Assaré/CE,-6.8746791,-39.8741385,1035,4408.38232
D1,Assaré/CE,-6.8746791,-39.8741385,22,93.70474
1,Assaí/PR,-23.3736041,-50.8454929,673,4500.46810
D1,Assaí/PR,-23.3736041,-50.8454929,18,120.36913
1,Assis Brasil/AC,-10.9409203,-69.5672108,1187,15755.24290
D1,Assis Brasil/AC,-10.9409203,-69.5672108,15,199.09743
1,Assis Chateaubriand/PR,-24.4054826,-53.5120468,2276,6826.63467
D1,Assis Chateaubriand/PR,-24.4054826,-53.5120468,30,89.98200
1,Assis/SP,-22.6620892,-50.420623,3938,3747.37123
D1,Assis/SP,-22.6620892,-50.420623,69,65.65988
1,Assunção do Piauí/PI,-5.8610212,-41.0485091,204,2594.42961
D1,Assunção do Piauí/PI,-5.8610212,-41.0485091,4,50.87117
1,Assunção/PB,-7.073396,-36.7274003,206,5112.93125
D1,Assunção/PB,-7.073396,-36.7274003,1,24.82005
1,Astolfo Dutra/MG,-21.3132636,-42.8624102,814,5704.27470
D1,Astolfo Dutra/MG,-21.3132636,-42.8624102,13,91.10021
1,Astorga/PR,-23.2350184,-51.6647074,1566,5975.04674
D1,Astorga/PR,-23.2350184,-51.6647074,22,83.94063
1,Atalaia do Norte/AM,-4.3658547,-70.1908742,2417,11849.20090
D1,Atalaia do Norte/AM,-4.3658547,-70.1908742,7,34.31709
1,Atalaia/AL,-9.5029595,-36.0219316,761,1606.67159
D1,Atalaia/AL,-9.5029595,-36.0219316,30,63.33791
1,Atalaia/PR,-23.1513833,-52.0529697,229,5900.54110
D1,Atalaia/PR,-23.1513833,-52.0529697,3,77.29967
1,Atalanta/SC,-27.421916,-49.778863,132,4131.45540
D1,Atalanta/SC,-27.421916,-49.778863,1,31.29890
1,Ataléia/MG,-18.04432,-41.1110524,729,5750.11832
D1,Ataléia/MG,-18.04432,-41.1110524,6,47.32608
1,Atibaia/SP,-23.1177393,-46.5547861,6118,4246.01632
D1,Atibaia/SP,-23.1177393,-46.5547861,107,74.26017
1,Atilio Vivacqua/ES,-20.9139369,-41.1947519,987,8153.65551
D1,Atilio Vivacqua/ES,-20.9139369,-41.1947519,16,132.17679
1,Augustinópolis/TO,-5.4662267,-47.8897519,1047,5616.04892
D1,Augustinópolis/TO,-5.4662267,-47.8897519,16,85.82310
1,Augusto Corrêa/PA,-1.0229335,-46.6404029,1592,3425.79243
D1,Augusto Corrêa/PA,-1.0229335,-46.6404029,28,60.25263
1,Augusto Pestana/RS,-28.5148413,-53.9906433,210,3180.85429
D1,Augusto Pestana/RS,-28.5148413,-53.9906433,2,30.29385
1,Augusto de Lima/MG,-18.1092963,-44.2651945,125,2576.78829
D1,Augusto de Lima/MG,-18.1092963,-44.2651945,4,82.45723
1,Aurelino Leal/BA,-14.3167137,-39.3256107,754,6673.15692
D1,Aurelino Leal/BA,-14.3167137,-39.3256107,20,177.00681
1,Auriflama/SP,-20.6840418,-50.5554616,983,6444.63384
D1,Auriflama/SP,-20.6840418,-50.5554616,20,131.12175
1,Aurilândia/GO,-16.6772599,-50.4641231,101,3302.81230
D1,Aurilândia/GO,-16.6772599,-50.4641231,3,98.10334
1,Aurora do Pará/PA,-2.1323199,-47.558436,841,2646.90146
D1,Aurora do Pará/PA,-2.1323199,-47.558436,10,31.47326
1,Aurora do Tocantins/TO,-12.71045,-46.407604,136,3595.03040
D1,Aurora do Tocantins/TO,-12.71045,-46.407604,2,52.86809
1,Aurora/CE,-6.9426019,-38.9693765,1004,4079.64242
D1,Aurora/CE,-6.9426019,-38.9693765,25,101.58472
1,Aurora/SC,-27.3166417,-49.6368502,403,7091.32500
D1,Aurora/SC,-27.3166417,-49.6368502,8,140.77072
1,Autazes/AM,-3.5833283,-59.1301518,2483,6162.81956
D1,Autazes/AM,-3.5833283,-59.1301518,80,198.56044
1,Avanhandava/SP,-21.4603331,-49.9465156,428,3088.24591
D1,Avanhandava/SP,-21.4603331,-49.9465156,17,122.66397
1,Avaré/SP,-23.1045215,-48.9259103,3071,3366.14346
D1,Avaré/SP,-23.1045215,-48.9259103,51,55.90144
1,Avaí/SP,-22.1564662,-49.3316395,162,2980.13245
D1,Avaí/SP,-22.1564662,-49.3316395,3,55.18764
1,Aveiro/PA,-3.6049239,-55.3310742,460,2804.19410
D1,Aveiro/PA,-3.6049239,-55.3310742,5,30.48037
1,Avelino Lopes/PI,-10.1346855,-43.9489525,216,1907.11637
D1,Avelino Lopes/PI,-10.1346855,-43.9489525,17,150.09712
1,Avelinópolis/GO,-16.4672409,-49.7578661,189,7845.57908
D1,Avelinópolis/GO,-16.4672409,-49.7578661,4,166.04400
1,Axixá do Tocantins/TO,-5.612747,-47.77007,642,6559.72208
D1,Axixá do Tocantins/TO,-5.612747,-47.77007,5,51.08818
1,Axixá/MA,-2.8379465,-44.0561053,158,1296.88911
D1,Axixá/MA,-2.8379465,-44.0561053,4,32.83264
1,Açailândia/MA,-4.9514278,-47.4844564,3986,3523.66051
D1,Açailândia/MA,-4.9514278,-47.4844564,120,106.08110
1,Açu/RN,-5.5836157,-36.9139541,3267,5595.71115
D1,Açu/RN,-5.5836157,-36.9139541,91,155.86462
1,Açucena/MG,-19.073056,-42.546666,261,2786.08027
D1,Açucena/MG,-19.073056,-42.546666,10,106.74637
1,Babaçulândia/TO,-7.2034355,-47.761613,485,4547.15920
D1,Babaçulândia/TO,-7.2034355,-47.761613,4,37.50234
1,Bacabal/MA,-4.2318132,-44.781167,3821,3646.34030
D1,Bacabal/MA,-4.2318132,-44.781167,90,85.88606
1,Bacabeira/MA,-2.9775747,-44.3155943,206,1194.06446
D1,Bacabeira/MA,-2.9775747,-44.3155943,4,23.18572
1,Bacuri/MA,-1.728894,-45.1417148,429,2299.77485
D1,Bacuri/MA,-1.728894,-45.1417148,4,21.44312
1,Bacurituba/MA,-2.7082587,-44.7381309,99,1746.03175
D1,Bacurituba/MA,-2.7082587,-44.7381309,1,17.63668
1,Bady Bassitt/SP,-20.9178969,-49.4517911,1721,9689.76972
D1,Bady Bassitt/SP,-20.9178969,-49.4517911,25,140.75784
1,Baependi/MG,-21.959162,-44.8899249,831,4328.35043
D1,Baependi/MG,-21.959162,-44.8899249,10,52.08605
1,Bagre/PA,-1.8994498,-50.2103844,658,2100.55866
D1,Bagre/PA,-1.8994498,-50.2103844,11,35.11572
1,Bagé/RS,-31.3314264,-54.1062808,4216,3474.67755
D1,Bagé/RS,-31.3314264,-54.1062808,94,77.47146
1,Baianópolis/BA,-12.3067564,-44.5383591,230,1651.23124
D1,Baianópolis/BA,-12.3067564,-44.5383591,2,14.35853
1,Baixa Grande do Ribeiro/PI,-7.862861,-45.2113289,1751,15002.99889
D1,Baixa Grande do Ribeiro/PI,-7.862861,-45.2113289,17,145.66018
1,Baixa Grande/BA,-11.9630941,-40.1657537,436,2132.13360
D1,Baixa Grande/BA,-11.9630941,-40.1657537,3,14.67064
1,Baixio/CE,-6.7303544,-38.7170095,196,3109.63033
D1,Baixio/CE,-6.7303544,-38.7170095,5,79.32730
1,Baixo Guandu/ES,-19.5138322,-41.0182089,2479,7962.86779
D1,Baixo Guandu/ES,-19.5138322,-41.0182089,45,144.54580
1,Baião/PA,-2.7903479,-49.6702845,523,1079.26288
D1,Baião/PA,-2.7903479,-49.6702845,21,43.33560
1,Balbinos/SP,-21.9006253,-49.3583966,277,4668.01483
D1,Balbinos/SP,-21.9006253,-49.3583966,3,50.55612
1,Baldim/MG,-19.2913568,-43.9558262,284,3639.62578
D1,Baldim/MG,-19.2913568,-43.9558262,6,76.89350
1,Baliza/GO,-16.1978119,-52.542789,114,2159.09091
D1,Baliza/GO,-16.1978119,-52.542789,2,37.87879
1,Balneário Arroio do Silva/SC,-28.9815269,-49.4189932,1340,9977.66195
D1,Balneário Arroio do Silva/SC,-28.9815269,-49.4189932,24,178.70439
1,Balneário Barra do Sul/SC,-26.459842,-48.6061471,1030,9333.93747
D1,Balneário Barra do Sul/SC,-26.459842,-48.6061471,18,163.11735
1,Balneário Camboriú/SC,-26.9924395,-48.6339782,19350,13271.96905
D1,Balneário Camboriú/SC,-26.9924395,-48.6339782,214,146.78043
1,Balneário Gaivota/SC,-29.1553098,-49.5808712,880,7815.27531
D1,Balneário Gaivota/SC,-29.1553098,-49.5808712,13,115.45293
1,Balneário Pinhal/RS,-30.2482978,-50.234585,609,4240.06127
D1,Balneário Pinhal/RS,-30.2482978,-50.234585,20,139.24668
1,Balneário Piçarras/SC,-26.7638889,-48.6716667,3011,12666.16187
D1,Balneário Piçarras/SC,-26.7638889,-48.6716667,25,105.16574
1,Balneário Rincão/SC,-28.8235718,-49.2241642,987,7623.97652
D1,Balneário Rincão/SC,-28.8235718,-49.2241642,22,169.93666
1,Balsa Nova/PR,-25.5842234,-49.6312741,811,6194.62267
D1,Balsa Nova/PR,-25.5842234,-49.6312741,12,91.65903
1,Balsas/MA,-7.53214,-46.037163,7558,7878.74365
D1,Balsas/MA,-7.53214,-46.037163,93,96.94670
1,Bambuí/MG,-20.0131996,-45.9777034,520,2175.91430
D1,Bambuí/MG,-20.0131996,-45.9777034,3,12.55335
1,Banabuiú/CE,-5.3046404,-38.919766,767,4201.35846
D1,Banabuiú/CE,-5.3046404,-38.919766,6,32.86591
1,Bananal/SP,-22.6828195,-44.3221095,584,5312.47157
D1,Bananal/SP,-22.6828195,-44.3221095,2,18.19340
1,Bananeiras/PB,-6.7537682,-35.6338343,746,3507.45216
D1,Bananeiras/PB,-6.7537682,-35.6338343,4,18.80671
1,Bandeira do Sul/MG,-21.728056,-46.385555,102,1765.31672
D1,Bandeira do Sul/MG,-21.728056,-46.385555,5,86.53513
1,Bandeira/MG,-15.884444,-40.559167,408,8560.63785
D1,Bandeira/MG,-15.884444,-40.559167,8,167.85564
1,Bandeirante/SC,-26.7677402,-53.6397596,122,4607.25076
D1,Bandeirante/SC,-26.7677402,-53.6397596,1,37.76435
1,Bandeirantes do Tocantins/TO,-7.7635698,-48.579148,246,6848.55234
D1,Bandeirantes do Tocantins/TO,-7.7635698,-48.579148,3,83.51893
1,Bandeirantes/MS,-19.9179623,-54.3646768,363,4995.87118
D1,Bandeirantes/MS,-19.9179623,-54.3646768,6,82.57638
1,Bandeirantes/PR,-23.107788,-50.370407,2006,6427.22117
D1,Bandeirantes/PR,-23.107788,-50.370407,49,156.99593
1,Bannach/PA,-7.3508505,-50.4064531,125,3832.00490
D1,Bannach/PA,-7.3508505,-50.4064531,2,61.31208
1,Banzaê/BA,-10.5827616,-38.6122305,732,5528.70091
D1,Banzaê/BA,-10.5827616,-38.6122305,4,30.21148
1,Baraúna/PB,-6.643394,-36.2531932,197,3968.57373
D1,Baraúna/PB,-6.643394,-36.2531932,2,40.29009
1,Baraúna/RN,-5.0775002,-37.61752,695,2417.64358
D1,Baraúna/RN,-5.0775002,-37.61752,17,59.13661
1,Barbacena/MG,-21.2254524,-43.7735087,3743,2708.31524
D1,Barbacena/MG,-21.2254524,-43.7735087,86,62.22685
1,Barbalha/CE,-7.3121067,-39.3036427,3003,4904.61880
D1,Barbalha/CE,-7.3121067,-39.3036427,59,96.36114
1,Barbosa Ferraz/PR,-24.0287182,-52.00811,522,4568.52792
D1,Barbosa Ferraz/PR,-24.0287182,-52.00811,6,52.51182
1,Barbosa/SP,-21.265661,-49.951816,263,3521.69255
D1,Barbosa/SP,-21.265661,-49.951816,5,66.95233
1,Barcarena/PA,-1.5107945,-48.6190679,6764,5324.85220
D1,Barcarena/PA,-1.5107945,-48.6190679,135,106.27662
1,Barcelona/RN,-5.9514918,-35.9260284,48,1201.80270
D1,Barcelona/RN,-5.9514918,-35.9260284,3,75.11267
1,Barcelos/AM,-0.9729214,-62.925635,3961,14331.71720
D1,Barcelos/AM,-0.9729214,-62.925635,51,184.52855
1,Bariri/SP,-22.0746355,-48.7394852,1833,5154.95810
D1,Bariri/SP,-22.0746355,-48.7394852,50,140.61533
1,Barra Bonita/SC,-26.6526364,-53.4419581,90,5451.24167
D1,Barra Bonita/SC,-26.6526364,-53.4419581,1,60.56935
1,Barra Bonita/SP,-22.490859,-48.558349,2192,6067.65211
D1,Barra Bonita/SP,-22.490859,-48.558349,50,138.40447
1,Barra D'Alcântara/PI,-6.5209258,-42.1071089,81,2049.59514
D1,Barra D'Alcântara/PI,-6.5209258,-42.1071089,3,75.91093
1,Barra Funda/RS,-27.9230048,-53.0401045,270,10584.08467
D1,Barra Funda/RS,-27.9230048,-53.0401045,5,196.00157
1,Barra Longa/MG,-20.2833541,-43.0423516,149,2971.08674
D1,Barra Longa/MG,-20.2833541,-43.0423516,2,39.88036
1,Barra Mansa/RJ,-22.5394843,-44.1735129,10134,5482.78716
D1,Barra Mansa/RJ,-22.5394843,-44.1735129,299,161.76765
1,Barra Velha/SC,-26.6338203,-48.6835001,2634,8821.16544
D1,Barra Velha/SC,-26.6338203,-48.6835001,53,177.49498
1,Barra da Estiva/BA,-13.6269662,-41.3278287,1159,5683.60141
D1,Barra da Estiva/BA,-13.6269662,-41.3278287,8,39.23107
1,Barra de Guabiraba/PE,-8.4173522,-35.6626669,332,2288.07719
D1,Barra de Guabiraba/PE,-8.4173522,-35.6626669,11,75.80979
1,Barra de Santa Rosa/PB,-6.7218007,-36.0564638,601,3878.16997
D1,Barra de Santa Rosa/PB,-6.7218007,-36.0564638,3,19.35859
1,Barra de Santana/PB,-7.5230865,-35.9988518,278,3329.74009
D1,Barra de Santana/PB,-7.5230865,-35.9988518,4,47.90993
1,Barra de Santo Antônio/AL,-9.4038098,-35.5117693,166,1033.10929
D1,Barra de Santo Antônio/AL,-9.4038098,-35.5117693,15,93.35325
1,Barra de São Francisco/ES,-18.7570902,-40.8916119,2426,5393.62814
D1,Barra de São Francisco/ES,-18.7570902,-40.8916119,77,171.19100
1,Barra de São Miguel/AL,-9.8261357,-35.8837777,243,2900.45357
D1,Barra de São Miguel/AL,-9.8261357,-35.8837777,6,71.61614
1,Barra de São Miguel/PB,-7.7528088,-36.3170996,219,3610.88211
D1,Barra de São Miguel/PB,-7.7528088,-36.3170996,1,16.48805
1,Barra do Bugres/MT,-15.0683712,-57.1853688,1760,4984.84720
D1,Barra do Bugres/MT,-15.0683712,-57.1853688,41,116.12428
1,Barra do Chapéu/SP,-24.472203,-49.023784,179,3107.63889
1,Barra do Choça/BA,-14.8638173,-40.5761637,1400,4485.88548
D1,Barra do Choça/BA,-14.8638173,-40.5761637,18,57.67567
1,Barra do Corda/MA,-5.496823,-45.248496,4365,4932.64928
D1,Barra do Corda/MA,-5.496823,-45.248496,48,54.24219
1,Barra do Garças/MT,-15.8916033,-52.2615413,5049,8258.77157
D1,Barra do Garças/MT,-15.8916033,-52.2615413,167,273.16594
1,Barra do Guarita/RS,-27.1888016,-53.7147086,90,2763.27909
D1,Barra do Guarita/RS,-27.1888016,-53.7147086,1,30.70310
1,Barra do Jacaré/PR,-23.1151788,-50.1813945,127,4566.70262
D1,Barra do Jacaré/PR,-23.1151788,-50.1813945,1,35.95829
1,Barra do Mendes/BA,-11.8053298,-42.057037,572,4135.03940
D1,Barra do Mendes/BA,-11.8053298,-42.057037,8,57.83272
1,Barra do Ouro/TO,-7.7113784,-47.6743925,94,2029.36097
D1,Barra do Ouro/TO,-7.7113784,-47.6743925,5,107.94473
1,Barra do Piraí/RJ,-22.4703403,-43.8263256,3670,3642.17379
D1,Barra do Piraí/RJ,-22.4703403,-43.8263256,162,160.77170
1,Barra do Quaraí/RS,-30.208947,-57.5505128,172,4069.07973
D1,Barra do Quaraí/RS,-30.208947,-57.5505128,2,47.31488
1,Barra do Ribeiro/RS,-30.2930206,-51.301437,652,4809.67837
D1,Barra do Ribeiro/RS,-30.2930206,-51.301437,35,258.18826
1,Barra do Rio Azul/RS,-27.4101581,-52.4117471,51,3081.57100
D1,Barra do Rio Azul/RS,-27.4101581,-52.4117471,1,60.42296
1,Barra do Rocha/BA,-14.2090974,-39.6004395,252,4490.37776
D1,Barra do Rocha/BA,-14.2090974,-39.6004395,3,53.45688
1,Barra do Turvo/SP,-24.756421,-48.5056942,311,4074.94759
D1,Barra do Turvo/SP,-24.756421,-48.5056942,10,131.02725
1,Barra dos Coqueiros/SE,-10.9075694,-37.0386249,3703,11972.19528
D1,Barra dos Coqueiros/SE,-10.9075694,-37.0386249,41,132.55739
1,Barra/BA,-11.0892702,-43.1420453,1147,2127.62011
D1,Barra/BA,-11.0892702,-43.1420453,17,31.53404
1,Barracão/PR,-26.252395,-53.6349576,697,6759.11559
D1,Barracão/PR,-26.252395,-53.6349576,11,106.67184
1,Barracão/RS,-27.6728964,-51.4582928,214,4071.53729
D1,Barracão/RS,-27.6728964,-51.4582928,5,95.12938
1,Barras/PI,-4.2446153,-42.2920241,3540,7502.38423
D1,Barras/PI,-4.2446153,-42.2920241,64,135.63633
1,Barreira/CE,-4.2883361,-38.641094,495,2192.88531
D1,Barreira/CE,-4.2883361,-38.641094,24,106.32171
1,Barreiras do Piauí/PI,-9.9224524,-45.4763776,43,1282.81623
D1,Barreiras do Piauí/PI,-9.9224524,-45.4763776,1,29.83294
1,Barreiras/BA,-12.1440031,-44.9967406,9789,6236.02484
D1,Barreiras/BA,-12.1440031,-44.9967406,112,71.34894
1,Barreirinha/AM,-2.798863,-57.067897,2069,6369.48558
D1,Barreirinha/AM,-2.798863,-57.067897,52,160.08374
1,Barreirinhas/MA,-2.7541271,-42.8259693,1447,2288.94127
D1,Barreirinhas/MA,-2.7541271,-42.8259693,29,45.87374
1,Barreiros/PE,-8.8159644,-35.1831905,447,1045.27172
D1,Barreiros/PE,-8.8159644,-35.1831905,43,100.55187
1,Barretos/SP,-20.5531437,-48.5697509,8244,6711.55146
D1,Barretos/SP,-20.5531437,-48.5697509,197,160.38035
1,Barrinha/SP,-21.1898849,-48.1550642,948,2857.14286
D1,Barrinha/SP,-21.1898849,-48.1550642,37,111.51296
1,Barro Alto/BA,-11.7618025,-41.9094904,575,3819.58284
D1,Barro Alto/BA,-11.7618025,-41.9094904,4,26.57101
1,Barro Alto/GO,-14.9696025,-48.9190985,922,8082.04769
D1,Barro Alto/GO,-14.9696025,-48.9190985,8,70.12623
1,Barro Duro/PI,-5.8180139,-42.5106589,482,6859.25715
D1,Barro Duro/PI,-5.8180139,-42.5106589,7,99.61577
1,Barro Preto/BA,-14.8068289,-39.4727588,436,8002.93686
D1,Barro Preto/BA,-14.8068289,-39.4727588,7,128.48752
1,Barro/CE,-7.1713587,-38.7742136,561,2465.06723
D1,Barro/CE,-7.1713587,-38.7742136,13,57.12277
1,Barrocas/BA,-11.5165,-39.099282894736845,499,3098.41664
D1,Barrocas/BA,-11.5165,-39.099282894736845,5,31.04626
1,Barrolândia/TO,-9.837246,-48.7264346,345,6105.11414
D1,Barrolândia/TO,-9.837246,-48.7264346,4,70.78393
1,Barroquinha/CE,-3.0200371,-41.1339229,862,5729.85908
D1,Barroquinha/CE,-3.0200371,-41.1339229,20,132.94337
1,Barros Cassal/RS,-29.094938,-52.5832366,344,3076.37274
D1,Barros Cassal/RS,-29.094938,-52.5832366,3,26.82883
1,Barroso/MG,-21.187222,-43.976111,488,2335.26343
D1,Barroso/MG,-21.187222,-43.976111,9,43.06838
1,Barueri/SP,-23.5112184,-46.8764612,16109,5815.90139
D1,Barueri/SP,-23.5112184,-46.8764612,535,193.15335
1,Barão de Antonina/SP,-23.6295651,-49.5632104,50,1429.38822
D1,Barão de Antonina/SP,-23.6295651,-49.5632104,1,28.58776
1,Barão de Cocais/MG,-19.9452437,-43.4870298,1823,5546.76565
D1,Barão de Cocais/MG,-19.9452437,-43.4870298,17,51.72519
1,Barão de Cotegipe/RS,-27.6214694,-52.3765316,437,6601.20846
D1,Barão de Cotegipe/RS,-27.6214694,-52.3765316,5,75.52870
1,Barão de Grajaú/MA,-6.7542591,-43.0263477,185,977.59459
D1,Barão de Grajaú/MA,-6.7542591,-43.0263477,1,5.28430
1,Barão de Melgaço/MT,-16.195776,-55.9668049,177,2168.05488
D1,Barão de Melgaço/MT,-16.195776,-55.9668049,8,97.99118
1,Barão de Monte Alto/MG,-21.244722,-42.2375,144,2689.57789
D1,Barão de Monte Alto/MG,-21.244722,-42.2375,6,112.06575
1,Barão do Triunfo/RS,-30.3909877,-51.7375349,250,3324.91023
D1,Barão do Triunfo/RS,-30.3909877,-51.7375349,3,39.89892
1,Barão/RS,-29.372474,-51.494908,332,5353.11190
D1,Barão/RS,-29.372474,-51.494908,5,80.61916
1,Bastos/SP,-21.9222474,-50.7317727,336,1603.58898
D1,Bastos/SP,-21.9222474,-50.7317727,12,57.27104
1,Bataguassu/MS,-21.715899,-52.422058,1695,7266.88103
D1,Bataguassu/MS,-21.715899,-52.422058,17,72.88317
1,Batalha/AL,-9.6733809,-37.1265481,753,4106.22751
D1,Batalha/AL,-9.6733809,-37.1265481,14,76.34420
1,Batalha/PI,-4.022391,-42.0780926,596,2215.20164
D1,Batalha/PI,-4.022391,-42.0780926,16,59.46850
1,Batatais/SP,-20.892867,-47.592149,1589,2523.02318
D1,Batatais/SP,-20.892867,-47.592149,51,80.97809
1,Batayporã/MS,-22.2976466,-53.2685608,523,4608.33554
D1,Batayporã/MS,-22.2976466,-53.2685608,11,96.92484
1,Baturité/CE,-4.3290203,-38.8821055,1147,3191.34137
D1,Baturité/CE,-4.3290203,-38.8821055,38,105.72883
1,Bauru/SP,-22.3218102,-49.0705863,26543,6997.94620
D1,Bauru/SP,-22.3218102,-49.0705863,444,117.05866
1,Bayeux/PB,-7.1301631,-34.936532,4468,4596.56595
D1,Bayeux/PB,-7.1301631,-34.936532,151,155.34500
1,Baía Formosa/RN,-6.3691885,-35.0063741,227,2435.09976
D1,Baía Formosa/RN,-6.3691885,-35.0063741,8,85.81849
1,Baía da Traição/PB,-6.691258,-34.9371244,1027,11290.67722
D1,Baía da Traição/PB,-6.691258,-34.9371244,9,98.94459
1,Bebedouro/SP,-20.949077,-48.479083,2668,3440.13926
D1,Bebedouro/SP,-20.949077,-48.479083,58,74.78564
1,Beberibe/CE,-4.1810469,-38.1298101,1747,3238.24353
D1,Beberibe/CE,-4.1810469,-38.1298101,34,63.02248
1,Bela Cruz/CE,-3.0529129,-40.167582,1850,5653.68865
D1,Bela Cruz/CE,-3.0529129,-40.167582,31,94.73749
1,Bela Vista da Caroba/PR,-25.8792818,-53.6672545,127,3673.70553
D1,Bela Vista da Caroba/PR,-25.8792818,-53.6672545,2,57.85363
1,Bela Vista de Goiás/GO,-16.9692949,-48.9513071,1487,4876.68897
D1,Bela Vista de Goiás/GO,-16.9692949,-48.9513071,29,95.10691
1,Bela Vista de Minas/MG,-19.8289721,-43.0973688,406,3956.34379
D1,Bela Vista de Minas/MG,-19.8289721,-43.0973688,9,87.70220
1,Bela Vista do Maranhão/MA,-3.7416367,-45.2514192,166,1471.76168
D1,Bela Vista do Maranhão/MA,-3.7416367,-45.2514192,9,79.79431
1,Bela Vista do Paraíso/PR,-22.9948493,-51.1907996,1074,6974.47886
D1,Bela Vista do Paraíso/PR,-22.9948493,-51.1907996,24,155.85428
1,Bela Vista do Piauí/PI,-7.9716353,-41.8715061,209,5186.10422
D1,Bela Vista do Piauí/PI,-7.9716353,-41.8715061,6,148.88337
1,Bela Vista do Toldo/SC,-26.274625,-50.466354,53,833.07136
D1,Bela Vista do Toldo/SC,-26.274625,-50.466354,1,15.71833
1,Bela Vista/MS,-22.107327,-56.5317344,395,1596.92743
D1,Bela Vista/MS,-22.107327,-56.5317344,11,44.47140
1,Belford Roxo/RJ,-22.7667284,-43.4033603,17333,3377.97544
D1,Belford Roxo/RJ,-22.7667284,-43.4033603,437,85.16560
1,Belmiro Braga/MG,-21.9486291,-43.413564,83,2423.35766
D1,Belmiro Braga/MG,-21.9486291,-43.413564,3,87.59124
1,Belmonte/BA,-15.8630837,-38.8792845,836,3567.00943
D1,Belmonte/BA,-15.8630837,-38.8792845,11,46.93433
1,Belmonte/SC,-26.8448262,-53.578916,146,5389.44260
D1,Belmonte/SC,-26.8448262,-53.578916,4,147.65596
1,Belo Campo/BA,-15.0338286,-41.2585109,393,2297.03665
D1,Belo Campo/BA,-15.0338286,-41.2585109,4,23.37951
1,Belo Horizonte/MG,-19.9227318,-43.9450948,116419,4616.93616
D1,Belo Horizonte/MG,-19.9227318,-43.9450948,2823,111.95433
1,Belo Jardim/PE,-8.3338293,-36.4176419,1827,2382.41162
D1,Belo Jardim/PE,-8.3338293,-36.4176419,47,61.28809
1,Belo Monte/AL,-9.8269944,-37.2787165,215,3204.17288
D1,Belo Monte/AL,-9.8269944,-37.2787165,6,89.41878
1,Belo Oriente/MG,-19.2232523,-42.4807033,1604,5942.06120
D1,Belo Oriente/MG,-19.2232523,-42.4807033,27,100.02223
1,Belo Vale/MG,-20.407778,-44.024167,316,4093.79453
D1,Belo Vale/MG,-20.407778,-44.024167,6,77.73028
1,Belterra/PA,-2.636091,-54.937392,566,3172.82359
D1,Belterra/PA,-2.636091,-54.937392,14,78.47974
1,Belágua/MA,-3.1604031,-43.5085052,279,3706.16366
D1,Belágua/MA,-3.1604031,-43.5085052,2,26.56748
1,Belém de Maria/PE,-8.6242497,-35.8388934,126,1039.43244
D1,Belém de Maria/PE,-8.6242497,-35.8388934,3,24.74839
1,Belém do Brejo do Cruz/PB,-6.1880727,-37.5332267,471,6409.03524
D1,Belém do Brejo do Cruz/PB,-6.1880727,-37.5332267,5,68.03647
1,Belém do Piauí/PI,-7.3767305,-40.9712156,374,10426.54028
D1,Belém do Piauí/PI,-7.3767305,-40.9712156,6,167.27070
1,Belém do São Francisco/PE,-8.7517707,-38.9625715,326,1572.60010
D1,Belém do São Francisco/PE,-8.7517707,-38.9625715,5,24.11963
1,Belém/AL,-9.5715351,-36.492841,76,1774.04295
D1,Belém/AL,-9.5715351,-36.492841,3,70.02801
1,Belém/PA,-1.45056,-48.4682453,75931,5063.27848
D1,Belém/PA,-1.45056,-48.4682453,2892,192.84615
1,Belém/PB,-6.6967586,-35.5369626,1385,7822.64897
D1,Belém/PB,-6.6967586,-35.5369626,21,118.61056
1,Beneditinos/PI,-5.4565671,-42.3605061,529,5051.08374
D1,Beneditinos/PI,-5.4565671,-42.3605061,18,171.87052
1,Benedito Leite/MA,-7.2173453,-44.5523331,255,4522.88045
D1,Benedito Leite/MA,-7.2173453,-44.5523331,2,35.47357
1,Benedito Novo/SC,-26.7840657,-49.3629511,663,5630.57325
D1,Benedito Novo/SC,-26.7840657,-49.3629511,7,59.44798
1,Benevides/PA,-1.3555577,-48.252235,2561,4016.12094
D1,Benevides/PA,-1.3555577,-48.252235,56,87.81834
1,Benjamin Constant do Sul/RS,-27.5105555,-52.6007689,134,6843.71808
1,Benjamin Constant/AM,-4.3782748,-70.0290603,2396,5453.51087
D1,Benjamin Constant/AM,-4.3782748,-70.0290603,64,145.66974
1,Bento Fernandes/RN,-5.6926846,-35.8207423,48,868.77828
D1,Bento Fernandes/RN,-5.6926846,-35.8207423,2,36.19910
1,Bento Gonçalves/RS,-29.1654014,-51.5197627,10153,8335.59108
D1,Bento Gonçalves/RS,-29.1654014,-51.5197627,190,155.98959
1,Bento de Abreu/SP,-21.2707225,-50.8120444,148,4925.12479
1,Bequimão/MA,-2.4495376,-44.7884889,265,1244.18987
D1,Bequimão/MA,-2.4495376,-44.7884889,13,61.03573
1,Berilo/MG,-16.9515764,-42.4643732,10,84.23181
1,Berizal/MG,-15.6118785,-41.7417382,69,1448.36272
1,Bernardino Batista/PB,-6.4532173,-38.5495418,197,5571.26697
1,Bernardino de Campos/SP,-23.0140216,-49.4760724,275,2464.59939
D1,Bernardino de Campos/SP,-23.0140216,-49.4760724,6,53.77308
1,Bernardo Sayão/TO,-7.8794244,-48.8968905,171,3844.42446
D1,Bernardo Sayão/TO,-7.8794244,-48.8968905,4,89.92806
1,Bernardo do Mearim/MA,-4.6315929,-44.7617508,173,2848.67446
D1,Bernardo do Mearim/MA,-4.6315929,-44.7617508,3,49.39898
1,Bertioga/SP,-23.848568,-46.139586,3311,5115.64668
D1,Bertioga/SP,-23.848568,-46.139586,65,100.42798
1,Bertolínia/PI,-7.6372159,-43.9540611,587,10659.16107
D1,Bertolínia/PI,-7.6372159,-43.9540611,6,108.95224
1,Bertópolis/MG,-17.063333,-40.573889,222,4818.75407
1,Beruri/AM,-3.9007135,-61.3717319,1913,9520.72861
D1,Beruri/AM,-3.9007135,-61.3717319,31,154.28259
1,Betim/MG,-19.968056,-44.198333,18428,4143.13465
D1,Betim/MG,-19.968056,-44.198333,492,110.61549
1,Betânia do Piauí/PI,-8.1460635,-40.7961387,142,2286.63446
D1,Betânia do Piauí/PI,-8.1460635,-40.7961387,2,32.20612
1,Betânia/PE,-8.2742779,-38.0351767,225,1762.63220
D1,Betânia/PE,-8.2742779,-38.0351767,3,23.50176
1,Bezerros/PE,-8.2372132,-35.7558262,2480,4073.58739
D1,Bezerros/PE,-8.2372132,-35.7558262,79,129.76347
1,Bias Fortes/MG,-21.605833,-43.756944,74,2222.88976
D1,Bias Fortes/MG,-21.605833,-43.756944,2,60.07810
1,Bicas/MG,-21.7213723,-43.0604327,605,4156.93280
D1,Bicas/MG,-21.7213723,-43.0604327,19,130.54830
1,Biguaçu/SC,-27.4961277,-48.6542432,8213,11819.64712
D1,Biguaçu/SC,-27.4961277,-48.6542432,96,138.15733
1,Bilac/SP,-21.403962,-50.47464,439,5408.40212
D1,Bilac/SP,-21.403962,-50.47464,9,110.87840
1,Biquinhas/MG,-18.783611,-45.502222,28,1120.89672
1,Birigui/SP,-21.2908491,-50.34144,7359,5892.71558
D1,Birigui/SP,-21.2908491,-50.34144,197,157.74765
1,Biritiba Mirim/SP,-23.5697765,-46.0407456,751,2280.17974
D1,Biritiba Mirim/SP,-23.5697765,-46.0407456,46,139.66480
1,Biritinga/BA,-11.6227908,-38.8066738,222,1388.88889
D1,Biritinga/BA,-11.6227908,-38.8066738,2,12.51251
1,Bituruna/PR,-26.161281,-51.5533319,278,1695.12195
D1,Bituruna/PR,-26.161281,-51.5533319,2,12.19512
1,Blumenau/SC,-26.9195567,-49.0658025,36951,10211.54882
D1,Blumenau/SC,-26.9195567,-49.0658025,350,96.72383
1,Boa Esperança do Iguaçu/PR,-25.6362851,-53.2139114,103,4170.04049
1,Boa Esperança do Sul/SP,-21.9930206,-48.3917372,575,3828.73885
D1,Boa Esperança do Sul/SP,-21.9930206,-48.3917372,10,66.58676
1,Boa Esperança/ES,-18.5395472,-40.2904088,796,5274.31752
D1,Boa Esperança/ES,-18.5395472,-40.2904088,25,165.65068
1,Boa Esperança/MG,-21.0901253,-45.5660195,1294,3217.38482
D1,Boa Esperança/MG,-21.0901253,-45.5660195,39,96.96909
1,Boa Esperança/PR,-24.2411024,-52.7860277,191,4719.54534
D1,Boa Esperança/PR,-24.2411024,-52.7860277,5,123.54831
1,Boa Hora/PI,-4.4094627,-42.1255341,366,5370.50624
D1,Boa Hora/PI,-4.4094627,-42.1255341,5,73.36757
1,Boa Nova/BA,-14.365907,-40.2063056,427,3463.37903
D1,Boa Nova/BA,-14.365907,-40.2063056,9,72.99862
1,Boa Ventura de São Roque/PR,-24.88177,-51.5441292,218,3424.98036
D1,Boa Ventura de São Roque/PR,-24.88177,-51.5441292,3,47.13276
1,Boa Ventura/PB,-7.4202462,-38.2156782,195,3674.39231
D1,Boa Ventura/PB,-7.4202462,-38.2156782,4,75.37215
1,Boa Viagem/CE,-5.1261877,-39.7300055,1889,3461.16496
D1,Boa Viagem/CE,-5.1261877,-39.7300055,50,91.61368
1,Boa Vista da Aparecida/PR,-25.4357216,-53.4067721,446,5915.11936
D1,Boa Vista da Aparecida/PR,-25.4357216,-53.4067721,13,172.41379
1,Boa Vista das Missões/RS,-27.6677983,-53.3127622,62,2963.67113
D1,Boa Vista das Missões/RS,-27.6677983,-53.3127622,1,47.80115
1,Boa Vista do Buricá/RS,-27.6687782,-54.1111913,473,7047.07986
D1,Boa Vista do Buricá/RS,-27.6687782,-54.1111913,4,59.59476
1,Boa Vista do Cadeado/RS,-28.5783827,-53.8123759,107,4335.49433
1,Boa Vista do Gurupi/MA,-1.7981168,-46.3071882,14,167.02458
D1,Boa Vista do Gurupi/MA,-1.7981168,-46.3071882,3,35.79098
1,Boa Vista do Incra/RS,-28.8195551,-53.3866624,109,4166.66667
D1,Boa Vista do Incra/RS,-28.8195551,-53.3866624,1,38.22630
1,Boa Vista do Ramos/AM,-2.9716927,-57.5869819,803,4091.51126
D1,Boa Vista do Ramos/AM,-2.9716927,-57.5869819,11,56.04810
1,Boa Vista do Sul/RS,-29.3510488,-51.6779679,181,6515.47876
D1,Boa Vista do Sul/RS,-29.3510488,-51.6779679,2,71.99424
1,Boa Vista do Tupim/BA,-12.6605988,-40.6083594,158,852.62533
D1,Boa Vista do Tupim/BA,-12.6605988,-40.6083594,3,16.18909
1,Boa Vista/PB,-7.2620711,-36.2415161,307,4302.13004
D1,Boa Vista/PB,-7.2620711,-36.2415161,2,28.02691
1,Boa Vista/RR,2.8208478,-60.6719582,63218,15064.38668
D1,Boa Vista/RR,2.8208478,-60.6719582,898,213.98683
1,Boca da Mata/AL,-9.6452054,-36.2116658,1424,5205.43939
D1,Boca da Mata/AL,-9.6452054,-36.2116658,29,106.00965
1,Boca do Acre/AM,-8.7553487,-67.3930873,2279,6580.04908
D1,Boca do Acre/AM,-8.7553487,-67.3930873,21,60.63231
1,Bocaina de Minas/MG,-22.167778,-44.394722,77,1513.06740
D1,Bocaina de Minas/MG,-22.167778,-44.394722,2,39.30045
1,Bocaina do Sul/SC,-27.745494,-49.942279,316,9059.63303
D1,Bocaina do Sul/SC,-27.745494,-49.942279,3,86.00917
1,Bocaina/PI,-6.9445939,-41.3224599,216,4794.67259
D1,Bocaina/PI,-6.9445939,-41.3224599,3,66.59267
1,Bocaina/SP,-22.1421831,-48.522276,980,7870.22165
D1,Bocaina/SP,-22.1421831,-48.522276,19,152.58593
1,Bocaiúva do Sul/PR,-25.206591,-49.114131,713,5430.72587
D1,Bocaiúva do Sul/PR,-25.206591,-49.114131,4,30.46691
1,Bocaiúva/MG,-17.1160208,-43.8122678,978,1946.03629
D1,Bocaiúva/MG,-17.1160208,-43.8122678,20,39.79624
1,Bodocó/PE,-7.777592,-39.933797,1344,3502.00636
D1,Bodocó/PE,-7.777592,-39.933797,17,44.29621
1,Bodoquena/MS,-20.5508775,-56.6769653,116,1479.96938
D1,Bodoquena/MS,-20.5508775,-56.6769653,3,38.27507
1,Bodó/RN,-5.9866104,-36.4134824,70,3186.16295
1,Bofete/SP,-23.1019554,-48.2610535,397,3330.25753
D1,Bofete/SP,-23.1019554,-48.2610535,4,33.55423
1,Boituva/SP,-23.2838893,-47.6738231,3029,4872.12482
D1,Boituva/SP,-23.2838893,-47.6738231,49,78.81615
1,Bom Conselho/PE,-9.169191,-36.685683,1141,2339.69693
D1,Bom Conselho/PE,-9.169191,-36.685683,34,69.71928
1,Bom Despacho/MG,-19.7375242,-45.2517288,2126,4166.34005
D1,Bom Despacho/MG,-19.7375242,-45.2517288,40,78.38834
1,Bom Jardim da Serra/SC,-28.3380324,-49.625588,509,10666.38726
D1,Bom Jardim da Serra/SC,-28.3380324,-49.625588,3,62.86672
1,Bom Jardim de Goiás/GO,-16.2062659,-52.172793,406,4577.74270
D1,Bom Jardim de Goiás/GO,-16.2062659,-52.172793,4,45.10091
1,Bom Jardim de Minas/MG,-21.9476466,-44.1906033,141,2183.00046
D1,Bom Jardim de Minas/MG,-21.9476466,-44.1906033,1,15.48227
1,Bom Jardim/MA,-3.54129,-45.606004,1046,2501.07599
D1,Bom Jardim/MA,-3.54129,-45.606004,31,74.12367
1,Bom Jardim/PE,-7.7961572,-35.5871696,891,2228.44709
D1,Bom Jardim/PE,-7.7961572,-35.5871696,39,97.54146
1,Bom Jardim/RJ,-22.1515328,-42.4186683,697,2523.89919
D1,Bom Jardim/RJ,-22.1515328,-42.4186683,15,54.31634
1,Bom Jesus da Lapa/BA,-13.250571,-43.410754,1947,2794.92406
D1,Bom Jesus da Lapa/BA,-13.250571,-43.410754,22,31.58106
1,Bom Jesus da Penha/MG,-21.0165299,-46.5226644,192,4524.03393
D1,Bom Jesus da Penha/MG,-21.0165299,-46.5226644,2,47.12535
1,Bom Jesus da Serra/BA,-14.3724084,-40.5047119,331,3369.64268
D1,Bom Jesus da Serra/BA,-14.3724084,-40.5047119,5,50.90095
1,Bom Jesus das Selvas/MA,-4.4878075,-46.8526639,2114,6115.65944
D1,Bom Jesus das Selvas/MA,-4.4878075,-46.8526639,19,54.96572
1,Bom Jesus de Goiás/GO,-18.2174587,-49.739721,1517,5914.69120
D1,Bom Jesus de Goiás/GO,-18.2174587,-49.739721,39,152.05864
1,Bom Jesus do Amparo/MG,-19.7045132,-43.4752911,103,1679.43910
D1,Bom Jesus do Amparo/MG,-19.7045132,-43.4752911,3,48.91570
1,Bom Jesus do Araguaia/MT,-12.1725897,-51.5074425,377,5621.83120
D1,Bom Jesus do Araguaia/MT,-12.1725897,-51.5074425,1,14.91202
1,Bom Jesus do Galho/MG,-19.8283191,-42.3162256,302,2032.02799
D1,Bom Jesus do Galho/MG,-19.8283191,-42.3162256,11,74.01426
1,Bom Jesus do Itabapoana/RJ,-21.1341025,-41.680095,2046,5499.55649
D1,Bom Jesus do Itabapoana/RJ,-21.1341025,-41.680095,43,115.58208
1,Bom Jesus do Norte/ES,-21.1254776,-41.6711646,726,7287.69323
D1,Bom Jesus do Norte/ES,-21.1254776,-41.6711646,17,170.64846
1,Bom Jesus do Oeste/SC,-26.6929713,-53.0967453,95,4441.32772
D1,Bom Jesus do Oeste/SC,-26.6929713,-53.0967453,2,93.50164
1,Bom Jesus do Sul/PR,-26.1922507,-53.6002033,177,5048.48831
D1,Bom Jesus do Sul/PR,-26.1922507,-53.6002033,3,85.56760
1,Bom Jesus do Tocantins/PA,-5.0471796,-48.5978362,478,2792.38229
D1,Bom Jesus do Tocantins/PA,-5.0471796,-48.5978362,5,29.20902
1,Bom Jesus do Tocantins/TO,-8.96306,-48.165043,113,2256.38978
1,Bom Jesus dos Perdões/SP,-23.1353864,-46.4648052,947,3644.41024
D1,Bom Jesus dos Perdões/SP,-23.1353864,-46.4648052,9,34.63537
1,Bom Jesus/PB,-6.8156725,-38.6551841,88,3417.47573
D1,Bom Jesus/PB,-6.8156725,-38.6551841,3,116.50485
1,Bom Jesus/PI,-9.0711644,-44.3583926,2300,9059.75499
D1,Bom Jesus/PI,-9.0711644,-44.3583926,25,98.47560
1,Bom Jesus/RN,-5.9887544,-35.5821149,499,4860.23181
D1,Bom Jesus/RN,-5.9887544,-35.5821149,9,87.65949
1,Bom Jesus/RS,-28.6692723,-50.4346894,473,4182.50951
D1,Bom Jesus/RS,-28.6692723,-50.4346894,12,106.11018
1,Bom Jesus/SC,-26.7350604,-52.3916519,269,8799.47661
D1,Bom Jesus/SC,-26.7350604,-52.3916519,3,98.13543
1,Bom Lugar/MA,-4.3728019,-45.0366054,328,1995.37657
D1,Bom Lugar/MA,-4.3728019,-45.0366054,6,36.50079
1,Bom Princípio do Piauí/PI,-3.1912777,-41.6430185,55,973.27907
D1,Bom Princípio do Piauí/PI,-3.1912777,-41.6430185,3,53.08795
1,Bom Princípio/RS,-29.489788,-51.3566782,987,6923.88636
D1,Bom Princípio/RS,-29.489788,-51.3566782,14,98.21115
1,Bom Progresso/RS,-27.5490948,-53.8655601,49,2580.30542
1,Bom Repouso/MG,-22.4657069,-46.1485376,309,2932.52349
D1,Bom Repouso/MG,-22.4657069,-46.1485376,8,75.92294
1,Bom Retiro do Sul/RS,-29.6000007,-51.9359243,740,5972.55851
D1,Bom Retiro do Sul/RS,-29.6000007,-51.9359243,13,104.92333
1,Bom Retiro/SC,-27.798993,-49.486994,428,4254.47316
D1,Bom Retiro/SC,-27.798993,-49.486994,8,79.52286
1,Bom Sucesso de Itararé/SP,-24.3190016,-49.1446207,69,1731.92771
D1,Bom Sucesso de Itararé/SP,-24.3190016,-49.1446207,4,100.40161
1,Bom Sucesso do Sul/PR,-26.0749256,-52.8348629,220,6760.90965
D1,Bom Sucesso do Sul/PR,-26.0749256,-52.8348629,4,122.92563
1,Bom Sucesso/MG,-21.0323516,-44.7598082,229,1300.61907
D1,Bom Sucesso/MG,-21.0323516,-44.7598082,4,22.71824
1,Bom Sucesso/PB,-6.4458948,-37.9297662,121,2441.48507
1,Bom Sucesso/PR,-23.7088019,-51.7651297,409,5786.64403
D1,Bom Sucesso/PR,-23.7088019,-51.7651297,9,127.33447
1,Bombinhas/SC,-27.1519159,-48.4875691,2867,14098.84436
D1,Bombinhas/SC,-27.1519159,-48.4875691,33,162.28178
1,Bonfim do Piauí/PI,-9.1648678,-42.8734415,185,3254.17766
D1,Bonfim do Piauí/PI,-9.1648678,-42.8734415,2,35.18030
1,Bonfim/MG,-20.3266626, -44.2386157,204,2973.76093
D1,Bonfim/MG,-20.3266626, -44.2386157,4,58.30904
1,Bonfim/RR,3.3613818,-59.8427241,1558,12407.42215
D1,Bonfim/RR,3.3613818,-59.8427241,21,167.23740
1,Bonfinópolis de Minas/MG,-16.5660011,-45.98645,269,4941.21969
D1,Bonfinópolis de Minas/MG,-16.5660011,-45.98645,10,183.68846
1,Bonfinópolis/GO,-16.6172709,-48.9615701,409,4123.39954
D1,Bonfinópolis/GO,-16.6172709,-48.9615701,12,120.97994
1,Boninal/BA,-12.7095183,-41.8299984,429,2969.68019
D1,Boninal/BA,-12.7095183,-41.8299984,4,27.68933
1,Bonito de Minas/MG,-15.3191266,-44.7544,14,123.14188
1,Bonito de Santa Fé/PB,-7.3143332,-38.5146677,333,2769.92181
D1,Bonito de Santa Fé/PB,-7.3143332,-38.5146677,11,91.49892
1,Bonito/BA,-11.9665473,-41.2649896,505,2990.99739
D1,Bonito/BA,-11.9665473,-41.2649896,5,29.61384
1,Bonito/MS,-21.1264766,-56.4902208,1552,6994.14151
D1,Bonito/MS,-21.1264766,-56.4902208,23,103.65029
1,Bonito/PA,-1.3605722,-47.3049907,321,1941.92377
D1,Bonito/PA,-1.3605722,-47.3049907,12,72.59528
1,Bonito/PE,-8.4721161,-35.7314591,526,1379.96170
D1,Bonito/PE,-8.4721161,-35.7314591,28,73.45804
1,Bonópolis/GO,-13.649331,-49.8329113,96,2136.65702
D1,Bonópolis/GO,-13.649331,-49.8329113,1,22.25684
1,Boqueirão do Leão/RS,-29.30332,-52.4296817,371,4816.93067
D1,Boqueirão do Leão/RS,-29.30332,-52.4296817,14,181.77097
1,Boqueirão do Piauí/PI,-4.4850148,-42.1095161,350,5446.62309
D1,Boqueirão do Piauí/PI,-4.4850148,-42.1095161,6,93.37068
1,Boqueirão/PB,-7.487004,-36.130887,1056,5909.34527
D1,Boqueirão/PB,-7.487004,-36.130887,16,89.53553
1,Boquim/SE,-11.1450175,-37.6204228,1321,4910.96323
D1,Boquim/SE,-11.1450175,-37.6204228,28,104.09309
1,Boquira/BA,-12.8184859,-42.7270883,341,1586.26785
D1,Boquira/BA,-12.8184859,-42.7270883,5,23.25906
1,Boracéia/SP,-22.195355,-48.7801925,379,7785.53821
D1,Boracéia/SP,-22.195355,-48.7801925,6,123.25390
1,Borba/AM,-4.3934778,-59.5947721,1440,3449.26703
D1,Borba/AM,-4.3934778,-59.5947721,44,105.39427
1,Borborema/PB,-6.8066718,-35.5990191,112,2118.40363
D1,Borborema/PB,-6.8066718,-35.5990191,3,56.74295
1,Borborema/SP,-21.6212706,-49.074135,643,3977.97575
D1,Borborema/SP,-21.6212706,-49.074135,18,111.35857
1,Borda da Mata/MG,-22.274167,-46.165278,795,4053.22729
D1,Borda da Mata/MG,-22.274167,-46.165278,24,122.36158
1,Borebi/SP,-22.5700178,-48.9714871,98,3652.62766
D1,Borebi/SP,-22.5700178,-48.9714871,2,74.54342
1,Borrazópolis/PR,-23.9393362,-51.5850786,431,6693.58596
D1,Borrazópolis/PR,-23.9393362,-51.5850786,12,186.36434
1,Borá/SP,-22.2701088,-50.544407,23,2744.63007
D1,Borá/SP,-22.2701088,-50.544407,1,119.33174
1,Bossoroca/RS,-28.7278885,-54.9120278,131,2111.20064
D1,Bossoroca/RS,-28.7278885,-54.9120278,10,161.16035
1,Botelhos/MG,-21.65,-46.394722,405,2709.21132
D1,Botelhos/MG,-21.65,-46.394722,4,26.75764
1,Botucatu/SP,-22.8879628,-48.4410712,8317,5614.66280
D1,Botucatu/SP,-22.8879628,-48.4410712,108,72.90893
1,Botumirim/MG,-16.862778,-43.011111,105,1669.84733
D1,Botumirim/MG,-16.862778,-43.011111,1,15.90331
1,Botuporã/BA,-13.3744752,-42.5198469,145,1431.53322
D1,Botuporã/BA,-13.3744752,-42.5198469,3,29.61793
1,Botuverá/SC,-27.200749,-49.068892,686,12889.89102
D1,Botuverá/SC,-27.200749,-49.068892,5,93.94964
1,Bozano/RS,-28.3669953,-53.7705165,144,6821.41165
D1,Bozano/RS,-28.3669953,-53.7705165,1,47.37091
1,Braga/RS,-27.617348,-53.740514,99,2990.03322
D1,Braga/RS,-27.617348,-53.740514,2,60.40471
1,Braganey/PR,-24.8179919,-53.118506,237,4403.56745
D1,Braganey/PR,-24.8179919,-53.118506,3,55.74136
1,Bragança Paulista/SP,-22.9520235,-46.5418586,8722,5114.55261
D1,Bragança Paulista/SP,-22.9520235,-46.5418586,145,85.02753
1,Bragança/PA,-1.0573967,-46.7635406,3300,2559.84610
D1,Bragança/PA,-1.0573967,-46.7635406,108,83.77678
1,Branquinha/AL,-9.2478057,-36.0152009,334,3193.11663
D1,Branquinha/AL,-9.2478057,-36.0152009,8,76.48184
1,Brasil Novo/PA,-3.3055853,-52.539198,987,6587.46579
D1,Brasil Novo/PA,-3.3055853,-52.539198,21,140.15885
1,Brasileira/PI,-4.131182,-41.7824969,330,3953.51623
D1,Brasileira/PI,-4.131182,-41.7824969,6,71.88211
1,Brasilândia de Minas/MG,-17.0096469,-46.0087183,660,3940.76905
D1,Brasilândia de Minas/MG,-17.0096469,-46.0087183,7,41.79604
1,Brasilândia do Sul/PR,-24.1975793,-53.527551,179,6924.56480
D1,Brasilândia do Sul/PR,-24.1975793,-53.527551,1,38.68472
1,Brasilândia do Tocantins/TO,-8.3886619,-48.4842729,84,3799.18589
D1,Brasilândia do Tocantins/TO,-8.3886619,-48.4842729,1,45.22840
1,Brasilândia/MS,-21.255575,-52.0365617,280,2362.27115
D1,Brasilândia/MS,-21.255575,-52.0365617,5,42.18341
1,Brasiléia/AC,-11.0010413,-68.7487894,1919,7186.72759
D1,Brasiléia/AC,-11.0010413,-68.7487894,27,101.11602
1,Brasnorte/MT,-12.1227151,-58.0050109,960,4766.63357
D1,Brasnorte/MT,-12.1227151,-58.0050109,8,39.72195
1,Brasília de Minas/MG,-16.2075114,-44.430559,527,1626.29224
D1,Brasília de Minas/MG,-16.2075114,-44.430559,5,15.42972
1,Brasília/DF,-15.7934036,-47.8823172,309547,10131.97720
D1,Brasília/DF,-15.7934036,-47.8823172,5002,163.72360
1,Brazabrantes/GO,-16.4291635,-49.3858216,272,7261.07848
D1,Brazabrantes/GO,-16.4291635,-49.3858216,2,53.39028
1,Brazópolis/MG,-22.4742842,-45.6165577,483,3351.83900
D1,Brazópolis/MG,-22.4742842,-45.6165577,17,117.97363
1,Braço do Norte/SC,-28.2728633,-49.1622712,5420,15999.52769
D1,Braço do Norte/SC,-28.2728633,-49.1622712,44,129.88546
1,Braço do Trombudo/SC,-27.358578,-49.882145,350,9286.28283
D1,Braço do Trombudo/SC,-27.358578,-49.882145,3,79.59671
1,Braúna/SP,-21.5015319,-50.3175246,222,3866.92214
D1,Braúna/SP,-21.5015319,-50.3175246,7,121.92998
1,Braúnas/MG,-19.055556,-42.716111,106,2222.68819
D1,Braúnas/MG,-19.055556,-42.716111,3,62.90627
1,Brejetuba/ES,-20.1465817,-41.2902303,1157,9310.37258
D1,Brejetuba/ES,-20.1465817,-41.2902303,5,40.23497
1,Brejinho de Nazaré/TO,-11.0205883,-48.5722906,192,3478.89110
D1,Brejinho de Nazaré/TO,-11.0205883,-48.5722906,6,108.71535
1,Brejinho/PE,-7.3482153,-37.28538,334,4460.47009
D1,Brejinho/PE,-7.3482153,-37.28538,4,53.41880
1,Brejinho/RN,-6.1957907,-35.3583019,635,4965.98107
D1,Brejinho/RN,-6.1957907,-35.3583019,6,46.92266
1,Brejo Alegre/SP,-21.1671191,-50.1850393,188,6507.44202
D1,Brejo Alegre/SP,-21.1671191,-50.1850393,9,311.52648
1,Brejo Grande do Araguaia/PA,-5.7011449,-48.4037308,721,9785.55917
D1,Brejo Grande do Araguaia/PA,-5.7011449,-48.4037308,5,67.86102
1,Brejo Grande/SE,-10.4287358,-36.4667918,242,2897.16270
D1,Brejo Grande/SE,-10.4287358,-36.4667918,9,107.74572
1,Brejo Santo/CE,-7.4909841,-38.9859152,3886,7796.63737
D1,Brejo Santo/CE,-7.4909841,-38.9859152,40,80.25360
1,Brejo da Madre de Deus/PE,-8.1409718,-36.3712527,1420,2772.08394
D1,Brejo da Madre de Deus/PE,-8.1409718,-36.3712527,38,74.18253
1,Brejo de Areia/MA,-4.3316785,-45.5833334,278,3084.09141
D1,Brejo de Areia/MA,-4.3316785,-45.5833334,6,66.56312
1,Brejo do Cruz/PB,-6.32926065,-37.48746163303929,1178,8292.27087
D1,Brejo do Cruz/PB,-6.32926065,-37.48746163303929,14,98.54991
1,Brejo do Piauí/PI,-8.207583,-42.8359849,46,1195.42620
D1,Brejo do Piauí/PI,-8.207583,-42.8359849,3,77.96258
1,Brejo dos Santos/PB,-6.3769367,-37.8243125,266,4115.09901
D1,Brejo dos Santos/PB,-6.3769367,-37.8243125,4,61.88119
1,Brejo/MA,-3.6804397,-42.7529313,728,1986.30324
D1,Brejo/MA,-3.6804397,-42.7529313,18,49.11189
1,Brejolândia/BA,-12.4843845,-43.9611861,128,1205.50009
D1,Brejolândia/BA,-12.4843845,-43.9611861,7,65.92579
1,Brejão/PE,-9.029146,-36.566034,137,1524.42417
D1,Brejão/PE,-9.029146,-36.566034,4,44.50873
1,Brejões/BA,-13.1033754,-39.7909837,449,3157.08058
D1,Brejões/BA,-13.1033754,-39.7909837,7,49.21952
1,Breu Branco/PA,-3.7785073,-49.5684795,460,683.18185
D1,Breu Branco/PA,-3.7785073,-49.5684795,29,43.07016
1,Breves/PA,-1.68036,-50.479085,3599,3477.39548
D1,Breves/PA,-1.68036,-50.479085,102,98.55358
1,Britânia/GO,-15.2427599,-51.1602061,372,6417.11230
D1,Britânia/GO,-15.2427599,-51.1602061,1,17.25030
1,Brochier/RS,-29.556766,-51.5963047,240,4702.19436
1,Brodowski/SP,-20.984532,-47.657217,1312,5190.48938
D1,Brodowski/SP,-20.984532,-47.657217,35,138.46580
1,Brotas de Macaúbas/BA,-12.0019007,-42.6257506,52,513.32675
1,Brotas/SP,-22.2840884,-48.1267265,297,1205.55285
D1,Brotas/SP,-22.2840884,-48.1267265,11,44.65011
1,Brumadinho/MG,-20.143611,-44.2,2202,5414.84287
D1,Brumadinho/MG,-20.143611,-44.2,33,81.14887
1,Brumado/BA,-14.29507325,-41.659307508575985,5583,8291.37893
D1,Brumado/BA,-14.29507325,-41.659307508575985,61,90.59182
1,Brunópolis/SC,-27.310953,-50.837585,145,6123.31081
D1,Brunópolis/SC,-27.310953,-50.837585,3,126.68919
1,Brusque/SC,-27.0964628,-48.9136323,18464,13409.93108
D1,Brusque/SC,-27.0964628,-48.9136323,152,110.39371
1,Brás Pires/MG,-20.8483109,-43.2430524,104,2422.54833
D1,Brás Pires/MG,-20.8483109,-43.2430524,5,116.46867
1,Bueno Brandão/MG,-22.441976,-46.3517971,326,2966.06314
D1,Bueno Brandão/MG,-22.441976,-46.3517971,10,90.98353
1,Buenos Aires/PE,-7.7218931,-35.326587,106,803.63912
D1,Buenos Aires/PE,-7.7218931,-35.326587,13,98.55951
1,Buenópolis/MG,-17.8756607,-44.1749365,164,1584.08191
D1,Buenópolis/MG,-17.8756607,-44.1749365,6,57.95422
1,Buerarema/BA,-14.9571177,-39.3008035,1068,5834.15274
D1,Buerarema/BA,-14.9571177,-39.3008035,31,169.34338
1,Bugre/MG,-19.4257687,-42.2556,286,7180.51720
D1,Bugre/MG,-19.4257687,-42.2556,9,225.96033
1,Bujari/AC,-9.8309656,-67.9520886,728,6986.56430
D1,Bujari/AC,-9.8309656,-67.9520886,8,76.77543
1,Bujaru/PA,-1.5169239,-48.0410699,931,3163.76117
D1,Bujaru/PA,-1.5169239,-48.0410699,26,88.35423
1,Buri/SP,-23.79849,-48.598924,1002,5018.78287
D1,Buri/SP,-23.79849,-48.598924,19,95.16654
1,Buritama/SP,-21.0664017,-50.1448077,1285,7435.91227
D1,Buritama/SP,-21.0664017,-50.1448077,36,208.32128
1,Buriti Alegre/GO,-18.1377879,-49.0404411,594,6263.18009
D1,Buriti Alegre/GO,-18.1377879,-49.0404411,14,147.61704
1,Buriti Bravo/MA,-5.8391884,-43.8367876,1068,4461.33924
D1,Buriti Bravo/MA,-5.8391884,-43.8367876,10,41.77284
1,Buriti de Goiás/GO,-16.180644,-50.4287479,131,5290.79160
D1,Buriti de Goiás/GO,-16.180644,-50.4287479,1,40.38772
1,Buriti do Tocantins/TO,-5.3187439,-48.2256609,434,3774.89780
D1,Buriti do Tocantins/TO,-5.3187439,-48.2256609,2,17.39584
1,Buriti dos Lopes/PI,-3.1776723,-41.8707444,890,4493.36093
D1,Buriti dos Lopes/PI,-3.1776723,-41.8707444,14,70.68208
1,Buriti dos Montes/PI,-5.3136171,-41.0971256,356,4307.84124
D1,Buriti dos Montes/PI,-5.3136171,-41.0971256,2,24.20136
1,Buriti/MA,-3.9430944,-42.9244281,735,2552.26057
D1,Buriti/MA,-3.9430944,-42.9244281,6,20.83478
1,Buriticupu/MA,-4.3227472,-46.4516989,2681,3673.45820
D1,Buriticupu/MA,-4.3227472,-46.4516989,27,36.99492
1,Buritinópolis/GO,-14.4589282,-46.4293104,97,2954.61468
1,Buritirama/BA,-10.7148421,-43.6362327,608,2857.68002
D1,Buritirama/BA,-10.7148421,-43.6362327,15,70.50197
1,Buritirana/MA,-5.5897455,-47.0148915,249,1609.87910
D1,Buritirana/MA,-5.5897455,-47.0148915,16,103.44605
1,Buritis/MG,-15.621389,-46.423889,730,2918.48239
D1,Buritis/MG,-15.621389,-46.423889,9,35.98129
1,Buritis/RO,-10.2054937,-63.8281954,3548,8791.75339
D1,Buritis/RO,-10.2054937,-63.8281954,37,91.68401
1,Buritizal/SP,-20.1933264,-47.7097165,107,2370.40319
D1,Buritizal/SP,-20.1933264,-47.7097165,4,88.61320
1,Buritizeiro/MG,-17.3667765,-44.9647781,588,2090.96405
D1,Buritizeiro/MG,-17.3667765,-44.9647781,15,53.34092
1,Butiá/RS,-30.1256795,-51.9692224,787,3756.20466
D1,Butiá/RS,-30.1256795,-51.9692224,30,143.18442
1,Buíque/PE,-8.6239732,-37.157296,1380,2342.19861
D1,Buíque/PE,-8.6239732,-37.157296,22,37.33940
1,Bálsamo/SP,-20.7343722,-49.5807484,837,9158.55126
D1,Bálsamo/SP,-20.7343722,-49.5807484,31,339.20560
0,CASO SEM LOCALIZAÇÃO DEFINIDA/AL,-9.931093434363673,-35.609611600637464,582,17.43895
D0,CASO SEM LOCALIZAÇÃO DEFINIDA/AL,-9.931093434363673,-35.609611600637464,18,0.53935
0,CASO SEM LOCALIZAÇÃO DEFINIDA/BA,-13.415069300066518,-38.14174656569957,14968,100.63831
D0,CASO SEM LOCALIZAÇÃO DEFINIDA/BA,-13.415069300066518,-38.14174656569957,189,1.27075
0,CASO SEM LOCALIZAÇÃO DEFINIDA/CE,-3.3445126297392798,-38.624961942434304,8358,91.52353
D0,CASO SEM LOCALIZAÇÃO DEFINIDA/CE,-3.3445126297392798,-38.624961942434304,49,0.53657
0,CASO SEM LOCALIZAÇÃO DEFINIDA/ES,-20.30989267097039,-39.81745156645774,2787,69.35165
D0,CASO SEM LOCALIZAÇÃO DEFINIDA/ES,-20.30989267097039,-39.81745156645774,125,3.11050
0,CASO SEM LOCALIZAÇÃO DEFINIDA/GO,-16.701590966270153,-49.164524059025034,2201,31.36063
D0,CASO SEM LOCALIZAÇÃO DEFINIDA/GO,-16.701590966270153,-49.164524059025034,138,1.96627
0,CASO SEM LOCALIZAÇÃO DEFINIDA/MG,-19.97049116501593,-43.8852149072783,14675,69.32375
D0,CASO SEM LOCALIZAÇÃO DEFINIDA/MG,-19.97049116501593,-43.8852149072783,388,1.83289
0,CASO SEM LOCALIZAÇÃO DEFINIDA/MS,-20.391549234908513,-54.645156949758444,1237,44.51264
D0,CASO SEM LOCALIZAÇÃO DEFINIDA/MS,-20.391549234908513,-54.645156949758444,25,0.89961
0,CASO SEM LOCALIZAÇÃO DEFINIDA/MT,-15.54791153961863,-56.17143998972475,2186,62.73558
D0,CASO SEM LOCALIZAÇÃO DEFINIDA/MT,-15.54791153961863,-56.17143998972475,122,3.50125
0,CASO SEM LOCALIZAÇÃO DEFINIDA/PA,-0.09317078214359542,-48.0050231510481,2120,24.64295
D0,CASO SEM LOCALIZAÇÃO DEFINIDA/PA,-0.09317078214359542,-48.0050231510481,76,0.88343
0,CASO SEM LOCALIZAÇÃO DEFINIDA/PE,-8.121628543819208,-34.57313921302556,1582,16.55319
D0,CASO SEM LOCALIZAÇÃO DEFINIDA/PE,-8.121628543819208,-34.57313921302556,22,0.23020
0,CASO SEM LOCALIZAÇÃO DEFINIDA/PI,-2.683810218391744,-41.470898009352254,1085,33.14772
D0,CASO SEM LOCALIZAÇÃO DEFINIDA/PI,-2.683810218391744,-41.470898009352254,20,0.61102
0,CASO SEM LOCALIZAÇÃO DEFINIDA/PR,-25.69415946385943,-48.10141676336737,4890,42.76735
D0,CASO SEM LOCALIZAÇÃO DEFINIDA/PR,-25.69415946385943,-48.10141676336737,105,0.91832
0,CASO SEM LOCALIZAÇÃO DEFINIDA/RN,-5.749310788669161,-34.95302586257457,1369,39.03785
D0,CASO SEM LOCALIZAÇÃO DEFINIDA/RN,-5.749310788669161,-34.95302586257457,28,0.79844
0,CASO SEM LOCALIZAÇÃO DEFINIDA/RR,2.813328208465927,-60.663338675861986,2426,400.48798
D0,CASO SEM LOCALIZAÇÃO DEFINIDA/RR,2.813328208465927,-60.663338675861986,24,3.96196
0,CASO SEM LOCALIZAÇÃO DEFINIDA/SC,-27.675643660562308,-48.18313219398259,13915,194.21370
0,CASO SEM LOCALIZAÇÃO DEFINIDA/SP,-24.30968974555485,-46.21366504207253,15905,34.63704
D0,CASO SEM LOCALIZAÇÃO DEFINIDA/SP,-24.30968974555485,-46.21366504207253,469,1.02136
0,CASO SEM LOCALIZAÇÃO DEFINIDA/TO,-10.213012114749148,-48.40023803990334,1004,63.83252
D0,CASO SEM LOCALIZAÇÃO DEFINIDA/TO,-10.213012114749148,-48.40023803990334,10,0.63578
1,Caapiranga/AM,-3.3188884,-61.2096404,539,4057.81826
D1,Caapiranga/AM,-3.3188884,-61.2096404,19,143.03998
1,Caaporã/PB,-7.510234,-34.9154114,1331,6062.40036
D1,Caaporã/PB,-7.510234,-34.9154114,22,100.20496
1,Caarapó/MS,-22.6349267,-54.8240903,2150,7027.75145
D1,Caarapó/MS,-22.6349267,-54.8240903,17,55.56827
1,Caatiba/BA,-14.9782759,-40.4092325,562,8662.14550
D1,Caatiba/BA,-14.9782759,-40.4092325,6,92.47842
1,Cabaceiras do Paraguaçu/BA,-12.5377868,-39.1901339,311,1644.54550
D1,Cabaceiras do Paraguaçu/BA,-12.5377868,-39.1901339,2,10.57586
1,Cabaceiras/PB,-7.4899156,-36.2860501,273,4822.46953
D1,Cabaceiras/PB,-7.4899156,-36.2860501,1,17.66472
1,Cabeceira Grande/MG,-16.0297,-47.0906,149,2132.22667
D1,Cabeceira Grande/MG,-16.0297,-47.0906,3,42.93074
1,Cabeceiras do Piauí/PI,-4.4733665,-42.3098716,320,3010.34807
D1,Cabeceiras do Piauí/PI,-4.4733665,-42.3098716,8,75.25870
1,Cabeceiras/GO,-15.7995459,-46.9264991,168,2087.99403
D1,Cabeceiras/GO,-15.7995459,-46.9264991,4,49.71414
1,Cabedelo/PB,-6.97324,-34.8351609,5683,8264.13832
D1,Cabedelo/PB,-6.97324,-34.8351609,111,161.41463
1,Cabixi/RO,-13.4956065,-60.5424442,466,8982.26677
D1,Cabixi/RO,-13.4956065,-60.5424442,9,173.47726
1,Cabo Frio/RJ,-22.8804369,-42.0189227,7683,3334.95386
D1,Cabo Frio/RJ,-22.8804369,-42.0189227,352,152.79237
1,Cabo Verde/MG,-21.4743338,-46.3964995,266,1889.87567
D1,Cabo Verde/MG,-21.4743338,-46.3964995,5,35.52398
1,Cabo de Santo Agostinho/PE,-8.2838945,-35.0320984,3090,1478.86515
D1,Cabo de Santo Agostinho/PE,-8.2838945,-35.0320984,323,154.58687
1,Cabreúva/SP,-23.3075813,-47.1324417,2375,4709.59170
D1,Cabreúva/SP,-23.3075813,-47.1324417,54,107.08124
1,Cabrobó/PE,-8.5083701,-39.3106961,1151,3335.94180
D1,Cabrobó/PE,-8.5083701,-39.3106961,12,34.77958
1,Cabrália Paulista/SP,-22.4562909,-49.3385645,157,3700.21211
D1,Cabrália Paulista/SP,-22.4562909,-49.3385645,2,47.13646
1,Cacaulândia/RO,-10.3380043,-62.9007231,345,5503.27006
D1,Cacaulândia/RO,-10.3380043,-62.9007231,6,95.70904
1,Cacequi/RS,-29.8838059,-54.8273443,135,1086.69404
D1,Cacequi/RS,-29.8838059,-54.8273443,4,32.19834
1,Cachoeira Alta/GO,-18.7618269,-50.9432431,961,7587.24143
D1,Cachoeira Alta/GO,-18.7618269,-50.9432431,13,102.63698
1,Cachoeira Dourada/GO,-18.4934204,-49.481062,244,3038.22687
D1,Cachoeira Dourada/GO,-18.4934204,-49.481062,4,49.80700
1,Cachoeira Dourada/MG,-18.517136,-49.5002062,111,4101.99557
1,Cachoeira Grande/MA,-2.9290492,-44.0573223,193,2036.29458
D1,Cachoeira Grande/MA,-2.9290492,-44.0573223,5,52.75375
1,Cachoeira Paulista/SP,-22.666498,-45.015384,1105,3290.55120
D1,Cachoeira Paulista/SP,-22.666498,-45.015384,25,74.44686
1,Cachoeira da Prata/MG,-19.524723,-44.453056,170,4734.05737
D1,Cachoeira da Prata/MG,-19.524723,-44.453056,2,55.69479
1,Cachoeira de Goiás/GO,-16.6688414,-50.6435997,36,2682.56334
1,Cachoeira de Minas/MG,-22.3554043,-45.7796324,399,3445.89343
D1,Cachoeira de Minas/MG,-22.3554043,-45.7796324,4,34.54530
1,Cachoeira de Pajeú/MG,-15.965833,-41.496666,293,3103.15611
D1,Cachoeira de Pajeú/MG,-15.965833,-41.496666,5,52.95488
1,Cachoeira do Arari/PA,-1.0143572,-48.9621089,346,1437.83245
D1,Cachoeira do Arari/PA,-1.0143572,-48.9621089,13,54.02261
1,Cachoeira do Piriá/PA,-1.7599443,-46.5446954,601,1736.54252
D1,Cachoeira do Piriá/PA,-1.7599443,-46.5446954,3,8.66827
1,Cachoeira do Sul/RS,-30.0474778,-52.8905413,3484,4255.57903
D1,Cachoeira do Sul/RS,-30.0474778,-52.8905413,50,61.07318
1,Cachoeira dos Índios/PB,-6.9259193,-38.6742159,421,4085.39544
D1,Cachoeira dos Índios/PB,-6.9259193,-38.6742159,12,116.44833
1,Cachoeira/BA,-12.5998256,-38.9665918,913,2719.93327
D1,Cachoeira/BA,-12.5998256,-38.9665918,16,47.66586
1,Cachoeiras de Macacu/RJ,-22.4626861,-42.6534414,1983,3343.84432
D1,Cachoeiras de Macacu/RJ,-22.4626861,-42.6534414,62,104.54783
1,Cachoeirinha/PE,-8.4906364,-36.2338963,338,1648.70006
D1,Cachoeirinha/PE,-8.4906364,-36.2338963,22,107.31184
1,Cachoeirinha/RS,-29.9493353,-51.0898927,7795,5939.50015
D1,Cachoeirinha/RS,-29.9493353,-51.0898927,199,151.63060
1,Cachoeirinha/TO,-6.118647,-47.9208885,116,5078.80911
D1,Cachoeirinha/TO,-6.118647,-47.9208885,2,87.56567
1,Cachoeiro de Itapemirim/ES,-20.848084,-41.11129,18063,8577.37109
D1,Cachoeiro de Itapemirim/ES,-20.848084,-41.11129,350,166.20051
1,Cacimba de Areia/PB,-7.1288513,-37.1575194,23,622.46279
D1,Cacimba de Areia/PB,-7.1288513,-37.1575194,1,27.06360
1,Cacimba de Dentro/PB,-6.6425101,-35.7929304,762,4435.90639
D1,Cacimba de Dentro/PB,-6.6425101,-35.7929304,18,104.78519
1,Cacimbas/PB,-7.2125451,-37.0593398,154,2139.18600
D1,Cacimbas/PB,-7.2125451,-37.0593398,6,83.34491
1,Cacimbinhas/AL,-9.401212,-36.991082,405,3719.34980
D1,Cacimbinhas/AL,-9.401212,-36.991082,4,36.73432
1,Cacique Doble/RS,-27.7700117,-51.6616409,220,4335.82972
D1,Cacique Doble/RS,-27.7700117,-51.6616409,3,59.12495
1,Cacoal/RO,-11.4333,-61.4420502,8100,9430.33775
D1,Cacoal/RO,-11.4333,-61.4420502,116,135.05175
1,Caconde/SP,-21.527995,-46.643659,712,3745.59419
D1,Caconde/SP,-21.527995,-46.643659,5,26.30333
1,Caculé/BA,-14.4990734,-42.2233006,745,3198.66043
D1,Caculé/BA,-14.4990734,-42.2233006,9,38.64154
1,Caetanos/BA,-14.3387456,-40.9085971,402,2751.91676
D1,Caetanos/BA,-14.3387456,-40.9085971,5,34.22782
1,Caetanópolis/MG,-19.2947496,-44.4138386,572,4868.49945
D1,Caetanópolis/MG,-19.2947496,-44.4138386,4,34.04545
1,Caetité/BA,-14.0691776,-42.4852428,1316,2576.30039
D1,Caetité/BA,-14.0691776,-42.4852428,10,19.57675
1,Caeté/MG,-19.897777,-43.670278,1023,2270.96144
D1,Caeté/MG,-19.897777,-43.670278,32,71.03692
1,Caetés/PE,-8.7728788,-36.6255835,937,3241.76585
D1,Caetés/PE,-8.7728788,-36.6255835,11,38.05702
1,Cafarnaum/BA,-11.691399,-41.468823,687,3710.90585
D1,Cafarnaum/BA,-11.691399,-41.468823,11,59.41771
1,Cafeara/PR,-22.78905,-51.714195,165,5585.64658
D1,Cafeara/PR,-22.78905,-51.714195,2,67.70481
1,Cafelândia/PR,-24.6176963,-53.3218057,1116,6046.81404
D1,Cafelândia/PR,-24.6176963,-53.3218057,6,32.50975
1,Cafelândia/SP,-21.8054355,-49.6030627,563,3155.29900
D1,Cafelândia/SP,-21.8054355,-49.6030627,20,112.08877
1,Cafezal do Sul/PR,-23.900508,-53.512418,139,3467.19880
D1,Cafezal do Sul/PR,-23.900508,-53.512418,1,24.94388
1,Caiabu/SP,-22.0143038,-51.2356597,54,1287.86072
D1,Caiabu/SP,-22.0143038,-51.2356597,4,95.39709
1,Caiana/MG,-20.695555,-41.924723,92,1660.35012
D1,Caiana/MG,-20.695555,-41.924723,2,36.09457
1,Caiapônia/GO,-16.9538779,-51.8090761,631,3302.45460
D1,Caiapônia/GO,-16.9538779,-51.8090761,13,68.03789
1,Caibaté/RS,-28.290475,-54.645407,39,808.62534
D1,Caibaté/RS,-28.290475,-54.645407,4,82.93593
1,Caibi/SC,-27.0751925,-53.2502133,373,6084.82871
D1,Caibi/SC,-27.0751925,-53.2502133,4,65.25285
1,Caicó/RN,-6.4594544,-37.0971911,8007,11715.90360
D1,Caicó/RN,-6.4594544,-37.0971911,94,137.54152
1,Caieiras/SP,-23.3644621,-46.7484765,4767,4638.28752
D1,Caieiras/SP,-23.3644621,-46.7484765,142,138.16590
1,Cairu/BA,-13.4860505,-39.0455744,921,4998.10061
D1,Cairu/BA,-13.4860505,-39.0455744,9,48.84137
1,Caiuá/SP,-21.8319357,-51.9887179,177,2976.79112
D1,Caiuá/SP,-21.8319357,-51.9887179,2,33.63606
1,Caiçara do Norte/RN,-5.0645017,-36.0561226,194,2956.86633
D1,Caiçara do Norte/RN,-5.0645017,-36.0561226,4,60.96632
1,Caiçara do Rio do Vento/RN,-5.757968,-36.00089,138,3714.67026
D1,Caiçara do Rio do Vento/RN,-5.757968,-36.00089,3,80.75370
1,Caiçara/PB,-6.6146866,-35.4681434,515,7161.72994
D1,Caiçara/PB,-6.6146866,-35.4681434,10,139.06272
1,Caiçara/RS,-27.2750478,-53.4310053,312,6638.29787
D1,Caiçara/RS,-27.2750478,-53.4310053,4,85.10638
1,Cajamar/SP,-23.3561111,-46.8769444,2303,2955.06454
D1,Cajamar/SP,-23.3561111,-46.8769444,94,120.61488
1,Cajapió/MA,-2.8778715,-44.6746871,62,552.78174
D1,Cajapió/MA,-2.8778715,-44.6746871,3,26.74750
1,Cajari/MA,-3.3213076,-45.0118757,132,678.62835
D1,Cajari/MA,-3.3213076,-45.0118757,4,20.56450
1,Cajati/SP,-24.7272376,-48.1077914,2596,9110.68997
D1,Cajati/SP,-24.7272376,-48.1077914,54,189.51358
1,Cajazeiras do Piauí/PI,-6.794271,-42.3935024,25,699.69214
D1,Cajazeiras do Piauí/PI,-6.794271,-42.3935024,1,27.98769
1,Cajazeiras/PB,-6.8897849,-38.5570389,5120,8219.74988
D1,Cajazeiras/PB,-6.8897849,-38.5570389,92,147.69863
1,Cajazeirinhas/PB,-6.961442,-37.7993733,101,3151.32605
1,Cajobi/SP,-20.8776238,-48.8106972,483,4558.32390
D1,Cajobi/SP,-20.8776238,-48.8106972,13,122.68781
1,Cajueiro da Praia/PI,-2.931114,-41.340801,450,5863.95622
D1,Cajueiro da Praia/PI,-2.931114,-41.340801,12,156.37217
1,Cajueiro/AL,-9.399589,-36.1524309,431,2020.53350
D1,Cajueiro/AL,-9.399589,-36.1524309,18,84.38423
1,Cajuri/MG,-20.7901414,-42.7954489,198,4982.38551
D1,Cajuri/MG,-20.7901414,-42.7954489,1,25.16356
1,Cajuru/SP,-21.2759978,-47.3046035,550,2083.88588
D1,Cajuru/SP,-21.2759978,-47.3046035,18,68.19990
1,Caldas Brandão/PB,-7.1027959,-35.3254676,388,6417.46609
D1,Caldas Brandão/PB,-7.1027959,-35.3254676,6,99.23917
1,Caldas Novas/GO,-17.745,-48.625,5448,5845.74445
D1,Caldas Novas/GO,-17.745,-48.625,96,103.00871
1,Caldas/MG,-21.923611,-46.386111,415,2853.99904
D1,Caldas/MG,-21.923611,-46.386111,12,82.52527
1,Caldazinha/GO,-16.7116649,-49.0012601,150,3898.12890
D1,Caldazinha/GO,-16.7116649,-49.0012601,2,51.97505
1,Caldeirão Grande do Piauí/PI,-7.3310393,-40.6374433,210,3632.58952
D1,Caldeirão Grande do Piauí/PI,-7.3310393,-40.6374433,1,17.29805
1,Caldeirão Grande/BA,-11.0208483,-40.3041387,527,3935.47905
D1,Caldeirão Grande/BA,-11.0208483,-40.3041387,6,44.80621
1,Califórnia/PR,-23.6672543,-51.3554556,548,6367.65048
D1,Califórnia/PR,-23.6672543,-51.3554556,9,104.57820
1,Calmon/SC,-26.6023644,-51.0992893,19,569.71514
D1,Calmon/SC,-26.6023644,-51.0992893,2,59.97001
1,Calumbi/PE,-7.9389746,-38.1516871,369,6420.74126
D1,Calumbi/PE,-7.9389746,-38.1516871,2,34.80077
1,Calçado/PE,-8.7413446,-36.3351787,251,2278.09040
D1,Calçado/PE,-8.7413446,-36.3351787,2,18.15211
1,Calçoene/AP,2.4981757,-50.9539503,1544,13656.46559
D1,Calçoene/AP,2.4981757,-50.9539503,9,79.60375
1,Camacan/BA,-15.4166631,-39.4930088,2080,6498.78148
D1,Camacan/BA,-15.4166631,-39.4930088,48,149.97188
1,Camacho/MG,-20.625556,-45.156667,49,1707.91216
D1,Camacho/MG,-20.625556,-45.156667,1,34.85535
1,Camalaú/PB,-7.885031,-36.824191,251,4161.83054
D1,Camalaú/PB,-7.885031,-36.824191,5,82.90499
1,Camamu/BA,-13.9438142,-39.1060917,1667,4711.43519
D1,Camamu/BA,-13.9438142,-39.1060917,33,93.26776
1,Camanducaia/MG,-22.755278,-46.144444,1840,8439.97982
D1,Camanducaia/MG,-22.755278,-46.144444,25,114.67364
1,Camapuã/MS,-19.5291747,-54.0434641,409,2986.92763
D1,Camapuã/MS,-19.5291747,-54.0434641,8,58.42401
1,Camaquã/RS,-30.8524752,-51.8075619,3493,5254.36987
D1,Camaquã/RS,-30.8524752,-51.8075619,55,82.73414
1,Camaragibe/PE,-8.0213832,-34.9810768,3385,2130.28402
D1,Camaragibe/PE,-8.0213832,-34.9810768,243,152.92733
1,Camargo/RS,-28.5865661,-52.2031474,246,8971.55361
D1,Camargo/RS,-28.5865661,-52.2031474,2,72.93946
1,Camaçari/BA,-12.6998188,-38.3260762,15165,4983.53609
D1,Camaçari/BA,-12.6998188,-38.3260762,267,87.74178
1,Cambará do Sul/RS,-29.0489517,-50.145412,269,4199.18826
D1,Cambará do Sul/RS,-29.0489517,-50.145412,3,46.83110
1,Cambará/PR,-23.042273,-50.075281,1070,4201.68067
D1,Cambará/PR,-23.042273,-50.075281,12,47.12165
1,Cambira/PR,-23.600265,-51.581045,404,5102.94303
D1,Cambira/PR,-23.600265,-51.581045,10,126.31047
1,Camboriú/SC,-27.0273601,-48.6535657,9208,10819.57582
D1,Camboriú/SC,-27.0273601,-48.6535657,102,119.85195
1,Cambuci/RJ,-21.5749919,-41.9107833,473,3048.85910
D1,Cambuci/RJ,-21.5749919,-41.9107833,8,51.56633
1,Cambuquira/MG,-21.853056,-45.2953619,202,1576.64689
D1,Cambuquira/MG,-21.853056,-45.2953619,7,54.63628
1,Cambuí/MG,-22.6122501,-46.0572137,1494,5011.06863
D1,Cambuí/MG,-22.6122501,-46.0572137,22,73.79084
1,Cambé/PR,-23.2782035,-51.2779583,7450,6940.49804
D1,Cambé/PR,-23.2782035,-51.2779583,106,98.75071
1,Cametá/PA,-2.242949,-49.497885,6044,4336.84452
D1,Cametá/PA,-2.242949,-49.497885,141,101.17390
1,Camocim de São Félix/PE,-8.3616757,-35.7638903,344,1820.10582
D1,Camocim de São Félix/PE,-8.3616757,-35.7638903,11,58.20106
1,Camocim/CE,-2.9009918,-40.8427389,2962,4634.86003
D1,Camocim/CE,-2.9009918,-40.8427389,90,140.82964
1,Campanha/MG,-21.8361108,-45.401986,821,4897.98353
D1,Campanha/MG,-21.8361108,-45.401986,16,95.45400
1,Campanário/MG,-18.2398144,-41.7271768,95,2546.91689
D1,Campanário/MG,-18.2398144,-41.7271768,1,26.80965
1,Campestre da Serra/RS,-28.7966535,-51.0958149,112,3298.96907
1,Campestre de Goiás/GO,-16.7624179,-49.69497,289,7919.97808
D1,Campestre de Goiás/GO,-16.7624179,-49.69497,4,109.61907
1,Campestre do Maranhão/MA,-6.1729113,-47.3640512,693,4794.85228
D1,Campestre do Maranhão/MA,-6.1729113,-47.3640512,20,138.37958
1,Campestre/AL,-8.8481634,-35.5660033,135,1941.32873
D1,Campestre/AL,-8.8481634,-35.5660033,5,71.90106
1,Campestre/MG,-19.6142116,-43.219378,601,2854.56445
D1,Campestre/MG,-19.6142116,-43.219378,7,33.24784
1,Campina Grande do Sul/PR,-25.3046032,-49.0545355,3502,8016.48163
D1,Campina Grande do Sul/PR,-25.3046032,-49.0545355,58,132.76868
1,Campina Grande/PB,-7.2246743,-35.8771292,21386,5193.20944
D1,Campina Grande/PB,-7.2246743,-35.8771292,591,143.51383
1,Campina Verde/MG,-19.535277,-49.486389,385,1949.16970
D1,Campina Verde/MG,-19.535277,-49.486389,15,75.94168
1,Campina da Lagoa/PR,-24.5937926,-52.8038965,484,3446.55700
D1,Campina da Lagoa/PR,-24.5937926,-52.8038965,10,71.20986
1,Campina das Missões/RS,-27.9883295,-54.8411665,322,5965.17229
D1,Campina das Missões/RS,-27.9883295,-54.8411665,6,111.15228
1,Campina do Monte Alegre/SP,-23.5935653,-48.4801876,228,3764.23972
D1,Campina do Monte Alegre/SP,-23.5935653,-48.4801876,1,16.50982
1,Campina do Simão/PR,-25.1086375,-51.8076658,51,1321.58590
D1,Campina do Simão/PR,-25.1086375,-51.8076658,1,25.91345
1,Campinas do Piauí/PI,-7.6593687,-41.8814875,119,2117.43772
D1,Campinas do Piauí/PI,-7.6593687,-41.8814875,1,17.79359
1,Campinas do Sul/RS,-27.7167968,-52.6257885,331,6086.79662
D1,Campinas do Sul/RS,-27.7167968,-52.6257885,5,91.94557
1,Campinas/SP,-22.90556,-47.06083,60476,4982.40226
D1,Campinas/SP,-22.90556,-47.06083,1961,161.55981
1,Campinaçu/GO,-13.7869969,-48.5703841,156,4295.15419
1,Campinorte/GO,-14.3136699,-49.1510931,788,6173.61329
D1,Campinorte/GO,-14.3136699,-49.1510931,11,86.17988
1,Campinápolis/MT,-14.5403731,-52.7970626,614,3629.05609
D1,Campinápolis/MT,-14.5403731,-52.7970626,18,106.38927
1,Campo Alegre de Goiás/GO,-17.6337896,-47.779291,126,1628.32773
D1,Campo Alegre de Goiás/GO,-17.6337896,-47.779291,4,51.69294
1,Campo Alegre de Lourdes/BA,-9.5160326,-43.0101338,310,1075.64192
D1,Campo Alegre de Lourdes/BA,-9.5160326,-43.0101338,8,27.75850
1,Campo Alegre do Fidalgo/PI,-8.3753852,-41.8364191,57,1124.48215
D1,Campo Alegre do Fidalgo/PI,-8.3753852,-41.8364191,1,19.72776
