type,name,lat,lon,total,total_per_100k_inhabitants
1,Abadia de Goiás/GO,-16.7572644,-49.4412205,1213,13540.96897
D1,Abadia de Goiás/GO,-16.7572644,-49.4412205,22,245.59053
1,Abadia dos Dourados/MG,-18.4911191,-47.4063589,343,4895.80360
D1,Abadia dos Dourados/MG,-18.4911191,-47.4063589,12,171.28176
1,Abadiânia/GO,-16.1940946,-48.7067767,313,1529.73950
D1,Abadiânia/GO,-16.1940946,-48.7067767,25,122.18367
1,Abaetetuba/PA,-1.721828,-48.878843,6512,4093.53784
D1,Abaetetuba/PA,-1.721828,-48.878843,169,106.23586
1,Abaeté/MG,-19.1566833,-45.4481213,877,3772.04301
D1,Abaeté/MG,-19.1566833,-45.4481213,18,77.41935
1,Abaiara/CE,-7.3607808,-39.0487878,358,3020.33241
D1,Abaiara/CE,-7.3607808,-39.0487878,8,67.49346
1,Abaré/BA,-8.7239913,-39.1139689,653,3209.31833
D1,Abaré/BA,-8.7239913,-39.1139689,4,19.65892
1,Abatiá/PR,-23.3052967,-50.3102532,492,6641.46868
D1,Abatiá/PR,-23.3052967,-50.3102532,8,107.99136
1,Abaíra/BA,-13.2503296,-41.6640342,247,2835.82090
D1,Abaíra/BA,-13.2503296,-41.6640342,9,103.32951
1,Abdon Batista/SC,-27.612419,-51.022992,270,10596.54631
D1,Abdon Batista/SC,-27.612419,-51.022992,2,78.49294
1,Abel Figueiredo/PA,-4.953001,-48.3958485,790,10553.03233
D1,Abel Figueiredo/PA,-4.953001,-48.3958485,6,80.14961
1,Abelardo Luz/SC,-26.5705893,-52.3280339,1186,6603.56347
D1,Abelardo Luz/SC,-26.5705893,-52.3280339,40,222.71715
1,Abre Campo/MG,-20.2976097,-42.4764741,833,6196.07260
D1,Abre Campo/MG,-20.2976097,-42.4764741,11,81.82089
1,Abreu e Lima/PE,-7.900719,-34.898389,2181,2173.47976
D1,Abreu e Lima/PE,-7.900719,-34.898389,177,176.38969
1,Abreulândia/TO,-9.6221526,-49.1558343,236,9097.91827
D1,Abreulândia/TO,-9.6221526,-49.1558343,5,192.75251
1,Acaiaca/MG,-20.3621646,-43.1444162,203,5082.62394
D1,Acaiaca/MG,-20.3621646,-43.1444162,7,175.26289
1,Acajutiba/BA,-11.6609659,-38.0186381,468,3081.58293
D1,Acajutiba/BA,-11.6609659,-38.0186381,13,85.59953
1,Acarape/CE,-4.2237866,-38.7071663,2368,15748.86938
D1,Acarape/CE,-4.2237866,-38.7071663,19,126.36339
1,Acaraú/CE,-2.8869514,-40.1194713,4212,6674.69574
D1,Acaraú/CE,-2.8869514,-40.1194713,88,139.45233
1,Acari/RN,-6.4364689,-36.6394777,764,6869.88580
D1,Acari/RN,-6.4364689,-36.6394777,12,107.90397
1,Acará/PA,-1.961388,-48.1987043,1076,1932.85311
D1,Acará/PA,-1.961388,-48.1987043,24,43.11197
1,Acauã/PI,-8.219542,-41.083059,175,2464.09462
D1,Acauã/PI,-8.219542,-41.083059,1,14.08054
1,Aceguá/RS,-31.8695131,-54.1615593,281,5685.95710
D1,Aceguá/RS,-31.8695131,-54.1615593,4,80.93889
1,Acopiara/CE,-6.0936464,-39.4543204,2411,4425.39601
D1,Acopiara/CE,-6.0936464,-39.4543204,98,179.87922
1,Acorizal/MT,-15.2001544,-56.3668953,440,8248.96888
D1,Acorizal/MT,-15.2001544,-56.3668953,16,299.96250
1,Acrelândia/AC,-10.0759167,-67.0526898,1425,9199.48354
D1,Acrelândia/AC,-10.0759167,-67.0526898,26,167.85023
1,Acreúna/GO,-17.3959899,-50.3749031,1494,6626.45259
D1,Acreúna/GO,-17.3959899,-50.3749031,38,168.54431
1,Adamantina/SP,-21.6866517,-51.0762975,2289,6519.32443
D1,Adamantina/SP,-21.6866517,-51.0762975,63,179.43095
1,Adelândia/GO,-16.4155077,-50.1665834,117,4650.23847
D1,Adelândia/GO,-16.4155077,-50.1665834,2,79.49126
1,Adolfo/SP,-21.2356597,-49.6441918,357,10045.01970
D1,Adolfo/SP,-21.2356597,-49.6441918,9,253.23579
1,Adrianópolis/PR,-24.6557863,-48.9912769,1046,17858.97217
D1,Adrianópolis/PR,-24.6557863,-48.9912769,21,358.54533
1,Adustina/BA,-10.5358875,-38.114479,553,3229.00853
D1,Adustina/BA,-10.5358875,-38.114479,9,52.55168
1,Afogados da Ingazeira/PE,-7.750429,-37.6356375,3313,8857.34146
D1,Afogados da Ingazeira/PE,-7.750429,-37.6356375,49,131.00203
1,Afonso Bezerra/RN,-5.4745,-36.57625071327935,406,3681.20410
D1,Afonso Bezerra/RN,-5.4745,-36.57625071327935,12,108.80406
1,Afonso Cláudio/ES,-20.077841,-41.12606,3019,9912.98637
D1,Afonso Cláudio/ES,-20.077841,-41.12606,52,170.74372
1,Afonso Cunha/MA,-4.1326105,-43.3230026,158,2401.94588
D1,Afonso Cunha/MA,-4.1326105,-43.3230026,2,30.40438
1,Afrânio/PE,-8.5198919,-41.0070197,662,3341.74659
D1,Afrânio/PE,-8.5198919,-41.0070197,12,60.57547
1,Afuá/PA,-0.1535664,-50.3879223,2832,7157.47972
D1,Afuá/PA,-0.1535664,-50.3879223,14,35.38302
1,Agrestina/PE,-8.4558021,-35.9442663,1131,4512.26810
D1,Agrestina/PE,-8.4558021,-35.9442663,40,159.58508
1,Agricolândia/PI,-5.7967843,-42.6605131,287,5593.45157
D1,Agricolândia/PI,-5.7967843,-42.6605131,3,58.46813
1,Agrolândia/SC,-27.4122212,-49.8295774,904,8208.48089
D1,Agrolândia/SC,-27.4122212,-49.8295774,13,118.04231
1,Agronômica/SC,-27.2660744,-49.7104753,434,7878.01779
D1,Agronômica/SC,-27.2660744,-49.7104753,9,163.36903
1,Aguanil/MG,-20.9424533,-45.3927152,401,8867.75763
D1,Aguanil/MG,-20.9424533,-45.3927152,7,154.79876
1,Aguaí/SP,-22.0592036,-46.979384,1779,4854.28946
D1,Aguaí/SP,-22.0592036,-46.979384,45,122.78978
1,Agudo/RS,-29.6423259,-53.2494005,987,6017.92574
D1,Agudo/RS,-29.6423259,-53.2494005,13,79.26346
1,Agudos do Sul/PR,-25.9890808,-49.3328175,436,4604.01267
D1,Agudos do Sul/PR,-25.9890808,-49.3328175,14,147.83527
1,Agudos/SP,-22.471162,-48.987822,2342,6261.86466
D1,Agudos/SP,-22.471162,-48.987822,52,139.03372
1,Aguiar/PB,-7.0928404,-38.1727215,266,4724.68917
D1,Aguiar/PB,-7.0928404,-38.1727215,3,53.28597
1,Aguiarnópolis/TO,-6.5600452,-47.4721189,510,7399.88392
D1,Aguiarnópolis/TO,-6.5600452,-47.4721189,12,174.11492
1,Aimorés/MG,-19.4917754,-41.0615603,1616,6427.74750
D1,Aimorés/MG,-19.4917754,-41.0615603,40,159.10266
1,Aiquara/BA,-14.126918,-39.8887574,436,9873.18841
D1,Aiquara/BA,-14.126918,-39.8887574,9,203.80435
1,Aiuaba/CE,-6.5710836,-40.1212278,339,1937.91802
D1,Aiuaba/CE,-6.5710836,-40.1212278,9,51.44915
1,Aiuruoca/MG,-21.9759554,-44.6036637,79,1321.95448
D1,Aiuruoca/MG,-21.9759554,-44.6036637,6,100.40161
1,Ajuricaba/RS,-28.239654,-53.7693013,630,9016.74538
D1,Ajuricaba/RS,-28.239654,-53.7693013,22,314.87047
1,Alagoa Grande/PB,-7.0415212,-35.6285322,2434,8558.66943
D1,Alagoa Grande/PB,-7.0415212,-35.6285322,48,168.78231
1,Alagoa Nova/PB,-7.0653703,-35.76695977336711,697,3331.58071
D1,Alagoa Nova/PB,-7.0653703,-35.76695977336711,13,62.13852
1,Alagoa/MG,-22.1697202,-44.6400042,287,10769.23077
D1,Alagoa/MG,-22.1697202,-44.6400042,4,150.09381
1,Alagoinha do Piauí/PI,-7.0090952,-40.939675,255,3326.81018
D1,Alagoinha do Piauí/PI,-7.0090952,-40.939675,9,117.41683
1,Alagoinha/PB,-6.97063215,-35.51490901897793,1338,9189.56044
D1,Alagoinha/PB,-6.97063215,-35.51490901897793,21,144.23077
1,Alagoinha/PE,-8.50355635,-36.77701174370496,492,3342.84550
D1,Alagoinha/PE,-8.50355635,-36.77701174370496,13,88.32722
1,Alagoinhas/BA,-12.133526,-38.420772,10555,6929.17211
D1,Alagoinhas/BA,-12.133526,-38.420772,199,130.64000
1,Alambari/SP,-23.550338,-47.897971,406,6624.24539
D1,Alambari/SP,-23.550338,-47.897971,9,146.84288
1,Albertina/MG,-20.66164,-43.784039,172,5712.38791
D1,Albertina/MG,-20.66164,-43.784039,6,199.26935
1,Alcantil/PB,-7.7425491,-36.0609604,258,4683.24560
D1,Alcantil/PB,-7.7425491,-36.0609604,6,108.91269
1,Alcinópolis/MS,-18.3264121,-53.7094463,156,2879.82278
D1,Alcinópolis/MS,-18.3264121,-53.7094463,6,110.76241
1,Alcobaça/BA,-17.5215875,-39.1965474,1200,5335.70476
D1,Alcobaça/BA,-17.5215875,-39.1965474,18,80.03557
1,Alcântara/MA,-2.4038956,-44.4154241,252,1139.65268
D1,Alcântara/MA,-2.4038956,-44.4154241,13,58.79161
1,Alcântaras/CE,-3.586247,-40.5457641,1131,9600.20372
D1,Alcântaras/CE,-3.586247,-40.5457641,12,101.85893
1,Aldeias Altas/MA,-4.6291957,-43.4708622,975,3643.90627
D1,Aldeias Altas/MA,-4.6291957,-43.4708622,13,48.58542
1,Alecrim/RS,-27.6566142,-54.7653195,231,3964.30410
D1,Alecrim/RS,-27.6566142,-54.7653195,9,154.45341
1,Alegre/ES,-20.7625787,-41.5318886,1712,5711.42619
D1,Alegre/ES,-20.7625787,-41.5318886,42,140.11676
1,Alegrete do Piauí/PI,-7.2440138,-40.8602296,442,8987.39325
D1,Alegrete do Piauí/PI,-7.2440138,-40.8602296,5,101.66734
1,Alegrete/RS,-29.790166,-55.794862,6321,8655.58416
D1,Alegrete/RS,-29.790166,-55.794862,194,265.65153
1,Alegria/RS,-27.8332103,-54.0574959,295,8743.33136
D1,Alegria/RS,-27.8332103,-54.0574959,2,59.27682
1,Alenquer/PA,-1.946229,-54.738355,2403,4208.99601
D1,Alenquer/PA,-1.946229,-54.738355,86,150.63406
1,Alexandria/RN,-6.414779,-38.0135516,1019,7518.63056
D1,Alexandria/RN,-6.414779,-38.0135516,12,88.54128
1,Alexânia/GO,-16.0834049,-48.5077803,2508,8953.94502
D1,Alexânia/GO,-16.0834049,-48.5077803,58,207.06890
1,Alfenas/MG,-21.4297405,-45.9479419,5785,7186.87107
D1,Alfenas/MG,-21.4297405,-45.9479419,128,159.01806
1,Alfredo Chaves/ES,-20.624970400000002,-40.75006690147988,2009,13726.42799
D1,Alfredo Chaves/ES,-20.624970400000002,-40.75006690147988,27,184.47663
1,Alfredo Marcondes/SP,-21.9527,-51.413956,200,4780.11472
D1,Alfredo Marcondes/SP,-21.9527,-51.413956,8,191.20459
1,Alfredo Vasconcelos/MG,-21.145833,-43.776389,241,3452.22747
D1,Alfredo Vasconcelos/MG,-21.145833,-43.776389,6,85.94757
1,Alfredo Wagner/SC,-27.6961513,-49.3326734,605,5998.41364
D1,Alfredo Wagner/SC,-27.6961513,-49.3326734,6,59.48840
1,Algodão de Jandaíra/PB,-6.9040175,-36.0089879,90,3492.43306
1,Alhandra/PB,-7.4304246,-34.9106103,1386,7025.90358
D1,Alhandra/PB,-7.4304246,-34.9106103,26,131.79906
1,Aliança do Tocantins/TO,-11.3055927,-48.9409096,523,9783.01534
D1,Aliança do Tocantins/TO,-11.3055927,-48.9409096,17,317.99476
1,Aliança/PE,-7.60398,-35.222696,492,1281.35011
D1,Aliança/PE,-7.60398,-35.222696,38,98.96607
1,Almadina/BA,-14.70466,-39.6381994,583,10864.70369
D1,Almadina/BA,-14.70466,-39.6381994,9,167.72270
1,Almas/TO,-11.5681309,-47.1702803,179,2564.83737
D1,Almas/TO,-11.5681309,-47.1702803,4,57.31480
1,Almeirim/PA,-1.5290377,-52.5788111,3260,9566.85057
D1,Almeirim/PA,-1.5290377,-52.5788111,31,90.97312
1,Almenara/MG,-16.1740678,-40.6904907,3238,7683.36379
D1,Almenara/MG,-16.1740678,-40.6904907,30,71.18620
1,Almino Afonso/RN,-6.1544208,-37.7649018,347,7367.30361
D1,Almino Afonso/RN,-6.1544208,-37.7649018,10,212.31423
1,Almirante Tamandaré do Sul/RS,-28.1141129,-52.9134874,162,8311.95485
D1,Almirante Tamandaré do Sul/RS,-28.1141129,-52.9134874,1,51.30836
1,Almirante Tamandaré/PR,-25.3133048,-49.2997838,7556,6294.51604
D1,Almirante Tamandaré/PR,-25.3133048,-49.2997838,269,224.09010
1,Aloândia/GO,-17.7277983,-49.4809338,190,9566.96878
D1,Aloândia/GO,-17.7277983,-49.4809338,6,302.11480
1,Alpercata/MG,-18.9803616,-41.9827637,407,5473.37278
D1,Alpercata/MG,-18.9803616,-41.9827637,14,188.27327
1,Alpestre/RS,-27.2512339,-53.0349646,261,4301.96143
D1,Alpestre/RS,-27.2512339,-53.0349646,7,115.37828
1,Alpinópolis/MG,-20.863611,-46.387777,726,3637.63904
D1,Alpinópolis/MG,-20.863611,-46.387777,16,80.16835
1,Alta Floresta D'Oeste/RO,-11.9296917,-61.9961284,3252,14308.34213
D1,Alta Floresta D'Oeste/RO,-11.9296917,-61.9961284,50,219.99296
1,Alta Floresta/MT,-9.8715018,-56.0839881,6538,12582.99813
D1,Alta Floresta/MT,-9.8715018,-56.0839881,92,177.06268
1,Altair/SP,-20.5238955,-49.0606135,130,3105.59006
D1,Altair/SP,-20.5238955,-49.0606135,9,215.00239
1,Altamira do Maranhão/MA,-4.1643006,-45.4674574,279,3407.00940
D1,Altamira do Maranhão/MA,-4.1643006,-45.4674574,8,97.69203
1,Altamira do Paraná/PR,-24.799114,-52.7128633,101,6004.75624
D1,Altamira do Paraná/PR,-24.799114,-52.7128633,3,178.35910
1,Altamira/PA,-3.204065,-52.209961,11726,10111.32285
D1,Altamira/PA,-3.204065,-52.209961,241,207.81416
1,Altaneira/CE,-6.9980933,-39.7385742,339,4431.37255
D1,Altaneira/CE,-6.9980933,-39.7385742,12,156.86275
1,Alterosa/MG,-21.249166,-46.143055,517,3561.34188
D1,Alterosa/MG,-21.249166,-46.143055,28,192.87732
1,Altinho/PE,-8.4904095,-36.0607494,870,3785.24191
D1,Altinho/PE,-8.4904095,-36.0607494,17,73.96450
1,Altinópolis/SP,-21.021364,-47.3712,673,4153.55181
D1,Altinópolis/SP,-21.021364,-47.3712,21,129.60563
1,Alto Alegre do Maranhão/MA,-4.2055693,-44.4525287,796,2857.34798
D1,Alto Alegre do Maranhão/MA,-4.2055693,-44.4525287,22,78.97193
1,Alto Alegre do Pindaré/MA,-3.6698186,-45.8462153,1732,5422.15822
D1,Alto Alegre do Pindaré/MA,-3.6698186,-45.8462153,35,109.57017
1,Alto Alegre dos Parecis/RO,-12.1314515,-61.856265,1095,8261.03357
D1,Alto Alegre dos Parecis/RO,-12.1314515,-61.856265,23,173.51943
1,Alto Alegre/RR,2.98858,-61.307167,1199,7795.83875
D1,Alto Alegre/RR,2.98858,-61.307167,26,169.05072
1,Alto Alegre/RS,-31.780844700000003,-52.81311114489171,139,8617.48295
D1,Alto Alegre/RS,-31.780844700000003,-52.81311114489171,1,61.99628
1,Alto Alegre/SP,-21.5820592,-50.1661976,209,5112.52446
D1,Alto Alegre/SP,-21.5820592,-50.1661976,9,220.15656
1,Alto Araguaia/MT,-17.3156528,-53.2169365,967,4988.39309
D1,Alto Araguaia/MT,-17.3156528,-53.2169365,20,103.17256
1,Alto Bela Vista/SC,-27.4320737,-51.905771,121,6282.45067
D1,Alto Bela Vista/SC,-27.4320737,-51.905771,2,103.84216
1,Alto Boa Vista/MT,-11.6723985,-51.3744431,495,7136.67820
D1,Alto Boa Vista/MT,-11.6723985,-51.3744431,9,129.75779
1,Alto Caparaó/MG,-20.4405661,-41.8683799,328,5564.98134
D1,Alto Caparaó/MG,-20.4405661,-41.8683799,7,118.76485
1,Alto Feliz/RS,-29.3785943,-51.3123751,171,5632.41107
D1,Alto Feliz/RS,-29.3785943,-51.3123751,1,32.93808
1,Alto Garças/MT,-16.9469683,-53.529427,529,4353.55115
D1,Alto Garças/MT,-16.9469683,-53.529427,22,181.05506
1,Alto Horizonte/GO,-14.1954948,-49.3366993,607,9190.00757
D1,Alto Horizonte/GO,-14.1954948,-49.3366993,7,105.98032
1,Alto Jequitibá/MG,-20.423611,-41.966111,537,6469.10011
D1,Alto Jequitibá/MG,-20.423611,-41.966111,9,108.42067
1,Alto Longá/PI,-5.2549051,-42.2072388,511,3563.70737
D1,Alto Longá/PI,-5.2549051,-42.2072388,13,90.66183
1,Alto Paraguai/MT,-14.513712,-56.4936374,663,5778.78497
D1,Alto Paraguai/MT,-14.513712,-56.4936374,20,174.32232
1,Alto Paraná/PR,-23.131247,-52.318893,651,4381.18312
D1,Alto Paraná/PR,-23.131247,-52.318893,14,94.21899
1,Alto Paraíso de Goiás/GO,-14.1304779,-47.5100161,518,6737.77315
D1,Alto Paraíso de Goiás/GO,-14.1304779,-47.5100161,6,78.04370
1,Alto Paraíso/PR,-23.508137,-53.728537,153,5698.32402
D1,Alto Paraíso/PR,-23.508137,-53.728537,2,74.48790
1,Alto Paraíso/RO,-9.7240103,-63.3188123,1551,7099.37291
D1,Alto Paraíso/RO,-9.7240103,-63.3188123,36,164.78235
1,Alto Parnaíba/MA,-9.112506,-45.9310154,674,6011.41634
D1,Alto Parnaíba/MA,-9.112506,-45.9310154,5,44.59508
1,Alto Piquiri/PR,-24.0239021,-53.4417448,460,4704.43854
D1,Alto Piquiri/PR,-24.0239021,-53.4417448,11,112.49744
1,Alto Rio Doce/MG,-21.0239537,-43.4133507,275,2532.46155
D1,Alto Rio Doce/MG,-21.0239537,-43.4133507,22,202.59692
1,Alto Rio Novo/ES,-19.0577208,-41.0171518,638,8102.61621
D1,Alto Rio Novo/ES,-19.0577208,-41.0171518,21,266.70053
1,Alto Santo/CE,-5.5190371,-38.2719351,819,4762.73552
D1,Alto Santo/CE,-5.5190371,-38.2719351,18,104.67551
1,Alto Taquari/MT,-17.8269099,-53.2831736,1269,11398.54487
D1,Alto Taquari/MT,-17.8269099,-53.2831736,23,206.59301
1,Alto do Rodrigues/RN,-5.290868,-36.7616726,1303,8847.09397
D1,Alto do Rodrigues/RN,-5.290868,-36.7616726,25,169.74470
1,Altos/PI,-5.0393915,-42.4611694,3598,8860.97771
D1,Altos/PI,-5.0393915,-42.4611694,67,165.00431
1,Altônia/PR,-23.8722004,-53.894037,832,3751.80375
D1,Altônia/PR,-23.8722004,-53.894037,14,63.13131
1,Alumínio/SP,-23.5203479,-47.2575256,1076,5733.46832
D1,Alumínio/SP,-23.5203479,-47.2575256,34,181.16907
1,Alvarenga/MG,-19.4175,-41.728334,354,9209.15713
D1,Alvarenga/MG,-19.4175,-41.728334,4,104.05827
1,Alvarães/AM,-3.214786,-64.8143124,2685,16553.63748
D1,Alvarães/AM,-3.214786,-64.8143124,38,234.27867
1,Alvinlândia/SP,-22.4431852,-49.7643596,111,3429.10102
D1,Alvinlândia/SP,-22.4431852,-49.7643596,4,123.57121
1,Alvinópolis/MG,-20.1105199,-43.0601805,485,3197.31030
D1,Alvinópolis/MG,-20.1105199,-43.0601805,13,85.70110
1,Alvorada D'Oeste/RO,-11.346271,-62.284697,808,5728.05898
D1,Alvorada D'Oeste/RO,-11.346271,-62.284697,21,148.87282
1,Alvorada de Minas/MG,-18.7318587,-43.3641479,233,6463.24549
D1,Alvorada de Minas/MG,-18.7318587,-43.3641479,1,27.73925
1,Alvorada do Gurguéia/PI,-8.4465288,-43.8655915,252,4628.09917
D1,Alvorada do Gurguéia/PI,-8.4465288,-43.8655915,6,110.19284
1,Alvorada do Norte/GO,-14.483911,-46.4959897,577,6628.37450
D1,Alvorada do Norte/GO,-14.483911,-46.4959897,2,22.97530
1,Alvorada do Sul/PR,-22.7807269,-51.2307721,627,5450.75198
D1,Alvorada do Sul/PR,-22.7807269,-51.2307721,16,139.09415
1,Alvorada/RS,-29.9981184,-51.0772509,16229,7678.65930
D1,Alvorada/RS,-29.9981184,-51.0772509,611,289.09118
1,Alvorada/TO,-12.478465,-49.124926,982,11696.04574
D1,Alvorada/TO,-12.478465,-49.124926,17,202.47737
1,Além Paraíba/MG,-21.8760576,-42.6810473,2527,7138.21643
D1,Além Paraíba/MG,-21.8760576,-42.6810473,120,338.97348
1,Amajari/RR,3.6523869,-61.4194315,830,6295.03223
D1,Amajari/RR,3.6523869,-61.4194315,18,136.51877
1,Amambai/MS,-23.1082701,-55.2284854,2050,5147.39115
D1,Amambai/MS,-23.1082701,-55.2284854,39,97.92598
1,Amaporã/PR,-23.094272,-52.786597,217,3427.03727
1,Amapá do Maranhão/MA,-1.6762114,-46.0109669,116,1655.96003
D1,Amapá do Maranhão/MA,-1.6762114,-46.0109669,1,14.27552
1,Amapá/AP,2.0529997,-50.7930003,1222,13301.40416
D1,Amapá/AP,2.0529997,-50.7930003,10,108.84946
1,Amaraji/PE,-8.373925,-35.4536527,428,1871.44731
D1,Amaraji/PE,-8.373925,-35.4536527,28,122.43113
1,Amaral Ferrador/RS,-30.8750633,-52.2542051,190,2681.72195
D1,Amaral Ferrador/RS,-30.8750633,-52.2542051,4,56.45730
1,Amaralina/GO,-13.9236199,-49.2962411,51,1326.39792
1,Amarante do Maranhão/MA,-5.56913,-46.747284,1421,3405.30566
D1,Amarante do Maranhão/MA,-5.56913,-46.747284,50,119.82075
1,Amarante/PI,-6.2459374,-42.8476238,1228,6975.68734
D1,Amarante/PI,-6.2459374,-42.8476238,28,159.05476
1,Amargosa/BA,-13.03793715,-39.60796443875596,2202,5881.25317
D1,Amargosa/BA,-13.03793715,-39.60796443875596,43,114.84736
1,Amaturá/AM,-3.3640509,-68.1994689,2281,19435.92365
D1,Amaturá/AM,-3.3640509,-68.1994689,17,144.85344
1,Americana/SP,-22.7392463,-47.3306032,14861,6140.45236
D1,Americana/SP,-22.7392463,-47.3306032,435,179.73870
1,Americano do Brasil/GO,-16.2515808,-49.9806104,380,6164.82803
D1,Americano do Brasil/GO,-16.2515808,-49.9806104,15,243.34848
1,Ametista do Sul/RS,-27.3617341,-53.1826575,497,6713.49453
D1,Ametista do Sul/RS,-27.3617341,-53.1826575,11,148.58841
1,Amontada/CE,-3.3634586,-39.8284791,1870,4266.58149
D1,Amontada/CE,-3.3634586,-39.8284791,32,73.01102
1,Amorinópolis/GO,-16.6211308,-51.0949921,144,4692.08211
D1,Amorinópolis/GO,-16.6211308,-51.0949921,1,32.58390
1,Amparo de São Francisco/SE,-10.1299754,-36.9269099,132,5546.21849
D1,Amparo de São Francisco/SE,-10.1299754,-36.9269099,3,126.05042
1,Amparo do Serra/MG,-20.5070255,-42.8028462,99,2116.28901
D1,Amparo do Serra/MG,-20.5070255,-42.8028462,4,85.50663
1,Amparo/PB,-7.56394725,-37.04652873235175,157,6974.67792
D1,Amparo/PB,-7.56394725,-37.04652873235175,4,177.69880
1,Amparo/SP,-22.70111,-46.76444,3865,5318.05110
D1,Amparo/SP,-22.70111,-46.76444,107,147.22677
1,Ampére/PR,-25.9168712,-53.4742414,911,4717.51851
D1,Ampére/PR,-25.9168712,-53.4742414,27,139.81668
1,Amélia Rodrigues/BA,-12.4015388,-38.7516971,1741,6950.65474
D1,Amélia Rodrigues/BA,-12.4015388,-38.7516971,35,139.73172
1,América Dourada/BA,-11.4515262,-41.4357517,624,3878.18521
D1,América Dourada/BA,-11.4515262,-41.4357517,2,12.43008
1,Américo Brasiliense/SP,-21.7297099,-48.1052092,2972,7243.12732
D1,Américo Brasiliense/SP,-21.7297099,-48.1052092,68,165.72431
1,Américo de Campos/SP,-20.298476,-49.735904,603,10081.92610
D1,Américo de Campos/SP,-20.298476,-49.735904,19,317.67263
1,Anadia/AL,-9.6830208,-36.3052699,1041,5939.74666
D1,Anadia/AL,-9.6830208,-36.3052699,21,119.82198
1,Anagé/BA,-14.6134669,-41.1376308,667,3086.96256
D1,Anagé/BA,-14.6134669,-41.1376308,15,69.42195
1,Anahy/PR,-24.6450861,-53.1337957,252,9038.73745
D1,Anahy/PR,-24.6450861,-53.1337957,4,143.47202
1,Anajatuba/MA,-3.26441,-44.6179916,743,2753.07544
D1,Anajatuba/MA,-3.26441,-44.6179916,17,62.99096
1,Anajás/PA,-0.9878802,-49.9390114,1280,4311.50633
D1,Anajás/PA,-0.9878802,-49.9390114,15,50.52546
1,Analândia/SP,-22.128917,-47.661939,243,4806.17089
D1,Analândia/SP,-22.128917,-47.661939,3,59.33544
1,Anamã/AM,-3.5797356,-61.4049996,1679,12030.66781
D1,Anamã/AM,-3.5797356,-61.4049996,8,57.32302
1,Ananindeua/PA,-1.374035,-48.4016623,18042,3368.89199
D1,Ananindeua/PA,-1.374035,-48.4016623,633,118.19691
1,Ananás/TO,-6.3663053,-48.080238,1359,14317.31985
D1,Ananás/TO,-6.3663053,-48.080238,20,210.70375
1,Anapu/PA,-3.4668292,-51.2057035,1268,4432.48156
D1,Anapu/PA,-3.4668292,-51.2057035,29,101.37379
1,Anapurus/MA,-3.6751298,-43.1046001,828,5209.51302
D1,Anapurus/MA,-3.6751298,-43.1046001,11,69.20851
1,Anastácio/MS,-20.4832458,-55.8048448,1635,6478.58303
D1,Anastácio/MS,-20.4832458,-55.8048448,51,202.08424
1,Anaurilândia/MS,-22.185169,-52.719056,271,2985.89687
D1,Anaurilândia/MS,-22.185169,-52.719056,8,88.14456
1,Anchieta/ES,-20.8057672,-40.6454564,3980,13365.12307
D1,Anchieta/ES,-20.8057672,-40.6454564,62,208.20041
1,Anchieta/SC,-26.5350527,-53.3293938,389,7000.17995
D1,Anchieta/SC,-26.5350527,-53.3293938,6,107.97193
1,Andaraí/BA,-12.8059674,-41.3322919,611,4652.75663
D1,Andaraí/BA,-12.8059674,-41.3322919,5,38.07493
1,Andirá/PR,-23.0494761,-50.2310027,1402,7036.03332
D1,Andirá/PR,-23.0494761,-50.2310027,51,255.94700
1,Andorinha/BA,-10.3445708,-39.8334411,660,4550.78260
D1,Andorinha/BA,-10.3445708,-39.8334411,10,68.95125
1,Andradas/MG,-22.0680484,-46.5688976,2414,5831.48130
D1,Andradas/MG,-22.0680484,-46.5688976,59,142.52585
1,Andradina/SP,-20.896505,-51.3742765,4343,7592.39187
D1,Andradina/SP,-20.896505,-51.3742765,177,309.42974
1,Andrelândia/MG,-21.739722,-44.308889,206,1687.69458
D1,Andrelândia/MG,-21.739722,-44.308889,7,57.34884
1,André da Rocha/RS,-28.6309124,-51.5733328,92,6850.33507
1,Angatuba/SP,-23.4938938,-48.4110675,2062,8092.93928
D1,Angatuba/SP,-23.4938938,-48.4110675,52,204.08964
1,Angelim/PE,-8.8902038,-36.2872987,125,1113.48655
D1,Angelim/PE,-8.8902038,-36.2872987,4,35.63157
1,Angelina/SC,-27.5805287,-48.9838759,431,9087.07569
D1,Angelina/SC,-27.5805287,-48.9838759,1,21.08370
1,Angelândia/MG,-17.7253,-42.2728,80,934.90709
D1,Angelândia/MG,-17.7253,-42.2728,1,11.68634
1,Angical do Piauí/PI,-6.0872666,-42.7366138,385,5675.95459
D1,Angical do Piauí/PI,-6.0872666,-42.7366138,8,117.94191
1,Angical/BA,-12.005623,-44.7000236,403,2891.37609
D1,Angical/BA,-12.005623,-44.7000236,10,71.74631
1,Angico/TO,-6.3893733,-47.8656722,200,5790.38796
D1,Angico/TO,-6.3893733,-47.8656722,3,86.85582
1,Angicos/RN,-5.6666344,-36.6009064,534,4562.15293
D1,Angicos/RN,-5.6666344,-36.6009064,14,119.60701
1,Angra dos Reis/RJ,-23.0063966,-44.316326,12009,5800.21638
D1,Angra dos Reis/RJ,-23.0063966,-44.316326,378,182.56989
1,Anguera/BA,-12.1509425,-39.2452469,308,2726.38754
D1,Anguera/BA,-12.1509425,-39.2452469,1,8.85191
1,Angélica/MS,-22.1588196,-53.7728504,596,5451.88438
D1,Angélica/MS,-22.1588196,-53.7728504,13,118.91694
1,Anhanguera/GO,-18.3338749,-48.220363,85,7327.58621
D1,Anhanguera/GO,-18.3338749,-48.220363,6,517.24138
1,Anhembi/SP,-22.7891096,-48.1316776,119,1745.12392
D1,Anhembi/SP,-22.7891096,-48.1316776,2,29.32981
1,Anhumas/SP,-22.2956478,-51.3873401,179,4319.49807
D1,Anhumas/SP,-22.2956478,-51.3873401,4,96.52510
1,Anicuns/GO,-16.4606451,-49.9572265,2175,9894.90924
D1,Anicuns/GO,-16.4606451,-49.9572265,53,241.11733
1,Anita Garibaldi/SC,-27.6855032,-51.1293873,823,11829.81170
D1,Anita Garibaldi/SC,-27.6855032,-51.1293873,8,114.99209
1,Anitápolis/SC,-27.9041185,-49.1287395,296,9169.76456
D1,Anitápolis/SC,-27.9041185,-49.1287395,1,30.97893
1,Anori/AM,-3.7435254,-61.6605203,1822,8483.49397
D1,Anori/AM,-3.7435254,-61.6605203,31,144.34046
1,Anta Gorda/RS,-28.9718745,-52.0069187,523,8773.69569
D1,Anta Gorda/RS,-28.9718745,-52.0069187,4,67.10284
1,Antas/BA,-10.4114649,-38.3308815,1016,5215.87350
D1,Antas/BA,-10.4114649,-38.3308815,5,25.66867
1,Antonina do Norte/CE,-6.7754187,-39.9879345,291,3944.15831
D1,Antonina do Norte/CE,-6.7754187,-39.9879345,15,203.30713
1,Antonina/PR,-25.4298854,-48.7125431,1993,10517.70542
D1,Antonina/PR,-25.4298854,-48.7125431,50,263.86617
1,Antônio Almeida/PI,-7.2186016,-44.1950248,399,12586.75079
D1,Antônio Almeida/PI,-7.2186016,-44.1950248,10,315.45741
1,Antônio Cardoso/BA,-12.4363122,-39.1200307,313,2680.48300
D1,Antônio Cardoso/BA,-12.4363122,-39.1200307,7,59.94690
1,Antônio Carlos/MG,-21.318334,-43.746666,412,3595.42718
D1,Antônio Carlos/MG,-21.318334,-43.746666,8,69.81412
1,Antônio Carlos/SC,-27.5168462,-48.7684715,1416,16440.26472
D1,Antônio Carlos/SC,-27.5168462,-48.7684715,20,232.20713
1,Antônio Dias/MG,-19.6525,-42.872778,452,4873.31536
D1,Antônio Dias/MG,-19.6525,-42.872778,17,183.28841
1,Antônio Gonçalves/BA,-10.5715409,-40.2748824,605,5093.45008
D1,Antônio Gonçalves/BA,-10.5715409,-40.2748824,5,42.09463
1,Antônio João/MS,-22.1892837,-55.9508227,272,3015.52106
D1,Antônio João/MS,-22.1892837,-55.9508227,6,66.51885
1,Antônio Martins/RN,-6.2155812,-37.8890129,296,4137.54543
D1,Antônio Martins/RN,-6.2155812,-37.8890129,3,41.93458
1,Antônio Olinto/PR,-25.9849006,-50.1974516,276,3716.17073
D1,Antônio Olinto/PR,-25.9849006,-50.1974516,6,80.78632
1,Antônio Prado de Minas/MG,-21.0171988,-42.1101106,150,9451.79584
D1,Antônio Prado de Minas/MG,-21.0171988,-42.1101106,5,315.05986
1,Antônio Prado/RS,-28.8567806,-51.2801355,1682,12893.82905
D1,Antônio Prado/RS,-28.8567806,-51.2801355,16,122.65236
1,Anápolis/GO,-16.3332828,-48.9525756,29548,7542.14186
D1,Anápolis/GO,-16.3332828,-48.9525756,886,226.15195
1,Anísio de Abreu/PI,-9.185643,-43.04941,283,2847.65546
D1,Anísio de Abreu/PI,-9.185643,-43.04941,5,50.31193
1,Aparecida d'Oeste/SP,-20.4498109,-50.8808706,562,13516.11352
D1,Aparecida d'Oeste/SP,-20.4498109,-50.8808706,11,264.55026
1,Aparecida de Goiânia/GO,-16.8226769,-49.2452546,58171,9857.05232
D1,Aparecida de Goiânia/GO,-16.8226769,-49.2452546,1107,187.58070
1,Aparecida do Rio Doce/GO,-18.2980167,-51.1491312,183,7396.92805
D1,Aparecida do Rio Doce/GO,-18.2980167,-51.1491312,3,121.26112
1,Aparecida do Rio Negro/TO,-9.9513491,-47.9773786,281,5796.20462
D1,Aparecida do Rio Negro/TO,-9.9513491,-47.9773786,5,103.13531
1,Aparecida do Taboado/MS,-20.0840304,-51.1013943,2181,8366.25877
D1,Aparecida do Taboado/MS,-20.0840304,-51.1013943,35,134.25908
1,Aparecida/PB,-6.7859598, -38.0831353,653,7759.03042
D1,Aparecida/PB,-6.7859598, -38.0831353,11,130.70342
1,Aparecida/SP,-22.851552,-45.2340924,1999,5524.38856
D1,Aparecida/SP,-22.851552,-45.2340924,64,176.86887
1,Aperibé/RJ,-21.6211928,-42.1028167,424,3562.72582
D1,Aperibé/RJ,-21.6211928,-42.1028167,18,151.24779
1,Apiacá/ES,-21.152272,-41.569297,605,8009.00185
D1,Apiacá/ES,-21.152272,-41.569297,22,291.23643
1,Apiacás/MT,-9.5678422,-57.394852,1002,9744.23806
D1,Apiacás/MT,-9.5678422,-57.394852,9,87.52310
1,Apiaí/SP,-24.5076527,-48.8461582,912,3764.55048
D1,Apiaí/SP,-24.5076527,-48.8461582,39,160.98407
1,Apicum-Açu/MA,-1.5279295,-45.082278,388,2228.22030
D1,Apicum-Açu/MA,-1.5279295,-45.082278,3,17.22851
1,Apiúna/SC,-27.0374658,-49.3885037,690,6360.61947
D1,Apiúna/SC,-27.0374658,-49.3885037,14,129.05605
1,Apodi/RN,-5.6631109,-37.796927,4476,12477.00284
D1,Apodi/RN,-5.6631109,-37.796927,60,167.25205
1,Aporá/BA,-11.6599747,-38.0794757,440,2473.57769
D1,Aporá/BA,-11.6599747,-38.0794757,16,89.94828
1,Aporé/GO,-18.9642193,-51.92804,296,6994.32892
D1,Aporé/GO,-18.9642193,-51.92804,6,141.77694
1,Apuarema/BA,-13.8517897,-39.7457126,618,8463.43468
D1,Apuarema/BA,-13.8517897,-39.7457126,9,123.25390
1,Apucarana/PR,-23.5525327,-51.4610764,5928,4351.33667
D1,Apucarana/PR,-23.5525327,-51.4610764,194,142.40204
1,Apuiarés/CE,-3.9460303,-39.4313298,794,5411.66848
D1,Apuiarés/CE,-3.9460303,-39.4313298,14,95.41985
1,Apuí/AM,-7.1940195,-59.8830192,1169,5228.31969
D1,Apuí/AM,-7.1940195,-59.8830192,24,107.33933
1,Aquidabã/SE,-10.2837579,-37.0188687,1628,7508.87874
D1,Aquidabã/SE,-10.2837579,-37.0188687,27,124.53300
1,Aquidauana/MS,-20.473969,-55.7821375,3892,8103.43751
D1,Aquidauana/MS,-20.473969,-55.7821375,110,229.02830
1,Aquiraz/CE,-3.9063117,-38.387504,4498,5557.54618
D1,Aquiraz/CE,-3.9063117,-38.387504,70,86.48916
1,Arabutã/SC,-27.1587028,-52.1438142,362,8483.71221
D1,Arabutã/SC,-27.1587028,-52.1438142,5,117.17835
1,Aracaju/SE,-10.9162061,-37.0774655,94925,14276.41117
D1,Aracaju/SE,-10.9162061,-37.0774655,1590,239.13083
1,Aracati/CE,-4.558259,-37.767894,4627,6171.39046
D1,Aracati/CE,-4.558259,-37.767894,94,125.37513
1,Aracatu/BA,-14.4274236,-41.4604105,676,5182.06209
D1,Aracatu/BA,-14.4274236,-41.4604105,12,91.98927
1,Araci/BA,-11.3356065,-38.9573261,3154,5771.48295
D1,Araci/BA,-11.3356065,-38.9573261,41,75.02562
1,Aracitaba/MG,-21.3425,-43.378611,81,3933.94852
D1,Aracitaba/MG,-21.3425,-43.378611,7,339.97086
1,Aracoiaba/CE,-4.3702577,-38.8084313,2066,7785.94309
D1,Aracoiaba/CE,-4.3702577,-38.8084313,25,94.21519
1,Aracruz/ES,-19.8245218,-40.2735025,12623,12243.33421
D1,Aracruz/ES,-19.8245218,-40.2735025,176,170.70639
1,Aragarças/GO,-15.8957166,-52.2514538,1768,8720.95891
D1,Aragarças/GO,-15.8957166,-52.2514538,40,197.30676
1,Aragoiânia/GO,-16.9146388,-49.4499148,841,8012.57622
D1,Aragoiânia/GO,-16.9146388,-49.4499148,11,104.80183
1,Aragominas/TO,-7.1654101,-48.525488,448,7817.13488
D1,Aragominas/TO,-7.1654101,-48.525488,8,139.59169
1,Araguacema/TO,-8.8067391,-49.5560969,375,5241.09015
D1,Araguacema/TO,-8.8067391,-49.5560969,11,153.73864
1,Araguaiana/MT,-15.729144,-51.834112,137,4406.56160
D1,Araguaiana/MT,-15.729144,-51.834112,2,64.32937
1,Araguainha/MT,-16.857016,-53.031778,21,2219.87315
1,Araguanã/MA,-2.9508403,-45.6651986,701,4507.74870
D1,Araguanã/MA,-2.9508403,-45.6651986,5,32.15227
1,Araguanã/TO,-6.5799107,-48.6428482,309,5334.02382
D1,Araguanã/TO,-6.5799107,-48.6428482,12,207.14656
1,Araguapaz/GO,-15.0937927,-50.626417,424,5447.77078
D1,Araguapaz/GO,-15.0937927,-50.626417,19,244.12180
1,Araguari/MG,-18.6511256,-48.1933764,11183,9491.19457
D1,Araguari/MG,-18.6511256,-48.1933764,309,262.25334
1,Araguatins/TO,-5.6522925,-48.1158973,1691,4675.14515
D1,Araguatins/TO,-5.6522925,-48.1158973,46,127.17722
1,Araguaçu/TO,-12.928934,-49.823134,728,8598.08669
D1,Araguaçu/TO,-12.928934,-49.823134,16,188.96894
1,Araguaína/TO,-7.193241,-48.2018597,26017,14187.40218
D1,Araguaína/TO,-7.193241,-48.2018597,341,185.95165
1,Araioses/MA,-2.890914,-41.904993,618,1321.33159
D1,Araioses/MA,-2.890914,-41.904993,12,25.65692
1,Aral Moreira/MS,-22.951141,-55.6268421,336,2724.61888
D1,Aral Moreira/MS,-22.951141,-55.6268421,9,72.98086
1,Aramari/BA,-12.0907897,-38.4985065,508,4432.42300
D1,Aramari/BA,-12.0907897,-38.4985065,11,95.97766
1,Arambaré/RS,-30.9132252,-51.4994625,142,3986.52442
D1,Arambaré/RS,-30.9132252,-51.4994625,4,112.29646
1,Arame/MA,-4.8858769,-46.0102484,1008,3076.54743
D1,Arame/MA,-4.8858769,-46.0102484,30,91.56391
1,Aramina/SP,-20.0876144,-47.789201,233,4120.24757
D1,Aramina/SP,-20.0876144,-47.789201,8,141.46773
1,Arandu/SP,-23.1345103,-49.0545651,245,3849.17518
D1,Arandu/SP,-23.1345103,-49.0545651,7,109.97643
1,Arantina/MG,-21.911667,-44.255833,83,2978.11267
D1,Arantina/MG,-21.911667,-44.255833,3,107.64263
1,Arapeí/SP,-22.6738889,-44.4477778,177,7195.12195
D1,Arapeí/SP,-22.6738889,-44.4477778,2,81.30081
1,Arapiraca/AL,-9.754866,-36.661471,20802,8926.09645
D1,Arapiraca/AL,-9.754866,-36.661471,324,139.02775
1,Arapoema/TO,-7.6575001,-49.0641484,403,6091.29383
D1,Arapoema/TO,-7.6575001,-49.0641484,5,75.57437
1,Araponga/MG,-20.666667,-42.520556,322,3809.29847
D1,Araponga/MG,-20.666667,-42.520556,6,70.98072
1,Arapongas/PR,-23.415296,-51.42592,9127,7312.71533
D1,Arapongas/PR,-23.415296,-51.42592,350,280.42625
1,Araporã/MG,-18.4318188,-49.188313,1519,21916.02943
D1,Araporã/MG,-18.4318188,-49.188313,20,288.55865
1,Arapoti/PR,-24.1457957,-49.8224605,2121,7494.69965
D1,Arapoti/PR,-24.1457957,-49.8224605,32,113.07420
1,Araputanga/MT,-15.4710868,-58.346796,1448,8542.26889
D1,Araputanga/MT,-15.4710868,-58.346796,33,194.67878
1,Arapuá/MG,-19.034444,-46.155556,153,5396.82540
D1,Arapuá/MG,-19.034444,-46.155556,1,35.27337
1,Arapuã/PR,-24.3079525,-51.7901941,168,5583.25025
D1,Arapuã/PR,-24.3079525,-51.7901941,5,166.16816
1,Araquari/SC,-26.3703324,-48.7210994,2859,7233.57960
D1,Araquari/SC,-26.3703324,-48.7210994,54,136.62585
1,Arara/PB,-6.8271895,-35.7605703,542,4002.36302
D1,Arara/PB,-6.8271895,-35.7605703,16,118.15094
1,Araranguá/SC,-28.9348832,-49.4858389,8330,12095.77882
D1,Araranguá/SC,-28.9348832,-49.4858389,170,246.85263
1,Araraquara/SP,-21.7886713,-48.1773096,15326,6430.33662
D1,Araraquara/SP,-21.7886713,-48.1773096,332,139.29739
1,Araras/SP,-22.3569477,-47.3838889,12455,9191.47492
D1,Araras/SP,-22.3569477,-47.3838889,273,201.46709
1,Ararendá/CE,-4.7504395,-40.8303611,636,5803.44922
D1,Ararendá/CE,-4.7504395,-40.8303611,12,109.49904
1,Arari/MA,-3.4547602,-44.7772723,484,1616.99853
D1,Arari/MA,-3.4547602,-44.7772723,18,60.13631
1,Araricá/RS,-29.6168543,-50.929121,911,15785.82568
D1,Araricá/RS,-29.6168543,-50.929121,24,415.87247
1,Araripe/CE,-7.212861,-40.1359222,691,3191.09633
D1,Araripe/CE,-7.212861,-40.1359222,9,41.56276
1,Araripina/PE,-7.5768582,-40.5038509,5365,6321.87971
D1,Araripina/PE,-7.5768582,-40.5038509,108,127.26244
1,Araruama/RJ,-22.8733203,-42.3428897,4432,3300.24648
D1,Araruama/RJ,-22.8733203,-42.3428897,208,154.88521
1,Araruna/PB,-6.5321155,-35.7397595,588,2873.47896
D1,Araruna/PB,-6.5321155,-35.7397595,16,78.18990
1,Araruna/PR,-23.9320308,-52.4976047,970,6928.57143
D1,Araruna/PR,-23.9320308,-52.4976047,18,128.57143
1,Arataca/BA,-15.2617424,-39.4122943,455,4151.08111
D1,Arataca/BA,-15.2617424,-39.4122943,12,109.47906
1,Aratiba/RS,-27.3955734,-52.3024325,341,5509.77541
D1,Aratiba/RS,-27.3955734,-52.3024325,6,96.94619
1,Aratuba/CE,-4.4195958,-39.0463737,902,7642.77241
D1,Aratuba/CE,-4.4195958,-39.0463737,5,42.36570
1,Aratuípe/BA,-13.077137,-39.0010786,289,3270.34061
D1,Aratuípe/BA,-13.077137,-39.0010786,7,79.21240
1,Araucária/PR,-25.5861107,-49.4051209,18758,12829.14085
D1,Araucária/PR,-25.5861107,-49.4051209,282,192.86799
1,Arauá/SE,-11.2644014,-37.6181058,811,8153.21202
D1,Arauá/SE,-11.2644014,-37.6181058,15,150.79924
1,Araxá/MG,-19.5928536,-46.940241,8331,7761.53610
D1,Araxá/MG,-19.5928536,-46.940241,126,117.38729
1,Araçagi/PB,-6.8519969,-35.3835602,938,5543.40760
D1,Araçagi/PB,-6.8519969,-35.3835602,12,70.91779
1,Araçariguama/SP,-23.438611,-47.061389,1098,4803.14961
D1,Araçariguama/SP,-23.438611,-47.061389,33,144.35696
1,Araçatuba/SP,-21.207992,-50.4390225,20760,10478.02189
D1,Araçatuba/SP,-21.207992,-50.4390225,568,286.68191
1,Araçaí/MG,-19.200833,-44.2475,49,2081.56330
1,Araçoiaba da Serra/SP,-23.5045367,-47.6168158,1927,5541.17782
D1,Araçoiaba da Serra/SP,-23.5045367,-47.6168158,40,115.02185
1,Araçoiaba/PE,-7.7856903,-35.0898881,350,1688.13003
D1,Araçoiaba/PE,-7.7856903,-35.0898881,22,106.11103
1,Araçu/GO,-16.3561579,-49.6815269,362,10384.39472
D1,Araçu/GO,-16.3561579,-49.6815269,13,372.92025
1,Araçuaí/MG,-16.8484451,-42.0661868,1088,2963.60863
D1,Araçuaí/MG,-16.8484451,-42.0661868,22,59.92591
1,Araçás/BA,-12.2139176,-38.2026159,525,4300.45872
D1,Araçás/BA,-12.2139176,-38.2026159,7,57.33945
1,Araújos/MG,-19.948055,-45.165556,533,5669.60962
D1,Araújos/MG,-19.948055,-45.165556,5,53.18583
1,Arceburgo/MG,-21.364444,-46.939722,597,5485.61977
D1,Arceburgo/MG,-21.364444,-46.939722,14,128.64100
1,Arco-Íris/SP,-21.7741308,-50.4668814,83,4681.33108
D1,Arco-Íris/SP,-21.7741308,-50.4668814,5,282.00790
1,Arcos/MG,-20.282223,-45.539444,4061,10056.95889
D1,Arcos/MG,-20.282223,-45.539444,51,126.30015
1,Arcoverde/PE,-8.415192,-37.057748,4632,6190.69258
D1,Arcoverde/PE,-8.415192,-37.057748,93,124.29499
1,Areado/MG,-21.3582771,-46.1476688,480,3161.84705
D1,Areado/MG,-21.3582771,-46.1476688,14,92.22054
1,Areal/RJ,-22.2314922,-43.1056264,713,5627.91065
D1,Areal/RJ,-22.2314922,-43.1056264,34,268.37162
1,Arealva/SP,-22.0301906,-48.9111936,553,6420.52711
D1,Arealva/SP,-22.0301906,-48.9111936,8,92.88285
1,Areia Branca/RN,-4.9506652,-37.1263312,1837,6568.45568
D1,Areia Branca/RN,-4.9506652,-37.1263312,77,275.32449
1,Areia Branca/SE,-10.7591455,-37.3148072,1303,6973.13497
D1,Areia Branca/SE,-10.7591455,-37.3148072,29,155.19640
1,Areia de Baraúnas/PB,-7.1233949,-36.9446216,83,3922.49527
D1,Areia de Baraúnas/PB,-7.1233949,-36.9446216,3,141.77694
1,Areia/PB,-6.9680243,-35.6994783,1003,4427.08333
D1,Areia/PB,-6.9680243,-35.6994783,20,88.27684
1,Areial/PB,-7.0501306,-35.9245244,232,3301.55116
D1,Areial/PB,-7.0501306,-35.9245244,6,85.38494
1,Areias/SP,-22.5800929,-44.6975127,227,5826.48871
D1,Areias/SP,-22.5800929,-44.6975127,1,25.66735
1,Areiópolis/SP,-22.6758064,-48.6673653,770,6900.87829
D1,Areiópolis/SP,-22.6758064,-48.6673653,11,98.58398
1,Arenápolis/MT,-14.4610369,-56.8432806,1169,12302.67312
D1,Arenápolis/MT,-14.4610369,-56.8432806,19,199.95790
1,Arenópolis/GO,-16.3859286,-51.55937,161,6348.58044
D1,Arenópolis/GO,-16.3859286,-51.55937,6,236.59306
1,Argirita/MG,-21.612761,-42.8371922,241,8912.72189
D1,Argirita/MG,-21.612761,-42.8371922,5,184.91124
1,Aricanduva/MG,-17.8678,-42.5569,78,1480.35680
1,Arinos/MG,-15.917223,-46.106111,370,2071.43657
D1,Arinos/MG,-15.917223,-46.106111,10,55.98477
1,Aripuanã/MT,-10.175806,-59.4439663,1996,8787.53192
D1,Aripuanã/MT,-10.175806,-59.4439663,37,162.89513
1,Ariquemes/RO,-9.9076522,-63.033069,17745,16202.07628
D1,Ariquemes/RO,-9.9076522,-63.033069,381,347.87214
1,Ariranha do Ivaí/PR,-24.3834527,-51.5876772,128,6195.54695
D1,Ariranha do Ivaí/PR,-24.3834527,-51.5876772,2,96.80542
1,Ariranha/SP,-21.18716,-48.790418,373,3821.32978
D1,Ariranha/SP,-21.18716,-48.790418,13,133.18308
1,Armazém/SC,-28.2624996,-49.0190126,1286,14682.04133
D1,Armazém/SC,-28.2624996,-49.0190126,25,285.42071
1,Armação dos Búzios/RJ,-22.7597805,-41.8875267,3740,10847.81158
D1,Armação dos Búzios/RJ,-22.7597805,-41.8875267,36,104.41744
1,Arneiroz/CE,-6.3235099,-40.1603859,282,3595.10454
D1,Arneiroz/CE,-6.3235099,-40.1603859,11,140.23457
1,Aroazes/PI,-6.1108814,-41.7886137,507,8700.87524
D1,Aroazes/PI,-6.1108814,-41.7886137,12,205.93788
1,Aroeiras do Itaim/PI,-7.2797031,-41.5629681,97,3802.43042
D1,Aroeiras do Itaim/PI,-7.2797031,-41.5629681,1,39.20031
1,Aroeiras/PB,-7.5462904,-35.7080002,831,4347.14375
D1,Aroeiras/PB,-7.5462904,-35.7080002,5,26.15610
1,Arraial do Cabo/RJ,-22.9662839,-42.024427,567,1853.36515
D1,Arraial do Cabo/RJ,-22.9662839,-42.024427,15,49.03082
1,Arraial/PI,-6.6541632,-42.5335332,134,2838.98305
D1,Arraial/PI,-6.6541632,-42.5335332,2,42.37288
1,Arraias/TO,-12.9287788,-46.9437231,405,3844.69337
D1,Arraias/TO,-12.9287788,-46.9437231,3,28.47921
1,Arroio Grande/RS,-32.2384246,-53.0866661,1168,6404.21099
D1,Arroio Grande/RS,-32.2384246,-53.0866661,44,241.25452
1,Arroio Trinta/SC,-26.9301976,-51.334928,411,11580.72697
D1,Arroio Trinta/SC,-26.9301976,-51.334928,7,197.23866
1,Arroio do Meio/RS,-29.4020392,-51.9444993,2526,12047.50322
D1,Arroio do Meio/RS,-29.4020392,-51.9444993,30,143.08199
1,Arroio do Padre/RS,-31.4428773,-52.4228985,125,4235.85225
D1,Arroio do Padre/RS,-31.4428773,-52.4228985,1,33.88682
1,Arroio do Sal/RS,-29.549852,-49.8874395,882,8580.60123
D1,Arroio do Sal/RS,-29.549852,-49.8874395,27,262.67147
1,Arroio do Tigre/RS,-29.334158,-53.0888935,925,6896.29464
D1,Arroio do Tigre/RS,-29.334158,-53.0888935,17,126.74271
1,Arroio dos Ratos/RS,-30.0894524,-51.7265541,755,5325.52726
D1,Arroio dos Ratos/RS,-30.0894524,-51.7265541,29,204.55668
1,Artur Nogueira/SP,-22.572737,-47.172679,3022,5460.78786
D1,Artur Nogueira/SP,-22.572737,-47.172679,83,149.98193
1,Aruanã/GO,-14.9162439,-51.0715692,360,3560.83086
D1,Aruanã/GO,-14.9162439,-51.0715692,10,98.91197
1,Arujá/SP,-23.396266,-46.3175449,5636,6182.73967
D1,Arujá/SP,-23.396266,-46.3175449,207,227.08075
1,Arvoredo/SC,-27.0752908,-52.4571847,264,11817.36795
D1,Arvoredo/SC,-27.0752908,-52.4571847,3,134.28827
1,Arvorezinha/RS,-28.87369,-52.17808,659,6322.55589
D1,Arvorezinha/RS,-28.87369,-52.17808,23,220.66584
1,Arês/RN,-6.1969216,-35.1642968,686,4758.27149
D1,Arês/RN,-6.1969216,-35.1642968,20,138.72512
1,Ascurra/SC,-26.9569975,-49.3767752,983,12321.38381
D1,Ascurra/SC,-26.9569975,-49.3767752,7,87.74129
1,Aspásia/SP,-20.160028,-50.728046,87,4785.47855
D1,Aspásia/SP,-20.160028,-50.728046,3,165.01650
1,Assaré/CE,-6.8746791,-39.8741385,1182,5034.50038
D1,Assaré/CE,-6.8746791,-39.8741385,25,106.48266
1,Assaí/PR,-23.3736041,-50.8454929,1085,7255.58379
D1,Assaí/PR,-23.3736041,-50.8454929,33,220.67674
1,Assis Brasil/AC,-10.9409203,-69.5672108,1386,18396.60207
D1,Assis Brasil/AC,-10.9409203,-69.5672108,20,265.46323
1,Assis Chateaubriand/PR,-24.4054826,-53.5120468,2927,8779.24415
D1,Assis Chateaubriand/PR,-24.4054826,-53.5120468,64,191.96161
1,Assis/SP,-22.6620892,-50.420623,6593,6273.84929
D1,Assis/SP,-22.6620892,-50.420623,214,203.64079
1,Assunção do Piauí/PI,-5.8610212,-41.0485091,274,3484.67506
D1,Assunção do Piauí/PI,-5.8610212,-41.0485091,6,76.30675
1,Assunção/PB,-7.073396,-36.7274003,260,6453.21420
D1,Assunção/PB,-7.073396,-36.7274003,2,49.64011
1,Astolfo Dutra/MG,-21.3132636,-42.8624102,996,6979.67765
D1,Astolfo Dutra/MG,-21.3132636,-42.8624102,15,105.11563
1,Astorga/PR,-23.2350184,-51.6647074,2306,8798.50433
D1,Astorga/PR,-23.2350184,-51.6647074,49,186.95868
1,Atalaia do Norte/AM,-4.3658547,-70.1908742,2664,13060.10393
D1,Atalaia do Norte/AM,-4.3658547,-70.1908742,8,39.21953
1,Atalaia/AL,-9.5029595,-36.0219316,988,2085.92843
D1,Atalaia/AL,-9.5029595,-36.0219316,39,82.33928
1,Atalaia/PR,-23.1513833,-52.0529697,323,8322.59727
D1,Atalaia/PR,-23.1513833,-52.0529697,15,386.49833
1,Atalanta/SC,-27.421916,-49.778863,241,7543.03599
D1,Atalanta/SC,-27.421916,-49.778863,3,93.89671
1,Ataléia/MG,-18.04432,-41.1110524,988,7793.02729
D1,Ataléia/MG,-18.04432,-41.1110524,7,55.21376
1,Atibaia/SP,-23.1177393,-46.5547861,8232,5713.17528
D1,Atibaia/SP,-23.1177393,-46.5547861,202,140.19210
1,Atilio Vivacqua/ES,-20.9139369,-41.1947519,1253,10351.09459
D1,Atilio Vivacqua/ES,-20.9139369,-41.1947519,20,165.22098
1,Augustinópolis/TO,-5.4662267,-47.8897519,1281,6871.21171
D1,Augustinópolis/TO,-5.4662267,-47.8897519,20,107.27887
1,Augusto Corrêa/PA,-1.0229335,-46.6404029,1835,3948.69919
D1,Augusto Corrêa/PA,-1.0229335,-46.6404029,30,64.55639
1,Augusto Pestana/RS,-28.5148413,-53.9906433,311,4710.69373
D1,Augusto Pestana/RS,-28.5148413,-53.9906433,6,90.88155
1,Augusto de Lima/MG,-18.1092963,-44.2651945,192,3957.94682
D1,Augusto de Lima/MG,-18.1092963,-44.2651945,6,123.68584
1,Aurelino Leal/BA,-14.3167137,-39.3256107,806,7133.37463
D1,Aurelino Leal/BA,-14.3167137,-39.3256107,22,194.70750
1,Auriflama/SP,-20.6840418,-50.5554616,1541,10102.93057
D1,Auriflama/SP,-20.6840418,-50.5554616,48,314.69219
1,Aurilândia/GO,-16.6772599,-50.4641231,169,5526.48790
D1,Aurilândia/GO,-16.6772599,-50.4641231,5,163.50556
1,Aurora do Pará/PA,-2.1323199,-47.558436,1076,3386.52315
D1,Aurora do Pará/PA,-2.1323199,-47.558436,12,37.76792
1,Aurora do Tocantins/TO,-12.71045,-46.407604,155,4097.27729
D1,Aurora do Tocantins/TO,-12.71045,-46.407604,2,52.86809
1,Aurora/CE,-6.9426019,-38.9693765,1166,4737.91142
D1,Aurora/CE,-6.9426019,-38.9693765,28,113.77489
1,Aurora/SC,-27.3166417,-49.6368502,617,10856.94176
D1,Aurora/SC,-27.3166417,-49.6368502,12,211.15608
1,Autazes/AM,-3.5833283,-59.1301518,2724,6760.98287
D1,Autazes/AM,-3.5833283,-59.1301518,86,213.45247
1,Avanhandava/SP,-21.4603331,-49.9465156,520,3752.07446
D1,Avanhandava/SP,-21.4603331,-49.9465156,23,165.95714
1,Avaré/SP,-23.1045215,-48.9259103,5411,5931.03297
D1,Avaré/SP,-23.1045215,-48.9259103,116,127.14837
1,Avaí/SP,-22.1564662,-49.3316395,243,4470.19868
D1,Avaí/SP,-22.1564662,-49.3316395,4,73.58352
1,Aveiro/PA,-3.6049239,-55.3310742,566,3450.37796
D1,Aveiro/PA,-3.6049239,-55.3310742,8,48.76859
1,Avelino Lopes/PI,-10.1346855,-43.9489525,291,2569.30955
D1,Avelino Lopes/PI,-10.1346855,-43.9489525,17,150.09712
1,Avelinópolis/GO,-16.4672409,-49.7578661,261,10834.37111
D1,Avelinópolis/GO,-16.4672409,-49.7578661,11,456.62100
1,Axixá do Tocantins/TO,-5.612747,-47.77007,957,9778.27731
D1,Axixá do Tocantins/TO,-5.612747,-47.77007,15,153.26453
1,Axixá/MA,-2.8379465,-44.0561053,189,1551.34203
D1,Axixá/MA,-2.8379465,-44.0561053,4,32.83264
1,Açailândia/MA,-4.9514278,-47.4844564,4600,4066.44213
D1,Açailândia/MA,-4.9514278,-47.4844564,160,141.44147
1,Açu/RN,-5.5836157,-36.9139541,4226,7238.28446
D1,Açu/RN,-5.5836157,-36.9139541,120,205.53576
1,Açucena/MG,-19.073056,-42.546666,630,6725.02135
D1,Açucena/MG,-19.073056,-42.546666,17,181.46883
1,Babaçulândia/TO,-7.2034355,-47.761613,550,5156.57229
D1,Babaçulândia/TO,-7.2034355,-47.761613,4,37.50234
1,Bacabal/MA,-4.2318132,-44.781167,4228,4034.73614
D1,Bacabal/MA,-4.2318132,-44.781167,136,129.78338
1,Bacabeira/MA,-2.9775747,-44.3155943,315,1825.87526
D1,Bacabeira/MA,-2.9775747,-44.3155943,5,28.98215
1,Bacuri/MA,-1.728894,-45.1417148,429,2299.77485
D1,Bacuri/MA,-1.728894,-45.1417148,4,21.44312
1,Bacurituba/MA,-2.7082587,-44.7381309,112,1975.30864
D1,Bacurituba/MA,-2.7082587,-44.7381309,1,17.63668
1,Bady Bassitt/SP,-20.9178969,-49.4517911,2171,12223.41084
D1,Bady Bassitt/SP,-20.9178969,-49.4517911,45,253.36411
1,Baependi/MG,-21.959162,-44.8899249,996,5187.77020
D1,Baependi/MG,-21.959162,-44.8899249,10,52.08605
1,Bagre/PA,-1.8994498,-50.2103844,802,2560.25539
D1,Bagre/PA,-1.8994498,-50.2103844,11,35.11572
1,Bagé/RS,-31.3314264,-54.1062808,6486,5345.53097
D1,Bagé/RS,-31.3314264,-54.1062808,167,137.63547
1,Baianópolis/BA,-12.3067564,-44.5383591,332,2383.51640
D1,Baianópolis/BA,-12.3067564,-44.5383591,3,21.53780
1,Baixa Grande do Ribeiro/PI,-7.862861,-45.2113289,1881,16116.87088
D1,Baixa Grande do Ribeiro/PI,-7.862861,-45.2113289,19,162.79668
1,Baixa Grande/BA,-11.9630941,-40.1657537,582,2846.10494
D1,Baixa Grande/BA,-11.9630941,-40.1657537,7,34.23150
1,Baixio/CE,-6.7303544,-38.7170095,320,5076.94749
D1,Baixio/CE,-6.7303544,-38.7170095,8,126.92369
1,Baixo Guandu/ES,-19.5138322,-41.0182089,3042,9771.29642
D1,Baixo Guandu/ES,-19.5138322,-41.0182089,64,205.57626
1,Baião/PA,-2.7903479,-49.6702845,634,1308.32250
D1,Baião/PA,-2.7903479,-49.6702845,22,45.39920
1,Balbinos/SP,-21.9006253,-49.3583966,299,5038.75969
D1,Balbinos/SP,-21.9006253,-49.3583966,3,50.55612
1,Baldim/MG,-19.2913568,-43.9558262,420,5382.54517
D1,Baldim/MG,-19.2913568,-43.9558262,8,102.52467
1,Baliza/GO,-16.1978119,-52.542789,180,3409.09091
D1,Baliza/GO,-16.1978119,-52.542789,6,113.63636
1,Balneário Arroio do Silva/SC,-28.9815269,-49.4189932,1646,12256.14296
D1,Balneário Arroio do Silva/SC,-28.9815269,-49.4189932,36,268.05659
1,Balneário Barra do Sul/SC,-26.459842,-48.6061471,1220,11055.73176
D1,Balneário Barra do Sul/SC,-26.459842,-48.6061471,25,226.55188
1,Balneário Camboriú/SC,-26.9924395,-48.6339782,21665,14859.80411
D1,Balneário Camboriú/SC,-26.9924395,-48.6339782,311,213.31175
1,Balneário Gaivota/SC,-29.1553098,-49.5808712,1072,9520.42629
D1,Balneário Gaivota/SC,-29.1553098,-49.5808712,23,204.26288
1,Balneário Pinhal/RS,-30.2482978,-50.234585,649,4518.55462
D1,Balneário Pinhal/RS,-30.2482978,-50.234585,33,229.75701
1,Balneário Piçarras/SC,-26.7638889,-48.6716667,3783,15913.67996
D1,Balneário Piçarras/SC,-26.7638889,-48.6716667,38,159.85193
1,Balneário Rincão/SC,-28.8235718,-49.2241642,1202,9284.72115
D1,Balneário Rincão/SC,-28.8235718,-49.2241642,33,254.90499
1,Balsa Nova/PR,-25.5842234,-49.6312741,1108,8463.18362
D1,Balsa Nova/PR,-25.5842234,-49.6312741,22,168.04155
1,Balsas/MA,-7.53214,-46.037163,8176,8522.97011
D1,Balsas/MA,-7.53214,-46.037163,111,115.71058
1,Bambuí/MG,-20.0131996,-45.9777034,985,4121.68382
D1,Bambuí/MG,-20.0131996,-45.9777034,12,50.21341
1,Banabuiú/CE,-5.3046404,-38.919766,973,5329.75460
D1,Banabuiú/CE,-5.3046404,-38.919766,7,38.34356
1,Bananal/SP,-22.6828195,-44.3221095,722,6567.81588
D1,Bananal/SP,-22.6828195,-44.3221095,2,18.19340
1,Bananeiras/PB,-6.7537682,-35.6338343,893,4198.59890
D1,Bananeiras/PB,-6.7537682,-35.6338343,13,61.12182
1,Bandeira do Sul/MG,-21.728056,-46.385555,168,2907.58048
D1,Bandeira do Sul/MG,-21.728056,-46.385555,6,103.84216
1,Bandeira/MG,-15.884444,-40.559167,444,9315.98825
D1,Bandeira/MG,-15.884444,-40.559167,9,188.83760
1,Bandeirante/SC,-26.7677402,-53.6397596,202,7628.39879
D1,Bandeirante/SC,-26.7677402,-53.6397596,2,75.52870
1,Bandeirantes do Tocantins/TO,-7.7635698,-48.579148,273,7600.22272
D1,Bandeirantes do Tocantins/TO,-7.7635698,-48.579148,4,111.35857
1,Bandeirantes/MS,-19.9179623,-54.3646768,427,5876.68593
D1,Bandeirantes/MS,-19.9179623,-54.3646768,7,96.33911
1,Bandeirantes/PR,-23.107788,-50.370407,2543,8147.76841
D1,Bandeirantes/PR,-23.107788,-50.370407,73,233.89190
1,Bannach/PA,-7.3508505,-50.4064531,527,16155.73268
D1,Bannach/PA,-7.3508505,-50.4064531,2,61.31208
1,Banzaê/BA,-10.5827616,-38.6122305,806,6087.61329
D1,Banzaê/BA,-10.5827616,-38.6122305,7,52.87009
1,Baraúna/PB,-6.643394,-36.2531932,215,4331.18453
D1,Baraúna/PB,-6.643394,-36.2531932,3,60.43513
1,Baraúna/RN,-5.0775002,-37.61752,760,2643.75413
D1,Baraúna/RN,-5.0775002,-37.61752,18,62.61523
1,Barbacena/MG,-21.2254524,-43.7735087,4890,3538.24781
D1,Barbacena/MG,-21.2254524,-43.7735087,154,111.42948
1,Barbalha/CE,-7.3121067,-39.3036427,3566,5824.13275
D1,Barbalha/CE,-7.3121067,-39.3036427,72,117.59326
1,Barbosa Ferraz/PR,-24.0287182,-52.00811,626,5478.73271
D1,Barbosa Ferraz/PR,-24.0287182,-52.00811,14,122.52757
1,Barbosa/SP,-21.265661,-49.951816,334,4472.41564
D1,Barbosa/SP,-21.265661,-49.951816,9,120.51419
1,Barcarena/PA,-1.5107945,-48.6190679,8815,6939.46956
D1,Barcarena/PA,-1.5107945,-48.6190679,172,135.40428
1,Barcelona/RN,-5.9514918,-35.9260284,53,1326.99049
D1,Barcelona/RN,-5.9514918,-35.9260284,3,75.11267
1,Barcelos/AM,-0.9729214,-62.925635,4047,14642.88299
D1,Barcelos/AM,-0.9729214,-62.925635,56,202.61958
1,Bariri/SP,-22.0746355,-48.7394852,2189,6156.13927
D1,Bariri/SP,-22.0746355,-48.7394852,85,239.04607
1,Barra Bonita/SC,-26.6526364,-53.4419581,121,7328.89158
D1,Barra Bonita/SC,-26.6526364,-53.4419581,1,60.56935
1,Barra Bonita/SP,-22.490859,-48.558349,2495,6906.38321
D1,Barra Bonita/SP,-22.490859,-48.558349,67,185.46199
1,Barra D'Alcântara/PI,-6.5209258,-42.1071089,103,2606.27530
D1,Barra D'Alcântara/PI,-6.5209258,-42.1071089,3,75.91093
1,Barra Funda/RS,-27.9230048,-53.0401045,377,14778.51823
D1,Barra Funda/RS,-27.9230048,-53.0401045,7,274.40220
1,Barra Longa/MG,-20.2833541,-43.0423516,216,4307.07876
D1,Barra Longa/MG,-20.2833541,-43.0423516,6,119.64108
1,Barra Mansa/RJ,-22.5394843,-44.1735129,12566,6798.56952
D1,Barra Mansa/RJ,-22.5394843,-44.1735129,386,208.83717
1,Barra Velha/SC,-26.6338203,-48.6835001,3388,11346.28265
D1,Barra Velha/SC,-26.6338203,-48.6835001,71,237.77629
1,Barra da Estiva/BA,-13.6269662,-41.3278287,1315,6448.60730
D1,Barra da Estiva/BA,-13.6269662,-41.3278287,9,44.13495
1,Barra de Guabiraba/PE,-8.4173522,-35.6626669,339,2336.31978
D1,Barra de Guabiraba/PE,-8.4173522,-35.6626669,13,89.59338
1,Barra de Santa Rosa/PB,-6.7218007,-36.0564638,695,4484.73898
D1,Barra de Santa Rosa/PB,-6.7218007,-36.0564638,4,25.81145
1,Barra de Santana/PB,-7.5230865,-35.9988518,313,3748.95197
D1,Barra de Santana/PB,-7.5230865,-35.9988518,4,47.90993
1,Barra de Santo Antônio/AL,-9.4038098,-35.5117693,251,1562.11103
D1,Barra de Santo Antônio/AL,-9.4038098,-35.5117693,18,112.02390
1,Barra de São Francisco/ES,-18.7570902,-40.8916119,4218,9377.70960
D1,Barra de São Francisco/ES,-18.7570902,-40.8916119,169,375.73090
1,Barra de São Miguel/AL,-9.8261357,-35.8837777,315,3759.84722
D1,Barra de São Miguel/AL,-9.8261357,-35.8837777,6,71.61614
1,Barra de São Miguel/PB,-7.7528088,-36.3170996,315,5193.73454
D1,Barra de São Miguel/PB,-7.7528088,-36.3170996,5,82.44023
1,Barra do Bugres/MT,-15.0683712,-57.1853688,2142,6066.78562
D1,Barra do Bugres/MT,-15.0683712,-57.1853688,51,144.44728
1,Barra do Chapéu/SP,-24.472203,-49.023784,215,3732.63889
D1,Barra do Chapéu/SP,-24.472203,-49.023784,1,17.36111
1,Barra do Choça/BA,-14.8638173,-40.5761637,1685,5399.08360
D1,Barra do Choça/BA,-14.8638173,-40.5761637,27,86.51351
1,Barra do Corda/MA,-5.496823,-45.248496,4938,5580.16544
D1,Barra do Corda/MA,-5.496823,-45.248496,48,54.24219
1,Barra do Garças/MT,-15.8916033,-52.2615413,6006,9824.15965
D1,Barra do Garças/MT,-15.8916033,-52.2615413,210,343.50209
1,Barra do Guarita/RS,-27.1888016,-53.7147086,105,3223.82561
D1,Barra do Guarita/RS,-27.1888016,-53.7147086,3,92.10930
1,Barra do Jacaré/PR,-23.1151788,-50.1813945,150,5393.74326
D1,Barra do Jacaré/PR,-23.1151788,-50.1813945,1,35.95829
1,Barra do Mendes/BA,-11.8053298,-42.057037,614,4438.66117
D1,Barra do Mendes/BA,-11.8053298,-42.057037,9,65.06181
1,Barra do Ouro/TO,-7.7113784,-47.6743925,113,2439.55095
D1,Barra do Ouro/TO,-7.7113784,-47.6743925,5,107.94473
1,Barra do Piraí/RJ,-22.4703403,-43.8263256,4454,4420.22945
D1,Barra do Piraí/RJ,-22.4703403,-43.8263256,217,215.35469
1,Barra do Quaraí/RS,-30.208947,-57.5505128,198,4684.17317
D1,Barra do Quaraí/RS,-30.208947,-57.5505128,2,47.31488
1,Barra do Ribeiro/RS,-30.2930206,-51.301437,931,6867.80761
D1,Barra do Ribeiro/RS,-30.2930206,-51.301437,46,339.33314
1,Barra do Rio Azul/RS,-27.4101581,-52.4117471,63,3806.64653
D1,Barra do Rio Azul/RS,-27.4101581,-52.4117471,1,60.42296
1,Barra do Rocha/BA,-14.2090974,-39.6004395,340,6058.44619
D1,Barra do Rocha/BA,-14.2090974,-39.6004395,4,71.27584
1,Barra do Turvo/SP,-24.756421,-48.5056942,412,5398.32285
D1,Barra do Turvo/SP,-24.756421,-48.5056942,10,131.02725
1,Barra dos Coqueiros/SE,-10.9075694,-37.0386249,5119,16550.27481
D1,Barra dos Coqueiros/SE,-10.9075694,-37.0386249,64,206.91885
1,Barra/BA,-11.0892702,-43.1420453,1504,2789.83491
D1,Barra/BA,-11.0892702,-43.1420453,27,50.08347
1,Barracão/PR,-26.252395,-53.6349576,924,8960.43445
D1,Barracão/PR,-26.252395,-53.6349576,24,232.73856
1,Barracão/RS,-27.6728964,-51.4582928,283,5384.32268
D1,Barracão/RS,-27.6728964,-51.4582928,9,171.23288
1,Barras/PI,-4.2446153,-42.2920241,3966,8405.21352
D1,Barras/PI,-4.2446153,-42.2920241,79,167.42609
1,Barreira/CE,-4.2883361,-38.641094,951,4212.99783
D1,Barreira/CE,-4.2883361,-38.641094,28,124.04200
1,Barreiras do Piauí/PI,-9.9224524,-45.4763776,58,1730.31026
D1,Barreiras do Piauí/PI,-9.9224524,-45.4763776,1,29.83294
1,Barreiras/BA,-12.1440031,-44.9967406,11322,7212.61347
D1,Barreiras/BA,-12.1440031,-44.9967406,157,100.01593
1,Barreirinha/AM,-2.798863,-57.067897,2261,6960.56399
D1,Barreirinha/AM,-2.798863,-57.067897,60,184.71200
1,Barreirinhas/MA,-2.7541271,-42.8259693,1675,2649.60375
D1,Barreirinhas/MA,-2.7541271,-42.8259693,32,50.61930
1,Barreiros/PE,-8.8159644,-35.1831905,643,1503.60116
D1,Barreiros/PE,-8.8159644,-35.1831905,47,109.90553
1,Barretos/SP,-20.5531437,-48.5697509,10095,8218.47549
D1,Barretos/SP,-20.5531437,-48.5697509,285,232.02234
1,Barrinha/SP,-21.1898849,-48.1550642,1174,3538.27607
D1,Barrinha/SP,-21.1898849,-48.1550642,47,141.65160
1,Barro Alto/BA,-11.7618025,-41.9094904,645,4284.57553
D1,Barro Alto/BA,-11.7618025,-41.9094904,8,53.14202
1,Barro Alto/GO,-14.9696025,-48.9190985,1177,10317.32118
D1,Barro Alto/GO,-14.9696025,-48.9190985,13,113.95512
1,Barro Duro/PI,-5.8180139,-42.5106589,566,8054.64636
D1,Barro Duro/PI,-5.8180139,-42.5106589,8,113.84659
1,Barro Preto/BA,-14.8068289,-39.4727588,514,9434.65492
D1,Barro Preto/BA,-14.8068289,-39.4727588,8,146.84288
1,Barro/CE,-7.1713587,-38.7742136,679,2983.56622
D1,Barro/CE,-7.1713587,-38.7742136,16,70.30495
1,Barrocas/BA,-11.5165,-39.099282894736845,651,4042.22291
D1,Barrocas/BA,-11.5165,-39.099282894736845,17,105.55728
1,Barrolândia/TO,-9.837246,-48.7264346,654,11573.17289
D1,Barrolândia/TO,-9.837246,-48.7264346,18,318.52769
1,Barroquinha/CE,-3.0200371,-41.1339229,917,6095.45334
D1,Barroquinha/CE,-3.0200371,-41.1339229,23,152.88487
1,Barros Cassal/RS,-29.094938,-52.5832366,460,4113.75425
D1,Barros Cassal/RS,-29.094938,-52.5832366,6,53.65766
1,Barroso/MG,-21.187222,-43.976111,763,3651.24181
D1,Barroso/MG,-21.187222,-43.976111,14,66.99526
1,Barueri/SP,-23.5112184,-46.8764612,21631,7809.53275
D1,Barueri/SP,-23.5112184,-46.8764612,787,284.13399
1,Barão de Antonina/SP,-23.6295651,-49.5632104,157,4488.27902
D1,Barão de Antonina/SP,-23.6295651,-49.5632104,3,85.76329
1,Barão de Cocais/MG,-19.9452437,-43.4870298,2994,9109.71825
D1,Barão de Cocais/MG,-19.9452437,-43.4870298,50,152.13290
1,Barão de Cotegipe/RS,-27.6214694,-52.3765316,532,8036.25378
D1,Barão de Cotegipe/RS,-27.6214694,-52.3765316,6,90.63444
1,Barão de Grajaú/MA,-6.7542591,-43.0263477,286,1511.30839
D1,Barão de Grajaú/MA,-6.7542591,-43.0263477,2,10.56859
1,Barão de Melgaço/MT,-16.195776,-55.9668049,269,3294.95345
D1,Barão de Melgaço/MT,-16.195776,-55.9668049,11,134.73787
1,Barão de Monte Alto/MG,-21.244722,-42.2375,190,3548.74860
D1,Barão de Monte Alto/MG,-21.244722,-42.2375,7,130.74337
1,Barão do Triunfo/RS,-30.3909877,-51.7375349,360,4787.87073
D1,Barão do Triunfo/RS,-30.3909877,-51.7375349,5,66.49820
1,Barão/RS,-29.372474,-51.494908,468,7545.95292
D1,Barão/RS,-29.372474,-51.494908,7,112.86682
1,Bastos/SP,-21.9222474,-50.7317727,490,2338.56727
D1,Bastos/SP,-21.9222474,-50.7317727,19,90.67914
1,Bataguassu/MS,-21.715899,-52.422058,1997,8561.62915
D1,Bataguassu/MS,-21.715899,-52.422058,23,98.60665
1,Batalha/AL,-9.6733809,-37.1265481,868,4733.34060
D1,Batalha/AL,-9.6733809,-37.1265481,15,81.79736
1,Batalha/PI,-4.022391,-42.0780926,826,3070.06133
D1,Batalha/PI,-4.022391,-42.0780926,30,111.50344
1,Batatais/SP,-20.892867,-47.592149,2036,3232.77231
D1,Batatais/SP,-20.892867,-47.592149,75,119.08542
1,Batayporã/MS,-22.2976466,-53.2685608,604,5322.05481
D1,Batayporã/MS,-22.2976466,-53.2685608,11,96.92484
1,Baturité/CE,-4.3290203,-38.8821055,2023,5628.66921
D1,Baturité/CE,-4.3290203,-38.8821055,50,139.11689
1,Bauru/SP,-22.3218102,-49.0705863,32478,8562.68307
D1,Bauru/SP,-22.3218102,-49.0705863,700,184.55195
1,Bayeux/PB,-7.1301631,-34.936532,5774,5940.14588
D1,Bayeux/PB,-7.1301631,-34.936532,205,210.89884
1,Baía Formosa/RN,-6.3691885,-35.0063741,249,2671.10062
D1,Baía Formosa/RN,-6.3691885,-35.0063741,8,85.81849
1,Baía da Traição/PB,-6.691258,-34.9371244,1114,12247.14160
D1,Baía da Traição/PB,-6.691258,-34.9371244,11,120.93228
1,Bebedouro/SP,-20.949077,-48.479083,3204,4131.26169
D1,Bebedouro/SP,-20.949077,-48.479083,77,99.28438
1,Beberibe/CE,-4.1810469,-38.1298101,2985,5533.00339
D1,Beberibe/CE,-4.1810469,-38.1298101,70,129.75217
1,Bela Cruz/CE,-3.0529129,-40.167582,2503,7649.28794
D1,Bela Cruz/CE,-3.0529129,-40.167582,48,146.69030
1,Bela Vista da Caroba/PR,-25.8792818,-53.6672545,156,4512.58316
D1,Bela Vista da Caroba/PR,-25.8792818,-53.6672545,4,115.70726
1,Bela Vista de Goiás/GO,-16.9692949,-48.9513071,1993,6536.14063
D1,Bela Vista de Goiás/GO,-16.9692949,-48.9513071,48,157.41834
1,Bela Vista de Minas/MG,-19.8289721,-43.0973688,589,5739.62191
D1,Bela Vista de Minas/MG,-19.8289721,-43.0973688,9,87.70220
1,Bela Vista do Maranhão/MA,-3.7416367,-45.2514192,283,2509.08769
D1,Bela Vista do Maranhão/MA,-3.7416367,-45.2514192,3,26.59810
1,Bela Vista do Paraíso/PR,-22.9948493,-51.1907996,1546,10039.61296
D1,Bela Vista do Paraíso/PR,-22.9948493,-51.1907996,52,337.68427
1,Bela Vista do Piauí/PI,-7.9716353,-41.8715061,226,5607.94045
D1,Bela Vista do Piauí/PI,-7.9716353,-41.8715061,6,148.88337
1,Bela Vista do Toldo/SC,-26.274625,-50.466354,58,911.66300
D1,Bela Vista do Toldo/SC,-26.274625,-50.466354,1,15.71833
1,Bela Vista/MS,-22.107327,-56.5317344,675,2728.92662
D1,Bela Vista/MS,-22.107327,-56.5317344,17,68.72852
1,Belford Roxo/RJ,-22.7667284,-43.4033603,18629,3630.54892
D1,Belford Roxo/RJ,-22.7667284,-43.4033603,517,100.75655
1,Belmiro Braga/MG,-21.9486291,-43.413564,148,4321.16788
D1,Belmiro Braga/MG,-21.9486291,-43.413564,3,87.59124
1,Belmonte/BA,-15.8630837,-38.8792845,879,3750.48001
D1,Belmonte/BA,-15.8630837,-38.8792845,15,64.00137
1,Belmonte/SC,-26.8448262,-53.578916,204,7530.45404
D1,Belmonte/SC,-26.8448262,-53.578916,4,147.65596
1,Belo Campo/BA,-15.0338286,-41.2585109,602,3518.61593
D1,Belo Campo/BA,-15.0338286,-41.2585109,7,40.91414
1,Belo Horizonte/MG,-19.9227318,-43.9450948,162568,6447.10981
D1,Belo Horizonte/MG,-19.9227318,-43.9450948,3923,155.57805
1,Belo Jardim/PE,-8.3338293,-36.4176419,2461,3209.14888
D1,Belo Jardim/PE,-8.3338293,-36.4176419,73,95.19214
1,Belo Monte/AL,-9.8269944,-37.2787165,239,3561.84799
D1,Belo Monte/AL,-9.8269944,-37.2787165,6,89.41878
1,Belo Oriente/MG,-19.2232523,-42.4807033,2189,8109.20945
D1,Belo Oriente/MG,-19.2232523,-42.4807033,47,174.11277
1,Belo Vale/MG,-20.407778,-44.024167,501,6490.47804
D1,Belo Vale/MG,-20.407778,-44.024167,9,116.59541
1,Belterra/PA,-2.636091,-54.937392,1136,6368.06996
D1,Belterra/PA,-2.636091,-54.937392,21,117.71960
1,Belágua/MA,-3.1604031,-43.5085052,191,2537.19447
D1,Belágua/MA,-3.1604031,-43.5085052,14,185.97237
1,Belém de Maria/PE,-8.6242497,-35.8388934,172,1418.90777
D1,Belém de Maria/PE,-8.6242497,-35.8388934,5,41.24732
1,Belém do Brejo do Cruz/PB,-6.1880727,-37.5332267,487,6626.75194
D1,Belém do Brejo do Cruz/PB,-6.1880727,-37.5332267,5,68.03647
1,Belém do Piauí/PI,-7.3767305,-40.9712156,411,11458.04293
D1,Belém do Piauí/PI,-7.3767305,-40.9712156,7,195.14915
1,Belém do São Francisco/PE,-8.7517707,-38.9625715,524,2527.73758
D1,Belém do São Francisco/PE,-8.7517707,-38.9625715,7,33.76749
1,Belém/AL,-9.5715351,-36.492841,92,2147.52568
D1,Belém/AL,-9.5715351,-36.492841,3,70.02801
1,Belém/PA,-1.45056,-48.4682453,92778,6186.68068
D1,Belém/PA,-1.45056,-48.4682453,4162,277.53309
1,Belém/PB,-6.6967586,-35.5369626,1734,9793.84355
D1,Belém/PB,-6.6967586,-35.5369626,30,169.44366
1,Beneditinos/PI,-5.4565671,-42.3605061,769,7342.69073
D1,Beneditinos/PI,-5.4565671,-42.3605061,28,267.35415
1,Benedito Leite/MA,-7.2173453,-44.5523331,285,5054.98404
D1,Benedito Leite/MA,-7.2173453,-44.5523331,2,35.47357
1,Benedito Novo/SC,-26.7840657,-49.3629511,897,7617.83439
D1,Benedito Novo/SC,-26.7840657,-49.3629511,13,110.40340
1,Benevides/PA,-1.3555577,-48.252235,3460,5425.91896
D1,Benevides/PA,-1.3555577,-48.252235,79,123.88659
1,Benjamin Constant do Sul/RS,-27.5105555,-52.6007689,152,7763.02349
1,Benjamin Constant/AM,-4.3782748,-70.0290603,2653,6038.46592
D1,Benjamin Constant/AM,-4.3782748,-70.0290603,79,179.81108
1,Bento Fernandes/RN,-5.6926846,-35.8207423,91,1647.05882
D1,Bento Fernandes/RN,-5.6926846,-35.8207423,2,36.19910
1,Bento Gonçalves/RS,-29.1654014,-51.5197627,13587,11154.89766
D1,Bento Gonçalves/RS,-29.1654014,-51.5197627,248,203.60746
1,Bento de Abreu/SP,-21.2707225,-50.8120444,232,7720.46589
1,Bequimão/MA,-2.4495376,-44.7884889,275,1291.14043
D1,Bequimão/MA,-2.4495376,-44.7884889,17,79.81595
1,Berilo/MG,-16.9515764,-42.4643732,10,84.23181
D1,Berilo/MG,-16.9515764,-42.4643732,1,8.42318
1,Berizal/MG,-15.6118785,-41.7417382,102,2141.05793
D1,Berizal/MG,-15.6118785,-41.7417382,1,20.99076
1,Bernardino Batista/PB,-6.4532173,-38.5495418,227,6419.68326
1,Bernardino de Campos/SP,-23.0140216,-49.4760724,345,3091.95196
D1,Bernardino de Campos/SP,-23.0140216,-49.4760724,7,62.73526
1,Bernardo Sayão/TO,-7.8794244,-48.8968905,365,8205.93525
D1,Bernardo Sayão/TO,-7.8794244,-48.8968905,6,134.89209
1,Bernardo do Mearim/MA,-4.6315929,-44.7617508,214,3523.79384
D1,Bernardo do Mearim/MA,-4.6315929,-44.7617508,5,82.33163
1,Bertioga/SP,-23.848568,-46.139586,4247,6561.80956
D1,Bertioga/SP,-23.848568,-46.139586,102,157.59467
1,Bertolínia/PI,-7.6372159,-43.9540611,721,13092.42782
D1,Bertolínia/PI,-7.6372159,-43.9540611,7,127.11095
1,Bertópolis/MG,-17.063333,-40.573889,254,5513.34925
1,Beruri/AM,-3.9007135,-61.3717319,2047,10187.62753
D1,Beruri/AM,-3.9007135,-61.3717319,31,154.28259
1,Betim/MG,-19.968056,-44.198333,23827,5356.98227
D1,Betim/MG,-19.968056,-44.198333,751,168.84600
1,Betânia do Piauí/PI,-8.1460635,-40.7961387,155,2495.97424
D1,Betânia do Piauí/PI,-8.1460635,-40.7961387,2,32.20612
1,Betânia/PE,-8.2742779,-38.0351767,284,2224.83353
D1,Betânia/PE,-8.2742779,-38.0351767,9,70.50529
1,Bezerros/PE,-8.2372132,-35.7558262,3049,5008.21288
D1,Bezerros/PE,-8.2372132,-35.7558262,89,146.18922
1,Bias Fortes/MG,-21.605833,-43.756944,98,2943.82698
D1,Bias Fortes/MG,-21.605833,-43.756944,2,60.07810
1,Bicas/MG,-21.7213723,-43.0604327,888,6101.41542
D1,Bicas/MG,-21.7213723,-43.0604327,25,171.77408
1,Biguaçu/SC,-27.4961277,-48.6542432,9939,14303.60073
D1,Biguaçu/SC,-27.4961277,-48.6542432,145,208.67513
1,Bilac/SP,-21.403962,-50.47464,697,8586.91635
D1,Bilac/SP,-21.403962,-50.47464,12,147.83787
1,Biquinhas/MG,-18.783611,-45.502222,98,3923.13851
1,Birigui/SP,-21.2908491,-50.34144,10525,8427.88850
D1,Birigui/SP,-21.2908491,-50.34144,326,261.04434
1,Biritiba Mirim/SP,-23.5697765,-46.0407456,950,2884.38183
D1,Biritiba Mirim/SP,-23.5697765,-46.0407456,61,185.20768
1,Biritinga/BA,-11.6227908,-38.8066738,277,1732.98298
D1,Biritinga/BA,-11.6227908,-38.8066738,6,37.53754
1,Bituruna/PR,-26.161281,-51.5533319,521,3176.82927
D1,Bituruna/PR,-26.161281,-51.5533319,8,48.78049
1,Blumenau/SC,-26.9195567,-49.0658025,43266,11956.72300
D1,Blumenau/SC,-26.9195567,-49.0658025,471,130.16263
1,Boa Esperança do Iguaçu/PR,-25.6362851,-53.2139114,120,4858.29960
1,Boa Esperança do Sul/SP,-21.9930206,-48.3917372,670,4461.31309
D1,Boa Esperança do Sul/SP,-21.9930206,-48.3917372,11,73.24544
1,Boa Esperança/ES,-18.5395472,-40.2904088,1052,6970.58044
D1,Boa Esperança/ES,-18.5395472,-40.2904088,32,212.03287
1,Boa Esperança/MG,-21.0901253,-45.5660195,2527,6283.10003
D1,Boa Esperança/MG,-21.0901253,-45.5660195,60,149.18322
1,Boa Esperança/PR,-24.2411024,-52.7860277,239,5905.60909
D1,Boa Esperança/PR,-24.2411024,-52.7860277,6,148.25797
1,Boa Hora/PI,-4.4094627,-42.1255341,452,6632.42847
D1,Boa Hora/PI,-4.4094627,-42.1255341,5,73.36757
1,Boa Nova/BA,-14.365907,-40.2063056,675,5474.89659
D1,Boa Nova/BA,-14.365907,-40.2063056,11,89.22054
1,Boa Ventura de São Roque/PR,-24.88177,-51.5441292,292,4587.58837
D1,Boa Ventura de São Roque/PR,-24.88177,-51.5441292,5,78.55460
1,Boa Ventura/PB,-7.4202462,-38.2156782,248,4673.07330
D1,Boa Ventura/PB,-7.4202462,-38.2156782,4,75.37215
1,Boa Viagem/CE,-5.1261877,-39.7300055,2477,4538.54188
D1,Boa Viagem/CE,-5.1261877,-39.7300055,62,113.60097
1,Boa Vista da Aparecida/PR,-25.4357216,-53.4067721,586,7771.88329
D1,Boa Vista da Aparecida/PR,-25.4357216,-53.4067721,17,225.46419
1,Boa Vista das Missões/RS,-27.6677983,-53.3127622,98,4684.51243
D1,Boa Vista das Missões/RS,-27.6677983,-53.3127622,4,191.20459
1,Boa Vista do Buricá/RS,-27.6687782,-54.1111913,566,8432.65793
D1,Boa Vista do Buricá/RS,-27.6687782,-54.1111913,8,119.18951
1,Boa Vista do Cadeado/RS,-28.5783827,-53.8123759,136,5510.53485
D1,Boa Vista do Cadeado/RS,-28.5783827,-53.8123759,2,81.03728
1,Boa Vista do Gurupi/MA,-1.7981168,-46.3071882,14,167.02458
D1,Boa Vista do Gurupi/MA,-1.7981168,-46.3071882,3,35.79098
1,Boa Vista do Incra/RS,-28.8195551,-53.3866624,156,5963.30275
D1,Boa Vista do Incra/RS,-28.8195551,-53.3866624,2,76.45260
1,Boa Vista do Ramos/AM,-2.9716927,-57.5869819,826,4208.70274
D1,Boa Vista do Ramos/AM,-2.9716927,-57.5869819,11,56.04810
1,Boa Vista do Sul/RS,-29.3510488,-51.6779679,248,8927.28582
D1,Boa Vista do Sul/RS,-29.3510488,-51.6779679,2,71.99424
1,Boa Vista do Tupim/BA,-12.6605988,-40.6083594,167,901.19260
D1,Boa Vista do Tupim/BA,-12.6605988,-40.6083594,4,21.58545
1,Boa Vista/PB,-7.2620711,-36.2415161,524,7343.04933
D1,Boa Vista/PB,-7.2620711,-36.2415161,9,126.12108
1,Boa Vista/RR,2.8208478,-60.6719582,71260,16980.73642
D1,Boa Vista/RR,2.8208478,-60.6719582,1116,265.93463
1,Boca da Mata/AL,-9.6452054,-36.2116658,1541,5633.13350
D1,Boca da Mata/AL,-9.6452054,-36.2116658,37,135.25369
1,Boca do Acre/AM,-8.7553487,-67.3930873,2454,7085.31832
D1,Boca do Acre/AM,-8.7553487,-67.3930873,22,63.51956
1,Bocaina de Minas/MG,-22.167778,-44.394722,117,2299.07644
D1,Bocaina de Minas/MG,-22.167778,-44.394722,3,58.95068
1,Bocaina do Sul/SC,-27.745494,-49.942279,351,10063.07339
D1,Bocaina do Sul/SC,-27.745494,-49.942279,3,86.00917
1,Bocaina/PI,-6.9445939,-41.3224599,231,5127.63596
D1,Bocaina/PI,-6.9445939,-41.3224599,3,66.59267
1,Bocaina/SP,-22.1421831,-48.522276,1080,8673.30549
D1,Bocaina/SP,-22.1421831,-48.522276,24,192.74012
1,Bocaiúva do Sul/PR,-25.206591,-49.114131,993,7563.40925
D1,Bocaiúva do Sul/PR,-25.206591,-49.114131,9,68.55054
1,Bocaiúva/MG,-17.1160208,-43.8122678,1659,3301.09838
D1,Bocaiúva/MG,-17.1160208,-43.8122678,38,75.61286
1,Bodocó/PE,-7.777592,-39.933797,1512,3939.75715
D1,Bodocó/PE,-7.777592,-39.933797,23,59.93017
1,Bodoquena/MS,-20.5508775,-56.6769653,254,3240.62261
D1,Bodoquena/MS,-20.5508775,-56.6769653,5,63.79178
1,Bodó/RN,-5.9866104,-36.4134824,95,4324.07829
1,Bofete/SP,-23.1019554,-48.2610535,513,4303.33026
D1,Bofete/SP,-23.1019554,-48.2610535,11,92.27414
1,Boituva/SP,-23.2838893,-47.6738231,4000,6433.97137
D1,Boituva/SP,-23.2838893,-47.6738231,84,135.11340
1,Bom Conselho/PE,-9.169191,-36.685683,1229,2520.14682
D1,Bom Conselho/PE,-9.169191,-36.685683,41,84.07325
1,Bom Despacho/MG,-19.7375242,-45.2517288,2635,5163.83162
D1,Bom Despacho/MG,-19.7375242,-45.2517288,59,115.62280
1,Bom Jardim da Serra/SC,-28.3380324,-49.625588,538,11274.09891
D1,Bom Jardim da Serra/SC,-28.3380324,-49.625588,3,62.86672
1,Bom Jardim de Goiás/GO,-16.2062659,-52.172793,557,6280.30218
D1,Bom Jardim de Goiás/GO,-16.2062659,-52.172793,11,124.02751
1,Bom Jardim de Minas/MG,-21.9476466,-44.1906033,292,4520.82366
D1,Bom Jardim de Minas/MG,-21.9476466,-44.1906033,1,15.48227
1,Bom Jardim/MA,-3.54129,-45.606004,1130,2701.92722
D1,Bom Jardim/MA,-3.54129,-45.606004,39,93.25236
1,Bom Jardim/PE,-7.7961572,-35.5871696,1009,2523.57252
D1,Bom Jardim/PE,-7.7961572,-35.5871696,45,112.54783
1,Bom Jardim/RJ,-22.1515328,-42.4186683,915,3313.29664
D1,Bom Jardim/RJ,-22.1515328,-42.4186683,23,83.28505
1,Bom Jesus da Lapa/BA,-13.250571,-43.410754,2858,4102.66716
D1,Bom Jesus da Lapa/BA,-13.250571,-43.410754,43,61.72662
1,Bom Jesus da Penha/MG,-21.0165299,-46.5226644,280,6597.54948
D1,Bom Jesus da Penha/MG,-21.0165299,-46.5226644,8,188.50141
1,Bom Jesus da Serra/BA,-14.3724084,-40.5047119,402,4092.43612
D1,Bom Jesus da Serra/BA,-14.3724084,-40.5047119,7,71.26133
1,Bom Jesus das Selvas/MA,-4.4878075,-46.8526639,2421,7003.78974
D1,Bom Jesus das Selvas/MA,-4.4878075,-46.8526639,21,60.75158
1,Bom Jesus de Goiás/GO,-18.2174587,-49.739721,2311,9010.44916
D1,Bom Jesus de Goiás/GO,-18.2174587,-49.739721,87,339.20774
1,Bom Jesus do Amparo/MG,-19.7045132,-43.4752911,159,2592.53220
D1,Bom Jesus do Amparo/MG,-19.7045132,-43.4752911,5,81.52617
1,Bom Jesus do Araguaia/MT,-12.1725897,-51.5074425,751,11198.92633
D1,Bom Jesus do Araguaia/MT,-12.1725897,-51.5074425,14,208.76827
1,Bom Jesus do Galho/MG,-19.8283191,-42.3162256,501,3371.01332
D1,Bom Jesus do Galho/MG,-19.8283191,-42.3162256,19,127.84282
1,Bom Jesus do Itabapoana/RJ,-21.1341025,-41.680095,2518,6768.27138
D1,Bom Jesus do Itabapoana/RJ,-21.1341025,-41.680095,68,182.78096
1,Bom Jesus do Norte/ES,-21.1254776,-41.6711646,823,8261.39329
D1,Bom Jesus do Norte/ES,-21.1254776,-41.6711646,20,200.76290
1,Bom Jesus do Oeste/SC,-26.6929713,-53.0967453,120,5610.09818
D1,Bom Jesus do Oeste/SC,-26.6929713,-53.0967453,4,187.00327
1,Bom Jesus do Sul/PR,-26.1922507,-53.6002033,222,6332.00228
D1,Bom Jesus do Sul/PR,-26.1922507,-53.6002033,3,85.56760
1,Bom Jesus do Tocantins/PA,-5.0471796,-48.5978362,663,3873.11602
D1,Bom Jesus do Tocantins/PA,-5.0471796,-48.5978362,20,116.83608
1,Bom Jesus do Tocantins/TO,-8.96306,-48.165043,122,2436.10224
D1,Bom Jesus do Tocantins/TO,-8.96306,-48.165043,1,19.96805
1,Bom Jesus dos Perdões/SP,-23.1353864,-46.4648052,1442,5549.35540
D1,Bom Jesus dos Perdões/SP,-23.1353864,-46.4648052,21,80.81586
1,Bom Jesus/PB,-6.8156725,-38.6551841,110,4271.84466
D1,Bom Jesus/PB,-6.8156725,-38.6551841,3,116.50485
1,Bom Jesus/PI,-9.0711644,-44.3583926,2589,10198.13290
D1,Bom Jesus/PI,-9.0711644,-44.3583926,28,110.29267
1,Bom Jesus/RN,-5.9887544,-35.5821149,597,5814.74627
D1,Bom Jesus/RN,-5.9887544,-35.5821149,12,116.87932
1,Bom Jesus/RS,-28.6692723,-50.4346894,544,4810.32806
D1,Bom Jesus/RS,-28.6692723,-50.4346894,14,123.79521
1,Bom Jesus/SC,-26.7350604,-52.3916519,317,10369.64344
D1,Bom Jesus/SC,-26.7350604,-52.3916519,6,196.27085
1,Bom Lugar/MA,-4.3728019,-45.0366054,397,2415.13566
D1,Bom Lugar/MA,-4.3728019,-45.0366054,7,42.58426
1,Bom Princípio do Piauí/PI,-3.1912777,-41.6430185,102,1804.99027
D1,Bom Princípio do Piauí/PI,-3.1912777,-41.6430185,9,159.26385
1,Bom Princípio/RS,-29.489788,-51.3566782,1301,9126.62224
D1,Bom Princípio/RS,-29.489788,-51.3566782,24,168.36198
1,Bom Progresso/RS,-27.5490948,-53.8655601,101,5318.58873
D1,Bom Progresso/RS,-27.5490948,-53.8655601,1,52.65929
1,Bom Repouso/MG,-22.4657069,-46.1485376,485,4602.82813
D1,Bom Repouso/MG,-22.4657069,-46.1485376,12,113.88441
1,Bom Retiro do Sul/RS,-29.6000007,-51.9359243,889,7175.14124
D1,Bom Retiro do Sul/RS,-29.6000007,-51.9359243,22,177.56255
1,Bom Retiro/SC,-27.798993,-49.486994,578,5745.52684
D1,Bom Retiro/SC,-27.798993,-49.486994,14,139.16501
1,Bom Sucesso de Itararé/SP,-24.3190016,-49.1446207,116,2911.64659
D1,Bom Sucesso de Itararé/SP,-24.3190016,-49.1446207,5,125.50201
1,Bom Sucesso do Sul/PR,-26.0749256,-52.8348629,280,8604.79410
D1,Bom Sucesso do Sul/PR,-26.0749256,-52.8348629,6,184.38844
1,Bom Sucesso/MG,-21.0323516,-44.7598082,432,2453.56960
D1,Bom Sucesso/MG,-21.0323516,-44.7598082,4,22.71824
1,Bom Sucesso/PB,-6.4458948,-37.9297662,175,3531.07345
D1,Bom Sucesso/PB,-6.4458948,-37.9297662,2,40.35513
1,Bom Sucesso/PR,-23.7088019,-51.7651297,584,8262.59196
D1,Bom Sucesso/PR,-23.7088019,-51.7651297,11,155.63101
1,Bombinhas/SC,-27.1519159,-48.4875691,3196,15716.74453
D1,Bombinhas/SC,-27.1519159,-48.4875691,45,221.29334
1,Bonfim do Piauí/PI,-9.1648678,-42.8734415,243,4274.40633
D1,Bonfim do Piauí/PI,-9.1648678,-42.8734415,5,87.95075
1,Bonfim/MG,-20.3266626, -44.2386157,321,4679.30029
D1,Bonfim/MG,-20.3266626, -44.2386157,10,145.77259
1,Bonfim/RR,3.3613818,-59.8427241,2046,16293.70072
D1,Bonfim/RR,3.3613818,-59.8427241,24,191.12845
1,Bonfinópolis de Minas/MG,-16.5660011,-45.98645,342,6282.14548
D1,Bonfinópolis de Minas/MG,-16.5660011,-45.98645,10,183.68846
1,Bonfinópolis/GO,-16.6172709,-48.9615701,428,4314.95110
D1,Bonfinópolis/GO,-16.6172709,-48.9615701,16,161.30658
1,Boninal/BA,-12.7095183,-41.8299984,561,3883.42794
D1,Boninal/BA,-12.7095183,-41.8299984,7,48.45632
1,Bonito de Minas/MG,-15.3191266,-44.7544,43,378.22148
1,Bonito de Santa Fé/PB,-7.3143332,-38.5146677,388,3227.41640
D1,Bonito de Santa Fé/PB,-7.3143332,-38.5146677,11,91.49892
1,Bonito/BA,-11.9665473,-41.2649896,612,3624.73348
D1,Bonito/BA,-11.9665473,-41.2649896,6,35.53660
1,Bonito/MS,-21.1264766,-56.4902208,2082,9382.60478
D1,Bonito/MS,-21.1264766,-56.4902208,40,180.26138
1,Bonito/PA,-1.3605722,-47.3049907,345,2087.11434
D1,Bonito/PA,-1.3605722,-47.3049907,12,72.59528
1,Bonito/PE,-8.4721161,-35.7314591,585,1534.74828
D1,Bonito/PE,-8.4721161,-35.7314591,31,81.32854
1,Bonópolis/GO,-13.649331,-49.8329113,121,2693.07812
D1,Bonópolis/GO,-13.649331,-49.8329113,1,22.25684
1,Boqueirão do Leão/RS,-29.30332,-52.4296817,543,7050.11685
D1,Boqueirão do Leão/RS,-29.30332,-52.4296817,28,363.54194
1,Boqueirão do Piauí/PI,-4.4850148,-42.1095161,447,6956.11578
D1,Boqueirão do Piauí/PI,-4.4850148,-42.1095161,7,108.93246
1,Boqueirão/PB,-7.487004,-36.130887,1233,6899.83212
D1,Boqueirão/PB,-7.487004,-36.130887,22,123.11136
1,Boquim/SE,-11.1450175,-37.6204228,1615,6003.94067
D1,Boquim/SE,-11.1450175,-37.6204228,35,130.11636
1,Boquira/BA,-12.8184859,-42.7270883,438,2037.49360
D1,Boquira/BA,-12.8184859,-42.7270883,7,32.56268
1,Boracéia/SP,-22.195355,-48.7801925,736,15119.14544
D1,Boracéia/SP,-22.195355,-48.7801925,18,369.76171
1,Borba/AM,-4.3934778,-59.5947721,1682,4028.93552
D1,Borba/AM,-4.3934778,-59.5947721,51,122.16154
1,Borborema/PB,-6.8066718,-35.5990191,221,4180.06431
D1,Borborema/PB,-6.8066718,-35.5990191,4,75.65727
1,Borborema/SP,-21.6212706,-49.074135,863,5339.02499
D1,Borborema/SP,-21.6212706,-49.074135,27,167.03786
1,Borda da Mata/MG,-22.274167,-46.165278,1004,5118.79270
D1,Borda da Mata/MG,-22.274167,-46.165278,30,152.95197
1,Borebi/SP,-22.5700178,-48.9714871,125,4658.96385
D1,Borebi/SP,-22.5700178,-48.9714871,2,74.54342
1,Borrazópolis/PR,-23.9393362,-51.5850786,476,7392.45224
D1,Borrazópolis/PR,-23.9393362,-51.5850786,15,232.95543
1,Borá/SP,-22.2701088,-50.544407,43,5131.26492
1,Bossoroca/RS,-28.7278885,-54.9120278,335,5398.87188
D1,Bossoroca/RS,-28.7278885,-54.9120278,19,306.20467
1,Botelhos/MG,-21.65,-46.394722,1068,7144.29059
D1,Botelhos/MG,-21.65,-46.394722,10,66.89411
1,Botucatu/SP,-22.8879628,-48.4410712,10715,7233.51111
D1,Botucatu/SP,-22.8879628,-48.4410712,189,127.59063
1,Botumirim/MG,-16.862778,-43.011111,159,2528.62595
D1,Botumirim/MG,-16.862778,-43.011111,2,31.80662
1,Botuporã/BA,-13.3744752,-42.5198469,187,1846.18422
D1,Botuporã/BA,-13.3744752,-42.5198469,3,29.61793
1,Botuverá/SC,-27.200749,-49.068892,805,15125.89252
D1,Botuverá/SC,-27.200749,-49.068892,8,150.31943
1,Bozano/RS,-28.3669953,-53.7705165,198,9379.44102
D1,Bozano/RS,-28.3669953,-53.7705165,7,331.59640
1,Braga/RS,-27.617348,-53.740514,134,4047.11568
D1,Braga/RS,-27.617348,-53.740514,4,120.80942
1,Braganey/PR,-24.8179919,-53.118506,288,5351.17057
D1,Braganey/PR,-24.8179919,-53.118506,7,130.06317
1,Bragança Paulista/SP,-22.9520235,-46.5418586,10971,6433.35894
D1,Bragança Paulista/SP,-22.9520235,-46.5418586,258,151.29037
1,Bragança/PA,-1.0573967,-46.7635406,3337,2588.54740
D1,Bragança/PA,-1.0573967,-46.7635406,111,86.10391
1,Branquinha/AL,-9.2478057,-36.0152009,430,4110.89866
D1,Branquinha/AL,-9.2478057,-36.0152009,9,86.04207
1,Brasil Novo/PA,-3.3055853,-52.539198,1309,8736.56811
D1,Brasil Novo/PA,-3.3055853,-52.539198,25,166.85577
1,Brasileira/PI,-4.131182,-41.7824969,437,5235.41392
D1,Brasileira/PI,-4.131182,-41.7824969,8,95.84282
1,Brasilândia de Minas/MG,-17.0096469,-46.0087183,850,5075.23286
D1,Brasilândia de Minas/MG,-17.0096469,-46.0087183,9,53.73776
1,Brasilândia do Sul/PR,-24.1975793,-53.527551,305,11798.83946
D1,Brasilândia do Sul/PR,-24.1975793,-53.527551,7,270.79304
1,Brasilândia do Tocantins/TO,-8.3886619,-48.4842729,125,5653.55043
D1,Brasilândia do Tocantins/TO,-8.3886619,-48.4842729,2,90.45681
1,Brasilândia/MS,-21.255575,-52.0365617,645,5441.66034
D1,Brasilândia/MS,-21.255575,-52.0365617,11,92.80351
1,Brasiléia/AC,-11.0010413,-68.7487894,2334,8740.91828
D1,Brasiléia/AC,-11.0010413,-68.7487894,32,119.84121
1,Brasnorte/MT,-12.1227151,-58.0050109,1617,8028.79841
D1,Brasnorte/MT,-12.1227151,-58.0050109,24,119.16584
1,Brasília de Minas/MG,-16.2075114,-44.430559,783,2416.29378
D1,Brasília de Minas/MG,-16.2075114,-44.430559,5,15.42972
1,Brasília/DF,-15.7934036,-47.8823172,368924,12075.48306
D1,Brasília/DF,-15.7934036,-47.8823172,7344,240.38107
1,Brazabrantes/GO,-16.4291635,-49.3858216,345,9209.82381
D1,Brazabrantes/GO,-16.4291635,-49.3858216,3,80.08542
1,Brazópolis/MG,-22.4742842,-45.6165577,599,4156.83553
D1,Brazópolis/MG,-22.4742842,-45.6165577,26,180.43026
1,Braço do Norte/SC,-28.2728633,-49.1622712,6799,20070.25623
D1,Braço do Norte/SC,-28.2728633,-49.1622712,67,197.78014
1,Braço do Trombudo/SC,-27.358578,-49.882145,522,13849.82754
D1,Braço do Trombudo/SC,-27.358578,-49.882145,4,106.12895
1,Braúna/SP,-21.5015319,-50.3175246,347,6044.24316
D1,Braúna/SP,-21.5015319,-50.3175246,17,296.11566
1,Braúnas/MG,-19.055556,-42.716111,177,3711.46991
D1,Braúnas/MG,-19.055556,-42.716111,6,125.81254
1,Brejetuba/ES,-20.1465817,-41.2902303,1379,11096.80534
D1,Brejetuba/ES,-20.1465817,-41.2902303,12,96.56393
1,Brejinho de Nazaré/TO,-11.0205883,-48.5722906,347,6287.37090
D1,Brejinho de Nazaré/TO,-11.0205883,-48.5722906,7,126.83457
1,Brejinho/PE,-7.3482153,-37.28538,508,6784.18803
D1,Brejinho/PE,-7.3482153,-37.28538,10,133.54701
1,Brejinho/RN,-6.1957907,-35.3583019,777,6076.48393
D1,Brejinho/RN,-6.1957907,-35.3583019,8,62.56354
1,Brejo Alegre/SP,-21.1671191,-50.1850393,261,9034.26791
D1,Brejo Alegre/SP,-21.1671191,-50.1850393,10,346.14053
1,Brejo Grande do Araguaia/PA,-5.7011449,-48.4037308,746,10124.86428
D1,Brejo Grande do Araguaia/PA,-5.7011449,-48.4037308,4,54.28882
1,Brejo Grande/SE,-10.4287358,-36.4667918,297,3555.60876
D1,Brejo Grande/SE,-10.4287358,-36.4667918,12,143.66096
1,Brejo Santo/CE,-7.4909841,-38.9859152,6270,12579.75202
D1,Brejo Santo/CE,-7.4909841,-38.9859152,98,196.62132
1,Brejo da Madre de Deus/PE,-8.1409718,-36.3712527,1635,3191.80088
D1,Brejo da Madre de Deus/PE,-8.1409718,-36.3712527,44,85.89556
1,Brejo de Areia/MA,-4.3316785,-45.5833334,281,3117.37298
D1,Brejo de Areia/MA,-4.3316785,-45.5833334,8,88.75083
1,Brejo do Cruz/PB,-6.32926065,-37.48746163303929,1231,8665.35267
D1,Brejo do Cruz/PB,-6.32926065,-37.48746163303929,19,133.74630
1,Brejo do Piauí/PI,-8.207583,-42.8359849,59,1533.26403
D1,Brejo do Piauí/PI,-8.207583,-42.8359849,3,77.96258
1,Brejo dos Santos/PB,-6.3769367,-37.8243125,335,5182.54950
D1,Brejo dos Santos/PB,-6.3769367,-37.8243125,4,61.88119
1,Brejo/MA,-3.6804397,-42.7529313,799,2180.02237
D1,Brejo/MA,-3.6804397,-42.7529313,18,49.11189
1,Brejolândia/BA,-12.4843845,-43.9611861,129,1214.91806
D1,Brejolândia/BA,-12.4843845,-43.9611861,8,75.34376
1,Brejão/PE,-9.029146,-36.566034,164,1824.85813
D1,Brejão/PE,-9.029146,-36.566034,5,55.63592
1,Brejões/BA,-13.1033754,-39.7909837,521,3663.33849
D1,Brejões/BA,-13.1033754,-39.7909837,8,56.25088
1,Breu Branco/PA,-3.7785073,-49.5684795,556,825.75893
D1,Breu Branco/PA,-3.7785073,-49.5684795,36,53.46641
1,Breves/PA,-1.68036,-50.479085,3710,3584.64497
D1,Breves/PA,-1.68036,-50.479085,106,102.41843
1,Britânia/GO,-15.2427599,-51.1602061,425,7331.37830
D1,Britânia/GO,-15.2427599,-51.1602061,3,51.75091
1,Brochier/RS,-29.556766,-51.5963047,338,6622.25705
D1,Brochier/RS,-29.556766,-51.5963047,1,19.59248
1,Brodowski/SP,-20.984532,-47.657217,1664,6583.05970
D1,Brodowski/SP,-20.984532,-47.657217,43,170.11512
1,Brotas de Macaúbas/BA,-12.0019007,-42.6257506,58,572.55676
D1,Brotas de Macaúbas/BA,-12.0019007,-42.6257506,1,9.87167
1,Brotas/SP,-22.2840884,-48.1267265,411,1668.29031
D1,Brotas/SP,-22.2840884,-48.1267265,24,97.41841
1,Brumadinho/MG,-20.143611,-44.2,2705,6651.74839
D1,Brumadinho/MG,-20.143611,-44.2,52,127.87095
1,Brumado/BA,-14.29507325,-41.659307508575985,7848,11655.15705
D1,Brumado/BA,-14.29507325,-41.659307508575985,144,213.85609
1,Brunópolis/SC,-27.310953,-50.837585,160,6756.75676
D1,Brunópolis/SC,-27.310953,-50.837585,4,168.91892
1,Brusque/SC,-27.0964628,-48.9136323,21660,15731.10416
D1,Brusque/SC,-27.0964628,-48.9136323,216,156.87528
1,Brás Pires/MG,-20.8483109,-43.2430524,154,3587.23503
D1,Brás Pires/MG,-20.8483109,-43.2430524,5,116.46867
1,Bueno Brandão/MG,-22.441976,-46.3517971,518,4712.94696
D1,Bueno Brandão/MG,-22.441976,-46.3517971,16,145.57365
1,Buenos Aires/PE,-7.7218931,-35.326587,182,1379.83321
D1,Buenos Aires/PE,-7.7218931,-35.326587,18,136.46702
1,Buenópolis/MG,-17.8756607,-44.1749365,264,2549.98551
D1,Buenópolis/MG,-17.8756607,-44.1749365,7,67.61325
1,Buerarema/BA,-14.9571177,-39.3008035,1222,6675.40697
D1,Buerarema/BA,-14.9571177,-39.3008035,36,196.65683
1,Bugre/MG,-19.4257687,-42.2556,343,8611.59930
D1,Bugre/MG,-19.4257687,-42.2556,10,251.06703
1,Bujari/AC,-9.8309656,-67.9520886,1047,10047.98464
D1,Bujari/AC,-9.8309656,-67.9520886,12,115.16315
1,Bujaru/PA,-1.5169239,-48.0410699,1224,4159.44541
D1,Bujaru/PA,-1.5169239,-48.0410699,32,108.74367
1,Buri/SP,-23.79849,-48.598924,1973,9882.29401
D1,Buri/SP,-23.79849,-48.598924,43,215.37691
1,Buritama/SP,-21.0664017,-50.1448077,1725,9982.06122
D1,Buritama/SP,-21.0664017,-50.1448077,47,271.97500
1,Buriti Alegre/GO,-18.1377879,-49.0404411,762,8034.58456
D1,Buriti Alegre/GO,-18.1377879,-49.0404411,27,284.69000
1,Buriti Bravo/MA,-5.8391884,-43.8367876,1166,4870.71306
D1,Buriti Bravo/MA,-5.8391884,-43.8367876,11,45.95012
1,Buriti de Goiás/GO,-16.180644,-50.4287479,172,6946.68821
D1,Buriti de Goiás/GO,-16.180644,-50.4287479,5,201.93861
1,Buriti do Tocantins/TO,-5.3187439,-48.2256609,594,5166.56519
D1,Buriti do Tocantins/TO,-5.3187439,-48.2256609,5,43.48961
1,Buriti dos Lopes/PI,-3.1776723,-41.8707444,1104,5573.78704
D1,Buriti dos Lopes/PI,-3.1776723,-41.8707444,22,111.07184
1,Buriti dos Montes/PI,-5.3136171,-41.0971256,508,6147.14424
D1,Buriti dos Montes/PI,-5.3136171,-41.0971256,6,72.60407
1,Buriti/MA,-3.9430944,-42.9244281,751,2607.81999
D1,Buriti/MA,-3.9430944,-42.9244281,7,24.30724
1,Buriticupu/MA,-4.3227472,-46.4516989,2887,3955.71571
D1,Buriticupu/MA,-4.3227472,-46.4516989,36,49.32656
1,Buritinópolis/GO,-14.4589282,-46.4293104,145,4416.69205
D1,Buritinópolis/GO,-14.4589282,-46.4293104,1,30.45995
1,Buritirama/BA,-10.7148421,-43.6362327,728,3421.69581
D1,Buritirama/BA,-10.7148421,-43.6362327,15,70.50197
1,Buritirana/MA,-5.5897455,-47.0148915,282,1823.23657
D1,Buritirana/MA,-5.5897455,-47.0148915,23,148.70369
1,Buritis/MG,-15.621389,-46.423889,1214,4853.47619
D1,Buritis/MG,-15.621389,-46.423889,21,83.95634
1,Buritis/RO,-10.2054937,-63.8281954,4119,10206.66072
D1,Buritis/RO,-10.2054937,-63.8281954,56,138.76499
1,Buritizal/SP,-20.1933264,-47.7097165,200,4430.66017
D1,Buritizal/SP,-20.1933264,-47.7097165,5,110.76650
1,Buritizeiro/MG,-17.3667765,-44.9647781,851,3026.20817
D1,Buritizeiro/MG,-17.3667765,-44.9647781,24,85.34547
1,Butiá/RS,-30.1256795,-51.9692224,1513,7221.26766
D1,Butiá/RS,-30.1256795,-51.9692224,45,214.77663
1,Buíque/PE,-8.6239732,-37.157296,1697,2880.22539
D1,Buíque/PE,-8.6239732,-37.157296,33,56.00910
1,Bálsamo/SP,-20.7343722,-49.5807484,1209,13229.01849
D1,Bálsamo/SP,-20.7343722,-49.5807484,46,503.33735
0,CASO SEM LOCALIZAÇÃO DEFINIDA/AL,-9.931093434363673,-35.609611600637464,2,0.05993
D0,CASO SEM LOCALIZAÇÃO DEFINIDA/AL,-9.931093434363673,-35.609611600637464,2,0.05993
0,CASO SEM LOCALIZAÇÃO DEFINIDA/BA,-13.415069300066518,-38.14174656569957,9945,66.86585
D0,CASO SEM LOCALIZAÇÃO DEFINIDA/BA,-13.415069300066518,-38.14174656569957,157,1.05560
0,CASO SEM LOCALIZAÇÃO DEFINIDA/CE,-3.3445126297392798,-38.624961942434304,8253,90.37374
0,CASO SEM LOCALIZAÇÃO DEFINIDA/ES,-20.30989267097039,-39.81745156645774,3114,77.48871
D0,CASO SEM LOCALIZAÇÃO DEFINIDA/ES,-20.30989267097039,-39.81745156645774,157,3.90678
0,CASO SEM LOCALIZAÇÃO DEFINIDA/MG,-19.97049116501593,-43.8852149072783,4266,20.15231
D0,CASO SEM LOCALIZAÇÃO DEFINIDA/MG,-19.97049116501593,-43.8852149072783,234,1.10540
0,CASO SEM LOCALIZAÇÃO DEFINIDA/MT,-15.54791153961863,-56.17143998972475,166,4.76400
D0,CASO SEM LOCALIZAÇÃO DEFINIDA/MT,-15.54791153961863,-56.17143998972475,90,2.58289
0,CASO SEM LOCALIZAÇÃO DEFINIDA/PR,-25.69415946385943,-48.10141676336737,5613,49.09062
D0,CASO SEM LOCALIZAÇÃO DEFINIDA/PR,-25.69415946385943,-48.10141676336737,134,1.17195
0,CASO SEM LOCALIZAÇÃO DEFINIDA/RN,-5.749310788669161,-34.95302586257457,1567,44.68394
D0,CASO SEM LOCALIZAÇÃO DEFINIDA/RN,-5.749310788669161,-34.95302586257457,9,0.25664
0,CASO SEM LOCALIZAÇÃO DEFINIDA/RR,2.813328208465927,-60.663338675861986,2514,415.01516
D0,CASO SEM LOCALIZAÇÃO DEFINIDA/RR,2.813328208465927,-60.663338675861986,14,2.31114
0,CASO SEM LOCALIZAÇÃO DEFINIDA/SP,-24.30968974555485,-46.21366504207253,509,1.10847
1,Caapiranga/AM,-3.3188884,-61.2096404,547,4118.04562
D1,Caapiranga/AM,-3.3188884,-61.2096404,20,150.56840
1,Caaporã/PB,-7.510234,-34.9154114,1474,6713.73263
D1,Caaporã/PB,-7.510234,-34.9154114,26,118.42405
1,Caarapó/MS,-22.6349267,-54.8240903,2507,8194.68506
D1,Caarapó/MS,-22.6349267,-54.8240903,24,78.44932
1,Caatiba/BA,-14.9782759,-40.4092325,668,10295.93095
D1,Caatiba/BA,-14.9782759,-40.4092325,7,107.89149
1,Cabaceiras do Paraguaçu/BA,-12.5377868,-39.1901339,401,2120.45899
D1,Cabaceiras do Paraguaçu/BA,-12.5377868,-39.1901339,4,21.15171
1,Cabaceiras/PB,-7.4899156,-36.2860501,301,5317.08179
D1,Cabaceiras/PB,-7.4899156,-36.2860501,1,17.66472
1,Cabeceira Grande/MG,-16.0297,-47.0906,248,3548.94104
D1,Cabeceira Grande/MG,-16.0297,-47.0906,4,57.24098
1,Cabeceiras do Piauí/PI,-4.4733665,-42.3098716,420,3951.08184
D1,Cabeceiras do Piauí/PI,-4.4733665,-42.3098716,10,94.07338
1,Cabeceiras/GO,-15.7995459,-46.9264991,245,3044.99130
D1,Cabeceiras/GO,-15.7995459,-46.9264991,10,124.28536
1,Cabedelo/PB,-6.97324,-34.8351609,7111,10340.71575
D1,Cabedelo/PB,-6.97324,-34.8351609,160,232.66974
1,Cabixi/RO,-13.4956065,-60.5424442,624,12027.75636
D1,Cabixi/RO,-13.4956065,-60.5424442,13,250.57826
1,Cabo Frio/RJ,-22.8804369,-42.0189227,9702,4211.33962
D1,Cabo Frio/RJ,-22.8804369,-42.0189227,443,192.29267
1,Cabo Verde/MG,-21.4743338,-46.3964995,317,2252.22025
D1,Cabo Verde/MG,-21.4743338,-46.3964995,5,35.52398
1,Cabo de Santo Agostinho/PE,-8.2838945,-35.0320984,4199,2009.62937
D1,Cabo de Santo Agostinho/PE,-8.2838945,-35.0320984,374,178.99533
1,Cabreúva/SP,-23.3075813,-47.1324417,2916,5782.38712
D1,Cabreúva/SP,-23.3075813,-47.1324417,68,134.84305
1,Cabrobó/PE,-8.5083701,-39.3106961,1372,3976.46581
D1,Cabrobó/PE,-8.5083701,-39.3106961,16,46.37278
1,Cabrália Paulista/SP,-22.4562909,-49.3385645,213,5020.03300
D1,Cabrália Paulista/SP,-22.4562909,-49.3385645,2,47.13646
1,Cacaulândia/RO,-10.3380043,-62.9007231,718,11453.18233
D1,Cacaulândia/RO,-10.3380043,-62.9007231,9,143.56357
1,Cacequi/RS,-29.8838059,-54.8273443,161,1295.98326
D1,Cacequi/RS,-29.8838059,-54.8273443,6,48.29751
1,Cachoeira Alta/GO,-18.7618269,-50.9432431,1101,8692.56277
D1,Cachoeira Alta/GO,-18.7618269,-50.9432431,15,118.42729
1,Cachoeira Dourada/GO,-18.4934204,-49.481062,373,4644.50255
D1,Cachoeira Dourada/GO,-18.4934204,-49.481062,11,136.96924
1,Cachoeira Dourada/MG,-18.517136,-49.5002062,129,4767.18404
D1,Cachoeira Dourada/MG,-18.517136,-49.5002062,2,73.90983
1,Cachoeira Grande/MA,-2.9290492,-44.0573223,211,2226.20806
D1,Cachoeira Grande/MA,-2.9290492,-44.0573223,5,52.75375
1,Cachoeira Paulista/SP,-22.666498,-45.015384,1748,5205.32444
D1,Cachoeira Paulista/SP,-22.666498,-45.015384,29,86.35836
1,Cachoeira da Prata/MG,-19.524723,-44.453056,204,5680.86884
D1,Cachoeira da Prata/MG,-19.524723,-44.453056,4,111.38959
1,Cachoeira de Goiás/GO,-16.6688414,-50.6435997,50,3725.78241
1,Cachoeira de Minas/MG,-22.3554043,-45.7796324,495,4274.98057
D1,Cachoeira de Minas/MG,-22.3554043,-45.7796324,6,51.81795
1,Cachoeira de Pajeú/MG,-15.965833,-41.496666,293,3103.15611
D1,Cachoeira de Pajeú/MG,-15.965833,-41.496666,8,84.72781
1,Cachoeira do Arari/PA,-1.0143572,-48.9621089,353,1466.92154
D1,Cachoeira do Arari/PA,-1.0143572,-48.9621089,18,74.80053
1,Cachoeira do Piriá/PA,-1.7599443,-46.5446954,679,1961.91742
D1,Cachoeira do Piriá/PA,-1.7599443,-46.5446954,3,8.66827
1,Cachoeira do Sul/RS,-30.0474778,-52.8905413,5895,7200.52767
D1,Cachoeira do Sul/RS,-30.0474778,-52.8905413,91,111.15318
1,Cachoeira dos Índios/PB,-6.9259193,-38.6742159,530,5143.13440
D1,Cachoeira dos Índios/PB,-6.9259193,-38.6742159,13,126.15235
1,Cachoeira/BA,-12.5998256,-38.9665918,1161,3458.75413
D1,Cachoeira/BA,-12.5998256,-38.9665918,18,53.62410
1,Cachoeiras de Macacu/RJ,-22.4626861,-42.6534414,2271,3829.48586
D1,Cachoeiras de Macacu/RJ,-22.4626861,-42.6534414,74,124.78289
1,Cachoeirinha/PE,-8.4906364,-36.2338963,377,1838.93469
D1,Cachoeirinha/PE,-8.4906364,-36.2338963,22,107.31184
1,Cachoeirinha/RS,-29.9493353,-51.0898927,11207,8539.31728
D1,Cachoeirinha/RS,-29.9493353,-51.0898927,332,252.97165
1,Cachoeirinha/TO,-6.118647,-47.9208885,116,5078.80911
D1,Cachoeirinha/TO,-6.118647,-47.9208885,2,87.56567
1,Cachoeiro de Itapemirim/ES,-20.848084,-41.11129,21365,10145.35422
D1,Cachoeiro de Itapemirim/ES,-20.848084,-41.11129,433,205.61378
1,Cacimba de Areia/PB,-7.1288513,-37.1575194,28,757.78078
D1,Cacimba de Areia/PB,-7.1288513,-37.1575194,1,27.06360
1,Cacimba de Dentro/PB,-6.6425101,-35.7929304,849,4942.36815
D1,Cacimba de Dentro/PB,-6.6425101,-35.7929304,22,128.07079
1,Cacimbas/PB,-7.2125451,-37.0593398,195,2708.70954
D1,Cacimbas/PB,-7.2125451,-37.0593398,6,83.34491
1,Cacimbinhas/AL,-9.401212,-36.991082,499,4582.60630
D1,Cacimbinhas/AL,-9.401212,-36.991082,6,55.10148
1,Cacique Doble/RS,-27.7700117,-51.6616409,315,6208.11983
D1,Cacique Doble/RS,-27.7700117,-51.6616409,5,98.54158
1,Cacoal/RO,-11.4333,-61.4420502,10711,12470.16637
D1,Cacoal/RO,-11.4333,-61.4420502,188,218.87697
1,Caconde/SP,-21.527995,-46.643659,908,4776.68473
D1,Caconde/SP,-21.527995,-46.643659,11,57.86733
1,Caculé/BA,-14.4990734,-42.2233006,1255,5388.34743
D1,Caculé/BA,-14.4990734,-42.2233006,11,47.22854
1,Caetanos/BA,-14.3387456,-40.9085971,516,3532.31106
D1,Caetanos/BA,-14.3387456,-40.9085971,8,54.76451
1,Caetanópolis/MG,-19.2947496,-44.4138386,738,6281.38565
D1,Caetanópolis/MG,-19.2947496,-44.4138386,7,59.57954
1,Caetité/BA,-14.0691776,-42.4852428,1863,3647.14865
D1,Caetité/BA,-14.0691776,-42.4852428,15,29.36513
1,Caeté/MG,-19.897777,-43.670278,1399,3105.64521
D1,Caeté/MG,-19.897777,-43.670278,38,84.35634
1,Caetés/PE,-8.7728788,-36.6255835,1063,3677.69167
D1,Caetés/PE,-8.7728788,-36.6255835,13,44.97647
1,Cafarnaum/BA,-11.691399,-41.468823,744,4018.79760
D1,Cafarnaum/BA,-11.691399,-41.468823,15,81.02415
1,Cafeara/PR,-22.78905,-51.714195,217,7345.97156
D1,Cafeara/PR,-22.78905,-51.714195,8,270.81923
1,Cafelândia/PR,-24.6176963,-53.3218057,1320,7152.14564
D1,Cafelândia/PR,-24.6176963,-53.3218057,9,48.76463
1,Cafelândia/SP,-21.8054355,-49.6030627,633,3547.60971
D1,Cafelândia/SP,-21.8054355,-49.6030627,29,162.52872
1,Cafezal do Sul/PR,-23.900508,-53.512418,200,4988.77526
D1,Cafezal do Sul/PR,-23.900508,-53.512418,2,49.88775
1,Caiabu/SP,-22.0143038,-51.2356597,68,1621.75054
D1,Caiabu/SP,-22.0143038,-51.2356597,5,119.24636
1,Caiana/MG,-20.695555,-41.924723,114,2057.39036
D1,Caiana/MG,-20.695555,-41.924723,2,36.09457
1,Caiapônia/GO,-16.9538779,-51.8090761,887,4642.27770
D1,Caiapônia/GO,-16.9538779,-51.8090761,28,146.54315
1,Caibaté/RS,-28.290475,-54.645407,198,4105.32863
D1,Caibaté/RS,-28.290475,-54.645407,7,145.13788
1,Caibi/SC,-27.0751925,-53.2502133,515,8401.30506
D1,Caibi/SC,-27.0751925,-53.2502133,9,146.81892
1,Caicó/RN,-6.4594544,-37.0971911,8664,12677.23103
D1,Caicó/RN,-6.4594544,-37.0971911,103,150.71039
1,Caieiras/SP,-23.3644621,-46.7484765,6066,5902.21357
D1,Caieiras/SP,-23.3644621,-46.7484765,208,202.38385
1,Cairu/BA,-13.4860505,-39.0455744,1010,5481.08753
D1,Cairu/BA,-13.4860505,-39.0455744,9,48.84137
1,Caiuá/SP,-21.8319357,-51.9887179,222,3733.60242
D1,Caiuá/SP,-21.8319357,-51.9887179,4,67.27212
1,Caiçara do Norte/RN,-5.0645017,-36.0561226,280,4267.64213
D1,Caiçara do Norte/RN,-5.0645017,-36.0561226,9,137.17421
1,Caiçara do Rio do Vento/RN,-5.757968,-36.00089,195,5248.99058
D1,Caiçara do Rio do Vento/RN,-5.757968,-36.00089,7,188.42530
1,Caiçara/PB,-6.6146866,-35.4681434,590,8204.70032
D1,Caiçara/PB,-6.6146866,-35.4681434,13,180.78153
1,Caiçara/RS,-27.2750478,-53.4310053,400,8510.63830
D1,Caiçara/RS,-27.2750478,-53.4310053,7,148.93617
1,Cajamar/SP,-23.3561111,-46.8769444,3310,4247.18351
D1,Cajamar/SP,-23.3561111,-46.8769444,152,195.03683
1,Cajapió/MA,-2.8778715,-44.6746871,69,615.19258
D1,Cajapió/MA,-2.8778715,-44.6746871,3,26.74750
1,Cajari/MA,-3.3213076,-45.0118757,150,771.16858
D1,Cajari/MA,-3.3213076,-45.0118757,5,25.70562
1,Cajati/SP,-24.7272376,-48.1077914,2787,9781.00653
D1,Cajati/SP,-24.7272376,-48.1077914,66,231.62771
1,Cajazeiras do Piauí/PI,-6.794271,-42.3935024,36,1007.55668
D1,Cajazeiras do Piauí/PI,-6.794271,-42.3935024,1,27.98769
1,Cajazeiras/PB,-6.8897849,-38.5570389,6249,10032.26894
D1,Cajazeiras/PB,-6.8897849,-38.5570389,112,179.80703
1,Cajazeirinhas/PB,-6.961442,-37.7993733,109,3400.93604
1,Cajobi/SP,-20.8776238,-48.8106972,631,5955.07739
D1,Cajobi/SP,-20.8776238,-48.8106972,21,198.18800
1,Cajueiro da Praia/PI,-2.931114,-41.340801,465,6059.42142
D1,Cajueiro da Praia/PI,-2.931114,-41.340801,14,182.43419
1,Cajueiro/AL,-9.399589,-36.1524309,484,2268.99817
D1,Cajueiro/AL,-9.399589,-36.1524309,18,84.38423
1,Cajuri/MG,-20.7901414,-42.7954489,268,6743.83493
D1,Cajuri/MG,-20.7901414,-42.7954489,1,25.16356
1,Cajuru/SP,-21.2759978,-47.3046035,618,2341.52995
D1,Cajuru/SP,-21.2759978,-47.3046035,21,79.56655
1,Caldas Brandão/PB,-7.1027959,-35.3254676,445,7360.23817
D1,Caldas Brandão/PB,-7.1027959,-35.3254676,6,99.23917
1,Caldas Novas/GO,-17.745,-48.625,6709,7198.80682
D1,Caldas Novas/GO,-17.745,-48.625,161,172.75420
1,Caldas/MG,-21.923611,-46.386111,557,3830.54811
D1,Caldas/MG,-21.923611,-46.386111,18,123.78791
1,Caldazinha/GO,-16.7116649,-49.0012601,196,5093.55509
D1,Caldazinha/GO,-16.7116649,-49.0012601,3,77.96258
1,Caldeirão Grande do Piauí/PI,-7.3310393,-40.6374433,263,4549.38592
D1,Caldeirão Grande do Piauí/PI,-7.3310393,-40.6374433,2,34.59609
1,Caldeirão Grande/BA,-11.0208483,-40.3041387,536,4002.68837
D1,Caldeirão Grande/BA,-11.0208483,-40.3041387,6,44.80621
1,Califórnia/PR,-23.6672543,-51.3554556,737,8563.79270
D1,Califórnia/PR,-23.6672543,-51.3554556,14,162.67720
1,Calmon/SC,-26.6023644,-51.0992893,27,809.59520
D1,Calmon/SC,-26.6023644,-51.0992893,3,89.95502
1,Calumbi/PE,-7.9389746,-38.1516871,406,7064.55542
D1,Calumbi/PE,-7.9389746,-38.1516871,2,34.80077
1,Calçado/PE,-8.7413446,-36.3351787,310,2813.57778
D1,Calçado/PE,-8.7413446,-36.3351787,2,18.15211
1,Calçoene/AP,2.4981757,-50.9539503,1586,14027.94976
D1,Calçoene/AP,2.4981757,-50.9539503,10,88.44861
1,Camacan/BA,-15.4166631,-39.4930088,2346,7329.87565
D1,Camacan/BA,-15.4166631,-39.4930088,55,171.84278
1,Camacho/MG,-20.625556,-45.156667,49,1707.91216
D1,Camacho/MG,-20.625556,-45.156667,1,34.85535
1,Camalaú/PB,-7.885031,-36.824191,340,5637.53938
D1,Camalaú/PB,-7.885031,-36.824191,5,82.90499
1,Camamu/BA,-13.9438142,-39.1060917,1889,5338.87287
D1,Camamu/BA,-13.9438142,-39.1060917,39,110.22554
1,Camanducaia/MG,-22.755278,-46.144444,2338,10724.27870
D1,Camanducaia/MG,-22.755278,-46.144444,44,201.82560
1,Camapuã/MS,-19.5291747,-54.0434641,555,4053.16585
D1,Camapuã/MS,-19.5291747,-54.0434641,19,138.75703
1,Camaquã/RS,-30.8524752,-51.8075619,5640,8484.00975
D1,Camaquã/RS,-30.8524752,-51.8075619,106,159.45125
1,Camaragibe/PE,-8.0213832,-34.9810768,4241,2668.99099
D1,Camaragibe/PE,-8.0213832,-34.9810768,287,180.61788
1,Camargo/RS,-28.5865661,-52.2031474,270,9846.82713
D1,Camargo/RS,-28.5865661,-52.2031474,5,182.34865
1,Camaçari/BA,-12.6998188,-38.3260762,19764,6494.86366
D1,Camaçari/BA,-12.6998188,-38.3260762,491,161.35287
1,Cambará do Sul/RS,-29.0489517,-50.145412,287,4480.17484
D1,Cambará do Sul/RS,-29.0489517,-50.145412,6,93.66219
1,Cambará/PR,-23.042273,-50.075281,1751,6875.83445
D1,Cambará/PR,-23.042273,-50.075281,31,121.73094
1,Cambira/PR,-23.600265,-51.581045,606,7654.41455
D1,Cambira/PR,-23.600265,-51.581045,13,164.20361
1,Camboriú/SC,-27.0273601,-48.6535657,10665,12531.57864
D1,Camboriú/SC,-27.0273601,-48.6535657,138,162.15263
1,Cambuci/RJ,-21.5749919,-41.9107833,671,4325.12569
D1,Cambuci/RJ,-21.5749919,-41.9107833,21,135.36161
1,Cambuquira/MG,-21.853056,-45.2953619,383,2989.38495
D1,Cambuquira/MG,-21.853056,-45.2953619,11,85.85701
1,Cambuí/MG,-22.6122501,-46.0572137,2234,7493.12404
D1,Cambuí/MG,-22.6122501,-46.0572137,33,110.68625
1,Cambé/PR,-23.2782035,-51.2779583,8641,8050.04611
D1,Cambé/PR,-23.2782035,-51.2779583,165,153.71573
1,Cametá/PA,-2.242949,-49.497885,6699,4806.83677
D1,Cametá/PA,-2.242949,-49.497885,176,126.28799
1,Camocim de São Félix/PE,-8.3616757,-35.7638903,408,2158.73016
D1,Camocim de São Félix/PE,-8.3616757,-35.7638903,12,63.49206
1,Camocim/CE,-2.9009918,-40.8427389,4264,6672.19553
D1,Camocim/CE,-2.9009918,-40.8427389,123,192.46718
1,Campanha/MG,-21.8361108,-45.401986,1018,6073.26095
D1,Campanha/MG,-21.8361108,-45.401986,21,125.28338
1,Campanário/MG,-18.2398144,-41.7271768,172,4611.26005
D1,Campanário/MG,-18.2398144,-41.7271768,1,26.80965
1,Campestre da Serra/RS,-28.7966535,-51.0958149,134,3946.98085
1,Campestre de Goiás/GO,-16.7624179,-49.69497,391,10715.26446
D1,Campestre de Goiás/GO,-16.7624179,-49.69497,9,246.64292
1,Campestre do Maranhão/MA,-6.1729113,-47.3640512,867,5998.75458
D1,Campestre do Maranhão/MA,-6.1729113,-47.3640512,36,249.08324
1,Campestre/AL,-8.8481634,-35.5660033,232,3336.20938
D1,Campestre/AL,-8.8481634,-35.5660033,6,86.28128
1,Campestre/MG,-19.6142116,-43.219378,772,3666.76166
D1,Campestre/MG,-19.6142116,-43.219378,17,80.74475
1,Campina Grande do Sul/PR,-25.3046032,-49.0545355,3982,9115.25695
D1,Campina Grande do Sul/PR,-25.3046032,-49.0545355,69,157.94895
1,Campina Grande/PB,-7.2246743,-35.8771292,25793,6263.37095
D1,Campina Grande/PB,-7.2246743,-35.8771292,738,179.21016
1,Campina Verde/MG,-19.535277,-49.486389,755,3822.39773
D1,Campina Verde/MG,-19.535277,-49.486389,22,111.38113
1,Campina da Lagoa/PR,-24.5937926,-52.8038965,776,5525.88478
D1,Campina da Lagoa/PR,-24.5937926,-52.8038965,18,128.17774
1,Campina das Missões/RS,-27.9883295,-54.8411665,368,6817.33976
D1,Campina das Missões/RS,-27.9883295,-54.8411665,7,129.67766
1,Campina do Monte Alegre/SP,-23.5935653,-48.4801876,363,5993.06587
D1,Campina do Monte Alegre/SP,-23.5935653,-48.4801876,6,99.05894
1,Campina do Simão/PR,-25.1086375,-51.8076658,228,5908.26639
D1,Campina do Simão/PR,-25.1086375,-51.8076658,9,233.22104
1,Campinas do Piauí/PI,-7.6593687,-41.8814875,147,2615.65836
D1,Campinas do Piauí/PI,-7.6593687,-41.8814875,1,17.79359
1,Campinas do Sul/RS,-27.7167968,-52.6257885,372,6840.75028
D1,Campinas do Sul/RS,-27.7167968,-52.6257885,5,91.94557
1,Campinas/SP,-22.90556,-47.06083,73644,6067.26688
D1,Campinas/SP,-22.90556,-47.06083,2844,234.30703
