type,name,lat,lon,total,total_per_100k_inhabitants
1,Abadia de Goiás/GO,-16.7572644,-49.4412205,1727,19278.85689
D1,Abadia de Goiás/GO,-16.7572644,-49.4412205,37,413.03862
1,Abadia dos Dourados/MG,-18.4911191,-47.4063589,551,7864.68741
D1,Abadia dos Dourados/MG,-18.4911191,-47.4063589,17,242.64916
1,Abadiânia/GO,-16.1940946,-48.7067767,495,2419.23660
D1,Abadiânia/GO,-16.1940946,-48.7067767,41,200.38121
1,Abaetetuba/PA,-1.721828,-48.878843,9176,5768.16696
D1,Abaetetuba/PA,-1.721828,-48.878843,224,140.80966
1,Abaeté/MG,-19.1566833,-45.4481213,1565,6731.18280
D1,Abaeté/MG,-19.1566833,-45.4481213,38,163.44086
1,Abaiara/CE,-7.3607808,-39.0487878,622,5247.61664
D1,Abaiara/CE,-7.3607808,-39.0487878,15,126.55024
1,Abaré/BA,-8.7239913,-39.1139689,1023,5027.76822
D1,Abaré/BA,-8.7239913,-39.1139689,11,54.06202
1,Abatiá/PR,-23.3052967,-50.3102532,1117,15078.29374
D1,Abatiá/PR,-23.3052967,-50.3102532,20,269.97840
1,Abaíra/BA,-13.2503296,-41.6640342,296,3398.39265
D1,Abaíra/BA,-13.2503296,-41.6640342,12,137.77268
1,Abdon Batista/SC,-27.612419,-51.022992,439,17229.19937
D1,Abdon Batista/SC,-27.612419,-51.022992,4,156.98587
1,Abel Figueiredo/PA,-4.953001,-48.3958485,1064,14213.19797
D1,Abel Figueiredo/PA,-4.953001,-48.3958485,11,146.94096
1,Abelardo Luz/SC,-26.5705893,-52.3280339,1666,9276.16927
D1,Abelardo Luz/SC,-26.5705893,-52.3280339,60,334.07572
1,Abre Campo/MG,-20.2976097,-42.4764741,1258,9357.33413
D1,Abre Campo/MG,-20.2976097,-42.4764741,16,119.01220
1,Abreu e Lima/PE,-7.900719,-34.898389,3339,3327.48690
D1,Abreu e Lima/PE,-7.900719,-34.898389,240,239.17246
1,Abreulândia/TO,-9.6221526,-49.1558343,302,11642.25135
D1,Abreulândia/TO,-9.6221526,-49.1558343,6,231.30301
1,Acaiaca/MG,-20.3621646,-43.1444162,231,5783.67551
D1,Acaiaca/MG,-20.3621646,-43.1444162,11,275.41312
1,Acajutiba/BA,-11.6609659,-38.0186381,571,3759.79456
D1,Acajutiba/BA,-11.6609659,-38.0186381,20,131.69158
1,Acarape/CE,-4.2237866,-38.7071663,2826,18794.89226
D1,Acarape/CE,-4.2237866,-38.7071663,31,206.17185
1,Acaraú/CE,-2.8869514,-40.1194713,5117,8108.83621
D1,Acaraú/CE,-2.8869514,-40.1194713,112,177.48479
1,Acari/RN,-6.4364689,-36.6394777,1117,10044.06079
D1,Acari/RN,-6.4364689,-36.6394777,19,170.84795
1,Acará/PA,-1.961388,-48.1987043,1637,2940.59530
D1,Acará/PA,-1.961388,-48.1987043,36,64.66795
1,Acauã/PI,-8.219542,-41.083059,208,2928.75246
D1,Acauã/PI,-8.219542,-41.083059,1,14.08054
1,Aceguá/RS,-31.8695131,-54.1615593,374,7567.78632
D1,Aceguá/RS,-31.8695131,-54.1615593,7,141.64306
1,Acopiara/CE,-6.0936464,-39.4543204,4032,7400.74521
D1,Acopiara/CE,-6.0936464,-39.4543204,148,271.65434
1,Acorizal/MT,-15.2001544,-56.3668953,675,12654.66817
D1,Acorizal/MT,-15.2001544,-56.3668953,21,393.70079
1,Acrelândia/AC,-10.0759167,-67.0526898,1792,11568.75403
D1,Acrelândia/AC,-10.0759167,-67.0526898,37,238.86378
1,Acreúna/GO,-17.3959899,-50.3749031,2486,11026.34614
D1,Acreúna/GO,-17.3959899,-50.3749031,58,257.25184
1,Adamantina/SP,-21.6866517,-51.0762975,3734,10634.84378
D1,Adamantina/SP,-21.6866517,-51.0762975,130,370.25434
1,Adelândia/GO,-16.4155077,-50.1665834,227,9022.25755
D1,Adelândia/GO,-16.4155077,-50.1665834,4,158.98251
1,Adolfo/SP,-21.2356597,-49.6441918,618,17388.85763
D1,Adolfo/SP,-21.2356597,-49.6441918,18,506.47158
1,Adrianópolis/PR,-24.6557863,-48.9912769,1409,24056.68431
D1,Adrianópolis/PR,-24.6557863,-48.9912769,29,495.13403
1,Adustina/BA,-10.5358875,-38.114479,1063,6206.93682
D1,Adustina/BA,-10.5358875,-38.114479,26,151.81595
1,Afogados da Ingazeira/PE,-7.750429,-37.6356375,5224,13966.42070
D1,Afogados da Ingazeira/PE,-7.750429,-37.6356375,73,195.16629
1,Afonso Bezerra/RN,-5.4745,-36.57625071327935,791,7172.00109
D1,Afonso Bezerra/RN,-5.4745,-36.57625071327935,18,163.20609
1,Afonso Cláudio/ES,-20.077841,-41.12606,3532,11597.43884
D1,Afonso Cláudio/ES,-20.077841,-41.12606,62,203.57905
1,Afonso Cunha/MA,-4.1326105,-43.3230026,267,4058.98449
D1,Afonso Cunha/MA,-4.1326105,-43.3230026,3,45.60657
1,Afrânio/PE,-8.5198919,-41.0070197,970,4896.51691
D1,Afrânio/PE,-8.5198919,-41.0070197,15,75.71933
1,Afuá/PA,-0.1535664,-50.3879223,3083,7791.84674
D1,Afuá/PA,-0.1535664,-50.3879223,16,40.43774
1,Agrestina/PE,-8.4558021,-35.9442663,1743,6953.91981
D1,Agrestina/PE,-8.4558021,-35.9442663,67,267.30501
1,Agricolândia/PI,-5.7967843,-42.6605131,537,10465.79614
D1,Agricolândia/PI,-5.7967843,-42.6605131,7,136.42565
1,Agrolândia/SC,-27.4122212,-49.8295774,1680,15254.69899
D1,Agrolândia/SC,-27.4122212,-49.8295774,29,263.32516
1,Agronômica/SC,-27.2660744,-49.7104753,670,12161.91686
D1,Agronômica/SC,-27.2660744,-49.7104753,13,235.97749
1,Aguanil/MG,-20.9424533,-45.3927152,673,14882.79522
D1,Aguanil/MG,-20.9424533,-45.3927152,8,176.91287
1,Aguaí/SP,-22.0592036,-46.979384,3544,9670.37765
D1,Aguaí/SP,-22.0592036,-46.979384,109,297.42414
1,Agudo/RS,-29.6423259,-53.2494005,1794,10938.35742
D1,Agudo/RS,-29.6423259,-53.2494005,29,176.81849
1,Agudos do Sul/PR,-25.9890808,-49.3328175,748,7898.62724
D1,Agudos do Sul/PR,-25.9890808,-49.3328175,29,306.23020
1,Agudos/SP,-22.471162,-48.987822,4624,12363.30579
D1,Agudos/SP,-22.471162,-48.987822,108,288.76233
1,Aguiar/PB,-7.0928404,-38.1727215,528,9378.33037
D1,Aguiar/PB,-7.0928404,-38.1727215,5,88.80995
1,Aguiarnópolis/TO,-6.5600452,-47.4721189,672,9750.43529
D1,Aguiarnópolis/TO,-6.5600452,-47.4721189,13,188.62449
1,Aimorés/MG,-19.4917754,-41.0615603,2068,8225.60757
D1,Aimorés/MG,-19.4917754,-41.0615603,73,290.36236
1,Aiquara/BA,-14.126918,-39.8887574,495,11209.23913
D1,Aiquara/BA,-14.126918,-39.8887574,12,271.73913
1,Aiuaba/CE,-6.5710836,-40.1212278,831,4750.47162
D1,Aiuaba/CE,-6.5710836,-40.1212278,11,62.88230
1,Aiuruoca/MG,-21.9759554,-44.6036637,335,5605.75636
D1,Aiuruoca/MG,-21.9759554,-44.6036637,9,150.60241
1,Ajuricaba/RS,-28.239654,-53.7693013,1262,18062.11536
D1,Ajuricaba/RS,-28.239654,-53.7693013,29,415.05653
1,Alagoa Grande/PB,-7.0415212,-35.6285322,4115,14469.56644
D1,Alagoa Grande/PB,-7.0415212,-35.6285322,72,253.17346
1,Alagoa Nova/PB,-7.0653703,-35.76695977336711,1494,7141.15004
D1,Alagoa Nova/PB,-7.0653703,-35.76695977336711,24,114.71727
1,Alagoa/MG,-22.1697202,-44.6400042,444,16660.41276
D1,Alagoa/MG,-22.1697202,-44.6400042,7,262.66417
1,Alagoinha do Piauí/PI,-7.0090952,-40.939675,389,5075.01631
D1,Alagoinha do Piauí/PI,-7.0090952,-40.939675,10,130.46314
1,Alagoinha/PB,-6.97063215,-35.51490901897793,2072,14230.76923
D1,Alagoinha/PB,-6.97063215,-35.51490901897793,25,171.70330
1,Alagoinha/PE,-8.50355635,-36.77701174370496,1402,9525.75078
D1,Alagoinha/PE,-8.50355635,-36.77701174370496,27,183.44884
1,Alagoinhas/BA,-12.133526,-38.420772,14461,9493.39250
D1,Alagoinhas/BA,-12.133526,-38.420772,319,209.41790
1,Alambari/SP,-23.550338,-47.897971,648,10572.68722
D1,Alambari/SP,-23.550338,-47.897971,11,179.47463
1,Albertina/MG,-20.66164,-43.784039,254,8435.73564
D1,Albertina/MG,-20.66164,-43.784039,9,298.90402
1,Alcantil/PB,-7.7425491,-36.0609604,677,12288.98167
D1,Alcantil/PB,-7.7425491,-36.0609604,7,127.06480
1,Alcinópolis/MS,-18.3264121,-53.7094463,419,7734.90862
D1,Alcinópolis/MS,-18.3264121,-53.7094463,9,166.14362
1,Alcobaça/BA,-17.5215875,-39.1965474,1679,7465.54024
D1,Alcobaça/BA,-17.5215875,-39.1965474,30,133.39262
1,Alcântara/MA,-2.4038956,-44.4154241,328,1483.35745
D1,Alcântara/MA,-2.4038956,-44.4154241,19,85.92619
1,Alcântaras/CE,-3.586247,-40.5457641,1779,15100.58569
D1,Alcântaras/CE,-3.586247,-40.5457641,22,186.74136
1,Aldeias Altas/MA,-4.6291957,-43.4708622,977,3651.38095
D1,Aldeias Altas/MA,-4.6291957,-43.4708622,14,52.32276
1,Alecrim/RS,-27.6566142,-54.7653195,315,5405.86923
D1,Alecrim/RS,-27.6566142,-54.7653195,12,205.93788
1,Alegre/ES,-20.7625787,-41.5318886,2956,9861.55129
D1,Alegre/ES,-20.7625787,-41.5318886,65,216.84737
1,Alegrete do Piauí/PI,-7.2440138,-40.8602296,523,10634.40423
D1,Alegrete do Piauí/PI,-7.2440138,-40.8602296,6,122.00081
1,Alegrete/RS,-29.790166,-55.794862,11073,15162.67733
D1,Alegrete/RS,-29.790166,-55.794862,291,398.47730
1,Alegria/RS,-27.8332103,-54.0574959,396,11736.81091
D1,Alegria/RS,-27.8332103,-54.0574959,4,118.55365
1,Alenquer/PA,-1.946229,-54.738355,3615,6331.88538
D1,Alenquer/PA,-1.946229,-54.738355,141,246.96980
1,Alexandria/RN,-6.414779,-38.0135516,1885,13908.35977
D1,Alexandria/RN,-6.414779,-38.0135516,31,228.73165
1,Alexânia/GO,-16.0834049,-48.5077803,3416,12195.64441
D1,Alexânia/GO,-16.0834049,-48.5077803,84,299.89290
1,Alfenas/MG,-21.4297405,-45.9479419,10515,13063.08545
D1,Alfenas/MG,-21.4297405,-45.9479419,202,250.95038
1,Alfredo Chaves/ES,-20.624970400000002,-40.75006690147988,2546,17395.46324
D1,Alfredo Chaves/ES,-20.624970400000002,-40.75006690147988,36,245.96884
1,Alfredo Marcondes/SP,-21.9527,-51.413956,261,6238.04971
D1,Alfredo Marcondes/SP,-21.9527,-51.413956,13,310.70746
1,Alfredo Vasconcelos/MG,-21.145833,-43.776389,608,8709.35396
D1,Alfredo Vasconcelos/MG,-21.145833,-43.776389,13,186.21974
1,Alfredo Wagner/SC,-27.6961513,-49.3326734,1097,10876.46242
D1,Alfredo Wagner/SC,-27.6961513,-49.3326734,6,59.48840
1,Algodão de Jandaíra/PB,-6.9040175,-36.0089879,251,9740.00776
D1,Algodão de Jandaíra/PB,-6.9040175,-36.0089879,1,38.80481
1,Alhandra/PB,-7.4304246,-34.9106103,2424,12287.72748
D1,Alhandra/PB,-7.4304246,-34.9106103,36,182.49100
1,Aliança do Tocantins/TO,-11.3055927,-48.9409096,720,13468.01347
D1,Aliança do Tocantins/TO,-11.3055927,-48.9409096,21,392.81706
1,Aliança/PE,-7.60398,-35.222696,679,1768.36732
D1,Aliança/PE,-7.60398,-35.222696,62,161.47095
1,Almadina/BA,-14.70466,-39.6381994,636,11852.40403
D1,Almadina/BA,-14.70466,-39.6381994,10,186.35855
1,Almas/TO,-11.5681309,-47.1702803,239,3424.55939
D1,Almas/TO,-11.5681309,-47.1702803,5,71.64350
1,Almeirim/PA,-1.5290377,-52.5788111,3746,10993.07430
D1,Almeirim/PA,-1.5290377,-52.5788111,48,140.86160
1,Almenara/MG,-16.1740678,-40.6904907,4511,10704.03151
D1,Almenara/MG,-16.1740678,-40.6904907,50,118.64367
1,Almino Afonso/RN,-6.1544208,-37.7649018,509,10806.79406
D1,Almino Afonso/RN,-6.1544208,-37.7649018,13,276.00849
1,Almirante Tamandaré do Sul/RS,-28.1141129,-52.9134874,333,17085.68497
D1,Almirante Tamandaré do Sul/RS,-28.1141129,-52.9134874,7,359.15854
1,Almirante Tamandaré/PR,-25.3133048,-49.2997838,10652,8873.63484
D1,Almirante Tamandaré/PR,-25.3133048,-49.2997838,421,350.71351
1,Aloândia/GO,-17.7277983,-49.4809338,323,16263.84693
D1,Aloândia/GO,-17.7277983,-49.4809338,11,553.87714
1,Alpercata/MG,-18.9803616,-41.9827637,500,6724.04519
D1,Alpercata/MG,-18.9803616,-41.9827637,20,268.96181
1,Alpestre/RS,-27.2512339,-53.0349646,519,8554.47503
D1,Alpestre/RS,-27.2512339,-53.0349646,12,197.79133
1,Alpinópolis/MG,-20.863611,-46.387777,1641,8222.26676
D1,Alpinópolis/MG,-20.863611,-46.387777,38,190.39984
1,Alta Floresta D'Oeste/RO,-11.9296917,-61.9961284,4046,17801.83034
D1,Alta Floresta D'Oeste/RO,-11.9296917,-61.9961284,65,285.99085
1,Alta Floresta/MT,-9.8715018,-56.0839881,9928,19107.37312
D1,Alta Floresta/MT,-9.8715018,-56.0839881,142,273.29240
1,Altair/SP,-20.5238955,-49.0606135,330,7883.42093
D1,Altair/SP,-20.5238955,-49.0606135,15,358.33731
1,Altamira do Maranhão/MA,-4.1643006,-45.4674574,321,3919.89254
D1,Altamira do Maranhão/MA,-4.1643006,-45.4674574,14,170.96105
1,Altamira do Paraná/PR,-24.799114,-52.7128633,247,14684.89893
D1,Altamira do Paraná/PR,-24.799114,-52.7128633,12,713.43639
1,Altamira/PA,-3.204065,-52.209961,14033,12100.64759
D1,Altamira/PA,-3.204065,-52.209961,303,261.27672
1,Altaneira/CE,-6.9980933,-39.7385742,679,8875.81699
D1,Altaneira/CE,-6.9980933,-39.7385742,15,196.07843
1,Alterosa/MG,-21.249166,-46.143055,779,5366.12248
D1,Alterosa/MG,-21.249166,-46.143055,33,227.31969
1,Altinho/PE,-8.4904095,-36.0607494,1355,5895.40550
D1,Altinho/PE,-8.4904095,-36.0607494,29,126.17473
1,Altinópolis/SP,-21.021364,-47.3712,994,6134.66642
D1,Altinópolis/SP,-21.021364,-47.3712,49,302.41313
1,Alto Alegre do Maranhão/MA,-4.2055693,-44.4525287,1332,4781.39134
D1,Alto Alegre do Maranhão/MA,-4.2055693,-44.4525287,28,100.50973
1,Alto Alegre do Pindaré/MA,-3.6698186,-45.8462153,2196,6874.74564
D1,Alto Alegre do Pindaré/MA,-3.6698186,-45.8462153,47,147.13709
1,Alto Alegre dos Parecis/RO,-12.1314515,-61.856265,1483,11188.23086
D1,Alto Alegre dos Parecis/RO,-12.1314515,-61.856265,45,339.49453
1,Alto Alegre/RR,2.98858,-61.307167,1575,10240.57217
D1,Alto Alegre/RR,2.98858,-61.307167,36,234.07022
1,Alto Alegre/RS,-31.780844700000003,-52.81311114489171,211,13081.21513
D1,Alto Alegre/RS,-31.780844700000003,-52.81311114489171,1,61.99628
1,Alto Alegre/SP,-21.5820592,-50.1661976,395,9662.42661
D1,Alto Alegre/SP,-21.5820592,-50.1661976,21,513.69863
1,Alto Araguaia/MT,-17.3156528,-53.2169365,1584,8171.26644
D1,Alto Araguaia/MT,-17.3156528,-53.2169365,29,149.60021
1,Alto Bela Vista/SC,-27.4320737,-51.905771,199,10332.29491
D1,Alto Bela Vista/SC,-27.4320737,-51.905771,3,155.76324
1,Alto Boa Vista/MT,-11.6723985,-51.3744431,845,12182.81430
D1,Alto Boa Vista/MT,-11.6723985,-51.3744431,17,245.09804
1,Alto Caparaó/MG,-20.4405661,-41.8683799,417,7074.99152
D1,Alto Caparaó/MG,-20.4405661,-41.8683799,9,152.69766
1,Alto Feliz/RS,-29.3785943,-51.3123751,307,10111.98946
D1,Alto Feliz/RS,-29.3785943,-51.3123751,2,65.87615
1,Alto Garças/MT,-16.9469683,-53.529427,1117,9192.65904
D1,Alto Garças/MT,-16.9469683,-53.529427,42,345.65056
1,Alto Horizonte/GO,-14.1954948,-49.3366993,1060,16048.44815
D1,Alto Horizonte/GO,-14.1954948,-49.3366993,14,211.96064
1,Alto Jequitibá/MG,-20.423611,-41.966111,919,11070.95531
D1,Alto Jequitibá/MG,-20.423611,-41.966111,11,132.51415
1,Alto Longá/PI,-5.2549051,-42.2072388,680,4742.31118
D1,Alto Longá/PI,-5.2549051,-42.2072388,15,104.60981
1,Alto Paraguai/MT,-14.513712,-56.4936374,917,7992.67846
D1,Alto Paraguai/MT,-14.513712,-56.4936374,28,244.05125
1,Alto Paraná/PR,-23.131247,-52.318893,1269,8540.27862
D1,Alto Paraná/PR,-23.131247,-52.318893,26,174.97813
1,Alto Paraíso de Goiás/GO,-14.1304779,-47.5100161,696,9053.06972
D1,Alto Paraíso de Goiás/GO,-14.1304779,-47.5100161,8,104.05827
1,Alto Paraíso/PR,-23.508137,-53.728537,341,12700.18622
D1,Alto Paraíso/PR,-23.508137,-53.728537,7,260.70764
1,Alto Paraíso/RO,-9.7240103,-63.3188123,1875,8582.41406
D1,Alto Paraíso/RO,-9.7240103,-63.3188123,49,224.28709
1,Alto Parnaíba/MA,-9.112506,-45.9310154,1017,9070.63860
D1,Alto Parnaíba/MA,-9.112506,-45.9310154,11,98.10917
1,Alto Piquiri/PR,-24.0239021,-53.4417448,1084,11086.11168
D1,Alto Piquiri/PR,-24.0239021,-53.4417448,27,276.13009
1,Alto Rio Doce/MG,-21.0239537,-43.4133507,550,5064.92311
D1,Alto Rio Doce/MG,-21.0239537,-43.4133507,30,276.26853
1,Alto Rio Novo/ES,-19.0577208,-41.0171518,783,9944.11989
D1,Alto Rio Novo/ES,-19.0577208,-41.0171518,22,279.40056
1,Alto Santo/CE,-5.5190371,-38.2719351,1932,11235.17097
D1,Alto Santo/CE,-5.5190371,-38.2719351,35,203.53571
1,Alto Taquari/MT,-17.8269099,-53.2831736,1631,14650.13923
D1,Alto Taquari/MT,-17.8269099,-53.2831736,29,260.48684
1,Alto do Rodrigues/RN,-5.290868,-36.7616726,2544,17273.22108
D1,Alto do Rodrigues/RN,-5.290868,-36.7616726,41,278.38131
1,Altos/PI,-5.0393915,-42.4611694,4545,11193.20281
D1,Altos/PI,-5.0393915,-42.4611694,90,221.64758
1,Altônia/PR,-23.8722004,-53.894037,1532,6908.36941
D1,Altônia/PR,-23.8722004,-53.894037,37,166.84704
1,Alumínio/SP,-23.5203479,-47.2575256,1598,8514.94645
D1,Alumínio/SP,-23.5203479,-47.2575256,52,277.08211
1,Alvarenga/MG,-19.4175,-41.728334,514,13371.48803
D1,Alvarenga/MG,-19.4175,-41.728334,4,104.05827
1,Alvarães/AM,-3.214786,-64.8143124,2908,17928.48335
D1,Alvarães/AM,-3.214786,-64.8143124,46,283.60049
1,Alvinlândia/SP,-22.4431852,-49.7643596,141,4355.88508
D1,Alvinlândia/SP,-22.4431852,-49.7643596,9,278.03522
1,Alvinópolis/MG,-20.1105199,-43.0601805,766,5049.77256
D1,Alvinópolis/MG,-20.1105199,-43.0601805,22,145.03263
1,Alvorada D'Oeste/RO,-11.346271,-62.284697,1161,8230.54020
D1,Alvorada D'Oeste/RO,-11.346271,-62.284697,29,205.58628
1,Alvorada de Minas/MG,-18.7318587,-43.3641479,281,7794.72954
D1,Alvorada de Minas/MG,-18.7318587,-43.3641479,3,83.21775
1,Alvorada do Gurguéia/PI,-8.4465288,-43.8655915,441,8099.17355
D1,Alvorada do Gurguéia/PI,-8.4465288,-43.8655915,11,202.02020
1,Alvorada do Norte/GO,-14.483911,-46.4959897,799,9178.63297
D1,Alvorada do Norte/GO,-14.483911,-46.4959897,10,114.87651
1,Alvorada do Sul/PR,-22.7807269,-51.2307721,835,7258.97592
D1,Alvorada do Sul/PR,-22.7807269,-51.2307721,28,243.41476
1,Alvorada/RS,-29.9981184,-51.0772509,22144,10477.30800
D1,Alvorada/RS,-29.9981184,-51.0772509,786,371.89144
1,Alvorada/TO,-12.478465,-49.124926,1448,17246.30777
D1,Alvorada/TO,-12.478465,-49.124926,25,297.76084
1,Além Paraíba/MG,-21.8760576,-42.6810473,3398,9598.59891
D1,Além Paraíba/MG,-21.8760576,-42.6810473,150,423.71684
1,Amajari/RR,3.6523869,-61.4194315,1157,8775.12325
D1,Amajari/RR,3.6523869,-61.4194315,21,159.27190
1,Amambai/MS,-23.1082701,-55.2284854,3264,8195.65108
D1,Amambai/MS,-23.1082701,-55.2284854,82,205.89565
1,Amaporã/PR,-23.094272,-52.786597,454,7169.93051
D1,Amaporã/PR,-23.094272,-52.786597,7,110.54959
1,Amapá do Maranhão/MA,-1.6762114,-46.0109669,172,2455.38901
D1,Amapá do Maranhão/MA,-1.6762114,-46.0109669,6,85.65310
1,Amapá/AP,2.0529997,-50.7930003,1398,15217.15468
D1,Amapá/AP,2.0529997,-50.7930003,10,108.84946
1,Amaraji/PE,-8.373925,-35.4536527,649,2837.77875
D1,Amaraji/PE,-8.373925,-35.4536527,47,205.50940
1,Amaral Ferrador/RS,-30.8750633,-52.2542051,310,4375.44107
D1,Amaral Ferrador/RS,-30.8750633,-52.2542051,10,141.14326
1,Amaralina/GO,-13.9236199,-49.2962411,117,3042.91287
D1,Amaralina/GO,-13.9236199,-49.2962411,2,52.01560
1,Amarante do Maranhão/MA,-5.56913,-46.747284,1594,3819.88545
D1,Amarante do Maranhão/MA,-5.56913,-46.747284,53,127.00999
1,Amarante/PI,-6.2459374,-42.8476238,1576,8952.51079
D1,Amarante/PI,-6.2459374,-42.8476238,35,198.81845
1,Amargosa/BA,-13.03793715,-39.60796443875596,3171,8469.32507
D1,Amargosa/BA,-13.03793715,-39.60796443875596,56,149.56865
1,Amaturá/AM,-3.3640509,-68.1994689,2385,20322.08589
D1,Amaturá/AM,-3.3640509,-68.1994689,18,153.37423
1,Americana/SP,-22.7392463,-47.3306032,26004,10744.65536
D1,Americana/SP,-22.7392463,-47.3306032,811,335.09904
1,Americano do Brasil/GO,-16.2515808,-49.9806104,834,13530.17521
D1,Americano do Brasil/GO,-16.2515808,-49.9806104,23,373.13433
1,Ametista do Sul/RS,-27.3617341,-53.1826575,903,12197.75767
D1,Ametista do Sul/RS,-27.3617341,-53.1826575,21,283.66878
1,Amontada/CE,-3.3634586,-39.8284791,2936,6698.76109
D1,Amontada/CE,-3.3634586,-39.8284791,56,127.76929
1,Amorinópolis/GO,-16.6211308,-51.0949921,357,11632.45357
D1,Amorinópolis/GO,-16.6211308,-51.0949921,6,195.50342
1,Amparo de São Francisco/SE,-10.1299754,-36.9269099,256,10756.30252
D1,Amparo de São Francisco/SE,-10.1299754,-36.9269099,5,210.08403
1,Amparo do Serra/MG,-20.5070255,-42.8028462,164,3505.77170
D1,Amparo do Serra/MG,-20.5070255,-42.8028462,8,171.01325
1,Amparo/PB,-7.56394725,-37.04652873235175,178,7907.59662
D1,Amparo/PB,-7.56394725,-37.04652873235175,4,177.69880
1,Amparo/SP,-22.70111,-46.76444,7339,10098.10532
D1,Amparo/SP,-22.70111,-46.76444,137,188.50530
1,Ampére/PR,-25.9168712,-53.4742414,2437,12619.75040
D1,Ampére/PR,-25.9168712,-53.4742414,57,295.16856
1,Amélia Rodrigues/BA,-12.4015388,-38.7516971,2340,9342.06324
D1,Amélia Rodrigues/BA,-12.4015388,-38.7516971,47,187.63973
1,América Dourada/BA,-11.4515262,-41.4357517,945,5873.21318
D1,América Dourada/BA,-11.4515262,-41.4357517,13,80.79553
1,Américo Brasiliense/SP,-21.7297099,-48.1052092,4200,10235.91343
D1,Américo Brasiliense/SP,-21.7297099,-48.1052092,95,231.52661
1,Américo de Campos/SP,-20.298476,-49.735904,1148,19194.11470
D1,Américo de Campos/SP,-20.298476,-49.735904,34,568.46681
1,Anadia/AL,-9.6830208,-36.3052699,1448,8262.01073
D1,Anadia/AL,-9.6830208,-36.3052699,30,171.17426
1,Anagé/BA,-14.6134669,-41.1376308,1075,4975.23951
D1,Anagé/BA,-14.6134669,-41.1376308,28,129.58763
1,Anahy/PR,-24.6450861,-53.1337957,369,13235.29412
D1,Anahy/PR,-24.6450861,-53.1337957,9,322.81205
1,Anajatuba/MA,-3.26441,-44.6179916,1086,4024.01067
D1,Anajatuba/MA,-3.26441,-44.6179916,26,96.33911
1,Anajás/PA,-0.9878802,-49.9390114,1363,4591.08057
D1,Anajás/PA,-0.9878802,-49.9390114,22,74.10402
1,Analândia/SP,-22.128917,-47.661939,376,7436.70886
D1,Analândia/SP,-22.128917,-47.661939,5,98.89241
1,Anamã/AM,-3.5797356,-61.4049996,1973,14137.28862
D1,Anamã/AM,-3.5797356,-61.4049996,10,71.65377
1,Ananindeua/PA,-1.374035,-48.4016623,25474,4756.63200
D1,Ananindeua/PA,-1.374035,-48.4016623,816,152.36758
1,Ananás/TO,-6.3663053,-48.080238,1650,17383.05942
D1,Ananás/TO,-6.3663053,-48.080238,27,284.45006
1,Anapu/PA,-3.4668292,-51.2057035,1718,6005.52312
D1,Anapu/PA,-3.4668292,-51.2057035,46,160.79980
1,Anapurus/MA,-3.6751298,-43.1046001,831,5228.38807
D1,Anapurus/MA,-3.6751298,-43.1046001,14,88.08355
1,Anastácio/MS,-20.4832458,-55.8048448,2595,10282.52169
D1,Anastácio/MS,-20.4832458,-55.8048448,79,313.03245
1,Anaurilândia/MS,-22.185169,-52.719056,561,6181.13706
D1,Anaurilândia/MS,-22.185169,-52.719056,15,165.27104
1,Anchieta/ES,-20.8057672,-40.6454564,4910,16488.12922
D1,Anchieta/ES,-20.8057672,-40.6454564,88,295.51026
1,Anchieta/SC,-26.5350527,-53.3293938,694,12488.75292
D1,Anchieta/SC,-26.5350527,-53.3293938,10,179.95321
1,Andaraí/BA,-12.8059674,-41.3322919,941,7165.70210
D1,Andaraí/BA,-12.8059674,-41.3322919,10,76.14986
1,Andirá/PR,-23.0494761,-50.2310027,2552,12807.38733
D1,Andirá/PR,-23.0494761,-50.2310027,83,416.54120
1,Andorinha/BA,-10.3445708,-39.8334411,962,6633.11039
D1,Andorinha/BA,-10.3445708,-39.8334411,17,117.21713
1,Andradas/MG,-22.0680484,-46.5688976,3990,9638.61243
D1,Andradas/MG,-22.0680484,-46.5688976,122,294.71447
1,Andradina/SP,-20.896505,-51.3742765,6709,11728.61089
D1,Andradina/SP,-20.896505,-51.3742765,269,470.26328
1,Andrelândia/MG,-21.739722,-44.308889,206,1687.69458
D1,Andrelândia/MG,-21.739722,-44.308889,14,114.69769
1,André da Rocha/RS,-28.6309124,-51.5733328,124,9233.06031
D1,André da Rocha/RS,-28.6309124,-51.5733328,1,74.46016
1,Angatuba/SP,-23.4938938,-48.4110675,3156,12386.67138
D1,Angatuba/SP,-23.4938938,-48.4110675,72,282.58566
1,Angelim/PE,-8.8902038,-36.2872987,229,2039.90736
D1,Angelim/PE,-8.8902038,-36.2872987,11,97.98682
1,Angelina/SC,-27.5805287,-48.9838759,547,11532.78516
D1,Angelina/SC,-27.5805287,-48.9838759,2,42.16740
1,Angelândia/MG,-17.7253,-42.2728,264,3085.19341
D1,Angelândia/MG,-17.7253,-42.2728,3,35.05902
1,Angical do Piauí/PI,-6.0872666,-42.7366138,881,12988.35324
D1,Angical do Piauí/PI,-6.0872666,-42.7366138,12,176.91287
1,Angical/BA,-12.005623,-44.7000236,725,5201.60712
D1,Angical/BA,-12.005623,-44.7000236,16,114.79409
1,Angico/TO,-6.3893733,-47.8656722,236,6832.65779
D1,Angico/TO,-6.3893733,-47.8656722,4,115.80776
1,Angicos/RN,-5.6666344,-36.6009064,1111,9491.67023
D1,Angicos/RN,-5.6666344,-36.6009064,24,205.04058
1,Angra dos Reis/RJ,-23.0063966,-44.316326,14892,7192.67402
D1,Angra dos Reis/RJ,-23.0063966,-44.316326,515,248.73940
1,Anguera/BA,-12.1509425,-39.2452469,498,4408.24998
D1,Anguera/BA,-12.1509425,-39.2452469,2,17.70382
1,Angélica/MS,-22.1588196,-53.7728504,1392,12733.26015
D1,Angélica/MS,-22.1588196,-53.7728504,20,182.94914
1,Anhanguera/GO,-18.3338749,-48.220363,96,8275.86207
D1,Anhanguera/GO,-18.3338749,-48.220363,7,603.44828
1,Anhembi/SP,-22.7891096,-48.1316776,325,4766.09474
D1,Anhembi/SP,-22.7891096,-48.1316776,9,131.98416
1,Anhumas/SP,-22.2956478,-51.3873401,312,7528.95753
D1,Anhumas/SP,-22.2956478,-51.3873401,7,168.91892
1,Anicuns/GO,-16.4606451,-49.9572265,3207,14589.87307
D1,Anicuns/GO,-16.4606451,-49.9572265,67,304.80870
1,Anita Garibaldi/SC,-27.6855032,-51.1293873,1204,17306.31019
D1,Anita Garibaldi/SC,-27.6855032,-51.1293873,10,143.74012
1,Anitápolis/SC,-27.9041185,-49.1287395,347,10749.69021
D1,Anitápolis/SC,-27.9041185,-49.1287395,5,154.89467
1,Anori/AM,-3.7435254,-61.6605203,1912,8902.54691
D1,Anori/AM,-3.7435254,-61.6605203,33,153.65274
1,Anta Gorda/RS,-28.9718745,-52.0069187,645,10820.33216
D1,Anta Gorda/RS,-28.9718745,-52.0069187,5,83.87854
1,Antas/BA,-10.4114649,-38.3308815,1317,6761.12737
D1,Antas/BA,-10.4114649,-38.3308815,13,66.73854
1,Antonina do Norte/CE,-6.7754187,-39.9879345,801,10856.60070
D1,Antonina do Norte/CE,-6.7754187,-39.9879345,26,352.39902
1,Antonina/PR,-25.4298854,-48.7125431,2556,13488.83846
D1,Antonina/PR,-25.4298854,-48.7125431,73,385.24460
1,Antônio Almeida/PI,-7.2186016,-44.1950248,406,12807.57098
D1,Antônio Almeida/PI,-7.2186016,-44.1950248,10,315.45741
1,Antônio Cardoso/BA,-12.4363122,-39.1200307,623,5335.27447
D1,Antônio Cardoso/BA,-12.4363122,-39.1200307,11,94.20228
1,Antônio Carlos/MG,-21.318334,-43.746666,780,6806.87669
D1,Antônio Carlos/MG,-21.318334,-43.746666,16,139.62824
1,Antônio Carlos/SC,-27.5168462,-48.7684715,1646,19110.64670
D1,Antônio Carlos/SC,-27.5168462,-48.7684715,27,313.47962
1,Antônio Dias/MG,-19.6525,-42.872778,595,6415.09434
D1,Antônio Dias/MG,-19.6525,-42.872778,26,280.32345
1,Antônio Gonçalves/BA,-10.5715409,-40.2748824,916,7711.73598
D1,Antônio Gonçalves/BA,-10.5715409,-40.2748824,9,75.77033
1,Antônio João/MS,-22.1892837,-55.9508227,539,5975.60976
D1,Antônio João/MS,-22.1892837,-55.9508227,16,177.38359
1,Antônio Martins/RN,-6.2155812,-37.8890129,678,9477.21554
D1,Antônio Martins/RN,-6.2155812,-37.8890129,7,97.84736
1,Antônio Olinto/PR,-25.9849006,-50.1974516,531,7149.58934
D1,Antônio Olinto/PR,-25.9849006,-50.1974516,14,188.50141
1,Antônio Prado de Minas/MG,-21.0171988,-42.1101106,166,10459.98740
D1,Antônio Prado de Minas/MG,-21.0171988,-42.1101106,5,315.05986
1,Antônio Prado/RS,-28.8567806,-51.2801355,2725,20889.22959
D1,Antônio Prado/RS,-28.8567806,-51.2801355,31,237.63894
1,Anápolis/GO,-16.3332828,-48.9525756,46086,11763.47467
D1,Anápolis/GO,-16.3332828,-48.9525756,1664,424.73684
1,Anísio de Abreu/PI,-9.185643,-43.04941,291,2928.15456
D1,Anísio de Abreu/PI,-9.185643,-43.04941,14,140.87342
1,Aparecida d'Oeste/SP,-20.4498109,-50.8808706,839,20177.97018
D1,Aparecida d'Oeste/SP,-20.4498109,-50.8808706,16,384.80038
1,Aparecida de Goiânia/GO,-16.8226769,-49.2452546,78286,13265.53090
D1,Aparecida de Goiânia/GO,-16.8226769,-49.2452546,1630,276.20284
1,Aparecida do Rio Doce/GO,-18.2980167,-51.1491312,256,10347.61520
D1,Aparecida do Rio Doce/GO,-18.2980167,-51.1491312,4,161.68149
1,Aparecida do Rio Negro/TO,-9.9513491,-47.9773786,392,8085.80858
D1,Aparecida do Rio Negro/TO,-9.9513491,-47.9773786,13,268.15182
1,Aparecida do Taboado/MS,-20.0840304,-51.1013943,3638,13955.27255
D1,Aparecida do Taboado/MS,-20.0840304,-51.1013943,60,230.15843
1,Aparecida/PB,-6.7859598, -38.0831353,988,11739.54373
D1,Aparecida/PB,-6.7859598, -38.0831353,14,166.34981
1,Aparecida/SP,-22.851552,-45.2340924,2754,7610.88849
D1,Aparecida/SP,-22.851552,-45.2340924,110,303.99337
1,Aperibé/RJ,-21.6211928,-42.1028167,717,6024.70381
D1,Aperibé/RJ,-21.6211928,-42.1028167,30,252.07966
1,Apiacá/ES,-21.152272,-41.569297,906,11993.64575
D1,Apiacá/ES,-21.152272,-41.569297,34,450.09267
1,Apiacás/MT,-9.5678422,-57.394852,1900,18477.09812
D1,Apiacás/MT,-9.5678422,-57.394852,18,175.04619
1,Apiaí/SP,-24.5076527,-48.8461582,1711,7062.65995
D1,Apiaí/SP,-24.5076527,-48.8461582,79,326.09593
1,Apicum-Açu/MA,-1.5279295,-45.082278,532,3055.18865
D1,Apicum-Açu/MA,-1.5279295,-45.082278,11,63.17119
1,Apiúna/SC,-27.0374658,-49.3885037,868,8001.47493
D1,Apiúna/SC,-27.0374658,-49.3885037,18,165.92920
1,Apodi/RN,-5.6631109,-37.796927,6667,18584.49016
D1,Apodi/RN,-5.6631109,-37.796927,97,270.39081
1,Aporá/BA,-11.6599747,-38.0794757,641,3603.55296
D1,Aporá/BA,-11.6599747,-38.0794757,19,106.81358
1,Aporé/GO,-18.9642193,-51.92804,401,9475.42533
D1,Aporé/GO,-18.9642193,-51.92804,10,236.29490
1,Apuarema/BA,-13.8517897,-39.7457126,769,10531.36127
D1,Apuarema/BA,-13.8517897,-39.7457126,9,123.25390
1,Apucarana/PR,-23.5525327,-51.4610764,10603,7782.93231
D1,Apucarana/PR,-23.5525327,-51.4610764,450,330.31402
1,Apuiarés/CE,-3.9460303,-39.4313298,1376,9378.40785
D1,Apuiarés/CE,-3.9460303,-39.4313298,25,170.39258
1,Apuí/AM,-7.1940195,-59.8830192,1473,6587.95116
D1,Apuí/AM,-7.1940195,-59.8830192,31,138.64663
1,Aquidabã/SE,-10.2837579,-37.0188687,2402,11078.82478
D1,Aquidabã/SE,-10.2837579,-37.0188687,39,179.88100
1,Aquidauana/MS,-20.473969,-55.7821375,5623,11707.51005
D1,Aquidauana/MS,-20.473969,-55.7821375,159,331.04999
1,Aquiraz/CE,-3.9063117,-38.387504,6678,8251.06567
D1,Aquiraz/CE,-3.9063117,-38.387504,90,111.20035
1,Arabutã/SC,-27.1587028,-52.1438142,420,9842.98102
D1,Arabutã/SC,-27.1587028,-52.1438142,9,210.92102
1,Aracaju/SE,-10.9162061,-37.0774655,127395,19159.79354
D1,Aracaju/SE,-10.9162061,-37.0774655,2395,360.20021
1,Aracati/CE,-4.558259,-37.767894,8039,10722.24075
D1,Aracati/CE,-4.558259,-37.767894,165,220.07336
1,Aracatu/BA,-14.4274236,-41.4604105,912,6991.18436
D1,Aracatu/BA,-14.4274236,-41.4604105,18,137.98390
1,Araci/BA,-11.3356065,-38.9573261,3700,6770.60460
D1,Araci/BA,-11.3356065,-38.9573261,51,93.32455
1,Aracitaba/MG,-21.3425,-43.378611,91,4419.62118
D1,Aracitaba/MG,-21.3425,-43.378611,10,485.67266
1,Aracoiaba/CE,-4.3702577,-38.8084313,4297,16193.70643
D1,Aracoiaba/CE,-4.3702577,-38.8084313,35,131.90126
1,Aracruz/ES,-19.8245218,-40.2735025,16884,16376.17482
D1,Aracruz/ES,-19.8245218,-40.2735025,233,225.99199
1,Aragarças/GO,-15.8957166,-52.2514538,3200,15784.54102
D1,Aragarças/GO,-15.8957166,-52.2514538,73,360.08484
1,Aragoiânia/GO,-16.9146388,-49.4499148,1380,13147.86585
D1,Aragoiânia/GO,-16.9146388,-49.4499148,25,238.18598
1,Aragominas/TO,-7.1654101,-48.525488,561,9788.86756
D1,Aragominas/TO,-7.1654101,-48.525488,11,191.93858
1,Araguacema/TO,-8.8067391,-49.5560969,739,10328.44165
D1,Araguacema/TO,-8.8067391,-49.5560969,14,195.66737
1,Araguaiana/MT,-15.729144,-51.834112,395,12705.04986
D1,Araguaiana/MT,-15.729144,-51.834112,7,225.15278
1,Araguainha/MT,-16.857016,-53.031778,29,3065.53911
D1,Araguainha/MT,-16.857016,-53.031778,1,105.70825
1,Araguanã/MA,-2.9508403,-45.6651986,810,5208.66825
D1,Araguanã/MA,-2.9508403,-45.6651986,5,32.15227
1,Araguanã/TO,-6.5799107,-48.6428482,581,10029.34576
D1,Araguanã/TO,-6.5799107,-48.6428482,16,276.19541
1,Araguapaz/GO,-15.0937927,-50.626417,682,8762.68791
D1,Araguapaz/GO,-15.0937927,-50.626417,27,346.90993
1,Araguari/MG,-18.6511256,-48.1933764,17808,15113.94017
D1,Araguari/MG,-18.6511256,-48.1933764,440,373.43518
1,Araguatins/TO,-5.6522925,-48.1158973,2500,6911.80536
D1,Araguatins/TO,-5.6522925,-48.1158973,67,185.23638
1,Araguaçu/TO,-12.928934,-49.823134,915,10806.66116
D1,Araguaçu/TO,-12.928934,-49.823134,21,248.02173
1,Araguaína/TO,-7.193241,-48.2018597,36349,19821.57366
D1,Araguaína/TO,-7.193241,-48.2018597,509,277.56420
1,Araioses/MA,-2.890914,-41.904993,683,1460.30660
D1,Araioses/MA,-2.890914,-41.904993,15,32.07116
1,Aral Moreira/MS,-22.951141,-55.6268421,559,4532.92248
D1,Aral Moreira/MS,-22.951141,-55.6268421,15,121.63477
1,Aramari/BA,-12.0907897,-38.4985065,671,5854.63747
D1,Aramari/BA,-12.0907897,-38.4985065,12,104.70291
1,Arambaré/RS,-30.9132252,-51.4994625,225,6316.67602
D1,Arambaré/RS,-30.9132252,-51.4994625,8,224.59293
1,Arame/MA,-4.8858769,-46.0102484,1563,4770.47979
D1,Arame/MA,-4.8858769,-46.0102484,42,128.18948
1,Aramina/SP,-20.0876144,-47.789201,353,6242.26348
D1,Aramina/SP,-20.0876144,-47.789201,17,300.61892
1,Arandu/SP,-23.1345103,-49.0545651,620,9740.76984
D1,Arandu/SP,-23.1345103,-49.0545651,17,267.08562
1,Arantina/MG,-21.911667,-44.255833,212,7606.74560
D1,Arantina/MG,-21.911667,-44.255833,4,143.52350
1,Arapeí/SP,-22.6738889,-44.4477778,252,10243.90244
D1,Arapeí/SP,-22.6738889,-44.4477778,3,121.95122
1,Arapiraca/AL,-9.754866,-36.661471,30858,13241.10587
D1,Arapiraca/AL,-9.754866,-36.661471,514,220.55637
1,Arapoema/TO,-7.6575001,-49.0641484,504,7617.89601
D1,Arapoema/TO,-7.6575001,-49.0641484,12,181.37848
1,Araponga/MG,-20.666667,-42.520556,681,8056.31137
D1,Araponga/MG,-20.666667,-42.520556,10,118.30119
1,Arapongas/PR,-23.415296,-51.42592,13564,10867.71893
D1,Arapongas/PR,-23.415296,-51.42592,567,454.29052
1,Araporã/MG,-18.4318188,-49.188313,2041,29447.41019
D1,Araporã/MG,-18.4318188,-49.188313,37,533.83350
1,Arapoti/PR,-24.1457957,-49.8224605,3217,11367.49117
D1,Arapoti/PR,-24.1457957,-49.8224605,64,226.14841
1,Araputanga/MT,-15.4710868,-58.346796,2092,12341.45478
D1,Araputanga/MT,-15.4710868,-58.346796,55,324.46463
1,Arapuá/MG,-19.034444,-46.155556,287,10123.45679
D1,Arapuá/MG,-19.034444,-46.155556,2,70.54674
1,Arapuã/PR,-24.3079525,-51.7901941,245,8142.23995
D1,Arapuã/PR,-24.3079525,-51.7901941,7,232.63543
1,Araquari/SC,-26.3703324,-48.7210994,3937,9961.03633
D1,Araquari/SC,-26.3703324,-48.7210994,83,209.99899
1,Arara/PB,-6.8271895,-35.7605703,1042,7694.57983
D1,Arara/PB,-6.8271895,-35.7605703,29,214.14857
1,Araranguá/SC,-28.9348832,-49.4858389,10945,15892.95308
D1,Araranguá/SC,-28.9348832,-49.4858389,248,360.11442
1,Araraquara/SP,-21.7886713,-48.1773096,24754,10386.04677
D1,Araraquara/SP,-21.7886713,-48.1773096,499,209.36565
1,Araras/SP,-22.3569477,-47.3838889,17985,13272.47502
D1,Araras/SP,-22.3569477,-47.3838889,391,288.54811
1,Ararendá/CE,-4.7504395,-40.8303611,1410,12866.13742
D1,Ararendá/CE,-4.7504395,-40.8303611,22,200.74824
1,Arari/MA,-3.4547602,-44.7772723,996,3327.54243
D1,Arari/MA,-3.4547602,-44.7772723,34,113.59081
1,Araricá/RS,-29.6168543,-50.929121,1024,17743.89187
D1,Araricá/RS,-29.6168543,-50.929121,26,450.52850
1,Araripe/CE,-7.212861,-40.1359222,1352,6243.65013
D1,Araripe/CE,-7.212861,-40.1359222,23,106.21594
1,Araripina/PE,-7.5768582,-40.5038509,7445,8772.86011
D1,Araripina/PE,-7.5768582,-40.5038509,157,185.00189
1,Araruama/RJ,-22.8733203,-42.3428897,6731,5012.17487
D1,Araruama/RJ,-22.8733203,-42.3428897,457,340.30069
1,Araruna/PB,-6.5321155,-35.7397595,703,3435.46890
D1,Araruna/PB,-6.5321155,-35.7397595,17,83.07677
1,Araruna/PR,-23.9320308,-52.4976047,2156,15400.00000
D1,Araruna/PR,-23.9320308,-52.4976047,36,257.14286
1,Arataca/BA,-15.2617424,-39.4122943,790,7207.37159
D1,Arataca/BA,-15.2617424,-39.4122943,15,136.84883
1,Aratiba/RS,-27.3955734,-52.3024325,449,7254.80692
D1,Aratiba/RS,-27.3955734,-52.3024325,7,113.10389
1,Aratuba/CE,-4.4195958,-39.0463737,1645,13938.31554
D1,Aratuba/CE,-4.4195958,-39.0463737,10,84.73140
1,Aratuípe/BA,-13.077137,-39.0010786,485,5488.28788
D1,Aratuípe/BA,-13.077137,-39.0010786,11,124.47663
1,Araucária/PR,-25.5861107,-49.4051209,27775,18996.12896
D1,Araucária/PR,-25.5861107,-49.4051209,497,339.91273
1,Arauá/SE,-11.2644014,-37.6181058,1283,12898.36131
D1,Arauá/SE,-11.2644014,-37.6181058,22,221.17221
1,Araxá/MG,-19.5928536,-46.940241,14321,13342.09080
D1,Araxá/MG,-19.5928536,-46.940241,234,218.00497
1,Araçagi/PB,-6.8519969,-35.3835602,1674,9893.03233
D1,Araçagi/PB,-6.8519969,-35.3835602,24,141.83559
1,Araçariguama/SP,-23.438611,-47.061389,2039,8919.51006
D1,Araçariguama/SP,-23.438611,-47.061389,68,297.46282
1,Araçatuba/SP,-21.207992,-50.4390225,29645,14962.47394
D1,Araçatuba/SP,-21.207992,-50.4390225,888,448.19284
1,Araçaí/MG,-19.200833,-44.2475,100,4248.08836
D1,Araçaí/MG,-19.200833,-44.2475,1,42.48088
1,Araçoiaba da Serra/SP,-23.5045367,-47.6168158,3033,8721.53209
D1,Araçoiaba da Serra/SP,-23.5045367,-47.6168158,82,235.79480
1,Araçoiaba/PE,-7.7856903,-35.0898881,674,3250.85612
D1,Araçoiaba/PE,-7.7856903,-35.0898881,31,149.52009
1,Araçu/GO,-16.3561579,-49.6815269,485,13912.79403
D1,Araçu/GO,-16.3561579,-49.6815269,18,516.35112
1,Araçuaí/MG,-16.8484451,-42.0661868,1973,5374.26455
D1,Araçuaí/MG,-16.8484451,-42.0661868,52,141.64306
1,Araçás/BA,-12.2139176,-38.2026159,714,5848.62385
D1,Araçás/BA,-12.2139176,-38.2026159,15,122.87025
1,Araújos/MG,-19.948055,-45.165556,947,10073.39645
D1,Araújos/MG,-19.948055,-45.165556,14,148.92033
1,Arceburgo/MG,-21.364444,-46.939722,1271,11678.76505
D1,Arceburgo/MG,-21.364444,-46.939722,34,312.41386
1,Arco-Íris/SP,-21.7741308,-50.4668814,165,9306.26058
D1,Arco-Íris/SP,-21.7741308,-50.4668814,8,451.21263
1,Arcos/MG,-20.282223,-45.539444,5829,14435.36404
D1,Arcos/MG,-20.282223,-45.539444,112,277.36503
1,Arcoverde/PE,-8.415192,-37.057748,7063,9439.73698
D1,Arcoverde/PE,-8.415192,-37.057748,134,179.09171
1,Areado/MG,-21.3582771,-46.1476688,1214,7996.83815
D1,Areado/MG,-21.3582771,-46.1476688,29,191.02826
1,Areal/RJ,-22.2314922,-43.1056264,1597,12605.57266
D1,Areal/RJ,-22.2314922,-43.1056264,51,402.55742
1,Arealva/SP,-22.0301906,-48.9111936,997,11575.52537
D1,Arealva/SP,-22.0301906,-48.9111936,19,220.59677
1,Areia Branca/RN,-4.9506652,-37.1263312,2975,10637.53710
D1,Areia Branca/RN,-4.9506652,-37.1263312,98,350.41299
1,Areia Branca/SE,-10.7591455,-37.3148072,2098,11227.65707
D1,Areia Branca/SE,-10.7591455,-37.3148072,48,256.87681
1,Areia de Baraúnas/PB,-7.1233949,-36.9446216,210,9924.38563
D1,Areia de Baraúnas/PB,-7.1233949,-36.9446216,4,189.03592
1,Areia/PB,-6.9680243,-35.6994783,1924,8492.23164
D1,Areia/PB,-6.9680243,-35.6994783,31,136.82910
1,Areial/PB,-7.0501306,-35.9245244,374,5322.32816
D1,Areial/PB,-7.0501306,-35.9245244,12,170.76989
1,Areias/SP,-22.5800929,-44.6975127,348,8932.23819
D1,Areias/SP,-22.5800929,-44.6975127,2,51.33470
1,Areiópolis/SP,-22.6758064,-48.6673653,1362,12206.48862
D1,Areiópolis/SP,-22.6758064,-48.6673653,20,179.24359
1,Arenápolis/MT,-14.4610369,-56.8432806,1897,19964.21806
D1,Arenápolis/MT,-14.4610369,-56.8432806,38,399.91581
1,Arenópolis/GO,-16.3859286,-51.55937,322,12697.16088
D1,Arenópolis/GO,-16.3859286,-51.55937,8,315.45741
1,Argirita/MG,-21.612761,-42.8371922,281,10392.01183
D1,Argirita/MG,-21.612761,-42.8371922,9,332.84024
1,Aricanduva/MG,-17.8678,-42.5569,146,2770.92427
1,Arinos/MG,-15.917223,-46.106111,913,5111.40970
D1,Arinos/MG,-15.917223,-46.106111,27,151.15888
1,Aripuanã/MT,-10.175806,-59.4439663,3139,13819.67069
D1,Aripuanã/MT,-10.175806,-59.4439663,48,211.32341
1,Ariquemes/RO,-9.9076522,-63.033069,22458,20505.28200
D1,Ariquemes/RO,-9.9076522,-63.033069,493,450.13376
1,Ariranha do Ivaí/PR,-24.3834527,-51.5876772,180,8712.48790
D1,Ariranha do Ivaí/PR,-24.3834527,-51.5876772,4,193.61084
1,Ariranha/SP,-21.18716,-48.790418,1012,10367.79019
D1,Ariranha/SP,-21.18716,-48.790418,25,256.12130
1,Armazém/SC,-28.2624996,-49.0190126,1436,16394.56559
D1,Armazém/SC,-28.2624996,-49.0190126,32,365.33851
1,Armação dos Búzios/RJ,-22.7597805,-41.8875267,4994,14485.01900
D1,Armação dos Búzios/RJ,-22.7597805,-41.8875267,63,182.73052
1,Arneiroz/CE,-6.3235099,-40.1603859,673,8579.80622
D1,Arneiroz/CE,-6.3235099,-40.1603859,17,216.72616
1,Aroazes/PI,-6.1108814,-41.7886137,601,10314.05526
D1,Aroazes/PI,-6.1108814,-41.7886137,12,205.93788
1,Aroeiras do Itaim/PI,-7.2797031,-41.5629681,167,6546.45237
D1,Aroeiras do Itaim/PI,-7.2797031,-41.5629681,2,78.40063
1,Aroeiras/PB,-7.5462904,-35.7080002,1915,10017.78615
D1,Aroeiras/PB,-7.5462904,-35.7080002,16,83.69952
1,Arraial do Cabo/RJ,-22.9662839,-42.024427,782,2556.14029
D1,Arraial do Cabo/RJ,-22.9662839,-42.024427,41,134.01759
1,Arraial/PI,-6.6541632,-42.5335332,160,3389.83051
D1,Arraial/PI,-6.6541632,-42.5335332,3,63.55932
1,Arraias/TO,-12.9287788,-46.9437231,1124,10670.21075
D1,Arraias/TO,-12.9287788,-46.9437231,13,123.40991
1,Arroio Grande/RS,-32.2384246,-53.0866661,2082,11415.72541
D1,Arroio Grande/RS,-32.2384246,-53.0866661,54,296.08510
1,Arroio Trinta/SC,-26.9301976,-51.334928,611,17216.11722
D1,Arroio Trinta/SC,-26.9301976,-51.334928,14,394.47732
1,Arroio do Meio/RS,-29.4020392,-51.9444993,3166,15099.91892
D1,Arroio do Meio/RS,-29.4020392,-51.9444993,46,219.39238
1,Arroio do Padre/RS,-31.4428773,-52.4228985,247,8370.04405
D1,Arroio do Padre/RS,-31.4428773,-52.4228985,4,135.54727
1,Arroio do Sal/RS,-29.549852,-49.8874395,1161,11294.87304
D1,Arroio do Sal/RS,-29.549852,-49.8874395,40,389.14291
1,Arroio do Tigre/RS,-29.334158,-53.0888935,1246,9289.49527
D1,Arroio do Tigre/RS,-29.334158,-53.0888935,22,164.01998
1,Arroio dos Ratos/RS,-30.0894524,-51.7265541,1114,7857.79784
D1,Arroio dos Ratos/RS,-30.0894524,-51.7265541,37,260.98610
1,Artur Nogueira/SP,-22.572737,-47.172679,5374,9710.87821
D1,Artur Nogueira/SP,-22.572737,-47.172679,141,254.78858
1,Aruanã/GO,-14.9162439,-51.0715692,759,7507.41840
D1,Aruanã/GO,-14.9162439,-51.0715692,18,178.04154
1,Arujá/SP,-23.396266,-46.3175449,8077,8860.53731
D1,Arujá/SP,-23.396266,-46.3175449,332,364.20681
1,Arvoredo/SC,-27.0752908,-52.4571847,330,14771.70994
D1,Arvoredo/SC,-27.0752908,-52.4571847,4,179.05103
1,Arvorezinha/RS,-28.87369,-52.17808,885,8490.83757
D1,Arvorezinha/RS,-28.87369,-52.17808,28,268.63667
1,Arês/RN,-6.1969216,-35.1642968,1137,7886.52285
D1,Arês/RN,-6.1969216,-35.1642968,25,173.40640
1,Ascurra/SC,-26.9569975,-49.3767752,1271,15931.31111
D1,Ascurra/SC,-26.9569975,-49.3767752,13,162.94811
1,Aspásia/SP,-20.160028,-50.728046,210,11551.15512
D1,Aspásia/SP,-20.160028,-50.728046,8,440.04400
1,Assaré/CE,-6.8746791,-39.8741385,2337,9953.99949
D1,Assaré/CE,-6.8746791,-39.8741385,44,187.40949
1,Assaí/PR,-23.3736041,-50.8454929,1414,9455.66404
D1,Assaí/PR,-23.3736041,-50.8454929,47,314.29718
1,Assis Brasil/AC,-10.9409203,-69.5672108,1815,24090.78843
D1,Assis Brasil/AC,-10.9409203,-69.5672108,24,318.55588
1,Assis Chateaubriand/PR,-24.4054826,-53.5120468,5035,15101.97960
D1,Assis Chateaubriand/PR,-24.4054826,-53.5120468,119,356.92861
1,Assis/SP,-22.6620892,-50.420623,11467,10911.91108
D1,Assis/SP,-22.6620892,-50.420623,400,380.63700
1,Assunção do Piauí/PI,-5.8610212,-41.0485091,345,4387.63831
D1,Assunção do Piauí/PI,-5.8610212,-41.0485091,8,101.74234
1,Assunção/PB,-7.073396,-36.7274003,415,10300.32266
D1,Assunção/PB,-7.073396,-36.7274003,5,124.10027
1,Astolfo Dutra/MG,-21.3132636,-42.8624102,1359,9523.47582
D1,Astolfo Dutra/MG,-21.3132636,-42.8624102,26,182.20042
1,Astorga/PR,-23.2350184,-51.6647074,3415,13029.87523
D1,Astorga/PR,-23.2350184,-51.6647074,87,331.94704
1,Atalaia do Norte/AM,-4.3658547,-70.1908742,2826,13854.29944
D1,Atalaia do Norte/AM,-4.3658547,-70.1908742,10,49.02441
1,Atalaia/AL,-9.5029595,-36.0219316,1236,2609.52180
D1,Atalaia/AL,-9.5029595,-36.0219316,51,107.67444
1,Atalaia/PR,-23.1513833,-52.0529697,453,11672.24942
D1,Atalaia/PR,-23.1513833,-52.0529697,22,566.86421
1,Atalanta/SC,-27.421916,-49.778863,502,15712.05008
D1,Atalanta/SC,-27.421916,-49.778863,11,344.28795
1,Ataléia/MG,-18.04432,-41.1110524,1182,9323.23710
D1,Ataléia/MG,-18.04432,-41.1110524,11,86.76447
1,Atibaia/SP,-23.1177393,-46.5547861,12264,8511.46522
D1,Atibaia/SP,-23.1177393,-46.5547861,276,191.54961
1,Atilio Vivacqua/ES,-20.9139369,-41.1947519,1590,13135.06815
D1,Atilio Vivacqua/ES,-20.9139369,-41.1947519,29,239.57043
1,Augustinópolis/TO,-5.4662267,-47.8897519,1745,9360.08153
D1,Augustinópolis/TO,-5.4662267,-47.8897519,31,166.28225
1,Augusto Corrêa/PA,-1.0229335,-46.6404029,2028,4364.01196
D1,Augusto Corrêa/PA,-1.0229335,-46.6404029,48,103.29022
1,Augusto Pestana/RS,-28.5148413,-53.9906433,852,12905.18025
D1,Augusto Pestana/RS,-28.5148413,-53.9906433,13,196.91003
1,Augusto de Lima/MG,-18.1092963,-44.2651945,277,5710.16285
D1,Augusto de Lima/MG,-18.1092963,-44.2651945,10,206.14306
1,Aurelino Leal/BA,-14.3167137,-39.3256107,1029,9107.00062
D1,Aurelino Leal/BA,-14.3167137,-39.3256107,33,292.06124
1,Auriflama/SP,-20.6840418,-50.5554616,2057,13485.87163
D1,Auriflama/SP,-20.6840418,-50.5554616,72,472.03829
1,Aurilândia/GO,-16.6772599,-50.4641231,335,10954.87247
D1,Aurilândia/GO,-16.6772599,-50.4641231,9,294.31001
1,Aurora do Pará/PA,-2.1323199,-47.558436,1693,5328.42350
D1,Aurora do Pará/PA,-2.1323199,-47.558436,15,47.20990
1,Aurora do Tocantins/TO,-12.71045,-46.407604,278,7348.66508
D1,Aurora do Tocantins/TO,-12.71045,-46.407604,6,158.60428
1,Aurora/CE,-6.9426019,-38.9693765,1806,7338.48029
D1,Aurora/CE,-6.9426019,-38.9693765,38,154.40878
1,Aurora/SC,-27.3166417,-49.6368502,884,15555.16453
D1,Aurora/SC,-27.3166417,-49.6368502,16,281.54144
1,Autazes/AM,-3.5833283,-59.1301518,2898,7192.85182
D1,Autazes/AM,-3.5833283,-59.1301518,95,235.79052
1,Avanhandava/SP,-21.4603331,-49.9465156,1178,8499.89177
D1,Avanhandava/SP,-21.4603331,-49.9465156,43,310.26770
1,Avaré/SP,-23.1045215,-48.9259103,11513,12619.47562
D1,Avaré/SP,-23.1045215,-48.9259103,266,291.56436
1,Avaí/SP,-22.1564662,-49.3316395,484,8903.60559
D1,Avaí/SP,-22.1564662,-49.3316395,12,220.75055
1,Aveiro/PA,-3.6049239,-55.3310742,849,5175.56693
D1,Aveiro/PA,-3.6049239,-55.3310742,14,85.34504
1,Avelino Lopes/PI,-10.1346855,-43.9489525,448,3955.50062
D1,Avelino Lopes/PI,-10.1346855,-43.9489525,19,167.75561
1,Avelinópolis/GO,-16.4672409,-49.7578661,333,13823.16314
D1,Avelinópolis/GO,-16.4672409,-49.7578661,15,622.66501
1,Axixá do Tocantins/TO,-5.612747,-47.77007,1040,10626.34106
D1,Axixá do Tocantins/TO,-5.612747,-47.77007,21,214.57035
1,Axixá/MA,-2.8379465,-44.0561053,192,1575.96651
D1,Axixá/MA,-2.8379465,-44.0561053,8,65.66527
1,Açailândia/MA,-4.9514278,-47.4844564,5650,4994.65174
D1,Açailândia/MA,-4.9514278,-47.4844564,239,211.27819
1,Açu/RN,-5.5836157,-36.9139541,8196,14038.09263
D1,Açu/RN,-5.5836157,-36.9139541,148,253.49411
1,Açucena/MG,-19.073056,-42.546666,804,8582.40820
D1,Açucena/MG,-19.073056,-42.546666,34,362.93766
1,Babaçulândia/TO,-7.2034355,-47.761613,876,8213.01331
D1,Babaçulândia/TO,-7.2034355,-47.761613,8,75.00469
1,Bacabal/MA,-4.2318132,-44.781167,5514,5261.95248
D1,Bacabal/MA,-4.2318132,-44.781167,198,188.94933
1,Bacabeira/MA,-2.9775747,-44.3155943,390,2260.60747
D1,Bacabeira/MA,-2.9775747,-44.3155943,10,57.96429
1,Bacuri/MA,-1.728894,-45.1417148,611,3275.43690
D1,Bacuri/MA,-1.728894,-45.1417148,4,21.44312
1,Bacurituba/MA,-2.7082587,-44.7381309,117,2063.49206
D1,Bacurituba/MA,-2.7082587,-44.7381309,2,35.27337
1,Bady Bassitt/SP,-20.9178969,-49.4517911,4087,23011.09172
D1,Bady Bassitt/SP,-20.9178969,-49.4517911,82,461.68572
1,Baependi/MG,-21.959162,-44.8899249,1551,8078.54576
D1,Baependi/MG,-21.959162,-44.8899249,32,166.67535
1,Bagre/PA,-1.8994498,-50.2103844,925,2952.91301
D1,Bagre/PA,-1.8994498,-50.2103844,12,38.30806
1,Bagé/RS,-31.3314264,-54.1062808,11506,9482.83677
D1,Bagé/RS,-31.3314264,-54.1062808,291,239.83187
1,Baianópolis/BA,-12.3067564,-44.5383591,924,6633.64204
D1,Baianópolis/BA,-12.3067564,-44.5383591,16,114.86826
1,Baixa Grande do Ribeiro/PI,-7.862861,-45.2113289,2664,22825.80756
D1,Baixa Grande do Ribeiro/PI,-7.862861,-45.2113289,33,282.75212
1,Baixa Grande/BA,-11.9630941,-40.1657537,882,4313.16935
D1,Baixa Grande/BA,-11.9630941,-40.1657537,16,78.24343
1,Baixio/CE,-6.7303544,-38.7170095,709,11248.61177
D1,Baixio/CE,-6.7303544,-38.7170095,13,206.25099
1,Baixo Guandu/ES,-19.5138322,-41.0182089,3813,12247.84787
D1,Baixo Guandu/ES,-19.5138322,-41.0182089,80,256.97032
1,Baião/PA,-2.7903479,-49.6702845,800,1650.88013
D1,Baião/PA,-2.7903479,-49.6702845,37,76.35321
1,Balbinos/SP,-21.9006253,-49.3583966,371,6252.10650
D1,Balbinos/SP,-21.9006253,-49.3583966,4,67.40816
1,Baldim/MG,-19.2913568,-43.9558262,672,8612.07228
D1,Baldim/MG,-19.2913568,-43.9558262,22,281.94284
1,Baliza/GO,-16.1978119,-52.542789,473,8958.33333
D1,Baliza/GO,-16.1978119,-52.542789,9,170.45455
1,Balneário Arroio do Silva/SC,-28.9815269,-49.4189932,2142,15949.36709
D1,Balneário Arroio do Silva/SC,-28.9815269,-49.4189932,58,431.86895
1,Balneário Barra do Sul/SC,-26.459842,-48.6061471,1480,13411.87132
D1,Balneário Barra do Sul/SC,-26.459842,-48.6061471,44,398.73131
1,Balneário Camboriú/SC,-26.9924395,-48.6339782,25986,17823.53425
D1,Balneário Camboriú/SC,-26.9924395,-48.6339782,393,269.55472
1,Balneário Gaivota/SC,-29.1553098,-49.5808712,1344,11936.05684
D1,Balneário Gaivota/SC,-29.1553098,-49.5808712,38,337.47780
1,Balneário Pinhal/RS,-30.2482978,-50.234585,994,6920.55977
D1,Balneário Pinhal/RS,-30.2482978,-50.234585,49,341.15435
1,Balneário Piçarras/SC,-26.7638889,-48.6716667,5329,22417.12940
D1,Balneário Piçarras/SC,-26.7638889,-48.6716667,58,243.98452
1,Balneário Rincão/SC,-28.8235718,-49.2241642,1455,11238.99274
D1,Balneário Rincão/SC,-28.8235718,-49.2241642,52,401.66847
1,Balsa Nova/PR,-25.5842234,-49.6312741,1728,13198.90009
D1,Balsa Nova/PR,-25.5842234,-49.6312741,34,259.70058
1,Balsas/MA,-7.53214,-46.037163,11855,12358.09818
D1,Balsas/MA,-7.53214,-46.037163,201,209.52996
1,Bambuí/MG,-20.0131996,-45.9777034,1889,7904.42715
D1,Bambuí/MG,-20.0131996,-45.9777034,31,129.71797
1,Banabuiú/CE,-5.3046404,-38.919766,2325,12735.53900
D1,Banabuiú/CE,-5.3046404,-38.919766,22,120.50833
1,Bananal/SP,-22.6828195,-44.3221095,985,8960.24743
D1,Bananal/SP,-22.6828195,-44.3221095,4,36.38679
1,Bananeiras/PB,-6.7537682,-35.6338343,1533,7207.67314
D1,Bananeiras/PB,-6.7537682,-35.6338343,27,126.94532
1,Bandeira do Sul/MG,-21.728056,-46.385555,681,11786.08515
D1,Bandeira do Sul/MG,-21.728056,-46.385555,15,259.60540
1,Bandeira/MG,-15.884444,-40.559167,476,9987.41083
D1,Bandeira/MG,-15.884444,-40.559167,9,188.83760
1,Bandeirante/SC,-26.7677402,-53.6397596,422,15936.55589
D1,Bandeirante/SC,-26.7677402,-53.6397596,4,151.05740
1,Bandeirantes do Tocantins/TO,-7.7635698,-48.579148,512,14253.89755
D1,Bandeirantes do Tocantins/TO,-7.7635698,-48.579148,8,222.71715
1,Bandeirantes/MS,-19.9179623,-54.3646768,637,8766.85934
D1,Bandeirantes/MS,-19.9179623,-54.3646768,11,151.39004
1,Bandeirantes/PR,-23.107788,-50.370407,5323,17054.88450
D1,Bandeirantes/PR,-23.107788,-50.370407,144,461.37580
1,Bannach/PA,-7.3508505,-50.4064531,650,19926.42551
D1,Bannach/PA,-7.3508505,-50.4064531,3,91.96812
1,Banzaê/BA,-10.5827616,-38.6122305,1193,9010.57402
D1,Banzaê/BA,-10.5827616,-38.6122305,9,67.97583
1,Baraúna/PB,-6.643394,-36.2531932,696,14020.95085
D1,Baraúna/PB,-6.643394,-36.2531932,9,181.30540
1,Baraúna/RN,-5.0775002,-37.61752,1703,5924.09643
D1,Baraúna/RN,-5.0775002,-37.61752,29,100.88009
1,Barbacena/MG,-21.2254524,-43.7735087,8874,6420.94295
D1,Barbacena/MG,-21.2254524,-43.7735087,292,211.28187
1,Barbalha/CE,-7.3121067,-39.3036427,6964,11373.88123
D1,Barbalha/CE,-7.3121067,-39.3036427,163,266.21807
1,Barbosa Ferraz/PR,-24.0287182,-52.00811,1293,11316.29617
D1,Barbosa Ferraz/PR,-24.0287182,-52.00811,39,341.32680
1,Barbosa/SP,-21.265661,-49.951816,766,10257.09695
D1,Barbosa/SP,-21.265661,-49.951816,20,267.80932
1,Barcarena/PA,-1.5107945,-48.6190679,11731,9235.04452
D1,Barcarena/PA,-1.5107945,-48.6190679,235,185.00004
1,Barcelona/RN,-5.9514918,-35.9260284,162,4056.08413
D1,Barcelona/RN,-5.9514918,-35.9260284,6,150.22534
1,Barcelos/AM,-0.9729214,-62.925635,4481,16213.18475
D1,Barcelos/AM,-0.9729214,-62.925635,60,217.09241
1,Bariri/SP,-22.0746355,-48.7394852,3150,8858.76596
D1,Bariri/SP,-22.0746355,-48.7394852,131,368.41217
1,Barra Bonita/SC,-26.6526364,-53.4419581,194,11750.45427
D1,Barra Bonita/SC,-26.6526364,-53.4419581,2,121.13870
1,Barra Bonita/SP,-22.490859,-48.558349,3756,10396.94403
D1,Barra Bonita/SP,-22.490859,-48.558349,112,310.02602
1,Barra D'Alcântara/PI,-6.5209258,-42.1071089,153,3871.45749
D1,Barra D'Alcântara/PI,-6.5209258,-42.1071089,4,101.21457
1,Barra Funda/RS,-27.9230048,-53.0401045,623,24421.79537
D1,Barra Funda/RS,-27.9230048,-53.0401045,14,548.80439
1,Barra Longa/MG,-20.2833541,-43.0423516,420,8374.87537
D1,Barra Longa/MG,-20.2833541,-43.0423516,10,199.40179
1,Barra Mansa/RJ,-22.5394843,-44.1735129,16158,8741.94543
D1,Barra Mansa/RJ,-22.5394843,-44.1735129,645,348.96366
1,Barra Velha/SC,-26.6338203,-48.6835001,4779,16004.68855
D1,Barra Velha/SC,-26.6338203,-48.6835001,120,401.87542
1,Barra da Estiva/BA,-13.6269662,-41.3278287,2807,13765.20204
D1,Barra da Estiva/BA,-13.6269662,-41.3278287,32,156.92428
1,Barra de Guabiraba/PE,-8.4173522,-35.6626669,443,3053.06685
D1,Barra de Guabiraba/PE,-8.4173522,-35.6626669,16,110.26878
1,Barra de Santa Rosa/PB,-6.7218007,-36.0564638,1712,11047.29948
D1,Barra de Santa Rosa/PB,-6.7218007,-36.0564638,12,77.43434
1,Barra de Santana/PB,-7.5230865,-35.9988518,649,7773.38603
D1,Barra de Santana/PB,-7.5230865,-35.9988518,7,83.84238
1,Barra de Santo Antônio/AL,-9.4038098,-35.5117693,460,2862.83296
D1,Barra de Santo Antônio/AL,-9.4038098,-35.5117693,32,199.15360
1,Barra de São Francisco/ES,-18.7570902,-40.8916119,5065,11260.81060
D1,Barra de São Francisco/ES,-18.7570902,-40.8916119,209,464.66129
1,Barra de São Miguel/AL,-9.8261357,-35.8837777,630,7519.69444
D1,Barra de São Miguel/AL,-9.8261357,-35.8837777,8,95.48818
1,Barra de São Miguel/PB,-7.7528088,-36.3170996,642,10585.32564
D1,Barra de São Miguel/PB,-7.7528088,-36.3170996,7,115.41632
1,Barra do Bugres/MT,-15.0683712,-57.1853688,3616,10241.59515
D1,Barra do Bugres/MT,-15.0683712,-57.1853688,82,232.24856
1,Barra do Chapéu/SP,-24.472203,-49.023784,431,7482.63889
D1,Barra do Chapéu/SP,-24.472203,-49.023784,6,104.16667
1,Barra do Choça/BA,-14.8638173,-40.5761637,2277,7295.97232
D1,Barra do Choça/BA,-14.8638173,-40.5761637,35,112.14714
1,Barra do Corda/MA,-5.496823,-45.248496,5827,6584.77602
D1,Barra do Corda/MA,-5.496823,-45.248496,72,81.36329
1,Barra do Garças/MT,-15.8916033,-52.2615413,10449,17091.68234
D1,Barra do Garças/MT,-15.8916033,-52.2615413,359,587.22499
1,Barra do Guarita/RS,-27.1888016,-53.7147086,116,3561.55972
D1,Barra do Guarita/RS,-27.1888016,-53.7147086,8,245.62481
1,Barra do Jacaré/PR,-23.1151788,-50.1813945,266,9564.90471
D1,Barra do Jacaré/PR,-23.1151788,-50.1813945,7,251.70802
1,Barra do Mendes/BA,-11.8053298,-42.057037,820,5927.85368
D1,Barra do Mendes/BA,-11.8053298,-42.057037,15,108.43635
1,Barra do Ouro/TO,-7.7113784,-47.6743925,167,3605.35406
D1,Barra do Ouro/TO,-7.7113784,-47.6743925,7,151.12263
1,Barra do Piraí/RJ,-22.4703403,-43.8263256,6617,6566.82942
D1,Barra do Piraí/RJ,-22.4703403,-43.8263256,380,377.11881
1,Barra do Quaraí/RS,-30.208947,-57.5505128,534,12633.07310
D1,Barra do Quaraí/RS,-30.208947,-57.5505128,9,212.91696
1,Barra do Ribeiro/RS,-30.2930206,-51.301437,1122,8276.77781
D1,Barra do Ribeiro/RS,-30.2930206,-51.301437,50,368.84037
1,Barra do Rio Azul/RS,-27.4101581,-52.4117471,118,7129.90937
D1,Barra do Rio Azul/RS,-27.4101581,-52.4117471,1,60.42296
1,Barra do Rocha/BA,-14.2090974,-39.6004395,409,7287.95438
D1,Barra do Rocha/BA,-14.2090974,-39.6004395,7,124.73272
1,Barra do Turvo/SP,-24.756421,-48.5056942,636,8333.33333
D1,Barra do Turvo/SP,-24.756421,-48.5056942,18,235.84906
1,Barra dos Coqueiros/SE,-10.9075694,-37.0386249,7041,22764.30650
D1,Barra dos Coqueiros/SE,-10.9075694,-37.0386249,100,323.31070
1,Barra/BA,-11.0892702,-43.1420453,2243,4160.63810
D1,Barra/BA,-11.0892702,-43.1420453,61,113.15155
1,Barracão/PR,-26.252395,-53.6349576,1349,13081.84639
D1,Barracão/PR,-26.252395,-53.6349576,35,339.41040
1,Barracão/RS,-27.6728964,-51.4582928,513,9760.27397
D1,Barracão/RS,-27.6728964,-51.4582928,16,304.41400
1,Barras/PI,-4.2446153,-42.2920241,5189,10997.13892
D1,Barras/PI,-4.2446153,-42.2920241,94,199.21585
1,Barreira/CE,-4.2883361,-38.641094,1585,7021.66305
D1,Barreira/CE,-4.2883361,-38.641094,48,212.64342
1,Barreiras do Piauí/PI,-9.9224524,-45.4763776,108,3221.95704
D1,Barreiras do Piauí/PI,-9.9224524,-45.4763776,3,89.49881
1,Barreiras/BA,-12.1440031,-44.9967406,19689,12542.76159
D1,Barreiras/BA,-12.1440031,-44.9967406,324,206.40229
1,Barreirinha/AM,-2.798863,-57.067897,2437,7502.38586
D1,Barreirinha/AM,-2.798863,-57.067897,63,193.94760
1,Barreirinhas/MA,-2.7541271,-42.8259693,2551,4035.30696
D1,Barreirinhas/MA,-2.7541271,-42.8259693,46,72.76524
1,Barreiros/PE,-8.8159644,-35.1831905,797,1863.71715
D1,Barreiros/PE,-8.8159644,-35.1831905,63,147.32018
1,Barretos/SP,-20.5531437,-48.5697509,17348,14123.24050
D1,Barretos/SP,-20.5531437,-48.5697509,568,462.41645
1,Barrinha/SP,-21.1898849,-48.1550642,1686,5081.37432
D1,Barrinha/SP,-21.1898849,-48.1550642,71,213.98433
1,Barro Alto/BA,-11.7618025,-41.9094904,926,6151.18905
D1,Barro Alto/BA,-11.7618025,-41.9094904,13,86.35579
1,Barro Alto/GO,-14.9696025,-48.9190985,1466,12850.63114
D1,Barro Alto/GO,-14.9696025,-48.9190985,20,175.31557
1,Barro Duro/PI,-5.8180139,-42.5106589,704,10018.50007
D1,Barro Duro/PI,-5.8180139,-42.5106589,12,170.76989
1,Barro Preto/BA,-14.8068289,-39.4727588,628,11527.16593
D1,Barro Preto/BA,-14.8068289,-39.4727588,11,201.90896
1,Barro/CE,-7.1713587,-38.7742136,1807,7940.06503
D1,Barro/CE,-7.1713587,-38.7742136,45,197.73267
1,Barrocas/BA,-11.5165,-39.099282894736845,812,5041.91245
D1,Barrocas/BA,-11.5165,-39.099282894736845,24,149.02204
1,Barrolândia/TO,-9.837246,-48.7264346,787,13926.73863
D1,Barrolândia/TO,-9.837246,-48.7264346,20,353.91966
1,Barroquinha/CE,-3.0200371,-41.1339229,1314,8734.37915
D1,Barroquinha/CE,-3.0200371,-41.1339229,25,166.17921
1,Barros Cassal/RS,-29.094938,-52.5832366,808,7225.89877
D1,Barros Cassal/RS,-29.094938,-52.5832366,14,125.20122
1,Barroso/MG,-21.187222,-43.976111,2062,9867.44509
D1,Barroso/MG,-21.187222,-43.976111,57,272.76643
1,Barueri/SP,-23.5112184,-46.8764612,32799,11841.56371
D1,Barueri/SP,-23.5112184,-46.8764612,1120,404.35841
1,Barão de Antonina/SP,-23.6295651,-49.5632104,507,14493.99657
D1,Barão de Antonina/SP,-23.6295651,-49.5632104,10,285.87764
1,Barão de Cocais/MG,-19.9452437,-43.4870298,4377,13317.71436
D1,Barão de Cocais/MG,-19.9452437,-43.4870298,70,212.98606
1,Barão de Cotegipe/RS,-27.6214694,-52.3765316,798,12054.38066
D1,Barão de Cotegipe/RS,-27.6214694,-52.3765316,10,151.05740
1,Barão de Grajaú/MA,-6.7542591,-43.0263477,477,2520.60875
D1,Barão de Grajaú/MA,-6.7542591,-43.0263477,2,10.56859
1,Barão de Melgaço/MT,-16.195776,-55.9668049,450,5512.00392
D1,Barão de Melgaço/MT,-16.195776,-55.9668049,16,195.98236
1,Barão de Monte Alto/MG,-21.244722,-42.2375,344,6425.10273
D1,Barão de Monte Alto/MG,-21.244722,-42.2375,12,224.13149
1,Barão do Triunfo/RS,-30.3909877,-51.7375349,482,6410.42692
D1,Barão do Triunfo/RS,-30.3909877,-51.7375349,6,79.79785
1,Barão/RS,-29.372474,-51.494908,720,11609.15834
D1,Barão/RS,-29.372474,-51.494908,11,177.36214
1,Bastos/SP,-21.9222474,-50.7317727,2028,9678.80494
D1,Bastos/SP,-21.9222474,-50.7317727,44,209.99380
1,Bataguassu/MS,-21.715899,-52.422058,3503,15018.22079
D1,Bataguassu/MS,-21.715899,-52.422058,48,205.78778
1,Batalha/AL,-9.6733809,-37.1265481,1133,6178.42731
D1,Batalha/AL,-9.6733809,-37.1265481,19,103.60999
1,Batalha/PI,-4.022391,-42.0780926,1274,4735.17933
D1,Batalha/PI,-4.022391,-42.0780926,34,126.37056
1,Batatais/SP,-20.892867,-47.592149,6101,9687.20229
D1,Batatais/SP,-20.892867,-47.592149,168,266.75135
1,Batayporã/MS,-22.2976466,-53.2685608,1091,9613.18178
D1,Batayporã/MS,-22.2976466,-53.2685608,26,229.09507
1,Baturité/CE,-4.3290203,-38.8821055,4188,11652.43037
D1,Baturité/CE,-4.3290203,-38.8821055,85,236.49871
1,Bauru/SP,-22.3218102,-49.0705863,52095,13734.61957
D1,Bauru/SP,-22.3218102,-49.0705863,1216,320.59310
1,Bayeux/PB,-7.1301631,-34.936532,8136,8370.11203
D1,Bayeux/PB,-7.1301631,-34.936532,249,256.16493
1,Baía Formosa/RN,-6.3691885,-35.0063741,514,5513.83823
D1,Baía Formosa/RN,-6.3691885,-35.0063741,9,96.54581
1,Baía da Traição/PB,-6.691258,-34.9371244,1312,14423.92260
D1,Baía da Traição/PB,-6.691258,-34.9371244,12,131.92612
1,Bebedouro/SP,-20.949077,-48.479083,4228,5451.61498
D1,Bebedouro/SP,-20.949077,-48.479083,162,208.88402
1,Beberibe/CE,-4.1810469,-38.1298101,5648,10469.14679
D1,Beberibe/CE,-4.1810469,-38.1298101,120,222.43230
1,Bela Cruz/CE,-3.0529129,-40.167582,3502,10702.27981
D1,Bela Cruz/CE,-3.0529129,-40.167582,73,223.09150
1,Bela Vista da Caroba/PR,-25.8792818,-53.6672545,189,5467.16806
D1,Bela Vista da Caroba/PR,-25.8792818,-53.6672545,7,202.48771
1,Bela Vista de Goiás/GO,-16.9692949,-48.9513071,3061,10038.69868
D1,Bela Vista de Goiás/GO,-16.9692949,-48.9513071,79,259.08435
1,Bela Vista de Minas/MG,-19.8289721,-43.0973688,914,8906.64588
D1,Bela Vista de Minas/MG,-19.8289721,-43.0973688,24,233.87254
1,Bela Vista do Maranhão/MA,-3.7416367,-45.2514192,223,1977.12563
D1,Bela Vista do Maranhão/MA,-3.7416367,-45.2514192,19,168.45465
1,Bela Vista do Paraíso/PR,-22.9948493,-51.1907996,1946,12637.18423
D1,Bela Vista do Paraíso/PR,-22.9948493,-51.1907996,67,435.09319
1,Bela Vista do Piauí/PI,-7.9716353,-41.8715061,270,6699.75186
D1,Bela Vista do Piauí/PI,-7.9716353,-41.8715061,6,148.88337
1,Bela Vista do Toldo/SC,-26.274625,-50.466354,83,1304.62119
D1,Bela Vista do Toldo/SC,-26.274625,-50.466354,4,62.87331
1,Bela Vista/MS,-22.107327,-56.5317344,1075,4346.06832
D1,Bela Vista/MS,-22.107327,-56.5317344,31,125.32848
1,Belford Roxo/RJ,-22.7667284,-43.4033603,21718,4232.55470
D1,Belford Roxo/RJ,-22.7667284,-43.4033603,833,162.34083
1,Belmiro Braga/MG,-21.9486291,-43.413564,211,6160.58394
D1,Belmiro Braga/MG,-21.9486291,-43.413564,3,87.59124
1,Belmonte/BA,-15.8630837,-38.8792845,1191,5081.70841
D1,Belmonte/BA,-15.8630837,-38.8792845,25,106.66894
1,Belmonte/SC,-26.8448262,-53.578916,333,12292.35880
D1,Belmonte/SC,-26.8448262,-53.578916,5,184.56995
1,Belo Campo/BA,-15.0338286,-41.2585109,985,5757.20381
D1,Belo Campo/BA,-15.0338286,-41.2585109,18,105.20779
1,Belo Horizonte/MG,-19.9227318,-43.9450948,268452,10646.24971
D1,Belo Horizonte/MG,-19.9227318,-43.9450948,6420,254.60389
1,Belo Jardim/PE,-8.3338293,-36.4176419,4371,5699.79266
D1,Belo Jardim/PE,-8.3338293,-36.4176419,128,166.91225
1,Belo Monte/AL,-9.8269944,-37.2787165,553,8241.43070
D1,Belo Monte/AL,-9.8269944,-37.2787165,9,134.12817
1,Belo Oriente/MG,-19.2232523,-42.4807033,2720,10076.31325
D1,Belo Oriente/MG,-19.2232523,-42.4807033,69,255.61236
1,Belo Vale/MG,-20.407778,-44.024167,1037,13434.38269
D1,Belo Vale/MG,-20.407778,-44.024167,12,155.46055
1,Belterra/PA,-2.636091,-54.937392,1645,9221.36891
D1,Belterra/PA,-2.636091,-54.937392,29,162.56517
1,Belágua/MA,-3.1604031,-43.5085052,413,5486.18491
D1,Belágua/MA,-3.1604031,-43.5085052,4,53.13496
1,Belém de Maria/PE,-8.6242497,-35.8388934,301,2483.08860
D1,Belém de Maria/PE,-8.6242497,-35.8388934,6,49.49678
1,Belém do Brejo do Cruz/PB,-6.1880727,-37.5332267,533,7252.68744
D1,Belém do Brejo do Cruz/PB,-6.1880727,-37.5332267,5,68.03647
1,Belém do Piauí/PI,-7.3767305,-40.9712156,484,13493.16978
D1,Belém do Piauí/PI,-7.3767305,-40.9712156,7,195.14915
1,Belém do São Francisco/PE,-8.7517707,-38.9625715,1005,4848.04631
D1,Belém do São Francisco/PE,-8.7517707,-38.9625715,11,53.06319
1,Belém/AL,-9.5715351,-36.492841,126,2941.17647
D1,Belém/AL,-9.5715351,-36.492841,7,163.39869
1,Belém/PA,-1.45056,-48.4682453,105545,7038.01777
D1,Belém/PA,-1.45056,-48.4682453,5085,339.08115
1,Belém/PB,-6.6967586,-35.5369626,2407,13595.02965
D1,Belém/PB,-6.6967586,-35.5369626,45,254.16549
1,Beneditinos/PI,-5.4565671,-42.3605061,1295,12365.12938
D1,Beneditinos/PI,-5.4565671,-42.3605061,38,362.83777
1,Benedito Leite/MA,-7.2173453,-44.5523331,315,5587.08762
D1,Benedito Leite/MA,-7.2173453,-44.5523331,2,35.47357
1,Benedito Novo/SC,-26.7840657,-49.3629511,1083,9197.45223
D1,Benedito Novo/SC,-26.7840657,-49.3629511,19,161.35881
1,Benevides/PA,-1.3555577,-48.252235,4079,6396.62527
D1,Benevides/PA,-1.3555577,-48.252235,105,164.65939
1,Benjamin Constant do Sul/RS,-27.5105555,-52.6007689,174,8886.61900
1,Benjamin Constant/AM,-4.3782748,-70.0290603,2711,6170.47912
D1,Benjamin Constant/AM,-4.3782748,-70.0290603,87,198.01980
1,Bento Fernandes/RN,-5.6926846,-35.8207423,183,3312.21719
D1,Bento Fernandes/RN,-5.6926846,-35.8207423,3,54.29864
1,Bento Gonçalves/RS,-29.1654014,-51.5197627,20939,17190.87379
D1,Bento Gonçalves/RS,-29.1654014,-51.5197627,371,304.59020
1,Bento de Abreu/SP,-21.2707225,-50.8120444,363,12079.86689
D1,Bento de Abreu/SP,-21.2707225,-50.8120444,5,166.38935
1,Bequimão/MA,-2.4495376,-44.7884889,281,1319.31077
D1,Bequimão/MA,-2.4495376,-44.7884889,22,103.29123
1,Berilo/MG,-16.9515764,-42.4643732,153,1288.74663
D1,Berilo/MG,-16.9515764,-42.4643732,1,8.42318
1,Berizal/MG,-15.6118785,-41.7417382,248,5205.70949
D1,Berizal/MG,-15.6118785,-41.7417382,1,20.99076
1,Bernardino Batista/PB,-6.4532173,-38.5495418,307,8682.12670
D1,Bernardino Batista/PB,-6.4532173,-38.5495418,1,28.28054
1,Bernardino de Campos/SP,-23.0140216,-49.4760724,857,7680.58792
D1,Bernardino de Campos/SP,-23.0140216,-49.4760724,31,277.82757
1,Bernardo Sayão/TO,-7.8794244,-48.8968905,644,14478.41727
D1,Bernardo Sayão/TO,-7.8794244,-48.8968905,13,292.26619
1,Bernardo do Mearim/MA,-4.6315929,-44.7617508,300,4939.89791
D1,Bernardo do Mearim/MA,-4.6315929,-44.7617508,6,98.79796
1,Bertioga/SP,-23.848568,-46.139586,5968,9220.83340
D1,Bertioga/SP,-23.848568,-46.139586,161,248.75238
1,Bertolínia/PI,-7.6372159,-43.9540611,892,16197.56673
D1,Bertolínia/PI,-7.6372159,-43.9540611,11,199.74578
1,Bertópolis/MG,-17.063333,-40.573889,484,10505.75212
D1,Bertópolis/MG,-17.063333,-40.573889,4,86.82440
1,Beruri/AM,-3.9007135,-61.3717319,2294,11416.91136
D1,Beruri/AM,-3.9007135,-61.3717319,34,169.21316
1,Betim/MG,-19.968056,-44.198333,31355,7049.48919
D1,Betim/MG,-19.968056,-44.198333,1321,296.99809
1,Betânia do Piauí/PI,-8.1460635,-40.7961387,173,2785.82931
D1,Betânia do Piauí/PI,-8.1460635,-40.7961387,2,32.20612
1,Betânia/PE,-8.2742779,-38.0351767,512,4010.96749
D1,Betânia/PE,-8.2742779,-38.0351767,17,133.17665
1,Bezerros/PE,-8.2372132,-35.7558262,3888,6386.33377
D1,Bezerros/PE,-8.2372132,-35.7558262,127,208.60710
1,Bias Fortes/MG,-21.605833,-43.756944,116,3484.52989
D1,Bias Fortes/MG,-21.605833,-43.756944,3,90.11715
1,Bicas/MG,-21.7213723,-43.0604327,1468,10086.57414
D1,Bicas/MG,-21.7213723,-43.0604327,44,302.32239
1,Biguaçu/SC,-27.4961277,-48.6542432,11351,16335.66474
D1,Biguaçu/SC,-27.4961277,-48.6542432,167,240.33618
1,Bilac/SP,-21.403962,-50.47464,936,11531.35395
D1,Bilac/SP,-21.403962,-50.47464,18,221.75681
1,Biquinhas/MG,-18.783611,-45.502222,150,6004.80384
D1,Biquinhas/MG,-18.783611,-45.502222,3,120.09608
1,Birigui/SP,-21.2908491,-50.34144,17367,13906.61659
D1,Birigui/SP,-21.2908491,-50.34144,581,465.23546
1,Biritiba Mirim/SP,-23.5697765,-46.0407456,1491,4526.96138
D1,Biritiba Mirim/SP,-23.5697765,-46.0407456,100,303.61914
1,Biritinga/BA,-11.6227908,-38.8066738,600,3753.75375
D1,Biritinga/BA,-11.6227908,-38.8066738,7,43.79379
1,Bituruna/PR,-26.161281,-51.5533319,1387,8457.31707
D1,Bituruna/PR,-26.161281,-51.5533319,20,121.95122
1,Blumenau/SC,-26.9195567,-49.0658025,56984,15747.74426
D1,Blumenau/SC,-26.9195567,-49.0658025,633,174.93195
1,Boa Esperança do Iguaçu/PR,-25.6362851,-53.2139114,189,7651.82186
1,Boa Esperança do Sul/SP,-21.9930206,-48.3917372,1711,11392.99507
D1,Boa Esperança do Sul/SP,-21.9930206,-48.3917372,21,139.83220
1,Boa Esperança/ES,-18.5395472,-40.2904088,1675,11098.59528
D1,Boa Esperança/ES,-18.5395472,-40.2904088,46,304.79724
1,Boa Esperança/MG,-21.0901253,-45.5660195,4865,12096.27291
D1,Boa Esperança/MG,-21.0901253,-45.5660195,141,350.58057
1,Boa Esperança/PR,-24.2411024,-52.7860277,486,12008.89548
D1,Boa Esperança/PR,-24.2411024,-52.7860277,17,420.06425
1,Boa Hora/PI,-4.4094627,-42.1255341,586,8598.67938
D1,Boa Hora/PI,-4.4094627,-42.1255341,7,102.71460
1,Boa Nova/BA,-14.365907,-40.2063056,1030,8354.28664
D1,Boa Nova/BA,-14.365907,-40.2063056,19,154.10820
1,Boa Ventura de São Roque/PR,-24.88177,-51.5441292,559,8782.40377
D1,Boa Ventura de São Roque/PR,-24.88177,-51.5441292,8,125.68735
1,Boa Ventura/PB,-7.4202462,-38.2156782,766,14433.76672
D1,Boa Ventura/PB,-7.4202462,-38.2156782,12,226.11645
1,Boa Viagem/CE,-5.1261877,-39.7300055,4291,7862.28631
D1,Boa Viagem/CE,-5.1261877,-39.7300055,116,212.54375
1,Boa Vista da Aparecida/PR,-25.4357216,-53.4067721,1079,14310.34483
D1,Boa Vista da Aparecida/PR,-25.4357216,-53.4067721,34,450.92838
1,Boa Vista das Missões/RS,-27.6677983,-53.3127622,256,12237.09369
D1,Boa Vista das Missões/RS,-27.6677983,-53.3127622,7,334.60803
1,Boa Vista do Buricá/RS,-27.6687782,-54.1111913,905,13483.31347
D1,Boa Vista do Buricá/RS,-27.6687782,-54.1111913,11,163.88558
1,Boa Vista do Cadeado/RS,-28.5783827,-53.8123759,210,8508.91410
D1,Boa Vista do Cadeado/RS,-28.5783827,-53.8123759,4,162.07455
1,Boa Vista do Gurupi/MA,-1.7981168,-46.3071882,15,178.95490
D1,Boa Vista do Gurupi/MA,-1.7981168,-46.3071882,4,47.72131
1,Boa Vista do Incra/RS,-28.8195551,-53.3866624,310,11850.15291
D1,Boa Vista do Incra/RS,-28.8195551,-53.3866624,4,152.90520
1,Boa Vista do Ramos/AM,-2.9716927,-57.5869819,992,5054.51951
D1,Boa Vista do Ramos/AM,-2.9716927,-57.5869819,12,61.14338
1,Boa Vista do Sul/RS,-29.3510488,-51.6779679,321,11555.07559
D1,Boa Vista do Sul/RS,-29.3510488,-51.6779679,4,143.98848
1,Boa Vista do Tupim/BA,-12.6605988,-40.6083594,289,1559.54886
D1,Boa Vista do Tupim/BA,-12.6605988,-40.6083594,10,53.96363
1,Boa Vista/PB,-7.2620711,-36.2415161,848,11883.40807
D1,Boa Vista/PB,-7.2620711,-36.2415161,15,210.20179
1,Boa Vista/RR,2.8208478,-60.6719582,94831,22597.53319
D1,Boa Vista/RR,2.8208478,-60.6719582,1467,349.57536
1,Boca da Mata/AL,-9.6452054,-36.2116658,1866,6821.17269
D1,Boca da Mata/AL,-9.6452054,-36.2116658,45,164.49773
1,Boca do Acre/AM,-8.7553487,-67.3930873,2671,7711.85217
D1,Boca do Acre/AM,-8.7553487,-67.3930873,27,77.95583
1,Bocaina de Minas/MG,-22.167778,-44.394722,190,3733.54294
D1,Bocaina de Minas/MG,-22.167778,-44.394722,7,137.55158
1,Bocaina do Sul/SC,-27.745494,-49.942279,391,11209.86239
D1,Bocaina do Sul/SC,-27.745494,-49.942279,3,86.00917
1,Bocaina/PI,-6.9445939,-41.3224599,363,8057.71365
D1,Bocaina/PI,-6.9445939,-41.3224599,8,177.58047
1,Bocaina/SP,-22.1421831,-48.522276,1350,10841.63187
D1,Bocaina/SP,-22.1421831,-48.522276,35,281.07934
1,Bocaiúva do Sul/PR,-25.206591,-49.114131,2124,16177.92673
D1,Bocaiúva do Sul/PR,-25.206591,-49.114131,25,190.41816
1,Bocaiúva/MG,-17.1160208,-43.8122678,2629,5231.21617
D1,Bocaiúva/MG,-17.1160208,-43.8122678,67,133.31741
1,Bodocó/PE,-7.777592,-39.933797,2168,5649.06978
D1,Bodocó/PE,-7.777592,-39.933797,41,106.83204
1,Bodoquena/MS,-20.5508775,-56.6769653,584,7450.88033
D1,Bodoquena/MS,-20.5508775,-56.6769653,18,229.65042
1,Bodó/RN,-5.9866104,-36.4134824,194,8830.22303
D1,Bodó/RN,-5.9866104,-36.4134824,1,45.51661
1,Bofete/SP,-23.1019554,-48.2610535,953,7994.29578
D1,Bofete/SP,-23.1019554,-48.2610535,22,184.54828
1,Boituva/SP,-23.2838893,-47.6738231,6472,10410.16567
D1,Boituva/SP,-23.2838893,-47.6738231,183,294.35419
1,Bom Conselho/PE,-9.169191,-36.685683,2282,4679.39385
D1,Bom Conselho/PE,-9.169191,-36.685683,69,141.48912
1,Bom Despacho/MG,-19.7375242,-45.2517288,5395,10572.62679
D1,Bom Despacho/MG,-19.7375242,-45.2517288,95,186.17230
1,Bom Jardim da Serra/SC,-28.3380324,-49.625588,701,14689.85750
D1,Bom Jardim da Serra/SC,-28.3380324,-49.625588,6,125.73345
1,Bom Jardim de Goiás/GO,-16.2062659,-52.172793,1106,12470.40253
D1,Bom Jardim de Goiás/GO,-16.2062659,-52.172793,16,180.40365
1,Bom Jardim de Minas/MG,-21.9476466,-44.1906033,502,7772.10094
D1,Bom Jardim de Minas/MG,-21.9476466,-44.1906033,3,46.44682
1,Bom Jardim/MA,-3.54129,-45.606004,1454,3476.63909
D1,Bom Jardim/MA,-3.54129,-45.606004,54,129.11865
1,Bom Jardim/PE,-7.7961572,-35.5871696,1773,4434.38461
D1,Bom Jardim/PE,-7.7961572,-35.5871696,71,177.57547
1,Bom Jardim/RJ,-22.1515328,-42.4186683,1933,6999.56547
D1,Bom Jardim/RJ,-22.1515328,-42.4186683,46,166.57010
1,Bom Jesus da Lapa/BA,-13.250571,-43.410754,6125,8792.45500
D1,Bom Jesus da Lapa/BA,-13.250571,-43.410754,94,134.93727
1,Bom Jesus da Penha/MG,-21.0165299,-46.5226644,676,15928.36946
D1,Bom Jesus da Penha/MG,-21.0165299,-46.5226644,17,400.56550
1,Bom Jesus da Serra/BA,-14.3724084,-40.5047119,487,4957.75221
D1,Bom Jesus da Serra/BA,-14.3724084,-40.5047119,9,91.62170
1,Bom Jesus das Selvas/MA,-4.4878075,-46.8526639,3538,10235.19542
D1,Bom Jesus das Selvas/MA,-4.4878075,-46.8526639,27,78.10918
1,Bom Jesus de Goiás/GO,-18.2174587,-49.739721,3014,11751.40362
D1,Bom Jesus de Goiás/GO,-18.2174587,-49.739721,113,440.58016
1,Bom Jesus do Amparo/MG,-19.7045132,-43.4752911,272,4435.02364
D1,Bom Jesus do Amparo/MG,-19.7045132,-43.4752911,7,114.13664
1,Bom Jesus do Araguaia/MT,-12.1725897,-51.5074425,1096,16343.57292
D1,Bom Jesus do Araguaia/MT,-12.1725897,-51.5074425,17,253.50432
1,Bom Jesus do Galho/MG,-19.8283191,-42.3162256,797,5362.66990
D1,Bom Jesus do Galho/MG,-19.8283191,-42.3162256,34,228.77136
1,Bom Jesus do Itabapoana/RJ,-21.1341025,-41.680095,3892,10461.52192
D1,Bom Jesus do Itabapoana/RJ,-21.1341025,-41.680095,104,279.54735
1,Bom Jesus do Norte/ES,-21.1254776,-41.6711646,1161,11654.28629
D1,Bom Jesus do Norte/ES,-21.1254776,-41.6711646,28,281.06806
1,Bom Jesus do Oeste/SC,-26.6929713,-53.0967453,184,8602.15054
D1,Bom Jesus do Oeste/SC,-26.6929713,-53.0967453,6,280.50491
1,Bom Jesus do Sul/PR,-26.1922507,-53.6002033,507,14460.92413
D1,Bom Jesus do Sul/PR,-26.1922507,-53.6002033,6,171.13520
1,Bom Jesus do Tocantins/PA,-5.0471796,-48.5978362,773,4515.71445
D1,Bom Jesus do Tocantins/PA,-5.0471796,-48.5978362,26,151.88690
1,Bom Jesus do Tocantins/TO,-8.96306,-48.165043,171,3414.53674
D1,Bom Jesus do Tocantins/TO,-8.96306,-48.165043,3,59.90415
1,Bom Jesus dos Perdões/SP,-23.1353864,-46.4648052,2432,9359.24572
D1,Bom Jesus dos Perdões/SP,-23.1353864,-46.4648052,28,107.75447
1,Bom Jesus/PB,-6.8156725,-38.6551841,192,7456.31068
D1,Bom Jesus/PB,-6.8156725,-38.6551841,3,116.50485
1,Bom Jesus/PI,-9.0711644,-44.3583926,3790,14928.90062
D1,Bom Jesus/PI,-9.0711644,-44.3583926,45,177.25608
1,Bom Jesus/RN,-5.9887544,-35.5821149,983,9574.36447
D1,Bom Jesus/RN,-5.9887544,-35.5821149,18,175.31898
1,Bom Jesus/RS,-28.6692723,-50.4346894,1011,8939.78247
D1,Bom Jesus/RS,-28.6692723,-50.4346894,24,212.22036
1,Bom Jesus/SC,-26.7350604,-52.3916519,476,15570.82107
D1,Bom Jesus/SC,-26.7350604,-52.3916519,9,294.40628
1,Bom Lugar/MA,-4.3728019,-45.0366054,529,3218.15306
D1,Bom Lugar/MA,-4.3728019,-45.0366054,7,42.58426
1,Bom Princípio do Piauí/PI,-3.1912777,-41.6430185,139,2459.74164
D1,Bom Princípio do Piauí/PI,-3.1912777,-41.6430185,13,230.04778
1,Bom Princípio/RS,-29.489788,-51.3566782,2143,15033.32164
D1,Bom Princípio/RS,-29.489788,-51.3566782,30,210.45247
1,Bom Progresso/RS,-27.5490948,-53.8655601,189,9952.60664
D1,Bom Progresso/RS,-27.5490948,-53.8655601,3,157.97788
1,Bom Repouso/MG,-22.4657069,-46.1485376,1148,10894.94163
D1,Bom Repouso/MG,-22.4657069,-46.1485376,24,227.76881
1,Bom Retiro do Sul/RS,-29.6000007,-51.9359243,1063,8579.49960
D1,Bom Retiro do Sul/RS,-29.6000007,-51.9359243,35,282.48588
1,Bom Retiro/SC,-27.798993,-49.486994,897,8916.50099
D1,Bom Retiro/SC,-27.798993,-49.486994,21,208.74751
1,Bom Sucesso de Itararé/SP,-24.3190016,-49.1446207,254,6375.50201
D1,Bom Sucesso de Itararé/SP,-24.3190016,-49.1446207,6,150.60241
1,Bom Sucesso do Sul/PR,-26.0749256,-52.8348629,529,16256.91457
D1,Bom Sucesso do Sul/PR,-26.0749256,-52.8348629,9,276.58267
1,Bom Sucesso/MG,-21.0323516,-44.7598082,1193,6775.71420
D1,Bom Sucesso/MG,-21.0323516,-44.7598082,25,141.98898
1,Bom Sucesso/PB,-6.4458948,-37.9297662,502,10129.13640
D1,Bom Sucesso/PB,-6.4458948,-37.9297662,4,80.71025
1,Bom Sucesso/PR,-23.7088019,-51.7651297,1301,18406.90436
D1,Bom Sucesso/PR,-23.7088019,-51.7651297,20,282.96548
1,Bombinhas/SC,-27.1519159,-48.4875691,3575,17580.52619
D1,Bombinhas/SC,-27.1519159,-48.4875691,62,304.89304
1,Bonfim do Piauí/PI,-9.1648678,-42.8734415,482,8478.45207
D1,Bonfim do Piauí/PI,-9.1648678,-42.8734415,8,140.72120
1,Bonfim/MG,-20.3266626, -44.2386157,476,6938.77551
D1,Bonfim/MG,-20.3266626, -44.2386157,16,233.23615
1,Bonfim/RR,3.3613818,-59.8427241,2471,19678.26710
D1,Bonfim/RR,3.3613818,-59.8427241,33,262.80162
1,Bonfinópolis de Minas/MG,-16.5660011,-45.98645,553,10157.97208
D1,Bonfinópolis de Minas/MG,-16.5660011,-45.98645,14,257.16385
1,Bonfinópolis/GO,-16.6172709,-48.9615701,501,5050.91239
D1,Bonfinópolis/GO,-16.6172709,-48.9615701,30,302.44984
1,Boninal/BA,-12.7095183,-41.8299984,669,4631.03973
D1,Boninal/BA,-12.7095183,-41.8299984,8,55.37865
1,Bonito de Minas/MG,-15.3191266,-44.7544,110,967.54332
1,Bonito de Santa Fé/PB,-7.3143332,-38.5146677,557,4633.17252
D1,Bonito de Santa Fé/PB,-7.3143332,-38.5146677,14,116.45317
1,Bonito/BA,-11.9665473,-41.2649896,877,5194.26676
D1,Bonito/BA,-11.9665473,-41.2649896,14,82.91874
1,Bonito/MS,-21.1264766,-56.4902208,3181,14335.28616
D1,Bonito/MS,-21.1264766,-56.4902208,72,324.47048
1,Bonito/PA,-1.3605722,-47.3049907,405,2450.09074
D1,Bonito/PA,-1.3605722,-47.3049907,15,90.74410
1,Bonito/PE,-8.4721161,-35.7314591,1074,2817.64042
D1,Bonito/PE,-8.4721161,-35.7314591,44,115.43406
1,Bonópolis/GO,-13.649331,-49.8329113,266,5920.32050
D1,Bonópolis/GO,-13.649331,-49.8329113,3,66.77053
1,Boqueirão do Leão/RS,-29.30332,-52.4296817,615,7984.93898
D1,Boqueirão do Leão/RS,-29.30332,-52.4296817,32,415.47650
1,Boqueirão do Piauí/PI,-4.4850148,-42.1095161,781,12153.75039
D1,Boqueirão do Piauí/PI,-4.4850148,-42.1095161,10,155.61780
1,Boqueirão/PB,-7.487004,-36.130887,2302,12881.92501
D1,Boqueirão/PB,-7.487004,-36.130887,41,229.43481
1,Boquim/SE,-11.1450175,-37.6204228,2686,9985.50132
D1,Boquim/SE,-11.1450175,-37.6204228,67,249.07989
1,Boquira/BA,-12.8184859,-42.7270883,877,4079.63902
D1,Boquira/BA,-12.8184859,-42.7270883,19,88.38443
1,Boracéia/SP,-22.195355,-48.7801925,981,20152.01315
D1,Boracéia/SP,-22.195355,-48.7801925,23,472.47329
1,Borba/AM,-4.3934778,-59.5947721,2476,5930.82303
D1,Borba/AM,-4.3934778,-59.5947721,69,165.27738
1,Borborema/PB,-6.8066718,-35.5990191,387,7319.84112
D1,Borborema/PB,-6.8066718,-35.5990191,13,245.88614
1,Borborema/SP,-21.6212706,-49.074135,1707,10560.50483
D1,Borborema/SP,-21.6212706,-49.074135,52,321.70255
1,Borda da Mata/MG,-22.274167,-46.165278,1929,9834.81187
D1,Borda da Mata/MG,-22.274167,-46.165278,56,285.51035
1,Borebi/SP,-22.5700178,-48.9714871,283,10547.89415
D1,Borebi/SP,-22.5700178,-48.9714871,4,149.08684
1,Borrazópolis/PR,-23.9393362,-51.5850786,867,13464.82373
D1,Borrazópolis/PR,-23.9393362,-51.5850786,27,419.31977
1,Borá/SP,-22.2701088,-50.544407,127,15155.13126
D1,Borá/SP,-22.2701088,-50.544407,1,119.33174
1,Bossoroca/RS,-28.7278885,-54.9120278,474,7639.00081
D1,Bossoroca/RS,-28.7278885,-54.9120278,22,354.55278
1,Botelhos/MG,-21.65,-46.394722,1804,12067.69684
D1,Botelhos/MG,-21.65,-46.394722,31,207.37173
1,Botucatu/SP,-22.8879628,-48.4410712,18126,12236.54898
D1,Botucatu/SP,-22.8879628,-48.4410712,301,203.19989
1,Botumirim/MG,-16.862778,-43.011111,241,3832.69720
D1,Botumirim/MG,-16.862778,-43.011111,4,63.61323
1,Botuporã/BA,-13.3744752,-42.5198469,451,4452.56195
D1,Botuporã/BA,-13.3744752,-42.5198469,5,49.36321
1,Botuverá/SC,-27.200749,-49.068892,935,17568.58324
D1,Botuverá/SC,-27.200749,-49.068892,10,187.89929
1,Bozano/RS,-28.3669953,-53.7705165,269,12742.77594
D1,Bozano/RS,-28.3669953,-53.7705165,8,378.96731
1,Braga/RS,-27.617348,-53.740514,429,12956.81063
D1,Braga/RS,-27.617348,-53.740514,9,271.82120
1,Braganey/PR,-24.8179919,-53.118506,559,10386.47343
D1,Braganey/PR,-24.8179919,-53.118506,7,130.06317
1,Bragança Paulista/SP,-22.9520235,-46.5418586,20882,12245.13730
D1,Bragança Paulista/SP,-22.9520235,-46.5418586,552,323.69102
1,Bragança/PA,-1.0573967,-46.7635406,4212,3267.29448
D1,Bragança/PA,-1.0573967,-46.7635406,173,134.19799
1,Branquinha/AL,-9.2478057,-36.0152009,670,6405.35373
D1,Branquinha/AL,-9.2478057,-36.0152009,12,114.72275
1,Brasil Novo/PA,-3.3055853,-52.539198,2031,13555.36274
D1,Brasil Novo/PA,-3.3055853,-52.539198,43,286.99192
1,Brasileira/PI,-4.131182,-41.7824969,636,7619.50401
D1,Brasileira/PI,-4.131182,-41.7824969,16,191.68564
1,Brasilândia de Minas/MG,-17.0096469,-46.0087183,1515,9045.85622
D1,Brasilândia de Minas/MG,-17.0096469,-46.0087183,26,155.24242
1,Brasilândia do Sul/PR,-24.1975793,-53.527551,411,15899.41973
D1,Brasilândia do Sul/PR,-24.1975793,-53.527551,10,386.84720
1,Brasilândia do Tocantins/TO,-8.3886619,-48.4842729,248,11216.64405
D1,Brasilândia do Tocantins/TO,-8.3886619,-48.4842729,6,271.37042
1,Brasilândia/MS,-21.255575,-52.0365617,1271,10723.02371
D1,Brasilândia/MS,-21.255575,-52.0365617,25,210.91707
1,Brasiléia/AC,-11.0010413,-68.7487894,2980,11160.21272
D1,Brasiléia/AC,-11.0010413,-68.7487894,43,161.03663
1,Brasnorte/MT,-12.1227151,-58.0050109,2118,10516.38530
D1,Brasnorte/MT,-12.1227151,-58.0050109,39,193.64449
1,Brasília de Minas/MG,-16.2075114,-44.430559,1416,4369.69603
D1,Brasília de Minas/MG,-16.2075114,-44.430559,9,27.77349
1,Brasília/DF,-15.7934036,-47.8823172,463530,15172.09144
D1,Brasília/DF,-15.7934036,-47.8823172,9898,323.97765
1,Brazabrantes/GO,-16.4291635,-49.3858216,567,15136.14522
D1,Brazabrantes/GO,-16.4291635,-49.3858216,3,80.08542
1,Brazópolis/MG,-22.4742842,-45.6165577,909,6308.11936
D1,Brazópolis/MG,-22.4742842,-45.6165577,32,222.06801
1,Braço do Norte/SC,-28.2728633,-49.1622712,8543,25218.44374
D1,Braço do Norte/SC,-28.2728633,-49.1622712,108,318.80978
1,Braço do Trombudo/SC,-27.358578,-49.882145,731,19395.06500
D1,Braço do Trombudo/SC,-27.358578,-49.882145,7,185.72566
1,Braúna/SP,-21.5015319,-50.3175246,617,10747.25658
D1,Braúna/SP,-21.5015319,-50.3175246,24,418.04564
1,Braúnas/MG,-19.055556,-42.716111,254,5326.06416
D1,Braúnas/MG,-19.055556,-42.716111,11,230.65632
1,Brejetuba/ES,-20.1465817,-41.2902303,1714,13792.54848
D1,Brejetuba/ES,-20.1465817,-41.2902303,14,112.65792
1,Brejinho de Nazaré/TO,-11.0205883,-48.5722906,658,11922.44972
D1,Brejinho de Nazaré/TO,-11.0205883,-48.5722906,17,308.02682
1,Brejinho/PE,-7.3482153,-37.28538,808,10790.59829
D1,Brejinho/PE,-7.3482153,-37.28538,21,280.44872
1,Brejinho/RN,-6.1957907,-35.3583019,1500,11730.66396
D1,Brejinho/RN,-6.1957907,-35.3583019,17,132.94752
1,Brejo Alegre/SP,-21.1671191,-50.1850393,398,13776.39322
D1,Brejo Alegre/SP,-21.1671191,-50.1850393,13,449.98269
1,Brejo Grande do Araguaia/PA,-5.7011449,-48.4037308,887,12038.54506
D1,Brejo Grande do Araguaia/PA,-5.7011449,-48.4037308,4,54.28882
1,Brejo Grande/SE,-10.4287358,-36.4667918,461,5518.97522
D1,Brejo Grande/SE,-10.4287358,-36.4667918,14,167.60445
1,Brejo Santo/CE,-7.4909841,-38.9859152,8430,16913.44649
D1,Brejo Santo/CE,-7.4909841,-38.9859152,155,310.98271
1,Brejo da Madre de Deus/PE,-8.1409718,-36.3712527,2296,4482.18643
D1,Brejo da Madre de Deus/PE,-8.1409718,-36.3712527,52,101.51293
1,Brejo de Areia/MA,-4.3316785,-45.5833334,316,3505.65787
D1,Brejo de Areia/MA,-4.3316785,-45.5833334,11,122.03239
1,Brejo do Cruz/PB,-6.32926065,-37.48746163303929,1948,13712.51584
D1,Brejo do Cruz/PB,-6.32926065,-37.48746163303929,23,161.90342
1,Brejo do Piauí/PI,-8.207583,-42.8359849,157,4080.04158
D1,Brejo do Piauí/PI,-8.207583,-42.8359849,4,103.95010
1,Brejo dos Santos/PB,-6.3769367,-37.8243125,775,11989.48020
D1,Brejo dos Santos/PB,-6.3769367,-37.8243125,8,123.76238
1,Brejo/MA,-3.6804397,-42.7529313,934,2548.36157
D1,Brejo/MA,-3.6804397,-42.7529313,19,51.84033
1,Brejolândia/BA,-12.4843845,-43.9611861,146,1375.02354
D1,Brejolândia/BA,-12.4843845,-43.9611861,11,103.59766
1,Brejão/PE,-9.029146,-36.566034,489,5441.19283
D1,Brejão/PE,-9.029146,-36.566034,9,100.14465
1,Brejões/BA,-13.1033754,-39.7909837,859,6039.93812
D1,Brejões/BA,-13.1033754,-39.7909837,12,84.37632
1,Breu Branco/PA,-3.7785073,-49.5684795,911,1352.99709
D1,Breu Branco/PA,-3.7785073,-49.5684795,46,68.31818
1,Breves/PA,-1.68036,-50.479085,4078,3940.21083
D1,Breves/PA,-1.68036,-50.479085,120,115.94539
1,Britânia/GO,-15.2427599,-51.1602061,672,11592.20286
D1,Britânia/GO,-15.2427599,-51.1602061,8,138.00242
1,Brochier/RS,-29.556766,-51.5963047,608,11912.22571
D1,Brochier/RS,-29.556766,-51.5963047,5,97.96238
1,Brodowski/SP,-20.984532,-47.657217,2765,10938.79812
D1,Brodowski/SP,-20.984532,-47.657217,76,300.66859
1,Brotas de Macaúbas/BA,-12.0019007,-42.6257506,171,1688.05528
D1,Brotas de Macaúbas/BA,-12.0019007,-42.6257506,8,78.97335
1,Brotas/SP,-22.2840884,-48.1267265,1937,7862.47767
D1,Brotas/SP,-22.2840884,-48.1267265,59,239.48693
1,Brumadinho/MG,-20.143611,-44.2,4005,9848.52211
D1,Brumadinho/MG,-20.143611,-44.2,87,213.93793
1,Brumado/BA,-14.29507325,-41.659307508575985,9635,14309.05176
D1,Brumado/BA,-14.29507325,-41.659307508575985,197,292.56702
1,Brunópolis/SC,-27.310953,-50.837585,306,12922.29730
D1,Brunópolis/SC,-27.310953,-50.837585,8,337.83784
1,Brusque/SC,-27.0964628,-48.9136323,29240,21236.26433
D1,Brusque/SC,-27.0964628,-48.9136323,309,224.41880
1,Brás Pires/MG,-20.8483109,-43.2430524,282,6568.83298
D1,Brás Pires/MG,-20.8483109,-43.2430524,8,186.34987
1,Bueno Brandão/MG,-22.441976,-46.3517971,994,9043.76308
D1,Bueno Brandão/MG,-22.441976,-46.3517971,30,272.95060
1,Buenos Aires/PE,-7.7218931,-35.326587,387,2934.04094
D1,Buenos Aires/PE,-7.7218931,-35.326587,25,189.53753
1,Buenópolis/MG,-17.8756607,-44.1749365,305,2946.00599
D1,Buenópolis/MG,-17.8756607,-44.1749365,12,115.90843
1,Buerarema/BA,-14.9571177,-39.3008035,1366,7462.03431
D1,Buerarema/BA,-14.9571177,-39.3008035,45,245.82104
1,Bugre/MG,-19.4257687,-42.2556,372,9339.69370
D1,Bugre/MG,-19.4257687,-42.2556,13,326.38715
1,Bujari/AC,-9.8309656,-67.9520886,1139,10930.90211
D1,Bujari/AC,-9.8309656,-67.9520886,17,163.14779
1,Bujaru/PA,-1.5169239,-48.0410699,1459,4958.03174
D1,Bujaru/PA,-1.5169239,-48.0410699,38,129.13311
1,Buri/SP,-23.79849,-48.598924,2663,13338.34210
D1,Buri/SP,-23.79849,-48.598924,93,465.81518
1,Buritama/SP,-21.0664017,-50.1448077,2622,15172.73306
D1,Buritama/SP,-21.0664017,-50.1448077,74,428.21596
1,Buriti Alegre/GO,-18.1377879,-49.0404411,1060,11176.71868
D1,Buriti Alegre/GO,-18.1377879,-49.0404411,34,358.49852
1,Buriti Bravo/MA,-5.8391884,-43.8367876,1729,7222.52391
D1,Buriti Bravo/MA,-5.8391884,-43.8367876,20,83.54568
1,Buriti de Goiás/GO,-16.180644,-50.4287479,300,12116.31664
D1,Buriti de Goiás/GO,-16.180644,-50.4287479,9,363.48950
1,Buriti do Tocantins/TO,-5.3187439,-48.2256609,1121,9750.36966
D1,Buriti do Tocantins/TO,-5.3187439,-48.2256609,21,182.65635
1,Buriti dos Lopes/PI,-3.1776723,-41.8707444,1331,6719.84652
D1,Buriti dos Lopes/PI,-3.1776723,-41.8707444,34,171.65649
1,Buriti dos Montes/PI,-5.3136171,-41.0971256,717,8676.18587
D1,Buriti dos Montes/PI,-5.3136171,-41.0971256,9,108.90610
1,Buriti/MA,-3.9430944,-42.9244281,875,3038.40544
D1,Buriti/MA,-3.9430944,-42.9244281,8,27.77971
1,Buriticupu/MA,-4.3227472,-46.4516989,3704,5075.15449
D1,Buriticupu/MA,-4.3227472,-46.4516989,76,104.13384
1,Buritinópolis/GO,-14.4589282,-46.4293104,205,6244.28876
D1,Buritinópolis/GO,-14.4589282,-46.4293104,3,91.37984
1,Buritirama/BA,-10.7148421,-43.6362327,850,3995.11186
D1,Buritirama/BA,-10.7148421,-43.6362327,23,108.10303
1,Buritirana/MA,-5.5897455,-47.0148915,448,2896.48930
D1,Buritirana/MA,-5.5897455,-47.0148915,24,155.16907
1,Buritis/MG,-15.621389,-46.423889,2105,8415.62388
D1,Buritis/MG,-15.621389,-46.423889,42,167.91269
1,Buritis/RO,-10.2054937,-63.8281954,4994,12374.86371
D1,Buritis/RO,-10.2054937,-63.8281954,75,185.84597
1,Buritizal/SP,-20.1933264,-47.7097165,342,7576.42889
D1,Buritizal/SP,-20.1933264,-47.7097165,10,221.53301
1,Buritizeiro/MG,-17.3667765,-44.9647781,1521,5408.76925
D1,Buritizeiro/MG,-17.3667765,-44.9647781,34,120.90608
1,Butiá/RS,-30.1256795,-51.9692224,2476,11817.48759
D1,Butiá/RS,-30.1256795,-51.9692224,56,267.27759
1,Buíque/PE,-8.6239732,-37.157296,2575,4370.40683
D1,Buíque/PE,-8.6239732,-37.157296,45,76.37604
1,Bálsamo/SP,-20.7343722,-49.5807484,1759,19247.18241
D1,Bálsamo/SP,-20.7343722,-49.5807484,66,722.17967
0,CASO SEM LOCALIZAÇÃO DEFINIDA/AP,2.677150600275196,-50.477785111870624,74,8.74983
0,CASO SEM LOCALIZAÇÃO DEFINIDA/BA,-13.415069300066518,-38.14174656569957,11132,74.84672
D0,CASO SEM LOCALIZAÇÃO DEFINIDA/BA,-13.415069300066518,-38.14174656569957,286,1.92294
0,CASO SEM LOCALIZAÇÃO DEFINIDA/CE,-3.3445126297392798,-38.624961942434304,10783,118.07827
0,CASO SEM LOCALIZAÇÃO DEFINIDA/ES,-20.30989267097039,-39.81745156645774,4554,113.32164
D0,CASO SEM LOCALIZAÇÃO DEFINIDA/ES,-20.30989267097039,-39.81745156645774,225,5.59890
0,CASO SEM LOCALIZAÇÃO DEFINIDA/GO,-16.701590966270153,-49.164524059025034,72,1.02588
0,CASO SEM LOCALIZAÇÃO DEFINIDA/MG,-19.97049116501593,-43.8852149072783,4266,20.15231
D0,CASO SEM LOCALIZAÇÃO DEFINIDA/MG,-19.97049116501593,-43.8852149072783,349,1.64865
0,CASO SEM LOCALIZAÇÃO DEFINIDA/MT,-15.54791153961863,-56.17143998972475,2581,74.07161
D0,CASO SEM LOCALIZAÇÃO DEFINIDA/MT,-15.54791153961863,-56.17143998972475,219,6.28504
0,CASO SEM LOCALIZAÇÃO DEFINIDA/PR,-25.69415946385943,-48.10141676336737,10678,93.38849
D0,CASO SEM LOCALIZAÇÃO DEFINIDA/PR,-25.69415946385943,-48.10141676336737,278,2.43135
0,CASO SEM LOCALIZAÇÃO DEFINIDA/RR,2.813328208465927,-60.663338675861986,2658,438.78691
D0,CASO SEM LOCALIZAÇÃO DEFINIDA/RR,2.813328208465927,-60.663338675861986,18,2.97147
0,CASO SEM LOCALIZAÇÃO DEFINIDA/SP,-24.30968974555485,-46.21366504207253,987,2.14943
1,Caapiranga/AM,-3.3188884,-61.2096404,695,5232.25175
D1,Caapiranga/AM,-3.3188884,-61.2096404,22,165.62524
1,Caaporã/PB,-7.510234,-34.9154114,2137,9733.54589
D1,Caaporã/PB,-7.510234,-34.9154114,34,154.86222
1,Caarapó/MS,-22.6349267,-54.8240903,4071,13306.96565
D1,Caarapó/MS,-22.6349267,-54.8240903,56,183.04841
1,Caatiba/BA,-14.9782759,-40.4092325,952,14673.24291
D1,Caatiba/BA,-14.9782759,-40.4092325,13,200.36991
1,Cabaceiras do Paraguaçu/BA,-12.5377868,-39.1901339,761,4024.11295
D1,Cabaceiras do Paraguaçu/BA,-12.5377868,-39.1901339,5,26.43964
1,Cabaceiras/PB,-7.4899156,-36.2860501,444,7843.13725
D1,Cabaceiras/PB,-7.4899156,-36.2860501,4,70.65889
1,Cabeceira Grande/MG,-16.0297,-47.0906,475,6797.36691
D1,Cabeceira Grande/MG,-16.0297,-47.0906,6,85.86148
1,Cabeceiras do Piauí/PI,-4.4733665,-42.3098716,675,6349.95296
D1,Cabeceiras do Piauí/PI,-4.4733665,-42.3098716,15,141.11007
1,Cabeceiras/GO,-15.7995459,-46.9264991,400,4971.41437
D1,Cabeceiras/GO,-15.7995459,-46.9264991,16,198.85657
1,Cabedelo/PB,-6.97324,-34.8351609,9599,13958.73020
D1,Cabedelo/PB,-6.97324,-34.8351609,202,293.74555
1,Cabixi/RO,-13.4956065,-60.5424442,901,17367.00077
D1,Cabixi/RO,-13.4956065,-60.5424442,21,404.78026
1,Cabo Frio/RJ,-22.8804369,-42.0189227,14494,6291.39935
D1,Cabo Frio/RJ,-22.8804369,-42.0189227,786,341.17841
1,Cabo Verde/MG,-21.4743338,-46.3964995,759,5392.53996
D1,Cabo Verde/MG,-21.4743338,-46.3964995,9,63.94316
1,Cabo de Santo Agostinho/PE,-8.2838945,-35.0320984,9583,4586.39636
D1,Cabo de Santo Agostinho/PE,-8.2838945,-35.0320984,518,247.91332
1,Cabreúva/SP,-23.3075813,-47.1324417,4670,9260.54453
D1,Cabreúva/SP,-23.3075813,-47.1324417,121,239.94130
1,Cabrobó/PE,-8.5083701,-39.3106961,2439,7068.95053
D1,Cabrobó/PE,-8.5083701,-39.3106961,27,78.25406
1,Cabrália Paulista/SP,-22.4562909,-49.3385645,440,10370.02121
D1,Cabrália Paulista/SP,-22.4562909,-49.3385645,9,212.11407
1,Cacaulândia/RO,-10.3380043,-62.9007231,909,14499.92024
D1,Cacaulândia/RO,-10.3380043,-62.9007231,13,207.36960
1,Cacequi/RS,-29.8838059,-54.8273443,801,6447.71794
D1,Cacequi/RS,-29.8838059,-54.8273443,11,88.54544
1,Cachoeira Alta/GO,-18.7618269,-50.9432431,1683,13287.54145
D1,Cachoeira Alta/GO,-18.7618269,-50.9432431,23,181.58850
1,Cachoeira Dourada/GO,-18.4934204,-49.481062,799,9948.94783
D1,Cachoeira Dourada/GO,-18.4934204,-49.481062,29,361.10073
1,Cachoeira Dourada/MG,-18.517136,-49.5002062,170,6282.33555
D1,Cachoeira Dourada/MG,-18.517136,-49.5002062,2,73.90983
1,Cachoeira Grande/MA,-2.9290492,-44.0573223,327,3450.09496
D1,Cachoeira Grande/MA,-2.9290492,-44.0573223,8,84.40599
1,Cachoeira Paulista/SP,-22.666498,-45.015384,2613,7781.18579
D1,Cachoeira Paulista/SP,-22.666498,-45.015384,44,131.02647
1,Cachoeira da Prata/MG,-19.524723,-44.453056,226,6293.51156
D1,Cachoeira da Prata/MG,-19.524723,-44.453056,13,362.01615
1,Cachoeira de Goiás/GO,-16.6688414,-50.6435997,123,9165.42474
D1,Cachoeira de Goiás/GO,-16.6688414,-50.6435997,4,298.06259
1,Cachoeira de Minas/MG,-22.3554043,-45.7796324,1076,9292.68503
D1,Cachoeira de Minas/MG,-22.3554043,-45.7796324,17,146.81751
1,Cachoeira de Pajeú/MG,-15.965833,-41.496666,533,5644.99047
D1,Cachoeira de Pajeú/MG,-15.965833,-41.496666,11,116.50074
1,Cachoeira do Arari/PA,-1.0143572,-48.9621089,502,2086.10372
D1,Cachoeira do Arari/PA,-1.0143572,-48.9621089,25,103.88963
1,Cachoeira do Piriá/PA,-1.7599443,-46.5446954,953,2753.61900
D1,Cachoeira do Piriá/PA,-1.7599443,-46.5446954,7,20.22595
1,Cachoeira do Sul/RS,-30.0474778,-52.8905413,10807,13200.35667
D1,Cachoeira do Sul/RS,-30.0474778,-52.8905413,195,238.18539
1,Cachoeira dos Índios/PB,-6.9259193,-38.6742159,917,8898.59292
D1,Cachoeira dos Índios/PB,-6.9259193,-38.6742159,16,155.26443
1,Cachoeira/BA,-12.5998256,-38.9665918,1710,5094.28903
D1,Cachoeira/BA,-12.5998256,-38.9665918,30,89.37349
1,Cachoeiras de Macacu/RJ,-22.4626861,-42.6534414,3344,5638.83783
D1,Cachoeiras de Macacu/RJ,-22.4626861,-42.6534414,101,170.31179
1,Cachoeirinha/PE,-8.4906364,-36.2338963,645,3146.18799
D1,Cachoeirinha/PE,-8.4906364,-36.2338963,33,160.96776
1,Cachoeirinha/RS,-29.9493353,-51.0898927,15520,11825.66291
D1,Cachoeirinha/RS,-29.9493353,-51.0898927,446,339.83542
1,Cachoeirinha/TO,-6.118647,-47.9208885,128,5604.20315
D1,Cachoeirinha/TO,-6.118647,-47.9208885,2,87.56567
1,Cachoeiro de Itapemirim/ES,-20.848084,-41.11129,28048,13318.83432
D1,Cachoeiro de Itapemirim/ES,-20.848084,-41.11129,583,276.84257
1,Cacimba de Areia/PB,-7.1288513,-37.1575194,60,1623.81597
D1,Cacimba de Areia/PB,-7.1288513,-37.1575194,4,108.25440
1,Cacimba de Dentro/PB,-6.6425101,-35.7929304,1237,7201.07114
D1,Cacimba de Dentro/PB,-6.6425101,-35.7929304,34,197.92758
1,Cacimbas/PB,-7.2125451,-37.0593398,257,3569.94027
D1,Cacimbas/PB,-7.2125451,-37.0593398,8,111.12655
1,Cacimbinhas/AL,-9.401212,-36.991082,895,8219.30388
D1,Cacimbinhas/AL,-9.401212,-36.991082,11,101.01938
1,Cacique Doble/RS,-27.7700117,-51.6616409,605,11923.53173
D1,Cacique Doble/RS,-27.7700117,-51.6616409,12,236.49980
1,Cacoal/RO,-11.4333,-61.4420502,14425,16794.15086
D1,Cacoal/RO,-11.4333,-61.4420502,303,352.76449
1,Caconde/SP,-21.527995,-46.643659,1427,7506.97038
D1,Caconde/SP,-21.527995,-46.643659,39,205.16597
1,Caculé/BA,-14.4990734,-42.2233006,2532,10871.15195
D1,Caculé/BA,-14.4990734,-42.2233006,21,90.16358
1,Caetanos/BA,-14.3387456,-40.9085971,743,5086.25411
D1,Caetanos/BA,-14.3387456,-40.9085971,10,68.45564
1,Caetanópolis/MG,-19.2947496,-44.4138386,1161,9881.69206
D1,Caetanópolis/MG,-19.2947496,-44.4138386,20,170.22725
1,Caetité/BA,-14.0691776,-42.4852428,3656,7157.26004
D1,Caetité/BA,-14.0691776,-42.4852428,41,80.26468
1,Caeté/MG,-19.897777,-43.670278,2106,4675.11710
D1,Caeté/MG,-19.897777,-43.670278,71,157.61316
1,Caetés/PE,-8.7728788,-36.6255835,1685,5829.64296
D1,Caetés/PE,-8.7728788,-36.6255835,22,76.11403
1,Cafarnaum/BA,-11.691399,-41.468823,919,4964.07930
D1,Cafarnaum/BA,-11.691399,-41.468823,23,124.23702
1,Cafeara/PR,-22.78905,-51.714195,429,14522.68111
D1,Cafeara/PR,-22.78905,-51.714195,11,372.37644
1,Cafelândia/PR,-24.6176963,-53.3218057,2588,14022.54010
D1,Cafelândia/PR,-24.6176963,-53.3218057,29,157.13047
1,Cafelândia/SP,-21.8054355,-49.6030627,815,4567.61755
D1,Cafelândia/SP,-21.8054355,-49.6030627,45,252.19974
1,Cafezal do Sul/PR,-23.900508,-53.512418,452,11274.63208
D1,Cafezal do Sul/PR,-23.900508,-53.512418,7,174.60713
1,Caiabu/SP,-22.0143038,-51.2356597,315,7512.52087
D1,Caiabu/SP,-22.0143038,-51.2356597,7,166.94491
1,Caiana/MG,-20.695555,-41.924723,162,2923.65999
D1,Caiana/MG,-20.695555,-41.924723,7,126.33099
1,Caiapônia/GO,-16.9538779,-51.8090761,1509,7897.62914
D1,Caiapônia/GO,-16.9538779,-51.8090761,40,209.34736
1,Caibaté/RS,-28.290475,-54.645407,421,8729.00684
D1,Caibaté/RS,-28.290475,-54.645407,7,145.13788
1,Caibi/SC,-27.0751925,-53.2502133,681,11109.29853
D1,Caibi/SC,-27.0751925,-53.2502133,15,244.69821
1,Caicó/RN,-6.4594544,-37.0971911,12286,17976.96911
D1,Caicó/RN,-6.4594544,-37.0971911,149,218.01794
1,Caieiras/SP,-23.3644621,-46.7484765,9239,8989.54026
D1,Caieiras/SP,-23.3644621,-46.7484765,316,307.46777
1,Cairu/BA,-13.4860505,-39.0455744,1537,8341.02133
D1,Cairu/BA,-13.4860505,-39.0455744,16,86.82911
1,Caiuá/SP,-21.8319357,-51.9887179,391,6575.84931
D1,Caiuá/SP,-21.8319357,-51.9887179,9,151.36226
1,Caiçara do Norte/RN,-5.0645017,-36.0561226,526,8017.07057
D1,Caiçara do Norte/RN,-5.0645017,-36.0561226,12,182.89895
1,Caiçara do Rio do Vento/RN,-5.757968,-36.00089,367,9878.86945
D1,Caiçara do Rio do Vento/RN,-5.757968,-36.00089,8,215.34320
1,Caiçara/PB,-6.6146866,-35.4681434,825,11472.67418
D1,Caiçara/PB,-6.6146866,-35.4681434,14,194.68780
1,Caiçara/RS,-27.2750478,-53.4310053,650,13829.78723
D1,Caiçara/RS,-27.2750478,-53.4310053,10,212.76596
1,Cajamar/SP,-23.3561111,-46.8769444,5199,6671.02933
D1,Cajamar/SP,-23.3561111,-46.8769444,231,296.40465
1,Cajapió/MA,-2.8778715,-44.6746871,171,1524.60770
D1,Cajapió/MA,-2.8778715,-44.6746871,7,62.41084
1,Cajari/MA,-3.3213076,-45.0118757,278,1429.23243
D1,Cajari/MA,-3.3213076,-45.0118757,9,46.27011
1,Cajati/SP,-24.7272376,-48.1077914,4585,16091.10690
D1,Cajati/SP,-24.7272376,-48.1077914,102,357.97010
1,Cajazeiras do Piauí/PI,-6.794271,-42.3935024,80,2239.01483
D1,Cajazeiras do Piauí/PI,-6.794271,-42.3935024,1,27.98769
1,Cajazeiras/PB,-6.8897849,-38.5570389,9826,15774.85591
D1,Cajazeiras/PB,-6.8897849,-38.5570389,154,247.23466
1,Cajazeirinhas/PB,-6.961442,-37.7993733,212,6614.66459
D1,Cajazeirinhas/PB,-6.961442,-37.7993733,1,31.20125
1,Cajobi/SP,-20.8776238,-48.8106972,1076,10154.77539
D1,Cajobi/SP,-20.8776238,-48.8106972,31,292.56323
1,Cajueiro da Praia/PI,-2.931114,-41.340801,482,6280.94866
D1,Cajueiro da Praia/PI,-2.931114,-41.340801,20,260.62028
1,Cajueiro/AL,-9.399589,-36.1524309,636,2981.57611
D1,Cajueiro/AL,-9.399589,-36.1524309,30,140.64038
1,Cajuri/MG,-20.7901414,-42.7954489,425,10694.51434
D1,Cajuri/MG,-20.7901414,-42.7954489,6,150.98138
1,Cajuru/SP,-21.2759978,-47.3046035,1955,7407.26708
D1,Cajuru/SP,-21.2759978,-47.3046035,57,215.96635
1,Caldas Brandão/PB,-7.1027959,-35.3254676,600,9923.91664
D1,Caldas Brandão/PB,-7.1027959,-35.3254676,10,165.39861
1,Caldas Novas/GO,-17.745,-48.625,11420,12253.74480
D1,Caldas Novas/GO,-17.745,-48.625,268,287.56599
1,Caldas/MG,-21.923611,-46.386111,1016,6987.13981
D1,Caldas/MG,-21.923611,-46.386111,38,261.33003
1,Caldazinha/GO,-16.7116649,-49.0012601,374,9719.33472
D1,Caldazinha/GO,-16.7116649,-49.0012601,11,285.86279
1,Caldeirão Grande do Piauí/PI,-7.3310393,-40.6374433,440,7611.13994
D1,Caldeirão Grande do Piauí/PI,-7.3310393,-40.6374433,2,34.59609
1,Caldeirão Grande/BA,-11.0208483,-40.3041387,569,4249.12254
D1,Caldeirão Grande/BA,-11.0208483,-40.3041387,6,44.80621
1,Califórnia/PR,-23.6672543,-51.3554556,1289,14977.92238
D1,Califórnia/PR,-23.6672543,-51.3554556,37,429.93261
1,Calmon/SC,-26.6023644,-51.0992893,50,1499.25037
D1,Calmon/SC,-26.6023644,-51.0992893,7,209.89505
1,Calumbi/PE,-7.9389746,-38.1516871,772,13433.09553
D1,Calumbi/PE,-7.9389746,-38.1516871,5,87.00191
1,Calçado/PE,-8.7413446,-36.3351787,542,4919.22309
D1,Calçado/PE,-8.7413446,-36.3351787,7,63.53240
1,Calçoene/AP,2.4981757,-50.9539503,1680,14859.36671
D1,Calçoene/AP,2.4981757,-50.9539503,10,88.44861
1,Camacan/BA,-15.4166631,-39.4930088,2977,9301.38099
D1,Camacan/BA,-15.4166631,-39.4930088,86,268.69962
1,Camacho/MG,-20.625556,-45.156667,142,4949.45974
D1,Camacho/MG,-20.625556,-45.156667,2,69.71070
1,Camalaú/PB,-7.885031,-36.824191,455,7544.35417
D1,Camalaú/PB,-7.885031,-36.824191,7,116.06699
1,Camamu/BA,-13.9438142,-39.1060917,2486,7026.17150
D1,Camamu/BA,-13.9438142,-39.1060917,57,161.09886
1,Camanducaia/MG,-22.755278,-46.144444,3445,15802.02743
D1,Camanducaia/MG,-22.755278,-46.144444,69,316.49924
1,Camapuã/MS,-19.5291747,-54.0434641,930,6791.79143
D1,Camapuã/MS,-19.5291747,-54.0434641,32,233.69605
1,Camaquã/RS,-30.8524752,-51.8075619,7377,11096.90424
D1,Camaquã/RS,-30.8524752,-51.8075619,149,224.13430
1,Camaragibe/PE,-8.0213832,-34.9810768,7441,4682.84885
D1,Camaragibe/PE,-8.0213832,-34.9810768,437,275.01746
1,Camargo/RS,-28.5865661,-52.2031474,443,16156.09044
D1,Camargo/RS,-28.5865661,-52.2031474,7,255.28811
1,Camaçari/BA,-12.6998188,-38.3260762,24651,8100.83404
D1,Camaçari/BA,-12.6998188,-38.3260762,618,203.08772
1,Cambará do Sul/RS,-29.0489517,-50.145412,337,5260.69310
D1,Cambará do Sul/RS,-29.0489517,-50.145412,10,156.10365
1,Cambará/PR,-23.042273,-50.075281,3052,11984.60693
D1,Cambará/PR,-23.042273,-50.075281,64,251.31548
1,Cambira/PR,-23.600265,-51.581045,1093,13805.73450
D1,Cambira/PR,-23.600265,-51.581045,26,328.40722
1,Camboriú/SC,-27.0273601,-48.6535657,13657,16047.23577
D1,Camboriú/SC,-27.0273601,-48.6535657,168,197.40321
1,Cambuci/RJ,-21.5749919,-41.9107833,1085,6993.68312
D1,Cambuci/RJ,-21.5749919,-41.9107833,40,257.83164
1,Cambuquira/MG,-21.853056,-45.2953619,854,6665.62598
D1,Cambuquira/MG,-21.853056,-45.2953619,25,195.12957
1,Cambuí/MG,-22.6122501,-46.0572137,4064,13631.17998
D1,Cambuí/MG,-22.6122501,-46.0572137,60,201.24774
1,Cambé/PR,-23.2782035,-51.2779583,12306,11464.39851
D1,Cambé/PR,-23.2782035,-51.2779583,312,290.66247
1,Cametá/PA,-2.242949,-49.497885,9648,6922.87822
D1,Cametá/PA,-2.242949,-49.497885,261,187.27935
1,Camocim de São Félix/PE,-8.3616757,-35.7638903,580,3068.78307
D1,Camocim de São Félix/PE,-8.3616757,-35.7638903,19,100.52910
1,Camocim/CE,-2.9009918,-40.8427389,6264,9801.74316
D1,Camocim/CE,-2.9009918,-40.8427389,163,255.05813
1,Campanha/MG,-21.8361108,-45.401986,2174,12969.81267
D1,Campanha/MG,-21.8361108,-45.401986,44,262.49851
1,Campanário/MG,-18.2398144,-41.7271768,252,6756.03217
D1,Campanário/MG,-18.2398144,-41.7271768,6,160.85791
1,Campestre da Serra/RS,-28.7966535,-51.0958149,296,8718.70398
D1,Campestre da Serra/RS,-28.7966535,-51.0958149,2,58.91016
1,Campestre de Goiás/GO,-16.7624179,-49.69497,550,15072.62264
D1,Campestre de Goiás/GO,-16.7624179,-49.69497,15,411.07153
1,Campestre do Maranhão/MA,-6.1729113,-47.3640512,1109,7673.14744
