type,name,lat,lon,total,total_per_100k_inhabitants
1,Abadia de Goiás/GO,-16.7572644,-49.4412205,1418,15829.42621
D1,Abadia de Goiás/GO,-16.7572644,-49.4412205,32,357.22259
1,Abadia dos Dourados/MG,-18.4911191,-47.4063589,422,6023.40851
D1,Abadia dos Dourados/MG,-18.4911191,-47.4063589,14,199.82872
1,Abadiânia/GO,-16.1940946,-48.7067767,419,2047.79825
D1,Abadiânia/GO,-16.1940946,-48.7067767,31,151.50775
1,Abaetetuba/PA,-1.721828,-48.878843,8598,5404.82776
D1,Abaetetuba/PA,-1.721828,-48.878843,217,136.40935
1,Abaeté/MG,-19.1566833,-45.4481213,1180,5075.26882
D1,Abaeté/MG,-19.1566833,-45.4481213,27,116.12903
1,Abaiara/CE,-7.3607808,-39.0487878,574,4842.65587
D1,Abaiara/CE,-7.3607808,-39.0487878,15,126.55024
1,Abaré/BA,-8.7239913,-39.1139689,925,4546.12474
D1,Abaré/BA,-8.7239913,-39.1139689,11,54.06202
1,Abatiá/PR,-23.3052967,-50.3102532,913,12324.51404
D1,Abatiá/PR,-23.3052967,-50.3102532,15,202.48380
1,Abaíra/BA,-13.2503296,-41.6640342,278,3191.73364
D1,Abaíra/BA,-13.2503296,-41.6640342,11,126.29162
1,Abdon Batista/SC,-27.612419,-51.022992,396,15541.60126
D1,Abdon Batista/SC,-27.612419,-51.022992,4,156.98587
1,Abel Figueiredo/PA,-4.953001,-48.3958485,942,12583.48918
D1,Abel Figueiredo/PA,-4.953001,-48.3958485,10,133.58269
1,Abelardo Luz/SC,-26.5705893,-52.3280339,1432,7973.27394
D1,Abelardo Luz/SC,-26.5705893,-52.3280339,46,256.12472
1,Abre Campo/MG,-20.2976097,-42.4764741,1051,7817.61381
D1,Abre Campo/MG,-20.2976097,-42.4764741,15,111.57394
1,Abreu e Lima/PE,-7.900719,-34.898389,3019,3008.59028
D1,Abreu e Lima/PE,-7.900719,-34.898389,218,217.24832
1,Abreulândia/TO,-9.6221526,-49.1558343,270,10408.63531
D1,Abreulândia/TO,-9.6221526,-49.1558343,6,231.30301
1,Acaiaca/MG,-20.3621646,-43.1444162,223,5583.37506
D1,Acaiaca/MG,-20.3621646,-43.1444162,11,275.41312
1,Acajutiba/BA,-11.6609659,-38.0186381,501,3298.87404
D1,Acajutiba/BA,-11.6609659,-38.0186381,16,105.35326
1,Acarape/CE,-4.2237866,-38.7071663,2736,18196.32881
D1,Acarape/CE,-4.2237866,-38.7071663,27,179.56903
1,Acaraú/CE,-2.8869514,-40.1194713,4831,7655.61613
D1,Acaraú/CE,-2.8869514,-40.1194713,98,155.29919
1,Acari/RN,-6.4364689,-36.6394777,1002,9009.98112
D1,Acari/RN,-6.4364689,-36.6394777,15,134.87996
1,Acará/PA,-1.961388,-48.1987043,1304,2342.41678
D1,Acará/PA,-1.961388,-48.1987043,29,52.09362
1,Acauã/PI,-8.219542,-41.083059,195,2745.70544
D1,Acauã/PI,-8.219542,-41.083059,1,14.08054
1,Aceguá/RS,-31.8695131,-54.1615593,332,6717.92796
D1,Aceguá/RS,-31.8695131,-54.1615593,5,101.17361
1,Acopiara/CE,-6.0936464,-39.4543204,3480,6387.54795
D1,Acopiara/CE,-6.0936464,-39.4543204,132,242.28630
1,Acorizal/MT,-15.2001544,-56.3668953,484,9073.86577
D1,Acorizal/MT,-15.2001544,-56.3668953,19,356.20547
1,Acrelândia/AC,-10.0759167,-67.0526898,1629,10516.46223
D1,Acrelândia/AC,-10.0759167,-67.0526898,34,219.49645
1,Acreúna/GO,-17.3959899,-50.3749031,1915,8493.74612
D1,Acreúna/GO,-17.3959899,-50.3749031,47,208.46270
1,Adamantina/SP,-21.6866517,-51.0762975,3057,8706.67312
D1,Adamantina/SP,-21.6866517,-51.0762975,94,267.72237
1,Adelândia/GO,-16.4155077,-50.1665834,192,7631.16057
D1,Adelândia/GO,-16.4155077,-50.1665834,4,158.98251
1,Adolfo/SP,-21.2356597,-49.6441918,460,12943.16263
D1,Adolfo/SP,-21.2356597,-49.6441918,12,337.64772
1,Adrianópolis/PR,-24.6557863,-48.9912769,1261,21529.79341
D1,Adrianópolis/PR,-24.6557863,-48.9912769,27,460.98685
1,Adustina/BA,-10.5358875,-38.114479,880,5138.38608
D1,Adustina/BA,-10.5358875,-38.114479,20,116.78150
1,Afogados da Ingazeira/PE,-7.750429,-37.6356375,4815,12872.95476
D1,Afogados da Ingazeira/PE,-7.750429,-37.6356375,65,173.77821
1,Afonso Bezerra/RN,-5.4745,-36.57625071327935,687,6229.03255
D1,Afonso Bezerra/RN,-5.4745,-36.57625071327935,17,154.13909
1,Afonso Cláudio/ES,-20.077841,-41.12606,3361,11035.95469
D1,Afonso Cláudio/ES,-20.077841,-41.12606,56,183.87785
1,Afonso Cunha/MA,-4.1326105,-43.3230026,179,2721.19185
D1,Afonso Cunha/MA,-4.1326105,-43.3230026,2,30.40438
1,Afrânio/PE,-8.5198919,-41.0070197,858,4331.14589
D1,Afrânio/PE,-8.5198919,-41.0070197,14,70.67138
1,Afuá/PA,-0.1535664,-50.3879223,2966,7496.14578
D1,Afuá/PA,-0.1535664,-50.3879223,14,35.38302
1,Agrestina/PE,-8.4558021,-35.9442663,1623,6475.16457
D1,Agrestina/PE,-8.4558021,-35.9442663,60,239.37762
1,Agricolândia/PI,-5.7967843,-42.6605131,472,9198.98655
D1,Agricolândia/PI,-5.7967843,-42.6605131,5,97.44689
1,Agrolândia/SC,-27.4122212,-49.8295774,1479,13429.58322
D1,Agrolândia/SC,-27.4122212,-49.8295774,21,190.68374
1,Agronômica/SC,-27.2660744,-49.7104753,617,11199.85478
D1,Agronômica/SC,-27.2660744,-49.7104753,13,235.97749
1,Aguanil/MG,-20.9424533,-45.3927152,599,13246.35117
D1,Aguanil/MG,-20.9424533,-45.3927152,8,176.91287
1,Aguaí/SP,-22.0592036,-46.979384,2687,7331.91443
D1,Aguaí/SP,-22.0592036,-46.979384,86,234.66492
1,Agudo/RS,-29.6423259,-53.2494005,1621,9883.54369
D1,Agudo/RS,-29.6423259,-53.2494005,27,164.62411
1,Agudos do Sul/PR,-25.9890808,-49.3328175,541,5712.77719
D1,Agudos do Sul/PR,-25.9890808,-49.3328175,23,242.87223
1,Agudos/SP,-22.471162,-48.987822,3515,9398.14443
D1,Agudos/SP,-22.471162,-48.987822,80,213.89802
1,Aguiar/PB,-7.0928404,-38.1727215,456,8099.46714
D1,Aguiar/PB,-7.0928404,-38.1727215,5,88.80995
1,Aguiarnópolis/TO,-6.5600452,-47.4721189,605,8778.29367
D1,Aguiarnópolis/TO,-6.5600452,-47.4721189,12,174.11492
1,Aimorés/MG,-19.4917754,-41.0615603,1878,7469.86993
D1,Aimorés/MG,-19.4917754,-41.0615603,61,242.63156
1,Aiquara/BA,-14.126918,-39.8887574,464,10507.24638
D1,Aiquara/BA,-14.126918,-39.8887574,11,249.09420
1,Aiuaba/CE,-6.5710836,-40.1212278,699,3995.88407
D1,Aiuaba/CE,-6.5710836,-40.1212278,11,62.88230
1,Aiuruoca/MG,-21.9759554,-44.6036637,281,4702.14190
D1,Aiuruoca/MG,-21.9759554,-44.6036637,7,117.13521
1,Ajuricaba/RS,-28.239654,-53.7693013,1003,14355.23114
D1,Ajuricaba/RS,-28.239654,-53.7693013,25,357.80736
1,Alagoa Grande/PB,-7.0415212,-35.6285322,3711,13048.98203
D1,Alagoa Grande/PB,-7.0415212,-35.6285322,68,239.10827
1,Alagoa Nova/PB,-7.0653703,-35.76695977336711,970,4636.48965
D1,Alagoa Nova/PB,-7.0653703,-35.76695977336711,18,86.03795
1,Alagoa/MG,-22.1697202,-44.6400042,439,16472.79550
D1,Alagoa/MG,-22.1697202,-44.6400042,6,225.14071
1,Alagoinha do Piauí/PI,-7.0090952,-40.939675,340,4435.74690
D1,Alagoinha do Piauí/PI,-7.0090952,-40.939675,10,130.46314
1,Alagoinha/PB,-6.97063215,-35.51490901897793,1869,12836.53846
D1,Alagoinha/PB,-6.97063215,-35.51490901897793,24,164.83516
1,Alagoinha/PE,-8.50355635,-36.77701174370496,1150,7813.56163
D1,Alagoinha/PE,-8.50355635,-36.77701174370496,25,169.86004
1,Alagoinhas/BA,-12.133526,-38.420772,12585,8261.83145
D1,Alagoinhas/BA,-12.133526,-38.420772,247,162.15116
1,Alambari/SP,-23.550338,-47.897971,508,8288.46468
D1,Alambari/SP,-23.550338,-47.897971,10,163.15875
1,Albertina/MG,-20.66164,-43.784039,223,7406.17735
D1,Albertina/MG,-20.66164,-43.784039,8,265.69246
1,Alcantil/PB,-7.7425491,-36.0609604,429,7787.25722
D1,Alcantil/PB,-7.7425491,-36.0609604,6,108.91269
1,Alcinópolis/MS,-18.3264121,-53.7094463,311,5741.18516
D1,Alcinópolis/MS,-18.3264121,-53.7094463,8,147.68322
1,Alcobaça/BA,-17.5215875,-39.1965474,1440,6402.84571
D1,Alcobaça/BA,-17.5215875,-39.1965474,29,128.94620
1,Alcântara/MA,-2.4038956,-44.4154241,306,1383.86397
D1,Alcântara/MA,-2.4038956,-44.4154241,17,76.88133
1,Alcântaras/CE,-3.586247,-40.5457641,1638,13903.74332
D1,Alcântaras/CE,-3.586247,-40.5457641,21,178.25312
1,Aldeias Altas/MA,-4.6291957,-43.4708622,975,3643.90627
D1,Aldeias Altas/MA,-4.6291957,-43.4708622,13,48.58542
1,Alecrim/RS,-27.6566142,-54.7653195,293,5028.31646
D1,Alecrim/RS,-27.6566142,-54.7653195,11,188.77639
1,Alegre/ES,-20.7625787,-41.5318886,2274,7586.32193
D1,Alegre/ES,-20.7625787,-41.5318886,49,163.46956
1,Alegrete do Piauí/PI,-7.2440138,-40.8602296,486,9882.06588
D1,Alegrete do Piauí/PI,-7.2440138,-40.8602296,6,122.00081
1,Alegrete/RS,-29.790166,-55.794862,8650,11844.77187
D1,Alegrete/RS,-29.790166,-55.794862,260,356.02782
1,Alegria/RS,-27.8332103,-54.0574959,353,10462.35922
D1,Alegria/RS,-27.8332103,-54.0574959,2,59.27682
1,Alenquer/PA,-1.946229,-54.738355,3276,5738.10692
D1,Alenquer/PA,-1.946229,-54.738355,125,218.94486
1,Alexandria/RN,-6.414779,-38.0135516,1495,11030.76810
D1,Alexandria/RN,-6.414779,-38.0135516,22,162.32568
1,Alexânia/GO,-16.0834049,-48.5077803,3033,10828.27562
D1,Alexânia/GO,-16.0834049,-48.5077803,74,264.19136
1,Alfenas/MG,-21.4297405,-45.9479419,8435,10479.04192
D1,Alfenas/MG,-21.4297405,-45.9479419,159,197.53025
1,Alfredo Chaves/ES,-20.624970400000002,-40.75006690147988,2331,15926.48265
D1,Alfredo Chaves/ES,-20.624970400000002,-40.75006690147988,35,239.13638
1,Alfredo Marcondes/SP,-21.9527,-51.413956,235,5616.63480
D1,Alfredo Marcondes/SP,-21.9527,-51.413956,10,239.00574
1,Alfredo Vasconcelos/MG,-21.145833,-43.776389,464,6646.61223
D1,Alfredo Vasconcelos/MG,-21.145833,-43.776389,12,171.89514
1,Alfredo Wagner/SC,-27.6961513,-49.3326734,661,6553.63871
D1,Alfredo Wagner/SC,-27.6961513,-49.3326734,7,69.40313
1,Algodão de Jandaíra/PB,-6.9040175,-36.0089879,174,6752.03725
1,Alhandra/PB,-7.4304246,-34.9106103,2115,10721.34638
D1,Alhandra/PB,-7.4304246,-34.9106103,35,177.42181
1,Aliança do Tocantins/TO,-11.3055927,-48.9409096,581,10867.93865
D1,Aliança do Tocantins/TO,-11.3055927,-48.9409096,20,374.11149
1,Aliança/PE,-7.60398,-35.222696,619,1612.10511
D1,Aliança/PE,-7.60398,-35.222696,58,151.05347
1,Almadina/BA,-14.70466,-39.6381994,602,11218.78494
D1,Almadina/BA,-14.70466,-39.6381994,9,167.72270
1,Almas/TO,-11.5681309,-47.1702803,229,3281.27239
D1,Almas/TO,-11.5681309,-47.1702803,5,71.64350
1,Almeirim/PA,-1.5290377,-52.5788111,3416,10024.65078
D1,Almeirim/PA,-1.5290377,-52.5788111,43,126.18852
1,Almenara/MG,-16.1740678,-40.6904907,3789,8990.81698
D1,Almenara/MG,-16.1740678,-40.6904907,45,106.77930
1,Almino Afonso/RN,-6.1544208,-37.7649018,415,8811.04034
D1,Almino Afonso/RN,-6.1544208,-37.7649018,12,254.77707
1,Almirante Tamandaré do Sul/RS,-28.1141129,-52.9134874,312,16008.20934
D1,Almirante Tamandaré do Sul/RS,-28.1141129,-52.9134874,4,205.23345
1,Almirante Tamandaré/PR,-25.3133048,-49.2997838,9093,7574.91191
D1,Almirante Tamandaré/PR,-25.3133048,-49.2997838,346,288.23485
1,Aloândia/GO,-17.7277983,-49.4809338,260,13091.64149
D1,Aloândia/GO,-17.7277983,-49.4809338,7,352.46727
1,Alpercata/MG,-18.9803616,-41.9827637,473,6360.94675
D1,Alpercata/MG,-18.9803616,-41.9827637,19,255.51372
1,Alpestre/RS,-27.2512339,-53.0349646,324,5340.36591
D1,Alpestre/RS,-27.2512339,-53.0349646,8,131.86089
1,Alpinópolis/MG,-20.863611,-46.387777,1232,6172.96322
D1,Alpinópolis/MG,-20.863611,-46.387777,32,160.33671
1,Alta Floresta D'Oeste/RO,-11.9296917,-61.9961284,3834,16869.06019
D1,Alta Floresta D'Oeste/RO,-11.9296917,-61.9961284,64,281.59099
1,Alta Floresta/MT,-9.8715018,-56.0839881,8279,15933.71697
D1,Alta Floresta/MT,-9.8715018,-56.0839881,120,230.95133
1,Altair/SP,-20.5238955,-49.0606135,169,4037.26708
D1,Altair/SP,-20.5238955,-49.0606135,12,286.66985
1,Altamira do Maranhão/MA,-4.1643006,-45.4674574,318,3883.25803
D1,Altamira do Maranhão/MA,-4.1643006,-45.4674574,10,122.11503
1,Altamira do Paraná/PR,-24.799114,-52.7128633,200,11890.60642
D1,Altamira do Paraná/PR,-24.799114,-52.7128633,10,594.53032
1,Altamira/PA,-3.204065,-52.209961,13273,11445.30004
D1,Altamira/PA,-3.204065,-52.209961,281,242.30613
1,Altaneira/CE,-6.9980933,-39.7385742,537,7019.60784
D1,Altaneira/CE,-6.9980933,-39.7385742,23,300.65359
1,Alterosa/MG,-21.249166,-46.143055,672,4629.05559
D1,Alterosa/MG,-21.249166,-46.143055,31,213.54274
1,Altinho/PE,-8.4904095,-36.0607494,1085,4720.67525
D1,Altinho/PE,-8.4904095,-36.0607494,24,104.42047
1,Altinópolis/SP,-21.021364,-47.3712,807,4980.55916
D1,Altinópolis/SP,-21.021364,-47.3712,39,240.69617
1,Alto Alegre do Maranhão/MA,-4.2055693,-44.4525287,1152,4135.25738
D1,Alto Alegre do Maranhão/MA,-4.2055693,-44.4525287,25,89.74083
1,Alto Alegre do Pindaré/MA,-3.6698186,-45.8462153,1906,5966.87850
D1,Alto Alegre do Pindaré/MA,-3.6698186,-45.8462153,45,140.87594
1,Alto Alegre dos Parecis/RO,-12.1314515,-61.856265,1435,10826.10336
D1,Alto Alegre dos Parecis/RO,-12.1314515,-61.856265,44,331.95021
1,Alto Alegre/RR,2.98858,-61.307167,1367,8888.16645
D1,Alto Alegre/RR,2.98858,-61.307167,31,201.56047
1,Alto Alegre/RS,-31.780844700000003,-52.81311114489171,191,11841.28952
D1,Alto Alegre/RS,-31.780844700000003,-52.81311114489171,1,61.99628
1,Alto Alegre/SP,-21.5820592,-50.1661976,332,8121.33072
D1,Alto Alegre/SP,-21.5820592,-50.1661976,19,464.77495
1,Alto Araguaia/MT,-17.3156528,-53.2169365,1163,5999.48414
D1,Alto Araguaia/MT,-17.3156528,-53.2169365,24,123.80707
1,Alto Bela Vista/SC,-27.4320737,-51.905771,169,8774.66251
D1,Alto Bela Vista/SC,-27.4320737,-51.905771,3,155.76324
1,Alto Boa Vista/MT,-11.6723985,-51.3744431,742,10697.80854
D1,Alto Boa Vista/MT,-11.6723985,-51.3744431,12,173.01038
1,Alto Caparaó/MG,-20.4405661,-41.8683799,384,6515.10010
D1,Alto Caparaó/MG,-20.4405661,-41.8683799,9,152.69766
1,Alto Feliz/RS,-29.3785943,-51.3123751,256,8432.14756
D1,Alto Feliz/RS,-29.3785943,-51.3123751,2,65.87615
1,Alto Garças/MT,-16.9469683,-53.529427,848,6978.84948
D1,Alto Garças/MT,-16.9469683,-53.529427,35,288.04214
1,Alto Horizonte/GO,-14.1954948,-49.3366993,818,12384.55715
D1,Alto Horizonte/GO,-14.1954948,-49.3366993,10,151.40045
1,Alto Jequitibá/MG,-20.423611,-41.966111,706,8504.99940
D1,Alto Jequitibá/MG,-20.423611,-41.966111,10,120.46741
1,Alto Longá/PI,-5.2549051,-42.2072388,624,4351.76791
D1,Alto Longá/PI,-5.2549051,-42.2072388,13,90.66183
1,Alto Paraguai/MT,-14.513712,-56.4936374,855,7452.27926
D1,Alto Paraguai/MT,-14.513712,-56.4936374,28,244.05125
1,Alto Paraná/PR,-23.131247,-52.318893,906,6097.31476
D1,Alto Paraná/PR,-23.131247,-52.318893,23,154.78834
1,Alto Paraíso de Goiás/GO,-14.1304779,-47.5100161,621,8077.52341
D1,Alto Paraíso de Goiás/GO,-14.1304779,-47.5100161,7,91.05099
1,Alto Paraíso/PR,-23.508137,-53.728537,220,8193.66853
D1,Alto Paraíso/PR,-23.508137,-53.728537,3,111.73184
1,Alto Paraíso/RO,-9.7240103,-63.3188123,1797,8225.38564
D1,Alto Paraíso/RO,-9.7240103,-63.3188123,46,210.55522
1,Alto Parnaíba/MA,-9.112506,-45.9310154,851,7590.08205
D1,Alto Parnaíba/MA,-9.112506,-45.9310154,10,89.19015
1,Alto Piquiri/PR,-24.0239021,-53.4417448,825,8437.30824
D1,Alto Piquiri/PR,-24.0239021,-53.4417448,19,194.31377
1,Alto Rio Doce/MG,-21.0239537,-43.4133507,412,3794.08785
D1,Alto Rio Doce/MG,-21.0239537,-43.4133507,25,230.22378
1,Alto Rio Novo/ES,-19.0577208,-41.0171518,681,8648.71730
D1,Alto Rio Novo/ES,-19.0577208,-41.0171518,21,266.70053
1,Alto Santo/CE,-5.5190371,-38.2719351,1719,9996.51082
D1,Alto Santo/CE,-5.5190371,-38.2719351,29,168.64387
1,Alto Taquari/MT,-17.8269099,-53.2831736,1415,12709.96138
D1,Alto Taquari/MT,-17.8269099,-53.2831736,27,242.52223
1,Alto do Rodrigues/RN,-5.290868,-36.7616726,2044,13878.32700
D1,Alto do Rodrigues/RN,-5.290868,-36.7616726,36,244.43237
1,Altos/PI,-5.0393915,-42.4611694,4286,10555.35033
D1,Altos/PI,-5.0393915,-42.4611694,88,216.72208
1,Altônia/PR,-23.8722004,-53.894037,1028,4635.64214
D1,Altônia/PR,-23.8722004,-53.894037,18,81.16883
1,Alumínio/SP,-23.5203479,-47.2575256,1348,7182.82091
D1,Alumínio/SP,-23.5203479,-47.2575256,39,207.81158
1,Alvarenga/MG,-19.4175,-41.728334,441,11472.42456
D1,Alvarenga/MG,-19.4175,-41.728334,4,104.05827
1,Alvarães/AM,-3.214786,-64.8143124,2840,17509.24784
D1,Alvarães/AM,-3.214786,-64.8143124,45,277.43527
1,Alvinlândia/SP,-22.4431852,-49.7643596,136,4201.42107
D1,Alvinlândia/SP,-22.4431852,-49.7643596,8,247.14242
1,Alvinópolis/MG,-20.1105199,-43.0601805,633,4172.98438
D1,Alvinópolis/MG,-20.1105199,-43.0601805,21,138.44024
1,Alvorada D'Oeste/RO,-11.346271,-62.284697,1067,7564.15710
D1,Alvorada D'Oeste/RO,-11.346271,-62.284697,28,198.49709
1,Alvorada de Minas/MG,-18.7318587,-43.3641479,250,6934.81276
D1,Alvorada de Minas/MG,-18.7318587,-43.3641479,2,55.47850
1,Alvorada do Gurguéia/PI,-8.4465288,-43.8655915,376,6905.41781
D1,Alvorada do Gurguéia/PI,-8.4465288,-43.8655915,9,165.28926
1,Alvorada do Norte/GO,-14.483911,-46.4959897,723,8305.57151
D1,Alvorada do Norte/GO,-14.483911,-46.4959897,3,34.46295
1,Alvorada do Sul/PR,-22.7807269,-51.2307721,704,6120.14257
D1,Alvorada do Sul/PR,-22.7807269,-51.2307721,23,199.94784
1,Alvorada/RS,-29.9981184,-51.0772509,19884,9408.00182
D1,Alvorada/RS,-29.9981184,-51.0772509,705,333.56675
1,Alvorada/TO,-12.478465,-49.124926,1088,12958.55169
D1,Alvorada/TO,-12.478465,-49.124926,20,238.20867
1,Além Paraíba/MG,-21.8760576,-42.6810473,3046,8604.27672
D1,Além Paraíba/MG,-21.8760576,-42.6810473,137,386.99472
1,Amajari/RR,3.6523869,-61.4194315,1009,7652.63557
D1,Amajari/RR,3.6523869,-61.4194315,20,151.68752
1,Amambai/MS,-23.1082701,-55.2284854,2929,7354.49204
D1,Amambai/MS,-23.1082701,-55.2284854,69,173.25365
1,Amaporã/PR,-23.094272,-52.786597,302,4769.42514
D1,Amaporã/PR,-23.094272,-52.786597,6,94.75679
1,Amapá do Maranhão/MA,-1.6762114,-46.0109669,172,2455.38901
D1,Amapá do Maranhão/MA,-1.6762114,-46.0109669,4,57.10207
1,Amapá/AP,2.0529997,-50.7930003,1302,14172.19985
D1,Amapá/AP,2.0529997,-50.7930003,10,108.84946
1,Amaraji/PE,-8.373925,-35.4536527,553,2418.01487
D1,Amaraji/PE,-8.373925,-35.4536527,33,144.29383
1,Amaral Ferrador/RS,-30.8750633,-52.2542051,287,4050.81157
D1,Amaral Ferrador/RS,-30.8750633,-52.2542051,7,98.80028
1,Amaralina/GO,-13.9236199,-49.2962411,76,1976.59298
D1,Amaralina/GO,-13.9236199,-49.2962411,1,26.00780
1,Amarante do Maranhão/MA,-5.56913,-46.747284,1576,3776.74998
D1,Amarante do Maranhão/MA,-5.56913,-46.747284,55,131.80282
1,Amarante/PI,-6.2459374,-42.8476238,1487,8446.94388
D1,Amarante/PI,-6.2459374,-42.8476238,33,187.45740
1,Amargosa/BA,-13.03793715,-39.60796443875596,2590,6917.55028
D1,Amargosa/BA,-13.03793715,-39.60796443875596,49,130.87257
1,Amaturá/AM,-3.3640509,-68.1994689,2353,20049.42059
D1,Amaturá/AM,-3.3640509,-68.1994689,17,144.85344
1,Americana/SP,-22.7392463,-47.3306032,19984,8257.23707
D1,Americana/SP,-22.7392463,-47.3306032,621,256.59248
1,Americano do Brasil/GO,-16.2515808,-49.9806104,651,10561.32382
D1,Americano do Brasil/GO,-16.2515808,-49.9806104,19,308.24140
1,Ametista do Sul/RS,-27.3617341,-53.1826575,697,9415.10199
D1,Ametista do Sul/RS,-27.3617341,-53.1826575,17,229.63663
1,Amontada/CE,-3.3634586,-39.8284791,2785,6354.24034
D1,Amontada/CE,-3.3634586,-39.8284791,53,120.92450
1,Amorinópolis/GO,-16.6211308,-51.0949921,229,7461.71391
D1,Amorinópolis/GO,-16.6211308,-51.0949921,3,97.75171
1,Amparo de São Francisco/SE,-10.1299754,-36.9269099,239,10042.01681
D1,Amparo de São Francisco/SE,-10.1299754,-36.9269099,4,168.06723
1,Amparo do Serra/MG,-20.5070255,-42.8028462,143,3056.86191
D1,Amparo do Serra/MG,-20.5070255,-42.8028462,8,171.01325
1,Amparo/PB,-7.56394725,-37.04652873235175,163,7241.22612
D1,Amparo/PB,-7.56394725,-37.04652873235175,4,177.69880
1,Amparo/SP,-22.70111,-46.76444,5788,7964.00512
D1,Amparo/SP,-22.70111,-46.76444,129,177.49770
1,Ampére/PR,-25.9168712,-53.4742414,1618,8378.64430
D1,Ampére/PR,-25.9168712,-53.4742414,38,196.77904
1,Amélia Rodrigues/BA,-12.4015388,-38.7516971,2157,8611.46599
D1,Amélia Rodrigues/BA,-12.4015388,-38.7516971,41,163.68572
1,América Dourada/BA,-11.4515262,-41.4357517,858,5332.50466
D1,América Dourada/BA,-11.4515262,-41.4357517,10,62.15040
1,Américo Brasiliense/SP,-21.7297099,-48.1052092,3611,8800.44843
D1,Américo Brasiliense/SP,-21.7297099,-48.1052092,86,209.59251
1,Américo de Campos/SP,-20.298476,-49.735904,848,14178.23107
D1,Américo de Campos/SP,-20.298476,-49.735904,24,401.27069
1,Anadia/AL,-9.6830208,-36.3052699,1344,7668.60664
D1,Anadia/AL,-9.6830208,-36.3052699,29,165.46845
1,Anagé/BA,-14.6134669,-41.1376308,852,3943.16657
D1,Anagé/BA,-14.6134669,-41.1376308,20,92.56260
1,Anahy/PR,-24.6450861,-53.1337957,342,12266.85796
D1,Anahy/PR,-24.6450861,-53.1337957,9,322.81205
1,Anajatuba/MA,-3.26441,-44.6179916,893,3308.87802
D1,Anajatuba/MA,-3.26441,-44.6179916,23,85.22306
1,Anajás/PA,-0.9878802,-49.9390114,1347,4537.18674
D1,Anajás/PA,-0.9878802,-49.9390114,22,74.10402
1,Analândia/SP,-22.128917,-47.661939,305,6032.43671
D1,Analândia/SP,-22.128917,-47.661939,4,79.11392
1,Anamã/AM,-3.5797356,-61.4049996,1771,12689.88249
D1,Anamã/AM,-3.5797356,-61.4049996,9,64.48839
1,Ananindeua/PA,-1.374035,-48.4016623,23436,4376.08651
D1,Ananindeua/PA,-1.374035,-48.4016623,797,148.81980
1,Ananás/TO,-6.3663053,-48.080238,1538,16203.11842
D1,Ananás/TO,-6.3663053,-48.080238,24,252.84450
1,Anapu/PA,-3.4668292,-51.2057035,1503,5253.95882
D1,Anapu/PA,-3.4668292,-51.2057035,36,125.84333
1,Anapurus/MA,-3.6751298,-43.1046001,829,5215.80471
D1,Anapurus/MA,-3.6751298,-43.1046001,12,75.50019
1,Anastácio/MS,-20.4832458,-55.8048448,2256,8939.25585
D1,Anastácio/MS,-20.4832458,-55.8048448,68,269.44566
1,Anaurilândia/MS,-22.185169,-52.719056,484,5332.74570
D1,Anaurilândia/MS,-22.185169,-52.719056,13,143.23491
1,Anchieta/ES,-20.8057672,-40.6454564,4630,15547.86930
D1,Anchieta/ES,-20.8057672,-40.6454564,84,282.07797
1,Anchieta/SC,-26.5350527,-53.3293938,631,11355.04769
D1,Anchieta/SC,-26.5350527,-53.3293938,8,143.96257
1,Andaraí/BA,-12.8059674,-41.3322919,795,6053.91410
D1,Andaraí/BA,-12.8059674,-41.3322919,8,60.91989
1,Andirá/PR,-23.0494761,-50.2310027,1913,9600.52193
D1,Andirá/PR,-23.0494761,-50.2310027,71,356.31838
1,Andorinha/BA,-10.3445708,-39.8334411,792,5460.93912
D1,Andorinha/BA,-10.3445708,-39.8334411,16,110.32200
1,Andradas/MG,-22.0680484,-46.5688976,3449,8331.72287
D1,Andradas/MG,-22.0680484,-46.5688976,104,251.23200
1,Andradina/SP,-20.896505,-51.3742765,5731,10018.88046
D1,Andradina/SP,-20.896505,-51.3742765,235,410.82480
1,Andrelândia/MG,-21.739722,-44.308889,206,1687.69458
D1,Andrelândia/MG,-21.739722,-44.308889,9,73.73423
1,André da Rocha/RS,-28.6309124,-51.5733328,111,8265.07818
1,Angatuba/SP,-23.4938938,-48.4110675,2437,9564.73959
D1,Angatuba/SP,-23.4938938,-48.4110675,58,227.63845
1,Angelim/PE,-8.8902038,-36.2872987,206,1835.02583
D1,Angelim/PE,-8.8902038,-36.2872987,8,71.26314
1,Angelina/SC,-27.5805287,-48.9838759,507,10689.43707
D1,Angelina/SC,-27.5805287,-48.9838759,1,21.08370
1,Angelândia/MG,-17.7253,-42.2728,116,1355.61529
D1,Angelândia/MG,-17.7253,-42.2728,1,11.68634
1,Angical do Piauí/PI,-6.0872666,-42.7366138,781,11514.07932
D1,Angical do Piauí/PI,-6.0872666,-42.7366138,10,147.42739
1,Angical/BA,-12.005623,-44.7000236,608,4362.17535
D1,Angical/BA,-12.005623,-44.7000236,14,100.44483
1,Angico/TO,-6.3893733,-47.8656722,232,6716.85003
D1,Angico/TO,-6.3893733,-47.8656722,3,86.85582
1,Angicos/RN,-5.6666344,-36.6009064,832,7108.07347
D1,Angicos/RN,-5.6666344,-36.6009064,21,179.41051
1,Angra dos Reis/RJ,-23.0063966,-44.316326,13451,6496.68669
D1,Angra dos Reis/RJ,-23.0063966,-44.316326,458,221.20902
1,Anguera/BA,-12.1509425,-39.2452469,425,3762.06072
D1,Anguera/BA,-12.1509425,-39.2452469,1,8.85191
1,Angélica/MS,-22.1588196,-53.7728504,1172,10720.81961
D1,Angélica/MS,-22.1588196,-53.7728504,19,173.80168
1,Anhanguera/GO,-18.3338749,-48.220363,88,7586.20690
D1,Anhanguera/GO,-18.3338749,-48.220363,6,517.24138
1,Anhembi/SP,-22.7891096,-48.1316776,240,3519.57765
D1,Anhembi/SP,-22.7891096,-48.1316776,5,73.32453
1,Anhumas/SP,-22.2956478,-51.3873401,206,4971.04247
D1,Anhumas/SP,-22.2956478,-51.3873401,5,120.65637
1,Anicuns/GO,-16.4606451,-49.9572265,2592,11792.00218
D1,Anicuns/GO,-16.4606451,-49.9572265,59,268.41363
1,Anita Garibaldi/SC,-27.6855032,-51.1293873,1136,16328.87739
D1,Anita Garibaldi/SC,-27.6855032,-51.1293873,10,143.74012
1,Anitápolis/SC,-27.9041185,-49.1287395,315,9758.36431
D1,Anitápolis/SC,-27.9041185,-49.1287395,4,123.91574
1,Anori/AM,-3.7435254,-61.6605203,1882,8762.86260
D1,Anori/AM,-3.7435254,-61.6605203,31,144.34046
1,Anta Gorda/RS,-28.9718745,-52.0069187,590,9897.66818
D1,Anta Gorda/RS,-28.9718745,-52.0069187,4,67.10284
1,Antas/BA,-10.4114649,-38.3308815,1241,6370.96360
D1,Antas/BA,-10.4114649,-38.3308815,10,51.33734
1,Antonina do Norte/CE,-6.7754187,-39.9879345,680,9216.58986
D1,Antonina do Norte/CE,-6.7754187,-39.9879345,24,325.29141
1,Antonina/PR,-25.4298854,-48.7125431,2411,12723.62658
D1,Antonina/PR,-25.4298854,-48.7125431,61,321.91672
1,Antônio Almeida/PI,-7.2186016,-44.1950248,405,12776.02524
D1,Antônio Almeida/PI,-7.2186016,-44.1950248,10,315.45741
1,Antônio Cardoso/BA,-12.4363122,-39.1200307,464,3973.62336
D1,Antônio Cardoso/BA,-12.4363122,-39.1200307,10,85.63843
1,Antônio Carlos/MG,-21.318334,-43.746666,640,5585.12959
D1,Antônio Carlos/MG,-21.318334,-43.746666,13,113.44794
1,Antônio Carlos/SC,-27.5168462,-48.7684715,1538,17856.72820
D1,Antônio Carlos/SC,-27.5168462,-48.7684715,24,278.64855
1,Antônio Dias/MG,-19.6525,-42.872778,561,6048.51752
D1,Antônio Dias/MG,-19.6525,-42.872778,22,237.19677
1,Antônio Gonçalves/BA,-10.5715409,-40.2748824,827,6962.45159
D1,Antônio Gonçalves/BA,-10.5715409,-40.2748824,8,67.35141
1,Antônio João/MS,-22.1892837,-55.9508227,476,5277.16186
D1,Antônio João/MS,-22.1892837,-55.9508227,11,121.95122
1,Antônio Martins/RN,-6.2155812,-37.8890129,632,8834.21862
D1,Antônio Martins/RN,-6.2155812,-37.8890129,6,83.86916
1,Antônio Olinto/PR,-25.9849006,-50.1974516,379,5103.00256
D1,Antônio Olinto/PR,-25.9849006,-50.1974516,9,121.17948
1,Antônio Prado de Minas/MG,-21.0171988,-42.1101106,160,10081.91556
D1,Antônio Prado de Minas/MG,-21.0171988,-42.1101106,5,315.05986
1,Antônio Prado/RS,-28.8567806,-51.2801355,2511,19248.75431
D1,Antônio Prado/RS,-28.8567806,-51.2801355,28,214.64163
1,Anápolis/GO,-16.3332828,-48.9525756,38122,9730.65967
D1,Anápolis/GO,-16.3332828,-48.9525756,1354,345.60918
1,Anísio de Abreu/PI,-9.185643,-43.04941,287,2887.90501
D1,Anísio de Abreu/PI,-9.185643,-43.04941,11,110.68625
1,Aparecida d'Oeste/SP,-20.4498109,-50.8808706,714,17171.71717
D1,Aparecida d'Oeste/SP,-20.4498109,-50.8808706,13,312.65031
1,Aparecida de Goiânia/GO,-16.8226769,-49.2452546,67266,11398.19638
D1,Aparecida de Goiânia/GO,-16.8226769,-49.2452546,1352,229.09585
1,Aparecida do Rio Doce/GO,-18.2980167,-51.1491312,222,8973.32255
D1,Aparecida do Rio Doce/GO,-18.2980167,-51.1491312,3,121.26112
1,Aparecida do Rio Negro/TO,-9.9513491,-47.9773786,327,6745.04950
D1,Aparecida do Rio Negro/TO,-9.9513491,-47.9773786,7,144.38944
1,Aparecida do Taboado/MS,-20.0840304,-51.1013943,3330,12773.79263
D1,Aparecida do Taboado/MS,-20.0840304,-51.1013943,48,184.12674
1,Aparecida/PB,-6.7859598, -38.0831353,887,10539.44867
D1,Aparecida/PB,-6.7859598, -38.0831353,13,154.46768
1,Aparecida/SP,-22.851552,-45.2340924,2192,6057.75874
D1,Aparecida/SP,-22.851552,-45.2340924,84,232.14039
1,Aperibé/RJ,-21.6211928,-42.1028167,553,4646.66835
D1,Aperibé/RJ,-21.6211928,-42.1028167,25,210.06638
1,Apiacá/ES,-21.152272,-41.569297,789,10444.79746
D1,Apiacá/ES,-21.152272,-41.569297,32,423.61663
1,Apiacás/MT,-9.5678422,-57.394852,1691,16444.61733
D1,Apiacás/MT,-9.5678422,-57.394852,15,145.87183
1,Apiaí/SP,-24.5076527,-48.8461582,1249,5155.61793
D1,Apiaí/SP,-24.5076527,-48.8461582,67,276.56237
1,Apicum-Açu/MA,-1.5279295,-45.082278,499,2865.67507
D1,Apicum-Açu/MA,-1.5279295,-45.082278,5,28.71418
1,Apiúna/SC,-27.0374658,-49.3885037,809,7457.59587
D1,Apiúna/SC,-27.0374658,-49.3885037,15,138.27434
1,Apodi/RN,-5.6631109,-37.796927,5795,16153.76038
D1,Apodi/RN,-5.6631109,-37.796927,93,259.24068
1,Aporá/BA,-11.6599747,-38.0794757,511,2872.72318
D1,Aporá/BA,-11.6599747,-38.0794757,19,106.81358
1,Aporé/GO,-18.9642193,-51.92804,362,8553.87524
D1,Aporé/GO,-18.9642193,-51.92804,10,236.29490
1,Apuarema/BA,-13.8517897,-39.7457126,670,9175.56834
D1,Apuarema/BA,-13.8517897,-39.7457126,9,123.25390
1,Apucarana/PR,-23.5525327,-51.4610764,8270,6070.43763
D1,Apucarana/PR,-23.5525327,-51.4610764,357,262.04912
1,Apuiarés/CE,-3.9460303,-39.4313298,1140,7769.90185
D1,Apuiarés/CE,-3.9460303,-39.4313298,23,156.76118
1,Apuí/AM,-7.1940195,-59.8830192,1366,6109.39666
D1,Apuí/AM,-7.1940195,-59.8830192,30,134.17416
1,Aquidabã/SE,-10.2837579,-37.0188687,2152,9925.74143
D1,Aquidabã/SE,-10.2837579,-37.0188687,36,166.04400
1,Aquidauana/MS,-20.473969,-55.7821375,4889,10179.26669
D1,Aquidauana/MS,-20.473969,-55.7821375,135,281.08018
1,Aquiraz/CE,-3.9063117,-38.387504,6307,7792.67313
D1,Aquiraz/CE,-3.9063117,-38.387504,85,105.02255
1,Arabutã/SC,-27.1587028,-52.1438142,395,9257.08929
D1,Arabutã/SC,-27.1587028,-52.1438142,8,187.48535
1,Aracaju/SE,-10.9162061,-37.0774655,116807,17567.39278
D1,Aracaju/SE,-10.9162061,-37.0774655,2212,332.67760
1,Aracati/CE,-4.558259,-37.767894,7276,9704.56819
D1,Aracati/CE,-4.558259,-37.767894,146,194.73158
1,Aracatu/BA,-14.4274236,-41.4604105,796,6101.95477
D1,Aracatu/BA,-14.4274236,-41.4604105,14,107.32081
1,Araci/BA,-11.3356065,-38.9573261,3407,6234.44591
D1,Araci/BA,-11.3356065,-38.9573261,47,86.00498
1,Aracitaba/MG,-21.3425,-43.378611,82,3982.51578
D1,Aracitaba/MG,-21.3425,-43.378611,8,388.53813
1,Aracoiaba/CE,-4.3702577,-38.8084313,3910,14735.25532
D1,Aracoiaba/CE,-4.3702577,-38.8084313,30,113.05822
1,Aracruz/ES,-19.8245218,-40.2735025,15299,14838.84734
D1,Aracruz/ES,-19.8245218,-40.2735025,217,210.47323
1,Aragarças/GO,-15.8957166,-52.2514538,2315,11419.12889
D1,Aragarças/GO,-15.8957166,-52.2514538,52,256.49879
1,Aragoiânia/GO,-16.9146388,-49.4499148,1003,9556.02134
D1,Aragoiânia/GO,-16.9146388,-49.4499148,20,190.54878
1,Aragominas/TO,-7.1654101,-48.525488,522,9108.35805
D1,Aragominas/TO,-7.1654101,-48.525488,9,157.04066
1,Araguacema/TO,-8.8067391,-49.5560969,581,8120.19567
D1,Araguacema/TO,-8.8067391,-49.5560969,11,153.73864
1,Araguaiana/MT,-15.729144,-51.834112,261,8394.98231
D1,Araguaiana/MT,-15.729144,-51.834112,6,192.98810
1,Araguainha/MT,-16.857016,-53.031778,25,2642.70613
1,Araguanã/MA,-2.9508403,-45.6651986,806,5182.94643
D1,Araguanã/MA,-2.9508403,-45.6651986,5,32.15227
1,Araguanã/TO,-6.5799107,-48.6428482,527,9097.18626
D1,Araguanã/TO,-6.5799107,-48.6428482,13,224.40877
1,Araguapaz/GO,-15.0937927,-50.626417,545,7002.44122
D1,Araguapaz/GO,-15.0937927,-50.626417,21,269.81884
1,Araguari/MG,-18.6511256,-48.1933764,14818,12576.27838
D1,Araguari/MG,-18.6511256,-48.1933764,380,322.51220
1,Araguatins/TO,-5.6522925,-48.1158973,2294,6342.27260
D1,Araguatins/TO,-5.6522925,-48.1158973,57,157.58916
1,Araguaçu/TO,-12.928934,-49.823134,812,9590.17362
D1,Araguaçu/TO,-12.928934,-49.823134,18,212.59006
1,Araguaína/TO,-7.193241,-48.2018597,32665,17812.64144
D1,Araguaína/TO,-7.193241,-48.2018597,434,236.66574
1,Araioses/MA,-2.890914,-41.904993,651,1391.88814
D1,Araioses/MA,-2.890914,-41.904993,13,27.79500
1,Aral Moreira/MS,-22.951141,-55.6268421,498,4038.27441
D1,Aral Moreira/MS,-22.951141,-55.6268421,11,89.19883
1,Aramari/BA,-12.0907897,-38.4985065,574,5008.28898
D1,Aramari/BA,-12.0907897,-38.4985065,12,104.70291
1,Arambaré/RS,-30.9132252,-51.4994625,179,5025.26670
D1,Arambaré/RS,-30.9132252,-51.4994625,8,224.59293
1,Arame/MA,-4.8858769,-46.0102484,1281,3909.77903
D1,Arame/MA,-4.8858769,-46.0102484,36,109.87669
1,Aramina/SP,-20.0876144,-47.789201,298,5269.67286
D1,Aramina/SP,-20.0876144,-47.789201,13,229.88506
1,Arandu/SP,-23.1345103,-49.0545651,448,7038.49175
D1,Arandu/SP,-23.1345103,-49.0545651,12,188.53103
1,Arantina/MG,-21.911667,-44.255833,156,5597.41658
D1,Arantina/MG,-21.911667,-44.255833,3,107.64263
1,Arapeí/SP,-22.6738889,-44.4477778,202,8211.38211
D1,Arapeí/SP,-22.6738889,-44.4477778,3,121.95122
1,Arapiraca/AL,-9.754866,-36.661471,26857,11524.28480
D1,Arapiraca/AL,-9.754866,-36.661471,422,181.07935
1,Arapoema/TO,-7.6575001,-49.0641484,474,7164.44982
D1,Arapoema/TO,-7.6575001,-49.0641484,10,151.14873
1,Araponga/MG,-20.666667,-42.520556,409,4838.51887
D1,Araponga/MG,-20.666667,-42.520556,6,70.98072
1,Arapongas/PR,-23.415296,-51.42592,11435,9161.92613
D1,Arapongas/PR,-23.415296,-51.42592,446,357.34316
1,Araporã/MG,-18.4318188,-49.188313,1809,26100.12985
D1,Araporã/MG,-18.4318188,-49.188313,26,375.12624
1,Arapoti/PR,-24.1457957,-49.8224605,2744,9696.11307
D1,Arapoti/PR,-24.1457957,-49.8224605,53,187.27915
1,Araputanga/MT,-15.4710868,-58.346796,1903,11226.47631
D1,Araputanga/MT,-15.4710868,-58.346796,52,306.76656
1,Arapuá/MG,-19.034444,-46.155556,245,8641.97531
D1,Arapuá/MG,-19.034444,-46.155556,2,70.54674
1,Arapuã/PR,-24.3079525,-51.7901941,191,6347.62380
D1,Arapuã/PR,-24.3079525,-51.7901941,5,166.16816
1,Araquari/SC,-26.3703324,-48.7210994,3440,8703.57251
D1,Araquari/SC,-26.3703324,-48.7210994,73,184.69791
1,Arara/PB,-6.8271895,-35.7605703,937,6919.21430
D1,Arara/PB,-6.8271895,-35.7605703,25,184.61084
1,Araranguá/SC,-28.9348832,-49.4858389,9911,14391.50827
D1,Araranguá/SC,-28.9348832,-49.4858389,228,331.07294
1,Araraquara/SP,-21.7886713,-48.1773096,19610,8227.77640
D1,Araraquara/SP,-21.7886713,-48.1773096,419,175.80002
1,Araras/SP,-22.3569477,-47.3838889,14846,10955.97243
D1,Araras/SP,-22.3569477,-47.3838889,332,245.00760
1,Ararendá/CE,-4.7504395,-40.8303611,1196,10913.40451
D1,Ararendá/CE,-4.7504395,-40.8303611,20,182.49840
1,Arari/MA,-3.4547602,-44.7772723,681,2275.15702
D1,Arari/MA,-3.4547602,-44.7772723,30,100.22718
1,Araricá/RS,-29.6168543,-50.929121,977,16929.47496
D1,Araricá/RS,-29.6168543,-50.929121,24,415.87247
1,Araripe/CE,-7.212861,-40.1359222,1252,5781.84169
D1,Araripe/CE,-7.212861,-40.1359222,14,64.65318
1,Araripina/PE,-7.5768582,-40.5038509,6359,7493.16554
D1,Araripina/PE,-7.5768582,-40.5038509,134,157.89970
1,Araruama/RJ,-22.8733203,-42.3428897,5740,4274.23619
D1,Araruama/RJ,-22.8733203,-42.3428897,363,270.30448
1,Araruna/PB,-6.5321155,-35.7397595,624,3049.40625
D1,Araruna/PB,-6.5321155,-35.7397595,16,78.18990
1,Araruna/PR,-23.9320308,-52.4976047,1572,11228.57143
D1,Araruna/PR,-23.9320308,-52.4976047,28,200.00000
1,Arataca/BA,-15.2617424,-39.4122943,716,6532.25071
D1,Arataca/BA,-15.2617424,-39.4122943,15,136.84883
1,Aratiba/RS,-27.3955734,-52.3024325,364,5881.40249
D1,Aratiba/RS,-27.3955734,-52.3024325,6,96.94619
1,Aratuba/CE,-4.4195958,-39.0463737,1278,10828.67311
D1,Aratuba/CE,-4.4195958,-39.0463737,8,67.78512
1,Aratuípe/BA,-13.077137,-39.0010786,374,4232.20550
D1,Aratuípe/BA,-13.077137,-39.0010786,9,101.84452
1,Araucária/PR,-25.5861107,-49.4051209,23506,16076.43591
D1,Araucária/PR,-25.5861107,-49.4051209,375,256.47339
1,Arauá/SE,-11.2644014,-37.6181058,1206,12124.25857
D1,Arauá/SE,-11.2644014,-37.6181058,20,201.06565
1,Araxá/MG,-19.5928536,-46.940241,12274,11435.01309
D1,Araxá/MG,-19.5928536,-46.940241,195,181.67081
1,Araçagi/PB,-6.8519969,-35.3835602,1306,7718.21996
D1,Araçagi/PB,-6.8519969,-35.3835602,17,100.46688
1,Araçariguama/SP,-23.438611,-47.061389,1541,6741.03237
D1,Araçariguama/SP,-23.438611,-47.061389,53,231.84602
1,Araçatuba/SP,-21.207992,-50.4390225,24380,12305.11434
D1,Araçatuba/SP,-21.207992,-50.4390225,723,364.91377
1,Araçaí/MG,-19.200833,-44.2475,70,2973.66185
D1,Araçaí/MG,-19.200833,-44.2475,1,42.48088
1,Araçoiaba da Serra/SP,-23.5045367,-47.6168158,2325,6685.64527
D1,Araçoiaba da Serra/SP,-23.5045367,-47.6168158,58,166.78169
1,Araçoiaba/PE,-7.7856903,-35.0898881,621,2995.22500
D1,Araçoiaba/PE,-7.7856903,-35.0898881,29,139.87363
1,Araçu/GO,-16.3561579,-49.6815269,403,11560.52783
D1,Araçu/GO,-16.3561579,-49.6815269,16,458.97877
1,Araçuaí/MG,-16.8484451,-42.0661868,1572,4281.97864
D1,Araçuaí/MG,-16.8484451,-42.0661868,38,103.50839
1,Araçás/BA,-12.2139176,-38.2026159,618,5062.25426
D1,Araçás/BA,-12.2139176,-38.2026159,10,81.91350
1,Araújos/MG,-19.948055,-45.165556,706,7509.83938
D1,Araújos/MG,-19.948055,-45.165556,9,95.73450
1,Arceburgo/MG,-21.364444,-46.939722,1011,9289.71791
D1,Arceburgo/MG,-21.364444,-46.939722,27,248.09336
1,Arco-Íris/SP,-21.7741308,-50.4668814,132,7445.00846
D1,Arco-Íris/SP,-21.7741308,-50.4668814,6,338.40948
1,Arcos/MG,-20.282223,-45.539444,4714,11674.09609
D1,Arcos/MG,-20.282223,-45.539444,109,269.93561
1,Arcoverde/PE,-8.415192,-37.057748,5469,7309.34752
D1,Arcoverde/PE,-8.415192,-37.057748,124,165.72666
1,Areado/MG,-21.3582771,-46.1476688,818,5388.31434
D1,Areado/MG,-21.3582771,-46.1476688,18,118.56926
1,Areal/RJ,-22.2314922,-43.1056264,1229,9700.84458
D1,Areal/RJ,-22.2314922,-43.1056264,41,323.62460
1,Arealva/SP,-22.0301906,-48.9111936,862,10008.12725
D1,Arealva/SP,-22.0301906,-48.9111936,13,150.93463
1,Areia Branca/RN,-4.9506652,-37.1263312,2382,8517.18096
D1,Areia Branca/RN,-4.9506652,-37.1263312,91,325.38349
1,Areia Branca/SE,-10.7591455,-37.3148072,1938,10371.40105
D1,Areia Branca/SE,-10.7591455,-37.3148072,45,240.82201
1,Areia de Baraúnas/PB,-7.1233949,-36.9446216,149,7041.58790
D1,Areia de Baraúnas/PB,-7.1233949,-36.9446216,3,141.77694
1,Areia/PB,-6.9680243,-35.6994783,1234,5446.68079
D1,Areia/PB,-6.9680243,-35.6994783,24,105.93220
1,Areial/PB,-7.0501306,-35.9245244,320,4553.86367
D1,Areial/PB,-7.0501306,-35.9245244,9,128.07742
1,Areias/SP,-22.5800929,-44.6975127,289,7417.86448
D1,Areias/SP,-22.5800929,-44.6975127,1,25.66735
1,Areiópolis/SP,-22.6758064,-48.6673653,1144,10252.73346
D1,Areiópolis/SP,-22.6758064,-48.6673653,16,143.39487
1,Arenápolis/MT,-14.4610369,-56.8432806,1683,17712.06062
D1,Arenápolis/MT,-14.4610369,-56.8432806,29,305.19891
1,Arenópolis/GO,-16.3859286,-51.55937,194,7649.84227
D1,Arenópolis/GO,-16.3859286,-51.55937,8,315.45741
1,Argirita/MG,-21.612761,-42.8371922,252,9319.52663
D1,Argirita/MG,-21.612761,-42.8371922,5,184.91124
1,Aricanduva/MG,-17.8678,-42.5569,83,1575.25147
1,Arinos/MG,-15.917223,-46.106111,659,3689.39648
D1,Arinos/MG,-15.917223,-46.106111,19,106.37107
1,Aripuanã/MT,-10.175806,-59.4439663,2693,11856.12398
D1,Aripuanã/MT,-10.175806,-59.4439663,42,184.90799
1,Ariquemes/RO,-9.9076522,-63.033069,21031,19202.35932
D1,Ariquemes/RO,-9.9076522,-63.033069,455,415.43785
1,Ariranha do Ivaí/PR,-24.3834527,-51.5876772,162,7841.23911
D1,Ariranha do Ivaí/PR,-24.3834527,-51.5876772,3,145.20813
1,Ariranha/SP,-21.18716,-48.790418,622,6372.29792
D1,Ariranha/SP,-21.18716,-48.790418,19,194.65219
1,Armazém/SC,-28.2624996,-49.0190126,1374,15686.72223
D1,Armazém/SC,-28.2624996,-49.0190126,30,342.50485
1,Armação dos Búzios/RJ,-22.7597805,-41.8875267,4345,12602.60463
D1,Armação dos Búzios/RJ,-22.7597805,-41.8875267,55,159.52664
1,Arneiroz/CE,-6.3235099,-40.1603859,611,7789.39317
D1,Arneiroz/CE,-6.3235099,-40.1603859,16,203.97756
1,Aroazes/PI,-6.1108814,-41.7886137,573,9833.53355
D1,Aroazes/PI,-6.1108814,-41.7886137,12,205.93788
1,Aroeiras do Itaim/PI,-7.2797031,-41.5629681,117,4586.43669
D1,Aroeiras do Itaim/PI,-7.2797031,-41.5629681,2,78.40063
1,Aroeiras/PB,-7.5462904,-35.7080002,1538,8045.61624
D1,Aroeiras/PB,-7.5462904,-35.7080002,9,47.08098
1,Arraial do Cabo/RJ,-22.9662839,-42.024427,695,2271.76151
D1,Arraial do Cabo/RJ,-22.9662839,-42.024427,35,114.40526
1,Arraial/PI,-6.6541632,-42.5335332,152,3220.33898
D1,Arraial/PI,-6.6541632,-42.5335332,3,63.55932
1,Arraias/TO,-12.9287788,-46.9437231,786,7461.55307
D1,Arraias/TO,-12.9287788,-46.9437231,7,66.45149
1,Arroio Grande/RS,-32.2384246,-53.0866661,1740,9540.51979
D1,Arroio Grande/RS,-32.2384246,-53.0866661,51,279.63592
1,Arroio Trinta/SC,-26.9301976,-51.334928,579,16314.45478
D1,Arroio Trinta/SC,-26.9301976,-51.334928,13,366.30037
1,Arroio do Meio/RS,-29.4020392,-51.9444993,2993,14274.81280
D1,Arroio do Meio/RS,-29.4020392,-51.9444993,42,200.31478
1,Arroio do Padre/RS,-31.4428773,-52.4228985,185,6269.06134
D1,Arroio do Padre/RS,-31.4428773,-52.4228985,3,101.66045
1,Arroio do Sal/RS,-29.549852,-49.8874395,1072,10429.03006
D1,Arroio do Sal/RS,-29.549852,-49.8874395,34,330.77148
1,Arroio do Tigre/RS,-29.334158,-53.0888935,1099,8193.54358
D1,Arroio do Tigre/RS,-29.334158,-53.0888935,19,141.65362
1,Arroio dos Ratos/RS,-30.0894524,-51.7265541,927,6538.75996
D1,Arroio dos Ratos/RS,-30.0894524,-51.7265541,31,218.66403
1,Artur Nogueira/SP,-22.572737,-47.172679,4206,7600.28912
D1,Artur Nogueira/SP,-22.572737,-47.172679,112,202.38525
1,Aruanã/GO,-14.9162439,-51.0715692,521,5153.31355
D1,Aruanã/GO,-14.9162439,-51.0715692,13,128.58556
1,Arujá/SP,-23.396266,-46.3175449,6924,7595.68656
D1,Arujá/SP,-23.396266,-46.3175449,271,297.28929
1,Arvoredo/SC,-27.0752908,-52.4571847,291,13025.96240
D1,Arvoredo/SC,-27.0752908,-52.4571847,4,179.05103
1,Arvorezinha/RS,-28.87369,-52.17808,789,7569.79756
D1,Arvorezinha/RS,-28.87369,-52.17808,25,239.85417
1,Arês/RN,-6.1969216,-35.1642968,964,6686.55060
D1,Arês/RN,-6.1969216,-35.1642968,21,145.66137
1,Ascurra/SC,-26.9569975,-49.3767752,1131,14176.48533
D1,Ascurra/SC,-26.9569975,-49.3767752,10,125.34470
1,Aspásia/SP,-20.160028,-50.728046,134,7370.73707
D1,Aspásia/SP,-20.160028,-50.728046,5,275.02750
1,Assaré/CE,-6.8746791,-39.8741385,1987,8463.24218
D1,Assaré/CE,-6.8746791,-39.8741385,37,157.59434
1,Assaí/PR,-23.3736041,-50.8454929,1273,8512.77250
D1,Assaí/PR,-23.3736041,-50.8454929,40,267.48696
1,Assis Brasil/AC,-10.9409203,-69.5672108,1712,22723.65277
D1,Assis Brasil/AC,-10.9409203,-69.5672108,24,318.55588
1,Assis Chateaubriand/PR,-24.4054826,-53.5120468,3905,11712.65747
D1,Assis Chateaubriand/PR,-24.4054826,-53.5120468,90,269.94601
1,Assis/SP,-22.6620892,-50.420623,10051,9564.45612
D1,Assis/SP,-22.6620892,-50.420623,336,319.73508
1,Assunção do Piauí/PI,-5.8610212,-41.0485091,320,4069.69350
D1,Assunção do Piauí/PI,-5.8610212,-41.0485091,8,101.74234
1,Assunção/PB,-7.073396,-36.7274003,385,9555.72102
D1,Assunção/PB,-7.073396,-36.7274003,4,99.28022
1,Astolfo Dutra/MG,-21.3132636,-42.8624102,1289,9032.93623
D1,Astolfo Dutra/MG,-21.3132636,-42.8624102,22,154.16959
1,Astorga/PR,-23.2350184,-51.6647074,2710,10339.95956
D1,Astorga/PR,-23.2350184,-51.6647074,70,267.08383
1,Atalaia do Norte/AM,-4.3658547,-70.1908742,2775,13604.27493
D1,Atalaia do Norte/AM,-4.3658547,-70.1908742,8,39.21953
1,Atalaia/AL,-9.5029595,-36.0219316,1137,2400.50670
D1,Atalaia/AL,-9.5029595,-36.0219316,46,97.11813
1,Atalaia/PR,-23.1513833,-52.0529697,390,10048.95645
D1,Atalaia/PR,-23.1513833,-52.0529697,17,438.03144
1,Atalanta/SC,-27.421916,-49.778863,418,13082.94210
D1,Atalanta/SC,-27.421916,-49.778863,11,344.28795
1,Ataléia/MG,-18.04432,-41.1110524,1085,8558.13220
D1,Ataléia/MG,-18.04432,-41.1110524,8,63.10144
1,Atibaia/SP,-23.1177393,-46.5547861,10049,6974.21020
D1,Atibaia/SP,-23.1177393,-46.5547861,235,163.09478
1,Atilio Vivacqua/ES,-20.9139369,-41.1947519,1452,11995.04337
D1,Atilio Vivacqua/ES,-20.9139369,-41.1947519,27,223.04833
1,Augustinópolis/TO,-5.4662267,-47.8897519,1450,7777.71818
D1,Augustinópolis/TO,-5.4662267,-47.8897519,27,144.82648
1,Augusto Corrêa/PA,-1.0229335,-46.6404029,1988,4277.93678
D1,Augusto Corrêa/PA,-1.0229335,-46.6404029,43,92.53083
1,Augusto Pestana/RS,-28.5148413,-53.9906433,727,11011.81460
D1,Augusto Pestana/RS,-28.5148413,-53.9906433,11,166.61618
1,Augusto de Lima/MG,-18.1092963,-44.2651945,259,5339.10534
D1,Augusto de Lima/MG,-18.1092963,-44.2651945,8,164.91445
1,Aurelino Leal/BA,-14.3167137,-39.3256107,935,8275.06859
D1,Aurelino Leal/BA,-14.3167137,-39.3256107,26,230.10886
1,Auriflama/SP,-20.6840418,-50.5554616,1802,11814.06936
D1,Auriflama/SP,-20.6840418,-50.5554616,65,426.14568
1,Aurilândia/GO,-16.6772599,-50.4641231,188,6147.80903
D1,Aurilândia/GO,-16.6772599,-50.4641231,7,228.90778
1,Aurora do Pará/PA,-2.1323199,-47.558436,1473,4636.01171
D1,Aurora do Pará/PA,-2.1323199,-47.558436,14,44.06257
1,Aurora do Tocantins/TO,-12.71045,-46.407604,185,4890.29870
D1,Aurora do Tocantins/TO,-12.71045,-46.407604,5,132.17024
1,Aurora/CE,-6.9426019,-38.9693765,1587,6448.59813
D1,Aurora/CE,-6.9426019,-38.9693765,35,142.21861
1,Aurora/SC,-27.3166417,-49.6368502,789,13883.51223
D1,Aurora/SC,-27.3166417,-49.6368502,14,246.34876
1,Autazes/AM,-3.5833283,-59.1301518,2867,7115.90966
D1,Autazes/AM,-3.5833283,-59.1301518,94,233.30851
1,Avanhandava/SP,-21.4603331,-49.9465156,847,6111.55206
D1,Avanhandava/SP,-21.4603331,-49.9465156,29,209.25031
1,Avaré/SP,-23.1045215,-48.9259103,8972,9834.26868
D1,Avaré/SP,-23.1045215,-48.9259103,203,222.50965
1,Avaí/SP,-22.1564662,-49.3316395,355,6530.53716
D1,Avaí/SP,-22.1564662,-49.3316395,11,202.35467
1,Aveiro/PA,-3.6049239,-55.3310742,630,3840.52670
D1,Aveiro/PA,-3.6049239,-55.3310742,12,73.15289
1,Avelino Lopes/PI,-10.1346855,-43.9489525,375,3310.96592
D1,Avelino Lopes/PI,-10.1346855,-43.9489525,19,167.75561
1,Avelinópolis/GO,-16.4672409,-49.7578661,278,11540.05812
D1,Avelinópolis/GO,-16.4672409,-49.7578661,12,498.13200
1,Axixá do Tocantins/TO,-5.612747,-47.77007,1019,10411.77072
D1,Axixá do Tocantins/TO,-5.612747,-47.77007,17,173.69981
1,Axixá/MA,-2.8379465,-44.0561053,191,1567.75835
D1,Axixá/MA,-2.8379465,-44.0561053,6,49.24895
1,Açailândia/MA,-4.9514278,-47.4844564,5164,4565.02329
D1,Açailândia/MA,-4.9514278,-47.4844564,200,176.80183
1,Açu/RN,-5.5836157,-36.9139541,6075,10405.24801
D1,Açu/RN,-5.5836157,-36.9139541,138,236.36613
1,Açucena/MG,-19.073056,-42.546666,742,7920.58070
D1,Açucena/MG,-19.073056,-42.546666,28,298.88984
1,Babaçulândia/TO,-7.2034355,-47.761613,768,7200.45003
D1,Babaçulândia/TO,-7.2034355,-47.761613,5,46.87793
1,Bacabal/MA,-4.2318132,-44.781167,4905,4680.79015
D1,Bacabal/MA,-4.2318132,-44.781167,171,163.18351
1,Bacabeira/MA,-2.9775747,-44.3155943,321,1860.65384
D1,Bacabeira/MA,-2.9775747,-44.3155943,6,34.77858
1,Bacuri/MA,-1.728894,-45.1417148,549,2943.06851
D1,Bacuri/MA,-1.728894,-45.1417148,4,21.44312
1,Bacurituba/MA,-2.7082587,-44.7381309,117,2063.49206
D1,Bacurituba/MA,-2.7082587,-44.7381309,1,17.63668
1,Bady Bassitt/SP,-20.9178969,-49.4517911,3006,16924.72271
D1,Bady Bassitt/SP,-20.9178969,-49.4517911,68,382.86133
1,Baependi/MG,-21.959162,-44.8899249,1383,7203.50018
D1,Baependi/MG,-21.959162,-44.8899249,13,67.71186
1,Bagre/PA,-1.8994498,-50.2103844,908,2898.64326
D1,Bagre/PA,-1.8994498,-50.2103844,12,38.30806
1,Bagé/RS,-31.3314264,-54.1062808,9491,7822.14530
D1,Bagé/RS,-31.3314264,-54.1062808,260,214.28277
1,Baianópolis/BA,-12.3067564,-44.5383591,807,5793.66789
D1,Baianópolis/BA,-12.3067564,-44.5383591,11,78.97193
1,Baixa Grande do Ribeiro/PI,-7.862861,-45.2113289,2364,20255.33373
D1,Baixa Grande do Ribeiro/PI,-7.862861,-45.2113289,27,231.34264
1,Baixa Grande/BA,-11.9630941,-40.1657537,707,3457.38178
D1,Baixa Grande/BA,-11.9630941,-40.1657537,11,53.79236
1,Baixio/CE,-6.7303544,-38.7170095,498,7900.99952
D1,Baixio/CE,-6.7303544,-38.7170095,11,174.52007
1,Baixo Guandu/ES,-19.5138322,-41.0182089,3386,10876.26879
D1,Baixo Guandu/ES,-19.5138322,-41.0182089,71,228.06116
1,Baião/PA,-2.7903479,-49.6702845,737,1520.87332
D1,Baião/PA,-2.7903479,-49.6702845,34,70.16241
1,Balbinos/SP,-21.9006253,-49.3583966,340,5729.69329
D1,Balbinos/SP,-21.9006253,-49.3583966,4,67.40816
1,Baldim/MG,-19.2913568,-43.9558262,600,7689.35025
D1,Baldim/MG,-19.2913568,-43.9558262,19,243.49609
1,Baliza/GO,-16.1978119,-52.542789,295,5587.12121
D1,Baliza/GO,-16.1978119,-52.542789,7,132.57576
1,Balneário Arroio do Silva/SC,-28.9815269,-49.4189932,1972,14683.54430
D1,Balneário Arroio do Silva/SC,-28.9815269,-49.4189932,54,402.08488
1,Balneário Barra do Sul/SC,-26.459842,-48.6061471,1379,12496.60172
D1,Balneário Barra do Sul/SC,-26.459842,-48.6061471,38,344.35886
1,Balneário Camboriú/SC,-26.9924395,-48.6339782,23678,16240.50043
D1,Balneário Camboriú/SC,-26.9924395,-48.6339782,355,243.49091
1,Balneário Gaivota/SC,-29.1553098,-49.5808712,1220,10834.81350
D1,Balneário Gaivota/SC,-29.1553098,-49.5808712,32,284.19183
1,Balneário Pinhal/RS,-30.2482978,-50.234585,676,4706.53763
D1,Balneário Pinhal/RS,-30.2482978,-50.234585,42,292.41802
1,Balneário Piçarras/SC,-26.7638889,-48.6716667,4522,19022.37927
D1,Balneário Piçarras/SC,-26.7638889,-48.6716667,47,197.71159
1,Balneário Rincão/SC,-28.8235718,-49.2241642,1326,10242.54596
D1,Balneário Rincão/SC,-28.8235718,-49.2241642,40,308.97575
1,Balsa Nova/PR,-25.5842234,-49.6312741,1462,11167.12496
D1,Balsa Nova/PR,-25.5842234,-49.6312741,27,206.23281
1,Balsas/MA,-7.53214,-46.037163,9592,9999.06181
D1,Balsas/MA,-7.53214,-46.037163,178,185.55390
1,Bambuí/MG,-20.0131996,-45.9777034,1507,6305.96703
D1,Bambuí/MG,-20.0131996,-45.9777034,24,100.42681
1,Banabuiú/CE,-5.3046404,-38.919766,1899,10402.05960
D1,Banabuiú/CE,-5.3046404,-38.919766,19,104.07537
1,Bananal/SP,-22.6828195,-44.3221095,954,8678.24980
D1,Bananal/SP,-22.6828195,-44.3221095,3,27.29009
1,Bananeiras/PB,-6.7537682,-35.6338343,1262,5933.51827
D1,Bananeiras/PB,-6.7537682,-35.6338343,23,108.13861
1,Bandeira do Sul/MG,-21.728056,-46.385555,463,8013.15334
D1,Bandeira do Sul/MG,-21.728056,-46.385555,11,190.37729
1,Bandeira/MG,-15.884444,-40.559167,454,9525.80781
D1,Bandeira/MG,-15.884444,-40.559167,9,188.83760
1,Bandeirante/SC,-26.7677402,-53.6397596,328,12386.70695
D1,Bandeirante/SC,-26.7677402,-53.6397596,3,113.29305
1,Bandeirantes do Tocantins/TO,-7.7635698,-48.579148,458,12750.55679
D1,Bandeirantes do Tocantins/TO,-7.7635698,-48.579148,7,194.87751
1,Bandeirantes/MS,-19.9179623,-54.3646768,549,7555.73906
D1,Bandeirantes/MS,-19.9179623,-54.3646768,10,137.62731
1,Bandeirantes/PR,-23.107788,-50.370407,4465,14305.85371
D1,Bandeirantes/PR,-23.107788,-50.370407,116,371.66384
1,Bannach/PA,-7.3508505,-50.4064531,641,19650.52115
D1,Bannach/PA,-7.3508505,-50.4064531,3,91.96812
1,Banzaê/BA,-10.5827616,-38.6122305,1037,7832.32628
D1,Banzaê/BA,-10.5827616,-38.6122305,8,60.42296
1,Baraúna/PB,-6.643394,-36.2531932,652,13134.56890
D1,Baraúna/PB,-6.643394,-36.2531932,9,181.30540
1,Baraúna/RN,-5.0775002,-37.61752,1099,3823.00762
D1,Baraúna/RN,-5.0775002,-37.61752,23,80.00835
1,Barbacena/MG,-21.2254524,-43.7735087,7499,5426.03687
D1,Barbacena/MG,-21.2254524,-43.7735087,251,181.61558
1,Barbalha/CE,-7.3121067,-39.3036427,6125,10003.59313
D1,Barbalha/CE,-7.3121067,-39.3036427,133,217.22088
1,Barbosa Ferraz/PR,-24.0287182,-52.00811,1072,9382.11097
D1,Barbosa Ferraz/PR,-24.0287182,-52.00811,31,271.31104
1,Barbosa/SP,-21.265661,-49.951816,457,6119.44296
D1,Barbosa/SP,-21.265661,-49.951816,12,160.68559
1,Barcarena/PA,-1.5107945,-48.6190679,10918,8595.02311
D1,Barcarena/PA,-1.5107945,-48.6190679,213,167.68089
1,Barcelona/RN,-5.9514918,-35.9260284,102,2553.83075
D1,Barcelona/RN,-5.9514918,-35.9260284,4,100.15023
1,Barcelos/AM,-0.9729214,-62.925635,4278,15478.68876
D1,Barcelos/AM,-0.9729214,-62.925635,59,213.47420
1,Bariri/SP,-22.0746355,-48.7394852,2520,7087.01277
D1,Bariri/SP,-22.0746355,-48.7394852,106,298.10451
1,Barra Bonita/SC,-26.6526364,-53.4419581,173,10478.49788
D1,Barra Bonita/SC,-26.6526364,-53.4419581,2,121.13870
1,Barra Bonita/SP,-22.490859,-48.558349,3013,8340.25356
D1,Barra Bonita/SP,-22.490859,-48.558349,84,232.51952
1,Barra D'Alcântara/PI,-6.5209258,-42.1071089,130,3289.47368
D1,Barra D'Alcântara/PI,-6.5209258,-42.1071089,4,101.21457
1,Barra Funda/RS,-27.9230048,-53.0401045,557,21834.57468
D1,Barra Funda/RS,-27.9230048,-53.0401045,12,470.40376
1,Barra Longa/MG,-20.2833541,-43.0423516,374,7457.62712
D1,Barra Longa/MG,-20.2833541,-43.0423516,9,179.46162
1,Barra Mansa/RJ,-22.5394843,-44.1735129,14959,8093.25175
D1,Barra Mansa/RJ,-22.5394843,-44.1735129,560,302.97620
1,Barra Velha/SC,-26.6338203,-48.6835001,3961,13265.23778
D1,Barra Velha/SC,-26.6338203,-48.6835001,91,304.75553
1,Barra da Estiva/BA,-13.6269662,-41.3278287,2209,10832.67948
D1,Barra da Estiva/BA,-13.6269662,-41.3278287,21,102.98156
1,Barra de Guabiraba/PE,-8.4173522,-35.6626669,361,2487.93935
D1,Barra de Guabiraba/PE,-8.4173522,-35.6626669,15,103.37698
1,Barra de Santa Rosa/PB,-6.7218007,-36.0564638,1512,9756.72711
D1,Barra de Santa Rosa/PB,-6.7218007,-36.0564638,11,70.98148
1,Barra de Santana/PB,-7.5230865,-35.9988518,455,5449.75446
D1,Barra de Santana/PB,-7.5230865,-35.9988518,6,71.86489
1,Barra de Santo Antônio/AL,-9.4038098,-35.5117693,421,2620.11451
D1,Barra de Santo Antônio/AL,-9.4038098,-35.5117693,26,161.81230
1,Barra de São Francisco/ES,-18.7570902,-40.8916119,4626,10284.79957
D1,Barra de São Francisco/ES,-18.7570902,-40.8916119,190,422.41935
1,Barra de São Miguel/AL,-9.8261357,-35.8837777,519,6194.79589
D1,Barra de São Miguel/AL,-9.8261357,-35.8837777,7,83.55216
1,Barra de São Miguel/PB,-7.7528088,-36.3170996,502,8276.99918
D1,Barra de São Miguel/PB,-7.7528088,-36.3170996,7,115.41632
1,Barra do Bugres/MT,-15.0683712,-57.1853688,2866,8117.37049
D1,Barra do Bugres/MT,-15.0683712,-57.1853688,69,195.42867
1,Barra do Chapéu/SP,-24.472203,-49.023784,283,4913.19444
D1,Barra do Chapéu/SP,-24.472203,-49.023784,2,34.72222
1,Barra do Choça/BA,-14.8638173,-40.5761637,1992,6382.77420
D1,Barra do Choça/BA,-14.8638173,-40.5761637,28,89.71771
1,Barra do Corda/MA,-5.496823,-45.248496,5668,6405.09877
D1,Barra do Corda/MA,-5.496823,-45.248496,56,63.28256
1,Barra do Garças/MT,-15.8916033,-52.2615413,7801,12760.28462
D1,Barra do Garças/MT,-15.8916033,-52.2615413,273,446.55271
1,Barra do Guarita/RS,-27.1888016,-53.7147086,111,3408.04421
D1,Barra do Guarita/RS,-27.1888016,-53.7147086,7,214.92171
1,Barra do Jacaré/PR,-23.1151788,-50.1813945,203,7299.53254
D1,Barra do Jacaré/PR,-23.1151788,-50.1813945,1,35.95829
1,Barra do Mendes/BA,-11.8053298,-42.057037,694,5016.98836
D1,Barra do Mendes/BA,-11.8053298,-42.057037,12,86.74908
1,Barra do Ouro/TO,-7.7113784,-47.6743925,141,3044.04145
D1,Barra do Ouro/TO,-7.7113784,-47.6743925,6,129.53368
1,Barra do Piraí/RJ,-22.4703403,-43.8263256,5908,5863.20511
D1,Barra do Piraí/RJ,-22.4703403,-43.8263256,345,342.38418
1,Barra do Quaraí/RS,-30.208947,-57.5505128,400,9462.97611
D1,Barra do Quaraí/RS,-30.208947,-57.5505128,6,141.94464
1,Barra do Ribeiro/RS,-30.2930206,-51.301437,1025,7561.22750
D1,Barra do Ribeiro/RS,-30.2930206,-51.301437,47,346.70994
1,Barra do Rio Azul/RS,-27.4101581,-52.4117471,97,5861.02719
D1,Barra do Rio Azul/RS,-27.4101581,-52.4117471,1,60.42296
1,Barra do Rocha/BA,-14.2090974,-39.6004395,414,7377.04918
D1,Barra do Rocha/BA,-14.2090974,-39.6004395,7,124.73272
1,Barra do Turvo/SP,-24.756421,-48.5056942,565,7403.03983
D1,Barra do Turvo/SP,-24.756421,-48.5056942,18,235.84906
1,Barra dos Coqueiros/SE,-10.9075694,-37.0386249,6686,21616.55351
D1,Barra dos Coqueiros/SE,-10.9075694,-37.0386249,86,278.04720
1,Barra/BA,-11.0892702,-43.1420453,2053,3808.19885
D1,Barra/BA,-11.0892702,-43.1420453,43,79.76257
1,Barracão/PR,-26.252395,-53.6349576,1143,11084.17378
D1,Barracão/PR,-26.252395,-53.6349576,32,310.31808
1,Barracão/RS,-27.6728964,-51.4582928,438,8333.33333
D1,Barracão/RS,-27.6728964,-51.4582928,16,304.41400
1,Barras/PI,-4.2446153,-42.2920241,4742,10049.80396
D1,Barras/PI,-4.2446153,-42.2920241,88,186.49995
1,Barreira/CE,-4.2883361,-38.641094,1434,6352.72228
D1,Barreira/CE,-4.2883361,-38.641094,39,172.77278
1,Barreiras do Piauí/PI,-9.9224524,-45.4763776,70,2088.30549
D1,Barreiras do Piauí/PI,-9.9224524,-45.4763776,1,29.83294
1,Barreiras/BA,-12.1440031,-44.9967406,17548,11178.85014
D1,Barreiras/BA,-12.1440031,-44.9967406,288,183.46871
1,Barreirinha/AM,-2.798863,-57.067897,2387,7348.45919
D1,Barreirinha/AM,-2.798863,-57.067897,62,190.86907
1,Barreirinhas/MA,-2.7541271,-42.8259693,2064,3264.94456
D1,Barreirinhas/MA,-2.7541271,-42.8259693,36,56.94671
1,Barreiros/PE,-8.8159644,-35.1831905,758,1772.51894
D1,Barreiros/PE,-8.8159644,-35.1831905,59,137.96651
1,Barretos/SP,-20.5531437,-48.5697509,13563,11041.82101
D1,Barretos/SP,-20.5531437,-48.5697509,399,324.83127
1,Barrinha/SP,-21.1898849,-48.1550642,1482,4466.54611
D1,Barrinha/SP,-21.1898849,-48.1550642,58,174.80410
1,Barro Alto/BA,-11.7618025,-41.9094904,851,5652.98260
D1,Barro Alto/BA,-11.7618025,-41.9094904,12,79.71303
1,Barro Alto/GO,-14.9696025,-48.9190985,1269,11123.77279
D1,Barro Alto/GO,-14.9696025,-48.9190985,16,140.25245
1,Barro Duro/PI,-5.8180139,-42.5106589,682,9705.42194
D1,Barro Duro/PI,-5.8180139,-42.5106589,11,156.53906
1,Barro Preto/BA,-14.8068289,-39.4727588,580,10646.10866
D1,Barro Preto/BA,-14.8068289,-39.4727588,10,183.55360
1,Barro/CE,-7.1713587,-38.7742136,1654,7267.77397
D1,Barro/CE,-7.1713587,-38.7742136,33,145.00395
1,Barrocas/BA,-11.5165,-39.099282894736845,736,4570.00931
D1,Barrocas/BA,-11.5165,-39.099282894736845,23,142.81279
1,Barrolândia/TO,-9.837246,-48.7264346,745,13183.50734
D1,Barrolândia/TO,-9.837246,-48.7264346,20,353.91966
1,Barroquinha/CE,-3.0200371,-41.1339229,1173,7797.12842
D1,Barroquinha/CE,-3.0200371,-41.1339229,25,166.17921
1,Barros Cassal/RS,-29.094938,-52.5832366,676,6045.43016
D1,Barros Cassal/RS,-29.094938,-52.5832366,12,107.31533
1,Barroso/MG,-21.187222,-43.976111,1764,8441.40307
D1,Barroso/MG,-21.187222,-43.976111,47,224.91267
1,Barueri/SP,-23.5112184,-46.8764612,27465,9915.80680
D1,Barueri/SP,-23.5112184,-46.8764612,982,354.53567
1,Barão de Antonina/SP,-23.6295651,-49.5632104,368,10520.29731
D1,Barão de Antonina/SP,-23.6295651,-49.5632104,8,228.70212
1,Barão de Cocais/MG,-19.9452437,-43.4870298,3521,10713.19905
D1,Barão de Cocais/MG,-19.9452437,-43.4870298,60,182.55948
1,Barão de Cotegipe/RS,-27.6214694,-52.3765316,709,10709.96979
D1,Barão de Cotegipe/RS,-27.6214694,-52.3765316,7,105.74018
1,Barão de Grajaú/MA,-6.7542591,-43.0263477,425,2245.82541
D1,Barão de Grajaú/MA,-6.7542591,-43.0263477,2,10.56859
1,Barão de Melgaço/MT,-16.195776,-55.9668049,356,4360.60755
D1,Barão de Melgaço/MT,-16.195776,-55.9668049,14,171.48457
1,Barão de Monte Alto/MG,-21.244722,-42.2375,326,6088.90549
D1,Barão de Monte Alto/MG,-21.244722,-42.2375,12,224.13149
1,Barão do Triunfo/RS,-30.3909877,-51.7375349,443,5891.74092
D1,Barão do Triunfo/RS,-30.3909877,-51.7375349,6,79.79785
1,Barão/RS,-29.372474,-51.494908,586,9448.56498
D1,Barão/RS,-29.372474,-51.494908,8,128.99065
1,Bastos/SP,-21.9222474,-50.7317727,1288,6147.09111
D1,Bastos/SP,-21.9222474,-50.7317727,34,162.26793
1,Bataguassu/MS,-21.715899,-52.422058,2992,12827.43837
D1,Bataguassu/MS,-21.715899,-52.422058,35,150.05359
1,Batalha/AL,-9.6733809,-37.1265481,1072,5845.78471
D1,Batalha/AL,-9.6733809,-37.1265481,15,81.79736
1,Batalha/PI,-4.022391,-42.0780926,1041,3869.16930
D1,Batalha/PI,-4.022391,-42.0780926,31,115.22022
1,Batatais/SP,-20.892867,-47.592149,2792,4433.15338
D1,Batatais/SP,-20.892867,-47.592149,138,219.11718
1,Batayporã/MS,-22.2976466,-53.2685608,993,8749.66957
D1,Batayporã/MS,-22.2976466,-53.2685608,17,149.79293
1,Baturité/CE,-4.3290203,-38.8821055,3896,10839.98776
D1,Baturité/CE,-4.3290203,-38.8821055,73,203.11065
1,Bauru/SP,-22.3218102,-49.0705863,43084,11358.90872
D1,Bauru/SP,-22.3218102,-49.0705863,972,256.26356
1,Bayeux/PB,-7.1301631,-34.936532,6912,7110.89164
D1,Bayeux/PB,-7.1301631,-34.936532,231,237.64699
1,Baía Formosa/RN,-6.3691885,-35.0063741,341,3658.01330
D1,Baía Formosa/RN,-6.3691885,-35.0063741,8,85.81849
1,Baía da Traição/PB,-6.691258,-34.9371244,1265,13907.21196
D1,Baía da Traição/PB,-6.691258,-34.9371244,12,131.92612
1,Bebedouro/SP,-20.949077,-48.479083,3636,4688.28573
D1,Bebedouro/SP,-20.949077,-48.479083,142,183.09587
1,Beberibe/CE,-4.1810469,-38.1298101,4663,8643.34835
D1,Beberibe/CE,-4.1810469,-38.1298101,98,181.65304
1,Bela Cruz/CE,-3.0529129,-40.167582,3315,10130.79885
D1,Bela Cruz/CE,-3.0529129,-40.167582,69,210.86731
1,Bela Vista da Caroba/PR,-25.8792818,-53.6672545,171,4946.48539
D1,Bela Vista da Caroba/PR,-25.8792818,-53.6672545,6,173.56089
1,Bela Vista de Goiás/GO,-16.9692949,-48.9513071,2384,7818.44418
D1,Bela Vista de Goiás/GO,-16.9692949,-48.9513071,64,209.89112
1,Bela Vista de Minas/MG,-19.8289721,-43.0973688,771,7513.15533
D1,Bela Vista de Minas/MG,-19.8289721,-43.0973688,22,214.38316
1,Bela Vista do Maranhão/MA,-3.7416367,-45.2514192,213,1888.46529
D1,Bela Vista do Maranhão/MA,-3.7416367,-45.2514192,17,150.72258
1,Bela Vista do Paraíso/PR,-22.9948493,-51.1907996,1772,11507.24073
D1,Bela Vista do Paraíso/PR,-22.9948493,-51.1907996,60,389.63569
1,Bela Vista do Piauí/PI,-7.9716353,-41.8715061,261,6476.42680
D1,Bela Vista do Piauí/PI,-7.9716353,-41.8715061,6,148.88337
1,Bela Vista do Toldo/SC,-26.274625,-50.466354,79,1241.74788
D1,Bela Vista do Toldo/SC,-26.274625,-50.466354,3,47.15498
1,Bela Vista/MS,-22.107327,-56.5317344,942,3808.36871
D1,Bela Vista/MS,-22.107327,-56.5317344,28,113.19992
1,Belford Roxo/RJ,-22.7667284,-43.4033603,20213,3939.24984
D1,Belford Roxo/RJ,-22.7667284,-43.4033603,681,132.71801
1,Belmiro Braga/MG,-21.9486291,-43.413564,197,5751.82482
D1,Belmiro Braga/MG,-21.9486291,-43.413564,3,87.59124
1,Belmonte/BA,-15.8630837,-38.8792845,1032,4403.29394
D1,Belmonte/BA,-15.8630837,-38.8792845,22,93.86867
1,Belmonte/SC,-26.8448262,-53.578916,249,9191.58361
D1,Belmonte/SC,-26.8448262,-53.578916,5,184.56995
1,Belo Campo/BA,-15.0338286,-41.2585109,809,4728.50546
D1,Belo Campo/BA,-15.0338286,-41.2585109,14,81.82828
1,Belo Horizonte/MG,-19.9227318,-43.9450948,222386,8819.36766
D1,Belo Horizonte/MG,-19.9227318,-43.9450948,5443,215.85809
1,Belo Jardim/PE,-8.3338293,-36.4176419,3527,4599.21499
D1,Belo Jardim/PE,-8.3338293,-36.4176419,108,140.83221
1,Belo Monte/AL,-9.8269944,-37.2787165,357,5320.41729
D1,Belo Monte/AL,-9.8269944,-37.2787165,9,134.12817
1,Belo Oriente/MG,-19.2232523,-42.4807033,2529,9368.74861
D1,Belo Oriente/MG,-19.2232523,-42.4807033,60,222.27162
1,Belo Vale/MG,-20.407778,-44.024167,810,10493.58725
D1,Belo Vale/MG,-20.407778,-44.024167,10,129.55046
1,Belterra/PA,-2.636091,-54.937392,1423,7976.90454
D1,Belterra/PA,-2.636091,-54.937392,24,134.53669
1,Belágua/MA,-3.1604031,-43.5085052,400,5313.49628
D1,Belágua/MA,-3.1604031,-43.5085052,3,39.85122
1,Belém de Maria/PE,-8.6242497,-35.8388934,247,2037.61755
D1,Belém de Maria/PE,-8.6242497,-35.8388934,6,49.49678
1,Belém do Brejo do Cruz/PB,-6.1880727,-37.5332267,506,6885.29052
D1,Belém do Brejo do Cruz/PB,-6.1880727,-37.5332267,5,68.03647
1,Belém do Piauí/PI,-7.3767305,-40.9712156,454,12656.81628
D1,Belém do Piauí/PI,-7.3767305,-40.9712156,7,195.14915
1,Belém do São Francisco/PE,-8.7517707,-38.9625715,656,3164.49590
D1,Belém do São Francisco/PE,-8.7517707,-38.9625715,10,48.23927
1,Belém/AL,-9.5715351,-36.492841,113,2637.72176
D1,Belém/AL,-9.5715351,-36.492841,4,93.37068
1,Belém/PA,-1.45056,-48.4682453,101656,6778.68903
D1,Belém/PA,-1.45056,-48.4682453,4867,324.54434
1,Belém/PB,-6.6967586,-35.5369626,2027,11448.74329
D1,Belém/PB,-6.6967586,-35.5369626,43,242.86925
1,Beneditinos/PI,-5.4565671,-42.3605061,1139,10875.58484
D1,Beneditinos/PI,-5.4565671,-42.3605061,36,343.74105
1,Benedito Leite/MA,-7.2173453,-44.5523331,296,5250.08868
D1,Benedito Leite/MA,-7.2173453,-44.5523331,2,35.47357
1,Benedito Novo/SC,-26.7840657,-49.3629511,983,8348.19533
D1,Benedito Novo/SC,-26.7840657,-49.3629511,18,152.86624
1,Benevides/PA,-1.3555577,-48.252235,3844,6028.10187
D1,Benevides/PA,-1.3555577,-48.252235,100,156.81847
1,Benjamin Constant do Sul/RS,-27.5105555,-52.6007689,155,7916.24106
1,Benjamin Constant/AM,-4.3782748,-70.0290603,2691,6124.95732
D1,Benjamin Constant/AM,-4.3782748,-70.0290603,87,198.01980
1,Bento Fernandes/RN,-5.6926846,-35.8207423,148,2678.73303
D1,Bento Fernandes/RN,-5.6926846,-35.8207423,3,54.29864
1,Bento Gonçalves/RS,-29.1654014,-51.5197627,17117,14053.02004
D1,Bento Gonçalves/RS,-29.1654014,-51.5197627,297,243.83636
1,Bento de Abreu/SP,-21.2707225,-50.8120444,301,10016.63894
1,Bequimão/MA,-2.4495376,-44.7884889,276,1295.83549
D1,Bequimão/MA,-2.4495376,-44.7884889,18,84.51101
1,Berilo/MG,-16.9515764,-42.4643732,145,1221.36119
D1,Berilo/MG,-16.9515764,-42.4643732,1,8.42318
1,Berizal/MG,-15.6118785,-41.7417382,163,3421.49454
D1,Berizal/MG,-15.6118785,-41.7417382,1,20.99076
1,Bernardino Batista/PB,-6.4532173,-38.5495418,251,7098.41629
1,Bernardino de Campos/SP,-23.0140216,-49.4760724,637,5708.90841
D1,Bernardino de Campos/SP,-23.0140216,-49.4760724,17,152.35705
1,Bernardo Sayão/TO,-7.8794244,-48.8968905,538,12095.32374
D1,Bernardo Sayão/TO,-7.8794244,-48.8968905,6,134.89209
1,Bernardo do Mearim/MA,-4.6315929,-44.7617508,292,4808.16730
D1,Bernardo do Mearim/MA,-4.6315929,-44.7617508,6,98.79796
1,Bertioga/SP,-23.848568,-46.139586,5327,8230.45903
D1,Bertioga/SP,-23.848568,-46.139586,143,220.94155
1,Bertolínia/PI,-7.6372159,-43.9540611,847,15380.42491
D1,Bertolínia/PI,-7.6372159,-43.9540611,10,181.58707
1,Bertópolis/MG,-17.063333,-40.573889,337,7314.95550
1,Beruri/AM,-3.9007135,-61.3717319,2213,11013.78590
D1,Beruri/AM,-3.9007135,-61.3717319,32,159.25944
1,Betim/MG,-19.968056,-44.198333,28598,6429.63776
D1,Betim/MG,-19.968056,-44.198333,1123,252.48210
1,Betânia do Piauí/PI,-8.1460635,-40.7961387,157,2528.18035
D1,Betânia do Piauí/PI,-8.1460635,-40.7961387,2,32.20612
1,Betânia/PE,-8.2742779,-38.0351767,468,3666.27497
D1,Betânia/PE,-8.2742779,-38.0351767,13,101.84097
1,Bezerros/PE,-8.2372132,-35.7558262,3732,6130.09198
D1,Bezerros/PE,-8.2372132,-35.7558262,113,185.61104
1,Bias Fortes/MG,-21.605833,-43.756944,111,3334.33464
D1,Bias Fortes/MG,-21.605833,-43.756944,3,90.11715
1,Bicas/MG,-21.7213723,-43.0604327,1372,9426.96166
D1,Bicas/MG,-21.7213723,-43.0604327,43,295.45142
1,Biguaçu/SC,-27.4961277,-48.6542432,10753,15475.05972
D1,Biguaçu/SC,-27.4961277,-48.6542432,160,230.26221
1,Bilac/SP,-21.403962,-50.47464,828,10200.81311
D1,Bilac/SP,-21.403962,-50.47464,13,160.15769
1,Biquinhas/MG,-18.783611,-45.502222,118,4723.77902
D1,Biquinhas/MG,-18.783611,-45.502222,1,40.03203
1,Birigui/SP,-21.2908491,-50.34144,13687,10959.85843
D1,Birigui/SP,-21.2908491,-50.34144,472,377.95376
1,Biritiba Mirim/SP,-23.5697765,-46.0407456,1310,3977.41074
D1,Biritiba Mirim/SP,-23.5697765,-46.0407456,83,252.00389
1,Biritinga/BA,-11.6227908,-38.8066738,469,2934.18418
D1,Biritinga/BA,-11.6227908,-38.8066738,7,43.79379
1,Bituruna/PR,-26.161281,-51.5533319,1070,6524.39024
D1,Bituruna/PR,-26.161281,-51.5533319,15,91.46341
1,Blumenau/SC,-26.9195567,-49.0658025,49399,13651.60078
D1,Blumenau/SC,-26.9195567,-49.0658025,549,151.71823
1,Boa Esperança do Iguaçu/PR,-25.6362851,-53.2139114,144,5829.95951
1,Boa Esperança do Sul/SP,-21.9930206,-48.3917372,1000,6658.67626
D1,Boa Esperança do Sul/SP,-21.9930206,-48.3917372,17,113.19750
1,Boa Esperança/ES,-18.5395472,-40.2904088,1520,10071.56109
D1,Boa Esperança/ES,-18.5395472,-40.2904088,39,258.41505
1,Boa Esperança/MG,-21.0901253,-45.5660195,3872,9627.29058
D1,Boa Esperança/MG,-21.0901253,-45.5660195,103,256.09786
1,Boa Esperança/PR,-24.2411024,-52.7860277,378,9340.25204
D1,Boa Esperança/PR,-24.2411024,-52.7860277,15,370.64492
1,Boa Hora/PI,-4.4094627,-42.1255341,547,8026.41233
D1,Boa Hora/PI,-4.4094627,-42.1255341,6,88.04109
1,Boa Nova/BA,-14.365907,-40.2063056,853,6918.64709
D1,Boa Nova/BA,-14.365907,-40.2063056,15,121.66437
1,Boa Ventura de São Roque/PR,-24.88177,-51.5441292,421,6614.29694
D1,Boa Ventura de São Roque/PR,-24.88177,-51.5441292,5,78.55460
1,Boa Ventura/PB,-7.4202462,-38.2156782,383,7216.88336
D1,Boa Ventura/PB,-7.4202462,-38.2156782,8,150.74430
1,Boa Viagem/CE,-5.1261877,-39.7300055,3807,6975.46586
D1,Boa Viagem/CE,-5.1261877,-39.7300055,94,172.23372
1,Boa Vista da Aparecida/PR,-25.4357216,-53.4067721,800,10610.07958
D1,Boa Vista da Aparecida/PR,-25.4357216,-53.4067721,26,344.82759
1,Boa Vista das Missões/RS,-27.6677983,-53.3127622,204,9751.43403
D1,Boa Vista das Missões/RS,-27.6677983,-53.3127622,4,191.20459
1,Boa Vista do Buricá/RS,-27.6687782,-54.1111913,794,11829.55900
D1,Boa Vista do Buricá/RS,-27.6687782,-54.1111913,9,134.08820
1,Boa Vista do Cadeado/RS,-28.5783827,-53.8123759,172,6969.20583
D1,Boa Vista do Cadeado/RS,-28.5783827,-53.8123759,2,81.03728
1,Boa Vista do Gurupi/MA,-1.7981168,-46.3071882,15,178.95490
D1,Boa Vista do Gurupi/MA,-1.7981168,-46.3071882,4,47.72131
1,Boa Vista do Incra/RS,-28.8195551,-53.3866624,248,9480.12232
D1,Boa Vista do Incra/RS,-28.8195551,-53.3866624,4,152.90520
1,Boa Vista do Ramos/AM,-2.9716927,-57.5869819,946,4820.13655
D1,Boa Vista do Ramos/AM,-2.9716927,-57.5869819,11,56.04810
1,Boa Vista do Sul/RS,-29.3510488,-51.6779679,296,10655.14759
D1,Boa Vista do Sul/RS,-29.3510488,-51.6779679,3,107.99136
1,Boa Vista do Tupim/BA,-12.6605988,-40.6083594,254,1370.67616
D1,Boa Vista do Tupim/BA,-12.6605988,-40.6083594,7,37.77454
1,Boa Vista/PB,-7.2620711,-36.2415161,711,9963.56502
D1,Boa Vista/PB,-7.2620711,-36.2415161,11,154.14798
1,Boa Vista/RR,2.8208478,-60.6719582,83034,19786.39444
D1,Boa Vista/RR,2.8208478,-60.6719582,1301,310.01878
1,Boca da Mata/AL,-9.6452054,-36.2116658,1773,6481.21070
D1,Boca da Mata/AL,-9.6452054,-36.2116658,43,157.18672
1,Boca do Acre/AM,-8.7553487,-67.3930873,2599,7503.96997
D1,Boca do Acre/AM,-8.7553487,-67.3930873,24,69.29407
1,Bocaina de Minas/MG,-22.167778,-44.394722,176,3458.43977
D1,Bocaina de Minas/MG,-22.167778,-44.394722,7,137.55158
1,Bocaina do Sul/SC,-27.745494,-49.942279,370,10607.79817
D1,Bocaina do Sul/SC,-27.745494,-49.942279,3,86.00917
1,Bocaina/PI,-6.9445939,-41.3224599,269,5971.14317
D1,Bocaina/PI,-6.9445939,-41.3224599,4,88.79023
1,Bocaina/SP,-22.1421831,-48.522276,1212,9733.37616
D1,Bocaina/SP,-22.1421831,-48.522276,29,232.89431
1,Bocaiúva do Sul/PR,-25.206591,-49.114131,1640,12491.43118
D1,Bocaiúva do Sul/PR,-25.206591,-49.114131,15,114.25089
1,Bocaiúva/MG,-17.1160208,-43.8122678,2163,4303.96371
D1,Bocaiúva/MG,-17.1160208,-43.8122678,55,109.43967
1,Bodocó/PE,-7.777592,-39.933797,1889,4922.09078
D1,Bodocó/PE,-7.777592,-39.933797,29,75.56413
1,Bodoquena/MS,-20.5508775,-56.6769653,447,5702.98546
D1,Bodoquena/MS,-20.5508775,-56.6769653,14,178.61699
1,Bodó/RN,-5.9866104,-36.4134824,153,6964.04188
1,Bofete/SP,-23.1019554,-48.2610535,687,5762.93935
D1,Bofete/SP,-23.1019554,-48.2610535,13,109.05125
1,Boituva/SP,-23.2838893,-47.6738231,5267,8471.93180
D1,Boituva/SP,-23.2838893,-47.6738231,152,244.49091
1,Bom Conselho/PE,-9.169191,-36.685683,1719,3524.92464
D1,Bom Conselho/PE,-9.169191,-36.685683,59,120.98345
1,Bom Despacho/MG,-19.7375242,-45.2517288,4000,7838.83358
D1,Bom Despacho/MG,-19.7375242,-45.2517288,70,137.17959
1,Bom Jardim da Serra/SC,-28.3380324,-49.625588,586,12279.96647
D1,Bom Jardim da Serra/SC,-28.3380324,-49.625588,4,83.82230
1,Bom Jardim de Goiás/GO,-16.2062659,-52.172793,747,8422.59556
D1,Bom Jardim de Goiás/GO,-16.2062659,-52.172793,15,169.12842
1,Bom Jardim de Minas/MG,-21.9476466,-44.1906033,459,7106.36321
D1,Bom Jardim de Minas/MG,-21.9476466,-44.1906033,3,46.44682
1,Bom Jardim/MA,-3.54129,-45.606004,1392,3328.39176
D1,Bom Jardim/MA,-3.54129,-45.606004,47,112.38104
1,Bom Jardim/PE,-7.7961572,-35.5871696,1493,3734.08699
D1,Bom Jardim/PE,-7.7961572,-35.5871696,66,165.07015
1,Bom Jardim/RJ,-22.1515328,-42.4186683,1525,5522.16107
D1,Bom Jardim/RJ,-22.1515328,-42.4186683,41,148.46466
1,Bom Jesus da Lapa/BA,-13.250571,-43.410754,5093,7311.01605
D1,Bom Jesus da Lapa/BA,-13.250571,-43.410754,68,97.61419
1,Bom Jesus da Penha/MG,-21.0165299,-46.5226644,601,14161.16871
D1,Bom Jesus da Penha/MG,-21.0165299,-46.5226644,14,329.87747
1,Bom Jesus da Serra/BA,-14.3724084,-40.5047119,423,4306.22010
D1,Bom Jesus da Serra/BA,-14.3724084,-40.5047119,8,81.44151
1,Bom Jesus das Selvas/MA,-4.4878075,-46.8526639,3081,8913.12524
D1,Bom Jesus das Selvas/MA,-4.4878075,-46.8526639,24,69.43038
1,Bom Jesus de Goiás/GO,-18.2174587,-49.739721,2668,10402.37056
D1,Bom Jesus de Goiás/GO,-18.2174587,-49.739721,104,405.48971
1,Bom Jesus do Amparo/MG,-19.7045132,-43.4752911,213,3473.01484
D1,Bom Jesus do Amparo/MG,-19.7045132,-43.4752911,6,97.83140
1,Bom Jesus do Araguaia/MT,-12.1725897,-51.5074425,991,14777.81092
D1,Bom Jesus do Araguaia/MT,-12.1725897,-51.5074425,16,238.59231
1,Bom Jesus do Galho/MG,-19.8283191,-42.3162256,606,4077.51312
D1,Bom Jesus do Galho/MG,-19.8283191,-42.3162256,26,174.94281
1,Bom Jesus do Itabapoana/RJ,-21.1341025,-41.680095,3165,8507.37844
D1,Bom Jesus do Itabapoana/RJ,-21.1341025,-41.680095,81,217.72438
1,Bom Jesus do Norte/ES,-21.1254776,-41.6711646,1029,10329.25115
D1,Bom Jesus do Norte/ES,-21.1254776,-41.6711646,25,250.95362
1,Bom Jesus do Oeste/SC,-26.6929713,-53.0967453,181,8461.89808
D1,Bom Jesus do Oeste/SC,-26.6929713,-53.0967453,6,280.50491
1,Bom Jesus do Sul/PR,-26.1922507,-53.6002033,404,11523.10325
D1,Bom Jesus do Sul/PR,-26.1922507,-53.6002033,5,142.61266
1,Bom Jesus do Tocantins/PA,-5.0471796,-48.5978362,758,4428.08739
D1,Bom Jesus do Tocantins/PA,-5.0471796,-48.5978362,25,146.04510
1,Bom Jesus do Tocantins/TO,-8.96306,-48.165043,129,2575.87859
D1,Bom Jesus do Tocantins/TO,-8.96306,-48.165043,3,59.90415
1,Bom Jesus dos Perdões/SP,-23.1353864,-46.4648052,1948,7496.63267
D1,Bom Jesus dos Perdões/SP,-23.1353864,-46.4648052,23,88.51260
1,Bom Jesus/PB,-6.8156725,-38.6551841,149,5786.40777
D1,Bom Jesus/PB,-6.8156725,-38.6551841,3,116.50485
1,Bom Jesus/PI,-9.0711644,-44.3583926,3331,13120.88864
D1,Bom Jesus/PI,-9.0711644,-44.3583926,36,141.80486
1,Bom Jesus/RN,-5.9887544,-35.5821149,765,7451.05678
D1,Bom Jesus/RN,-5.9887544,-35.5821149,15,146.09915
1,Bom Jesus/RS,-28.6692723,-50.4346894,844,7463.08250
D1,Bom Jesus/RS,-28.6692723,-50.4346894,19,168.00778
1,Bom Jesus/SC,-26.7350604,-52.3916519,399,13052.01178
D1,Bom Jesus/SC,-26.7350604,-52.3916519,7,228.98266
1,Bom Lugar/MA,-4.3728019,-45.0366054,461,2804.47743
D1,Bom Lugar/MA,-4.3728019,-45.0366054,7,42.58426
1,Bom Princípio do Piauí/PI,-3.1912777,-41.6430185,129,2282.78181
D1,Bom Princípio do Piauí/PI,-3.1912777,-41.6430185,12,212.35180
1,Bom Princípio/RS,-29.489788,-51.3566782,1825,12802.52543
D1,Bom Princípio/RS,-29.489788,-51.3566782,26,182.39214
1,Bom Progresso/RS,-27.5490948,-53.8655601,129,6793.04897
D1,Bom Progresso/RS,-27.5490948,-53.8655601,3,157.97788
1,Bom Repouso/MG,-22.4657069,-46.1485376,904,8579.29202
D1,Bom Repouso/MG,-22.4657069,-46.1485376,19,180.31698
1,Bom Retiro do Sul/RS,-29.6000007,-51.9359243,978,7893.46247
D1,Bom Retiro do Sul/RS,-29.6000007,-51.9359243,28,225.98870
1,Bom Retiro/SC,-27.798993,-49.486994,726,7216.69980
D1,Bom Retiro/SC,-27.798993,-49.486994,15,149.10537
1,Bom Sucesso de Itararé/SP,-24.3190016,-49.1446207,154,3865.46185
D1,Bom Sucesso de Itararé/SP,-24.3190016,-49.1446207,5,125.50201
1,Bom Sucesso do Sul/PR,-26.0749256,-52.8348629,362,11124.76951
D1,Bom Sucesso do Sul/PR,-26.0749256,-52.8348629,7,215.11985
1,Bom Sucesso/MG,-21.0323516,-44.7598082,904,5134.32158
D1,Bom Sucesso/MG,-21.0323516,-44.7598082,8,45.43647
1,Bom Sucesso/PB,-6.4458948,-37.9297662,357,7203.38983
D1,Bom Sucesso/PB,-6.4458948,-37.9297662,4,80.71025
1,Bom Sucesso/PR,-23.7088019,-51.7651297,707,10002.82965
D1,Bom Sucesso/PR,-23.7088019,-51.7651297,14,198.07583
1,Bombinhas/SC,-27.1519159,-48.4875691,3383,16636.34128
D1,Bombinhas/SC,-27.1519159,-48.4875691,56,275.38726
1,Bonfim do Piauí/PI,-9.1648678,-42.8734415,344,6051.01143
D1,Bonfim do Piauí/PI,-9.1648678,-42.8734415,7,123.13105
1,Bonfim/MG,-20.3266626, -44.2386157,380,5539.35860
D1,Bonfim/MG,-20.3266626, -44.2386157,13,189.50437
1,Bonfim/RR,3.3613818,-59.8427241,2229,17751.05519
D1,Bonfim/RR,3.3613818,-59.8427241,26,207.05583
1,Bonfinópolis de Minas/MG,-16.5660011,-45.98645,459,8431.30051
D1,Bonfinópolis de Minas/MG,-16.5660011,-45.98645,12,220.42616
1,Bonfinópolis/GO,-16.6172709,-48.9615701,452,4556.91098
D1,Bonfinópolis/GO,-16.6172709,-48.9615701,19,191.55157
1,Boninal/BA,-12.7095183,-41.8299984,590,4084.17555
D1,Boninal/BA,-12.7095183,-41.8299984,7,48.45632
1,Bonito de Minas/MG,-15.3191266,-44.7544,56,492.56751
1,Bonito de Santa Fé/PB,-7.3143332,-38.5146677,448,3726.50141
D1,Bonito de Santa Fé/PB,-7.3143332,-38.5146677,11,91.49892
1,Bonito/BA,-11.9665473,-41.2649896,843,4992.89268
D1,Bonito/BA,-11.9665473,-41.2649896,11,65.15044
1,Bonito/MS,-21.1264766,-56.4902208,2847,12830.10365
D1,Bonito/MS,-21.1264766,-56.4902208,58,261.37900
1,Bonito/PA,-1.3605722,-47.3049907,381,2304.90018
D1,Bonito/PA,-1.3605722,-47.3049907,13,78.64489
1,Bonito/PE,-8.4721161,-35.7314591,889,2332.29268
D1,Bonito/PE,-8.4721161,-35.7314591,38,99.69305
1,Bonópolis/GO,-13.649331,-49.8329113,158,3516.58135
D1,Bonópolis/GO,-13.649331,-49.8329113,1,22.25684
1,Boqueirão do Leão/RS,-29.30332,-52.4296817,566,7348.74059
D1,Boqueirão do Leão/RS,-29.30332,-52.4296817,30,389.50922
1,Boqueirão do Piauí/PI,-4.4850148,-42.1095161,650,10115.15717
D1,Boqueirão do Piauí/PI,-4.4850148,-42.1095161,10,155.61780
1,Boqueirão/PB,-7.487004,-36.130887,1653,9250.13990
D1,Boqueirão/PB,-7.487004,-36.130887,35,195.85898
1,Boquim/SE,-11.1450175,-37.6204228,2505,9312.61385
D1,Boquim/SE,-11.1450175,-37.6204228,63,234.20945
1,Boquira/BA,-12.8184859,-42.7270883,592,2753.87263
D1,Boquira/BA,-12.8184859,-42.7270883,11,51.16993
1,Boracéia/SP,-22.195355,-48.7801925,865,17769.10435
D1,Boracéia/SP,-22.195355,-48.7801925,22,451.93098
1,Borba/AM,-4.3934778,-59.5947721,2163,5181.08652
D1,Borba/AM,-4.3934778,-59.5947721,60,143.71946
1,Borborema/PB,-6.8066718,-35.5990191,381,7206.35521
D1,Borborema/PB,-6.8066718,-35.5990191,12,226.97182
1,Borborema/SP,-21.6212706,-49.074135,1409,8716.90176
D1,Borborema/SP,-21.6212706,-49.074135,41,253.65009
1,Borda da Mata/MG,-22.274167,-46.165278,1420,7239.72673
D1,Borda da Mata/MG,-22.274167,-46.165278,42,214.13276
1,Borebi/SP,-22.5700178,-48.9714871,214,7976.14611
D1,Borebi/SP,-22.5700178,-48.9714871,3,111.81513
1,Borrazópolis/PR,-23.9393362,-51.5850786,749,11632.24103
D1,Borrazópolis/PR,-23.9393362,-51.5850786,21,326.13760
1,Borá/SP,-22.2701088,-50.544407,104,12410.50119
D1,Borá/SP,-22.2701088,-50.544407,1,119.33174
1,Bossoroca/RS,-28.7278885,-54.9120278,389,6269.13779
D1,Bossoroca/RS,-28.7278885,-54.9120278,22,354.55278
1,Botelhos/MG,-21.65,-46.394722,1550,10368.58653
D1,Botelhos/MG,-21.65,-46.394722,19,127.09880
1,Botucatu/SP,-22.8879628,-48.4410712,12941,8736.24519
D1,Botucatu/SP,-22.8879628,-48.4410712,254,171.47101
1,Botumirim/MG,-16.862778,-43.011111,219,3482.82443
D1,Botumirim/MG,-16.862778,-43.011111,4,63.61323
1,Botuporã/BA,-13.3744752,-42.5198469,196,1935.03801
D1,Botuporã/BA,-13.3744752,-42.5198469,3,29.61793
1,Botuverá/SC,-27.200749,-49.068892,884,16610.29688
D1,Botuverá/SC,-27.200749,-49.068892,8,150.31943
1,Bozano/RS,-28.3669953,-53.7705165,238,11274.27759
D1,Bozano/RS,-28.3669953,-53.7705165,7,331.59640
1,Braga/RS,-27.617348,-53.740514,332,10027.18212
D1,Braga/RS,-27.617348,-53.740514,9,271.82120
1,Braganey/PR,-24.8179919,-53.118506,425,7896.69268
D1,Braganey/PR,-24.8179919,-53.118506,7,130.06317
1,Bragança Paulista/SP,-22.9520235,-46.5418586,15898,9322.53581
D1,Bragança Paulista/SP,-22.9520235,-46.5418586,432,253.32340
1,Bragança/PA,-1.0573967,-46.7635406,3956,3068.71247
D1,Bragança/PA,-1.0573967,-46.7635406,141,109.37524
1,Branquinha/AL,-9.2478057,-36.0152009,506,4837.47610
D1,Branquinha/AL,-9.2478057,-36.0152009,9,86.04207
1,Brasil Novo/PA,-3.3055853,-52.539198,1808,12067.00928
D1,Brasil Novo/PA,-3.3055853,-52.539198,41,273.64346
1,Brasileira/PI,-4.131182,-41.7824969,570,6828.80077
D1,Brasileira/PI,-4.131182,-41.7824969,13,155.74458
1,Brasilândia de Minas/MG,-17.0096469,-46.0087183,1180,7045.61739
D1,Brasilândia de Minas/MG,-17.0096469,-46.0087183,17,101.50466
1,Brasilândia do Sul/PR,-24.1975793,-53.527551,374,14468.08511
D1,Brasilândia do Sul/PR,-24.1975793,-53.527551,9,348.16248
1,Brasilândia do Tocantins/TO,-8.3886619,-48.4842729,233,10538.21800
D1,Brasilândia do Tocantins/TO,-8.3886619,-48.4842729,5,226.14202
1,Brasilândia/MS,-21.255575,-52.0365617,1076,9077.87058
D1,Brasilândia/MS,-21.255575,-52.0365617,17,143.42361
1,Brasiléia/AC,-11.0010413,-68.7487894,2816,10546.02651
D1,Brasiléia/AC,-11.0010413,-68.7487894,38,142.31144
1,Brasnorte/MT,-12.1227151,-58.0050109,1922,9543.19762
D1,Brasnorte/MT,-12.1227151,-58.0050109,33,163.85303
1,Brasília de Minas/MG,-16.2075114,-44.430559,986,3042.74032
D1,Brasília de Minas/MG,-16.2075114,-44.430559,8,24.68755
1,Brasília/DF,-15.7934036,-47.8823172,419548,13732.48899
D1,Brasília/DF,-15.7934036,-47.8823172,9016,295.10836
1,Brazabrantes/GO,-16.4291635,-49.3858216,438,11692.47197
D1,Brazabrantes/GO,-16.4291635,-49.3858216,3,80.08542
1,Brazópolis/MG,-22.4742842,-45.6165577,776,5385.14920
D1,Brazópolis/MG,-22.4742842,-45.6165577,28,194.30951
1,Braço do Norte/SC,-28.2728633,-49.1622712,7966,23515.17298
D1,Braço do Norte/SC,-28.2728633,-49.1622712,92,271.57870
1,Braço do Trombudo/SC,-27.358578,-49.882145,607,16105.06766
D1,Braço do Trombudo/SC,-27.358578,-49.882145,4,106.12895
1,Braúna/SP,-21.5015319,-50.3175246,485,8448.00557
D1,Braúna/SP,-21.5015319,-50.3175246,20,348.37136
1,Braúnas/MG,-19.055556,-42.716111,217,4550.22017
D1,Braúnas/MG,-19.055556,-42.716111,7,146.78130
1,Brejetuba/ES,-20.1465817,-41.2902303,1594,12826.90915
D1,Brejetuba/ES,-20.1465817,-41.2902303,14,112.65792
1,Brejinho de Nazaré/TO,-11.0205883,-48.5722906,512,9277.04294
D1,Brejinho de Nazaré/TO,-11.0205883,-48.5722906,13,235.54992
1,Brejinho/PE,-7.3482153,-37.28538,644,8600.42735
D1,Brejinho/PE,-7.3482153,-37.28538,20,267.09402
1,Brejinho/RN,-6.1957907,-35.3583019,1240,9697.34887
D1,Brejinho/RN,-6.1957907,-35.3583019,14,109.48620
1,Brejo Alegre/SP,-21.1671191,-50.1850393,342,11838.00623
D1,Brejo Alegre/SP,-21.1671191,-50.1850393,13,449.98269
1,Brejo Grande do Araguaia/PA,-5.7011449,-48.4037308,791,10735.61346
D1,Brejo Grande do Araguaia/PA,-5.7011449,-48.4037308,4,54.28882
1,Brejo Grande/SE,-10.4287358,-36.4667918,434,5195.73806
D1,Brejo Grande/SE,-10.4287358,-36.4667918,12,143.66096
1,Brejo Santo/CE,-7.4909841,-38.9859152,8082,16215.24016
D1,Brejo Santo/CE,-7.4909841,-38.9859152,152,304.96369
1,Brejo da Madre de Deus/PE,-8.1409718,-36.3712527,2023,3949.24353
D1,Brejo da Madre de Deus/PE,-8.1409718,-36.3712527,47,91.75207
1,Brejo de Areia/MA,-4.3316785,-45.5833334,295,3272.68693
D1,Brejo de Areia/MA,-4.3316785,-45.5833334,9,99.84469
1,Brejo do Cruz/PB,-6.32926065,-37.48746163303929,1561,10988.31480
D1,Brejo do Cruz/PB,-6.32926065,-37.48746163303929,21,147.82486
1,Brejo do Piauí/PI,-8.207583,-42.8359849,115,2988.56549
D1,Brejo do Piauí/PI,-8.207583,-42.8359849,4,103.95010
1,Brejo dos Santos/PB,-6.3769367,-37.8243125,648,10024.75248
D1,Brejo dos Santos/PB,-6.3769367,-37.8243125,6,92.82178
1,Brejo/MA,-3.6804397,-42.7529313,886,2417.39652
D1,Brejo/MA,-3.6804397,-42.7529313,20,54.56877
1,Brejolândia/BA,-12.4843845,-43.9611861,143,1346.76964
D1,Brejolândia/BA,-12.4843845,-43.9611861,11,103.59766
1,Brejão/PE,-9.029146,-36.566034,452,5029.48704
D1,Brejão/PE,-9.029146,-36.566034,7,77.89029
1,Brejões/BA,-13.1033754,-39.7909837,707,4971.17142
D1,Brejões/BA,-13.1033754,-39.7909837,10,70.31360
1,Breu Branco/PA,-3.7785073,-49.5684795,749,1112.39827
D1,Breu Branco/PA,-3.7785073,-49.5684795,44,65.34783
1,Breves/PA,-1.68036,-50.479085,4012,3876.44086
D1,Breves/PA,-1.68036,-50.479085,116,112.08054
1,Britânia/GO,-15.2427599,-51.1602061,529,9125.40969
D1,Britânia/GO,-15.2427599,-51.1602061,4,69.00121
1,Brochier/RS,-29.556766,-51.5963047,405,7934.95298
D1,Brochier/RS,-29.556766,-51.5963047,5,97.96238
1,Brodowski/SP,-20.984532,-47.657217,2565,10147.56498
D1,Brodowski/SP,-20.984532,-47.657217,58,229.45761
1,Brotas de Macaúbas/BA,-12.0019007,-42.6257506,128,1263.57354
D1,Brotas de Macaúbas/BA,-12.0019007,-42.6257506,3,29.61500
1,Brotas/SP,-22.2840884,-48.1267265,655,2658.71083
D1,Brotas/SP,-22.2840884,-48.1267265,39,158.30492
1,Brumadinho/MG,-20.143611,-44.2,3402,8365.71091
D1,Brumadinho/MG,-20.143611,-44.2,74,181.97020
1,Brumado/BA,-14.29507325,-41.659307508575985,8835,13120.96235
D1,Brumado/BA,-14.29507325,-41.659307508575985,180,267.32012
1,Brunópolis/SC,-27.310953,-50.837585,262,11064.18919
D1,Brunópolis/SC,-27.310953,-50.837585,8,337.83784
1,Brusque/SC,-27.0964628,-48.9136323,25884,18798.88735
D1,Brusque/SC,-27.0964628,-48.9136323,270,196.09410
1,Brás Pires/MG,-20.8483109,-43.2430524,203,4728.62800
D1,Brás Pires/MG,-20.8483109,-43.2430524,7,163.05614
1,Bueno Brandão/MG,-22.441976,-46.3517971,755,6869.25666
D1,Bueno Brandão/MG,-22.441976,-46.3517971,24,218.36048
1,Buenos Aires/PE,-7.7218931,-35.326587,329,2494.31387
D1,Buenos Aires/PE,-7.7218931,-35.326587,20,151.63002
1,Buenópolis/MG,-17.8756607,-44.1749365,305,2946.00599
D1,Buenópolis/MG,-17.8756607,-44.1749365,11,106.24940
1,Buerarema/BA,-14.9571177,-39.3008035,1297,7085.10871
D1,Buerarema/BA,-14.9571177,-39.3008035,39,213.04490
1,Bugre/MG,-19.4257687,-42.2556,361,9063.51996
D1,Bugre/MG,-19.4257687,-42.2556,12,301.28044
1,Bujari/AC,-9.8309656,-67.9520886,1132,10863.72361
D1,Bujari/AC,-9.8309656,-67.9520886,17,163.14779
1,Bujaru/PA,-1.5169239,-48.0410699,1394,4737.14616
D1,Bujaru/PA,-1.5169239,-48.0410699,38,129.13311
1,Buri/SP,-23.79849,-48.598924,2320,11620.33559
D1,Buri/SP,-23.79849,-48.598924,73,365.63987
1,Buritama/SP,-21.0664017,-50.1448077,2182,12626.58411
D1,Buritama/SP,-21.0664017,-50.1448077,60,347.20213
1,Buriti Alegre/GO,-18.1377879,-49.0404411,937,9879.79755
D1,Buriti Alegre/GO,-18.1377879,-49.0404411,30,316.32223
1,Buriti Bravo/MA,-5.8391884,-43.8367876,1395,5827.31108
D1,Buriti Bravo/MA,-5.8391884,-43.8367876,14,58.48198
1,Buriti de Goiás/GO,-16.180644,-50.4287479,205,8279.48304
D1,Buriti de Goiás/GO,-16.180644,-50.4287479,8,323.10178
1,Buriti do Tocantins/TO,-5.3187439,-48.2256609,875,7610.68105
D1,Buriti do Tocantins/TO,-5.3187439,-48.2256609,14,121.77090
1,Buriti dos Lopes/PI,-3.1776723,-41.8707444,1274,6432.06947
D1,Buriti dos Lopes/PI,-3.1776723,-41.8707444,31,156.51032
1,Buriti dos Montes/PI,-5.3136171,-41.0971256,616,7454.01742
D1,Buriti dos Montes/PI,-5.3136171,-41.0971256,8,96.80542
1,Buriti/MA,-3.9430944,-42.9244281,752,2611.29245
D1,Buriti/MA,-3.9430944,-42.9244281,8,27.77971
1,Buriticupu/MA,-4.3227472,-46.4516989,3254,4458.57254
D1,Buriticupu/MA,-4.3227472,-46.4516989,48,65.76874
1,Buritinópolis/GO,-14.4589282,-46.4293104,166,5056.35090
D1,Buritinópolis/GO,-14.4589282,-46.4293104,3,91.37984
1,Buritirama/BA,-10.7148421,-43.6362327,839,3943.41042
D1,Buritirama/BA,-10.7148421,-43.6362327,22,103.40290
1,Buritirana/MA,-5.5897455,-47.0148915,441,2851.23165
D1,Buritirana/MA,-5.5897455,-47.0148915,24,155.16907
1,Buritis/MG,-15.621389,-46.423889,1643,6568.58434
D1,Buritis/MG,-15.621389,-46.423889,34,135.92932
1,Buritis/RO,-10.2054937,-63.8281954,4562,11304.39092
D1,Buritis/RO,-10.2054937,-63.8281954,65,161.06651
1,Buritizal/SP,-20.1933264,-47.7097165,262,5804.16482
D1,Buritizal/SP,-20.1933264,-47.7097165,10,221.53301
1,Buritizeiro/MG,-17.3667765,-44.9647781,1225,4356.17510
D1,Buritizeiro/MG,-17.3667765,-44.9647781,31,110.23790
1,Butiá/RS,-30.1256795,-51.9692224,1978,9440.62619
D1,Butiá/RS,-30.1256795,-51.9692224,54,257.73196
1,Buíque/PE,-8.6239732,-37.157296,2212,3754.30676
D1,Buíque/PE,-8.6239732,-37.157296,41,69.58706
1,Bálsamo/SP,-20.7343722,-49.5807484,1497,16380.34796
D1,Bálsamo/SP,-20.7343722,-49.5807484,59,645.58486
0,CASO SEM LOCALIZAÇÃO DEFINIDA/BA,-13.415069300066518,-38.14174656569957,10630,71.47149
D0,CASO SEM LOCALIZAÇÃO DEFINIDA/BA,-13.415069300066518,-38.14174656569957,231,1.55314
0,CASO SEM LOCALIZAÇÃO DEFINIDA/CE,-3.3445126297392798,-38.624961942434304,12748,139.59583
D0,CASO SEM LOCALIZAÇÃO DEFINIDA/CE,-3.3445126297392798,-38.624961942434304,25,0.27376
0,CASO SEM LOCALIZAÇÃO DEFINIDA/ES,-20.30989267097039,-39.81745156645774,3947,98.21706
D0,CASO SEM LOCALIZAÇÃO DEFINIDA/ES,-20.30989267097039,-39.81745156645774,199,4.95191
0,CASO SEM LOCALIZAÇÃO DEFINIDA/GO,-16.701590966270153,-49.164524059025034,1799,25.63279
D0,CASO SEM LOCALIZAÇÃO DEFINIDA/GO,-16.701590966270153,-49.164524059025034,74,1.05438
0,CASO SEM LOCALIZAÇÃO DEFINIDA/MG,-19.97049116501593,-43.8852149072783,4266,20.15231
D0,CASO SEM LOCALIZAÇÃO DEFINIDA/MG,-19.97049116501593,-43.8852149072783,302,1.42663
0,CASO SEM LOCALIZAÇÃO DEFINIDA/MT,-15.54791153961863,-56.17143998972475,2531,72.63667
D0,CASO SEM LOCALIZAÇÃO DEFINIDA/MT,-15.54791153961863,-56.17143998972475,199,5.71106
0,CASO SEM LOCALIZAÇÃO DEFINIDA/PA,-0.09317078214359542,-48.0050231510481,1900,22.08567
D0,CASO SEM LOCALIZAÇÃO DEFINIDA/PA,-0.09317078214359542,-48.0050231510481,40,0.46496
0,CASO SEM LOCALIZAÇÃO DEFINIDA/PI,-2.683810218391744,-41.470898009352254,1055,32.23119
D0,CASO SEM LOCALIZAÇÃO DEFINIDA/PI,-2.683810218391744,-41.470898009352254,25,0.76377
0,CASO SEM LOCALIZAÇÃO DEFINIDA/PR,-25.69415946385943,-48.10141676336737,6334,55.39640
D0,CASO SEM LOCALIZAÇÃO DEFINIDA/PR,-25.69415946385943,-48.10141676336737,164,1.43432
0,CASO SEM LOCALIZAÇÃO DEFINIDA/RR,2.813328208465927,-60.663338675861986,2943,485.83517
D0,CASO SEM LOCALIZAÇÃO DEFINIDA/RR,2.813328208465927,-60.663338675861986,19,3.13655
0,CASO SEM LOCALIZAÇÃO DEFINIDA/SP,-24.30968974555485,-46.21366504207253,883,1.92295
1,Caapiranga/AM,-3.3188884,-61.2096404,640,4818.18866
D1,Caapiranga/AM,-3.3188884,-61.2096404,22,165.62524
1,Caaporã/PB,-7.510234,-34.9154114,1835,8358.00501
D1,Caaporã/PB,-7.510234,-34.9154114,31,141.19790
1,Caarapó/MS,-22.6349267,-54.8240903,3878,12676.10238
D1,Caarapó/MS,-22.6349267,-54.8240903,46,150.36119
1,Caatiba/BA,-14.9782759,-40.4092325,846,13039.45746
D1,Caatiba/BA,-14.9782759,-40.4092325,11,169.54377
1,Cabaceiras do Paraguaçu/BA,-12.5377868,-39.1901339,544,2876.63265
D1,Cabaceiras do Paraguaçu/BA,-12.5377868,-39.1901339,4,21.15171
1,Cabaceiras/PB,-7.4899156,-36.2860501,358,6323.97103
D1,Cabaceiras/PB,-7.4899156,-36.2860501,3,52.99417
1,Cabeceira Grande/MG,-16.0297,-47.0906,380,5437.89353
D1,Cabeceira Grande/MG,-16.0297,-47.0906,5,71.55123
1,Cabeceiras do Piauí/PI,-4.4733665,-42.3098716,530,4985.88899
D1,Cabeceiras do Piauí/PI,-4.4733665,-42.3098716,10,94.07338
1,Cabeceiras/GO,-15.7995459,-46.9264991,352,4374.84464
D1,Cabeceiras/GO,-15.7995459,-46.9264991,16,198.85657
1,Cabedelo/PB,-6.97324,-34.8351609,8488,12343.12970
D1,Cabedelo/PB,-6.97324,-34.8351609,188,273.38694
1,Cabixi/RO,-13.4956065,-60.5424442,781,15053.97070
D1,Cabixi/RO,-13.4956065,-60.5424442,20,385.50501
1,Cabo Frio/RJ,-22.8804369,-42.0189227,12536,5441.49181
D1,Cabo Frio/RJ,-22.8804369,-42.0189227,661,286.91976
1,Cabo Verde/MG,-21.4743338,-46.3964995,628,4461.81172
D1,Cabo Verde/MG,-21.4743338,-46.3964995,9,63.94316
1,Cabo de Santo Agostinho/PE,-8.2838945,-35.0320984,7397,3540.18302
D1,Cabo de Santo Agostinho/PE,-8.2838945,-35.0320984,462,221.11188
1,Cabreúva/SP,-23.3075813,-47.1324417,3423,6787.76101
D1,Cabreúva/SP,-23.3075813,-47.1324417,84,166.57082
1,Cabrobó/PE,-8.5083701,-39.3106961,2173,6298.00307
D1,Cabrobó/PE,-8.5083701,-39.3106961,26,75.35577
1,Cabrália Paulista/SP,-22.4562909,-49.3385645,366,8625.97219
D1,Cabrália Paulista/SP,-22.4562909,-49.3385645,5,117.84115
1,Cacaulândia/RO,-10.3380043,-62.9007231,807,12872.86649
D1,Cacaulândia/RO,-10.3380043,-62.9007231,10,159.51507
1,Cacequi/RS,-29.8838059,-54.8273443,457,3678.66055
D1,Cacequi/RS,-29.8838059,-54.8273443,7,56.34710
1,Cachoeira Alta/GO,-18.7618269,-50.9432431,1424,11242.69698
D1,Cachoeira Alta/GO,-18.7618269,-50.9432431,19,150.00790
1,Cachoeira Dourada/GO,-18.4934204,-49.481062,406,5055.41029
D1,Cachoeira Dourada/GO,-18.4934204,-49.481062,24,298.84199
1,Cachoeira Dourada/MG,-18.517136,-49.5002062,143,5284.55285
D1,Cachoeira Dourada/MG,-18.517136,-49.5002062,2,73.90983
1,Cachoeira Grande/MA,-2.9290492,-44.0573223,281,2964.76050
D1,Cachoeira Grande/MA,-2.9290492,-44.0573223,7,73.85524
1,Cachoeira Paulista/SP,-22.666498,-45.015384,2312,6884.84560
D1,Cachoeira Paulista/SP,-22.666498,-45.015384,35,104.22560
1,Cachoeira da Prata/MG,-19.524723,-44.453056,226,6293.51156
D1,Cachoeira da Prata/MG,-19.524723,-44.453056,11,306.32136
1,Cachoeira de Goiás/GO,-16.6688414,-50.6435997,77,5737.70492
D1,Cachoeira de Goiás/GO,-16.6688414,-50.6435997,2,149.03130
1,Cachoeira de Minas/MG,-22.3554043,-45.7796324,623,5380.43009
D1,Cachoeira de Minas/MG,-22.3554043,-45.7796324,8,69.09060
1,Cachoeira de Pajeú/MG,-15.965833,-41.496666,490,5189.57848
D1,Cachoeira de Pajeú/MG,-15.965833,-41.496666,10,105.90976
1,Cachoeira do Arari/PA,-1.0143572,-48.9621089,492,2044.54787
D1,Cachoeira do Arari/PA,-1.0143572,-48.9621089,22,91.42287
1,Cachoeira do Piriá/PA,-1.7599443,-46.5446954,859,2482.01335
D1,Cachoeira do Piriá/PA,-1.7599443,-46.5446954,5,14.44711
1,Cachoeira do Sul/RS,-30.0474778,-52.8905413,9418,11503.74379
D1,Cachoeira do Sul/RS,-30.0474778,-52.8905413,143,174.66929
1,Cachoeira dos Índios/PB,-6.9259193,-38.6742159,758,7355.65260
D1,Cachoeira dos Índios/PB,-6.9259193,-38.6742159,14,135.85638
1,Cachoeira/BA,-12.5998256,-38.9665918,1505,4483.57017
D1,Cachoeira/BA,-12.5998256,-38.9665918,26,77.45703
1,Cachoeiras de Macacu/RJ,-22.4626861,-42.6534414,2763,4659.12348
D1,Cachoeiras de Macacu/RJ,-22.4626861,-42.6534414,91,153.44924
1,Cachoeirinha/PE,-8.4906364,-36.2338963,556,2712.06283
D1,Cachoeirinha/PE,-8.4906364,-36.2338963,29,141.45651
1,Cachoeirinha/RS,-29.9493353,-51.0898927,13690,10431.27095
D1,Cachoeirinha/RS,-29.9493353,-51.0898927,402,306.30905
1,Cachoeirinha/TO,-6.118647,-47.9208885,117,5122.59194
D1,Cachoeirinha/TO,-6.118647,-47.9208885,2,87.56567
1,Cachoeiro de Itapemirim/ES,-20.848084,-41.11129,25693,12200.54229
D1,Cachoeiro de Itapemirim/ES,-20.848084,-41.11129,546,259.27280
1,Cacimba de Areia/PB,-7.1288513,-37.1575194,51,1380.24357
D1,Cacimba de Areia/PB,-7.1288513,-37.1575194,4,108.25440
1,Cacimba de Dentro/PB,-6.6425101,-35.7929304,1101,6409.36081
D1,Cacimba de Dentro/PB,-6.6425101,-35.7929304,33,192.10618
1,Cacimbas/PB,-7.2125451,-37.0593398,217,3014.30754
D1,Cacimbas/PB,-7.2125451,-37.0593398,7,97.23573
1,Cacimbinhas/AL,-9.401212,-36.991082,696,6391.77151
D1,Cacimbinhas/AL,-9.401212,-36.991082,9,82.65222
1,Cacique Doble/RS,-27.7700117,-51.6616409,529,10425.69965
D1,Cacique Doble/RS,-27.7700117,-51.6616409,10,197.08317
1,Cacoal/RO,-11.4333,-61.4420502,13070,15216.60671
D1,Cacoal/RO,-11.4333,-61.4420502,268,312.01611
1,Caconde/SP,-21.527995,-46.643659,1223,6433.79452
D1,Caconde/SP,-21.527995,-46.643659,28,147.29865
1,Caculé/BA,-14.4990734,-42.2233006,1640,7041.34644
D1,Caculé/BA,-14.4990734,-42.2233006,12,51.52205
1,Caetanos/BA,-14.3387456,-40.9085971,642,4394.85214
D1,Caetanos/BA,-14.3387456,-40.9085971,10,68.45564
1,Caetanópolis/MG,-19.2947496,-44.4138386,971,8264.53315
D1,Caetanópolis/MG,-19.2947496,-44.4138386,15,127.67044
1,Caetité/BA,-14.0691776,-42.4852428,2406,4710.16621
D1,Caetité/BA,-14.0691776,-42.4852428,24,46.98420
1,Caeté/MG,-19.897777,-43.670278,1883,4180.07858
D1,Caeté/MG,-19.897777,-43.670278,54,119.87480
1,Caetés/PE,-8.7728788,-36.6255835,1474,5099.64019
D1,Caetés/PE,-8.7728788,-36.6255835,19,65.73485
1,Cafarnaum/BA,-11.691399,-41.468823,858,4634.58111
D1,Cafarnaum/BA,-11.691399,-41.468823,21,113.43380
1,Cafeara/PR,-22.78905,-51.714195,319,10798.91672
D1,Cafeara/PR,-22.78905,-51.714195,10,338.52404
1,Cafelândia/PR,-24.6176963,-53.3218057,2033,11015.38795
D1,Cafelândia/PR,-24.6176963,-53.3218057,16,86.69267
1,Cafelândia/SP,-21.8054355,-49.6030627,703,3939.92042
D1,Cafelândia/SP,-21.8054355,-49.6030627,32,179.34204
1,Cafezal do Sul/PR,-23.900508,-53.512418,374,9329.00973
D1,Cafezal do Sul/PR,-23.900508,-53.512418,4,99.77551
1,Caiabu/SP,-22.0143038,-51.2356597,100,2384.92726
D1,Caiabu/SP,-22.0143038,-51.2356597,7,166.94491
1,Caiana/MG,-20.695555,-41.924723,136,2454.43061
D1,Caiana/MG,-20.695555,-41.924723,7,126.33099
1,Caiapônia/GO,-16.9538779,-51.8090761,1125,5887.89449
D1,Caiapônia/GO,-16.9538779,-51.8090761,34,177.94526
1,Caibaté/RS,-28.290475,-54.645407,226,4685.88016
D1,Caibaté/RS,-28.290475,-54.645407,7,145.13788
1,Caibi/SC,-27.0751925,-53.2502133,600,9787.92822
D1,Caibi/SC,-27.0751925,-53.2502133,11,179.44535
1,Caicó/RN,-6.4594544,-37.0971911,10467,15315.39441
D1,Caicó/RN,-6.4594544,-37.0971911,127,185.82737
1,Caieiras/SP,-23.3644621,-46.7484765,7588,7383.11846
D1,Caieiras/SP,-23.3644621,-46.7484765,277,269.52080
1,Cairu/BA,-13.4860505,-39.0455744,1244,6750.96326
D1,Cairu/BA,-13.4860505,-39.0455744,13,70.54865
1,Caiuá/SP,-21.8319357,-51.9887179,316,5314.49714
D1,Caiuá/SP,-21.8319357,-51.9887179,6,100.90817
1,Caiçara do Norte/RN,-5.0645017,-36.0561226,400,6096.63161
D1,Caiçara do Norte/RN,-5.0645017,-36.0561226,9,137.17421
1,Caiçara do Rio do Vento/RN,-5.757968,-36.00089,267,7187.07941
D1,Caiçara do Rio do Vento/RN,-5.757968,-36.00089,8,215.34320
1,Caiçara/PB,-6.6146866,-35.4681434,730,10151.57836
D1,Caiçara/PB,-6.6146866,-35.4681434,14,194.68780
1,Caiçara/RS,-27.2750478,-53.4310053,559,11893.61702
D1,Caiçara/RS,-27.2750478,-53.4310053,8,170.21277
1,Cajamar/SP,-23.3561111,-46.8769444,4233,5431.51898
D1,Cajamar/SP,-23.3561111,-46.8769444,207,265.60936
1,Cajapió/MA,-2.8778715,-44.6746871,97,864.83595
D1,Cajapió/MA,-2.8778715,-44.6746871,5,44.57917
1,Cajari/MA,-3.3213076,-45.0118757,228,1172.17624
D1,Cajari/MA,-3.3213076,-45.0118757,8,41.12899
1,Cajati/SP,-24.7272376,-48.1077914,3117,10939.14508
D1,Cajati/SP,-24.7272376,-48.1077914,87,305.32744
1,Cajazeiras do Piauí/PI,-6.794271,-42.3935024,57,1595.29807
D1,Cajazeiras do Piauí/PI,-6.794271,-42.3935024,1,27.98769
1,Cajazeiras/PB,-6.8897849,-38.5570389,8494,13636.43661
D1,Cajazeiras/PB,-6.8897849,-38.5570389,138,221.54795
1,Cajazeirinhas/PB,-6.961442,-37.7993733,165,5148.20593
1,Cajobi/SP,-20.8776238,-48.8106972,888,8380.52095
D1,Cajobi/SP,-20.8776238,-48.8106972,27,254.81314
1,Cajueiro da Praia/PI,-2.931114,-41.340801,475,6189.73156
D1,Cajueiro da Praia/PI,-2.931114,-41.340801,20,260.62028
1,Cajueiro/AL,-9.399589,-36.1524309,557,2611.22310
D1,Cajueiro/AL,-9.399589,-36.1524309,21,98.44827
1,Cajuri/MG,-20.7901414,-42.7954489,371,9335.68193
D1,Cajuri/MG,-20.7901414,-42.7954489,2,50.32713
1,Cajuru/SP,-21.2759978,-47.3046035,1027,3891.18327
D1,Cajuru/SP,-21.2759978,-47.3046035,36,136.39980
1,Caldas Brandão/PB,-7.1027959,-35.3254676,526,8699.96692
D1,Caldas Brandão/PB,-7.1027959,-35.3254676,8,132.31889
1,Caldas Novas/GO,-17.745,-48.625,8283,8887.72050
D1,Caldas Novas/GO,-17.745,-48.625,203,217.82051
1,Caldas/MG,-21.923611,-46.386111,788,5419.15962
D1,Caldas/MG,-21.923611,-46.386111,28,192.55897
1,Caldazinha/GO,-16.7116649,-49.0012601,294,7640.33264
D1,Caldazinha/GO,-16.7116649,-49.0012601,6,155.92516
1,Caldeirão Grande do Piauí/PI,-7.3310393,-40.6374433,397,6867.32399
D1,Caldeirão Grande do Piauí/PI,-7.3310393,-40.6374433,2,34.59609
1,Caldeirão Grande/BA,-11.0208483,-40.3041387,560,4181.91323
D1,Caldeirão Grande/BA,-11.0208483,-40.3041387,6,44.80621
1,Califórnia/PR,-23.6672543,-51.3554556,1049,12189.17035
D1,Califórnia/PR,-23.6672543,-51.3554556,27,313.73460
1,Calmon/SC,-26.6023644,-51.0992893,34,1019.49025
D1,Calmon/SC,-26.6023644,-51.0992893,4,119.94003
1,Calumbi/PE,-7.9389746,-38.1516871,625,10875.23926
D1,Calumbi/PE,-7.9389746,-38.1516871,4,69.60153
1,Calçado/PE,-8.7413446,-36.3351787,452,4102.37793
D1,Calçado/PE,-8.7413446,-36.3351787,5,45.38029
1,Calçoene/AP,2.4981757,-50.9539503,1631,14425.96851
D1,Calçoene/AP,2.4981757,-50.9539503,10,88.44861
1,Camacan/BA,-15.4166631,-39.4930088,2826,8829.59445
D1,Camacan/BA,-15.4166631,-39.4930088,76,237.45548
1,Camacho/MG,-20.625556,-45.156667,91,3171.83688
D1,Camacho/MG,-20.625556,-45.156667,2,69.71070
1,Camalaú/PB,-7.885031,-36.824191,419,6947.43824
D1,Camalaú/PB,-7.885031,-36.824191,6,99.48599
1,Camamu/BA,-13.9438142,-39.1060917,2228,6296.98717
D1,Camamu/BA,-13.9438142,-39.1060917,51,144.14109
1,Camanducaia/MG,-22.755278,-46.144444,2923,13407.64185
D1,Camanducaia/MG,-22.755278,-46.144444,58,266.04284
1,Camapuã/MS,-19.5291747,-54.0434641,781,5703.64420
D1,Camapuã/MS,-19.5291747,-54.0434641,29,211.78704
1,Camaquã/RS,-30.8524752,-51.8075619,6671,10034.89876
D1,Camaquã/RS,-30.8524752,-51.8075619,133,200.06619
1,Camaragibe/PE,-8.0213832,-34.9810768,6418,4039.04367
D1,Camaragibe/PE,-8.0213832,-34.9810768,377,237.25763
1,Camargo/RS,-28.5865661,-52.2031474,392,14296.13421
D1,Camargo/RS,-28.5865661,-52.2031474,5,182.34865
1,Camaçari/BA,-12.6998188,-38.3260762,22804,7493.87122
D1,Camaçari/BA,-12.6998188,-38.3260762,582,191.25737
1,Cambará do Sul/RS,-29.0489517,-50.145412,294,4589.44739
D1,Cambará do Sul/RS,-29.0489517,-50.145412,10,156.10365
1,Cambará/PR,-23.042273,-50.075281,2335,9169.08820
D1,Cambará/PR,-23.042273,-50.075281,46,180.63300
1,Cambira/PR,-23.600265,-51.581045,749,9460.65429
D1,Cambira/PR,-23.600265,-51.581045,18,227.35885
1,Camboriú/SC,-27.0273601,-48.6535657,11994,14093.17901
D1,Camboriú/SC,-27.0273601,-48.6535657,152,178.60290
1,Cambuci/RJ,-21.5749919,-41.9107833,944,6084.82661
D1,Cambuci/RJ,-21.5749919,-41.9107833,32,206.26531
1,Cambuquira/MG,-21.853056,-45.2953619,649,5065.56353
D1,Cambuquira/MG,-21.853056,-45.2953619,18,140.49329
1,Cambuí/MG,-22.6122501,-46.0572137,3418,11464.41269
D1,Cambuí/MG,-22.6122501,-46.0572137,53,177.76883
1,Cambé/PR,-23.2782035,-51.2779583,10128,9435.35089
D1,Cambé/PR,-23.2782035,-51.2779583,222,206.81753
1,Cametá/PA,-2.242949,-49.497885,8631,6193.13453
D1,Cametá/PA,-2.242949,-49.497885,238,170.77581
1,Camocim de São Félix/PE,-8.3616757,-35.7638903,518,2740.74074
D1,Camocim de São Félix/PE,-8.3616757,-35.7638903,17,89.94709
1,Camocim/CE,-2.9009918,-40.8427389,5969,9340.13488
D1,Camocim/CE,-2.9009918,-40.8427389,157,245.66949
1,Campanha/MG,-21.8361108,-45.401986,1573,9384.32168
D1,Campanha/MG,-21.8361108,-45.401986,30,178.97626
1,Campanário/MG,-18.2398144,-41.7271768,216,5790.88472
D1,Campanário/MG,-18.2398144,-41.7271768,4,107.23861
1,Campestre da Serra/RS,-28.7966535,-51.0958149,211,6215.02209
D1,Campestre da Serra/RS,-28.7966535,-51.0958149,2,58.91016
1,Campestre de Goiás/GO,-16.7624179,-49.69497,500,13702.38421
D1,Campestre de Goiás/GO,-16.7624179,-49.69497,14,383.66676
1,Campestre do Maranhão/MA,-6.1729113,-47.3640512,1038,7181.89995
D1,Campestre do Maranhão/MA,-6.1729113,-47.3640512,44,304.43507
1,Campestre/AL,-8.8481634,-35.5660033,249,3580.67299
D1,Campestre/AL,-8.8481634,-35.5660033,6,86.28128
1,Campestre/MG,-19.6142116,-43.219378,1569,7452.26560
D1,Campestre/MG,-19.6142116,-43.219378,36,170.98889
