type,name,lat,lon,total,total_per_100k_inhabitants
1,Abadia de Goiás/GO,-16.7572644,-49.4412205,27,307.76245
1,Abadia dos Dourados/MG,-18.4911191,-47.4063589,5,71.54099
1,Abadiânia/GO,-16.1940946,-48.7067767,33,164.65423
1,Abaetetuba/PA,-1.721828,-48.878843,2209,1400.77870
D1,Abaetetuba/PA,-1.721828,-48.878843,89,56.43699
1,Abaeté/MG,-19.1566833,-45.4481213,2,8.60696
1,Abaiara/CE,-7.3607808,-39.0487878,15,127.80097
D1,Abaiara/CE,-7.3607808,-39.0487878,1,8.52006
1,Abaré/BA,-8.7239913,-39.1139689,1,4.97859
1,Abatiá/PR,-23.3052967,-50.3102532,29,388.89634
1,Abaíra/BA,-13.2503296,-41.6640342,5,57.21478
1,Abdon Batista/SC,-27.612419,-51.022992,13,507.21810
1,Abel Figueiredo/PA,-4.953001,-48.3958485,60,807.10250
D1,Abel Figueiredo/PA,-4.953001,-48.3958485,1,13.45171
1,Abelardo Luz/SC,-26.5705893,-52.3280339,26,145.21895
D1,Abelardo Luz/SC,-26.5705893,-52.3280339,1,5.58534
1,Abre Campo/MG,-20.2976097,-42.4764741,8,59.46187
1,Abreu e Lima/PE,-7.900719,-34.898389,454,454.04540
D1,Abreu e Lima/PE,-7.900719,-34.898389,53,53.00530
1,Abreulândia/TO,-9.6221526,-49.1558343,3,116.32416
1,Acaiaca/MG,-20.3621646,-43.1444162,3,75.11267
D1,Acaiaca/MG,-20.3621646,-43.1444162,1,25.03756
1,Acajutiba/BA,-11.6609659,-38.0186381,7,46.17719
1,Acarape/CE,-4.2237866,-38.7071663,340,2277.44658
D1,Acarape/CE,-4.2237866,-38.7071663,10,66.98372
1,Acaraú/CE,-2.8869514,-40.1194713,1318,2104.05326
D1,Acaraú/CE,-2.8869514,-40.1194713,28,44.69916
1,Acari/RN,-6.4364689,-36.6394777,9,80.81897
1,Acará/PA,-1.961388,-48.1987043,263,473.09816
D1,Acará/PA,-1.961388,-48.1987043,9,16.18967
1,Acauã/PI,-8.219542,-41.083059,4,56.46527
1,Acopiara/CE,-6.0936464,-39.4543204,209,385.11148
D1,Acopiara/CE,-6.0936464,-39.4543204,13,23.95430
1,Acorizal/MT,-15.2001544,-56.3668953,19,351.91702
D1,Acorizal/MT,-15.2001544,-56.3668953,1,18.52195
1,Acrelândia/AC,-10.0759167,-67.0526898,185,1212.63765
D1,Acrelândia/AC,-10.0759167,-67.0526898,2,13.10960
1,Acreúna/GO,-17.3959899,-50.3749031,3,13.41322
1,Adamantina/SP,-21.6866517,-51.0762975,45,128.32212
D1,Adamantina/SP,-21.6866517,-51.0762975,3,8.55481
1,Adelândia/GO,-16.4155077,-50.1665834,8,317.96502
1,Adolfo/SP,-21.2356597,-49.6441918,9,252.66704
D1,Adolfo/SP,-21.2356597,-49.6441918,1,28.07412
1,Adrianópolis/PR,-24.6557863,-48.9912769,20,337.89491
1,Adustina/BA,-10.5358875,-38.114479,9,52.81690
D1,Adustina/BA,-10.5358875,-38.114479,1,5.86854
1,Afogados da Ingazeira/PE,-7.750429,-37.6356375,54,144.93143
D1,Afogados da Ingazeira/PE,-7.750429,-37.6356375,1,2.68392
1,Afonso Bezerra/RN,-5.4745,-36.57625071327935,31,280.92433
D1,Afonso Bezerra/RN,-5.4745,-36.57625071327935,3,27.18623
1,Afonso Cláudio/ES,-20.077841,-41.12606,208,680.04970
D1,Afonso Cláudio/ES,-20.077841,-41.12606,8,26.15576
1,Afonso Cunha/MA,-4.1326105,-43.3230026,50,766.40098
1,Afrânio/PE,-8.5198919,-41.0070197,62,315.76267
D1,Afrânio/PE,-8.5198919,-41.0070197,1,5.09295
1,Afuá/PA,-0.1535664,-50.3879223,485,1236.67704
D1,Afuá/PA,-0.1535664,-50.3879223,4,10.19940
1,Agrestina/PE,-8.4558021,-35.9442663,123,494.27366
D1,Agrestina/PE,-8.4558021,-35.9442663,11,44.20334
1,Agricolândia/PI,-5.7967843,-42.6605131,10,194.59039
1,Agrolândia/SC,-27.4122212,-49.8295774,11,101.25184
D1,Agrolândia/SC,-27.4122212,-49.8295774,2,18.40943
1,Agronômica/SC,-27.2660744,-49.7104753,14,256.97504
D1,Agronômica/SC,-27.2660744,-49.7104753,2,36.71072
1,Aguanil/MG,-20.9424533,-45.3927152,3,66.87472
1,Aguaí/SP,-22.0592036,-46.979384,55,151.49428
D1,Aguaí/SP,-22.0592036,-46.979384,4,11.01777
1,Agudo/RS,-29.6423259,-53.2494005,2,12.14993
1,Agudos do Sul/PR,-25.9890808,-49.3328175,16,170.73952
1,Agudos/SP,-22.471162,-48.987822,67,180.03977
D1,Agudos/SP,-22.471162,-48.987822,2,5.37432
1,Aguiar/PB,-7.0928404,-38.1727215,11,195.03546
1,Aguiarnópolis/TO,-6.5600452,-47.4721189,104,1544.63092
D1,Aguiarnópolis/TO,-6.5600452,-47.4721189,4,59.40888
1,Aimorés/MG,-19.4917754,-41.0615603,66,262.24818
1,Aiquara/BA,-14.126918,-39.8887574,10,224.92128
D1,Aiquara/BA,-14.126918,-39.8887574,1,22.49213
1,Aiuaba/CE,-6.5710836,-40.1212278,7,40.23220
1,Ajuricaba/RS,-28.239654,-53.7693013,2,28.47380
1,Alagoa Grande/PB,-7.0415212,-35.6285322,263,922.93655
D1,Alagoa Grande/PB,-7.0415212,-35.6285322,6,21.05559
1,Alagoa Nova/PB,-7.0653703,-35.76695977336711,132,633.12389
D1,Alagoa Nova/PB,-7.0653703,-35.76695977336711,2,9.59279
1,Alagoinha do Piauí/PI,-7.0090952,-40.939675,14,182.98262
1,Alagoinha/PB,-6.97063215,-35.51490901897793,287,1980.81303
D1,Alagoinha/PB,-6.97063215,-35.51490901897793,1,6.90179
1,Alagoinha/PE,-8.50355635,-36.77701174370496,33,225.47144
D1,Alagoinha/PE,-8.50355635,-36.77701174370496,1,6.83247
1,Alagoinhas/BA,-12.133526,-38.420772,276,182.06285
D1,Alagoinhas/BA,-12.133526,-38.420772,3,1.97894
1,Alambari/SP,-23.550338,-47.897971,9,149.37759
1,Alcantil/PB,-7.7425491,-36.0609604,7,127.45812
1,Alcinópolis/MS,-18.3264121,-53.7094463,1,18.71608
1,Alcobaça/BA,-17.5215875,-39.1965474,19,84.55719
1,Alcântara/MA,-2.4038956,-44.4154241,29,131.23953
D1,Alcântara/MA,-2.4038956,-44.4154241,5,22.62751
1,Alcântaras/CE,-3.586247,-40.5457641,154,1314.66621
D1,Alcântaras/CE,-3.586247,-40.5457641,2,17.07359
1,Aldeias Altas/MA,-4.6291957,-43.4708622,63,237.44912
1,Alecrim/RS,-27.6566142,-54.7653195,2,33.61345
1,Alegre/ES,-20.7625787,-41.5318886,68,226.03377
D1,Alegre/ES,-20.7625787,-41.5318886,4,13.29610
1,Alegrete do Piauí/PI,-7.2440138,-40.8602296,1,20.34588
1,Alegrete/RS,-29.790166,-55.794862,29,39.40806
D1,Alegrete/RS,-29.790166,-55.794862,2,2.71780
1,Alenquer/PA,-1.946229,-54.738355,462,813.53783
D1,Alenquer/PA,-1.946229,-54.738355,15,26.41357
1,Alexandria/RN,-6.414779,-38.0135516,10,73.65397
D1,Alexandria/RN,-6.414779,-38.0135516,1,7.36540
1,Alexânia/GO,-16.0834049,-48.5077803,22,79.55737
1,Alfenas/MG,-21.4297405,-45.9479419,22,27.50138
1,Alfredo Chaves/ES,-20.624970400000002,-40.75006690147988,115,787.61729
D1,Alfredo Chaves/ES,-20.624970400000002,-40.75006690147988,3,20.54654
1,Alfredo Marcondes/SP,-21.9527,-51.413956,4,96.01536
D1,Alfredo Marcondes/SP,-21.9527,-51.413956,2,48.00768
1,Alfredo Vasconcelos/MG,-21.145833,-43.776389,3,43.43420
D1,Alfredo Vasconcelos/MG,-21.145833,-43.776389,1,14.47807
1,Alfredo Wagner/SC,-27.6961513,-49.3326734,2,19.92826
1,Algodão de Jandaíra/PB,-6.9040175,-36.0089879,2,77.91196
1,Alhandra/PB,-7.4304246,-34.9106103,276,1409.02593
D1,Alhandra/PB,-7.4304246,-34.9106103,7,35.73616
1,Aliança do Tocantins/TO,-11.3055927,-48.9409096,6,111.31725
1,Aliança/PE,-7.60398,-35.222696,145,377.74189
D1,Aliança/PE,-7.60398,-35.222696,17,44.28698
1,Almadina/BA,-14.70466,-39.6381994,5,91.50805
D1,Almadina/BA,-14.70466,-39.6381994,1,18.30161
1,Almas/TO,-11.5681309,-47.1702803,2,28.34869
1,Almeirim/PA,-1.5290377,-52.5788111,66,193.49732
D1,Almeirim/PA,-1.5290377,-52.5788111,9,26.38600
1,Almenara/MG,-16.1740678,-40.6904907,46,109.79568
1,Almino Afonso/RN,-6.1544208,-37.7649018,6,126.71595
1,Almirante Tamandaré/PR,-25.3133048,-49.2997838,101,85.14369
D1,Almirante Tamandaré/PR,-25.3133048,-49.2997838,2,1.68601
1,Aloândia/GO,-17.7277983,-49.4809338,1,50.12531
1,Alpercata/MG,-18.9803616,-41.9827637,4,53.87931
1,Alpestre/RS,-27.2512339,-53.0349646,13,207.73410
1,Alpinópolis/MG,-20.863611,-46.387777,1,5.03702
1,Alta Floresta D'Oeste/RO,-11.9296917,-61.9961284,76,331.22685
1,Alta Floresta/MT,-9.8715018,-56.0839881,124,239.46545
D1,Alta Floresta/MT,-9.8715018,-56.0839881,3,5.79352
1,Altair/SP,-20.5238955,-49.0606135,1,24.03846
1,Altamira do Maranhão/MA,-4.1643006,-45.4674574,4,49.21260
D1,Altamira do Maranhão/MA,-4.1643006,-45.4674574,2,24.60630
1,Altamira do Paraná/PR,-24.799114,-52.7128633,1,51.49331
1,Altamira/PA,-3.204065,-52.209961,1098,958.16535
D1,Altamira/PA,-3.204065,-52.209961,46,40.14172
1,Altaneira/CE,-6.9980933,-39.7385742,2,26.36436
1,Alterosa/MG,-21.249166,-46.143055,2,13.82552
1,Altinho/PE,-8.4904095,-36.0607494,100,435.31255
D1,Altinho/PE,-8.4904095,-36.0607494,3,13.05938
1,Altinópolis/SP,-21.021364,-47.3712,12,74.14731
1,Alto Alegre do Maranhão/MA,-4.2055693,-44.4525287,259,957.37996
D1,Alto Alegre do Maranhão/MA,-4.2055693,-44.4525287,7,25.87513
1,Alto Alegre do Pindaré/MA,-3.6698186,-45.8462153,209,654.78242
D1,Alto Alegre do Pindaré/MA,-3.6698186,-45.8462153,1,3.13293
1,Alto Alegre dos Parecis/RO,-12.1314515,-61.856265,32,241.67359
D1,Alto Alegre dos Parecis/RO,-12.1314515,-61.856265,1,7.55230
1,Alto Alegre/RR,2.98858,-61.307167,173,1115.40941
D1,Alto Alegre/RR,2.98858,-61.307167,5,32.23727
1,Alto Alegre/SP,-21.5820592,-50.1661976,2,48.79239
D1,Alto Alegre/SP,-21.5820592,-50.1661976,1,24.39619
1,Alto Araguaia/MT,-17.3156528,-53.2169365,26,136.52594
D1,Alto Araguaia/MT,-17.3156528,-53.2169365,3,15.75299
1,Alto Bela Vista/SC,-27.4320737,-51.905771,6,309.75736
1,Alto Boa Vista/MT,-11.6723985,-51.3744431,23,337.14453
D1,Alto Boa Vista/MT,-11.6723985,-51.3744431,2,29.31692
1,Alto Caparaó/MG,-20.4405661,-41.8683799,2,34.20558
1,Alto Feliz/RS,-29.3785943,-51.3123751,3,99.07530
1,Alto Garças/MT,-16.9469683,-53.529427,11,91.43807
1,Alto Jequitibá/MG,-20.423611,-41.966111,17,204.40063
D1,Alto Jequitibá/MG,-20.423611,-41.966111,1,12.02357
1,Alto Longá/PI,-5.2549051,-42.2072388,22,153.80313
D1,Alto Longá/PI,-5.2549051,-42.2072388,1,6.99105
1,Alto Paraguai/MT,-14.513712,-56.4936374,6,52.83551
1,Alto Paraná/PR,-23.131247,-52.318893,13,88.01625
1,Alto Paraíso de Goiás/GO,-14.1304779,-47.5100161,6,78.69885
1,Alto Paraíso/PR,-23.508137,-53.728537,1,36.48304
1,Alto Paraíso/RO,-9.7240103,-63.3188123,41,191.33844
D1,Alto Paraíso/RO,-9.7240103,-63.3188123,3,14.00037
1,Alto Parnaíba/MA,-9.112506,-45.9310154,59,527.25648
1,Alto Piquiri/PR,-24.0239021,-53.4417448,5,50.83367
1,Alto Rio Doce/MG,-21.0239537,-43.4133507,41,372.72727
D1,Alto Rio Doce/MG,-21.0239537,-43.4133507,1,9.09091
1,Alto Rio Novo/ES,-19.0577208,-41.0171518,11,140.37774
D1,Alto Rio Novo/ES,-19.0577208,-41.0171518,2,25.52323
1,Alto Santo/CE,-5.5190371,-38.2719351,66,384.92943
D1,Alto Santo/CE,-5.5190371,-38.2719351,4,23.32906
1,Alto Taquari/MT,-17.8269099,-53.2831736,3,27.65742
D1,Alto Taquari/MT,-17.8269099,-53.2831736,1,9.21914
1,Alto do Rodrigues/RN,-5.290868,-36.7616726,109,750.22369
D1,Alto do Rodrigues/RN,-5.290868,-36.7616726,6,41.29672
1,Altos/PI,-5.0393915,-42.4611694,280,690.94857
D1,Altos/PI,-5.0393915,-42.4611694,4,9.87069
1,Altônia/PR,-23.8722004,-53.894037,2,9.06783
1,Alumínio/SP,-23.5203479,-47.2575256,31,166.41615
D1,Alumínio/SP,-23.5203479,-47.2575256,2,10.73653
1,Alvarenga/MG,-19.4175,-41.728334,74,1894.03635
1,Alvarães/AM,-3.214786,-64.8143124,505,3148.18278
D1,Alvarães/AM,-3.214786,-64.8143124,12,74.80830
1,Alvinlândia/SP,-22.4431852,-49.7643596,1,31.03662
1,Alvinópolis/MG,-20.1105199,-43.0601805,7,46.04354
1,Alvorada D'Oeste/RO,-11.346271,-62.284697,12,83.26972
D1,Alvorada D'Oeste/RO,-11.346271,-62.284697,1,6.93914
1,Alvorada de Minas/MG,-18.7318587,-43.3641479,2,55.46312
1,Alvorada do Gurguéia/PI,-8.4465288,-43.8655915,2,36.90718
1,Alvorada do Norte/GO,-14.483911,-46.4959897,1,11.54734
1,Alvorada do Sul/PR,-22.7807269,-51.2307721,9,78.90584
D1,Alvorada do Sul/PR,-22.7807269,-51.2307721,2,17.53463
1,Alvorada/RS,-29.9981184,-51.0772509,248,117.92397
D1,Alvorada/RS,-29.9981184,-51.0772509,5,2.37750
1,Alvorada/TO,-12.478465,-49.124926,8,95.10223
1,Além Paraíba/MG,-21.8760576,-42.6810473,101,285.61733
D1,Além Paraíba/MG,-21.8760576,-42.6810473,2,5.65579
1,Amajari/RR,3.6523869,-61.4194315,63,492.34136
D1,Amajari/RR,3.6523869,-61.4194315,3,23.44483
1,Amambai/MS,-23.1082701,-55.2284854,9,22.84496
1,Amaporã/PR,-23.094272,-52.786597,19,303.65990
1,Amapá do Maranhão/MA,-1.6762114,-46.0109669,3,43.09107
1,Amapá/AP,2.0529997,-50.7930003,263,2887.25436
D1,Amapá/AP,2.0529997,-50.7930003,4,43.91261
1,Amaraji/PE,-8.373925,-35.4536527,91,398.61580
D1,Amaraji/PE,-8.373925,-35.4536527,15,65.70590
1,Amaralina/GO,-13.9236199,-49.2962411,3,78.69885
1,Amarante do Maranhão/MA,-5.56913,-46.747284,420,1013.63582
D1,Amarante do Maranhão/MA,-5.56913,-46.747284,10,24.13419
1,Amarante/PI,-6.2459374,-42.8476238,8,45.45971
1,Amargosa/BA,-13.03793715,-39.60796443875596,23,61.75989
D1,Amargosa/BA,-13.03793715,-39.60796443875596,1,2.68521
1,Amaturá/AM,-3.3640509,-68.1994689,363,3146.67129
D1,Amaturá/AM,-3.3640509,-68.1994689,8,69.34813
1,Americana/SP,-22.7392463,-47.3306032,357,149.00020
D1,Americana/SP,-22.7392463,-47.3306032,17,7.09525
1,Americano do Brasil/GO,-16.2515808,-49.9806104,8,130.91147
1,Ametista do Sul/RS,-27.3617341,-53.1826575,9,121.47388
1,Amontada/CE,-3.3634586,-39.8284791,530,1219.73672
D1,Amontada/CE,-3.3634586,-39.8284791,13,29.91807
1,Amorinópolis/GO,-16.6211308,-51.0949921,2,63.97953
1,Amparo de São Francisco/SE,-10.1299754,-36.9269099,7,294.86099
1,Amparo do Serra/MG,-20.5070255,-42.8028462,1,21.21791
1,Amparo/PB,-7.56394725,-37.04652873235175,12,536.19303
1,Amparo/SP,-22.70111,-46.76444,106,146.82457
D1,Amparo/SP,-22.70111,-46.76444,5,6.92569
1,Ampére/PR,-25.9168712,-53.4742414,6,31.32832
D1,Ampére/PR,-25.9168712,-53.4742414,1,5.22139
1,Amélia Rodrigues/BA,-12.4015388,-38.7516971,47,187.23608
1,América Dourada/BA,-11.4515262,-41.4357517,4,24.85398
1,Américo Brasiliense/SP,-21.7297099,-48.1052092,98,241.95141
D1,Américo Brasiliense/SP,-21.7297099,-48.1052092,2,4.93778
1,Américo de Campos/SP,-20.298476,-49.735904,20,335.06450
1,Anadia/AL,-9.6830208,-36.3052699,156,889.14221
D1,Anadia/AL,-9.6830208,-36.3052699,1,5.69963
1,Anagé/BA,-14.6134669,-41.1376308,4,18.17769
D1,Anagé/BA,-14.6134669,-41.1376308,1,4.54442
1,Anahy/PR,-24.6450861,-53.1337957,9,321.31382
1,Anajatuba/MA,-3.26441,-44.6179916,129,481.28941
D1,Anajatuba/MA,-3.26441,-44.6179916,5,18.65463
1,Anajás/PA,-0.9878802,-49.9390114,242,826.58742
D1,Anajás/PA,-0.9878802,-49.9390114,8,27.32520
1,Analândia/SP,-22.128917,-47.661939,2,40.04004
1,Anamã/AM,-3.5797356,-61.4049996,263,1931.83488
1,Ananindeua/PA,-1.374035,-48.4016623,3877,730.68500
D1,Ananindeua/PA,-1.374035,-48.4016623,317,59.74391
1,Ananás/TO,-6.3663053,-48.080238,23,240.86292
1,Anapu/PA,-3.4668292,-51.2057035,383,1373.25206
D1,Anapu/PA,-3.4668292,-51.2057035,4,14.34206
1,Anapurus/MA,-3.6751298,-43.1046001,433,2752.35189
D1,Anapurus/MA,-3.6751298,-43.1046001,4,25.42588
1,Anastácio/MS,-20.4832458,-55.8048448,3,11.93555
D1,Anastácio/MS,-20.4832458,-55.8048448,1,3.97852
1,Anchieta/ES,-20.8057672,-40.6454564,244,833.81745
D1,Anchieta/ES,-20.8057672,-40.6454564,5,17.08642
1,Anchieta/SC,-26.5350527,-53.3293938,9,159.63107
1,Andaraí/BA,-12.8059674,-41.3322919,4,30.43445
1,Andirá/PR,-23.0494761,-50.2310027,43,214.66727
D1,Andirá/PR,-23.0494761,-50.2310027,1,4.99226
1,Andorinha/BA,-10.3445708,-39.8334411,3,20.55498
1,Andradas/MG,-22.0680484,-46.5688976,11,26.77898
D1,Andradas/MG,-22.0680484,-46.5688976,1,2.43445
1,Andradina/SP,-20.896505,-51.3742765,50,87.47835
D1,Andradina/SP,-20.896505,-51.3742765,4,6.99827
1,Andrelândia/MG,-21.739722,-44.308889,16,130.89005
1,Angatuba/SP,-23.4938938,-48.4110675,40,158.55399
D1,Angatuba/SP,-23.4938938,-48.4110675,2,7.92770
1,Angelim/PE,-8.8902038,-36.2872987,4,35.87444
1,Angical do Piauí/PI,-6.0872666,-42.7366138,15,220.97820
D1,Angical do Piauí/PI,-6.0872666,-42.7366138,1,14.73188
1,Angical/BA,-12.005623,-44.7000236,1,7.15461
1,Angico/TO,-6.3893733,-47.8656722,4,116.51617
1,Angicos/RN,-5.6666344,-36.6009064,22,187.80946
D1,Angicos/RN,-5.6666344,-36.6009064,2,17.07359
1,Angra dos Reis/RJ,-23.0063966,-44.316326,1864,914.68950
D1,Angra dos Reis/RJ,-23.0063966,-44.316326,72,35.33135
1,Anguera/BA,-12.1509425,-39.2452469,23,204.97282
1,Angélica/MS,-22.1588196,-53.7728504,4,37.10575
1,Anhanguera/GO,-18.3338749,-48.220363,1,87.03220
1,Anhembi/SP,-22.7891096,-48.1316776,2,29.74420
1,Anhumas/SP,-22.2956478,-51.3873401,3,72.90401
1,Anicuns/GO,-16.4606451,-49.9572265,32,146.45309
1,Anita Garibaldi/SC,-27.6855032,-51.1293873,2,28.03869
1,Anori/AM,-3.7435254,-61.6605203,566,2693.95526
D1,Anori/AM,-3.7435254,-61.6605203,9,42.83674
1,Anta Gorda/RS,-28.9718745,-52.0069187,8,133.75690
1,Antas/BA,-10.4114649,-38.3308815,2,10.36753
1,Antonina do Norte/CE,-6.7754187,-39.9879345,9,122.39902
1,Antonina/PR,-25.4298854,-48.7125431,12,63.22445
1,Antônio Cardoso/BA,-12.4363122,-39.1200307,6,51.35667
1,Antônio Carlos/MG,-21.318334,-43.746666,12,104.84928
1,Antônio Carlos/SC,-27.5168462,-48.7684715,38,446.37613
D1,Antônio Carlos/SC,-27.5168462,-48.7684715,4,46.98696
1,Antônio Dias/MG,-19.6525,-42.872778,24,257.56600
1,Antônio Gonçalves/BA,-10.5715409,-40.2748824,4,33.90405
1,Antônio Martins/RN,-6.2155812,-37.8890129,2,27.99160
1,Antônio Olinto/PR,-25.9849006,-50.1974516,2,26.90342
1,Antônio Prado/RS,-28.8567806,-51.2801355,6,45.97701
1,Anápolis/GO,-16.3332828,-48.9525756,562,145.24854
D1,Anápolis/GO,-16.3332828,-48.9525756,5,1.29225
1,Anísio de Abreu/PI,-9.185643,-43.04941,18,182.18623
1,Aparecida d'Oeste/SP,-20.4498109,-50.8808706,4,95.32888
1,Aparecida de Goiânia/GO,-16.8226769,-49.2452546,1639,283.47622
D1,Aparecida de Goiânia/GO,-16.8226769,-49.2452546,32,5.53462
1,Aparecida do Rio Doce/GO,-18.2980167,-51.1491312,21,848.82781
D1,Aparecida do Rio Doce/GO,-18.2980167,-51.1491312,1,40.42037
1,Aparecida do Taboado/MS,-20.0840304,-51.1013943,8,31.07399
1,Aparecida/PB,-6.7859598, -38.0831353,19,227.62669
1,Aparecida/SP,-22.851552,-45.2340924,14,38.72003
1,Aperibé/RJ,-21.6211928,-42.1028167,63,535.75984
1,Apiacá/ES,-21.152272,-41.569297,26,343.59720
1,Apiaí/SP,-24.5076527,-48.8461582,10,41.02732
1,Apicum-Açu/MA,-1.5279295,-45.082278,196,1136.95690
D1,Apicum-Açu/MA,-1.5279295,-45.082278,2,11.60160
1,Apiúna/SC,-27.0374658,-49.3885037,5,46.54193
1,Apodi/RN,-5.6631109,-37.796927,617,1721.30004
D1,Apodi/RN,-5.6631109,-37.796927,8,22.31831
1,Aporá/BA,-11.6599747,-38.0794757,34,191.75455
D1,Aporá/BA,-11.6599747,-38.0794757,1,5.63984
1,Apuarema/BA,-13.8517897,-39.7457126,7,95.49795
1,Apucarana/PR,-23.5525327,-51.4610764,79,58.52025
D1,Apucarana/PR,-23.5525327,-51.4610764,5,3.70381
1,Apuiarés/CE,-3.9460303,-39.4313298,119,815.06849
D1,Apuiarés/CE,-3.9460303,-39.4313298,9,61.64384
1,Apuí/AM,-7.1940195,-59.8830192,30,136.53120
1,Aquidabã/SE,-10.2837579,-37.0188687,48,222.60353
D1,Aquidabã/SE,-10.2837579,-37.0188687,3,13.91272
1,Aquidauana/MS,-20.473969,-55.7821375,1,2.08895
1,Aquiraz/CE,-3.9063117,-38.387504,571,711.34033
D1,Aquiraz/CE,-3.9063117,-38.387504,19,23.66982
1,Arabutã/SC,-27.1587028,-52.1438142,32,749.94141
1,Aracaju/SE,-10.9162061,-37.0774655,11476,1746.69299
D1,Aracaju/SE,-10.9162061,-37.0774655,211,32.11504
1,Aracati/CE,-4.558259,-37.767894,649,870.59171
D1,Aracati/CE,-4.558259,-37.767894,31,41.58450
1,Aracatu/BA,-14.4274236,-41.4604105,12,91.35896
1,Araci/BA,-11.3356065,-38.9573261,115,211.47870
D1,Araci/BA,-11.3356065,-38.9573261,1,1.83895
1,Aracoiaba/CE,-4.3702577,-38.8084313,360,1360.08160
D1,Aracoiaba/CE,-4.3702577,-38.8084313,7,26.44603
1,Aracruz/ES,-19.8245218,-40.2735025,495,489.03379
D1,Aracruz/ES,-19.8245218,-40.2735025,23,22.72278
1,Aragarças/GO,-15.8957166,-52.2514538,27,134.20817
D1,Aragarças/GO,-15.8957166,-52.2514538,1,4.97067
1,Aragoiânia/GO,-16.9146388,-49.4499148,12,116.41444
1,Aragominas/TO,-7.1654101,-48.525488,33,573.11567
1,Araguacema/TO,-8.8067391,-49.5560969,1,14.11233
1,Araguanã/MA,-2.9508403,-45.6651986,351,2275.37923
D1,Araguanã/MA,-2.9508403,-45.6651986,2,12.96512
1,Araguanã/TO,-6.5799107,-48.6428482,24,418.92128
D1,Araguanã/TO,-6.5799107,-48.6428482,1,17.45505
1,Araguapaz/GO,-15.0937927,-50.626417,1,12.87001
D1,Araguapaz/GO,-15.0937927,-50.626417,1,12.87001
1,Araguari/MG,-18.6511256,-48.1933764,128,109.15262
D1,Araguari/MG,-18.6511256,-48.1933764,3,2.55826
1,Araguatins/TO,-5.6522925,-48.1158973,155,433.43307
D1,Araguatins/TO,-5.6522925,-48.1158973,16,44.74148
1,Araguaçu/TO,-12.928934,-49.823134,13,152.63590
D1,Araguaçu/TO,-12.928934,-49.823134,1,11.74122
1,Araguaína/TO,-7.193241,-48.2018597,3297,1826.89644
D1,Araguaína/TO,-7.193241,-48.2018597,51,28.25954
1,Araioses/MA,-2.890914,-41.904993,296,637.38157
D1,Araioses/MA,-2.890914,-41.904993,3,6.45995
1,Aramari/BA,-12.0907897,-38.4985065,4,35.09696
1,Arame/MA,-4.8858769,-46.0102484,148,452.58555
D1,Arame/MA,-4.8858769,-46.0102484,3,9.17403
1,Aramina/SP,-20.0876144,-47.789201,4,71.17438
D1,Aramina/SP,-20.0876144,-47.789201,1,17.79359
1,Arandu/SP,-23.1345103,-49.0545651,13,204.49898
D1,Arandu/SP,-23.1345103,-49.0545651,2,31.46138
1,Arantina/MG,-21.911667,-44.255833,3,107.33453
1,Arapeí/SP,-22.6738889,-44.4477778,1,40.50223
D1,Arapeí/SP,-22.6738889,-44.4477778,1,40.50223
1,Arapiraca/AL,-9.754866,-36.661471,2106,908.74963
D1,Arapiraca/AL,-9.754866,-36.661471,27,11.65064
1,Arapoema/TO,-7.6575001,-49.0641484,4,60.21376
1,Arapongas/PR,-23.415296,-51.42592,69,56.08525
D1,Arapongas/PR,-23.415296,-51.42592,3,2.43849
1,Araporã/MG,-18.4318188,-49.188313,13,189.25608
D1,Araporã/MG,-18.4318188,-49.188313,1,14.55816
1,Arapoti/PR,-24.1457957,-49.8224605,55,195.62511
1,Araputanga/MT,-15.4710868,-58.346796,14,83.22435
1,Arapuá/MG,-19.034444,-46.155556,8,282.28652
1,Araquari/SC,-26.3703324,-48.7210994,56,146.86984
D1,Araquari/SC,-26.3703324,-48.7210994,1,2.62268
1,Arara/PB,-6.8271895,-35.7605703,61,452.85820
1,Araranguá/SC,-28.9348832,-49.4858389,92,134.84200
D1,Araranguá/SC,-28.9348832,-49.4858389,2,2.93135
1,Araraquara/SP,-21.7886713,-48.1773096,741,313.88729
D1,Araraquara/SP,-21.7886713,-48.1773096,8,3.38880
1,Araras/SP,-22.3569477,-47.3838889,274,204.11812
D1,Araras/SP,-22.3569477,-47.3838889,4,2.97983
1,Ararendá/CE,-4.7504395,-40.8303611,4,36.57979
D1,Ararendá/CE,-4.7504395,-40.8303611,1,9.14495
1,Arari/MA,-3.4547602,-44.7772723,141,472.39346
D1,Arari/MA,-3.4547602,-44.7772723,2,6.70062
1,Araricá/RS,-29.6168543,-50.929121,5,87.75009
1,Araripe/CE,-7.212861,-40.1359222,37,171.29630
1,Araripina/PE,-7.5768582,-40.5038509,169,200.19427
D1,Araripina/PE,-7.5768582,-40.5038509,3,3.55374
1,Araruama/RJ,-22.8733203,-42.3428897,297,224.32024
D1,Araruama/RJ,-22.8733203,-42.3428897,30,22.65861
1,Araruna/PB,-6.5321155,-35.7397595,34,167.38874
D1,Araruna/PB,-6.5321155,-35.7397595,2,9.84640
1,Araruna/PR,-23.9320308,-52.4976047,23,164.63851
D1,Araruna/PR,-23.9320308,-52.4976047,2,14.31639
1,Arataca/BA,-15.2617424,-39.4122943,2,18.15047
1,Aratiba/RS,-27.3955734,-52.3024325,7,112.26945
1,Aratuba/CE,-4.4195958,-39.0463737,79,666.83549
D1,Aratuba/CE,-4.4195958,-39.0463737,1,8.44096
1,Aratuípe/BA,-13.077137,-39.0010786,1,11.33144
D1,Aratuípe/BA,-13.077137,-39.0010786,1,11.33144
1,Araucária/PR,-25.5861107,-49.4051209,238,165.45817
D1,Araucária/PR,-25.5861107,-49.4051209,2,1.39040
1,Arauá/SE,-11.2644014,-37.6181058,25,248.60780
D1,Arauá/SE,-11.2644014,-37.6181058,4,39.77725
1,Araxá/MG,-19.5928536,-46.940241,199,187.33114
D1,Araxá/MG,-19.5928536,-46.940241,4,3.76545
1,Araçagi/PB,-6.8519969,-35.3835602,157,924.23618
D1,Araçagi/PB,-6.8519969,-35.3835602,2,11.77371
1,Araçariguama/SP,-23.438611,-47.061389,51,228.04507
D1,Araçariguama/SP,-23.438611,-47.061389,1,4.47147
1,Araças/BA,-12.2139176,-38.2026159,2,16.42441
1,Araçatuba/SP,-21.207992,-50.4390225,405,205.56706
D1,Araçatuba/SP,-21.207992,-50.4390225,14,7.10602
1,Araçoiaba da Serra/SP,-23.5045367,-47.6168158,73,213.78785
D1,Araçoiaba da Serra/SP,-23.5045367,-47.6168158,2,5.85720
1,Araçoiaba/PE,-7.7856903,-35.0898881,54,263.10661
D1,Araçoiaba/PE,-7.7856903,-35.0898881,8,38.97876
1,Araçu/GO,-16.3561579,-49.6815269,1,28.39296
1,Araçuaí/MG,-16.8484451,-42.0661868,6,16.34521
1,Arceburgo/MG,-21.364444,-46.939722,7,64.98329
1,Arcos/MG,-20.282223,-45.539444,25,62.35658
1,Arcoverde/PE,-8.415192,-37.057748,217,291.90992
D1,Arcoverde/PE,-8.415192,-37.057748,20,26.90414
1,Areal/RJ,-22.2314922,-43.1056264,82,652.24308
D1,Areal/RJ,-22.2314922,-43.1056264,1,7.95418
1,Arealva/SP,-22.0301906,-48.9111936,2,23.36449
1,Areia Branca/RN,-4.9506652,-37.1263312,421,1515.80615
D1,Areia Branca/RN,-4.9506652,-37.1263312,34,122.41665
1,Areia Branca/SE,-10.7591455,-37.3148072,104,560.88879
D1,Areia Branca/SE,-10.7591455,-37.3148072,5,26.96581
1,Areia de Baraúnas/PB,-7.1233949,-36.9446216,1,46.99248
1,Areia/PB,-6.9680243,-35.6994783,119,521.49525
D1,Areia/PB,-6.9680243,-35.6994783,1,4.38231
1,Areial/PB,-7.0501306,-35.9245244,22,314.37554
D1,Areial/PB,-7.0501306,-35.9245244,1,14.28980
1,Areiópolis/SP,-22.6758064,-48.6673653,17,152.75407
D1,Areiópolis/SP,-22.6758064,-48.6673653,3,26.95660
1,Arenápolis/MT,-14.4610369,-56.8432806,17,176.95430
1,Arinos/MG,-15.917223,-46.106111,1,5.59441
1,Aripuanã/MT,-10.175806,-59.4439663,54,241.56750
D1,Aripuanã/MT,-10.175806,-59.4439663,2,8.94694
1,Ariquemes/RO,-9.9076522,-63.033069,983,911.34124
D1,Ariquemes/RO,-9.9076522,-63.033069,19,17.61494
1,Ariranha/SP,-21.18716,-48.790418,41,424.07944
1,Armazém/SC,-28.2624996,-49.0190126,28,322.80378
1,Armação dos Búzios/RJ,-22.7597805,-41.8875267,161,475.34691
D1,Armação dos Búzios/RJ,-22.7597805,-41.8875267,5,14.76233
1,Arneiroz/CE,-6.3235099,-40.1603859,28,357.14286
1,Aroazes/PI,-6.1108814,-41.7886137,3,51.41388
D1,Aroazes/PI,-6.1108814,-41.7886137,1,17.13796
1,Aroeiras/PB,-7.5462904,-35.7080002,67,349.81465
1,Arraial do Cabo/RJ,-22.9662839,-42.024427,67,220.76510
D1,Arraial do Cabo/RJ,-22.9662839,-42.024427,4,13.18001
1,Arraias/TO,-12.9287788,-46.9437231,5,47.31712
1,Arroio Grande/RS,-32.2384246,-53.0866661,3,16.39972
1,Arroio Trinta/SC,-26.9301976,-51.334928,13,366.19718
1,Arroio do Meio/RS,-29.4020392,-51.9444993,138,663.30209
1,Arroio do Sal/RS,-29.549852,-49.8874395,11,109.28962
D1,Arroio do Sal/RS,-29.549852,-49.8874395,1,9.93542
1,Arroio dos Ratos/RS,-30.0894524,-51.7265541,12,84.79966
D1,Arroio dos Ratos/RS,-30.0894524,-51.7265541,1,7.06664
1,Artur Nogueira/SP,-22.572737,-47.172679,50,91.89825
D1,Artur Nogueira/SP,-22.572737,-47.172679,2,3.67593
1,Aruanã/GO,-14.9162439,-51.0715692,1,10.12658
1,Arujá/SP,-23.396266,-46.3175449,435,484.28037
D1,Arujá/SP,-23.396266,-46.3175449,31,34.51193
1,Arvoredo/SC,-27.0752908,-52.4571847,20,892.85714
D1,Arvoredo/SC,-27.0752908,-52.4571847,1,44.64286
1,Arvorezinha/RS,-28.87369,-52.17808,6,57.55948
1,Arês/RN,-6.1969216,-35.1642968,45,314.55333
1,Ascurra/SC,-26.9569975,-49.3767752,7,88.22788
1,Aspásia/SP,-20.160028,-50.728046,6,329.30845
1,Assaré/CE,-6.8746791,-39.8741385,71,303.19853
D1,Assaré/CE,-6.8746791,-39.8741385,2,8.54080
1,Assaí/PR,-23.3736041,-50.8454929,16,105.82710
D1,Assaí/PR,-23.3736041,-50.8454929,3,19.84258
1,Assis Brasil/AC,-10.9409203,-69.5672108,141,1901.03816
D1,Assis Brasil/AC,-10.9409203,-69.5672108,5,67.41270
1,Assis Chateaubriand/PR,-24.4054826,-53.5120468,61,182.84276
D1,Assis Chateaubriand/PR,-24.4054826,-53.5120468,2,5.99484
1,Assis/SP,-22.6620892,-50.420623,118,113.04198
D1,Assis/SP,-22.6620892,-50.420623,6,5.74790
1,Assunção do Piauí/PI,-5.8610212,-41.0485091,2,25.49070
1,Assunção/PB,-7.073396,-36.7274003,21,526.31579
1,Astolfo Dutra/MG,-21.3132636,-42.8624102,16,112.84294
D1,Astolfo Dutra/MG,-21.3132636,-42.8624102,1,7.05268
1,Astorga/PR,-23.2350184,-51.6647074,1,3.82980
1,Atalaia do Norte/AM,-4.3658547,-70.1908742,424,2128.40721
D1,Atalaia do Norte/AM,-4.3658547,-70.1908742,1,5.01983
1,Atalaia/AL,-9.5029595,-36.0219316,389,824.41454
D1,Atalaia/AL,-9.5029595,-36.0219316,6,12.71591
1,Atalaia/PR,-23.1513833,-52.0529697,1,25.69373
1,Atalanta/SC,-27.421916,-49.778863,5,155.76324
1,Ataléia/MG,-18.04432,-41.1110524,6,46.62729
1,Atibaia/SP,-23.1177393,-46.5547861,148,103.66977
D1,Atibaia/SP,-23.1177393,-46.5547861,7,4.90330
1,Atilio Vivacqua/ES,-20.9139369,-41.1947519,44,368.63271
D1,Atilio Vivacqua/ES,-20.9139369,-41.1947519,1,8.37802
1,Augustinópolis/TO,-5.4662267,-47.8897519,136,738.64871
D1,Augustinópolis/TO,-5.4662267,-47.8897519,4,21.72496
1,Augusto Corrêa/PA,-1.0229335,-46.6404029,425,923.95322
D1,Augusto Corrêa/PA,-1.0229335,-46.6404029,15,32.61011
1,Aurelino Leal/BA,-14.3167137,-39.3256107,51,442.28601
1,Auriflama/SP,-20.6840418,-50.5554616,15,98.75568
1,Aurilândia/GO,-16.6772599,-50.4641231,6,192.30769
1,Aurora do Pará/PA,-2.1323199,-47.558436,229,730.74223
D1,Aurora do Pará/PA,-2.1323199,-47.558436,6,19.14608
1,Aurora do Tocantins/TO,-12.71045,-46.407604,9,239.55283
1,Aurora/CE,-6.9426019,-38.9693765,20,81.12274
D1,Aurora/CE,-6.9426019,-38.9693765,3,12.16841
1,Aurora/SC,-27.3166417,-49.6368502,5,88.04367
1,Autazes/AM,-3.5833283,-59.1301518,872,2203.96815
D1,Autazes/AM,-3.5833283,-59.1301518,27,68.24213
1,Avanhandava/SP,-21.4603331,-49.9465156,3,21.97963
1,Avaré/SP,-23.1045215,-48.9259103,96,105.89598
D1,Avaré/SP,-23.1045215,-48.9259103,7,7.72158
1,Avaí/SP,-22.1564662,-49.3316395,2,37.01647
1,Aveiro/PA,-3.6049239,-55.3310742,72,439.34586
D1,Aveiro/PA,-3.6049239,-55.3310742,1,6.10203
1,Avelino Lopes/PI,-10.1346855,-43.9489525,3,26.57454
1,Avelinópolis/GO,-16.4672409,-49.7578661,1,41.37360
1,Axixá do Tocantins/TO,-5.612747,-47.77007,46,471.50472
D1,Axixá do Tocantins/TO,-5.612747,-47.77007,2,20.50021
1,Axixá/MA,-2.8379465,-44.0561053,43,354.49299
D1,Axixá/MA,-2.8379465,-44.0561053,1,8.24402
1,Açailândia/MA,-4.9514278,-47.4844564,2312,2056.11632
D1,Açailândia/MA,-4.9514278,-47.4844564,51,45.35551
1,Açu/RN,-5.5836157,-36.9139541,281,484.34080
D1,Açu/RN,-5.5836157,-36.9139541,10,17.23633
1,Açucena/MG,-19.073056,-42.546666,8,84.47730
D1,Açucena/MG,-19.073056,-42.546666,1,10.55966
1,Babaçulândia/TO,-7.2034355,-47.761613,10,93.77344
1,Bacabal/MA,-4.2318132,-44.781167,1530,1457.85096
D1,Bacabal/MA,-4.2318132,-44.781167,15,14.29266
1,Bacabeira/MA,-2.9775747,-44.3155943,115,674.28906
D1,Bacabeira/MA,-2.9775747,-44.3155943,1,5.86338
1,Bacuri/MA,-1.728894,-45.1417148,289,1555.26854
D1,Bacuri/MA,-1.728894,-45.1417148,1,5.38155
1,Bacurituba/MA,-2.7082587,-44.7381309,18,318.92275
1,Bady Bassitt/SP,-20.9178969,-49.4517911,57,325.67707
D1,Bady Bassitt/SP,-20.9178969,-49.4517911,4,22.85453
1,Baependi/MG,-21.959162,-44.8899249,2,10.44496
1,Bagre/PA,-1.8994498,-50.2103844,148,482.50905
D1,Bagre/PA,-1.8994498,-50.2103844,7,22.82137
1,Bagé/RS,-31.3314264,-54.1062808,92,75.94331
1,Baianópolis/BA,-12.3067564,-44.5383591,2,14.41234
1,Baixa Grande do Ribeiro/PI,-7.862861,-45.2113289,36,310.71983
D1,Baixa Grande do Ribeiro/PI,-7.862861,-45.2113289,1,8.63111
1,Baixa Grande/BA,-11.9630941,-40.1657537,1,4.88568
1,Baixio/CE,-6.7303544,-38.7170095,9,143.12977
1,Baixo Guandu/ES,-19.5138322,-41.0182089,157,506.48429
D1,Baixo Guandu/ES,-19.5138322,-41.0182089,7,22.58210
1,Baião/PA,-2.7903479,-49.6702845,207,436.28546
D1,Baião/PA,-2.7903479,-49.6702845,9,18.96893
1,Balneário Arroio do Silva/SC,-28.9815269,-49.4189932,49,374.87568
D1,Balneário Arroio do Silva/SC,-28.9815269,-49.4189932,1,7.65052
1,Balneário Barra do Sul/SC,-26.459842,-48.6061471,22,203.79805
1,Balneário Camboriú/SC,-26.9924395,-48.6339782,954,670.43817
D1,Balneário Camboriú/SC,-26.9924395,-48.6339782,7,4.91936
1,Balneário Gaivota/SC,-29.1553098,-49.5808712,10,91.08298
D1,Balneário Gaivota/SC,-29.1553098,-49.5808712,1,9.10830
1,Balneário Pinhal/RS,-30.2482978,-50.234585,9,63.97498
1,Balneário Piçarras/SC,-26.7638889,-48.6716667,88,380.17886
D1,Balneário Piçarras/SC,-26.7638889,-48.6716667,1,4.32021
1,Balneário Rincão/SC,-28.8235718,-49.2241642,7,54.85893
1,Balsa Nova/PR,-25.5842234,-49.6312741,15,115.91067
1,Balsas/MA,-7.53214,-46.037163,533,561.72078
D1,Balsas/MA,-7.53214,-46.037163,2,2.10777
1,Banabuiú/CE,-5.3046404,-38.919766,137,752.87135
D1,Banabuiú/CE,-5.3046404,-38.919766,1,5.49541
1,Bananal/SP,-22.6828195,-44.3221095,6,54.81955
1,Bananeiras/PB,-6.7537682,-35.6338343,63,295.52491
1,Bandeira/MG,-15.884444,-40.559167,1,20.85506
1,Bandeirantes do Tocantins/TO,-7.7635698,-48.579148,10,281.45229
1,Bandeirantes/MS,-19.9179623,-54.3646768,2,29.46376
1,Bandeirantes/PR,-23.107788,-50.370407,20,63.76128
D1,Bandeirantes/PR,-23.107788,-50.370407,1,3.18806
1,Bannach/PA,-7.3508505,-50.4064531,39,1186.85332
D1,Bannach/PA,-7.3508505,-50.4064531,3,91.29641
1,Banzaê/BA,-10.5827616,-38.6122305,14,105.82810
1,Baraúna/PB,-6.643394,-36.2531932,91,1860.17989
1,Baraúna/RN,-5.0775002,-37.61752,164,577.99394
D1,Baraúna/RN,-5.0775002,-37.61752,8,28.19483
1,Barbacena/MG,-21.2254524,-43.7735087,322,234.50074
D1,Barbacena/MG,-21.2254524,-43.7735087,4,2.91305
1,Barbalha/CE,-7.3121067,-39.3036427,206,338.92170
D1,Barbalha/CE,-7.3121067,-39.3036427,4,6.58100
1,Barbosa Ferraz/PR,-24.0287182,-52.00811,1,8.64454
1,Barbosa/SP,-21.265661,-49.951816,2,27.01972
1,Barcarena/PA,-1.5107945,-48.6190679,1465,1175.00802
D1,Barcarena/PA,-1.5107945,-48.6190679,93,74.59095
1,Barcelona/RN,-5.9514918,-35.9260284,9,225.11256
1,Barcelos/AM,-0.9729214,-62.925635,818,2974.32914
D1,Barcelos/AM,-0.9729214,-62.925635,20,72.72198
1,Bariri/SP,-22.0746355,-48.7394852,45,127.60889
D1,Bariri/SP,-22.0746355,-48.7394852,1,2.83575
1,Barra Bonita/SP,-22.490859,-48.558349,93,257.43232
D1,Barra Bonita/SP,-22.490859,-48.558349,3,8.30427
1,Barra Funda/RS,-27.9230048,-53.0401045,1,39.38558
1,Barra Longa/MG,-20.2833541,-43.0423516,12,233.87254
1,Barra Mansa/RJ,-22.5394843,-44.1735129,362,196.29959
D1,Barra Mansa/RJ,-22.5394843,-44.1735129,28,15.18339
1,Barra Velha/SC,-26.6338203,-48.6835001,46,157.70708
1,Barra da Estiva/BA,-13.6269662,-41.3278287,1,4.85484
1,Barra de Guabiraba/PE,-8.4173522,-35.6626669,73,507.47306
D1,Barra de Guabiraba/PE,-8.4173522,-35.6626669,2,13.90337
1,Barra de Santa Rosa/PB,-6.7218007,-36.0564638,15,97.50390
1,Barra de Santana/PB,-7.5230865,-35.9988518,42,502.45245
1,Barra de Santo Antônio/AL,-9.4038098,-35.5117693,68,426.81396
D1,Barra de Santo Antônio/AL,-9.4038098,-35.5117693,4,25.10670
1,Barra de São Francisco/ES,-18.7570902,-40.8916119,157,351.62374
D1,Barra de São Francisco/ES,-18.7570902,-40.8916119,6,13.43785
1,Barra de São Miguel/AL,-9.8261357,-35.8837777,74,889.20932
D1,Barra de São Miguel/AL,-9.8261357,-35.8837777,2,24.03268
1,Barra de São Miguel/PB,-7.7528088,-36.3170996,6,99.40358
D1,Barra de São Miguel/PB,-7.7528088,-36.3170996,1,16.56726
1,Barra do Bugres/MT,-15.0683712,-57.1853688,11,31.45913
D1,Barra do Bugres/MT,-15.0683712,-57.1853688,1,2.85992
1,Barra do Chapéu/SP,-24.472203,-49.023784,1,17.47030
1,Barra do Choça/BA,-14.8638173,-40.5761637,18,56.95662
1,Barra do Corda/MA,-5.496823,-45.248496,1176,1333.15195
D1,Barra do Corda/MA,-5.496823,-45.248496,13,14.73722
1,Barra do Garças/MT,-15.8916033,-52.2615413,150,245.85327
D1,Barra do Garças/MT,-15.8916033,-52.2615413,9,14.75120
1,Barra do Mendes/BA,-11.8053298,-42.057037,2,14.42481
1,Barra do Ouro/TO,-7.7113784,-47.6743925,8,174.25398
D1,Barra do Ouro/TO,-7.7113784,-47.6743925,2,43.56349
1,Barra do Piraí/RJ,-22.4703403,-43.8263256,330,328.77040
D1,Barra do Piraí/RJ,-22.4703403,-43.8263256,23,22.91430
1,Barra do Ribeiro/RS,-30.2930206,-51.301437,9,66.71114
1,Barra do Rocha/BA,-14.2090974,-39.6004395,5,87.50438
1,Barra do Turvo/SP,-24.756421,-48.5056942,12,156.67842
D1,Barra do Turvo/SP,-24.756421,-48.5056942,1,13.05653
1,Barra dos Coqueiros/SE,-10.9075694,-37.0386249,372,1223.40251
D1,Barra dos Coqueiros/SE,-10.9075694,-37.0386249,4,13.15487
1,Barra/BA,-11.0892702,-43.1420453,21,39.19519
1,Barracão/PR,-26.252395,-53.6349576,7,68.12652
1,Barracão/RS,-27.6728964,-51.4582928,3,56.87204
1,Barras/PI,-4.2446153,-42.2920241,457,970.97693
D1,Barras/PI,-4.2446153,-42.2920241,12,25.49611
1,Barreira/CE,-4.2883361,-38.641094,182,811.59420
D1,Barreira/CE,-4.2883361,-38.641094,14,62.43032
1,Barreiras do Piauí/PI,-9.9224524,-45.4763776,2,59.73716
1,Barreiras/BA,-12.1440031,-44.9967406,209,134.45789
D1,Barreiras/BA,-12.1440031,-44.9967406,2,1.28668
1,Barreirinha/AM,-2.798863,-57.067897,528,1647.88864
D1,Barreirinha/AM,-2.798863,-57.067897,6,18.72601
1,Barreirinhas/MA,-2.7541271,-42.8259693,226,361.43808
D1,Barreirinhas/MA,-2.7541271,-42.8259693,16,25.58854
1,Barreiros/PE,-8.8159644,-35.1831905,211,494.62013
D1,Barreiros/PE,-8.8159644,-35.1831905,19,44.53925
1,Barretos/SP,-20.5531437,-48.5697509,687,562.66278
D1,Barretos/SP,-20.5531437,-48.5697509,18,14.74226
1,Barrinha/SP,-21.1898849,-48.1550642,69,210.28892
D1,Barrinha/SP,-21.1898849,-48.1550642,4,12.19066
1,Barro Alto/GO,-14.9696025,-48.9190985,21,188.05409
1,Barro Duro/PI,-5.8180139,-42.5106589,37,526.16610
D1,Barro Duro/PI,-5.8180139,-42.5106589,1,14.22071
1,Barro Preto/BA,-14.8068289,-39.4727588,12,214.63066
1,Barro/CE,-7.1713587,-38.7742136,27,119.04762
D1,Barro/CE,-7.1713587,-38.7742136,5,22.04586
1,Barrocas/BA,-11.5165,-39.099282894736845,33,206.53398
1,Barrolândia/TO,-9.837246,-48.7264346,25,443.89205
D1,Barrolândia/TO,-9.837246,-48.7264346,1,17.75568
1,Barroquinha/CE,-3.0200371,-41.1339229,386,2570.42019
D1,Barroquinha/CE,-3.0200371,-41.1339229,8,53.27296
1,Barros Cassal/RS,-29.094938,-52.5832366,2,17.85874
D1,Barros Cassal/RS,-29.094938,-52.5832366,1,8.92937
1,Barroso/MG,-21.187222,-43.976111,12,57.66458
1,Barueri/SP,-23.5112184,-46.8764612,1808,659.41601
D1,Barueri/SP,-23.5112184,-46.8764612,183,66.74399
1,Barão de Antonina/SP,-23.6295651,-49.5632104,5,144.13376
1,Barão de Cocais/MG,-19.9452437,-43.4870298,72,221.64076
1,Barão de Cotegipe/RS,-27.6214694,-52.3765316,45,679.45040
1,Barão de Grajaú/MA,-6.7542591,-43.0263477,13,69.07545
1,Barão de Melgaço/MT,-16.195776,-55.9668049,4,46.70715
1,Barão de Monte Alto/MG,-21.244722,-42.2375,7,129.70169
1,Barão/RS,-29.372474,-51.494908,5,81.02415
1,Bastos/SP,-21.9222474,-50.7317727,3,14.31776
1,Bataguassu/MS,-21.715899,-52.422058,21,91.20917
1,Batalha/AL,-9.6733809,-37.1265481,134,734.97148
D1,Batalha/AL,-9.6733809,-37.1265481,2,10.96972
1,Batalha/PI,-4.022391,-42.0780926,117,435.64062
D1,Batalha/PI,-4.022391,-42.0780926,4,14.89370
1,Batatais/SP,-20.892867,-47.592149,44,70.39099
D1,Batatais/SP,-20.892867,-47.592149,1,1.59980
1,Batayporã/MS,-22.2976466,-53.2685608,10,88.26904
D1,Batayporã/MS,-22.2976466,-53.2685608,2,17.65381
1,Baturité/CE,-4.3290203,-38.8821055,333,931.46853
D1,Baturité/CE,-4.3290203,-38.8821055,20,55.94406
1,Bauru/SP,-22.3218102,-49.0705863,839,222.65391
D1,Bauru/SP,-22.3218102,-49.0705863,20,5.30760
1,Bayeux/PB,-7.1301631,-34.936532,699,721.51115
D1,Bayeux/PB,-7.1301631,-34.936532,48,49.54583
1,Baía Formosa/RN,-6.3691885,-35.0063741,15,161.79484
D1,Baía Formosa/RN,-6.3691885,-35.0063741,1,10.78632
1,Baía da Traição/PB,-6.691258,-34.9371244,126,1401.08974
D1,Baía da Traição/PB,-6.691258,-34.9371244,3,33.35928
1,Bebedouro/SP,-20.949077,-48.479083,48,61.93868
D1,Bebedouro/SP,-20.949077,-48.479083,4,5.16156
1,Beberibe/CE,-4.1810469,-38.1298101,283,528.25117
D1,Beberibe/CE,-4.1810469,-38.1298101,19,35.46563
1,Bela Cruz/CE,-3.0529129,-40.167582,712,2184.65220
D1,Bela Cruz/CE,-3.0529129,-40.167582,9,27.61499
1,Bela Vista de Goiás/GO,-16.9692949,-48.9513071,45,150.12510
D1,Bela Vista de Goiás/GO,-16.9692949,-48.9513071,1,3.33611
1,Bela Vista de Minas/MG,-19.8289721,-43.0973688,5,48.75670
1,Bela Vista do Maranhão/MA,-3.7416367,-45.2514192,96,856.45463
D1,Bela Vista do Maranhão/MA,-3.7416367,-45.2514192,1,8.92140
1,Bela Vista do Paraíso/PR,-22.9948493,-51.1907996,15,97.42158
D1,Bela Vista do Paraíso/PR,-22.9948493,-51.1907996,2,12.98954
1,Bela Vista do Piauí/PI,-7.9716353,-41.8715061,1,24.90660
1,Bela Vista do Toldo/SC,-26.274625,-50.466354,1,15.78034
1,Bela Vista/MS,-22.107327,-56.5317344,2,8.12051
1,Belford Roxo/RJ,-22.7667284,-43.4033603,1294,253.27555
D1,Belford Roxo/RJ,-22.7667284,-43.4033603,162,31.70838
1,Belmiro Braga/MG,-21.9486291,-43.413564,7,204.14115
D1,Belmiro Braga/MG,-21.9486291,-43.413564,1,29.16302
1,Belmonte/BA,-15.8630837,-38.8792845,52,222.90809
D1,Belmonte/BA,-15.8630837,-38.8792845,1,4.28669
1,Belo Horizonte/MG,-19.9227318,-43.9450948,4428,176.26897
D1,Belo Horizonte/MG,-19.9227318,-43.9450948,96,3.82155
1,Belo Jardim/PE,-8.3338293,-36.4176419,79,103.35038
D1,Belo Jardim/PE,-8.3338293,-36.4176419,5,6.54116
1,Belo Monte/AL,-9.8269944,-37.2787165,11,164.08115
1,Belo Oriente/MG,-19.2232523,-42.4807033,52,194.75655
D1,Belo Oriente/MG,-19.2232523,-42.4807033,4,14.98127
1,Belo Vale/MG,-20.407778,-44.024167,2,25.92353
D1,Belo Vale/MG,-20.407778,-44.024167,1,12.96176
1,Belterra/PA,-2.636091,-54.937392,28,157.90661
D1,Belterra/PA,-2.636091,-54.937392,5,28.19761
1,Belágua/MA,-3.1604031,-43.5085052,158,2115.41036
1,Belém de Maria/PE,-8.6242497,-35.8388934,25,207.07364
1,Belém do Brejo do Cruz/PB,-6.1880727,-37.5332267,6,81.72160
1,Belém do Piauí/PI,-7.3767305,-40.9712156,6,168.25575
D1,Belém do Piauí/PI,-7.3767305,-40.9712156,1,28.04262
1,Belém do São Francisco/PE,-8.7517707,-38.9625715,9,43.41743
1,Belém/AL,-9.5715351,-36.492841,9,207.18232
D1,Belém/AL,-9.5715351,-36.492841,1,23.02026
1,Belém/PA,-1.45056,-48.4682453,17581,1177.76311
D1,Belém/PA,-1.45056,-48.4682453,1837,123.06188
1,Belém/PB,-6.6967586,-35.5369626,158,893.86739
D1,Belém/PB,-6.6967586,-35.5369626,2,11.31478
1,Beneditinos/PI,-5.4565671,-42.3605061,12,114.64603
D1,Beneditinos/PI,-5.4565671,-42.3605061,3,28.66151
1,Benedito Leite/MA,-7.2173453,-44.5523331,14,248.57955
1,Benedito Novo/SC,-26.7840657,-49.3629511,10,85.82218
1,Benevides/PA,-1.3555577,-48.252235,1203,1917.52873
D1,Benevides/PA,-1.3555577,-48.252235,48,76.50987
1,Benjamin Constant do Sul/RS,-27.5105555,-52.6007689,20,1003.00903
1,Benjamin Constant/AM,-4.3782748,-70.0290603,1414,3289.59613
D1,Benjamin Constant/AM,-4.3782748,-70.0290603,27,62.81407
1,Bento Fernandes/RN,-5.6926846,-35.8207423,11,200.10915
D1,Bento Fernandes/RN,-5.6926846,-35.8207423,2,36.38348
1,Bento Gonçalves/RS,-29.1654014,-51.5197627,880,730.56935
D1,Bento Gonçalves/RS,-29.1654014,-51.5197627,26,21.58500
1,Bento de Abreu/SP,-21.2707225,-50.8120444,2,67.11409
1,Bequimão/MA,-2.4495376,-44.7884889,152,714.28571
D1,Bequimão/MA,-2.4495376,-44.7884889,8,37.59398
1,Berilo/MG,-16.9515764,-42.4643732,1,8.38082
1,Bernardino Batista/PB,-6.4532173,-38.5495418,2,57.12654
1,Bernardino de Campos/SP,-23.0140216,-49.4760724,3,26.91066
1,Bernardo do Mearim/MA,-4.6315929,-44.7617508,43,711.56710
D1,Bernardo do Mearim/MA,-4.6315929,-44.7617508,1,16.54807
1,Bertioga/SP,-23.848568,-46.139586,293,463.24843
D1,Bertioga/SP,-23.848568,-46.139586,12,18.97263
1,Bertolínia/PI,-7.6372159,-43.9540611,7,127.24959
1,Beruri/AM,-3.9007135,-61.3717319,374,1900.50307
D1,Beruri/AM,-3.9007135,-61.3717319,6,30.48935
1,Betim/MG,-19.968056,-44.198333,500,113.80707
D1,Betim/MG,-19.968056,-44.198333,23,5.23513
1,Betânia do Piauí/PI,-8.1460635,-40.7961387,3,48.34811
1,Betânia/PE,-8.2742779,-38.0351767,11,86.48479
D1,Betânia/PE,-8.2742779,-38.0351767,1,7.86225
1,Bezerros/PE,-8.2372132,-35.7558262,181,297.70716
D1,Bezerros/PE,-8.2372132,-35.7558262,7,11.51354
1,Bicas/MG,-21.7213723,-43.0604327,9,62.09466
1,Biguaçu/SC,-27.4961277,-48.6542432,136,198.59523
1,Bilac/SP,-21.403962,-50.47464,2,24.89420
1,Biquinhas/MG,-18.783611,-45.502222,1,39.76143
1,Birigui/SP,-21.2908491,-50.34144,151,122.13074
D1,Birigui/SP,-21.2908491,-50.34144,5,4.04406
1,Biritiba-Mirim/SP,-23.5697765,-46.0407456,61,187.12804
D1,Biritiba-Mirim/SP,-23.5697765,-46.0407456,5,15.33836
1,Biritinga/BA,-11.6227908,-38.8066738,1,6.25821
1,Bituruna/PR,-26.161281,-51.5533319,5,30.50827
1,Blumenau/SC,-26.9195567,-49.0658025,929,260.07912
D1,Blumenau/SC,-26.9195567,-49.0658025,6,1.67974
1,Boa Esperança do Sul/SP,-21.9930206,-48.3917372,18,120.61918
D1,Boa Esperança do Sul/SP,-21.9930206,-48.3917372,1,6.70107
1,Boa Esperança/ES,-18.5395472,-40.2904088,99,658.37601
D1,Boa Esperança/ES,-18.5395472,-40.2904088,4,26.60105
1,Boa Esperança/MG,-21.0901253,-45.5660195,41,102.17559
D1,Boa Esperança/MG,-21.0901253,-45.5660195,4,9.96835
1,Boa Hora/PI,-4.4094627,-42.1255341,24,353.93010
1,Boa Nova/BA,-14.365907,-40.2063056,1,7.91578
1,Boa Ventura/PB,-7.4202462,-38.2156782,2,37.27171
1,Boa Viagem/CE,-5.1261877,-39.7300055,116,212.96126
D1,Boa Viagem/CE,-5.1261877,-39.7300055,9,16.52286
1,Boa Vista da Aparecida/PR,-25.4357216,-53.4067721,26,342.51087
1,Boa Vista das Missões/RS,-27.6677983,-53.3127622,2,95.32888
1,Boa Vista do Gurupi/MA,-1.7981168,-46.3071882,11,118.44514
D1,Boa Vista do Gurupi/MA,-1.7981168,-46.3071882,2,21.53548
1,Boa Vista do Ramos/AM,-2.9716927,-57.5869819,151,786.17171
D1,Boa Vista do Ramos/AM,-2.9716927,-57.5869819,2,10.41287
1,Boa Vista do Sul/RS,-29.3510488,-51.6779679,13,467.12181
D1,Boa Vista do Sul/RS,-29.3510488,-51.6779679,1,35.93245
1,Boa Vista do Tupim/BA,-12.6605988,-40.6083594,4,21.53316
1,Boa Vista/PB,-7.2620711,-36.2415161,48,680.75450
1,Boa Vista/RR,2.8208478,-60.6719582,5994,1501.45411
D1,Boa Vista/RR,2.8208478,-60.6719582,196,49.09660
1,Boca da Mata/AL,-9.6452054,-36.2116658,340,1246.28863
D1,Boca da Mata/AL,-9.6452054,-36.2116658,6,21.99333
1,Boca do Acre/AM,-8.7553487,-67.3930873,583,1699.31211
D1,Boca do Acre/AM,-8.7553487,-67.3930873,9,26.23295
1,Bocaina de Minas/MG,-22.167778,-44.394722,2,39.29273
1,Bocaina do Sul/SC,-27.745494,-49.942279,1,28.78526
1,Bocaina/PI,-6.9445939,-41.3224599,10,222.22222
1,Bocaina/SP,-22.1421831,-48.522276,42,340.66023
D1,Bocaina/SP,-22.1421831,-48.522276,1,8.11096
1,Bocaiúva do Sul/PR,-25.206591,-49.114131,8,61.80470
D1,Bocaiúva do Sul/PR,-25.206591,-49.114131,1,7.72559
1,Bocaiúva/MG,-17.1160208,-43.8122678,7,14.00588
1,Bodocó/PE,-7.777592,-39.933797,12,31.45808
1,Bodoquena/MS,-20.5508775,-56.6769653,1,12.69841
1,Bodó/RN,-5.9866104,-36.4134824,1,44.98426
1,Bofete/SP,-23.1019554,-48.2610535,38,323.95567
D1,Bofete/SP,-23.1019554,-48.2610535,3,25.57545
1,Boituva/SP,-23.2838893,-47.6738231,154,252.47143
D1,Boituva/SP,-23.2838893,-47.6738231,6,9.83655
1,Bom Conselho/PE,-9.169191,-36.685683,129,265.68357
D1,Bom Conselho/PE,-9.169191,-36.685683,3,6.17869
1,Bom Despacho/MG,-19.7375242,-45.2517288,44,86.94793
D1,Bom Despacho/MG,-19.7375242,-45.2517288,1,1.97609
1,Bom Jardim da Serra/SC,-28.3380324,-49.625588,1,21.08370
1,Bom Jardim de Goiás/GO,-16.2062659,-52.172793,3,33.93281
1,Bom Jardim de Minas/MG,-21.9476466,-44.1906033,2,30.89280
1,Bom Jardim/MA,-3.54129,-45.606004,322,773.48066
D1,Bom Jardim/MA,-3.54129,-45.606004,3,7.20634
1,Bom Jardim/PE,-7.7961572,-35.5871696,85,216.92528
D1,Bom Jardim/PE,-7.7961572,-35.5871696,12,30.62474
1,Bom Jardim/RJ,-22.1515328,-42.4186683,43,156.67128
D1,Bom Jardim/RJ,-22.1515328,-42.4186683,2,7.28704
1,Bom Jesus da Lapa/BA,-13.250571,-43.410754,40,57.84694
1,Bom Jesus da Serra/BA,-14.3724084,-40.5047119,1,10.12146
1,Bom Jesus das Selvas/MA,-4.4878075,-46.8526639,511,1501.70448
D1,Bom Jesus das Selvas/MA,-4.4878075,-46.8526639,1,2.93876
1,Bom Jesus de Goiás/GO,-18.2174587,-49.739721,23,91.21193
1,Bom Jesus do Amparo/MG,-19.7045132,-43.4752911,4,65.75703
1,Bom Jesus do Araguaia/MT,-12.1725897,-51.5074425,20,303.95137
1,Bom Jesus do Galho/MG,-19.8283191,-42.3162256,3,20.08704
D1,Bom Jesus do Galho/MG,-19.8283191,-42.3162256,1,6.69568
1,Bom Jesus do Itabapoana/RJ,-21.1341025,-41.680095,100,269.57084
D1,Bom Jesus do Itabapoana/RJ,-21.1341025,-41.680095,2,5.39142
1,Bom Jesus do Norte/ES,-21.1254776,-41.6711646,45,452.89855
1,Bom Jesus do Sul/PR,-26.1922507,-53.6002033,3,84.72183
D1,Bom Jesus do Sul/PR,-26.1922507,-53.6002033,1,28.24061
1,Bom Jesus do Tocantins/PA,-5.0471796,-48.5978362,55,323.89141
1,Bom Jesus do Tocantins/TO,-8.96306,-48.165043,3,61.29955
1,Bom Jesus dos Perdões/SP,-23.1353864,-46.4648052,25,98.23955
1,Bom Jesus/PB,-6.8156725,-38.6551841,3,117.14174
1,Bom Jesus/PI,-9.0711644,-44.3583926,179,710.90989
1,Bom Jesus/RN,-5.9887544,-35.5821149,39,381.97845
D1,Bom Jesus/RN,-5.9887544,-35.5821149,1,9.79432
1,Bom Jesus/RS,-28.6692723,-50.4346894,47,414.13340
1,Bom Jesus/SC,-26.7350604,-52.3916519,25,830.56478
1,Bom Lugar/MA,-4.3728019,-45.0366054,82,503.25273
1,Bom Princípio do Piauí/PI,-3.1912777,-41.6430185,10,177.61989
D1,Bom Princípio do Piauí/PI,-3.1912777,-41.6430185,1,17.76199
1,Bom Princípio/RS,-29.489788,-51.3566782,52,369.97510
1,Bom Progresso/RS,-27.5490948,-53.8655601,4,205.97322
1,Bom Repouso/MG,-22.4657069,-46.1485376,9,85.33232
1,Bom Retiro do Sul/RS,-29.6000007,-51.9359243,74,600.25957
D1,Bom Retiro do Sul/RS,-29.6000007,-51.9359243,1,8.11162
1,Bom Retiro/SC,-27.798993,-49.486994,1,10.03412
1,Bom Sucesso/MG,-21.0323516,-44.7598082,3,17.04255
1,Bom Sucesso/PB,-6.4458948,-37.9297662,5,100.50251
1,Bom Sucesso/PR,-23.7088019,-51.7651297,2,28.44141
1,Bombinhas/SC,-27.1519159,-48.4875691,128,647.47838
1,Bonfim do Piauí/PI,-9.1648678,-42.8734415,1,17.63668
1,Bonfim/MG,-20.3266626, -44.2386157,6,87.36168
D1,Bonfim/MG,-20.3266626, -44.2386157,1,14.56028
1,Bonfim/RR,3.3613818,-59.8427241,116,934.80538
D1,Bonfim/RR,3.3613818,-59.8427241,5,40.29334
1,Bonfinópolis de Minas/MG,-16.5660011,-45.98645,1,18.20499
1,Bonfinópolis/GO,-16.6172709,-48.9615701,9,92.72615
1,Boninal/BA,-12.7095183,-41.8299984,3,20.87973
1,Bonito de Santa Fé/PB,-7.3143332,-38.5146677,2,16.78275
1,Bonito/MS,-21.1264766,-56.4902208,66,300.32763
1,Bonito/PA,-1.3605722,-47.3049907,157,964.01818
D1,Bonito/PA,-1.3605722,-47.3049907,6,36.84146
1,Bonito/PE,-8.4721161,-35.7314591,90,236.00986
D1,Bonito/PE,-8.4721161,-35.7314591,11,28.84565
1,Boqueirão do Piauí/PI,-4.4850148,-42.1095161,8,124.86343
1,Boqueirão/PB,-7.487004,-36.130887,78,438.10380
D1,Boqueirão/PB,-7.487004,-36.130887,1,5.61672
1,Boquim/SE,-11.1450175,-37.6204228,60,223.74702
D1,Boquim/SE,-11.1450175,-37.6204228,5,18.64558
1,Boquira/BA,-12.8184859,-42.7270883,10,46.49433
1,Boracéia/SP,-22.195355,-48.7801925,14,290.27576
1,Borba/AM,-4.3934778,-59.5947721,395,959.64627
D1,Borba/AM,-4.3934778,-59.5947721,17,41.30123
1,Borborema/PB,-6.8066718,-35.5990191,3,57.00171
1,Borborema/SP,-21.6212706,-49.074135,21,130.87374
1,Borda da Mata/MG,-22.274167,-46.165278,6,30.90872
1,Borebi/SP,-22.5700178,-48.9714871,6,226.15907
1,Borrazópolis/PR,-23.9393362,-51.5850786,1,15.16990
1,Borá/SP,-22.2701088,-50.544407,1,119.47431
1,Bossoroca/RS,-28.7278885,-54.9120278,3,47.77831
1,Botelhos/MG,-21.65,-46.394722,6,40.07748
D1,Botelhos/MG,-21.65,-46.394722,1,6.67958
1,Botucatu/SP,-22.8879628,-48.4410712,516,352.22564
D1,Botucatu/SP,-22.8879628,-48.4410712,13,8.87390
1,Botuverá/SC,-27.200749,-49.068892,6,114.37286
1,Braga/RS,-27.617348,-53.740514,2,59.64808
1,Braganey/PR,-24.8179919,-53.118506,22,405.38050
D1,Braganey/PR,-24.8179919,-53.118506,1,18.42639
1,Bragança Paulista/SP,-22.9520235,-46.5418586,398,235.96651
D1,Bragança Paulista/SP,-22.9520235,-46.5418586,13,7.70745
1,Bragança/PA,-1.0573967,-46.7635406,1591,1246.02541
D1,Bragança/PA,-1.0573967,-46.7635406,62,48.55662
1,Branquinha/AL,-9.2478057,-36.0152009,57,543.16752
1,Brasil Novo/PA,-3.3055853,-52.539198,139,921.38406
D1,Brasil Novo/PA,-3.3055853,-52.539198,2,13.25732
1,Brasileira/PI,-4.131182,-41.7824969,26,312.16232
1,Brasilândia de Minas/MG,-17.0096469,-46.0087183,1,6.04668
1,Brasilândia do Tocantins/TO,-8.3886619,-48.4842729,2,90.86779
1,Brasilândia/MS,-21.255575,-52.0365617,16,134.77089
D1,Brasilândia/MS,-21.255575,-52.0365617,2,16.84636
1,Brasiléia/AC,-11.0010413,-68.7487894,261,993.22627
D1,Brasiléia/AC,-11.0010413,-68.7487894,6,22.83279
1,Brasnorte/MT,-12.1227151,-58.0050109,5,25.38715
1,Brasília de Minas/MG,-16.2075114,-44.430559,7,21.64034
1,Brasília/DF,-15.7934036,-47.8823172,34272,1136.61539
D1,Brasília/DF,-15.7934036,-47.8823172,462,15.32202
1,Brazabrantes/GO,-16.4291635,-49.3858216,3,81.01539
1,Brazópolis/MG,-22.4742842,-45.6165577,8,55.32886
1,Braço do Norte/SC,-28.2728633,-49.1622712,140,418.53513
D1,Braço do Norte/SC,-28.2728633,-49.1622712,2,5.97907
1,Braço do Trombudo/SC,-27.358578,-49.882145,2,53.43308
1,Braúna/SP,-21.5015319,-50.3175246,8,140.69645
1,Braúnas/MG,-19.055556,-42.716111,1,20.82899
1,Brejetuba/ES,-20.1465817,-41.2902303,46,370.84811
1,Brejinho de Nazaré/TO,-11.0205883,-48.5722906,3,54.57522
1,Brejinho/PE,-7.3482153,-37.28538,24,320.55563
1,Brejinho/RN,-6.1957907,-35.3583019,38,299.23616
1,Brejo Alegre/SP,-21.1671191,-50.1850393,3,104.71204
1,Brejo Grande do Araguaia/PA,-5.7011449,-48.4037308,22,298.10298
1,Brejo Grande/SE,-10.4287358,-36.4667918,7,84.24600
1,Brejo Santo/CE,-7.4909841,-38.9859152,134,270.83291
D1,Brejo Santo/CE,-7.4909841,-38.9859152,4,8.08456
1,Brejo da Madre de Deus/PE,-8.1409718,-36.3712527,250,492.68850
D1,Brejo da Madre de Deus/PE,-8.1409718,-36.3712527,4,7.88302
1,Brejo de Areia/MA,-4.3316785,-45.5833334,70,761.86330
1,Brejo do Cruz/PB,-6.32926065,-37.48746163303929,55,389.46325
D1,Brejo do Cruz/PB,-6.32926065,-37.48746163303929,1,7.08115
1,Brejo dos Santos/PB,-6.3769367,-37.8243125,4,62.02512
1,Brejo/MA,-3.6804397,-42.7529313,196,538.50592
D1,Brejo/MA,-3.6804397,-42.7529313,8,21.97983
1,Brejão/PE,-9.029146,-36.566034,1,11.11976
1,Brejões/BA,-13.1033754,-39.7909837,10,69.95453
1,Breu Branco/PA,-3.7785073,-49.5684795,153,231.65672
D1,Breu Branco/PA,-3.7785073,-49.5684795,12,18.16915
1,Breves/PA,-1.68036,-50.479085,929,904.56763
D1,Breves/PA,-1.68036,-50.479085,70,68.15902
1,Britânia/GO,-15.2427599,-51.1602061,4,69.21613
1,Brochier/RS,-29.556766,-51.5963047,12,236.49980
1,Brodowski/SP,-20.984532,-47.657217,65,260.63595
D1,Brodowski/SP,-20.984532,-47.657217,2,8.01957
1,Brotas/SP,-22.2840884,-48.1267265,10,40.97857
1,Brumadinho/MG,-20.143611,-44.2,113,281.77443
1,Brumado/BA,-14.29507325,-41.659307508575985,119,177.09651
D1,Brumado/BA,-14.29507325,-41.659307508575985,2,2.97641
1,Brunópolis/SC,-27.310953,-50.837585,11,454.54545
1,Brusque/SC,-27.0964628,-48.9136323,266,197.44216
D1,Brusque/SC,-27.0964628,-48.9136323,2,1.48453
1,Bueno Brandão/MG,-22.441976,-46.3517971,6,54.54050
D1,Bueno Brandão/MG,-22.441976,-46.3517971,2,18.18017
1,Buenos Aires/PE,-7.7218931,-35.326587,28,212.84683
D1,Buenos Aires/PE,-7.7218931,-35.326587,3,22.80502
1,Buenópolis/MG,-17.8756607,-44.1749365,43,414.85769
1,Buerarema/BA,-14.9571177,-39.3008035,53,288.84408
D1,Buerarema/BA,-14.9571177,-39.3008035,5,27.24944
1,Bugre/MG,-19.4257687,-42.2556,2,50.22602
1,Bujari/AC,-9.8309656,-67.9520886,136,1324.76135
D1,Bujari/AC,-9.8309656,-67.9520886,1,9.74089
1,Bujaru/PA,-1.5169239,-48.0410699,190,652.20376
D1,Bujaru/PA,-1.5169239,-48.0410699,18,61.78772
1,Buri/SP,-23.79849,-48.598924,30,150.92062
D1,Buri/SP,-23.79849,-48.598924,1,5.03069
1,Buritama/SP,-21.0664017,-50.1448077,26,151.65656
1,Buriti Alegre/GO,-18.1377879,-49.0404411,18,190.29496
1,Buriti Bravo/MA,-5.8391884,-43.8367876,9,37.68213
1,Buriti de Goiás/GO,-16.180644,-50.4287479,8,321.54341
1,Buriti do Tocantins/TO,-5.3187439,-48.2256609,62,546.35178
1,Buriti dos Lopes/PI,-3.1776723,-41.8707444,166,839.18912
D1,Buriti dos Lopes/PI,-3.1776723,-41.8707444,3,15.16607
1,Buriti dos Montes/PI,-5.3136171,-41.0971256,5,60.65017
D1,Buriti dos Montes/PI,-5.3136171,-41.0971256,1,12.13003
1,Buriti/MA,-3.9430944,-42.9244281,204,711.34668
1,Buriticupu/MA,-4.3227472,-46.4516989,1019,1408.27552
D1,Buriticupu/MA,-4.3227472,-46.4516989,4,5.52807
1,Buritinópolis/GO,-14.4589282,-46.4293104,1,30.37667
1,Buritirama/BA,-10.7148421,-43.6362327,15,70.84160
1,Buritirana/MA,-5.5897455,-47.0148915,150,972.13221
D1,Buritirana/MA,-5.5897455,-47.0148915,3,19.44264
1,Buritis/MG,-15.621389,-46.423889,21,84.53766
1,Buritis/RO,-10.2054937,-63.8281954,81,204.26691
D1,Buritis/RO,-10.2054937,-63.8281954,2,5.04363
1,Buritizal/SP,-20.1933264,-47.7097165,5,111.58224
1,Buritizeiro/MG,-17.3667765,-44.9647781,29,103.36470
1,Butiá/RS,-30.1256795,-51.9692224,8,38.20257
1,Buíque/PE,-8.6239732,-37.157296,45,77.08383
D1,Buíque/PE,-8.6239732,-37.157296,1,1.71297
1,Bálsamo/SP,-20.7343722,-49.5807484,12,132.33348
0,CASO SEM LOCALIZAÇÃO DEFINIDA/AL,-9.931093434363673,-35.609611600637464,93,2.78664
D0,CASO SEM LOCALIZAÇÃO DEFINIDA/AL,-9.931093434363673,-35.609611600637464,7,0.20975
0,CASO SEM LOCALIZAÇÃO DEFINIDA/AP,2.677150600275196,-50.477785111870624,180,21.28336
0,CASO SEM LOCALIZAÇÃO DEFINIDA/BA,-13.415069300066518,-38.14174656569957,2034,13.67573
D0,CASO SEM LOCALIZAÇÃO DEFINIDA/BA,-13.415069300066518,-38.14174656569957,55,0.36980
0,CASO SEM LOCALIZAÇÃO DEFINIDA/CE,-3.3445126297392798,-38.624961942434304,5528,60.53387
D0,CASO SEM LOCALIZAÇÃO DEFINIDA/CE,-3.3445126297392798,-38.624961942434304,133,1.45640
0,CASO SEM LOCALIZAÇÃO DEFINIDA/ES,-20.30989267097039,-39.81745156645774,1696,42.20323
D0,CASO SEM LOCALIZAÇÃO DEFINIDA/ES,-20.30989267097039,-39.81745156645774,64,1.59257
0,CASO SEM LOCALIZAÇÃO DEFINIDA/GO,-16.701590966270153,-49.164524059025034,483,6.88196
D0,CASO SEM LOCALIZAÇÃO DEFINIDA/GO,-16.701590966270153,-49.164524059025034,5,0.07124
0,CASO SEM LOCALIZAÇÃO DEFINIDA/MG,-19.97049116501593,-43.8852149072783,1416,6.68909
D0,CASO SEM LOCALIZAÇÃO DEFINIDA/MG,-19.97049116501593,-43.8852149072783,51,0.24092
0,CASO SEM LOCALIZAÇÃO DEFINIDA/MS,-20.391549234908513,-54.645156949758444,393,14.14185
D0,CASO SEM LOCALIZAÇÃO DEFINIDA/MS,-20.391549234908513,-54.645156949758444,8,0.28787
0,CASO SEM LOCALIZAÇÃO DEFINIDA/MT,-15.54791153961863,-56.17143998972475,95,2.72639
D0,CASO SEM LOCALIZAÇÃO DEFINIDA/MT,-15.54791153961863,-56.17143998972475,7,0.20089
0,CASO SEM LOCALIZAÇÃO DEFINIDA/PA,-0.09317078214359542,-48.0050231510481,2616,30.40847
D0,CASO SEM LOCALIZAÇÃO DEFINIDA/PA,-0.09317078214359542,-48.0050231510481,67,0.77881
0,CASO SEM LOCALIZAÇÃO DEFINIDA/PB,-7.1049355696146606,-34.68696690234351,469,11.67210
D0,CASO SEM LOCALIZAÇÃO DEFINIDA/PB,-7.1049355696146606,-34.68696690234351,18,0.44797
0,CASO SEM LOCALIZAÇÃO DEFINIDA/PE,-8.121628543819208,-34.57313921302556,456,4.77134
D0,CASO SEM LOCALIZAÇÃO DEFINIDA/PE,-8.121628543819208,-34.57313921302556,114,1.19283
0,CASO SEM LOCALIZAÇÃO DEFINIDA/PR,-25.69415946385943,-48.10141676336737,176,1.53927
D0,CASO SEM LOCALIZAÇÃO DEFINIDA/PR,-25.69415946385943,-48.10141676336737,9,0.07871
0,CASO SEM LOCALIZAÇÃO DEFINIDA/RJ,-23.210238986465157,-43.12864305824042,1,0.00579
0,CASO SEM LOCALIZAÇÃO DEFINIDA/RN,-5.749310788669161,-34.95302586257457,73,2.08164
D0,CASO SEM LOCALIZAÇÃO DEFINIDA/RN,-5.749310788669161,-34.95302586257457,6,0.17109
0,CASO SEM LOCALIZAÇÃO DEFINIDA/RR,2.813328208465927,-60.663338675861986,2261,373.24952
D0,CASO SEM LOCALIZAÇÃO DEFINIDA/RR,2.813328208465927,-60.663338675861986,2,0.33016
0,CASO SEM LOCALIZAÇÃO DEFINIDA/SC,-27.675643660562308,-48.18313219398259,270,3.76843
D0,CASO SEM LOCALIZAÇÃO DEFINIDA/SC,-27.675643660562308,-48.18313219398259,1,0.01396
0,CASO SEM LOCALIZAÇÃO DEFINIDA/SP,-24.30968974555485,-46.21366504207253,7538,16.41585
D0,CASO SEM LOCALIZAÇÃO DEFINIDA/SP,-24.30968974555485,-46.21366504207253,434,0.94514
0,CASO SEM LOCALIZAÇÃO DEFINIDA/TO,-10.213012114749148,-48.40023803990334,289,18.37410
D0,CASO SEM LOCALIZAÇÃO DEFINIDA/TO,-10.213012114749148,-48.40023803990334,1,0.06358
1,Caapiranga/AM,-3.3188884,-61.2096404,137,1047.32054
D1,Caapiranga/AM,-3.3188884,-61.2096404,4,30.57870
1,Caaporã/PB,-7.510234,-34.9154114,678,3106.10225
D1,Caaporã/PB,-7.510234,-34.9154114,9,41.23145
1,Caarapó/MS,-22.6349267,-54.8240903,12,39.76934
1,Caatiba/BA,-14.9782759,-40.4092325,29,429.12104
1,Cabaceiras do Paraguaçu/BA,-12.5377868,-39.1901339,6,31.90301
1,Cabaceiras/PB,-7.4899156,-36.2860501,9,160.39922
1,Cabeceira Grande/MG,-16.0297,-47.0906,1,14.39056
1,Cabeceiras do Piauí/PI,-4.4733665,-42.3098716,7,66.12507
1,Cabeceiras/GO,-15.7995459,-46.9264991,2,25.02189
D1,Cabeceiras/GO,-15.7995459,-46.9264991,1,12.51095
1,Cabedelo/PB,-6.97324,-34.8351609,1542,2276.48518
D1,Cabedelo/PB,-6.97324,-34.8351609,11,16.23952
1,Cabixi/RO,-13.4956065,-60.5424442,3,56.47590
1,Cabo Frio/RJ,-22.8804369,-42.0189227,672,296.65600
D1,Cabo Frio/RJ,-22.8804369,-42.0189227,33,14.56793
1,Cabo Verde/MG,-21.4743338,-46.3964995,1,7.10480
1,Cabo de Santo Agostinho/PE,-8.2838945,-35.0320984,884,426.95414
D1,Cabo de Santo Agostinho/PE,-8.2838945,-35.0320984,132,63.75333
1,Cabreúva/SP,-23.3075813,-47.1324417,199,400.34603
D1,Cabreúva/SP,-23.3075813,-47.1324417,7,14.08252
1,Cabrobó/PE,-8.5083701,-39.3106961,23,67.21019
D1,Cabrobó/PE,-8.5083701,-39.3106961,1,2.92218
1,Cabrália Paulista/SP,-22.4562909,-49.3385645,4,93.80863
1,Cacaulândia/RO,-10.3380043,-62.9007231,14,224.71910
1,Cacequi/RS,-29.8838059,-54.8273443,2,15.92230
1,Cachoeira Alta/GO,-18.7618269,-50.9432431,18,144.18456
1,Cachoeira Dourada/GO,-18.4934204,-49.481062,7,86.77327
1,Cachoeira Dourada/MG,-18.517136,-49.5002062,2,74.29421
1,Cachoeira Grande/MA,-2.9290492,-44.0573223,35,371.11653
D1,Cachoeira Grande/MA,-2.9290492,-44.0573223,3,31.80999
1,Cachoeira Paulista/SP,-22.666498,-45.015384,24,72.01368
D1,Cachoeira Paulista/SP,-22.666498,-45.015384,1,3.00057
1,Cachoeira de Minas/MG,-22.3554043,-45.7796324,3,25.98077
1,Cachoeira de Pajeú/MG,-15.965833,-41.496666,3,31.87420
1,Cachoeira do Arari/PA,-1.0143572,-48.9621089,111,467.03412
D1,Cachoeira do Arari/PA,-1.0143572,-48.9621089,9,37.86763
1,Cachoeira do Piriá/PA,-1.7599443,-46.5446954,175,516.22419
1,Cachoeira do Sul/RS,-30.0474778,-52.8905413,85,103.40507
1,Cachoeira dos Índios/PB,-6.9259193,-38.6742159,37,361.18704
D1,Cachoeira dos Índios/PB,-6.9259193,-38.6742159,3,29.28544
1,Cachoeira/BA,-12.5998256,-38.9665918,27,80.66926
1,Cachoeiras de Macacu/RJ,-22.4626861,-42.6534414,274,464.90320
D1,Cachoeiras de Macacu/RJ,-22.4626861,-42.6534414,18,30.54109
1,Cachoeirinha/PE,-8.4906364,-36.2338963,72,353.28754
D1,Cachoeirinha/PE,-8.4906364,-36.2338963,3,14.72031
1,Cachoeirinha/RS,-29.9493353,-51.0898927,227,174.22271
D1,Cachoeirinha/RS,-29.9493353,-51.0898927,2,1.53500
1,Cachoeirinha/TO,-6.118647,-47.9208885,9,395.60440
1,Cachoeiro de Itapemirim/ES,-20.848084,-41.11129,1228,587.63854
D1,Cachoeiro de Itapemirim/ES,-20.848084,-41.11129,42,20.09839
1,Cacimba de Areia/PB,-7.1288513,-37.1575194,7,190.11407
1,Cacimba de Dentro/PB,-6.6425101,-35.7929304,40,232.73404
1,Cacimbas/PB,-7.2125451,-37.0593398,28,390.35271
D1,Cacimbas/PB,-7.2125451,-37.0593398,1,13.94117
1,Cacimbinhas/AL,-9.401212,-36.991082,33,303.92337
D1,Cacimbinhas/AL,-9.401212,-36.991082,2,18.41960
1,Cacique Doble/RS,-27.7700117,-51.6616409,5,98.71668
1,Cacoal/RO,-11.4333,-61.4420502,209,244.84823
D1,Cacoal/RO,-11.4333,-61.4420502,2,2.34305
1,Caconde/SP,-21.527995,-46.643659,1,5.26732
1,Caculé/BA,-14.4990734,-42.2233006,1,4.31593
D1,Caculé/BA,-14.4990734,-42.2233006,1,4.31593
1,Caetanos/BA,-14.3387456,-40.9085971,2,13.75327
1,Caetanópolis/MG,-19.2947496,-44.4138386,4,34.41156
1,Caetité/BA,-14.0691776,-42.4852428,17,33.34968
1,Caeté/MG,-19.897777,-43.670278,31,69.32331
1,Caetés/PE,-8.7728788,-36.6255835,65,226.17349
D1,Caetés/PE,-8.7728788,-36.6255835,3,10.43878
1,Cafeara/PR,-22.78905,-51.714195,1,34.08316
1,Cafelândia/PR,-24.6176963,-53.3218057,12,66.22517
D1,Cafelândia/PR,-24.6176963,-53.3218057,1,5.51876
1,Cafelândia/SP,-21.8054355,-49.6030627,5,28.14206
1,Cafezal do Sul/PR,-23.900508,-53.512418,3,74.18398
1,Caiabu/SP,-22.0143038,-51.2356597,6,143.16392
D1,Caiabu/SP,-22.0143038,-51.2356597,1,23.86065
1,Caiana/MG,-20.695555,-41.924723,3,54.58515
1,Caiapônia/GO,-16.9538779,-51.8090761,2,10.57474
1,Caibi/SC,-27.0751925,-53.2502133,14,227.71633
1,Caicó/RN,-6.4594544,-37.0971911,210,309.04168
D1,Caicó/RN,-6.4594544,-37.0971911,3,4.41488
1,Caieiras/SP,-23.3644621,-46.7484765,545,537.10456
D1,Caieiras/SP,-23.3644621,-46.7484765,45,44.34808
1,Cairu/BA,-13.4860505,-39.0455744,30,165.05282
D1,Cairu/BA,-13.4860505,-39.0455744,1,5.50176
1,Caiuá/SP,-21.8319357,-51.9887179,3,51.07252
1,Caiçara do Norte/RN,-5.0645017,-36.0561226,25,381.73767
D1,Caiçara do Norte/RN,-5.0645017,-36.0561226,1,15.26951
1,Caiçara do Rio do Vento/RN,-5.757968,-36.00089,36,977.19870
D1,Caiçara do Rio do Vento/RN,-5.757968,-36.00089,1,27.14441
1,Caiçara/PB,-6.6146866,-35.4681434,100,1388.69601
D1,Caiçara/PB,-6.6146866,-35.4681434,1,13.88696
1,Caiçara/RS,-27.2750478,-53.4310053,1,21.08370
1,Cajamar/SP,-23.3561111,-46.8769444,543,707.02204
D1,Cajamar/SP,-23.3561111,-46.8769444,35,45.57232
1,Cajapió/MA,-2.8778715,-44.6746871,5,44.73472
D1,Cajapió/MA,-2.8778715,-44.6746871,2,17.89389
1,Cajari/MA,-3.3213076,-45.0118757,112,577.94520
D1,Cajari/MA,-3.3213076,-45.0118757,1,5.16022
1,Cajati/SP,-24.7272376,-48.1077914,59,206.66223
D1,Cajati/SP,-24.7272376,-48.1077914,2,7.00550
1,Cajazeiras do Piauí/PI,-6.794271,-42.3935024,2,56.19556
1,Cajazeiras/PB,-6.8897849,-38.5570389,348,561.35370
D1,Cajazeiras/PB,-6.8897849,-38.5570389,10,16.13085
1,Cajazeirinhas/PB,-6.961442,-37.7993733,1,31.31851
1,Cajobi/SP,-20.8776238,-48.8106972,13,123.31626
D1,Cajobi/SP,-20.8776238,-48.8106972,1,9.48587
1,Cajueiro da Praia/PI,-2.931114,-41.340801,59,772.04920
D1,Cajueiro da Praia/PI,-2.931114,-41.340801,2,26.17116
1,Cajueiro/AL,-9.399589,-36.1524309,105,493.79233
D1,Cajueiro/AL,-9.399589,-36.1524309,4,18.81114
1,Cajuri/MG,-20.7901414,-42.7954489,12,300.97818
1,Cajuru/SP,-21.2759978,-47.3046035,12,45.85929
D1,Cajuru/SP,-21.2759978,-47.3046035,1,3.82161
1,Caldas Brandão/PB,-7.1027959,-35.3254676,44,731.62621
D1,Caldas Brandão/PB,-7.1027959,-35.3254676,2,33.25574
1,Caldas Novas/GO,-17.745,-48.625,54,59.23521
D1,Caldas Novas/GO,-17.745,-48.625,3,3.29084
1,Caldas/MG,-21.923611,-46.386111,14,96.68508
1,Caldazinha/GO,-16.7116649,-49.0012601,1,26.28812
1,Caldeirão Grande do Piauí/PI,-7.3310393,-40.6374433,12,207.75623
1,Caldeirão Grande/BA,-11.0208483,-40.3041387,22,165.07841
1,Califórnia/PR,-23.6672543,-51.3554556,4,46.67445
1,Calumbi/PE,-7.9389746,-38.1516871,17,295.65217
D1,Calumbi/PE,-7.9389746,-38.1516871,1,17.39130
1,Calçado/PE,-8.7413446,-36.3351787,16,144.75708
1,Calçoene/AP,2.4981757,-50.9539503,379,3409.19313
D1,Calçoene/AP,2.4981757,-50.9539503,2,17.99047
1,Camacan/BA,-15.4166631,-39.4930088,216,675.25322
D1,Camacan/BA,-15.4166631,-39.4930088,4,12.50469
1,Camalaú/PB,-7.885031,-36.824191,1,16.63063
1,Camamu/BA,-13.9438142,-39.1060917,18,50.96840
D1,Camamu/BA,-13.9438142,-39.1060917,1,2.83158
1,Camanducaia/MG,-22.755278,-46.144444,73,335.32384
D1,Camanducaia/MG,-22.755278,-46.144444,1,4.59348
1,Camapuã/MS,-19.5291747,-54.0434641,3,21.88024
1,Camaquã/RS,-30.8524752,-51.8075619,34,51.31223
D1,Camaquã/RS,-30.8524752,-51.8075619,2,3.01837
1,Camaragibe/PE,-8.0213832,-34.9810768,1199,759.68776
D1,Camaragibe/PE,-8.0213832,-34.9810768,89,56.39050
1,Camargo/RS,-28.5865661,-52.2031474,18,658.61690
1,Camaçari/BA,-12.6998188,-38.3260762,712,238.02201
D1,Camaçari/BA,-12.6998188,-38.3260762,14,4.68021
1,Cambará do Sul/RS,-29.0489517,-50.145412,2,31.09936
1,Cambará/PR,-23.042273,-50.075281,27,106.46688
1,Camboriú/SC,-27.0273601,-48.6535657,290,349.44390
D1,Camboriú/SC,-27.0273601,-48.6535657,7,8.43485
1,Cambuci/RJ,-21.5749919,-41.9107833,46,296.67849
1,Cambuquira/MG,-21.853056,-45.2953619,3,23.41189
1,Cambuí/MG,-22.6122501,-46.0572137,46,155.66309
D1,Cambuí/MG,-22.6122501,-46.0572137,1,3.38398
1,Cambé/PR,-23.2782035,-51.2779583,110,103.25439
D1,Cambé/PR,-23.2782035,-51.2779583,4,3.75471
1,Cametá/PA,-2.242949,-49.497885,2902,2104.57611
D1,Cametá/PA,-2.242949,-49.497885,73,52.94075
1,Camocim de São Félix/PE,-8.3616757,-35.7638903,59,314.41513
D1,Camocim de São Félix/PE,-8.3616757,-35.7638903,2,10.65814
1,Camocim/CE,-2.9009918,-40.8427389,1426,2239.98995
D1,Camocim/CE,-2.9009918,-40.8427389,47,73.82856
1,Campanha/MG,-21.8361108,-45.401986,5,30.00300
1,Campestre da Serra/RS,-28.7966535,-51.0958149,4,118.06375
1,Campestre de Goiás/GO,-16.7624179,-49.69497,2,55.09642
1,Campestre do Maranhão/MA,-6.1729113,-47.3640512,139,967.02379
D1,Campestre do Maranhão/MA,-6.1729113,-47.3640512,1,6.95701
1,Campestre/AL,-8.8481634,-35.5660033,34,490.19608
D1,Campestre/AL,-8.8481634,-35.5660033,3,43.25260
1,Campestre/MG,-19.6142116,-43.219378,1,4.74947
1,Campina Grande do Sul/PR,-25.3046032,-49.0545355,116,267.97265
D1,Campina Grande do Sul/PR,-25.3046032,-49.0545355,6,13.86065
1,Campina Grande/PB,-7.2246743,-35.8771292,5557,1356.25569
D1,Campina Grande/PB,-7.2246743,-35.8771292,70,17.08438
1,Campina Verde/MG,-19.535277,-49.486389,18,91.16232
D1,Campina Verde/MG,-19.535277,-49.486389,1,5.06457
1,Campina da Lagoa/PR,-24.5937926,-52.8038965,4,28.16505
D1,Campina da Lagoa/PR,-24.5937926,-52.8038965,1,7.04126
1,Campina do Monte Alegre/SP,-23.5935653,-48.4801876,29,481.40770
1,Campinas do Piauí/PI,-7.6593687,-41.8814875,4,71.26314
1,Campinas do Sul/RS,-27.7167968,-52.6257885,9,165.01650
1,Campinas/SP,-22.90556,-47.06083,5638,468.24404
D1,Campinas/SP,-22.90556,-47.06083,213,17.68996
1,Campinorte/GO,-14.3136699,-49.1510931,14,110.88231
1,Campinápolis/MT,-14.5403731,-52.7970626,6,37.54693
1,Campo Alegre de Goiás/GO,-17.6337896,-47.779291,2,26.35393
1,Campo Alegre de Lourdes/BA,-9.5160326,-43.0101338,29,100.70144
D1,Campo Alegre de Lourdes/BA,-9.5160326,-43.0101338,1,3.47246
1,Campo Alegre do Fidalgo/PI,-8.3753852,-41.8364191,1,19.82161
1,Campo Alegre/AL,-9.7798607,-36.3575793,288,504.70533
D1,Campo Alegre/AL,-9.7798607,-36.3575793,3,5.25735
1,Campo Alegre/SC,-26.1941684,-49.2657484,1,8.34864
1,Campo Belo/MG,-20.8975,-45.277223,39,72.18346
D1,Campo Belo/MG,-20.8975,-45.277223,2,3.70172
1,Campo Bom/RS,-29.674694,-51.060601,111,166.38686
D1,Campo Bom/RS,-29.674694,-51.060601,5,7.49490
1,Campo Bonito/PR,-25.0328004,-52.992976,25,652.23063
1,Campo Erê/SC,-26.3947432,-53.0790495,2,23.45766
1,Campo Florido/MG,-19.760833,-48.572223,6,73.61060
1,Campo Formoso/BA,-10.51055,-40.320031,45,63.19692
1,Campo Grande do Piauí/PI,-7.1327559,-41.0381164,36,605.75467
D1,Campo Grande do Piauí/PI,-7.1327559,-41.0381164,1,16.82652
1,Campo Grande/AL,-9.9725,-36.74791447368421,52,544.04687
D1,Campo Grande/AL,-9.9725,-36.74791447368421,1,10.46244
1,Campo Grande/MS,-20.4640173,-54.6162947,1212,135.27057
D1,Campo Grande/MS,-20.4640173,-54.6162947,8,0.89288
1,Campo Largo do Piauí/PI,-3.8104731,-42.6288333,10,137.38151
D1,Campo Largo do Piauí/PI,-3.8104731,-42.6288333,1,13.73815
1,Campo Largo/PR,-25.4597726,-49.5270851,190,143.93721
D1,Campo Largo/PR,-25.4597726,-49.5270851,2,1.51513
1,Campo Limpo Paulista/SP,-23.207791,-46.788919,196,231.54164
D1,Campo Limpo Paulista/SP,-23.207791,-46.788919,24,28.35204
1,Campo Limpo de Goiás/GO,-16.297101,-49.0894994,9,115.54757
1,Campo Magro/PR,-25.3691533,-49.4496921,21,71.62835
D1,Campo Magro/PR,-25.3691533,-49.4496921,1,3.41087
1,Campo Maior/PI,-4.8339574,-42.1739786,500,1067.62326
D1,Campo Maior/PI,-4.8339574,-42.1739786,9,19.21722
1,Campo Mourão/PR,-24.046329,-52.37802,113,119.12417
D1,Campo Mourão/PR,-24.046329,-52.37802,4,4.21678
1,Campo Novo de Rondônia/RO,-10.5704235,-63.6199511,31,219.25172
D1,Campo Novo de Rondônia/RO,-10.5704235,-63.6199511,2,14.14527
1,Campo Novo do Parecis/MT,-13.658735,-57.890723,126,356.33484
D1,Campo Novo do Parecis/MT,-13.658735,-57.890723,1,2.82805
1,Campo Novo/RS,-28.91500235,-52.331375687737626,4,89.20607
1,Campo Redondo/RN,-6.2420373,-36.1830606,23,205.04591
1,Campo Verde/MT,-15.5430787,-55.1590511,217,492.72269
D1,Campo Verde/MT,-15.5430787,-55.1590511,2,4.54122
1,Campo do Brito/SE,-10.7496246,-37.4942276,31,171.18560
D1,Campo do Brito/SE,-10.7496246,-37.4942276,2,11.04423
1,Campo do Tenente/PR,-25.9814143,-49.684518,2,25.09095
D1,Campo do Tenente/PR,-25.9814143,-49.684518,1,12.54548
1,Campos Altos/MG,-19.696389,-46.171389,24,155.22929
1,Campos Belos/GO,-13.0349839,-46.768112,27,135.76708
D1,Campos Belos/GO,-13.0349839,-46.768112,1,5.02841
1,Campos Gerais/MG,-21.2333342,-45.7584127,18,62.55647
1,Campos Lindos/TO,-7.9740597,-46.8023881,2,19.77066
1,Campos Novos Paulista/SP,-22.601952,-49.998726,1,20.14099
1,Campos Novos/SC,-27.3962904,-51.2224397,41,113.12217
1,Campos Sales/CE,-7.0742675,-40.3740367,107,390.14074
D1,Campos Sales/CE,-7.0742675,-40.3740367,2,7.29235
1,Campos de Júlio/MT,-13.7223646,-59.2645296,52,754.60746
D1,Campos de Júlio/MT,-13.7223646,-59.2645296,2,29.02336
1,Campos do Jordão/SP,-22.7395263,-45.5912829,100,191.98280
D1,Campos do Jordão/SP,-22.7395263,-45.5912829,1,1.91983
1,Campos dos Goytacazes/RJ,-21.7558619,-41.3326895,1502,295.93260
D1,Campos dos Goytacazes/RJ,-21.7558619,-41.3326895,77,15.17098
1,Camutanga/PE,-7.4092965,-35.2738166,45,526.25424
D1,Camutanga/PE,-7.4092965,-35.2738166,3,35.08362
1,Cana Verde/MG,-21.021308,-45.1817881,19,339.10405
1,Canabrava do Norte/MT,-11.0516481,-51.8301897,20,421.67405
1,Cananéia/SP,-25.0104609,-47.9315628,33,263.15789
D1,Cananéia/SP,-25.0104609,-47.9315628,3,23.92344
1,Canapi/AL,-9.1173572,-37.6011704,6,33.85622
D1,Canapi/AL,-9.1173572,-37.6011704,1,5.64270
1,Canarana/BA,-11.6870151,-41.7683675,20,76.40587
1,Canarana/MT,-13.5564602,-52.2691167,50,231.70675
D1,Canarana/MT,-13.5564602,-52.2691167,1,4.63414
1,Canas/SP,-22.7029347,-45.0526508,1,19.46283
1,Canavieiras/BA,-15.61621745,-39.08485321304444,30,96.46612
D1,Canavieiras/BA,-15.61621745,-39.08485321304444,1,3.21554
1,Canaã dos Carajás/PA,-6.5296837,-49.8516592,1876,5058.64905
D1,Canaã dos Carajás/PA,-6.5296837,-49.8516592,21,56.62667
1,Candeal/BA,-11.8053441,-39.1206515,11,133.20417
1,Candeias do Jamari/RO,-8.7949939,-63.7018851,391,1464.80351
D1,Candeias do Jamari/RO,-8.7949939,-63.7018851,8,29.97040
1,Candeias/BA,-12.6693806,-38.5406462,496,569.61735
D1,Candeias/BA,-12.6693806,-38.5406462,14,16.07791
1,Candeias/MG,-20.7676161,-45.2763777,8,53.74177
1,Candelária/RS,-29.668391,-52.789495,9,28.69440
1,Candiba/BA,-14.4125032,-42.8714102,9,62.85355
1,Candiota/RS,-31.5451894,-53.719538,3,31.30217
1,Candói/PR,-25.5711951,-52.051107,6,37.54928
1,Canela/RS,-29.3624657,-50.8134204,22,48.89106
D1,Canela/RS,-29.3624657,-50.8134204,1,2.22232
1,Canelinha/SC,-27.2660341,-48.7666708,55,449.34641
1,Canguaretama/RN,-6.3751942,-35.137463,77,224.64698
D1,Canguaretama/RN,-6.3751942,-35.137463,7,20.42245
1,Canguçu/RS,-31.398276,-52.6773522,31,55.31270
D1,Canguçu/RS,-31.398276,-52.6773522,2,3.56856
1,Canhoba/SE,-10.1373681,-36.9710796,5,124.75050
1,Canhotinho/PE,-8.876519,-36.197935,49,197.54878
D1,Canhotinho/PE,-8.876519,-36.197935,2,8.06322
1,Canindé de São Francisco/SE,-9.6597475,-37.7904456,56,187.29097
D1,Canindé de São Francisco/SE,-9.6597475,-37.7904456,2,6.68896
1,Canindé/CE,-4.3547946,-39.3108516,1023,1328.62319
D1,Canindé/CE,-4.3547946,-39.3108516,30,38.96256
1,Canoas/RS,-29.9216045,-51.1799525,322,92.89819
D1,Canoas/RS,-29.9216045,-51.1799525,9,2.59653
1,Canoinhas/SC,-26.176591,-50.395001,110,202.20217
1,Cansanção/BA,-10.6671448,-39.498199,28,80.38124
D1,Cansanção/BA,-10.6671448,-39.498199,2,5.74152
1,Cantagalo/PR,-25.3735238,-52.1238114,14,105.12878
D1,Cantagalo/PR,-25.3735238,-52.1238114,1,7.50920
1,Cantagalo/RJ,-21.9811325,-42.3682522,18,89.23260
D1,Cantagalo/RJ,-21.9811325,-42.3682522,1,4.95737
1,Cantanhede/MA,-3.6355005,-44.3778738,242,1100.25006
D1,Cantanhede/MA,-3.6355005,-44.3778738,1,4.54649
1,Canto do Buriti/PI,-8.1112473,-42.944844,17,80.23788
D1,Canto do Buriti/PI,-8.1112473,-42.944844,1,4.71988
1,Cantá/RR,2.60994,-60.605827,281,1532.58795
D1,Cantá/RR,2.60994,-60.605827,6,32.72430
1,Canudos do Vale/RS,-29.3240418,-52.2348494,4,233.10023
1,Canudos/BA,-9.8948692,-39.0266244,12,71.99424
1,Canutama/AM,-6.5330019,-64.3834966,65,415.89353
1,Canápolis/MG,-18.7228793,-49.2016329,9,74.07407
1,Capanema/PA,-1.1933054,-47.1828679,659,954.69889
D1,Capanema/PA,-1.1933054,-47.1828679,50,72.43542
1,Capanema/PR,-25.6704878,-53.8083036,7,36.60322
1,Caparaó/MG,-20.5232726,-41.9049984,3,55.16734
1,Capela Nova/MG,-20.9236773,-43.6179487,1,21.49151
1,Capela de Santana/RS,-29.6926603,-51.3206659,1,8.37521
1,Capela do Alto Alegre/BA,-11.6703944,-39.8362745,3,25.77984
1,Capela do Alto/SP,-23.4704798,-47.7352309,77,371.87289
1,Capela/AL,-9.415041,-36.082583,290,1700.58054
D1,Capela/AL,-9.415041,-36.082583,1,5.86407
1,Capela/SE,-10.50494,-37.0552566,113,330.28381
D1,Capela/SE,-10.50494,-37.0552566,6,17.53719
1,Capelinha/MG,-17.693889,-42.518611,1,2.64662
1,Capetinga/MG,-20.6193382,-47.0577418,2,28.90173
1,Capim Branco/MG,-19.548333,-44.133056,6,61.51323
1,Capim Grosso/BA,-11.3793228,-40.0112095,47,153.28420
D1,Capim Grosso/BA,-11.3793228,-40.0112095,3,9.78410
1,Capim/PB,-6.9174091,-35.1720326,90,1379.73325
D1,Capim/PB,-6.9174091,-35.1720326,2,30.66074
1,Capinzal do Norte/MA,-4.7304006,-44.3249063,188,1719.40735
1,Capinzal/SC,-27.3440651,-51.6110403,10,43.76751
1,Capinópolis/MG,-18.682778,-49.569723,29,179.31120
1,Capistrano/CE,-4.4644692,-38.8956734,311,1753.29800
D1,Capistrano/CE,-4.4644692,-38.8956734,6,33.82568
1,Capitão Enéas/MG,-16.3236018,-43.7154584,17,111.59249
D1,Capitão Enéas/MG,-16.3236018,-43.7154584,1,6.56426
1,Capitão Gervásio Oliveira/PI,-8.4954657,-41.8169342,5,121.95122
1,Capitão Leônidas Marques/PR,-25.481645,-53.611238,12,76.04563
1,Capitão Poço/PA,-1.7447162,-47.0638495,366,673.99591
D1,Capitão Poço/PA,-1.7447162,-47.0638495,22,40.51342
1,Capitão de Campos/PI,-4.4584198,-41.9415301,23,201.45397
1,Capitão/RS,-29.2718294,-51.9869716,14,507.79833
1,Capitólio/MG,-20.6142437,-46.0487652,2,23.16960
D1,Capitólio/MG,-20.6142437,-46.0487652,2,23.16960
1,Capivari de Baixo/SC,-28.449773,-48.963144,67,269.39005
1,Capivari/SP,-22.995144,-47.50715,139,249.24688
1,Capixaba/AC,-10.5741345,-67.6759719,122,1039.80227
D1,Capixaba/AC,-10.5741345,-67.6759719,4,34.09188
1,Capoeiras/PE,-8.7386788,-36.6268109,21,104.74860
D1,Capoeiras/PE,-8.7386788,-36.6268109,3,14.96409
1,Capão Bonito/SP,-24.0048759,-48.3489848,48,101.82867
D1,Capão Bonito/SP,-24.0048759,-48.3489848,7,14.85001
1,Capão da Canoa/RS,-29.7542937,-50.0215684,42,79.17209
D1,Capão da Canoa/RS,-29.7542937,-50.0215684,2,3.77010
1,Capão do Cipó/RS,-28.9317296,-54.5555783,1,27.38976
1,Capão do Leão/RS,-31.766133,-52.5013148,4,15.77660
1,Caracaraí/RR,1.827598,-61.125389,42,191.55341
D1,Caracaraí/RR,1.827598,-61.125389,1,4.56080
1,Caracol/MS,-22.0169949,-57.0298349,12,196.20667
1,Caracol/PI,-9.2804898,-43.3284924,6,54.96519
1,Caraguatatuba/SP,-23.62028,-45.41306,323,265.77362
D1,Caraguatatuba/SP,-23.62028,-45.41306,19,15.63374
1,Carambeí/PR,-24.9513298,-50.1171293,42,179.37220
D1,Carambeí/PR,-24.9513298,-50.1171293,2,8.54153
1,Caranaíba/MG,-20.8736914,-43.7379458,3,94.25071
1,Carandaí/MG,-20.9523934,-43.8043903,28,109.79962
D1,Carandaí/MG,-20.9523934,-43.8043903,2,7.84283
1,Carangola/MG,-20.733056,-42.029445,124,375.75758
D1,Carangola/MG,-20.733056,-42.029445,3,9.09091
1,Carapebus/RJ,-22.1869969,-41.6633764,88,539.84418
D1,Carapebus/RJ,-22.1869969,-41.6633764,1,6.13459
1,Carapicuíba/SP,-23.5234673,-46.8406808,2046,510.31734
D1,Carapicuíba/SP,-23.5234673,-46.8406808,130,32.42486
1,Caratinga/MG,-19.7900887,-42.140533,114,123.82959
D1,Caratinga/MG,-19.7900887,-42.140533,6,6.51735
1,Carauari/AM,-4.8766426,-66.8961433,458,1618.71775
D1,Carauari/AM,-4.8766426,-66.8961433,6,21.20591
1,Caravelas/BA,-17.7296514,-39.2660082,15,68.13227
1,Carazinho/RS,-28.2981634,-52.7942363,73,117.53341
1,Caraá/RS,-29.7900698,-50.4302307,8,96.73519
1,Caraí/MG,-17.1884104,-41.6976554,3,12.66624
1,Caraíbas/BA,-14.72496,-41.2566163,3,33.51581
1,Caraúbas do Piauí/PI,-3.4757229,-41.8431178,27,460.12270
1,Caraúbas/PB,-7.7273231,-36.4923357,5,120.13455
1,Caraúbas/RN,-5.7889323,-37.5548751,115,561.16723
1,Carbonita/MG,-17.5308667,-43.0136207,2,21.26528
1,Cardeal da Silva/BA,-11.9428154,-37.9494462,7,75.30931
1,Cardoso Moreira/RJ,-21.4894916,-41.6152776,69,538.09561
1,Cardoso/SP,-20.080447,-49.9139767,7,56.79052
1,Careaçu/MG,-22.0440585,-45.6949091,1,14.79947
1,Careiro da Várzea/AM,-3.197024,-59.8259104,65,215.05376
D1,Careiro da Várzea/AM,-3.197024,-59.8259104,4,13.23408
1,Careiro/AM,-3.8185277,-60.3616505,894,2360.77002
D1,Careiro/AM,-3.8185277,-60.3616505,13,34.32887
1,Cariacica/ES,-20.263202,-40.416549,4173,1094.45690
D1,Cariacica/ES,-20.263202,-40.416549,206,54.02783
1,Caridade do Piauí/PI,-7.7331063,-40.9883665,9,177.61989
1,Caridade/CE,-4.2316487,-39.1946515,164,727.36949
D1,Caridade/CE,-4.2316487,-39.1946515,13,57.65734
1,Carinhanha/BA,-14.298524,-43.772349,1,3.44614
1,Carira/SE,-10.358303,-37.701473,32,144.91441
D1,Carira/SE,-10.358303,-37.701473,2,9.05715
1,Cariri do Tocantins/TO,-11.8882727,-49.1604216,58,1323.59653
D1,Cariri do Tocantins/TO,-11.8882727,-49.1604216,1,22.82063
1,Caririaçu/CE,-7.0417053,-39.2835527,81,300.38939
D1,Caririaçu/CE,-7.0417053,-39.2835527,3,11.12553
1,Cariré/CE,-3.948584,-40.476028,240,1300.95403
D1,Cariré/CE,-3.948584,-40.476028,3,16.26193
1,Cariús/CE,-6.5348688,-39.4966658,80,427.83037
D1,Cariús/CE,-6.5348688,-39.4966658,2,10.69576
1,Carlos Barbosa/RS,-29.2978372,-51.5005613,244,817.88623
D1,Carlos Barbosa/RS,-29.2978372,-51.5005613,5,16.75996
1,Carlos Chagas/MG,-21.744351,-43.3908675,3,15.92610
1,Carlópolis/PR,-23.4224762,-49.7194008,31,216.48045
1,Carmo da Cachoeira/MG,-21.460556,-45.223334,4,32.86771
1,Carmo da Mata/MG,-20.558334,-44.8703774,3,26.14151
1,Carmo de Minas/MG,-22.1216655,-45.1323836,3,20.18978
1,Carmo do Cajuru/MG,-20.184444,-44.770834,68,302.51802
D1,Carmo do Cajuru/MG,-20.184444,-44.770834,3,13.34638
1,Carmo do Paranaíba/MG,-18.9992327,-46.306916,45,148.37284
1,Carmo do Rio Claro/MG,-20.973315,-46.1186754,15,70.67138
D1,Carmo do Rio Claro/MG,-20.973315,-46.1186754,1,4.71143
1,Carmo do Rio Verde/GO,-15.3549139,-49.707975,8,79.34934
1,Carmo/RJ,-21.9341749,-42.6091737,60,317.54432
D1,Carmo/RJ,-21.9341749,-42.6091737,2,10.58481
1,Carmolândia/TO,-7.033804,-48.3951295,9,348.83721
D1,Carmolândia/TO,-7.033804,-48.3951295,1,38.75969
1,Carmópolis de Minas/MG,-20.541224,-44.6350611,21,108.49910
1,Carmópolis/SE,-10.64835,-36.98493,64,384.75412
D1,Carmópolis/SE,-10.64835,-36.98493,2,12.02357
1,Carnaubais/RN,-5.3383681,-36.8335566,32,297.42541
D1,Carnaubais/RN,-5.3383681,-36.8335566,1,9.29454
1,Carnaubal/CE,-4.1611842,-40.9412317,100,567.98819
D1,Carnaubal/CE,-4.1611842,-40.9412317,1,5.67988
1,Carnaubeira da Penha/PE,-8.3192809,-38.7435891,7,54.12929
D1,Carnaubeira da Penha/PE,-8.3192809,-38.7435891,1,7.73276
1,Carnaíba/PE,-7.805964,-37.7947314,43,219.93760
D1,Carnaíba/PE,-7.805964,-37.7947314,6,30.68897
1,Carnaúba dos Dantas/RN,-6.5560588,-36.5930811,7,85.57457
D1,Carnaúba dos Dantas/RN,-6.5560588,-36.5930811,2,24.44988
1,Carneiros/AL,-9.4832948,-37.3757121,23,253.27607
1,Caroebe/RR,0.8812315,-59.6932274,234,2301.11122
D1,Caroebe/RR,0.8812315,-59.6932274,2,19.66762
1,Carolina/MA,-7.3313437,-47.4738762,103,423.48491
1,Carpina/PE,-7.8459151,-35.2538861,217,259.44214
D1,Carpina/PE,-7.8459151,-35.2538861,33,39.45433
1,Carrancas/MG,-21.4910462,-44.6436151,1,24.70966
1,Carrapateira/PB,-7.0395225,-38.3432281,1,37.60812
1,Carrasco Bonito/TO,-5.3205734,-48.0376667,4,97.68010
1,Caruaru/PE,-8.2829702,-35.9722852,1283,355.28553
D1,Caruaru/PE,-8.2829702,-35.9722852,73,20.21500
1,Carutapera/MA,-1.2016638,-46.0205618,233,978.70374
D1,Carutapera/MA,-1.2016638,-46.0205618,14,58.80623
1,Carvalhópolis/MG,-21.7773461,-45.8412117,1,27.94077
1,Casa Branca/SP,-21.7743137,-47.0852175,12,39.49967
D1,Casa Branca/SP,-21.7743137,-47.0852175,1,3.29164
1,Casa Nova/BA,-9.1736775,-40.9734475,57,79.20077
D1,Casa Nova/BA,-9.1736775,-40.9734475,3,4.16846
1,Casca/RS,-28.5634054,-51.9741902,10,110.72971
1,Cascalho Rico/MG,-18.579344,-47.875774,1,32.52033
1,Cascavel/CE,-4.129666,-38.241178,915,1275.38575
D1,Cascavel/CE,-4.129666,-38.241178,67,93.38890
1,Cascavel/PR,-24.9554996,-53.4560544,1813,551.97988
D1,Cascavel/PR,-24.9554996,-53.4560544,31,9.43816
1,Caseara/TO,-9.273159,-49.9576837,2,37.25088
D1,Caseara/TO,-9.273159,-49.9576837,1,18.62544
1,Caseiros/RS,-28.2721149,-51.6873536,8,249.84385
1,Casimiro de Abreu/RJ,-22.4809932,-42.2039976,291,658.60945
D1,Casimiro de Abreu/RJ,-22.4809932,-42.2039976,9,20.36936
1,Casinhas/PE,-7.744698,-35.7250923,16,111.56823
D1,Casinhas/PE,-7.744698,-35.7250923,2,13.94603
1,Casserengue/PB,-6.779538,-35.817875,87,1164.97054
1,Cassilândia/MS,-19.1128242,-51.7345354,3,13.67428
1,Castanhal/PA,-1.2927031,-47.9223903,1420,707.19597
D1,Castanhal/PA,-1.2927031,-47.9223903,151,75.20182
1,Castanheira/MT,-11.1391946,-58.6088547,1,11.45607
1,Castanheiras/RO,-11.4277212,-61.9486802,15,491.48100
1,Castelo do Piauí/PI,-5.3230426,-41.5546185,19,96.36843
1,Castelo/ES,-20.6034476,-41.2033505,155,412.95892
D1,Castelo/ES,-20.6034476,-41.2033505,5,13.32126
1,Castelândia/GO,-18.089062,-50.220798,4,116.44833
1,Castilho/SP,-20.8695636,-51.4877792,11,52.36599
D1,Castilho/SP,-20.8695636,-51.4877792,1,4.76054
1,Castro Alves/BA,-12.7616941,-39.4281088,46,175.14468
D1,Castro Alves/BA,-12.7616941,-39.4281088,1,3.80749
1,Castro/PR,-24.794072,-49.9972914,30,41.96743
1,Cataguases/MG,-21.387426,-42.6957219,61,81.20017
D1,Cataguases/MG,-21.387426,-42.6957219,2,2.66230
1,Catalão/GO,-18.1702546,-47.9447082,136,124.97358
D1,Catalão/GO,-18.1702546,-47.9447082,3,2.75677
1,Catanduva/SP,-21.1331035,-48.9712817,315,258.48911
D1,Catanduva/SP,-21.1331035,-48.9712817,17,13.95021
1,Catanduvas/PR,-25.2043528,-53.154826,21,206.10462
1,Catanduvas/SC,-27.0689719,-51.660158,21,193.35236
1,Catarina/CE,-6.1341578,-39.8795321,32,154.60431
D1,Catarina/CE,-6.1341578,-39.8795321,1,4.83138
1,Catas Altas da Noruega/MG,-20.690277,-43.4975,13,357.04477
1,Catas Altas/MG,-20.0744,-43.4075,16,297.61905
1,Catende/PE,-8.6900588,-35.748470825,252,587.52215
D1,Catende/PE,-8.6900588,-35.748470825,16,37.30299
1,Catiguá/SP,-21.0491485,-49.0578923,16,205.02307
1,Catingueira/PB,-7.120081,-37.60638,10,202.75750
D1,Catingueira/PB,-7.120081,-37.60638,1,20.27575
1,Catolândia/BA,-12.315088,-44.8616434,1,27.95639
1,Catolé do Rocha/PB,-6.340625,-37.746967,106,347.01761
D1,Catolé do Rocha/PB,-6.340625,-37.746967,5,16.36876
1,Catu/BA,-12.351274,-38.379108,157,286.99912
D1,Catu/BA,-12.351274,-38.379108,1,1.82802
1,Catuji/MG,-17.3024568,-41.5168387,9,142.60814
1,Catunda/CE,-4.6494224,-40.2002603,72,696.19029
D1,Catunda/CE,-4.6494224,-40.2002603,1,9.66931
1,Caturaí/GO,-16.4473559,-49.4919149,2,39.44773
1,Caturité/PB,-7.4199652,-36.0207132,40,824.40231
1,Catuípe/RS,-28.255356,-54.013215,5,56.98655
1,Caucaia/CE,-3.7300563,-38.6593082,3273,905.64471
D1,Caucaia/CE,-3.7300563,-38.6593082,258,71.38904
1,Cavalcante/GO,-13.7928414,-47.4568521,4,41.19889
1,Caxambu do Sul/SC,-27.1615046,-52.8796675,28,768.80835
D1,Caxambu do Sul/SC,-27.1615046,-52.8796675,1,27.45744
1,Caxambu/MG,-21.9770359,-44.9318289,16,73.88253
D1,Caxambu/MG,-21.9770359,-44.9318289,1,4.61766
1,Caxias do Sul/RS,-29.1684796,-51.1793861,623,121.94024
D1,Caxias do Sul/RS,-29.1684796,-51.1793861,11,2.15304
1,Caxias/MA,-4.8654201,-43.353664,785,476.10383
D1,Caxias/MA,-4.8654201,-43.353664,22,13.34304
1,Caxingó/PI,-3.4208396,-41.8925637,17,313.42183
1,Caçador/SC,-26.77567,-51.0120041,60,76.34073
D1,Caçador/SC,-26.77567,-51.0120041,4,5.08938
1,Caçapava do Sul/RS,-30.5113286,-53.4916761,108,321.19914
D1,Caçapava do Sul/RS,-30.5113286,-53.4916761,2,5.94813
1,Caçapava/SP,-23.099204,-45.707645,118,125.18167
D1,Caçapava/SP,-23.099204,-45.707645,6,6.36517
1,Caçu/GO,-18.5637222,-51.1369685,58,362.29621
D1,Caçu/GO,-18.5637222,-51.1369685,2,12.49297
1,Caém/BA,-11.0909658,-40.4322187,6,65.12537
1,Ceará-Mirim/RN,-5.633588,-35.4248407,315,428.58892
D1,Ceará-Mirim/RN,-5.633588,-35.4248407,16,21.76960
1,Cedral/MA,-2.000269,-44.528114,71,665.10539
1,Cedral/SP,-20.9028433,-49.2699665,14,151.56436
1,Cedro de São João/SE,-10.2506778,-36.8816067,39,661.35323
1,Cedro/CE,-6.6065382,-39.0599487,41,160.42572
D1,Cedro/CE,-6.6065382,-39.0599487,4,15.65129
1,Cedro/PE,-7.7186318,-39.2363385,19,160.92149
D1,Cedro/PE,-7.7186318,-39.2363385,1,8.46955
1,Centenário do Sul/PR,-22.821497,-51.5951456,8,73.88935
1,Centenário/RS,-27.7633568,-51.989010104551,2,69.18021
1,Central de Minas/MG,-18.7612885,-41.3071204,1,14.22071
1,Central do Maranhão/MA,-2.1967253,-44.8290757,11,126.83039
D1,Central do Maranhão/MA,-2.1967253,-44.8290757,1,11.53004
1,Centralina/MG,-18.5843349,-49.1954739,28,270.53140
D1,Centralina/MG,-18.5843349,-49.1954739,1,9.66184
1,Centro Novo do Maranhão/MA,-2.1361032,-46.1248528,232,1072.98122
D1,Centro Novo do Maranhão/MA,-2.1361032,-46.1248528,4,18.49968
1,Centro do Guilherme/MA,-2.4511749,-46.039127,49,364.09571
D1,Centro do Guilherme/MA,-2.4511749,-46.039127,1,7.43052
1,Cerejeiras/RO,-13.186987,-60.816836,24,147.03180
D1,Cerejeiras/RO,-13.186987,-60.816836,2,12.25265
1,Ceres/GO,-15.3103568,-49.6032054,44,198.27858
1,Cerqueira César/SP,-23.0353135,-49.1650519,14,70.05254
1,Cerquilho/SP,-23.1626556,-47.7433878,39,79.67476
D1,Cerquilho/SP,-23.1626556,-47.7433878,5,10.21471
1,Cerro Azul/PR,-24.8245108,-49.2615181,4,22.49845
1,Cerro Corá/RN,-6.0412685,-36.3464694,3,26.83603
D1,Cerro Corá/RN,-6.0412685,-36.3464694,1,8.94534
1,Cerro Grande do Sul/RS,-30.5962963,-51.7517196,2,16.34120
D1,Cerro Grande do Sul/RS,-30.5962963,-51.7517196,1,8.17060
1,Cerro Largo/RS,-28.147498,-54.7383681,3,21.22692
1,Cesário Lange/SP,-23.226035,-47.954453,12,66.12299
D1,Cesário Lange/SP,-23.226035,-47.954453,2,11.02050
1,Cezarina/GO,-16.9718289,-49.775814,1,11.61980
1,Chalé/MG,-20.0419748,-41.6914563,5,87.65778
1,Chapada dos Guimarães/MT,-15.464343,-55.749857,42,212.63670
D1,Chapada dos Guimarães/MT,-15.464343,-55.749857,4,20.25111
1,Chapada/RS,-28.0587829,-53.0657459,6,64.73190
1,Chapadinha/MA,-3.7416803,-43.3548006,1593,1999.37245
D1,Chapadinha/MA,-3.7416803,-43.3548006,13,16.31628
1,Chapadão do Céu/GO,-18.3951972,-52.6670783,14,137.70040
1,Chapadão do Sul/MS,-18.7949051,-52.6199512,123,487.74685
1,Chapecó/SC,-27.0922364,-52.6166878,1251,567.68935
D1,Chapecó/SC,-27.0922364,-52.6166878,9,4.08410
1,Charqueada/SP,-22.50958,-47.775468,87,506.10820
D1,Charqueada/SP,-22.50958,-47.775468,3,17.45201
1,Charqueadas/RS,-29.955012,-51.6249195,32,78.45252
D1,Charqueadas/RS,-29.955012,-51.6249195,1,2.45164
1,Chaval/CE,-3.0339874,-41.2438452,244,1867.01354
D1,Chaval/CE,-3.0339874,-41.2438452,3,22.95508
1,Chavantes/SP,-23.0406405,-49.7071698,1,8.05283
1,Chaves/PA,-0.164154,-49.987006,139,586.07750
D1,Chaves/PA,-0.164154,-49.987006,1,4.21638
1,Chiador/MG,-22.002778,-43.057222,22,818.75698
1,Chiapetta/RS,-27.923162,-53.9419052,18,479.23323
1,Chopinzinho/PR,-25.8566167,-52.5294107,10,51.93726
1,Chorozinho/CE,-4.3010895,-38.4976923,280,1381.76076
D1,Chorozinho/CE,-4.3010895,-38.4976923,10,49.34860
1,Chorrochó/BA,-8.9774059,-39.0993132,2,17.89389
1,Choró/CE,-4.8435726,-39.1393071,152,1124.17721
D1,Choró/CE,-4.8435726,-39.1393071,3,22.18771
1,Chupinguaia/RO,-12.5528918,-60.9027819,12,107.31533
1,Chácara/MG,-21.6727567,-43.2206851,1,31.70577
1,Chã Grande/PE,-8.238271,-35.457148,157,723.56899
D1,Chã Grande/PE,-8.238271,-35.457148,11,50.69592
1,Chã Preta/AL,-9.255605,-36.298334,12,164.13623
1,Chã de Alegria/PE,-7.9959409,-35.2134636,121,895.10283
D1,Chã de Alegria/PE,-7.9959409,-35.2134636,4,29.59018
1,Cianorte/PR,-23.662036,-52.6103989,313,378.84290
D1,Cianorte/PR,-23.662036,-52.6103989,2,2.42072
1,Cidade Gaúcha/PR,-23.3816558,-52.9444098,7,55.32722
D1,Cidade Gaúcha/PR,-23.3816558,-52.9444098,1,7.90389
1,Cidade Ocidental/GO,-16.1000758,-47.9445014,182,254.98767
D1,Cidade Ocidental/GO,-16.1000758,-47.9445014,5,7.00516
1,Cidelândia/MA,-5.174655,-47.7833531,196,1333.60550
1,Cidreira/RS,-30.1657063,-50.218331,29,178.41762
D1,Cidreira/RS,-30.1657063,-50.218331,1,6.15233
1,Cipotânea/MG,-20.905278,-43.365556,1,14.73405
1,Cipó/BA,-11.0990534,-38.5153006,3,17.34104
1,Ciríaco/RS,-28.3429139,-51.8763682,3,63.19781
1,Claraval/MG,-20.398889,-47.283056,1,20.64836
1,Clevelândia/PR,-26.404065,-52.3513972,48,289.87258
D1,Clevelândia/PR,-26.404065,-52.3513972,2,12.07802
1,Cláudia/MT,-11.5057202,-54.8763166,9,74.08017
1,Cláudio/MG,-20.4448485,-44.7655217,23,80.37181
1,Coaraci/BA,-14.6407979,-39.5496765,45,264.81492
D1,Coaraci/BA,-14.6407979,-39.5496765,3,17.65433
1,Coari/AM,-4.0885957,-63.1431166,3313,3893.20423
D1,Coari/AM,-4.0885957,-63.1431166,77,90.48498
1,Cocal de Telha/PI,-4.5553648,-41.9722429,27,552.03435
1,Cocal do Sul/SC,-28.6007346,-49.3248697,24,143.85040
D1,Cocal do Sul/SC,-28.6007346,-49.3248697,1,5.99377
1,Cocal dos Alves/PI,-3.59964,-41.444741,2,32.50447
1,Cocal/PI,-3.4691882,-41.555851,72,259.11397
D1,Cocal/PI,-3.4691882,-41.555851,2,7.19761
1,Cocalzinho de Goiás/GO,-15.7762854,-48.7730427,21,103.75494
D1,Cocalzinho de Goiás/GO,-15.7762854,-48.7730427,1,4.94071
1,Cocos/BA,-14.1811222,-44.5382117,7,37.27965
1,Codajás/AM,-3.8413202,-62.0603444,117,408.56235
D1,Codajás/AM,-3.8413202,-62.0603444,3,10.47596
1,Codó/MA,-4.455623,-43.892354,1766,1437.42013
D1,Codó/MA,-4.455623,-43.892354,10,8.13941
1,Coelho Neto/MA,-4.2535154,-43.0149321,895,1810.45818
D1,Coelho Neto/MA,-4.2535154,-43.0149321,14,28.32002
1,Coimbra/MG,-21.5733599,-45.1979819,3,39.70355
1,Coité do Nóia/AL,-9.633484,-36.584493,39,364.72459
1,Coivaras/PI,-5.0927005,-42.2052489,13,323.38308
1,Colares/PA,-0.936423,-48.280254,70,579.23045
D1,Colares/PA,-0.936423,-48.280254,8,66.19777
1,Colatina/ES,-19.5346732,-40.6287836,1059,864.49685
D1,Colatina/ES,-19.5346732,-40.6287836,21,17.14300
1,Colina/SP,-20.711443,-48.53867,29,157.02837
D1,Colina/SP,-20.711443,-48.53867,3,16.24431
1,Colinas do Tocantins/TO,-8.0612688,-48.4716768,176,496.83830
D1,Colinas do Tocantins/TO,-8.0612688,-48.4716768,3,8.46883
1,Colinas/MA,-6.0332631,-44.2528542,300,728.54437
D1,Colinas/MA,-6.0332631,-44.2528542,7,16.99937
1,Colinas/RS,-29.3866023,-51.8697911,13,533.22395
1,Colméia/TO,-8.734098,-48.7510897,5,60.93845
1,Colniza/MT,-9.4560637,-59.2197132,2,5.18376
1,Colombo/PR,-25.2925439,-49.2243472,201,82.46966
D1,Colombo/PR,-25.2925439,-49.2243472,6,2.46178
1,Colorado do Oeste/RO,-13.117431,-60.545428,29,182.59665
1,Colorado/PR,-22.8385097,-51.9730135,18,74.96252
1,Colorado/RS,-28.525842,-52.99282,4,125.98425
1,Colíder/MT,-10.8094999,-55.4540386,79,236.25815
D1,Colíder/MT,-10.8094999,-55.4540386,2,5.98122
1,Colômbia/SP,-20.1774291,-48.6872822,3,48.30918
1,Colônia Leopoldina/AL,-8.918058,-35.721414,141,649.82948
D1,Colônia Leopoldina/AL,-8.918058,-35.721414,2,9.21744
1,Colônia do Gurguéia/PI,-8.183697,-43.793999,5,77.11289
D1,Colônia do Gurguéia/PI,-8.183697,-43.793999,1,15.42258
1,Colônia do Piauí/PI,-7.2320268,-42.1777122,11,143.67816
1,Comendador Levy Gasparian/RJ,-22.028685,-43.204655,40,467.23514
1,Comercinho/MG,-16.2965093,-41.7930954,1,14.43210
1,Comodoro/MT,-13.6581107,-59.786883,17,81.87641
D1,Comodoro/MT,-13.6581107,-59.786883,1,4.81626
1,Conceição da Barra de Minas/MG,-21.128889,-44.472223,1,25.29084
1,Conceição da Barra/ES,-18.5841421,-39.7371844,37,119.11277
D1,Conceição da Barra/ES,-18.5841421,-39.7371844,2,6.43853
1,Conceição da Feira/BA,-12.5013001,-39.0002166,54,239.13910
D1,Conceição da Feira/BA,-12.5013001,-39.0002166,1,4.42850
1,Conceição das Alagoas/MG,-19.9194009,-48.3803414,23,82.45796
1,Conceição das Pedras/MG,-22.1596572,-45.4550521,1,35.56188
1,Conceição de Macabu/RJ,-22.0849986,-41.8679947,156,671.60324
D1,Conceição de Macabu/RJ,-22.0849986,-41.8679947,1,4.30515
1,Conceição do Almeida/BA,-12.7772763,-39.1692214,15,86.97165
1,Conceição do Araguaia/PA,-8.2696905,-49.2676864,108,225.63931
D1,Conceição do Araguaia/PA,-8.2696905,-49.2676864,2,4.17851
1,Conceição do Castelo/ES,-20.3601311,-41.2470343,41,322.25104
D1,Conceição do Castelo/ES,-20.3601311,-41.2470343,2,15.71956
1,Conceição do Coité/BA,-11.5629384,-39.2839543,79,118.59725
1,Conceição do Jacuípe/BA,-12.326831,-38.768433,121,364.97451
1,Conceição do Lago-Açu/MA,-3.8410056,-44.8930565,121,745.21155
D1,Conceição do Lago-Açu/MA,-3.8410056,-44.8930565,2,12.31755
1,Conceição do Mato Dentro/MG,-19.037222,-43.425278,52,291.44715
1,Conceição do Rio Verde/MG,-21.881078,-45.0868526,4,29.32981
1,Conceição dos Ouros/MG,-22.413056,-45.797777,3,25.77763
1,Conceição/PB,-7.5565059,-38.5053706,6,31.60889
1,Conchal/SP,-22.337512,-47.172927,21,74.86631
1,Conchas/SP,-23.0133538,-48.0077595,18,100.58114
D1,Conchas/SP,-23.0133538,-48.0077595,2,11.17568
1,Concórdia do Pará/PA,-1.9924056,-47.9450474,372,1116.51360
D1,Concórdia do Pará/PA,-1.9924056,-47.9450474,6,18.00828
1,Concórdia/SC,-27.2312011,-52.0231024,1186,1588.93905
D1,Concórdia/SC,-27.2312011,-52.0231024,12,16.07696
1,Condado/PB,-6.9092101,-37.5966375,57,856.62759
1,Condado/PE,-7.587868,-35.09994,165,624.50324
D1,Condado/PE,-7.587868,-35.09994,20,75.69736
1,Conde/BA,-11.8129758,-37.6138705,29,112.24213
D1,Conde/BA,-11.8129758,-37.6138705,2,7.74084
1,Conde/PB,-7.2600359,-34.9053524,261,1057.96514
D1,Conde/PB,-7.2600359,-34.9053524,5,20.26753
1,Condeúba/BA,-14.902227,-41.971829,17,98.56787
1,Condor/RS,-28.2058277,-53.4844696,24,355.39760
D1,Condor/RS,-28.2058277,-53.4844696,1,14.80823
1,Confins/MG,-19.6278749,-43.9912311,2,29.71768
1,Confresa/MT,-10.643695,-51.569873,274,885.78541
D1,Confresa/MT,-10.643695,-51.569873,7,22.62955
1,Congo/PB,-7.80963435,-36.641233278035656,18,376.09695
D1,Congo/PB,-7.80963435,-36.641233278035656,1,20.89427
1,Congonhal/MG,-22.1532505,-46.0404698,1,8.36820
1,Congonhas do Norte/MG,-18.8100392,-43.6783242,1,19.82161
1,Congonhas/MG,-20.5015168,-43.8564586,58,105.91286
D1,Congonhas/MG,-20.5015168,-43.8564586,1,1.82608
1,Congonhinhas/PR,-23.5497241,-50.5520182,8,90.72352
D1,Congonhinhas/PR,-23.5497241,-50.5520182,1,11.34044
1,Conquista D'Oeste/MT,-14.5381171,-59.5443775,8,198.11788
1,Conselheiro Lafaiete/MG,-20.6596107,-43.785743,83,64.54673
D1,Conselheiro Lafaiete/MG,-20.6596107,-43.785743,1,0.77767
1,Conselheiro Mairinck/PR,-23.6229983,-50.1706779,22,569.94819
1,Conselheiro Pena/MG,-19.1720883,-41.471995,5,21.81406
1,Constantina/RS,-27.7331711,-52.9929561,29,292.60418
D1,Constantina/RS,-27.7331711,-52.9929561,1,10.08980
1,Contagem/MG,-19.9132749,-44.0840953,819,123.37031
D1,Contagem/MG,-19.9132749,-44.0840953,32,4.82033
1,Contenda/PR,-25.678811,-49.535044,8,43.04778
D1,Contenda/PR,-25.678811,-49.535044,1,5.38097
1,Coqueiral/MG,-21.1898365,-45.4409829,1,10.91822
1,Coqueiro Seco/AL,-9.637147,-35.799377,119,2035.92814
D1,Coqueiro Seco/AL,-9.637147,-35.799377,4,68.43456
1,Coqueiros do Sul/RS,-28.1184032,-52.7824375,5,216.82567
D1,Coqueiros do Sul/RS,-28.1184032,-52.7824375,1,43.36513
1,Coração de Jesus/MG,-16.6888187,-44.3577401,1,3.75912
1,Coração de Maria/BA,-12.2484345,-38.7499274,23,101.74740
1,Corbélia/PR,-24.7951117,-53.2961804,27,158.16297
1,Cordeiro/RJ,-22.0287681,-42.3607442,26,118.58068
1,Cordeiros/BA,-15.0397219,-41.9314228,1,11.60901
1,Cordeirópolis/SP,-22.4768324,-47.4550551,124,505.54468
D1,Cordeirópolis/SP,-22.4768324,-47.4550551,4,16.30789
1,Cordilheira Alta/SC,-26.9853947,-52.603549,14,314.39479
1,Cordisburgo/MG,-19.125834,-44.320278,4,44.99438
1,Coreaú/CE,-3.5519794,-40.6528409,361,1560.33887
D1,Coreaú/CE,-3.5519794,-40.6528409,5,21.61134
1,Coremas/PB,-7.0175897,-37.9465062,25,161.86468
1,Corguinho/MS,-19.827429,-54.8322243,1,16.81520
1,Corinto/MG,-18.363056,-44.456111,47,198.05318
1,Cornélio Procópio/PR,-23.1825218,-50.6499263,225,470.26858
D1,Cornélio Procópio/PR,-23.1825218,-50.6499263,14,29.26116
1,Coroaci/MG,-18.6194369,-42.2830239,1,10.00901
1,Coroados/SP,-21.3554634,-50.2853589,14,231.09937
D1,Coroados/SP,-21.3554634,-50.2853589,1,16.50710
1,Coroatá/MA,-4.1282283,-44.1360269,269,411.97011
D1,Coroatá/MA,-4.1282283,-44.1360269,3,4.59446
1,Coromandel/MG,-18.473889,-47.200278,7,25.02324
1,Coronel Bicaco/RS,-27.7174002,-53.705821,4,54.60751
1,Coronel Domingos Soares/PR,-26.22394,-52.0314509,146,1947.44564
1,Coronel Ezequiel/RN,-6.3853153,-36.2151622,1,18.16201
1,Coronel Fabriciano/MG,-19.5200067,-42.6282686,382,347.73110
D1,Coronel Fabriciano/MG,-19.5200067,-42.6282686,3,2.73087
1,Coronel Freitas/SC,-26.9058932,-52.7028055,9,90.17133
1,Coronel José Dias/PI,-8.8252316,-42.4782948,1,21.35839
1,Coronel João Pessoa/RN,-6.2607103,-38.4424915,6,122.14984
D1,Coronel João Pessoa/RN,-6.2607103,-38.4424915,1,20.35831
1,Coronel João Sá/BA,-10.2856387,-37.9259435,10,62.91287
1,Coronel Macedo/SP,-23.6304001,-49.313234,2,42.72591
D1,Coronel Macedo/SP,-23.6304001,-49.313234,1,21.36296
1,Coronel Martins/SC,-26.5124719,-52.6681763,4,156.92428
1,Coronel Pacheco/MG,-21.5878865,-43.2615975,1,32.40441
D1,Coronel Pacheco/MG,-21.5878865,-43.2615975,1,32.40441
1,Coronel Pilar/RS,-29.2733077,-51.6851371,1,61.42506
1,Coronel Vivida/PR,-25.9803771,-52.5654277,8,38.58397
1,Coronel Xavier Chaves/MG,-21.0234482,-44.2233108,7,203.84391
1,Correia Pinto/SC,-27.587688,-50.361448,3,23.44666
1,Corrente/PI,-10.4401356,-45.1627472,34,127.60847
1,Correntes/PE,-9.1295585,-36.3287438,42,230.68051
D1,Correntes/PE,-9.1295585,-36.3287438,2,10.98479
1,Correntina/BA,-13.344157,-44.6345066,4,12.44671
1,Cortês/PE,-8.4724921,-35.5431197,82,651.93194
D1,Cortês/PE,-8.4724921,-35.5431197,9,71.55351
1,Corumbataí do Sul/PR,-24.100956,-52.11766,12,372.78658
1,Corumbataí/SP,-22.2210521,-47.6249638,9,221.94821
1,Corumbaíba/GO,-18.1348982,-48.564223,12,123.41870
D1,Corumbaíba/GO,-18.1348982,-48.564223,1,10.28489
1,Corumbiara/RO,-12.9977668,-60.9455009,4,54.11988
1,Corumbá de Goiás/GO,-15.9268355,-48.8074659,1,9.00090
1,Corumbá/MS,-19.0016365,-57.6534316,197,176.78467
D1,Corumbá/MS,-19.0016365,-57.6534316,3,2.69215
1,Corupá/SC,-26.42464,-49.245968,78,490.28852
1,Coruripe/AL,-10.1249963,-36.1760623,566,994.15102
D1,Coruripe/AL,-10.1249963,-36.1760623,14,24.59031
1,Cosmorama/SP,-20.475472,-49.782747,9,123.16956
D1,Cosmorama/SP,-20.475472,-49.782747,1,13.68551
1,Cosmópolis/SP,-22.6437398,-47.1972086,154,213.14289
D1,Cosmópolis/SP,-22.6437398,-47.1972086,4,5.53618
1,Costa Marques/RO,-12.4367165,-64.2279765,18,98.19432
1,Costa Rica/MS,-18.5333859,-53.1394286,23,110.45479
1,Cotia/SP,-23.603889,-46.918889,973,390.43377
D1,Cotia/SP,-23.603889,-46.918889,69,27.68749
1,Cotiporã/RS,-28.9950719,-51.696359,7,181.67662
1,Cotriguaçu/MT,-9.9034364,-58.5658915,8,40.50633
D1,Cotriguaçu/MT,-9.9034364,-58.5658915,1,5.06329
1,Couto Magalhães/TO,-8.360583,-49.1773955,22,393.70079
1,Couto de Magalhães de Minas/MG,-18.073016,-43.4718628,3,68.02721
1,Coxilha/RS,-28.1254442,-52.2979903,27,979.68070
1,Coxim/MS,-18.504915,-54.7450251,10,29.81248
1,Coxixola/PB,-7.6272915,-36.606013,8,416.44977
