type,name,lat,lon,total,total_per_100k_inhabitants
1,Abadia de Goiás/GO,-16.7572644,-49.4412205,1437,16041.52713
D1,Abadia de Goiás/GO,-16.7572644,-49.4412205,34,379.54901
1,Abadia dos Dourados/MG,-18.4911191,-47.4063589,428,6109.04939
D1,Abadia dos Dourados/MG,-18.4911191,-47.4063589,14,199.82872
1,Abadiânia/GO,-16.1940946,-48.7067767,421,2057.57294
D1,Abadiânia/GO,-16.1940946,-48.7067767,32,156.39509
1,Abaetetuba/PA,-1.721828,-48.878843,8874,5578.32537
D1,Abaetetuba/PA,-1.721828,-48.878843,219,137.66658
1,Abaeté/MG,-19.1566833,-45.4481213,1213,5217.20430
D1,Abaeté/MG,-19.1566833,-45.4481213,27,116.12903
1,Abaiara/CE,-7.3607808,-39.0487878,576,4859.52923
D1,Abaiara/CE,-7.3607808,-39.0487878,14,118.11356
1,Abaré/BA,-8.7239913,-39.1139689,944,4639.50460
D1,Abaré/BA,-8.7239913,-39.1139689,11,54.06202
1,Abatiá/PR,-23.3052967,-50.3102532,960,12958.96328
D1,Abatiá/PR,-23.3052967,-50.3102532,15,202.48380
1,Abaíra/BA,-13.2503296,-41.6640342,281,3226.17681
D1,Abaíra/BA,-13.2503296,-41.6640342,11,126.29162
1,Abdon Batista/SC,-27.612419,-51.022992,402,15777.08006
D1,Abdon Batista/SC,-27.612419,-51.022992,4,156.98587
1,Abel Figueiredo/PA,-4.953001,-48.3958485,953,12730.43014
D1,Abel Figueiredo/PA,-4.953001,-48.3958485,10,133.58269
1,Abelardo Luz/SC,-26.5705893,-52.3280339,1469,8179.28731
D1,Abelardo Luz/SC,-26.5705893,-52.3280339,49,272.82851
1,Abre Campo/MG,-20.2976097,-42.4764741,1090,8107.70604
D1,Abre Campo/MG,-20.2976097,-42.4764741,15,111.57394
1,Abreu e Lima/PE,-7.900719,-34.898389,3070,3059.41443
D1,Abreu e Lima/PE,-7.900719,-34.898389,223,222.23108
1,Abreulândia/TO,-9.6221526,-49.1558343,270,10408.63531
D1,Abreulândia/TO,-9.6221526,-49.1558343,6,231.30301
1,Acaiaca/MG,-20.3621646,-43.1444162,226,5658.48773
D1,Acaiaca/MG,-20.3621646,-43.1444162,11,275.41312
1,Acajutiba/BA,-11.6609659,-38.0186381,510,3358.13525
D1,Acajutiba/BA,-11.6609659,-38.0186381,16,105.35326
1,Acarape/CE,-4.2237866,-38.7071663,2762,18369.24714
D1,Acarape/CE,-4.2237866,-38.7071663,27,179.56903
1,Acaraú/CE,-2.8869514,-40.1194713,4864,7707.91075
D1,Acaraú/CE,-2.8869514,-40.1194713,103,163.22262
1,Acari/RN,-6.4364689,-36.6394777,1018,9153.85307
D1,Acari/RN,-6.4364689,-36.6394777,16,143.87195
1,Acará/PA,-1.961388,-48.1987043,1314,2360.38010
D1,Acará/PA,-1.961388,-48.1987043,29,52.09362
1,Acauã/PI,-8.219542,-41.083059,196,2759.78598
D1,Acauã/PI,-8.219542,-41.083059,1,14.08054
1,Aceguá/RS,-31.8695131,-54.1615593,341,6900.04047
D1,Aceguá/RS,-31.8695131,-54.1615593,6,121.40834
1,Acopiara/CE,-6.0936464,-39.4543204,3556,6527.04613
D1,Acopiara/CE,-6.0936464,-39.4543204,132,242.28630
1,Acorizal/MT,-15.2001544,-56.3668953,489,9167.60405
D1,Acorizal/MT,-15.2001544,-56.3668953,19,356.20547
1,Acrelândia/AC,-10.0759167,-67.0526898,1637,10568.10846
D1,Acrelândia/AC,-10.0759167,-67.0526898,36,232.40801
1,Acreúna/GO,-17.3959899,-50.3749031,1929,8555.84139
D1,Acreúna/GO,-17.3959899,-50.3749031,47,208.46270
1,Adamantina/SP,-21.6866517,-51.0762975,3171,9031.35769
D1,Adamantina/SP,-21.6866517,-51.0762975,94,267.72237
1,Adelândia/GO,-16.4155077,-50.1665834,195,7750.39746
D1,Adelândia/GO,-16.4155077,-50.1665834,4,158.98251
1,Adolfo/SP,-21.2356597,-49.6441918,503,14153.06697
D1,Adolfo/SP,-21.2356597,-49.6441918,14,393.92234
1,Adrianópolis/PR,-24.6557863,-48.9912769,1306,22298.10483
D1,Adrianópolis/PR,-24.6557863,-48.9912769,27,460.98685
1,Adustina/BA,-10.5358875,-38.114479,936,5465.37428
D1,Adustina/BA,-10.5358875,-38.114479,20,116.78150
1,Afogados da Ingazeira/PE,-7.750429,-37.6356375,4958,13255.26682
D1,Afogados da Ingazeira/PE,-7.750429,-37.6356375,66,176.45172
1,Afonso Bezerra/RN,-5.4745,-36.57625071327935,705,6392.23864
D1,Afonso Bezerra/RN,-5.4745,-36.57625071327935,17,154.13909
1,Afonso Cláudio/ES,-20.077841,-41.12606,3378,11091.77475
D1,Afonso Cláudio/ES,-20.077841,-41.12606,56,183.87785
1,Afonso Cunha/MA,-4.1326105,-43.3230026,182,2766.79842
D1,Afonso Cunha/MA,-4.1326105,-43.3230026,2,30.40438
1,Afrânio/PE,-8.5198919,-41.0070197,879,4437.15295
D1,Afrânio/PE,-8.5198919,-41.0070197,14,70.67138
1,Afuá/PA,-0.1535664,-50.3879223,2979,7529.00144
D1,Afuá/PA,-0.1535664,-50.3879223,14,35.38302
1,Agrestina/PE,-8.4558021,-35.9442663,1639,6538.99860
D1,Agrestina/PE,-8.4558021,-35.9442663,60,239.37762
1,Agricolândia/PI,-5.7967843,-42.6605131,476,9276.94407
D1,Agricolândia/PI,-5.7967843,-42.6605131,6,116.93627
1,Agrolândia/SC,-27.4122212,-49.8295774,1537,13956.23354
D1,Agrolândia/SC,-27.4122212,-49.8295774,22,199.76392
1,Agronômica/SC,-27.2660744,-49.7104753,625,11345.07170
D1,Agronômica/SC,-27.2660744,-49.7104753,13,235.97749
1,Aguanil/MG,-20.9424533,-45.3927152,605,13379.03582
D1,Aguanil/MG,-20.9424533,-45.3927152,8,176.91287
1,Aguaí/SP,-22.0592036,-46.979384,2856,7793.05828
D1,Aguaí/SP,-22.0592036,-46.979384,90,245.57957
1,Agudo/RS,-29.6423259,-53.2494005,1643,10017.68185
D1,Agudo/RS,-29.6423259,-53.2494005,29,176.81849
1,Agudos do Sul/PR,-25.9890808,-49.3328175,611,6451.95354
D1,Agudos do Sul/PR,-25.9890808,-49.3328175,24,253.43189
1,Agudos/SP,-22.471162,-48.987822,3689,9863.37264
D1,Agudos/SP,-22.471162,-48.987822,85,227.26665
1,Aguiar/PB,-7.0928404,-38.1727215,488,8667.85080
D1,Aguiar/PB,-7.0928404,-38.1727215,5,88.80995
1,Aguiarnópolis/TO,-6.5600452,-47.4721189,634,9199.07139
D1,Aguiarnópolis/TO,-6.5600452,-47.4721189,12,174.11492
1,Aimorés/MG,-19.4917754,-41.0615603,1918,7628.97259
D1,Aimorés/MG,-19.4917754,-41.0615603,61,242.63156
1,Aiquara/BA,-14.126918,-39.8887574,469,10620.47101
D1,Aiquara/BA,-14.126918,-39.8887574,12,271.73913
1,Aiuaba/CE,-6.5710836,-40.1212278,718,4104.49894
D1,Aiuaba/CE,-6.5710836,-40.1212278,11,62.88230
1,Aiuruoca/MG,-21.9759554,-44.6036637,292,4886.21151
D1,Aiuruoca/MG,-21.9759554,-44.6036637,7,117.13521
1,Ajuricaba/RS,-28.239654,-53.7693013,1010,14455.41720
D1,Ajuricaba/RS,-28.239654,-53.7693013,27,386.43195
1,Alagoa Grande/PB,-7.0415212,-35.6285322,3863,13583.45933
D1,Alagoa Grande/PB,-7.0415212,-35.6285322,69,242.62456
1,Alagoa Nova/PB,-7.0653703,-35.76695977336711,1019,4870.70408
D1,Alagoa Nova/PB,-7.0653703,-35.76695977336711,18,86.03795
1,Alagoa/MG,-22.1697202,-44.6400042,439,16472.79550
D1,Alagoa/MG,-22.1697202,-44.6400042,6,225.14071
1,Alagoinha do Piauí/PI,-7.0090952,-40.939675,345,4500.97847
D1,Alagoinha do Piauí/PI,-7.0090952,-40.939675,10,130.46314
1,Alagoinha/PB,-6.97063215,-35.51490901897793,1947,13372.25275
D1,Alagoinha/PB,-6.97063215,-35.51490901897793,24,164.83516
1,Alagoinha/PE,-8.50355635,-36.77701174370496,1209,8214.43131
D1,Alagoinha/PE,-8.50355635,-36.77701174370496,25,169.86004
1,Alagoinhas/BA,-12.133526,-38.420772,13079,8586.13378
D1,Alagoinhas/BA,-12.133526,-38.420772,262,171.99840
1,Alambari/SP,-23.550338,-47.897971,511,8337.41230
D1,Alambari/SP,-23.550338,-47.897971,10,163.15875
1,Albertina/MG,-20.66164,-43.784039,232,7705.08137
D1,Albertina/MG,-20.66164,-43.784039,9,298.90402
1,Alcantil/PB,-7.7425491,-36.0609604,476,8640.40661
D1,Alcantil/PB,-7.7425491,-36.0609604,6,108.91269
1,Alcinópolis/MS,-18.3264121,-53.7094463,323,5962.70999
D1,Alcinópolis/MS,-18.3264121,-53.7094463,8,147.68322
1,Alcobaça/BA,-17.5215875,-39.1965474,1466,6518.45265
D1,Alcobaça/BA,-17.5215875,-39.1965474,29,128.94620
1,Alcântara/MA,-2.4038956,-44.4154241,306,1383.86397
D1,Alcântara/MA,-2.4038956,-44.4154241,17,76.88133
1,Alcântaras/CE,-3.586247,-40.5457641,1659,14081.99643
D1,Alcântaras/CE,-3.586247,-40.5457641,21,178.25312
1,Aldeias Altas/MA,-4.6291957,-43.4708622,976,3647.64361
D1,Aldeias Altas/MA,-4.6291957,-43.4708622,14,52.32276
1,Alecrim/RS,-27.6566142,-54.7653195,296,5079.80093
D1,Alecrim/RS,-27.6566142,-54.7653195,11,188.77639
1,Alegre/ES,-20.7625787,-41.5318886,2328,7766.47206
D1,Alegre/ES,-20.7625787,-41.5318886,51,170.14178
1,Alegrete do Piauí/PI,-7.2440138,-40.8602296,495,10065.06710
D1,Alegrete do Piauí/PI,-7.2440138,-40.8602296,6,122.00081
1,Alegrete/RS,-29.790166,-55.794862,8976,12291.17599
D1,Alegrete/RS,-29.790166,-55.794862,266,364.24385
1,Alegria/RS,-27.8332103,-54.0574959,366,10847.65857
D1,Alegria/RS,-27.8332103,-54.0574959,3,88.91523
1,Alenquer/PA,-1.946229,-54.738355,3349,5865.97071
D1,Alenquer/PA,-1.946229,-54.738355,130,227.70266
1,Alexandria/RN,-6.414779,-38.0135516,1561,11517.74515
D1,Alexandria/RN,-6.414779,-38.0135516,25,184.46100
1,Alexânia/GO,-16.0834049,-48.5077803,3055,10906.81899
D1,Alexânia/GO,-16.0834049,-48.5077803,76,271.33167
1,Alfenas/MG,-21.4297405,-45.9479419,8754,10875.34475
D1,Alfenas/MG,-21.4297405,-45.9479419,164,203.74189
1,Alfredo Chaves/ES,-20.624970400000002,-40.75006690147988,2365,16158.78655
D1,Alfredo Chaves/ES,-20.624970400000002,-40.75006690147988,35,239.13638
1,Alfredo Marcondes/SP,-21.9527,-51.413956,238,5688.33652
D1,Alfredo Marcondes/SP,-21.9527,-51.413956,10,239.00574
1,Alfredo Vasconcelos/MG,-21.145833,-43.776389,485,6947.42874
D1,Alfredo Vasconcelos/MG,-21.145833,-43.776389,12,171.89514
1,Alfredo Wagner/SC,-27.6961513,-49.3326734,661,6553.63871
D1,Alfredo Wagner/SC,-27.6961513,-49.3326734,7,69.40313
1,Algodão de Jandaíra/PB,-6.9040175,-36.0089879,181,7023.67094
1,Alhandra/PB,-7.4304246,-34.9106103,2174,11020.42885
D1,Alhandra/PB,-7.4304246,-34.9106103,35,177.42181
1,Aliança do Tocantins/TO,-11.3055927,-48.9409096,601,11242.05013
D1,Aliança do Tocantins/TO,-11.3055927,-48.9409096,20,374.11149
1,Aliança/PE,-7.60398,-35.222696,634,1651.17066
D1,Aliança/PE,-7.60398,-35.222696,59,153.65784
1,Almadina/BA,-14.70466,-39.6381994,609,11349.23593
D1,Almadina/BA,-14.70466,-39.6381994,9,167.72270
1,Almas/TO,-11.5681309,-47.1702803,235,3367.24459
D1,Almas/TO,-11.5681309,-47.1702803,5,71.64350
1,Almeirim/PA,-1.5290377,-52.5788111,3648,10705.48186
D1,Almeirim/PA,-1.5290377,-52.5788111,43,126.18852
1,Almenara/MG,-16.1740678,-40.6904907,3789,8990.81698
D1,Almenara/MG,-16.1740678,-40.6904907,45,106.77930
1,Almino Afonso/RN,-6.1544208,-37.7649018,420,8917.19745
D1,Almino Afonso/RN,-6.1544208,-37.7649018,12,254.77707
1,Almirante Tamandaré do Sul/RS,-28.1141129,-52.9134874,315,16162.13443
D1,Almirante Tamandaré do Sul/RS,-28.1141129,-52.9134874,4,205.23345
1,Almirante Tamandaré/PR,-25.3133048,-49.2997838,9433,7858.14847
D1,Almirante Tamandaré/PR,-25.3133048,-49.2997838,353,294.06619
1,Aloândia/GO,-17.7277983,-49.4809338,267,13444.10876
D1,Aloândia/GO,-17.7277983,-49.4809338,7,352.46727
1,Alpercata/MG,-18.9803616,-41.9827637,476,6401.29102
D1,Alpercata/MG,-18.9803616,-41.9827637,19,255.51372
1,Alpestre/RS,-27.2512339,-53.0349646,324,5340.36591
D1,Alpestre/RS,-27.2512339,-53.0349646,8,131.86089
1,Alpinópolis/MG,-20.863611,-46.387777,1276,6393.42620
D1,Alpinópolis/MG,-20.863611,-46.387777,34,170.35775
1,Alta Floresta D'Oeste/RO,-11.9296917,-61.9961284,3858,16974.65681
D1,Alta Floresta D'Oeste/RO,-11.9296917,-61.9961284,64,281.59099
1,Alta Floresta/MT,-9.8715018,-56.0839881,8477,16314.78666
D1,Alta Floresta/MT,-9.8715018,-56.0839881,122,234.80052
1,Altair/SP,-20.5238955,-49.0606135,182,4347.82609
D1,Altair/SP,-20.5238955,-49.0606135,12,286.66985
1,Altamira do Maranhão/MA,-4.1643006,-45.4674574,318,3883.25803
D1,Altamira do Maranhão/MA,-4.1643006,-45.4674574,10,122.11503
1,Altamira do Paraná/PR,-24.799114,-52.7128633,210,12485.13674
D1,Altamira do Paraná/PR,-24.799114,-52.7128633,10,594.53032
1,Altamira/PA,-3.204065,-52.209961,13384,11541.01527
D1,Altamira/PA,-3.204065,-52.209961,281,242.30613
1,Altaneira/CE,-6.9980933,-39.7385742,553,7228.75817
D1,Altaneira/CE,-6.9980933,-39.7385742,16,209.15033
1,Alterosa/MG,-21.249166,-46.143055,674,4642.83254
D1,Alterosa/MG,-21.249166,-46.143055,31,213.54274
1,Altinho/PE,-8.4904095,-36.0607494,1204,5238.42673
D1,Altinho/PE,-8.4904095,-36.0607494,24,104.42047
1,Altinópolis/SP,-21.021364,-47.3712,813,5017.58934
D1,Altinópolis/SP,-21.021364,-47.3712,39,240.69617
1,Alto Alegre do Maranhão/MA,-4.2055693,-44.4525287,1167,4189.10187
D1,Alto Alegre do Maranhão/MA,-4.2055693,-44.4525287,25,89.74083
1,Alto Alegre do Pindaré/MA,-3.6698186,-45.8462153,1934,6054.53464
D1,Alto Alegre do Pindaré/MA,-3.6698186,-45.8462153,45,140.87594
1,Alto Alegre dos Parecis/RO,-12.1314515,-61.856265,1440,10863.82497
D1,Alto Alegre dos Parecis/RO,-12.1314515,-61.856265,44,331.95021
1,Alto Alegre/RR,2.98858,-61.307167,1376,8946.68401
D1,Alto Alegre/RR,2.98858,-61.307167,31,201.56047
1,Alto Alegre/RS,-31.780844700000003,-52.81311114489171,196,12151.27092
D1,Alto Alegre/RS,-31.780844700000003,-52.81311114489171,1,61.99628
1,Alto Alegre/SP,-21.5820592,-50.1661976,335,8194.71624
D1,Alto Alegre/SP,-21.5820592,-50.1661976,19,464.77495
1,Alto Araguaia/MT,-17.3156528,-53.2169365,1239,6391.53985
D1,Alto Araguaia/MT,-17.3156528,-53.2169365,24,123.80707
1,Alto Bela Vista/SC,-27.4320737,-51.905771,173,8982.34683
D1,Alto Bela Vista/SC,-27.4320737,-51.905771,3,155.76324
1,Alto Boa Vista/MT,-11.6723985,-51.3744431,751,10827.56632
D1,Alto Boa Vista/MT,-11.6723985,-51.3744431,14,201.84544
1,Alto Caparaó/MG,-20.4405661,-41.8683799,386,6549.03291
D1,Alto Caparaó/MG,-20.4405661,-41.8683799,9,152.69766
1,Alto Feliz/RS,-29.3785943,-51.3123751,258,8498.02372
D1,Alto Feliz/RS,-29.3785943,-51.3123751,2,65.87615
1,Alto Garças/MT,-16.9469683,-53.529427,851,7003.53880
D1,Alto Garças/MT,-16.9469683,-53.529427,38,312.73146
1,Alto Horizonte/GO,-14.1954948,-49.3366993,837,12672.21802
D1,Alto Horizonte/GO,-14.1954948,-49.3366993,10,151.40045
1,Alto Jequitibá/MG,-20.423611,-41.966111,724,8721.84074
D1,Alto Jequitibá/MG,-20.423611,-41.966111,10,120.46741
1,Alto Longá/PI,-5.2549051,-42.2072388,633,4414.53379
D1,Alto Longá/PI,-5.2549051,-42.2072388,13,90.66183
1,Alto Paraguai/MT,-14.513712,-56.4936374,866,7548.15654
D1,Alto Paraguai/MT,-14.513712,-56.4936374,28,244.05125
1,Alto Paraná/PR,-23.131247,-52.318893,983,6615.51921
D1,Alto Paraná/PR,-23.131247,-52.318893,24,161.51827
1,Alto Paraíso de Goiás/GO,-14.1304779,-47.5100161,623,8103.53798
D1,Alto Paraíso de Goiás/GO,-14.1304779,-47.5100161,8,104.05827
1,Alto Paraíso/PR,-23.508137,-53.728537,252,9385.47486
D1,Alto Paraíso/PR,-23.508137,-53.728537,5,186.21974
1,Alto Paraíso/RO,-9.7240103,-63.3188123,1800,8239.11750
D1,Alto Paraíso/RO,-9.7240103,-63.3188123,48,219.70980
1,Alto Parnaíba/MA,-9.112506,-45.9310154,875,7804.13842
D1,Alto Parnaíba/MA,-9.112506,-45.9310154,10,89.19015
1,Alto Piquiri/PR,-24.0239021,-53.4417448,924,9449.78523
D1,Alto Piquiri/PR,-24.0239021,-53.4417448,22,224.99489
1,Alto Rio Doce/MG,-21.0239537,-43.4133507,424,3904.59527
D1,Alto Rio Doce/MG,-21.0239537,-43.4133507,26,239.43273
1,Alto Rio Novo/ES,-19.0577208,-41.0171518,689,8750.31750
D1,Alto Rio Novo/ES,-19.0577208,-41.0171518,21,266.70053
1,Alto Santo/CE,-5.5190371,-38.2719351,1787,10391.95162
D1,Alto Santo/CE,-5.5190371,-38.2719351,27,157.01326
1,Alto Taquari/MT,-17.8269099,-53.2831736,1416,12718.94368
D1,Alto Taquari/MT,-17.8269099,-53.2831736,27,242.52223
1,Alto do Rodrigues/RN,-5.290868,-36.7616726,2075,14088.81043
D1,Alto do Rodrigues/RN,-5.290868,-36.7616726,36,244.43237
1,Altos/PI,-5.0393915,-42.4611694,4336,10678.48787
D1,Altos/PI,-5.0393915,-42.4611694,89,219.18483
1,Altônia/PR,-23.8722004,-53.894037,1108,4996.39250
D1,Altônia/PR,-23.8722004,-53.894037,21,94.69697
1,Alumínio/SP,-23.5203479,-47.2575256,1397,7443.91751
D1,Alumínio/SP,-23.5203479,-47.2575256,39,207.81158
1,Alvarenga/MG,-19.4175,-41.728334,448,11654.52653
D1,Alvarenga/MG,-19.4175,-41.728334,4,104.05827
1,Alvarães/AM,-3.214786,-64.8143124,2852,17583.23058
D1,Alvarães/AM,-3.214786,-64.8143124,45,277.43527
1,Alvinlândia/SP,-22.4431852,-49.7643596,137,4232.31387
D1,Alvinlândia/SP,-22.4431852,-49.7643596,8,247.14242
1,Alvinópolis/MG,-20.1105199,-43.0601805,647,4265.27787
D1,Alvinópolis/MG,-20.1105199,-43.0601805,21,138.44024
1,Alvorada D'Oeste/RO,-11.346271,-62.284697,1088,7713.02992
D1,Alvorada D'Oeste/RO,-11.346271,-62.284697,29,205.58628
1,Alvorada de Minas/MG,-18.7318587,-43.3641479,256,7101.24827
D1,Alvorada de Minas/MG,-18.7318587,-43.3641479,3,83.21775
1,Alvorada do Gurguéia/PI,-8.4465288,-43.8655915,397,7291.09275
D1,Alvorada do Gurguéia/PI,-8.4465288,-43.8655915,9,165.28926
1,Alvorada do Norte/GO,-14.483911,-46.4959897,744,8546.81218
D1,Alvorada do Norte/GO,-14.483911,-46.4959897,6,68.92590
1,Alvorada do Sul/PR,-22.7807269,-51.2307721,793,6893.85378
D1,Alvorada do Sul/PR,-22.7807269,-51.2307721,23,199.94784
1,Alvorada/RS,-29.9981184,-51.0772509,20081,9501.21125
D1,Alvorada/RS,-29.9981184,-51.0772509,714,337.82505
1,Alvorada/TO,-12.478465,-49.124926,1105,13161.02906
D1,Alvorada/TO,-12.478465,-49.124926,20,238.20867
1,Além Paraíba/MG,-21.8760576,-42.6810473,3089,8725.74221
D1,Além Paraíba/MG,-21.8760576,-42.6810473,138,389.81950
1,Amajari/RR,3.6523869,-61.4194315,1013,7682.97308
D1,Amajari/RR,3.6523869,-61.4194315,20,151.68752
1,Amambai/MS,-23.1082701,-55.2284854,2985,7495.10370
D1,Amambai/MS,-23.1082701,-55.2284854,73,183.29734
1,Amaporã/PR,-23.094272,-52.786597,345,5448.51548
D1,Amaporã/PR,-23.094272,-52.786597,6,94.75679
1,Amapá do Maranhão/MA,-1.6762114,-46.0109669,172,2455.38901
D1,Amapá do Maranhão/MA,-1.6762114,-46.0109669,4,57.10207
1,Amapá/AP,2.0529997,-50.7930003,1309,14248.39447
D1,Amapá/AP,2.0529997,-50.7930003,10,108.84946
1,Amaraji/PE,-8.373925,-35.4536527,577,2522.95584
D1,Amaraji/PE,-8.373925,-35.4536527,36,157.41146
1,Amaral Ferrador/RS,-30.8750633,-52.2542051,291,4107.26888
D1,Amaral Ferrador/RS,-30.8750633,-52.2542051,7,98.80028
1,Amaralina/GO,-13.9236199,-49.2962411,78,2028.60858
D1,Amaralina/GO,-13.9236199,-49.2962411,1,26.00780
1,Amarante do Maranhão/MA,-5.56913,-46.747284,1581,3788.73206
D1,Amarante do Maranhão/MA,-5.56913,-46.747284,55,131.80282
1,Amarante/PI,-6.2459374,-42.8476238,1500,8520.79073
D1,Amarante/PI,-6.2459374,-42.8476238,34,193.13792
1,Amargosa/BA,-13.03793715,-39.60796443875596,2698,7206.00411
D1,Amargosa/BA,-13.03793715,-39.60796443875596,49,130.87257
1,Amaturá/AM,-3.3640509,-68.1994689,2353,20049.42059
D1,Amaturá/AM,-3.3640509,-68.1994689,17,144.85344
1,Americana/SP,-22.7392463,-47.3306032,20862,8620.02000
D1,Americana/SP,-22.7392463,-47.3306032,632,261.13760
1,Americano do Brasil/GO,-16.2515808,-49.9806104,689,11177.80662
D1,Americano do Brasil/GO,-16.2515808,-49.9806104,21,340.68787
1,Ametista do Sul/RS,-27.3617341,-53.1826575,731,9874.37525
D1,Ametista do Sul/RS,-27.3617341,-53.1826575,17,229.63663
1,Amontada/CE,-3.3634586,-39.8284791,2835,6468.32006
D1,Amontada/CE,-3.3634586,-39.8284791,54,123.20610
1,Amorinópolis/GO,-16.6211308,-51.0949921,244,7950.47247
D1,Amorinópolis/GO,-16.6211308,-51.0949921,4,130.33561
1,Amparo de São Francisco/SE,-10.1299754,-36.9269099,250,10504.20168
D1,Amparo de São Francisco/SE,-10.1299754,-36.9269099,5,210.08403
1,Amparo do Serra/MG,-20.5070255,-42.8028462,149,3185.12185
D1,Amparo do Serra/MG,-20.5070255,-42.8028462,8,171.01325
1,Amparo/PB,-7.56394725,-37.04652873235175,164,7285.65082
D1,Amparo/PB,-7.56394725,-37.04652873235175,4,177.69880
1,Amparo/SP,-22.70111,-46.76444,6087,8375.41451
D1,Amparo/SP,-22.70111,-46.76444,131,180.24960
1,Ampére/PR,-25.9168712,-53.4742414,1909,9885.55745
D1,Ampére/PR,-25.9168712,-53.4742414,41,212.31423
1,Amélia Rodrigues/BA,-12.4015388,-38.7516971,2207,8811.08272
D1,Amélia Rodrigues/BA,-12.4015388,-38.7516971,43,171.67039
1,América Dourada/BA,-11.4515262,-41.4357517,883,5487.88067
D1,América Dourada/BA,-11.4515262,-41.4357517,12,74.58048
1,Américo Brasiliense/SP,-21.7297099,-48.1052092,3699,9014.91519
D1,Américo Brasiliense/SP,-21.7297099,-48.1052092,87,212.02964
1,Américo de Campos/SP,-20.298476,-49.735904,919,15365.32352
D1,Américo de Campos/SP,-20.298476,-49.735904,24,401.27069
1,Anadia/AL,-9.6830208,-36.3052699,1375,7845.48671
D1,Anadia/AL,-9.6830208,-36.3052699,29,165.46845
1,Anagé/BA,-14.6134669,-41.1376308,859,3975.56347
D1,Anagé/BA,-14.6134669,-41.1376308,21,97.19073
1,Anahy/PR,-24.6450861,-53.1337957,347,12446.19799
D1,Anahy/PR,-24.6450861,-53.1337957,9,322.81205
1,Anajatuba/MA,-3.26441,-44.6179916,931,3449.68134
D1,Anajatuba/MA,-3.26441,-44.6179916,23,85.22306
1,Anajás/PA,-0.9878802,-49.9390114,1356,4567.50202
D1,Anajás/PA,-0.9878802,-49.9390114,22,74.10402
1,Analândia/SP,-22.128917,-47.661939,312,6170.88608
D1,Analândia/SP,-22.128917,-47.661939,4,79.11392
1,Anamã/AM,-3.5797356,-61.4049996,1774,12711.37862
D1,Anamã/AM,-3.5797356,-61.4049996,9,64.48839
1,Ananindeua/PA,-1.374035,-48.4016623,23843,4452.08357
D1,Ananindeua/PA,-1.374035,-48.4016623,800,149.37998
1,Ananás/TO,-6.3663053,-48.080238,1543,16255.79435
D1,Ananás/TO,-6.3663053,-48.080238,24,252.84450
1,Anapu/PA,-3.4668292,-51.2057035,1525,5330.86308
D1,Anapu/PA,-3.4668292,-51.2057035,37,129.33897
1,Anapurus/MA,-3.6751298,-43.1046001,829,5215.80471
D1,Anapurus/MA,-3.6751298,-43.1046001,12,75.50019
1,Anastácio/MS,-20.4832458,-55.8048448,2321,9196.81420
D1,Anastácio/MS,-20.4832458,-55.8048448,69,273.40809
1,Anaurilândia/MS,-22.185169,-52.719056,500,5509.03482
D1,Anaurilândia/MS,-22.185169,-52.719056,14,154.25297
1,Anchieta/ES,-20.8057672,-40.6454564,4692,15756.06971
D1,Anchieta/ES,-20.8057672,-40.6454564,83,278.71990
1,Anchieta/SC,-26.5350527,-53.3293938,637,11463.01961
D1,Anchieta/SC,-26.5350527,-53.3293938,9,161.95789
1,Andaraí/BA,-12.8059674,-41.3322919,840,6396.58849
D1,Andaraí/BA,-12.8059674,-41.3322919,8,60.91989
1,Andirá/PR,-23.0494761,-50.2310027,2139,10734.71846
D1,Andirá/PR,-23.0494761,-50.2310027,71,356.31838
1,Andorinha/BA,-10.3445708,-39.8334411,813,5605.73674
D1,Andorinha/BA,-10.3445708,-39.8334411,16,110.32200
1,Andradas/MG,-22.0680484,-46.5688976,3549,8573.29211
D1,Andradas/MG,-22.0680484,-46.5688976,108,260.89477
1,Andradina/SP,-20.896505,-51.3742765,5859,10242.64886
D1,Andradina/SP,-20.896505,-51.3742765,246,430.05489
1,Andrelândia/MG,-21.739722,-44.308889,206,1687.69458
D1,Andrelândia/MG,-21.739722,-44.308889,9,73.73423
1,André da Rocha/RS,-28.6309124,-51.5733328,112,8339.53835
1,Angatuba/SP,-23.4938938,-48.4110675,2538,9961.14447
D1,Angatuba/SP,-23.4938938,-48.4110675,62,243.33765
1,Angelim/PE,-8.8902038,-36.2872987,214,1906.28897
D1,Angelim/PE,-8.8902038,-36.2872987,8,71.26314
1,Angelina/SC,-27.5805287,-48.9838759,511,10773.77187
D1,Angelina/SC,-27.5805287,-48.9838759,2,42.16740
1,Angelândia/MG,-17.7253,-42.2728,122,1425.73332
D1,Angelândia/MG,-17.7253,-42.2728,1,11.68634
1,Angical do Piauí/PI,-6.0872666,-42.7366138,803,11838.41958
D1,Angical do Piauí/PI,-6.0872666,-42.7366138,12,176.91287
1,Angical/BA,-12.005623,-44.7000236,629,4512.84259
D1,Angical/BA,-12.005623,-44.7000236,15,107.61946
1,Angico/TO,-6.3893733,-47.8656722,231,6687.89809
D1,Angico/TO,-6.3893733,-47.8656722,3,86.85582
1,Angicos/RN,-5.6666344,-36.6009064,845,7219.13712
D1,Angicos/RN,-5.6666344,-36.6009064,21,179.41051
1,Angra dos Reis/RJ,-23.0063966,-44.316326,13628,6582.17577
D1,Angra dos Reis/RJ,-23.0063966,-44.316326,468,226.03891
1,Anguera/BA,-12.1509425,-39.2452469,443,3921.39506
D1,Anguera/BA,-12.1509425,-39.2452469,2,17.70382
1,Angélica/MS,-22.1588196,-53.7728504,1215,11114.16026
D1,Angélica/MS,-22.1588196,-53.7728504,19,173.80168
1,Anhanguera/GO,-18.3338749,-48.220363,90,7758.62069
D1,Anhanguera/GO,-18.3338749,-48.220363,6,517.24138
1,Anhembi/SP,-22.7891096,-48.1316776,250,3666.22672
D1,Anhembi/SP,-22.7891096,-48.1316776,6,87.98944
1,Anhumas/SP,-22.2956478,-51.3873401,210,5067.56757
D1,Anhumas/SP,-22.2956478,-51.3873401,5,120.65637
1,Anicuns/GO,-16.4606451,-49.9572265,2682,12201.44670
D1,Anicuns/GO,-16.4606451,-49.9572265,62,282.06178
1,Anita Garibaldi/SC,-27.6855032,-51.1293873,1147,16486.99152
D1,Anita Garibaldi/SC,-27.6855032,-51.1293873,10,143.74012
1,Anitápolis/SC,-27.9041185,-49.1287395,326,10099.13259
D1,Anitápolis/SC,-27.9041185,-49.1287395,4,123.91574
1,Anori/AM,-3.7435254,-61.6605203,1885,8776.83103
D1,Anori/AM,-3.7435254,-61.6605203,31,144.34046
1,Anta Gorda/RS,-28.9718745,-52.0069187,596,9998.32243
D1,Anta Gorda/RS,-28.9718745,-52.0069187,4,67.10284
1,Antas/BA,-10.4114649,-38.3308815,1295,6648.18523
D1,Antas/BA,-10.4114649,-38.3308815,11,56.47107
1,Antonina do Norte/CE,-6.7754187,-39.9879345,695,9419.89699
D1,Antonina do Norte/CE,-6.7754187,-39.9879345,26,352.39902
1,Antonina/PR,-25.4298854,-48.7125431,2454,12950.55148
D1,Antonina/PR,-25.4298854,-48.7125431,65,343.02602
1,Antônio Almeida/PI,-7.2186016,-44.1950248,405,12776.02524
D1,Antônio Almeida/PI,-7.2186016,-44.1950248,10,315.45741
1,Antônio Cardoso/BA,-12.4363122,-39.1200307,501,4290.48557
D1,Antônio Cardoso/BA,-12.4363122,-39.1200307,10,85.63843
1,Antônio Carlos/MG,-21.318334,-43.746666,668,5829.47901
D1,Antônio Carlos/MG,-21.318334,-43.746666,13,113.44794
1,Antônio Carlos/SC,-27.5168462,-48.7684715,1551,18007.66284
D1,Antônio Carlos/SC,-27.5168462,-48.7684715,24,278.64855
1,Antônio Dias/MG,-19.6525,-42.872778,563,6070.08086
D1,Antônio Dias/MG,-19.6525,-42.872778,23,247.97844
1,Antônio Gonçalves/BA,-10.5715409,-40.2748824,847,7130.83011
D1,Antônio Gonçalves/BA,-10.5715409,-40.2748824,8,67.35141
1,Antônio João/MS,-22.1892837,-55.9508227,493,5465.63193
D1,Antônio João/MS,-22.1892837,-55.9508227,11,121.95122
1,Antônio Martins/RN,-6.2155812,-37.8890129,635,8876.15320
D1,Antônio Martins/RN,-6.2155812,-37.8890129,6,83.86916
1,Antônio Olinto/PR,-25.9849006,-50.1974516,447,6018.58085
D1,Antônio Olinto/PR,-25.9849006,-50.1974516,11,148.10825
1,Antônio Prado de Minas/MG,-21.0171988,-42.1101106,160,10081.91556
D1,Antônio Prado de Minas/MG,-21.0171988,-42.1101106,5,315.05986
1,Antônio Prado/RS,-28.8567806,-51.2801355,2579,19770.02683
D1,Antônio Prado/RS,-28.8567806,-51.2801355,28,214.64163
1,Anápolis/GO,-16.3332828,-48.9525756,38917,9933.58382
D1,Anápolis/GO,-16.3332828,-48.9525756,1389,354.54295
1,Anísio de Abreu/PI,-9.185643,-43.04941,290,2918.09217
D1,Anísio de Abreu/PI,-9.185643,-43.04941,11,110.68625
1,Aparecida d'Oeste/SP,-20.4498109,-50.8808706,719,17291.96729
D1,Aparecida d'Oeste/SP,-20.4498109,-50.8808706,13,312.65031
1,Aparecida de Goiânia/GO,-16.8226769,-49.2452546,68465,11601.36644
D1,Aparecida de Goiânia/GO,-16.8226769,-49.2452546,1380,233.84044
1,Aparecida do Rio Doce/GO,-18.2980167,-51.1491312,226,9135.00404
D1,Aparecida do Rio Doce/GO,-18.2980167,-51.1491312,3,121.26112
1,Aparecida do Rio Negro/TO,-9.9513491,-47.9773786,330,6806.93069
D1,Aparecida do Rio Negro/TO,-9.9513491,-47.9773786,8,165.01650
1,Aparecida do Taboado/MS,-20.0840304,-51.1013943,3428,13149.71806
D1,Aparecida do Taboado/MS,-20.0840304,-51.1013943,50,191.79869
1,Aparecida/PB,-6.7859598, -38.0831353,899,10682.03422
D1,Aparecida/PB,-6.7859598, -38.0831353,13,154.46768
1,Aparecida/SP,-22.851552,-45.2340924,2207,6099.21238
D1,Aparecida/SP,-22.851552,-45.2340924,88,243.19469
1,Aperibé/RJ,-21.6211928,-42.1028167,565,4747.50021
D1,Aperibé/RJ,-21.6211928,-42.1028167,26,218.46904
1,Apiacá/ES,-21.152272,-41.569297,813,10762.50993
D1,Apiacá/ES,-21.152272,-41.569297,33,436.85465
1,Apiacás/MT,-9.5678422,-57.394852,1741,16930.85675
D1,Apiacás/MT,-9.5678422,-57.394852,15,145.87183
1,Apiaí/SP,-24.5076527,-48.8461582,1308,5399.15793
D1,Apiaí/SP,-24.5076527,-48.8461582,69,284.81796
1,Apicum-Açu/MA,-1.5279295,-45.082278,503,2888.64641
D1,Apicum-Açu/MA,-1.5279295,-45.082278,5,28.71418
1,Apiúna/SC,-27.0374658,-49.3885037,817,7531.34218
D1,Apiúna/SC,-27.0374658,-49.3885037,15,138.27434
1,Apodi/RN,-5.6631109,-37.796927,5865,16348.88777
D1,Apodi/RN,-5.6631109,-37.796927,93,259.24068
1,Aporá/BA,-11.6599747,-38.0794757,522,2934.56263
D1,Aporá/BA,-11.6599747,-38.0794757,19,106.81358
1,Aporé/GO,-18.9642193,-51.92804,361,8530.24575
D1,Aporé/GO,-18.9642193,-51.92804,10,236.29490
1,Apuarema/BA,-13.8517897,-39.7457126,688,9422.07614
D1,Apuarema/BA,-13.8517897,-39.7457126,9,123.25390
1,Apucarana/PR,-23.5525327,-51.4610764,9292,6820.61747
D1,Apucarana/PR,-23.5525327,-51.4610764,391,287.00618
1,Apuiarés/CE,-3.9460303,-39.4313298,1169,7967.55725
D1,Apuiarés/CE,-3.9460303,-39.4313298,24,163.57688
1,Apuí/AM,-7.1940195,-59.8830192,1373,6140.70397
D1,Apuí/AM,-7.1940195,-59.8830192,31,138.64663
1,Aquidabã/SE,-10.2837579,-37.0188687,2190,10101.01010
D1,Aquidabã/SE,-10.2837579,-37.0188687,37,170.65634
1,Aquidauana/MS,-20.473969,-55.7821375,5041,10495.74216
D1,Aquidauana/MS,-20.473969,-55.7821375,138,287.32641
1,Aquiraz/CE,-3.9063117,-38.387504,6364,7863.10002
D1,Aquiraz/CE,-3.9063117,-38.387504,85,105.02255
1,Arabutã/SC,-27.1587028,-52.1438142,414,9702.36700
D1,Arabutã/SC,-27.1587028,-52.1438142,8,187.48535
1,Aracaju/SE,-10.9162061,-37.0774655,118823,17870.59262
D1,Aracaju/SE,-10.9162061,-37.0774655,2263,340.34784
1,Aracati/CE,-4.558259,-37.767894,7461,9951.31711
D1,Aracati/CE,-4.558259,-37.767894,152,202.73424
1,Aracatu/BA,-14.4274236,-41.4604105,798,6117.28632
D1,Aracatu/BA,-14.4274236,-41.4604105,14,107.32081
1,Araci/BA,-11.3356065,-38.9573261,3458,6327.77046
D1,Araci/BA,-11.3356065,-38.9573261,48,87.83487
1,Aracitaba/MG,-21.3425,-43.378611,85,4128.21758
D1,Aracitaba/MG,-21.3425,-43.378611,8,388.53813
1,Aracoiaba/CE,-4.3702577,-38.8084313,3969,14957.60317
D1,Aracoiaba/CE,-4.3702577,-38.8084313,30,113.05822
1,Aracruz/ES,-19.8245218,-40.2735025,15529,15061.92956
D1,Aracruz/ES,-19.8245218,-40.2735025,219,212.41307
1,Aragarças/GO,-15.8957166,-52.2514538,2394,11808.80975
D1,Aragarças/GO,-15.8957166,-52.2514538,54,266.36413
1,Aragoiânia/GO,-16.9146388,-49.4499148,1016,9679.87805
D1,Aragoiânia/GO,-16.9146388,-49.4499148,21,200.07622
1,Aragominas/TO,-7.1654101,-48.525488,537,9370.09248
D1,Aragominas/TO,-7.1654101,-48.525488,9,157.04066
1,Araguacema/TO,-8.8067391,-49.5560969,635,8874.91265
D1,Araguacema/TO,-8.8067391,-49.5560969,11,153.73864
1,Araguaiana/MT,-15.729144,-51.834112,276,8877.45256
D1,Araguaiana/MT,-15.729144,-51.834112,6,192.98810
1,Araguainha/MT,-16.857016,-53.031778,29,3065.53911
1,Araguanã/MA,-2.9508403,-45.6651986,806,5182.94643
D1,Araguanã/MA,-2.9508403,-45.6651986,5,32.15227
1,Araguanã/TO,-6.5799107,-48.6428482,554,9563.26601
D1,Araguanã/TO,-6.5799107,-48.6428482,13,224.40877
1,Araguapaz/GO,-15.0937927,-50.626417,557,7156.62341
D1,Araguapaz/GO,-15.0937927,-50.626417,21,269.81884
1,Araguari/MG,-18.6511256,-48.1933764,15111,12824.95226
D1,Araguari/MG,-18.6511256,-48.1933764,383,325.05835
1,Araguatins/TO,-5.6522925,-48.1158973,2341,6472.21454
D1,Araguatins/TO,-5.6522925,-48.1158973,57,157.58916
1,Araguaçu/TO,-12.928934,-49.823134,821,9696.46864
D1,Araguaçu/TO,-12.928934,-49.823134,18,212.59006
1,Araguaína/TO,-7.193241,-48.2018597,33237,18124.56034
D1,Araguaína/TO,-7.193241,-48.2018597,439,239.39230
1,Araioses/MA,-2.890914,-41.904993,651,1391.88814
D1,Araioses/MA,-2.890914,-41.904993,13,27.79500
1,Aral Moreira/MS,-22.951141,-55.6268421,511,4143.69121
D1,Aral Moreira/MS,-22.951141,-55.6268421,11,89.19883
1,Aramari/BA,-12.0907897,-38.4985065,592,5165.34334
D1,Aramari/BA,-12.0907897,-38.4985065,12,104.70291
1,Arambaré/RS,-30.9132252,-51.4994625,180,5053.34082
D1,Arambaré/RS,-30.9132252,-51.4994625,8,224.59293
1,Arame/MA,-4.8858769,-46.0102484,1384,4224.14846
D1,Arame/MA,-4.8858769,-46.0102484,36,109.87669
1,Aramina/SP,-20.0876144,-47.789201,305,5393.45712
D1,Aramina/SP,-20.0876144,-47.789201,15,265.25199
1,Arandu/SP,-23.1345103,-49.0545651,476,7478.39749
D1,Arandu/SP,-23.1345103,-49.0545651,12,188.53103
1,Arantina/MG,-21.911667,-44.255833,156,5597.41658
D1,Arantina/MG,-21.911667,-44.255833,3,107.64263
1,Arapeí/SP,-22.6738889,-44.4477778,207,8414.63415
D1,Arapeí/SP,-22.6738889,-44.4477778,3,121.95122
1,Arapiraca/AL,-9.754866,-36.661471,27917,11979.12867
D1,Arapiraca/AL,-9.754866,-36.661471,434,186.22853
1,Arapoema/TO,-7.6575001,-49.0641484,484,7315.59855
D1,Arapoema/TO,-7.6575001,-49.0641484,10,151.14873
1,Araponga/MG,-20.666667,-42.520556,435,5146.10198
D1,Araponga/MG,-20.666667,-42.520556,6,70.98072
1,Arapongas/PR,-23.415296,-51.42592,12673,10153.83383
D1,Arapongas/PR,-23.415296,-51.42592,472,378.17483
1,Araporã/MG,-18.4318188,-49.188313,1826,26345.40470
D1,Araporã/MG,-18.4318188,-49.188313,28,403.98211
1,Arapoti/PR,-24.1457957,-49.8224605,2892,10219.08127
D1,Arapoti/PR,-24.1457957,-49.8224605,54,190.81272
1,Araputanga/MT,-15.4710868,-58.346796,1919,11320.86603
D1,Araputanga/MT,-15.4710868,-58.346796,53,312.66592
1,Arapuá/MG,-19.034444,-46.155556,255,8994.70899
D1,Arapuá/MG,-19.034444,-46.155556,2,70.54674
1,Arapuã/PR,-24.3079525,-51.7901941,201,6679.96012
D1,Arapuã/PR,-24.3079525,-51.7901941,5,166.16816
1,Araquari/SC,-26.3703324,-48.7210994,3476,8794.65641
D1,Araquari/SC,-26.3703324,-48.7210994,74,187.22801
1,Arara/PB,-6.8271895,-35.7605703,962,7103.82514
D1,Arara/PB,-6.8271895,-35.7605703,27,199.37971
1,Araranguá/SC,-28.9348832,-49.4858389,10102,14668.85446
D1,Araranguá/SC,-28.9348832,-49.4858389,232,336.88123
1,Araraquara/SP,-21.7886713,-48.1773096,20373,8547.90865
D1,Araraquara/SP,-21.7886713,-48.1773096,430,180.41529
1,Araras/SP,-22.3569477,-47.3838889,15206,11221.64332
D1,Araras/SP,-22.3569477,-47.3838889,337,248.69747
1,Ararendá/CE,-4.7504395,-40.8303611,1242,11333.15083
D1,Ararendá/CE,-4.7504395,-40.8303611,20,182.49840
1,Arari/MA,-3.4547602,-44.7772723,681,2275.15702
D1,Arari/MA,-3.4547602,-44.7772723,30,100.22718
1,Araricá/RS,-29.6168543,-50.929121,989,17137.41119
D1,Araricá/RS,-29.6168543,-50.929121,24,415.87247
1,Araripe/CE,-7.212861,-40.1359222,1279,5906.52997
D1,Araripe/CE,-7.212861,-40.1359222,17,78.50744
1,Araripina/PE,-7.5768582,-40.5038509,6505,7665.20551
D1,Araripina/PE,-7.5768582,-40.5038509,143,168.50490
1,Araruama/RJ,-22.8733203,-42.3428897,5916,4405.29290
D1,Araruama/RJ,-22.8733203,-42.3428897,391,291.15442
1,Araruna/PB,-6.5321155,-35.7397595,637,3112.93554
D1,Araruna/PB,-6.5321155,-35.7397595,16,78.18990
1,Araruna/PR,-23.9320308,-52.4976047,1853,13235.71429
D1,Araruna/PR,-23.9320308,-52.4976047,29,207.14286
1,Arataca/BA,-15.2617424,-39.4122943,761,6942.79719
D1,Arataca/BA,-15.2617424,-39.4122943,15,136.84883
1,Aratiba/RS,-27.3955734,-52.3024325,366,5913.71789
D1,Aratiba/RS,-27.3955734,-52.3024325,6,96.94619
1,Aratuba/CE,-4.4195958,-39.0463737,1308,11082.86731
D1,Aratuba/CE,-4.4195958,-39.0463737,8,67.78512
1,Aratuípe/BA,-13.077137,-39.0010786,405,4583.00328
D1,Aratuípe/BA,-13.077137,-39.0010786,9,101.84452
1,Araucária/PR,-25.5861107,-49.4051209,24599,16823.97034
D1,Araucária/PR,-25.5861107,-49.4051209,388,265.36447
1,Arauá/SE,-11.2644014,-37.6181058,1213,12194.63155
D1,Arauá/SE,-11.2644014,-37.6181058,20,201.06565
1,Araxá/MG,-19.5928536,-46.940241,12486,11632.52187
D1,Araxá/MG,-19.5928536,-46.940241,199,185.39739
1,Araçagi/PB,-6.8519969,-35.3835602,1367,8078.71875
D1,Araçagi/PB,-6.8519969,-35.3835602,17,100.46688
1,Araçariguama/SP,-23.438611,-47.061389,1666,7287.83902
D1,Araçariguama/SP,-23.438611,-47.061389,56,244.96938
1,Araçatuba/SP,-21.207992,-50.4390225,25044,12640.24953
D1,Araçatuba/SP,-21.207992,-50.4390225,744,375.51292
1,Araçaí/MG,-19.200833,-44.2475,72,3058.62362
D1,Araçaí/MG,-19.200833,-44.2475,1,42.48088
1,Araçoiaba da Serra/SP,-23.5045367,-47.6168158,2634,7574.18910
D1,Araçoiaba da Serra/SP,-23.5045367,-47.6168158,62,178.28387
1,Araçoiaba/PE,-7.7856903,-35.0898881,628,3028.98760
D1,Araçoiaba/PE,-7.7856903,-35.0898881,29,139.87363
1,Araçu/GO,-16.3561579,-49.6815269,419,12019.50660
D1,Araçu/GO,-16.3561579,-49.6815269,16,458.97877
1,Araçuaí/MG,-16.8484451,-42.0661868,1611,4388.21094
D1,Araçuaí/MG,-16.8484451,-42.0661868,41,111.68010
1,Araçás/BA,-12.2139176,-38.2026159,641,5250.65531
D1,Araçás/BA,-12.2139176,-38.2026159,11,90.10485
1,Araújos/MG,-19.948055,-45.165556,706,7509.83938
D1,Araújos/MG,-19.948055,-45.165556,9,95.73450
1,Arceburgo/MG,-21.364444,-46.939722,1053,9675.64091
D1,Arceburgo/MG,-21.364444,-46.939722,27,248.09336
1,Arco-Íris/SP,-21.7741308,-50.4668814,141,7952.62267
D1,Arco-Íris/SP,-21.7741308,-50.4668814,7,394.81105
1,Arcos/MG,-20.282223,-45.539444,4808,11906.88460
D1,Arcos/MG,-20.282223,-45.539444,109,269.93561
1,Arcoverde/PE,-8.415192,-37.057748,5593,7475.07418
D1,Arcoverde/PE,-8.415192,-37.057748,127,169.73617
1,Areado/MG,-21.3582771,-46.1476688,906,5967.98630
D1,Areado/MG,-21.3582771,-46.1476688,19,125.15645
1,Areal/RJ,-22.2314922,-43.1056264,1254,9898.17665
D1,Areal/RJ,-22.2314922,-43.1056264,41,323.62460
1,Arealva/SP,-22.0301906,-48.9111936,891,10344.82759
D1,Arealva/SP,-22.0301906,-48.9111936,14,162.54499
1,Areia Branca/RN,-4.9506652,-37.1263312,2408,8610.14767
D1,Areia Branca/RN,-4.9506652,-37.1263312,92,328.95913
1,Areia Branca/SE,-10.7591455,-37.3148072,1995,10676.44226
D1,Areia Branca/SE,-10.7591455,-37.3148072,46,246.17361
1,Areia de Baraúnas/PB,-7.1233949,-36.9446216,177,8364.83932
D1,Areia de Baraúnas/PB,-7.1233949,-36.9446216,4,189.03592
1,Areia/PB,-6.9680243,-35.6994783,1420,6267.65537
D1,Areia/PB,-6.9680243,-35.6994783,26,114.75989
1,Areial/PB,-7.0501306,-35.9245244,344,4895.40344
D1,Areial/PB,-7.0501306,-35.9245244,10,142.30824
1,Areias/SP,-22.5800929,-44.6975127,306,7854.20945
D1,Areias/SP,-22.5800929,-44.6975127,1,25.66735
1,Areiópolis/SP,-22.6758064,-48.6673653,1210,10844.23732
D1,Areiópolis/SP,-22.6758064,-48.6673653,17,152.35705
1,Arenápolis/MT,-14.4610369,-56.8432806,1736,18269.83793
D1,Arenápolis/MT,-14.4610369,-56.8432806,32,336.77121
1,Arenópolis/GO,-16.3859286,-51.55937,205,8083.59621
D1,Arenópolis/GO,-16.3859286,-51.55937,8,315.45741
1,Argirita/MG,-21.612761,-42.8371922,254,9393.49112
D1,Argirita/MG,-21.612761,-42.8371922,5,184.91124
1,Aricanduva/MG,-17.8678,-42.5569,100,1897.89334
1,Arinos/MG,-15.917223,-46.106111,679,3801.36603
D1,Arinos/MG,-15.917223,-46.106111,20,111.96954
1,Aripuanã/MT,-10.175806,-59.4439663,2779,12234.74509
D1,Aripuanã/MT,-10.175806,-59.4439663,43,189.31056
1,Ariquemes/RO,-9.9076522,-63.033069,21341,19485.40489
D1,Ariquemes/RO,-9.9076522,-63.033069,458,418.17700
1,Ariranha do Ivaí/PR,-24.3834527,-51.5876772,175,8470.47435
D1,Ariranha do Ivaí/PR,-24.3834527,-51.5876772,3,145.20813
1,Ariranha/SP,-21.18716,-48.790418,850,8708.12417
D1,Ariranha/SP,-21.18716,-48.790418,23,235.63160
1,Armazém/SC,-28.2624996,-49.0190126,1382,15778.05686
D1,Armazém/SC,-28.2624996,-49.0190126,30,342.50485
1,Armação dos Búzios/RJ,-22.7597805,-41.8875267,4414,12802.73806
D1,Armação dos Búzios/RJ,-22.7597805,-41.8875267,56,162.42713
1,Arneiroz/CE,-6.3235099,-40.1603859,627,7993.37073
D1,Arneiroz/CE,-6.3235099,-40.1603859,16,203.97756
1,Aroazes/PI,-6.1108814,-41.7886137,574,9850.69504
D1,Aroazes/PI,-6.1108814,-41.7886137,12,205.93788
1,Aroeiras do Itaim/PI,-7.2797031,-41.5629681,123,4821.63857
D1,Aroeiras do Itaim/PI,-7.2797031,-41.5629681,2,78.40063
1,Aroeiras/PB,-7.5462904,-35.7080002,1592,8328.10211
D1,Aroeiras/PB,-7.5462904,-35.7080002,9,47.08098
1,Arraial do Cabo/RJ,-22.9662839,-42.024427,708,2314.25489
D1,Arraial do Cabo/RJ,-22.9662839,-42.024427,36,117.67398
1,Arraial/PI,-6.6541632,-42.5335332,153,3241.52542
D1,Arraial/PI,-6.6541632,-42.5335332,3,63.55932
1,Arraias/TO,-12.9287788,-46.9437231,874,8296.94323
D1,Arraias/TO,-12.9287788,-46.9437231,7,66.45149
1,Arroio Grande/RS,-32.2384246,-53.0866661,1810,9924.33381
D1,Arroio Grande/RS,-32.2384246,-53.0866661,51,279.63592
1,Arroio Trinta/SC,-26.9301976,-51.334928,585,16483.51648
D1,Arroio Trinta/SC,-26.9301976,-51.334928,13,366.30037
1,Arroio do Meio/RS,-29.4020392,-51.9444993,3019,14398.81719
D1,Arroio do Meio/RS,-29.4020392,-51.9444993,42,200.31478
1,Arroio do Padre/RS,-31.4428773,-52.4228985,192,6506.26906
D1,Arroio do Padre/RS,-31.4428773,-52.4228985,3,101.66045
1,Arroio do Sal/RS,-29.549852,-49.8874395,1090,10604.14437
D1,Arroio do Sal/RS,-29.549852,-49.8874395,36,350.22862
1,Arroio do Tigre/RS,-29.334158,-53.0888935,1119,8342.65265
D1,Arroio do Tigre/RS,-29.334158,-53.0888935,19,141.65362
1,Arroio dos Ratos/RS,-30.0894524,-51.7265541,955,6736.26296
D1,Arroio dos Ratos/RS,-30.0894524,-51.7265541,32,225.71771
1,Artur Nogueira/SP,-22.572737,-47.172679,4367,7891.21793
D1,Artur Nogueira/SP,-22.572737,-47.172679,113,204.19227
1,Aruanã/GO,-14.9162439,-51.0715692,528,5222.55193
D1,Aruanã/GO,-14.9162439,-51.0715692,13,128.58556
1,Arujá/SP,-23.396266,-46.3175449,7079,7765.72287
D1,Arujá/SP,-23.396266,-46.3175449,278,304.96835
1,Arvoredo/SC,-27.0752908,-52.4571847,295,13205.01343
D1,Arvoredo/SC,-27.0752908,-52.4571847,4,179.05103
1,Arvorezinha/RS,-28.87369,-52.17808,804,7713.71006
D1,Arvorezinha/RS,-28.87369,-52.17808,25,239.85417
1,Arês/RN,-6.1969216,-35.1642968,974,6755.91316
D1,Arês/RN,-6.1969216,-35.1642968,21,145.66137
1,Ascurra/SC,-26.9569975,-49.3767752,1136,14239.15768
D1,Ascurra/SC,-26.9569975,-49.3767752,10,125.34470
1,Aspásia/SP,-20.160028,-50.728046,167,9185.91859
D1,Aspásia/SP,-20.160028,-50.728046,5,275.02750
1,Assaré/CE,-6.8746791,-39.8741385,2037,8676.20751
D1,Assaré/CE,-6.8746791,-39.8741385,38,161.85365
1,Assaí/PR,-23.3736041,-50.8454929,1310,8760.19794
D1,Assaí/PR,-23.3736041,-50.8454929,42,280.86131
1,Assis Brasil/AC,-10.9409203,-69.5672108,1733,23002.38917
D1,Assis Brasil/AC,-10.9409203,-69.5672108,24,318.55588
1,Assis Chateaubriand/PR,-24.4054826,-53.5120468,4148,12441.51170
D1,Assis Chateaubriand/PR,-24.4054826,-53.5120468,92,275.94481
1,Assis/SP,-22.6620892,-50.420623,10332,9831.85361
D1,Assis/SP,-22.6620892,-50.420623,351,334.00896
1,Assunção do Piauí/PI,-5.8610212,-41.0485091,330,4196.87142
D1,Assunção do Piauí/PI,-5.8610212,-41.0485091,8,101.74234
1,Assunção/PB,-7.073396,-36.7274003,393,9754.28146
D1,Assunção/PB,-7.073396,-36.7274003,4,99.28022
1,Astolfo Dutra/MG,-21.3132636,-42.8624102,1298,9096.00561
D1,Astolfo Dutra/MG,-21.3132636,-42.8624102,22,154.16959
1,Astorga/PR,-23.2350184,-51.6647074,3018,11515.12839
D1,Astorga/PR,-23.2350184,-51.6647074,73,278.53028
1,Atalaia do Norte/AM,-4.3658547,-70.1908742,2795,13702.32376
D1,Atalaia do Norte/AM,-4.3658547,-70.1908742,9,44.12197
1,Atalaia/AL,-9.5029595,-36.0219316,1154,2436.39818
D1,Atalaia/AL,-9.5029595,-36.0219316,46,97.11813
1,Atalaia/PR,-23.1513833,-52.0529697,425,10950.78588
D1,Atalaia/PR,-23.1513833,-52.0529697,18,463.79799
1,Atalanta/SC,-27.421916,-49.778863,422,13208.13772
D1,Atalanta/SC,-27.421916,-49.778863,11,344.28795
1,Ataléia/MG,-18.04432,-41.1110524,1085,8558.13220
D1,Ataléia/MG,-18.04432,-41.1110524,8,63.10144
1,Atibaia/SP,-23.1177393,-46.5547861,10261,7121.34251
D1,Atibaia/SP,-23.1177393,-46.5547861,237,164.48282
1,Atilio Vivacqua/ES,-20.9139369,-41.1947519,1472,12160.26435
D1,Atilio Vivacqua/ES,-20.9139369,-41.1947519,27,223.04833
1,Augustinópolis/TO,-5.4662267,-47.8897519,1472,7895.72494
D1,Augustinópolis/TO,-5.4662267,-47.8897519,27,144.82648
1,Augusto Corrêa/PA,-1.0229335,-46.6404029,1995,4292.99994
D1,Augusto Corrêa/PA,-1.0229335,-46.6404029,43,92.53083
1,Augusto Pestana/RS,-28.5148413,-53.9906433,732,11087.54923
D1,Augusto Pestana/RS,-28.5148413,-53.9906433,13,196.91003
1,Augusto de Lima/MG,-18.1092963,-44.2651945,259,5339.10534
D1,Augusto de Lima/MG,-18.1092963,-44.2651945,8,164.91445
1,Aurelino Leal/BA,-14.3167137,-39.3256107,962,8514.02779
D1,Aurelino Leal/BA,-14.3167137,-39.3256107,27,238.95920
1,Auriflama/SP,-20.6840418,-50.5554616,1838,12050.08851
D1,Auriflama/SP,-20.6840418,-50.5554616,67,439.25785
1,Aurilândia/GO,-16.6772599,-50.4641231,190,6213.21125
D1,Aurilândia/GO,-16.6772599,-50.4641231,7,228.90778
1,Aurora do Pará/PA,-2.1323199,-47.558436,1474,4639.15903
D1,Aurora do Pará/PA,-2.1323199,-47.558436,14,44.06257
1,Aurora do Tocantins/TO,-12.71045,-46.407604,188,4969.60085
D1,Aurora do Tocantins/TO,-12.71045,-46.407604,5,132.17024
1,Aurora/CE,-6.9426019,-38.9693765,1648,6696.46485
D1,Aurora/CE,-6.9426019,-38.9693765,36,146.28200
1,Aurora/SC,-27.3166417,-49.6368502,805,14165.05367
D1,Aurora/SC,-27.3166417,-49.6368502,14,246.34876
1,Autazes/AM,-3.5833283,-59.1301518,2867,7115.90966
D1,Autazes/AM,-3.5833283,-59.1301518,95,235.79052
1,Avanhandava/SP,-21.4603331,-49.9465156,897,6472.32845
D1,Avanhandava/SP,-21.4603331,-49.9465156,30,216.46583
1,Avaré/SP,-23.1045215,-48.9259103,9504,10417.39740
D1,Avaré/SP,-23.1045215,-48.9259103,214,234.56682
1,Avaí/SP,-22.1564662,-49.3316395,397,7303.16409
D1,Avaí/SP,-22.1564662,-49.3316395,12,220.75055
1,Aveiro/PA,-3.6049239,-55.3310742,631,3846.62277
D1,Aveiro/PA,-3.6049239,-55.3310742,12,73.15289
1,Avelino Lopes/PI,-10.1346855,-43.9489525,387,3416.91683
D1,Avelino Lopes/PI,-10.1346855,-43.9489525,19,167.75561
1,Avelinópolis/GO,-16.4672409,-49.7578661,277,11498.54711
D1,Avelinópolis/GO,-16.4672409,-49.7578661,13,539.64301
1,Axixá do Tocantins/TO,-5.612747,-47.77007,1025,10473.07653
D1,Axixá do Tocantins/TO,-5.612747,-47.77007,17,173.69981
1,Axixá/MA,-2.8379465,-44.0561053,191,1567.75835
D1,Axixá/MA,-2.8379465,-44.0561053,6,49.24895
1,Açailândia/MA,-4.9514278,-47.4844564,5302,4687.01656
D1,Açailândia/MA,-4.9514278,-47.4844564,205,181.22188
1,Açu/RN,-5.5836157,-36.9139541,6208,10633.05015
D1,Açu/RN,-5.5836157,-36.9139541,140,239.79172
1,Açucena/MG,-19.073056,-42.546666,746,7963.27925
D1,Açucena/MG,-19.073056,-42.546666,30,320.23911
1,Babaçulândia/TO,-7.2034355,-47.761613,791,7416.08851
D1,Babaçulândia/TO,-7.2034355,-47.761613,5,46.87793
1,Bacabal/MA,-4.2318132,-44.781167,5008,4779.08197
D1,Bacabal/MA,-4.2318132,-44.781167,180,171.77212
1,Bacabeira/MA,-2.9775747,-44.3155943,333,1930.21099
D1,Bacabeira/MA,-2.9775747,-44.3155943,7,40.57501
1,Bacuri/MA,-1.728894,-45.1417148,571,3061.00568
D1,Bacuri/MA,-1.728894,-45.1417148,4,21.44312
1,Bacurituba/MA,-2.7082587,-44.7381309,117,2063.49206
D1,Bacurituba/MA,-2.7082587,-44.7381309,1,17.63668
1,Bady Bassitt/SP,-20.9178969,-49.4517911,3277,18450.53769
D1,Bady Bassitt/SP,-20.9178969,-49.4517911,69,388.49164
1,Baependi/MG,-21.959162,-44.8899249,1418,7385.80134
D1,Baependi/MG,-21.959162,-44.8899249,13,67.71186
1,Bagre/PA,-1.8994498,-50.2103844,910,2905.02793
D1,Bagre/PA,-1.8994498,-50.2103844,12,38.30806
1,Bagé/RS,-31.3314264,-54.1062808,9757,8041.37306
D1,Bagé/RS,-31.3314264,-54.1062808,265,218.40359
1,Baianópolis/BA,-12.3067564,-44.5383591,820,5886.99835
D1,Baianópolis/BA,-12.3067564,-44.5383591,11,78.97193
1,Baixa Grande do Ribeiro/PI,-7.862861,-45.2113289,2443,20932.22517
D1,Baixa Grande do Ribeiro/PI,-7.862861,-45.2113289,29,248.47914
1,Baixa Grande/BA,-11.9630941,-40.1657537,729,3564.96650
D1,Baixa Grande/BA,-11.9630941,-40.1657537,13,63.57279
1,Baixio/CE,-6.7303544,-38.7170095,530,8408.69427
D1,Baixio/CE,-6.7303544,-38.7170095,11,174.52007
1,Baixo Guandu/ES,-19.5138322,-41.0182089,3424,10998.32969
D1,Baixo Guandu/ES,-19.5138322,-41.0182089,71,228.06116
1,Baião/PA,-2.7903479,-49.6702845,737,1520.87332
D1,Baião/PA,-2.7903479,-49.6702845,34,70.16241
1,Balbinos/SP,-21.9006253,-49.3583966,342,5763.39737
D1,Balbinos/SP,-21.9006253,-49.3583966,4,67.40816
1,Baldim/MG,-19.2913568,-43.9558262,605,7753.42817
D1,Baldim/MG,-19.2913568,-43.9558262,19,243.49609
1,Baliza/GO,-16.1978119,-52.542789,315,5965.90909
D1,Baliza/GO,-16.1978119,-52.542789,8,151.51515
1,Balneário Arroio do Silva/SC,-28.9815269,-49.4189932,2004,14921.81683
D1,Balneário Arroio do Silva/SC,-28.9815269,-49.4189932,54,402.08488
1,Balneário Barra do Sul/SC,-26.459842,-48.6061471,1390,12596.28455
D1,Balneário Barra do Sul/SC,-26.459842,-48.6061471,40,362.48301
1,Balneário Camboriú/SC,-26.9924395,-48.6339782,23911,16400.31277
D1,Balneário Camboriú/SC,-26.9924395,-48.6339782,357,244.86268
1,Balneário Gaivota/SC,-29.1553098,-49.5808712,1241,11021.31439
D1,Balneário Gaivota/SC,-29.1553098,-49.5808712,33,293.07282
1,Balneário Pinhal/RS,-30.2482978,-50.234585,706,4915.40764
D1,Balneário Pinhal/RS,-30.2482978,-50.234585,43,299.38035
1,Balneário Piçarras/SC,-26.7638889,-48.6716667,4614,19409.38920
D1,Balneário Piçarras/SC,-26.7638889,-48.6716667,49,206.12485
1,Balneário Rincão/SC,-28.8235718,-49.2241642,1352,10443.38019
D1,Balneário Rincão/SC,-28.8235718,-49.2241642,43,332.14893
1,Balsa Nova/PR,-25.5842234,-49.6312741,1529,11678.88787
D1,Balsa Nova/PR,-25.5842234,-49.6312741,28,213.87107
1,Balsas/MA,-7.53214,-46.037163,9683,10093.92363
D1,Balsas/MA,-7.53214,-46.037163,184,191.80853
1,Bambuí/MG,-20.0131996,-45.9777034,1543,6456.60725
D1,Bambuí/MG,-20.0131996,-45.9777034,25,104.61126
1,Banabuiú/CE,-5.3046404,-38.919766,2023,11081.28834
D1,Banabuiú/CE,-5.3046404,-38.919766,19,104.07537
1,Bananal/SP,-22.6828195,-44.3221095,956,8696.44319
D1,Bananal/SP,-22.6828195,-44.3221095,3,27.29009
1,Bananeiras/PB,-6.7537682,-35.6338343,1363,6408.38779
D1,Bananeiras/PB,-6.7537682,-35.6338343,24,112.84028
1,Bandeira do Sul/MG,-21.728056,-46.385555,514,8895.81170
D1,Bandeira do Sul/MG,-21.728056,-46.385555,12,207.68432
1,Bandeira/MG,-15.884444,-40.559167,454,9525.80781
D1,Bandeira/MG,-15.884444,-40.559167,9,188.83760
1,Bandeirante/SC,-26.7677402,-53.6397596,345,13028.70091
D1,Bandeirante/SC,-26.7677402,-53.6397596,4,151.05740
1,Bandeirantes do Tocantins/TO,-7.7635698,-48.579148,466,12973.27394
D1,Bandeirantes do Tocantins/TO,-7.7635698,-48.579148,7,194.87751
1,Bandeirantes/MS,-19.9179623,-54.3646768,553,7610.78998
D1,Bandeirantes/MS,-19.9179623,-54.3646768,10,137.62731
1,Bandeirantes/PR,-23.107788,-50.370407,4651,14901.79744
D1,Bandeirantes/PR,-23.107788,-50.370407,117,374.86784
1,Bannach/PA,-7.3508505,-50.4064531,641,19650.52115
D1,Bannach/PA,-7.3508505,-50.4064531,3,91.96812
1,Banzaê/BA,-10.5827616,-38.6122305,1054,7960.72508
D1,Banzaê/BA,-10.5827616,-38.6122305,8,60.42296
1,Baraúna/PB,-6.643394,-36.2531932,656,13215.14907
D1,Baraúna/PB,-6.643394,-36.2531932,9,181.30540
1,Baraúna/RN,-5.0775002,-37.61752,1117,3885.62285
D1,Baraúna/RN,-5.0775002,-37.61752,23,80.00835
1,Barbacena/MG,-21.2254524,-43.7735087,7749,5606.92889
D1,Barbacena/MG,-21.2254524,-43.7735087,253,183.06272
1,Barbalha/CE,-7.3121067,-39.3036427,6329,10336.77402
D1,Barbalha/CE,-7.3121067,-39.3036427,135,220.48736
1,Barbosa Ferraz/PR,-24.0287182,-52.00811,1151,10073.51654
D1,Barbosa Ferraz/PR,-24.0287182,-52.00811,31,271.31104
1,Barbosa/SP,-21.265661,-49.951816,497,6655.06160
D1,Barbosa/SP,-21.265661,-49.951816,12,160.68559
1,Barcarena/PA,-1.5107945,-48.6190679,11045,8695.00185
D1,Barcarena/PA,-1.5107945,-48.6190679,213,167.68089
1,Barcelona/RN,-5.9514918,-35.9260284,106,2653.98097
D1,Barcelona/RN,-5.9514918,-35.9260284,4,100.15023
1,Barcelos/AM,-0.9729214,-62.925635,4316,15616.18062
D1,Barcelos/AM,-0.9729214,-62.925635,59,213.47420
1,Bariri/SP,-22.0746355,-48.7394852,2649,7449.80033
D1,Bariri/SP,-22.0746355,-48.7394852,106,298.10451
1,Barra Bonita/SC,-26.6526364,-53.4419581,174,10539.06723
D1,Barra Bonita/SC,-26.6526364,-53.4419581,2,121.13870
1,Barra Bonita/SP,-22.490859,-48.558349,3091,8556.16454
D1,Barra Bonita/SP,-22.490859,-48.558349,85,235.28760
1,Barra D'Alcântara/PI,-6.5209258,-42.1071089,136,3441.29555
D1,Barra D'Alcântara/PI,-6.5209258,-42.1071089,4,101.21457
1,Barra Funda/RS,-27.9230048,-53.0401045,564,22108.97687
D1,Barra Funda/RS,-27.9230048,-53.0401045,12,470.40376
1,Barra Longa/MG,-20.2833541,-43.0423516,381,7597.20837
D1,Barra Longa/MG,-20.2833541,-43.0423516,9,179.46162
1,Barra Mansa/RJ,-22.5394843,-44.1735129,15173,8209.03194
D1,Barra Mansa/RJ,-22.5394843,-44.1735129,567,306.76340
1,Barra Velha/SC,-26.6338203,-48.6835001,4036,13516.40991
D1,Barra Velha/SC,-26.6338203,-48.6835001,94,314.80241
1,Barra da Estiva/BA,-13.6269662,-41.3278287,2265,11107.29698
D1,Barra da Estiva/BA,-13.6269662,-41.3278287,23,112.78933
1,Barra de Guabiraba/PE,-8.4173522,-35.6626669,400,2756.71950
D1,Barra de Guabiraba/PE,-8.4173522,-35.6626669,15,103.37698
1,Barra de Santa Rosa/PB,-6.7218007,-36.0564638,1570,10130.99310
D1,Barra de Santa Rosa/PB,-6.7218007,-36.0564638,12,77.43434
1,Barra de Santana/PB,-7.5230865,-35.9988518,494,5916.87627
D1,Barra de Santana/PB,-7.5230865,-35.9988518,6,71.86489
1,Barra de Santo Antônio/AL,-9.4038098,-35.5117693,431,2682.35001
D1,Barra de Santo Antônio/AL,-9.4038098,-35.5117693,28,174.25940
1,Barra de São Francisco/ES,-18.7570902,-40.8916119,4667,10375.95322
D1,Barra de São Francisco/ES,-18.7570902,-40.8916119,190,422.41935
1,Barra de São Miguel/AL,-9.8261357,-35.8837777,541,6457.38840
D1,Barra de São Miguel/AL,-9.8261357,-35.8837777,7,83.55216
1,Barra de São Miguel/PB,-7.7528088,-36.3170996,517,8524.31987
D1,Barra de São Miguel/PB,-7.7528088,-36.3170996,7,115.41632
1,Barra do Bugres/MT,-15.0683712,-57.1853688,2962,8389.27125
D1,Barra do Bugres/MT,-15.0683712,-57.1853688,71,201.09327
1,Barra do Chapéu/SP,-24.472203,-49.023784,298,5173.61111
D1,Barra do Chapéu/SP,-24.472203,-49.023784,3,52.08333
1,Barra do Choça/BA,-14.8638173,-40.5761637,2037,6526.96338
D1,Barra do Choça/BA,-14.8638173,-40.5761637,30,96.12612
1,Barra do Corda/MA,-5.496823,-45.248496,5692,6432.21986
D1,Barra do Corda/MA,-5.496823,-45.248496,56,63.28256
1,Barra do Garças/MT,-15.8916033,-52.2615413,8006,13095.60808
D1,Barra do Garças/MT,-15.8916033,-52.2615413,282,461.27423
1,Barra do Guarita/RS,-27.1888016,-53.7147086,111,3408.04421
D1,Barra do Guarita/RS,-27.1888016,-53.7147086,7,214.92171
1,Barra do Jacaré/PR,-23.1151788,-50.1813945,228,8198.48975
D1,Barra do Jacaré/PR,-23.1151788,-50.1813945,1,35.95829
1,Barra do Mendes/BA,-11.8053298,-42.057037,704,5089.27926
D1,Barra do Mendes/BA,-11.8053298,-42.057037,12,86.74908
1,Barra do Ouro/TO,-7.7113784,-47.6743925,145,3130.39724
D1,Barra do Ouro/TO,-7.7113784,-47.6743925,6,129.53368
1,Barra do Piraí/RJ,-22.4703403,-43.8263256,6026,5980.31043
D1,Barra do Piraí/RJ,-22.4703403,-43.8263256,349,346.35386
1,Barra do Quaraí/RS,-30.208947,-57.5505128,407,9628.57819
D1,Barra do Quaraí/RS,-30.208947,-57.5505128,6,141.94464
1,Barra do Ribeiro/RS,-30.2930206,-51.301437,1027,7575.98112
D1,Barra do Ribeiro/RS,-30.2930206,-51.301437,47,346.70994
1,Barra do Rio Azul/RS,-27.4101581,-52.4117471,101,6102.71903
D1,Barra do Rio Azul/RS,-27.4101581,-52.4117471,1,60.42296
1,Barra do Rocha/BA,-14.2090974,-39.6004395,409,7287.95438
D1,Barra do Rocha/BA,-14.2090974,-39.6004395,7,124.73272
1,Barra do Turvo/SP,-24.756421,-48.5056942,565,7403.03983
D1,Barra do Turvo/SP,-24.756421,-48.5056942,18,235.84906
1,Barra dos Coqueiros/SE,-10.9075694,-37.0386249,6756,21842.87100
D1,Barra dos Coqueiros/SE,-10.9075694,-37.0386249,89,287.74652
1,Barra/BA,-11.0892702,-43.1420453,2078,3854.57244
D1,Barra/BA,-11.0892702,-43.1420453,43,79.76257
1,Barracão/PR,-26.252395,-53.6349576,1254,12160.58960
D1,Barracão/PR,-26.252395,-53.6349576,34,329.71296
1,Barracão/RS,-27.6728964,-51.4582928,440,8371.38508
D1,Barracão/RS,-27.6728964,-51.4582928,16,304.41400
1,Barras/PI,-4.2446153,-42.2920241,4813,10200.27551
D1,Barras/PI,-4.2446153,-42.2920241,89,188.61926
1,Barreira/CE,-4.2883361,-38.641094,1462,6476.76428
D1,Barreira/CE,-4.2883361,-38.641094,39,172.77278
1,Barreiras do Piauí/PI,-9.9224524,-45.4763776,76,2267.30310
D1,Barreiras do Piauí/PI,-9.9224524,-45.4763776,1,29.83294
1,Barreiras/BA,-12.1440031,-44.9967406,17949,11434.30483
D1,Barreiras/BA,-12.1440031,-44.9967406,292,186.01688
1,Barreirinha/AM,-2.798863,-57.067897,2405,7403.87280
D1,Barreirinha/AM,-2.798863,-57.067897,62,190.86907
1,Barreirinhas/MA,-2.7541271,-42.8259693,2134,3375.67426
D1,Barreirinhas/MA,-2.7541271,-42.8259693,36,56.94671
1,Barreiros/PE,-8.8159644,-35.1831905,765,1788.88785
D1,Barreiros/PE,-8.8159644,-35.1831905,59,137.96651
1,Barretos/SP,-20.5531437,-48.5697509,14306,11646.70732
D1,Barretos/SP,-20.5531437,-48.5697509,427,347.62645
1,Barrinha/SP,-21.1898849,-48.1550642,1528,4605.18385
D1,Barrinha/SP,-21.1898849,-48.1550642,61,183.84569
1,Barro Alto/BA,-11.7618025,-41.9094904,874,5805.76591
D1,Barro Alto/BA,-11.7618025,-41.9094904,13,86.35579
1,Barro Alto/GO,-14.9696025,-48.9190985,1287,11281.55680
D1,Barro Alto/GO,-14.9696025,-48.9190985,17,149.01823
1,Barro Duro/PI,-5.8180139,-42.5106589,686,9762.34524
D1,Barro Duro/PI,-5.8180139,-42.5106589,11,156.53906
1,Barro Preto/BA,-14.8068289,-39.4727588,583,10701.17474
D1,Barro Preto/BA,-14.8068289,-39.4727588,10,183.55360
1,Barro/CE,-7.1713587,-38.7742136,1656,7276.56209
D1,Barro/CE,-7.1713587,-38.7742136,36,158.18613
1,Barrocas/BA,-11.5165,-39.099282894736845,751,4663.14809
D1,Barrocas/BA,-11.5165,-39.099282894736845,23,142.81279
1,Barrolândia/TO,-9.837246,-48.7264346,750,13271.98726
D1,Barrolândia/TO,-9.837246,-48.7264346,20,353.91966
1,Barroquinha/CE,-3.0200371,-41.1339229,1189,7903.48312
D1,Barroquinha/CE,-3.0200371,-41.1339229,25,166.17921
1,Barros Cassal/RS,-29.094938,-52.5832366,711,6358.43320
D1,Barros Cassal/RS,-29.094938,-52.5832366,12,107.31533
1,Barroso/MG,-21.187222,-43.976111,1822,8718.95487
D1,Barroso/MG,-21.187222,-43.976111,47,224.91267
1,Barueri/SP,-23.5112184,-46.8764612,28342,10232.43388
D1,Barueri/SP,-23.5112184,-46.8764612,1012,365.36670
1,Barão de Antonina/SP,-23.6295651,-49.5632104,389,11120.64037
D1,Barão de Antonina/SP,-23.6295651,-49.5632104,8,228.70212
1,Barão de Cocais/MG,-19.9452437,-43.4870298,3555,10816.64942
D1,Barão de Cocais/MG,-19.9452437,-43.4870298,62,188.64480
1,Barão de Cotegipe/RS,-27.6214694,-52.3765316,719,10861.02719
D1,Barão de Cotegipe/RS,-27.6214694,-52.3765316,7,105.74018
1,Barão de Grajaú/MA,-6.7542591,-43.0263477,437,2309.23695
D1,Barão de Grajaú/MA,-6.7542591,-43.0263477,2,10.56859
1,Barão de Melgaço/MT,-16.195776,-55.9668049,360,4409.60314
D1,Barão de Melgaço/MT,-16.195776,-55.9668049,14,171.48457
1,Barão de Monte Alto/MG,-21.244722,-42.2375,326,6088.90549
D1,Barão de Monte Alto/MG,-21.244722,-42.2375,12,224.13149
1,Barão do Triunfo/RS,-30.3909877,-51.7375349,450,5984.83841
D1,Barão do Triunfo/RS,-30.3909877,-51.7375349,6,79.79785
1,Barão/RS,-29.372474,-51.494908,598,9642.05095
D1,Barão/RS,-29.372474,-51.494908,9,145.11448
1,Bastos/SP,-21.9222474,-50.7317727,1294,6175.72663
D1,Bastos/SP,-21.9222474,-50.7317727,35,167.04052
1,Bataguassu/MS,-21.715899,-52.422058,3099,13286.17363
D1,Bataguassu/MS,-21.715899,-52.422058,36,154.34084
1,Batalha/AL,-9.6733809,-37.1265481,1098,5987.56680
D1,Batalha/AL,-9.6733809,-37.1265481,16,87.25052
1,Batalha/PI,-4.022391,-42.0780926,1075,3995.53986
D1,Batalha/PI,-4.022391,-42.0780926,31,115.22022
1,Batatais/SP,-20.892867,-47.592149,3068,4871.38774
D1,Batatais/SP,-20.892867,-47.592149,146,231.81963
1,Batayporã/MS,-22.2976466,-53.2685608,1014,8934.70790
D1,Batayporã/MS,-22.2976466,-53.2685608,18,158.60428
1,Baturité/CE,-4.3290203,-38.8821055,4001,11132.13322
D1,Baturité/CE,-4.3290203,-38.8821055,76,211.45767
1,Bauru/SP,-22.3218102,-49.0705863,44604,11759.65009
D1,Bauru/SP,-22.3218102,-49.0705863,1018,268.39126
1,Bayeux/PB,-7.1301631,-34.936532,7052,7254.92012
D1,Bayeux/PB,-7.1301631,-34.936532,231,237.64699
1,Baía Formosa/RN,-6.3691885,-35.0063741,348,3733.10448
D1,Baía Formosa/RN,-6.3691885,-35.0063741,8,85.81849
1,Baía da Traição/PB,-6.691258,-34.9371244,1283,14105.10114
D1,Baía da Traição/PB,-6.691258,-34.9371244,12,131.92612
1,Bebedouro/SP,-20.949077,-48.479083,3683,4748.88789
D1,Bebedouro/SP,-20.949077,-48.479083,143,184.38527
1,Beberibe/CE,-4.1810469,-38.1298101,4744,8793.49015
D1,Beberibe/CE,-4.1810469,-38.1298101,98,181.65304
1,Bela Cruz/CE,-3.0529129,-40.167582,3352,10243.87262
D1,Bela Cruz/CE,-3.0529129,-40.167582,69,210.86731
1,Bela Vista da Caroba/PR,-25.8792818,-53.6672545,175,5062.19265
D1,Bela Vista da Caroba/PR,-25.8792818,-53.6672545,6,173.56089
1,Bela Vista de Goiás/GO,-16.9692949,-48.9513071,2426,7956.18523
D1,Bela Vista de Goiás/GO,-16.9692949,-48.9513071,65,213.17067
1,Bela Vista de Minas/MG,-19.8289721,-43.0973688,785,7649.58098
D1,Bela Vista de Minas/MG,-19.8289721,-43.0973688,22,214.38316
1,Bela Vista do Maranhão/MA,-3.7416367,-45.2514192,213,1888.46529
D1,Bela Vista do Maranhão/MA,-3.7416367,-45.2514192,17,150.72258
1,Bela Vista do Paraíso/PR,-22.9948493,-51.1907996,1839,11942.33392
D1,Bela Vista do Paraíso/PR,-22.9948493,-51.1907996,60,389.63569
1,Bela Vista do Piauí/PI,-7.9716353,-41.8715061,262,6501.24069
D1,Bela Vista do Piauí/PI,-7.9716353,-41.8715061,6,148.88337
1,Bela Vista do Toldo/SC,-26.274625,-50.466354,79,1241.74788
D1,Bela Vista do Toldo/SC,-26.274625,-50.466354,3,47.15498
1,Bela Vista/MS,-22.107327,-56.5317344,970,3921.56863
D1,Bela Vista/MS,-22.107327,-56.5317344,29,117.24277
1,Belford Roxo/RJ,-22.7667284,-43.4033603,20364,3968.67777
D1,Belford Roxo/RJ,-22.7667284,-43.4033603,695,135.44643
1,Belmiro Braga/MG,-21.9486291,-43.413564,199,5810.21898
D1,Belmiro Braga/MG,-21.9486291,-43.413564,3,87.59124
1,Belmonte/BA,-15.8630837,-38.8792845,1080,4608.09831
D1,Belmonte/BA,-15.8630837,-38.8792845,23,98.13543
1,Belmonte/SC,-26.8448262,-53.578916,256,9449.98154
D1,Belmonte/SC,-26.8448262,-53.578916,5,184.56995
1,Belo Campo/BA,-15.0338286,-41.2585109,866,5061.66345
D1,Belo Campo/BA,-15.0338286,-41.2585109,14,81.82828
1,Belo Horizonte/MG,-19.9227318,-43.9450948,229436,9098.95604
D1,Belo Horizonte/MG,-19.9227318,-43.9450948,5567,220.77568
1,Belo Jardim/PE,-8.3338293,-36.4176419,3715,4844.36736
D1,Belo Jardim/PE,-8.3338293,-36.4176419,115,149.96023
1,Belo Monte/AL,-9.8269944,-37.2787165,425,6333.83010
D1,Belo Monte/AL,-9.8269944,-37.2787165,9,134.12817
1,Belo Oriente/MG,-19.2232523,-42.4807033,2556,9468.77084
D1,Belo Oriente/MG,-19.2232523,-42.4807033,60,222.27162
1,Belo Vale/MG,-20.407778,-44.024167,833,10791.55331
D1,Belo Vale/MG,-20.407778,-44.024167,10,129.55046
1,Belterra/PA,-2.636091,-54.937392,1454,8150.68109
D1,Belterra/PA,-2.636091,-54.937392,25,140.14238
1,Belágua/MA,-3.1604031,-43.5085052,409,5433.04995
D1,Belágua/MA,-3.1604031,-43.5085052,3,39.85122
1,Belém de Maria/PE,-8.6242497,-35.8388934,248,2045.86702
D1,Belém de Maria/PE,-8.6242497,-35.8388934,6,49.49678
1,Belém do Brejo do Cruz/PB,-6.1880727,-37.5332267,508,6912.50510
D1,Belém do Brejo do Cruz/PB,-6.1880727,-37.5332267,5,68.03647
1,Belém do Piauí/PI,-7.3767305,-40.9712156,455,12684.69473
D1,Belém do Piauí/PI,-7.3767305,-40.9712156,7,195.14915
1,Belém do São Francisco/PE,-8.7517707,-38.9625715,795,3835.02171
D1,Belém do São Francisco/PE,-8.7517707,-38.9625715,10,48.23927
1,Belém/AL,-9.5715351,-36.492841,117,2731.09244
D1,Belém/AL,-9.5715351,-36.492841,4,93.37068
1,Belém/PA,-1.45056,-48.4682453,102319,6822.89961
D1,Belém/PA,-1.45056,-48.4682453,4898,326.61150
1,Belém/PB,-6.6967586,-35.5369626,2092,11815.87122
D1,Belém/PB,-6.6967586,-35.5369626,44,248.51737
1,Beneditinos/PI,-5.4565671,-42.3605061,1215,11601.26038
D1,Beneditinos/PI,-5.4565671,-42.3605061,38,362.83777
1,Benedito Leite/MA,-7.2173453,-44.5523331,303,5374.24619
D1,Benedito Leite/MA,-7.2173453,-44.5523331,2,35.47357
1,Benedito Novo/SC,-26.7840657,-49.3629511,1005,8535.03185
D1,Benedito Novo/SC,-26.7840657,-49.3629511,18,152.86624
1,Benevides/PA,-1.3555577,-48.252235,3855,6045.35190
D1,Benevides/PA,-1.3555577,-48.252235,100,156.81847
1,Benjamin Constant do Sul/RS,-27.5105555,-52.6007689,157,8018.38611
1,Benjamin Constant/AM,-4.3782748,-70.0290603,2693,6129.50950
D1,Benjamin Constant/AM,-4.3782748,-70.0290603,87,198.01980
1,Bento Fernandes/RN,-5.6926846,-35.8207423,149,2696.83258
D1,Bento Fernandes/RN,-5.6926846,-35.8207423,3,54.29864
1,Bento Gonçalves/RS,-29.1654014,-51.5197627,17504,14370.74620
D1,Bento Gonçalves/RS,-29.1654014,-51.5197627,304,249.58334
1,Bento de Abreu/SP,-21.2707225,-50.8120444,308,10249.58403
D1,Bento de Abreu/SP,-21.2707225,-50.8120444,1,33.27787
1,Bequimão/MA,-2.4495376,-44.7884889,277,1300.53054
D1,Bequimão/MA,-2.4495376,-44.7884889,19,89.20607
1,Berilo/MG,-16.9515764,-42.4643732,150,1263.47709
D1,Berilo/MG,-16.9515764,-42.4643732,1,8.42318
1,Berizal/MG,-15.6118785,-41.7417382,176,3694.37448
D1,Berizal/MG,-15.6118785,-41.7417382,1,20.99076
1,Bernardino Batista/PB,-6.4532173,-38.5495418,268,7579.18552
1,Bernardino de Campos/SP,-23.0140216,-49.4760724,695,6228.71482
D1,Bernardino de Campos/SP,-23.0140216,-49.4760724,18,161.31923
1,Bernardo Sayão/TO,-7.8794244,-48.8968905,600,13489.20863
D1,Bernardo Sayão/TO,-7.8794244,-48.8968905,9,202.33813
1,Bernardo do Mearim/MA,-4.6315929,-44.7617508,292,4808.16730
D1,Bernardo do Mearim/MA,-4.6315929,-44.7617508,6,98.79796
1,Bertioga/SP,-23.848568,-46.139586,5400,8343.24738
D1,Bertioga/SP,-23.848568,-46.139586,145,224.03164
1,Bertolínia/PI,-7.6372159,-43.9540611,851,15453.05974
D1,Bertolínia/PI,-7.6372159,-43.9540611,10,181.58707
1,Bertópolis/MG,-17.063333,-40.573889,368,7987.84458
1,Beruri/AM,-3.9007135,-61.3717319,2219,11043.64704
D1,Beruri/AM,-3.9007135,-61.3717319,33,164.23630
1,Betim/MG,-19.968056,-44.198333,29040,6529.01183
D1,Betim/MG,-19.968056,-44.198333,1181,265.52214
1,Betânia do Piauí/PI,-8.1460635,-40.7961387,157,2528.18035
D1,Betânia do Piauí/PI,-8.1460635,-40.7961387,2,32.20612
1,Betânia/PE,-8.2742779,-38.0351767,478,3744.61418
D1,Betânia/PE,-8.2742779,-38.0351767,14,109.67489
1,Bezerros/PE,-8.2372132,-35.7558262,3754,6166.22865
D1,Bezerros/PE,-8.2372132,-35.7558262,113,185.61104
1,Bias Fortes/MG,-21.605833,-43.756944,111,3334.33464
D1,Bias Fortes/MG,-21.605833,-43.756944,3,90.11715
1,Bicas/MG,-21.7213723,-43.0604327,1377,9461.31648
D1,Bicas/MG,-21.7213723,-43.0604327,43,295.45142
1,Biguaçu/SC,-27.4961277,-48.6542432,10835,15593.06911
D1,Biguaçu/SC,-27.4961277,-48.6542432,162,233.14049
1,Bilac/SP,-21.403962,-50.47464,841,10360.97080
D1,Bilac/SP,-21.403962,-50.47464,13,160.15769
1,Biquinhas/MG,-18.783611,-45.502222,119,4763.81105
D1,Biquinhas/MG,-18.783611,-45.502222,1,40.03203
1,Birigui/SP,-21.2908491,-50.34144,14317,11464.33061
D1,Birigui/SP,-21.2908491,-50.34144,488,390.76576
1,Biritiba Mirim/SP,-23.5697765,-46.0407456,1355,4114.03935
D1,Biritiba Mirim/SP,-23.5697765,-46.0407456,85,258.07627
1,Biritinga/BA,-11.6227908,-38.8066738,487,3046.79680
D1,Biritinga/BA,-11.6227908,-38.8066738,7,43.79379
1,Bituruna/PR,-26.161281,-51.5533319,1151,7018.29268
D1,Bituruna/PR,-26.161281,-51.5533319,16,97.56098
1,Blumenau/SC,-26.9195567,-49.0658025,50186,13869.09121
D1,Blumenau/SC,-26.9195567,-49.0658025,553,152.82364
1,Boa Esperança do Iguaçu/PR,-25.6362851,-53.2139114,158,6396.76113
1,Boa Esperança do Sul/SP,-21.9930206,-48.3917372,1079,7184.71168
D1,Boa Esperança do Sul/SP,-21.9930206,-48.3917372,17,113.19750
1,Boa Esperança/ES,-18.5395472,-40.2904088,1549,10263.71588
D1,Boa Esperança/ES,-18.5395472,-40.2904088,40,265.04108
1,Boa Esperança/MG,-21.0901253,-45.5660195,4038,10040.03083
D1,Boa Esperança/MG,-21.0901253,-45.5660195,108,268.52980
1,Boa Esperança/PR,-24.2411024,-52.7860277,395,9760.31628
D1,Boa Esperança/PR,-24.2411024,-52.7860277,15,370.64492
1,Boa Hora/PI,-4.4094627,-42.1255341,548,8041.08584
D1,Boa Hora/PI,-4.4094627,-42.1255341,6,88.04109
1,Boa Nova/BA,-14.365907,-40.2063056,898,7283.64020
D1,Boa Nova/BA,-14.365907,-40.2063056,16,129.77533
1,Boa Ventura de São Roque/PR,-24.88177,-51.5441292,444,6975.64808
D1,Boa Ventura de São Roque/PR,-24.88177,-51.5441292,5,78.55460
1,Boa Ventura/PB,-7.4202462,-38.2156782,440,8290.93650
D1,Boa Ventura/PB,-7.4202462,-38.2156782,8,150.74430
1,Boa Viagem/CE,-5.1261877,-39.7300055,3865,7081.73773
D1,Boa Viagem/CE,-5.1261877,-39.7300055,97,177.73055
1,Boa Vista da Aparecida/PR,-25.4357216,-53.4067721,876,11618.03714
D1,Boa Vista da Aparecida/PR,-25.4357216,-53.4067721,26,344.82759
1,Boa Vista das Missões/RS,-27.6677983,-53.3127622,212,10133.84321
D1,Boa Vista das Missões/RS,-27.6677983,-53.3127622,5,239.00574
1,Boa Vista do Buricá/RS,-27.6687782,-54.1111913,818,12187.12753
D1,Boa Vista do Buricá/RS,-27.6687782,-54.1111913,9,134.08820
1,Boa Vista do Cadeado/RS,-28.5783827,-53.8123759,173,7009.72447
D1,Boa Vista do Cadeado/RS,-28.5783827,-53.8123759,2,81.03728
1,Boa Vista do Gurupi/MA,-1.7981168,-46.3071882,15,178.95490
D1,Boa Vista do Gurupi/MA,-1.7981168,-46.3071882,4,47.72131
1,Boa Vista do Incra/RS,-28.8195551,-53.3866624,267,10206.42202
D1,Boa Vista do Incra/RS,-28.8195551,-53.3866624,4,152.90520
1,Boa Vista do Ramos/AM,-2.9716927,-57.5869819,956,4871.08937
D1,Boa Vista do Ramos/AM,-2.9716927,-57.5869819,11,56.04810
1,Boa Vista do Sul/RS,-29.3510488,-51.6779679,299,10763.13895
D1,Boa Vista do Sul/RS,-29.3510488,-51.6779679,3,107.99136
1,Boa Vista do Tupim/BA,-12.6605988,-40.6083594,258,1392.26162
D1,Boa Vista do Tupim/BA,-12.6605988,-40.6083594,8,43.17090
1,Boa Vista/PB,-7.2620711,-36.2415161,737,10327.91480
D1,Boa Vista/PB,-7.2620711,-36.2415161,13,182.17489
1,Boa Vista/RR,2.8208478,-60.6719582,84269,20080.68590
D1,Boa Vista/RR,2.8208478,-60.6719582,1321,314.78463
1,Boca da Mata/AL,-9.6452054,-36.2116658,1801,6583.56485
D1,Boca da Mata/AL,-9.6452054,-36.2116658,43,157.18672
1,Boca do Acre/AM,-8.7553487,-67.3930873,2619,7561.71503
D1,Boca do Acre/AM,-8.7553487,-67.3930873,25,72.18132
1,Bocaina de Minas/MG,-22.167778,-44.394722,176,3458.43977
D1,Bocaina de Minas/MG,-22.167778,-44.394722,7,137.55158
1,Bocaina do Sul/SC,-27.745494,-49.942279,370,10607.79817
D1,Bocaina do Sul/SC,-27.745494,-49.942279,3,86.00917
1,Bocaina/PI,-6.9445939,-41.3224599,271,6015.53829
D1,Bocaina/PI,-6.9445939,-41.3224599,4,88.79023
1,Bocaina/SP,-22.1421831,-48.522276,1227,9853.83874
D1,Bocaina/SP,-22.1421831,-48.522276,30,240.92515
1,Bocaiúva do Sul/PR,-25.206591,-49.114131,1774,13512.07251
D1,Bocaiúva do Sul/PR,-25.206591,-49.114131,15,114.25089
1,Bocaiúva/MG,-17.1160208,-43.8122678,2229,4435.29131
D1,Bocaiúva/MG,-17.1160208,-43.8122678,57,113.41929
1,Bodocó/PE,-7.777592,-39.933797,1906,4966.38699
D1,Bodocó/PE,-7.777592,-39.933797,29,75.56413
1,Bodoquena/MS,-20.5508775,-56.6769653,488,6226.07808
D1,Bodoquena/MS,-20.5508775,-56.6769653,14,178.61699
1,Bodó/RN,-5.9866104,-36.4134824,161,7328.17478
1,Bofete/SP,-23.1019554,-48.2610535,715,5997.81897
D1,Bofete/SP,-23.1019554,-48.2610535,13,109.05125
1,Boituva/SP,-23.2838893,-47.6738231,5654,9094.41853
D1,Boituva/SP,-23.2838893,-47.6738231,158,254.14187
1,Bom Conselho/PE,-9.169191,-36.685683,1867,3828.40855
D1,Bom Conselho/PE,-9.169191,-36.685683,62,127.13515
1,Bom Despacho/MG,-19.7375242,-45.2517288,4190,8211.17818
D1,Bom Despacho/MG,-19.7375242,-45.2517288,74,145.01842
1,Bom Jardim da Serra/SC,-28.3380324,-49.625588,592,12405.69992
D1,Bom Jardim da Serra/SC,-28.3380324,-49.625588,4,83.82230
1,Bom Jardim de Goiás/GO,-16.2062659,-52.172793,797,8986.35697
D1,Bom Jardim de Goiás/GO,-16.2062659,-52.172793,15,169.12842
1,Bom Jardim de Minas/MG,-21.9476466,-44.1906033,459,7106.36321
D1,Bom Jardim de Minas/MG,-21.9476466,-44.1906033,3,46.44682
1,Bom Jardim/MA,-3.54129,-45.606004,1395,3335.56501
D1,Bom Jardim/MA,-3.54129,-45.606004,47,112.38104
1,Bom Jardim/PE,-7.7961572,-35.5871696,1586,3966.68584
D1,Bom Jardim/PE,-7.7961572,-35.5871696,68,170.07228
1,Bom Jardim/RJ,-22.1515328,-42.4186683,1592,5764.77404
D1,Bom Jardim/RJ,-22.1515328,-42.4186683,44,159.32793
1,Bom Jesus da Lapa/BA,-13.250571,-43.410754,5408,7763.19945
D1,Bom Jesus da Lapa/BA,-13.250571,-43.410754,69,99.04970
1,Bom Jesus da Penha/MG,-21.0165299,-46.5226644,628,14797.36098
D1,Bom Jesus da Penha/MG,-21.0165299,-46.5226644,14,329.87747
1,Bom Jesus da Serra/BA,-14.3724084,-40.5047119,433,4408.02199
D1,Bom Jesus da Serra/BA,-14.3724084,-40.5047119,9,91.62170
1,Bom Jesus das Selvas/MA,-4.4878075,-46.8526639,3169,9167.70330
D1,Bom Jesus das Selvas/MA,-4.4878075,-46.8526639,24,69.43038
1,Bom Jesus de Goiás/GO,-18.2174587,-49.739721,2726,10628.50905
D1,Bom Jesus de Goiás/GO,-18.2174587,-49.739721,104,405.48971
1,Bom Jesus do Amparo/MG,-19.7045132,-43.4752911,232,3782.81428
D1,Bom Jesus do Amparo/MG,-19.7045132,-43.4752911,6,97.83140
1,Bom Jesus do Araguaia/MT,-12.1725897,-51.5074425,1014,15120.78735
D1,Bom Jesus do Araguaia/MT,-12.1725897,-51.5074425,16,238.59231
1,Bom Jesus do Galho/MG,-19.8283191,-42.3162256,631,4245.72736
D1,Bom Jesus do Galho/MG,-19.8283191,-42.3162256,28,188.39995
1,Bom Jesus do Itabapoana/RJ,-21.1341025,-41.680095,3288,8837.99694
D1,Bom Jesus do Itabapoana/RJ,-21.1341025,-41.680095,83,223.10029
1,Bom Jesus do Norte/ES,-21.1254776,-41.6711646,1048,10519.97591
D1,Bom Jesus do Norte/ES,-21.1254776,-41.6711646,26,260.99177
1,Bom Jesus do Oeste/SC,-26.6929713,-53.0967453,182,8508.64890
D1,Bom Jesus do Oeste/SC,-26.6929713,-53.0967453,6,280.50491
1,Bom Jesus do Sul/PR,-26.1922507,-53.6002033,460,13120.36509
D1,Bom Jesus do Sul/PR,-26.1922507,-53.6002033,5,142.61266
1,Bom Jesus do Tocantins/PA,-5.0471796,-48.5978362,759,4433.92920
D1,Bom Jesus do Tocantins/PA,-5.0471796,-48.5978362,25,146.04510
1,Bom Jesus do Tocantins/TO,-8.96306,-48.165043,129,2575.87859
D1,Bom Jesus do Tocantins/TO,-8.96306,-48.165043,3,59.90415
1,Bom Jesus dos Perdões/SP,-23.1353864,-46.4648052,1969,7577.44853
D1,Bom Jesus dos Perdões/SP,-23.1353864,-46.4648052,23,88.51260
1,Bom Jesus/PB,-6.8156725,-38.6551841,158,6135.92233
D1,Bom Jesus/PB,-6.8156725,-38.6551841,3,116.50485
1,Bom Jesus/PI,-9.0711644,-44.3583926,3431,13514.79103
D1,Bom Jesus/PI,-9.0711644,-44.3583926,37,145.74388
1,Bom Jesus/RN,-5.9887544,-35.5821149,780,7597.15594
D1,Bom Jesus/RN,-5.9887544,-35.5821149,15,146.09915
1,Bom Jesus/RS,-28.6692723,-50.4346894,860,7604.56274
D1,Bom Jesus/RS,-28.6692723,-50.4346894,20,176.85030
1,Bom Jesus/SC,-26.7350604,-52.3916519,420,13738.95976
D1,Bom Jesus/SC,-26.7350604,-52.3916519,7,228.98266
1,Bom Lugar/MA,-4.3728019,-45.0366054,464,2822.72783
D1,Bom Lugar/MA,-4.3728019,-45.0366054,7,42.58426
1,Bom Princípio do Piauí/PI,-3.1912777,-41.6430185,130,2300.47779
D1,Bom Princípio do Piauí/PI,-3.1912777,-41.6430185,12,212.35180
1,Bom Princípio/RS,-29.489788,-51.3566782,1868,13104.17397
D1,Bom Princípio/RS,-29.489788,-51.3566782,27,189.40723
1,Bom Progresso/RS,-27.5490948,-53.8655601,137,7214.32333
D1,Bom Progresso/RS,-27.5490948,-53.8655601,3,157.97788
1,Bom Repouso/MG,-22.4657069,-46.1485376,928,8807.06083
D1,Bom Repouso/MG,-22.4657069,-46.1485376,19,180.31698
1,Bom Retiro do Sul/RS,-29.6000007,-51.9359243,1001,8079.09605
D1,Bom Retiro do Sul/RS,-29.6000007,-51.9359243,28,225.98870
1,Bom Retiro/SC,-27.798993,-49.486994,752,7475.14911
D1,Bom Retiro/SC,-27.798993,-49.486994,16,159.04573
1,Bom Sucesso de Itararé/SP,-24.3190016,-49.1446207,169,4241.96787
D1,Bom Sucesso de Itararé/SP,-24.3190016,-49.1446207,5,125.50201
1,Bom Sucesso do Sul/PR,-26.0749256,-52.8348629,457,14044.25323
D1,Bom Sucesso do Sul/PR,-26.0749256,-52.8348629,7,215.11985
1,Bom Sucesso/MG,-21.0323516,-44.7598082,986,5600.04544
D1,Bom Sucesso/MG,-21.0323516,-44.7598082,13,73.83427
1,Bom Sucesso/PB,-6.4458948,-37.9297662,407,8212.26796
D1,Bom Sucesso/PB,-6.4458948,-37.9297662,4,80.71025
1,Bom Sucesso/PR,-23.7088019,-51.7651297,1032,14601.01868
D1,Bom Sucesso/PR,-23.7088019,-51.7651297,16,226.37238
1,Bombinhas/SC,-27.1519159,-48.4875691,3404,16739.61151
D1,Bombinhas/SC,-27.1519159,-48.4875691,56,275.38726
1,Bonfim do Piauí/PI,-9.1648678,-42.8734415,368,6473.17502
D1,Bonfim do Piauí/PI,-9.1648678,-42.8734415,7,123.13105
1,Bonfim/MG,-20.3266626, -44.2386157,397,5787.17201
D1,Bonfim/MG,-20.3266626, -44.2386157,13,189.50437
1,Bonfim/RR,3.3613818,-59.8427241,2236,17806.80099
D1,Bonfim/RR,3.3613818,-59.8427241,26,207.05583
1,Bonfinópolis de Minas/MG,-16.5660011,-45.98645,471,8651.72667
D1,Bonfinópolis de Minas/MG,-16.5660011,-45.98645,12,220.42616
1,Bonfinópolis/GO,-16.6172709,-48.9615701,453,4566.99264
D1,Bonfinópolis/GO,-16.6172709,-48.9615701,19,191.55157
1,Boninal/BA,-12.7095183,-41.8299984,611,4229.54451
D1,Boninal/BA,-12.7095183,-41.8299984,7,48.45632
1,Bonito de Minas/MG,-15.3191266,-44.7544,70,615.70939
1,Bonito de Santa Fé/PB,-7.3143332,-38.5146677,452,3759.77375
D1,Bonito de Santa Fé/PB,-7.3143332,-38.5146677,11,91.49892
1,Bonito/BA,-11.9665473,-41.2649896,857,5075.81142
D1,Bonito/BA,-11.9665473,-41.2649896,12,71.07321
1,Bonito/MS,-21.1264766,-56.4902208,2927,13190.62641
D1,Bonito/MS,-21.1264766,-56.4902208,62,279.40514
1,Bonito/PA,-1.3605722,-47.3049907,383,2316.99940
D1,Bonito/PA,-1.3605722,-47.3049907,13,78.64489
1,Bonito/PE,-8.4721161,-35.7314591,931,2442.47973
D1,Bonito/PE,-8.4721161,-35.7314591,40,104.94005
1,Bonópolis/GO,-13.649331,-49.8329113,165,3672.37926
D1,Bonópolis/GO,-13.649331,-49.8329113,1,22.25684
1,Boqueirão do Leão/RS,-29.30332,-52.4296817,567,7361.72423
D1,Boqueirão do Leão/RS,-29.30332,-52.4296817,31,402.49286
1,Boqueirão do Piauí/PI,-4.4850148,-42.1095161,665,10348.58388
D1,Boqueirão do Piauí/PI,-4.4850148,-42.1095161,10,155.61780
1,Boqueirão/PB,-7.487004,-36.130887,1785,9988.80806
D1,Boqueirão/PB,-7.487004,-36.130887,36,201.45495
1,Boquim/SE,-11.1450175,-37.6204228,2554,9494.77676
D1,Boquim/SE,-11.1450175,-37.6204228,63,234.20945
1,Boquira/BA,-12.8184859,-42.7270883,615,2860.86431
D1,Boquira/BA,-12.8184859,-42.7270883,12,55.82174
1,Boracéia/SP,-22.195355,-48.7801925,886,18200.49302
D1,Boracéia/SP,-22.195355,-48.7801925,22,451.93098
1,Borba/AM,-4.3934778,-59.5947721,2180,5221.80703
D1,Borba/AM,-4.3934778,-59.5947721,63,150.90543
1,Borborema/PB,-6.8066718,-35.5990191,384,7263.09817
D1,Borborema/PB,-6.8066718,-35.5990191,13,245.88614
1,Borborema/SP,-21.6212706,-49.074135,1506,9317.00074
D1,Borborema/SP,-21.6212706,-49.074135,46,284.58302
1,Borda da Mata/MG,-22.274167,-46.165278,1507,7683.28745
D1,Borda da Mata/MG,-22.274167,-46.165278,43,219.23116
1,Borebi/SP,-22.5700178,-48.9714871,237,8833.39545
D1,Borebi/SP,-22.5700178,-48.9714871,3,111.81513
1,Borrazópolis/PR,-23.9393362,-51.5850786,799,12408.75912
D1,Borrazópolis/PR,-23.9393362,-51.5850786,22,341.66796
1,Borá/SP,-22.2701088,-50.544407,110,13126.49165
D1,Borá/SP,-22.2701088,-50.544407,1,119.33174
1,Bossoroca/RS,-28.7278885,-54.9120278,391,6301.36986
D1,Bossoroca/RS,-28.7278885,-54.9120278,22,354.55278
1,Botelhos/MG,-21.65,-46.394722,1632,10917.11820
D1,Botelhos/MG,-21.65,-46.394722,21,140.47762
1,Botucatu/SP,-22.8879628,-48.4410712,13330,8998.85236
D1,Botucatu/SP,-22.8879628,-48.4410712,262,176.87167
1,Botumirim/MG,-16.862778,-43.011111,228,3625.95420
D1,Botumirim/MG,-16.862778,-43.011111,4,63.61323
1,Botuporã/BA,-13.3744752,-42.5198469,208,2053.50972
D1,Botuporã/BA,-13.3744752,-42.5198469,3,29.61793
1,Botuverá/SC,-27.200749,-49.068892,889,16704.24652
D1,Botuverá/SC,-27.200749,-49.068892,8,150.31943
1,Bozano/RS,-28.3669953,-53.7705165,242,11463.76125
D1,Bozano/RS,-28.3669953,-53.7705165,7,331.59640
1,Braga/RS,-27.617348,-53.740514,338,10208.39625
D1,Braga/RS,-27.617348,-53.740514,9,271.82120
1,Braganey/PR,-24.8179919,-53.118506,448,8324.04311
D1,Braganey/PR,-24.8179919,-53.118506,7,130.06317
1,Bragança Paulista/SP,-22.9520235,-46.5418586,16455,9649.15881
D1,Bragança Paulista/SP,-22.9520235,-46.5418586,449,263.29215
1,Bragança/PA,-1.0573967,-46.7635406,4048,3140.07788
D1,Bragança/PA,-1.0573967,-46.7635406,142,110.15095
1,Branquinha/AL,-9.2478057,-36.0152009,519,4961.75908
D1,Branquinha/AL,-9.2478057,-36.0152009,9,86.04207
1,Brasil Novo/PA,-3.3055853,-52.539198,1858,12400.72082
D1,Brasil Novo/PA,-3.3055853,-52.539198,42,280.31769
1,Brasileira/PI,-4.131182,-41.7824969,587,7032.46675
D1,Brasileira/PI,-4.131182,-41.7824969,15,179.70528
1,Brasilândia de Minas/MG,-17.0096469,-46.0087183,1202,7176.97636
D1,Brasilândia de Minas/MG,-17.0096469,-46.0087183,18,107.47552
1,Brasilândia do Sul/PR,-24.1975793,-53.527551,382,14777.56286
D1,Brasilândia do Sul/PR,-24.1975793,-53.527551,9,348.16248
1,Brasilândia do Tocantins/TO,-8.3886619,-48.4842729,240,10854.81682
D1,Brasilândia do Tocantins/TO,-8.3886619,-48.4842729,5,226.14202
1,Brasilândia/MS,-21.255575,-52.0365617,1139,9609.38159
D1,Brasilândia/MS,-21.255575,-52.0365617,19,160.29697
1,Brasiléia/AC,-11.0010413,-68.7487894,2846,10658.37765
D1,Brasiléia/AC,-11.0010413,-68.7487894,38,142.31144
1,Brasnorte/MT,-12.1227151,-58.0050109,1941,9637.53724
D1,Brasnorte/MT,-12.1227151,-58.0050109,33,163.85303
1,Brasília de Minas/MG,-16.2075114,-44.430559,1042,3215.55316
D1,Brasília de Minas/MG,-16.2075114,-44.430559,8,24.68755
1,Brasília/DF,-15.7934036,-47.8823172,424523,13895.32884
D1,Brasília/DF,-15.7934036,-47.8823172,9129,298.80703
1,Brazabrantes/GO,-16.4291635,-49.3858216,455,12146.28938
D1,Brazabrantes/GO,-16.4291635,-49.3858216,3,80.08542
1,Brazópolis/MG,-22.4742842,-45.6165577,791,5489.24358
D1,Brazópolis/MG,-22.4742842,-45.6165577,29,201.24913
1,Braço do Norte/SC,-28.2728633,-49.1622712,8122,23975.67599
D1,Braço do Norte/SC,-28.2728633,-49.1622712,97,286.33841
1,Braço do Trombudo/SC,-27.358578,-49.882145,619,16423.45450
D1,Braço do Trombudo/SC,-27.358578,-49.882145,5,132.66118
1,Braúna/SP,-21.5015319,-50.3175246,522,9092.49260
D1,Braúna/SP,-21.5015319,-50.3175246,20,348.37136
1,Braúnas/MG,-19.055556,-42.716111,222,4655.06395
D1,Braúnas/MG,-19.055556,-42.716111,7,146.78130
1,Brejetuba/ES,-20.1465817,-41.2902303,1614,12987.84904
D1,Brejetuba/ES,-20.1465817,-41.2902303,14,112.65792
1,Brejinho de Nazaré/TO,-11.0205883,-48.5722906,554,10038.05037
D1,Brejinho de Nazaré/TO,-11.0205883,-48.5722906,14,253.66914
1,Brejinho/PE,-7.3482153,-37.28538,648,8653.84615
D1,Brejinho/PE,-7.3482153,-37.28538,20,267.09402
1,Brejinho/RN,-6.1957907,-35.3583019,1245,9736.45108
D1,Brejinho/RN,-6.1957907,-35.3583019,15,117.30664
1,Brejo Alegre/SP,-21.1671191,-50.1850393,350,12114.91866
D1,Brejo Alegre/SP,-21.1671191,-50.1850393,13,449.98269
1,Brejo Grande do Araguaia/PA,-5.7011449,-48.4037308,804,10912.05212
D1,Brejo Grande do Araguaia/PA,-5.7011449,-48.4037308,4,54.28882
1,Brejo Grande/SE,-10.4287358,-36.4667918,447,5351.37076
D1,Brejo Grande/SE,-10.4287358,-36.4667918,12,143.66096
1,Brejo Santo/CE,-7.4909841,-38.9859152,8155,16361.70298
D1,Brejo Santo/CE,-7.4909841,-38.9859152,152,304.96369
1,Brejo da Madre de Deus/PE,-8.1409718,-36.3712527,2029,3960.95656
D1,Brejo da Madre de Deus/PE,-8.1409718,-36.3712527,49,95.65642
1,Brejo de Areia/MA,-4.3316785,-45.5833334,306,3394.71933
D1,Brejo de Areia/MA,-4.3316785,-45.5833334,10,110.93854
1,Brejo do Cruz/PB,-6.32926065,-37.48746163303929,1620,11403.63227
D1,Brejo do Cruz/PB,-6.32926065,-37.48746163303929,21,147.82486
1,Brejo do Piauí/PI,-8.207583,-42.8359849,122,3170.47817
D1,Brejo do Piauí/PI,-8.207583,-42.8359849,4,103.95010
1,Brejo dos Santos/PB,-6.3769367,-37.8243125,664,10272.27723
D1,Brejo dos Santos/PB,-6.3769367,-37.8243125,7,108.29208
1,Brejo/MA,-3.6804397,-42.7529313,893,2436.49559
D1,Brejo/MA,-3.6804397,-42.7529313,20,54.56877
1,Brejolândia/BA,-12.4843845,-43.9611861,142,1337.35167
D1,Brejolândia/BA,-12.4843845,-43.9611861,11,103.59766
1,Brejão/PE,-9.029146,-36.566034,466,5185.26761
D1,Brejão/PE,-9.029146,-36.566034,9,100.14465
1,Brejões/BA,-13.1033754,-39.7909837,742,5217.26902
D1,Brejões/BA,-13.1033754,-39.7909837,10,70.31360
1,Breu Branco/PA,-3.7785073,-49.5684795,763,1133.19076
D1,Breu Branco/PA,-3.7785073,-49.5684795,44,65.34783
1,Breves/PA,-1.68036,-50.479085,4023,3887.06919
D1,Breves/PA,-1.68036,-50.479085,117,113.04675
1,Britânia/GO,-15.2427599,-51.1602061,533,9194.41090
D1,Britânia/GO,-15.2427599,-51.1602061,5,86.25151
1,Brochier/RS,-29.556766,-51.5963047,408,7993.73041
D1,Brochier/RS,-29.556766,-51.5963047,5,97.96238
1,Brodowski/SP,-20.984532,-47.657217,2585,10226.68829
D1,Brodowski/SP,-20.984532,-47.657217,60,237.36994
1,Brotas de Macaúbas/BA,-12.0019007,-42.6257506,139,1372.16190
D1,Brotas de Macaúbas/BA,-12.0019007,-42.6257506,3,29.61500
1,Brotas/SP,-22.2840884,-48.1267265,1012,4107.80971
D1,Brotas/SP,-22.2840884,-48.1267265,44,178.60042
1,Brumadinho/MG,-20.143611,-44.2,3485,8569.81262
D1,Brumadinho/MG,-20.143611,-44.2,75,184.42925
1,Brumado/BA,-14.29507325,-41.659307508575985,8965,13314.02688
D1,Brumado/BA,-14.29507325,-41.659307508575985,182,270.29034
1,Brunópolis/SC,-27.310953,-50.837585,263,11106.41892
D1,Brunópolis/SC,-27.310953,-50.837585,8,337.83784
1,Brusque/SC,-27.0964628,-48.9136323,26590,19311.63710
D1,Brusque/SC,-27.0964628,-48.9136323,273,198.27292
1,Brás Pires/MG,-20.8483109,-43.2430524,214,4984.85907
D1,Brás Pires/MG,-20.8483109,-43.2430524,7,163.05614
1,Bueno Brandão/MG,-22.441976,-46.3517971,798,7260.48585
D1,Bueno Brandão/MG,-22.441976,-46.3517971,25,227.45883
1,Buenos Aires/PE,-7.7218931,-35.326587,339,2570.12889
D1,Buenos Aires/PE,-7.7218931,-35.326587,21,159.21152
1,Buenópolis/MG,-17.8756607,-44.1749365,305,2946.00599
D1,Buenópolis/MG,-17.8756607,-44.1749365,11,106.24940
1,Buerarema/BA,-14.9571177,-39.3008035,1311,7161.58637
D1,Buerarema/BA,-14.9571177,-39.3008035,40,218.50759
1,Bugre/MG,-19.4257687,-42.2556,364,9138.84007
D1,Bugre/MG,-19.4257687,-42.2556,12,301.28044
1,Bujari/AC,-9.8309656,-67.9520886,1133,10873.32054
D1,Bujari/AC,-9.8309656,-67.9520886,17,163.14779
1,Bujaru/PA,-1.5169239,-48.0410699,1413,4801.71271
D1,Bujaru/PA,-1.5169239,-48.0410699,38,129.13311
1,Buri/SP,-23.79849,-48.598924,2346,11750.56349
D1,Buri/SP,-23.79849,-48.598924,76,380.66617
1,Buritama/SP,-21.0664017,-50.1448077,2240,12962.21283
D1,Buritama/SP,-21.0664017,-50.1448077,62,358.77553
1,Buriti Alegre/GO,-18.1377879,-49.0404411,949,10006.32644
D1,Buriti Alegre/GO,-18.1377879,-49.0404411,30,316.32223
1,Buriti Bravo/MA,-5.8391884,-43.8367876,1416,5915.03404
D1,Buriti Bravo/MA,-5.8391884,-43.8367876,15,62.65926
1,Buriti de Goiás/GO,-16.180644,-50.4287479,217,8764.13570
D1,Buriti de Goiás/GO,-16.180644,-50.4287479,8,323.10178
1,Buriti do Tocantins/TO,-5.3187439,-48.2256609,898,7810.73323
D1,Buriti do Tocantins/TO,-5.3187439,-48.2256609,16,139.16674
1,Buriti dos Lopes/PI,-3.1776723,-41.8707444,1277,6447.21563
D1,Buriti dos Lopes/PI,-3.1776723,-41.8707444,32,161.55904
1,Buriti dos Montes/PI,-5.3136171,-41.0971256,621,7514.52081
D1,Buriti dos Montes/PI,-5.3136171,-41.0971256,8,96.80542
1,Buriti/MA,-3.9430944,-42.9244281,752,2611.29245
D1,Buriti/MA,-3.9430944,-42.9244281,8,27.77971
1,Buriticupu/MA,-4.3227472,-46.4516989,3336,4570.92748
D1,Buriticupu/MA,-4.3227472,-46.4516989,49,67.13892
1,Buritinópolis/GO,-14.4589282,-46.4293104,170,5178.19068
D1,Buritinópolis/GO,-14.4589282,-46.4293104,3,91.37984
1,Buritirama/BA,-10.7148421,-43.6362327,844,3966.91107
D1,Buritirama/BA,-10.7148421,-43.6362327,22,103.40290
1,Buritirana/MA,-5.5897455,-47.0148915,441,2851.23165
D1,Buritirana/MA,-5.5897455,-47.0148915,24,155.16907
1,Buritis/MG,-15.621389,-46.423889,1688,6748.49078
D1,Buritis/MG,-15.621389,-46.423889,34,135.92932
1,Buritis/RO,-10.2054937,-63.8281954,4613,11430.76618
D1,Buritis/RO,-10.2054937,-63.8281954,74,183.36802
1,Buritizal/SP,-20.1933264,-47.7097165,274,6070.00443
D1,Buritizal/SP,-20.1933264,-47.7097165,10,221.53301
1,Buritizeiro/MG,-17.3667765,-44.9647781,1275,4533.97817
D1,Buritizeiro/MG,-17.3667765,-44.9647781,31,110.23790
1,Butiá/RS,-30.1256795,-51.9692224,2026,9669.72127
D1,Butiá/RS,-30.1256795,-51.9692224,54,257.73196
1,Buíque/PE,-8.6239732,-37.157296,2275,3861.23322
D1,Buíque/PE,-8.6239732,-37.157296,42,71.28431
1,Bálsamo/SP,-20.7343722,-49.5807484,1557,17036.87493
D1,Bálsamo/SP,-20.7343722,-49.5807484,60,656.52697
0,CASO SEM LOCALIZAÇÃO DEFINIDA/BA,-13.415069300066518,-38.14174656569957,14972,100.66520
D0,CASO SEM LOCALIZAÇÃO DEFINIDA/BA,-13.415069300066518,-38.14174656569957,361,2.42721
0,CASO SEM LOCALIZAÇÃO DEFINIDA/CE,-3.3445126297392798,-38.624961942434304,13353,146.22083
D0,CASO SEM LOCALIZAÇÃO DEFINIDA/CE,-3.3445126297392798,-38.624961942434304,83,0.90888
0,CASO SEM LOCALIZAÇÃO DEFINIDA/ES,-20.30989267097039,-39.81745156645774,4113,102.34780
D0,CASO SEM LOCALIZAÇÃO DEFINIDA/ES,-20.30989267097039,-39.81745156645774,207,5.15098
0,CASO SEM LOCALIZAÇÃO DEFINIDA/GO,-16.701590966270153,-49.164524059025034,3229,46.00794
D0,CASO SEM LOCALIZAÇÃO DEFINIDA/GO,-16.701590966270153,-49.164524059025034,114,1.62431
0,CASO SEM LOCALIZAÇÃO DEFINIDA/MG,-19.97049116501593,-43.8852149072783,14607,69.00252
D0,CASO SEM LOCALIZAÇÃO DEFINIDA/MG,-19.97049116501593,-43.8852149072783,721,3.40596
0,CASO SEM LOCALIZAÇÃO DEFINIDA/MS,-20.391549234908513,-54.645156949758444,1711,61.56922
D0,CASO SEM LOCALIZAÇÃO DEFINIDA/MS,-20.391549234908513,-54.645156949758444,51,1.83520
0,CASO SEM LOCALIZAÇÃO DEFINIDA/MT,-15.54791153961863,-56.17143998972475,2603,74.70298
D0,CASO SEM LOCALIZAÇÃO DEFINIDA/MT,-15.54791153961863,-56.17143998972475,200,5.73976
0,CASO SEM LOCALIZAÇÃO DEFINIDA/PA,-0.09317078214359542,-48.0050231510481,1896,22.03917
D0,CASO SEM LOCALIZAÇÃO DEFINIDA/PA,-0.09317078214359542,-48.0050231510481,52,0.60445
0,CASO SEM LOCALIZAÇÃO DEFINIDA/PR,-25.69415946385943,-48.10141676336737,6553,57.31174
D0,CASO SEM LOCALIZAÇÃO DEFINIDA/PR,-25.69415946385943,-48.10141676336737,169,1.47805
0,CASO SEM LOCALIZAÇÃO DEFINIDA/RR,2.813328208465927,-60.663338675861986,2658,438.78691
D0,CASO SEM LOCALIZAÇÃO DEFINIDA/RR,2.813328208465927,-60.663338675861986,18,2.97147
0,CASO SEM LOCALIZAÇÃO DEFINIDA/RS,-30.50647488532064,-49.906261466443524,4587,40.31734
D0,CASO SEM LOCALIZAÇÃO DEFINIDA/RS,-30.50647488532064,-49.906261466443524,144,1.26568
0,CASO SEM LOCALIZAÇÃO DEFINIDA/SP,-24.30968974555485,-46.21366504207253,20421,44.47174
D0,CASO SEM LOCALIZAÇÃO DEFINIDA/SP,-24.30968974555485,-46.21366504207253,724,1.57669
0,CASO SEM LOCALIZAÇÃO DEFINIDA/TO,-10.213012114749148,-48.40023803990334,710,45.14053
D0,CASO SEM LOCALIZAÇÃO DEFINIDA/TO,-10.213012114749148,-48.40023803990334,15,0.95367
1,Caapiranga/AM,-3.3188884,-61.2096404,658,4953.70022
D1,Caapiranga/AM,-3.3188884,-61.2096404,22,165.62524
1,Caaporã/PB,-7.510234,-34.9154114,1867,8503.75769
D1,Caaporã/PB,-7.510234,-34.9154114,32,145.75268
1,Caarapó/MS,-22.6349267,-54.8240903,3948,12904.91289
D1,Caarapó/MS,-22.6349267,-54.8240903,50,163.43608
1,Caatiba/BA,-14.9782759,-40.4092325,880,13563.50185
D1,Caatiba/BA,-14.9782759,-40.4092325,12,184.95684
1,Cabaceiras do Paraguaçu/BA,-12.5377868,-39.1901339,563,2977.10327
D1,Cabaceiras do Paraguaçu/BA,-12.5377868,-39.1901339,4,21.15171
1,Cabaceiras/PB,-7.4899156,-36.2860501,369,6518.28299
D1,Cabaceiras/PB,-7.4899156,-36.2860501,3,52.99417
1,Cabeceira Grande/MG,-16.0297,-47.0906,393,5623.92673
D1,Cabeceira Grande/MG,-16.0297,-47.0906,5,71.55123
1,Cabeceiras do Piauí/PI,-4.4733665,-42.3098716,546,5136.40640
D1,Cabeceiras do Piauí/PI,-4.4733665,-42.3098716,10,94.07338
1,Cabeceiras/GO,-15.7995459,-46.9264991,352,4374.84464
D1,Cabeceiras/GO,-15.7995459,-46.9264991,16,198.85657
1,Cabedelo/PB,-6.97324,-34.8351609,8675,12615.06246
D1,Cabedelo/PB,-6.97324,-34.8351609,190,276.29532
1,Cabixi/RO,-13.4956065,-60.5424442,809,15593.67772
D1,Cabixi/RO,-13.4956065,-60.5424442,20,385.50501
1,Cabo Frio/RJ,-22.8804369,-42.0189227,12824,5566.50375
D1,Cabo Frio/RJ,-22.8804369,-42.0189227,673,292.12859
1,Cabo Verde/MG,-21.4743338,-46.3964995,628,4461.81172
D1,Cabo Verde/MG,-21.4743338,-46.3964995,9,63.94316
1,Cabo de Santo Agostinho/PE,-8.2838945,-35.0320984,7793,3729.70748
D1,Cabo de Santo Agostinho/PE,-8.2838945,-35.0320984,472,225.89785
1,Cabreúva/SP,-23.3075813,-47.1324417,3498,6936.48496
D1,Cabreúva/SP,-23.3075813,-47.1324417,86,170.53679
1,Cabrobó/PE,-8.5083701,-39.3106961,2206,6393.64693
D1,Cabrobó/PE,-8.5083701,-39.3106961,27,78.25406
1,Cabrália Paulista/SP,-22.4562909,-49.3385645,389,9168.04148
D1,Cabrália Paulista/SP,-22.4562909,-49.3385645,6,141.40938
1,Cacaulândia/RO,-10.3380043,-62.9007231,809,12904.76950
D1,Cacaulândia/RO,-10.3380043,-62.9007231,10,159.51507
1,Cacequi/RS,-29.8838059,-54.8273443,458,3686.71013
D1,Cacequi/RS,-29.8838059,-54.8273443,7,56.34710
1,Cachoeira Alta/GO,-18.7618269,-50.9432431,1476,11653.24491
D1,Cachoeira Alta/GO,-18.7618269,-50.9432431,20,157.90305
1,Cachoeira Dourada/GO,-18.4934204,-49.481062,499,6213.42299
D1,Cachoeira Dourada/GO,-18.4934204,-49.481062,26,323.74549
1,Cachoeira Dourada/MG,-18.517136,-49.5002062,145,5358.46268
D1,Cachoeira Dourada/MG,-18.517136,-49.5002062,2,73.90983
1,Cachoeira Grande/MA,-2.9290492,-44.0573223,294,3101.92024
D1,Cachoeira Grande/MA,-2.9290492,-44.0573223,7,73.85524
1,Cachoeira Paulista/SP,-22.666498,-45.015384,2353,7006.93845
D1,Cachoeira Paulista/SP,-22.666498,-45.015384,36,107.20348
1,Cachoeira da Prata/MG,-19.524723,-44.453056,226,6293.51156
D1,Cachoeira da Prata/MG,-19.524723,-44.453056,11,306.32136
1,Cachoeira de Goiás/GO,-16.6688414,-50.6435997,77,5737.70492
D1,Cachoeira de Goiás/GO,-16.6688414,-50.6435997,2,149.03130
1,Cachoeira de Minas/MG,-22.3554043,-45.7796324,673,5812.24631
D1,Cachoeira de Minas/MG,-22.3554043,-45.7796324,9,77.72692
1,Cachoeira de Pajeú/MG,-15.965833,-41.496666,496,5253.12434
D1,Cachoeira de Pajeú/MG,-15.965833,-41.496666,10,105.90976
1,Cachoeira do Arari/PA,-1.0143572,-48.9621089,493,2048.70346
D1,Cachoeira do Arari/PA,-1.0143572,-48.9621089,23,95.57846
1,Cachoeira do Piriá/PA,-1.7599443,-46.5446954,882,2548.47005
D1,Cachoeira do Piriá/PA,-1.7599443,-46.5446954,5,14.44711
1,Cachoeira do Sul/RS,-30.0474778,-52.8905413,9792,11960.57116
D1,Cachoeira do Sul/RS,-30.0474778,-52.8905413,153,186.88392
1,Cachoeira dos Índios/PB,-6.9259193,-38.6742159,807,7831.14993
D1,Cachoeira dos Índios/PB,-6.9259193,-38.6742159,14,135.85638
1,Cachoeira/BA,-12.5998256,-38.9665918,1558,4641.46334
D1,Cachoeira/BA,-12.5998256,-38.9665918,26,77.45703
1,Cachoeiras de Macacu/RJ,-22.4626861,-42.6534414,2832,4775.47510
D1,Cachoeiras de Macacu/RJ,-22.4626861,-42.6534414,92,155.13549
1,Cachoeirinha/PE,-8.4906364,-36.2338963,599,2921.80869
D1,Cachoeirinha/PE,-8.4906364,-36.2338963,29,141.45651
1,Cachoeirinha/RS,-29.9493353,-51.0898927,13927,10611.85614
D1,Cachoeirinha/RS,-29.9493353,-51.0898927,407,310.11887
1,Cachoeirinha/TO,-6.118647,-47.9208885,117,5122.59194
D1,Cachoeirinha/TO,-6.118647,-47.9208885,2,87.56567
1,Cachoeiro de Itapemirim/ES,-20.848084,-41.11129,26034,12362.46907
D1,Cachoeiro de Itapemirim/ES,-20.848084,-41.11129,554,263.07167
1,Cacimba de Areia/PB,-7.1288513,-37.1575194,52,1407.30717
D1,Cacimba de Areia/PB,-7.1288513,-37.1575194,4,108.25440
1,Cacimba de Dentro/PB,-6.6425101,-35.7929304,1138,6624.75259
D1,Cacimba de Dentro/PB,-6.6425101,-35.7929304,33,192.10618
1,Cacimbas/PB,-7.2125451,-37.0593398,227,3153.21572
D1,Cacimbas/PB,-7.2125451,-37.0593398,7,97.23573
1,Cacimbinhas/AL,-9.401212,-36.991082,713,6547.89237
D1,Cacimbinhas/AL,-9.401212,-36.991082,9,82.65222
1,Cacique Doble/RS,-27.7700117,-51.6616409,529,10425.69965
D1,Cacique Doble/RS,-27.7700117,-51.6616409,10,197.08317
1,Cacoal/RO,-11.4333,-61.4420502,13339,15529.78706
D1,Cacoal/RO,-11.4333,-61.4420502,274,319.00155
1,Caconde/SP,-21.527995,-46.643659,1260,6628.43916
D1,Caconde/SP,-21.527995,-46.643659,31,163.08065
1,Caculé/BA,-14.4990734,-42.2233006,1728,7419.17479
D1,Caculé/BA,-14.4990734,-42.2233006,12,51.52205
1,Caetanos/BA,-14.3387456,-40.9085971,660,4518.07229
D1,Caetanos/BA,-14.3387456,-40.9085971,10,68.45564
1,Caetanópolis/MG,-19.2947496,-44.4138386,898,7643.20368
D1,Caetanópolis/MG,-19.2947496,-44.4138386,15,127.67044
1,Caetité/BA,-14.0691776,-42.4852428,2539,4970.53699
D1,Caetité/BA,-14.0691776,-42.4852428,27,52.85723
1,Caeté/MG,-19.897777,-43.670278,1914,4248.89560
D1,Caeté/MG,-19.897777,-43.670278,56,124.31460
1,Caetés/PE,-8.7728788,-36.6255835,1546,5348.74066
D1,Caetés/PE,-8.7728788,-36.6255835,20,69.19458
1,Cafarnaum/BA,-11.691399,-41.468823,872,4710.20364
D1,Cafarnaum/BA,-11.691399,-41.468823,21,113.43380
1,Cafeara/PR,-22.78905,-51.714195,343,11611.37441
D1,Cafeara/PR,-22.78905,-51.714195,11,372.37644
1,Cafelândia/PR,-24.6176963,-53.3218057,2158,11692.67447
D1,Cafelândia/PR,-24.6176963,-53.3218057,18,97.52926
1,Cafelândia/SP,-21.8054355,-49.6030627,712,3990.36037
D1,Cafelândia/SP,-21.8054355,-49.6030627,32,179.34204
1,Cafezal do Sul/PR,-23.900508,-53.512418,405,10102.26989
D1,Cafezal do Sul/PR,-23.900508,-53.512418,4,99.77551
1,Caiabu/SP,-22.0143038,-51.2356597,205,4889.10088
D1,Caiabu/SP,-22.0143038,-51.2356597,7,166.94491
1,Caiana/MG,-20.695555,-41.924723,139,2508.57246
D1,Caiana/MG,-20.695555,-41.924723,7,126.33099
1,Caiapônia/GO,-16.9538779,-51.8090761,1138,5955.93238
D1,Caiapônia/GO,-16.9538779,-51.8090761,34,177.94526
1,Caibaté/RS,-28.290475,-54.645407,261,5411.56956
D1,Caibaté/RS,-28.290475,-54.645407,7,145.13788
1,Caibi/SC,-27.0751925,-53.2502133,614,10016.31321
D1,Caibi/SC,-27.0751925,-53.2502133,12,195.75856
1,Caicó/RN,-6.4594544,-37.0971911,10618,15536.33876
D1,Caicó/RN,-6.4594544,-37.0971911,131,191.68020
1,Caieiras/SP,-23.3644621,-46.7484765,7826,7614.69229
D1,Caieiras/SP,-23.3644621,-46.7484765,279,271.46680
1,Cairu/BA,-13.4860505,-39.0455744,1306,7087.42606
D1,Cairu/BA,-13.4860505,-39.0455744,14,75.97547
1,Caiuá/SP,-21.8319357,-51.9887179,329,5533.13152
D1,Caiuá/SP,-21.8319357,-51.9887179,6,100.90817
1,Caiçara do Norte/RN,-5.0645017,-36.0561226,407,6203.32266
D1,Caiçara do Norte/RN,-5.0645017,-36.0561226,10,152.41579
1,Caiçara do Rio do Vento/RN,-5.757968,-36.00089,267,7187.07941
D1,Caiçara do Rio do Vento/RN,-5.757968,-36.00089,8,215.34320
1,Caiçara/PB,-6.6146866,-35.4681434,747,10387.98498
D1,Caiçara/PB,-6.6146866,-35.4681434,14,194.68780
1,Caiçara/RS,-27.2750478,-53.4310053,570,12127.65957
D1,Caiçara/RS,-27.2750478,-53.4310053,8,170.21277
1,Cajamar/SP,-23.3561111,-46.8769444,4351,5582.92915
D1,Cajamar/SP,-23.3561111,-46.8769444,215,275.87446
1,Cajapió/MA,-2.8778715,-44.6746871,118,1052.06847
D1,Cajapió/MA,-2.8778715,-44.6746871,5,44.57917
1,Cajari/MA,-3.3213076,-45.0118757,232,1192.74073
D1,Cajari/MA,-3.3213076,-45.0118757,8,41.12899
1,Cajati/SP,-24.7272376,-48.1077914,3177,11149.71573
D1,Cajati/SP,-24.7272376,-48.1077914,90,315.85597
1,Cajazeiras do Piauí/PI,-6.794271,-42.3935024,62,1735.23650
D1,Cajazeiras do Piauí/PI,-6.794271,-42.3935024,1,27.98769
1,Cajazeiras/PB,-6.8897849,-38.5570389,8817,14154.98724
D1,Cajazeiras/PB,-6.8897849,-38.5570389,138,221.54795
1,Cajazeirinhas/PB,-6.961442,-37.7993733,167,5210.60842
D1,Cajazeirinhas/PB,-6.961442,-37.7993733,1,31.20125
1,Cajobi/SP,-20.8776238,-48.8106972,914,8625.89656
D1,Cajobi/SP,-20.8776238,-48.8106972,28,264.25066
1,Cajueiro da Praia/PI,-2.931114,-41.340801,475,6189.73156
D1,Cajueiro da Praia/PI,-2.931114,-41.340801,20,260.62028
1,Cajueiro/AL,-9.399589,-36.1524309,571,2676.85528
D1,Cajueiro/AL,-9.399589,-36.1524309,25,117.20032
1,Cajuri/MG,-20.7901414,-42.7954489,384,9662.80825
D1,Cajuri/MG,-20.7901414,-42.7954489,2,50.32713
1,Cajuru/SP,-21.2759978,-47.3046035,1048,3970.74982
D1,Cajuru/SP,-21.2759978,-47.3046035,36,136.39980
1,Caldas Brandão/PB,-7.1027959,-35.3254676,549,9080.38372
D1,Caldas Brandão/PB,-7.1027959,-35.3254676,8,132.31889
1,Caldas Novas/GO,-17.745,-48.625,8447,9063.69372
D1,Caldas Novas/GO,-17.745,-48.625,206,221.03953
1,Caldas/MG,-21.923611,-46.386111,841,5783.64624
D1,Caldas/MG,-21.923611,-46.386111,29,199.43608
1,Caldazinha/GO,-16.7116649,-49.0012601,297,7718.29522
D1,Caldazinha/GO,-16.7116649,-49.0012601,6,155.92516
1,Caldeirão Grande do Piauí/PI,-7.3310393,-40.6374433,399,6901.92008
D1,Caldeirão Grande do Piauí/PI,-7.3310393,-40.6374433,2,34.59609
1,Caldeirão Grande/BA,-11.0208483,-40.3041387,565,4219.25174
D1,Caldeirão Grande/BA,-11.0208483,-40.3041387,6,44.80621
1,Califórnia/PR,-23.6672543,-51.3554556,1179,13699.74436
D1,Califórnia/PR,-23.6672543,-51.3554556,28,325.35440
1,Calmon/SC,-26.6023644,-51.0992893,35,1049.47526
D1,Calmon/SC,-26.6023644,-51.0992893,4,119.94003
1,Calumbi/PE,-7.9389746,-38.1516871,649,11292.84844
D1,Calumbi/PE,-7.9389746,-38.1516871,4,69.60153
1,Calçado/PE,-8.7413446,-36.3351787,475,4311.12725
D1,Calçado/PE,-8.7413446,-36.3351787,5,45.38029
1,Calçoene/AP,2.4981757,-50.9539503,1636,14470.19282
D1,Calçoene/AP,2.4981757,-50.9539503,10,88.44861
1,Camacan/BA,-15.4166631,-39.4930088,2871,8970.19309
D1,Camacan/BA,-15.4166631,-39.4930088,76,237.45548
1,Camacho/MG,-20.625556,-45.156667,107,3729.52248
D1,Camacho/MG,-20.625556,-45.156667,2,69.71070
1,Camalaú/PB,-7.885031,-36.824191,424,7030.34323
D1,Camalaú/PB,-7.885031,-36.824191,6,99.48599
1,Camamu/BA,-13.9438142,-39.1060917,2268,6410.03900
D1,Camamu/BA,-13.9438142,-39.1060917,51,144.14109
1,Camanducaia/MG,-22.755278,-46.144444,2960,13577.35884
D1,Camanducaia/MG,-22.755278,-46.144444,60,275.21673
1,Camapuã/MS,-19.5291747,-54.0434641,804,5871.61323
D1,Camapuã/MS,-19.5291747,-54.0434641,29,211.78704
1,Camaquã/RS,-30.8524752,-51.8075619,6731,10125.15419
D1,Camaquã/RS,-30.8524752,-51.8075619,133,200.06619
1,Camaragibe/PE,-8.0213832,-34.9810768,6681,4204.55761
D1,Camaragibe/PE,-8.0213832,-34.9810768,385,242.29227
1,Camargo/RS,-28.5865661,-52.2031474,415,15134.93800
D1,Camargo/RS,-28.5865661,-52.2031474,6,218.81838
1,Camaçari/BA,-12.6998188,-38.3260762,23256,7642.40787
D1,Camaçari/BA,-12.6998188,-38.3260762,588,193.22909
1,Cambará do Sul/RS,-29.0489517,-50.145412,294,4589.44739
D1,Cambará do Sul/RS,-29.0489517,-50.145412,10,156.10365
1,Cambará/PR,-23.042273,-50.075281,2584,10146.86248
D1,Cambará/PR,-23.042273,-50.075281,48,188.48661
1,Cambira/PR,-23.600265,-51.581045,901,11380.57345
D1,Cambira/PR,-23.600265,-51.581045,23,290.51408
1,Camboriú/SC,-27.0273601,-48.6535657,12184,14316.43264
D1,Camboriú/SC,-27.0273601,-48.6535657,153,179.77792
1,Cambuci/RJ,-21.5749919,-41.9107833,951,6129.94714
D1,Cambuci/RJ,-21.5749919,-41.9107833,33,212.71110
1,Cambuquira/MG,-21.853056,-45.2953619,687,5362.16047
D1,Cambuquira/MG,-21.853056,-45.2953619,19,148.29847
1,Cambuí/MG,-22.6122501,-46.0572137,3514,11786.40907
D1,Cambuí/MG,-22.6122501,-46.0572137,53,177.76883
1,Cambé/PR,-23.2782035,-51.2779583,10503,9784.70482
D1,Cambé/PR,-23.2782035,-51.2779583,228,212.40719
1,Cametá/PA,-2.242949,-49.497885,8691,6236.18725
D1,Cametá/PA,-2.242949,-49.497885,241,172.92845
1,Camocim de São Félix/PE,-8.3616757,-35.7638903,519,2746.03175
D1,Camocim de São Félix/PE,-8.3616757,-35.7638903,17,89.94709
1,Camocim/CE,-2.9009918,-40.8427389,5986,9366.73604
D1,Camocim/CE,-2.9009918,-40.8427389,157,245.66949
1,Campanha/MG,-21.8361108,-45.401986,1642,9795.96707
D1,Campanha/MG,-21.8361108,-45.401986,30,178.97626
1,Campanário/MG,-18.2398144,-41.7271768,216,5790.88472
D1,Campanário/MG,-18.2398144,-41.7271768,4,107.23861
