type,name,lat,lon,total,total_per_100k_inhabitants
1,Abadia de Goiás/GO,-16.7572644,-49.4412205,896,10002.23264
D1,Abadia de Goiás/GO,-16.7572644,-49.4412205,12,133.95847
1,Abadia dos Dourados/MG,-18.4911191,-47.4063589,248,3539.82301
D1,Abadia dos Dourados/MG,-18.4911191,-47.4063589,3,42.82044
1,Abadiânia/GO,-16.1940946,-48.7067767,228,1114.31504
D1,Abadiânia/GO,-16.1940946,-48.7067767,17,83.08489
1,Abaetetuba/PA,-1.721828,-48.878843,5756,3618.30526
D1,Abaetetuba/PA,-1.721828,-48.878843,126,79.20543
1,Abaeté/MG,-19.1566833,-45.4481213,479,2060.21505
D1,Abaeté/MG,-19.1566833,-45.4481213,8,34.40860
1,Abaiara/CE,-7.3607808,-39.0487878,227,1915.12697
D1,Abaiara/CE,-7.3607808,-39.0487878,4,33.74673
1,Abaré/BA,-8.7239913,-39.1139689,367,1803.70571
D1,Abaré/BA,-8.7239913,-39.1139689,1,4.91473
1,Abatiá/PR,-23.3052967,-50.3102532,271,3658.20734
D1,Abatiá/PR,-23.3052967,-50.3102532,3,40.49676
1,Abaíra/BA,-13.2503296,-41.6640342,206,2365.09759
D1,Abaíra/BA,-13.2503296,-41.6640342,6,68.88634
1,Abdon Batista/SC,-27.612419,-51.022992,192,7535.32182
D1,Abdon Batista/SC,-27.612419,-51.022992,1,39.24647
1,Abel Figueiredo/PA,-4.953001,-48.3958485,539,7200.10687
D1,Abel Figueiredo/PA,-4.953001,-48.3958485,5,66.79134
1,Abelardo Luz/SC,-26.5705893,-52.3280339,885,4927.61693
D1,Abelardo Luz/SC,-26.5705893,-52.3280339,22,122.49443
1,Abre Campo/MG,-20.2976097,-42.4764741,371,2759.59536
D1,Abre Campo/MG,-20.2976097,-42.4764741,5,37.19131
1,Abreu e Lima/PE,-7.900719,-34.898389,1586,1580.53136
D1,Abreu e Lima/PE,-7.900719,-34.898389,156,155.46210
1,Abreulândia/TO,-9.6221526,-49.1558343,145,5589.82267
D1,Abreulândia/TO,-9.6221526,-49.1558343,4,154.20200
1,Acaiaca/MG,-20.3621646,-43.1444162,113,2829.24387
D1,Acaiaca/MG,-20.3621646,-43.1444162,4,100.15023
1,Acajutiba/BA,-11.6609659,-38.0186381,332,2186.08020
D1,Acajutiba/BA,-11.6609659,-38.0186381,7,46.09205
1,Acarape/CE,-4.2237866,-38.7071663,2016,13407.82123
D1,Acarape/CE,-4.2237866,-38.7071663,14,93.10987
1,Acaraú/CE,-2.8869514,-40.1194713,3087,4891.92444
D1,Acaraú/CE,-2.8869514,-40.1194713,59,93.49645
1,Acari/RN,-6.4364689,-36.6394777,460,4136.31868
D1,Acari/RN,-6.4364689,-36.6394777,8,71.93598
1,Acará/PA,-1.961388,-48.1987043,939,1686.75564
D1,Acará/PA,-1.961388,-48.1987043,16,28.74131
1,Acauã/PI,-8.219542,-41.083059,144,2027.59786
D1,Acauã/PI,-8.219542,-41.083059,1,14.08054
1,Aceguá/RS,-31.8695131,-54.1615593,68,1375.96115
1,Acopiara/CE,-6.0936464,-39.4543204,1547,2839.52204
D1,Acopiara/CE,-6.0936464,-39.4543204,67,122.97865
1,Acorizal/MT,-15.2001544,-56.3668953,296,5549.30634
D1,Acorizal/MT,-15.2001544,-56.3668953,8,149.98125
1,Acrelândia/AC,-10.0759167,-67.0526898,841,5429.30923
D1,Acrelândia/AC,-10.0759167,-67.0526898,16,103.29245
1,Acreúna/GO,-17.3959899,-50.3749031,1268,5624.05748
D1,Acreúna/GO,-17.3959899,-50.3749031,30,133.06130
1,Adamantina/SP,-21.6866517,-51.0762975,1378,3924.69596
D1,Adamantina/SP,-21.6866517,-51.0762975,34,96.83575
1,Adelândia/GO,-16.4155077,-50.1665834,98,3895.07154
D1,Adelândia/GO,-16.4155077,-50.1665834,2,79.49126
1,Adolfo/SP,-21.2356597,-49.6441918,247,6949.91559
D1,Adolfo/SP,-21.2356597,-49.6441918,6,168.82386
1,Adrianópolis/PR,-24.6557863,-48.9912769,757,12924.70548
D1,Adrianópolis/PR,-24.6557863,-48.9912769,10,170.73587
1,Adustina/BA,-10.5358875,-38.114479,345,2014.48091
D1,Adustina/BA,-10.5358875,-38.114479,5,29.19538
1,Afogados da Ingazeira/PE,-7.750429,-37.6356375,2149,5745.37483
D1,Afogados da Ingazeira/PE,-7.750429,-37.6356375,28,74.85830
1,Afonso Bezerra/RN,-5.4745,-36.57625071327935,267,2420.89038
D1,Afonso Bezerra/RN,-5.4745,-36.57625071327935,11,99.73706
1,Afonso Cláudio/ES,-20.077841,-41.12606,2456,8064.35725
D1,Afonso Cláudio/ES,-20.077841,-41.12606,41,134.62486
1,Afonso Cunha/MA,-4.1326105,-43.3230026,152,2310.73275
D1,Afonso Cunha/MA,-4.1326105,-43.3230026,2,30.40438
1,Afrânio/PE,-8.5198919,-41.0070197,564,2847.04695
D1,Afrânio/PE,-8.5198919,-41.0070197,9,45.43160
1,Afuá/PA,-0.1535664,-50.3879223,2689,6796.06743
D1,Afuá/PA,-0.1535664,-50.3879223,11,27.80095
1,Agrestina/PE,-8.4558021,-35.9442663,781,3115.89866
D1,Agrestina/PE,-8.4558021,-35.9442663,34,135.64732
1,Agricolândia/PI,-5.7967843,-42.6605131,77,1500.68213
1,Agrolândia/SC,-27.4122212,-49.8295774,560,5084.89966
D1,Agrolândia/SC,-27.4122212,-49.8295774,6,54.48107
1,Agronômica/SC,-27.2660744,-49.7104753,279,5064.44001
D1,Agronômica/SC,-27.2660744,-49.7104753,7,127.06480
1,Aguanil/MG,-20.9424533,-45.3927152,252,5572.75542
D1,Aguanil/MG,-20.9424533,-45.3927152,7,154.79876
1,Aguaí/SP,-22.0592036,-46.979384,1043,2845.99432
D1,Aguaí/SP,-22.0592036,-46.979384,21,57.30190
1,Agudo/RS,-29.6423259,-53.2494005,541,3298.57935
D1,Agudo/RS,-29.6423259,-53.2494005,4,24.38876
1,Agudos do Sul/PR,-25.9890808,-49.3328175,282,2977.82471
D1,Agudos do Sul/PR,-25.9890808,-49.3328175,2,21.11932
1,Agudos/SP,-22.471162,-48.987822,1530,4090.79971
D1,Agudos/SP,-22.471162,-48.987822,25,66.84313
1,Aguiar/PB,-7.0928404,-38.1727215,129,2291.29663
D1,Aguiar/PB,-7.0928404,-38.1727215,1,17.76199
1,Aguiarnópolis/TO,-6.5600452,-47.4721189,484,7022.63494
D1,Aguiarnópolis/TO,-6.5600452,-47.4721189,10,145.09576
1,Aimorés/MG,-19.4917754,-41.0615603,1125,4474.76234
D1,Aimorés/MG,-19.4917754,-41.0615603,30,119.32700
1,Aiquara/BA,-14.126918,-39.8887574,378,8559.78261
D1,Aiquara/BA,-14.126918,-39.8887574,7,158.51449
1,Aiuaba/CE,-6.5710836,-40.1212278,155,886.06871
D1,Aiuaba/CE,-6.5710836,-40.1212278,2,11.43314
1,Aiuruoca/MG,-21.9759554,-44.6036637,74,1238.28648
D1,Aiuruoca/MG,-21.9759554,-44.6036637,5,83.66801
1,Ajuricaba/RS,-28.239654,-53.7693013,527,7542.57908
D1,Ajuricaba/RS,-28.239654,-53.7693013,5,71.56147
1,Alagoa Grande/PB,-7.0415212,-35.6285322,1941,6825.13450
D1,Alagoa Grande/PB,-7.0415212,-35.6285322,34,119.55413
1,Alagoa Nova/PB,-7.0653703,-35.76695977336711,587,2805.79322
D1,Alagoa Nova/PB,-7.0653703,-35.76695977336711,12,57.35863
1,Alagoa/MG,-22.1697202,-44.6400042,159,5966.22889
1,Alagoinha do Piauí/PI,-7.0090952,-40.939675,226,2948.46706
D1,Alagoinha do Piauí/PI,-7.0090952,-40.939675,9,117.41683
1,Alagoinha/PB,-6.97063215,-35.51490901897793,1222,8392.85714
D1,Alagoinha/PB,-6.97063215,-35.51490901897793,16,109.89011
1,Alagoinha/PE,-8.50355635,-36.77701174370496,436,2962.35902
D1,Alagoinha/PE,-8.50355635,-36.77701174370496,13,88.32722
1,Alagoinhas/BA,-12.133526,-38.420772,8595,5642.46654
D1,Alagoinhas/BA,-12.133526,-38.420772,133,87.31216
1,Alambari/SP,-23.550338,-47.897971,228,3720.01958
D1,Alambari/SP,-23.550338,-47.897971,6,97.89525
1,Albertina/MG,-20.66164,-43.784039,119,3952.17536
D1,Albertina/MG,-20.66164,-43.784039,5,166.05779
1,Alcantil/PB,-7.7425491,-36.0609604,155,2813.57778
D1,Alcantil/PB,-7.7425491,-36.0609604,2,36.30423
1,Alcinópolis/MS,-18.3264121,-53.7094463,77,1421.45099
D1,Alcinópolis/MS,-18.3264121,-53.7094463,2,36.92080
1,Alcobaça/BA,-17.5215875,-39.1965474,1023,4548.68831
D1,Alcobaça/BA,-17.5215875,-39.1965474,16,71.14273
1,Alcântara/MA,-2.4038956,-44.4154241,202,913.53111
D1,Alcântara/MA,-2.4038956,-44.4154241,8,36.17945
1,Alcântaras/CE,-3.586247,-40.5457641,745,6323.74162
D1,Alcântaras/CE,-3.586247,-40.5457641,5,42.44122
1,Aldeias Altas/MA,-4.6291957,-43.4708622,973,3636.43159
D1,Aldeias Altas/MA,-4.6291957,-43.4708622,11,41.11074
1,Alecrim/RS,-27.6566142,-54.7653195,87,1493.04960
D1,Alecrim/RS,-27.6566142,-54.7653195,2,34.32298
1,Alegre/ES,-20.7625787,-41.5318886,1254,4183.48624
D1,Alegre/ES,-20.7625787,-41.5318886,29,96.74729
1,Alegrete do Piauí/PI,-7.2440138,-40.8602296,362,7360.71574
D1,Alegrete do Piauí/PI,-7.2440138,-40.8602296,4,81.33388
1,Alegrete/RS,-29.790166,-55.794862,2891,3958.75555
D1,Alegrete/RS,-29.790166,-55.794862,62,84.89894
1,Alegria/RS,-27.8332103,-54.0574959,227,6727.91938
D1,Alegria/RS,-27.8332103,-54.0574959,1,29.63841
1,Alenquer/PA,-1.946229,-54.738355,1812,3173.82470
D1,Alenquer/PA,-1.946229,-54.738355,37,64.80768
1,Alexandria/RN,-6.414779,-38.0135516,825,6087.21316
D1,Alexandria/RN,-6.414779,-38.0135516,9,66.40596
1,Alexânia/GO,-16.0834049,-48.5077803,1659,5922.88468
D1,Alexânia/GO,-16.0834049,-48.5077803,27,96.39414
1,Alfenas/MG,-21.4297405,-45.9479419,3982,4946.95257
D1,Alfenas/MG,-21.4297405,-45.9479419,94,116.77889
1,Alfredo Chaves/ES,-20.624970400000002,-40.75006690147988,1667,11389.72397
D1,Alfredo Chaves/ES,-20.624970400000002,-40.75006690147988,22,150.31429
1,Alfredo Marcondes/SP,-21.9527,-51.413956,131,3130.97514
D1,Alfredo Marcondes/SP,-21.9527,-51.413956,4,95.60229
1,Alfredo Vasconcelos/MG,-21.145833,-43.776389,142,2034.09254
D1,Alfredo Vasconcelos/MG,-21.145833,-43.776389,5,71.62298
1,Alfredo Wagner/SC,-27.6961513,-49.3326734,541,5363.87071
D1,Alfredo Wagner/SC,-27.6961513,-49.3326734,1,9.91473
1,Algodão de Jandaíra/PB,-6.9040175,-36.0089879,55,2134.26465
1,Alhandra/PB,-7.4304246,-34.9106103,935,4739.69686
D1,Alhandra/PB,-7.4304246,-34.9106103,22,111.52228
1,Aliança do Tocantins/TO,-11.3055927,-48.9409096,338,6322.48410
D1,Aliança do Tocantins/TO,-11.3055927,-48.9409096,8,149.64459
1,Aliança/PE,-7.60398,-35.222696,427,1112.06605
D1,Aliança/PE,-7.60398,-35.222696,30,78.13110
1,Almadina/BA,-14.70466,-39.6381994,485,9038.38986
D1,Almadina/BA,-14.70466,-39.6381994,8,149.08684
1,Almas/TO,-11.5681309,-47.1702803,145,2077.66156
D1,Almas/TO,-11.5681309,-47.1702803,3,42.98610
1,Almeirim/PA,-1.5290377,-52.5788111,2191,6429.74528
D1,Almeirim/PA,-1.5290377,-52.5788111,20,58.69233
1,Almenara/MG,-16.1740678,-40.6904907,2225,5279.64312
D1,Almenara/MG,-16.1740678,-40.6904907,25,59.32183
1,Almino Afonso/RN,-6.1544208,-37.7649018,232,4925.69002
D1,Almino Afonso/RN,-6.1544208,-37.7649018,4,84.92569
1,Almirante Tamandaré do Sul/RS,-28.1141129,-52.9134874,104,5336.06978
1,Almirante Tamandaré/PR,-25.3133048,-49.2997838,5047,4204.39683
D1,Almirante Tamandaré/PR,-25.3133048,-49.2997838,130,108.29633
1,Aloândia/GO,-17.7277983,-49.4809338,180,9063.44411
D1,Aloândia/GO,-17.7277983,-49.4809338,6,302.11480
1,Alpercata/MG,-18.9803616,-41.9827637,333,4478.21409
D1,Alpercata/MG,-18.9803616,-41.9827637,12,161.37708
1,Alpestre/RS,-27.2512339,-53.0349646,164,2703.14818
D1,Alpestre/RS,-27.2512339,-53.0349646,3,49.44783
1,Alpinópolis/MG,-20.863611,-46.387777,432,2164.54555
D1,Alpinópolis/MG,-20.863611,-46.387777,6,30.06313
1,Alta Floresta D'Oeste/RO,-11.9296917,-61.9961284,2399,10555.26223
D1,Alta Floresta D'Oeste/RO,-11.9296917,-61.9961284,30,131.99578
1,Alta Floresta/MT,-9.8715018,-56.0839881,4282,8241.11319
D1,Alta Floresta/MT,-9.8715018,-56.0839881,51,98.15431
1,Altair/SP,-20.5238955,-49.0606135,66,1576.68419
D1,Altair/SP,-20.5238955,-49.0606135,5,119.44577
1,Altamira do Maranhão/MA,-4.1643006,-45.4674574,275,3358.16339
D1,Altamira do Maranhão/MA,-4.1643006,-45.4674574,7,85.48052
1,Altamira do Paraná/PR,-24.799114,-52.7128633,61,3626.63496
D1,Altamira do Paraná/PR,-24.799114,-52.7128633,2,118.90606
1,Altamira/PA,-3.204065,-52.209961,8102,6986.34980
D1,Altamira/PA,-3.204065,-52.209961,164,141.41710
1,Altaneira/CE,-6.9980933,-39.7385742,260,3398.69281
D1,Altaneira/CE,-6.9980933,-39.7385742,7,91.50327
1,Alterosa/MG,-21.249166,-46.143055,462,3182.47572
D1,Alterosa/MG,-21.249166,-46.143055,23,158.43494
1,Altinho/PE,-8.4904095,-36.0607494,689,2997.73756
D1,Altinho/PE,-8.4904095,-36.0607494,13,56.56109
1,Altinópolis/SP,-21.021364,-47.3712,496,3061.16151
D1,Altinópolis/SP,-21.021364,-47.3712,14,86.40375
1,Alto Alegre do Maranhão/MA,-4.2055693,-44.4525287,517,1855.84033
D1,Alto Alegre do Maranhão/MA,-4.2055693,-44.4525287,18,64.61340
1,Alto Alegre do Pindaré/MA,-3.6698186,-45.8462153,1653,5174.84269
D1,Alto Alegre do Pindaré/MA,-3.6698186,-45.8462153,25,78.26441
1,Alto Alegre dos Parecis/RO,-12.1314515,-61.856265,621,4685.02452
D1,Alto Alegre dos Parecis/RO,-12.1314515,-61.856265,16,120.70917
1,Alto Alegre/RR,2.98858,-61.307167,1048,6814.04421
D1,Alto Alegre/RR,2.98858,-61.307167,21,136.54096
1,Alto Alegre/RS,-31.780844700000003,-52.81311114489171,36,2231.86609
1,Alto Alegre/SP,-21.5820592,-50.1661976,149,3644.81409
D1,Alto Alegre/SP,-21.5820592,-50.1661976,4,97.84736
1,Alto Araguaia/MT,-17.3156528,-53.2169365,698,3600.72221
D1,Alto Araguaia/MT,-17.3156528,-53.2169365,11,56.74491
1,Alto Bela Vista/SC,-27.4320737,-51.905771,73,3790.23884
D1,Alto Bela Vista/SC,-27.4320737,-51.905771,2,103.84216
1,Alto Boa Vista/MT,-11.6723985,-51.3744431,276,3979.23875
D1,Alto Boa Vista/MT,-11.6723985,-51.3744431,6,86.50519
1,Alto Caparaó/MG,-20.4405661,-41.8683799,257,4360.36647
D1,Alto Caparaó/MG,-20.4405661,-41.8683799,7,118.76485
1,Alto Feliz/RS,-29.3785943,-51.3123751,116,3820.81686
1,Alto Garças/MT,-16.9469683,-53.529427,373,3069.70620
D1,Alto Garças/MT,-16.9469683,-53.529427,18,148.13596
1,Alto Horizonte/GO,-14.1954948,-49.3366993,317,4799.39440
D1,Alto Horizonte/GO,-14.1954948,-49.3366993,3,45.42014
1,Alto Jequitibá/MG,-20.423611,-41.966111,415,4999.39766
D1,Alto Jequitibá/MG,-20.423611,-41.966111,9,108.42067
1,Alto Longá/PI,-5.2549051,-42.2072388,349,2433.92147
D1,Alto Longá/PI,-5.2549051,-42.2072388,7,48.81791
1,Alto Paraguai/MT,-14.513712,-56.4936374,376,3277.25965
D1,Alto Paraguai/MT,-14.513712,-56.4936374,11,95.87728
1,Alto Paraná/PR,-23.131247,-52.318893,449,3021.73767
D1,Alto Paraná/PR,-23.131247,-52.318893,5,33.64964
1,Alto Paraíso de Goiás/GO,-14.1304779,-47.5100161,443,5762.22685
1,Alto Paraíso/PR,-23.508137,-53.728537,78,2905.02793
D1,Alto Paraíso/PR,-23.508137,-53.728537,1,37.24395
1,Alto Paraíso/RO,-9.7240103,-63.3188123,810,3707.60287
D1,Alto Paraíso/RO,-9.7240103,-63.3188123,12,54.92745
1,Alto Parnaíba/MA,-9.112506,-45.9310154,604,5387.08527
D1,Alto Parnaíba/MA,-9.112506,-45.9310154,5,44.59508
1,Alto Piquiri/PR,-24.0239021,-53.4417448,339,3466.96666
D1,Alto Piquiri/PR,-24.0239021,-53.4417448,7,71.58928
1,Alto Rio Doce/MG,-21.0239537,-43.4133507,194,1786.53651
D1,Alto Rio Doce/MG,-21.0239537,-43.4133507,15,138.13427
1,Alto Rio Novo/ES,-19.0577208,-41.0171518,486,6172.21234
D1,Alto Rio Novo/ES,-19.0577208,-41.0171518,16,203.20041
1,Alto Santo/CE,-5.5190371,-38.2719351,634,3686.90393
D1,Alto Santo/CE,-5.5190371,-38.2719351,14,81.41428
1,Alto Taquari/MT,-17.8269099,-53.2831736,734,6593.01177
D1,Alto Taquari/MT,-17.8269099,-53.2831736,11,98.80535
1,Alto do Rodrigues/RN,-5.290868,-36.7616726,911,6185.49701
D1,Alto do Rodrigues/RN,-5.290868,-36.7616726,20,135.79576
1,Altos/PI,-5.0393915,-42.4611694,2608,6422.85433
D1,Altos/PI,-5.0393915,-42.4611694,35,86.19628
1,Altônia/PR,-23.8722004,-53.894037,688,3102.45310
D1,Altônia/PR,-23.8722004,-53.894037,5,22.54690
1,Alumínio/SP,-23.5203479,-47.2575256,653,3479.51191
D1,Alumínio/SP,-23.5203479,-47.2575256,21,111.89855
1,Alvarenga/MG,-19.4175,-41.728334,325,8454.73465
D1,Alvarenga/MG,-19.4175,-41.728334,3,78.04370
1,Alvarães/AM,-3.214786,-64.8143124,2299,14173.85943
D1,Alvarães/AM,-3.214786,-64.8143124,32,197.28730
1,Alvinlândia/SP,-22.4431852,-49.7643596,57,1760.88971
1,Alvinópolis/MG,-20.1105199,-43.0601805,290,1911.79379
D1,Alvinópolis/MG,-20.1105199,-43.0601805,3,19.77718
1,Alvorada D'Oeste/RO,-11.346271,-62.284697,533,3778.53396
D1,Alvorada D'Oeste/RO,-11.346271,-62.284697,12,85.07018
1,Alvorada de Minas/MG,-18.7318587,-43.3641479,141,3911.23440
D1,Alvorada de Minas/MG,-18.7318587,-43.3641479,1,27.73925
1,Alvorada do Gurguéia/PI,-8.4465288,-43.8655915,190,3489.43985
D1,Alvorada do Gurguéia/PI,-8.4465288,-43.8655915,5,91.82736
1,Alvorada do Norte/GO,-14.483911,-46.4959897,430,4939.68983
D1,Alvorada do Norte/GO,-14.483911,-46.4959897,2,22.97530
1,Alvorada do Sul/PR,-22.7807269,-51.2307721,356,3094.84482
D1,Alvorada do Sul/PR,-22.7807269,-51.2307721,8,69.54707
1,Alvorada/RS,-29.9981184,-51.0772509,11404,5395.73792
D1,Alvorada/RS,-29.9981184,-51.0772509,297,140.52387
1,Alvorada/TO,-12.478465,-49.124926,720,8575.51215
D1,Alvorada/TO,-12.478465,-49.124926,11,131.01477
1,Além Paraíba/MG,-21.8760576,-42.6810473,1647,4652.41095
D1,Além Paraíba/MG,-21.8760576,-42.6810473,57,161.01240
1,Amajari/RR,3.6523869,-61.4194315,729,5529.01024
D1,Amajari/RR,3.6523869,-61.4194315,16,121.35002
1,Amambai/MS,-23.1082701,-55.2284854,1751,4396.62532
D1,Amambai/MS,-23.1082701,-55.2284854,33,82.86044
1,Amaporã/PR,-23.094272,-52.786597,96,1516.10865
1,Amapá do Maranhão/MA,-1.6762114,-46.0109669,39,556.74518
1,Amapá/AP,2.0529997,-50.7930003,1080,11755.74181
D1,Amapá/AP,2.0529997,-50.7930003,7,76.19462
1,Amaraji/PE,-8.373925,-35.4536527,391,1709.66331
D1,Amaraji/PE,-8.373925,-35.4536527,24,104.94097
1,Amaral Ferrador/RS,-30.8750633,-52.2542051,161,2272.40649
D1,Amaral Ferrador/RS,-30.8750633,-52.2542051,2,28.22865
1,Amaralina/GO,-13.9236199,-49.2962411,20,520.15605
1,Amarante do Maranhão/MA,-5.56913,-46.747284,1177,2820.58041
D1,Amarante do Maranhão/MA,-5.56913,-46.747284,31,74.28886
1,Amarante/PI,-6.2459374,-42.8476238,917,5209.04340
D1,Amarante/PI,-6.2459374,-42.8476238,17,96.56896
1,Amargosa/BA,-13.03793715,-39.60796443875596,1493,3987.60717
D1,Amargosa/BA,-13.03793715,-39.60796443875596,24,64.10085
1,Amaturá/AM,-3.3640509,-68.1994689,1603,13658.82754
D1,Amaturá/AM,-3.3640509,-68.1994689,15,127.81186
1,Americana/SP,-22.7392463,-47.3306032,10807,4465.37034
D1,Americana/SP,-22.7392463,-47.3306032,279,115.28068
1,Americano do Brasil/GO,-16.2515808,-49.9806104,192,3114.86048
D1,Americano do Brasil/GO,-16.2515808,-49.9806104,4,64.89293
1,Ametista do Sul/RS,-27.3617341,-53.1826575,255,3444.54951
D1,Ametista do Sul/RS,-27.3617341,-53.1826575,3,40.52411
1,Amontada/CE,-3.3634586,-39.8284791,1181,2694.56296
D1,Amontada/CE,-3.3634586,-39.8284791,22,50.19508
1,Amorinópolis/GO,-16.6211308,-51.0949921,117,3812.31672
D1,Amorinópolis/GO,-16.6211308,-51.0949921,1,32.58390
1,Amparo de São Francisco/SE,-10.1299754,-36.9269099,77,3235.29412
D1,Amparo de São Francisco/SE,-10.1299754,-36.9269099,2,84.03361
1,Amparo do Serra/MG,-20.5070255,-42.8028462,78,1667.37922
D1,Amparo do Serra/MG,-20.5070255,-42.8028462,3,64.12997
1,Amparo/PB,-7.56394725,-37.04652873235175,64,2843.18081
D1,Amparo/PB,-7.56394725,-37.04652873235175,2,88.84940
1,Amparo/SP,-22.70111,-46.76444,2774,3816.88842
D1,Amparo/SP,-22.70111,-46.76444,53,72.92541
1,Ampére/PR,-25.9168712,-53.4742414,619,3205.42696
D1,Ampére/PR,-25.9168712,-53.4742414,14,72.49754
1,Amélia Rodrigues/BA,-12.4015388,-38.7516971,1181,4714.94730
D1,Amélia Rodrigues/BA,-12.4015388,-38.7516971,20,79.84669
1,América Dourada/BA,-11.4515262,-41.4357517,446,2771.90802
D1,América Dourada/BA,-11.4515262,-41.4357517,2,12.43008
1,Américo Brasiliense/SP,-21.7297099,-48.1052092,2135,5203.25600
D1,Américo Brasiliense/SP,-21.7297099,-48.1052092,37,90.17352
1,Américo de Campos/SP,-20.298476,-49.735904,434,7256.31165
D1,Américo de Campos/SP,-20.298476,-49.735904,14,234.07457
1,Anadia/AL,-9.6830208,-36.3052699,744,4245.12153
D1,Anadia/AL,-9.6830208,-36.3052699,14,79.88132
1,Anagé/BA,-14.6134669,-41.1376308,445,2059.51775
D1,Anagé/BA,-14.6134669,-41.1376308,9,41.65317
1,Anahy/PR,-24.6450861,-53.1337957,97,3479.19656
D1,Anahy/PR,-24.6450861,-53.1337957,3,107.60402
1,Anajatuba/MA,-3.26441,-44.6179916,478,1771.15755
D1,Anajatuba/MA,-3.26441,-44.6179916,14,51.87491
1,Anajás/PA,-0.9878802,-49.9390114,1052,3543.51927
D1,Anajás/PA,-0.9878802,-49.9390114,11,37.05201
1,Analândia/SP,-22.128917,-47.661939,181,3579.90506
D1,Analândia/SP,-22.128917,-47.661939,3,59.33544
1,Anamã/AM,-3.5797356,-61.4049996,1487,10654.91545
D1,Anamã/AM,-3.5797356,-61.4049996,4,28.66151
1,Ananindeua/PA,-1.374035,-48.4016623,13901,2595.66387
D1,Ananindeua/PA,-1.374035,-48.4016623,429,80.10501
1,Ananás/TO,-6.3663053,-48.080238,1040,10956.59503
D1,Ananás/TO,-6.3663053,-48.080238,19,200.16856
1,Anapu/PA,-3.4668292,-51.2057035,1146,4006.01251
D1,Anapu/PA,-3.4668292,-51.2057035,23,80.39990
1,Anapurus/MA,-3.6751298,-43.1046001,827,5203.22134
D1,Anapurus/MA,-3.6751298,-43.1046001,10,62.91682
1,Anastácio/MS,-20.4832458,-55.8048448,1465,5804.96889
D1,Anastácio/MS,-20.4832458,-55.8048448,43,170.38475
1,Anaurilândia/MS,-22.185169,-52.719056,160,1762.89114
D1,Anaurilândia/MS,-22.185169,-52.719056,5,55.09035
1,Anchieta/ES,-20.8057672,-40.6454564,2740,9201.11488
D1,Anchieta/ES,-20.8057672,-40.6454564,41,137.68092
1,Anchieta/SC,-26.5350527,-53.3293938,273,4912.72269
D1,Anchieta/SC,-26.5350527,-53.3293938,4,71.98128
1,Andaraí/BA,-12.8059674,-41.3322919,541,4119.70758
D1,Andaraí/BA,-12.8059674,-41.3322919,3,22.84496
1,Andirá/PR,-23.0494761,-50.2310027,1086,5450.16561
D1,Andirá/PR,-23.0494761,-50.2310027,23,115.42708
1,Andorinha/BA,-10.3445708,-39.8334411,528,3640.62608
D1,Andorinha/BA,-10.3445708,-39.8334411,7,48.26588
1,Andradas/MG,-22.0680484,-46.5688976,1409,3403.71050
D1,Andradas/MG,-22.0680484,-46.5688976,32,77.30215
1,Andradina/SP,-20.896505,-51.3742765,2947,5151.91777
D1,Andradina/SP,-20.896505,-51.3742765,104,181.81182
1,Andrelândia/MG,-21.739722,-44.308889,188,1540.22612
D1,Andrelândia/MG,-21.739722,-44.308889,3,24.57808
1,André da Rocha/RS,-28.6309124,-51.5733328,55,4095.30901
1,Angatuba/SP,-23.4938938,-48.4110675,728,2857.25499
D1,Angatuba/SP,-23.4938938,-48.4110675,23,90.27042
1,Angelim/PE,-8.8902038,-36.2872987,117,1042.22341
D1,Angelim/PE,-8.8902038,-36.2872987,4,35.63157
1,Angelina/SC,-27.5805287,-48.9838759,316,6662.44993
1,Angelândia/MG,-17.7253,-42.2728,67,782.98469
1,Angical do Piauí/PI,-6.0872666,-42.7366138,267,3936.31137
D1,Angical do Piauí/PI,-6.0872666,-42.7366138,6,88.45644
1,Angical/BA,-12.005623,-44.7000236,320,2295.88176
D1,Angical/BA,-12.005623,-44.7000236,5,35.87315
1,Angico/TO,-6.3893733,-47.8656722,180,5211.34916
D1,Angico/TO,-6.3893733,-47.8656722,3,86.85582
1,Angicos/RN,-5.6666344,-36.6009064,286,2443.40026
D1,Angicos/RN,-5.6666344,-36.6009064,6,51.26015
1,Angra dos Reis/RJ,-23.0063966,-44.316326,10868,5249.12579
D1,Angra dos Reis/RJ,-23.0063966,-44.316326,346,167.11424
1,Anguera/BA,-12.1509425,-39.2452469,227,2009.38302
1,Angélica/MS,-22.1588196,-53.7728504,417,3814.48957
D1,Angélica/MS,-22.1588196,-53.7728504,7,64.03220
1,Anhanguera/GO,-18.3338749,-48.220363,45,3879.31034
D1,Anhanguera/GO,-18.3338749,-48.220363,5,431.03448
1,Anhembi/SP,-22.7891096,-48.1316776,85,1246.51708
D1,Anhembi/SP,-22.7891096,-48.1316776,2,29.32981
1,Anhumas/SP,-22.2956478,-51.3873401,149,3595.55985
D1,Anhumas/SP,-22.2956478,-51.3873401,1,24.13127
1,Anicuns/GO,-16.4606451,-49.9572265,1345,6118.92089
D1,Anicuns/GO,-16.4606451,-49.9572265,24,109.18521
1,Anita Garibaldi/SC,-27.6855032,-51.1293873,642,9228.11557
D1,Anita Garibaldi/SC,-27.6855032,-51.1293873,3,43.12204
1,Anitápolis/SC,-27.9041185,-49.1287395,199,6164.80793
1,Anori/AM,-3.7435254,-61.6605203,1739,8097.03404
D1,Anori/AM,-3.7435254,-61.6605203,29,135.02817
1,Anta Gorda/RS,-28.9718745,-52.0069187,420,7045.79768
D1,Anta Gorda/RS,-28.9718745,-52.0069187,2,33.55142
1,Antas/BA,-10.4114649,-38.3308815,735,3773.29432
1,Antonina do Norte/CE,-6.7754187,-39.9879345,104,1409.59610
D1,Antonina do Norte/CE,-6.7754187,-39.9879345,7,94.87666
1,Antonina/PR,-25.4298854,-48.7125431,1510,7968.75825
D1,Antonina/PR,-25.4298854,-48.7125431,38,200.53829
1,Antônio Almeida/PI,-7.2186016,-44.1950248,337,10630.91483
D1,Antônio Almeida/PI,-7.2186016,-44.1950248,8,252.36593
1,Antônio Cardoso/BA,-12.4363122,-39.1200307,207,1772.71559
D1,Antônio Cardoso/BA,-12.4363122,-39.1200307,5,42.81922
1,Antônio Carlos/MG,-21.318334,-43.746666,322,2810.01833
D1,Antônio Carlos/MG,-21.318334,-43.746666,6,52.36059
1,Antônio Carlos/SC,-27.5168462,-48.7684715,994,11540.69430
D1,Antônio Carlos/SC,-27.5168462,-48.7684715,15,174.15535
1,Antônio Dias/MG,-19.6525,-42.872778,260,2803.23450
D1,Antônio Dias/MG,-19.6525,-42.872778,6,64.69003
1,Antônio Gonçalves/BA,-10.5715409,-40.2748824,479,4032.66543
D1,Antônio Gonçalves/BA,-10.5715409,-40.2748824,3,25.25678
1,Antônio João/MS,-22.1892837,-55.9508227,199,2206.20843
D1,Antônio João/MS,-22.1892837,-55.9508227,4,44.34590
1,Antônio Martins/RN,-6.2155812,-37.8890129,203,2837.57339
D1,Antônio Martins/RN,-6.2155812,-37.8890129,2,27.95639
1,Antônio Olinto/PR,-25.9849006,-50.1974516,153,2060.05116
D1,Antônio Olinto/PR,-25.9849006,-50.1974516,1,13.46439
1,Antônio Prado de Minas/MG,-21.0171988,-42.1101106,135,8506.61626
D1,Antônio Prado de Minas/MG,-21.0171988,-42.1101106,3,189.03592
1,Antônio Prado/RS,-28.8567806,-51.2801355,1165,8930.62476
D1,Antônio Prado/RS,-28.8567806,-51.2801355,12,91.98927
1,Anápolis/GO,-16.3332828,-48.9525756,20627,5265.05212
D1,Anápolis/GO,-16.3332828,-48.9525756,487,124.30699
1,Anísio de Abreu/PI,-9.185643,-43.04941,238,2394.84806
D1,Anísio de Abreu/PI,-9.185643,-43.04941,2,20.12477
1,Aparecida d'Oeste/SP,-20.4498109,-50.8808706,420,10101.01010
D1,Aparecida d'Oeste/SP,-20.4498109,-50.8808706,10,240.50024
1,Aparecida de Goiânia/GO,-16.8226769,-49.2452546,45143,7649.46301
D1,Aparecida de Goiânia/GO,-16.8226769,-49.2452546,681,115.39517
1,Aparecida do Rio Doce/GO,-18.2980167,-51.1491312,133,5375.90946
D1,Aparecida do Rio Doce/GO,-18.2980167,-51.1491312,3,121.26112
1,Aparecida do Rio Negro/TO,-9.9513491,-47.9773786,167,3444.71947
D1,Aparecida do Rio Negro/TO,-9.9513491,-47.9773786,3,61.88119
1,Aparecida do Taboado/MS,-20.0840304,-51.1013943,1470,5638.88143
D1,Aparecida do Taboado/MS,-20.0840304,-51.1013943,24,92.06337
1,Aparecida/PB,-6.7859598, -38.0831353,598,7105.51331
D1,Aparecida/PB,-6.7859598, -38.0831353,9,106.93916
1,Aparecida/SP,-22.851552,-45.2340924,1193,3296.94625
D1,Aparecida/SP,-22.851552,-45.2340924,33,91.19801
1,Aperibé/RJ,-21.6211928,-42.1028167,301,2529.19923
D1,Aperibé/RJ,-21.6211928,-42.1028167,10,84.02655
1,Apiacá/ES,-21.152272,-41.569297,439,5811.49060
D1,Apiacá/ES,-21.152272,-41.569297,12,158.85624
1,Apiacás/MT,-9.5678422,-57.394852,441,4288.63172
D1,Apiacás/MT,-9.5678422,-57.394852,1,9.72479
1,Apiaí/SP,-24.5076527,-48.8461582,602,2484.93354
D1,Apiaí/SP,-24.5076527,-48.8461582,20,82.55593
1,Apicum-Açu/MA,-1.5279295,-45.082278,223,1280.65239
D1,Apicum-Açu/MA,-1.5279295,-45.082278,3,17.22851
1,Apiúna/SC,-27.0374658,-49.3885037,514,4738.20059
D1,Apiúna/SC,-27.0374658,-49.3885037,11,101.40118
1,Apodi/RN,-5.6631109,-37.796927,4198,11702.06835
D1,Apodi/RN,-5.6631109,-37.796927,50,139.37671
1,Aporá/BA,-11.6599747,-38.0794757,344,1933.88801
D1,Aporá/BA,-11.6599747,-38.0794757,10,56.21767
1,Aporé/GO,-18.9642193,-51.92804,199,4702.26843
D1,Aporé/GO,-18.9642193,-51.92804,5,118.14745
1,Apuarema/BA,-13.8517897,-39.7457126,526,7203.50589
D1,Apuarema/BA,-13.8517897,-39.7457126,7,95.86415
1,Apucarana/PR,-23.5525327,-51.4610764,3999,2935.39058
D1,Apucarana/PR,-23.5525327,-51.4610764,138,101.29630
1,Apuiarés/CE,-3.9460303,-39.4313298,344,2344.60196
D1,Apuiarés/CE,-3.9460303,-39.4313298,12,81.78844
1,Apuí/AM,-7.1940195,-59.8830192,859,3841.85339
D1,Apuí/AM,-7.1940195,-59.8830192,17,76.03202
1,Aquidabã/SE,-10.2837579,-37.0188687,1344,6198.97606
D1,Aquidabã/SE,-10.2837579,-37.0188687,21,96.85900
1,Aquidauana/MS,-20.473969,-55.7821375,3317,6906.24414
D1,Aquidauana/MS,-20.473969,-55.7821375,86,179.05849
1,Aquiraz/CE,-3.9063117,-38.387504,2186,2700.93285
D1,Aquiraz/CE,-3.9063117,-38.387504,45,55.60017
1,Arabutã/SC,-27.1587028,-52.1438142,229,5366.76822
D1,Arabutã/SC,-27.1587028,-52.1438142,2,46.87134
1,Aracaju/SE,-10.9162061,-37.0774655,75732,11389.84641
D1,Aracaju/SE,-10.9162061,-37.0774655,1078,162.12769
1,Aracati/CE,-4.558259,-37.767894,3071,4096.03201
D1,Aracati/CE,-4.558259,-37.767894,72,96.03201
1,Aracatu/BA,-14.4274236,-41.4604105,496,3802.22307
D1,Aracatu/BA,-14.4274236,-41.4604105,8,61.32618
1,Araci/BA,-11.3356065,-38.9573261,2549,4664.39760
D1,Araci/BA,-11.3356065,-38.9573261,26,47.57722
1,Aracitaba/MG,-21.3425,-43.378611,68,3302.57407
D1,Aracitaba/MG,-21.3425,-43.378611,5,242.83633
1,Aracoiaba/CE,-4.3702577,-38.8084313,1037,3908.04598
D1,Aracoiaba/CE,-4.3702577,-38.8084313,19,71.60354
1,Aracruz/ES,-19.8245218,-40.2735025,10629,10309.30835
D1,Aracruz/ES,-19.8245218,-40.2735025,137,132.87941
1,Aragarças/GO,-15.8957166,-52.2514538,1416,6984.65940
D1,Aragarças/GO,-15.8957166,-52.2514538,28,138.11473
1,Aragoiânia/GO,-16.9146388,-49.4499148,584,5564.02439
D1,Aragoiânia/GO,-16.9146388,-49.4499148,6,57.16463
1,Aragominas/TO,-7.1654101,-48.525488,400,6979.58471
D1,Aragominas/TO,-7.1654101,-48.525488,7,122.14273
1,Araguacema/TO,-8.8067391,-49.5560969,228,3186.58281
D1,Araguacema/TO,-8.8067391,-49.5560969,3,41.92872
1,Araguaiana/MT,-15.729144,-51.834112,83,2669.66870
D1,Araguaiana/MT,-15.729144,-51.834112,1,32.16468
1,Araguainha/MT,-16.857016,-53.031778,15,1585.62368
1,Araguanã/MA,-2.9508403,-45.6651986,590,3793.96823
D1,Araguanã/MA,-2.9508403,-45.6651986,4,25.72182
1,Araguanã/TO,-6.5799107,-48.6428482,190,3279.82047
D1,Araguanã/TO,-6.5799107,-48.6428482,11,189.88434
1,Araguapaz/GO,-15.0937927,-50.626417,222,2852.37055
D1,Araguapaz/GO,-15.0937927,-50.626417,7,89.93961
1,Araguari/MG,-18.6511256,-48.1933764,8310,7052.83259
D1,Araguari/MG,-18.6511256,-48.1933764,203,172.28941
1,Araguatins/TO,-5.6522925,-48.1158973,1318,3643.90379
D1,Araguatins/TO,-5.6522925,-48.1158973,36,99.53000
1,Araguaçu/TO,-12.928934,-49.823134,647,7641.43144
D1,Araguaçu/TO,-12.928934,-49.823134,12,141.72670
1,Araguaína/TO,-7.193241,-48.2018597,20978,11439.57117
D1,Araguaína/TO,-7.193241,-48.2018597,268,146.14382
1,Araioses/MA,-2.890914,-41.904993,589,1259.32736
D1,Araioses/MA,-2.890914,-41.904993,10,21.38077
1,Aral Moreira/MS,-22.951141,-55.6268421,294,2384.04152
D1,Aral Moreira/MS,-22.951141,-55.6268421,7,56.76289
1,Aramari/BA,-12.0907897,-38.4985065,374,3263.24055
D1,Aramari/BA,-12.0907897,-38.4985065,7,61.07669
1,Arambaré/RS,-30.9132252,-51.4994625,91,2554.74453
D1,Arambaré/RS,-30.9132252,-51.4994625,2,56.14823
1,Arame/MA,-4.8858769,-46.0102484,958,2923.94091
D1,Arame/MA,-4.8858769,-46.0102484,22,67.14687
1,Aramina/SP,-20.0876144,-47.789201,189,3342.17507
D1,Aramina/SP,-20.0876144,-47.789201,7,123.78426
1,Arandu/SP,-23.1345103,-49.0545651,135,2120.97408
D1,Arandu/SP,-23.1345103,-49.0545651,7,109.97643
1,Arantina/MG,-21.911667,-44.255833,51,1829.92465
D1,Arantina/MG,-21.911667,-44.255833,2,71.76175
1,Arapeí/SP,-22.6738889,-44.4477778,138,5609.75610
D1,Arapeí/SP,-22.6738889,-44.4477778,2,81.30081
1,Arapiraca/AL,-9.754866,-36.661471,16225,6962.11494
D1,Arapiraca/AL,-9.754866,-36.661471,223,95.68885
1,Arapoema/TO,-7.6575001,-49.0641484,293,4428.65780
D1,Arapoema/TO,-7.6575001,-49.0641484,4,60.45949
1,Araponga/MG,-20.666667,-42.520556,232,2744.58772
D1,Araponga/MG,-20.666667,-42.520556,1,11.83012
1,Arapongas/PR,-23.415296,-51.42592,6812,5457.89600
D1,Arapongas/PR,-23.415296,-51.42592,202,161.84601
1,Araporã/MG,-18.4318188,-49.188313,1161,16750.82961
D1,Araporã/MG,-18.4318188,-49.188313,14,201.99105
1,Arapoti/PR,-24.1457957,-49.8224605,1606,5674.91166
D1,Arapoti/PR,-24.1457957,-49.8224605,15,53.00353
1,Araputanga/MT,-15.4710868,-58.346796,1127,6648.57531
D1,Araputanga/MT,-15.4710868,-58.346796,22,129.78585
1,Arapuá/MG,-19.034444,-46.155556,77,2716.04938
D1,Arapuá/MG,-19.034444,-46.155556,1,35.27337
1,Arapuã/PR,-24.3079525,-51.7901941,120,3988.03589
D1,Arapuã/PR,-24.3079525,-51.7901941,3,99.70090
1,Araquari/SC,-26.3703324,-48.7210994,1970,4984.31333
D1,Araquari/SC,-26.3703324,-48.7210994,30,75.90325
1,Arara/PB,-6.8271895,-35.7605703,332,2451.63196
D1,Arara/PB,-6.8271895,-35.7605703,10,73.84434
1,Araranguá/SC,-28.9348832,-49.4858389,6525,9474.78473
D1,Araranguá/SC,-28.9348832,-49.4858389,101,146.65950
1,Araraquara/SP,-21.7886713,-48.1773096,10930,4585.90495
D1,Araraquara/SP,-21.7886713,-48.1773096,169,70.90740
1,Araras/SP,-22.3569477,-47.3838889,8143,6009.32800
D1,Araras/SP,-22.3569477,-47.3838889,147,108.48228
1,Ararendá/CE,-4.7504395,-40.8303611,478,4361.71184
D1,Ararendá/CE,-4.7504395,-40.8303611,9,82.12428
1,Arari/MA,-3.4547602,-44.7772723,376,1256.18068
D1,Arari/MA,-3.4547602,-44.7772723,13,43.43178
1,Araricá/RS,-29.6168543,-50.929121,487,8438.74545
D1,Araricá/RS,-29.6168543,-50.929121,11,190.60821
1,Araripe/CE,-7.212861,-40.1359222,536,2475.29325
D1,Araripe/CE,-7.212861,-40.1359222,6,27.70851
1,Araripina/PE,-7.5768582,-40.5038509,4133,4870.14517
D1,Araripina/PE,-7.5768582,-40.5038509,66,77.77149
1,Araruama/RJ,-22.8733203,-42.3428897,3388,2522.84185
D1,Araruama/RJ,-22.8733203,-42.3428897,109,81.16581
1,Araruna/PB,-6.5321155,-35.7397595,537,2624.24864
D1,Araruna/PB,-6.5321155,-35.7397595,15,73.30303
1,Araruna/PR,-23.9320308,-52.4976047,664,4742.85714
D1,Araruna/PR,-23.9320308,-52.4976047,13,92.85714
1,Arataca/BA,-15.2617424,-39.4122943,357,3257.00210
D1,Arataca/BA,-15.2617424,-39.4122943,10,91.23255
1,Aratiba/RS,-27.3955734,-52.3024325,238,3845.53240
D1,Aratiba/RS,-27.3955734,-52.3024325,4,64.63080
1,Aratuba/CE,-4.4195958,-39.0463737,311,2635.14659
D1,Aratuba/CE,-4.4195958,-39.0463737,2,16.94628
1,Aratuípe/BA,-13.077137,-39.0010786,222,2512.16476
D1,Aratuípe/BA,-13.077137,-39.0010786,6,67.89634
1,Araucária/PR,-25.5861107,-49.4051209,13332,9118.14190
D1,Araucária/PR,-25.5861107,-49.4051209,164,112.16436
1,Arauá/SE,-11.2644014,-37.6181058,584,5871.11692
D1,Arauá/SE,-11.2644014,-37.6181058,12,120.63939
1,Araxá/MG,-19.5928536,-46.940241,5586,5204.17004
D1,Araxá/MG,-19.5928536,-46.940241,62,57.76200
1,Araçagi/PB,-6.8519969,-35.3835602,718,4243.24803
D1,Araçagi/PB,-6.8519969,-35.3835602,8,47.27853
1,Araçariguama/SP,-23.438611,-47.061389,770,3368.32896
D1,Araçariguama/SP,-23.438611,-47.061389,21,91.86352
1,Araçatuba/SP,-21.207992,-50.4390225,14267,7200.86408
D1,Araçatuba/SP,-21.207992,-50.4390225,284,143.34095
1,Araçaí/MG,-19.200833,-44.2475,23,977.06032
1,Araçoiaba da Serra/SP,-23.5045367,-47.6168158,1321,3798.59673
D1,Araçoiaba da Serra/SP,-23.5045367,-47.6168158,27,77.63975
1,Araçoiaba/PE,-7.7856903,-35.0898881,254,1225.10008
D1,Araçoiaba/PE,-7.7856903,-35.0898881,20,96.46457
1,Araçu/GO,-16.3561579,-49.6815269,213,6110.15491
D1,Araçu/GO,-16.3561579,-49.6815269,4,114.74469
1,Araçuaí/MG,-16.8484451,-42.0661868,567,1544.45413
D1,Araçuaí/MG,-16.8484451,-42.0661868,16,43.58248
1,Araçás/BA,-12.2139176,-38.2026159,459,3759.82962
D1,Araçás/BA,-12.2139176,-38.2026159,7,57.33945
1,Araújos/MG,-19.948055,-45.165556,339,3605.99936
D1,Araújos/MG,-19.948055,-45.165556,2,21.27433
1,Arceburgo/MG,-21.364444,-46.939722,385,3537.62749
D1,Arceburgo/MG,-21.364444,-46.939722,6,55.13186
1,Arco-Íris/SP,-21.7741308,-50.4668814,55,3102.08686
D1,Arco-Íris/SP,-21.7741308,-50.4668814,4,225.60632
1,Arcos/MG,-20.282223,-45.539444,2024,5012.38237
D1,Arcos/MG,-20.282223,-45.539444,22,54.48242
1,Arcoverde/PE,-8.415192,-37.057748,3924,5244.44682
D1,Arcoverde/PE,-8.415192,-37.057748,85,113.60295
1,Areado/MG,-21.3582771,-46.1476688,384,2529.47764
D1,Areado/MG,-21.3582771,-46.1476688,8,52.69745
1,Areal/RJ,-22.2314922,-43.1056264,376,2967.87434
D1,Areal/RJ,-22.2314922,-43.1056264,14,110.50596
1,Arealva/SP,-22.0301906,-48.9111936,355,4121.67654
D1,Arealva/SP,-22.0301906,-48.9111936,2,23.22071
1,Areia Branca/RN,-4.9506652,-37.1263312,1333,4766.33175
D1,Areia Branca/RN,-4.9506652,-37.1263312,60,214.53856
1,Areia Branca/SE,-10.7591455,-37.3148072,1076,5758.32174
D1,Areia Branca/SE,-10.7591455,-37.3148072,23,123.08680
1,Areia de Baraúnas/PB,-7.1233949,-36.9446216,17,803.40265
1,Areia/PB,-6.9680243,-35.6994783,755,3332.45056
D1,Areia/PB,-6.9680243,-35.6994783,11,48.55226
1,Areial/PB,-7.0501306,-35.9245244,158,2248.47019
D1,Areial/PB,-7.0501306,-35.9245244,5,71.15412
1,Areias/SP,-22.5800929,-44.6975127,175,4491.78645
D1,Areias/SP,-22.5800929,-44.6975127,1,25.66735
1,Areiópolis/SP,-22.6758064,-48.6673653,378,3387.70389
D1,Areiópolis/SP,-22.6758064,-48.6673653,5,44.81090
1,Arenápolis/MT,-14.4610369,-56.8432806,845,8892.86466
D1,Arenápolis/MT,-14.4610369,-56.8432806,11,115.76510
1,Arenópolis/GO,-16.3859286,-51.55937,47,1853.31230
1,Argirita/MG,-21.612761,-42.8371922,202,7470.41420
D1,Argirita/MG,-21.612761,-42.8371922,5,184.91124
1,Aricanduva/MG,-17.8678,-42.5569,30,569.36800
1,Arinos/MG,-15.917223,-46.106111,179,1002.12742
D1,Arinos/MG,-15.917223,-46.106111,5,27.99239
1,Aripuanã/MT,-10.175806,-59.4439663,1398,6154.79440
D1,Aripuanã/MT,-10.175806,-59.4439663,20,88.05142
1,Ariquemes/RO,-9.9076522,-63.033069,12129,11074.38620
D1,Ariquemes/RO,-9.9076522,-63.033069,210,191.74055
1,Ariranha do Ivaí/PR,-24.3834527,-51.5876772,82,3969.02227
D1,Ariranha do Ivaí/PR,-24.3834527,-51.5876772,1,48.40271
1,Ariranha/SP,-21.18716,-48.790418,247,2530.47843
D1,Ariranha/SP,-21.18716,-48.790418,12,122.93822
1,Armazém/SC,-28.2624996,-49.0190126,854,9749.97146
D1,Armazém/SC,-28.2624996,-49.0190126,8,91.33463
1,Armação dos Búzios/RJ,-22.7597805,-41.8875267,2840,8237.37564
D1,Armação dos Búzios/RJ,-22.7597805,-41.8875267,24,69.61163
1,Arneiroz/CE,-6.3235099,-40.1603859,94,1198.36818
D1,Arneiroz/CE,-6.3235099,-40.1603859,6,76.49159
1,Aroazes/PI,-6.1108814,-41.7886137,289,4959.67050
D1,Aroazes/PI,-6.1108814,-41.7886137,6,102.96894
1,Aroeiras do Itaim/PI,-7.2797031,-41.5629681,94,3684.82948
D1,Aroeiras do Itaim/PI,-7.2797031,-41.5629681,1,39.20031
1,Aroeiras/PB,-7.5462904,-35.7080002,521,2725.46558
D1,Aroeiras/PB,-7.5462904,-35.7080002,3,15.69366
1,Arraial do Cabo/RJ,-22.9662839,-42.024427,491,1604.94231
D1,Arraial do Cabo/RJ,-22.9662839,-42.024427,9,29.41849
1,Arraial/PI,-6.6541632,-42.5335332,108,2288.13559
D1,Arraial/PI,-6.6541632,-42.5335332,1,21.18644
1,Arraias/TO,-12.9287788,-46.9437231,236,2240.36453
1,Arroio Grande/RS,-32.2384246,-53.0866661,786,4309.68308
D1,Arroio Grande/RS,-32.2384246,-53.0866661,11,60.31363
1,Arroio Trinta/SC,-26.9301976,-51.334928,312,8791.20879
D1,Arroio Trinta/SC,-26.9301976,-51.334928,3,84.53085
1,Arroio do Meio/RS,-29.4020392,-51.9444993,1222,5828.20623
D1,Arroio do Meio/RS,-29.4020392,-51.9444993,9,42.92460
1,Arroio do Padre/RS,-31.4428773,-52.4228985,84,2846.49271
D1,Arroio do Padre/RS,-31.4428773,-52.4228985,1,33.88682
1,Arroio do Sal/RS,-29.549852,-49.8874395,511,4971.30071
D1,Arroio do Sal/RS,-29.549852,-49.8874395,11,107.01430
1,Arroio do Tigre/RS,-29.334158,-53.0888935,608,4532.91583
D1,Arroio do Tigre/RS,-29.334158,-53.0888935,5,37.27727
1,Arroio dos Ratos/RS,-30.0894524,-51.7265541,418,2948.43761
D1,Arroio dos Ratos/RS,-30.0894524,-51.7265541,20,141.07357
1,Artur Nogueira/SP,-22.572737,-47.172679,1978,3574.26816
D1,Artur Nogueira/SP,-22.572737,-47.172679,48,86.73654
1,Aruanã/GO,-14.9162439,-51.0715692,250,2472.79921
D1,Aruanã/GO,-14.9162439,-51.0715692,5,49.45598
1,Arujá/SP,-23.396266,-46.3175449,3845,4217.99752
D1,Arujá/SP,-23.396266,-46.3175449,130,142.61110
1,Arvoredo/SC,-27.0752908,-52.4571847,159,7117.27842
D1,Arvoredo/SC,-27.0752908,-52.4571847,1,44.76276
1,Arvorezinha/RS,-28.87369,-52.17808,491,4710.73587
D1,Arvorezinha/RS,-28.87369,-52.17808,11,105.53583
1,Arês/RN,-6.1969216,-35.1642968,508,3523.61795
D1,Arês/RN,-6.1969216,-35.1642968,13,90.17133
1,Ascurra/SC,-26.9569975,-49.3767752,700,8774.12885
D1,Ascurra/SC,-26.9569975,-49.3767752,3,37.60341
1,Aspásia/SP,-20.160028,-50.728046,66,3630.36304
D1,Aspásia/SP,-20.160028,-50.728046,2,110.01100
1,Assaré/CE,-6.8746791,-39.8741385,1015,4323.19618
D1,Assaré/CE,-6.8746791,-39.8741385,21,89.44544
1,Assaí/PR,-23.3736041,-50.8454929,572,3825.06353
D1,Assaí/PR,-23.3736041,-50.8454929,18,120.36913
1,Assis Brasil/AC,-10.9409203,-69.5672108,1119,14852.66791
D1,Assis Brasil/AC,-10.9409203,-69.5672108,14,185.82426
1,Assis Chateaubriand/PR,-24.4054826,-53.5120468,2023,6067.78644
D1,Assis Chateaubriand/PR,-24.4054826,-53.5120468,29,86.98260
1,Assis/SP,-22.6620892,-50.420623,3564,3391.47563
D1,Assis/SP,-22.6620892,-50.420623,61,58.04714
1,Assunção do Piauí/PI,-5.8610212,-41.0485091,200,2543.55844
D1,Assunção do Piauí/PI,-5.8610212,-41.0485091,4,50.87117
1,Assunção/PB,-7.073396,-36.7274003,174,4318.68950
D1,Assunção/PB,-7.073396,-36.7274003,1,24.82005
1,Astolfo Dutra/MG,-21.3132636,-42.8624102,796,5578.13595
D1,Astolfo Dutra/MG,-21.3132636,-42.8624102,13,91.10021
1,Astorga/PR,-23.2350184,-51.6647074,1388,5295.89072
D1,Astorga/PR,-23.2350184,-51.6647074,21,80.12515
1,Atalaia do Norte/AM,-4.3658547,-70.1908742,2370,11618.78616
D1,Atalaia do Norte/AM,-4.3658547,-70.1908742,7,34.31709
1,Atalaia/AL,-9.5029595,-36.0219316,729,1539.11116
D1,Atalaia/AL,-9.5029595,-36.0219316,30,63.33791
1,Atalaia/PR,-23.1513833,-52.0529697,181,4663.74646
D1,Atalaia/PR,-23.1513833,-52.0529697,3,77.29967
1,Atalanta/SC,-27.421916,-49.778863,124,3881.06416
1,Ataléia/MG,-18.04432,-41.1110524,670,5284.74523
D1,Ataléia/MG,-18.04432,-41.1110524,5,39.43840
1,Atibaia/SP,-23.1177393,-46.5547861,5710,3962.85603
D1,Atibaia/SP,-23.1177393,-46.5547861,103,71.48409
1,Atilio Vivacqua/ES,-20.9139369,-41.1947519,952,7864.51879
D1,Atilio Vivacqua/ES,-20.9139369,-41.1947519,16,132.17679
1,Augustinópolis/TO,-5.4662267,-47.8897519,990,5310.30414
D1,Augustinópolis/TO,-5.4662267,-47.8897519,13,69.73127
1,Augusto Corrêa/PA,-1.0229335,-46.6404029,1561,3359.08416
D1,Augusto Corrêa/PA,-1.0229335,-46.6404029,25,53.79699
1,Augusto Pestana/RS,-28.5148413,-53.9906433,156,2362.92033
D1,Augusto Pestana/RS,-28.5148413,-53.9906433,2,30.29385
1,Augusto de Lima/MG,-18.1092963,-44.2651945,123,2535.55968
D1,Augusto de Lima/MG,-18.1092963,-44.2651945,4,82.45723
1,Aurelino Leal/BA,-14.3167137,-39.3256107,730,6460.74874
D1,Aurelino Leal/BA,-14.3167137,-39.3256107,18,159.30613
1,Auriflama/SP,-20.6840418,-50.5554616,900,5900.47859
D1,Auriflama/SP,-20.6840418,-50.5554616,19,124.56566
1,Aurilândia/GO,-16.6772599,-50.4641231,77,2517.98561
D1,Aurilândia/GO,-16.6772599,-50.4641231,3,98.10334
1,Aurora do Pará/PA,-2.1323199,-47.558436,824,2593.39691
D1,Aurora do Pará/PA,-2.1323199,-47.558436,9,28.32594
1,Aurora do Tocantins/TO,-12.71045,-46.407604,132,3489.29421
D1,Aurora do Tocantins/TO,-12.71045,-46.407604,2,52.86809
1,Aurora/CE,-6.9426019,-38.9693765,983,3994.31126
D1,Aurora/CE,-6.9426019,-38.9693765,25,101.58472
1,Aurora/SC,-27.3166417,-49.6368502,319,5613.23245
D1,Aurora/SC,-27.3166417,-49.6368502,7,123.17438
1,Autazes/AM,-3.5833283,-59.1301518,2429,6028.79126
D1,Autazes/AM,-3.5833283,-59.1301518,73,181.18640
1,Avanhandava/SP,-21.4603331,-49.9465156,348,2511.00368
D1,Avanhandava/SP,-21.4603331,-49.9465156,14,101.01739
1,Avaré/SP,-23.1045215,-48.9259103,2603,2853.16556
D1,Avaré/SP,-23.1045215,-48.9259103,35,38.36373
1,Avaí/SP,-22.1564662,-49.3316395,161,2961.73657
D1,Avaí/SP,-22.1564662,-49.3316395,3,55.18764
1,Aveiro/PA,-3.6049239,-55.3310742,458,2792.00195
D1,Aveiro/PA,-3.6049239,-55.3310742,5,30.48037
1,Avelino Lopes/PI,-10.1346855,-43.9489525,208,1836.48243
D1,Avelino Lopes/PI,-10.1346855,-43.9489525,17,150.09712
1,Avelinópolis/GO,-16.4672409,-49.7578661,166,6890.82607
D1,Avelinópolis/GO,-16.4672409,-49.7578661,4,166.04400
1,Axixá do Tocantins/TO,-5.612747,-47.77007,627,6406.45755
D1,Axixá do Tocantins/TO,-5.612747,-47.77007,5,51.08818
1,Axixá/MA,-2.8379465,-44.0561053,157,1288.68095
D1,Axixá/MA,-2.8379465,-44.0561053,3,24.62448
1,Açailândia/MA,-4.9514278,-47.4844564,3940,3482.99608
D1,Açailândia/MA,-4.9514278,-47.4844564,107,94.58898
1,Açu/RN,-5.5836157,-36.9139541,3064,5248.01315
D1,Açu/RN,-5.5836157,-36.9139541,87,149.01343
1,Açucena/MG,-19.073056,-42.546666,237,2529.88898
D1,Açucena/MG,-19.073056,-42.546666,10,106.74637
1,Babaçulândia/TO,-7.2034355,-47.761613,483,4528.40803
D1,Babaçulândia/TO,-7.2034355,-47.761613,4,37.50234
1,Bacabal/MA,-4.2318132,-44.781167,3789,3615.80303
D1,Bacabal/MA,-4.2318132,-44.781167,82,78.25174
1,Bacabeira/MA,-2.9775747,-44.3155943,191,1107.11802
D1,Bacabeira/MA,-2.9775747,-44.3155943,3,17.38929
1,Bacuri/MA,-1.728894,-45.1417148,429,2299.77485
D1,Bacuri/MA,-1.728894,-45.1417148,4,21.44312
1,Bacurituba/MA,-2.7082587,-44.7381309,98,1728.39506
D1,Bacurituba/MA,-2.7082587,-44.7381309,1,17.63668
1,Bady Bassitt/SP,-20.9178969,-49.4517911,1584,8918.41676
D1,Bady Bassitt/SP,-20.9178969,-49.4517911,25,140.75784
1,Baependi/MG,-21.959162,-44.8899249,787,4099.17183
D1,Baependi/MG,-21.959162,-44.8899249,10,52.08605
1,Bagre/PA,-1.8994498,-50.2103844,634,2023.94254
D1,Bagre/PA,-1.8994498,-50.2103844,11,35.11572
1,Bagé/RS,-31.3314264,-54.1062808,3640,2999.95879
D1,Bagé/RS,-31.3314264,-54.1062808,85,70.05398
1,Baianópolis/BA,-12.3067564,-44.5383591,210,1507.64592
D1,Baianópolis/BA,-12.3067564,-44.5383591,2,14.35853
1,Baixa Grande do Ribeiro/PI,-7.862861,-45.2113289,1704,14600.29132
D1,Baixa Grande do Ribeiro/PI,-7.862861,-45.2113289,15,128.52369
1,Baixa Grande/BA,-11.9630941,-40.1657537,424,2073.45102
D1,Baixa Grande/BA,-11.9630941,-40.1657537,3,14.67064
1,Baixio/CE,-6.7303544,-38.7170095,171,2712.99381
D1,Baixio/CE,-6.7303544,-38.7170095,4,63.46184
1,Baixo Guandu/ES,-19.5138322,-41.0182089,2355,7564.56379
D1,Baixo Guandu/ES,-19.5138322,-41.0182089,42,134.90942
1,Baião/PA,-2.7903479,-49.6702845,504,1040.05448
D1,Baião/PA,-2.7903479,-49.6702845,21,43.33560
1,Balbinos/SP,-21.9006253,-49.3583966,276,4651.16279
D1,Balbinos/SP,-21.9006253,-49.3583966,3,50.55612
1,Baldim/MG,-19.2913568,-43.9558262,271,3473.02320
D1,Baldim/MG,-19.2913568,-43.9558262,6,76.89350
1,Baliza/GO,-16.1978119,-52.542789,109,2064.39394
D1,Baliza/GO,-16.1978119,-52.542789,2,37.87879
1,Balneário Arroio do Silva/SC,-28.9815269,-49.4189932,1269,9448.99479
D1,Balneário Arroio do Silva/SC,-28.9815269,-49.4189932,21,156.36634
1,Balneário Barra do Sul/SC,-26.459842,-48.6061471,1005,9107.38559
D1,Balneário Barra do Sul/SC,-26.459842,-48.6061471,18,163.11735
1,Balneário Camboriú/SC,-26.9924395,-48.6339782,18436,12645.06571
D1,Balneário Camboriú/SC,-26.9924395,-48.6339782,202,138.54975
1,Balneário Gaivota/SC,-29.1553098,-49.5808712,822,7300.17762
D1,Balneário Gaivota/SC,-29.1553098,-49.5808712,11,97.69094
1,Balneário Pinhal/RS,-30.2482978,-50.234585,592,4121.70159
D1,Balneário Pinhal/RS,-30.2482978,-50.234585,18,125.32201
1,Balneário Piçarras/SC,-26.7638889,-48.6716667,2868,12064.61383
D1,Balneário Piçarras/SC,-26.7638889,-48.6716667,22,92.54585
1,Balneário Rincão/SC,-28.8235718,-49.2241642,945,7299.55199
D1,Balneário Rincão/SC,-28.8235718,-49.2241642,22,169.93666
1,Balsa Nova/PR,-25.5842234,-49.6312741,689,5262.75588
D1,Balsa Nova/PR,-25.5842234,-49.6312741,11,84.02078
1,Balsas/MA,-7.53214,-46.037163,7452,7768.24526
D1,Balsas/MA,-7.53214,-46.037163,87,90.69207
1,Bambuí/MG,-20.0131996,-45.9777034,439,1836.97381
D1,Bambuí/MG,-20.0131996,-45.9777034,3,12.55335
1,Banabuiú/CE,-5.3046404,-38.919766,744,4075.37248
D1,Banabuiú/CE,-5.3046404,-38.919766,5,27.38826
1,Bananal/SP,-22.6828195,-44.3221095,539,4903.12017
D1,Bananal/SP,-22.6828195,-44.3221095,2,18.19340
1,Bananeiras/PB,-6.7537682,-35.6338343,691,3248.85984
D1,Bananeiras/PB,-6.7537682,-35.6338343,4,18.80671
1,Bandeira do Sul/MG,-21.728056,-46.385555,99,1713.39564
D1,Bandeira do Sul/MG,-21.728056,-46.385555,5,86.53513
1,Bandeira/MG,-15.884444,-40.559167,405,8497.69198
D1,Bandeira/MG,-15.884444,-40.559167,8,167.85564
1,Bandeirante/SC,-26.7677402,-53.6397596,96,3625.37764
D1,Bandeirante/SC,-26.7677402,-53.6397596,1,37.76435
1,Bandeirantes do Tocantins/TO,-7.7635698,-48.579148,235,6542.31626
D1,Bandeirantes do Tocantins/TO,-7.7635698,-48.579148,3,83.51893
1,Bandeirantes/MS,-19.9179623,-54.3646768,333,4582.98927
D1,Bandeirantes/MS,-19.9179623,-54.3646768,6,82.57638
1,Bandeirantes/PR,-23.107788,-50.370407,1889,6052.35334
D1,Bandeirantes/PR,-23.107788,-50.370407,48,153.79193
1,Bannach/PA,-7.3508505,-50.4064531,124,3801.34887
D1,Bannach/PA,-7.3508505,-50.4064531,2,61.31208
1,Banzaê/BA,-10.5827616,-38.6122305,716,5407.85498
D1,Banzaê/BA,-10.5827616,-38.6122305,4,30.21148
1,Baraúna/PB,-6.643394,-36.2531932,175,3525.38276
D1,Baraúna/PB,-6.643394,-36.2531932,2,40.29009
1,Baraúna/RN,-5.0775002,-37.61752,685,2382.85734
D1,Baraúna/RN,-5.0775002,-37.61752,17,59.13661
1,Barbacena/MG,-21.2254524,-43.7735087,3561,2576.62586
D1,Barbacena/MG,-21.2254524,-43.7735087,83,60.05615
1,Barbalha/CE,-7.3121067,-39.3036427,2830,4622.06833
D1,Barbalha/CE,-7.3121067,-39.3036427,59,96.36114
1,Barbosa Ferraz/PR,-24.0287182,-52.00811,502,4393.48853
D1,Barbosa Ferraz/PR,-24.0287182,-52.00811,6,52.51182
1,Barbosa/SP,-21.265661,-49.951816,247,3307.44510
D1,Barbosa/SP,-21.265661,-49.951816,4,53.56186
1,Barcarena/PA,-1.5107945,-48.6190679,6428,5060.34150
D1,Barcarena/PA,-1.5107945,-48.6190679,134,105.48938
1,Barcelona/RN,-5.9514918,-35.9260284,41,1026.53981
D1,Barcelona/RN,-5.9514918,-35.9260284,3,75.11267
1,Barcelos/AM,-0.9729214,-62.925635,3887,14063.96990
D1,Barcelos/AM,-0.9729214,-62.925635,51,184.52855
1,Bariri/SP,-22.0746355,-48.7394852,1732,4870.91512
D1,Bariri/SP,-22.0746355,-48.7394852,45,126.55380
1,Barra Bonita/SC,-26.6526364,-53.4419581,75,4542.70139
D1,Barra Bonita/SC,-26.6526364,-53.4419581,1,60.56935
1,Barra Bonita/SP,-22.490859,-48.558349,2068,5724.40901
D1,Barra Bonita/SP,-22.490859,-48.558349,39,107.95549
1,Barra D'Alcântara/PI,-6.5209258,-42.1071089,79,1998.98785
D1,Barra D'Alcântara/PI,-6.5209258,-42.1071089,1,25.30364
1,Barra Funda/RS,-27.9230048,-53.0401045,269,10544.88436
D1,Barra Funda/RS,-27.9230048,-53.0401045,5,196.00157
1,Barra Longa/MG,-20.2833541,-43.0423516,137,2731.80459
D1,Barra Longa/MG,-20.2833541,-43.0423516,1,19.94018
1,Barra Mansa/RJ,-22.5394843,-44.1735129,9745,5272.32691
D1,Barra Mansa/RJ,-22.5394843,-44.1735129,292,157.98045
1,Barra Velha/SC,-26.6338203,-48.6835001,2479,8302.07636
D1,Barra Velha/SC,-26.6338203,-48.6835001,46,154.05224
1,Barra da Estiva/BA,-13.6269662,-41.3278287,1114,5462.92664
D1,Barra da Estiva/BA,-13.6269662,-41.3278287,8,39.23107
1,Barra de Guabiraba/PE,-8.4173522,-35.6626669,325,2239.83460
D1,Barra de Guabiraba/PE,-8.4173522,-35.6626669,11,75.80979
1,Barra de Santa Rosa/PB,-6.7218007,-36.0564638,580,3742.65987
D1,Barra de Santa Rosa/PB,-6.7218007,-36.0564638,3,19.35859
1,Barra de Santana/PB,-7.5230865,-35.9988518,274,3281.83016
D1,Barra de Santana/PB,-7.5230865,-35.9988518,3,35.93245
1,Barra de Santo Antônio/AL,-9.4038098,-35.5117693,159,989.54444
D1,Barra de Santo Antônio/AL,-9.4038098,-35.5117693,15,93.35325
1,Barra de São Francisco/ES,-18.7570902,-40.8916119,2251,5004.55768
D1,Barra de São Francisco/ES,-18.7570902,-40.8916119,68,151.18166
1,Barra de São Miguel/AL,-9.8261357,-35.8837777,226,2697.54118
D1,Barra de São Miguel/AL,-9.8261357,-35.8837777,6,71.61614
1,Barra de São Miguel/PB,-7.7528088,-36.3170996,208,3429.51360
D1,Barra de São Miguel/PB,-7.7528088,-36.3170996,1,16.48805
1,Barra do Bugres/MT,-15.0683712,-57.1853688,1668,4724.27564
D1,Barra do Bugres/MT,-15.0683712,-57.1853688,39,110.45968
1,Barra do Chapéu/SP,-24.472203,-49.023784,175,3038.19444
1,Barra do Choça/BA,-14.8638173,-40.5761637,1177,3771.34801
D1,Barra do Choça/BA,-14.8638173,-40.5761637,14,44.85885
1,Barra do Corda/MA,-5.496823,-45.248496,4255,4808.34426
D1,Barra do Corda/MA,-5.496823,-45.248496,48,54.24219
1,Barra do Garças/MT,-15.8916033,-52.2615413,4814,7874.37638
D1,Barra do Garças/MT,-15.8916033,-52.2615413,160,261.71587
1,Barra do Guarita/RS,-27.1888016,-53.7147086,88,2701.87289
1,Barra do Jacaré/PR,-23.1151788,-50.1813945,121,4350.95289
1,Barra do Mendes/BA,-11.8053298,-42.057037,548,3961.54124
D1,Barra do Mendes/BA,-11.8053298,-42.057037,7,50.60363
1,Barra do Ouro/TO,-7.7113784,-47.6743925,92,1986.18307
D1,Barra do Ouro/TO,-7.7113784,-47.6743925,5,107.94473
1,Barra do Piraí/RJ,-22.4703403,-43.8263256,3476,3449.64471
D1,Barra do Piraí/RJ,-22.4703403,-43.8263256,134,132.98400
1,Barra do Quaraí/RS,-30.208947,-57.5505128,164,3879.82020
D1,Barra do Quaraí/RS,-30.208947,-57.5505128,2,47.31488
1,Barra do Ribeiro/RS,-30.2930206,-51.301437,563,4153.14252
D1,Barra do Ribeiro/RS,-30.2930206,-51.301437,33,243.43464
1,Barra do Rio Azul/RS,-27.4101581,-52.4117471,47,2839.87915
D1,Barra do Rio Azul/RS,-27.4101581,-52.4117471,1,60.42296
1,Barra do Rocha/BA,-14.2090974,-39.6004395,219,3902.35210
D1,Barra do Rocha/BA,-14.2090974,-39.6004395,3,53.45688
1,Barra do Turvo/SP,-24.756421,-48.5056942,289,3786.68763
D1,Barra do Turvo/SP,-24.756421,-48.5056942,9,117.92453
1,Barra dos Coqueiros/SE,-10.9075694,-37.0386249,3361,10866.47268
D1,Barra dos Coqueiros/SE,-10.9075694,-37.0386249,39,126.09117
1,Barra/BA,-11.0892702,-43.1420453,1086,2014.46856
D1,Barra/BA,-11.0892702,-43.1420453,17,31.53404
1,Barracão/PR,-26.252395,-53.6349576,608,5896.04344
D1,Barracão/PR,-26.252395,-53.6349576,8,77.57952
1,Barracão/RS,-27.6728964,-51.4582928,205,3900.30441
D1,Barracão/RS,-27.6728964,-51.4582928,4,76.10350
1,Barras/PI,-4.2446153,-42.2920241,3425,7258.66271
D1,Barras/PI,-4.2446153,-42.2920241,63,133.51701
1,Barreira/CE,-4.2883361,-38.641094,449,1989.10202
D1,Barreira/CE,-4.2883361,-38.641094,23,101.89164
1,Barreiras do Piauí/PI,-9.9224524,-45.4763776,42,1252.98329
D1,Barreiras do Piauí/PI,-9.9224524,-45.4763776,1,29.83294
1,Barreiras/BA,-12.1440031,-44.9967406,9445,6016.88167
D1,Barreiras/BA,-12.1440031,-44.9967406,110,70.07485
1,Barreirinha/AM,-2.798863,-57.067897,1971,6067.78931
D1,Barreirinha/AM,-2.798863,-57.067897,48,147.76960
1,Barreirinhas/MA,-2.7541271,-42.8259693,1417,2241.48568
D1,Barreirinhas/MA,-2.7541271,-42.8259693,28,44.29188
1,Barreiros/PE,-8.8159644,-35.1831905,394,921.33570
D1,Barreiros/PE,-8.8159644,-35.1831905,42,98.21345
1,Barretos/SP,-20.5531437,-48.5697509,7870,6407.07302
D1,Barretos/SP,-20.5531437,-48.5697509,190,154.68156
1,Barrinha/SP,-21.1898849,-48.1550642,911,2745.62990
D1,Barrinha/SP,-21.1898849,-48.1550642,37,111.51296
1,Barro Alto/BA,-11.7618025,-41.9094904,569,3779.72632
D1,Barro Alto/BA,-11.7618025,-41.9094904,4,26.57101
1,Barro Alto/GO,-14.9696025,-48.9190985,821,7196.70407
D1,Barro Alto/GO,-14.9696025,-48.9190985,8,70.12623
1,Barro Duro/PI,-5.8180139,-42.5106589,475,6759.64138
D1,Barro Duro/PI,-5.8180139,-42.5106589,7,99.61577
1,Barro Preto/BA,-14.8068289,-39.4727588,404,7415.56535
D1,Barro Preto/BA,-14.8068289,-39.4727588,7,128.48752
1,Barro/CE,-7.1713587,-38.7742136,550,2416.73258
D1,Barro/CE,-7.1713587,-38.7742136,13,57.12277
1,Barrocas/BA,-11.5165,-39.099282894736845,397,2465.07296
D1,Barrocas/BA,-11.5165,-39.099282894736845,5,31.04626
1,Barrolândia/TO,-9.837246,-48.7264346,302,5344.18687
D1,Barrolândia/TO,-9.837246,-48.7264346,4,70.78393
1,Barroquinha/CE,-3.0200371,-41.1339229,856,5689.97607
D1,Barroquinha/CE,-3.0200371,-41.1339229,20,132.94337
1,Barros Cassal/RS,-29.094938,-52.5832366,279,2495.08138
D1,Barros Cassal/RS,-29.094938,-52.5832366,2,17.88589
1,Barroso/MG,-21.187222,-43.976111,475,2273.05355
D1,Barroso/MG,-21.187222,-43.976111,8,38.28301
1,Barueri/SP,-23.5112184,-46.8764612,14994,5413.34816
D1,Barueri/SP,-23.5112184,-46.8764612,515,185.93266
1,Barão de Antonina/SP,-23.6295651,-49.5632104,42,1200.68611
D1,Barão de Antonina/SP,-23.6295651,-49.5632104,1,28.58776
1,Barão de Cocais/MG,-19.9452437,-43.4870298,1547,4706.99203
D1,Barão de Cocais/MG,-19.9452437,-43.4870298,14,42.59721
1,Barão de Cotegipe/RS,-27.6214694,-52.3765316,383,5785.49849
D1,Barão de Cotegipe/RS,-27.6214694,-52.3765316,4,60.42296
1,Barão de Grajaú/MA,-6.7542591,-43.0263477,147,776.79138
D1,Barão de Grajaú/MA,-6.7542591,-43.0263477,1,5.28430
1,Barão de Melgaço/MT,-16.195776,-55.9668049,174,2131.30818
D1,Barão de Melgaço/MT,-16.195776,-55.9668049,8,97.99118
1,Barão de Monte Alto/MG,-21.244722,-42.2375,142,2652.22264
D1,Barão de Monte Alto/MG,-21.244722,-42.2375,6,112.06575
1,Barão do Triunfo/RS,-30.3909877,-51.7375349,212,2819.52387
D1,Barão do Triunfo/RS,-30.3909877,-51.7375349,3,39.89892
1,Barão/RS,-29.372474,-51.494908,288,4643.66333
D1,Barão/RS,-29.372474,-51.494908,5,80.61916
1,Bastos/SP,-21.9222474,-50.7317727,332,1584.49864
D1,Bastos/SP,-21.9222474,-50.7317727,12,57.27104
1,Bataguassu/MS,-21.715899,-52.422058,1625,6966.77385
D1,Bataguassu/MS,-21.715899,-52.422058,17,72.88317
1,Batalha/AL,-9.6733809,-37.1265481,721,3931.72647
D1,Batalha/AL,-9.6733809,-37.1265481,13,70.89105
1,Batalha/PI,-4.022391,-42.0780926,570,2118.56532
D1,Batalha/PI,-4.022391,-42.0780926,16,59.46850
1,Batatais/SP,-20.892867,-47.592149,1486,2359.47920
D1,Batatais/SP,-20.892867,-47.592149,49,77.80248
1,Batayporã/MS,-22.2976466,-53.2685608,476,4194.20213
D1,Batayporã/MS,-22.2976466,-53.2685608,11,96.92484
1,Baturité/CE,-4.3290203,-38.8821055,1083,3013.27175
D1,Baturité/CE,-4.3290203,-38.8821055,37,102.94650
1,Bauru/SP,-22.3218102,-49.0705863,25280,6664.96176
D1,Bauru/SP,-22.3218102,-49.0705863,412,108.62200
1,Bayeux/PB,-7.1301631,-34.936532,4103,4221.06314
D1,Bayeux/PB,-7.1301631,-34.936532,142,146.08603
1,Baía Formosa/RN,-6.3691885,-35.0063741,224,2402.91783
D1,Baía Formosa/RN,-6.3691885,-35.0063741,7,75.09118
1,Baía da Traição/PB,-6.691258,-34.9371244,1003,11026.82498
D1,Baía da Traição/PB,-6.691258,-34.9371244,8,87.95075
1,Bebedouro/SP,-20.949077,-48.479083,2136,2754.17446
D1,Bebedouro/SP,-20.949077,-48.479083,57,73.49623
1,Beberibe/CE,-4.1810469,-38.1298101,1603,2971.32477
D1,Beberibe/CE,-4.1810469,-38.1298101,33,61.16888
1,Bela Cruz/CE,-3.0529129,-40.167582,1747,5338.91571
D1,Bela Cruz/CE,-3.0529129,-40.167582,25,76.40120
1,Bela Vista da Caroba/PR,-25.8792818,-53.6672545,111,3210.87648
D1,Bela Vista da Caroba/PR,-25.8792818,-53.6672545,1,28.92682
1,Bela Vista de Goiás/GO,-16.9692949,-48.9513071,1397,4581.52958
D1,Bela Vista de Goiás/GO,-16.9692949,-48.9513071,27,88.54782
1,Bela Vista de Minas/MG,-19.8289721,-43.0973688,372,3625.02436
D1,Bela Vista de Minas/MG,-19.8289721,-43.0973688,9,87.70220
1,Bela Vista do Maranhão/MA,-3.7416367,-45.2514192,165,1462.89565
D1,Bela Vista do Maranhão/MA,-3.7416367,-45.2514192,8,70.92827
1,Bela Vista do Paraíso/PR,-22.9948493,-51.1907996,847,5500.35717
D1,Bela Vista do Paraíso/PR,-22.9948493,-51.1907996,17,110.39678
1,Bela Vista do Piauí/PI,-7.9716353,-41.8715061,205,5086.84864
D1,Bela Vista do Piauí/PI,-7.9716353,-41.8715061,5,124.06948
1,Bela Vista do Toldo/SC,-26.274625,-50.466354,44,691.60641
D1,Bela Vista do Toldo/SC,-26.274625,-50.466354,1,15.71833
1,Bela Vista/MS,-22.107327,-56.5317344,350,1414.99899
D1,Bela Vista/MS,-22.107327,-56.5317344,9,36.38569
1,Belford Roxo/RJ,-22.7667284,-43.4033603,17113,3335.10031
D1,Belford Roxo/RJ,-22.7667284,-43.4033603,431,83.99627
1,Belmiro Braga/MG,-21.9486291,-43.413564,117,3416.05839
D1,Belmiro Braga/MG,-21.9486291,-43.413564,3,87.59124
1,Belmonte/BA,-15.8630837,-38.8792845,815,3477.40752
D1,Belmonte/BA,-15.8630837,-38.8792845,10,42.66758
1,Belmonte/SC,-26.8448262,-53.578916,117,4318.93688
D1,Belmonte/SC,-26.8448262,-53.578916,3,110.74197
1,Belo Campo/BA,-15.0338286,-41.2585109,337,1969.72354
D1,Belo Campo/BA,-15.0338286,-41.2585109,4,23.37951
1,Belo Horizonte/MG,-19.9227318,-43.9450948,107891,4278.73336
D1,Belo Horizonte/MG,-19.9227318,-43.9450948,2707,107.35401
1,Belo Jardim/PE,-8.3338293,-36.4176419,1715,2236.36340
D1,Belo Jardim/PE,-8.3338293,-36.4176419,44,57.37609
1,Belo Monte/AL,-9.8269944,-37.2787165,211,3144.56036
D1,Belo Monte/AL,-9.8269944,-37.2787165,6,89.41878
1,Belo Oriente/MG,-19.2232523,-42.4807033,1472,5453.06364
D1,Belo Oriente/MG,-19.2232523,-42.4807033,26,96.31770
1,Belo Vale/MG,-20.407778,-44.024167,289,3744.00829
D1,Belo Vale/MG,-20.407778,-44.024167,6,77.73028
1,Belterra/PA,-2.636091,-54.937392,566,3172.82359
D1,Belterra/PA,-2.636091,-54.937392,14,78.47974
1,Belágua/MA,-3.1604031,-43.5085052,279,3706.16366
D1,Belágua/MA,-3.1604031,-43.5085052,2,26.56748
1,Belém de Maria/PE,-8.6242497,-35.8388934,124,1022.93351
D1,Belém de Maria/PE,-8.6242497,-35.8388934,3,24.74839
1,Belém do Brejo do Cruz/PB,-6.1880727,-37.5332267,467,6354.60607
D1,Belém do Brejo do Cruz/PB,-6.1880727,-37.5332267,5,68.03647
1,Belém do Piauí/PI,-7.3767305,-40.9712156,358,9980.48509
D1,Belém do Piauí/PI,-7.3767305,-40.9712156,5,139.39225
1,Belém do São Francisco/PE,-8.7517707,-38.9625715,319,1538.83261
D1,Belém do São Francisco/PE,-8.7517707,-38.9625715,5,24.11963
1,Belém/AL,-9.5715351,-36.492841,76,1774.04295
D1,Belém/AL,-9.5715351,-36.492841,3,70.02801
1,Belém/PA,-1.45056,-48.4682453,72125,4809.48440
D1,Belém/PA,-1.45056,-48.4682453,2765,184.37746
1,Belém/PB,-6.6967586,-35.5369626,1341,7574.13160
D1,Belém/PB,-6.6967586,-35.5369626,19,107.31432
1,Beneditinos/PI,-5.4565671,-42.3605061,484,4621.40743
D1,Beneditinos/PI,-5.4565671,-42.3605061,17,162.32216
1,Benedito Leite/MA,-7.2173453,-44.5523331,254,4505.14367
D1,Benedito Leite/MA,-7.2173453,-44.5523331,2,35.47357
1,Benedito Novo/SC,-26.7840657,-49.3629511,611,5188.95966
D1,Benedito Novo/SC,-26.7840657,-49.3629511,7,59.44798
1,Benevides/PA,-1.3555577,-48.252235,2448,3838.91607
D1,Benevides/PA,-1.3555577,-48.252235,56,87.81834
1,Benjamin Constant do Sul/RS,-27.5105555,-52.6007689,131,6690.50051
1,Benjamin Constant/AM,-4.3782748,-70.0290603,2294,5221.34972
D1,Benjamin Constant/AM,-4.3782748,-70.0290603,64,145.66974
1,Bento Fernandes/RN,-5.6926846,-35.8207423,47,850.67873
D1,Bento Fernandes/RN,-5.6926846,-35.8207423,2,36.19910
1,Bento Gonçalves/RS,-29.1654014,-51.5197627,9594,7876.65328
D1,Bento Gonçalves/RS,-29.1654014,-51.5197627,165,135.46464
1,Bento de Abreu/SP,-21.2707225,-50.8120444,113,3760.39933
1,Bequimão/MA,-2.4495376,-44.7884889,265,1244.18987
D1,Bequimão/MA,-2.4495376,-44.7884889,13,61.03573
1,Berilo/MG,-16.9515764,-42.4643732,10,84.23181
1,Berizal/MG,-15.6118785,-41.7417382,67,1406.38119
1,Bernardino Batista/PB,-6.4532173,-38.5495418,192,5429.86425
1,Bernardino de Campos/SP,-23.0140216,-49.4760724,262,2348.09106
D1,Bernardino de Campos/SP,-23.0140216,-49.4760724,6,53.77308
1,Bernardo Sayão/TO,-7.8794244,-48.8968905,154,3462.23022
D1,Bernardo Sayão/TO,-7.8794244,-48.8968905,4,89.92806
1,Bernardo do Mearim/MA,-4.6315929,-44.7617508,173,2848.67446
D1,Bernardo do Mearim/MA,-4.6315929,-44.7617508,3,49.39898
1,Bertioga/SP,-23.848568,-46.139586,3192,4931.78623
D1,Bertioga/SP,-23.848568,-46.139586,61,94.24779
1,Bertolínia/PI,-7.6372159,-43.9540611,583,10586.52624
D1,Bertolínia/PI,-7.6372159,-43.9540611,6,108.95224
1,Bertópolis/MG,-17.063333,-40.573889,219,4753.63577
1,Beruri/AM,-3.9007135,-61.3717319,1885,9381.37660
D1,Beruri/AM,-3.9007135,-61.3717319,28,139.35201
1,Betim/MG,-19.968056,-44.198333,17885,4021.05292
D1,Betim/MG,-19.968056,-44.198333,450,101.17270
1,Betânia do Piauí/PI,-8.1460635,-40.7961387,133,2141.70692
D1,Betânia do Piauí/PI,-8.1460635,-40.7961387,2,32.20612
1,Betânia/PE,-8.2742779,-38.0351767,219,1715.62867
D1,Betânia/PE,-8.2742779,-38.0351767,3,23.50176
1,Bezerros/PE,-8.2372132,-35.7558262,2161,3549.60578
D1,Bezerros/PE,-8.2372132,-35.7558262,76,124.83574
1,Bias Fortes/MG,-21.605833,-43.756944,74,2222.88976
D1,Bias Fortes/MG,-21.605833,-43.756944,2,60.07810
1,Bicas/MG,-21.7213723,-43.0604327,554,3806.51367
D1,Bicas/MG,-21.7213723,-43.0604327,17,116.80638
1,Biguaçu/SC,-27.4961277,-48.6542432,7488,10776.27148
D1,Biguaçu/SC,-27.4961277,-48.6542432,80,115.13111
1,Bilac/SP,-21.403962,-50.47464,392,4829.37046
D1,Bilac/SP,-21.403962,-50.47464,7,86.23876
1,Biquinhas/MG,-18.783611,-45.502222,28,1120.89672
1,Birigui/SP,-21.2908491,-50.34144,6799,5444.29586
D1,Birigui/SP,-21.2908491,-50.34144,185,148.13866
1,Biritiba Mirim/SP,-23.5697765,-46.0407456,710,2155.69590
D1,Biritiba Mirim/SP,-23.5697765,-46.0407456,45,136.62861
1,Biritinga/BA,-11.6227908,-38.8066738,194,1213.71371
D1,Biritinga/BA,-11.6227908,-38.8066738,2,12.51251
1,Bituruna/PR,-26.161281,-51.5533319,216,1317.07317
D1,Bituruna/PR,-26.161281,-51.5533319,1,6.09756
1,Blumenau/SC,-26.9195567,-49.0658025,34986,9668.51363
D1,Blumenau/SC,-26.9195567,-49.0658025,325,89.81498
1,Boa Esperança do Iguaçu/PR,-25.6362851,-53.2139114,97,3927.12551
1,Boa Esperança do Sul/SP,-21.9930206,-48.3917372,497,3309.36210
D1,Boa Esperança do Sul/SP,-21.9930206,-48.3917372,9,59.92809
1,Boa Esperança/ES,-18.5395472,-40.2904088,730,4836.99973
D1,Boa Esperança/ES,-18.5395472,-40.2904088,24,159.02465
1,Boa Esperança/MG,-21.0901253,-45.5660195,1178,2928.96392
D1,Boa Esperança/MG,-21.0901253,-45.5660195,35,87.02355
1,Boa Esperança/PR,-24.2411024,-52.7860277,176,4348.90042
D1,Boa Esperança/PR,-24.2411024,-52.7860277,4,98.83865
1,Boa Hora/PI,-4.4094627,-42.1255341,325,4768.89215
D1,Boa Hora/PI,-4.4094627,-42.1255341,4,58.69406
1,Boa Nova/BA,-14.365907,-40.2063056,353,2863.16814
D1,Boa Nova/BA,-14.365907,-40.2063056,6,48.66575
1,Boa Ventura de São Roque/PR,-24.88177,-51.5441292,206,3236.44933
D1,Boa Ventura de São Roque/PR,-24.88177,-51.5441292,3,47.13276
1,Boa Ventura/PB,-7.4202462,-38.2156782,171,3222.15941
D1,Boa Ventura/PB,-7.4202462,-38.2156782,3,56.52911
1,Boa Viagem/CE,-5.1261877,-39.7300055,1796,3290.76351
D1,Boa Viagem/CE,-5.1261877,-39.7300055,46,84.28459
1,Boa Vista da Aparecida/PR,-25.4357216,-53.4067721,422,5596.81698
D1,Boa Vista da Aparecida/PR,-25.4357216,-53.4067721,13,172.41379
1,Boa Vista das Missões/RS,-27.6677983,-53.3127622,46,2198.85277
D1,Boa Vista das Missões/RS,-27.6677983,-53.3127622,1,47.80115
1,Boa Vista do Buricá/RS,-27.6687782,-54.1111913,343,5110.25030
D1,Boa Vista do Buricá/RS,-27.6687782,-54.1111913,4,59.59476
1,Boa Vista do Cadeado/RS,-28.5783827,-53.8123759,86,3484.60292
1,Boa Vista do Gurupi/MA,-1.7981168,-46.3071882,14,167.02458
D1,Boa Vista do Gurupi/MA,-1.7981168,-46.3071882,3,35.79098
1,Boa Vista do Incra/RS,-28.8195551,-53.3866624,106,4051.98777
D1,Boa Vista do Incra/RS,-28.8195551,-53.3866624,1,38.22630
1,Boa Vista do Ramos/AM,-2.9716927,-57.5869819,788,4015.08203
D1,Boa Vista do Ramos/AM,-2.9716927,-57.5869819,11,56.04810
1,Boa Vista do Sul/RS,-29.3510488,-51.6779679,144,5183.58531
D1,Boa Vista do Sul/RS,-29.3510488,-51.6779679,2,71.99424
1,Boa Vista do Tupim/BA,-12.6605988,-40.6083594,154,831.03988
D1,Boa Vista do Tupim/BA,-12.6605988,-40.6083594,3,16.18909
1,Boa Vista/PB,-7.2620711,-36.2415161,268,3755.60538
D1,Boa Vista/PB,-7.2620711,-36.2415161,2,28.02691
1,Boa Vista/RR,2.8208478,-60.6719582,60871,14505.11376
D1,Boa Vista/RR,2.8208478,-60.6719582,814,193.97024
1,Boca da Mata/AL,-9.6452054,-36.2116658,1373,5019.00863
D1,Boca da Mata/AL,-9.6452054,-36.2116658,28,102.35415
1,Boca do Acre/AM,-8.7553487,-67.3930873,2261,6528.07853
D1,Boca do Acre/AM,-8.7553487,-67.3930873,19,54.85780
1,Bocaina de Minas/MG,-22.167778,-44.394722,71,1395.16604
D1,Bocaina de Minas/MG,-22.167778,-44.394722,2,39.30045
1,Bocaina do Sul/SC,-27.745494,-49.942279,300,8600.91743
D1,Bocaina do Sul/SC,-27.745494,-49.942279,3,86.00917
1,Bocaina/PI,-6.9445939,-41.3224599,216,4794.67259
D1,Bocaina/PI,-6.9445939,-41.3224599,3,66.59267
1,Bocaina/SP,-22.1421831,-48.522276,907,7283.97045
D1,Bocaina/SP,-22.1421831,-48.522276,18,144.55509
1,Bocaiúva do Sul/PR,-25.206591,-49.114131,679,5171.75718
D1,Bocaiúva do Sul/PR,-25.206591,-49.114131,3,22.85018
1,Bocaiúva/MG,-17.1160208,-43.8122678,871,1733.12639
D1,Bocaiúva/MG,-17.1160208,-43.8122678,19,37.80643
1,Bodocó/PE,-7.777592,-39.933797,1294,3371.72338
D1,Bodocó/PE,-7.777592,-39.933797,16,41.69055
1,Bodoquena/MS,-20.5508775,-56.6769653,108,1377.90253
D1,Bodoquena/MS,-20.5508775,-56.6769653,2,25.51671
1,Bodó/RN,-5.9866104,-36.4134824,63,2867.54665
1,Bofete/SP,-23.1019554,-48.2610535,378,3170.87493
D1,Bofete/SP,-23.1019554,-48.2610535,4,33.55423
1,Boituva/SP,-23.2838893,-47.6738231,2808,4516.64790
D1,Boituva/SP,-23.2838893,-47.6738231,46,73.99067
1,Bom Conselho/PE,-9.169191,-36.685683,1055,2163.34817
D1,Bom Conselho/PE,-9.169191,-36.685683,34,69.71928
1,Bom Despacho/MG,-19.7375242,-45.2517288,2015,3948.81242
D1,Bom Despacho/MG,-19.7375242,-45.2517288,38,74.46892
1,Bom Jardim da Serra/SC,-28.3380324,-49.625588,500,10477.78709
D1,Bom Jardim da Serra/SC,-28.3380324,-49.625588,3,62.86672
1,Bom Jardim de Goiás/GO,-16.2062659,-52.172793,328,3698.27489
D1,Bom Jardim de Goiás/GO,-16.2062659,-52.172793,4,45.10091
1,Bom Jardim de Minas/MG,-21.9476466,-44.1906033,124,1919.80183
D1,Bom Jardim de Minas/MG,-21.9476466,-44.1906033,1,15.48227
1,Bom Jardim/MA,-3.54129,-45.606004,1034,2472.38296
D1,Bom Jardim/MA,-3.54129,-45.606004,30,71.73258
1,Bom Jardim/PE,-7.7961572,-35.5871696,854,2135.90776
D1,Bom Jardim/PE,-7.7961572,-35.5871696,38,95.04039
1,Bom Jardim/RJ,-22.1515328,-42.4186683,676,2447.85632
D1,Bom Jardim/RJ,-22.1515328,-42.4186683,15,54.31634
1,Bom Jesus da Lapa/BA,-13.250571,-43.410754,1774,2546.58207
D1,Bom Jesus da Lapa/BA,-13.250571,-43.410754,19,27.27455
1,Bom Jesus da Penha/MG,-21.0165299,-46.5226644,179,4217.71913
D1,Bom Jesus da Penha/MG,-21.0165299,-46.5226644,2,47.12535
1,Bom Jesus da Serra/BA,-14.3724084,-40.5047119,304,3094.77756
D1,Bom Jesus da Serra/BA,-14.3724084,-40.5047119,2,20.36038
1,Bom Jesus das Selvas/MA,-4.4878075,-46.8526639,2078,6011.51387
D1,Bom Jesus das Selvas/MA,-4.4878075,-46.8526639,19,54.96572
1,Bom Jesus de Goiás/GO,-18.2174587,-49.739721,1343,5236.27573
D1,Bom Jesus de Goiás/GO,-18.2174587,-49.739721,34,132.56394
1,Bom Jesus do Amparo/MG,-19.7045132,-43.4752911,97,1581.60770
D1,Bom Jesus do Amparo/MG,-19.7045132,-43.4752911,3,48.91570
1,Bom Jesus do Araguaia/MT,-12.1725897,-51.5074425,340,5070.08649
D1,Bom Jesus do Araguaia/MT,-12.1725897,-51.5074425,1,14.91202
1,Bom Jesus do Galho/MG,-19.8283191,-42.3162256,290,1951.28516
D1,Bom Jesus do Galho/MG,-19.8283191,-42.3162256,11,74.01426
1,Bom Jesus do Itabapoana/RJ,-21.1341025,-41.680095,2008,5397.41419
D1,Bom Jesus do Itabapoana/RJ,-21.1341025,-41.680095,43,115.58208
1,Bom Jesus do Norte/ES,-21.1254776,-41.6711646,715,7177.27364
D1,Bom Jesus do Norte/ES,-21.1254776,-41.6711646,16,160.61032
1,Bom Jesus do Oeste/SC,-26.6929713,-53.0967453,94,4394.57691
D1,Bom Jesus do Oeste/SC,-26.6929713,-53.0967453,2,93.50164
1,Bom Jesus do Sul/PR,-26.1922507,-53.6002033,152,4335.42499
D1,Bom Jesus do Sul/PR,-26.1922507,-53.6002033,3,85.56760
1,Bom Jesus do Tocantins/PA,-5.0471796,-48.5978362,461,2693.07162
D1,Bom Jesus do Tocantins/PA,-5.0471796,-48.5978362,5,29.20902
1,Bom Jesus do Tocantins/TO,-8.96306,-48.165043,111,2216.45367
1,Bom Jesus dos Perdões/SP,-23.1353864,-46.4648052,888,3417.35617
D1,Bom Jesus dos Perdões/SP,-23.1353864,-46.4648052,6,23.09024
1,Bom Jesus/PB,-6.8156725,-38.6551841,83,3223.30097
D1,Bom Jesus/PB,-6.8156725,-38.6551841,3,116.50485
1,Bom Jesus/PI,-9.0711644,-44.3583926,2256,8886.43794
D1,Bom Jesus/PI,-9.0711644,-44.3583926,24,94.53657
1,Bom Jesus/RN,-5.9887544,-35.5821149,449,4373.23464
D1,Bom Jesus/RN,-5.9887544,-35.5821149,8,77.91955
1,Bom Jesus/RS,-28.6692723,-50.4346894,443,3917.23406
D1,Bom Jesus/RS,-28.6692723,-50.4346894,11,97.26766
1,Bom Jesus/SC,-26.7350604,-52.3916519,236,7719.98692
D1,Bom Jesus/SC,-26.7350604,-52.3916519,3,98.13543
1,Bom Lugar/MA,-4.3728019,-45.0366054,317,1928.45845
D1,Bom Lugar/MA,-4.3728019,-45.0366054,5,30.41733
1,Bom Princípio do Piauí/PI,-3.1912777,-41.6430185,47,831.71120
D1,Bom Princípio do Piauí/PI,-3.1912777,-41.6430185,3,53.08795
1,Bom Princípio/RS,-29.489788,-51.3566782,885,6208.34795
D1,Bom Princípio/RS,-29.489788,-51.3566782,13,91.19607
1,Bom Progresso/RS,-27.5490948,-53.8655601,48,2527.64613
1,Bom Repouso/MG,-22.4657069,-46.1485376,298,2828.12945
D1,Bom Repouso/MG,-22.4657069,-46.1485376,8,75.92294
1,Bom Retiro do Sul/RS,-29.6000007,-51.9359243,640,5165.45601
D1,Bom Retiro do Sul/RS,-29.6000007,-51.9359243,10,80.71025
1,Bom Retiro/SC,-27.798993,-49.486994,375,3727.63419
D1,Bom Retiro/SC,-27.798993,-49.486994,8,79.52286
1,Bom Sucesso de Itararé/SP,-24.3190016,-49.1446207,63,1581.32530
D1,Bom Sucesso de Itararé/SP,-24.3190016,-49.1446207,4,100.40161
1,Bom Sucesso do Sul/PR,-26.0749256,-52.8348629,195,5992.62446
D1,Bom Sucesso do Sul/PR,-26.0749256,-52.8348629,3,92.19422
1,Bom Sucesso/MG,-21.0323516,-44.7598082,218,1238.14392
D1,Bom Sucesso/MG,-21.0323516,-44.7598082,4,22.71824
1,Bom Sucesso/PB,-6.4458948,-37.9297662,93,1876.51332
1,Bom Sucesso/PR,-23.7088019,-51.7651297,377,5333.89926
D1,Bom Sucesso/PR,-23.7088019,-51.7651297,7,99.03792
1,Bombinhas/SC,-27.1519159,-48.4875691,2764,13592.32850
D1,Bombinhas/SC,-27.1519159,-48.4875691,29,142.61126
1,Bonfim do Piauí/PI,-9.1648678,-42.8734415,173,3043.09587
D1,Bonfim do Piauí/PI,-9.1648678,-42.8734415,2,35.18030
1,Bonfim/MG,-20.3266626, -44.2386157,185,2696.79300
D1,Bonfim/MG,-20.3266626, -44.2386157,3,43.73178
1,Bonfim/RR,3.3613818,-59.8427241,1489,11857.92785
D1,Bonfim/RR,3.3613818,-59.8427241,21,167.23740
1,Bonfinópolis de Minas/MG,-16.5660011,-45.98645,221,4059.51506
D1,Bonfinópolis de Minas/MG,-16.5660011,-45.98645,9,165.31962
1,Bonfinópolis/GO,-16.6172709,-48.9615701,402,4052.82791
D1,Bonfinópolis/GO,-16.6172709,-48.9615701,11,110.89828
1,Boninal/BA,-12.7095183,-41.8299984,405,2803.54423
D1,Boninal/BA,-12.7095183,-41.8299984,4,27.68933
1,Bonito de Minas/MG,-15.3191266,-44.7544,14,123.14188
1,Bonito de Santa Fé/PB,-7.3143332,-38.5146677,330,2744.96756
D1,Bonito de Santa Fé/PB,-7.3143332,-38.5146677,11,91.49892
1,Bonito/BA,-11.9665473,-41.2649896,482,2854.77375
D1,Bonito/BA,-11.9665473,-41.2649896,4,23.69107
1,Bonito/MS,-21.1264766,-56.4902208,1498,6750.78864
D1,Bonito/MS,-21.1264766,-56.4902208,23,103.65029
1,Bonito/PA,-1.3605722,-47.3049907,320,1935.87417
D1,Bonito/PA,-1.3605722,-47.3049907,11,66.54567
1,Bonito/PE,-8.4721161,-35.7314591,519,1361.59719
D1,Bonito/PE,-8.4721161,-35.7314591,28,73.45804
1,Bonópolis/GO,-13.649331,-49.8329113,95,2114.40018
D1,Bonópolis/GO,-13.649331,-49.8329113,1,22.25684
1,Boqueirão do Leão/RS,-29.30332,-52.4296817,306,3972.99403
D1,Boqueirão do Leão/RS,-29.30332,-52.4296817,9,116.85277
1,Boqueirão do Piauí/PI,-4.4850148,-42.1095161,340,5291.00529
D1,Boqueirão do Piauí/PI,-4.4850148,-42.1095161,5,77.80890
1,Boqueirão/PB,-7.487004,-36.130887,1017,5691.10241
D1,Boqueirão/PB,-7.487004,-36.130887,16,89.53553
1,Boquim/SE,-11.1450175,-37.6204228,1242,4617.27202
D1,Boquim/SE,-11.1450175,-37.6204228,27,100.37548
1,Boquira/BA,-12.8184859,-42.7270883,319,1483.92799
D1,Boquira/BA,-12.8184859,-42.7270883,5,23.25906
1,Boracéia/SP,-22.195355,-48.7801925,345,7087.09942
D1,Boracéia/SP,-22.195355,-48.7801925,5,102.71159
1,Borba/AM,-4.3934778,-59.5947721,1365,3269.61771
D1,Borba/AM,-4.3934778,-59.5947721,43,102.99895
1,Borborema/PB,-6.8066718,-35.5990191,107,2023.83204
D1,Borborema/PB,-6.8066718,-35.5990191,1,18.91432
1,Borborema/SP,-21.6212706,-49.074135,571,3532.54145
D1,Borborema/SP,-21.6212706,-49.074135,16,98.98540
1,Borda da Mata/MG,-22.274167,-46.165278,770,3925.76731
D1,Borda da Mata/MG,-22.274167,-46.165278,23,117.26318
1,Borebi/SP,-22.5700178,-48.9714871,87,3242.63884
D1,Borebi/SP,-22.5700178,-48.9714871,2,74.54342
1,Borrazópolis/PR,-23.9393362,-51.5850786,412,6398.50909
D1,Borrazópolis/PR,-23.9393362,-51.5850786,9,139.77326
1,Borá/SP,-22.2701088,-50.544407,17,2028.63962
1,Bossoroca/RS,-28.7278885,-54.9120278,120,1933.92425
D1,Bossoroca/RS,-28.7278885,-54.9120278,5,80.58018
1,Botelhos/MG,-21.65,-46.394722,374,2501.83959
D1,Botelhos/MG,-21.65,-46.394722,4,26.75764
1,Botucatu/SP,-22.8879628,-48.4410712,7677,5182.60987
D1,Botucatu/SP,-22.8879628,-48.4410712,100,67.50827
1,Botumirim/MG,-16.862778,-43.011111,102,1622.13740
D1,Botumirim/MG,-16.862778,-43.011111,1,15.90331
1,Botuporã/BA,-13.3744752,-42.5198469,124,1224.20772
D1,Botuporã/BA,-13.3744752,-42.5198469,2,19.74529
1,Botuverá/SC,-27.200749,-49.068892,628,11800.07516
D1,Botuverá/SC,-27.200749,-49.068892,4,75.15971
1,Bozano/RS,-28.3669953,-53.7705165,98,4642.34960
1,Braga/RS,-27.617348,-53.740514,81,2446.39082
D1,Braga/RS,-27.617348,-53.740514,2,60.40471
1,Braganey/PR,-24.8179919,-53.118506,200,3716.09067
D1,Braganey/PR,-24.8179919,-53.118506,3,55.74136
1,Bragança Paulista/SP,-22.9520235,-46.5418586,7836,4595.00507
D1,Bragança Paulista/SP,-22.9520235,-46.5418586,141,82.68194
1,Bragança/PA,-1.0573967,-46.7635406,3273,2538.90190
D1,Bragança/PA,-1.0573967,-46.7635406,105,81.44965
1,Branquinha/AL,-9.2478057,-36.0152009,317,3030.59273
D1,Branquinha/AL,-9.2478057,-36.0152009,8,76.48184
1,Brasil Novo/PA,-3.3055853,-52.539198,954,6367.21618
D1,Brasil Novo/PA,-3.3055853,-52.539198,19,126.81039
1,Brasileira/PI,-4.131182,-41.7824969,306,3665.98778
D1,Brasileira/PI,-4.131182,-41.7824969,5,59.90176
1,Brasilândia de Minas/MG,-17.0096469,-46.0087183,645,3851.20611
D1,Brasilândia de Minas/MG,-17.0096469,-46.0087183,7,41.79604
1,Brasilândia do Sul/PR,-24.1975793,-53.527551,142,5493.23017
D1,Brasilândia do Sul/PR,-24.1975793,-53.527551,1,38.68472
1,Brasilândia do Tocantins/TO,-8.3886619,-48.4842729,80,3618.27227
D1,Brasilândia do Tocantins/TO,-8.3886619,-48.4842729,1,45.22840
1,Brasilândia/MS,-21.255575,-52.0365617,279,2353.83447
D1,Brasilândia/MS,-21.255575,-52.0365617,5,42.18341
1,Brasiléia/AC,-11.0010413,-68.7487894,1839,6887.12456
D1,Brasiléia/AC,-11.0010413,-68.7487894,27,101.11602
1,Brasnorte/MT,-12.1227151,-58.0050109,860,4270.10924
D1,Brasnorte/MT,-12.1227151,-58.0050109,8,39.72195
1,Brasília de Minas/MG,-16.2075114,-44.430559,504,1555.31554
D1,Brasília de Minas/MG,-16.2075114,-44.430559,5,15.42972
1,Brasília/DF,-15.7934036,-47.8823172,293782,9615.96308
D1,Brasília/DF,-15.7934036,-47.8823172,4805,157.27547
1,Brazabrantes/GO,-16.4291635,-49.3858216,251,6700.48051
D1,Brazabrantes/GO,-16.4291635,-49.3858216,2,53.39028
1,Brazópolis/MG,-22.4742842,-45.6165577,467,3240.80500
D1,Brazópolis/MG,-22.4742842,-45.6165577,15,104.09438
1,Braço do Norte/SC,-28.2728633,-49.1622712,5128,15137.56051
D1,Braço do Norte/SC,-28.2728633,-49.1622712,43,126.93352
1,Braço do Trombudo/SC,-27.358578,-49.882145,329,8729.10586
D1,Braço do Trombudo/SC,-27.358578,-49.882145,3,79.59671
1,Braúna/SP,-21.5015319,-50.3175246,185,3222.43512
D1,Braúna/SP,-21.5015319,-50.3175246,7,121.92998
1,Braúnas/MG,-19.055556,-42.716111,93,1950.09436
D1,Braúnas/MG,-19.055556,-42.716111,3,62.90627
1,Brejetuba/ES,-20.1465817,-41.2902303,1069,8602.23706
D1,Brejetuba/ES,-20.1465817,-41.2902303,3,24.14098
1,Brejinho de Nazaré/TO,-11.0205883,-48.5722906,172,3116.50661
D1,Brejinho de Nazaré/TO,-11.0205883,-48.5722906,6,108.71535
1,Brejinho/PE,-7.3482153,-37.28538,328,4380.34188
D1,Brejinho/PE,-7.3482153,-37.28538,4,53.41880
1,Brejinho/RN,-6.1957907,-35.3583019,603,4715.72691
D1,Brejinho/RN,-6.1957907,-35.3583019,6,46.92266
1,Brejo Alegre/SP,-21.1671191,-50.1850393,183,6334.37175
D1,Brejo Alegre/SP,-21.1671191,-50.1850393,9,311.52648
1,Brejo Grande do Araguaia/PA,-5.7011449,-48.4037308,703,9541.25950
D1,Brejo Grande do Araguaia/PA,-5.7011449,-48.4037308,5,67.86102
1,Brejo Grande/SE,-10.4287358,-36.4667918,238,2849.27571
D1,Brejo Grande/SE,-10.4287358,-36.4667918,9,107.74572
1,Brejo Santo/CE,-7.4909841,-38.9859152,3455,6931.90482
D1,Brejo Santo/CE,-7.4909841,-38.9859152,32,64.20288
1,Brejo da Madre de Deus/PE,-8.1409718,-36.3712527,1345,2625.67106
D1,Brejo da Madre de Deus/PE,-8.1409718,-36.3712527,37,72.23036
1,Brejo de Areia/MA,-4.3316785,-45.5833334,267,2962.05902
D1,Brejo de Areia/MA,-4.3316785,-45.5833334,2,22.18771
1,Brejo do Cruz/PB,-6.32926065,-37.48746163303929,1143,8045.89610
D1,Brejo do Cruz/PB,-6.32926065,-37.48746163303929,14,98.54991
1,Brejo do Piauí/PI,-8.207583,-42.8359849,40,1039.50104
D1,Brejo do Piauí/PI,-8.207583,-42.8359849,3,77.96258
1,Brejo dos Santos/PB,-6.3769367,-37.8243125,224,3465.34653
D1,Brejo dos Santos/PB,-6.3769367,-37.8243125,4,61.88119
1,Brejo/MA,-3.6804397,-42.7529313,708,1931.73447
D1,Brejo/MA,-3.6804397,-42.7529313,18,49.11189
1,Brejolândia/BA,-12.4843845,-43.9611861,126,1186.66416
D1,Brejolândia/BA,-12.4843845,-43.9611861,7,65.92579
1,Brejão/PE,-9.029146,-36.566034,126,1402.02515
D1,Brejão/PE,-9.029146,-36.566034,3,33.38155
1,Brejões/BA,-13.1033754,-39.7909837,435,3058.64154
D1,Brejões/BA,-13.1033754,-39.7909837,7,49.21952
1,Breu Branco/PA,-3.7785073,-49.5684795,442,656.44864
D1,Breu Branco/PA,-3.7785073,-49.5684795,29,43.07016
1,Breves/PA,-1.68036,-50.479085,3577,3456.13883
D1,Breves/PA,-1.68036,-50.479085,102,98.55358
1,Britânia/GO,-15.2427599,-51.1602061,338,5830.60204
D1,Britânia/GO,-15.2427599,-51.1602061,1,17.25030
1,Brochier/RS,-29.556766,-51.5963047,181,3546.23824
1,Brodowski/SP,-20.984532,-47.657217,1230,4866.08379
D1,Brodowski/SP,-20.984532,-47.657217,29,114.72880
1,Brotas de Macaúbas/BA,-12.0019007,-42.6257506,52,513.32675
1,Brotas/SP,-22.2840884,-48.1267265,291,1181.19825
D1,Brotas/SP,-22.2840884,-48.1267265,11,44.65011
1,Brumadinho/MG,-20.143611,-44.2,2124,5223.03644
D1,Brumadinho/MG,-20.143611,-44.2,30,73.77170
1,Brumado/BA,-14.29507325,-41.659307508575985,4946,7345.36274
D1,Brumado/BA,-14.29507325,-41.659307508575985,50,74.25559
1,Brunópolis/SC,-27.310953,-50.837585,103,4349.66216
1,Brusque/SC,-27.0964628,-48.9136323,16978,12330.68727
D1,Brusque/SC,-27.0964628,-48.9136323,132,95.86822
1,Brás Pires/MG,-20.8483109,-43.2430524,99,2306.07966
D1,Brás Pires/MG,-20.8483109,-43.2430524,5,116.46867
1,Bueno Brandão/MG,-22.441976,-46.3517971,283,2574.83396
D1,Bueno Brandão/MG,-22.441976,-46.3517971,7,63.68847
1,Buenos Aires/PE,-7.7218931,-35.326587,96,727.82411
D1,Buenos Aires/PE,-7.7218931,-35.326587,12,90.97801
1,Buenópolis/MG,-17.8756607,-44.1749365,150,1448.85540
D1,Buenópolis/MG,-17.8756607,-44.1749365,5,48.29518
1,Buerarema/BA,-14.9571177,-39.3008035,998,5451.76445
D1,Buerarema/BA,-14.9571177,-39.3008035,30,163.88069
1,Bugre/MG,-19.4257687,-42.2556,286,7180.51720
D1,Bugre/MG,-19.4257687,-42.2556,9,225.96033
1,Bujari/AC,-9.8309656,-67.9520886,593,5690.97889
D1,Bujari/AC,-9.8309656,-67.9520886,8,76.77543
1,Bujaru/PA,-1.5169239,-48.0410699,906,3078.80518
D1,Bujaru/PA,-1.5169239,-48.0410699,26,88.35423
1,Buri/SP,-23.79849,-48.598924,816,4087.15252
D1,Buri/SP,-23.79849,-48.598924,18,90.15778
1,Buritama/SP,-21.0664017,-50.1448077,1242,7187.08408
D1,Buritama/SP,-21.0664017,-50.1448077,35,202.53458
1,Buriti Alegre/GO,-18.1377879,-49.0404411,537,5662.16786
D1,Buriti Alegre/GO,-18.1377879,-49.0404411,13,137.07296
1,Buriti Bravo/MA,-5.8391884,-43.8367876,1019,4256.65232
D1,Buriti Bravo/MA,-5.8391884,-43.8367876,10,41.77284
1,Buriti de Goiás/GO,-16.180644,-50.4287479,126,5088.85299
D1,Buriti de Goiás/GO,-16.180644,-50.4287479,1,40.38772
1,Buriti do Tocantins/TO,-5.3187439,-48.2256609,399,3470.47056
D1,Buriti do Tocantins/TO,-5.3187439,-48.2256609,2,17.39584
1,Buriti dos Lopes/PI,-3.1776723,-41.8707444,851,4296.46085
D1,Buriti dos Lopes/PI,-3.1776723,-41.8707444,12,60.58464
1,Buriti dos Montes/PI,-5.3136171,-41.0971256,335,4053.72701
D1,Buriti dos Montes/PI,-5.3136171,-41.0971256,2,24.20136
1,Buriti/MA,-3.9430944,-42.9244281,717,2489.75623
D1,Buriti/MA,-3.9430944,-42.9244281,5,17.36232
1,Buriticupu/MA,-4.3227472,-46.4516989,2668,3655.64584
D1,Buriticupu/MA,-4.3227472,-46.4516989,23,31.51419
1,Buritinópolis/GO,-14.4589282,-46.4293104,79,2406.33567
1,Buritirama/BA,-10.7148421,-43.6362327,597,2805.97857
D1,Buritirama/BA,-10.7148421,-43.6362327,15,70.50197
1,Buritirana/MA,-5.5897455,-47.0148915,245,1584.01759
D1,Buritirana/MA,-5.5897455,-47.0148915,11,71.11916
1,Buritis/MG,-15.621389,-46.423889,689,2754.56762
D1,Buritis/MG,-15.621389,-46.423889,9,35.98129
1,Buritis/RO,-10.2054937,-63.8281954,3276,8117.75201
D1,Buritis/RO,-10.2054937,-63.8281954,33,81.77223
1,Buritizal/SP,-20.1933264,-47.7097165,107,2370.40319
D1,Buritizal/SP,-20.1933264,-47.7097165,4,88.61320
1,Buritizeiro/MG,-17.3667765,-44.9647781,570,2026.95494
D1,Buritizeiro/MG,-17.3667765,-44.9647781,16,56.89698
1,Butiá/RS,-30.1256795,-51.9692224,770,3675.06682
D1,Butiá/RS,-30.1256795,-51.9692224,26,124.09317
1,Buíque/PE,-8.6239732,-37.157296,1241,2106.28151
D1,Buíque/PE,-8.6239732,-37.157296,18,30.55042
1,Bálsamo/SP,-20.7343722,-49.5807484,789,8633.32969
D1,Bálsamo/SP,-20.7343722,-49.5807484,31,339.20560
0,CASO SEM LOCALIZAÇÃO DEFINIDA/AL,-9.931093434363673,-35.609611600637464,8,0.23971
D0,CASO SEM LOCALIZAÇÃO DEFINIDA/AL,-9.931093434363673,-35.609611600637464,8,0.23971
0,CASO SEM LOCALIZAÇÃO DEFINIDA/BA,-13.415069300066518,-38.14174656569957,9109,61.24495
D0,CASO SEM LOCALIZAÇÃO DEFINIDA/BA,-13.415069300066518,-38.14174656569957,89,0.59840
0,CASO SEM LOCALIZAÇÃO DEFINIDA/CE,-3.3445126297392798,-38.624961942434304,7297,79.90514
0,CASO SEM LOCALIZAÇÃO DEFINIDA/ES,-20.30989267097039,-39.81745156645774,2525,62.83205
D0,CASO SEM LOCALIZAÇÃO DEFINIDA/ES,-20.30989267097039,-39.81745156645774,107,2.66259
0,CASO SEM LOCALIZAÇÃO DEFINIDA/GO,-16.701590966270153,-49.164524059025034,713,10.15908
D0,CASO SEM LOCALIZAÇÃO DEFINIDA/GO,-16.701590966270153,-49.164524059025034,1,0.01425
0,CASO SEM LOCALIZAÇÃO DEFINIDA/MG,-19.97049116501593,-43.8852149072783,4000,18.89574
D0,CASO SEM LOCALIZAÇÃO DEFINIDA/MG,-19.97049116501593,-43.8852149072783,158,0.74638
0,CASO SEM LOCALIZAÇÃO DEFINIDA/MT,-15.54791153961863,-56.17143998972475,1772,50.85428
D0,CASO SEM LOCALIZAÇÃO DEFINIDA/MT,-15.54791153961863,-56.17143998972475,99,2.84118
0,CASO SEM LOCALIZAÇÃO DEFINIDA/PA,-0.09317078214359542,-48.0050231510481,1859,21.60908
D0,CASO SEM LOCALIZAÇÃO DEFINIDA/PA,-0.09317078214359542,-48.0050231510481,84,0.97642
0,CASO SEM LOCALIZAÇÃO DEFINIDA/PR,-25.69415946385943,-48.10141676336737,4554,39.82873
D0,CASO SEM LOCALIZAÇÃO DEFINIDA/PR,-25.69415946385943,-48.10141676336737,87,0.76089
D0,CASO SEM LOCALIZAÇÃO DEFINIDA/RN,-5.749310788669161,-34.95302586257457,10,0.28516
0,CASO SEM LOCALIZAÇÃO DEFINIDA/RR,2.813328208465927,-60.663338675861986,2353,388.43702
D0,CASO SEM LOCALIZAÇÃO DEFINIDA/RR,2.813328208465927,-60.663338675861986,11,1.81590
0,CASO SEM LOCALIZAÇÃO DEFINIDA/SC,-27.675643660562308,-48.18313219398259,13369,186.59310
0,CASO SEM LOCALIZAÇÃO DEFINIDA/SP,-24.30968974555485,-46.21366504207253,341,0.74261
1,Caapiranga/AM,-3.3188884,-61.2096404,533,4012.64775
D1,Caapiranga/AM,-3.3188884,-61.2096404,18,135.51156
1,Caaporã/PB,-7.510234,-34.9154114,1288,5866.54521
D1,Caaporã/PB,-7.510234,-34.9154114,20,91.09542
1,Caarapó/MS,-22.6349267,-54.8240903,2022,6609.35508
D1,Caarapó/MS,-22.6349267,-54.8240903,17,55.56827
1,Caatiba/BA,-14.9782759,-40.4092325,530,8168.92725
D1,Caatiba/BA,-14.9782759,-40.4092325,6,92.47842
1,Cabaceiras do Paraguaçu/BA,-12.5377868,-39.1901339,293,1549.36280
D1,Cabaceiras do Paraguaçu/BA,-12.5377868,-39.1901339,2,10.57586
1,Cabaceiras/PB,-7.4899156,-36.2860501,264,4663.48702
D1,Cabaceiras/PB,-7.4899156,-36.2860501,1,17.66472
1,Cabeceira Grande/MG,-16.0297,-47.0906,127,1817.40126
D1,Cabeceira Grande/MG,-16.0297,-47.0906,3,42.93074
1,Cabeceiras do Piauí/PI,-4.4733665,-42.3098716,313,2944.49671
D1,Cabeceiras do Piauí/PI,-4.4733665,-42.3098716,8,75.25870
1,Cabeceiras/GO,-15.7995459,-46.9264991,123,1528.70992
D1,Cabeceiras/GO,-15.7995459,-46.9264991,3,37.28561
1,Cabedelo/PB,-6.97324,-34.8351609,5301,7708.63932
D1,Cabedelo/PB,-6.97324,-34.8351609,101,146.87277
1,Cabixi/RO,-13.4956065,-60.5424442,441,8500.38551
D1,Cabixi/RO,-13.4956065,-60.5424442,9,173.47726
1,Cabo Frio/RJ,-22.8804369,-42.0189227,7306,3171.30976
D1,Cabo Frio/RJ,-22.8804369,-42.0189227,326,141.50657
1,Cabo Verde/MG,-21.4743338,-46.3964995,249,1769.09414
D1,Cabo Verde/MG,-21.4743338,-46.3964995,5,35.52398
1,Cabo de Santo Agostinho/PE,-8.2838945,-35.0320984,2924,1399.41803
D1,Cabo de Santo Agostinho/PE,-8.2838945,-35.0320984,317,151.71529
1,Cabreúva/SP,-23.3075813,-47.1324417,2288,4537.07192
D1,Cabreúva/SP,-23.3075813,-47.1324417,54,107.08124
1,Cabrobó/PE,-8.5083701,-39.3106961,1106,3205.51836
D1,Cabrobó/PE,-8.5083701,-39.3106961,12,34.77958
1,Cabrália Paulista/SP,-22.4562909,-49.3385645,152,3582.37096
D1,Cabrália Paulista/SP,-22.4562909,-49.3385645,2,47.13646
1,Cacaulândia/RO,-10.3380043,-62.9007231,300,4785.45223
D1,Cacaulândia/RO,-10.3380043,-62.9007231,5,79.75754
1,Cacequi/RS,-29.8838059,-54.8273443,131,1054.49569
D1,Cacequi/RS,-29.8838059,-54.8273443,2,16.09917
1,Cachoeira Alta/GO,-18.7618269,-50.9432431,934,7374.07232
D1,Cachoeira Alta/GO,-18.7618269,-50.9432431,13,102.63698
1,Cachoeira Dourada/GO,-18.4934204,-49.481062,229,2851.45063
D1,Cachoeira Dourada/GO,-18.4934204,-49.481062,4,49.80700
1,Cachoeira Dourada/MG,-18.517136,-49.5002062,106,3917.22099
1,Cachoeira Grande/MA,-2.9290492,-44.0573223,191,2015.19308
D1,Cachoeira Grande/MA,-2.9290492,-44.0573223,4,42.20300
1,Cachoeira Paulista/SP,-22.666498,-45.015384,1003,2986.80802
D1,Cachoeira Paulista/SP,-22.666498,-45.015384,25,74.44686
1,Cachoeira da Prata/MG,-19.524723,-44.453056,170,4734.05737
D1,Cachoeira da Prata/MG,-19.524723,-44.453056,2,55.69479
1,Cachoeira de Goiás/GO,-16.6688414,-50.6435997,34,2533.53204
1,Cachoeira de Minas/MG,-22.3554043,-45.7796324,371,3204.07635
D1,Cachoeira de Minas/MG,-22.3554043,-45.7796324,4,34.54530
1,Cachoeira de Pajeú/MG,-15.965833,-41.496666,293,3103.15611
D1,Cachoeira de Pajeú/MG,-15.965833,-41.496666,5,52.95488
1,Cachoeira do Arari/PA,-1.0143572,-48.9621089,341,1417.05452
D1,Cachoeira do Arari/PA,-1.0143572,-48.9621089,13,54.02261
1,Cachoeira do Piriá/PA,-1.7599443,-46.5446954,589,1701.86946
D1,Cachoeira do Piriá/PA,-1.7599443,-46.5446954,3,8.66827
1,Cachoeira do Sul/RS,-30.0474778,-52.8905413,2873,3509.26480
D1,Cachoeira do Sul/RS,-30.0474778,-52.8905413,36,43.97269
1,Cachoeira dos Índios/PB,-6.9259193,-38.6742159,394,3823.38671
D1,Cachoeira dos Índios/PB,-6.9259193,-38.6742159,11,106.74430
1,Cachoeira/BA,-12.5998256,-38.9665918,843,2511.39512
D1,Cachoeira/BA,-12.5998256,-38.9665918,15,44.68675
1,Cachoeiras de Macacu/RJ,-22.4626861,-42.6534414,1877,3165.10126
D1,Cachoeiras de Macacu/RJ,-22.4626861,-42.6534414,62,104.54783
1,Cachoeirinha/PE,-8.4906364,-36.2338963,335,1634.06663
D1,Cachoeirinha/PE,-8.4906364,-36.2338963,22,107.31184
1,Cachoeirinha/RS,-29.9493353,-51.0898927,7149,5447.27217
D1,Cachoeirinha/RS,-29.9493353,-51.0898927,174,132.58153
1,Cachoeirinha/TO,-6.118647,-47.9208885,113,4947.46060
D1,Cachoeirinha/TO,-6.118647,-47.9208885,2,87.56567
1,Cachoeiro de Itapemirim/ES,-20.848084,-41.11129,17321,8225.02600
D1,Cachoeiro de Itapemirim/ES,-20.848084,-41.11129,332,157.65306
1,Cacimba de Areia/PB,-7.1288513,-37.1575194,23,622.46279
D1,Cacimba de Areia/PB,-7.1288513,-37.1575194,1,27.06360
1,Cacimba de Dentro/PB,-6.6425101,-35.7929304,758,4412.62079
D1,Cacimba de Dentro/PB,-6.6425101,-35.7929304,18,104.78519
1,Cacimbas/PB,-7.2125451,-37.0593398,131,1819.69718
D1,Cacimbas/PB,-7.2125451,-37.0593398,6,83.34491
1,Cacimbinhas/AL,-9.401212,-36.991082,394,3618.33043
D1,Cacimbinhas/AL,-9.401212,-36.991082,3,27.55074
1,Cacique Doble/RS,-27.7700117,-51.6616409,204,4020.49665
D1,Cacique Doble/RS,-27.7700117,-51.6616409,2,39.41663
1,Cacoal/RO,-11.4333,-61.4420502,7848,9136.94946
D1,Cacoal/RO,-11.4333,-61.4420502,108,125.73784
1,Caconde/SP,-21.527995,-46.643659,695,3656.16287
D1,Caconde/SP,-21.527995,-46.643659,5,26.30333
1,Caculé/BA,-14.4990734,-42.2233006,617,2649.09192
D1,Caculé/BA,-14.4990734,-42.2233006,8,34.34803
1,Caetanos/BA,-14.3387456,-40.9085971,367,2512.32202
D1,Caetanos/BA,-14.3387456,-40.9085971,4,27.38226
1,Caetanópolis/MG,-19.2947496,-44.4138386,542,4613.15857
D1,Caetanópolis/MG,-19.2947496,-44.4138386,4,34.04545
1,Caetité/BA,-14.0691776,-42.4852428,1229,2405.98265
D1,Caetité/BA,-14.0691776,-42.4852428,8,15.66140
1,Caeté/MG,-19.897777,-43.670278,990,2197.70462
D1,Caeté/MG,-19.897777,-43.670278,32,71.03692
1,Caetés/PE,-8.7728788,-36.6255835,916,3169.11154
D1,Caetés/PE,-8.7728788,-36.6255835,10,34.59729
1,Cafarnaum/BA,-11.691399,-41.468823,674,3640.68492
D1,Cafarnaum/BA,-11.691399,-41.468823,10,54.01610
1,Cafeara/PR,-22.78905,-51.714195,150,5077.86053
D1,Cafeara/PR,-22.78905,-51.714195,2,67.70481
1,Cafelândia/PR,-24.6176963,-53.3218057,1058,5732.55310
D1,Cafelândia/PR,-24.6176963,-53.3218057,6,32.50975
1,Cafelândia/SP,-21.8054355,-49.6030627,542,3037.60578
D1,Cafelândia/SP,-21.8054355,-49.6030627,19,106.48434
1,Cafezal do Sul/PR,-23.900508,-53.512418,125,3117.98453
D1,Cafezal do Sul/PR,-23.900508,-53.512418,1,24.94388
1,Caiabu/SP,-22.0143038,-51.2356597,53,1264.01145
D1,Caiabu/SP,-22.0143038,-51.2356597,4,95.39709
1,Caiana/MG,-20.695555,-41.924723,85,1534.01913
D1,Caiana/MG,-20.695555,-41.924723,2,36.09457
1,Caiapônia/GO,-16.9538779,-51.8090761,568,2972.73251
D1,Caiapônia/GO,-16.9538779,-51.8090761,10,52.33684
1,Caibaté/RS,-28.290475,-54.645407,38,787.89135
D1,Caibaté/RS,-28.290475,-54.645407,3,62.20195
1,Caibi/SC,-27.0751925,-53.2502133,265,4323.00163
D1,Caibi/SC,-27.0751925,-53.2502133,2,32.62643
1,Caicó/RN,-6.4594544,-37.0971911,7431,10873.09600
D1,Caicó/RN,-6.4594544,-37.0971911,85,124.37265
1,Caieiras/SP,-23.3644621,-46.7484765,4608,4483.58064
D1,Caieiras/SP,-23.3644621,-46.7484765,136,132.32790
1,Cairu/BA,-13.4860505,-39.0455744,886,4808.16194
D1,Cairu/BA,-13.4860505,-39.0455744,8,43.41455
1,Caiuá/SP,-21.8319357,-51.9887179,168,2825.42886
D1,Caiuá/SP,-21.8319357,-51.9887179,2,33.63606
1,Caiçara do Norte/RN,-5.0645017,-36.0561226,171,2606.31001
D1,Caiçara do Norte/RN,-5.0645017,-36.0561226,4,60.96632
1,Caiçara do Rio do Vento/RN,-5.757968,-36.00089,125,3364.73755
D1,Caiçara do Rio do Vento/RN,-5.757968,-36.00089,3,80.75370
1,Caiçara/PB,-6.6146866,-35.4681434,514,7147.82367
D1,Caiçara/PB,-6.6146866,-35.4681434,10,139.06272
1,Caiçara/RS,-27.2750478,-53.4310053,286,6085.10638
D1,Caiçara/RS,-27.2750478,-53.4310053,3,63.82979
1,Cajamar/SP,-23.3561111,-46.8769444,2188,2807.50379
D1,Cajamar/SP,-23.3561111,-46.8769444,90,115.48233
1,Cajapió/MA,-2.8778715,-44.6746871,56,499.28673
D1,Cajapió/MA,-2.8778715,-44.6746871,2,17.83167
1,Cajari/MA,-3.3213076,-45.0118757,132,678.62835
D1,Cajari/MA,-3.3213076,-45.0118757,4,20.56450
1,Cajati/SP,-24.7272376,-48.1077914,2495,8756.22938
D1,Cajati/SP,-24.7272376,-48.1077914,50,175.47554
1,Cajazeiras do Piauí/PI,-6.794271,-42.3935024,25,699.69214
D1,Cajazeiras do Piauí/PI,-6.794271,-42.3935024,1,27.98769
1,Cajazeiras/PB,-6.8897849,-38.5570389,4617,7412.22367
D1,Cajazeiras/PB,-6.8897849,-38.5570389,83,133.24985
1,Cajazeirinhas/PB,-6.961442,-37.7993733,91,2839.31357
1,Cajobi/SP,-20.8776238,-48.8106972,429,4048.69762
D1,Cajobi/SP,-20.8776238,-48.8106972,12,113.25028
1,Cajueiro da Praia/PI,-2.931114,-41.340801,448,5837.89419
D1,Cajueiro da Praia/PI,-2.931114,-41.340801,13,169.40318
1,Cajueiro/AL,-9.399589,-36.1524309,412,1931.46125
D1,Cajueiro/AL,-9.399589,-36.1524309,18,84.38423
1,Cajuri/MG,-20.7901414,-42.7954489,180,4529.44137
D1,Cajuri/MG,-20.7901414,-42.7954489,1,25.16356
1,Cajuru/SP,-21.2759978,-47.3046035,545,2064.94146
D1,Cajuru/SP,-21.2759978,-47.3046035,18,68.19990
1,Caldas Brandão/PB,-7.1027959,-35.3254676,381,6301.68707
D1,Caldas Brandão/PB,-7.1027959,-35.3254676,5,82.69931
1,Caldas Novas/GO,-17.745,-48.625,4970,5332.84690
D1,Caldas Novas/GO,-17.745,-48.625,91,97.64368
1,Caldas/MG,-21.923611,-46.386111,391,2688.94849
D1,Caldas/MG,-21.923611,-46.386111,12,82.52527
1,Caldazinha/GO,-16.7116649,-49.0012601,136,3534.30353
D1,Caldazinha/GO,-16.7116649,-49.0012601,2,51.97505
1,Caldeirão Grande do Piauí/PI,-7.3310393,-40.6374433,198,3425.01297
D1,Caldeirão Grande do Piauí/PI,-7.3310393,-40.6374433,1,17.29805
1,Caldeirão Grande/BA,-11.0208483,-40.3041387,521,3890.67284
D1,Caldeirão Grande/BA,-11.0208483,-40.3041387,6,44.80621
1,Califórnia/PR,-23.6672543,-51.3554556,502,5833.13967
D1,Califórnia/PR,-23.6672543,-51.3554556,9,104.57820
1,Calmon/SC,-26.6023644,-51.0992893,19,569.71514
D1,Calmon/SC,-26.6023644,-51.0992893,2,59.97001
1,Calumbi/PE,-7.9389746,-38.1516871,354,6159.73551
D1,Calumbi/PE,-7.9389746,-38.1516871,2,34.80077
1,Calçado/PE,-8.7413446,-36.3351787,226,2051.18896
D1,Calçado/PE,-8.7413446,-36.3351787,2,18.15211
1,Calçoene/AP,2.4981757,-50.9539503,1533,13559.17212
D1,Calçoene/AP,2.4981757,-50.9539503,9,79.60375
1,Camacan/BA,-15.4166631,-39.4930088,1960,6123.85178
D1,Camacan/BA,-15.4166631,-39.4930088,48,149.97188
1,Camacho/MG,-20.625556,-45.156667,46,1603.34611
D1,Camacho/MG,-20.625556,-45.156667,1,34.85535
1,Camalaú/PB,-7.885031,-36.824191,230,3813.62958
D1,Camalaú/PB,-7.885031,-36.824191,5,82.90499
1,Camamu/BA,-13.9438142,-39.1060917,1494,4222.48601
D1,Camamu/BA,-13.9438142,-39.1060917,32,90.44147
1,Camanducaia/MG,-22.755278,-46.144444,1674,7678.54686
D1,Camanducaia/MG,-22.755278,-46.144444,20,91.73891
1,Camapuã/MS,-19.5291747,-54.0434641,350,2556.05054
D1,Camapuã/MS,-19.5291747,-54.0434641,8,58.42401
1,Camaquã/RS,-30.8524752,-51.8075619,3418,5141.55059
D1,Camaquã/RS,-30.8524752,-51.8075619,51,76.71711
1,Camaragibe/PE,-8.0213832,-34.9810768,3251,2045.95372
D1,Camaragibe/PE,-8.0213832,-34.9810768,238,149.78068
1,Camargo/RS,-28.5865661,-52.2031474,221,8059.81036
D1,Camargo/RS,-28.5865661,-52.2031474,2,72.93946
1,Camaçari/BA,-12.6998188,-38.3260762,12595,4138.98036
D1,Camaçari/BA,-12.6998188,-38.3260762,189,62.10935
1,Cambará do Sul/RS,-29.0489517,-50.145412,264,4121.13643
D1,Cambará do Sul/RS,-29.0489517,-50.145412,3,46.83110
1,Cambará/PR,-23.042273,-50.075281,919,3608.73321
D1,Cambará/PR,-23.042273,-50.075281,12,47.12165
1,Cambira/PR,-23.600265,-51.581045,360,4547.17696
D1,Cambira/PR,-23.600265,-51.581045,7,88.41733
1,Camboriú/SC,-27.0273601,-48.6535657,8692,10213.26597
D1,Camboriú/SC,-27.0273601,-48.6535657,94,110.45179
1,Cambuci/RJ,-21.5749919,-41.9107833,444,2861.93116
D1,Cambuci/RJ,-21.5749919,-41.9107833,8,51.56633
1,Cambuquira/MG,-21.853056,-45.2953619,191,1490.78988
D1,Cambuquira/MG,-21.853056,-45.2953619,7,54.63628
1,Cambuí/MG,-22.6122501,-46.0572137,1401,4699.13463
D1,Cambuí/MG,-22.6122501,-46.0572137,18,60.37432
1,Cambé/PR,-23.2782035,-51.2779583,6918,6444.88127
D1,Cambé/PR,-23.2782035,-51.2779583,91,84.77655
1,Cametá/PA,-2.242949,-49.497885,5943,4264.37243
D1,Cametá/PA,-2.242949,-49.497885,130,93.28090
1,Camocim de São Félix/PE,-8.3616757,-35.7638903,331,1751.32275
D1,Camocim de São Félix/PE,-8.3616757,-35.7638903,11,58.20106
1,Camocim/CE,-2.9009918,-40.8427389,2824,4418.92124
D1,Camocim/CE,-2.9009918,-40.8427389,86,134.57055
1,Campanha/MG,-21.8361108,-45.401986,782,4665.31440
D1,Campanha/MG,-21.8361108,-45.401986,13,77.55638
1,Campanário/MG,-18.2398144,-41.7271768,85,2278.82038
1,Campestre da Serra/RS,-28.7966535,-51.0958149,107,3151.69367
1,Campestre de Goiás/GO,-16.7624179,-49.69497,273,7481.50178
D1,Campestre de Goiás/GO,-16.7624179,-49.69497,4,109.61907
1,Campestre do Maranhão/MA,-6.1729113,-47.3640512,616,4262.09092
D1,Campestre do Maranhão/MA,-6.1729113,-47.3640512,20,138.37958
1,Campestre/AL,-8.8481634,-35.5660033,125,1797.52660
D1,Campestre/AL,-8.8481634,-35.5660033,4,57.52085
1,Campestre/MG,-19.6142116,-43.219378,570,2707.32402
D1,Campestre/MG,-19.6142116,-43.219378,7,33.24784
1,Campina Grande do Sul/PR,-25.3046032,-49.0545355,3363,7698.29461
D1,Campina Grande do Sul/PR,-25.3046032,-49.0545355,57,130.47957
1,Campina Grande/PB,-7.2246743,-35.8771292,20014,4860.04366
D1,Campina Grande/PB,-7.2246743,-35.8771292,563,136.71453
1,Campina Verde/MG,-19.535277,-49.486389,339,1716.28190
D1,Campina Verde/MG,-19.535277,-49.486389,14,70.87890
1,Campina da Lagoa/PR,-24.5937926,-52.8038965,412,2933.84604
D1,Campina da Lagoa/PR,-24.5937926,-52.8038965,10,71.20986
1,Campina das Missões/RS,-27.9883295,-54.8411665,261,4835.12412
D1,Campina das Missões/RS,-27.9883295,-54.8411665,6,111.15228
1,Campina do Monte Alegre/SP,-23.5935653,-48.4801876,202,3334.98432
1,Campina do Simão/PR,-25.1086375,-51.8076658,38,984.71107
D1,Campina do Simão/PR,-25.1086375,-51.8076658,1,25.91345
1,Campinas do Piauí/PI,-7.6593687,-41.8814875,118,2099.64413
D1,Campinas do Piauí/PI,-7.6593687,-41.8814875,1,17.79359
1,Campinas do Sul/RS,-27.7167968,-52.6257885,294,5406.39941
D1,Campinas do Sul/RS,-27.7167968,-52.6257885,3,55.16734
1,Campinas/SP,-22.90556,-47.06083,57605,4745.87079
D1,Campinas/SP,-22.90556,-47.06083,1853,152.66207
1,Campinaçu/GO,-13.7869969,-48.5703841,136,3744.49339
1,Campinorte/GO,-14.3136699,-49.1510931,746,5844.56283
D1,Campinorte/GO,-14.3136699,-49.1510931,10,78.34535
1,Campinápolis/MT,-14.5403731,-52.7970626,572,3380.81447
D1,Campinápolis/MT,-14.5403731,-52.7970626,17,100.47875
1,Campo Alegre de Goiás/GO,-17.6337896,-47.779291,86,1111.39829
D1,Campo Alegre de Goiás/GO,-17.6337896,-47.779291,3,38.76971
1,Campo Alegre de Lourdes/BA,-9.5160326,-43.0101338,282,978.48716
D1,Campo Alegre de Lourdes/BA,-9.5160326,-43.0101338,7,24.28869
1,Campo Alegre do Fidalgo/PI,-8.3753852,-41.8364191,57,1124.48215
D1,Campo Alegre do Fidalgo/PI,-8.3753852,-41.8364191,1,19.72776
1,Campo Alegre/AL,-9.7798607,-36.3575793,1932,3357.83930
D1,Campo Alegre/AL,-9.7798607,-36.3575793,46,79.94855
1,Campo Alegre/SC,-26.1941684,-49.2657484,677,5650.61347
D1,Campo Alegre/SC,-26.1941684,-49.2657484,21,175.27752
1,Campo Azul/MG,-16.5078525,-44.8133524,52,1359.83264
1,Campo Belo do Sul/SC,-27.8987563,-50.7586887,410,5897.58343
D1,Campo Belo do Sul/SC,-27.8987563,-50.7586887,8,115.07480
1,Campo Belo/MG,-20.8975,-45.277223,2315,4272.32126
D1,Campo Belo/MG,-20.8975,-45.277223,54,99.65674
1,Campo Bom/RS,-29.674694,-51.060601,6374,9176.76869
D1,Campo Bom/RS,-29.674694,-51.060601,104,149.73077
1,Campo Bonito/PR,-25.0328004,-52.992976,131,3481.26495
D1,Campo Bonito/PR,-25.0328004,-52.992976,4,106.29817
1,Campo Erê/SC,-26.3947432,-53.0790495,639,7590.87669
D1,Campo Erê/SC,-26.3947432,-53.0790495,5,59.39653
1,Campo Florido/MG,-19.760833,-48.572223,337,4075.46257
D1,Campo Florido/MG,-19.760833,-48.572223,1,12.09336
1,Campo Formoso/BA,-10.51055,-40.320031,2362,3304.09725
D1,Campo Formoso/BA,-10.51055,-40.320031,23,32.17368
1,Campo Grande do Piauí/PI,-7.1327559,-41.0381164,383,6420.78793
D1,Campo Grande do Piauí/PI,-7.1327559,-41.0381164,4,67.05784
1,Campo Grande/AL,-9.9725,-36.74791447368421,262,2738.58054
D1,Campo Grande/AL,-9.9725,-36.74791447368421,7,73.16818
1,Campo Grande/MS,-20.4640173,-54.6162947,74222,8191.44193
D1,Campo Grande/MS,-20.4640173,-54.6162947,1444,159.36572
1,Campo Grande/RN,-5.862063,-37.3134908,216,2233.71251
D1,Campo Grande/RN,-5.862063,-37.3134908,4,41.36505
1,Campo Largo do Piauí/PI,-3.8104731,-42.6288333,238,3255.36862
