type,name,lat,lon,total,total_per_100k_inhabitants
1,Abadia de Goiás/GO,-16.7572644,-49.4412205,7,79.79027
1,Abadia dos Dourados/MG,-18.4911191,-47.4063589,5,71.54099
1,Abadiânia/GO,-16.1940946,-48.7067767,12,59.87426
1,Abaetetuba/PA,-1.721828,-48.878843,1710,1084.35110
D1,Abaetetuba/PA,-1.721828,-48.878843,65,41.21802
1,Abaeté/MG,-19.1566833,-45.4481213,1,4.30348
1,Abaiara/CE,-7.3607808,-39.0487878,6,51.12039
D1,Abaiara/CE,-7.3607808,-39.0487878,1,8.52006
1,Abatiá/PR,-23.3052967,-50.3102532,2,26.82044
1,Abaíra/BA,-13.2503296,-41.6640342,4,45.77183
1,Abdon Batista/SC,-27.612419,-51.022992,2,78.03355
1,Abel Figueiredo/PA,-4.953001,-48.3958485,31,417.00296
D1,Abel Figueiredo/PA,-4.953001,-48.3958485,1,13.45171
1,Abelardo Luz/SC,-26.5705893,-52.3280339,6,33.51206
1,Abreu e Lima/PE,-7.900719,-34.898389,372,372.03720
D1,Abreu e Lima/PE,-7.900719,-34.898389,47,47.00470
1,Abreulândia/TO,-9.6221526,-49.1558343,2,77.54944
1,Acajutiba/BA,-11.6609659,-38.0186381,4,26.38696
1,Acarape/CE,-4.2237866,-38.7071663,101,676.53560
D1,Acarape/CE,-4.2237866,-38.7071663,6,40.19023
1,Acaraú/CE,-2.8869514,-40.1194713,826,1318.62518
D1,Acaraú/CE,-2.8869514,-40.1194713,23,36.71717
1,Acari/RN,-6.4364689,-36.6394777,3,26.93966
1,Acará/PA,-1.961388,-48.1987043,180,323.79342
D1,Acará/PA,-1.961388,-48.1987043,8,14.39082
1,Acauã/PI,-8.219542,-41.083059,2,28.23264
1,Acopiara/CE,-6.0936464,-39.4543204,123,226.64456
D1,Acopiara/CE,-6.0936464,-39.4543204,6,11.05583
1,Acorizal/MT,-15.2001544,-56.3668953,9,166.69754
D1,Acorizal/MT,-15.2001544,-56.3668953,1,18.52195
1,Acrelândia/AC,-10.0759167,-67.0526898,165,1081.54169
D1,Acrelândia/AC,-10.0759167,-67.0526898,1,6.55480
1,Acreúna/GO,-17.3959899,-50.3749031,2,8.94214
1,Adamantina/SP,-21.6866517,-51.0762975,42,119.76731
D1,Adamantina/SP,-21.6866517,-51.0762975,3,8.55481
1,Adelândia/GO,-16.4155077,-50.1665834,1,39.74563
1,Adolfo/SP,-21.2356597,-49.6441918,3,84.22235
1,Adustina/BA,-10.5358875,-38.114479,3,17.60563
D1,Adustina/BA,-10.5358875,-38.114479,1,5.86854
1,Afogados da Ingazeira/PE,-7.750429,-37.6356375,12,32.20698
1,Afonso Bezerra/RN,-5.4745,-36.57625071327935,14,126.86905
D1,Afonso Bezerra/RN,-5.4745,-36.57625071327935,1,9.06208
1,Afonso Cláudio/ES,-20.077841,-41.12606,96,313.86909
D1,Afonso Cláudio/ES,-20.077841,-41.12606,6,19.61682
1,Afonso Cunha/MA,-4.1326105,-43.3230026,22,337.21643
1,Afrânio/PE,-8.5198919,-41.0070197,45,229.18258
1,Afuá/PA,-0.1535664,-50.3879223,256,652.76149
D1,Afuá/PA,-0.1535664,-50.3879223,3,7.64955
1,Agrestina/PE,-8.4558021,-35.9442663,52,208.96122
D1,Agrestina/PE,-8.4558021,-35.9442663,6,24.11091
1,Agrolândia/SC,-27.4122212,-49.8295774,9,82.84242
1,Agronômica/SC,-27.2660744,-49.7104753,10,183.55360
D1,Agronômica/SC,-27.2660744,-49.7104753,1,18.35536
1,Aguaí/SP,-22.0592036,-46.979384,47,129.45875
D1,Aguaí/SP,-22.0592036,-46.979384,4,11.01777
1,Agudo/RS,-29.6423259,-53.2494005,2,12.14993
1,Agudos do Sul/PR,-25.9890808,-49.3328175,11,117.38342
1,Agudos/SP,-22.471162,-48.987822,34,91.36347
D1,Agudos/SP,-22.471162,-48.987822,1,2.68716
1,Aguiar/PB,-7.0928404,-38.1727215,1,17.73050
1,Aguiarnópolis/TO,-6.5600452,-47.4721189,55,816.87212
D1,Aguiarnópolis/TO,-6.5600452,-47.4721189,1,14.85222
1,Aimorés/MG,-19.4917754,-41.0615603,58,230.46052
1,Aiquara/BA,-14.126918,-39.8887574,8,179.93702
D1,Aiquara/BA,-14.126918,-39.8887574,1,22.49213
1,Aiuaba/CE,-6.5710836,-40.1212278,7,40.23220
1,Ajuricaba/RS,-28.239654,-53.7693013,2,28.47380
1,Alagoa Grande/PB,-7.0415212,-35.6285322,118,414.09321
D1,Alagoa Grande/PB,-7.0415212,-35.6285322,1,3.50926
1,Alagoa Nova/PB,-7.0653703,-35.76695977336711,54,259.00523
D1,Alagoa Nova/PB,-7.0653703,-35.76695977336711,2,9.59279
1,Alagoinha do Piauí/PI,-7.0090952,-40.939675,6,78.42112
1,Alagoinha/PB,-6.97063215,-35.51490901897793,179,1235.41997
1,Alagoinha/PE,-8.50355635,-36.77701174370496,19,129.81689
1,Alagoinhas/BA,-12.133526,-38.420772,168,110.82087
D1,Alagoinhas/BA,-12.133526,-38.420772,3,1.97894
1,Alambari/SP,-23.550338,-47.897971,5,82.98755
1,Alcantil/PB,-7.7425491,-36.0609604,4,72.83321
1,Alcinópolis/MS,-18.3264121,-53.7094463,1,18.71608
1,Alcobaça/BA,-17.5215875,-39.1965474,3,13.35113
1,Alcântara/MA,-2.4038956,-44.4154241,21,95.03553
D1,Alcântara/MA,-2.4038956,-44.4154241,1,4.52550
1,Alcântaras/CE,-3.586247,-40.5457641,124,1058.56240
D1,Alcântaras/CE,-3.586247,-40.5457641,2,17.07359
1,Aldeias Altas/MA,-4.6291957,-43.4708622,40,150.76134
1,Alecrim/RS,-27.6566142,-54.7653195,2,33.61345
1,Alegre/ES,-20.7625787,-41.5318886,23,76.45260
1,Alegrete/RS,-29.790166,-55.794862,13,17.66568
1,Alenquer/PA,-1.946229,-54.738355,277,487.77052
D1,Alenquer/PA,-1.946229,-54.738355,9,15.84814
1,Alexandria/RN,-6.414779,-38.0135516,6,44.19238
D1,Alexandria/RN,-6.414779,-38.0135516,1,7.36540
1,Alexânia/GO,-16.0834049,-48.5077803,7,25.31371
1,Alfenas/MG,-21.4297405,-45.9479419,17,21.25106
1,Alfredo Chaves/ES,-20.624970400000002,-40.75006690147988,90,616.39614
D1,Alfredo Chaves/ES,-20.624970400000002,-40.75006690147988,3,20.54654
1,Alfredo Marcondes/SP,-21.9527,-51.413956,3,72.01152
D1,Alfredo Marcondes/SP,-21.9527,-51.413956,2,48.00768
1,Alfredo Vasconcelos/MG,-21.145833,-43.776389,3,43.43420
D1,Alfredo Vasconcelos/MG,-21.145833,-43.776389,1,14.47807
1,Alhandra/PB,-7.4304246,-34.9106103,194,990.40229
D1,Alhandra/PB,-7.4304246,-34.9106103,6,30.63100
1,Aliança do Tocantins/TO,-11.3055927,-48.9409096,3,55.65863
1,Aliança/PE,-7.60398,-35.222696,89,231.85536
D1,Aliança/PE,-7.60398,-35.222696,16,41.68186
1,Almadina/BA,-14.70466,-39.6381994,3,54.90483
1,Almeirim/PA,-1.5290377,-52.5788111,35,102.61221
D1,Almeirim/PA,-1.5290377,-52.5788111,1,2.93178
1,Almenara/MG,-16.1740678,-40.6904907,18,42.96353
1,Almino Afonso/RN,-6.1544208,-37.7649018,2,42.23865
1,Almirante Tamandaré/PR,-25.3133048,-49.2997838,32,26.97622
1,Aloândia/GO,-17.7277983,-49.4809338,1,50.12531
1,Alpercata/MG,-18.9803616,-41.9827637,4,53.87931
1,Alpestre/RS,-27.2512339,-53.0349646,10,159.79546
1,Alpinópolis/MG,-20.863611,-46.387777,1,5.03702
1,Alta Floresta D'Oeste/RO,-11.9296917,-61.9961284,7,30.50774
1,Alta Floresta/MT,-9.8715018,-56.0839881,38,73.38457
D1,Alta Floresta/MT,-9.8715018,-56.0839881,3,5.79352
1,Altair/SP,-20.5238955,-49.0606135,1,24.03846
1,Altamira do Maranhão/MA,-4.1643006,-45.4674574,1,12.30315
D1,Altamira do Maranhão/MA,-4.1643006,-45.4674574,1,12.30315
1,Altamira do Paraná/PR,-24.799114,-52.7128633,1,51.49331
1,Altamira/PA,-3.204065,-52.209961,612,534.05937
D1,Altamira/PA,-3.204065,-52.209961,16,13.96234
1,Altaneira/CE,-6.9980933,-39.7385742,1,13.18218
1,Alterosa/MG,-21.249166,-46.143055,1,6.91276
1,Altinho/PE,-8.4904095,-36.0607494,52,226.36253
D1,Altinho/PE,-8.4904095,-36.0607494,2,8.70625
1,Altinópolis/SP,-21.021364,-47.3712,6,37.07365
1,Alto Alegre do Maranhão/MA,-4.2055693,-44.4525287,194,717.11086
D1,Alto Alegre do Maranhão/MA,-4.2055693,-44.4525287,7,25.87513
1,Alto Alegre do Pindaré/MA,-3.6698186,-45.8462153,77,241.23563
1,Alto Alegre dos Parecis/RO,-12.1314515,-61.856265,4,30.20920
1,Alto Alegre/RR,2.98858,-61.307167,100,644.74533
D1,Alto Alegre/RR,2.98858,-61.307167,3,19.34236
1,Alto Alegre/SP,-21.5820592,-50.1661976,1,24.39619
D1,Alto Alegre/SP,-21.5820592,-50.1661976,1,24.39619
1,Alto Araguaia/MT,-17.3156528,-53.2169365,10,52.50998
D1,Alto Araguaia/MT,-17.3156528,-53.2169365,2,10.50200
1,Alto Bela Vista/SC,-27.4320737,-51.905771,5,258.13113
1,Alto Boa Vista/MT,-11.6723985,-51.3744431,4,58.63383
D1,Alto Boa Vista/MT,-11.6723985,-51.3744431,1,14.65846
1,Alto Caparaó/MG,-20.4405661,-41.8683799,2,34.20558
1,Alto Garças/MT,-16.9469683,-53.529427,1,8.31255
1,Alto Jequitibá/MG,-20.423611,-41.966111,12,144.28279
D1,Alto Jequitibá/MG,-20.423611,-41.966111,1,12.02357
1,Alto Longá/PI,-5.2549051,-42.2072388,16,111.85682
1,Alto Paraguai/MT,-14.513712,-56.4936374,1,8.80592
1,Alto Paraná/PR,-23.131247,-52.318893,9,60.93433
1,Alto Paraíso de Goiás/GO,-14.1304779,-47.5100161,3,39.34942
1,Alto Paraíso/PR,-23.508137,-53.728537,1,36.48304
1,Alto Paraíso/RO,-9.7240103,-63.3188123,11,51.33470
D1,Alto Paraíso/RO,-9.7240103,-63.3188123,2,9.33358
1,Alto Parnaíba/MA,-9.112506,-45.9310154,35,312.77927
1,Alto Rio Doce/MG,-21.0239537,-43.4133507,7,63.63636
1,Alto Rio Novo/ES,-19.0577208,-41.0171518,4,51.04645
D1,Alto Rio Novo/ES,-19.0577208,-41.0171518,2,25.52323
1,Alto Santo/CE,-5.5190371,-38.2719351,41,239.12283
D1,Alto Santo/CE,-5.5190371,-38.2719351,1,5.83226
1,Alto do Rodrigues/RN,-5.290868,-36.7616726,61,419.84996
D1,Alto do Rodrigues/RN,-5.290868,-36.7616726,6,41.29672
1,Altos/PI,-5.0393915,-42.4611694,98,241.83200
D1,Altos/PI,-5.0393915,-42.4611694,4,9.87069
1,Alumínio/SP,-23.5203479,-47.2575256,13,69.78742
D1,Alumínio/SP,-23.5203479,-47.2575256,1,5.36826
1,Alvarenga/MG,-19.4175,-41.728334,77,1970.82160
1,Alvarães/AM,-3.214786,-64.8143124,384,2393.86572
D1,Alvarães/AM,-3.214786,-64.8143124,10,62.34025
1,Alvinlândia/SP,-22.4431852,-49.7643596,1,31.03662
1,Alvinópolis/MG,-20.1105199,-43.0601805,6,39.46589
1,Alvorada D'Oeste/RO,-11.346271,-62.284697,4,27.75657
D1,Alvorada D'Oeste/RO,-11.346271,-62.284697,1,6.93914
1,Alvorada do Gurguéia/PI,-8.4465288,-43.8655915,2,36.90718
1,Alvorada do Sul/PR,-22.7807269,-51.2307721,6,52.60389
1,Alvorada/RS,-29.9981184,-51.0772509,95,45.17249
D1,Alvorada/RS,-29.9981184,-51.0772509,4,1.90200
1,Alvorada/TO,-12.478465,-49.124926,8,95.10223
1,Além Paraíba/MG,-21.8760576,-42.6810473,59,166.84577
D1,Além Paraíba/MG,-21.8760576,-42.6810473,2,5.65579
1,Amajari/RR,3.6523869,-61.4194315,42,328.22757
D1,Amajari/RR,3.6523869,-61.4194315,1,7.81494
1,Amambai/MS,-23.1082701,-55.2284854,6,15.22997
1,Amaporã/PR,-23.094272,-52.786597,18,287.67780
1,Amapá do Maranhão/MA,-1.6762114,-46.0109669,3,43.09107
1,Amapá/AP,2.0529997,-50.7930003,128,1405.20364
D1,Amapá/AP,2.0529997,-50.7930003,3,32.93446
1,Amaraji/PE,-8.373925,-35.4536527,66,289.10596
D1,Amaraji/PE,-8.373925,-35.4536527,10,43.80393
1,Amaralina/GO,-13.9236199,-49.2962411,3,78.69885
1,Amarante do Maranhão/MA,-5.56913,-46.747284,286,690.23772
D1,Amarante do Maranhão/MA,-5.56913,-46.747284,1,2.41342
1,Amarante/PI,-6.2459374,-42.8476238,7,39.77725
1,Amargosa/BA,-13.03793715,-39.60796443875596,12,32.22255
D1,Amargosa/BA,-13.03793715,-39.60796443875596,1,2.68521
1,Amaturá/AM,-3.3640509,-68.1994689,334,2895.28433
D1,Amaturá/AM,-3.3640509,-68.1994689,8,69.34813
1,Americana/SP,-22.7392463,-47.3306032,167,69.70037
D1,Americana/SP,-22.7392463,-47.3306032,9,3.75631
1,Ametista do Sul/RS,-27.3617341,-53.1826575,7,94.47969
1,Amontada/CE,-3.3634586,-39.8284791,287,660.49894
D1,Amontada/CE,-3.3634586,-39.8284791,8,18.41112
1,Amorinópolis/GO,-16.6211308,-51.0949921,2,63.97953
1,Amparo de São Francisco/SE,-10.1299754,-36.9269099,6,252.73799
1,Amparo do Serra/MG,-20.5070255,-42.8028462,1,21.21791
1,Amparo/PB,-7.56394725,-37.04652873235175,12,536.19303
1,Amparo/SP,-22.70111,-46.76444,76,105.27045
D1,Amparo/SP,-22.70111,-46.76444,4,5.54055
1,Ampére/PR,-25.9168712,-53.4742414,6,31.32832
D1,Ampére/PR,-25.9168712,-53.4742414,1,5.22139
1,Amélia Rodrigues/BA,-12.4015388,-38.7516971,31,123.49614
1,Américo Brasiliense/SP,-21.7297099,-48.1052092,52,128.38238
D1,Américo Brasiliense/SP,-21.7297099,-48.1052092,2,4.93778
1,Américo de Campos/SP,-20.298476,-49.735904,4,67.01290
1,Anadia/AL,-9.6830208,-36.3052699,65,370.47592
D1,Anadia/AL,-9.6830208,-36.3052699,1,5.69963
1,Anagé/BA,-14.6134669,-41.1376308,2,9.08884
D1,Anagé/BA,-14.6134669,-41.1376308,1,4.54442
1,Anahy/PR,-24.6450861,-53.1337957,6,214.20921
1,Anajatuba/MA,-3.26441,-44.6179916,73,272.35757
D1,Anajatuba/MA,-3.26441,-44.6179916,4,14.92370
1,Anajás/PA,-0.9878802,-49.9390114,165,563.58233
D1,Anajás/PA,-0.9878802,-49.9390114,6,20.49390
1,Anamã/AM,-3.5797356,-61.4049996,213,1564.56589
1,Ananindeua/PA,-1.374035,-48.4016623,3141,591.97358
D1,Ananindeua/PA,-1.374035,-48.4016623,285,53.71298
1,Ananás/TO,-6.3663053,-48.080238,10,104.72301
1,Anapu/PA,-3.4668292,-51.2057035,148,530.65615
D1,Anapu/PA,-3.4668292,-51.2057035,3,10.75654
1,Anapurus/MA,-3.6751298,-43.1046001,345,2192.98246
D1,Anapurus/MA,-3.6751298,-43.1046001,1,6.35647
1,Anastácio/MS,-20.4832458,-55.8048448,1,3.97852
1,Anchieta/ES,-20.8057672,-40.6454564,186,635.61494
D1,Anchieta/ES,-20.8057672,-40.6454564,3,10.25185
1,Anchieta/SC,-26.5350527,-53.3293938,8,141.89429
1,Andaraí/BA,-12.8059674,-41.3322919,2,15.21723
1,Andirá/PR,-23.0494761,-50.2310027,9,44.93036
1,Andradas/MG,-22.0680484,-46.5688976,10,24.34452
D1,Andradas/MG,-22.0680484,-46.5688976,1,2.43445
1,Andradina/SP,-20.896505,-51.3742765,43,75.23138
D1,Andradina/SP,-20.896505,-51.3742765,5,8.74783
1,Andrelândia/MG,-21.739722,-44.308889,14,114.52880
1,Angatuba/SP,-23.4938938,-48.4110675,26,103.06009
D1,Angatuba/SP,-23.4938938,-48.4110675,2,7.92770
1,Angelim/PE,-8.8902038,-36.2872987,4,35.87444
1,Angical do Piauí/PI,-6.0872666,-42.7366138,10,147.31880
D1,Angical do Piauí/PI,-6.0872666,-42.7366138,1,14.73188
1,Angico/TO,-6.3893733,-47.8656722,2,58.25808
1,Angicos/RN,-5.6666344,-36.6009064,7,59.75756
D1,Angicos/RN,-5.6666344,-36.6009064,1,8.53679
1,Angra dos Reis/RJ,-23.0063966,-44.316326,1195,586.40234
D1,Angra dos Reis/RJ,-23.0063966,-44.316326,45,22.08210
1,Anguera/BA,-12.1509425,-39.2452469,23,204.97282
1,Anhanguera/GO,-18.3338749,-48.220363,1,87.03220
1,Anhembi/SP,-22.7891096,-48.1316776,2,29.74420
1,Anhumas/SP,-22.2956478,-51.3873401,3,72.90401
1,Anicuns/GO,-16.4606451,-49.9572265,8,36.61327
1,Anita Garibaldi/SC,-27.6855032,-51.1293873,2,28.03869
1,Anori/AM,-3.7435254,-61.6605203,468,2227.51071
D1,Anori/AM,-3.7435254,-61.6605203,7,33.31747
1,Anta Gorda/RS,-28.9718745,-52.0069187,7,117.03728
1,Antas/BA,-10.4114649,-38.3308815,3,15.55129
1,Antonina do Norte/CE,-6.7754187,-39.9879345,3,40.79967
1,Antonina/PR,-25.4298854,-48.7125431,6,31.61222
1,Antônio Cardoso/BA,-12.4363122,-39.1200307,4,34.23778
1,Antônio Carlos/MG,-21.318334,-43.746666,6,52.42464
1,Antônio Carlos/SC,-27.5168462,-48.7684715,23,270.17503
D1,Antônio Carlos/SC,-27.5168462,-48.7684715,4,46.98696
1,Antônio Dias/MG,-19.6525,-42.872778,5,53.65958
1,Antônio Martins/RN,-6.2155812,-37.8890129,2,27.99160
1,Antônio Prado/RS,-28.8567806,-51.2801355,2,15.32567
1,Anápolis/GO,-16.3332828,-48.9525756,182,47.03778
D1,Anápolis/GO,-16.3332828,-48.9525756,2,0.51690
1,Anísio de Abreu/PI,-9.185643,-43.04941,17,172.06478
1,Aparecida de Goiânia/GO,-16.8226769,-49.2452546,650,112.42193
D1,Aparecida de Goiânia/GO,-16.8226769,-49.2452546,15,2.59435
1,Aparecida do Rio Doce/GO,-18.2980167,-51.1491312,8,323.36297
1,Aparecida do Taboado/MS,-20.0840304,-51.1013943,2,7.76850
1,Aparecida/PB,-6.7859598, -38.0831353,8,95.84282
1,Aparecida/SP,-22.851552,-45.2340924,7,19.36001
1,Aperibé/RJ,-21.6211928,-42.1028167,19,161.57837
1,Apiacá/ES,-21.152272,-41.569297,18,237.87498
1,Apiaí/SP,-24.5076527,-48.8461582,3,12.30820
1,Apicum-Açu/MA,-1.5279295,-45.082278,147,852.71768
D1,Apicum-Açu/MA,-1.5279295,-45.082278,1,5.80080
1,Apodi/RN,-5.6631109,-37.796927,312,870.41428
D1,Apodi/RN,-5.6631109,-37.796927,7,19.52853
1,Aporá/BA,-11.6599747,-38.0794757,13,73.31792
D1,Aporá/BA,-11.6599747,-38.0794757,1,5.63984
1,Apuarema/BA,-13.8517897,-39.7457126,1,13.64256
1,Apucarana/PR,-23.5525327,-51.4610764,40,29.63051
D1,Apucarana/PR,-23.5525327,-51.4610764,3,2.22229
1,Apuiarés/CE,-3.9460303,-39.4313298,81,554.79452
D1,Apuiarés/CE,-3.9460303,-39.4313298,7,47.94521
1,Apuí/AM,-7.1940195,-59.8830192,27,122.87808
1,Aquidabã/SE,-10.2837579,-37.0188687,24,111.30177
D1,Aquidabã/SE,-10.2837579,-37.0188687,1,4.63757
1,Aquiraz/CE,-3.9063117,-38.387504,359,447.23499
D1,Aquiraz/CE,-3.9063117,-38.387504,13,16.19514
1,Arabutã/SC,-27.1587028,-52.1438142,30,703.07007
1,Aracaju/SE,-10.9162061,-37.0774655,5123,779.74104
D1,Aracaju/SE,-10.9162061,-37.0774655,94,14.30718
1,Aracati/CE,-4.558259,-37.767894,420,563.40295
D1,Aracati/CE,-4.558259,-37.767894,17,22.80441
1,Aracatu/BA,-14.4274236,-41.4604105,6,45.67948
1,Araci/BA,-11.3356065,-38.9573261,32,58.84625
D1,Araci/BA,-11.3356065,-38.9573261,1,1.83895
1,Aracoiaba/CE,-4.3702577,-38.8084313,240,906.72107
D1,Aracoiaba/CE,-4.3702577,-38.8084313,2,7.55601
1,Aracruz/ES,-19.8245218,-40.2735025,182,179.80636
D1,Aracruz/ES,-19.8245218,-40.2735025,15,14.81921
1,Aragarças/GO,-15.8957166,-52.2514538,12,59.64808
1,Aragoiânia/GO,-16.9146388,-49.4499148,8,77.60962
1,Aragominas/TO,-7.1654101,-48.525488,23,399.44425
1,Araguanã/MA,-2.9508403,-45.6651986,246,1594.71023
D1,Araguanã/MA,-2.9508403,-45.6651986,1,6.48256
1,Araguanã/TO,-6.5799107,-48.6428482,11,192.00559
1,Araguapaz/GO,-15.0937927,-50.626417,2,25.74003
D1,Araguapaz/GO,-15.0937927,-50.626417,1,12.87001
1,Araguari/MG,-18.6511256,-48.1933764,34,28.99366
D1,Araguari/MG,-18.6511256,-48.1933764,1,0.85275
1,Araguatins/TO,-5.6522925,-48.1158973,97,271.24521
D1,Araguatins/TO,-5.6522925,-48.1158973,13,36.35245
1,Araguaçu/TO,-12.928934,-49.823134,4,46.96489
D1,Araguaçu/TO,-12.928934,-49.823134,1,11.74122
1,Araguaína/TO,-7.193241,-48.2018597,2347,1300.49316
D1,Araguaína/TO,-7.193241,-48.2018597,23,12.74450
1,Araioses/MA,-2.890914,-41.904993,174,374.67700
D1,Araioses/MA,-2.890914,-41.904993,2,4.30663
1,Aramari/BA,-12.0907897,-38.4985065,2,17.54848
1,Arame/MA,-4.8858769,-46.0102484,129,394.48335
1,Arandu/SP,-23.1345103,-49.0545651,10,157.30691
D1,Arandu/SP,-23.1345103,-49.0545651,2,31.46138
1,Arantina/MG,-21.911667,-44.255833,3,107.33453
1,Arapiraca/AL,-9.754866,-36.661471,682,294.28644
D1,Arapiraca/AL,-9.754866,-36.661471,22,9.49311
1,Arapoema/TO,-7.6575001,-49.0641484,1,15.05344
1,Arapongas/PR,-23.415296,-51.42592,25,20.32074
D1,Arapongas/PR,-23.415296,-51.42592,2,1.62566
1,Araporã/MG,-18.4318188,-49.188313,7,101.90712
1,Arapoti/PR,-24.1457957,-49.8224605,2,7.11364
1,Araputanga/MT,-15.4710868,-58.346796,8,47.55677
1,Arapuá/MG,-19.034444,-46.155556,2,70.57163
1,Araquari/SC,-26.3703324,-48.7210994,35,91.79365
1,Arara/PB,-6.8271895,-35.7605703,25,185.59762
1,Araranguá/SC,-28.9348832,-49.4858389,76,111.39122
D1,Araranguá/SC,-28.9348832,-49.4858389,2,2.93135
1,Araraquara/SP,-21.7886713,-48.1773096,365,154.61385
D1,Araraquara/SP,-21.7886713,-48.1773096,5,2.11800
1,Araras/SP,-22.3569477,-47.3838889,156,116.21324
D1,Araras/SP,-22.3569477,-47.3838889,3,2.23487
1,Ararendá/CE,-4.7504395,-40.8303611,3,27.43484
D1,Ararendá/CE,-4.7504395,-40.8303611,1,9.14495
1,Arari/MA,-3.4547602,-44.7772723,95,318.27928
D1,Arari/MA,-3.4547602,-44.7772723,2,6.70062
1,Araricá/RS,-29.6168543,-50.929121,2,35.10004
1,Araripe/CE,-7.212861,-40.1359222,6,27.77778
1,Araripina/PE,-7.5768582,-40.5038509,79,93.58194
D1,Araripina/PE,-7.5768582,-40.5038509,3,3.55374
1,Araruama/RJ,-22.8733203,-42.3428897,219,165.40785
D1,Araruama/RJ,-22.8733203,-42.3428897,28,21.14804
1,Araruna/PB,-6.5321155,-35.7397595,5,24.61599
1,Araruna/PR,-23.9320308,-52.4976047,17,121.68933
D1,Araruna/PR,-23.9320308,-52.4976047,1,7.15820
1,Arataca/BA,-15.2617424,-39.4122943,2,18.15047
1,Aratiba/RS,-27.3955734,-52.3024325,6,96.23095
1,Aratuba/CE,-4.4195958,-39.0463737,31,261.66962
D1,Aratuba/CE,-4.4195958,-39.0463737,1,8.44096
1,Aratuípe/BA,-13.077137,-39.0010786,2,22.66289
D1,Aratuípe/BA,-13.077137,-39.0010786,1,11.33144
1,Araucária/PR,-25.5861107,-49.4051209,102,70.91065
1,Arauá/SE,-11.2644014,-37.6181058,4,39.77725
D1,Arauá/SE,-11.2644014,-37.6181058,3,29.83294
1,Araxá/MG,-19.5928536,-46.940241,152,143.08710
D1,Araxá/MG,-19.5928536,-46.940241,3,2.82409
1,Araçagi/PB,-6.8519969,-35.3835602,76,447.40095
1,Araçariguama/SP,-23.438611,-47.061389,20,89.42944
D1,Araçariguama/SP,-23.438611,-47.061389,1,4.47147
1,Araças/BA,-12.2139176,-38.2026159,2,16.42441
1,Araçatuba/SP,-21.207992,-50.4390225,211,107.09790
D1,Araçatuba/SP,-21.207992,-50.4390225,7,3.55301
1,Araçoiaba da Serra/SP,-23.5045367,-47.6168158,49,143.50144
D1,Araçoiaba da Serra/SP,-23.5045367,-47.6168158,1,2.92860
1,Araçoiaba/PE,-7.7856903,-35.0898881,42,204.63847
D1,Araçoiaba/PE,-7.7856903,-35.0898881,6,29.23407
1,Araçuaí/MG,-16.8484451,-42.0661868,2,5.44840
1,Arceburgo/MG,-21.364444,-46.939722,5,46.41664
1,Arcos/MG,-20.282223,-45.539444,25,62.35658
1,Arcoverde/PE,-8.415192,-37.057748,136,182.94816
D1,Arcoverde/PE,-8.415192,-37.057748,15,20.17811
1,Areal/RJ,-22.2314922,-43.1056264,50,397.70920
D1,Areal/RJ,-22.2314922,-43.1056264,1,7.95418
1,Arealva/SP,-22.0301906,-48.9111936,1,11.68224
1,Areia Branca/RN,-4.9506652,-37.1263312,293,1054.94347
D1,Areia Branca/RN,-4.9506652,-37.1263312,22,79.21077
1,Areia Branca/SE,-10.7591455,-37.3148072,62,334.37601
D1,Areia Branca/SE,-10.7591455,-37.3148072,1,5.39316
1,Areia de Baraúnas/PB,-7.1233949,-36.9446216,1,46.99248
1,Areia/PB,-6.9680243,-35.6994783,74,324.29116
D1,Areia/PB,-6.9680243,-35.6994783,1,4.38231
1,Areial/PB,-7.0501306,-35.9245244,15,214.34696
D1,Areial/PB,-7.0501306,-35.9245244,1,14.28980
1,Areiópolis/SP,-22.6758064,-48.6673653,10,89.85533
D1,Areiópolis/SP,-22.6758064,-48.6673653,3,26.95660
1,Arenápolis/MT,-14.4610369,-56.8432806,5,52.04538
1,Aripuanã/MT,-10.175806,-59.4439663,36,161.04500
D1,Aripuanã/MT,-10.175806,-59.4439663,1,4.47347
1,Ariquemes/RO,-9.9076522,-63.033069,466,432.02952
D1,Ariquemes/RO,-9.9076522,-63.033069,5,4.63551
1,Ariranha/SP,-21.18716,-48.790418,2,20.68680
1,Armazém/SC,-28.2624996,-49.0190126,26,299.74637
1,Armação dos Búzios/RJ,-22.7597805,-41.8875267,117,345.43844
D1,Armação dos Búzios/RJ,-22.7597805,-41.8875267,3,8.85740
1,Arneiroz/CE,-6.3235099,-40.1603859,26,331.63265
1,Aroazes/PI,-6.1108814,-41.7886137,1,17.13796
1,Aroeiras/PB,-7.5462904,-35.7080002,42,219.28680
1,Arraial do Cabo/RJ,-22.9662839,-42.024427,47,154.86507
D1,Arraial do Cabo/RJ,-22.9662839,-42.024427,4,13.18001
1,Arroio Grande/RS,-32.2384246,-53.0866661,1,5.46657
1,Arroio Trinta/SC,-26.9301976,-51.334928,2,56.33803
1,Arroio do Meio/RS,-29.4020392,-51.9444993,100,480.65369
1,Arroio do Sal/RS,-29.549852,-49.8874395,11,109.28962
D1,Arroio do Sal/RS,-29.549852,-49.8874395,1,9.93542
1,Arroio dos Ratos/RS,-30.0894524,-51.7265541,9,63.59975
D1,Arroio dos Ratos/RS,-30.0894524,-51.7265541,1,7.06664
1,Artur Nogueira/SP,-22.572737,-47.172679,33,60.65285
D1,Artur Nogueira/SP,-22.572737,-47.172679,2,3.67593
1,Arujá/SP,-23.396266,-46.3175449,309,344.00606
D1,Arujá/SP,-23.396266,-46.3175449,22,24.49234
1,Arvoredo/SC,-27.0752908,-52.4571847,17,758.92857
D1,Arvoredo/SC,-27.0752908,-52.4571847,1,44.64286
1,Arvorezinha/RS,-28.87369,-52.17808,5,47.96623
1,Arês/RN,-6.1969216,-35.1642968,12,83.88089
1,Ascurra/SC,-26.9569975,-49.3767752,1,12.60398
1,Aspásia/SP,-20.160028,-50.728046,2,109.76948
1,Assaré/CE,-6.8746791,-39.8741385,15,64.05603
1,Assaí/PR,-23.3736041,-50.8454929,4,26.45678
1,Assis Brasil/AC,-10.9409203,-69.5672108,56,755.02225
D1,Assis Brasil/AC,-10.9409203,-69.5672108,3,40.44762
1,Assis Chateaubriand/PR,-24.4054826,-53.5120468,36,107.90720
D1,Assis Chateaubriand/PR,-24.4054826,-53.5120468,1,2.99742
1,Assis/SP,-22.6620892,-50.420623,62,59.39494
D1,Assis/SP,-22.6620892,-50.420623,5,4.78991
1,Assunção/PB,-7.073396,-36.7274003,19,476.19048
1,Astolfo Dutra/MG,-21.3132636,-42.8624102,15,105.79025
D1,Astolfo Dutra/MG,-21.3132636,-42.8624102,1,7.05268
1,Atalaia do Norte/AM,-4.3658547,-70.1908742,159,798.15270
D1,Atalaia do Norte/AM,-4.3658547,-70.1908742,1,5.01983
1,Atalaia/AL,-9.5029595,-36.0219316,257,544.66462
D1,Atalaia/AL,-9.5029595,-36.0219316,5,10.59659
1,Atalanta/SC,-27.421916,-49.778863,3,93.45794
1,Atibaia/SP,-23.1177393,-46.5547861,102,71.44808
D1,Atibaia/SP,-23.1177393,-46.5547861,4,2.80189
1,Atilio Vivacqua/ES,-20.9139369,-41.1947519,10,83.78016
1,Augustinópolis/TO,-5.4662267,-47.8897519,67,363.89311
D1,Augustinópolis/TO,-5.4662267,-47.8897519,3,16.29372
1,Augusto Corrêa/PA,-1.0229335,-46.6404029,225,489.15170
D1,Augusto Corrêa/PA,-1.0229335,-46.6404029,4,8.69603
1,Aurelino Leal/BA,-14.3167137,-39.3256107,21,182.11777
1,Auriflama/SP,-20.6840418,-50.5554616,4,26.33485
1,Aurora do Pará/PA,-2.1323199,-47.558436,119,379.73068
D1,Aurora do Pará/PA,-2.1323199,-47.558436,4,12.76406
1,Aurora do Tocantins/TO,-12.71045,-46.407604,2,53.23396
1,Aurora/CE,-6.9426019,-38.9693765,9,36.50523
D1,Aurora/CE,-6.9426019,-38.9693765,1,4.05614
1,Aurora/SC,-27.3166417,-49.6368502,5,88.04367
1,Autazes/AM,-3.5833283,-59.1301518,666,1683.30595
D1,Autazes/AM,-3.5833283,-59.1301518,23,58.13219
1,Avanhandava/SP,-21.4603331,-49.9465156,1,7.32654
1,Avaré/SP,-23.1045215,-48.9259103,79,87.14357
D1,Avaré/SP,-23.1045215,-48.9259103,7,7.72158
1,Avaí/SP,-22.1564662,-49.3316395,2,37.01647
1,Aveiro/PA,-3.6049239,-55.3310742,16,97.63241
1,Avelino Lopes/PI,-10.1346855,-43.9489525,2,17.71636
1,Avelinópolis/GO,-16.4672409,-49.7578661,1,41.37360
1,Axixá do Tocantins/TO,-5.612747,-47.77007,42,430.50431
D1,Axixá do Tocantins/TO,-5.612747,-47.77007,2,20.50021
1,Axixá/MA,-2.8379465,-44.0561053,38,313.27288
D1,Axixá/MA,-2.8379465,-44.0561053,1,8.24402
1,Açailândia/MA,-4.9514278,-47.4844564,1743,1550.09116
D1,Açailândia/MA,-4.9514278,-47.4844564,19,16.89715
1,Açu/RN,-5.5836157,-36.9139541,146,251.65038
D1,Açu/RN,-5.5836157,-36.9139541,7,12.06543
1,Açucena/MG,-19.073056,-42.546666,5,52.79831
D1,Açucena/MG,-19.073056,-42.546666,1,10.55966
1,Babaçulândia/TO,-7.2034355,-47.761613,4,37.50938
1,Bacabal/MA,-4.2318132,-44.781167,720,686.04751
D1,Bacabal/MA,-4.2318132,-44.781167,12,11.43413
1,Bacabeira/MA,-2.9775747,-44.3155943,113,662.56230
D1,Bacabeira/MA,-2.9775747,-44.3155943,2,11.72677
1,Bacuri/MA,-1.728894,-45.1417148,148,796.46970
1,Bacurituba/MA,-2.7082587,-44.7381309,8,141.74344
1,Bady Bassitt/SP,-20.9178969,-49.4517911,32,182.83625
D1,Bady Bassitt/SP,-20.9178969,-49.4517911,4,22.85453
1,Baependi/MG,-21.959162,-44.8899249,2,10.44496
1,Bagre/PA,-1.8994498,-50.2103844,98,319.49923
D1,Bagre/PA,-1.8994498,-50.2103844,5,16.30098
1,Bagé/RS,-31.3314264,-54.1062808,72,59.43389
1,Baianópolis/BA,-12.3067564,-44.5383591,1,7.20617
1,Baixa Grande do Ribeiro/PI,-7.862861,-45.2113289,19,163.99102
D1,Baixa Grande do Ribeiro/PI,-7.862861,-45.2113289,1,8.63111
1,Baixio/CE,-6.7303544,-38.7170095,2,31.80662
1,Baixo Guandu/ES,-19.5138322,-41.0182089,117,377.44371
D1,Baixo Guandu/ES,-19.5138322,-41.0182089,4,12.90406
1,Baião/PA,-2.7903479,-49.6702845,151,318.25654
D1,Baião/PA,-2.7903479,-49.6702845,6,12.64596
1,Balneário Arroio do Silva/SC,-28.9815269,-49.4189932,33,252.46729
D1,Balneário Arroio do Silva/SC,-28.9815269,-49.4189932,1,7.65052
1,Balneário Barra do Sul/SC,-26.459842,-48.6061471,16,148.21677
1,Balneário Camboriú/SC,-26.9924395,-48.6339782,513,360.51864
D1,Balneário Camboriú/SC,-26.9924395,-48.6339782,3,2.10830
1,Balneário Gaivota/SC,-29.1553098,-49.5808712,8,72.86638
D1,Balneário Gaivota/SC,-29.1553098,-49.5808712,1,9.10830
1,Balneário Pinhal/RS,-30.2482978,-50.234585,5,35.54165
1,Balneário Piçarras/SC,-26.7638889,-48.6716667,51,220.33093
D1,Balneário Piçarras/SC,-26.7638889,-48.6716667,1,4.32021
1,Balneário Rincão/SC,-28.8235718,-49.2241642,6,47.02194
1,Balsa Nova/PR,-25.5842234,-49.6312741,5,38.63689
1,Balsas/MA,-7.53214,-46.037163,360,379.39865
1,Bambuí/MG,-20.0131996,-45.9777034,1,4.19657
1,Banabuiú/CE,-5.3046404,-38.919766,100,549.54113
D1,Banabuiú/CE,-5.3046404,-38.919766,1,5.49541
1,Bananal/SP,-22.6828195,-44.3221095,5,45.68296
1,Bananeiras/PB,-6.7537682,-35.6338343,39,182.94399
1,Bandeirantes do Tocantins/TO,-7.7635698,-48.579148,7,197.01661
1,Bandeirantes/PR,-23.107788,-50.370407,11,35.06870
D1,Bandeirantes/PR,-23.107788,-50.370407,1,3.18806
1,Bannach/PA,-7.3508505,-50.4064531,11,334.75350
D1,Bannach/PA,-7.3508505,-50.4064531,3,91.29641
1,Banzaê/BA,-10.5827616,-38.6122305,12,90.70980
1,Baraúna/PB,-6.643394,-36.2531932,53,1083.40147
1,Baraúna/RN,-5.0775002,-37.61752,94,331.28921
D1,Baraúna/RN,-5.0775002,-37.61752,4,14.09741
1,Barbacena/MG,-21.2254524,-43.7735087,301,219.20721
D1,Barbacena/MG,-21.2254524,-43.7735087,4,2.91305
1,Barbalha/CE,-7.3121067,-39.3036427,77,126.68433
D1,Barbalha/CE,-7.3121067,-39.3036427,2,3.29050
1,Barbosa Ferraz/PR,-24.0287182,-52.00811,1,8.64454
1,Barcarena/PA,-1.5107945,-48.6190679,958,768.36702
D1,Barcarena/PA,-1.5107945,-48.6190679,68,54.53962
1,Barcelona/RN,-5.9514918,-35.9260284,2,50.02501
1,Barcelos/AM,-0.9729214,-62.925635,597,2170.75122
D1,Barcelos/AM,-0.9729214,-62.925635,20,72.72198
1,Bariri/SP,-22.0746355,-48.7394852,22,62.38657
D1,Bariri/SP,-22.0746355,-48.7394852,1,2.83575
1,Barra Bonita/SP,-22.490859,-48.558349,56,155.01301
D1,Barra Bonita/SP,-22.490859,-48.558349,2,5.53618
1,Barra Longa/MG,-20.2833541,-43.0423516,1,19.48938
1,Barra Mansa/RJ,-22.5394843,-44.1735129,210,113.87545
D1,Barra Mansa/RJ,-22.5394843,-44.1735129,22,11.92981
1,Barra Velha/SC,-26.6338203,-48.6835001,26,89.13878
1,Barra da Estiva/BA,-13.6269662,-41.3278287,1,4.85484
1,Barra de Guabiraba/PE,-8.4173522,-35.6626669,38,264.16406
D1,Barra de Guabiraba/PE,-8.4173522,-35.6626669,2,13.90337
1,Barra de Santa Rosa/PB,-6.7218007,-36.0564638,12,78.00312
1,Barra de Santana/PB,-7.5230865,-35.9988518,23,275.15253
1,Barra de Santo Antônio/AL,-9.4038098,-35.5117693,41,257.34371
D1,Barra de Santo Antônio/AL,-9.4038098,-35.5117693,2,12.55335
1,Barra de São Francisco/ES,-18.7570902,-40.8916119,119,266.51736
D1,Barra de São Francisco/ES,-18.7570902,-40.8916119,4,8.95857
1,Barra de São Miguel/AL,-9.8261357,-35.8837777,43,516.70272
D1,Barra de São Miguel/AL,-9.8261357,-35.8837777,1,12.01634
1,Barra de São Miguel/PB,-7.7528088,-36.3170996,3,49.70179
D1,Barra de São Miguel/PB,-7.7528088,-36.3170996,1,16.56726
1,Barra do Bugres/MT,-15.0683712,-57.1853688,5,14.29961
1,Barra do Choça/BA,-14.8638173,-40.5761637,14,44.29959
1,Barra do Corda/MA,-5.496823,-45.248496,860,974.92405
D1,Barra do Corda/MA,-5.496823,-45.248496,13,14.73722
1,Barra do Garças/MT,-15.8916033,-52.2615413,93,152.42903
D1,Barra do Garças/MT,-15.8916033,-52.2615413,5,8.19511
1,Barra do Mendes/BA,-11.8053298,-42.057037,1,7.21241
1,Barra do Ouro/TO,-7.7113784,-47.6743925,4,87.12699
D1,Barra do Ouro/TO,-7.7113784,-47.6743925,1,21.78175
1,Barra do Piraí/RJ,-22.4703403,-43.8263256,195,194.27342
D1,Barra do Piraí/RJ,-22.4703403,-43.8263256,18,17.93293
1,Barra do Ribeiro/RS,-30.2930206,-51.301437,2,14.82470
1,Barra do Rocha/BA,-14.2090974,-39.6004395,5,87.50438
1,Barra do Turvo/SP,-24.756421,-48.5056942,10,130.56535
D1,Barra do Turvo/SP,-24.756421,-48.5056942,1,13.05653
1,Barra dos Coqueiros/SE,-10.9075694,-37.0386249,197,647.87713
D1,Barra dos Coqueiros/SE,-10.9075694,-37.0386249,1,3.28872
1,Barra/BA,-11.0892702,-43.1420453,4,7.46575
1,Barracão/PR,-26.252395,-53.6349576,5,48.66180
1,Barracão/RS,-27.6728964,-51.4582928,1,18.95735
1,Barras/PI,-4.2446153,-42.2920241,246,522.67029
D1,Barras/PI,-4.2446153,-42.2920241,3,6.37403
1,Barreira/CE,-4.2883361,-38.641094,104,463.76812
D1,Barreira/CE,-4.2883361,-38.641094,9,40.13378
1,Barreiras do Piauí/PI,-9.9224524,-45.4763776,1,29.86858
1,Barreiras/BA,-12.1440031,-44.9967406,118,75.91402
1,Barreirinha/AM,-2.798863,-57.067897,409,1276.48950
D1,Barreirinha/AM,-2.798863,-57.067897,4,12.48400
1,Barreirinhas/MA,-2.7541271,-42.8259693,199,318.25742
D1,Barreirinhas/MA,-2.7541271,-42.8259693,7,11.19498
1,Barreiros/PE,-8.8159644,-35.1831905,162,379.75574
D1,Barreiros/PE,-8.8159644,-35.1831905,12,28.13005
1,Barretos/SP,-20.5531437,-48.5697509,296,242.42821
D1,Barretos/SP,-20.5531437,-48.5697509,12,9.82817
1,Barrinha/SP,-21.1898849,-48.1550642,30,91.42996
D1,Barrinha/SP,-21.1898849,-48.1550642,1,3.04767
1,Barro Alto/GO,-14.9696025,-48.9190985,10,89.54957
D1,Barro Alto/GO,-14.9696025,-48.9190985,1,8.95496
1,Barro Duro/PI,-5.8180139,-42.5106589,31,440.84187
1,Barro Preto/BA,-14.8068289,-39.4727588,6,107.31533
1,Barro/CE,-7.1713587,-38.7742136,13,57.31922
D1,Barro/CE,-7.1713587,-38.7742136,2,8.81834
1,Barrocas/BA,-11.5165,-39.099282894736845,25,156.46514
1,Barrolândia/TO,-9.837246,-48.7264346,15,266.33523
D1,Barrolândia/TO,-9.837246,-48.7264346,1,17.75568
1,Barroquinha/CE,-3.0200371,-41.1339229,198,1318.50569
D1,Barroquinha/CE,-3.0200371,-41.1339229,4,26.63648
1,Barros Cassal/RS,-29.094938,-52.5832366,2,17.85874
D1,Barros Cassal/RS,-29.094938,-52.5832366,1,8.92937
1,Barroso/MG,-21.187222,-43.976111,4,19.22153
1,Barueri/SP,-23.5112184,-46.8764612,1437,524.10443
D1,Barueri/SP,-23.5112184,-46.8764612,146,53.24930
1,Barão de Antonina/SP,-23.6295651,-49.5632104,1,28.82675
1,Barão de Cocais/MG,-19.9452437,-43.4870298,45,138.52547
1,Barão de Cotegipe/RS,-27.6214694,-52.3765316,15,226.48347
1,Barão de Grajaú/MA,-6.7542591,-43.0263477,7,37.19447
1,Barão/RS,-29.372474,-51.494908,2,32.40966
1,Bastos/SP,-21.9222474,-50.7317727,2,9.54517
1,Bataguassu/MS,-21.715899,-52.422058,11,47.77623
1,Batalha/AL,-9.6733809,-37.1265481,59,323.60685
D1,Batalha/AL,-9.6733809,-37.1265481,1,5.48486
1,Batalha/PI,-4.022391,-42.0780926,88,327.66132
D1,Batalha/PI,-4.022391,-42.0780926,3,11.17027
1,Batatais/SP,-20.892867,-47.592149,23,36.79529
D1,Batatais/SP,-20.892867,-47.592149,1,1.59980
1,Batayporã/MS,-22.2976466,-53.2685608,6,52.96143
D1,Batayporã/MS,-22.2976466,-53.2685608,2,17.65381
1,Baturité/CE,-4.3290203,-38.8821055,80,223.77622
D1,Baturité/CE,-4.3290203,-38.8821055,12,33.56643
1,Bauru/SP,-22.3218102,-49.0705863,399,105.88666
D1,Bauru/SP,-22.3218102,-49.0705863,15,3.98070
1,Bayeux/PB,-7.1301631,-34.936532,476,491.32948
D1,Bayeux/PB,-7.1301631,-34.936532,29,29.93394
1,Baía Formosa/RN,-6.3691885,-35.0063741,6,64.71794
1,Baía da Traição/PB,-6.691258,-34.9371244,64,711.66463
D1,Baía da Traição/PB,-6.691258,-34.9371244,1,11.11976
1,Bebedouro/SP,-20.949077,-48.479083,39,50.32518
D1,Bebedouro/SP,-20.949077,-48.479083,2,2.58078
1,Beberibe/CE,-4.1810469,-38.1298101,184,343.45659
D1,Beberibe/CE,-4.1810469,-38.1298101,16,29.86579
1,Bela Cruz/CE,-3.0529129,-40.167582,428,1313.24599
D1,Bela Cruz/CE,-3.0529129,-40.167582,7,21.47832
1,Bela Vista de Goiás/GO,-16.9692949,-48.9513071,30,100.08340
D1,Bela Vista de Goiás/GO,-16.9692949,-48.9513071,1,3.33611
1,Bela Vista de Minas/MG,-19.8289721,-43.0973688,3,29.25402
1,Bela Vista do Maranhão/MA,-3.7416367,-45.2514192,67,597.73396
D1,Bela Vista do Maranhão/MA,-3.7416367,-45.2514192,1,8.92140
1,Bela Vista do Paraíso/PR,-22.9948493,-51.1907996,3,19.48432
1,Bela Vista do Piauí/PI,-7.9716353,-41.8715061,1,24.90660
1,Bela Vista/MS,-22.107327,-56.5317344,2,8.12051
1,Belford Roxo/RJ,-22.7667284,-43.4033603,937,183.39969
D1,Belford Roxo/RJ,-22.7667284,-43.4033603,128,25.05353
1,Belmiro Braga/MG,-21.9486291,-43.413564,4,116.65209
D1,Belmiro Braga/MG,-21.9486291,-43.413564,1,29.16302
1,Belmonte/BA,-15.8630837,-38.8792845,27,115.74074
D1,Belmonte/BA,-15.8630837,-38.8792845,1,4.28669
1,Belo Horizonte/MG,-19.9227318,-43.9450948,2497,99.40010
D1,Belo Horizonte/MG,-19.9227318,-43.9450948,59,2.34866
1,Belo Jardim/PE,-8.3338293,-36.4176419,50,65.41164
D1,Belo Jardim/PE,-8.3338293,-36.4176419,2,2.61647
1,Belo Monte/AL,-9.8269944,-37.2787165,3,44.74940
1,Belo Oriente/MG,-19.2232523,-42.4807033,18,67.41573
D1,Belo Oriente/MG,-19.2232523,-42.4807033,1,3.74532
1,Belo Vale/MG,-20.407778,-44.024167,2,25.92353
D1,Belo Vale/MG,-20.407778,-44.024167,1,12.96176
1,Belterra/PA,-2.636091,-54.937392,20,112.79044
D1,Belterra/PA,-2.636091,-54.937392,3,16.91857
1,Belágua/MA,-3.1604031,-43.5085052,81,1084.48253
1,Belém de Maria/PE,-8.6242497,-35.8388934,11,91.11240
1,Belém do Brejo do Cruz/PB,-6.1880727,-37.5332267,3,40.86080
1,Belém do Piauí/PI,-7.3767305,-40.9712156,6,168.25575
D1,Belém do Piauí/PI,-7.3767305,-40.9712156,1,28.04262
1,Belém do São Francisco/PE,-8.7517707,-38.9625715,6,28.94496
1,Belém/AL,-9.5715351,-36.492841,2,46.04052
D1,Belém/AL,-9.5715351,-36.492841,1,23.02026
1,Belém/PA,-1.45056,-48.4682453,14091,943.96565
D1,Belém/PA,-1.45056,-48.4682453,1588,106.38120
1,Belém/PB,-6.6967586,-35.5369626,73,412.98936
1,Beneditinos/PI,-5.4565671,-42.3605061,4,38.21534
D1,Beneditinos/PI,-5.4565671,-42.3605061,1,9.55384
1,Benedito Leite/MA,-7.2173453,-44.5523331,5,88.77841
1,Benedito Novo/SC,-26.7840657,-49.3629511,10,85.82218
1,Benevides/PA,-1.3555577,-48.252235,955,1522.22771
D1,Benevides/PA,-1.3555577,-48.252235,43,68.54010
1,Benjamin Constant do Sul/RS,-27.5105555,-52.6007689,17,852.55767
1,Benjamin Constant/AM,-4.3782748,-70.0290603,1084,2521.86860
D1,Benjamin Constant/AM,-4.3782748,-70.0290603,25,58.16118
1,Bento Fernandes/RN,-5.6926846,-35.8207423,3,54.57522
1,Bento Gonçalves/RS,-29.1654014,-51.5197627,670,556.22893
D1,Bento Gonçalves/RS,-29.1654014,-51.5197627,19,15.77366
1,Bento de Abreu/SP,-21.2707225,-50.8120444,1,33.55705
1,Bequimão/MA,-2.4495376,-44.7884889,138,648.49624
D1,Bequimão/MA,-2.4495376,-44.7884889,6,28.19549
1,Bernardino Batista/PB,-6.4532173,-38.5495418,1,28.56327
1,Bernardino de Campos/SP,-23.0140216,-49.4760724,1,8.97022
1,Bernardo do Mearim/MA,-4.6315929,-44.7617508,25,413.70180
D1,Bernardo do Mearim/MA,-4.6315929,-44.7617508,1,16.54807
1,Bertioga/SP,-23.848568,-46.139586,149,235.57685
D1,Bertioga/SP,-23.848568,-46.139586,7,11.06737
1,Bertolínia/PI,-7.6372159,-43.9540611,4,72.71405
1,Beruri/AM,-3.9007135,-61.3717319,374,1900.50307
D1,Beruri/AM,-3.9007135,-61.3717319,5,25.40780
1,Betim/MG,-19.968056,-44.198333,252,57.35877
D1,Betim/MG,-19.968056,-44.198333,11,2.50376
1,Betânia do Piauí/PI,-8.1460635,-40.7961387,3,48.34811
1,Betânia/PE,-8.2742779,-38.0351767,8,62.89803
D1,Betânia/PE,-8.2742779,-38.0351767,1,7.86225
1,Bezerros/PE,-8.2372132,-35.7558262,115,189.15096
D1,Bezerros/PE,-8.2372132,-35.7558262,2,3.28958
1,Bicas/MG,-21.7213723,-43.0604327,7,48.29585
1,Biguaçu/SC,-27.4961277,-48.6542432,50,73.01295
1,Bilac/SP,-21.403962,-50.47464,1,12.44710
1,Biquinhas/MG,-18.783611,-45.502222,1,39.76143
1,Birigui/SP,-21.2908491,-50.34144,66,53.38165
D1,Birigui/SP,-21.2908491,-50.34144,2,1.61763
1,Biritiba-Mirim/SP,-23.5697765,-46.0407456,40,122.70691
D1,Biritiba-Mirim/SP,-23.5697765,-46.0407456,4,12.27069
1,Bituruna/PR,-26.161281,-51.5533319,1,6.10165
1,Blumenau/SC,-26.9195567,-49.0658025,699,195.68924
D1,Blumenau/SC,-26.9195567,-49.0658025,4,1.11982
1,Boa Esperança do Sul/SP,-21.9930206,-48.3917372,14,93.81492
D1,Boa Esperança do Sul/SP,-21.9930206,-48.3917372,1,6.70107
1,Boa Esperança/ES,-18.5395472,-40.2904088,78,518.72049
D1,Boa Esperança/ES,-18.5395472,-40.2904088,3,19.95079
1,Boa Esperança/MG,-21.0901253,-45.5660195,33,82.23889
D1,Boa Esperança/MG,-21.0901253,-45.5660195,2,4.98418
1,Boa Hora/PI,-4.4094627,-42.1255341,7,103.22961
1,Boa Nova/BA,-14.365907,-40.2063056,1,7.91578
1,Boa Ventura/PB,-7.4202462,-38.2156782,1,18.63586
1,Boa Viagem/CE,-5.1261877,-39.7300055,55,100.97301
D1,Boa Viagem/CE,-5.1261877,-39.7300055,9,16.52286
1,Boa Vista da Aparecida/PR,-25.4357216,-53.4067721,20,263.46990
1,Boa Vista das Missões/RS,-27.6677983,-53.3127622,2,95.32888
1,Boa Vista do Gurupi/MA,-1.7981168,-46.3071882,10,107.67740
D1,Boa Vista do Gurupi/MA,-1.7981168,-46.3071882,2,21.53548
1,Boa Vista do Ramos/AM,-2.9716927,-57.5869819,90,468.57916
D1,Boa Vista do Ramos/AM,-2.9716927,-57.5869819,2,10.41287
1,Boa Vista do Sul/RS,-29.3510488,-51.6779679,14,503.05426
D1,Boa Vista do Sul/RS,-29.3510488,-51.6779679,1,35.93245
1,Boa Vista do Tupim/BA,-12.6605988,-40.6083594,3,16.14987
1,Boa Vista/PB,-7.2620711,-36.2415161,42,595.66019
1,Boa Vista/RR,2.8208478,-60.6719582,4000,1001.97138
D1,Boa Vista/RR,2.8208478,-60.6719582,116,29.05717
1,Boca da Mata/AL,-9.6452054,-36.2116658,119,436.20102
D1,Boca da Mata/AL,-9.6452054,-36.2116658,2,7.33111
1,Boca do Acre/AM,-8.7553487,-67.3930873,475,1384.51673
D1,Boca do Acre/AM,-8.7553487,-67.3930873,7,20.40340
1,Bocaina de Minas/MG,-22.167778,-44.394722,2,39.29273
1,Bocaina do Sul/SC,-27.745494,-49.942279,1,28.78526
1,Bocaina/PI,-6.9445939,-41.3224599,8,177.77778
1,Bocaina/SP,-22.1421831,-48.522276,11,89.22054
D1,Bocaina/SP,-22.1421831,-48.522276,1,8.11096
1,Bocaiúva do Sul/PR,-25.206591,-49.114131,1,7.72559
1,Bocaiúva/MG,-17.1160208,-43.8122678,6,12.00504
1,Bodocó/PE,-7.777592,-39.933797,9,23.59356
1,Bofete/SP,-23.1019554,-48.2610535,25,213.12873
D1,Bofete/SP,-23.1019554,-48.2610535,2,17.05030
1,Boituva/SP,-23.2838893,-47.6738231,84,137.71169
D1,Boituva/SP,-23.2838893,-47.6738231,5,8.19712
1,Bom Conselho/PE,-9.169191,-36.685683,91,187.42019
D1,Bom Conselho/PE,-9.169191,-36.685683,1,2.05956
1,Bom Despacho/MG,-19.7375242,-45.2517288,22,43.47397
D1,Bom Despacho/MG,-19.7375242,-45.2517288,1,1.97609
1,Bom Jardim da Serra/SC,-28.3380324,-49.625588,1,21.08370
1,Bom Jardim de Goiás/GO,-16.2062659,-52.172793,1,11.31094
1,Bom Jardim/MA,-3.54129,-45.606004,150,360.31708
D1,Bom Jardim/MA,-3.54129,-45.606004,2,4.80423
1,Bom Jardim/PE,-7.7961572,-35.5871696,52,132.70723
D1,Bom Jardim/PE,-7.7961572,-35.5871696,10,25.52062
1,Bom Jardim/RJ,-22.1515328,-42.4186683,29,105.66203
D1,Bom Jardim/RJ,-22.1515328,-42.4186683,2,7.28704
1,Bom Jesus da Lapa/BA,-13.250571,-43.410754,26,37.60051
1,Bom Jesus das Selvas/MA,-4.4878075,-46.8526639,247,725.87281
1,Bom Jesus de Goiás/GO,-18.2174587,-49.739721,4,15.86294
1,Bom Jesus do Amparo/MG,-19.7045132,-43.4752911,3,49.31777
1,Bom Jesus do Araguaia/MT,-12.1725897,-51.5074425,6,91.18541
1,Bom Jesus do Galho/MG,-19.8283191,-42.3162256,1,6.69568
D1,Bom Jesus do Galho/MG,-19.8283191,-42.3162256,1,6.69568
1,Bom Jesus do Itabapoana/RJ,-21.1341025,-41.680095,72,194.09101
D1,Bom Jesus do Itabapoana/RJ,-21.1341025,-41.680095,2,5.39142
1,Bom Jesus do Norte/ES,-21.1254776,-41.6711646,29,291.86795
1,Bom Jesus do Tocantins/PA,-5.0471796,-48.5978362,17,100.11189
1,Bom Jesus dos Perdões/SP,-23.1353864,-46.4648052,23,90.38038
1,Bom Jesus/PB,-6.8156725,-38.6551841,1,39.04725
1,Bom Jesus/PI,-9.0711644,-44.3583926,78,309.78196
1,Bom Jesus/RN,-5.9887544,-35.5821149,11,107.73751
D1,Bom Jesus/RN,-5.9887544,-35.5821149,1,9.79432
1,Bom Jesus/RS,-28.6692723,-50.4346894,35,308.39722
1,Bom Lugar/MA,-4.3728019,-45.0366054,26,159.56794
1,Bom Princípio do Piauí/PI,-3.1912777,-41.6430185,3,53.28597
D1,Bom Princípio do Piauí/PI,-3.1912777,-41.6430185,1,17.76199
1,Bom Princípio/RS,-29.489788,-51.3566782,35,249.02170
1,Bom Progresso/RS,-27.5490948,-53.8655601,4,205.97322
1,Bom Repouso/MG,-22.4657069,-46.1485376,5,47.40685
1,Bom Retiro do Sul/RS,-29.6000007,-51.9359243,70,567.81311
D1,Bom Retiro do Sul/RS,-29.6000007,-51.9359243,1,8.11162
1,Bom Sucesso/PB,-6.4458948,-37.9297662,2,40.20101
1,Bombinhas/SC,-27.1519159,-48.4875691,22,111.28535
1,Bonfim do Piauí/PI,-9.1648678,-42.8734415,1,17.63668
1,Bonfim/MG,-20.3266626, -44.2386157,5,72.80140
D1,Bonfim/MG,-20.3266626, -44.2386157,1,14.56028
1,Bonfim/RR,3.3613818,-59.8427241,91,733.33871
D1,Bonfim/RR,3.3613818,-59.8427241,3,24.17600
1,Bonfinópolis de Minas/MG,-16.5660011,-45.98645,1,18.20499
1,Bonfinópolis/GO,-16.6172709,-48.9615701,5,51.51453
1,Boninal/BA,-12.7095183,-41.8299984,1,6.95991
1,Bonito de Santa Fé/PB,-7.3143332,-38.5146677,1,8.39137
1,Bonito/MS,-21.1264766,-56.4902208,49,222.97051
1,Bonito/PA,-1.3605722,-47.3049907,123,755.24991
D1,Bonito/PA,-1.3605722,-47.3049907,3,18.42073
1,Bonito/PE,-8.4721161,-35.7314591,59,154.71757
D1,Bonito/PE,-8.4721161,-35.7314591,10,26.22332
1,Boqueirão do Piauí/PI,-4.4850148,-42.1095161,1,15.60793
1,Boqueirão/PB,-7.487004,-36.130887,43,241.51876
D1,Boqueirão/PB,-7.487004,-36.130887,1,5.61672
1,Boquim/SE,-11.1450175,-37.6204228,25,93.22792
D1,Boquim/SE,-11.1450175,-37.6204228,1,3.72912
1,Boquira/BA,-12.8184859,-42.7270883,10,46.49433
1,Boracéia/SP,-22.195355,-48.7801925,13,269.54178
1,Borba/AM,-4.3934778,-59.5947721,315,765.28753
D1,Borba/AM,-4.3934778,-59.5947721,14,34.01278
1,Borborema/PB,-6.8066718,-35.5990191,2,38.00114
1,Borborema/SP,-21.6212706,-49.074135,12,74.78499
1,Borda da Mata/MG,-22.274167,-46.165278,4,20.60581
1,Borebi/SP,-22.5700178,-48.9714871,4,150.77271
1,Borá/SP,-22.2701088,-50.544407,1,119.47431
1,Bossoroca/RS,-28.7278885,-54.9120278,3,47.77831
1,Botelhos/MG,-21.65,-46.394722,6,40.07748
1,Botucatu/SP,-22.8879628,-48.4410712,378,258.02576
D1,Botucatu/SP,-22.8879628,-48.4410712,9,6.14347
1,Botuverá/SC,-27.200749,-49.068892,6,114.37286
1,Braga/RS,-27.617348,-53.740514,2,59.64808
1,Braganey/PR,-24.8179919,-53.118506,11,202.69025
D1,Braganey/PR,-24.8179919,-53.118506,1,18.42639
1,Bragança Paulista/SP,-22.9520235,-46.5418586,282,167.19235
D1,Bragança Paulista/SP,-22.9520235,-46.5418586,12,7.11457
1,Bragança/PA,-1.0573967,-46.7635406,1049,821.54661
D1,Bragança/PA,-1.0573967,-46.7635406,43,33.67636
1,Branquinha/AL,-9.2478057,-36.0152009,12,114.35106
1,Brasil Novo/PA,-3.3055853,-52.539198,75,497.14968
D1,Brasil Novo/PA,-3.3055853,-52.539198,1,6.62866
1,Brasileira/PI,-4.131182,-41.7824969,8,96.04995
1,Brasilândia do Tocantins/TO,-8.3886619,-48.4842729,1,45.43389
1,Brasilândia/MS,-21.255575,-52.0365617,15,126.34771
D1,Brasilândia/MS,-21.255575,-52.0365617,2,16.84636
1,Brasiléia/AC,-11.0010413,-68.7487894,94,357.71368
D1,Brasiléia/AC,-11.0010413,-68.7487894,4,15.22186
1,Brasília de Minas/MG,-16.2075114,-44.430559,7,21.64034
1,Brasília/DF,-15.7934036,-47.8823172,16623,551.29428
D1,Brasília/DF,-15.7934036,-47.8823172,214,7.09721
1,Brazópolis/MG,-22.4742842,-45.6165577,8,55.32886
1,Braço do Norte/SC,-28.2728633,-49.1622712,122,364.72347
D1,Braço do Norte/SC,-28.2728633,-49.1622712,2,5.97907
1,Braúna/SP,-21.5015319,-50.3175246,1,17.58706
1,Brejetuba/ES,-20.1465817,-41.2902303,14,112.86682
1,Brejinho de Nazaré/TO,-11.0205883,-48.5722906,2,36.38348
1,Brejinho/PE,-7.3482153,-37.28538,7,93.49539
1,Brejinho/RN,-6.1957907,-35.3583019,10,78.74636
1,Brejo Alegre/SP,-21.1671191,-50.1850393,1,34.90401
1,Brejo Grande do Araguaia/PA,-5.7011449,-48.4037308,10,135.50136
1,Brejo Grande/SE,-10.4287358,-36.4667918,2,24.07029
1,Brejo Santo/CE,-7.4909841,-38.9859152,43,86.90907
D1,Brejo Santo/CE,-7.4909841,-38.9859152,3,6.06342
1,Brejo da Madre de Deus/PE,-8.1409718,-36.3712527,156,307.43763
D1,Brejo da Madre de Deus/PE,-8.1409718,-36.3712527,3,5.91226
1,Brejo de Areia/MA,-4.3316785,-45.5833334,19,206.79147
1,Brejo do Cruz/PB,-6.32926065,-37.48746163303929,10,70.81150
D1,Brejo do Cruz/PB,-6.32926065,-37.48746163303929,1,7.08115
1,Brejo dos Santos/PB,-6.3769367,-37.8243125,1,15.50628
1,Brejo/MA,-3.6804397,-42.7529313,139,381.89961
D1,Brejo/MA,-3.6804397,-42.7529313,7,19.23235
1,Brejão/PE,-9.029146,-36.566034,1,11.11976
1,Breu Branco/PA,-3.7785073,-49.5684795,86,130.21228
D1,Breu Branco/PA,-3.7785073,-49.5684795,8,12.11277
1,Breves/PA,-1.68036,-50.479085,632,615.37862
D1,Breves/PA,-1.68036,-50.479085,63,61.34312
1,Britânia/GO,-15.2427599,-51.1602061,2,34.60806
1,Brochier/RS,-29.556766,-51.5963047,13,256.20812
1,Brodowski/SP,-20.984532,-47.657217,28,112.27395
D1,Brodowski/SP,-20.984532,-47.657217,1,4.00978
1,Brotas/SP,-22.2840884,-48.1267265,5,20.48928
1,Brumadinho/MG,-20.143611,-44.2,40,99.74316
1,Brumado/BA,-14.29507325,-41.659307508575985,49,72.92209
1,Brusque/SC,-27.0964628,-48.9136323,169,125.44257
1,Bueno Brandão/MG,-22.441976,-46.3517971,3,27.27025
D1,Bueno Brandão/MG,-22.441976,-46.3517971,1,9.09008
1,Buenos Aires/PE,-7.7218931,-35.326587,19,144.43177
D1,Buenos Aires/PE,-7.7218931,-35.326587,3,22.80502
1,Buenópolis/MG,-17.8756607,-44.1749365,8,77.18283
1,Buerarema/BA,-14.9571177,-39.3008035,40,217.99553
D1,Buerarema/BA,-14.9571177,-39.3008035,5,27.24944
1,Bugre/MG,-19.4257687,-42.2556,1,25.11301
1,Bujari/AC,-9.8309656,-67.9520886,69,672.12157
D1,Bujari/AC,-9.8309656,-67.9520886,1,9.74089
1,Bujaru/PA,-1.5169239,-48.0410699,172,590.41604
D1,Bujaru/PA,-1.5169239,-48.0410699,17,58.35507
1,Buri/SP,-23.79849,-48.598924,7,35.21481
1,Buritama/SP,-21.0664017,-50.1448077,18,104.99300
1,Buriti Bravo/MA,-5.8391884,-43.8367876,7,29.30832
1,Buriti do Tocantins/TO,-5.3187439,-48.2256609,27,237.92739
1,Buriti dos Lopes/PI,-3.1776723,-41.8707444,51,257.82316
D1,Buriti dos Lopes/PI,-3.1776723,-41.8707444,2,10.11071
1,Buriti dos Montes/PI,-5.3136171,-41.0971256,4,48.52014
D1,Buriti dos Montes/PI,-5.3136171,-41.0971256,1,12.13003
1,Buriti/MA,-3.9430944,-42.9244281,93,324.29040
1,Buriticupu/MA,-4.3227472,-46.4516989,664,917.65942
D1,Buriticupu/MA,-4.3227472,-46.4516989,2,2.76403
1,Buritirama/BA,-10.7148421,-43.6362327,7,33.05941
1,Buritirana/MA,-5.5897455,-47.0148915,151,978.61309
D1,Buritirana/MA,-5.5897455,-47.0148915,3,19.44264
1,Buritis/MG,-15.621389,-46.423889,4,16.10241
1,Buritis/RO,-10.2054937,-63.8281954,33,83.21985
D1,Buritis/RO,-10.2054937,-63.8281954,1,2.52181
1,Buritizal/SP,-20.1933264,-47.7097165,3,66.94934
1,Buritizeiro/MG,-17.3667765,-44.9647781,2,7.12860
1,Butiá/RS,-30.1256795,-51.9692224,3,14.32596
1,Buíque/PE,-8.6239732,-37.157296,31,53.10220
D1,Buíque/PE,-8.6239732,-37.157296,1,1.71297
1,Bálsamo/SP,-20.7343722,-49.5807484,2,22.05558
0,CASO SEM LOCALIZAÇÃO DEFINIDA/AC,-9.884083190922777,-67.85119819780795,699,79.25754
D0,CASO SEM LOCALIZAÇÃO DEFINIDA/AC,-9.884083190922777,-67.85119819780795,17,1.92758
0,CASO SEM LOCALIZAÇÃO DEFINIDA/AL,-9.931093434363673,-35.609611600637464,66,1.97761
D0,CASO SEM LOCALIZAÇÃO DEFINIDA/AL,-9.931093434363673,-35.609611600637464,5,0.14982
0,CASO SEM LOCALIZAÇÃO DEFINIDA/BA,-13.415069300066518,-38.14174656569957,564,3.79209
D0,CASO SEM LOCALIZAÇÃO DEFINIDA/BA,-13.415069300066518,-38.14174656569957,4,0.02689
0,CASO SEM LOCALIZAÇÃO DEFINIDA/CE,-3.3445126297392798,-38.624961942434304,2411,26.40144
D0,CASO SEM LOCALIZAÇÃO DEFINIDA/CE,-3.3445126297392798,-38.624961942434304,17,0.18616
0,CASO SEM LOCALIZAÇÃO DEFINIDA/ES,-20.30989267097039,-39.81745156645774,329,8.18683
D0,CASO SEM LOCALIZAÇÃO DEFINIDA/ES,-20.30989267097039,-39.81745156645774,5,0.12442
0,CASO SEM LOCALIZAÇÃO DEFINIDA/GO,-16.701590966270153,-49.164524059025034,45,0.64118
0,CASO SEM LOCALIZAÇÃO DEFINIDA/MG,-19.97049116501593,-43.8852149072783,248,1.17154
D0,CASO SEM LOCALIZAÇÃO DEFINIDA/MG,-19.97049116501593,-43.8852149072783,9,0.04252
0,CASO SEM LOCALIZAÇÃO DEFINIDA/MT,-15.54791153961863,-56.17143998972475,298,8.55224
D0,CASO SEM LOCALIZAÇÃO DEFINIDA/MT,-15.54791153961863,-56.17143998972475,14,0.40178
0,CASO SEM LOCALIZAÇÃO DEFINIDA/PA,-0.09317078214359542,-48.0050231510481,527,6.12587
D0,CASO SEM LOCALIZAÇÃO DEFINIDA/PA,-0.09317078214359542,-48.0050231510481,36,0.41847
0,CASO SEM LOCALIZAÇÃO DEFINIDA/PE,-8.121628543819208,-34.57313921302556,956,10.00306
D0,CASO SEM LOCALIZAÇÃO DEFINIDA/PE,-8.121628543819208,-34.57313921302556,49,0.51271
0,CASO SEM LOCALIZAÇÃO DEFINIDA/PI,-2.683810218391744,-41.470898009352254,143,4.36878
D0,CASO SEM LOCALIZAÇÃO DEFINIDA/PI,-2.683810218391744,-41.470898009352254,15,0.45826
0,CASO SEM LOCALIZAÇÃO DEFINIDA/PR,-25.69415946385943,-48.10141676336737,1077,9.41931
D0,CASO SEM LOCALIZAÇÃO DEFINIDA/PR,-25.69415946385943,-48.10141676336737,22,0.19241
0,CASO SEM LOCALIZAÇÃO DEFINIDA/RN,-5.749310788669161,-34.95302586257457,46,1.31172
D0,CASO SEM LOCALIZAÇÃO DEFINIDA/RN,-5.749310788669161,-34.95302586257457,42,1.19765
0,CASO SEM LOCALIZAÇÃO DEFINIDA/RO,-8.681174926655274,-63.9216949899276,1651,92.89764
D0,CASO SEM LOCALIZAÇÃO DEFINIDA/RO,-8.681174926655274,-63.9216949899276,41,2.30697
0,CASO SEM LOCALIZAÇÃO DEFINIDA/RR,2.813328208465927,-60.663338675861986,358,59.09922
D0,CASO SEM LOCALIZAÇÃO DEFINIDA/RR,2.813328208465927,-60.663338675861986,4,0.66033
0,CASO SEM LOCALIZAÇÃO DEFINIDA/SC,-27.675643660562308,-48.18313219398259,434,6.05740
D0,CASO SEM LOCALIZAÇÃO DEFINIDA/SC,-27.675643660562308,-48.18313219398259,5,0.06979
0,CASO SEM LOCALIZAÇÃO DEFINIDA/SP,-24.30968974555485,-46.21366504207253,85,0.18511
1,Caapiranga/AM,-3.3188884,-61.2096404,109,833.26963
D1,Caapiranga/AM,-3.3188884,-61.2096404,2,15.28935
1,Caaporã/PB,-7.510234,-34.9154114,480,2199.01045
D1,Caaporã/PB,-7.510234,-34.9154114,6,27.48763
1,Caarapó/MS,-22.6349267,-54.8240903,4,13.25645
1,Cabaceiras do Paraguaçu/BA,-12.5377868,-39.1901339,3,15.95151
1,Cabaceiras/PB,-7.4899156,-36.2860501,2,35.64427
1,Cabeceiras do Piauí/PI,-4.4733665,-42.3098716,2,18.89288
1,Cabeceiras/GO,-15.7995459,-46.9264991,1,12.51095
D1,Cabeceiras/GO,-15.7995459,-46.9264991,1,12.51095
1,Cabedelo/PB,-6.97324,-34.8351609,1113,1643.14397
D1,Cabedelo/PB,-6.97324,-34.8351609,8,11.81056
1,Cabixi/RO,-13.4956065,-60.5424442,3,56.47590
1,Cabo Frio/RJ,-22.8804369,-42.0189227,480,211.89714
D1,Cabo Frio/RJ,-22.8804369,-42.0189227,23,10.15340
1,Cabo de Santo Agostinho/PE,-8.2838945,-35.0320984,715,345.33055
D1,Cabo de Santo Agostinho/PE,-8.2838945,-35.0320984,109,52.64480
1,Cabreúva/SP,-23.3075813,-47.1324417,83,166.97849
D1,Cabreúva/SP,-23.3075813,-47.1324417,5,10.05895
1,Cabrobó/PE,-8.5083701,-39.3106961,4,11.68873
D1,Cabrobó/PE,-8.5083701,-39.3106961,1,2.92218
1,Cacaulândia/RO,-10.3380043,-62.9007231,4,64.20546
1,Cachoeira Alta/GO,-18.7618269,-50.9432431,8,64.08202
1,Cachoeira Dourada/GO,-18.4934204,-49.481062,3,37.18855
1,Cachoeira Dourada/MG,-18.517136,-49.5002062,2,74.29421
1,Cachoeira Grande/MA,-2.9290492,-44.0573223,34,360.51320
D1,Cachoeira Grande/MA,-2.9290492,-44.0573223,2,21.20666
1,Cachoeira Paulista/SP,-22.666498,-45.015384,10,30.00570
D1,Cachoeira Paulista/SP,-22.666498,-45.015384,1,3.00057
1,Cachoeira de Minas/MG,-22.3554043,-45.7796324,1,8.66026
1,Cachoeira de Pajeú/MG,-15.965833,-41.496666,1,10.62473
1,Cachoeira do Arari/PA,-1.0143572,-48.9621089,91,382.88383
D1,Cachoeira do Arari/PA,-1.0143572,-48.9621089,9,37.86763
1,Cachoeira do Piriá/PA,-1.7599443,-46.5446954,87,256.63717
1,Cachoeira do Sul/RS,-30.0474778,-52.8905413,38,46.22815
1,Cachoeira dos Índios/PB,-6.9259193,-38.6742159,11,107.37993
D1,Cachoeira dos Índios/PB,-6.9259193,-38.6742159,1,9.76181
1,Cachoeira/BA,-12.5998256,-38.9665918,12,35.85300
1,Cachoeiras de Macacu/RJ,-22.4626861,-42.6534414,167,283.35341
D1,Cachoeiras de Macacu/RJ,-22.4626861,-42.6534414,19,32.23781
1,Cachoeirinha/PE,-8.4906364,-36.2338963,43,210.99117
D1,Cachoeirinha/PE,-8.4906364,-36.2338963,3,14.72031
1,Cachoeirinha/RS,-29.9493353,-51.0898927,135,103.61263
1,Cachoeirinha/TO,-6.118647,-47.9208885,9,395.60440
1,Cachoeiro de Itapemirim/ES,-20.848084,-41.11129,573,274.19941
D1,Cachoeiro de Itapemirim/ES,-20.848084,-41.11129,18,8.61359
1,Cacimba de Areia/PB,-7.1288513,-37.1575194,5,135.79576
1,Cacimba de Dentro/PB,-6.6425101,-35.7929304,30,174.55053
1,Cacimbas/PB,-7.2125451,-37.0593398,6,83.64701
1,Cacimbinhas/AL,-9.401212,-36.991082,22,202.61558
D1,Cacimbinhas/AL,-9.401212,-36.991082,1,9.20980
1,Cacique Doble/RS,-27.7700117,-51.6616409,2,39.48667
1,Cacoal/RO,-11.4333,-61.4420502,81,94.89333
D1,Cacoal/RO,-11.4333,-61.4420502,1,1.17152
1,Caconde/SP,-21.527995,-46.643659,1,5.26732
1,Caetanos/BA,-14.3387456,-40.9085971,2,13.75327
1,Caetanópolis/MG,-19.2947496,-44.4138386,3,25.80867
1,Caetité/BA,-14.0691776,-42.4852428,14,27.46444
1,Caeté/MG,-19.897777,-43.670278,16,35.77978
1,Caetés/PE,-8.7728788,-36.6255835,42,146.14287
D1,Caetés/PE,-8.7728788,-36.6255835,2,6.95918
1,Cafeara/PR,-22.78905,-51.714195,1,34.08316
1,Cafelândia/PR,-24.6176963,-53.3218057,2,11.03753
1,Caiabu/SP,-22.0143038,-51.2356597,3,71.58196
D1,Caiabu/SP,-22.0143038,-51.2356597,1,23.86065
1,Caiana/MG,-20.695555,-41.924723,1,18.19505
1,Caiapônia/GO,-16.9538779,-51.8090761,1,5.28737
1,Caibi/SC,-27.0751925,-53.2502133,6,97.59271
1,Caicó/RN,-6.4594544,-37.0971911,64,94.18413
D1,Caicó/RN,-6.4594544,-37.0971911,1,1.47163
1,Caieiras/SP,-23.3644621,-46.7484765,361,355.77018
D1,Caieiras/SP,-23.3644621,-46.7484765,40,39.42052
1,Cairu/BA,-13.4860505,-39.0455744,27,148.54754
D1,Cairu/BA,-13.4860505,-39.0455744,1,5.50176
1,Caiuá/SP,-21.8319357,-51.9887179,2,34.04835
1,Caiçara do Norte/RN,-5.0645017,-36.0561226,12,183.23408
1,Caiçara do Rio do Vento/RN,-5.757968,-36.00089,8,217.15527
D1,Caiçara do Rio do Vento/RN,-5.757968,-36.00089,1,27.14441
1,Caiçara/PB,-6.6146866,-35.4681434,29,402.72184
D1,Caiçara/PB,-6.6146866,-35.4681434,1,13.88696
1,Cajamar/SP,-23.3561111,-46.8769444,348,453.11910
D1,Cajamar/SP,-23.3561111,-46.8769444,24,31.24959
1,Cajapió/MA,-2.8778715,-44.6746871,4,35.78778
D1,Cajapió/MA,-2.8778715,-44.6746871,1,8.94694
1,Cajari/MA,-3.3213076,-45.0118757,112,577.94520
1,Cajati/SP,-24.7272376,-48.1077914,20,70.05499
1,Cajazeiras do Piauí/PI,-6.794271,-42.3935024,1,28.09778
1,Cajazeiras/PB,-6.8897849,-38.5570389,143,230.67120
D1,Cajazeiras/PB,-6.8897849,-38.5570389,5,8.06543
1,Cajazeirinhas/PB,-6.961442,-37.7993733,1,31.31851
1,Cajobi/SP,-20.8776238,-48.8106972,6,56.91520
D1,Cajobi/SP,-20.8776238,-48.8106972,1,9.48587
1,Cajueiro da Praia/PI,-2.931114,-41.340801,4,52.34232
1,Cajueiro/AL,-9.399589,-36.1524309,41,192.81415
D1,Cajueiro/AL,-9.399589,-36.1524309,1,4.70278
1,Cajuri/MG,-20.7901414,-42.7954489,7,175.57060
1,Cajuru/SP,-21.2759978,-47.3046035,5,19.10804
D1,Cajuru/SP,-21.2759978,-47.3046035,1,3.82161
1,Caldas Brandão/PB,-7.1027959,-35.3254676,22,365.81310
1,Caldas Novas/GO,-17.745,-48.625,25,27.42371
D1,Caldas Novas/GO,-17.745,-48.625,2,2.19390
1,Caldas/MG,-21.923611,-46.386111,14,96.68508
1,Caldeirão Grande do Piauí/PI,-7.3310393,-40.6374433,3,51.93906
1,Caldeirão Grande/BA,-11.0208483,-40.3041387,6,45.02139
1,Calumbi/PE,-7.9389746,-38.1516871,3,52.17391
1,Calçado/PE,-8.7413446,-36.3351787,2,18.09463
1,Calçoene/AP,2.4981757,-50.9539503,183,1646.12755
D1,Calçoene/AP,2.4981757,-50.9539503,1,8.99523
1,Camacan/BA,-15.4166631,-39.4930088,123,384.51919
D1,Camacan/BA,-15.4166631,-39.4930088,1,3.12617
1,Camamu/BA,-13.9438142,-39.1060917,10,28.31578
1,Camanducaia/MG,-22.755278,-46.144444,63,289.38907
D1,Camanducaia/MG,-22.755278,-46.144444,1,4.59348
1,Camapuã/MS,-19.5291747,-54.0434641,2,14.58683
1,Camaquã/RS,-30.8524752,-51.8075619,19,28.67448
D1,Camaquã/RS,-30.8524752,-51.8075619,1,1.50918
1,Camaragibe/PE,-8.0213832,-34.9810768,989,626.63152
D1,Camaragibe/PE,-8.0213832,-34.9810768,77,48.78729
1,Camargo/RS,-28.5865661,-52.2031474,6,219.53897
1,Camaçari/BA,-12.6998188,-38.3260762,398,133.05163
D1,Camaçari/BA,-12.6998188,-38.3260762,7,2.34010
1,Cambará do Sul/RS,-29.0489517,-50.145412,2,31.09936
1,Cambará/PR,-23.042273,-50.075281,2,7.88644
1,Camboriú/SC,-27.0273601,-48.6535657,166,200.02651
D1,Camboriú/SC,-27.0273601,-48.6535657,5,6.02489
1,Cambuci/RJ,-21.5749919,-41.9107833,38,245.08223
1,Cambuquira/MG,-21.853056,-45.2953619,3,23.41189
1,Cambuí/MG,-22.6122501,-46.0572137,39,131.97523
1,Cambé/PR,-23.2782035,-51.2779583,53,49.74984
D1,Cambé/PR,-23.2782035,-51.2779583,1,0.93868
1,Cametá/PA,-2.242949,-49.497885,1661,1204.58336
D1,Cametá/PA,-2.242949,-49.497885,59,42.78773
1,Camocim de São Félix/PE,-8.3616757,-35.7638903,29,154.54303
D1,Camocim de São Félix/PE,-8.3616757,-35.7638903,1,5.32907
1,Camocim/CE,-2.9009918,-40.8427389,439,689.59017
D1,Camocim/CE,-2.9009918,-40.8427389,15,23.56231
1,Campanha/MG,-21.8361108,-45.401986,1,6.00060
1,Campestre da Serra/RS,-28.7966535,-51.0958149,1,29.51594
1,Campestre de Goiás/GO,-16.7624179,-49.69497,1,27.54821
1,Campestre do Maranhão/MA,-6.1729113,-47.3640512,109,758.31362
D1,Campestre do Maranhão/MA,-6.1729113,-47.3640512,1,6.95701
1,Campestre/AL,-8.8481634,-35.5660033,21,302.76817
D1,Campestre/AL,-8.8481634,-35.5660033,2,28.83506
1,Campestre/MG,-19.6142116,-43.219378,1,4.74947
1,Campina Grande do Sul/PR,-25.3046032,-49.0545355,50,115.50545
D1,Campina Grande do Sul/PR,-25.3046032,-49.0545355,3,6.93033
1,Campina Grande/PB,-7.2246743,-35.8771292,2473,603.56673
D1,Campina Grande/PB,-7.2246743,-35.8771292,44,10.73875
1,Campina Verde/MG,-19.535277,-49.486389,5,25.32287
1,Campina da Lagoa/PR,-24.5937926,-52.8038965,2,14.08252
D1,Campina da Lagoa/PR,-24.5937926,-52.8038965,1,7.04126
1,Campina do Monte Alegre/SP,-23.5935653,-48.4801876,13,215.80345
1,Campinas do Piauí/PI,-7.6593687,-41.8814875,2,35.63157
1,Campinas do Sul/RS,-27.7167968,-52.6257885,6,110.01100
1,Campinas/SP,-22.90556,-47.06083,2717,225.65077
D1,Campinas/SP,-22.90556,-47.06083,104,8.63735
1,Campinorte/GO,-14.3136699,-49.1510931,11,87.12181
1,Campo Alegre de Goiás/GO,-17.6337896,-47.779291,2,26.35393
1,Campo Alegre de Lourdes/BA,-9.5160326,-43.0101338,26,90.28405
1,Campo Alegre do Fidalgo/PI,-8.3753852,-41.8364191,1,19.82161
1,Campo Alegre/AL,-9.7798607,-36.3575793,45,78.86021
D1,Campo Alegre/AL,-9.7798607,-36.3575793,1,1.75245
1,Campo Belo/MG,-20.8975,-45.277223,11,20.35944
1,Campo Bom/RS,-29.674694,-51.060601,24,35.97554
1,Campo Bonito/PR,-25.0328004,-52.992976,13,339.15993
1,Campo Erê/SC,-26.3947432,-53.0790495,2,23.45766
1,Campo Florido/MG,-19.760833,-48.572223,1,12.26843
1,Campo Formoso/BA,-10.51055,-40.320031,4,5.61750
1,Campo Grande do Piauí/PI,-7.1327559,-41.0381164,28,471.14252
1,Campo Grande/AL,-9.9725,-36.74791447368421,17,177.86148
D1,Campo Grande/AL,-9.9725,-36.74791447368421,1,10.46244
1,Campo Grande/MS,-20.4640173,-54.6162947,388,43.30444
D1,Campo Grande/MS,-20.4640173,-54.6162947,8,0.89288
1,Campo Largo do Piauí/PI,-3.8104731,-42.6288333,1,13.73815
1,Campo Largo/PR,-25.4597726,-49.5270851,43,32.57526
D1,Campo Largo/PR,-25.4597726,-49.5270851,2,1.51513
1,Campo Limpo Paulista/SP,-23.207791,-46.788919,108,127.58417
D1,Campo Limpo Paulista/SP,-23.207791,-46.788919,14,16.53869
1,Campo Limpo de Goiás/GO,-16.297101,-49.0894994,1,12.83862
1,Campo Magro/PR,-25.3691533,-49.4496921,3,10.23262
1,Campo Maior/PI,-4.8339574,-42.1739786,209,446.26652
D1,Campo Maior/PI,-4.8339574,-42.1739786,4,8.54099
1,Campo Mourão/PR,-24.046329,-52.37802,58,61.14338
D1,Campo Mourão/PR,-24.046329,-52.37802,4,4.21678
1,Campo Novo de Rondônia/RO,-10.5704235,-63.6199511,9,63.65372
D1,Campo Novo de Rondônia/RO,-10.5704235,-63.6199511,1,7.07264
1,Campo Novo do Parecis/MT,-13.658735,-57.890723,28,79.18552
1,Campo Novo/RS,-28.91500235,-52.331375687737626,2,44.60303
1,Campo Redondo/RN,-6.2420373,-36.1830606,9,80.23536
1,Campo Verde/MT,-15.5430787,-55.1590511,78,177.10770
1,Campo do Brito/SE,-10.7496246,-37.4942276,14,77.30963
1,Campo do Tenente/PR,-25.9814143,-49.684518,2,25.09095
1,Campos Altos/MG,-19.696389,-46.171389,13,84.08253
1,Campos Belos/GO,-13.0349839,-46.768112,16,80.45457
D1,Campos Belos/GO,-13.0349839,-46.768112,1,5.02841
1,Campos Gerais/MG,-21.2333342,-45.7584127,4,13.90144
1,Campos Lindos/TO,-7.9740597,-46.8023881,2,19.77066
1,Campos Novos/SC,-27.3962904,-51.2224397,3,8.27723
1,Campos Sales/CE,-7.0742675,-40.3740367,70,255.23226
D1,Campos Sales/CE,-7.0742675,-40.3740367,1,3.64618
1,Campos de Júlio/MT,-13.7223646,-59.2645296,10,145.11682
1,Campos do Jordão/SP,-22.7395263,-45.5912829,46,88.31209
D1,Campos do Jordão/SP,-22.7395263,-45.5912829,1,1.91983
1,Campos dos Goytacazes/RJ,-21.7558619,-41.3326895,954,187.96252
D1,Campos dos Goytacazes/RJ,-21.7558619,-41.3326895,46,9.06318
1,Camutanga/PE,-7.4092965,-35.2738166,21,245.58531
D1,Camutanga/PE,-7.4092965,-35.2738166,3,35.08362
1,Cana Verde/MG,-21.021308,-45.1817881,7,124.93307
1,Canabrava do Norte/MT,-11.0516481,-51.8301897,6,126.50221
1,Cananéia/SP,-25.0104609,-47.9315628,19,151.51515
D1,Cananéia/SP,-25.0104609,-47.9315628,2,15.94896
1,Canapi/AL,-9.1173572,-37.6011704,3,16.92811
D1,Canapi/AL,-9.1173572,-37.6011704,1,5.64270
1,Canarana/BA,-11.6870151,-41.7683675,9,34.38264
1,Canarana/MT,-13.5564602,-52.2691167,16,74.14616
1,Canas/SP,-22.7029347,-45.0526508,1,19.46283
1,Canavieiras/BA,-15.61621745,-39.08485321304444,28,90.03505
D1,Canavieiras/BA,-15.61621745,-39.08485321304444,1,3.21554
1,Canaã dos Carajás/PA,-6.5296837,-49.8516592,1183,3189.96899
D1,Canaã dos Carajás/PA,-6.5296837,-49.8516592,17,45.84064
1,Candeal/BA,-11.8053441,-39.1206515,2,24.21894
1,Candeias do Jamari/RO,-8.7949939,-63.7018851,147,550.70618
D1,Candeias do Jamari/RO,-8.7949939,-63.7018851,2,7.49260
1,Candeias/BA,-12.6693806,-38.5406462,278,319.26133
D1,Candeias/BA,-12.6693806,-38.5406462,5,5.74211
1,Candeias/MG,-20.7676161,-45.2763777,5,33.58861
1,Candelária/RS,-29.668391,-52.789495,8,25.50614
1,Candiba/BA,-14.4125032,-42.8714102,4,27.93491
1,Candiota/RS,-31.5451894,-53.719538,1,10.43406
1,Candói/PR,-25.5711951,-52.051107,3,18.77464
1,Canela/RS,-29.3624657,-50.8134204,9,20.00089
D1,Canela/RS,-29.3624657,-50.8134204,1,2.22232
1,Canelinha/SC,-27.2660341,-48.7666708,13,106.20915
1,Canguaretama/RN,-6.3751942,-35.137463,56,163.37962
D1,Canguaretama/RN,-6.3751942,-35.137463,7,20.42245
1,Canguçu/RS,-31.398276,-52.6773522,23,41.03845
1,Canhoba/SE,-10.1373681,-36.9710796,2,49.90020
1,Canhotinho/PE,-8.876519,-36.197935,27,108.85341
D1,Canhotinho/PE,-8.876519,-36.197935,1,4.03161
1,Canindé de São Francisco/SE,-9.6597475,-37.7904456,43,143.81271
D1,Canindé de São Francisco/SE,-9.6597475,-37.7904456,2,6.68896
1,Canindé/CE,-4.3547946,-39.3108516,623,809.12243
D1,Canindé/CE,-4.3547946,-39.3108516,14,18.18253
1,Canoas/RS,-29.9216045,-51.1799525,145,41.83304
D1,Canoas/RS,-29.9216045,-51.1799525,7,2.01953
1,Canoinhas/SC,-26.176591,-50.395001,70,128.67411
1,Cansanção/BA,-10.6671448,-39.498199,18,51.67365
1,Cantagalo/PR,-25.3735238,-52.1238114,2,15.01840
1,Cantagalo/RJ,-21.9811325,-42.3682522,6,29.74420
D1,Cantagalo/RJ,-21.9811325,-42.3682522,1,4.95737
1,Cantanhede/MA,-3.6355005,-44.3778738,175,795.63537
D1,Cantanhede/MA,-3.6355005,-44.3778738,1,4.54649
1,Canto do Buriti/PI,-8.1112473,-42.944844,4,18.87950
D1,Canto do Buriti/PI,-8.1112473,-42.944844,1,4.71988
1,Cantá/RR,2.60994,-60.605827,191,1041.72348
D1,Cantá/RR,2.60994,-60.605827,3,16.36215
1,Canudos do Vale/RS,-29.3240418,-52.2348494,4,233.10023
1,Canudos/BA,-9.8948692,-39.0266244,12,71.99424
1,Canutama/AM,-6.5330019,-64.3834966,36,230.34103
1,Canápolis/MG,-18.7228793,-49.2016329,2,16.46091
1,Capanema/PA,-1.1933054,-47.1828679,426,617.14981
D1,Capanema/PA,-1.1933054,-47.1828679,38,55.05092
1,Capanema/PR,-25.6704878,-53.8083036,5,26.14516
1,Caparaó/MG,-20.5232726,-41.9049984,1,18.38911
1,Capela de Santana/RS,-29.6926603,-51.3206659,1,8.37521
1,Capela do Alto Alegre/BA,-11.6703944,-39.8362745,2,17.18656
1,Capela do Alto/SP,-23.4704798,-47.7352309,49,236.64638
1,Capela/AL,-9.415041,-36.082583,162,949.97948
D1,Capela/AL,-9.415041,-36.082583,1,5.86407
1,Capela/SE,-10.50494,-37.0552566,41,119.83749
D1,Capela/SE,-10.50494,-37.0552566,1,2.92287
1,Capetinga/MG,-20.6193382,-47.0577418,1,14.45087
1,Capim Branco/MG,-19.548333,-44.133056,4,41.00882
1,Capim Grosso/BA,-11.3793228,-40.0112095,29,94.57961
D1,Capim Grosso/BA,-11.3793228,-40.0112095,3,9.78410
1,Capim/PB,-6.9174091,-35.1720326,52,797.17921
D1,Capim/PB,-6.9174091,-35.1720326,1,15.33037
1,Capinzal do Norte/MA,-4.7304006,-44.3249063,116,1060.91092
1,Capinzal/SC,-27.3440651,-51.6110403,3,13.13025
1,Capinópolis/MG,-18.682778,-49.569723,8,49.46516
1,Capistrano/CE,-4.4644692,-38.8956734,188,1059.87146
D1,Capistrano/CE,-4.4644692,-38.8956734,5,28.18807
1,Capitão Enéas/MG,-16.3236018,-43.7154584,13,85.33543
D1,Capitão Enéas/MG,-16.3236018,-43.7154584,1,6.56426
1,Capitão Gervásio Oliveira/PI,-8.4954657,-41.8169342,3,73.17073
1,Capitão Leônidas Marques/PR,-25.481645,-53.611238,2,12.67427
1,Capitão Poço/PA,-1.7447162,-47.0638495,289,532.19896
D1,Capitão Poço/PA,-1.7447162,-47.0638495,17,31.30582
1,Capitão de Campos/PI,-4.4584198,-41.9415301,10,87.58868
1,Capitão/RS,-29.2718294,-51.9869716,11,398.98440
1,Capitólio/MG,-20.6142437,-46.0487652,2,23.16960
D1,Capitólio/MG,-20.6142437,-46.0487652,1,11.58480
1,Capivari de Baixo/SC,-28.449773,-48.963144,33,132.68465
1,Capivari/SP,-22.995144,-47.50715,57,102.20915
1,Capixaba/AC,-10.5741345,-67.6759719,61,519.90113
D1,Capixaba/AC,-10.5741345,-67.6759719,1,8.52297
1,Capoeiras/PE,-8.7386788,-36.6268109,13,64.84437
D1,Capoeiras/PE,-8.7386788,-36.6268109,2,9.97606
1,Capão Bonito/SP,-24.0048759,-48.3489848,25,53.03577
D1,Capão Bonito/SP,-24.0048759,-48.3489848,4,8.48572
1,Capão da Canoa/RS,-29.7542937,-50.0215684,24,45.24119
D1,Capão da Canoa/RS,-29.7542937,-50.0215684,1,1.88505
1,Capão do Leão/RS,-31.766133,-52.5013148,1,3.94415
1,Caracaraí/RR,1.827598,-61.125389,25,114.01989
1,Caracol/PI,-9.2804898,-43.3284924,3,27.48259
1,Caraguatatuba/SP,-23.62028,-45.41306,204,167.85703
D1,Caraguatatuba/SP,-23.62028,-45.41306,10,8.22829
1,Carambeí/PR,-24.9513298,-50.1171293,4,17.08307
1,Caranaíba/MG,-20.8736914,-43.7379458,3,94.25071
1,Carandaí/MG,-20.9523934,-43.8043903,11,43.13556
1,Carangola/MG,-20.733056,-42.029445,96,290.90909
D1,Carangola/MG,-20.733056,-42.029445,2,6.06061
1,Carapebus/RJ,-22.1869969,-41.6633764,49,300.59506
D1,Carapebus/RJ,-22.1869969,-41.6633764,1,6.13459
1,Carapicuíba/SP,-23.5234673,-46.8406808,1298,323.74971
D1,Carapicuíba/SP,-23.5234673,-46.8406808,91,22.69740
1,Caratinga/MG,-19.7900887,-42.140533,41,44.53520
D1,Caratinga/MG,-19.7900887,-42.140533,2,2.17245
1,Carauari/AM,-4.8766426,-66.8961433,290,1024.95229
D1,Carauari/AM,-4.8766426,-66.8961433,2,7.06864
1,Caravelas/BA,-17.7296514,-39.2660082,3,13.62645
1,Carazinho/RS,-28.2981634,-52.7942363,47,75.67219
1,Caraá/RS,-29.7900698,-50.4302307,1,12.09190
1,Caraí/MG,-17.1884104,-41.6976554,1,4.22208
1,Caraíbas/BA,-14.72496,-41.2566163,3,33.51581
1,Caraúbas do Piauí/PI,-3.4757229,-41.8431178,5,85.20791
1,Caraúbas/PB,-7.7273231,-36.4923357,1,24.02691
1,Caraúbas/RN,-5.7889323,-37.5548751,45,219.58718
1,Carbonita/MG,-17.5308667,-43.0136207,1,10.63264
1,Cardeal da Silva/BA,-11.9428154,-37.9494462,6,64.55083
1,Cardoso Moreira/RJ,-21.4894916,-41.6152776,25,194.96218
1,Cardoso/SP,-20.080447,-49.9139767,3,24.33880
1,Careaçu/MG,-22.0440585,-45.6949091,1,14.79947
1,Careiro da Várzea/AM,-3.197024,-59.8259104,54,178.66005
D1,Careiro da Várzea/AM,-3.197024,-59.8259104,1,3.30852
1,Careiro/AM,-3.8185277,-60.3616505,769,2030.68473
D1,Careiro/AM,-3.8185277,-60.3616505,13,34.32887
1,Cariacica/ES,-20.263202,-40.416549,2564,672.46286
D1,Cariacica/ES,-20.263202,-40.416549,138,36.19340
1,Caridade/CE,-4.2316487,-39.1946515,106,470.12906
D1,Caridade/CE,-4.2316487,-39.1946515,8,35.48144
1,Carinhanha/BA,-14.298524,-43.772349,1,3.44614
1,Carira/SE,-10.358303,-37.701473,7,31.70003
D1,Carira/SE,-10.358303,-37.701473,1,4.52858
1,Cariri do Tocantins/TO,-11.8882727,-49.1604216,57,1300.77590
D1,Cariri do Tocantins/TO,-11.8882727,-49.1604216,1,22.82063
1,Caririaçu/CE,-7.0417053,-39.2835527,17,63.04469
D1,Caririaçu/CE,-7.0417053,-39.2835527,3,11.12553
1,Cariré/CE,-3.948584,-40.476028,120,650.47702
D1,Cariré/CE,-3.948584,-40.476028,1,5.42064
1,Cariús/CE,-6.5348688,-39.4966658,8,42.78304
D1,Cariús/CE,-6.5348688,-39.4966658,2,10.69576
1,Carlos Barbosa/RS,-29.2978372,-51.5005613,198,663.69457
D1,Carlos Barbosa/RS,-29.2978372,-51.5005613,3,10.05598
1,Carlos Chagas/MG,-21.744351,-43.3908675,1,5.30870
1,Carlópolis/PR,-23.4224762,-49.7194008,4,27.93296
1,Carmo da Cachoeira/MG,-21.460556,-45.223334,4,32.86771
1,Carmo da Mata/MG,-20.558334,-44.8703774,1,8.71384
1,Carmo de Minas/MG,-22.1216655,-45.1323836,1,6.72993
1,Carmo do Cajuru/MG,-20.184444,-44.770834,48,213.54213
D1,Carmo do Cajuru/MG,-20.184444,-44.770834,2,8.89759
1,Carmo do Paranaíba/MG,-18.9992327,-46.306916,29,95.61806
1,Carmo do Rio Claro/MG,-20.973315,-46.1186754,7,32.97998
1,Carmo do Rio Verde/GO,-15.3549139,-49.707975,3,29.75600
1,Carmo/RJ,-21.9341749,-42.6091737,28,148.18735
D1,Carmo/RJ,-21.9341749,-42.6091737,1,5.29241
1,Carmolândia/TO,-7.033804,-48.3951295,8,310.07752
D1,Carmolândia/TO,-7.033804,-48.3951295,1,38.75969
1,Carmópolis de Minas/MG,-20.541224,-44.6350611,14,72.33273
1,Carmópolis/SE,-10.64835,-36.98493,24,144.28279
D1,Carmópolis/SE,-10.64835,-36.98493,1,6.01178
1,Carnaubais/RN,-5.3383681,-36.8335566,21,195.18543
1,Carnaubal/CE,-4.1611842,-40.9412317,35,198.79587
1,Carnaubeira da Penha/PE,-8.3192809,-38.7435891,5,38.66378
D1,Carnaubeira da Penha/PE,-8.3192809,-38.7435891,1,7.73276
1,Carnaíba/PE,-7.805964,-37.7947314,19,97.18173
D1,Carnaíba/PE,-7.805964,-37.7947314,4,20.45931
1,Carnaúba dos Dantas/RN,-6.5560588,-36.5930811,4,48.89976
D1,Carnaúba dos Dantas/RN,-6.5560588,-36.5930811,2,24.44988
1,Carneiros/AL,-9.4832948,-37.3757121,14,154.16804
1,Caroebe/RR,0.8812315,-59.6932274,75,737.53565
D1,Caroebe/RR,0.8812315,-59.6932274,1,9.83381
1,Carolina/MA,-7.3313437,-47.4738762,55,226.13272
1,Carpina/PE,-7.8459151,-35.2538861,142,169.77320
D1,Carpina/PE,-7.8459151,-35.2538861,22,26.30289
1,Carrancas/MG,-21.4910462,-44.6436151,1,24.70966
1,Carrapateira/PB,-7.0395225,-38.3432281,1,37.60812
1,Caruaru/PE,-8.2829702,-35.9722852,535,148.15102
D1,Caruaru/PE,-8.2829702,-35.9722852,42,11.63055
1,Carutapera/MA,-1.2016638,-46.0205618,118,495.65254
D1,Carutapera/MA,-1.2016638,-46.0205618,12,50.40534
1,Carvalhópolis/MG,-21.7773461,-45.8412117,1,27.94077
1,Casa Branca/SP,-21.7743137,-47.0852175,7,23.04147
1,Casa Nova/BA,-9.1736775,-40.9734475,32,44.46359
1,Casca/RS,-28.5634054,-51.9741902,7,77.51080
1,Cascalho Rico/MG,-18.579344,-47.875774,1,32.52033
1,Cascavel/CE,-4.129666,-38.241178,523,728.99098
D1,Cascavel/CE,-4.129666,-38.241178,30,41.81593
1,Cascavel/PR,-24.9554996,-53.4560544,621,189.06757
D1,Cascavel/PR,-24.9554996,-53.4560544,9,2.74011
1,Caseara/TO,-9.273159,-49.9576837,2,37.25088
1,Caseiros/RS,-28.2721149,-51.6873536,6,187.38289
1,Casimiro de Abreu/RJ,-22.4809932,-42.2039976,184,416.44034
D1,Casimiro de Abreu/RJ,-22.4809932,-42.2039976,7,15.84284
1,Casinhas/PE,-7.744698,-35.7250923,6,41.83809
1,Casserengue/PB,-6.779538,-35.817875,24,321.37118
1,Castanhal/PA,-1.2927031,-47.9223903,966,481.09247
D1,Castanhal/PA,-1.2927031,-47.9223903,117,58.26896
1,Castelo do Piauí/PI,-5.3230426,-41.5546185,13,65.93630
1,Castelo/ES,-20.6034476,-41.2033505,34,90.58454
D1,Castelo/ES,-20.6034476,-41.2033505,2,5.32850
1,Castelândia/GO,-18.089062,-50.220798,3,87.33624
1,Castilho/SP,-20.8695636,-51.4877792,6,28.56327
D1,Castilho/SP,-20.8695636,-51.4877792,1,4.76054
1,Castro Alves/BA,-12.7616941,-39.4281088,20,76.14986
D1,Castro Alves/BA,-12.7616941,-39.4281088,1,3.80749
1,Castro/PR,-24.794072,-49.9972914,4,5.59566
1,Cataguases/MG,-21.387426,-42.6957219,41,54.57716
D1,Cataguases/MG,-21.387426,-42.6957219,2,2.66230
1,Catalão/GO,-18.1702546,-47.9447082,36,33.08124
D1,Catalão/GO,-18.1702546,-47.9447082,1,0.91892
1,Catanduva/SP,-21.1331035,-48.9712817,153,125.55185
D1,Catanduva/SP,-21.1331035,-48.9712817,11,9.02660
1,Catanduvas/PR,-25.2043528,-53.154826,3,29.44352
1,Catanduvas/SC,-27.0689719,-51.660158,14,128.90157
1,Catarina/CE,-6.1341578,-39.8795321,18,86.96492
D1,Catarina/CE,-6.1341578,-39.8795321,1,4.83138
1,Catas Altas da Noruega/MG,-20.690277,-43.4975,3,82.39495
1,Catas Altas/MG,-20.0744,-43.4075,11,204.61310
1,Catende/PE,-8.6900588,-35.748470825,161,375.36137
D1,Catende/PE,-8.6900588,-35.748470825,10,23.31437
1,Catiguá/SP,-21.0491485,-49.0578923,7,89.69759
1,Catingueira/PB,-7.120081,-37.60638,5,101.37875
1,Catolé do Rocha/PB,-6.340625,-37.746967,66,216.06757
D1,Catolé do Rocha/PB,-6.340625,-37.746967,4,13.09500
1,Catu/BA,-12.351274,-38.379108,60,109.68119
D1,Catu/BA,-12.351274,-38.379108,1,1.82802
1,Catuji/MG,-17.3024568,-41.5168387,8,126.76280
1,Catunda/CE,-4.6494224,-40.2002603,24,232.06343
1,Caturaí/GO,-16.4473559,-49.4919149,1,19.72387
1,Caturité/PB,-7.4199652,-36.0207132,20,412.20115
1,Caucaia/CE,-3.7300563,-38.6593082,2383,659.38019
D1,Caucaia/CE,-3.7300563,-38.6593082,148,40.95185
1,Cavalcante/GO,-13.7928414,-47.4568521,1,10.29972
1,Caxambu do Sul/SC,-27.1615046,-52.8796675,27,741.35091
D1,Caxambu do Sul/SC,-27.1615046,-52.8796675,1,27.45744
1,Caxambu/MG,-21.9770359,-44.9318289,13,60.02955
D1,Caxambu/MG,-21.9770359,-44.9318289,1,4.61766
1,Caxias do Sul/RS,-29.1684796,-51.1793861,230,45.01807
D1,Caxias do Sul/RS,-29.1684796,-51.1793861,5,0.97865
1,Caxias/MA,-4.8654201,-43.353664,423,256.55022
D1,Caxias/MA,-4.8654201,-43.353664,12,7.27802
1,Caxingó/PI,-3.4208396,-41.8925637,4,73.74631
1,Caçador/SC,-26.77567,-51.0120041,26,33.08098
D1,Caçador/SC,-26.77567,-51.0120041,1,1.27235
1,Caçapava do Sul/RS,-30.5113286,-53.4916761,20,59.48132
D1,Caçapava do Sul/RS,-30.5113286,-53.4916761,1,2.97407
1,Caçapava/SP,-23.099204,-45.707645,70,74.26031
D1,Caçapava/SP,-23.099204,-45.707645,4,4.24345
1,Caçu/GO,-18.5637222,-51.1369685,25,156.16216
1,Caém/BA,-11.0909658,-40.4322187,5,54.27114
1,Ceará-Mirim/RN,-5.633588,-35.4248407,130,176.87797
D1,Ceará-Mirim/RN,-5.633588,-35.4248407,13,17.68780
1,Cedral/MA,-2.000269,-44.528114,32,299.76581
1,Cedral/SP,-20.9028433,-49.2699665,4,43.30410
1,Cedro de São João/SE,-10.2506778,-36.8816067,30,508.73325
1,Cedro/CE,-6.6065382,-39.0599487,11,43.04105
D1,Cedro/CE,-6.6065382,-39.0599487,2,7.82564
1,Cedro/PE,-7.7186318,-39.2363385,4,33.87821
1,Centenário do Sul/PR,-22.821497,-51.5951456,5,46.18084
1,Central do Maranhão/MA,-2.1967253,-44.8290757,7,80.71025
D1,Central do Maranhão/MA,-2.1967253,-44.8290757,1,11.53004
1,Central/BA,-11.135426,-42.1110123,1,5.79173
1,Centralina/MG,-18.5843349,-49.1954739,21,202.89855
D1,Centralina/MG,-18.5843349,-49.1954739,1,9.66184
1,Centro Novo do Maranhão/MA,-2.1361032,-46.1248528,125,578.11488
D1,Centro Novo do Maranhão/MA,-2.1361032,-46.1248528,2,9.24984
1,Centro do Guilherme/MA,-2.4511749,-46.039127,20,148.61049
1,Cerejeiras/RO,-13.186987,-60.816836,5,30.63162
D1,Cerejeiras/RO,-13.186987,-60.816836,2,12.25265
1,Ceres/GO,-15.3103568,-49.6032054,4,18.02533
1,Cerqueira César/SP,-23.0353135,-49.1650519,5,25.01876
1,Cerquilho/SP,-23.1626556,-47.7433878,19,38.81591
D1,Cerquilho/SP,-23.1626556,-47.7433878,3,6.12883
1,Cerro Corá/RN,-6.0412685,-36.3464694,1,8.94534
D1,Cerro Corá/RN,-6.0412685,-36.3464694,1,8.94534
1,Cerro Grande do Sul/RS,-30.5962963,-51.7517196,1,8.17060
D1,Cerro Grande do Sul/RS,-30.5962963,-51.7517196,1,8.17060
1,Cesário Lange/SP,-23.226035,-47.954453,9,49.59224
D1,Cesário Lange/SP,-23.226035,-47.954453,1,5.51025
1,Cezarina/GO,-16.9718289,-49.775814,1,11.61980
1,Chalé/MG,-20.0419748,-41.6914563,3,52.59467
1,Chapada dos Guimarães/MT,-15.464343,-55.749857,13,65.81612
D1,Chapada dos Guimarães/MT,-15.464343,-55.749857,2,10.12556
1,Chapada/RS,-28.0587829,-53.0657459,3,32.36595
1,Chapadinha/MA,-3.7416803,-43.3548006,1296,1626.60810
D1,Chapadinha/MA,-3.7416803,-43.3548006,6,7.53059
1,Chapadão do Céu/GO,-18.3951972,-52.6670783,11,108.19317
1,Chapadão do Sul/MS,-18.7949051,-52.6199512,29,114.99722
1,Chapecó/SC,-27.0922364,-52.6166878,1010,458.32634
D1,Chapecó/SC,-27.0922364,-52.6166878,4,1.81515
1,Charqueada/SP,-22.50958,-47.775468,65,378.12682
D1,Charqueada/SP,-22.50958,-47.775468,3,17.45201
1,Charqueadas/RS,-29.955012,-51.6249195,16,39.22626
1,Chaval/CE,-3.0339874,-41.2438452,107,818.73135
D1,Chaval/CE,-3.0339874,-41.2438452,3,22.95508
1,Chavantes/SP,-23.0406405,-49.7071698,1,8.05283
1,Chaves/PA,-0.164154,-49.987006,39,164.43901
D1,Chaves/PA,-0.164154,-49.987006,1,4.21638
1,Chiador/MG,-22.002778,-43.057222,17,632.67585
1,Chiapetta/RS,-27.923162,-53.9419052,1,26.62407
1,Chopinzinho/PR,-25.8566167,-52.5294107,5,25.96863
1,Chorozinho/CE,-4.3010895,-38.4976923,146,720.48954
D1,Chorozinho/CE,-4.3010895,-38.4976923,8,39.47888
1,Chorrochó/BA,-8.9774059,-39.0993132,1,8.94694
1,Choró/CE,-4.8435726,-39.1393071,111,820.94520
D1,Choró/CE,-4.8435726,-39.1393071,3,22.18771
1,Chupinguaia/RO,-12.5528918,-60.9027819,4,35.77178
1,Chácara/MG,-21.6727567,-43.2206851,1,31.70577
1,Chã Grande/PE,-8.238271,-35.457148,95,437.82837
D1,Chã Grande/PE,-8.238271,-35.457148,7,32.26104
1,Chã Preta/AL,-9.255605,-36.298334,7,95.74614
1,Chã de Alegria/PE,-7.9959409,-35.2134636,81,599.20107
D1,Chã de Alegria/PE,-7.9959409,-35.2134636,4,29.59018
1,Cianorte/PR,-23.662036,-52.6103989,100,121.03607
D1,Cianorte/PR,-23.662036,-52.6103989,1,1.21036
1,Cidade Gaúcha/PR,-23.3816558,-52.9444098,2,15.80778
D1,Cidade Gaúcha/PR,-23.3816558,-52.9444098,1,7.90389
1,Cidade Ocidental/GO,-16.1000758,-47.9445014,49,68.65053
D1,Cidade Ocidental/GO,-16.1000758,-47.9445014,1,1.40103
1,Cidelândia/MA,-5.174655,-47.7833531,88,598.76165
1,Cidreira/RS,-30.1657063,-50.218331,15,92.28498
D1,Cidreira/RS,-30.1657063,-50.218331,1,6.15233
1,Cipó/BA,-11.0990534,-38.5153006,2,11.56069
1,Ciríaco/RS,-28.3429139,-51.8763682,2,42.13187
1,Clevelândia/PR,-26.404065,-52.3513972,4,24.15605
1,Cláudio/MG,-20.4448485,-44.7655217,5,17.47213
1,Coaraci/BA,-14.6407979,-39.5496765,36,211.85194
D1,Coaraci/BA,-14.6407979,-39.5496765,2,11.76955
1,Coari/AM,-4.0885957,-63.1431166,2100,2467.77207
D1,Coari/AM,-4.0885957,-63.1431166,64,75.20829
1,Cocal de Telha/PI,-4.5553648,-41.9722429,29,592.92578
1,Cocal do Sul/SC,-28.6007346,-49.3248697,19,113.88156
D1,Cocal do Sul/SC,-28.6007346,-49.3248697,1,5.99377
1,Cocal dos Alves/PI,-3.59964,-41.444741,2,32.50447
1,Cocal/PI,-3.4691882,-41.555851,25,89.97013
D1,Cocal/PI,-3.4691882,-41.555851,1,3.59881
1,Cocalzinho de Goiás/GO,-15.7762854,-48.7730427,13,64.22925
1,Cocos/BA,-14.1811222,-44.5382117,6,31.95399
1,Codajás/AM,-3.8413202,-62.0603444,74,258.40696
D1,Codajás/AM,-3.8413202,-62.0603444,2,6.98397
1,Codó/MA,-4.455623,-43.892354,1237,1006.84525
D1,Codó/MA,-4.455623,-43.892354,5,4.06971
1,Coelho Neto/MA,-4.2535154,-43.0149321,499,1009.40629
D1,Coelho Neto/MA,-4.2535154,-43.0149321,6,12.13715
1,Coimbra/MG,-21.5733599,-45.1979819,1,13.23452
1,Coité do Nóia/AL,-9.633484,-36.584493,9,84.16721
1,Coivaras/PI,-5.0927005,-42.2052489,4,99.50249
1,Colares/PA,-0.936423,-48.280254,62,513.03269
D1,Colares/PA,-0.936423,-48.280254,5,41.37360
1,Colatina/ES,-19.5346732,-40.6287836,492,401.63593
D1,Colatina/ES,-19.5346732,-40.6287836,5,4.08167
1,Colina/SP,-20.711443,-48.53867,11,59.56249
D1,Colina/SP,-20.711443,-48.53867,2,10.82954
1,Colinas do Tocantins/TO,-8.0612688,-48.4716768,118,333.10750
D1,Colinas do Tocantins/TO,-8.0612688,-48.4716768,1,2.82294
1,Colinas/MA,-6.0332631,-44.2528542,146,354.55826
D1,Colinas/MA,-6.0332631,-44.2528542,3,7.28544
1,Colinas/RS,-29.3866023,-51.8697911,13,533.22395
1,Colméia/TO,-8.734098,-48.7510897,5,60.93845
1,Colniza/MT,-9.4560637,-59.2197132,1,2.59188
1,Colombo/PR,-25.2925439,-49.2243472,69,28.31048
1,Colorado/PR,-22.8385097,-51.9730135,7,29.15209
1,Colorado/RS,-28.525842,-52.99282,2,62.99213
1,Colíder/MT,-10.8094999,-55.4540386,12,35.88731
D1,Colíder/MT,-10.8094999,-55.4540386,1,2.99061
1,Colônia Leopoldina/AL,-8.918058,-35.721414,43,198.17495
D1,Colônia Leopoldina/AL,-8.918058,-35.721414,2,9.21744
1,Colônia do Gurguéia/PI,-8.183697,-43.793999,4,61.69031
D1,Colônia do Gurguéia/PI,-8.183697,-43.793999,1,15.42258
1,Colônia do Piauí/PI,-7.2320268,-42.1777122,3,39.18495
1,Comendador Levy Gasparian/RJ,-22.028685,-43.204655,17,198.57493
1,Comercinho/MG,-16.2965093,-41.7930954,1,14.43210
1,Comodoro/MT,-13.6581107,-59.786883,7,33.71382
1,Conceição da Barra/ES,-18.5841421,-39.7371844,16,51.50823
D1,Conceição da Barra/ES,-18.5841421,-39.7371844,1,3.21926
1,Conceição da Feira/BA,-12.5013001,-39.0002166,21,92.99854
1,Conceição das Alagoas/MG,-19.9194009,-48.3803414,4,14.34052
1,Conceição das Pedras/MG,-22.1596572,-45.4550521,1,35.56188
1,Conceição de Macabu/RJ,-22.0849986,-41.8679947,93,400.37885
D1,Conceição de Macabu/RJ,-22.0849986,-41.8679947,1,4.30515
1,Conceição do Almeida/BA,-12.7772763,-39.1692214,5,28.99055
1,Conceição do Araguaia/PA,-8.2696905,-49.2676864,38,79.39161
D1,Conceição do Araguaia/PA,-8.2696905,-49.2676864,1,2.08925
1,Conceição do Castelo/ES,-20.3601311,-41.2470343,20,157.19563
D1,Conceição do Castelo/ES,-20.3601311,-41.2470343,1,7.85978
1,Conceição do Coité/BA,-11.5629384,-39.2839543,44,66.05416
1,Conceição do Jacuípe/BA,-12.326831,-38.768433,15,45.24477
1,Conceição do Lago-Açu/MA,-3.8410056,-44.8930565,62,381.84394
D1,Conceição do Lago-Açu/MA,-3.8410056,-44.8930565,2,12.31755
1,Conceição do Mato Dentro/MG,-19.037222,-43.425278,12,67.25703
1,Conceição do Rio Verde/MG,-21.881078,-45.0868526,2,14.66491
1,Conceição dos Ouros/MG,-22.413056,-45.797777,3,25.77763
1,Conceição/PB,-7.5565059,-38.5053706,4,21.07260
1,Conchal/SP,-22.337512,-47.172927,11,39.21569
1,Conchas/SP,-23.0133538,-48.0077595,11,61.46625
D1,Conchas/SP,-23.0133538,-48.0077595,1,5.58784
1,Concórdia do Pará/PA,-1.9924056,-47.9450474,178,534.24575
D1,Concórdia do Pará/PA,-1.9924056,-47.9450474,5,15.00690
1,Concórdia/SC,-27.2312011,-52.0231024,988,1323.66930
D1,Concórdia/SC,-27.2312011,-52.0231024,11,14.73721
1,Condado/PB,-6.9092101,-37.5966375,45,676.28494
1,Condado/PE,-7.587868,-35.09994,113,427.69010
D1,Condado/PE,-7.587868,-35.09994,18,68.12763
1,Conde/BA,-11.8129758,-37.6138705,10,38.70418
D1,Conde/BA,-11.8129758,-37.6138705,1,3.87042
1,Conde/PB,-7.2600359,-34.9053524,135,547.22335
D1,Conde/PB,-7.2600359,-34.9053524,2,8.10701
1,Condeúba/BA,-14.902227,-41.971829,10,57.98110
1,Condor/RS,-28.2058277,-53.4844696,10,148.08233
D1,Condor/RS,-28.2058277,-53.4844696,1,14.80823
1,Confins/MG,-19.6278749,-43.9912311,1,14.85884
1,Confresa/MT,-10.643695,-51.569873,132,426.72874
D1,Confresa/MT,-10.643695,-51.569873,3,9.69838
1,Congo/PB,-7.80963435,-36.641233278035656,11,229.83702
D1,Congo/PB,-7.80963435,-36.641233278035656,1,20.89427
1,Congonhal/MG,-22.1532505,-46.0404698,1,8.36820
1,Congonhas/MG,-20.5015168,-43.8564586,37,67.56510
D1,Congonhas/MG,-20.5015168,-43.8564586,1,1.82608
1,Congonhinhas/PR,-23.5497241,-50.5520182,3,34.02132
1,Conquista D'Oeste/MT,-14.5381171,-59.5443775,7,173.35315
1,Conselheiro Lafaiete/MG,-20.6596107,-43.785743,43,33.43987
1,Conselheiro Mairinck/PR,-23.6229983,-50.1706779,5,129.53368
1,Conselheiro Pena/MG,-19.1720883,-41.471995,7,30.53968
1,Constantina/RS,-27.7331711,-52.9929561,1,10.08980
1,Contagem/MG,-19.9132749,-44.0840953,431,64.92382
D1,Contagem/MG,-19.9132749,-44.0840953,16,2.41016
1,Contenda/PR,-25.678811,-49.535044,3,16.14292
D1,Contenda/PR,-25.678811,-49.535044,1,5.38097
1,Coqueiral/MG,-21.1898365,-45.4409829,1,10.91822
1,Coqueiro Seco/AL,-9.637147,-35.799377,49,838.32335
D1,Coqueiro Seco/AL,-9.637147,-35.799377,2,34.21728
1,Coqueiros do Sul/RS,-28.1184032,-52.7824375,4,173.46054
1,Coração de Jesus/MG,-16.6888187,-44.3577401,1,3.75912
1,Coração de Maria/BA,-12.2484345,-38.7499274,9,39.81420
1,Corbélia/PR,-24.7951117,-53.2961804,9,52.72099
1,Cordeiro/RJ,-22.0287681,-42.3607442,41,186.99261
1,Cordeirópolis/SP,-22.4768324,-47.4550551,54,220.15656
D1,Cordeirópolis/SP,-22.4768324,-47.4550551,2,8.15395
1,Cordilheira Alta/SC,-26.9853947,-52.603549,4,89.82708
1,Coreaú/CE,-3.5519794,-40.6528409,225,972.51037
D1,Coreaú/CE,-3.5519794,-40.6528409,3,12.96680
1,Coremas/PB,-7.0175897,-37.9465062,17,110.06798
1,Corguinho/MS,-19.827429,-54.8322243,1,16.81520
1,Corinto/MG,-18.363056,-44.456111,29,122.20303
1,Cornélio Procópio/PR,-23.1825218,-50.6499263,121,252.89999
D1,Cornélio Procópio/PR,-23.1825218,-50.6499263,1,2.09008
1,Coroados/SP,-21.3554634,-50.2853589,12,198.08518
D1,Coroados/SP,-21.3554634,-50.2853589,1,16.50710
1,Coroatá/MA,-4.1282283,-44.1360269,180,275.66773
D1,Coroatá/MA,-4.1282283,-44.1360269,1,1.53149
1,Coromandel/MG,-18.473889,-47.200278,7,25.02324
1,Coronel Bicaco/RS,-27.7174002,-53.705821,4,54.60751
1,Coronel Domingos Soares/PR,-26.22394,-52.0314509,87,1160.46419
1,Coronel Fabriciano/MG,-19.5200067,-42.6282686,159,144.73624
1,Coronel Freitas/SC,-26.9058932,-52.7028055,5,50.09518
1,Coronel João Pessoa/RN,-6.2607103,-38.4424915,2,40.71661
D1,Coronel João Pessoa/RN,-6.2607103,-38.4424915,1,20.35831
1,Coronel João Sá/BA,-10.2856387,-37.9259435,7,44.03901
1,Coronel Macedo/SP,-23.6304001,-49.313234,1,21.36296
1,Coronel Martins/SC,-26.5124719,-52.6681763,4,156.92428
1,Coronel Pacheco/MG,-21.5878865,-43.2615975,1,32.40441
1,Coronel Vivida/PR,-25.9803771,-52.5654277,1,4.82300
1,Coronel Xavier Chaves/MG,-21.0234482,-44.2233108,1,29.12056
1,Correia Pinto/SC,-27.587688,-50.361448,2,15.63111
1,Corrente/PI,-10.4401356,-45.1627472,26,97.58295
1,Correntes/PE,-9.1295585,-36.3287438,10,54.92393
D1,Correntes/PE,-9.1295585,-36.3287438,1,5.49239
1,Correntina/BA,-13.344157,-44.6345066,6,18.67007
1,Cortês/PE,-8.4724921,-35.5431197,45,357.76753
D1,Cortês/PE,-8.4724921,-35.5431197,9,71.55351
1,Corumbataí/SP,-22.2210521,-47.6249638,6,147.96547
1,Corumbaíba/GO,-18.1348982,-48.564223,1,10.28489
D1,Corumbaíba/GO,-18.1348982,-48.564223,1,10.28489
1,Corumbá de Goiás/GO,-15.9268355,-48.8074659,2,18.00180
1,Corumbá/MS,-19.0016365,-57.6534316,87,78.07242
1,Corupá/SC,-26.42464,-49.245968,62,389.71651
1,Coruripe/AL,-10.1249963,-36.1760623,267,468.97230
D1,Coruripe/AL,-10.1249963,-36.1760623,9,15.80806
1,Cosmorama/SP,-20.475472,-49.782747,5,68.42754
D1,Cosmorama/SP,-20.475472,-49.782747,1,13.68551
1,Cosmópolis/SP,-22.6437398,-47.1972086,60,83.04268
D1,Cosmópolis/SP,-22.6437398,-47.1972086,1,1.38404
1,Costa Marques/RO,-12.4367165,-64.2279765,4,21.82096
1,Costa Rica/MS,-18.5333859,-53.1394286,7,33.61667
1,Cotia/SP,-23.603889,-46.918889,727,291.72184
D1,Cotia/SP,-23.603889,-46.918889,58,23.27354
1,Cotriguaçu/MT,-9.9034364,-58.5658915,5,25.31646
D1,Cotriguaçu/MT,-9.9034364,-58.5658915,1,5.06329
1,Couto Magalhães/TO,-8.360583,-49.1773955,18,322.11883
1,Couto de Magalhães de Minas/MG,-18.073016,-43.4718628,4,90.70295
1,Coxilha/RS,-28.1254442,-52.2979903,25,907.11176
1,Coxim/MS,-18.504915,-54.7450251,8,23.84998
1,Coxixola/PB,-7.6272915,-36.606013,7,364.39355
1,Crateús/CE,-5.1782451,-40.6696545,264,351.65304
D1,Crateús/CE,-5.1782451,-40.6696545,9,11.98817
1,Crato/CE,-7.2369112,-39.4149236,88,66.60460
D1,Crato/CE,-7.2369112,-39.4149236,2,1.51374
1,Cravinhos/SP,-21.340278,-47.729444,30,85.00510
D1,Cravinhos/SP,-21.340278,-47.729444,1,2.83350
1,Cravolândia/BA,-13.3576247,-39.8153954,3,56.08525
1,Craíbas/AL,-9.6168038,-36.7684669,101,417.02795
D1,Craíbas/AL,-9.6168038,-36.7684669,1,4.12899
1,Criciúma/SC,-28.6789941,-49.3695627,406,188.67398
D1,Criciúma/SC,-28.6789941,-49.3695627,9,4.18243
1,Crissiumal/RS,-27.4982242,-54.1024643,1,7.43605
1,Cristalina/GO,-16.7676079,-47.6131281,11,18.64502
D1,Cristalina/GO,-16.7676079,-47.6131281,1,1.69500
1,Cristina/MG,-22.212222,-45.264167,2,19.52744
1,Cristino Castro/PI,-8.8163934,-44.2211062,1,9.59417
D1,Cristino Castro/PI,-8.8163934,-44.2211062,1,9.59417
1,Cristinápolis/SE,-11.4757019,-37.7555212,15,83.92078
1,Cristópolis/BA,-12.2349301,-44.4160811,6,43.13444
1,Crisólita/MG,-17.2391664,-40.9132444,5,74.58234
1,Crisópolis/BA,-11.5105813,-38.1506278,3,14.21599
1,Crixás do Tocantins/TO,-11.1039404,-48.918827,1,58.07201
1,Crixás/GO,-14.5424536,-49.9694813,3,17.70016
1,Croatá/CE,-4.4156199,-40.9048081,13,71.97033
1,Cromínia/GO,-17.2891983,-49.3749654,1,28.68617
1,Cruz Alta/RS,-28.645056,-53.6058047,26,43.11846
D1,Cruz Alta/RS,-28.645056,-53.6058047,1,1.65840
1,Cruz das Almas/BA,-12.6722649,-39.1053665,31,49.02038
1,Cruz do Espírito Santo/PB,-7.139022,-35.085721,136,785.26474
D1,Cruz do Espírito Santo/PB,-7.139022,-35.085721,9,51.96605
1,Cruz/CE,-2.918128,-40.175981,269,1083.49780
D1,Cruz/CE,-2.918128,-40.175981,6,24.16724
1,Cruzaltense/RS,-27.667414,-52.6487833,7,381.88762
1,Cruzeiro do Iguaçu/PR,-25.6142278,-53.1299075,6,141.11007
1,Cruzeiro do Oeste/PR,-23.7839582,-53.0709425,5,23.88687
1,Cruzeiro do Sul/AC,-7.6307956,-72.6703869,880,995.74545
D1,Cruzeiro do Sul/AC,-7.6307956,-72.6703869,16,18.10446
1,Cruzeiro do Sul/PR,-22.9623678,-52.1625688,6,134.25822
1,Cruzeiro do Sul/RS,-29.5139742,-51.9917068,74,599.28733
D1,Cruzeiro do Sul/RS,-29.5139742,-51.9917068,3,24.29543
1,Cruzeiro/SP,-22.5783685,-44.9642044,34,41.34342
D1,Cruzeiro/SP,-22.5783685,-44.9642044,2,2.43197
1,Cruzeta/RN,-6.4113343,-36.7872964,11,137.53438
1,Cruzília/MG,-21.838333,-44.808056,5,32.43173
1,Cubati/PB,-6.8647974,-36.3525993,3,38.47634
1,Cubatão/SP,-23.8857982,-46.4241869,731,559.27470
D1,Cubatão/SP,-23.8857982,-46.4241869,47,35.95884
1,Cuiabá/MT,-15.5986686,-56.0991301,1081,176.47625
D1,Cuiabá/MT,-15.5986686,-56.0991301,17,2.77530
1,Cuitegi/PB,-6.8962776,-35.5228851,56,823.16625
D1,Cuitegi/PB,-6.8962776,-35.5228851,1,14.69940
1,Cuité de Mamanguape/PB,-6.912922,-35.250219,13,204.62773
1,Cuité/PB,-6.4855072,-36.1478606,11,54.08595
D1,Cuité/PB,-6.4855072,-36.1478606,1,4.91690
1,Cujubim/RO,-9.3687919,-62.5832107,30,118.97680
D1,Cujubim/RO,-9.3687919,-62.5832107,1,3.96589
1,Cumari/GO,-18.2644369,-48.1511341,7,245.26980
1,Cumaru do Norte/PA,-7.8122669,-50.7677675,38,282.04557
D1,Cumaru do Norte/PA,-7.8122669,-50.7677675,2,14.84450
1,Cumaru/PE,-8.0065285,-35.6991651,25,229.23162
D1,Cumaru/PE,-8.0065285,-35.6991651,1,9.16926
1,Cumbe/SE,-10.3552462,-37.1828788,1,25.08151
1,Cunha Porã/SC,-26.8927163,-53.1716516,20,180.40772
1,Cunha/SP,-23.07753,-44.9567436,5,23.20509
1,Cunhataí/SC,-26.9735014,-53.0914014,6,305.81040
1,Cupira/PE,-8.6053148,-35.9530366,52,215.70498
D1,Cupira/PE,-8.6053148,-35.9530366,5,20.74086
1,Curaçá/BA,-8.9925655,-39.9053169,39,112.39193
1,Curimatá/PI,-10.0349005,-44.3033114,9,79.03056
1,Curionópolis/PA,-6.0990443,-49.6059039,360,2007.92013
D1,Curionópolis/PA,-6.0990443,-49.6059039,7,39.04289
1,Curitiba/PR,-25.4295963,-49.2712724,1143,59.12767
D1,Curitiba/PR,-25.4295963,-49.2712724,53,2.74170
1,Curitibanos/SC,-27.2917869,-50.5768954,18,45.28872
1,Curiúva/PR,-24.0383013,-50.455484,3,19.86623
1,Currais Novos/RN,-6.2626676,-36.5173039,33,73.68374
D1,Currais Novos/RN,-6.2626676,-36.5173039,1,2.23284
1,Curral Novo do Piauí/PI,-7.8316503,-40.9006904,1,18.71608
1,Curral Velho/PB,-7.5376473,-38.1979125,1,39.74563
1,Curral de Cima/PB,-6.7174163,-35.266704,10,191.31433
1,Curralinho/PA,-1.8137876,-49.7980165,102,296.09847
D1,Curralinho/PA,-1.8137876,-49.7980165,4,11.61170
1,Curralinhos/PI,-5.6190404,-42.8280018,3,67.52194
1,Cururupu/MA,-1.824255,-44.872996,182,556.66004
D1,Cururupu/MA,-1.824255,-44.872996,2,6.11714
1,Curuá/PA,-1.887754,-55.116842,23,159.79990
1,Curuçá/PA,-0.7276792,-47.856568,464,1158.08915
D1,Curuçá/PA,-0.7276792,-47.856568,39,97.33939
1,Curvelo/MG,-18.7571926,-44.4305993,47,58.65542
1,Curvelândia/MT,-15.6108629,-57.9188924,4,76.64304
D1,Curvelândia/MT,-15.6108629,-57.9188924,1,19.16076
1,Custódia/PE,-8.0861426,-37.6401873,68,183.23408
D1,Custódia/PE,-8.0861426,-37.6401873,7,18.86233
1,Cutias/AP,0.9708625,-50.8000608,182,3041.95220
D1,Cutias/AP,0.9708625,-50.8000608,2,33.42805
1,Cáceres/MT,-16.0658939,-57.6852775,41,43.44325
D1,Cáceres/MT,-16.0658939,-57.6852775,4,4.23837
1,Cássia dos Coqueiros/SP,-21.280082,-47.164327,3,118.90606
1,Cândido Mendes/MA,-1.4531117,-45.7273136,19,94.16196
D1,Cândido Mendes/MA,-1.4531117,-45.7273136,1,4.95589
1,Cândido Mota/SP,-22.7434964,-50.38924,9,28.77238
1,Cândido Rodrigues/SP,-21.3255615,-48.6308798,14,501.25313
1,Cândido Sales/BA,-15.5037649,-41.2391141,29,115.12962
1,Céu Azul/PR,-25.1484973,-53.8494214,9,76.49809
D1,Céu Azul/PR,-25.1484973,-53.8494214,1,8.49979
1,Cícero Dantas/BA,-10.5932265,-38.3834411,2,6.15101
1,Córrego Novo/MG,-19.832223,-42.395833,1,36.08805
1,Córrego do Bom Jesus/MG,-22.630556,-46.019723,9,242.98056
1,Córrego do Ouro/GO,-16.2960629,-50.5512216,1,42.97379
1,Damião/PB,-6.64317595,-35.933835193092264,2,37.52345
1,Damolândia/GO,-16.2548322,-49.3675277,1,34.03676
1,Darcinópolis/TO,-6.7085964,-47.7524283,136,2230.60522
1,David Canabarro/RS,-28.3878667,-51.8472645,2,42.19409
1,Davinópolis/MA,-5.5265775,-47.3942217,107,828.94329
D1,Davinópolis/MA,-5.5265775,-47.3942217,3,23.24140
1,Delfim Moreira/MG,-22.5086783,-45.2792398,7,87.22741
1,Delfinópolis/MG,-20.344749,-46.8546425,1,14.05679
1,Delmiro Gouveia/AL,-9.3841161,-37.997756,37,71.13196
D1,Delmiro Gouveia/AL,-9.3841161,-37.997756,2,3.84497
1,Delta/MG,-19.9769,-47.7711,3,28.48191
1,Demerval Lobão/PI,-5.3640643,-42.673993,114,825.07057
D1,Demerval Lobão/PI,-5.3640643,-42.673993,1,7.23746
1,Denise/MT,-14.7252735,-57.0480299,4,42.27436
1,Deodápolis/MS,-22.276272,-54.168163,5,38.68771
1,Deputado Irapuan Pinheiro/CE,-5.9173532,-39.2672104,5,51.94805
1,Derrubadas/RS,-27.2657279,-53.8618488,1,35.65062
1,Descalvado/SP,-21.9090404,-47.6203241,12,35.58930
D1,Descalvado/SP,-21.9090404,-47.6203241,1,2.96577
1,Descanso/SC,-26.8246854,-53.5017586,3,36.36364
1,Descoberto/MG,-21.459444,-42.967223,1,19.94813
1,Desterro/PB,-7.2889695,-37.0880761,12,144.63059
1,Diadema/SP,-23.681347,-46.62052,1579,372.50757
D1,Diadema/SP,-23.681347,-46.62052,101,23.82727
1,Diamante do Norte/PR,-22.6565442,-52.8589113,1,19.65795
1,Diamante do Sul/PR,-25.0436147,-52.6800923,7,203.54754
1,Diamante/PB,-7.4261827,-38.2646879,1,15.26252
1,Diamantina/MG,-18.2440862,-43.6006487,9,18.85883
1,Diamantino/MT,-14.4036262,-56.4364488,2,9.07400
1,Dianópolis/TO,-11.624008,-46.819787,2,9.03383
1,Dias d'Ávila/BA,-12.6107233,-38.3028518,116,143.05270
D1,Dias d'Ávila/BA,-12.6107233,-38.3028518,4,4.93285
1,Diogo de Vasconcelos/MG,-20.4868723,-43.1984645,6,157.81168
1,Dionísio Cerqueira/SC,-26.2604681,-53.6346379,1,6.45245
D1,Dionísio Cerqueira/SC,-26.2604681,-53.6346379,1,6.45245
1,Dionísio/MG,-19.841944,-42.776945,5,64.69142
1,Dirceu Arcoverde/PI,-9.3413101,-42.4362055,28,399.37241
1,Divina Pastora/SE,-10.6783231,-37.1482727,10,194.62826
1,Divino das Laranjeiras/MG,-18.7775,-41.479167,1,20.08435
1,Divino de São Lourenço/ES,-20.6201409,-41.6834749,19,441.44981
1,Divino/MG,-20.6151497,-42.1474733,11,55.19041
1,Divinolândia/SP,-21.6604584,-46.7371151,1,8.97183
1,Divinésia/MG,-20.990277,-43.003889,1,29.26544
1,Divinópolis do Tocantins/TO,-9.8015722,-49.2143531,3,43.47826
1,Divinópolis/MG,-20.1434559,-44.89125,224,94.02678
D1,Divinópolis/MG,-20.1434559,-44.89125,3,1.25929
1,Divisa Alegre/MG,-15.7207751,-41.3442809,6,88.41733
1,Divisa Nova/MG,-21.5126801,-46.1926626,1,16.63617
1,Dobrada/SP,-21.5180904,-48.3938897,4,44.79785
1,Dois Córregos/SP,-22.3697554,-48.3845315,6,21.96595
D1,Dois Córregos/SP,-22.3697554,-48.3845315,2,7.32198
1,Dois Irmãos/RS,-29.58356,-51.089776,7,21.42573
1,Dois Riachos/AL,-9.384645,-37.096502,13,117.38149
1,Dois Vizinhos/PR,-25.7464681,-53.0554369,1,2.46057
1,Dolcinópolis/SP,-20.1230736,-50.513261,3,141.84397
D1,Dolcinópolis/SP,-20.1230736,-50.513261,1,47.28132
1,Dom Aquino/MT,-15.809899,-54.922298,5,61.13964
1,Dom Basílio/BA,-13.7589818,-41.7715676,3,24.59218
1,Dom Bosco/MG,-16.6516044,-46.2677917,3,81.58825
1,Dom Cavati/MG,-19.3744152,-42.1067301,2,39.43218
1,Dom Eliseu/PA,-4.2928111,-47.5559083,369,617.89380
D1,Dom Eliseu/PA,-4.2928111,-47.5559083,4,6.69804
1,Dom Expedito Lopes/PI,-6.9644926,-41.648155,13,188.29664
1,Dom Feliciano/RS,-30.70214,-52.1080845,3,19.46283
1,Dom Inocêncio/PI,-9.0009167,-41.974038,5,52.32315
1,Dom Joaquim/MG,-18.967137,-43.2552141,1,23.83790
1,Dom Pedrito/RS,-30.983755,-54.6746483,19,49.40069
D1,Dom Pedrito/RS,-30.983755,-54.6746483,1,2.60004
1,Dom Pedro/MA,-5.0389999,-44.4377854,41,175.58887
1,Domingos Martins/ES,-20.3646483,-40.6585797,146,431.31462
D1,Domingos Martins/ES,-20.3646483,-40.6585797,1,2.95421
1,Domingos Mourão/PI,-4.2544732,-41.2722903,1,22.96211
1,Dona Emma/SC,-26.9849398,-49.7265136,3,72.35890
1,Dona Inês/PB,-6.6032239,-35.627146,3,28.69989
1,Dores do Indaiá/MG,-19.4636451,-45.60166,2,14.83349
1,Dores do Rio Preto/ES,-20.6893254,-41.84819,3,44.45103
1,Dormentes/PE,-8.441163,-40.766168,27,142.79670
1,Douradina/MS,-22.0402812,-54.6118292,69,1164.75354
1,Douradina/PR,-23.3847331,-53.2932989,4,45.72996
1,Dourado/SP,-22.1124638,-48.3151079,4,45.08058
1,Dourados/MS,-22.2206145,-54.812208,571,256.11238
D1,Dourados/MS,-22.2206145,-54.812208,2,0.89707
1,Doutor Camargo/PR,-23.5575611,-52.2185546,2,33.45041
1,Doutor Maurício Cardoso/RS,-27.5067264,-54.3626756,6,131.89712
D1,Doutor Maurício Cardoso/RS,-27.5067264,-54.3626756,2,43.96571
1,Doutor Ricardo/RS,-29.0901549,-51.9894847,3,151.28593
1,Doutor Severiano/RN,-6.0948339,-38.3748,6,84.79367
1,Dracena/SP,-21.4835523,-51.5334408,38,81.20873
D1,Dracena/SP,-21.4835523,-51.5334408,2,4.27414
1,Duartina/SP,-22.414562,-49.408355,6,48.21213
1,Duas Barras/RJ,-22.0522519,-42.5194705,5,43.50853
1,Duas Estradas/PB,-6.6883382,-35.4175255,30,834.26029
1,Dueré/TO,-11.341631,-49.271566,5,106.70081
1,Dumont/SP,-21.2391417,-47.9747665,5,50.66883
1,Duque Bacelar/MA,-4.1542795,-42.946096,68,599.17173
1,Duque de Caxias/RJ,-22.7896225,-43.309929,1826,198.56546
D1,Duque de Caxias/RJ,-22.7896225,-43.309929,296,32.18805
1,Durandé/MG,-20.203611,-41.798055,2,25.50695
1,Dário Meira/BA,-14.4332181,-39.9028712,12,112.04482
1,Echaporã/SP,-22.4325855,-50.2037693,2,32.77614
1,Ecoporanga/ES,-18.3720918,-40.8321351,69,301.00772
D1,Ecoporanga/ES,-18.3720918,-40.8321351,4,17.44972
1,Edéia/GO,-17.3407253,-49.9292351,8,64.66214
D1,Edéia/GO,-17.3407253,-49.9292351,1,8.08277
1,Eirunepé/AM,-6.6567654,-69.866161,195,552.83078
1,Eldorado do Carajás/PA,-6.1029246,-49.3572487,21,62.11548
D1,Eldorado do Carajás/PA,-6.1029246,-49.3572487,1,2.95788
1,Eldorado do Sul/RS,-29.9984639,-51.3091977,19,46.02156
D1,Eldorado do Sul/RS,-29.9984639,-51.3091977,1,2.42219
1,Eldorado/SP,-24.522583,-48.1093489,9,58.08700
D1,Eldorado/SP,-24.522583,-48.1093489,1,6.45411
1,Elesbão Veloso/PI,-6.2032654,-42.1376937,30,205.45131
D1,Elesbão Veloso/PI,-6.2032654,-42.1376937,2,13.69675
1,Elias Fausto/SP,-23.0416538,-47.3718002,12,67.52194
D1,Elias Fausto/SP,-23.0416538,-47.3718002,1,5.62683
1,Elisiário/SP,-21.1673392,-49.1111015,1,27.38976
1,Elói Mendes/MG,-21.6094466,-45.5660211,6,21.37057
1,Emas/PB,-7.1071447,-37.7155578,1,28.39296
1,Embaúba/SP,-20.9819513,-48.837455,5,203.91517
1,Embu das Artes/SP,-23.6495294,-46.8528497,671,245.13565
D1,Embu das Artes/SP,-23.6495294,-46.8528497,58,21.18907
1,Embu-Guaçu/SP,-23.8317997,-46.8156204,156,224.83246
D1,Embu-Guaçu/SP,-23.8317997,-46.8156204,10,14.41234
1,Emilianópolis/SP,-21.831436,-51.483168,4,124.45551
1,Encantado/RS,-29.2392716,-51.8744817,71,312.69268
D1,Encantado/RS,-29.2392716,-51.8744817,3,13.21237
1,Encanto/RN,-6.1107477,-38.3050953,15,266.05179
D1,Encanto/RN,-6.1107477,-38.3050953,2,35.47357
1,Encruzilhada do Sul/RS,-30.53619325,-52.51564721101029,2,7.72887
D1,Encruzilhada do Sul/RS,-30.53619325,-52.51564721101029,1,3.86444
1,Encruzilhada/BA,-15.5322113,-40.9072488,21,123.48583
1,Engenheiro Coelho/SP,-22.4896659,-47.2119005,19,91.46488
1,Engenheiro Navarro/MG,-17.286622,-43.9515719,1,13.80834
1,Engenheiro Paulo de Frontin/RJ,-22.5504556,-43.6783403,22,157.12041
