type,name,lat,lon,total,total_per_100k_inhabitants
1,Abadia de Goiás/GO,-16.7572644,-49.4412205,1489,16622.01384
D1,Abadia de Goiás/GO,-16.7572644,-49.4412205,34,379.54901
1,Abadia dos Dourados/MG,-18.4911191,-47.4063589,440,6280.33114
D1,Abadia dos Dourados/MG,-18.4911191,-47.4063589,14,199.82872
1,Abadiânia/GO,-16.1940946,-48.7067767,442,2160.20722
D1,Abadiânia/GO,-16.1940946,-48.7067767,33,161.28244
1,Abaetetuba/PA,-1.721828,-48.878843,8890,5588.38320
D1,Abaetetuba/PA,-1.721828,-48.878843,219,137.66658
1,Abaeté/MG,-19.1566833,-45.4481213,1304,5608.60215
D1,Abaeté/MG,-19.1566833,-45.4481213,29,124.73118
1,Abaiara/CE,-7.3607808,-39.0487878,584,4927.02269
D1,Abaiara/CE,-7.3607808,-39.0487878,15,126.55024
1,Abaré/BA,-8.7239913,-39.1139689,968,4757.45810
D1,Abaré/BA,-8.7239913,-39.1139689,11,54.06202
1,Abatiá/PR,-23.3052967,-50.3102532,1021,13782.39741
D1,Abatiá/PR,-23.3052967,-50.3102532,18,242.98056
1,Abaíra/BA,-13.2503296,-41.6640342,286,3283.58209
D1,Abaíra/BA,-13.2503296,-41.6640342,11,126.29162
1,Abdon Batista/SC,-27.612419,-51.022992,418,16405.02355
D1,Abdon Batista/SC,-27.612419,-51.022992,4,156.98587
1,Abel Figueiredo/PA,-4.953001,-48.3958485,969,12944.16244
D1,Abel Figueiredo/PA,-4.953001,-48.3958485,10,133.58269
1,Abelardo Luz/SC,-26.5705893,-52.3280339,1508,8396.43653
D1,Abelardo Luz/SC,-26.5705893,-52.3280339,54,300.66815
1,Abre Campo/MG,-20.2976097,-42.4764741,1156,8598.63136
D1,Abre Campo/MG,-20.2976097,-42.4764741,15,111.57394
1,Abreu e Lima/PE,-7.900719,-34.898389,3137,3126.18341
D1,Abreu e Lima/PE,-7.900719,-34.898389,229,228.21039
1,Abreulândia/TO,-9.6221526,-49.1558343,274,10562.83732
D1,Abreulândia/TO,-9.6221526,-49.1558343,6,231.30301
1,Acaiaca/MG,-20.3621646,-43.1444162,227,5683.52529
D1,Acaiaca/MG,-20.3621646,-43.1444162,11,275.41312
1,Acajutiba/BA,-11.6609659,-38.0186381,528,3476.65767
D1,Acajutiba/BA,-11.6609659,-38.0186381,16,105.35326
1,Acarape/CE,-4.2237866,-38.7071663,2781,18495.61053
D1,Acarape/CE,-4.2237866,-38.7071663,27,179.56903
1,Acaraú/CE,-2.8869514,-40.1194713,4947,7839.43966
D1,Acaraú/CE,-2.8869514,-40.1194713,107,169.56136
1,Acari/RN,-6.4364689,-36.6394777,1061,9540.50895
D1,Acari/RN,-6.4364689,-36.6394777,18,161.85595
1,Acará/PA,-1.961388,-48.1987043,1318,2367.56543
D1,Acará/PA,-1.961388,-48.1987043,31,55.68629
1,Acauã/PI,-8.219542,-41.083059,199,2802.02760
D1,Acauã/PI,-8.219542,-41.083059,1,14.08054
1,Aceguá/RS,-31.8695131,-54.1615593,355,7183.32659
D1,Aceguá/RS,-31.8695131,-54.1615593,7,141.64306
1,Acopiara/CE,-6.0936464,-39.4543204,3659,6716.10286
D1,Acopiara/CE,-6.0936464,-39.4543204,140,256.97032
1,Acorizal/MT,-15.2001544,-56.3668953,494,9261.34233
D1,Acorizal/MT,-15.2001544,-56.3668953,19,356.20547
1,Acrelândia/AC,-10.0759167,-67.0526898,1685,10877.98580
D1,Acrelândia/AC,-10.0759167,-67.0526898,36,232.40801
1,Acreúna/GO,-17.3959899,-50.3749031,2102,9323.16154
D1,Acreúna/GO,-17.3959899,-50.3749031,48,212.89808
1,Adamantina/SP,-21.6866517,-51.0762975,3377,9618.06841
D1,Adamantina/SP,-21.6866517,-51.0762975,110,313.29213
1,Adelândia/GO,-16.4155077,-50.1665834,200,7949.12560
D1,Adelândia/GO,-16.4155077,-50.1665834,4,158.98251
1,Adolfo/SP,-21.2356597,-49.6441918,533,14997.18627
D1,Adolfo/SP,-21.2356597,-49.6441918,14,393.92234
1,Adrianópolis/PR,-24.6557863,-48.9912769,1367,23339.59365
D1,Adrianópolis/PR,-24.6557863,-48.9912769,27,460.98685
1,Adustina/BA,-10.5358875,-38.114479,988,5769.00619
D1,Adustina/BA,-10.5358875,-38.114479,24,140.13780
1,Afogados da Ingazeira/PE,-7.750429,-37.6356375,5038,13469.14768
D1,Afogados da Ingazeira/PE,-7.750429,-37.6356375,69,184.47225
1,Afonso Bezerra/RN,-5.4745,-36.57625071327935,774,7017.86200
D1,Afonso Bezerra/RN,-5.4745,-36.57625071327935,18,163.20609
1,Afonso Cláudio/ES,-20.077841,-41.12606,3415,11213.26547
D1,Afonso Cláudio/ES,-20.077841,-41.12606,57,187.16139
1,Afonso Cunha/MA,-4.1326105,-43.3230026,226,3435.69474
D1,Afonso Cunha/MA,-4.1326105,-43.3230026,3,45.60657
1,Afrânio/PE,-8.5198919,-41.0070197,913,4608.78344
D1,Afrânio/PE,-8.5198919,-41.0070197,14,70.67138
1,Afuá/PA,-0.1535664,-50.3879223,3011,7609.87692
D1,Afuá/PA,-0.1535664,-50.3879223,16,40.43774
1,Agrestina/PE,-8.4558021,-35.9442663,1691,6746.45921
D1,Agrestina/PE,-8.4558021,-35.9442663,62,247.35687
1,Agricolândia/PI,-5.7967843,-42.6605131,482,9393.88034
D1,Agricolândia/PI,-5.7967843,-42.6605131,6,116.93627
1,Agrolândia/SC,-27.4122212,-49.8295774,1584,14383.00191
D1,Agrolândia/SC,-27.4122212,-49.8295774,25,227.00445
1,Agronômica/SC,-27.2660744,-49.7104753,639,11599.20131
D1,Agronômica/SC,-27.2660744,-49.7104753,13,235.97749
1,Aguanil/MG,-20.9424533,-45.3927152,627,13865.54622
D1,Aguanil/MG,-20.9424533,-45.3927152,8,176.91287
1,Aguaí/SP,-22.0592036,-46.979384,3098,8453.39446
D1,Aguaí/SP,-22.0592036,-46.979384,95,259.22288
1,Agudo/RS,-29.6423259,-53.2494005,1694,10328.63850
D1,Agudo/RS,-29.6423259,-53.2494005,29,176.81849
1,Agudos do Sul/PR,-25.9890808,-49.3328175,694,7328.40549
D1,Agudos do Sul/PR,-25.9890808,-49.3328175,24,253.43189
1,Agudos/SP,-22.471162,-48.987822,3840,10267.10516
D1,Agudos/SP,-22.471162,-48.987822,92,245.98273
1,Aguiar/PB,-7.0928404,-38.1727215,518,9200.71048
D1,Aguiar/PB,-7.0928404,-38.1727215,5,88.80995
1,Aguiarnópolis/TO,-6.5600452,-47.4721189,643,9329.65757
D1,Aguiarnópolis/TO,-6.5600452,-47.4721189,12,174.11492
1,Aimorés/MG,-19.4917754,-41.0615603,1958,7788.07526
D1,Aimorés/MG,-19.4917754,-41.0615603,65,258.54182
1,Aiquara/BA,-14.126918,-39.8887574,472,10688.40580
D1,Aiquara/BA,-14.126918,-39.8887574,12,271.73913
1,Aiuaba/CE,-6.5710836,-40.1212278,772,4413.19385
D1,Aiuaba/CE,-6.5710836,-40.1212278,11,62.88230
1,Aiuruoca/MG,-21.9759554,-44.6036637,304,5087.01473
D1,Aiuruoca/MG,-21.9759554,-44.6036637,8,133.86881
1,Ajuricaba/RS,-28.239654,-53.7693013,1021,14612.85244
D1,Ajuricaba/RS,-28.239654,-53.7693013,29,415.05653
1,Alagoa Grande/PB,-7.0415212,-35.6285322,4035,14188.26260
D1,Alagoa Grande/PB,-7.0415212,-35.6285322,70,246.14086
1,Alagoa Nova/PB,-7.0653703,-35.76695977336711,1098,5248.31509
D1,Alagoa Nova/PB,-7.0653703,-35.76695977336711,18,86.03795
1,Alagoa/MG,-22.1697202,-44.6400042,442,16585.36585
D1,Alagoa/MG,-22.1697202,-44.6400042,6,225.14071
1,Alagoinha do Piauí/PI,-7.0090952,-40.939675,353,4605.34899
D1,Alagoinha do Piauí/PI,-7.0090952,-40.939675,10,130.46314
1,Alagoinha/PB,-6.97063215,-35.51490901897793,2011,13811.81319
D1,Alagoinha/PB,-6.97063215,-35.51490901897793,24,164.83516
1,Alagoinha/PE,-8.50355635,-36.77701174370496,1262,8574.53458
D1,Alagoinha/PE,-8.50355635,-36.77701174370496,25,169.86004
1,Alagoinhas/BA,-12.133526,-38.420772,13583,8917.00093
D1,Alagoinhas/BA,-12.133526,-38.420772,282,185.12805
1,Alambari/SP,-23.550338,-47.897971,520,8484.25518
D1,Alambari/SP,-23.550338,-47.897971,10,163.15875
1,Albertina/MG,-20.66164,-43.784039,241,8003.98539
D1,Albertina/MG,-20.66164,-43.784039,9,298.90402
1,Alcantil/PB,-7.7425491,-36.0609604,503,9130.51370
D1,Alcantil/PB,-7.7425491,-36.0609604,6,108.91269
1,Alcinópolis/MS,-18.3264121,-53.7094463,329,6073.47240
D1,Alcinópolis/MS,-18.3264121,-53.7094463,8,147.68322
1,Alcobaça/BA,-17.5215875,-39.1965474,1482,6589.59538
D1,Alcobaça/BA,-17.5215875,-39.1965474,29,128.94620
1,Alcântara/MA,-2.4038956,-44.4154241,311,1406.47612
D1,Alcântara/MA,-2.4038956,-44.4154241,17,76.88133
1,Alcântaras/CE,-3.586247,-40.5457641,1688,14328.15550
D1,Alcântaras/CE,-3.586247,-40.5457641,22,186.74136
1,Aldeias Altas/MA,-4.6291957,-43.4708622,976,3647.64361
D1,Aldeias Altas/MA,-4.6291957,-43.4708622,14,52.32276
1,Alecrim/RS,-27.6566142,-54.7653195,309,5302.90029
D1,Alecrim/RS,-27.6566142,-54.7653195,11,188.77639
1,Alegre/ES,-20.7625787,-41.5318886,2456,8193.49458
D1,Alegre/ES,-20.7625787,-41.5318886,52,173.47790
1,Alegrete do Piauí/PI,-7.2440138,-40.8602296,502,10207.40138
D1,Alegrete do Piauí/PI,-7.2440138,-40.8602296,6,122.00081
1,Alegrete/RS,-29.790166,-55.794862,9549,13075.80654
D1,Alegrete/RS,-29.790166,-55.794862,276,377.93723
1,Alegria/RS,-27.8332103,-54.0574959,383,11351.51156
D1,Alegria/RS,-27.8332103,-54.0574959,3,88.91523
1,Alenquer/PA,-1.946229,-54.738355,3487,6107.68584
D1,Alenquer/PA,-1.946229,-54.738355,137,239.96357
1,Alexandria/RN,-6.414779,-38.0135516,1624,11982.58688
D1,Alexandria/RN,-6.414779,-38.0135516,26,191.83945
1,Alexânia/GO,-16.0834049,-48.5077803,3131,11178.15066
D1,Alexânia/GO,-16.0834049,-48.5077803,78,278.47197
1,Alfenas/MG,-21.4297405,-45.9479419,9311,11567.32179
D1,Alfenas/MG,-21.4297405,-45.9479419,174,216.16518
1,Alfredo Chaves/ES,-20.624970400000002,-40.75006690147988,2419,16527.73982
D1,Alfredo Chaves/ES,-20.624970400000002,-40.75006690147988,35,239.13638
1,Alfredo Marcondes/SP,-21.9527,-51.413956,247,5903.44168
D1,Alfredo Marcondes/SP,-21.9527,-51.413956,10,239.00574
1,Alfredo Vasconcelos/MG,-21.145833,-43.776389,528,7563.38633
D1,Alfredo Vasconcelos/MG,-21.145833,-43.776389,12,171.89514
1,Alfredo Wagner/SC,-27.6961513,-49.3326734,874,8665.47690
D1,Alfredo Wagner/SC,-27.6961513,-49.3326734,7,69.40313
1,Algodão de Jandaíra/PB,-6.9040175,-36.0089879,211,8187.81529
D1,Algodão de Jandaíra/PB,-6.9040175,-36.0089879,1,38.80481
1,Alhandra/PB,-7.4304246,-34.9106103,2304,11679.42414
D1,Alhandra/PB,-7.4304246,-34.9106103,35,177.42181
1,Aliança do Tocantins/TO,-11.3055927,-48.9409096,615,11503.92817
D1,Aliança do Tocantins/TO,-11.3055927,-48.9409096,20,374.11149
1,Aliança/PE,-7.60398,-35.222696,642,1672.00563
D1,Aliança/PE,-7.60398,-35.222696,60,156.26221
1,Almadina/BA,-14.70466,-39.6381994,614,11442.41521
D1,Almadina/BA,-14.70466,-39.6381994,9,167.72270
1,Almas/TO,-11.5681309,-47.1702803,236,3381.57329
D1,Almas/TO,-11.5681309,-47.1702803,5,71.64350
1,Almeirim/PA,-1.5290377,-52.5788111,3673,10778.84728
D1,Almeirim/PA,-1.5290377,-52.5788111,44,129.12314
1,Almenara/MG,-16.1740678,-40.6904907,3789,8990.81698
D1,Almenara/MG,-16.1740678,-40.6904907,46,109.15217
1,Almino Afonso/RN,-6.1544208,-37.7649018,506,10743.09979
D1,Almino Afonso/RN,-6.1544208,-37.7649018,12,254.77707
1,Almirante Tamandaré do Sul/RS,-28.1141129,-52.9134874,322,16521.29297
D1,Almirante Tamandaré do Sul/RS,-28.1141129,-52.9134874,5,256.54182
1,Almirante Tamandaré/PR,-25.3133048,-49.2997838,9808,8170.54173
D1,Almirante Tamandaré/PR,-25.3133048,-49.2997838,359,299.06449
1,Aloândia/GO,-17.7277983,-49.4809338,277,13947.63343
D1,Aloândia/GO,-17.7277983,-49.4809338,9,453.17221
1,Alpercata/MG,-18.9803616,-41.9827637,482,6481.97956
D1,Alpercata/MG,-18.9803616,-41.9827637,19,255.51372
1,Alpestre/RS,-27.2512339,-53.0349646,396,6527.11389
D1,Alpestre/RS,-27.2512339,-53.0349646,10,164.82611
1,Alpinópolis/MG,-20.863611,-46.387777,1341,6719.11013
D1,Alpinópolis/MG,-20.863611,-46.387777,35,175.36827
1,Alta Floresta D'Oeste/RO,-11.9296917,-61.9961284,3900,17159.45090
D1,Alta Floresta D'Oeste/RO,-11.9296917,-61.9961284,65,285.99085
1,Alta Floresta/MT,-9.8715018,-56.0839881,8768,16874.84363
D1,Alta Floresta/MT,-9.8715018,-56.0839881,126,242.49889
1,Altair/SP,-20.5238955,-49.0606135,218,5207.83564
D1,Altair/SP,-20.5238955,-49.0606135,12,286.66985
1,Altamira do Maranhão/MA,-4.1643006,-45.4674574,319,3895.46953
D1,Altamira do Maranhão/MA,-4.1643006,-45.4674574,12,146.53804
1,Altamira do Paraná/PR,-24.799114,-52.7128633,222,13198.57313
D1,Altamira do Paraná/PR,-24.799114,-52.7128633,10,594.53032
1,Altamira/PA,-3.204065,-52.209961,13627,11750.55403
D1,Altamira/PA,-3.204065,-52.209961,287,247.47993
1,Altaneira/CE,-6.9980933,-39.7385742,624,8156.86275
D1,Altaneira/CE,-6.9980933,-39.7385742,15,196.07843
1,Alterosa/MG,-21.249166,-46.143055,689,4746.15967
D1,Alterosa/MG,-21.249166,-46.143055,31,213.54274
1,Altinho/PE,-8.4904095,-36.0607494,1268,5516.88131
D1,Altinho/PE,-8.4904095,-36.0607494,25,108.77132
1,Altinópolis/SP,-21.021364,-47.3712,818,5048.44782
D1,Altinópolis/SP,-21.021364,-47.3712,41,253.03956
1,Alto Alegre do Maranhão/MA,-4.2055693,-44.4525287,1177,4224.99821
D1,Alto Alegre do Maranhão/MA,-4.2055693,-44.4525287,27,96.92009
1,Alto Alegre do Pindaré/MA,-3.6698186,-45.8462153,2055,6433.33438
D1,Alto Alegre do Pindaré/MA,-3.6698186,-45.8462153,45,140.87594
1,Alto Alegre dos Parecis/RO,-12.1314515,-61.856265,1444,10894.00226
D1,Alto Alegre dos Parecis/RO,-12.1314515,-61.856265,44,331.95021
1,Alto Alegre/RR,2.98858,-61.307167,1422,9245.77373
D1,Alto Alegre/RR,2.98858,-61.307167,32,208.06242
1,Alto Alegre/RS,-31.780844700000003,-52.81311114489171,197,12213.26720
D1,Alto Alegre/RS,-31.780844700000003,-52.81311114489171,1,61.99628
1,Alto Alegre/SP,-21.5820592,-50.1661976,351,8586.10568
D1,Alto Alegre/SP,-21.5820592,-50.1661976,20,489.23679
1,Alto Araguaia/MT,-17.3156528,-53.2169365,1298,6695.89889
D1,Alto Araguaia/MT,-17.3156528,-53.2169365,24,123.80707
1,Alto Bela Vista/SC,-27.4320737,-51.905771,183,9501.55763
D1,Alto Bela Vista/SC,-27.4320737,-51.905771,3,155.76324
1,Alto Boa Vista/MT,-11.6723985,-51.3744431,770,11101.49942
D1,Alto Boa Vista/MT,-11.6723985,-51.3744431,14,201.84544
1,Alto Caparaó/MG,-20.4405661,-41.8683799,396,6718.69698
D1,Alto Caparaó/MG,-20.4405661,-41.8683799,9,152.69766
1,Alto Feliz/RS,-29.3785943,-51.3123751,264,8695.65217
D1,Alto Feliz/RS,-29.3785943,-51.3123751,2,65.87615
1,Alto Garças/MT,-16.9469683,-53.529427,869,7151.67476
D1,Alto Garças/MT,-16.9469683,-53.529427,39,320.96124
1,Alto Horizonte/GO,-14.1954948,-49.3366993,877,13277.81983
D1,Alto Horizonte/GO,-14.1954948,-49.3366993,10,151.40045
1,Alto Jequitibá/MG,-20.423611,-41.966111,768,9251.89736
D1,Alto Jequitibá/MG,-20.423611,-41.966111,10,120.46741
1,Alto Longá/PI,-5.2549051,-42.2072388,640,4463.35170
D1,Alto Longá/PI,-5.2549051,-42.2072388,14,97.63582
1,Alto Paraguai/MT,-14.513712,-56.4936374,888,7739.91110
D1,Alto Paraguai/MT,-14.513712,-56.4936374,28,244.05125
1,Alto Paraná/PR,-23.131247,-52.318893,1156,7779.79676
D1,Alto Paraná/PR,-23.131247,-52.318893,24,161.51827
1,Alto Paraíso de Goiás/GO,-14.1304779,-47.5100161,650,8454.73465
D1,Alto Paraíso de Goiás/GO,-14.1304779,-47.5100161,8,104.05827
1,Alto Paraíso/PR,-23.508137,-53.728537,280,10428.30540
D1,Alto Paraíso/PR,-23.508137,-53.728537,5,186.21974
1,Alto Paraíso/RO,-9.7240103,-63.3188123,1808,8275.73580
D1,Alto Paraíso/RO,-9.7240103,-63.3188123,48,219.70980
1,Alto Parnaíba/MA,-9.112506,-45.9310154,881,7857.65252
D1,Alto Parnaíba/MA,-9.112506,-45.9310154,10,89.19015
1,Alto Piquiri/PR,-24.0239021,-53.4417448,984,10063.40765
D1,Alto Piquiri/PR,-24.0239021,-53.4417448,23,235.22193
1,Alto Rio Doce/MG,-21.0239537,-43.4133507,441,4061.14744
D1,Alto Rio Doce/MG,-21.0239537,-43.4133507,27,248.64168
1,Alto Rio Novo/ES,-19.0577208,-41.0171518,711,9029.71806
D1,Alto Rio Novo/ES,-19.0577208,-41.0171518,22,279.40056
1,Alto Santo/CE,-5.5190371,-38.2719351,1848,10746.68528
D1,Alto Santo/CE,-5.5190371,-38.2719351,30,174.45918
1,Alto Taquari/MT,-17.8269099,-53.2831736,1468,13186.02353
D1,Alto Taquari/MT,-17.8269099,-53.2831736,27,242.52223
1,Alto do Rodrigues/RN,-5.290868,-36.7616726,2455,16668.92993
D1,Alto do Rodrigues/RN,-5.290868,-36.7616726,37,251.22216
1,Altos/PI,-5.0393915,-42.4611694,4365,10749.90765
D1,Altos/PI,-5.0393915,-42.4611694,89,219.18483
1,Altônia/PR,-23.8722004,-53.894037,1186,5348.12410
D1,Altônia/PR,-23.8722004,-53.894037,23,103.71573
1,Alumínio/SP,-23.5203479,-47.2575256,1473,7848.88368
D1,Alumínio/SP,-23.5203479,-47.2575256,42,223.79709
1,Alvarenga/MG,-19.4175,-41.728334,478,12434.96358
D1,Alvarenga/MG,-19.4175,-41.728334,4,104.05827
1,Alvarães/AM,-3.214786,-64.8143124,2870,17694.20469
D1,Alvarães/AM,-3.214786,-64.8143124,46,283.60049
1,Alvinlândia/SP,-22.4431852,-49.7643596,138,4263.20667
D1,Alvinlândia/SP,-22.4431852,-49.7643596,8,247.14242
1,Alvinópolis/MG,-20.1105199,-43.0601805,674,4443.27246
D1,Alvinópolis/MG,-20.1105199,-43.0601805,21,138.44024
1,Alvorada D'Oeste/RO,-11.346271,-62.284697,1096,7769.74337
D1,Alvorada D'Oeste/RO,-11.346271,-62.284697,29,205.58628
1,Alvorada de Minas/MG,-18.7318587,-43.3641479,269,7461.85853
D1,Alvorada de Minas/MG,-18.7318587,-43.3641479,3,83.21775
1,Alvorada do Gurguéia/PI,-8.4465288,-43.8655915,420,7713.49862
D1,Alvorada do Gurguéia/PI,-8.4465288,-43.8655915,10,183.65473
1,Alvorada do Norte/GO,-14.483911,-46.4959897,754,8661.68868
D1,Alvorada do Norte/GO,-14.483911,-46.4959897,7,80.41356
1,Alvorada do Sul/PR,-22.7807269,-51.2307721,841,7311.13623
D1,Alvorada do Sul/PR,-22.7807269,-51.2307721,24,208.64122
1,Alvorada/RS,-29.9981184,-51.0772509,20372,9638.89625
D1,Alvorada/RS,-29.9981184,-51.0772509,729,344.92222
1,Alvorada/TO,-12.478465,-49.124926,1150,13696.99857
D1,Alvorada/TO,-12.478465,-49.124926,20,238.20867
1,Além Paraíba/MG,-21.8760576,-42.6810473,3160,8926.30152
D1,Além Paraíba/MG,-21.8760576,-42.6810473,143,403.94339
1,Amajari/RR,3.6523869,-61.4194315,1029,7804.32309
D1,Amajari/RR,3.6523869,-61.4194315,20,151.68752
1,Amambai/MS,-23.1082701,-55.2284854,3065,7695.97750
D1,Amambai/MS,-23.1082701,-55.2284854,74,185.80827
1,Amaporã/PR,-23.094272,-52.786597,393,6206.56980
D1,Amaporã/PR,-23.094272,-52.786597,7,110.54959
1,Amapá do Maranhão/MA,-1.6762114,-46.0109669,172,2455.38901
D1,Amapá do Maranhão/MA,-1.6762114,-46.0109669,6,85.65310
1,Amapá/AP,2.0529997,-50.7930003,1334,14520.51812
D1,Amapá/AP,2.0529997,-50.7930003,10,108.84946
1,Amaraji/PE,-8.373925,-35.4536527,599,2619.15173
D1,Amaraji/PE,-8.373925,-35.4536527,36,157.41146
1,Amaral Ferrador/RS,-30.8750633,-52.2542051,294,4149.61186
D1,Amaral Ferrador/RS,-30.8750633,-52.2542051,7,98.80028
1,Amaralina/GO,-13.9236199,-49.2962411,94,2444.73342
D1,Amaralina/GO,-13.9236199,-49.2962411,1,26.00780
1,Amarante do Maranhão/MA,-5.56913,-46.747284,1585,3798.31772
D1,Amarante do Maranhão/MA,-5.56913,-46.747284,53,127.00999
1,Amarante/PI,-6.2459374,-42.8476238,1514,8600.31811
D1,Amarante/PI,-6.2459374,-42.8476238,34,193.13792
1,Amargosa/BA,-13.03793715,-39.60796443875596,2810,7505.14142
D1,Amargosa/BA,-13.03793715,-39.60796443875596,52,138.88518
1,Amaturá/AM,-3.3640509,-68.1994689,2354,20057.94138
D1,Amaturá/AM,-3.3640509,-68.1994689,17,144.85344
1,Americana/SP,-22.7392463,-47.3306032,22470,9284.43339
D1,Americana/SP,-22.7392463,-47.3306032,699,288.82149
1,Americano do Brasil/GO,-16.2515808,-49.9806104,753,12216.09345
D1,Americano do Brasil/GO,-16.2515808,-49.9806104,22,356.91110
1,Ametista do Sul/RS,-27.3617341,-53.1826575,766,10347.15656
D1,Ametista do Sul/RS,-27.3617341,-53.1826575,20,270.16075
1,Amontada/CE,-3.3634586,-39.8284791,2869,6545.89427
D1,Amontada/CE,-3.3634586,-39.8284791,54,123.20610
1,Amorinópolis/GO,-16.6211308,-51.0949921,251,8178.55979
D1,Amorinópolis/GO,-16.6211308,-51.0949921,4,130.33561
1,Amparo de São Francisco/SE,-10.1299754,-36.9269099,253,10630.25210
D1,Amparo de São Francisco/SE,-10.1299754,-36.9269099,5,210.08403
1,Amparo do Serra/MG,-20.5070255,-42.8028462,150,3206.49850
D1,Amparo do Serra/MG,-20.5070255,-42.8028462,8,171.01325
1,Amparo/PB,-7.56394725,-37.04652873235175,163,7241.22612
D1,Amparo/PB,-7.56394725,-37.04652873235175,4,177.69880
1,Amparo/SP,-22.70111,-46.76444,6488,8927.17091
D1,Amparo/SP,-22.70111,-46.76444,133,183.00150
1,Ampére/PR,-25.9168712,-53.4742414,2130,11029.98291
D1,Ampére/PR,-25.9168712,-53.4742414,46,238.20620
1,Amélia Rodrigues/BA,-12.4015388,-38.7516971,2272,9070.58448
D1,Amélia Rodrigues/BA,-12.4015388,-38.7516971,45,179.65506
1,América Dourada/BA,-11.4515262,-41.4357517,916,5692.97700
D1,América Dourada/BA,-11.4515262,-41.4357517,12,74.58048
1,Américo Brasiliense/SP,-21.7297099,-48.1052092,3797,9253.75317
D1,Américo Brasiliense/SP,-21.7297099,-48.1052092,88,214.46676
1,Américo de Campos/SP,-20.298476,-49.735904,990,16552.41598
D1,Américo de Campos/SP,-20.298476,-49.735904,27,451.42953
1,Anadia/AL,-9.6830208,-36.3052699,1413,8062.30743
D1,Anadia/AL,-9.6830208,-36.3052699,29,165.46845
1,Anagé/BA,-14.6134669,-41.1376308,876,4054.24168
D1,Anagé/BA,-14.6134669,-41.1376308,21,97.19073
1,Anahy/PR,-24.6450861,-53.1337957,355,12733.14204
D1,Anahy/PR,-24.6450861,-53.1337957,9,322.81205
1,Anajatuba/MA,-3.26441,-44.6179916,952,3527.49370
D1,Anajatuba/MA,-3.26441,-44.6179916,23,85.22306
1,Anajás/PA,-0.9878802,-49.9390114,1358,4574.23875
D1,Anajás/PA,-0.9878802,-49.9390114,22,74.10402
1,Analândia/SP,-22.128917,-47.661939,320,6329.11392
D1,Analândia/SP,-22.128917,-47.661939,4,79.11392
1,Anamã/AM,-3.5797356,-61.4049996,1794,12854.68616
D1,Anamã/AM,-3.5797356,-61.4049996,9,64.48839
1,Ananindeua/PA,-1.374035,-48.4016623,24462,4567.66633
D1,Ananindeua/PA,-1.374035,-48.4016623,804,150.12688
1,Ananás/TO,-6.3663053,-48.080238,1559,16424.35735
D1,Ananás/TO,-6.3663053,-48.080238,24,252.84450
1,Anapu/PA,-3.4668292,-51.2057035,1628,5690.91481
D1,Anapu/PA,-3.4668292,-51.2057035,38,132.83462
1,Anapurus/MA,-3.6751298,-43.1046001,829,5215.80471
D1,Anapurus/MA,-3.6751298,-43.1046001,12,75.50019
1,Anastácio/MS,-20.4832458,-55.8048448,2418,9581.17050
D1,Anastácio/MS,-20.4832458,-55.8048448,72,285.29540
1,Anaurilândia/MS,-22.185169,-52.719056,538,5927.72146
D1,Anaurilândia/MS,-22.185169,-52.719056,14,154.25297
1,Anchieta/ES,-20.8057672,-40.6454564,4799,16115.38332
D1,Anchieta/ES,-20.8057672,-40.6454564,86,288.79412
1,Anchieta/SC,-26.5350527,-53.3293938,656,11804.93072
D1,Anchieta/SC,-26.5350527,-53.3293938,9,161.95789
1,Andaraí/BA,-12.8059674,-41.3322919,887,6754.49284
D1,Andaraí/BA,-12.8059674,-41.3322919,10,76.14986
1,Andirá/PR,-23.0494761,-50.2310027,2306,11572.81943
D1,Andirá/PR,-23.0494761,-50.2310027,75,376.39265
1,Andorinha/BA,-10.3445708,-39.8334411,910,6274.56388
D1,Andorinha/BA,-10.3445708,-39.8334411,17,117.21713
1,Andradas/MG,-22.0680484,-46.5688976,3743,9041.93642
D1,Andradas/MG,-22.0680484,-46.5688976,110,265.72616
1,Andradina/SP,-20.896505,-51.3742765,6103,10669.20737
D1,Andradina/SP,-20.896505,-51.3742765,253,442.29223
1,Andrelândia/MG,-21.739722,-44.308889,206,1687.69458
D1,Andrelândia/MG,-21.739722,-44.308889,11,90.11961
1,André da Rocha/RS,-28.6309124,-51.5733328,113,8413.99851
1,Angatuba/SP,-23.4938938,-48.4110675,2616,10267.27894
D1,Angatuba/SP,-23.4938938,-48.4110675,64,251.18725
1,Angelim/PE,-8.8902038,-36.2872987,219,1950.82843
D1,Angelim/PE,-8.8902038,-36.2872987,9,80.17103
1,Angelina/SC,-27.5805287,-48.9838759,517,10900.27409
D1,Angelina/SC,-27.5805287,-48.9838759,2,42.16740
1,Angelândia/MG,-17.7253,-42.2728,170,1986.67757
D1,Angelândia/MG,-17.7253,-42.2728,1,11.68634
1,Angical do Piauí/PI,-6.0872666,-42.7366138,827,12192.24532
D1,Angical do Piauí/PI,-6.0872666,-42.7366138,12,176.91287
1,Angical/BA,-12.005623,-44.7000236,672,4821.35170
D1,Angical/BA,-12.005623,-44.7000236,15,107.61946
1,Angico/TO,-6.3893733,-47.8656722,234,6774.75391
D1,Angico/TO,-6.3893733,-47.8656722,3,86.85582
1,Angicos/RN,-5.6666344,-36.6009064,1070,9141.39257
D1,Angicos/RN,-5.6666344,-36.6009064,21,179.41051
1,Angra dos Reis/RJ,-23.0063966,-44.316326,13933,6729.48745
D1,Angra dos Reis/RJ,-23.0063966,-44.316326,481,232.31777
1,Anguera/BA,-12.1509425,-39.2452469,461,4080.72940
D1,Anguera/BA,-12.1509425,-39.2452469,2,17.70382
1,Angélica/MS,-22.1588196,-53.7728504,1274,11653.86023
D1,Angélica/MS,-22.1588196,-53.7728504,19,173.80168
1,Anhanguera/GO,-18.3338749,-48.220363,90,7758.62069
D1,Anhanguera/GO,-18.3338749,-48.220363,6,517.24138
1,Anhembi/SP,-22.7891096,-48.1316776,263,3856.87051
D1,Anhembi/SP,-22.7891096,-48.1316776,6,87.98944
1,Anhumas/SP,-22.2956478,-51.3873401,218,5260.61776
D1,Anhumas/SP,-22.2956478,-51.3873401,7,168.91892
1,Anicuns/GO,-16.4606451,-49.9572265,2848,12956.64437
D1,Anicuns/GO,-16.4606451,-49.9572265,64,291.16055
1,Anita Garibaldi/SC,-27.6855032,-51.1293873,1172,16846.34181
D1,Anita Garibaldi/SC,-27.6855032,-51.1293873,11,158.11413
1,Anitápolis/SC,-27.9041185,-49.1287395,335,10377.94300
D1,Anitápolis/SC,-27.9041185,-49.1287395,4,123.91574
1,Anori/AM,-3.7435254,-61.6605203,1887,8786.14332
D1,Anori/AM,-3.7435254,-61.6605203,31,144.34046
1,Anta Gorda/RS,-28.9718745,-52.0069187,610,10233.18235
D1,Anta Gorda/RS,-28.9718745,-52.0069187,4,67.10284
1,Antas/BA,-10.4114649,-38.3308815,1309,6720.05750
D1,Antas/BA,-10.4114649,-38.3308815,11,56.47107
1,Antonina do Norte/CE,-6.7754187,-39.9879345,733,9934.94172
D1,Antonina do Norte/CE,-6.7754187,-39.9879345,26,352.39902
1,Antonina/PR,-25.4298854,-48.7125431,2507,13230.24962
D1,Antonina/PR,-25.4298854,-48.7125431,65,343.02602
1,Antônio Almeida/PI,-7.2186016,-44.1950248,406,12807.57098
D1,Antônio Almeida/PI,-7.2186016,-44.1950248,10,315.45741
1,Antônio Cardoso/BA,-12.4363122,-39.1200307,531,4547.40087
D1,Antônio Cardoso/BA,-12.4363122,-39.1200307,11,94.20228
1,Antônio Carlos/MG,-21.318334,-43.746666,708,6178.54961
D1,Antônio Carlos/MG,-21.318334,-43.746666,16,139.62824
1,Antônio Carlos/SC,-27.5168462,-48.7684715,1586,18414.02531
D1,Antônio Carlos/SC,-27.5168462,-48.7684715,25,290.25891
1,Antônio Dias/MG,-19.6525,-42.872778,571,6156.33423
D1,Antônio Dias/MG,-19.6525,-42.872778,24,258.76011
1,Antônio Gonçalves/BA,-10.5715409,-40.2748824,865,7282.37077
D1,Antônio Gonçalves/BA,-10.5715409,-40.2748824,9,75.77033
1,Antônio João/MS,-22.1892837,-55.9508227,519,5753.88027
D1,Antônio João/MS,-22.1892837,-55.9508227,13,144.12417
1,Antônio Martins/RN,-6.2155812,-37.8890129,658,9197.65166
D1,Antônio Martins/RN,-6.2155812,-37.8890129,6,83.86916
1,Antônio Olinto/PR,-25.9849006,-50.1974516,513,6907.23038
D1,Antônio Olinto/PR,-25.9849006,-50.1974516,11,148.10825
1,Antônio Prado de Minas/MG,-21.0171988,-42.1101106,160,10081.91556
D1,Antônio Prado de Minas/MG,-21.0171988,-42.1101106,5,315.05986
1,Antônio Prado/RS,-28.8567806,-51.2801355,2644,20268.30203
D1,Antônio Prado/RS,-28.8567806,-51.2801355,29,222.30740
1,Anápolis/GO,-16.3332828,-48.9525756,39328,10038.49178
D1,Anápolis/GO,-16.3332828,-48.9525756,1439,367.30547
1,Anísio de Abreu/PI,-9.185643,-43.04941,290,2918.09217
D1,Anísio de Abreu/PI,-9.185643,-43.04941,12,120.74864
1,Aparecida d'Oeste/SP,-20.4498109,-50.8808706,728,17508.41751
D1,Aparecida d'Oeste/SP,-20.4498109,-50.8808706,13,312.65031
1,Aparecida de Goiânia/GO,-16.8226769,-49.2452546,69093,11707.78079
D1,Aparecida de Goiânia/GO,-16.8226769,-49.2452546,1433,242.82127
1,Aparecida do Rio Doce/GO,-18.2980167,-51.1491312,236,9539.20776
D1,Aparecida do Rio Doce/GO,-18.2980167,-51.1491312,4,161.68149
1,Aparecida do Rio Negro/TO,-9.9513491,-47.9773786,341,7033.82838
D1,Aparecida do Rio Negro/TO,-9.9513491,-47.9773786,9,185.64356
1,Aparecida do Taboado/MS,-20.0840304,-51.1013943,3562,13663.73854
D1,Aparecida do Taboado/MS,-20.0840304,-51.1013943,53,203.30661
1,Aparecida/PB,-6.7859598, -38.0831353,924,10979.08745
D1,Aparecida/PB,-6.7859598, -38.0831353,13,154.46768
1,Aparecida/SP,-22.851552,-45.2340924,2245,6204.22827
D1,Aparecida/SP,-22.851552,-45.2340924,93,257.01257
1,Aperibé/RJ,-21.6211928,-42.1028167,576,4839.92942
D1,Aperibé/RJ,-21.6211928,-42.1028167,27,226.87169
1,Apiacá/ES,-21.152272,-41.569297,826,10934.60418
D1,Apiacá/ES,-21.152272,-41.569297,33,436.85465
1,Apiacás/MT,-9.5678422,-57.394852,1759,17105.90295
D1,Apiacás/MT,-9.5678422,-57.394852,16,155.59662
1,Apiaí/SP,-24.5076527,-48.8461582,1394,5754.14844
D1,Apiaí/SP,-24.5076527,-48.8461582,72,297.20135
1,Apicum-Açu/MA,-1.5279295,-45.082278,513,2946.07477
D1,Apicum-Açu/MA,-1.5279295,-45.082278,5,28.71418
1,Apiúna/SC,-27.0374658,-49.3885037,823,7586.65192
D1,Apiúna/SC,-27.0374658,-49.3885037,15,138.27434
1,Apodi/RN,-5.6631109,-37.796927,6316,17606.06567
D1,Apodi/RN,-5.6631109,-37.796927,95,264.81574
1,Aporá/BA,-11.6599747,-38.0794757,559,3142.56802
D1,Aporá/BA,-11.6599747,-38.0794757,19,106.81358
1,Aporé/GO,-18.9642193,-51.92804,361,8530.24575
D1,Aporé/GO,-18.9642193,-51.92804,10,236.29490
1,Apuarema/BA,-13.8517897,-39.7457126,696,9531.63517
D1,Apuarema/BA,-13.8517897,-39.7457126,9,123.25390
1,Apucarana/PR,-23.5525327,-51.4610764,10085,7402.70417
D1,Apucarana/PR,-23.5525327,-51.4610764,401,294.34649
1,Apuiarés/CE,-3.9460303,-39.4313298,1234,8410.57797
D1,Apuiarés/CE,-3.9460303,-39.4313298,25,170.39258
1,Apuí/AM,-7.1940195,-59.8830192,1410,6306.18543
D1,Apuí/AM,-7.1940195,-59.8830192,31,138.64663
1,Aquidabã/SE,-10.2837579,-37.0188687,2262,10433.09810
D1,Aquidabã/SE,-10.2837579,-37.0188687,39,179.88100
1,Aquidauana/MS,-20.473969,-55.7821375,5290,11014.17893
D1,Aquidauana/MS,-20.473969,-55.7821375,147,306.06509
1,Aquiraz/CE,-3.9063117,-38.387504,6484,8011.36715
D1,Aquiraz/CE,-3.9063117,-38.387504,86,106.25811
1,Arabutã/SC,-27.1587028,-52.1438142,419,9819.54535
D1,Arabutã/SC,-27.1587028,-52.1438142,8,187.48535
1,Aracaju/SE,-10.9162061,-37.0774655,121014,18200.11190
D1,Aracaju/SE,-10.9162061,-37.0774655,2324,349.52204
1,Aracati/CE,-4.558259,-37.767894,7742,10326.10870
D1,Aracati/CE,-4.558259,-37.767894,157,209.40313
1,Aracatu/BA,-14.4274236,-41.4604105,799,6124.95209
D1,Aracatu/BA,-14.4274236,-41.4604105,15,114.98658
1,Araci/BA,-11.3356065,-38.9573261,3494,6393.64661
D1,Araci/BA,-11.3356065,-38.9573261,47,86.00498
1,Aracitaba/MG,-21.3425,-43.378611,87,4225.35211
D1,Aracitaba/MG,-21.3425,-43.378611,8,388.53813
1,Aracoiaba/CE,-4.3702577,-38.8084313,4103,15462.59657
D1,Aracoiaba/CE,-4.3702577,-38.8084313,32,120.59544
1,Aracruz/ES,-19.8245218,-40.2735025,15893,15414.98143
D1,Aracruz/ES,-19.8245218,-40.2735025,223,216.29276
1,Aragarças/GO,-15.8957166,-52.2514538,2550,12578.30612
D1,Aragarças/GO,-15.8957166,-52.2514538,58,286.09481
1,Aragoiânia/GO,-16.9146388,-49.4499148,1044,9946.64634
D1,Aragoiânia/GO,-16.9146388,-49.4499148,21,200.07622
1,Aragominas/TO,-7.1654101,-48.525488,539,9404.99040
D1,Aragominas/TO,-7.1654101,-48.525488,9,157.04066
1,Araguacema/TO,-8.8067391,-49.5560969,657,9182.38994
D1,Araguacema/TO,-8.8067391,-49.5560969,13,181.69113
1,Araguaiana/MT,-15.729144,-51.834112,331,10646.51013
D1,Araguaiana/MT,-15.729144,-51.834112,6,192.98810
1,Araguainha/MT,-16.857016,-53.031778,29,3065.53911
1,Araguanã/MA,-2.9508403,-45.6651986,806,5182.94643
D1,Araguanã/MA,-2.9508403,-45.6651986,5,32.15227
1,Araguanã/TO,-6.5799107,-48.6428482,555,9580.52822
D1,Araguanã/TO,-6.5799107,-48.6428482,14,241.67098
1,Araguapaz/GO,-15.0937927,-50.626417,598,7683.41257
D1,Araguapaz/GO,-15.0937927,-50.626417,21,269.81884
1,Araguari/MG,-18.6511256,-48.1933764,15628,13263.73860
D1,Araguari/MG,-18.6511256,-48.1933764,394,334.39423
1,Araguatins/TO,-5.6522925,-48.1158973,2397,6627.03898
D1,Araguatins/TO,-5.6522925,-48.1158973,62,171.41277
1,Araguaçu/TO,-12.928934,-49.823134,841,9932.67982
D1,Araguaçu/TO,-12.928934,-49.823134,19,224.40061
1,Araguaína/TO,-7.193241,-48.2018597,33935,18505.18865
D1,Araguaína/TO,-7.193241,-48.2018597,465,253.57044
1,Araioses/MA,-2.890914,-41.904993,655,1400.44044
D1,Araioses/MA,-2.890914,-41.904993,14,29.93308
1,Aral Moreira/MS,-22.951141,-55.6268421,529,4289.65294
D1,Aral Moreira/MS,-22.951141,-55.6268421,11,89.19883
1,Aramari/BA,-12.0907897,-38.4985065,607,5296.22197
D1,Aramari/BA,-12.0907897,-38.4985065,12,104.70291
1,Arambaré/RS,-30.9132252,-51.4994625,180,5053.34082
D1,Arambaré/RS,-30.9132252,-51.4994625,8,224.59293
1,Arame/MA,-4.8858769,-46.0102484,1554,4743.01062
D1,Arame/MA,-4.8858769,-46.0102484,38,115.98095
1,Aramina/SP,-20.0876144,-47.789201,318,5623.34218
D1,Aramina/SP,-20.0876144,-47.789201,17,300.61892
1,Arandu/SP,-23.1345103,-49.0545651,518,8138.25609
D1,Arandu/SP,-23.1345103,-49.0545651,13,204.24195
1,Arantina/MG,-21.911667,-44.255833,156,5597.41658
D1,Arantina/MG,-21.911667,-44.255833,3,107.64263
1,Arapeí/SP,-22.6738889,-44.4477778,218,8861.78862
D1,Arapeí/SP,-22.6738889,-44.4477778,3,121.95122
1,Arapiraca/AL,-9.754866,-36.661471,29123,12496.62085
D1,Arapiraca/AL,-9.754866,-36.661471,458,196.52688
1,Arapoema/TO,-7.6575001,-49.0641484,491,7421.40266
D1,Arapoema/TO,-7.6575001,-49.0641484,11,166.26360
1,Araponga/MG,-20.666667,-42.520556,515,6092.51153
D1,Araponga/MG,-20.666667,-42.520556,7,82.81084
1,Arapongas/PR,-23.415296,-51.42592,13649,10935.82245
D1,Arapongas/PR,-23.415296,-51.42592,485,388.59066
1,Araporã/MG,-18.4318188,-49.188313,1906,27499.63930
D1,Araporã/MG,-18.4318188,-49.188313,28,403.98211
1,Arapoti/PR,-24.1457957,-49.8224605,2980,10530.03534
D1,Arapoti/PR,-24.1457957,-49.8224605,54,190.81272
1,Araputanga/MT,-15.4710868,-58.346796,1950,11503.74609
D1,Araputanga/MT,-15.4710868,-58.346796,54,318.56528
1,Arapuá/MG,-19.034444,-46.155556,270,9523.80952
D1,Arapuá/MG,-19.034444,-46.155556,2,70.54674
1,Arapuã/PR,-24.3079525,-51.7901941,216,7178.46461
D1,Arapuã/PR,-24.3079525,-51.7901941,5,166.16816
1,Araquari/SC,-26.3703324,-48.7210994,3560,9007.18551
D1,Araquari/SC,-26.3703324,-48.7210994,75,189.75812
1,Arara/PB,-6.8271895,-35.7605703,979,7229.36051
D1,Arara/PB,-6.8271895,-35.7605703,28,206.76414
1,Araranguá/SC,-28.9348832,-49.4858389,10404,15107.38089
D1,Araranguá/SC,-28.9348832,-49.4858389,238,345.59368
1,Araraquara/SP,-21.7886713,-48.1773096,21626,9073.63042
D1,Araraquara/SP,-21.7886713,-48.1773096,445,186.70885
1,Araras/SP,-22.3569477,-47.3838889,15925,11752.24713
D1,Araras/SP,-22.3569477,-47.3838889,350,258.29115
1,Ararendá/CE,-4.7504395,-40.8303611,1296,11825.89652
D1,Ararendá/CE,-4.7504395,-40.8303611,20,182.49840
1,Arari/MA,-3.4547602,-44.7772723,764,2552.45223
D1,Arari/MA,-3.4547602,-44.7772723,31,103.56809
1,Araricá/RS,-29.6168543,-50.929121,992,17189.39525
D1,Araricá/RS,-29.6168543,-50.929121,24,415.87247
1,Araripe/CE,-7.212861,-40.1359222,1325,6118.96185
D1,Araripe/CE,-7.212861,-40.1359222,20,92.36169
1,Araripina/PE,-7.5768582,-40.5038509,6723,7922.08710
D1,Araripina/PE,-7.5768582,-40.5038509,148,174.39668
1,Araruama/RJ,-22.8733203,-42.3428897,6118,4555.71028
D1,Araruama/RJ,-22.8733203,-42.3428897,419,312.00435
1,Araruna/PB,-6.5321155,-35.7397595,661,3230.22040
D1,Araruna/PB,-6.5321155,-35.7397595,16,78.18990
1,Araruna/PR,-23.9320308,-52.4976047,1989,14207.14286
D1,Araruna/PR,-23.9320308,-52.4976047,33,235.71429
1,Arataca/BA,-15.2617424,-39.4122943,776,7079.64602
D1,Arataca/BA,-15.2617424,-39.4122943,15,136.84883
1,Aratiba/RS,-27.3955734,-52.3024325,366,5913.71789
D1,Aratiba/RS,-27.3955734,-52.3024325,6,96.94619
1,Aratuba/CE,-4.4195958,-39.0463737,1444,12235.21437
D1,Aratuba/CE,-4.4195958,-39.0463737,8,67.78512
1,Aratuípe/BA,-13.077137,-39.0010786,437,4945.11712
D1,Aratuípe/BA,-13.077137,-39.0010786,9,101.84452
1,Araucária/PR,-25.5861107,-49.4051209,25552,17475.75472
D1,Araucária/PR,-25.5861107,-49.4051209,398,272.20376
1,Arauá/SE,-11.2644014,-37.6181058,1228,12345.43078
D1,Arauá/SE,-11.2644014,-37.6181058,20,201.06565
1,Araxá/MG,-19.5928536,-46.940241,12870,11990.27362
D1,Araxá/MG,-19.5928536,-46.940241,205,190.98726
1,Araçagi/PB,-6.8519969,-35.3835602,1489,8799.71633
D1,Araçagi/PB,-6.8519969,-35.3835602,19,112.28651
1,Araçariguama/SP,-23.438611,-47.061389,1791,7834.64567
D1,Araçariguama/SP,-23.438611,-47.061389,59,258.09274
1,Araçatuba/SP,-21.207992,-50.4390225,26063,13154.56092
D1,Araçatuba/SP,-21.207992,-50.4390225,780,393.68290
1,Araçaí/MG,-19.200833,-44.2475,72,3058.62362
D1,Araçaí/MG,-19.200833,-44.2475,1,42.48088
1,Araçoiaba da Serra/SP,-23.5045367,-47.6168158,2755,7922.13020
D1,Araçoiaba da Serra/SP,-23.5045367,-47.6168158,71,204.16379
1,Araçoiaba/PE,-7.7856903,-35.0898881,655,3159.21478
D1,Araçoiaba/PE,-7.7856903,-35.0898881,29,139.87363
1,Araçu/GO,-16.3561579,-49.6815269,425,12191.62364
D1,Araçu/GO,-16.3561579,-49.6815269,17,487.66495
1,Araçuaí/MG,-16.8484451,-42.0661868,1733,4720.52735
D1,Araçuaí/MG,-16.8484451,-42.0661868,45,122.57572
1,Araçás/BA,-12.2139176,-38.2026159,659,5398.09961
D1,Araçás/BA,-12.2139176,-38.2026159,13,106.48755
1,Araújos/MG,-19.948055,-45.165556,808,8594.83034
D1,Araújos/MG,-19.948055,-45.165556,11,117.00883
1,Arceburgo/MG,-21.364444,-46.939722,1148,10548.56198
D1,Arceburgo/MG,-21.364444,-46.939722,31,284.84793
1,Arco-Íris/SP,-21.7741308,-50.4668814,143,8065.42583
D1,Arco-Íris/SP,-21.7741308,-50.4668814,8,451.21263
1,Arcos/MG,-20.282223,-45.539444,5038,12476.47350
D1,Arcos/MG,-20.282223,-45.539444,110,272.41209
1,Arcoverde/PE,-8.415192,-37.057748,5887,7868.00674
D1,Arcoverde/PE,-8.415192,-37.057748,127,169.73617
1,Areado/MG,-21.3582771,-46.1476688,1045,6883.60451
D1,Areado/MG,-21.3582771,-46.1476688,20,131.74363
1,Areal/RJ,-22.2314922,-43.1056264,1307,10316.52064
D1,Areal/RJ,-22.2314922,-43.1056264,47,370.98429
1,Arealva/SP,-22.0301906,-48.9111936,947,10995.00755
D1,Arealva/SP,-22.0301906,-48.9111936,14,162.54499
1,Areia Branca/RN,-4.9506652,-37.1263312,2790,9976.04319
D1,Areia Branca/RN,-4.9506652,-37.1263312,93,332.53477
1,Areia Branca/SE,-10.7591455,-37.3148072,2053,10986.83506
D1,Areia Branca/SE,-10.7591455,-37.3148072,46,246.17361
1,Areia de Baraúnas/PB,-7.1233949,-36.9446216,196,9262.75992
D1,Areia de Baraúnas/PB,-7.1233949,-36.9446216,4,189.03592
1,Areia/PB,-6.9680243,-35.6994783,1684,7432.90960
D1,Areia/PB,-6.9680243,-35.6994783,27,119.17373
1,Areial/PB,-7.0501306,-35.9245244,351,4995.01921
D1,Areial/PB,-7.0501306,-35.9245244,10,142.30824
1,Areias/SP,-22.5800929,-44.6975127,321,8239.21971
D1,Areias/SP,-22.5800929,-44.6975127,1,25.66735
1,Areiópolis/SP,-22.6758064,-48.6673653,1275,11426.77899
D1,Areiópolis/SP,-22.6758064,-48.6673653,18,161.31923
1,Arenápolis/MT,-14.4610369,-56.8432806,1785,18785.51884
D1,Arenápolis/MT,-14.4610369,-56.8432806,33,347.29531
1,Arenópolis/GO,-16.3859286,-51.55937,209,8241.32492
D1,Arenópolis/GO,-16.3859286,-51.55937,8,315.45741
1,Argirita/MG,-21.612761,-42.8371922,259,9578.40237
D1,Argirita/MG,-21.612761,-42.8371922,7,258.87574
1,Aricanduva/MG,-17.8678,-42.5569,121,2296.45094
1,Arinos/MG,-15.917223,-46.106111,716,4008.50969
D1,Arinos/MG,-15.917223,-46.106111,22,123.16650
1,Aripuanã/MT,-10.175806,-59.4439663,2907,12798.27419
D1,Aripuanã/MT,-10.175806,-59.4439663,43,189.31056
1,Ariquemes/RO,-9.9076522,-63.033069,21746,19855.19023
D1,Ariquemes/RO,-9.9076522,-63.033069,466,425.48141
1,Ariranha do Ivaí/PR,-24.3834527,-51.5876772,181,8760.89061
D1,Ariranha do Ivaí/PR,-24.3834527,-51.5876772,3,145.20813
1,Ariranha/SP,-21.18716,-48.790418,919,9415.01895
D1,Ariranha/SP,-21.18716,-48.790418,23,235.63160
1,Armazém/SC,-28.2624996,-49.0190126,1397,15949.30928
D1,Armazém/SC,-28.2624996,-49.0190126,30,342.50485
1,Armação dos Búzios/RJ,-22.7597805,-41.8875267,4508,13075.38359
D1,Armação dos Búzios/RJ,-22.7597805,-41.8875267,57,165.32761
1,Arneiroz/CE,-6.3235099,-40.1603859,646,8235.59408
D1,Arneiroz/CE,-6.3235099,-40.1603859,16,203.97756
1,Aroazes/PI,-6.1108814,-41.7886137,585,10039.47143
D1,Aroazes/PI,-6.1108814,-41.7886137,12,205.93788
1,Aroeiras do Itaim/PI,-7.2797031,-41.5629681,126,4939.23951
D1,Aroeiras do Itaim/PI,-7.2797031,-41.5629681,2,78.40063
1,Aroeiras/PB,-7.5462904,-35.7080002,1699,8887.84264
D1,Aroeiras/PB,-7.5462904,-35.7080002,11,57.54342
1,Arraial do Cabo/RJ,-22.9662839,-42.024427,721,2356.74828
D1,Arraial do Cabo/RJ,-22.9662839,-42.024427,39,127.48014
1,Arraial/PI,-6.6541632,-42.5335332,155,3283.89831
D1,Arraial/PI,-6.6541632,-42.5335332,3,63.55932
1,Arraias/TO,-12.9287788,-46.9437231,929,8819.06208
D1,Arraias/TO,-12.9287788,-46.9437231,7,66.45149
1,Arroio Grande/RS,-32.2384246,-53.0866661,1862,10209.45279
D1,Arroio Grande/RS,-32.2384246,-53.0866661,52,285.11898
1,Arroio Trinta/SC,-26.9301976,-51.334928,605,17047.05551
D1,Arroio Trinta/SC,-26.9301976,-51.334928,13,366.30037
1,Arroio do Meio/RS,-29.4020392,-51.9444993,3058,14584.82377
D1,Arroio do Meio/RS,-29.4020392,-51.9444993,43,205.08418
1,Arroio do Padre/RS,-31.4428773,-52.4228985,221,7488.98678
D1,Arroio do Padre/RS,-31.4428773,-52.4228985,3,101.66045
1,Arroio do Sal/RS,-29.549852,-49.8874395,1109,10788.98726
D1,Arroio do Sal/RS,-29.549852,-49.8874395,36,350.22862
1,Arroio do Tigre/RS,-29.334158,-53.0888935,1184,8827.25714
D1,Arroio do Tigre/RS,-29.334158,-53.0888935,20,149.10907
1,Arroio dos Ratos/RS,-30.0894524,-51.7265541,997,7032.51746
D1,Arroio dos Ratos/RS,-30.0894524,-51.7265541,34,239.82507
1,Artur Nogueira/SP,-22.572737,-47.172679,4651,8404.40911
D1,Artur Nogueira/SP,-22.572737,-47.172679,117,211.42031
1,Aruanã/GO,-14.9162439,-51.0715692,534,5281.89911
D1,Aruanã/GO,-14.9162439,-51.0715692,13,128.58556
1,Arujá/SP,-23.396266,-46.3175449,7287,7993.90063
D1,Arujá/SP,-23.396266,-46.3175449,293,321.42348
1,Arvoredo/SC,-27.0752908,-52.4571847,302,13518.35273
D1,Arvoredo/SC,-27.0752908,-52.4571847,4,179.05103
1,Arvorezinha/RS,-28.87369,-52.17808,821,7876.81090
D1,Arvorezinha/RS,-28.87369,-52.17808,26,249.44834
1,Arês/RN,-6.1969216,-35.1642968,1119,7761.67025
D1,Arês/RN,-6.1969216,-35.1642968,24,166.47014
1,Ascurra/SC,-26.9569975,-49.3767752,1154,14464.77814
D1,Ascurra/SC,-26.9569975,-49.3767752,10,125.34470
1,Aspásia/SP,-20.160028,-50.728046,183,10066.00660
D1,Aspásia/SP,-20.160028,-50.728046,5,275.02750
1,Assaré/CE,-6.8746791,-39.8741385,2138,9106.39748
D1,Assaré/CE,-6.8746791,-39.8741385,42,178.89088
1,Assaí/PR,-23.3736041,-50.8454929,1342,8974.18751
D1,Assaí/PR,-23.3736041,-50.8454929,42,280.86131
1,Assis Brasil/AC,-10.9409203,-69.5672108,1752,23254.57924
D1,Assis Brasil/AC,-10.9409203,-69.5672108,24,318.55588
1,Assis Chateaubriand/PR,-24.4054826,-53.5120468,4397,13188.36233
D1,Assis Chateaubriand/PR,-24.4054826,-53.5120468,95,284.94301
1,Assis/SP,-22.6620892,-50.420623,10647,10131.60524
D1,Assis/SP,-22.6620892,-50.420623,373,354.94400
1,Assunção do Piauí/PI,-5.8610212,-41.0485091,331,4209.58922
D1,Assunção do Piauí/PI,-5.8610212,-41.0485091,8,101.74234
1,Assunção/PB,-7.073396,-36.7274003,401,9952.84190
D1,Assunção/PB,-7.073396,-36.7274003,5,124.10027
1,Astolfo Dutra/MG,-21.3132636,-42.8624102,1313,9201.12123
D1,Astolfo Dutra/MG,-21.3132636,-42.8624102,22,154.16959
1,Astorga/PR,-23.2350184,-51.6647074,3243,12373.61212
D1,Astorga/PR,-23.2350184,-51.6647074,75,286.16124
1,Atalaia do Norte/AM,-4.3658547,-70.1908742,2803,13741.54329
D1,Atalaia do Norte/AM,-4.3658547,-70.1908742,9,44.12197
1,Atalaia/AL,-9.5029595,-36.0219316,1163,2455.39956
D1,Atalaia/AL,-9.5029595,-36.0219316,47,99.22939
1,Atalaia/PR,-23.1513833,-52.0529697,439,11311.51765
D1,Atalaia/PR,-23.1513833,-52.0529697,18,463.79799
1,Atalanta/SC,-27.421916,-49.778863,444,13896.71362
D1,Atalanta/SC,-27.421916,-49.778863,11,344.28795
1,Ataléia/MG,-18.04432,-41.1110524,1112,8771.09954
D1,Ataléia/MG,-18.04432,-41.1110524,8,63.10144
1,Atibaia/SP,-23.1177393,-46.5547861,10685,7415.60713
D1,Atibaia/SP,-23.1177393,-46.5547861,246,170.72900
1,Atilio Vivacqua/ES,-20.9139369,-41.1947519,1486,12275.91904
D1,Atilio Vivacqua/ES,-20.9139369,-41.1947519,28,231.30938
1,Augustinópolis/TO,-5.4662267,-47.8897519,1505,8072.73507
D1,Augustinópolis/TO,-5.4662267,-47.8897519,27,144.82648
1,Augusto Corrêa/PA,-1.0229335,-46.6404029,1998,4299.45557
D1,Augusto Corrêa/PA,-1.0229335,-46.6404029,45,96.83459
1,Augusto Pestana/RS,-28.5148413,-53.9906433,738,11178.43078
D1,Augusto Pestana/RS,-28.5148413,-53.9906433,13,196.91003
1,Augusto de Lima/MG,-18.1092963,-44.2651945,273,5627.70563
D1,Augusto de Lima/MG,-18.1092963,-44.2651945,10,206.14306
1,Aurelino Leal/BA,-14.3167137,-39.3256107,992,8779.53801
D1,Aurelino Leal/BA,-14.3167137,-39.3256107,29,256.65988
1,Auriflama/SP,-20.6840418,-50.5554616,1892,12404.11722
D1,Auriflama/SP,-20.6840418,-50.5554616,68,445.81394
1,Aurilândia/GO,-16.6772599,-50.4641231,206,6736.42904
D1,Aurilândia/GO,-16.6772599,-50.4641231,7,228.90778
1,Aurora do Pará/PA,-2.1323199,-47.558436,1644,5174.20451
D1,Aurora do Pará/PA,-2.1323199,-47.558436,15,47.20990
1,Aurora do Tocantins/TO,-12.71045,-46.407604,188,4969.60085
D1,Aurora do Tocantins/TO,-12.71045,-46.407604,5,132.17024
1,Aurora/CE,-6.9426019,-38.9693765,1710,6948.39496
D1,Aurora/CE,-6.9426019,-38.9693765,37,150.34539
1,Aurora/SC,-27.3166417,-49.6368502,825,14516.98047
D1,Aurora/SC,-27.3166417,-49.6368502,15,263.94510
1,Autazes/AM,-3.5833283,-59.1301518,2867,7115.90966
D1,Autazes/AM,-3.5833283,-59.1301518,95,235.79052
1,Avanhandava/SP,-21.4603331,-49.9465156,975,7035.13962
D1,Avanhandava/SP,-21.4603331,-49.9465156,37,266.97453
1,Avaré/SP,-23.1045215,-48.9259103,10088,11057.52368
D1,Avaré/SP,-23.1045215,-48.9259103,228,249.91231
1,Avaí/SP,-22.1564662,-49.3316395,449,8259.74982
D1,Avaí/SP,-22.1564662,-49.3316395,12,220.75055
1,Aveiro/PA,-3.6049239,-55.3310742,809,4931.72397
D1,Aveiro/PA,-3.6049239,-55.3310742,12,73.15289
1,Avelino Lopes/PI,-10.1346855,-43.9489525,418,3690.62334
D1,Avelino Lopes/PI,-10.1346855,-43.9489525,19,167.75561
1,Avelinópolis/GO,-16.4672409,-49.7578661,302,12536.32213
D1,Avelinópolis/GO,-16.4672409,-49.7578661,14,581.15401
1,Axixá do Tocantins/TO,-5.612747,-47.77007,1028,10503.72944
D1,Axixá do Tocantins/TO,-5.612747,-47.77007,19,194.13508
1,Axixá/MA,-2.8379465,-44.0561053,191,1567.75835
D1,Axixá/MA,-2.8379465,-44.0561053,7,57.45711
1,Açailândia/MA,-4.9514278,-47.4844564,5404,4777.18549
D1,Açailândia/MA,-4.9514278,-47.4844564,215,190.06197
1,Açu/RN,-5.5836157,-36.9139541,7755,13282.74870
D1,Açu/RN,-5.5836157,-36.9139541,145,248.35571
1,Açucena/MG,-19.073056,-42.546666,775,8272.84372
D1,Açucena/MG,-19.073056,-42.546666,30,320.23911
1,Babaçulândia/TO,-7.2034355,-47.761613,819,7678.60491
D1,Babaçulândia/TO,-7.2034355,-47.761613,5,46.87793
1,Bacabal/MA,-4.2318132,-44.781167,5152,4916.49967
D1,Bacabal/MA,-4.2318132,-44.781167,186,177.49785
1,Bacabeira/MA,-2.9775747,-44.3155943,367,2127.28959
D1,Bacabeira/MA,-2.9775747,-44.3155943,9,52.16786
1,Bacuri/MA,-1.728894,-45.1417148,589,3157.49973
D1,Bacuri/MA,-1.728894,-45.1417148,4,21.44312
1,Bacurituba/MA,-2.7082587,-44.7381309,117,2063.49206
D1,Bacurituba/MA,-2.7082587,-44.7381309,2,35.27337
1,Bady Bassitt/SP,-20.9178969,-49.4517911,3635,20466.18997
D1,Bady Bassitt/SP,-20.9178969,-49.4517911,71,399.75227
1,Baependi/MG,-21.959162,-44.8899249,1458,7594.14553
D1,Baependi/MG,-21.959162,-44.8899249,12,62.50326
1,Bagre/PA,-1.8994498,-50.2103844,911,2908.22027
D1,Bagre/PA,-1.8994498,-50.2103844,12,38.30806
1,Bagé/RS,-31.3314264,-54.1062808,10384,8558.12420
D1,Bagé/RS,-31.3314264,-54.1062808,273,224.99691
1,Baianópolis/BA,-12.3067564,-44.5383591,843,6052.12147
D1,Baianópolis/BA,-12.3067564,-44.5383591,12,86.15120
1,Baixa Grande do Ribeiro/PI,-7.862861,-45.2113289,2525,21634.82135
D1,Baixa Grande do Ribeiro/PI,-7.862861,-45.2113289,31,265.61563
1,Baixa Grande/BA,-11.9630941,-40.1657537,767,3750.79466
D1,Baixa Grande/BA,-11.9630941,-40.1657537,13,63.57279
1,Baixio/CE,-6.7303544,-38.7170095,585,9281.29462
D1,Baixio/CE,-6.7303544,-38.7170095,12,190.38553
1,Baixo Guandu/ES,-19.5138322,-41.0182089,3493,11219.96659
D1,Baixo Guandu/ES,-19.5138322,-41.0182089,71,228.06116
1,Baião/PA,-2.7903479,-49.6702845,745,1537.38212
D1,Baião/PA,-2.7903479,-49.6702845,34,70.16241
1,Balbinos/SP,-21.9006253,-49.3583966,350,5898.21368
D1,Balbinos/SP,-21.9006253,-49.3583966,4,67.40816
1,Baldim/MG,-19.2913568,-43.9558262,632,8099.44893
D1,Baldim/MG,-19.2913568,-43.9558262,19,243.49609
1,Baliza/GO,-16.1978119,-52.542789,329,6231.06061
D1,Baliza/GO,-16.1978119,-52.542789,9,170.45455
1,Balneário Arroio do Silva/SC,-28.9815269,-49.4189932,2042,15204.76545
D1,Balneário Arroio do Silva/SC,-28.9815269,-49.4189932,55,409.53090
1,Balneário Barra do Sul/SC,-26.459842,-48.6061471,1408,12759.40190
D1,Balneário Barra do Sul/SC,-26.459842,-48.6061471,40,362.48301
1,Balneário Camboriú/SC,-26.9924395,-48.6339782,24278,16652.03435
D1,Balneário Camboriú/SC,-26.9924395,-48.6339782,363,248.97802
1,Balneário Gaivota/SC,-29.1553098,-49.5808712,1254,11136.76732
D1,Balneário Gaivota/SC,-29.1553098,-49.5808712,34,301.95382
1,Balneário Pinhal/RS,-30.2482978,-50.234585,715,4978.06865
D1,Balneário Pinhal/RS,-30.2482978,-50.234585,46,320.26735
1,Balneário Piçarras/SC,-26.7638889,-48.6716667,4752,19989.90409
D1,Balneário Piçarras/SC,-26.7638889,-48.6716667,54,227.15800
1,Balneário Rincão/SC,-28.8235718,-49.2241642,1394,10767.80473
D1,Balneário Rincão/SC,-28.8235718,-49.2241642,43,332.14893
1,Balsa Nova/PR,-25.5842234,-49.6312741,1593,12167.73602
D1,Balsa Nova/PR,-25.5842234,-49.6312741,28,213.87107
1,Balsas/MA,-7.53214,-46.037163,9991,10414.99442
D1,Balsas/MA,-7.53214,-46.037163,190,198.06315
1,Bambuí/MG,-20.0131996,-45.9777034,1652,6912.71236
D1,Bambuí/MG,-20.0131996,-45.9777034,25,104.61126
1,Banabuiú/CE,-5.3046404,-38.919766,2172,11897.45837
D1,Banabuiú/CE,-5.3046404,-38.919766,20,109.55302
1,Bananal/SP,-22.6828195,-44.3221095,959,8723.73328
D1,Bananal/SP,-22.6828195,-44.3221095,3,27.29009
1,Bananeiras/PB,-6.7537682,-35.6338343,1430,6723.40025
D1,Bananeiras/PB,-6.7537682,-35.6338343,25,117.54196
1,Bandeira do Sul/MG,-21.728056,-46.385555,568,9830.39114
D1,Bandeira do Sul/MG,-21.728056,-46.385555,12,207.68432
1,Bandeira/MG,-15.884444,-40.559167,454,9525.80781
D1,Bandeira/MG,-15.884444,-40.559167,9,188.83760
1,Bandeirante/SC,-26.7677402,-53.6397596,379,14312.68882
D1,Bandeirante/SC,-26.7677402,-53.6397596,4,151.05740
1,Bandeirantes do Tocantins/TO,-7.7635698,-48.579148,474,13195.99109
D1,Bandeirantes do Tocantins/TO,-7.7635698,-48.579148,8,222.71715
1,Bandeirantes/MS,-19.9179623,-54.3646768,584,8037.43463
D1,Bandeirantes/MS,-19.9179623,-54.3646768,10,137.62731
1,Bandeirantes/PR,-23.107788,-50.370407,4879,15632.30912
D1,Bandeirantes/PR,-23.107788,-50.370407,128,410.11182
1,Bannach/PA,-7.3508505,-50.4064531,648,19865.11343
D1,Bannach/PA,-7.3508505,-50.4064531,3,91.96812
1,Banzaê/BA,-10.5827616,-38.6122305,1108,8368.58006
D1,Banzaê/BA,-10.5827616,-38.6122305,8,60.42296
1,Baraúna/PB,-6.643394,-36.2531932,682,13738.92023
D1,Baraúna/PB,-6.643394,-36.2531932,9,181.30540
1,Baraúna/RN,-5.0775002,-37.61752,1472,5120.53432
D1,Baraúna/RN,-5.0775002,-37.61752,26,90.44422
1,Barbacena/MG,-21.2254524,-43.7735087,8142,5891.29113
D1,Barbacena/MG,-21.2254524,-43.7735087,260,188.12770
1,Barbalha/CE,-7.3121067,-39.3036427,6571,10732.01803
D1,Barbalha/CE,-7.3121067,-39.3036427,149,243.35271
1,Barbosa Ferraz/PR,-24.0287182,-52.00811,1198,10484.85909
D1,Barbosa Ferraz/PR,-24.0287182,-52.00811,31,271.31104
1,Barbosa/SP,-21.265661,-49.951816,583,7806.64167
D1,Barbosa/SP,-21.265661,-49.951816,12,160.68559
1,Barcarena/PA,-1.5107945,-48.6190679,11192,8810.72528
D1,Barcarena/PA,-1.5107945,-48.6190679,219,172.40429
1,Barcelona/RN,-5.9514918,-35.9260284,138,3455.18277
D1,Barcelona/RN,-5.9514918,-35.9260284,4,100.15023
1,Barcelos/AM,-0.9729214,-62.925635,4348,15731.96324
D1,Barcelos/AM,-0.9729214,-62.925635,59,213.47420
1,Bariri/SP,-22.0746355,-48.7394852,2896,8144.44007
D1,Bariri/SP,-22.0746355,-48.7394852,117,329.03988
1,Barra Bonita/SC,-26.6526364,-53.4419581,185,11205.33010
D1,Barra Bonita/SC,-26.6526364,-53.4419581,2,121.13870
1,Barra Bonita/SP,-22.490859,-48.558349,3216,8902.17572
D1,Barra Bonita/SP,-22.490859,-48.558349,95,262.96850
1,Barra D'Alcântara/PI,-6.5209258,-42.1071089,151,3820.85020
D1,Barra D'Alcântara/PI,-6.5209258,-42.1071089,4,101.21457
1,Barra Funda/RS,-27.9230048,-53.0401045,576,22579.38064
D1,Barra Funda/RS,-27.9230048,-53.0401045,13,509.60408
1,Barra Longa/MG,-20.2833541,-43.0423516,393,7836.49053
D1,Barra Longa/MG,-20.2833541,-43.0423516,9,179.46162
1,Barra Mansa/RJ,-22.5394843,-44.1735129,15449,8358.35592
D1,Barra Mansa/RJ,-22.5394843,-44.1735129,582,314.87884
1,Barra Velha/SC,-26.6338203,-48.6835001,4185,14015.40522
D1,Barra Velha/SC,-26.6338203,-48.6835001,99,331.54722
1,Barra da Estiva/BA,-13.6269662,-41.3278287,2367,11607.49313
D1,Barra da Estiva/BA,-13.6269662,-41.3278287,25,122.59710
1,Barra de Guabiraba/PE,-8.4173522,-35.6626669,402,2770.50310
D1,Barra de Guabiraba/PE,-8.4173522,-35.6626669,15,103.37698
1,Barra de Santa Rosa/PB,-6.7218007,-36.0564638,1670,10776.27928
D1,Barra de Santa Rosa/PB,-6.7218007,-36.0564638,12,77.43434
1,Barra de Santana/PB,-7.5230865,-35.9988518,554,6635.52521
D1,Barra de Santana/PB,-7.5230865,-35.9988518,6,71.86489
1,Barra de Santo Antônio/AL,-9.4038098,-35.5117693,443,2757.03261
D1,Barra de Santo Antônio/AL,-9.4038098,-35.5117693,30,186.70650
1,Barra de São Francisco/ES,-18.7570902,-40.8916119,4768,10600.50246
D1,Barra de São Francisco/ES,-18.7570902,-40.8916119,192,426.86587
1,Barra de São Miguel/AL,-9.8261357,-35.8837777,569,6791.59704
D1,Barra de São Miguel/AL,-9.8261357,-35.8837777,7,83.55216
1,Barra de São Miguel/PB,-7.7528088,-36.3170996,561,9249.79390
D1,Barra de São Miguel/PB,-7.7528088,-36.3170996,6,98.92828
1,Barra do Bugres/MT,-15.0683712,-57.1853688,3057,8658.33971
D1,Barra do Bugres/MT,-15.0683712,-57.1853688,73,206.75787
1,Barra do Chapéu/SP,-24.472203,-49.023784,357,6197.91667
D1,Barra do Chapéu/SP,-24.472203,-49.023784,3,52.08333
1,Barra do Choça/BA,-14.8638173,-40.5761637,2088,6690.37778
D1,Barra do Choça/BA,-14.8638173,-40.5761637,31,99.33032
1,Barra do Corda/MA,-5.496823,-45.248496,5725,6469.51137
D1,Barra do Corda/MA,-5.496823,-45.248496,58,65.54265
1,Barra do Garças/MT,-15.8916033,-52.2615413,8559,14000.16357
D1,Barra do Garças/MT,-15.8916033,-52.2615413,298,487.44582
1,Barra do Guarita/RS,-27.1888016,-53.7147086,112,3438.74731
D1,Barra do Guarita/RS,-27.1888016,-53.7147086,7,214.92171
1,Barra do Jacaré/PR,-23.1151788,-50.1813945,240,8629.98921
D1,Barra do Jacaré/PR,-23.1151788,-50.1813945,2,71.91658
1,Barra do Mendes/BA,-11.8053298,-42.057037,723,5226.63197
D1,Barra do Mendes/BA,-11.8053298,-42.057037,12,86.74908
1,Barra do Ouro/TO,-7.7113784,-47.6743925,155,3346.28670
D1,Barra do Ouro/TO,-7.7113784,-47.6743925,6,129.53368
1,Barra do Piraí/RJ,-22.4703403,-43.8263256,6163,6116.27168
D1,Barra do Piraí/RJ,-22.4703403,-43.8263256,353,350.32353
1,Barra do Quaraí/RS,-30.208947,-57.5505128,416,9841.49515
D1,Barra do Quaraí/RS,-30.208947,-57.5505128,6,141.94464
1,Barra do Ribeiro/RS,-30.2930206,-51.301437,1065,7856.29979
D1,Barra do Ribeiro/RS,-30.2930206,-51.301437,48,354.08675
1,Barra do Rio Azul/RS,-27.4101581,-52.4117471,101,6102.71903
D1,Barra do Rio Azul/RS,-27.4101581,-52.4117471,1,60.42296
1,Barra do Rocha/BA,-14.2090974,-39.6004395,413,7359.23022
D1,Barra do Rocha/BA,-14.2090974,-39.6004395,7,124.73272
1,Barra do Turvo/SP,-24.756421,-48.5056942,600,7861.63522
D1,Barra do Turvo/SP,-24.756421,-48.5056942,19,248.95178
1,Barra dos Coqueiros/SE,-10.9075694,-37.0386249,6868,22204.97898
D1,Barra dos Coqueiros/SE,-10.9075694,-37.0386249,92,297.44585
1,Barra/BA,-11.0892702,-43.1420453,2105,3904.65591
D1,Barra/BA,-11.0892702,-43.1420453,44,81.61751
1,Barracão/PR,-26.252395,-53.6349576,1324,12839.41040
D1,Barracão/PR,-26.252395,-53.6349576,35,339.41040
1,Barracão/RS,-27.6728964,-51.4582928,439,8352.35921
D1,Barracão/RS,-27.6728964,-51.4582928,16,304.41400
1,Barras/PI,-4.2446153,-42.2920241,4898,10380.41751
D1,Barras/PI,-4.2446153,-42.2920241,92,194.97722
1,Barreira/CE,-4.2883361,-38.641094,1512,6698.26784
D1,Barreira/CE,-4.2883361,-38.641094,44,194.92314
1,Barreiras do Piauí/PI,-9.9224524,-45.4763776,77,2297.13604
D1,Barreiras do Piauí/PI,-9.9224524,-45.4763776,1,29.83294
1,Barreiras/BA,-12.1440031,-44.9967406,18488,11777.67160
D1,Barreiras/BA,-12.1440031,-44.9967406,298,189.83915
1,Barreirinha/AM,-2.798863,-57.067897,2422,7456.20786
D1,Barreirinha/AM,-2.798863,-57.067897,62,190.86907
1,Barreirinhas/MA,-2.7541271,-42.8259693,2184,3454.76691
D1,Barreirinhas/MA,-2.7541271,-42.8259693,41,64.85597
1,Barreiros/PE,-8.8159644,-35.1831905,771,1802.91834
D1,Barreiros/PE,-8.8159644,-35.1831905,61,142.64334
1,Barretos/SP,-20.5531437,-48.5697509,15262,12424.99980
D1,Barretos/SP,-20.5531437,-48.5697509,470,382.63333
1,Barrinha/SP,-21.1898849,-48.1550642,1609,4849.30681
D1,Barrinha/SP,-21.1898849,-48.1550642,64,192.88728
1,Barro Alto/BA,-11.7618025,-41.9094904,888,5898.76445
D1,Barro Alto/BA,-11.7618025,-41.9094904,13,86.35579
1,Barro Alto/GO,-14.9696025,-48.9190985,1297,11369.21459
D1,Barro Alto/GO,-14.9696025,-48.9190985,18,157.78401
1,Barro Duro/PI,-5.8180139,-42.5106589,691,9833.49936
D1,Barro Duro/PI,-5.8180139,-42.5106589,11,156.53906
1,Barro Preto/BA,-14.8068289,-39.4727588,588,10792.95154
D1,Barro Preto/BA,-14.8068289,-39.4727588,10,183.55360
1,Barro/CE,-7.1713587,-38.7742136,1729,7597.32841
D1,Barro/CE,-7.1713587,-38.7742136,42,184.55049
1,Barrocas/BA,-11.5165,-39.099282894736845,761,4725.24061
D1,Barrocas/BA,-11.5165,-39.099282894736845,23,142.81279
1,Barrolândia/TO,-9.837246,-48.7264346,751,13289.68324
D1,Barrolândia/TO,-9.837246,-48.7264346,20,353.91966
1,Barroquinha/CE,-3.0200371,-41.1339229,1217,8089.60383
D1,Barroquinha/CE,-3.0200371,-41.1339229,25,166.17921
1,Barros Cassal/RS,-29.094938,-52.5832366,723,6465.74852
D1,Barros Cassal/RS,-29.094938,-52.5832366,12,107.31533
1,Barroso/MG,-21.187222,-43.976111,1948,9321.91224
D1,Barroso/MG,-21.187222,-43.976111,49,234.48342
1,Barueri/SP,-23.5112184,-46.8764612,29449,10632.09884
D1,Barueri/SP,-23.5112184,-46.8764612,1049,378.72497
1,Barão de Antonina/SP,-23.6295651,-49.5632104,409,11692.39565
D1,Barão de Antonina/SP,-23.6295651,-49.5632104,8,228.70212
1,Barão de Cocais/MG,-19.9452437,-43.4870298,3695,11242.62155
D1,Barão de Cocais/MG,-19.9452437,-43.4870298,65,197.77277
1,Barão de Cotegipe/RS,-27.6214694,-52.3765316,734,11087.61329
D1,Barão de Cotegipe/RS,-27.6214694,-52.3765316,9,135.95166
1,Barão de Grajaú/MA,-6.7542591,-43.0263477,455,2404.35426
D1,Barão de Grajaú/MA,-6.7542591,-43.0263477,2,10.56859
1,Barão de Melgaço/MT,-16.195776,-55.9668049,364,4458.59873
D1,Barão de Melgaço/MT,-16.195776,-55.9668049,14,171.48457
1,Barão de Monte Alto/MG,-21.244722,-42.2375,329,6144.93836
D1,Barão de Monte Alto/MG,-21.244722,-42.2375,12,224.13149
1,Barão do Triunfo/RS,-30.3909877,-51.7375349,459,6104.53518
D1,Barão do Triunfo/RS,-30.3909877,-51.7375349,6,79.79785
1,Barão/RS,-29.372474,-51.494908,629,10141.88971
D1,Barão/RS,-29.372474,-51.494908,9,145.11448
1,Bastos/SP,-21.9222474,-50.7317727,1383,6600.48680
D1,Bastos/SP,-21.9222474,-50.7317727,36,171.81311
1,Bataguassu/MS,-21.715899,-52.422058,3292,14113.61200
D1,Bataguassu/MS,-21.715899,-52.422058,42,180.06431
1,Batalha/AL,-9.6733809,-37.1265481,1110,6053.00469
D1,Batalha/AL,-9.6733809,-37.1265481,19,103.60999
1,Batalha/PI,-4.022391,-42.0780926,1118,4155.36146
D1,Batalha/PI,-4.022391,-42.0780926,32,118.93700
1,Batatais/SP,-20.892867,-47.592149,3348,5315.97332
D1,Batatais/SP,-20.892867,-47.592149,154,244.52207
1,Batayporã/MS,-22.2976466,-53.2685608,1046,9216.67107
D1,Batayporã/MS,-22.2976466,-53.2685608,22,193.84968
1,Baturité/CE,-4.3290203,-38.8821055,4112,11440.97271
D1,Baturité/CE,-4.3290203,-38.8821055,80,222.58702
1,Bauru/SP,-22.3218102,-49.0705863,46453,12247.13088
D1,Bauru/SP,-22.3218102,-49.0705863,1074,283.15542
1,Bayeux/PB,-7.1301631,-34.936532,7478,7693.17819
D1,Bayeux/PB,-7.1301631,-34.936532,236,242.79086
1,Baía Formosa/RN,-6.3691885,-35.0063741,492,5277.83737
D1,Baía Formosa/RN,-6.3691885,-35.0063741,8,85.81849
1,Baía da Traição/PB,-6.691258,-34.9371244,1290,14182.05805
D1,Baía da Traição/PB,-6.691258,-34.9371244,12,131.92612
1,Bebedouro/SP,-20.949077,-48.479083,3931,5068.66095
D1,Bebedouro/SP,-20.949077,-48.479083,156,201.14757
1,Beberibe/CE,-4.1810469,-38.1298101,4925,9128.99220
D1,Beberibe/CE,-4.1810469,-38.1298101,103,190.92106
1,Bela Cruz/CE,-3.0529129,-40.167582,3421,10454.73993
D1,Bela Cruz/CE,-3.0529129,-40.167582,70,213.92335
1,Bela Vista da Caroba/PR,-25.8792818,-53.6672545,184,5322.53399
D1,Bela Vista da Caroba/PR,-25.8792818,-53.6672545,6,173.56089
1,Bela Vista de Goiás/GO,-16.9692949,-48.9513071,2565,8412.04250
D1,Bela Vista de Goiás/GO,-16.9692949,-48.9513071,67,219.72977
1,Bela Vista de Minas/MG,-19.8289721,-43.0973688,818,7971.15572
D1,Bela Vista de Minas/MG,-19.8289721,-43.0973688,22,214.38316
1,Bela Vista do Maranhão/MA,-3.7416367,-45.2514192,410,3635.07403
D1,Bela Vista do Maranhão/MA,-3.7416367,-45.2514192,18,159.58862
1,Bela Vista do Paraíso/PR,-22.9948493,-51.1907996,1945,12630.69030
D1,Bela Vista do Paraíso/PR,-22.9948493,-51.1907996,60,389.63569
1,Bela Vista do Piauí/PI,-7.9716353,-41.8715061,262,6501.24069
D1,Bela Vista do Piauí/PI,-7.9716353,-41.8715061,6,148.88337
1,Bela Vista do Toldo/SC,-26.274625,-50.466354,79,1241.74788
D1,Bela Vista do Toldo/SC,-26.274625,-50.466354,3,47.15498
1,Bela Vista/MS,-22.107327,-56.5317344,1003,4054.98282
D1,Bela Vista/MS,-22.107327,-56.5317344,29,117.24277
1,Belford Roxo/RJ,-22.7667284,-43.4033603,20563,4007.46027
D1,Belford Roxo/RJ,-22.7667284,-43.4033603,713,138.95439
1,Belmiro Braga/MG,-21.9486291,-43.413564,198,5781.02190
D1,Belmiro Braga/MG,-21.9486291,-43.413564,3,87.59124
1,Belmonte/BA,-15.8630837,-38.8792845,1123,4791.56889
D1,Belmonte/BA,-15.8630837,-38.8792845,23,98.13543
1,Belmonte/SC,-26.8448262,-53.578916,270,9966.77741
D1,Belmonte/SC,-26.8448262,-53.578916,5,184.56995
1,Belo Campo/BA,-15.0338286,-41.2585109,896,5237.00976
D1,Belo Campo/BA,-15.0338286,-41.2585109,14,81.82828
1,Belo Horizonte/MG,-19.9227318,-43.9450948,237477,9417.84543
D1,Belo Horizonte/MG,-19.9227318,-43.9450948,5770,228.82624
1,Belo Jardim/PE,-8.3338293,-36.4176419,3868,5043.87967
D1,Belo Jardim/PE,-8.3338293,-36.4176419,119,155.17624
1,Belo Monte/AL,-9.8269944,-37.2787165,473,7049.18033
D1,Belo Monte/AL,-9.8269944,-37.2787165,9,134.12817
1,Belo Oriente/MG,-19.2232523,-42.4807033,2596,9616.95192
D1,Belo Oriente/MG,-19.2232523,-42.4807033,65,240.79425
1,Belo Vale/MG,-20.407778,-44.024167,887,11491.12579
D1,Belo Vale/MG,-20.407778,-44.024167,10,129.55046
1,Belterra/PA,-2.636091,-54.937392,1456,8161.89248
D1,Belterra/PA,-2.636091,-54.937392,27,151.35378
1,Belágua/MA,-3.1604031,-43.5085052,220,2922.42295
D1,Belágua/MA,-3.1604031,-43.5085052,3,39.85122
1,Belém de Maria/PE,-8.6242497,-35.8388934,260,2144.86058
D1,Belém de Maria/PE,-8.6242497,-35.8388934,6,49.49678
1,Belém do Brejo do Cruz/PB,-6.1880727,-37.5332267,518,7048.57804
D1,Belém do Brejo do Cruz/PB,-6.1880727,-37.5332267,5,68.03647
1,Belém do Piauí/PI,-7.3767305,-40.9712156,467,13019.23613
D1,Belém do Piauí/PI,-7.3767305,-40.9712156,7,195.14915
1,Belém do São Francisco/PE,-8.7517707,-38.9625715,870,4196.81621
D1,Belém do São Francisco/PE,-8.7517707,-38.9625715,11,53.06319
1,Belém/AL,-9.5715351,-36.492841,123,2871.14846
D1,Belém/AL,-9.5715351,-36.492841,7,163.39869
1,Belém/PA,-1.45056,-48.4682453,103487,6900.78492
D1,Belém/PA,-1.45056,-48.4682453,4946,329.81227
1,Belém/PB,-6.6967586,-35.5369626,2169,12250.77662
D1,Belém/PB,-6.6967586,-35.5369626,45,254.16549
1,Beneditinos/PI,-5.4565671,-42.3605061,1233,11773.13091
D1,Beneditinos/PI,-5.4565671,-42.3605061,38,362.83777
1,Benedito Leite/MA,-7.2173453,-44.5523331,314,5569.35083
D1,Benedito Leite/MA,-7.2173453,-44.5523331,2,35.47357
1,Benedito Novo/SC,-26.7840657,-49.3629511,1022,8679.40552
D1,Benedito Novo/SC,-26.7840657,-49.3629511,19,161.35881
1,Benevides/PA,-1.3555577,-48.252235,3944,6184.92034
D1,Benevides/PA,-1.3555577,-48.252235,102,159.95484
1,Benjamin Constant do Sul/RS,-27.5105555,-52.6007689,170,8682.32891
1,Benjamin Constant/AM,-4.3782748,-70.0290603,2697,6138.61386
D1,Benjamin Constant/AM,-4.3782748,-70.0290603,87,198.01980
1,Bento Fernandes/RN,-5.6926846,-35.8207423,163,2950.22624
D1,Bento Fernandes/RN,-5.6926846,-35.8207423,3,54.29864
1,Bento Gonçalves/RS,-29.1654014,-51.5197627,18480,15172.04010
D1,Bento Gonçalves/RS,-29.1654014,-51.5197627,327,268.46629
1,Bento de Abreu/SP,-21.2707225,-50.8120444,319,10615.64060
D1,Bento de Abreu/SP,-21.2707225,-50.8120444,2,66.55574
1,Bequimão/MA,-2.4495376,-44.7884889,280,1314.61571
D1,Bequimão/MA,-2.4495376,-44.7884889,22,103.29123
1,Berilo/MG,-16.9515764,-42.4643732,153,1288.74663
D1,Berilo/MG,-16.9515764,-42.4643732,1,8.42318
1,Berizal/MG,-15.6118785,-41.7417382,207,4345.08816
D1,Berizal/MG,-15.6118785,-41.7417382,1,20.99076
1,Bernardino Batista/PB,-6.4532173,-38.5495418,273,7720.58824
D1,Bernardino Batista/PB,-6.4532173,-38.5495418,1,28.28054
1,Bernardino de Campos/SP,-23.0140216,-49.4760724,780,6990.50009
D1,Bernardino de Campos/SP,-23.0140216,-49.4760724,24,215.09231
1,Bernardo Sayão/TO,-7.8794244,-48.8968905,620,13938.84892
D1,Bernardo Sayão/TO,-7.8794244,-48.8968905,11,247.30216
1,Bernardo do Mearim/MA,-4.6315929,-44.7617508,292,4808.16730
D1,Bernardo do Mearim/MA,-4.6315929,-44.7617508,6,98.79796
1,Bertioga/SP,-23.848568,-46.139586,5478,8463.76095
D1,Bertioga/SP,-23.848568,-46.139586,152,234.84696
1,Bertolínia/PI,-7.6372159,-43.9540611,861,15634.64681
D1,Bertolínia/PI,-7.6372159,-43.9540611,11,199.74578
1,Bertópolis/MG,-17.063333,-40.573889,426,9246.79835
D1,Bertópolis/MG,-17.063333,-40.573889,2,43.41220
1,Beruri/AM,-3.9007135,-61.3717319,2241,11153.13791
D1,Beruri/AM,-3.9007135,-61.3717319,34,169.21316
1,Betim/MG,-19.968056,-44.198333,29942,6731.80690
D1,Betim/MG,-19.968056,-44.198333,1219,274.06561
1,Betânia do Piauí/PI,-8.1460635,-40.7961387,173,2785.82931
D1,Betânia do Piauí/PI,-8.1460635,-40.7961387,2,32.20612
1,Betânia/PE,-8.2742779,-38.0351767,487,3815.11947
D1,Betânia/PE,-8.2742779,-38.0351767,15,117.50881
1,Bezerros/PE,-8.2372132,-35.7558262,3794,6231.93167
D1,Bezerros/PE,-8.2372132,-35.7558262,118,193.82392
1,Bias Fortes/MG,-21.605833,-43.756944,111,3334.33464
D1,Bias Fortes/MG,-21.605833,-43.756944,3,90.11715
1,Bicas/MG,-21.7213723,-43.0604327,1412,9701.80019
D1,Bicas/MG,-21.7213723,-43.0604327,42,288.58046
1,Biguaçu/SC,-27.4961277,-48.6542432,11002,15833.40529
D1,Biguaçu/SC,-27.4961277,-48.6542432,162,233.14049
1,Bilac/SP,-21.403962,-50.47464,858,10570.40779
D1,Bilac/SP,-21.403962,-50.47464,13,160.15769
1,Biquinhas/MG,-18.783611,-45.502222,119,4763.81105
D1,Biquinhas/MG,-18.783611,-45.502222,1,40.03203
1,Birigui/SP,-21.2908491,-50.34144,15206,12176.19692
D1,Birigui/SP,-21.2908491,-50.34144,515,412.38599
1,Biritiba Mirim/SP,-23.5697765,-46.0407456,1399,4247.63177
D1,Biritiba Mirim/SP,-23.5697765,-46.0407456,92,279.32961
1,Biritinga/BA,-11.6227908,-38.8066738,511,3196.94695
D1,Biritinga/BA,-11.6227908,-38.8066738,7,43.79379
1,Bituruna/PR,-26.161281,-51.5533319,1215,7408.53659
D1,Bituruna/PR,-26.161281,-51.5533319,16,97.56098
1,Blumenau/SC,-26.9195567,-49.0658025,51511,14235.25998
D1,Blumenau/SC,-26.9195567,-49.0658025,559,154.48177
1,Boa Esperança do Iguaçu/PR,-25.6362851,-53.2139114,163,6599.19028
1,Boa Esperança do Sul/SP,-21.9930206,-48.3917372,1358,9042.48235
D1,Boa Esperança do Sul/SP,-21.9930206,-48.3917372,17,113.19750
1,Boa Esperança/ES,-18.5395472,-40.2904088,1598,10588.39120
D1,Boa Esperança/ES,-18.5395472,-40.2904088,42,278.29314
1,Boa Esperança/MG,-21.0901253,-45.5660195,4356,10830.70191
D1,Boa Esperança/MG,-21.0901253,-45.5660195,117,290.90728
1,Boa Esperança/PR,-24.2411024,-52.7860277,408,10081.54188
D1,Boa Esperança/PR,-24.2411024,-52.7860277,15,370.64492
1,Boa Hora/PI,-4.4094627,-42.1255341,551,8085.10638
D1,Boa Hora/PI,-4.4094627,-42.1255341,6,88.04109
1,Boa Nova/BA,-14.365907,-40.2063056,915,7421.52648
D1,Boa Nova/BA,-14.365907,-40.2063056,17,137.88628
1,Boa Ventura de São Roque/PR,-24.88177,-51.5441292,472,7415.55381
D1,Boa Ventura de São Roque/PR,-24.88177,-51.5441292,5,78.55460
1,Boa Ventura/PB,-7.4202462,-38.2156782,550,10363.67062
D1,Boa Ventura/PB,-7.4202462,-38.2156782,8,150.74430
1,Boa Viagem/CE,-5.1261877,-39.7300055,4038,7398.72107
D1,Boa Viagem/CE,-5.1261877,-39.7300055,98,179.56282
1,Boa Vista da Aparecida/PR,-25.4357216,-53.4067721,929,12320.95491
D1,Boa Vista da Aparecida/PR,-25.4357216,-53.4067721,27,358.09019
1,Boa Vista das Missões/RS,-27.6677983,-53.3127622,221,10564.05354
D1,Boa Vista das Missões/RS,-27.6677983,-53.3127622,7,334.60803
1,Boa Vista do Buricá/RS,-27.6687782,-54.1111913,836,12455.30393
D1,Boa Vista do Buricá/RS,-27.6687782,-54.1111913,9,134.08820
1,Boa Vista do Cadeado/RS,-28.5783827,-53.8123759,191,7739.05997
D1,Boa Vista do Cadeado/RS,-28.5783827,-53.8123759,2,81.03728
1,Boa Vista do Gurupi/MA,-1.7981168,-46.3071882,15,178.95490
D1,Boa Vista do Gurupi/MA,-1.7981168,-46.3071882,4,47.72131
1,Boa Vista do Incra/RS,-28.8195551,-53.3866624,299,11429.66361
D1,Boa Vista do Incra/RS,-28.8195551,-53.3866624,4,152.90520
1,Boa Vista do Ramos/AM,-2.9716927,-57.5869819,960,4891.47050
D1,Boa Vista do Ramos/AM,-2.9716927,-57.5869819,12,61.14338
1,Boa Vista do Sul/RS,-29.3510488,-51.6779679,302,10871.13031
D1,Boa Vista do Sul/RS,-29.3510488,-51.6779679,4,143.98848
1,Boa Vista do Tupim/BA,-12.6605988,-40.6083594,264,1424.63979
D1,Boa Vista do Tupim/BA,-12.6605988,-40.6083594,8,43.17090
1,Boa Vista/PB,-7.2620711,-36.2415161,781,10944.50673
D1,Boa Vista/PB,-7.2620711,-36.2415161,14,196.18834
1,Boa Vista/RR,2.8208478,-60.6719582,86926,20713.82955
D1,Boa Vista/RR,2.8208478,-60.6719582,1355,322.88658
1,Boca da Mata/AL,-9.6452054,-36.2116658,1837,6715.16304
D1,Boca da Mata/AL,-9.6452054,-36.2116658,44,160.84223
1,Boca do Acre/AM,-8.7553487,-67.3930873,2645,7636.78360
D1,Boca do Acre/AM,-8.7553487,-67.3930873,26,75.06857
1,Bocaina de Minas/MG,-22.167778,-44.394722,182,3576.34113
D1,Bocaina de Minas/MG,-22.167778,-44.394722,7,137.55158
1,Bocaina do Sul/SC,-27.745494,-49.942279,381,10923.16514
D1,Bocaina do Sul/SC,-27.745494,-49.942279,3,86.00917
1,Bocaina/PI,-6.9445939,-41.3224599,284,6304.10655
D1,Bocaina/PI,-6.9445939,-41.3224599,5,110.98779
1,Bocaina/SP,-22.1421831,-48.522276,1252,10054.60970
D1,Bocaina/SP,-22.1421831,-48.522276,33,265.01767
1,Bocaiúva do Sul/PR,-25.206591,-49.114131,1954,14883.08325
D1,Bocaiúva do Sul/PR,-25.206591,-49.114131,16,121.86762
1,Bocaiúva/MG,-17.1160208,-43.8122678,2329,4634.27252
D1,Bocaiúva/MG,-17.1160208,-43.8122678,60,119.38873
1,Bodocó/PE,-7.777592,-39.933797,1946,5070.61337
D1,Bodocó/PE,-7.777592,-39.933797,31,80.77544
1,Bodoquena/MS,-20.5508775,-56.6769653,539,6876.75427
D1,Bodoquena/MS,-20.5508775,-56.6769653,15,191.37535
1,Bodó/RN,-5.9866104,-36.4134824,185,8420.57351
1,Bofete/SP,-23.1019554,-48.2610535,790,6626.96083
D1,Bofete/SP,-23.1019554,-48.2610535,14,117.43981
1,Boituva/SP,-23.2838893,-47.6738231,6052,9734.59868
D1,Boituva/SP,-23.2838893,-47.6738231,169,271.83529
1,Bom Conselho/PE,-9.169191,-36.685683,2049,4201.61175
D1,Bom Conselho/PE,-9.169191,-36.685683,64,131.23629
1,Bom Despacho/MG,-19.7375242,-45.2517288,4518,8853.96253
D1,Bom Despacho/MG,-19.7375242,-45.2517288,80,156.77667
1,Bom Jardim da Serra/SC,-28.3380324,-49.625588,615,12887.67812
D1,Bom Jardim da Serra/SC,-28.3380324,-49.625588,4,83.82230
1,Bom Jardim de Goiás/GO,-16.2062659,-52.172793,855,9640.32022
D1,Bom Jardim de Goiás/GO,-16.2062659,-52.172793,15,169.12842
1,Bom Jardim de Minas/MG,-21.9476466,-44.1906033,472,7307.63276
D1,Bom Jardim de Minas/MG,-21.9476466,-44.1906033,3,46.44682
1,Bom Jardim/MA,-3.54129,-45.606004,1407,3364.25805
D1,Bom Jardim/MA,-3.54129,-45.606004,49,117.16322
1,Bom Jardim/PE,-7.7961572,-35.5871696,1721,4304.32934
D1,Bom Jardim/PE,-7.7961572,-35.5871696,69,172.57334
1,Bom Jardim/RJ,-22.1515328,-42.4186683,1661,6014.62920
D1,Bom Jardim/RJ,-22.1515328,-42.4186683,44,159.32793
1,Bom Jesus da Lapa/BA,-13.250571,-43.410754,5700,8182.36628
D1,Bom Jesus da Lapa/BA,-13.250571,-43.410754,78,111.96922
1,Bom Jesus da Penha/MG,-21.0165299,-46.5226644,647,15245.05184
D1,Bom Jesus da Penha/MG,-21.0165299,-46.5226644,14,329.87747
1,Bom Jesus da Serra/BA,-14.3724084,-40.5047119,440,4479.28331
D1,Bom Jesus da Serra/BA,-14.3724084,-40.5047119,9,91.62170
1,Bom Jesus das Selvas/MA,-4.4878075,-46.8526639,3282,9494.60468
D1,Bom Jesus das Selvas/MA,-4.4878075,-46.8526639,24,69.43038
1,Bom Jesus de Goiás/GO,-18.2174587,-49.739721,2815,10975.51466
D1,Bom Jesus de Goiás/GO,-18.2174587,-49.739721,108,421.08546
1,Bom Jesus do Amparo/MG,-19.7045132,-43.4752911,245,3994.78233
D1,Bom Jesus do Amparo/MG,-19.7045132,-43.4752911,7,114.13664
1,Bom Jesus do Araguaia/MT,-12.1725897,-51.5074425,1035,15433.93976
D1,Bom Jesus do Araguaia/MT,-12.1725897,-51.5074425,16,238.59231
1,Bom Jesus do Galho/MG,-19.8283191,-42.3162256,692,4656.17010
D1,Bom Jesus do Galho/MG,-19.8283191,-42.3162256,30,201.85709
1,Bom Jesus do Itabapoana/RJ,-21.1341025,-41.680095,3370,9058.40927
D1,Bom Jesus do Itabapoana/RJ,-21.1341025,-41.680095,85,228.47620
1,Bom Jesus do Norte/ES,-21.1254776,-41.6711646,1077,10811.08211
D1,Bom Jesus do Norte/ES,-21.1254776,-41.6711646,27,271.02991
1,Bom Jesus do Oeste/SC,-26.6929713,-53.0967453,183,8555.39972
D1,Bom Jesus do Oeste/SC,-26.6929713,-53.0967453,6,280.50491
1,Bom Jesus do Sul/PR,-26.1922507,-53.6002033,482,13747.86081
D1,Bom Jesus do Sul/PR,-26.1922507,-53.6002033,5,142.61266
1,Bom Jesus do Tocantins/PA,-5.0471796,-48.5978362,762,4451.45461
D1,Bom Jesus do Tocantins/PA,-5.0471796,-48.5978362,25,146.04510
1,Bom Jesus do Tocantins/TO,-8.96306,-48.165043,135,2695.68690
D1,Bom Jesus do Tocantins/TO,-8.96306,-48.165043,3,59.90415
1,Bom Jesus dos Perdões/SP,-23.1353864,-46.4648052,2030,7812.19935
D1,Bom Jesus dos Perdões/SP,-23.1353864,-46.4648052,24,92.36098
1,Bom Jesus/PB,-6.8156725,-38.6551841,161,6252.42718
D1,Bom Jesus/PB,-6.8156725,-38.6551841,3,116.50485
1,Bom Jesus/PI,-9.0711644,-44.3583926,3525,13885.05928
D1,Bom Jesus/PI,-9.0711644,-44.3583926,40,157.56096
1,Bom Jesus/RN,-5.9887544,-35.5821149,882,8590.63017
D1,Bom Jesus/RN,-5.9887544,-35.5821149,15,146.09915
1,Bom Jesus/RS,-28.6692723,-50.4346894,934,8258.90883
D1,Bom Jesus/RS,-28.6692723,-50.4346894,21,185.69281
1,Bom Jesus/SC,-26.7350604,-52.3916519,443,14491.33137
D1,Bom Jesus/SC,-26.7350604,-52.3916519,8,261.69447
1,Bom Lugar/MA,-4.3728019,-45.0366054,490,2980.89792
D1,Bom Lugar/MA,-4.3728019,-45.0366054,7,42.58426
1,Bom Princípio do Piauí/PI,-3.1912777,-41.6430185,137,2424.34967
D1,Bom Princípio do Piauí/PI,-3.1912777,-41.6430185,13,230.04778
1,Bom Princípio/RS,-29.489788,-51.3566782,1939,13602.24483
D1,Bom Princípio/RS,-29.489788,-51.3566782,27,189.40723
1,Bom Progresso/RS,-27.5490948,-53.8655601,159,8372.82780
D1,Bom Progresso/RS,-27.5490948,-53.8655601,3,157.97788
1,Bom Repouso/MG,-22.4657069,-46.1485376,1005,9537.81911
D1,Bom Repouso/MG,-22.4657069,-46.1485376,21,199.29771
1,Bom Retiro do Sul/RS,-29.6000007,-51.9359243,1028,8297.01372
D1,Bom Retiro do Sul/RS,-29.6000007,-51.9359243,28,225.98870
1,Bom Retiro/SC,-27.798993,-49.486994,808,8031.80915
D1,Bom Retiro/SC,-27.798993,-49.486994,18,178.92644
1,Bom Sucesso de Itararé/SP,-24.3190016,-49.1446207,194,4869.47791
D1,Bom Sucesso de Itararé/SP,-24.3190016,-49.1446207,5,125.50201
1,Bom Sucesso do Sul/PR,-26.0749256,-52.8348629,515,15826.67486
D1,Bom Sucesso do Sul/PR,-26.0749256,-52.8348629,7,215.11985
1,Bom Sucesso/MG,-21.0323516,-44.7598082,1078,6122.56489
D1,Bom Sucesso/MG,-21.0323516,-44.7598082,18,102.23207
1,Bom Sucesso/PB,-6.4458948,-37.9297662,482,9725.58515
D1,Bom Sucesso/PB,-6.4458948,-37.9297662,4,80.71025
1,Bom Sucesso/PR,-23.7088019,-51.7651297,1195,16907.18732
D1,Bom Sucesso/PR,-23.7088019,-51.7651297,19,268.81720
1,Bombinhas/SC,-27.1519159,-48.4875691,3440,16916.64618
D1,Bombinhas/SC,-27.1519159,-48.4875691,58,285.22252
1,Bonfim do Piauí/PI,-9.1648678,-42.8734415,423,7440.63325
D1,Bonfim do Piauí/PI,-9.1648678,-42.8734415,7,123.13105
1,Bonfim/MG,-20.3266626, -44.2386157,420,6122.44898
D1,Bonfim/MG,-20.3266626, -44.2386157,14,204.08163
1,Bonfim/RR,3.3613818,-59.8427241,2292,18252.76738
D1,Bonfim/RR,3.3613818,-59.8427241,26,207.05583
1,Bonfinópolis de Minas/MG,-16.5660011,-45.98645,505,9276.26745
D1,Bonfinópolis de Minas/MG,-16.5660011,-45.98645,14,257.16385
1,Bonfinópolis/GO,-16.6172709,-48.9615701,461,4647.64593
D1,Bonfinópolis/GO,-16.6172709,-48.9615701,21,211.71489
1,Boninal/BA,-12.7095183,-41.8299984,616,4264.15617
D1,Boninal/BA,-12.7095183,-41.8299984,7,48.45632
1,Bonito de Minas/MG,-15.3191266,-44.7544,77,677.28032
1,Bonito de Santa Fé/PB,-7.3143332,-38.5146677,451,3751.45566
D1,Bonito de Santa Fé/PB,-7.3143332,-38.5146677,11,91.49892
1,Bonito/BA,-11.9665473,-41.2649896,862,5105.42525
D1,Bonito/BA,-11.9665473,-41.2649896,13,76.99597
1,Bonito/MS,-21.1264766,-56.4902208,2980,13429.47274
D1,Bonito/MS,-21.1264766,-56.4902208,65,292.92474
1,Bonito/PA,-1.3605722,-47.3049907,387,2341.19782
D1,Bonito/PA,-1.3605722,-47.3049907,14,84.69449
1,Bonito/PE,-8.4721161,-35.7314591,975,2557.91379
D1,Bonito/PE,-8.4721161,-35.7314591,40,104.94005
1,Bonópolis/GO,-13.649331,-49.8329113,198,4406.85511
D1,Bonópolis/GO,-13.649331,-49.8329113,2,44.51369
1,Boqueirão do Leão/RS,-29.30332,-52.4296817,575,7465.59335
D1,Boqueirão do Leão/RS,-29.30332,-52.4296817,31,402.49286
1,Boqueirão do Piauí/PI,-4.4850148,-42.1095161,686,10675.38126
D1,Boqueirão do Piauí/PI,-4.4850148,-42.1095161,10,155.61780
1,Boqueirão/PB,-7.487004,-36.130887,1907,10671.51651
D1,Boqueirão/PB,-7.487004,-36.130887,36,201.45495
1,Boquim/SE,-11.1450175,-37.6204228,2606,9688.09249
D1,Boquim/SE,-11.1450175,-37.6204228,64,237.92706
1,Boquira/BA,-12.8184859,-42.7270883,654,3042.28497
D1,Boquira/BA,-12.8184859,-42.7270883,12,55.82174
1,Boracéia/SP,-22.195355,-48.7801925,922,18940.01643
D1,Boracéia/SP,-22.195355,-48.7801925,22,451.93098
1,Borba/AM,-4.3934778,-59.5947721,2238,5360.73584
D1,Borba/AM,-4.3934778,-59.5947721,65,155.69608
1,Borborema/PB,-6.8066718,-35.5990191,385,7282.01248
D1,Borborema/PB,-6.8066718,-35.5990191,13,245.88614
1,Borborema/SP,-21.6212706,-49.074135,1603,9917.09973
D1,Borborema/SP,-21.6212706,-49.074135,51,315.51596
1,Borda da Mata/MG,-22.274167,-46.165278,1672,8524.52330
D1,Borda da Mata/MG,-22.274167,-46.165278,46,234.52636
1,Borebi/SP,-22.5700178,-48.9714871,257,9578.82967
D1,Borebi/SP,-22.5700178,-48.9714871,3,111.81513
1,Borrazópolis/PR,-23.9393362,-51.5850786,813,12626.18419
D1,Borrazópolis/PR,-23.9393362,-51.5850786,24,372.72868
1,Borá/SP,-22.2701088,-50.544407,117,13961.81384
D1,Borá/SP,-22.2701088,-50.544407,1,119.33174
1,Bossoroca/RS,-28.7278885,-54.9120278,402,6478.64625
D1,Bossoroca/RS,-28.7278885,-54.9120278,22,354.55278
1,Botelhos/MG,-21.65,-46.394722,1678,11224.83109
D1,Botelhos/MG,-21.65,-46.394722,26,173.92468
1,Botucatu/SP,-22.8879628,-48.4410712,16490,11132.11368
D1,Botucatu/SP,-22.8879628,-48.4410712,272,183.62249
1,Botumirim/MG,-16.862778,-43.011111,232,3689.56743
D1,Botumirim/MG,-16.862778,-43.011111,4,63.61323
1,Botuporã/BA,-13.3744752,-42.5198469,223,2201.59937
D1,Botuporã/BA,-13.3744752,-42.5198469,3,29.61793
1,Botuverá/SC,-27.200749,-49.068892,906,17023.67531
D1,Botuverá/SC,-27.200749,-49.068892,8,150.31943
1,Bozano/RS,-28.3669953,-53.7705165,249,11795.35765
D1,Bozano/RS,-28.3669953,-53.7705165,7,331.59640
1,Braga/RS,-27.617348,-53.740514,358,10812.44337
D1,Braga/RS,-27.617348,-53.740514,9,271.82120
1,Braganey/PR,-24.8179919,-53.118506,485,9011.51988
D1,Braganey/PR,-24.8179919,-53.118506,7,130.06317
1,Bragança Paulista/SP,-22.9520235,-46.5418586,17466,10242.00595
D1,Bragança Paulista/SP,-22.9520235,-46.5418586,475,278.53846
1,Bragança/PA,-1.0573967,-46.7635406,4144,3214.54613
D1,Bragança/PA,-1.0573967,-46.7635406,143,110.92666
1,Branquinha/AL,-9.2478057,-36.0152009,543,5191.20459
D1,Branquinha/AL,-9.2478057,-36.0152009,9,86.04207
1,Brasil Novo/PA,-3.3055853,-52.539198,1897,12661.01582
D1,Brasil Novo/PA,-3.3055853,-52.539198,42,280.31769
1,Brasileira/PI,-4.131182,-41.7824969,602,7212.17204
D1,Brasileira/PI,-4.131182,-41.7824969,15,179.70528
1,Brasilândia de Minas/MG,-17.0096469,-46.0087183,1250,7463.57774
D1,Brasilândia de Minas/MG,-17.0096469,-46.0087183,21,125.38811
1,Brasilândia do Sul/PR,-24.1975793,-53.527551,398,15396.51838
D1,Brasilândia do Sul/PR,-24.1975793,-53.527551,9,348.16248
1,Brasilândia do Tocantins/TO,-8.3886619,-48.4842729,242,10945.27363
D1,Brasilândia do Tocantins/TO,-8.3886619,-48.4842729,6,271.37042
1,Brasilândia/MS,-21.255575,-52.0365617,1212,10225.25943
D1,Brasilândia/MS,-21.255575,-52.0365617,23,194.04370
1,Brasiléia/AC,-11.0010413,-68.7487894,2917,10924.27534
D1,Brasiléia/AC,-11.0010413,-68.7487894,40,149.80151
1,Brasnorte/MT,-12.1227151,-58.0050109,1971,9786.49454
D1,Brasnorte/MT,-12.1227151,-58.0050109,35,173.78352
1,Brasília de Minas/MG,-16.2075114,-44.430559,1144,3530.31940
D1,Brasília de Minas/MG,-16.2075114,-44.430559,8,24.68755
1,Brasília/DF,-15.7934036,-47.8823172,431771,14132.56768
D1,Brasília/DF,-15.7934036,-47.8823172,9276,303.61858
1,Brazabrantes/GO,-16.4291635,-49.3858216,474,12653.49706
D1,Brazabrantes/GO,-16.4291635,-49.3858216,3,80.08542
1,Brazópolis/MG,-22.4742842,-45.6165577,805,5586.39833
D1,Brazópolis/MG,-22.4742842,-45.6165577,29,201.24913
1,Braço do Norte/SC,-28.2728633,-49.1622712,8324,24571.96836
D1,Braço do Norte/SC,-28.2728633,-49.1622712,101,298.14618
1,Braço do Trombudo/SC,-27.358578,-49.882145,658,17458.21173
D1,Braço do Trombudo/SC,-27.358578,-49.882145,5,132.66118
1,Braúna/SP,-21.5015319,-50.3175246,579,10085.35098
D1,Braúna/SP,-21.5015319,-50.3175246,22,383.20850
1,Braúnas/MG,-19.055556,-42.716111,231,4843.78276
D1,Braúnas/MG,-19.055556,-42.716111,9,188.71881
1,Brejetuba/ES,-20.1465817,-41.2902303,1646,13245.35286
D1,Brejetuba/ES,-20.1465817,-41.2902303,14,112.65792
1,Brejinho de Nazaré/TO,-11.0205883,-48.5722906,602,10907.77315
D1,Brejinho de Nazaré/TO,-11.0205883,-48.5722906,14,253.66914
1,Brejinho/PE,-7.3482153,-37.28538,652,8707.26496
D1,Brejinho/PE,-7.3482153,-37.28538,21,280.44872
1,Brejinho/RN,-6.1957907,-35.3583019,1481,11582.07555
D1,Brejinho/RN,-6.1957907,-35.3583019,15,117.30664
1,Brejo Alegre/SP,-21.1671191,-50.1850393,357,12357.21703
D1,Brejo Alegre/SP,-21.1671191,-50.1850393,13,449.98269
1,Brejo Grande do Araguaia/PA,-5.7011449,-48.4037308,821,11142.77959
D1,Brejo Grande do Araguaia/PA,-5.7011449,-48.4037308,4,54.28882
1,Brejo Grande/SE,-10.4287358,-36.4667918,450,5387.28601
D1,Brejo Grande/SE,-10.4287358,-36.4667918,14,167.60445
1,Brejo Santo/CE,-7.4909841,-38.9859152,8237,16526.22286
D1,Brejo Santo/CE,-7.4909841,-38.9859152,153,306.97003
1,Brejo da Madre de Deus/PE,-8.1409718,-36.3712527,2101,4101.51293
D1,Brejo da Madre de Deus/PE,-8.1409718,-36.3712527,49,95.65642
1,Brejo de Areia/MA,-4.3316785,-45.5833334,315,3494.56401
D1,Brejo de Areia/MA,-4.3316785,-45.5833334,10,110.93854
1,Brejo do Cruz/PB,-6.32926065,-37.48746163303929,1729,12170.91370
D1,Brejo do Cruz/PB,-6.32926065,-37.48746163303929,22,154.86414
1,Brejo do Piauí/PI,-8.207583,-42.8359849,141,3664.24116
D1,Brejo do Piauí/PI,-8.207583,-42.8359849,4,103.95010
1,Brejo dos Santos/PB,-6.3769367,-37.8243125,712,11014.85149
D1,Brejo dos Santos/PB,-6.3769367,-37.8243125,7,108.29208
1,Brejo/MA,-3.6804397,-42.7529313,905,2469.23686
D1,Brejo/MA,-3.6804397,-42.7529313,19,51.84033
1,Brejolândia/BA,-12.4843845,-43.9611861,144,1356.18761
D1,Brejolândia/BA,-12.4843845,-43.9611861,11,103.59766
1,Brejão/PE,-9.029146,-36.566034,472,5252.03071
D1,Brejão/PE,-9.029146,-36.566034,9,100.14465
1,Brejões/BA,-13.1033754,-39.7909837,776,5456.33526
D1,Brejões/BA,-13.1033754,-39.7909837,11,77.34496
1,Breu Branco/PA,-3.7785073,-49.5684795,798,1185.17198
D1,Breu Branco/PA,-3.7785073,-49.5684795,45,66.83301
1,Breves/PA,-1.68036,-50.479085,4041,3904.46100
D1,Breves/PA,-1.68036,-50.479085,118,114.01297
1,Britânia/GO,-15.2427599,-51.1602061,577,9953.42418
D1,Britânia/GO,-15.2427599,-51.1602061,5,86.25151
1,Brochier/RS,-29.556766,-51.5963047,420,8228.84013
D1,Brochier/RS,-29.556766,-51.5963047,5,97.96238
1,Brodowski/SP,-20.984532,-47.657217,2629,10400.75958
D1,Brodowski/SP,-20.984532,-47.657217,67,265.06310
1,Brotas de Macaúbas/BA,-12.0019007,-42.6257506,141,1391.90523
D1,Brotas de Macaúbas/BA,-12.0019007,-42.6257506,3,29.61500
1,Brotas/SP,-22.2840884,-48.1267265,1381,5605.61780
D1,Brotas/SP,-22.2840884,-48.1267265,46,186.71862
1,Brumadinho/MG,-20.143611,-44.2,3609,8874.73565
D1,Brumadinho/MG,-20.143611,-44.2,77,189.34737
1,Brumado/BA,-14.29507325,-41.659307508575985,9100,13514.51697
D1,Brumado/BA,-14.29507325,-41.659307508575985,185,274.74567
1,Brunópolis/SC,-27.310953,-50.837585,269,11359.79730
D1,Brunópolis/SC,-27.310953,-50.837585,8,337.83784
1,Brusque/SC,-27.0964628,-48.9136323,26960,19580.35863
D1,Brusque/SC,-27.0964628,-48.9136323,277,201.17802
1,Brás Pires/MG,-20.8483109,-43.2430524,218,5078.03401
D1,Brás Pires/MG,-20.8483109,-43.2430524,7,163.05614
1,Bueno Brandão/MG,-22.441976,-46.3517971,857,7797.28869
D1,Bueno Brandão/MG,-22.441976,-46.3517971,27,245.65554
1,Buenos Aires/PE,-7.7218931,-35.326587,348,2638.36240
D1,Buenos Aires/PE,-7.7218931,-35.326587,24,181.95603
1,Buenópolis/MG,-17.8756607,-44.1749365,305,2946.00599
D1,Buenópolis/MG,-17.8756607,-44.1749365,11,106.24940
1,Buerarema/BA,-14.9571177,-39.3008035,1329,7259.91478
D1,Buerarema/BA,-14.9571177,-39.3008035,42,229.43297
1,Bugre/MG,-19.4257687,-42.2556,369,9264.37359
D1,Bugre/MG,-19.4257687,-42.2556,12,301.28044
1,Bujari/AC,-9.8309656,-67.9520886,1136,10902.11132
D1,Bujari/AC,-9.8309656,-67.9520886,17,163.14779
1,Bujaru/PA,-1.5169239,-48.0410699,1421,4828.89863
D1,Bujaru/PA,-1.5169239,-48.0410699,38,129.13311
1,Buri/SP,-23.79849,-48.598924,2449,12266.46632
D1,Buri/SP,-23.79849,-48.598924,78,390.68370
1,Buritama/SP,-21.0664017,-50.1448077,2322,13436.72241
D1,Buritama/SP,-21.0664017,-50.1448077,64,370.34894
1,Buriti Alegre/GO,-18.1377879,-49.0404411,981,10343.73682
D1,Buriti Alegre/GO,-18.1377879,-49.0404411,30,316.32223
1,Buriti Bravo/MA,-5.8391884,-43.8367876,1634,6825.68194
D1,Buriti Bravo/MA,-5.8391884,-43.8367876,16,66.83654
1,Buriti de Goiás/GO,-16.180644,-50.4287479,223,9006.46204
D1,Buriti de Goiás/GO,-16.180644,-50.4287479,8,323.10178
1,Buriti do Tocantins/TO,-5.3187439,-48.2256609,1043,9071.93181
D1,Buriti do Tocantins/TO,-5.3187439,-48.2256609,17,147.86466
1,Buriti dos Lopes/PI,-3.1776723,-41.8707444,1280,6462.36179
D1,Buriti dos Lopes/PI,-3.1776723,-41.8707444,33,166.60776
1,Buriti dos Montes/PI,-5.3136171,-41.0971256,648,7841.23911
D1,Buriti dos Montes/PI,-5.3136171,-41.0971256,8,96.80542
1,Buriti/MA,-3.9430944,-42.9244281,827,2871.72720
D1,Buriti/MA,-3.9430944,-42.9244281,8,27.77971
1,Buriticupu/MA,-4.3227472,-46.4516989,3481,4769.60388
D1,Buriticupu/MA,-4.3227472,-46.4516989,58,79.47056
1,Buritinópolis/GO,-14.4589282,-46.4293104,183,5574.16997
D1,Buritinópolis/GO,-14.4589282,-46.4293104,3,91.37984
1,Buritirama/BA,-10.7148421,-43.6362327,846,3976.31134
D1,Buritirama/BA,-10.7148421,-43.6362327,23,108.10303
1,Buritirana/MA,-5.5897455,-47.0148915,446,2883.55854
D1,Buritirana/MA,-5.5897455,-47.0148915,24,155.16907
1,Buritis/MG,-15.621389,-46.423889,1762,7044.33694
D1,Buritis/MG,-15.621389,-46.423889,36,143.92516
1,Buritis/RO,-10.2054937,-63.8281954,4674,11581.92090
D1,Buritis/RO,-10.2054937,-63.8281954,74,183.36802
1,Buritizal/SP,-20.1933264,-47.7097165,306,6778.91006
D1,Buritizal/SP,-20.1933264,-47.7097165,10,221.53301
1,Buritizeiro/MG,-17.3667765,-44.9647781,1335,4747.34184
D1,Buritizeiro/MG,-17.3667765,-44.9647781,31,110.23790
1,Butiá/RS,-30.1256795,-51.9692224,2077,9913.13478
D1,Butiá/RS,-30.1256795,-51.9692224,55,262.50477
1,Buíque/PE,-8.6239732,-37.157296,2370,4022.47153
D1,Buíque/PE,-8.6239732,-37.157296,44,74.67880
1,Bálsamo/SP,-20.7343722,-49.5807484,1644,17988.83904
D1,Bálsamo/SP,-20.7343722,-49.5807484,61,667.46909
0,CASO SEM LOCALIZAÇÃO DEFINIDA/BA,-13.415069300066518,-38.14174656569957,10829,72.80948
D0,CASO SEM LOCALIZAÇÃO DEFINIDA/BA,-13.415069300066518,-38.14174656569957,261,1.75485
0,CASO SEM LOCALIZAÇÃO DEFINIDA/CE,-3.3445126297392798,-38.624961942434304,10671,116.85183
0,CASO SEM LOCALIZAÇÃO DEFINIDA/ES,-20.30989267097039,-39.81745156645774,4202,104.56248
D0,CASO SEM LOCALIZAÇÃO DEFINIDA/ES,-20.30989267097039,-39.81745156645774,210,5.22564
0,CASO SEM LOCALIZAÇÃO DEFINIDA/GO,-16.701590966270153,-49.164524059025034,1219,17.36874
D0,CASO SEM LOCALIZAÇÃO DEFINIDA/GO,-16.701590966270153,-49.164524059025034,52,0.74091
0,CASO SEM LOCALIZAÇÃO DEFINIDA/MG,-19.97049116501593,-43.8852149072783,4266,20.15231
D0,CASO SEM LOCALIZAÇÃO DEFINIDA/MG,-19.97049116501593,-43.8852149072783,324,1.53056
0,CASO SEM LOCALIZAÇÃO DEFINIDA/MT,-15.54791153961863,-56.17143998972475,2696,77.37197
D0,CASO SEM LOCALIZAÇÃO DEFINIDA/MT,-15.54791153961863,-56.17143998972475,205,5.88325
0,CASO SEM LOCALIZAÇÃO DEFINIDA/PA,-0.09317078214359542,-48.0050231510481,806,9.36897
D0,CASO SEM LOCALIZAÇÃO DEFINIDA/PA,-0.09317078214359542,-48.0050231510481,35,0.40684
0,CASO SEM LOCALIZAÇÃO DEFINIDA/PI,-2.683810218391744,-41.470898009352254,855,26.12101
D0,CASO SEM LOCALIZAÇÃO DEFINIDA/PI,-2.683810218391744,-41.470898009352254,7,0.21386
0,CASO SEM LOCALIZAÇÃO DEFINIDA/PR,-25.69415946385943,-48.10141676336737,6883,60.19788
D0,CASO SEM LOCALIZAÇÃO DEFINIDA/PR,-25.69415946385943,-48.10141676336737,173,1.51304
0,CASO SEM LOCALIZAÇÃO DEFINIDA/RR,2.813328208465927,-60.663338675861986,2615,431.68841
D0,CASO SEM LOCALIZAÇÃO DEFINIDA/RR,2.813328208465927,-60.663338675861986,15,2.47622
0,CASO SEM LOCALIZAÇÃO DEFINIDA/SP,-24.30968974555485,-46.21366504207253,931,2.02748
1,Caapiranga/AM,-3.3188884,-61.2096404,675,5081.68335
D1,Caapiranga/AM,-3.3188884,-61.2096404,22,165.62524
1,Caaporã/PB,-7.510234,-34.9154114,1995,9086.76839
D1,Caaporã/PB,-7.510234,-34.9154114,32,145.75268
1,Caarapó/MS,-22.6349267,-54.8240903,4018,13133.72340
D1,Caarapó/MS,-22.6349267,-54.8240903,53,173.24224
1,Caatiba/BA,-14.9782759,-40.4092325,909,14010.48089
D1,Caatiba/BA,-14.9782759,-40.4092325,12,184.95684
1,Cabaceiras do Paraguaçu/BA,-12.5377868,-39.1901339,601,3178.04452
D1,Cabaceiras do Paraguaçu/BA,-12.5377868,-39.1901339,4,21.15171
1,Cabaceiras/PB,-7.4899156,-36.2860501,390,6889.24218
D1,Cabaceiras/PB,-7.4899156,-36.2860501,3,52.99417
1,Cabeceira Grande/MG,-16.0297,-47.0906,417,5967.37264
D1,Cabeceira Grande/MG,-16.0297,-47.0906,5,71.55123
1,Cabeceiras do Piauí/PI,-4.4733665,-42.3098716,599,5634.99530
D1,Cabeceiras do Piauí/PI,-4.4733665,-42.3098716,12,112.88805
1,Cabeceiras/GO,-15.7995459,-46.9264991,352,4374.84464
D1,Cabeceiras/GO,-15.7995459,-46.9264991,16,198.85657
1,Cabedelo/PB,-6.97324,-34.8351609,9121,13263.62936
D1,Cabedelo/PB,-6.97324,-34.8351609,193,280.65787
1,Cabixi/RO,-13.4956065,-60.5424442,825,15902.08173
D1,Cabixi/RO,-13.4956065,-60.5424442,20,385.50501
1,Cabo Frio/RJ,-22.8804369,-42.0189227,13140,5703.66962
D1,Cabo Frio/RJ,-22.8804369,-42.0189227,692,300.37590
1,Cabo Verde/MG,-21.4743338,-46.3964995,672,4774.42274
D1,Cabo Verde/MG,-21.4743338,-46.3964995,9,63.94316
1,Cabo de Santo Agostinho/PE,-8.2838945,-35.0320984,8197,3923.06072
D1,Cabo de Santo Agostinho/PE,-8.2838945,-35.0320984,481,230.20522
1,Cabreúva/SP,-23.3075813,-47.1324417,3591,7120.90266
D1,Cabreúva/SP,-23.3075813,-47.1324417,91,180.45172
1,Cabrobó/PE,-8.5083701,-39.3106961,2250,6521.17207
D1,Cabrobó/PE,-8.5083701,-39.3106961,27,78.25406
1,Cabrália Paulista/SP,-22.4562909,-49.3385645,401,9450.86024
D1,Cabrália Paulista/SP,-22.4562909,-49.3385645,6,141.40938
1,Cacaulândia/RO,-10.3380043,-62.9007231,817,13032.38156
D1,Cacaulândia/RO,-10.3380043,-62.9007231,10,159.51507
1,Cacequi/RS,-29.8838059,-54.8273443,719,5787.65194
D1,Cacequi/RS,-29.8838059,-54.8273443,7,56.34710
1,Cachoeira Alta/GO,-18.7618269,-50.9432431,1537,12134.84920
D1,Cachoeira Alta/GO,-18.7618269,-50.9432431,24,189.48366
1,Cachoeira Dourada/GO,-18.4934204,-49.481062,581,7234.46644
D1,Cachoeira Dourada/GO,-18.4934204,-49.481062,26,323.74549
1,Cachoeira Dourada/MG,-18.517136,-49.5002062,156,5764.96674
D1,Cachoeira Dourada/MG,-18.517136,-49.5002062,2,73.90983
1,Cachoeira Grande/MA,-2.9290492,-44.0573223,311,3281.28297
D1,Cachoeira Grande/MA,-2.9290492,-44.0573223,7,73.85524
1,Cachoeira Paulista/SP,-22.666498,-45.015384,2423,7215.38965
D1,Cachoeira Paulista/SP,-22.666498,-45.015384,38,113.15923
1,Cachoeira da Prata/MG,-19.524723,-44.453056,226,6293.51156
D1,Cachoeira da Prata/MG,-19.524723,-44.453056,11,306.32136
1,Cachoeira de Goiás/GO,-16.6688414,-50.6435997,78,5812.22057
D1,Cachoeira de Goiás/GO,-16.6688414,-50.6435997,2,149.03130
1,Cachoeira de Minas/MG,-22.3554043,-45.7796324,767,6624.06080
D1,Cachoeira de Minas/MG,-22.3554043,-45.7796324,11,94.99957
1,Cachoeira de Pajeú/MG,-15.965833,-41.496666,499,5284.89727
D1,Cachoeira de Pajeú/MG,-15.965833,-41.496666,10,105.90976
1,Cachoeira do Arari/PA,-1.0143572,-48.9621089,494,2052.85904
D1,Cachoeira do Arari/PA,-1.0143572,-48.9621089,23,95.57846
1,Cachoeira do Piriá/PA,-1.7599443,-46.5446954,902,2606.25849
D1,Cachoeira do Piriá/PA,-1.7599443,-46.5446954,6,17.33653
1,Cachoeira do Sul/RS,-30.0474778,-52.8905413,10187,12443.04926
D1,Cachoeira do Sul/RS,-30.0474778,-52.8905413,174,212.53466
1,Cachoeira dos Índios/PB,-6.9259193,-38.6742159,842,8170.79088
D1,Cachoeira dos Índios/PB,-6.9259193,-38.6742159,14,135.85638
1,Cachoeira/BA,-12.5998256,-38.9665918,1604,4778.50270
D1,Cachoeira/BA,-12.5998256,-38.9665918,26,77.45703
1,Cachoeiras de Macacu/RJ,-22.4626861,-42.6534414,2920,4923.86557
D1,Cachoeiras de Macacu/RJ,-22.4626861,-42.6534414,93,156.82175
1,Cachoeirinha/PE,-8.4906364,-36.2338963,604,2946.19775
D1,Cachoeirinha/PE,-8.4906364,-36.2338963,29,141.45651
1,Cachoeirinha/RS,-29.9493353,-51.0898927,14312,10905.21183
D1,Cachoeirinha/RS,-29.9493353,-51.0898927,417,317.73849
1,Cachoeirinha/TO,-6.118647,-47.9208885,119,5210.15762
D1,Cachoeirinha/TO,-6.118647,-47.9208885,2,87.56567
1,Cachoeiro de Itapemirim/ES,-20.848084,-41.11129,26468,12568.55771
D1,Cachoeiro de Itapemirim/ES,-20.848084,-41.11129,564,267.82026
1,Cacimba de Areia/PB,-7.1288513,-37.1575194,54,1461.43437
D1,Cacimba de Areia/PB,-7.1288513,-37.1575194,4,108.25440
1,Cacimba de Dentro/PB,-6.6425101,-35.7929304,1154,6717.89498
D1,Cacimba de Dentro/PB,-6.6425101,-35.7929304,33,192.10618
1,Cacimbas/PB,-7.2125451,-37.0593398,240,3333.79636
D1,Cacimbas/PB,-7.2125451,-37.0593398,8,111.12655
1,Cacimbinhas/AL,-9.401212,-36.991082,751,6896.86840
D1,Cacimbinhas/AL,-9.401212,-36.991082,10,91.83580
1,Cacique Doble/RS,-27.7700117,-51.6616409,530,10445.40796
D1,Cacique Doble/RS,-27.7700117,-51.6616409,11,216.79149
1,Cacoal/RO,-11.4333,-61.4420502,13569,15797.56208
D1,Cacoal/RO,-11.4333,-61.4420502,283,329.47970
1,Caconde/SP,-21.527995,-46.643659,1305,6865.16913
D1,Caconde/SP,-21.527995,-46.643659,33,173.60198
1,Caculé/BA,-14.4990734,-42.2233006,1866,8011.67833
D1,Caculé/BA,-14.4990734,-42.2233006,14,60.10905
1,Caetanos/BA,-14.3387456,-40.9085971,665,4552.30011
D1,Caetanos/BA,-14.3387456,-40.9085971,10,68.45564
1,Caetanópolis/MG,-19.2947496,-44.4138386,963,8196.44225
D1,Caetanópolis/MG,-19.2947496,-44.4138386,15,127.67044
1,Caetité/BA,-14.0691776,-42.4852428,2700,5285.72268
D1,Caetité/BA,-14.0691776,-42.4852428,29,56.77258
1,Caeté/MG,-19.897777,-43.670278,1940,4306.61309
D1,Caeté/MG,-19.897777,-43.670278,64,142.07383
1,Caetés/PE,-8.7728788,-36.6255835,1582,5473.29089
D1,Caetés/PE,-8.7728788,-36.6255835,20,69.19458
1,Cafarnaum/BA,-11.691399,-41.468823,896,4839.84227
D1,Cafarnaum/BA,-11.691399,-41.468823,21,113.43380
1,Cafeara/PR,-22.78905,-51.714195,384,12999.32295
D1,Cafeara/PR,-22.78905,-51.714195,11,372.37644
1,Cafelândia/PR,-24.6176963,-53.3218057,2354,12754.65973
D1,Cafelândia/PR,-24.6176963,-53.3218057,19,102.94755
1,Cafelândia/SP,-21.8054355,-49.6030627,739,4141.68021
D1,Cafelândia/SP,-21.8054355,-49.6030627,36,201.75979
1,Cafezal do Sul/PR,-23.900508,-53.512418,424,10576.20354
D1,Cafezal do Sul/PR,-23.900508,-53.512418,4,99.77551
1,Caiabu/SP,-22.0143038,-51.2356597,260,6200.81088
D1,Caiabu/SP,-22.0143038,-51.2356597,7,166.94491
1,Caiana/MG,-20.695555,-41.924723,145,2616.85616
D1,Caiana/MG,-20.695555,-41.924723,7,126.33099
1,Caiapônia/GO,-16.9538779,-51.8090761,1195,6254.25237
D1,Caiapônia/GO,-16.9538779,-51.8090761,36,188.41262
1,Caibaté/RS,-28.290475,-54.645407,325,6738.54447
D1,Caibaté/RS,-28.290475,-54.645407,7,145.13788
1,Caibi/SC,-27.0751925,-53.2502133,624,10179.44535
D1,Caibi/SC,-27.0751925,-53.2502133,12,195.75856
1,Caicó/RN,-6.4594544,-37.0971911,11359,16620.57563
D1,Caicó/RN,-6.4594544,-37.0971911,137,200.45945
1,Caieiras/SP,-23.3644621,-46.7484765,8233,8010.70299
D1,Caieiras/SP,-23.3644621,-46.7484765,291,283.14279
1,Cairu/BA,-13.4860505,-39.0455744,1370,7434.74250
D1,Cairu/BA,-13.4860505,-39.0455744,16,86.82911
1,Caiuá/SP,-21.8319357,-51.9887179,336,5650.85772
D1,Caiuá/SP,-21.8319357,-51.9887179,8,134.54423
1,Caiçara do Norte/RN,-5.0645017,-36.0561226,517,7879.89636
D1,Caiçara do Norte/RN,-5.0645017,-36.0561226,10,152.41579
1,Caiçara do Rio do Vento/RN,-5.757968,-36.00089,347,9340.51144
D1,Caiçara do Rio do Vento/RN,-5.757968,-36.00089,8,215.34320
1,Caiçara/PB,-6.6146866,-35.4681434,779,10832.98568
D1,Caiçara/PB,-6.6146866,-35.4681434,14,194.68780
1,Caiçara/RS,-27.2750478,-53.4310053,579,12319.14894
D1,Caiçara/RS,-27.2750478,-53.4310053,8,170.21277
1,Cajamar/SP,-23.3561111,-46.8769444,4552,5840.83968
D1,Cajamar/SP,-23.3561111,-46.8769444,221,283.57328
1,Cajapió/MA,-2.8778715,-44.6746871,145,1292.79601
D1,Cajapió/MA,-2.8778715,-44.6746871,7,62.41084
1,Cajari/MA,-3.3213076,-45.0118757,241,1239.01085
D1,Cajari/MA,-3.3213076,-45.0118757,8,41.12899
1,Cajati/SP,-24.7272376,-48.1077914,3237,11360.28638
D1,Cajati/SP,-24.7272376,-48.1077914,99,347.44157
1,Cajazeiras do Piauí/PI,-6.794271,-42.3935024,65,1819.19955
D1,Cajazeiras do Piauí/PI,-6.794271,-42.3935024,1,27.98769
1,Cajazeiras/PB,-6.8897849,-38.5570389,9144,14679.95954
D1,Cajazeiras/PB,-6.8897849,-38.5570389,143,229.57505
1,Cajazeirinhas/PB,-6.961442,-37.7993733,173,5397.81591
D1,Cajazeirinhas/PB,-6.961442,-37.7993733,1,31.20125
1,Cajobi/SP,-20.8776238,-48.8106972,988,9324.27331
D1,Cajobi/SP,-20.8776238,-48.8106972,30,283.12571
1,Cajueiro da Praia/PI,-2.931114,-41.340801,477,6215.79359
D1,Cajueiro da Praia/PI,-2.931114,-41.340801,20,260.62028
1,Cajueiro/AL,-9.399589,-36.1524309,604,2831.55970
D1,Cajueiro/AL,-9.399589,-36.1524309,26,121.88833
1,Cajuri/MG,-20.7901414,-42.7954489,401,10090.58883
D1,Cajuri/MG,-20.7901414,-42.7954489,2,50.32713
1,Cajuru/SP,-21.2759978,-47.3046035,1076,4076.83856
D1,Cajuru/SP,-21.2759978,-47.3046035,36,136.39980
1,Caldas Brandão/PB,-7.1027959,-35.3254676,574,9493.88025
D1,Caldas Brandão/PB,-7.1027959,-35.3254676,10,165.39861
1,Caldas Novas/GO,-17.745,-48.625,8836,9481.09361
D1,Caldas Novas/GO,-17.745,-48.625,214,229.62359
1,Caldas/MG,-21.923611,-46.386111,919,6320.06052
D1,Caldas/MG,-21.923611,-46.386111,32,220.06740
1,Caldazinha/GO,-16.7116649,-49.0012601,310,8056.13306
D1,Caldazinha/GO,-16.7116649,-49.0012601,7,181.91268
1,Caldeirão Grande do Piauí/PI,-7.3310393,-40.6374433,399,6901.92008
D1,Caldeirão Grande do Piauí/PI,-7.3310393,-40.6374433,2,34.59609
1,Caldeirão Grande/BA,-11.0208483,-40.3041387,565,4219.25174
D1,Caldeirão Grande/BA,-11.0208483,-40.3041387,6,44.80621
1,Califórnia/PR,-23.6672543,-51.3554556,1242,14431.79177
D1,Califórnia/PR,-23.6672543,-51.3554556,28,325.35440
1,Calmon/SC,-26.6023644,-51.0992893,36,1079.46027
D1,Calmon/SC,-26.6023644,-51.0992893,4,119.94003
1,Calumbi/PE,-7.9389746,-38.1516871,705,12267.26988
D1,Calumbi/PE,-7.9389746,-38.1516871,5,87.00191
1,Calçado/PE,-8.7413446,-36.3351787,496,4501.72445
D1,Calçado/PE,-8.7413446,-36.3351787,6,54.45634
1,Calçoene/AP,2.4981757,-50.9539503,1648,14576.33115
D1,Calçoene/AP,2.4981757,-50.9539503,10,88.44861
1,Camacan/BA,-15.4166631,-39.4930088,2926,9142.03587
D1,Camacan/BA,-15.4166631,-39.4930088,80,249.95313
1,Camacho/MG,-20.625556,-45.156667,107,3729.52248
D1,Camacho/MG,-20.625556,-45.156667,2,69.71070
1,Camalaú/PB,-7.885031,-36.824191,436,7229.31520
D1,Camalaú/PB,-7.885031,-36.824191,7,116.06699
1,Camamu/BA,-13.9438142,-39.1060917,2315,6542.87491
D1,Camamu/BA,-13.9438142,-39.1060917,53,149.79368
1,Camanducaia/MG,-22.755278,-46.144444,3074,14100.27063
D1,Camanducaia/MG,-22.755278,-46.144444,61,279.80368
1,Camapuã/MS,-19.5291747,-54.0434641,857,6258.67231
D1,Camapuã/MS,-19.5291747,-54.0434641,30,219.09005
1,Camaquã/RS,-30.8524752,-51.8075619,6803,10233.46069
D1,Camaquã/RS,-30.8524752,-51.8075619,137,206.08322
1,Camaragibe/PE,-8.0213832,-34.9810768,6866,4320.98377
D1,Camaragibe/PE,-8.0213832,-34.9810768,399,251.10290
1,Camargo/RS,-28.5865661,-52.2031474,436,15900.80233
D1,Camargo/RS,-28.5865661,-52.2031474,6,218.81838
1,Camaçari/BA,-12.6998188,-38.3260762,23646,7770.57003
D1,Camaçari/BA,-12.6998188,-38.3260762,600,197.17255
1,Cambará do Sul/RS,-29.0489517,-50.145412,294,4589.44739
D1,Cambará do Sul/RS,-29.0489517,-50.145412,10,156.10365
1,Cambará/PR,-23.042273,-50.075281,2767,10865.46768
D1,Cambará/PR,-23.042273,-50.075281,50,196.34022
1,Cambira/PR,-23.600265,-51.581045,1016,12833.14387
D1,Cambira/PR,-23.600265,-51.581045,25,315.77618
1,Camboriú/SC,-27.0273601,-48.6535657,12408,14579.63692
D1,Camboriú/SC,-27.0273601,-48.6535657,155,182.12796
1,Cambuci/RJ,-21.5749919,-41.9107833,959,6181.51347
D1,Cambuci/RJ,-21.5749919,-41.9107833,33,212.71110
1,Cambuquira/MG,-21.853056,-45.2953619,753,5877.30253
D1,Cambuquira/MG,-21.853056,-45.2953619,21,163.90884
1,Cambuí/MG,-22.6122501,-46.0572137,3677,12333.13209
D1,Cambuí/MG,-22.6122501,-46.0572137,56,187.83122
1,Cambé/PR,-23.2782035,-51.2779583,11250,10480.61784
D1,Cambé/PR,-23.2782035,-51.2779583,241,224.51812
1,Cametá/PA,-2.242949,-49.497885,8910,6393.32970
D1,Cametá/PA,-2.242949,-49.497885,243,174.36354
1,Camocim de São Félix/PE,-8.3616757,-35.7638903,535,2830.68783
D1,Camocim de São Félix/PE,-8.3616757,-35.7638903,18,95.23810
1,Camocim/CE,-2.9009918,-40.8427389,6095,9537.29638
D1,Camocim/CE,-2.9009918,-40.8427389,162,253.49336
1,Campanha/MG,-21.8361108,-45.401986,1791,10684.88247
D1,Campanha/MG,-21.8361108,-45.401986,32,190.90801
1,Campanário/MG,-18.2398144,-41.7271768,230,6166.21984
D1,Campanário/MG,-18.2398144,-41.7271768,5,134.04826
1,Campestre da Serra/RS,-28.7966535,-51.0958149,255,7511.04566
D1,Campestre da Serra/RS,-28.7966535,-51.0958149,2,58.91016
1,Campestre de Goiás/GO,-16.7624179,-49.69497,509,13949.02713
D1,Campestre de Goiás/GO,-16.7624179,-49.69497,14,383.66676
1,Campestre do Maranhão/MA,-6.1729113,-47.3640512,1071,7410.22625
