type,name,lat,lon,total,total_per_100k_inhabitants
1,Abaetetuba/PA,-1.721828,-48.878843,22,13.95072
1,Abaeté/MG,-19.1566833,-45.4481213,1,4.30348
1,Abaiara/CE,-7.3607808,-39.0487878,1,8.52006
1,Abaíra/BA,-13.2503296,-41.6640342,1,11.44296
1,Abreu e Lima/PE,-7.900719,-34.898389,39,39.00390
D1,Abreu e Lima/PE,-7.900719,-34.898389,2,2.00020
1,Acajutiba/BA,-11.6609659,-38.0186381,1,6.59674
1,Acarape/CE,-4.2237866,-38.7071663,4,26.79349
D1,Acarape/CE,-4.2237866,-38.7071663,1,6.69837
1,Acaraú/CE,-2.8869514,-40.1194713,27,43.10276
D1,Acaraú/CE,-2.8869514,-40.1194713,1,1.59640
1,Acari/RN,-6.4364689,-36.6394777,1,8.97989
1,Acará/PA,-1.961388,-48.1987043,2,3.59770
1,Acopiara/CE,-6.0936464,-39.4543204,6,11.05583
D1,Acopiara/CE,-6.0936464,-39.4543204,1,1.84264
1,Acrelândia/AC,-10.0759167,-67.0526898,13,85.21238
1,Adamantina/SP,-21.6866517,-51.0762975,3,8.55481
1,Adustina/BA,-10.5358875,-38.114479,1,5.86854
D1,Adustina/BA,-10.5358875,-38.114479,1,5.86854
1,Afonso Cláudio/ES,-20.077841,-41.12606,8,26.15576
D1,Afonso Cláudio/ES,-20.077841,-41.12606,1,3.26947
1,Afuá/PA,-0.1535664,-50.3879223,1,2.54985
1,Agrestina/PE,-8.4558021,-35.9442663,1,4.01849
D1,Agrestina/PE,-8.4558021,-35.9442663,1,4.01849
1,Aguaí/SP,-22.0592036,-46.979384,13,35.80774
1,Agudos/SP,-22.471162,-48.987822,14,37.62025
D1,Agudos/SP,-22.471162,-48.987822,1,2.68716
1,Aiquara/BA,-14.126918,-39.8887574,1,22.49213
1,Ajuricaba/RS,-28.239654,-53.7693013,1,14.23690
1,Alagoa Grande/PB,-7.0415212,-35.6285322,1,3.50926
1,Alagoa Nova/PB,-7.0653703,-35.76695977336711,1,4.79639
1,Alagoinha/PE,-8.50355635,-36.77701174370496,1,6.83247
1,Alagoinhas/BA,-12.133526,-38.420772,7,4.61754
1,Alambari/SP,-23.550338,-47.897971,1,16.59751
1,Alcinópolis/MS,-18.3264121,-53.7094463,1,18.71608
1,Alcântara/MA,-2.4038956,-44.4154241,1,4.52550
1,Alcântaras/CE,-3.586247,-40.5457641,3,25.61038
1,Alegre/ES,-20.7625787,-41.5318886,2,6.64805
1,Alegrete/RS,-29.790166,-55.794862,1,1.35890
1,Alenquer/PA,-1.946229,-54.738355,1,1.76090
1,Alexandria/RN,-6.414779,-38.0135516,1,7.36540
D1,Alexandria/RN,-6.414779,-38.0135516,1,7.36540
1,Alfenas/MG,-21.4297405,-45.9479419,3,3.75019
1,Alfredo Chaves/ES,-20.624970400000002,-40.75006690147988,16,109.58154
1,Aliança/PE,-7.60398,-35.222696,7,18.23582
D1,Aliança/PE,-7.60398,-35.222696,1,2.60512
1,Almadina/BA,-14.70466,-39.6381994,1,18.30161
1,Almeirim/PA,-1.5290377,-52.5788111,2,5.86356
1,Almenara/MG,-16.1740678,-40.6904907,5,11.93431
1,Almirante Tamandaré/PR,-25.3133048,-49.2997838,6,5.05804
1,Aloândia/GO,-17.7277983,-49.4809338,1,50.12531
1,Alpercata/MG,-18.9803616,-41.9827637,1,13.46983
1,Alta Floresta/MT,-9.8715018,-56.0839881,1,1.93117
1,Altamira do Maranhão/MA,-4.1643006,-45.4674574,1,12.30315
D1,Altamira do Maranhão/MA,-4.1643006,-45.4674574,1,12.30315
1,Altamira/PA,-3.204065,-52.209961,10,8.72646
1,Altinho/PE,-8.4904095,-36.0607494,1,4.35313
1,Alto Alegre do Pindaré/MA,-3.6698186,-45.8462153,1,3.13293
1,Alto Alegre/RR,2.98858,-61.307167,4,25.78981
D1,Alto Alegre/RR,2.98858,-61.307167,1,6.44745
1,Alto Paraná/PR,-23.131247,-52.318893,4,27.08192
1,Alto Paraíso/RO,-9.7240103,-63.3188123,1,4.66679
1,Alto Santo/CE,-5.5190371,-38.2719351,7,40.82585
D1,Alto Santo/CE,-5.5190371,-38.2719351,1,5.83226
1,Alto do Rodrigues/RN,-5.290868,-36.7616726,2,13.76557
1,Altos/PI,-5.0393915,-42.4611694,1,2.46767
1,Alvorada do Gurguéia/PI,-8.4465288,-43.8655915,1,18.45359
1,Alvorada/RS,-29.9981184,-51.0772509,11,5.23050
D1,Alvorada/RS,-29.9981184,-51.0772509,1,0.47550
1,Além Paraíba/MG,-21.8760576,-42.6810473,1,2.82789
1,Amaporã/PR,-23.094272,-52.786597,7,111.87470
1,Amapá/AP,2.0529997,-50.7930003,2,21.95631
1,Amaraji/PE,-8.373925,-35.4536527,2,8.76079
D1,Amaraji/PE,-8.373925,-35.4536527,1,4.38039
1,Amaturá/AM,-3.3640509,-68.1994689,19,164.70180
1,Americana/SP,-22.7392463,-47.3306032,42,17.52943
D1,Americana/SP,-22.7392463,-47.3306032,3,1.25210
1,Amontada/CE,-3.3634586,-39.8284791,3,6.90417
D1,Amontada/CE,-3.3634586,-39.8284791,1,2.30139
1,Amparo/SP,-22.70111,-46.76444,9,12.46624
1,Amélia Rodrigues/BA,-12.4015388,-38.7516971,5,19.91873
1,Américo Brasiliense/SP,-21.7297099,-48.1052092,5,12.34446
1,Anadia/AL,-9.6830208,-36.3052699,1,5.69963
D1,Anadia/AL,-9.6830208,-36.3052699,1,5.69963
1,Anajatuba/MA,-3.26441,-44.6179916,6,22.38555
D1,Anajatuba/MA,-3.26441,-44.6179916,1,3.73093
1,Anamã/AM,-3.5797356,-61.4049996,1,7.34538
1,Ananindeua/PA,-1.374035,-48.4016623,240,45.23198
D1,Ananindeua/PA,-1.374035,-48.4016623,8,1.50773
1,Anapu/PA,-3.4668292,-51.2057035,5,17.92757
1,Anchieta/ES,-20.8057672,-40.6454564,7,23.92099
1,Andradina/SP,-20.896505,-51.3742765,5,8.74783
1,Angatuba/SP,-23.4938938,-48.4110675,2,7.92770
D1,Angatuba/SP,-23.4938938,-48.4110675,1,3.96385
1,Angical do Piauí/PI,-6.0872666,-42.7366138,1,14.73188
1,Angra dos Reis/RJ,-23.0063966,-44.316326,11,5.39785
1,Anhanguera/GO,-18.3338749,-48.220363,1,87.03220
1,Anita Garibaldi/SC,-27.6855032,-51.1293873,1,14.01935
1,Anori/AM,-3.7435254,-61.6605203,18,85.67349
1,Anta Gorda/RS,-28.9718745,-52.0069187,2,33.43922
1,Antônio Carlos/SC,-27.5168462,-48.7684715,11,129.21414
D1,Antônio Carlos/SC,-27.5168462,-48.7684715,3,35.24022
1,Anápolis/GO,-16.3332828,-48.9525756,40,10.33797
1,Anísio de Abreu/PI,-9.185643,-43.04941,3,30.36437
1,Aparecida de Goiânia/GO,-16.8226769,-49.2452546,29,5.01575
D1,Aparecida de Goiânia/GO,-16.8226769,-49.2452546,2,0.34591
1,Aparecida/SP,-22.851552,-45.2340924,1,2.76572
1,Aperibé/RJ,-21.6211928,-42.1028167,2,17.00825
1,Apiacá/ES,-21.152272,-41.569297,3,39.64583
1,Apiaí/SP,-24.5076527,-48.8461582,1,4.10273
1,Apodi/RN,-5.6631109,-37.796927,11,30.68768
D1,Apodi/RN,-5.6631109,-37.796927,1,2.78979
1,Apucarana/PR,-23.5525327,-51.4610764,15,11.11144
D1,Apucarana/PR,-23.5525327,-51.4610764,2,1.48153
1,Apuiarés/CE,-3.9460303,-39.4313298,2,13.69863
1,Aquiraz/CE,-3.9063117,-38.387504,60,74.74680
D1,Aquiraz/CE,-3.9063117,-38.387504,1,1.24578
1,Arabutã/SC,-27.1587028,-52.1438142,7,164.04968
1,Aracaju/SE,-10.9162061,-37.0774655,138,21.00415
D1,Aracaju/SE,-10.9162061,-37.0774655,7,1.06543
1,Aracati/CE,-4.558259,-37.767894,15,20.12153
D1,Aracati/CE,-4.558259,-37.767894,1,1.34144
1,Aracatu/BA,-14.4274236,-41.4604105,2,15.22649
1,Araci/BA,-11.3356065,-38.9573261,1,1.83895
D1,Araci/BA,-11.3356065,-38.9573261,1,1.83895
1,Aracoiaba/CE,-4.3702577,-38.8084313,6,22.66803
1,Aracruz/ES,-19.8245218,-40.2735025,19,18.77099
D1,Aracruz/ES,-19.8245218,-40.2735025,1,0.98795
1,Aragoiânia/GO,-16.9146388,-49.4499148,2,19.40241
1,Araguari/MG,-18.6511256,-48.1933764,7,5.96928
D1,Araguari/MG,-18.6511256,-48.1933764,1,0.85275
1,Araguaína/TO,-7.193241,-48.2018597,29,16.06915
1,Arandu/SP,-23.1345103,-49.0545651,9,141.57622
D1,Arandu/SP,-23.1345103,-49.0545651,2,31.46138
1,Arapiraca/AL,-9.754866,-36.661471,11,4.74656
1,Arapongas/PR,-23.415296,-51.42592,14,11.37962
D1,Arapongas/PR,-23.415296,-51.42592,1,0.81283
1,Araranguá/SC,-28.9348832,-49.4858389,4,5.86270
1,Araraquara/SP,-21.7886713,-48.1773096,56,23.72158
D1,Araraquara/SP,-21.7886713,-48.1773096,3,1.27080
1,Araras/SP,-22.3569477,-47.3838889,12,8.93948
D1,Araras/SP,-22.3569477,-47.3838889,1,0.74496
1,Ararendá/CE,-4.7504395,-40.8303611,1,9.14495
D1,Ararendá/CE,-4.7504395,-40.8303611,1,9.14495
1,Arari/MA,-3.4547602,-44.7772723,3,10.05092
D1,Arari/MA,-3.4547602,-44.7772723,1,3.35031
1,Araripe/CE,-7.212861,-40.1359222,1,4.62963
1,Araruama/RJ,-22.8733203,-42.3428897,30,22.65861
D1,Araruama/RJ,-22.8733203,-42.3428897,1,0.75529
1,Araruna/PR,-23.9320308,-52.4976047,10,71.58196
D1,Araruna/PR,-23.9320308,-52.4976047,1,7.15820
1,Araucária/PR,-25.5861107,-49.4051209,6,4.17121
1,Araxá/MG,-19.5928536,-46.940241,3,2.82409
D1,Araxá/MG,-19.5928536,-46.940241,1,0.94136
1,Araçariguama/SP,-23.438611,-47.061389,3,13.41442
D1,Araçariguama/SP,-23.438611,-47.061389,1,4.47147
1,Araçatuba/SP,-21.207992,-50.4390225,60,30.45438
D1,Araçatuba/SP,-21.207992,-50.4390225,2,1.01515
1,Araçoiaba da Serra/SP,-23.5045367,-47.6168158,2,5.85720
1,Araçoiaba/PE,-7.7856903,-35.0898881,2,9.74469
1,Arceburgo/MG,-21.364444,-46.939722,1,9.28333
1,Arcos/MG,-20.282223,-45.539444,7,17.45984
1,Arcoverde/PE,-8.415192,-37.057748,12,16.14248
D1,Arcoverde/PE,-8.415192,-37.057748,3,4.03562
1,Areal/RJ,-22.2314922,-43.1056264,2,15.90837
1,Arealva/SP,-22.0301906,-48.9111936,1,11.68224
1,Areia Branca/RN,-4.9506652,-37.1263312,5,18.00245
1,Areia Branca/SE,-10.7591455,-37.3148072,1,5.39316
1,Areia/PB,-6.9680243,-35.6994783,1,4.38231
1,Areiópolis/SP,-22.6758064,-48.6673653,3,26.95660
1,Aripuanã/MT,-10.175806,-59.4439663,2,8.94694
D1,Aripuanã/MT,-10.175806,-59.4439663,1,4.47347
1,Ariquemes/RO,-9.9076522,-63.033069,62,57.48032
1,Armazém/SC,-28.2624996,-49.0190126,2,23.05741
1,Armação dos Búzios/RJ,-22.7597805,-41.8875267,7,20.66726
1,Arneiroz/CE,-6.3235099,-40.1603859,3,38.26531
1,Arraial do Cabo/RJ,-22.9662839,-42.024427,5,16.47501
D1,Arraial do Cabo/RJ,-22.9662839,-42.024427,1,3.29500
1,Arroio do Meio/RS,-29.4020392,-51.9444993,6,28.83922
1,Arroio do Sal/RS,-29.549852,-49.8874395,2,19.87084
D1,Arroio do Sal/RS,-29.549852,-49.8874395,1,9.93542
1,Arroio dos Ratos/RS,-30.0894524,-51.7265541,3,21.19992
1,Artur Nogueira/SP,-22.572737,-47.172679,1,1.83797
1,Arujá/SP,-23.396266,-46.3175449,47,52.32455
D1,Arujá/SP,-23.396266,-46.3175449,1,1.11329
1,Arvorezinha/RS,-28.87369,-52.17808,1,9.59325
1,Arês/RN,-6.1969216,-35.1642968,1,6.99007
1,Assaí/PR,-23.3736041,-50.8454929,1,6.61419
1,Assis Chateaubriand/PR,-24.4054826,-53.5120468,9,26.97680
1,Assis/SP,-22.6620892,-50.420623,8,7.66386
D1,Assis/SP,-22.6620892,-50.420623,2,1.91597
1,Atalaia/AL,-9.5029595,-36.0219316,1,2.11932
1,Atibaia/SP,-23.1177393,-46.5547861,30,21.01414
D1,Atibaia/SP,-23.1177393,-46.5547861,1,0.70047
1,Augustinópolis/TO,-5.4662267,-47.8897519,1,5.43124
1,Augusto Corrêa/PA,-1.0229335,-46.6404029,11,23.91408
1,Aurelino Leal/BA,-14.3167137,-39.3256107,1,8.67227
1,Auriflama/SP,-20.6840418,-50.5554616,1,6.58371
1,Aurora do Pará/PA,-2.1323199,-47.558436,4,12.76406
1,Aurora/SC,-27.3166417,-49.6368502,1,17.60873
1,Autazes/AM,-3.5833283,-59.1301518,26,65.71465
D1,Autazes/AM,-3.5833283,-59.1301518,2,5.05497
1,Avaré/SP,-23.1045215,-48.9259103,15,16.54625
D1,Avaré/SP,-23.1045215,-48.9259103,1,1.10308
1,Avaí/SP,-22.1564662,-49.3316395,1,18.50824
1,Avelinópolis/GO,-16.4672409,-49.7578661,1,41.37360
1,Açailândia/MA,-4.9514278,-47.4844564,12,10.67188
1,Açu/RN,-5.5836157,-36.9139541,31,53.43261
D1,Açu/RN,-5.5836157,-36.9139541,2,3.44727
1,Bacabal/MA,-4.2318132,-44.781167,21,20.00972
D1,Bacabal/MA,-4.2318132,-44.781167,1,0.95284
1,Bacabeira/MA,-2.9775747,-44.3155943,8,46.90707
1,Bady Bassitt/SP,-20.9178969,-49.4517911,2,11.42727
1,Bagre/PA,-1.8994498,-50.2103844,2,6.52039
1,Bagé/RS,-31.3314264,-54.1062808,29,23.93865
1,Balneário Arroio do Silva/SC,-28.9815269,-49.4189932,4,30.60210
D1,Balneário Arroio do Silva/SC,-28.9815269,-49.4189932,1,7.65052
1,Balneário Barra do Sul/SC,-26.459842,-48.6061471,2,18.52710
1,Balneário Camboriú/SC,-26.9924395,-48.6339782,68,47.78805
D1,Balneário Camboriú/SC,-26.9924395,-48.6339782,2,1.40553
1,Balneário Gaivota/SC,-29.1553098,-49.5808712,2,18.21660
D1,Balneário Gaivota/SC,-29.1553098,-49.5808712,1,9.10830
1,Balneário Piçarras/SC,-26.7638889,-48.6716667,3,12.96064
1,Balsa Nova/PR,-25.5842234,-49.6312741,5,38.63689
1,Balsas/MA,-7.53214,-46.037163,4,4.21554
1,Banabuiú/CE,-5.3046404,-38.919766,4,21.98165
1,Bandeirantes/PR,-23.107788,-50.370407,3,9.56419
D1,Bandeirantes/PR,-23.107788,-50.370407,1,3.18806
1,Baraúna/RN,-5.0775002,-37.61752,1,3.52435
1,Barbacena/MG,-21.2254524,-43.7735087,5,3.64132
1,Barbalha/CE,-7.3121067,-39.3036427,4,6.58100
1,Barcarena/PA,-1.5107945,-48.6190679,15,12.03080
D1,Barcarena/PA,-1.5107945,-48.6190679,1,0.80205
1,Barcelona/RN,-5.9514918,-35.9260284,1,25.01251
1,Barcelos/AM,-0.9729214,-62.925635,2,7.27220
D1,Barcelos/AM,-0.9729214,-62.925635,1,3.63610
1,Bariri/SP,-22.0746355,-48.7394852,1,2.83575
1,Barra Bonita/SP,-22.490859,-48.558349,5,13.84045
D1,Barra Bonita/SP,-22.490859,-48.558349,1,2.76809
1,Barra Mansa/RJ,-22.5394843,-44.1735129,25,13.55660
D1,Barra Mansa/RJ,-22.5394843,-44.1735129,1,0.54226
1,Barra Velha/SC,-26.6338203,-48.6835001,2,6.85683
1,Barra de Santo Antônio/AL,-9.4038098,-35.5117693,1,6.27668
1,Barra de São Miguel/PB,-7.7528088,-36.3170996,1,16.56726
1,Barra do Choça/BA,-14.8638173,-40.5761637,1,3.16426
1,Barra do Garças/MT,-15.8916033,-52.2615413,3,4.91707
D1,Barra do Garças/MT,-15.8916033,-52.2615413,1,1.63902
1,Barra do Piraí/RJ,-22.4703403,-43.8263256,17,16.93666
D1,Barra do Piraí/RJ,-22.4703403,-43.8263256,3,2.98882
1,Barra do Rocha/BA,-14.2090974,-39.6004395,3,52.50263
1,Barra do Turvo/SP,-24.756421,-48.5056942,1,13.05653
1,Barra dos Coqueiros/SE,-10.9075694,-37.0386249,3,9.86615
1,Barra/BA,-11.0892702,-43.1420453,2,3.73288
1,Barracão/PR,-26.252395,-53.6349576,1,9.73236
1,Barras/PI,-4.2446153,-42.2920241,1,2.12468
1,Barreira/CE,-4.2883361,-38.641094,1,4.45931
1,Barreiras/BA,-12.1440031,-44.9967406,1,0.64334
1,Barreirinhas/MA,-2.7541271,-42.8259693,6,9.59570
1,Barretos/SP,-20.5531437,-48.5697509,24,19.65634
D1,Barretos/SP,-20.5531437,-48.5697509,2,1.63803
1,Barro Alto/GO,-14.9696025,-48.9190985,1,8.95496
1,Barro Preto/BA,-14.8068289,-39.4727588,3,53.65766
1,Barroquinha/CE,-3.0200371,-41.1339229,2,13.31824
1,Barueri/SP,-23.5112184,-46.8764612,253,92.27447
D1,Barueri/SP,-23.5112184,-46.8764612,13,4.74138
1,Bataguassu/MS,-21.715899,-52.422058,2,8.68659
1,Batatais/SP,-20.892867,-47.592149,2,3.19959
D1,Batatais/SP,-20.892867,-47.592149,1,1.59980
1,Batayporã/MS,-22.2976466,-53.2685608,6,52.96143
D1,Batayporã/MS,-22.2976466,-53.2685608,2,17.65381
1,Baturité/CE,-4.3290203,-38.8821055,4,11.18881
1,Bauru/SP,-22.3218102,-49.0705863,85,22.55731
D1,Bauru/SP,-22.3218102,-49.0705863,6,1.59228
1,Bayeux/PB,-7.1301631,-34.936532,17,17.54748
D1,Bayeux/PB,-7.1301631,-34.936532,1,1.03220
1,Baía Formosa/RN,-6.3691885,-35.0063741,1,10.78632
1,Bebedouro/SP,-20.949077,-48.479083,6,7.74234
1,Beberibe/CE,-4.1810469,-38.1298101,16,29.86579
1,Bela Cruz/CE,-3.0529129,-40.167582,9,27.61499
D1,Bela Cruz/CE,-3.0529129,-40.167582,1,3.06833
1,Bela Vista de Goiás/GO,-16.9692949,-48.9513071,3,10.00834
1,Belford Roxo/RJ,-22.7667284,-43.4033603,149,29.16388
D1,Belford Roxo/RJ,-22.7667284,-43.4033603,8,1.56585
1,Belmiro Braga/MG,-21.9486291,-43.413564,1,29.16302
D1,Belmiro Braga/MG,-21.9486291,-43.413564,1,29.16302
1,Belmonte/BA,-15.8630837,-38.8792845,2,8.57339
D1,Belmonte/BA,-15.8630837,-38.8792845,1,4.28669
1,Belo Horizonte/MG,-19.9227318,-43.9450948,559,22.25256
D1,Belo Horizonte/MG,-19.9227318,-43.9450948,11,0.43789
1,Belo Jardim/PE,-8.3338293,-36.4176419,5,6.54116
D1,Belo Jardim/PE,-8.3338293,-36.4176419,1,1.30823
1,Belo Oriente/MG,-19.2232523,-42.4807033,1,3.74532
1,Belo Vale/MG,-20.407778,-44.024167,1,12.96176
D1,Belo Vale/MG,-20.407778,-44.024167,1,12.96176
1,Belém/PA,-1.45056,-48.4682453,1344,90.03547
D1,Belém/PA,-1.45056,-48.4682453,72,4.82333
1,Benevides/PA,-1.3555577,-48.252235,12,19.12747
D1,Benevides/PA,-1.3555577,-48.252235,1,1.59396
1,Benjamin Constant/AM,-4.3782748,-70.0290603,18,41.87605
1,Bento Fernandes/RN,-5.6926846,-35.8207423,2,36.38348
1,Bento Gonçalves/RS,-29.1654014,-51.5197627,17,14.11327
1,Beruri/AM,-3.9007135,-61.3717319,7,35.57091
D1,Beruri/AM,-3.9007135,-61.3717319,1,5.08156
1,Betim/MG,-19.968056,-44.198333,12,2.73137
1,Betânia do Piauí/PI,-8.1460635,-40.7961387,1,16.11604
1,Betânia/PE,-8.2742779,-38.0351767,2,15.72451
1,Bezerros/PE,-8.2372132,-35.7558262,1,1.64479
1,Bicas/MG,-21.7213723,-43.0604327,1,6.89941
1,Biguaçu/SC,-27.4961277,-48.6542432,4,5.84104
1,Bilac/SP,-21.403962,-50.47464,1,12.44710
1,Birigui/SP,-21.2908491,-50.34144,16,12.94101
1,Biritiba-Mirim/SP,-23.5697765,-46.0407456,4,12.27069
1,Blumenau/SC,-26.9195567,-49.0658025,159,44.51300
1,Boa Esperança/ES,-18.5395472,-40.2904088,1,6.65026
1,Boa Esperança/MG,-21.0901253,-45.5660195,9,22.42879
1,Boa Viagem/CE,-5.1261877,-39.7300055,1,1.83587
1,Boa Vista da Aparecida/PR,-25.4357216,-53.4067721,1,13.17349
1,Boa Vista/RR,2.8208478,-60.6719582,383,95.93876
D1,Boa Vista/RR,2.8208478,-60.6719582,3,0.75148
1,Boca da Mata/AL,-9.6452054,-36.2116658,1,3.66555
1,Boca do Acre/AM,-8.7553487,-67.3930873,4,11.65909
1,Bocaina/SP,-22.1421831,-48.522276,1,8.11096
1,Boituva/SP,-23.2838893,-47.6738231,8,13.11540
1,Bom Conselho/PE,-9.169191,-36.685683,2,4.11913
D1,Bom Conselho/PE,-9.169191,-36.685683,1,2.05956
1,Bom Despacho/MG,-19.7375242,-45.2517288,1,1.97609
1,Bom Jardim/MA,-3.54129,-45.606004,1,2.40211
1,Bom Jardim/PE,-7.7961572,-35.5871696,3,7.65619
D1,Bom Jardim/PE,-7.7961572,-35.5871696,1,2.55206
1,Bom Jardim/RJ,-22.1515328,-42.4186683,5,18.21759
D1,Bom Jardim/RJ,-22.1515328,-42.4186683,1,3.64352
1,Bom Jesus de Goiás/GO,-18.2174587,-49.739721,2,7.93147
1,Bom Jesus do Itabapoana/RJ,-21.1341025,-41.680095,7,18.86996
D1,Bom Jesus do Itabapoana/RJ,-21.1341025,-41.680095,1,2.69571
1,Bom Jesus do Norte/ES,-21.1254776,-41.6711646,8,80.51530
1,Bom Jesus do Tocantins/PA,-5.0471796,-48.5978362,1,5.88893
1,Bom Jesus dos Perdões/SP,-23.1353864,-46.4648052,1,3.92958
1,Bom Jesus/PB,-6.8156725,-38.6551841,1,39.04725
1,Bom Jesus/PI,-9.0711644,-44.3583926,2,7.94313
1,Bom Princípio do Piauí/PI,-3.1912777,-41.6430185,1,17.76199
D1,Bom Princípio do Piauí/PI,-3.1912777,-41.6430185,1,17.76199
1,Bom Retiro do Sul/RS,-29.6000007,-51.9359243,4,32.44646
1,Bonfim do Piauí/PI,-9.1648678,-42.8734415,1,17.63668
1,Bonfim/MG,-20.3266626, -44.2386157,1,14.56028
D1,Bonfim/MG,-20.3266626, -44.2386157,1,14.56028
1,Bonfim/RR,3.3613818,-59.8427241,4,32.23467
1,Bonito/PA,-1.3605722,-47.3049907,1,6.14024
1,Bonito/PE,-8.4721161,-35.7314591,2,5.24466
D1,Bonito/PE,-8.4721161,-35.7314591,1,2.62233
1,Boqueirão/PB,-7.487004,-36.130887,1,5.61672
D1,Boqueirão/PB,-7.487004,-36.130887,1,5.61672
1,Borborema/SP,-21.6212706,-49.074135,1,6.23208
1,Borda da Mata/MG,-22.274167,-46.165278,2,10.30291
1,Borebi/SP,-22.5700178,-48.9714871,2,75.38636
1,Botelhos/MG,-21.65,-46.394722,1,6.67958
1,Botucatu/SP,-22.8879628,-48.4410712,52,35.49561
D1,Botucatu/SP,-22.8879628,-48.4410712,2,1.36522
1,Botuverá/SC,-27.200749,-49.068892,3,57.18643
1,Bragança Paulista/SP,-22.9520235,-46.5418586,46,27.27251
D1,Bragança Paulista/SP,-22.9520235,-46.5418586,9,5.33593
1,Bragança/PA,-1.0573967,-46.7635406,23,18.01294
D1,Bragança/PA,-1.0573967,-46.7635406,4,3.13268
1,Brasília de Minas/MG,-16.2075114,-44.430559,2,6.18295
1,Brasília/DF,-15.7934036,-47.8823172,1384,45.89973
D1,Brasília/DF,-15.7934036,-47.8823172,28,0.92861
1,Braço do Norte/SC,-28.2728633,-49.1622712,28,83.70703
D1,Braço do Norte/SC,-28.2728633,-49.1622712,2,5.97907
1,Brejetuba/ES,-20.1465817,-41.2902303,1,8.06192
1,Brejo Santo/CE,-7.4909841,-38.9859152,3,6.06342
1,Brejo do Cruz/PB,-6.32926065,-37.48746163303929,1,7.08115
D1,Brejo do Cruz/PB,-6.32926065,-37.48746163303929,1,7.08115
1,Brejo/MA,-3.6804397,-42.7529313,1,2.74748
1,Breves/PA,-1.68036,-50.479085,27,26.28991
D1,Breves/PA,-1.68036,-50.479085,3,2.92110
1,Brodowski/SP,-20.984532,-47.657217,6,24.05870
1,Brumado/BA,-14.29507325,-41.659307508575985,8,11.90565
1,Brusque/SC,-27.0964628,-48.9136323,40,29.69055
1,Buerarema/BA,-14.9571177,-39.3008035,10,54.49888
1,Bujari/AC,-9.8309656,-67.9520886,1,9.74089
1,Bujaru/PA,-1.5169239,-48.0410699,5,17.16326
1,Buritama/SP,-21.0664017,-50.1448077,4,23.33178
1,Buriti dos Lopes/PI,-3.1776723,-41.8707444,1,5.05536
D1,Buriti dos Lopes/PI,-3.1776723,-41.8707444,1,5.05536
1,Buriticupu/MA,-4.3227472,-46.4516989,1,1.38202
1,Buritis/RO,-10.2054937,-63.8281954,1,2.52181
0,CASO SEM LOCALIZAÇÃO DEFINIDA/AC,-9.884083190922777,-67.85119819780795,16,1.81419
D0,CASO SEM LOCALIZAÇÃO DEFINIDA/AC,-9.884083190922777,-67.85119819780795,2,0.22677
0,CASO SEM LOCALIZAÇÃO DEFINIDA/AL,-9.931093434363673,-35.609611600637464,11,0.32960
D0,CASO SEM LOCALIZAÇÃO DEFINIDA/AL,-9.931093434363673,-35.609611600637464,2,0.05993
0,CASO SEM LOCALIZAÇÃO DEFINIDA/AM,-3.07518492149711,-60.16169212873594,504,12.16041
D0,CASO SEM LOCALIZAÇÃO DEFINIDA/AM,-3.07518492149711,-60.16169212873594,47,1.13401
0,CASO SEM LOCALIZAÇÃO DEFINIDA/BA,-13.415069300066518,-38.14174656569957,16,0.10758
D0,CASO SEM LOCALIZAÇÃO DEFINIDA/BA,-13.415069300066518,-38.14174656569957,1,0.00672
0,CASO SEM LOCALIZAÇÃO DEFINIDA/CE,-3.3445126297392798,-38.624961942434304,29,0.31756
D0,CASO SEM LOCALIZAÇÃO DEFINIDA/CE,-3.3445126297392798,-38.624961942434304,1,0.01095
0,CASO SEM LOCALIZAÇÃO DEFINIDA/ES,-20.30989267097039,-39.81745156645774,99,2.46351
D0,CASO SEM LOCALIZAÇÃO DEFINIDA/ES,-20.30989267097039,-39.81745156645774,1,0.02488
0,CASO SEM LOCALIZAÇÃO DEFINIDA/GO,-16.701590966270153,-49.164524059025034,2,0.02850
D0,CASO SEM LOCALIZAÇÃO DEFINIDA/GO,-16.701590966270153,-49.164524059025034,1,0.01425
0,CASO SEM LOCALIZAÇÃO DEFINIDA/MA,-2.171256551718846,-43.98946796681719,276,3.90096
0,CASO SEM LOCALIZAÇÃO DEFINIDA/MG,-19.97049116501593,-43.8852149072783,81,0.38264
D0,CASO SEM LOCALIZAÇÃO DEFINIDA/MG,-19.97049116501593,-43.8852149072783,9,0.04252
0,CASO SEM LOCALIZAÇÃO DEFINIDA/MT,-15.54791153961863,-56.17143998972475,7,0.20089
D0,CASO SEM LOCALIZAÇÃO DEFINIDA/MT,-15.54791153961863,-56.17143998972475,1,0.02870
0,CASO SEM LOCALIZAÇÃO DEFINIDA/PB,-7.1049355696146606,-34.68696690234351,66,1.64256
0,CASO SEM LOCALIZAÇÃO DEFINIDA/PE,-8.121628543819208,-34.57313921302556,2423,25.35296
D0,CASO SEM LOCALIZAÇÃO DEFINIDA/PE,-8.121628543819208,-34.57313921302556,128,1.33932
0,CASO SEM LOCALIZAÇÃO DEFINIDA/PI,-2.683810218391744,-41.470898009352254,46,1.40534
0,CASO SEM LOCALIZAÇÃO DEFINIDA/PR,-25.69415946385943,-48.10141676336737,85,0.74340
D0,CASO SEM LOCALIZAÇÃO DEFINIDA/PR,-25.69415946385943,-48.10141676336737,2,0.01749
0,CASO SEM LOCALIZAÇÃO DEFINIDA/RJ,-23.210238986465157,-43.12864305824042,560,3.24357
D0,CASO SEM LOCALIZAÇÃO DEFINIDA/RJ,-23.210238986465157,-43.12864305824042,61,0.35332
0,CASO SEM LOCALIZAÇÃO DEFINIDA/RN,-5.749310788669161,-34.95302586257457,9,0.25664
D0,CASO SEM LOCALIZAÇÃO DEFINIDA/RN,-5.749310788669161,-34.95302586257457,1,0.02852
0,CASO SEM LOCALIZAÇÃO DEFINIDA/RO,-8.681174926655274,-63.9216949899276,20,1.12535
D0,CASO SEM LOCALIZAÇÃO DEFINIDA/RO,-8.681174926655274,-63.9216949899276,2,0.11253
0,CASO SEM LOCALIZAÇÃO DEFINIDA/RR,2.813328208465927,-60.663338675861986,27,4.45720
D0,CASO SEM LOCALIZAÇÃO DEFINIDA/RR,2.813328208465927,-60.663338675861986,2,0.33016
0,CASO SEM LOCALIZAÇÃO DEFINIDA/RS,-30.50647488532064,-49.906261466443524,94,0.82621
0,CASO SEM LOCALIZAÇÃO DEFINIDA/SC,-27.675643660562308,-48.18313219398259,539,7.52290
0,CASO SEM LOCALIZAÇÃO DEFINIDA/SE,-11.03002091978736,-36.89283180376513,69,3.00170
0,CASO SEM LOCALIZAÇÃO DEFINIDA/TO,-10.213012114749148,-48.40023803990334,37,2.35239
1,Caapiranga/AM,-3.3188884,-61.2096404,1,7.64468
1,Caaporã/PB,-7.510234,-34.9154114,1,4.58127
1,Cabedelo/PB,-6.97324,-34.8351609,22,32.47904
D1,Cabedelo/PB,-6.97324,-34.8351609,2,2.95264
1,Cabo Frio/RJ,-22.8804369,-42.0189227,28,12.36067
D1,Cabo Frio/RJ,-22.8804369,-42.0189227,3,1.32436
1,Cabo de Santo Agostinho/PE,-8.2838945,-35.0320984,36,17.38727
D1,Cabo de Santo Agostinho/PE,-8.2838945,-35.0320984,12,5.79576
1,Cabreúva/SP,-23.3075813,-47.1324417,2,4.02358
1,Cabrobó/PE,-8.5083701,-39.3106961,1,2.92218
1,Cachoeira Grande/MA,-2.9290492,-44.0573223,4,42.41332
D1,Cachoeira Grande/MA,-2.9290492,-44.0573223,1,10.60333
1,Cachoeira Paulista/SP,-22.666498,-45.015384,3,9.00171
1,Cachoeira do Arari/PA,-1.0143572,-48.9621089,6,25.24509
D1,Cachoeira do Arari/PA,-1.0143572,-48.9621089,1,4.20751
1,Cachoeira do Sul/RS,-30.0474778,-52.8905413,2,2.43306
1,Cachoeira/BA,-12.5998256,-38.9665918,1,2.98775
1,Cachoeiras de Macacu/RJ,-22.4626861,-42.6534414,10,16.96727
D1,Cachoeiras de Macacu/RJ,-22.4626861,-42.6534414,1,1.69673
1,Cachoeirinha/PE,-8.4906364,-36.2338963,8,39.25417
1,Cachoeirinha/RS,-29.9493353,-51.0898927,14,10.74501
1,Cachoeiro de Itapemirim/ES,-20.848084,-41.11129,10,4.78533
1,Caconde/SP,-21.527995,-46.643659,1,5.26732
1,Caetanos/BA,-14.3387456,-40.9085971,1,6.87663
1,Caetanópolis/MG,-19.2947496,-44.4138386,1,8.60289
1,Caeté/MG,-19.897777,-43.670278,2,4.47247
1,Caiabu/SP,-22.0143038,-51.2356597,1,23.86065
D1,Caiabu/SP,-22.0143038,-51.2356597,1,23.86065
1,Caicó/RN,-6.4594544,-37.0971911,1,1.47163
1,Caieiras/SP,-23.3644621,-46.7484765,71,69.97142
D1,Caieiras/SP,-23.3644621,-46.7484765,10,9.85513
1,Cajamar/SP,-23.3561111,-46.8769444,25,32.55166
D1,Cajamar/SP,-23.3561111,-46.8769444,3,3.90620
1,Cajapió/MA,-2.8778715,-44.6746871,1,8.94694
1,Cajati/SP,-24.7272376,-48.1077914,5,17.51375
1,Cajazeiras/PB,-6.8897849,-38.5570389,4,6.45234
D1,Cajazeiras/PB,-6.8897849,-38.5570389,1,1.61309
1,Cajuru/SP,-21.2759978,-47.3046035,2,7.64321
1,Caldas Novas/GO,-17.745,-48.625,1,1.09695
1,Caldeirão Grande/BA,-11.0208483,-40.3041387,1,7.50356
1,Camacan/BA,-15.4166631,-39.4930088,2,6.25234
1,Camamu/BA,-13.9438142,-39.1060917,1,2.83158
1,Camanducaia/MG,-22.755278,-46.144444,2,9.18695
1,Camaquã/RS,-30.8524752,-51.8075619,1,1.50918
1,Camaragibe/PE,-8.0213832,-34.9810768,136,86.16975
D1,Camaragibe/PE,-8.0213832,-34.9810768,14,8.87042
1,Camaçari/BA,-12.6998188,-38.3260762,40,13.37202
D1,Camaçari/BA,-12.6998188,-38.3260762,1,0.33430
1,Camboriú/SC,-27.0273601,-48.6535657,66,79.52861
D1,Camboriú/SC,-27.0273601,-48.6535657,3,3.61494
1,Cambuquira/MG,-21.853056,-45.2953619,2,15.60793
1,Cambuí/MG,-22.6122501,-46.0572137,8,27.07184
1,Cambé/PR,-23.2782035,-51.2779583,6,5.63206
1,Cametá/PA,-2.242949,-49.497885,9,6.52694
D1,Cametá/PA,-2.242949,-49.497885,1,0.72522
1,Camocim de São Félix/PE,-8.3616757,-35.7638903,1,5.32907
1,Camocim/CE,-2.9009918,-40.8427389,1,1.57082
1,Campestre da Serra/RS,-28.7966535,-51.0958149,1,29.51594
1,Campestre de Goiás/GO,-16.7624179,-49.69497,1,27.54821
1,Campina Grande do Sul/PR,-25.3046032,-49.0545355,5,11.55055
1,Campina Grande/PB,-7.2246743,-35.8771292,42,10.25063
D1,Campina Grande/PB,-7.2246743,-35.8771292,2,0.48813
1,Campina da Lagoa/PR,-24.5937926,-52.8038965,1,7.04126
D1,Campina da Lagoa/PR,-24.5937926,-52.8038965,1,7.04126
1,Campinas do Sul/RS,-27.7167968,-52.6257885,1,18.33517
1,Campinas/SP,-22.90556,-47.06083,320,26.57646
D1,Campinas/SP,-22.90556,-47.06083,12,0.99662
1,Campinorte/GO,-14.3136699,-49.1510931,1,7.92016
1,Campo Alegre de Lourdes/BA,-9.5160326,-43.0101338,3,10.41739
1,Campo Belo/MG,-20.8975,-45.277223,3,5.55257
1,Campo Bom/RS,-29.674694,-51.060601,4,5.99592
1,Campo Formoso/BA,-10.51055,-40.320031,1,1.40438
1,Campo Grande/MS,-20.4640173,-54.6162947,128,14.28600
D1,Campo Grande/MS,-20.4640173,-54.6162947,2,0.22322
1,Campo Largo/PR,-25.4597726,-49.5270851,18,13.63616
D1,Campo Largo/PR,-25.4597726,-49.5270851,2,1.51513
1,Campo Limpo Paulista/SP,-23.207791,-46.788919,16,18.90136
D1,Campo Limpo Paulista/SP,-23.207791,-46.788919,2,2.36267
1,Campo Magro/PR,-25.3691533,-49.4496921,1,3.41087
1,Campo Maior/PI,-4.8339574,-42.1739786,3,6.40574
1,Campo Mourão/PR,-24.046329,-52.37802,32,33.73428
D1,Campo Mourão/PR,-24.046329,-52.37802,4,4.21678
1,Campo Novo do Parecis/MT,-13.658735,-57.890723,1,2.82805
1,Campo Redondo/RN,-6.2420373,-36.1830606,1,8.91504
1,Campo do Tenente/PR,-25.9814143,-49.684518,1,12.54548
1,Campos Altos/MG,-19.696389,-46.171389,1,6.46789
1,Campos Gerais/MG,-21.2333342,-45.7584127,1,3.47536
1,Campos Sales/CE,-7.0742675,-40.3740367,2,7.29235
1,Campos do Jordão/SP,-22.7395263,-45.5912829,3,5.75948
1,Campos dos Goytacazes/RJ,-21.7558619,-41.3326895,9,1.77323
D1,Campos dos Goytacazes/RJ,-21.7558619,-41.3326895,2,0.39405
1,Cananéia/SP,-25.0104609,-47.9315628,5,39.87241
1,Canarana/BA,-11.6870151,-41.7683675,2,7.64059
1,Canarana/MT,-13.5564602,-52.2691167,1,4.63414
1,Canavieiras/BA,-15.61621745,-39.08485321304444,11,35.37091
1,Canaã dos Carajás/PA,-6.5296837,-49.8516592,3,8.08952
D1,Canaã dos Carajás/PA,-6.5296837,-49.8516592,1,2.69651
1,Candeias do Jamari/RO,-8.7949939,-63.7018851,1,3.74630
1,Candeias/BA,-12.6693806,-38.5406462,5,5.74211
1,Candelária/RS,-29.668391,-52.789495,2,6.37653
1,Candiota/RS,-31.5451894,-53.719538,1,10.43406
1,Canelinha/SC,-27.2660341,-48.7666708,1,8.16993
1,Canguaretama/RN,-6.3751942,-35.137463,11,32.09243
D1,Canguaretama/RN,-6.3751942,-35.137463,3,8.75248
1,Canguçu/RS,-31.398276,-52.6773522,2,3.56856
1,Canindé de São Francisco/SE,-9.6597475,-37.7904456,1,3.34448
1,Canindé/CE,-4.3547946,-39.3108516,13,16.88377
1,Canoas/RS,-29.9216045,-51.1799525,21,6.05858
D1,Canoas/RS,-29.9216045,-51.1799525,1,0.28850
1,Cansanção/BA,-10.6671448,-39.498199,1,2.87076
1,Cantagalo/RJ,-21.9811325,-42.3682522,1,4.95737
1,Cantanhede/MA,-3.6355005,-44.3778738,1,4.54649
1,Canto do Buriti/PI,-8.1112473,-42.944844,1,4.71988
1,Cantá/RR,2.60994,-60.605827,4,21.81620
1,Canutama/AM,-6.5330019,-64.3834966,2,12.79672
1,Capanema/PA,-1.1933054,-47.1828679,20,28.97417
D1,Capanema/PA,-1.1933054,-47.1828679,1,1.44871
1,Capela do Alto/SP,-23.4704798,-47.7352309,1,4.82952
1,Capela/AL,-9.415041,-36.082583,1,5.86407
1,Capela/SE,-10.50494,-37.0552566,1,2.92287
1,Capim Grosso/BA,-11.3793228,-40.0112095,2,6.52273
D1,Capim Grosso/BA,-11.3793228,-40.0112095,1,3.26137
1,Capistrano/CE,-4.4644692,-38.8956734,2,11.27523
D1,Capistrano/CE,-4.4644692,-38.8956734,1,5.63761
1,Capitão Poço/PA,-1.7447162,-47.0638495,2,3.68304
1,Capitólio/MG,-20.6142437,-46.0487652,1,11.58480
1,Capivari de Baixo/SC,-28.449773,-48.963144,3,12.06224
1,Capoeiras/PE,-8.7386788,-36.6268109,1,4.98803
1,Capão Bonito/SP,-24.0048759,-48.3489848,3,6.36429
D1,Capão Bonito/SP,-24.0048759,-48.3489848,1,2.12143
1,Capão da Canoa/RS,-29.7542937,-50.0215684,7,13.19535
1,Capão do Leão/RS,-31.766133,-52.5013148,1,3.94415
1,Caracol/PI,-9.2804898,-43.3284924,1,9.16086
1,Caraguatatuba/SP,-23.62028,-45.41306,25,20.57071
D1,Caraguatatuba/SP,-23.62028,-45.41306,4,3.29131
1,Carangola/MG,-20.733056,-42.029445,1,3.03030
1,Carapebus/RJ,-22.1869969,-41.6633764,1,6.13459
1,Carapicuíba/SP,-23.5234673,-46.8406808,187,46.64191
D1,Carapicuíba/SP,-23.5234673,-46.8406808,8,1.99538
1,Carauari/AM,-4.8766426,-66.8961433,65,229.73068
D1,Carauari/AM,-4.8766426,-66.8961433,2,7.06864
1,Carazinho/RS,-28.2981634,-52.7942363,12,19.32056
1,Caraúbas/RN,-5.7889323,-37.5548751,1,4.87972
1,Careiro da Várzea/AM,-3.197024,-59.8259104,4,13.23408
1,Careiro/AM,-3.8185277,-60.3616505,26,68.65774
D1,Careiro/AM,-3.8185277,-60.3616505,3,7.92205
1,Cariacica/ES,-20.263202,-40.416549,235,61.63369
D1,Cariacica/ES,-20.263202,-40.416549,7,1.83590
1,Caridade/CE,-4.2316487,-39.1946515,5,22.17590
D1,Caridade/CE,-4.2316487,-39.1946515,1,4.43518
1,Cariri do Tocantins/TO,-11.8882727,-49.1604216,1,22.82063
1,Caririaçu/CE,-7.0417053,-39.2835527,1,3.70851
1,Cariré/CE,-3.948584,-40.476028,2,10.84128
1,Cariús/CE,-6.5348688,-39.4966658,1,5.34788
D1,Cariús/CE,-6.5348688,-39.4966658,1,5.34788
1,Carlos Barbosa/RS,-29.2978372,-51.5005613,11,36.87192
1,Carlos Chagas/MG,-21.744351,-43.3908675,1,5.30870
1,Carmo da Cachoeira/MG,-21.460556,-45.223334,1,8.21693
1,Carmo do Cajuru/MG,-20.184444,-44.770834,2,8.89759
1,Carmo do Rio Verde/GO,-15.3549139,-49.707975,3,29.75600
1,Carnaubais/RN,-5.3383681,-36.8335566,1,9.29454
1,Carnaubal/CE,-4.1611842,-40.9412317,1,5.67988
1,Carnaíba/PE,-7.805964,-37.7947314,1,5.11483
D1,Carnaíba/PE,-7.805964,-37.7947314,1,5.11483
1,Carnaúba dos Dantas/RN,-6.5560588,-36.5930811,1,12.22494
D1,Carnaúba dos Dantas/RN,-6.5560588,-36.5930811,1,12.22494
1,Caroebe/RR,0.8812315,-59.6932274,2,19.66762
1,Carpina/PE,-7.8459151,-35.2538861,5,5.97793
D1,Carpina/PE,-7.8459151,-35.2538861,1,1.19559
1,Caruaru/PE,-8.2829702,-35.9722852,17,4.70760
D1,Caruaru/PE,-8.2829702,-35.9722852,2,0.55384
1,Cascavel/CE,-4.129666,-38.241178,22,30.66501
D1,Cascavel/CE,-4.129666,-38.241178,1,1.39386
1,Cascavel/PR,-24.9554996,-53.4560544,71,21.61642
D1,Cascavel/PR,-24.9554996,-53.4560544,4,1.21783
1,Casimiro de Abreu/RJ,-22.4809932,-42.2039976,21,47.52852
1,Castanhal/PA,-1.2927031,-47.9223903,67,33.36770
D1,Castanhal/PA,-1.2927031,-47.9223903,2,0.99605
1,Castelo do Piauí/PI,-5.3230426,-41.5546185,2,10.14405
1,Castelo/ES,-20.6034476,-41.2033505,5,13.32126
1,Castilho/SP,-20.8695636,-51.4877792,3,14.28163
1,Castro Alves/BA,-12.7616941,-39.4281088,1,3.80749
1,Castro/PR,-24.794072,-49.9972914,2,2.79783
1,Cataguases/MG,-21.387426,-42.6957219,3,3.99345
D1,Cataguases/MG,-21.387426,-42.6957219,1,1.33115
1,Catalão/GO,-18.1702546,-47.9447082,1,0.91892
1,Catanduva/SP,-21.1331035,-48.9712817,11,9.02660
D1,Catanduva/SP,-21.1331035,-48.9712817,3,2.46180
1,Catanduvas/SC,-27.0689719,-51.660158,6,55.24353
1,Catarina/CE,-6.1341578,-39.8795321,1,4.83138
1,Catende/PE,-8.6900588,-35.748470825,3,6.99431
D1,Catende/PE,-8.6900588,-35.748470825,1,2.33144
1,Catu/BA,-12.351274,-38.379108,5,9.14010
D1,Catu/BA,-12.351274,-38.379108,1,1.82802
1,Caucaia/CE,-3.7300563,-38.6593082,274,75.81627
D1,Caucaia/CE,-3.7300563,-38.6593082,10,2.76702
1,Caxias do Sul/RS,-29.1684796,-51.1793861,48,9.39507
1,Caxias/MA,-4.8654201,-43.353664,15,9.09753
1,Caçador/SC,-26.77567,-51.0120041,6,7.63407
1,Caçapava/SP,-23.099204,-45.707645,10,10.60862
1,Ceará-Mirim/RN,-5.633588,-35.4248407,11,14.96660
D1,Ceará-Mirim/RN,-5.633588,-35.4248407,2,2.72120
1,Cedral/SP,-20.9028433,-49.2699665,1,10.82603
1,Centralina/MG,-18.5843349,-49.1954739,1,9.66184
1,Centro Novo do Maranhão/MA,-2.1361032,-46.1248528,4,18.49968
1,Ceres/GO,-15.3103568,-49.6032054,4,18.02533
1,Cerro Corá/RN,-6.0412685,-36.3464694,1,8.94534
D1,Cerro Corá/RN,-6.0412685,-36.3464694,1,8.94534
1,Cerro Grande do Sul/RS,-30.5962963,-51.7517196,1,8.17060
1,Chapada/RS,-28.0587829,-53.0657459,2,21.57730
1,Chapadinha/MA,-3.7416803,-43.3548006,9,11.29589
1,Chapadão do Sul/MS,-18.7949051,-52.6199512,9,35.68879
1,Chapecó/SC,-27.0922364,-52.6166878,27,12.25229
1,Charqueadas/RS,-29.955012,-51.6249195,2,4.90328
1,Chavantes/SP,-23.0406405,-49.7071698,1,8.05283
1,Chopinzinho/PR,-25.8566167,-52.5294107,1,5.19373
1,Chorozinho/CE,-4.3010895,-38.4976923,5,24.67430
1,Choró/CE,-4.8435726,-39.1393071,2,14.79181
1,Chã Grande/PE,-8.238271,-35.457148,4,18.43488
1,Chã de Alegria/PE,-7.9959409,-35.2134636,4,29.59018
1,Cianorte/PR,-23.662036,-52.6103989,15,18.15541
D1,Cianorte/PR,-23.662036,-52.6103989,1,1.21036
1,Cidade Ocidental/GO,-16.1000758,-47.9445014,6,8.40619
1,Cidreira/RS,-30.1657063,-50.218331,2,12.30466
D1,Cidreira/RS,-30.1657063,-50.218331,1,6.15233
1,Ciríaco/RS,-28.3429139,-51.8763682,1,21.06594
1,Coaraci/BA,-14.6407979,-39.5496765,13,76.50209
1,Coari/AM,-4.0885957,-63.1431166,36,42.30466
D1,Coari/AM,-4.0885957,-63.1431166,2,2.35026
1,Cocal do Sul/SC,-28.6007346,-49.3248697,1,5.99377
D1,Cocal do Sul/SC,-28.6007346,-49.3248697,1,5.99377
1,Codajás/AM,-3.8413202,-62.0603444,2,6.98397
1,Codó/MA,-4.455623,-43.892354,3,2.44182
1,Colares/PA,-0.936423,-48.280254,1,8.27472
1,Colatina/ES,-19.5346732,-40.6287836,23,18.77566
1,Colina/SP,-20.711443,-48.53867,1,5.41477
1,Colinas/MA,-6.0332631,-44.2528542,4,9.71392
1,Colinas/RS,-29.3866023,-51.8697911,1,41.01723
1,Colombo/PR,-25.2925439,-49.2243472,11,4.51326
1,Colônia do Gurguéia/PI,-8.183697,-43.793999,2,30.84516
1,Conceição das Alagoas/MG,-19.9194009,-48.3803414,2,7.17026
1,Conceição de Macabu/RJ,-22.0849986,-41.8679947,2,8.61030
1,Conceição do Araguaia/PA,-8.2696905,-49.2676864,1,2.08925
1,Conceição do Coité/BA,-11.5629384,-39.2839543,2,3.00246
1,Conceição do Jacuípe/BA,-12.326831,-38.768433,1,3.01632
1,Conceição do Lago-Açu/MA,-3.8410056,-44.8930565,1,6.15877
1,Conchas/SP,-23.0133538,-48.0077595,1,5.58784
D1,Conchas/SP,-23.0133538,-48.0077595,1,5.58784
1,Concórdia do Pará/PA,-1.9924056,-47.9450474,3,9.00414
1,Concórdia/SC,-27.2312011,-52.0231024,32,42.87188
1,Condado/PE,-7.587868,-35.09994,1,3.78487
1,Conde/BA,-11.8129758,-37.6138705,1,3.87042
1,Conde/PB,-7.2600359,-34.9053524,5,20.26753
D1,Conde/PB,-7.2600359,-34.9053524,1,4.05351
1,Confresa/MT,-10.643695,-51.569873,3,9.69838
1,Congo/PB,-7.80963435,-36.641233278035656,1,20.89427
1,Conquista D'Oeste/MT,-14.5381171,-59.5443775,1,24.76474
1,Conselheiro Lafaiete/MG,-20.6596107,-43.785743,12,9.33206
1,Contagem/MG,-19.9132749,-44.0840953,48,7.23049
D1,Contagem/MG,-19.9132749,-44.0840953,2,0.30127
1,Contenda/PR,-25.678811,-49.535044,1,5.38097
1,Coração de Maria/BA,-12.2484345,-38.7499274,1,4.42380
1,Cordeiro/RJ,-22.0287681,-42.3607442,1,4.56080
1,Cordeirópolis/SP,-22.4768324,-47.4550551,1,4.07697
1,Coreaú/CE,-3.5519794,-40.6528409,10,43.22268
1,Coremas/PB,-7.0175897,-37.9465062,1,6.47459
1,Cornélio Procópio/PR,-23.1825218,-50.6499263,1,2.09008
1,Coromandel/MG,-18.473889,-47.200278,7,25.02324
1,Coronel Bicaco/RS,-27.7174002,-53.705821,1,13.65188
1,Coronel Fabriciano/MG,-19.5200067,-42.6282686,6,5.46175
1,Coronel João Pessoa/RN,-6.2607103,-38.4424915,1,20.35831
1,Corrente/PI,-10.4401356,-45.1627472,1,3.75319
1,Correntes/PE,-9.1295585,-36.3287438,1,5.49239
1,Corumbá/MS,-19.0016365,-57.6534316,4,3.58954
1,Cosmorama/SP,-20.475472,-49.782747,1,13.68551
1,Cosmópolis/SP,-22.6437398,-47.1972086,1,1.38404
1,Cotia/SP,-23.603889,-46.918889,146,58.58513
D1,Cotia/SP,-23.603889,-46.918889,12,4.81522
1,Couto Magalhães/TO,-8.360583,-49.1773955,1,17.89549
1,Coxim/MS,-18.504915,-54.7450251,1,2.98125
1,Coxixola/PB,-7.6272915,-36.606013,1,52.05622
1,Crateús/CE,-5.1782451,-40.6696545,12,15.98423
D1,Crateús/CE,-5.1782451,-40.6696545,2,2.66404
1,Crato/CE,-7.2369112,-39.4149236,8,6.05496
1,Cravinhos/SP,-21.340278,-47.729444,8,22.66803
D1,Cravinhos/SP,-21.340278,-47.729444,1,2.83350
1,Cravolândia/BA,-13.3576247,-39.8153954,2,37.39017
1,Criciúma/SC,-28.6789941,-49.3695627,53,24.62986
D1,Criciúma/SC,-28.6789941,-49.3695627,4,1.85886
1,Cristinápolis/SE,-11.4757019,-37.7555212,1,5.59472
1,Croatá/CE,-4.4156199,-40.9048081,1,5.53618
1,Cruz Alta/RS,-28.645056,-53.6058047,1,1.65840
1,Cruz das Almas/BA,-12.6722649,-39.1053665,2,3.16261
1,Cruz do Espírito Santo/PB,-7.139022,-35.085721,3,17.32202
1,Cruzeiro do Sul/AC,-7.6307956,-72.6703869,5,5.65764
1,Cruzeiro do Sul/PR,-22.9623678,-52.1625688,1,22.37637
1,Cruzeiro do Sul/RS,-29.5139742,-51.9917068,4,32.39391
1,Cruzeiro/SP,-22.5783685,-44.9642044,5,6.07991
D1,Cruzeiro/SP,-22.5783685,-44.9642044,1,1.21598
1,Cubatão/SP,-23.8857982,-46.4241869,35,26.77786
1,Cuiabá/MT,-15.5986686,-56.0991301,127,20.73310
D1,Cuiabá/MT,-15.5986686,-56.0991301,1,0.16325
1,Cupira/PE,-8.6053148,-35.9530366,1,4.14817
1,Curaçá/BA,-8.9925655,-39.9053169,9,25.93660
1,Curionópolis/PA,-6.0990443,-49.6059039,1,5.57756
D1,Curionópolis/PA,-6.0990443,-49.6059039,1,5.57756
1,Curitiba/PR,-25.4295963,-49.2712724,414,21.41632
D1,Curitiba/PR,-25.4295963,-49.2712724,16,0.82768
1,Currais Novos/RN,-6.2626676,-36.5173039,2,4.46568
1,Curralinho/PA,-1.8137876,-49.7980165,4,11.61170
1,Cururupu/MA,-1.824255,-44.872996,2,6.11714
D1,Cururupu/MA,-1.824255,-44.872996,1,3.05857
1,Curuçá/PA,-0.7276792,-47.856568,4,9.98353
1,Custódia/PE,-8.0861426,-37.6401873,1,2.69462
D1,Custódia/PE,-8.0861426,-37.6401873,1,2.69462
1,Cáceres/MT,-16.0658939,-57.6852775,6,6.35755
D1,Cáceres/MT,-16.0658939,-57.6852775,1,1.05959
1,Céu Azul/PR,-25.1484973,-53.8494214,2,16.99958
1,Davinópolis/MA,-5.5265775,-47.3942217,2,15.49427
D1,Davinópolis/MA,-5.5265775,-47.3942217,1,7.74713
1,Delmiro Gouveia/AL,-9.3841161,-37.997756,1,1.92249
1,Demerval Lobão/PI,-5.3640643,-42.673993,3,21.71238
1,Deputado Irapuan Pinheiro/CE,-5.9173532,-39.2672104,2,20.77922
1,Derrubadas/RS,-27.2657279,-53.8618488,1,35.65062
1,Diadema/SP,-23.681347,-46.62052,239,56.38335
D1,Diadema/SP,-23.681347,-46.62052,14,3.30279
1,Dianópolis/TO,-11.624008,-46.819787,1,4.51692
1,Dias d'Ávila/BA,-12.6107233,-38.3028518,7,8.63249
1,Divinésia/MG,-20.990277,-43.003889,1,29.26544
1,Divinópolis/MG,-20.1434559,-44.89125,61,25.60551
D1,Divinópolis/MG,-20.1434559,-44.89125,1,0.41976
1,Dobrada/SP,-21.5180904,-48.3938897,1,11.19946
1,Dois Irmãos/RS,-29.58356,-51.089776,3,9.18246
1,Dois Vizinhos/PR,-25.7464681,-53.0554369,1,2.46057
1,Dom Pedrito/RS,-30.983755,-54.6746483,1,2.60004
1,Domingos Martins/ES,-20.3646483,-40.6585797,15,44.31315
1,Dourados/MS,-22.2206145,-54.812208,12,5.38240
D1,Dourados/MS,-22.2206145,-54.812208,1,0.44853
1,Dracena/SP,-21.4835523,-51.5334408,6,12.82243
D1,Dracena/SP,-21.4835523,-51.5334408,2,4.27414
1,Duartina/SP,-22.414562,-49.408355,1,8.03536
1,Duque de Caxias/RJ,-22.7896225,-43.309929,319,34.68915
D1,Duque de Caxias/RJ,-22.7896225,-43.309929,67,7.28581
1,Dário Meira/BA,-14.4332181,-39.9028712,1,9.33707
1,Eldorado do Sul/RS,-29.9984639,-51.3091977,2,4.84437
1,Eldorado/SP,-24.522583,-48.1093489,2,12.90822
D1,Eldorado/SP,-24.522583,-48.1093489,1,6.45411
1,Elesbão Veloso/PI,-6.2032654,-42.1376937,1,6.84838
1,Elias Fausto/SP,-23.0416538,-47.3718002,1,5.62683
1,Embu das Artes/SP,-23.6495294,-46.8528497,95,34.70624
D1,Embu das Artes/SP,-23.6495294,-46.8528497,8,2.92263
1,Embu-Guaçu/SP,-23.8317997,-46.8156204,20,28.82467
D1,Embu-Guaçu/SP,-23.8317997,-46.8156204,3,4.32370
1,Encantado/RS,-29.2392716,-51.8744817,7,30.82886
1,Encanto/RN,-6.1107477,-38.3050953,4,70.94714
D1,Encanto/RN,-6.1107477,-38.3050953,1,17.73679
1,Encruzilhada do Sul/RS,-30.53619325,-52.51564721101029,2,7.72887
D1,Encruzilhada do Sul/RS,-30.53619325,-52.51564721101029,1,3.86444
1,Engenheiro Coelho/SP,-22.4896659,-47.2119005,5,24.06971
1,Erechim/RS,-27.6350143,-52.2737288,5,4.72313
1,Ererê/CE,-6.0311304,-38.3482173,1,13.89275
1,Ernestina/RS,-28.498434,-52.5702451,1,31.56566
1,Escada/PE,-8.3594071,-35.2232683,4,5.80762
1,Esmeraldas/MG,-19.7613111,-44.3145945,1,1.41739
1,Espera Feliz/MG,-20.6494192,-41.9080693,5,20.03928
1,Esperantina/PI,-3.8950963,-42.2370595,5,12.58273
1,Esperança/PB,-7.018517,-35.852193,2,6.05932
1,Espinosa/MG,-14.9232007,-42.8093337,1,3.16286
D1,Espinosa/MG,-14.9232007,-42.8093337,1,3.16286
1,Espumoso/RS,-28.7256962,-52.8453751,4,25.66076
1,Espírito Santo do Dourado/MG,-22.046666,-45.950833,1,21.31287
1,Espírito Santo do Pinhal/SP,-22.190871,-46.74767,1,2.25581
1,Esteio/RS,-29.8511627,-51.1778852,7,8.41326
1,Estiva Gerbi/SP,-22.2754831,-46.9525448,1,8.84643
1,Estiva/MG,-22.4638686,-46.0182101,1,8.80747
1,Estreito/MA,-6.5583016,-47.4432212,1,2.38402
1,Estrela d'Oeste/SP,-20.2860692,-50.3986216,1,11.87790
1,Estrela/RS,-29.5010545,-51.962226,6,17.58706
1,Estância Velha/RS,-29.6529666,-51.1719687,3,5.99736
1,Estância/SE,-11.2682255,-37.4378341,14,20.23589
1,Euclides da Cunha/BA,-10.5060835,-39.0129875,1,1.65057
1,Eunápolis/BA,-16.3722412,-39.575704,19,16.75781
1,Eusébio/CE,-3.8889838,-38.4546585,50,93.25227
D1,Eusébio/CE,-3.8889838,-38.4546585,5,9.32523
1,Extrema/MG,-22.8549109,-46.3190079,21,57.97101
D1,Extrema/MG,-22.8549109,-46.3190079,1,2.76052
1,Extremoz/RN,-5.7092903,-35.3058914,11,38.48441
1,Faina/GO,-15.4458005,-50.3633826,1,15.08978
1,Faria Lemos/MG,-20.8051202,-42.0127393,1,30.85467
1,Farias Brito/CE,-6.9272823,-39.5714222,1,5.14139
D1,Farias Brito/CE,-6.9272823,-39.5714222,1,5.14139
1,Farroupilha/RS,-29.22647,-51.3468188,11,15.20786
1,Fartura do Piauí/PI,-9.4839171,-42.7906894,1,18.84304
1,Fartura/SP,-23.390039,-49.5109023,1,6.23597
1,Faxinal dos Guedes/SC,-26.8476897,-52.2604154,1,9.37471
1,Faxinal/PR,-24.001065,-51.3223237,1,5.79677
1,Fazenda Rio Grande/PR,-25.645841,-49.3126653,15,14.96872
1,Feira Nova/PE,-7.9481471,-35.3871681,2,9.03710
1,Feira de Santana/BA,-12.2578934,-38.9598047,67,10.89658
D1,Feira de Santana/BA,-12.2578934,-38.9598047,1,0.16264
1,Fernando Pedroza/RN,-5.6972558,-36.5316864,1,32.74394
1,Fernando de Noronha/PE,-3.8561012,-32.4248189,28,914.73375
1,Fernandópolis/SP,-20.2825647,-50.2500762,9,13.02159
1,Ferraz de Vasconcelos/SP,-23.541056,-46.37097,86,44.26692
D1,Ferraz de Vasconcelos/SP,-23.541056,-46.37097,5,2.57366
1,Ferreiros/PE,-7.449667,-35.2426004,1,8.24878
1,Ferros/MG,-19.234984,-43.019542,5,50.91650
1,Flores da Cunha/RS,-29.030129,-51.1833349,1,3.25256
1,Floresta Azul/BA,-14.8602238,-39.6561384,2,18.81645
1,Floresta/PR,-23.6144046,-52.0819003,2,29.52465
1,Floriano Peixoto/RS,-27.8603248,-52.0856015,1,56.62514
1,Floriano/PI,-6.7726534,-43.0070616,5,8.34237
1,Florianópolis/SC,-27.5973002,-48.5496098,263,52.49784
D1,Florianópolis/SC,-27.5973002,-48.5496098,5,0.99806
1,Formiga/MG,-20.4648425,-45.4266753,1,1.47748
1,Formosa/GO,-15.5492443,-47.3301212,4,3.28901
1,Forquilha/CE,-3.799447,-40.263405,1,4.12916
1,Forquilhinha/SC,-28.7487602,-49.4737661,1,3.73232
1,Fortaleza/CE,-3.7304512,-38.5217989,5481,205.33150
D1,Fortaleza/CE,-3.7304512,-38.5217989,329,12.32513
1,Fortim/CE,-4.451256,-37.798056,1,6.06796
1,Foz do Iguaçu/PR,-25.5401479,-54.5858139,40,15.47197
D1,Foz do Iguaçu/PR,-25.5401479,-54.5858139,1,0.38680
1,Franca/SP,-20.5381768,-47.4009795,9,2.54823
D1,Franca/SP,-20.5381768,-47.4009795,1,0.28314
1,Francinópolis/PI,-6.3962771,-42.2635654,2,37.39716
1,Francisco Beltrão/PR,-26.0790979,-53.0533527,3,3.29334
1,Francisco Morato/SP,-23.2817308,-46.7448996,66,37.53327
D1,Francisco Morato/SP,-23.2817308,-46.7448996,4,2.27474
1,Franco da Rocha/SP,-23.3328038,-46.724446,117,75.73355
D1,Franco da Rocha/SP,-23.3328038,-46.724446,11,7.12025
1,Frecheirinha/CE,-3.755572,-40.818019,1,7.10631
1,Frei Miguelinho/PE,-7.9433019,-35.920939,4,25.87824
1,Frutal/MG,-20.0220064,-48.9280076,5,8.40393
1,Fundão/ES,-19.9332174,-40.4049674,18,83.68590
1,Gameleira/PE,-8.579803,-35.384573,1,3.22040
D1,Gameleira/PE,-8.579803,-35.384573,1,3.22040
1,Gandu/BA,-13.7448138,-39.4844732,2,6.17227
1,Garanhuns/PE,-8.8905889,-36.4930896,7,5.00758
D1,Garanhuns/PE,-8.8905889,-36.4930896,2,1.43074
1,Garibaldi/RS,-29.2562253,-51.5269167,12,34.21728
D1,Garibaldi/RS,-29.2562253,-51.5269167,1,2.85144
1,Garopaba/SC,-28.0274798,-48.6240197,2,8.66626
1,Garrafão do Norte/PA,-1.9282256,-47.0513157,4,15.34566
1,Garça/SP,-22.2125766,-49.6547994,3,6.75828
1,Gaspar/SC,-26.9307306,-48.9566824,10,14.35977
D1,Gaspar/SC,-26.9307306,-48.9566824,1,1.43598
1,Getúlio Vargas/RS,-27.8871493,-52.2257967,1,6.16827
1,Glorinha/RS,-29.8790534,-50.7869437,1,12.34873
1,Glória do Goitá/PE,-7.999959,-35.2866116,6,19.60528
D1,Glória do Goitá/PE,-7.999959,-35.2866116,3,9.80264
1,Goiana/PE,-7.560603,-34.99591,13,16.29931
D1,Goiana/PE,-7.560603,-34.99591,3,3.76138
1,Goiandira/GO,-18.1357087,-48.0866307,2,35.71429
D1,Goiandira/GO,-18.1357087,-48.0866307,1,17.85714
1,Goianira/GO,-16.5001973,-49.4254788,1,2.25790
1,Goianá/MG,-21.5375,-43.2014,2,50.42864
1,Goianésia do Pará/PA,-3.8380998,-49.0977992,4,9.88264
1,Goianésia/GO,-15.3118269,-49.1162001,28,39.95206
D1,Goianésia/GO,-15.3118269,-49.1162001,2,2.85372
1,Goiatuba/GO,-18.0154577,-49.3640591,2,5.86596
1,Goioerê/PR,-24.1851885,-53.0250623,4,13.84850
1,Goiânia/GO,-16.680882,-49.2532691,392,25.85559
D1,Goiânia/GO,-16.680882,-49.2532691,12,0.79150
1,Gongogi/BA,-14.3240248,-39.4665106,4,56.11672
D1,Gongogi/BA,-14.3240248,-39.4665106,2,28.05836
1,Governador Celso Ramos/SC,-27.317161,-48.557608,3,20.73112
1,Governador Edison Lobão/MA,-5.7456705,-47.363091,1,5.46568
1,Governador Nunes Freire/MA,-2.1303959,-45.8900498,1,3.90976
1,Governador Valadares/MG,-18.8539497,-41.9458753,15,5.35934
D1,Governador Valadares/MG,-18.8539497,-41.9458753,3,1.07187
1,Granja/CE,-3.1212057,-40.8284124,5,9.13275
1,Gravatal/SC,-28.3300703,-49.0362296,11,95.64386
1,Gravataí/RS,-29.9440222,-50.9930938,20,7.10432
D1,Gravataí/RS,-29.9440222,-50.9930938,1,0.35522
1,Gravatá/PE,-8.1993049,-35.5631137,5,5.94714
1,Graça/CE,-4.0453849,-40.7527195,5,34.72463
1,Groaíras/CE,-3.9157768,-40.3855093,5,45.17528
1,Guabiruba/SC,-27.0864326,-48.9781319,2,8.39208
1,Guairaçá/PR,-22.9352304,-52.6865101,3,45.58578
D1,Guairaçá/PR,-22.9352304,-52.6865101,1,15.19526
1,Guaiúba/CE,-4.0412656,-38.6369079,3,11.51013
1,Guamaré/RN,-5.1075294,-36.3196635,1,6.38610
1,Guapimirim/RJ,-22.5266308,-42.9790687,5,8.26214
1,Guapó/GO,-16.8308602,-49.5343721,1,7.03779
1,Guarabira/PB,-6.8513982,-35.4915582,3,5.09918
1,Guaraci/PR,-22.970394,-51.6479769,3,54.52563
1,Guaraciaba do Norte/CE,-4.1632924,-40.7495985,1,2.46051
1,Guaramirim/SC,-26.468753,-49.002628,1,2.23120
1,Guaraniaçu/PR,-25.10035,-52.867811,5,40.08980
1,Guaranésia/MG,-21.3024827,-46.7956962,1,5.25735
1,Guarapari/ES,-20.6718755,-40.4984617,23,18.42078
D1,Guarapari/ES,-20.6718755,-40.4984617,1,0.80090
1,Guarapuava/PR,-25.3950986,-51.4622016,3,1.65286
1,Guararapes/SP,-21.2537115,-50.6441746,6,18.21549
1,Guararema/SP,-23.4133724,-46.0379249,4,13.42372
D1,Guararema/SP,-23.4133724,-46.0379249,1,3.35593
1,Guaratinguetá/SP,-22.8057839,-45.1908926,1,0.82103
1,Guaratuba/PR,-25.8806192,-48.5750905,1,2.69782
1,Guaraí/TO,-8.835429,-48.511432,3,11.57273
1,Guarujá/SP,-23.9927768,-46.2558332,139,43.37528
D1,Guarujá/SP,-23.9927768,-46.2558332,7,2.18437
1,Guarulhos/SP,-23.4430602,-46.524459,562,40.74879
D1,Guarulhos/SP,-23.4430602,-46.524459,52,3.77035
1,Guará/SP,-20.4290496,-47.8250067,1,4.71254
D1,Guará/SP,-20.4290496,-47.8250067,1,4.71254
1,Guaxupé/MG,-21.3087615,-46.7190609,3,5.77845
1,Guaçuí/ES,-20.7726679,-41.6750657,6,19.43824
1,Guaíba/RS,-30.1130731,-51.329442,2,2.03784
1,Guaíra/PR,-24.0851924,-54.2567519,13,39.25239
D1,Guaíra/PR,-24.0851924,-54.2567519,1,3.01941
1,Guaíra/SP,-20.3245873,-48.3148818,1,2.45158
1,Guimarânia/MG,-18.8442251,-46.7925141,1,12.43936
1,Gurinhém/PB,-7.1244757,-35.424854,1,7.07764
1,Gurupi/TO,-11.72794,-49.068046,1,1.15411
1,Guzolândia/SP,-20.6491637,-50.6622974,1,18.98614
1,Harmonia/RS,-29.549989,-51.422308,5,102.75380
1,Herval d'Oeste/SC,-27.17361,-51.4903659,2,8.84721
1,Hidrolândia/CE,-4.4084745,-40.4065472,2,10.01101
1,Holambra/SP,-22.6332028,-47.0545305,2,13.39585
1,Horizonte/CE,-4.0964618,-38.4965574,38,56.43257
D1,Horizonte/CE,-4.0964618,-38.4965574,2,2.97014
1,Horizontina/RS,-27.627931,-54.3090256,1,5.17357
1,Hortolândia/SP,-22.85833,-47.22,23,9.96314
D1,Hortolândia/SP,-22.85833,-47.22,2,0.86636
1,Humaitá/AM,-7.5099404,-63.0248674,2,3.63108
1,Ibaiti/PR,-23.8452962,-50.1905666,1,3.18837
1,Ibaretama/CE,-4.8194345,-38.8208476,1,7.48895
D1,Ibaretama/CE,-4.8194345,-38.8208476,1,7.48895
1,Ibateguara/AL,-8.9737196,-35.9279963,1,6.40369
D1,Ibateguara/AL,-8.9737196,-35.9279963,1,6.40369
1,Ibema/PR,-25.1192916,-53.0071928,11,173.17380
1,Ibicaraí/BA,-14.8625311,-39.5890865,2,9.22126
1,Ibicuitinga/CE,-4.9751759,-38.6368754,1,7.98403
1,Ibimirim/PE,-8.5379259,-37.6941375,1,3.42056
1,Ibiporã/PR,-23.265941,-51.052243,1,1.83291
1,Ibirama/SC,-27.0536613,-49.5191153,1,5.27704
1,Ibirapuitã/RS,-28.6226503,-52.5170577,4,99.67605
1,Ibirataia/BA,-14.0689024,-39.6394008,6,39.18495
1,Ibiraçu/ES,-19.8309496,-40.3686594,2,16.02693
1,Ibirité/MG,-20.0214251,-44.0621506,7,3.88449
1,Ibirá/SP,-21.0815104,-49.2424619,2,16.13814
1,Ibiúna/SP,-23.6548363,-47.2210116,6,7.60668
1,Ibotirama/BA,-12.1829519,-43.2181138,1,3.71374
1,Icapuí/CE,-4.7158474,-37.3535365,5,25.08277
1,Iconha/ES,-20.7935003,-40.8108852,1,7.21501
1,Icó/CE,-6.4003992,-38.8575946,5,7.35100
1,Ielmo Marinho/RN,-5.8227944,-35.551993,1,7.26427
1,Iepê/SP,-22.660165,-51.077881,1,12.25640
D1,Iepê/SP,-22.660165,-51.077881,1,12.25640
1,Igaracy/PB,-7.1819802,-38.1487395,1,16.34788
1,Igarapava/SP,-20.0411471,-47.7477444,2,6.57203
1,Igarapé-Açu/PA,-1.128244,-47.6199021,9,23.19169
1,Igarapé-Miri/PA,-1.9785213,-48.9634826,3,4.78484
1,Igarassu/PE,-7.8354423,-34.9061125,32,27.34599
D1,Igarassu/PE,-7.8354423,-34.9061125,8,6.83650
1,Igaratá/SP,-23.2063475,-46.156934,3,31.46633
1,Igaraçu do Tietê/SP,-22.509044,-48.559672,1,4.05285
1,Iguaba Grande/RJ,-22.8388498,-42.2286746,15,52.98481
D1,Iguaba Grande/RJ,-22.8388498,-42.2286746,4,14.12928
1,Iguape/SP,-24.7042692,-47.5563733,5,16.20378
1,Iguatu/CE,-6.361934,-39.2972233,27,26.34198
D1,Iguatu/CE,-6.361934,-39.2972233,4,3.90252
1,Ilha Comprida/SP,-24.7445292,-47.5525529,13,116.42486
D1,Ilha Comprida/SP,-24.7445292,-47.5525529,1,8.95576
1,Ilha Grande/PI,-2.8520082,-41.8166904,1,10.60895
1,Ilha Solteira/SP,-20.4281001,-51.3410871,2,7.49457
1,Ilha de Itamaracá/PE,-7.747664,-34.830319,5,19.04182
1,Ilhabela/SP,-23.816628,-45.368685,6,17.15756
1,Ilhota/SC,-26.9022824,-48.8284968,4,28.20079
1,Ilhéus/BA,-14.792599,-39.0453843,193,118.89581
D1,Ilhéus/BA,-14.792599,-39.0453843,4,2.46416
1,Imbaú/PR,-24.447597,-50.7557188,2,15.25437
1,Imbituba/SC,-28.241827,-48.6643444,18,40.13109
1,Imbé de Minas/MG,-19.5989453,-41.9694294,1,14.48646
1,Imbé/RS,-29.975269,-50.128068,1,4.38596
1,Imperatriz/MA,-5.5269279,-47.478115,92,35.56490
D1,Imperatriz/MA,-5.5269279,-47.478115,4,1.54630
1,Inajá/PE,-8.9011209,-37.8244194,1,4.30163
1,Indaial/SC,-26.900011,-49.2370602,7,10.08282
D1,Indaial/SC,-26.900011,-49.2370602,1,1.44040
1,Indaiatuba/SP,-23.09028,-47.21806,22,8.74310
D1,Indaiatuba/SP,-23.09028,-47.21806,4,1.58965
1,Independência/CE,-5.3958538,-40.3108896,3,11.46000
D1,Independência/CE,-5.3958538,-40.3108896,1,3.82000
1,Indiaroba/SE,-11.5250972,-37.5075262,1,5.56886
1,Inhangapi/PA,-1.4283738,-47.9108608,3,25.61694
1,Inhuma/PI,-6.6694502,-41.7096008,1,6.53253
1,Inhumas/GO,-16.3610569,-49.500111,3,5.67472
1,Ipaba/MG,-19.411389,-42.42,2,10.74864
1,Ipameri/GO,-17.7215439,-48.158118,1,3.70576
1,Ipanguaçu/RN,-5.5090713,-36.8594421,4,25.82144
D1,Ipanguaçu/RN,-5.5090713,-36.8594421,1,6.45536
1,Ipaporanga/CE,-4.903227,-40.760079,2,17.25179
1,Ipatinga/MG,-19.4777807,-42.5270802,14,5.31491
1,Ipaumirim/CE,-6.7883197,-38.7172034,1,8.02375
1,Ipiaçu/MG,-18.6934499,-49.9439567,1,23.69107
1,Ipiaú/BA,-14.1318211,-39.7373177,17,37.05884
D1,Ipiaú/BA,-14.1318211,-39.7373177,1,2.17993
1,Ipiranga do Norte/MT,-12.2408004,-56.1531011,1,13.04291
1,Ipirá/BA,-12.1578337,-39.7416605,4,6.71197
1,Ipojuca/PE,-8.3980773,-35.0611068,20,20.78916
D1,Ipojuca/PE,-8.3980773,-35.0611068,3,3.11837
1,Ipu/CE,-4.3239824,-40.7097463,1,2.38299
1,Ipubi/PE,-7.6535334,-40.1494078,2,6.48214
1,Ipueiras/CE,-4.5427141,-40.7168461,3,7.86040
D1,Ipueiras/CE,-4.5427141,-40.7168461,1,2.62013
1,Ipuiúna/MG,-22.0993203,-46.1896557,1,9.92162
1,Ipumirim/SC,-27.0762287,-52.135736,15,197.55038
1,Iracema/CE,-5.8106219,-38.3028294,3,20.98342
1,Iracemápolis/SP,-22.583234,-47.522963,1,4.12626
1,Iranduba/AM,-3.2758203,-60.1867429,92,190.49197
D1,Iranduba/AM,-3.2758203,-60.1867429,5,10.35282
1,Irani/SC,-27.0230476,-51.9010675,15,143.96775
1,Irati/SC,-26.6577742,-52.8929851,1,51.81347
1,Irauçuba/CE,-3.7466828,-39.7840904,1,4.13976
1,Irecê/BA,-11.3034853,-41.8557902,1,1.37048
1,Iretama/PR,-24.4212538,-52.1023538,1,9.83381
D1,Iretama/PR,-24.4212538,-52.1023538,1,9.83381
1,Irituia/PA,-1.7709543,-47.4399687,1,3.07220
1,Irupi/ES,-20.3469751,-41.639688,1,7.47552
1,Itabaiana/PB,-7.331674,-35.331723,2,8.17094
1,Itabaiana/SE,-10.6856197,-37.4270517,10,10.47921
1,Itabaianinha/SE,-11.2760142,-37.78666,7,16.69529
D1,Itabaianinha/SE,-11.2760142,-37.78666,1,2.38504
1,Itabela/BA,-16.5743392,-39.561961,1,3.26968
1,Itaberaba/BA,-12.524182,-40.305897,1,1.55065
1,Itabira/MG,-19.6186264,-43.2267011,8,6.66333
D1,Itabira/MG,-19.6186264,-43.2267011,1,0.83292
1,Itaboraí/RJ,-22.7496231,-42.8557428,79,32.83567
D1,Itaboraí/RJ,-22.7496231,-42.8557428,7,2.90949
1,Itabuna/BA,-14.7869879,-39.2788778,159,74.56982
D1,Itabuna/BA,-14.7869879,-39.2788778,3,1.40698
1,Itacaré/BA,-14.2781298,-38.9951418,1,3.53407
1,Itacoatiara/AM,-3.1477898,-58.4461041,80,78.94451
D1,Itacoatiara/AM,-3.1477898,-58.4461041,7,6.90764
1,Itagi/BA,-14.1627902,-40.0069366,1,8.09651
1,Itagibá/BA,-14.2891521,-39.8452592,6,41.15509
D1,Itagibá/BA,-14.2891521,-39.8452592,1,6.85918
1,Itaguara/MG,-20.391389,-44.488055,2,14.97230
1,Itaguaru/GO,-15.7613695,-49.6337242,2,38.18980
1,Itaguaí/RJ,-22.8629597,-43.775322,24,18.04254
D1,Itaguaí/RJ,-22.8629597,-43.775322,3,2.25532
1,Itaitinga/CE,-3.965768,-38.529763,41,107.95155
D1,Itaitinga/CE,-3.965768,-38.529763,1,2.63296
1,Itaituba/PA,-4.2625218,-55.9878139,7,6.91379
1,Itaiçaba/CE,-4.68054,-37.8239968,1,12.77629
1,Itaiópolis/SC,-26.3391899,-49.9071983,1,4.61489
1,Itajaí/SC,-26.9117879,-48.6669852,53,24.14183
D1,Itajaí/SC,-26.9117879,-48.6669852,3,1.36652
1,Itajobi/SP,-21.312294,-49.0596336,4,26.20888
1,Itajubá/MG,-22.4238234,-45.4524156,9,9.29090
1,Itajuípe/BA,-14.6744381,-39.3759427,8,39.04153
1,Itajá/RN,-5.6374673,-36.8713272,1,13.24854
1,Italva/RJ,-21.4214056,-41.6907956,1,6.57592
1,Itamaraju/BA,-17.0363103,-39.527994,1,1.55072
1,Itambé/PE,-7.4108509,-35.10967,1,2.74371
1,Itamonte/MG,-22.2830726,-44.8695785,1,6.41890
1,Itanhandu/MG,-22.2957913,-44.9366732,4,26.09093
1,Itanhaém/SP,-24.1848847,-46.7921572,14,13.75029
D1,Itanhaém/SP,-24.1848847,-46.7921572,2,1.96433
1,Itaobim/MG,-16.5614934,-41.502275,1,4.74789
1,Itapajé/CE,-3.6841324,-39.5851265,2,3.79687
1,Itaparica/BA,-12.8936023,-38.6798141,1,4.49883
1,Itapebi/BA,-15.9691891,-39.5320541,5,48.73769
1,Itapecerica da Serra/SP,-23.7176303,-46.8492435,93,52.93324
D1,Itapecerica da Serra/SP,-23.7176303,-46.8492435,7,3.98422
1,Itapecerica/MG,-20.472778,-45.125556,7,32.16616
1,Itapema/SC,-27.09472,-48.6137778,12,18.37335
D1,Itapema/SC,-27.09472,-48.6137778,1,1.53111
1,Itapemirim/ES,-21.0105534,-40.8351239,4,11.64551
1,Itaperuna/RJ,-21.2048,-41.88801,3,2.90630
1,Itaperuçu/PR,-25.21926,-49.345427,1,3.49235
1,Itapetim/PE,-7.377514,-37.1887321,1,7.34430
D1,Itapetim/PE,-7.377514,-37.1887321,1,7.34430
1,Itapetinga/BA,-15.2454478,-40.2460053,8,10.50599
D1,Itapetinga/BA,-15.2454478,-40.2460053,2,2.62650
1,Itapetininga/SP,-23.588607,-48.048326,11,6.71137
D1,Itapetininga/SP,-23.588607,-48.048326,1,0.61012
1,Itapeva/MG,-22.7071665,-46.23015850595238,2,20.44363
1,Itapeva/SP,-23.9849105,-48.8803886,4,4.23935
1,Itapevi/SP,-23.54888,-46.933889,101,42.49053
D1,Itapevi/SP,-23.54888,-46.933889,15,6.31048
1,Itapipoca/CE,-3.499329,-39.583571,23,17.78011
1,Itapira/SP,-22.436111,-46.821667,17,22.73548
D1,Itapira/SP,-22.436111,-46.821667,3,4.01214
1,Itapiranga/AM,-2.7461205,-58.025377,3,32.79405
1,Itapiranga/SC,-27.1719977,-53.7118734,1,5.92698
1,Itapissuma/PE,-7.767983,-34.897136,2,7.50441
1,Itapiúna/CE,-4.5654191,-38.9211537,1,4.90629
1,Itaporanga d'Ajuda/SE,-10.9961671,-37.3045841,2,5.82140
D1,Itaporanga d'Ajuda/SE,-10.9961671,-37.3045841,1,2.91070
1,Itapororoca/PB,-6.8283007,-35.244782,3,16.07372
1,Itapuã do Oeste/RO,-9.189646,-63.1910097,1,9.56206
1,Itapé/BA,-14.8970856,-39.4246637,1,11.41422
D1,Itapé/BA,-14.8970856,-39.4246637,1,11.41422
1,Itaquaquecetuba/SP,-23.4754492,-46.3514033,101,27.23686
D1,Itaquaquecetuba/SP,-23.4754492,-46.3514033,11,2.96639
1,Itaquitinga/PE,-7.6642569,-35.1023615,1,5.89797
D1,Itaquitinga/PE,-7.6642569,-35.1023615,1,5.89797
1,Itarantim/BA,-15.6520917,-40.0599067,1,5.06406
1,Itararé/SP,-24.1145368,-49.3352464,1,1.98008
1,Itarema/CE,-2.9224558,-39.9129042,3,7.17257
1,Itariri/SP,-24.2900711,-47.176151,1,5.73526
1,Itatiaia/RJ,-22.4955278,-44.5633108,3,9.43248
1,Itatiba/SP,-22.9965861,-46.8412042,6,4.96450
D1,Itatiba/SP,-22.9965861,-46.8412042,1,0.82742
1,Itatim/BA,-12.7073174,-39.6974476,4,27.61096
1,Itatinga/SP,-23.1042417,-48.6134874,1,4.83162
1,Itatira/CE,-4.5305423,-39.621054,3,13.85873
1,Itaubal/AP,0.6027524,-50.6998737,3,54.51572
1,Itaueira/PI,-7.5991089,-43.0278778,1,9.07523
D1,Itaueira/PI,-7.5991089,-43.0278778,1,9.07523
1,Itirapina/SP,-22.2884106,-47.81616583161232,1,5.50752
1,Itororó/BA,-15.1155552,-40.0638651,4,19.62516
1,Itu/SP,-23.2638828,-47.298892,10,5.74914
D1,Itu/SP,-23.2638828,-47.298892,1,0.57491
1,Ituberá/BA,-13.7360764,-39.1481058,1,3.49626
1,Ituiutaba/MG,-18.9691887,-49.4639335,2,1.91075
1,Itumbiara/GO,-18.4135862,-49.2172596,10,9.54727
1,Itupeva/SP,-23.1531055,-47.0580347,5,8.16300
D1,Itupeva/SP,-23.1531055,-47.0580347,1,1.63260
1,Ituporanga/SC,-27.4096219,-49.6014812,2,7.97257
1,Ituverava/SP,-20.3366604,-47.7797924,1,2.39097
1,Itá/SC,-27.275006,-52.3381725,1,16.21008
1,Ivaiporã/PR,-24.2433517,-51.6719268,6,18.75938
D1,Ivaiporã/PR,-24.2433517,-51.6719268,2,6.25313
1,Ivoti/RS,-29.5934057,-51.1599403,5,20.58206
D1,Ivoti/RS,-29.5934057,-51.1599403,1,4.11641
1,Içara/SC,-28.7116553,-49.2971441,8,14.17912
1,Jaboatão dos Guararapes/PE,-8.1752476,-34.9468716,300,42.71691
D1,Jaboatão dos Guararapes/PE,-8.1752476,-34.9468716,41,5.83798
1,Jaborandi/SP,-20.6921079,-48.4144076,1,14.43210
1,Jaborá/SC,-27.1743246,-51.7348631,3,76.21951
1,Jaboticabal/SP,-21.252037,-48.325223,15,19.41421
D1,Jaboticabal/SP,-21.252037,-48.325223,4,5.17712
1,Jaboticatubas/MG,-19.521667,-43.745277,2,9.92901
1,Jacarezinho/PR,-23.159115,-49.973889,1,2.53949
1,Jacareí/SP,-23.30528,-45.96583,30,12.83906
D1,Jacareí/SP,-23.30528,-45.96583,1,0.42797
1,Jaci/SP,-20.8844434,-49.5710544,11,155.65304
1,Jaciara/MT,-15.9520115,-54.9762106,1,3.60023
1,Jaguapitã/PR,-23.1102516,-51.5327741,1,7.34214
1,Jaguaquara/BA,-13.5294974,-39.9693081,5,9.18729
1,Jaguarari/BA,-10.2596039,-40.1965284,1,2.97885
1,Jaguaretama/CE,-5.6092417,-38.7630077,7,38.54201
1,Jaguaribara/CE,-5.454494,-38.4679295,4,35.08464
1,Jaguaribe/CE,-5.8854585,-38.6212957,14,40.36676
D1,Jaguaribe/CE,-5.8854585,-38.6212957,2,5.76668
1,Jaguariúna/SP,-22.70374,-46.985062,6,10.43696
1,Jaguaruana/CE,-4.831508,-37.780997,2,5.93384
1,Jaguaruna/SC,-28.6237365,-49.0288664,4,19.97603
1,Jales/SP,-20.2671767,-50.5492435,4,8.14548
1,Janaúba/MG,-15.8019291,-43.309246,3,4.18714
1,Jandira/SP,-23.5282044,-46.9019554,40,32.01614
D1,Jandira/SP,-23.5282044,-46.9019554,3,2.40121
1,Jangada/MT,-15.2369949,-56.4902844,1,11.89202
1,Japeri/RJ,-22.6427642,-43.6533831,23,21.95327
D1,Japeri/RJ,-22.6427642,-43.6533831,1,0.95449
1,Japurá/PR,-23.469273,-52.55572,1,10.61008
1,Jaraguá do Sul/SC,-26.4897432,-49.0778063,14,7.87858
1,Jaraguá/GO,-15.7528866,-49.3344033,1,1.97977
1,Jardim/CE,-7.5838966,-39.279713,1,3.67999
1,Jardinópolis/SP,-21.0255126,-47.7706807,6,13.51960
1,Jarinu/SP,-23.0949584,-46.7148636,1,3.32845
D1,Jarinu/SP,-23.0949584,-46.7148636,1,3.32845
1,Jaru/RO,-10.431826,-62.478769,1,1.93143
1,Jataizinho/PR,-23.257815,-50.977748,2,15.88815
1,Jataí/GO,-17.8783829,-51.7204241,6,5.94754
1,Jataúba/PE,-7.9860545,-36.4980118,1,5.83090
1,Jatobá/PE,-9.1832353,-38.2672047,1,6.75858
1,Jaçanã/RN,-6.4290483,-36.2035537,3,32.84791
1,Jaú/SP,-22.293585,-48.559193,13,8.65213
1,Jeceaba/MG,-20.5353816,-43.983346,1,20.35831
1,Jequié/BA,-13.8604033,-40.0719627,28,17.95263
1,Jerônimo Monteiro/ES,-20.7882214,-41.3921464,2,16.40420
1,Jesúpolis/GO,-15.9545513,-49.3748004,1,40.16064
1,Ji-Paraná/RO,-10.8778148,-61.9277854,27,20.93526
D1,Ji-Paraná/RO,-10.8778148,-61.9277854,2,1.55076
1,Joanópolis/SP,-22.930004,-46.275208,2,15.12859
1,Joaçaba/SC,-27.1737204,-51.5065214,8,26.56219
1,Joinville/SC,-26.3044898,-48.8486726,145,24.55688
D1,Joinville/SC,-26.3044898,-48.8486726,3,0.50807
1,José Bonifácio/SP,-23.564090999999998,-46.434766582997995,2,5.40321
1,José de Freitas/PI,-4.7578357,-42.5763777,1,2.55050
1,João Alfredo/PE,-7.8608755,-35.591575,5,14.78328
1,João Câmara/RN,-5.5349637,-35.8150811,2,5.72164
1,João Monlevade/MG,-19.809444,-43.173334,4,5.00563
1,João Neiva/ES,-19.756346,-40.3848345,3,17.99856
1,João Pessoa/PB,-7.1215981,-34.882028,410,50.67891
D1,João Pessoa/PB,-7.1215981,-34.882028,28,3.46100
1,Juazeiro do Norte/CE,-7.2153453,-39.3153336,12,4.37626
1,Juazeiro/BA,-9.4336959,-40.5068201,9,4.15307
D1,Juazeiro/BA,-9.4336959,-40.5068201,1,0.46145
1,Jucati/PE,-8.7065829,-36.4870496,1,8.75350
1,Jucás/CE,-6.5224934,-39.5247183,4,16.10760
1,Juiz de Fora/MG,-21.7609533,-43.3501129,122,21.44591
D1,Juiz de Fora/MG,-21.7609533,-43.3501129,3,0.52736
1,Junco do Maranhão/MA,-1.8799132,-46.0726685,1,29.13753
1,Junco do Seridó/PB,-6.9922083,-36.7143267,3,41.95804
D1,Junco do Seridó/PB,-6.9922083,-36.7143267,1,13.98601
1,Jundiaí/SP,-23.1887866,-46.8845122,90,21.48166
D1,Jundiaí/SP,-23.1887866,-46.8845122,13,3.10291
1,Junqueirópolis/SP,-21.5109531,-51.4351505,2,9.67165
1,Jupi/PE,-8.7114677,-36.417448,1,6.74036
1,Juquitiba/SP,-23.932346,-47.0714217,3,9.54077
D1,Juquitiba/SP,-23.932346,-47.0714217,3,9.54077
1,Juquiá/SP,-24.3172209,-47.6355618,1,5.31576
1,Jurema/PE,-8.7189103,-36.137365,2,13.00559
1,Juruti/PA,-2.1571381,-56.0900977,5,8.62917
D1,Juruti/PA,-2.1571381,-56.0900977,2,3.45167
1,Juruá/AM,-3.4746666,-66.0622335,1,6.79717
1,Jussara/PR,-23.621931,-52.46931,1,14.25923
D1,Jussara/PR,-23.621931,-52.46931,1,14.25923
1,Jutaí/AM,-2.7471478,-66.7721255,3,20.95411
1,Ladário/MS,-19.008842,-57.5972924,3,12.85843
1,Lagarto/SE,-10.9141791,-37.6715308,2,1.91556
1,Lages/SC,-27.8165664,-50.325883,13,8.25166
1,Lago da Pedra/MA,-4.5627272,-45.1298628,2,3.97883
D1,Lago da Pedra/MA,-4.5627272,-45.1298628,1,1.98942
1,Lagoa Santa/MG,-19.6357376,-43.8966132,4,6.19896
1,Lagoa Seca/PB,-7.157099,-35.8542023,1,3.63597
1,Lagoa da Prata/MG,-20.022778,-45.5440462,16,30.67191
1,Lagoa de Itaenga/PE,-7.9335596,-35.2919789,2,9.33315
D1,Lagoa de Itaenga/PE,-7.9335596,-35.2919789,1,4.66657
1,Lagoa de Pedras/RN,-6.1527678,-35.4368516,1,13.25557
D1,Lagoa de Pedras/RN,-6.1527678,-35.4368516,1,13.25557
1,Lagoa do Barro do Piauí/PI,-8.4798938,-41.5295775,1,21.48228
1,Lagoa do Carro/PE,-7.843834,-35.310783,2,11.06746
D1,Lagoa do Carro/PE,-7.843834,-35.310783,1,5.53373
1,Lagoa dos Gatos/PE,-8.6537614,-35.9045124,2,12.27747
D1,Lagoa dos Gatos/PE,-8.6537614,-35.9045124,1,6.13874
1,Laguna/SC,-28.483118,-48.7811993,7,15.27917
1,Laje/BA,-13.1809956,-39.4222968,1,4.19463
1,Lajeado/RS,-29.4671522,-51.9624046,56,66.65556
D1,Lajeado/RS,-29.4671522,-51.9624046,3,3.57083
1,Lajedo do Tabocal/BA,-13.49316205,-40.281038132391984,1,11.67951
1,Lajes Pintadas/RN,-6.1497352,-36.1166085,2,42.02564
1,Lambari D'Oeste/MT,-15.3188455,-58.0046244,1,16.33720
1,Lapa/PR,-25.76709,-49.716777,3,6.22885
1,Laranjal Paulista/SP,-23.050564,-47.837549,5,17.53402
D1,Laranjal Paulista/SP,-23.050564,-47.837549,2,7.01361
1,Laranjal do Jari/AP,-0.8419994,-52.516,32,63.47947
D1,Laranjal do Jari/AP,-0.8419994,-52.516,2,3.96747
1,Lauro de Freitas/BA,-12.89242,-38.3127691,45,22.67688
D1,Lauro de Freitas/BA,-12.89242,-38.3127691,4,2.01572
1,Lavras da Mangabeira/CE,-6.7519554,-38.9634019,1,3.17380
1,Lavras/MG,-21.2425512,-44.9991978,7,6.74549
1,Lavrinhas/SP,-22.570047,-44.902359,2,27.54821
D1,Lavrinhas/SP,-22.570047,-44.902359,1,13.77410
1,Leme/SP,-22.185833,-47.39,6,5.80321
D1,Leme/SP,-22.185833,-47.39,3,2.90161
1,Lençóis Paulista/SP,-22.6029897,-48.8031367,5,7.30652
D1,Lençóis Paulista/SP,-22.6029897,-48.8031367,1,1.46130
1,Leopoldina/MG,-21.5314282,-42.6403534,1,1.90161
1,Leópolis/PR,-23.0789091,-50.7501808,1,25.29084
1,Licínio de Almeida/BA,-14.684215,-42.509527,1,8.07233
1,Limeira/SP,-22.5615068,-47.401766,29,9.47359
D1,Limeira/SP,-22.5615068,-47.401766,1,0.32668
1,Limoeiro de Anadia/AL,-9.7389667,-36.5015847,1,3.49223
D1,Limoeiro de Anadia/AL,-9.7389667,-36.5015847,1,3.49223
1,Limoeiro do Ajuru/PA,-1.8866440500000001,-49.495701348909165,2,6.91204
D1,Limoeiro do Ajuru/PA,-1.8866440500000001,-49.495701348909165,1,3.45602
1,Limoeiro do Norte/CE,-5.1455607,-38.0984936,10,16.79543
D1,Limoeiro do Norte/CE,-5.1455607,-38.0984936,2,3.35909
1,Limoeiro/PE,-7.872599,-35.440154,11,19.55556
D1,Limoeiro/PE,-7.872599,-35.440154,3,5.33333
1,Lindóia do Sul/SC,-27.0524132,-52.0831626,12,262.98488
1,Lindóia/SP,-22.523056,-46.65,3,37.59398
1,Linhares/ES,-19.3816944,-40.0612213,36,20.74270
D1,Linhares/ES,-19.3816944,-40.0612213,1,0.57619
1,Lins/SP,-21.6741873,-49.7518932,16,20.50940
D1,Lins/SP,-21.6741873,-49.7518932,3,3.84551
1,Livramento de Nossa Senhora/BA,-13.6505468,-41.8412103,1,2.18665
1,Londrina/PR,-23.3112878,-51.1595023,95,16.67448
D1,Londrina/PR,-23.3112878,-51.1595023,13,2.28177
1,Lorena/SP,-22.7367652,-45.1070876,5,5.63660
1,Louveira/SP,-23.08639,-46.95056,8,16.36494
1,Lucas do Rio Verde/MT,-13.0655935,-55.9198356,3,4.57778
D1,Lucas do Rio Verde/MT,-13.0655935,-55.9198356,1,1.52593
1,Lucélia/SP,-21.7211293,-51.0188,4,18.39334
D1,Lucélia/SP,-21.7211293,-51.0188,2,9.19667
1,Luzilândia/PI,-3.4648887,-42.3689528,1,3.92372
1,Luziânia/GO,-16.2535456,-47.9500276,13,6.24103
D1,Luziânia/GO,-16.2535456,-47.9500276,3,1.44024
1,Luís Correia/PI,-2.8818164,-41.6658458,3,9.89740
1,Luís Eduardo Magalhães/BA,-12.0869117,-45.7834163,2,2.28522
1,Luís Gomes/RN,-6.4141793,-38.3872939,1,9.88533
1,Lábrea/AM,-7.2613683,-64.7924505,18,39.07183
1,Macaparana/PE,-7.54122565,-35.449102477927944,3,11.82219
D1,Macaparana/PE,-7.54122565,-35.449102477927944,2,7.88146
1,Macapá/AP,0.0401529,-51.0569588,708,140.66402
D1,Macapá/AP,0.0401529,-51.0569588,21,4.17224
1,Macatuba/SP,-22.50022,-48.710229,1,5.82649
1,Macaé/RJ,-22.3712958,-41.7866922,41,15.97369
D1,Macaé/RJ,-22.3712958,-41.7866922,8,3.11682
1,Macaíba/RN,-5.8561372,-35.3523774,16,19.80394
D1,Macaíba/RN,-5.8561372,-35.3523774,1,1.23775
1,Macedônia/SP,-20.1454034,-50.193911,1,27.04164
1,Maceió/AL,-9.6476843,-35.7339264,645,63.30058
D1,Maceió/AL,-9.6476843,-35.7339264,24,2.35537
1,Machado/MG,-21.6762861,-45.9211696,2,4.74687
1,Machados/PE,-7.6876999,-35.5126635,2,12.43163
D1,Machados/PE,-7.6876999,-35.5126635,1,6.21581
1,Madalena/CE,-4.8542961,-39.5766436,1,5.07846
1,Mafra/SC,-26.1150943,-49.8035982,2,3.55290
1,Magalhães de Almeida/MA,-3.392319,-42.211743,1,5.04388
1,Magé/RJ,-22.6604221,-43.0426162,73,29.78729
D1,Magé/RJ,-22.6604221,-43.0426162,5,2.04023
1,Mairinque/SP,-23.5401247,-47.1846323,6,12.72534
1,Mairiporã/SP,-23.3186111,-46.5866667,21,20.96248
D1,Mairiporã/SP,-23.3186111,-46.5866667,4,3.99285
1,Manacapuru/AM,-3.2996768,-60.6213528,256,262.89576
D1,Manacapuru/AM,-3.2996768,-60.6213528,17,17.45792
1,Manaquiri/AM,-3.4305885,-60.4593078,2,6.22956
D1,Manaquiri/AM,-3.4305885,-60.4593078,1,3.11478
1,Manaus/AM,-3.1316333,-59.9825041,2722,124.70433
D1,Manaus/AM,-3.1316333,-59.9825041,246,11.27012
1,Mandaguari/PR,-23.5224849,-51.6787511,1,2.90698
1,Mandaguaçu/PR,-23.3485076,-52.0966215,1,4.38231
1,Mandirituba/PR,-25.7772457,-49.3279107,3,11.16528
1,Mangaratiba/RJ,-22.9600193,-44.04111,6,13.49285
D1,Mangaratiba/RJ,-22.9600193,-44.04111,2,4.49762
1,Manhuaçu/MG,-20.2574434,-42.0340769,3,3.32487
1,Manicoré/AM,-5.804618,-61.289483,3,5.38107
D1,Manicoré/AM,-5.804618,-61.289483,1,1.79369
1,Manoel Emídio/PI,-8.0054022,-43.8730321,1,18.69508
1,Manoel Ribas/PR,-24.5177239,-51.6685729,1,7.40631
D1,Manoel Ribas/PR,-24.5177239,-51.6685729,1,7.40631
1,Marabá/PA,-5.3462821,-49.1007401,25,8.94938
D1,Marabá/PA,-5.3462821,-49.1007401,5,1.78988
1,Maracanaú/CE,-3.8779438,-38.6247697,148,64.94475
D1,Maracanaú/CE,-3.8779438,-38.6247697,13,5.70461
1,Maragogi/AL,-9.0118278,-35.222512,5,15.28865
1,Maragogipe/BA,-12.7766206,-38.9174729,5,11.19144
1,Maranguape/CE,-3.8922967,-38.6835427,68,52.72217
D1,Maranguape/CE,-3.8922967,-38.6835427,5,3.87663
1,Marapanim/PA,-0.7134493,-47.6985381,8,28.23264
1,Marataízes/ES,-21.0443673,-40.8272204,11,28.57217
1,Maratá/RS,-29.549349,-51.5546411,2,74.32181
1,Marau/RS,-28.4493053,-52.2002156,49,110.95763
D1,Marau/RS,-28.4493053,-52.2002156,1,2.26444
1,Maraã/AM,-1.8535579,-65.5897749,8,43.89816
1,Marcelino Ramos/RS,-27.4622708,-51.9081009,1,22.71695
1,Marco/CE,-3.1221945,-40.1514585,2,7.30967
1,Marechal Cândido Rondon/PR,-24.5570477,-54.0571457,2,3.77758
1,Marechal Deodoro/AL,-9.709715,-35.896731,16,30.82792
D1,Marechal Deodoro/AL,-9.709715,-35.896731,2,3.85349
1,Marechal Floriano/ES,-20.4124966,-40.6749858,1,5.99018
1,Mari/PB,-7.0580611,-35.3184163,1,4.57938
D1,Mari/PB,-7.0580611,-35.3184163,1,4.57938
1,Mariana/MG,-20.3781468,-43.4174862,15,24.70193
D1,Mariana/MG,-20.3781468,-43.4174862,1,1.64680
1,Maribondo/AL,-9.5808649,-36.3040574,2,15.07841
D1,Maribondo/AL,-9.5808649,-36.3040574,1,7.53920
1,Maricá/RJ,-22.9196772,-42.8184375,52,32.25666
D1,Maricá/RJ,-22.9196772,-42.8184375,7,4.34224
1,Maringá/PR,-23.425269,-51.9382078,55,12.98192
D1,Maringá/PR,-23.425269,-51.9382078,5,1.18017
1,Maripá de Minas/MG,-21.6975,-42.959167,1,33.63606
1,Marituba/PA,-1.3595306,-48.3361504,36,27.37205
D1,Marituba/PA,-1.3595306,-48.3361504,1,0.76033
1,Marizópolis/PB,-6.8440704,-38.3473088,1,15.11259
D1,Marizópolis/PB,-6.8440704,-38.3473088,1,15.11259
1,Mariópolis/PR,-26.3517858,-52.5491536,2,30.25719
1,Marliéria/MG,-19.711867,-42.7343059,4,99.03441
1,Martinho Campos/MG,-19.331945,-45.236666,1,7.46938
1,Martinópole/CE,-3.2235114,-40.6958832,1,8.90234
1,Martinópolis/SP,-22.146153,-51.170949,1,3.77915
1,Maruim/SE,-10.7372604,-37.0817469,1,5.80956
1,Marumbi/PR,-23.7070343,-51.6408276,2,42.74418
1,Marília/SP,-22.217108,-49.95006,9,3.76755
D1,Marília/SP,-22.217108,-49.95006,1,0.41862
1,Massapê/CE,-3.5239058,-40.3423107,7,18.07058
D1,Massapê/CE,-3.5239058,-40.3423107,1,2.58151
1,Massaranduba/SC,-26.610868,-49.005351,1,5.91156
D1,Massaranduba/SC,-26.610868,-49.005351,1,5.91156
1,Mata Roma/MA,-3.6210147,-43.1156951,1,5.94212
1,Mata de São João/BA,-12.530685,-38.300898,1,2.14671
1,Matinha/MA,-3.102212,-45.032208,7,29.95293
1,Matinhos/PR,-25.8187344,-48.5342813,2,5.76037
1,Matozinhos/MG,-19.5576547,-44.0816035,1,2.64410
1,Matriz de Camaragibe/AL,-9.154373,-35.524302,1,4.05811
D1,Matriz de Camaragibe/AL,-9.154373,-35.524302,1,4.05811
1,Matão/SP,-21.6033611,-48.3660603,5,6.01178
1,Mauriti/CE,-7.3870095,-38.7737751,2,4.16997
1,Mauá/SP,-23.6669527,-46.4616922,179,37.85059
D1,Mauá/SP,-23.6669527,-46.4616922,15,3.17184
1,Maués/AM,-3.3795798,-57.7196072,56,87.63008
D1,Maués/AM,-3.3795798,-57.7196072,6,9.38894
1,Mazagão/AP,-0.1160565,-51.2861759,12,55.47337
1,Medeiros Neto/BA,-17.3714581,-40.2224736,1,4.40762
1,Medianeira/PR,-25.2954233,-54.0940666,4,8.65838
1,Meleiro/SC,-28.8303183,-49.6349851,1,14.25517
1,Melgaço/PA,-1.803202,-50.714927,1,3.61611
1,Mendes/RJ,-22.5269113,-43.7332604,1,5.37230
1,Mesquita/RJ,-22.783092,-43.4293599,133,75.52398
D1,Mesquita/RJ,-22.783092,-43.4293599,11,6.24634
1,Miguel Alves/PI,-4.1730384,-42.8955677,2,5.92417
1,Miguel Pereira/RJ,-22.4539417,-43.4691978,7,27.41013
D1,Miguel Pereira/RJ,-22.4539417,-43.4691978,1,3.91573
1,Miguelópolis/SP,-20.179612,-48.030997,1,4.49924
1,Milagres do Maranhão/MA,-3.5815605,-42.6080355,2,23.62949
1,Milagres/CE,-7.3106846,-38.9447146,2,7.26956
1,Minas Novas/MG,-17.2175833,-42.5943681,1,3.17622
1,Minas do Leão/RS,-30.1334499,-52.0455962,2,24.76780
1,Mineiros do Tietê/SP,-22.4133188,-48.450554,4,30.98853
D1,Mineiros do Tietê/SP,-22.4133188,-48.450554,1,7.74713
1,Mineiros/GO,-17.5653879,-52.5536721,4,5.98793
1,Miracatu/SP,-24.2839078,-47.4535128,4,20.22347
D1,Miracatu/SP,-24.2839078,-47.4535128,2,10.11173
1,Miranda do Norte/MA,-3.5653459,-44.5809128,4,14.09394
1,Miranda/MS,-20.2401082,-56.3844728,1,3.56977
1,Mirandópolis/SP,-21.1328313,-51.1029422,7,23.67745
D1,Mirandópolis/SP,-21.1328313,-51.1029422,2,6.76498
1,Mirante/BA,-14.2401367,-40.7661915,1,11.57273
1,Mirassol d'Oeste/MT,-15.675947,-58.0951397,6,21.63020
D1,Mirassol d'Oeste/MT,-15.675947,-58.0951397,1,3.60503
1,Mirassol/SP,-20.8141411,-49.507449,6,10.02942
1,Miraíma/CE,-3.568674,-39.966267,1,7.23694
D1,Miraíma/CE,-3.568674,-39.966267,1,7.23694
1,Mirinzal/MA,-2.0664539,-44.7837348,1,6.68360
D1,Mirinzal/MA,-2.0664539,-44.7837348,1,6.68360
1,Missão Velha/CE,-7.248491,-39.1434843,1,2.82542
1,Mocajuba/PA,-2.583098,-49.504224,2,6.42343
1,Mococa/SP,-21.464731,-47.002405,3,4.35508
D1,Mococa/SP,-21.464731,-47.002405,1,1.45169
1,Mogi Guaçu/SP,-22.372222,-46.9425,23,15.14274
D1,Mogi Guaçu/SP,-22.372222,-46.9425,1,0.65838
1,Mogi Mirim/SP,-22.433009,-46.9581629,5,5.36544
1,Mogi das Cruzes/SP,-23.5234284,-46.1926671,199,44.63465
D1,Mogi das Cruzes/SP,-23.5234284,-46.1926671,20,4.48589
1,Mombaça/CE,-5.7450899,-39.6293519,6,13.69957
D1,Mombaça/CE,-5.7450899,-39.6293519,1,2.28326
1,Mongaguá/SP,-24.0959454,-46.6234361,8,14.10885
D1,Mongaguá/SP,-24.0959454,-46.6234361,1,1.76361
1,Monsenhor Gil/PI,-5.5609098,-42.6127716,1,9.46611
1,Montanha/ES,-18.1256742,-40.366795,1,5.30983
1,Montanhas/RN,-6.4866542,-35.2853577,1,8.88810
1,Monte Alegre/PA,-1.9989108,-54.0727694,3,5.16956
1,Monte Alegre/RN,-6.069901,-35.333635,4,17.81658
1,Monte Alto/SP,-21.265545,-48.497066,13,25.74359
D1,Monte Alto/SP,-21.265545,-48.497066,1,1.98028
1,Monte Azul Paulista/SP,-20.90649,-48.638717,1,5.26094
1,Monte Azul/MG,-15.1531999,-42.8711742,1,4.79524
1,Monte Carmelo/MG,-18.7260939,-47.4958859,5,10.45828
1,Monte Mor/SP,-22.945043,-47.312182,5,8.36512
D1,Monte Mor/SP,-22.945043,-47.312182,1,1.67302
1,Montenegro/RS,-29.6826112,-51.4687455,3,4.59671
1,Montes Claros/MG,-16.7273538,-43.8717676,7,1.71007
D1,Montes Claros/MG,-16.7273538,-43.8717676,1,0.24430
1,Montividiu/GO,-17.4439339,-51.172815,1,7.46491
1,Monção/MA,-3.4842036,-45.2515472,1,2.99097
1,Morada Nova/CE,-5.1076699,-38.3727852,3,4.84731
1,Moreno/PE,-8.108706,-35.08354,13,20.70591
D1,Moreno/PE,-8.108706,-35.08354,2,3.18552
1,Morpará/BA,-11.5628341,-43.2768414,3,35.21540
1,Morretes/PR,-25.4770051,-48.8321911,1,6.09533
1,Morrinhos/GO,-17.7333689,-49.105908,1,2.16750
1,Morro Agudo/SP,-20.7276692,-48.052795,1,3.03324
1,Morro da Fumaça/SC,-28.6522275,-49.2133979,2,11.23848
1,Morro da Garça/MG,-18.5435188,-44.6030199,1,40.61738
D1,Morro da Garça/MG,-18.5435188,-44.6030199,1,40.61738
1,Morros/MA,-2.8652201,-44.0390477,3,15.43766
1,Morungaba/SP,-22.88,-46.79167,7,51.38746
1,Mossoró/RN,-5.1904332,-37.3443872,117,39.34387
D1,Mossoró/RN,-5.1904332,-37.3443872,11,3.69900
1,Muaná/PA,-1.5317443,-49.2223565,1,2.47838
1,Mucugê/BA,-13.0053,-41.370271,4,44.14037
1,Mulungu/CE,-5.8359648,-39.3777574,4,36.95833
1,Mundo Novo/MS,-23.9378876,-54.2859489,2,10.88969
1,Munhoz/MG,-22.613056,-46.360556,3,49.75950
1,Muriaé/MG,-21.130556,-42.366389,7,6.43601
1,Murici/AL,-9.306823,-35.942798,17,60.20683
1,Muzambinho/MG,-21.3727087,-46.51927,1,4.86169
1,Muçum/RS,-29.1666714,-51.8747726,2,40.37142
1,Mário Campos/MG,-20.0511,-44.1858,2,12.97353
1,Mãe do Rio/PA,-2.0458692,-47.5522076,5,16.62400
1,Nanuque/MG,-17.8391113,-40.3537221,2,4.90798
D1,Nanuque/MG,-17.8391113,-40.3537221,1,2.45399
1,Natal/RN,-5.805398,-35.2080905,402,45.46884
D1,Natal/RN,-5.805398,-35.2080905,11,1.24417
1,Navegantes/SC,-26.8898813,-48.6495828,34,41.73059
1,Naviraí/MS,-23.0622152,-54.2018319,1,1.82222
1,Nazareno/MG,-21.2134896,-44.649049590000004,1,11.61710
1,Nazaré Paulista/SP,-23.1819309,-46.3992986,4,21.59361
D1,Nazaré Paulista/SP,-23.1819309,-46.3992986,1,5.39840
1,Nazaré da Mata/PE,-7.7452689,-35.2286396,2,6.15934
1,Nazária/PI,-5.3512851,-42.8152823,2,23.33722
1,Nerópolis/GO,-16.4069816,-49.219438,3,10.05025
1,Nhamundá/AM,-2.1921521,-56.7111308,1,4.72300
1,Nhandeara/SP,-20.6942747,-50.0406162,1,8.71232
1,Nicolau Vergueiro/RS,-28.5361987,-52.4631712,1,59.45303
1,Nilo Peçanha/BA,-13.6015675,-39.1043356,1,7.14439
D1,Nilo Peçanha/BA,-13.6015675,-39.1043356,1,7.14439
1,Nilópolis/RJ,-22.8080114,-43.4138222,51,31.38751
D1,Nilópolis/RJ,-22.8080114,-43.4138222,3,1.84632
1,Niquelândia/GO,-14.4648655,-48.4572244,1,2.15573
1,Niterói/RJ,-22.8832371,-43.1154552,266,51.79289
D1,Niterói/RJ,-22.8832371,-43.1154552,20,3.89420
1,Nossa Senhora da Glória/SE,-10.2188811,-37.4199759,3,8.12480
1,Nossa Senhora do Socorro/SE,-10.8553115,-37.1264863,7,3.81205
1,Nova Andradina/MS,-22.2477565,-53.3480621,11,20.23026
1,Nova Bréscia/RS,-29.2158737,-52.0290188,1,30.03003
1,Nova Esperança do Piriá/PA,-2.2663093,-46.9661622,1,4.67990
1,Nova Esperança/PR,-23.1818437,-52.1999852,5,17.91858
1,Nova Friburgo/RJ,-22.2800004,-42.5325303,43,22.55667
D1,Nova Friburgo/RJ,-22.2800004,-42.5325303,3,1.57372
1,Nova Glória/GO,-15.1481798,-49.577239,1,12.24890
1,Nova Iguaçu/RJ,-22.7592175,-43.4508728,312,37.99651
D1,Nova Iguaçu/RJ,-22.7592175,-43.4508728,24,2.92281
1,Nova Ipixuna/PA,-4.916221,-49.082194,1,5.99592
1,Nova Lima/MG,-19.9854089,-43.8470691,53,55.85474
1,Nova Londrina/PR,-22.7633621,-52.9875908,3,22.70491
1,Nova Monte Verde/MT,-9.9796694,-57.467331,1,10.89562
1,Nova Mutum/MT,-13.8255015,-56.0849262,2,4.40742
1,Nova Odessa/SP,-22.783186,-47.294059,7,11.63293
D1,Nova Odessa/SP,-22.783186,-47.294059,1,1.66185
1,Nova Olinda do Norte/AM,-3.8926889,-59.0953046,3,8.02611
1,Nova Olinda/CE,-7.0934174,-39.6789815,4,25.69868
1,Nova Palma/RS,-29.4711081,-53.4693751,1,15.35627
1,Nova Prata/RS,-28.784398,-51.6105402,3,11.00635
1,Nova Serrana/MG,-19.875834,-44.984166,1,0.97378
D1,Nova Serrana/MG,-19.875834,-44.984166,1,0.97378
1,Nova Soure/BA,-11.2409332,-38.4774123,1,3.71099
1,Nova Timboteua/PA,-1.2052428,-47.3935775,4,26.03658
1,Nova Trento/SC,-27.2862616,-48.9302652,1,6.87332
1,Nova Veneza/GO,-16.3709074,-49.3212061,1,10.14919
1,Nova Veneza/SC,-28.637371,-49.4997634,2,13.18739
1,Nova Venécia/ES,-18.7063456,-40.3969786,5,9.97805
1,Novo Airão/AM,-2.6260236,-60.9434406,2,10.28066
D1,Novo Airão/AM,-2.6260236,-60.9434406,1,5.14033
1,Novo Aripuanã/AM,-5.125929,-60.373179,4,15.59819
1,Novo Cruzeiro/MG,-19.4730937,-42.537897,1,3.19173
D1,Novo Cruzeiro/MG,-19.4730937,-42.537897,1,3.19173
1,Novo Gama/GO,-16.0496528,-48.0304615,1,0.86422
1,Novo Hamburgo/RS,-29.6905705,-51.1429035,26,10.53707
D1,Novo Hamburgo/RS,-29.6905705,-51.1429035,2,0.81054
1,Novo Horizonte/SP,-21.4674564,-49.2235377,1,2.43593
1,Novo Oriente/CE,-5.5350339,-40.7748902,2,6.99130
1,Novo Progresso/PA,-7.0374884,-55.4185904,2,7.76337
1,Não-Me-Toque/RS,-28.4575507,-52.8196547,4,22.69632
1,Nísia Floresta/RN,-6.0902674,-35.2085026,5,18.11463
D1,Nísia Floresta/RN,-6.0902674,-35.2085026,1,3.62293
1,Ocara/CE,-4.4910653,-38.5964829,10,38.90596
D1,Ocara/CE,-4.4910653,-38.5964829,1,3.89060
1,Oeiras do Pará/PA,-2.0040813,-49.8596065,13,39.98524
1,Oeiras/PI,-7.0109909,-42.1299376,4,10.80234
1,Oiapoque/AP,3.8432128,-51.8350798,21,77.00770
D1,Oiapoque/AP,3.8432128,-51.8350798,1,3.66703
1,Olho d'Água das Cunhãs/MA,-4.140311,-45.1184685,1,5.12689
1,Olho d'Água das Flores/AL,-9.5318374,-37.2939052,1,4.61084
1,Olinda/PE,-7.9986401,-34.8459552,293,74.65311
D1,Olinda/PE,-7.9986401,-34.8459552,30,7.64366
1,Oliveira dos Brejinhos/BA,-12.3193308,-42.8914271,1,4.58190
1,Olímpia/SP,-20.736634,-48.910625,5,9.12875
1,Oriximiná/PA,-1.7669992,-55.868285,1,1.36806
1,Orleans/SC,-28.3572698,-49.2872434,6,26.18715
1,Orlândia/SP,-20.720278,-47.886667,4,9.08513
1,Orocó/PE,-8.6147294,-39.6036682,1,6.67067
1,Orós/CE,-6.2427541,-38.9141151,1,4.66701
1,Osasco/SP,-23.5324859,-46.7916801,646,92.49475
D1,Osasco/SP,-23.5324859,-46.7916801,66,9.44993
1,Osório/RS,-29.8890328,-50.2730224,2,4.34839
1,Ourinhos/SP,-22.9777918,-49.868204,16,14.09170
D1,Ourinhos/SP,-22.9777918,-49.868204,2,1.76146
1,Ouro Branco/RN,-6.703294,-36.9429599,1,20.78138
1,Ouro Fino/MG,-22.283056,-46.369167,2,5.94548
D1,Ouro Fino/MG,-22.283056,-46.369167,1,2.97274
1,Ouro Preto do Oeste/RO,-10.7223354,-62.2533413,7,19.42556
1,Ourém/PA,-1.5489964,-47.1174572,5,28.02376
1,Pacajus/CE,-4.171073,-38.464988,16,22.15974
1,Pacajá/PA,-3.8354195,-50.6399248,2,4.19234
1,Pacaraima/RR,4.4791253,-61.1471016,15,86.20194
1,Pacatuba/CE,-3.9841,-38.6180383,45,53.93614
D1,Pacatuba/CE,-3.9841,-38.6180383,2,2.39716
1,Pacatuba/SE,-10.4506594,-36.6473212,2,13.86194
1,Pacoti/CE,-4.2253561,-38.9208352,2,16.31188
1,Paiçandu/PR,-23.4575884,-52.048988,1,2.42242
1,Palestina/AL,-9.6727944,-37.328509,1,19.95610
1,Palhoça/SC,-27.6447774,-48.6646323,25,14.55206
D1,Palhoça/SC,-27.6447774,-48.6646323,1,0.58208
1,Palma Sola/SC,-26.3482487,-53.2775974,1,13.47164
1,Palmares/PE,-8.684226,-35.589032,6,9.48617
D1,Palmares/PE,-8.684226,-35.589032,3,4.74308
1,Palmas/PR,-26.483868,-51.988812,1,1.96132
1,Palmas/TO,-10.1835604,-48.3337793,37,12.36933
D1,Palmas/TO,-10.1835604,-48.3337793,1,0.33431
1,Palmeira dos Índios/AL,-9.4112877,-36.6293905,6,8.19471
1,Palmeira/PR,-25.4269718,-49.9987787,2,5.90371
1,Palmeiras/BA,-12.5151234,-41.5746054,1,11.08770
1,Palmital/SP,-22.786384,-50.2198965,1,4.50025
1,Panelas/PE,-8.661211,-36.012539,1,3.77729
D1,Panelas/PE,-8.661211,-36.012539,1,3.77729
1,Papanduva/SC,-26.4065885,-50.1457369,2,10.35197
1,Paracambi/RJ,-22.6109158,-43.7096912,17,32.53153
D1,Paracambi/RJ,-22.6109158,-43.7096912,1,1.91362
1,Paracatu/MG,-17.2174056,-46.8707514,14,15.02823
1,Paracuru/CE,-3.41436,-39.030028,3,8.55286
1,Paragominas/PA,-2.99564,-47.3548942,18,15.90879
D1,Paragominas/PA,-2.99564,-47.3548942,2,1.76764
1,Paraipaba/CE,-3.437987,-39.147868,5,15.26997
1,Paraisópolis/MG,-22.5541683,-45.7800024,4,18.97263
D1,Paraisópolis/MG,-22.5541683,-45.7800024,2,9.48632
1,Paramirim/BA,-13.4437218,-42.2419768,2,9.25626
1,Paranacity/PR,-22.9304971,-52.1523164,5,43.58438
1,Paranaguá/PR,-25.5121904,-48.5251854,14,9.03599
D1,Paranaguá/PR,-25.5121904,-48.5251854,2,1.29086
1,Paranaiguara/GO,-18.9137048,-50.6536307,1,9.94332
1,Paranapoema/PR,-22.6561084,-52.0865163,1,31.22073
1,Paranavaí/PR,-23.08165,-52.461724,18,20.36798
D1,Paranavaí/PR,-23.08165,-52.461724,2,2.26311
1,Paranaíba/MS,-19.6751971,-51.1874986,2,4.74518
D1,Paranaíba/MS,-19.6751971,-51.1874986,1,2.37259
1,Paraty/RJ,-23.2196461,-44.7154196,5,11.58346
D1,Paraty/RJ,-23.2196461,-44.7154196,1,2.31669
1,Parauapebas/PA,-6.0696846,-49.8903283,58,27.84806
D1,Parauapebas/PA,-6.0696846,-49.8903283,6,2.88083
1,Paraí/RS,-28.5966772,-51.7851426,2,26.11989
1,Paraíba do Sul/RJ,-22.1636384,-43.2916915,5,11.29050
1,Paraíso das Águas/MS,-19.0219279,-53.0122646,1,18.00180
1,Paraíso do Norte/PR,-23.2841185,-52.6024125,1,7.23066
1,Paraíso do Tocantins/TO,-10.1752474,-48.886759,1,1.95114
D1,Paraíso do Tocantins/TO,-10.1752474,-48.886759,1,1.95114
1,Paraúna/GO,-16.9495937,-50.4473008,3,27.30251
D1,Paraúna/GO,-16.9495937,-50.4473008,1,9.10084
1,Pareci Novo/RS,-29.6386722,-51.3961969,1,26.06203
1,Parintins/AM,-2.6344567,-56.7319324,76,66.50740
D1,Parintins/AM,-2.6344567,-56.7319324,3,2.62529
1,Paripueira/AL,-9.463133,-35.551977,1,7.58956
D1,Paripueira/AL,-9.463133,-35.551977,1,7.58956
1,Pariquera-Açu/SP,-24.7146891,-47.8802361,17,86.52280
D1,Pariquera-Açu/SP,-24.7146891,-47.8802361,1,5.08958
1,Parisi/SP,-20.3039424,-50.0135808,1,46.27487
1,Parnamirim/RN,-5.9153334,-35.2679913,97,37.09809
D1,Parnamirim/RN,-5.9153334,-35.2679913,1,0.38245
1,Parnaíba/PI,-2.9147515,-41.7661953,19,12.41197
D1,Parnaíba/PI,-2.9147515,-41.7661953,3,1.95979
1,Pará de Minas/MG,-19.8599637,-44.6075313,5,5.32090
1,Passa e Fica/RN,-6.4356697,-35.6434459,1,7.53182
1,Passira/PE,-7.976317,-35.5817327,1,3.45626
1,Passo Fundo/RS,-28.2616138,-52.4089048,103,50.67027
D1,Passo Fundo/RS,-28.2616138,-52.4089048,11,5.41139
1,Passos/MG,-20.719162,-46.6094507,1,0.87200
1,Pato Branco/PR,-26.2295984,-52.6712474,14,16.89169
D1,Pato Branco/PR,-26.2295984,-52.6712474,1,1.20655
1,Patos de Minas/MG,-18.6041453,-46.5096698,14,9.18105
D1,Patos de Minas/MG,-18.6041453,-46.5096698,1,0.65579
1,Patos/PB,-7.0258285,-37.2766817,12,11.15190
D1,Patos/PB,-7.0258285,-37.2766817,2,1.85865
1,Patrocínio/MG,-18.9408294,-46.9926624,19,20.93502
D1,Patrocínio/MG,-18.9408294,-46.9926624,1,1.10184
1,Paty do Alferes/RJ,-22.4272703,-43.4219523,2,7.20228
1,Pau dos Ferros/RN,-6.1124964,-38.2062628,3,9.87037
1,Paudalho/PE,-7.90287,-35.171639,14,24.77613
D1,Paudalho/PE,-7.90287,-35.171639,7,12.38806
1,Paulista/PE,-7.9340069,-34.868407,210,63.29610
D1,Paulista/PE,-7.9340069,-34.868407,18,5.42538
1,Paulistânia/SP,-22.5769873,-49.4028157,1,54.55537
1,Paulo Afonso/BA,-9.3991006,-38.226711,6,5.09416
1,Paulo Lopes/SC,-27.964968,-48.6830299,2,26.68802
1,Paulínia/SP,-22.7630391,-47.1532213,11,10.05264
D1,Paulínia/SP,-22.7630391,-47.1532213,1,0.91388
1,Paço do Lumiar/MA,-2.5210576,-44.1063031,80,65.46806
D1,Paço do Lumiar/MA,-2.5210576,-44.1063031,6,4.91010
1,Peabiru/PR,-23.9142123,-52.3455598,2,14.28980
1,Pederneiras/SP,-22.351086,-48.778113,2,4.28385
D1,Pederneiras/SP,-22.351086,-48.778113,1,2.14192
1,Pedra Bela/SP,-22.7950193,-46.4431811,1,16.41228
1,Pedra Branca do Amapari/AP,0.7771833,-51.9523218,1,6.05987
1,Pedra Branca/CE,-5.455674,-39.7166286,8,18.49369
D1,Pedra Branca/CE,-5.455674,-39.7166286,2,4.62342
1,Pedra/PE,-8.4995589,-36.944377,1,4.42145
1,Pedras Grandes/SC,-28.4357866,-49.1864128,2,50.30181
D1,Pedras Grandes/SC,-28.4357866,-49.1864128,1,25.15091
1,Pedras de Fogo/PB,-7.3988977,-35.112176,3,10.54185
1,Pedreiras/MA,-4.5687989,-44.6003029,2,5.09827
1,Pedro Canário/ES,-18.2998272,-39.9558844,3,11.45738
1,Pedro II/PI,-4.425845,-41.448184,3,7.74353
D1,Pedro II/PI,-4.425845,-41.448184,1,2.58118
1,Pedro Leopoldo/MG,-19.617778,-44.043055,1,1.55623
1,Pedro de Toledo/SP,-24.2769071,-47.23393,2,17.65069
1,Pelotas/RS,-31.7699736,-52.3410161,19,5.54898
1,Penedo/AL,-10.2872341,-36.5819262,1,1.57028
1,Penha/SC,-26.775418,-48.6465251,4,12.29596
D1,Penha/SC,-26.775418,-48.6465251,1,3.07399
1,Pentecoste/CE,-3.7952282,-39.2713219,6,15.89362
1,Penápolis/SP,-21.4192406,-50.0765588,2,3.15423
D1,Penápolis/SP,-21.4192406,-50.0765588,1,1.57711
1,Perdões/MG,-21.0919737,-45.0903543,1,4.67508
1,Pereiro/CE,-6.046269,-38.4604192,3,18.39701
1,Peritiba/SC,-27.3736365,-51.9050311,1,35.88088
1,Peruíbe/SP,-24.3218105,-46.9977452,14,20.50261
1,Pescaria Brava/SC,-28.3845591,-48.8658054,1,9.90982
1,Pesqueira/PE,-8.3579952,-36.6971741,1,1.48379
1,Petrolina/PE,-9.3817334,-40.4968875,11,3.15055
1,Petrópolis/RJ,-22.519963,-43.192613,81,26.45408
D1,Petrópolis/RJ,-22.519963,-43.192613,9,2.93934
1,Piaçabuçu/AL,-10.4066897,-36.433654,2,11.21894
1,Picos/PI,-7.0823544,-41.4685053,7,8.94889
D1,Picos/PI,-7.0823544,-41.4685053,1,1.27841
1,Piedade/SP,-23.7074096,-47.4252319,7,12.64725
1,Pilar do Sul/SP,-23.8121684,-47.7201865,3,10.27925
1,Pilar/AL,-9.6016711,-35.9511275,4,11.39244
1,Pimenta Bueno/RO,-11.6767868,-61.1863902,1,2.72777
1,Pimenteiras/PI,-6.2366098,-41.4192948,1,8.24606
1,Pindamonhangaba/SP,-22.9340165,-45.462938,9,5.34670
D1,Pindamonhangaba/SP,-22.9340165,-45.462938,1,0.59408
1,Pindorama/SP,-21.1853,-48.90861,4,23.46179
1,Pindoretama/CE,-4.0265183,-38.3066829,11,53.48374
D1,Pindoretama/CE,-4.0265183,-38.3066829,1,4.86216
1,Pinhais/PR,-25.4443488,-49.1900307,20,15.13352
D1,Pinhais/PR,-25.4443488,-49.1900307,1,0.75668
1,Pinhal de São Bento/PR,-26.0326418,-53.4837511,1,36.61662
1,Pinhalzinho/SP,-22.7824349,-46.5901718,1,6.57592
1,Pinheiral/RJ,-22.5129436,-44.001435,5,19.87597
1,Pinhão/PR,-25.6960895,-51.6566366,2,6.17455
1,Pio IX/PI,-6.8351921,-40.6148654,1,5.42741
1,Piquerobi/SP,-21.8856652,-51.7296404,2,54.17118
1,Piracaia/SP,-23.052545,-46.359374,2,7.32520
D1,Piracaia/SP,-23.052545,-46.359374,1,3.66260
1,Piracicaba/SP,-22.72528,-47.64917,63,15.58858
D1,Piracicaba/SP,-22.72528,-47.64917,8,1.97950
1,Piracuruca/PI,-3.9304804,-41.7150099,7,24.31315
D1,Piracuruca/PI,-3.9304804,-41.7150099,2,6.94662
1,Piraju/SP,-23.1897822,-49.3840493,10,33.55029
1,Pirajuí/SP,-21.9957877,-49.4549675,1,3.92280
1,Pirapetinga/MG,-21.656903,-42.345955,1,9.30060
1,Pirapora do Bom Jesus/SP,-23.3972146,-47.0025661,10,52.92405
1,Pirapora/MG,-17.3493765,-44.9507904,2,3.54434
1,Piraquara/PR,-25.4423273,-49.0604473,5,4.42337
1,Pirassununga/SP,-21.9980468,-47.4280861,6,7.85248
1,Piratini/RS,-31.448451,-53.1039931,1,4.83957
1,Piratininga/SP,-22.4136363,-49.1351479,4,29.33412
1,Piraí/RJ,-22.6287489,-43.8981758,3,10.24695
1,Pires do Rio/GO,-17.3006277,-48.2793037,4,12.71537
D1,Pires do Rio/GO,-17.3006277,-48.2793037,1,3.17884
1,Piripiri/PI,-4.2732339,-41.7785173,1,1.56882
1,Piripá/BA,-14.9419863,-41.7149815,1,9.33968
1,Pitangueiras/SP,-21.013203,-48.220951,1,2.51769
D1,Pitangueiras/SP,-21.013203,-48.220951,1,2.51769
1,Piumhi/MG,-20.4675258,-45.9576125,2,5.76518
D1,Piumhi/MG,-20.4675258,-45.9576125,1,2.88259
1,Piúma/ES,-20.8375312,-40.7271589,7,32.24172
1,Planaltina do Paraná/PR,-23.0228724,-52.9160307,4,93.83064
1,Planaltina/GO,-15.4571536,-47.6089024,1,1.11212
D1,Planaltina/GO,-15.4571536,-47.6089024,1,1.11212
1,Plácido de Castro/AC,-10.3239154,-67.1824196,22,111.33040
D1,Plácido de Castro/AC,-10.3239154,-67.1824196,1,5.06047
1,Poconé/MT,-16.2634094,-56.6229717,2,6.08958
1,Pojuca/BA,-12.4260268,-38.3266573,1,2.53043
1,Pombal/PB,-6.7711315,-37.7988646,2,6.09738
1,Pombos/PE,-8.1398585,-35.396437,8,29.53010
D1,Pombos/PE,-8.1398585,-35.396437,1,3.69126
1,Pomerode/SC,-26.7356218,-49.1770095,3,8.96941
1,Ponta Grossa/PR,-25.0891685,-50.1601812,12,3.41165
1,Ponta Porã/MS,-22.5286917,-55.723426,1,1.08078
1,Ponta de Pedras/PA,-1.395873,-48.866073,6,19.30378
D1,Ponta de Pedras/PA,-1.395873,-48.866073,2,6.43459
1,Pontal do Araguaia/MT,-15.9045099,-52.257365,1,14.90091
1,Pontal/SP,-21.0239714,-48.0393457,4,8.00624
D1,Pontal/SP,-21.0239714,-48.0393457,1,2.00156
1,Ponte Serrada/SC,-26.8708566,-52.0164089,3,25.87768
1,Pontes e Lacerda/MT,-15.2315171,-59.3349512,1,2.20090
1,Pontão/RS,-28.0599735,-52.6779378,1,25.61475
1,Populina/SP,-19.9427771,-50.5372875,3,71.95970
1,Porciúncula/RJ,-20.9627278,-42.0405703,1,5.30588
1,Porteiras/CE,-7.5341572,-39.1153149,1,6.66844
1,Porto Acre/AC,-9.5879722,-67.53307,2,10.80847
1,Porto Alegre/RS,-30.0324999,-51.2303767,430,28.98021
D1,Porto Alegre/RS,-30.0324999,-51.2303767,14,0.94354
1,Porto Belo/SC,-27.1542415,-48.5424395,6,28.05311
D1,Porto Belo/SC,-27.1542415,-48.5424395,1,4.67552
1,Porto Calvo/AL,-9.051948,-35.398653,2,7.36241
1,Porto Feliz/SP,-23.2137274,-47.5190176,8,15.06648
1,Porto Ferreira/SP,-21.8529134,-47.4794943,3,5.34283
D1,Porto Ferreira/SP,-21.8529134,-47.4794943,1,1.78094
1,Porto Firme/MG,-20.672778,-43.084444,1,8.86603
1,Porto Grande/AP,0.7028371,-51.4041605,7,31.86018
1,Porto Real do Colégio/AL,-10.186833,-36.8357056,1,4.98355
1,Porto Real/RJ,-22.4198366,-44.2897974,3,15.24158
1,Porto Seguro/BA,-16.443473,-39.064251,19,12.77861
1,Porto Velho/RO,-8.7494525,-63.8735438,285,53.81989
D1,Porto Velho/RO,-8.7494525,-63.8735438,6,1.13305
1,Porto da Folha/SE,-9.9152762,-37.2791369,2,6.99399
1,Porto de Moz/PA,-1.7502089,-52.235556,1,2.43102
1,Potiretama/CE,-5.7226924,-38.154107,1,15.57875
1,Pouso Alegre/MG,-22.2343858,-45.9327241,24,15.92177
D1,Pouso Alegre/MG,-22.2343858,-45.9327241,2,1.32681
1,Pouso Redondo/SC,-27.2567443,-49.9331593,1,5.72967
D1,Pouso Redondo/SC,-27.2567443,-49.9331593,1,5.72967
1,Poá/SP,-23.5249082,-46.3445663,45,38.31352
D1,Poá/SP,-23.5249082,-46.3445663,6,5.10847
1,Poço Branco/RN,-5.6224378,-35.6615774,1,6.48803
1,Poço Fundo/MG,-21.780834,-45.965,1,5.95557
1,Poços de Caldas/MG,-21.7900318,-46.5647928,14,8.36335
D1,Poços de Caldas/MG,-21.7900318,-46.5647928,1,0.59738
1,Poção/PE,-8.186709,-36.7023901,1,8.84799
1,Prado/BA,-17.336357,-39.222721,4,14.19749
1,Pradópolis/SP,-21.3597815,-48.0746603,1,4.65203
1,Praia Grande/SP,-24.005833,-46.402778,116,35.68429
D1,Praia Grande/SP,-24.005833,-46.402778,23,7.07533
1,Pratânia/SP,-22.809027,-48.6656779,2,38.01559
1,Presidente Alves/SP,-22.09991,-49.438133,1,24.42599
1,Presidente Castello Branco/SC,-27.2217868,-51.8089482,4,255.10204
1,Presidente Dutra/MA,-5.289801,-44.49498,1,2.09188
1,Presidente Figueiredo/AM,-2.0486359,-60.0236658,30,82.69247
D1,Presidente Figueiredo/AM,-2.0486359,-60.0236658,1,2.75642
1,Presidente Juscelino/MA,-2.9262742,-44.0653783,4,31.41197
1,Presidente Juscelino/MG,-18.6388028,-44.0604419,1,27.46498
1,Presidente Kennedy/ES,-21.1000137,-41.0436113,4,34.56022
D1,Presidente Kennedy/ES,-21.1000137,-41.0436113,1,8.64006
1,Presidente Prudente/SP,-22.1225167,-51.3882528,18,7.86909
D1,Presidente Prudente/SP,-22.1225167,-51.3882528,2,0.87434
1,Presidente Venceslau/SP,-21.877116,-51.8451047,11,27.83683
D1,Presidente Venceslau/SP,-21.877116,-51.8451047,6,15.18372
1,Primavera do Leste/MT,-15.5614127,-54.2993946,6,9.67445
1,Primavera/PA,-0.9406522,-47.116728,2,18.47575
1,Primeiro de Maio/PR,-22.851714,-51.029251,2,17.98076
D1,Primeiro de Maio/PR,-22.851714,-51.029251,1,8.99038
1,Professor Jamil/GO,-17.25316,-49.2442452,6,186.16196
D1,Professor Jamil/GO,-17.25316,-49.2442452,1,31.02699
1,Promissão/SP,-21.5404913,-49.8574709,3,7.41987
1,Propriá/SE,-10.212427,-36.8372254,2,6.75083
1,Quaraí/RS,-30.3818093,-56.4526576,2,8.81562
1,Quatiguá/PR,-23.5669626,-49.9160315,2,26.84924
D1,Quatiguá/PR,-23.5669626,-49.9160315,1,13.42462
1,Quatipuru/PA,-0.8948725,-47.0049317,2,14.69724
1,Quatis/RJ,-22.4066444,-44.2577453,3,20.97609
1,Quatro Barras/PR,-25.3708987,-49.0745672,1,4.24466
1,Quatá/SP,-22.2470977,-50.7003624,3,21.26302
1,Queimadas/PB,-7.3640404,-35.9016644,1,2.27443
1,Queimados/RJ,-22.7156978,-43.555754,44,29.27108
D1,Queimados/RJ,-22.7156978,-43.555754,3,1.99576
1,Querência do Norte/PR,-23.083758,-53.483022,2,16.38538
1,Querência/MT,-12.5942311,-52.2081922,1,5.72115
1,Quintana/SP,-22.0705513,-50.308652,2,30.12956
1,Quipapá/PE,-8.8269434,-36.011622,1,3.84069
1,Quissamã/RJ,-22.107205,-41.4723411,3,12.14575
1,Quitandinha/PR,-25.8737269,-49.4977717,2,10.49924
1,Quiterianópolis/CE,-5.8458117,-40.7021812,1,4.74293
1,Quixaba/PE,-7.7185273,-37.8484398,1,14.67782
D1,Quixaba/PE,-7.7185273,-37.8484398,1,14.67782
1,Quixadá/CE,-4.9706021,-39.0158403,23,26.21740
1,Quixelô/CE,-6.2511238,-39.1995458,1,6.18123
1,Quixeramobim/CE,-5.1983553,-39.2955573,14,17.26647
D1,Quixeramobim/CE,-5.1983553,-39.2955573,1,1.23332
1,Quixeré/CE,-5.0742841,-37.9892825,3,13.54463
1,Ramilândia/PR,-25.1190203,-54.0301175,1,22.46686
1,Rancharia/SP,-22.2294981,-50.8922333,3,10.09863
D1,Rancharia/SP,-22.2294981,-50.8922333,1,3.36621
1,Rancho Queimado/SC,-27.6731108,-49.0126867,2,69.49270
1,Raposa/MA,-2.4459454,-44.1193757,11,35.75957
D1,Raposa/MA,-2.4459454,-44.1193757,2,6.50174
1,Recife/PE,-8.0641931,-34.8781517,1776,107.91583
D1,Recife/PE,-8.0641931,-34.8781517,164,9.96520
1,Redenção/CE,-4.2243979,-38.7278461,9,30.97787
1,Redenção/PA,-8.025294,-50.031687,1,1.17943
1,Regente Feijó/SP,-22.218131,-51.30545,1,4.93559
1,Registro/SP,-24.497942,-47.844895,9,15.97955
D1,Registro/SP,-24.497942,-47.844895,3,5.32652
1,Reriutaba/CE,-4.1418352,-40.5824356,3,16.22411
1,Resende/RJ,-22.4683626,-44.4463494,16,12.18203
D1,Resende/RJ,-22.4683626,-44.4463494,4,3.04551
1,Riachão do Poço/PB,-7.1474817,-35.264755,1,22.17787
D1,Riachão do Poço/PB,-7.1474817,-35.264755,1,22.17787
1,Rialma/GO,-15.3144819,-49.5813991,6,54.95512
1,Ribeira do Piauí/PI,-7.6912987,-42.7130999,1,22.33639
1,Ribeira do Pombal/BA,-10.837299,-38.538152,1,1.85849
1,Ribeirão Branco/SP,-24.2211495,-48.7678322,1,6.08125
1,Ribeirão Pires/SP,-23.7129388,-46.4150871,58,47.00429
D1,Ribeirão Pires/SP,-23.7129388,-46.4150871,5,4.05209
1,Ribeirão Preto/SP,-21.178333,-47.8066671,110,15.64071
D1,Ribeirão Preto/SP,-21.178333,-47.8066671,7,0.99532
1,Ribeirão das Neves/MG,-19.7672898,-44.0875436,6,1.79180
1,Ribeirão/PE,-8.5066761,-35.3747339,2,4.21807
1,Ribeirópolis/SE,-10.5405577,-37.4368783,1,5.36136
1,Rincão/SP,-21.5881095,-48.0724258,1,9.26012
D1,Rincão/SP,-21.5881095,-48.0724258,1,9.26012
1,Rinópolis/SP,-21.7283596,-50.7227246,1,10.01904
1,Rio Bonito/RJ,-22.7108378,-42.6271864,22,36.54424
D1,Rio Bonito/RJ,-22.7108378,-42.6271864,3,4.98331
1,Rio Branco do Sul/PR,-25.1885374,-49.3119082,4,12.34682
1,Rio Branco/AC,-9.9765362,-67.8220778,256,62.85000
D1,Rio Branco/AC,-9.9765362,-67.8220778,13,3.19160
1,Rio Branco/MT,-15.2398109,-58.1160774,2,38.78976
1,Rio Claro/SP,-22.4100108,-47.5603933,16,7.75104
D1,Rio Claro/SP,-22.4100108,-47.5603933,7,3.39108
1,Rio Formoso/PE,-8.6606291,-35.1550736,1,4.24899
1,Rio Grande da Serra/SP,-23.743724,-46.397084,19,37.36774
1,Rio Grande do Piauí/PI,-7.7767595,-43.140007,1,15.54726
1,Rio Grande/RS,-32.0334252,-52.0991297,4,1.89569
1,Rio Largo/AL,-9.477829,-35.839435,20,26.62407
1,Rio Negrinho/SC,-26.3147216,-49.4674965,1,2.36395
1,Rio Negro/PR,-26.1047668,-49.7982766,2,5.85309
1,Rio Novo do Sul/ES,-20.8641487,-40.9384378,3,25.81311
1,Rio Pardo/RS,-29.9820554,-52.3702447,1,2.61267
1,Rio Preto da Eva/AM,-2.6990647,-59.7012494,17,50.97910
D1,Rio Preto da Eva/AM,-2.6990647,-59.7012494,1,2.99877
1,Rio Real/BA,-11.4869788,-37.9317491,1,2.45507
1,Rio Rufino/SC,-27.861691,-49.7806323,1,40.27386
1,Rio Verde de Mato Grosso/MS,-18.9169208,-54.8410727,1,5.06432
1,Rio Verde/GO,-17.7921255,-50.9191219,15,6.36545
D1,Rio Verde/GO,-17.7921255,-50.9191219,1,0.42436
1,Rio das Flores/RJ,-22.1683478,-43.5858689,2,21.54244
1,Rio das Ostras/RJ,-22.5269448,-41.944972,31,20.57422
D1,Rio das Ostras/RJ,-22.5269448,-41.944972,6,3.98211
1,Rio de Janeiro/RJ,-22.9110137,-43.2093727,5261,78.30147
D1,Rio de Janeiro/RJ,-22.9110137,-43.2093727,405,6.02777
1,Rio do Pires/BA,-13.1252598,-42.2901946,2,17.16002
1,Rio do Sul/SC,-27.2162607,-49.643654,2,2.81448
1,Rolante/RS,-29.6527945,-50.5769391,1,4.68406
1,Rolim de Moura/RO,-11.727071,-61.771411,4,7.26507
D1,Rolim de Moura/RO,-11.727071,-61.771411,1,1.81627
1,Rolândia/PR,-23.3119901,-51.3674145,3,4.50586
1,Rondon do Pará/PA,-4.7804416,-48.06983,2,3.81993
D1,Rondon do Pará/PA,-4.7804416,-48.06983,1,1.90996
1,Rondonópolis/MT,-16.4603533,-54.6397099,38,16.34472
D1,Rondonópolis/MT,-16.4603533,-54.6397099,2,0.86025
1,Rorainópolis/RR,0.9387308,-60.4236464,11,36.46852
1,Rosário do Catete/SE,-10.6968099,-37.0319184,1,9.21234
D1,Rosário do Catete/SE,-10.6968099,-37.0319184,1,9.21234
1,Rosário do Sul/RS,-30.2527151,-54.9179382,1,2.53665
1,Rosário/MA,-2.9405903,-44.2491088,10,23.39729
1,Russas/CE,-4.9354279,-37.9783838,21,26.85628
D1,Russas/CE,-4.9354279,-37.9783838,2,2.55774
1,Sabará/MG,-19.8900372,-43.8107916,11,8.06783
1,Salesópolis/SP,-23.528805,-45.84653,1,5.83465
D1,Salesópolis/SP,-23.528805,-45.84653,1,5.83465
1,Salete/SC,-26.9841895,-50.0076168,2,26.17116
1,Salgueiro/PE,-8.073734,-39.12469,8,13.12982
1,Salinópolis/PA,-0.6259282,-47.3442819,7,17.20959
1,Salitre/CE,-7.285445,-40.457306,1,6.04084
D1,Salitre/CE,-7.285445,-40.457306,1,6.04084
1,Salto de Pirapora/SP,-23.6492626,-47.5729991,8,17.61261
1,Salto/SP,-23.1989983,-47.2913682,7,5.89906
1,Salvador do Sul/RS,-29.4395698,-51.5103295,1,12.82216
1,Salvador/BA,-12.9822499,-38.4812772,1583,55.11173
D1,Salvador/BA,-12.9822499,-38.4812772,56,1.94963
1,Salvaterra/PA,-0.758444,-48.513921,3,12.63052
1,Sananduva/RS,-27.9499376,-51.8074435,4,24.58513
1,Sangão/SC,-28.6397512,-49.1266106,2,15.77536
1,Sant'Ana do Livramento/RS,-30.8894097,-55.5317694,9,11.68421
1,Santa Branca/SP,-23.3974353,-45.8842294,2,13.52448
D1,Santa Branca/SP,-23.3974353,-45.8842294,1,6.76224
