type,name,lat,lon,total,total_per_100k_inhabitants
1,Abadia de Goiás/GO,-16.7572644,-49.4412205,1395,15572.67247
D1,Abadia de Goiás/GO,-16.7572644,-49.4412205,31,346.05939
1,Abadia dos Dourados/MG,-18.4911191,-47.4063589,397,5666.57151
D1,Abadia dos Dourados/MG,-18.4911191,-47.4063589,14,199.82872
1,Abadiânia/GO,-16.1940946,-48.7067767,412,2013.58682
D1,Abadiânia/GO,-16.1940946,-48.7067767,29,141.73305
1,Abaetetuba/PA,-1.721828,-48.878843,8195,5151.49610
D1,Abaetetuba/PA,-1.721828,-48.878843,217,136.40935
1,Abaeté/MG,-19.1566833,-45.4481213,1089,4683.87097
D1,Abaeté/MG,-19.1566833,-45.4481213,26,111.82796
1,Abaiara/CE,-7.3607808,-39.0487878,529,4463.00515
D1,Abaiara/CE,-7.3607808,-39.0487878,13,109.67688
1,Abaré/BA,-8.7239913,-39.1139689,888,4364.27975
D1,Abaré/BA,-8.7239913,-39.1139689,11,54.06202
1,Abatiá/PR,-23.3052967,-50.3102532,866,11690.06479
D1,Abatiá/PR,-23.3052967,-50.3102532,14,188.98488
1,Abaíra/BA,-13.2503296,-41.6640342,268,3076.92308
D1,Abaíra/BA,-13.2503296,-41.6640342,10,114.81056
1,Abdon Batista/SC,-27.612419,-51.022992,372,14599.68603
D1,Abdon Batista/SC,-27.612419,-51.022992,3,117.73940
1,Abel Figueiredo/PA,-4.953001,-48.3958485,917,12249.53246
D1,Abel Figueiredo/PA,-4.953001,-48.3958485,10,133.58269
1,Abelardo Luz/SC,-26.5705893,-52.3280339,1401,7800.66815
D1,Abelardo Luz/SC,-26.5705893,-52.3280339,44,244.98886
1,Abre Campo/MG,-20.2976097,-42.4764741,990,7363.87980
D1,Abre Campo/MG,-20.2976097,-42.4764741,16,119.01220
1,Abreu e Lima/PE,-7.900719,-34.898389,2901,2890.99715
D1,Abreu e Lima/PE,-7.900719,-34.898389,209,208.27935
1,Abreulândia/TO,-9.6221526,-49.1558343,269,10370.08481
D1,Abreulândia/TO,-9.6221526,-49.1558343,6,231.30301
1,Acaiaca/MG,-20.3621646,-43.1444162,221,5533.29995
D1,Acaiaca/MG,-20.3621646,-43.1444162,11,275.41312
1,Acajutiba/BA,-11.6609659,-38.0186381,491,3233.02825
D1,Acajutiba/BA,-11.6609659,-38.0186381,16,105.35326
1,Acarape/CE,-4.2237866,-38.7071663,2673,17777.33440
D1,Acarape/CE,-4.2237866,-38.7071663,27,179.56903
1,Acaraú/CE,-2.8869514,-40.1194713,4738,7508.24037
D1,Acaraú/CE,-2.8869514,-40.1194713,98,155.29919
1,Acari/RN,-6.4364689,-36.6394777,970,8722.23721
D1,Acari/RN,-6.4364689,-36.6394777,15,134.87996
1,Acará/PA,-1.961388,-48.1987043,1258,2259.78552
D1,Acará/PA,-1.961388,-48.1987043,28,50.29729
1,Acauã/PI,-8.219542,-41.083059,193,2717.54435
D1,Acauã/PI,-8.219542,-41.083059,1,14.08054
1,Aceguá/RS,-31.8695131,-54.1615593,319,6454.87657
D1,Aceguá/RS,-31.8695131,-54.1615593,5,101.17361
1,Acopiara/CE,-6.0936464,-39.4543204,3331,6114.05811
D1,Acopiara/CE,-6.0936464,-39.4543204,128,234.94429
1,Acorizal/MT,-15.2001544,-56.3668953,476,8923.88451
D1,Acorizal/MT,-15.2001544,-56.3668953,18,337.45782
1,Acrelândia/AC,-10.0759167,-67.0526898,1603,10348.61201
D1,Acrelândia/AC,-10.0759167,-67.0526898,34,219.49645
1,Acreúna/GO,-17.3959899,-50.3749031,1768,7841.74576
D1,Acreúna/GO,-17.3959899,-50.3749031,44,195.15657
1,Adamantina/SP,-21.6866517,-51.0762975,2796,7963.31634
D1,Adamantina/SP,-21.6866517,-51.0762975,85,242.08937
1,Adelândia/GO,-16.4155077,-50.1665834,171,6796.50238
D1,Adelândia/GO,-16.4155077,-50.1665834,4,158.98251
1,Adolfo/SP,-21.2356597,-49.6441918,449,12633.65222
D1,Adolfo/SP,-21.2356597,-49.6441918,11,309.51041
1,Adrianópolis/PR,-24.6557863,-48.9912769,1233,21051.73297
D1,Adrianópolis/PR,-24.6557863,-48.9912769,24,409.76609
1,Adustina/BA,-10.5358875,-38.114479,823,4805.55880
D1,Adustina/BA,-10.5358875,-38.114479,17,99.26428
1,Afogados da Ingazeira/PE,-7.750429,-37.6356375,4484,11988.02267
D1,Afogados da Ingazeira/PE,-7.750429,-37.6356375,63,168.43118
1,Afonso Bezerra/RN,-5.4745,-36.57625071327935,658,5966.08940
D1,Afonso Bezerra/RN,-5.4745,-36.57625071327935,16,145.07208
1,Afonso Cláudio/ES,-20.077841,-41.12606,3310,10868.49450
D1,Afonso Cláudio/ES,-20.077841,-41.12606,56,183.87785
1,Afonso Cunha/MA,-4.1326105,-43.3230026,173,2629.97872
D1,Afonso Cunha/MA,-4.1326105,-43.3230026,2,30.40438
1,Afrânio/PE,-8.5198919,-41.0070197,830,4189.80313
D1,Afrânio/PE,-8.5198919,-41.0070197,14,70.67138
1,Afuá/PA,-0.1535664,-50.3879223,2921,7382.41464
D1,Afuá/PA,-0.1535664,-50.3879223,14,35.38302
1,Agrestina/PE,-8.4558021,-35.9442663,1543,6155.99441
D1,Agrestina/PE,-8.4558021,-35.9442663,58,231.39836
1,Agricolândia/PI,-5.7967843,-42.6605131,453,8828.68836
D1,Agricolândia/PI,-5.7967843,-42.6605131,5,97.44689
1,Agrolândia/SC,-27.4122212,-49.8295774,1391,12630.52756
D1,Agrolândia/SC,-27.4122212,-49.8295774,19,172.52338
1,Agronômica/SC,-27.2660744,-49.7104753,600,10891.26883
D1,Agronômica/SC,-27.2660744,-49.7104753,13,235.97749
1,Aguanil/MG,-20.9424533,-45.3927152,554,12251.21628
D1,Aguanil/MG,-20.9424533,-45.3927152,8,176.91287
1,Aguaí/SP,-22.0592036,-46.979384,2544,6941.71578
D1,Aguaí/SP,-22.0592036,-46.979384,80,218.29295
1,Agudo/RS,-29.6423259,-53.2494005,1533,9346.99104
D1,Agudo/RS,-29.6423259,-53.2494005,25,152.42973
1,Agudos do Sul/PR,-25.9890808,-49.3328175,536,5659.97888
D1,Agudos do Sul/PR,-25.9890808,-49.3328175,21,221.75290
1,Agudos/SP,-22.471162,-48.987822,3240,8662.86998
D1,Agudos/SP,-22.471162,-48.987822,74,197.85567
1,Aguiar/PB,-7.0928404,-38.1727215,391,6944.93783
D1,Aguiar/PB,-7.0928404,-38.1727215,5,88.80995
1,Aguiarnópolis/TO,-6.5600452,-47.4721189,565,8197.91062
D1,Aguiarnópolis/TO,-6.5600452,-47.4721189,12,174.11492
1,Aimorés/MG,-19.4917754,-41.0615603,1834,7294.85701
D1,Aimorés/MG,-19.4917754,-41.0615603,58,230.69886
1,Aiquara/BA,-14.126918,-39.8887574,461,10439.31159
D1,Aiquara/BA,-14.126918,-39.8887574,11,249.09420
1,Aiuaba/CE,-6.5710836,-40.1212278,620,3544.27485
D1,Aiuaba/CE,-6.5710836,-40.1212278,11,62.88230
1,Aiuruoca/MG,-21.9759554,-44.6036637,270,4518.07229
D1,Aiuruoca/MG,-21.9759554,-44.6036637,7,117.13521
1,Ajuricaba/RS,-28.239654,-53.7693013,980,14026.04838
D1,Ajuricaba/RS,-28.239654,-53.7693013,24,343.49506
1,Alagoa Grande/PB,-7.0415212,-35.6285322,3536,12433.62987
D1,Alagoa Grande/PB,-7.0415212,-35.6285322,65,228.55937
1,Alagoa Nova/PB,-7.0653703,-35.76695977336711,887,4239.75909
D1,Alagoa Nova/PB,-7.0653703,-35.76695977336711,17,81.25807
1,Alagoa/MG,-22.1697202,-44.6400042,434,16285.17824
D1,Alagoa/MG,-22.1697202,-44.6400042,6,225.14071
1,Alagoinha do Piauí/PI,-7.0090952,-40.939675,329,4292.23744
D1,Alagoinha do Piauí/PI,-7.0090952,-40.939675,10,130.46314
1,Alagoinha/PB,-6.97063215,-35.51490901897793,1714,11771.97802
D1,Alagoinha/PB,-6.97063215,-35.51490901897793,24,164.83516
1,Alagoinha/PE,-8.50355635,-36.77701174370496,1020,6930.28944
D1,Alagoinha/PE,-8.50355635,-36.77701174370496,24,163.06563
1,Alagoinhas/BA,-12.133526,-38.420772,12027,7895.51426
D1,Alagoinhas/BA,-12.133526,-38.420772,235,154.27337
1,Alambari/SP,-23.550338,-47.897971,493,8043.72655
D1,Alambari/SP,-23.550338,-47.897971,10,163.15875
1,Albertina/MG,-20.66164,-43.784039,216,7173.69645
D1,Albertina/MG,-20.66164,-43.784039,7,232.48090
1,Alcantil/PB,-7.7425491,-36.0609604,397,7206.38954
D1,Alcantil/PB,-7.7425491,-36.0609604,6,108.91269
1,Alcinópolis/MS,-18.3264121,-53.7094463,282,5205.83349
D1,Alcinópolis/MS,-18.3264121,-53.7094463,7,129.22282
1,Alcobaça/BA,-17.5215875,-39.1965474,1403,6238.32815
D1,Alcobaça/BA,-17.5215875,-39.1965474,27,120.05336
1,Alcântara/MA,-2.4038956,-44.4154241,289,1306.98263
D1,Alcântara/MA,-2.4038956,-44.4154241,16,72.35890
1,Alcântaras/CE,-3.586247,-40.5457641,1586,13462.35464
D1,Alcântaras/CE,-3.586247,-40.5457641,19,161.27663
1,Aldeias Altas/MA,-4.6291957,-43.4708622,975,3643.90627
D1,Aldeias Altas/MA,-4.6291957,-43.4708622,13,48.58542
1,Alecrim/RS,-27.6566142,-54.7653195,270,4633.60220
D1,Alecrim/RS,-27.6566142,-54.7653195,11,188.77639
1,Alegre/ES,-20.7625787,-41.5318886,2189,7302.75229
D1,Alegre/ES,-20.7625787,-41.5318886,49,163.46956
1,Alegrete do Piauí/PI,-7.2440138,-40.8602296,484,9841.39894
D1,Alegrete do Piauí/PI,-7.2440138,-40.8602296,6,122.00081
1,Alegrete/RS,-29.790166,-55.794862,8391,11490.11338
D1,Alegrete/RS,-29.790166,-55.794862,245,335.48776
1,Alegria/RS,-27.8332103,-54.0574959,346,10254.89034
D1,Alegria/RS,-27.8332103,-54.0574959,2,59.27682
1,Alenquer/PA,-1.946229,-54.738355,3150,5517.41050
D1,Alenquer/PA,-1.946229,-54.738355,120,210.18707
1,Alexandria/RN,-6.414779,-38.0135516,1374,10137.97683
D1,Alexandria/RN,-6.414779,-38.0135516,21,154.94724
1,Alexânia/GO,-16.0834049,-48.5077803,2961,10571.22456
D1,Alexânia/GO,-16.0834049,-48.5077803,72,257.05105
1,Alfenas/MG,-21.4297405,-45.9479419,7762,9642.95475
D1,Alfenas/MG,-21.4297405,-45.9479419,151,187.59162
1,Alfredo Chaves/ES,-20.624970400000002,-40.75006690147988,2277,15557.52938
D1,Alfredo Chaves/ES,-20.624970400000002,-40.75006690147988,34,232.30391
1,Alfredo Marcondes/SP,-21.9527,-51.413956,219,5234.22562
D1,Alfredo Marcondes/SP,-21.9527,-51.413956,10,239.00574
1,Alfredo Vasconcelos/MG,-21.145833,-43.776389,415,5944.70706
D1,Alfredo Vasconcelos/MG,-21.145833,-43.776389,12,171.89514
1,Alfredo Wagner/SC,-27.6961513,-49.3326734,660,6543.72397
D1,Alfredo Wagner/SC,-27.6961513,-49.3326734,7,69.40313
1,Algodão de Jandaíra/PB,-6.9040175,-36.0089879,149,5781.91696
1,Alhandra/PB,-7.4304246,-34.9106103,1981,10042.07431
D1,Alhandra/PB,-7.4304246,-34.9106103,35,177.42181
1,Aliança do Tocantins/TO,-11.3055927,-48.9409096,566,10587.35503
D1,Aliança do Tocantins/TO,-11.3055927,-48.9409096,20,374.11149
1,Aliança/PE,-7.60398,-35.222696,603,1570.43519
D1,Aliança/PE,-7.60398,-35.222696,57,148.44910
1,Almadina/BA,-14.70466,-39.6381994,599,11162.87738
D1,Almadina/BA,-14.70466,-39.6381994,9,167.72270
1,Almas/TO,-11.5681309,-47.1702803,220,3152.31409
D1,Almas/TO,-11.5681309,-47.1702803,5,71.64350
1,Almeirim/PA,-1.5290377,-52.5788111,3350,9830.96608
D1,Almeirim/PA,-1.5290377,-52.5788111,43,126.18852
1,Almenara/MG,-16.1740678,-40.6904907,3789,8990.81698
D1,Almenara/MG,-16.1740678,-40.6904907,44,104.40643
1,Almino Afonso/RN,-6.1544208,-37.7649018,408,8662.42038
D1,Almino Afonso/RN,-6.1544208,-37.7649018,11,233.54565
1,Almirante Tamandaré do Sul/RS,-28.1141129,-52.9134874,298,15289.89225
D1,Almirante Tamandaré do Sul/RS,-28.1141129,-52.9134874,4,205.23345
1,Almirante Tamandaré/PR,-25.3133048,-49.2997838,8823,7349.98875
D1,Almirante Tamandaré/PR,-25.3133048,-49.2997838,337,280.73741
1,Aloândia/GO,-17.7277983,-49.4809338,230,11581.06747
D1,Aloândia/GO,-17.7277983,-49.4809338,6,302.11480
1,Alpercata/MG,-18.9803616,-41.9827637,470,6320.60247
D1,Alpercata/MG,-18.9803616,-41.9827637,20,268.96181
1,Alpestre/RS,-27.2512339,-53.0349646,305,5027.19631
D1,Alpestre/RS,-27.2512339,-53.0349646,7,115.37828
1,Alpinópolis/MG,-20.863611,-46.387777,1136,5691.95310
D1,Alpinópolis/MG,-20.863611,-46.387777,26,130.27357
1,Alta Floresta D'Oeste/RO,-11.9296917,-61.9961284,3770,16587.46920
D1,Alta Floresta D'Oeste/RO,-11.9296917,-61.9961284,63,277.19113
1,Alta Floresta/MT,-9.8715018,-56.0839881,7996,15389.05676
D1,Alta Floresta/MT,-9.8715018,-56.0839881,117,225.17754
1,Altair/SP,-20.5238955,-49.0606135,158,3774.48638
D1,Altair/SP,-20.5238955,-49.0606135,12,286.66985
1,Altamira do Maranhão/MA,-4.1643006,-45.4674574,318,3883.25803
D1,Altamira do Maranhão/MA,-4.1643006,-45.4674574,10,122.11503
1,Altamira do Paraná/PR,-24.799114,-52.7128633,196,11652.79429
D1,Altamira do Paraná/PR,-24.799114,-52.7128633,7,416.17122
1,Altamira/PA,-3.204065,-52.209961,13026,11232.31208
D1,Altamira/PA,-3.204065,-52.209961,278,239.71924
1,Altaneira/CE,-6.9980933,-39.7385742,492,6431.37255
D1,Altaneira/CE,-6.9980933,-39.7385742,16,209.15033
1,Alterosa/MG,-21.249166,-46.143055,653,4498.17455
D1,Alterosa/MG,-21.249166,-46.143055,31,213.54274
1,Altinho/PE,-8.4904095,-36.0607494,1058,4603.20223
D1,Altinho/PE,-8.4904095,-36.0607494,21,91.36791
1,Altinópolis/SP,-21.021364,-47.3712,778,4801.57995
D1,Altinópolis/SP,-21.021364,-47.3712,39,240.69617
1,Alto Alegre do Maranhão/MA,-4.2055693,-44.4525287,1125,4038.33728
D1,Alto Alegre do Maranhão/MA,-4.2055693,-44.4525287,25,89.74083
1,Alto Alegre do Pindaré/MA,-3.6698186,-45.8462153,1881,5888.61409
D1,Alto Alegre do Pindaré/MA,-3.6698186,-45.8462153,45,140.87594
1,Alto Alegre dos Parecis/RO,-12.1314515,-61.856265,1418,10697.84987
D1,Alto Alegre dos Parecis/RO,-12.1314515,-61.856265,44,331.95021
1,Alto Alegre/RR,2.98858,-61.307167,1316,8556.56697
D1,Alto Alegre/RR,2.98858,-61.307167,30,195.05852
1,Alto Alegre/RS,-31.780844700000003,-52.81311114489171,189,11717.29696
D1,Alto Alegre/RS,-31.780844700000003,-52.81311114489171,1,61.99628
1,Alto Alegre/SP,-21.5820592,-50.1661976,317,7754.40313
D1,Alto Alegre/SP,-21.5820592,-50.1661976,15,366.92759
1,Alto Araguaia/MT,-17.3156528,-53.2169365,1127,5813.77354
D1,Alto Araguaia/MT,-17.3156528,-53.2169365,24,123.80707
1,Alto Bela Vista/SC,-27.4320737,-51.905771,161,8359.29387
D1,Alto Bela Vista/SC,-27.4320737,-51.905771,2,103.84216
1,Alto Boa Vista/MT,-11.6723985,-51.3744431,729,10510.38062
D1,Alto Boa Vista/MT,-11.6723985,-51.3744431,12,173.01038
1,Alto Caparaó/MG,-20.4405661,-41.8683799,377,6396.33526
D1,Alto Caparaó/MG,-20.4405661,-41.8683799,8,135.73125
1,Alto Feliz/RS,-29.3785943,-51.3123751,245,8069.82872
D1,Alto Feliz/RS,-29.3785943,-51.3123751,2,65.87615
1,Alto Garças/MT,-16.9469683,-53.529427,841,6921.24105
D1,Alto Garças/MT,-16.9469683,-53.529427,31,255.12304
1,Alto Horizonte/GO,-14.1954948,-49.3366993,785,11884.93565
D1,Alto Horizonte/GO,-14.1954948,-49.3366993,9,136.26041
1,Alto Jequitibá/MG,-20.423611,-41.966111,657,7914.70907
D1,Alto Jequitibá/MG,-20.423611,-41.966111,10,120.46741
1,Alto Longá/PI,-5.2549051,-42.2072388,609,4247.15810
D1,Alto Longá/PI,-5.2549051,-42.2072388,13,90.66183
1,Alto Paraguai/MT,-14.513712,-56.4936374,836,7286.67306
D1,Alto Paraguai/MT,-14.513712,-56.4936374,28,244.05125
1,Alto Paraná/PR,-23.131247,-52.318893,882,5935.79649
D1,Alto Paraná/PR,-23.131247,-52.318893,21,141.32849
1,Alto Paraíso de Goiás/GO,-14.1304779,-47.5100161,614,7986.47242
D1,Alto Paraíso de Goiás/GO,-14.1304779,-47.5100161,7,91.05099
1,Alto Paraíso/PR,-23.508137,-53.728537,203,7560.52142
D1,Alto Paraíso/PR,-23.508137,-53.728537,3,111.73184
1,Alto Paraíso/RO,-9.7240103,-63.3188123,1756,8037.71685
D1,Alto Paraíso/RO,-9.7240103,-63.3188123,44,201.40065
1,Alto Parnaíba/MA,-9.112506,-45.9310154,823,7340.34963
D1,Alto Parnaíba/MA,-9.112506,-45.9310154,9,80.27114
1,Alto Piquiri/PR,-24.0239021,-53.4417448,774,7915.72919
D1,Alto Piquiri/PR,-24.0239021,-53.4417448,18,184.08673
1,Alto Rio Doce/MG,-21.0239537,-43.4133507,324,2983.70016
D1,Alto Rio Doce/MG,-21.0239537,-43.4133507,23,211.80588
1,Alto Rio Novo/ES,-19.0577208,-41.0171518,679,8623.31725
D1,Alto Rio Novo/ES,-19.0577208,-41.0171518,21,266.70053
1,Alto Santo/CE,-5.5190371,-38.2719351,1559,9066.06187
D1,Alto Santo/CE,-5.5190371,-38.2719351,23,133.75204
1,Alto Taquari/MT,-17.8269099,-53.2831736,1401,12584.20911
D1,Alto Taquari/MT,-17.8269099,-53.2831736,26,233.53993
1,Alto do Rodrigues/RN,-5.290868,-36.7616726,1943,13192.55839
D1,Alto do Rodrigues/RN,-5.290868,-36.7616726,33,224.06301
1,Altos/PI,-5.0393915,-42.4611694,4187,10311.53799
D1,Altos/PI,-5.0393915,-42.4611694,86,211.79658
1,Altônia/PR,-23.8722004,-53.894037,985,4441.73882
D1,Altônia/PR,-23.8722004,-53.894037,18,81.16883
1,Alumínio/SP,-23.5203479,-47.2575256,1303,6943.03831
D1,Alumínio/SP,-23.5203479,-47.2575256,39,207.81158
1,Alvarenga/MG,-19.4175,-41.728334,425,11056.19147
D1,Alvarenga/MG,-19.4175,-41.728334,4,104.05827
1,Alvarães/AM,-3.214786,-64.8143124,2820,17385.94328
D1,Alvarães/AM,-3.214786,-64.8143124,44,271.27004
1,Alvinlândia/SP,-22.4431852,-49.7643596,130,4016.06426
D1,Alvinlândia/SP,-22.4431852,-49.7643596,7,216.24961
1,Alvinópolis/MG,-20.1105199,-43.0601805,606,3994.98978
D1,Alvinópolis/MG,-20.1105199,-43.0601805,20,131.84785
1,Alvorada D'Oeste/RO,-11.346271,-62.284697,1042,7386.92755
D1,Alvorada D'Oeste/RO,-11.346271,-62.284697,25,177.22955
1,Alvorada de Minas/MG,-18.7318587,-43.3641479,241,6685.15950
D1,Alvorada de Minas/MG,-18.7318587,-43.3641479,1,27.73925
1,Alvorada do Gurguéia/PI,-8.4465288,-43.8655915,341,6262.62626
D1,Alvorada do Gurguéia/PI,-8.4465288,-43.8655915,9,165.28926
1,Alvorada do Norte/GO,-14.483911,-46.4959897,679,7800.11488
D1,Alvorada do Norte/GO,-14.483911,-46.4959897,4,45.95060
1,Alvorada do Sul/PR,-22.7807269,-51.2307721,688,5981.04842
D1,Alvorada do Sul/PR,-22.7807269,-51.2307721,23,199.94784
1,Alvorada/RS,-29.9981184,-51.0772509,19465,9209.75434
D1,Alvorada/RS,-29.9981184,-51.0772509,694,328.36216
1,Alvorada/TO,-12.478465,-49.124926,1061,12636.96999
D1,Alvorada/TO,-12.478465,-49.124926,20,238.20867
1,Além Paraíba/MG,-21.8760576,-42.6810473,2975,8403.71741
D1,Além Paraíba/MG,-21.8760576,-42.6810473,137,386.99472
1,Amajari/RR,3.6523869,-61.4194315,1000,7584.37619
D1,Amajari/RR,3.6523869,-61.4194315,20,151.68752
1,Amambai/MS,-23.1082701,-55.2284854,2755,6917.59152
D1,Amambai/MS,-23.1082701,-55.2284854,64,160.69904
1,Amaporã/PR,-23.094272,-52.786597,298,4706.25395
D1,Amaporã/PR,-23.094272,-52.786597,6,94.75679
1,Amapá do Maranhão/MA,-1.6762114,-46.0109669,172,2455.38901
D1,Amapá do Maranhão/MA,-1.6762114,-46.0109669,4,57.10207
1,Amapá/AP,2.0529997,-50.7930003,1289,14030.69555
D1,Amapá/AP,2.0529997,-50.7930003,10,108.84946
1,Amaraji/PE,-8.373925,-35.4536527,513,2243.11325
D1,Amaraji/PE,-8.373925,-35.4536527,30,131.17621
1,Amaral Ferrador/RS,-30.8750633,-52.2542051,280,3952.01129
D1,Amaral Ferrador/RS,-30.8750633,-52.2542051,7,98.80028
1,Amaralina/GO,-13.9236199,-49.2962411,67,1742.52276
1,Amarante do Maranhão/MA,-5.56913,-46.747284,1573,3769.56074
D1,Amarante do Maranhão/MA,-5.56913,-46.747284,55,131.80282
1,Amarante/PI,-6.2459374,-42.8476238,1467,8333.33333
D1,Amarante/PI,-6.2459374,-42.8476238,32,181.77687
1,Amargosa/BA,-13.03793715,-39.60796443875596,2488,6645.12166
D1,Amargosa/BA,-13.03793715,-39.60796443875596,47,125.53084
1,Amaturá/AM,-3.3640509,-68.1994689,2352,20040.89980
D1,Amaturá/AM,-3.3640509,-68.1994689,17,144.85344
1,Americana/SP,-22.7392463,-47.3306032,18908,7812.64203
D1,Americana/SP,-22.7392463,-47.3306032,577,238.41202
1,Americano do Brasil/GO,-16.2515808,-49.9806104,533,8646.98248
D1,Americano do Brasil/GO,-16.2515808,-49.9806104,19,308.24140
1,Ametista do Sul/RS,-27.3617341,-53.1826575,638,8618.12779
D1,Ametista do Sul/RS,-27.3617341,-53.1826575,15,202.62056
1,Amontada/CE,-3.3634586,-39.8284791,2703,6167.14960
D1,Amontada/CE,-3.3634586,-39.8284791,51,116.36131
1,Amorinópolis/GO,-16.6211308,-51.0949921,189,6158.35777
D1,Amorinópolis/GO,-16.6211308,-51.0949921,3,97.75171
1,Amparo de São Francisco/SE,-10.1299754,-36.9269099,214,8991.59664
D1,Amparo de São Francisco/SE,-10.1299754,-36.9269099,3,126.05042
1,Amparo do Serra/MG,-20.5070255,-42.8028462,141,3014.10859
D1,Amparo do Serra/MG,-20.5070255,-42.8028462,7,149.63660
1,Amparo/PB,-7.56394725,-37.04652873235175,161,7152.37672
D1,Amparo/PB,-7.56394725,-37.04652873235175,4,177.69880
1,Amparo/SP,-22.70111,-46.76444,5450,7498.93364
D1,Amparo/SP,-22.70111,-46.76444,129,177.49770
1,Ampére/PR,-25.9168712,-53.4742414,1474,7632.95531
D1,Ampére/PR,-25.9168712,-53.4742414,32,165.70866
1,Amélia Rodrigues/BA,-12.4015388,-38.7516971,2080,8304.05621
D1,Amélia Rodrigues/BA,-12.4015388,-38.7516971,39,155.70105
1,América Dourada/BA,-11.4515262,-41.4357517,841,5226.84897
D1,América Dourada/BA,-11.4515262,-41.4357517,9,55.93536
1,Américo Brasiliense/SP,-21.7297099,-48.1052092,3494,8515.30513
D1,Américo Brasiliense/SP,-21.7297099,-48.1052092,83,202.28115
1,Américo de Campos/SP,-20.298476,-49.735904,769,12857.38171
D1,Américo de Campos/SP,-20.298476,-49.735904,23,384.55108
1,Anadia/AL,-9.6830208,-36.3052699,1284,7326.25813
D1,Anadia/AL,-9.6830208,-36.3052699,29,165.46845
1,Anagé/BA,-14.6134669,-41.1376308,842,3896.88527
D1,Anagé/BA,-14.6134669,-41.1376308,19,87.93447
1,Anahy/PR,-24.6450861,-53.1337957,333,11944.04591
D1,Anahy/PR,-24.6450861,-53.1337957,8,286.94405
1,Anajatuba/MA,-3.26441,-44.6179916,857,3175.48540
D1,Anajatuba/MA,-3.26441,-44.6179916,23,85.22306
1,Anajás/PA,-0.9878802,-49.9390114,1339,4510.23983
D1,Anajás/PA,-0.9878802,-49.9390114,22,74.10402
1,Analândia/SP,-22.128917,-47.661939,288,5696.20253
D1,Analândia/SP,-22.128917,-47.661939,4,79.11392
1,Anamã/AM,-3.5797356,-61.4049996,1758,12596.73259
D1,Anamã/AM,-3.5797356,-61.4049996,9,64.48839
1,Ananindeua/PA,-1.374035,-48.4016623,22686,4236.04277
D1,Ananindeua/PA,-1.374035,-48.4016623,793,148.07290
1,Ananás/TO,-6.3663053,-48.080238,1521,16024.02023
D1,Ananás/TO,-6.3663053,-48.080238,22,231.77413
1,Anapu/PA,-3.4668292,-51.2057035,1359,4750.58552
D1,Anapu/PA,-3.4668292,-51.2057035,36,125.84333
1,Anapurus/MA,-3.6751298,-43.1046001,829,5215.80471
D1,Anapurus/MA,-3.6751298,-43.1046001,12,75.50019
1,Anastácio/MS,-20.4832458,-55.8048448,2081,8245.82954
D1,Anastácio/MS,-20.4832458,-55.8048448,63,249.63347
1,Anaurilândia/MS,-22.185169,-52.719056,456,5024.23975
D1,Anaurilândia/MS,-22.185169,-52.719056,13,143.23491
1,Anchieta/ES,-20.8057672,-40.6454564,4572,15353.10118
D1,Anchieta/ES,-20.8057672,-40.6454564,83,278.71990
1,Anchieta/SC,-26.5350527,-53.3293938,588,10581.24888
D1,Anchieta/SC,-26.5350527,-53.3293938,8,143.96257
1,Andaraí/BA,-12.8059674,-41.3322919,770,5863.53945
D1,Andaraí/BA,-12.8059674,-41.3322919,6,45.68992
1,Andirá/PR,-23.0494761,-50.2310027,1868,9374.68634
D1,Andirá/PR,-23.0494761,-50.2310027,70,351.29981
1,Andorinha/BA,-10.3445708,-39.8334411,786,5419.56837
D1,Andorinha/BA,-10.3445708,-39.8334411,13,89.63663
1,Andradas/MG,-22.0680484,-46.5688976,3153,7616.67794
D1,Andradas/MG,-22.0680484,-46.5688976,91,219.82800
1,Andradina/SP,-20.896505,-51.3742765,5422,9478.68956
D1,Andradina/SP,-20.896505,-51.3742765,229,400.33565
1,Andrelândia/MG,-21.739722,-44.308889,206,1687.69458
D1,Andrelândia/MG,-21.739722,-44.308889,7,57.34884
1,André da Rocha/RS,-28.6309124,-51.5733328,101,7520.47655
1,Angatuba/SP,-23.4938938,-48.4110675,2369,9297.85313
D1,Angatuba/SP,-23.4938938,-48.4110675,58,227.63845
1,Angelim/PE,-8.8902038,-36.2872987,199,1772.67059
D1,Angelim/PE,-8.8902038,-36.2872987,7,62.35525
1,Angelina/SC,-27.5805287,-48.9838759,490,10331.01413
D1,Angelina/SC,-27.5805287,-48.9838759,1,21.08370
1,Angelândia/MG,-17.7253,-42.2728,94,1098.51583
D1,Angelândia/MG,-17.7253,-42.2728,1,11.68634
1,Angical do Piauí/PI,-6.0872666,-42.7366138,712,10496.83031
D1,Angical do Piauí/PI,-6.0872666,-42.7366138,10,147.42739
1,Angical/BA,-12.005623,-44.7000236,577,4139.76180
D1,Angical/BA,-12.005623,-44.7000236,12,86.09557
1,Angico/TO,-6.3893733,-47.8656722,226,6543.13839
D1,Angico/TO,-6.3893733,-47.8656722,3,86.85582
1,Angicos/RN,-5.6666344,-36.6009064,791,6757.79581
D1,Angicos/RN,-5.6666344,-36.6009064,20,170.86715
1,Angra dos Reis/RJ,-23.0063966,-44.316326,12991,6274.51170
D1,Angra dos Reis/RJ,-23.0063966,-44.316326,447,215.89614
1,Anguera/BA,-12.1509425,-39.2452469,410,3629.28211
D1,Anguera/BA,-12.1509425,-39.2452469,1,8.85191
1,Angélica/MS,-22.1588196,-53.7728504,1063,9723.74680
D1,Angélica/MS,-22.1588196,-53.7728504,17,155.50677
1,Anhanguera/GO,-18.3338749,-48.220363,88,7586.20690
D1,Anhanguera/GO,-18.3338749,-48.220363,6,517.24138
1,Anhembi/SP,-22.7891096,-48.1316776,226,3314.26895
D1,Anhembi/SP,-22.7891096,-48.1316776,5,73.32453
1,Anhumas/SP,-22.2956478,-51.3873401,202,4874.51737
D1,Anhumas/SP,-22.2956478,-51.3873401,4,96.52510
1,Anicuns/GO,-16.4606451,-49.9572265,2482,11291.56999
D1,Anicuns/GO,-16.4606451,-49.9572265,58,263.86425
1,Anita Garibaldi/SC,-27.6855032,-51.1293873,1123,16142.01524
D1,Anita Garibaldi/SC,-27.6855032,-51.1293873,10,143.74012
1,Anitápolis/SC,-27.9041185,-49.1287395,315,9758.36431
D1,Anitápolis/SC,-27.9041185,-49.1287395,4,123.91574
1,Anori/AM,-3.7435254,-61.6605203,1877,8739.58188
D1,Anori/AM,-3.7435254,-61.6605203,31,144.34046
1,Anta Gorda/RS,-28.9718745,-52.0069187,576,9662.80825
D1,Anta Gorda/RS,-28.9718745,-52.0069187,4,67.10284
1,Antas/BA,-10.4114649,-38.3308815,1190,6109.14318
D1,Antas/BA,-10.4114649,-38.3308815,9,46.20360
1,Antonina do Norte/CE,-6.7754187,-39.9879345,654,8864.19084
D1,Antonina do Norte/CE,-6.7754187,-39.9879345,24,325.29141
1,Antonina/PR,-25.4298854,-48.7125431,2360,12454.48309
D1,Antonina/PR,-25.4298854,-48.7125431,60,316.63940
1,Antônio Almeida/PI,-7.2186016,-44.1950248,405,12776.02524
D1,Antônio Almeida/PI,-7.2186016,-44.1950248,10,315.45741
1,Antônio Cardoso/BA,-12.4363122,-39.1200307,420,3596.81425
D1,Antônio Cardoso/BA,-12.4363122,-39.1200307,9,77.07459
1,Antônio Carlos/MG,-21.318334,-43.746666,601,5244.78576
D1,Antônio Carlos/MG,-21.318334,-43.746666,13,113.44794
1,Antônio Carlos/SC,-27.5168462,-48.7684715,1492,17322.65181
D1,Antônio Carlos/SC,-27.5168462,-48.7684715,23,267.03820
1,Antônio Dias/MG,-19.6525,-42.872778,551,5940.70081
D1,Antônio Dias/MG,-19.6525,-42.872778,22,237.19677
1,Antônio Gonçalves/BA,-10.5715409,-40.2748824,789,6642.53241
D1,Antônio Gonçalves/BA,-10.5715409,-40.2748824,8,67.35141
1,Antônio João/MS,-22.1892837,-55.9508227,430,4767.18404
D1,Antônio João/MS,-22.1892837,-55.9508227,11,121.95122
1,Antônio Martins/RN,-6.2155812,-37.8890129,619,8652.50210
D1,Antônio Martins/RN,-6.2155812,-37.8890129,6,83.86916
1,Antônio Olinto/PR,-25.9849006,-50.1974516,369,4968.35869
D1,Antônio Olinto/PR,-25.9849006,-50.1974516,8,107.71509
1,Antônio Prado de Minas/MG,-21.0171988,-42.1101106,158,9955.89162
D1,Antônio Prado de Minas/MG,-21.0171988,-42.1101106,5,315.05986
1,Antônio Prado/RS,-28.8567806,-51.2801355,2394,18351.85895
D1,Antônio Prado/RS,-28.8567806,-51.2801355,26,199.31008
1,Anápolis/GO,-16.3332828,-48.9525756,36673,9360.80169
D1,Anápolis/GO,-16.3332828,-48.9525756,1295,330.54940
1,Anísio de Abreu/PI,-9.185643,-43.04941,284,2857.71785
D1,Anísio de Abreu/PI,-9.185643,-43.04941,10,100.62387
1,Aparecida d'Oeste/SP,-20.4498109,-50.8808706,689,16570.46657
D1,Aparecida d'Oeste/SP,-20.4498109,-50.8808706,12,288.60029
1,Aparecida de Goiânia/GO,-16.8226769,-49.2452546,65637,11122.16299
D1,Aparecida de Goiânia/GO,-16.8226769,-49.2452546,1304,220.96227
1,Aparecida do Rio Doce/GO,-18.2980167,-51.1491312,188,7599.02991
D1,Aparecida do Rio Doce/GO,-18.2980167,-51.1491312,3,121.26112
1,Aparecida do Rio Negro/TO,-9.9513491,-47.9773786,325,6703.79538
D1,Aparecida do Rio Negro/TO,-9.9513491,-47.9773786,6,123.76238
1,Aparecida do Taboado/MS,-20.0840304,-51.1013943,3156,12106.33319
D1,Aparecida do Taboado/MS,-20.0840304,-51.1013943,47,180.29077
1,Aparecida/PB,-6.7859598, -38.0831353,814,9672.05323
D1,Aparecida/PB,-6.7859598, -38.0831353,13,154.46768
1,Aparecida/SP,-22.851552,-45.2340924,2166,5985.90576
D1,Aparecida/SP,-22.851552,-45.2340924,77,212.79536
1,Aperibé/RJ,-21.6211928,-42.1028167,540,4537.43383
D1,Aperibé/RJ,-21.6211928,-42.1028167,23,193.26107
1,Apiacá/ES,-21.152272,-41.569297,750,9928.51469
D1,Apiacá/ES,-21.152272,-41.569297,31,410.37861
1,Apiacás/MT,-9.5678422,-57.394852,1591,15472.13848
D1,Apiacás/MT,-9.5678422,-57.394852,15,145.87183
1,Apiaí/SP,-24.5076527,-48.8461582,1178,4862.54437
D1,Apiaí/SP,-24.5076527,-48.8461582,66,272.43457
1,Apicum-Açu/MA,-1.5279295,-45.082278,495,2842.70373
D1,Apicum-Açu/MA,-1.5279295,-45.082278,5,28.71418
1,Apiúna/SC,-27.0374658,-49.3885037,777,7162.61062
D1,Apiúna/SC,-27.0374658,-49.3885037,15,138.27434
1,Apodi/RN,-5.6631109,-37.796927,5625,15679.87958
D1,Apodi/RN,-5.6631109,-37.796927,92,256.45314
1,Aporá/BA,-11.6599747,-38.0794757,486,2732.17900
D1,Aporá/BA,-11.6599747,-38.0794757,18,101.19181
1,Aporé/GO,-18.9642193,-51.92804,361,8530.24575
D1,Aporé/GO,-18.9642193,-51.92804,10,236.29490
1,Apuarema/BA,-13.8517897,-39.7457126,663,9079.70419
D1,Apuarema/BA,-13.8517897,-39.7457126,9,123.25390
1,Apucarana/PR,-23.5525327,-51.4610764,8005,5875.91937
D1,Apucarana/PR,-23.5525327,-51.4610764,286,209.93291
1,Apuiarés/CE,-3.9460303,-39.4313298,1078,7347.32824
D1,Apuiarés/CE,-3.9460303,-39.4313298,23,156.76118
1,Apuí/AM,-7.1940195,-59.8830192,1340,5993.11239
D1,Apuí/AM,-7.1940195,-59.8830192,30,134.17416
1,Aquidabã/SE,-10.2837579,-37.0188687,2092,9649.00143
D1,Aquidabã/SE,-10.2837579,-37.0188687,35,161.43167
1,Aquidauana/MS,-20.473969,-55.7821375,4615,9608.77803
D1,Aquidauana/MS,-20.473969,-55.7821375,128,266.50565
1,Aquiraz/CE,-3.9063117,-38.387504,6091,7525.79230
D1,Aquiraz/CE,-3.9063117,-38.387504,81,100.08031
1,Arabutã/SC,-27.1587028,-52.1438142,390,9139.91094
D1,Arabutã/SC,-27.1587028,-52.1438142,7,164.04968
1,Aracaju/SE,-10.9162061,-37.0774655,114348,17197.56718
D1,Aracaju/SE,-10.9162061,-37.0774655,2144,322.45062
1,Aracati/CE,-4.558259,-37.767894,6822,9099.03301
D1,Aracati/CE,-4.558259,-37.767894,136,181.39380
1,Aracatu/BA,-14.4274236,-41.4604105,791,6063.62591
D1,Aracatu/BA,-14.4274236,-41.4604105,14,107.32081
1,Araci/BA,-11.3356065,-38.9573261,3349,6128.31211
D1,Araci/BA,-11.3356065,-38.9573261,44,80.51530
1,Aracitaba/MG,-21.3425,-43.378611,77,3739.67946
D1,Aracitaba/MG,-21.3425,-43.378611,8,388.53813
1,Aracoiaba/CE,-4.3702577,-38.8084313,3691,13909.93028
D1,Aracoiaba/CE,-4.3702577,-38.8084313,29,109.28962
1,Aracruz/ES,-19.8245218,-40.2735025,15007,14555.62992
D1,Aracruz/ES,-19.8245218,-40.2735025,211,204.65369
1,Aragarças/GO,-15.8957166,-52.2514538,2133,10521.38312
D1,Aragarças/GO,-15.8957166,-52.2514538,51,251.56612
1,Aragoiânia/GO,-16.9146388,-49.4499148,975,9289.25305
D1,Aragoiânia/GO,-16.9146388,-49.4499148,20,190.54878
1,Aragominas/TO,-7.1654101,-48.525488,509,8881.52155
D1,Aragominas/TO,-7.1654101,-48.525488,9,157.04066
1,Araguacema/TO,-8.8067391,-49.5560969,576,8050.31447
D1,Araguacema/TO,-8.8067391,-49.5560969,11,153.73864
1,Araguaiana/MT,-15.729144,-51.834112,236,7590.86523
D1,Araguaiana/MT,-15.729144,-51.834112,5,160.82342
1,Araguainha/MT,-16.857016,-53.031778,25,2642.70613
1,Araguanã/MA,-2.9508403,-45.6651986,795,5112.21143
D1,Araguanã/MA,-2.9508403,-45.6651986,5,32.15227
1,Araguanã/TO,-6.5799107,-48.6428482,508,8769.20421
D1,Araguanã/TO,-6.5799107,-48.6428482,13,224.40877
1,Araguapaz/GO,-15.0937927,-50.626417,502,6449.95503
D1,Araguapaz/GO,-15.0937927,-50.626417,19,244.12180
1,Araguari/MG,-18.6511256,-48.1933764,14123,11986.42054
D1,Araguari/MG,-18.6511256,-48.1933764,367,311.47889
1,Araguatins/TO,-5.6522925,-48.1158973,2189,6051.97678
D1,Araguatins/TO,-5.6522925,-48.1158973,55,152.05972
1,Araguaçu/TO,-12.928934,-49.823134,801,9460.25747
D1,Araguaçu/TO,-12.928934,-49.823134,18,212.59006
1,Araguaína/TO,-7.193241,-48.2018597,31606,17235.15522
D1,Araguaína/TO,-7.193241,-48.2018597,410,223.57823
1,Araioses/MA,-2.890914,-41.904993,650,1389.75006
D1,Araioses/MA,-2.890914,-41.904993,13,27.79500
1,Aral Moreira/MS,-22.951141,-55.6268421,473,3835.54979
D1,Aral Moreira/MS,-22.951141,-55.6268421,9,72.98086
1,Aramari/BA,-12.0907897,-38.4985065,565,4929.76180
D1,Aramari/BA,-12.0907897,-38.4985065,12,104.70291
1,Arambaré/RS,-30.9132252,-51.4994625,175,4912.97024
D1,Arambaré/RS,-30.9132252,-51.4994625,7,196.51881
1,Arame/MA,-4.8858769,-46.0102484,1233,3763.27677
D1,Arame/MA,-4.8858769,-46.0102484,36,109.87669
1,Aramina/SP,-20.0876144,-47.789201,276,4880.63660
D1,Aramina/SP,-20.0876144,-47.789201,10,176.83466
1,Arandu/SP,-23.1345103,-49.0545651,408,6410.05499
D1,Arandu/SP,-23.1345103,-49.0545651,11,172.82011
1,Arantina/MG,-21.911667,-44.255833,156,5597.41658
D1,Arantina/MG,-21.911667,-44.255833,3,107.64263
1,Arapeí/SP,-22.6738889,-44.4477778,195,7926.82927
D1,Arapeí/SP,-22.6738889,-44.4477778,3,121.95122
1,Arapiraca/AL,-9.754866,-36.661471,25385,10892.65256
D1,Arapiraca/AL,-9.754866,-36.661471,408,175.07198
1,Arapoema/TO,-7.6575001,-49.0641484,460,6952.84160
D1,Arapoema/TO,-7.6575001,-49.0641484,10,151.14873
1,Araponga/MG,-20.666667,-42.520556,392,4637.40684
D1,Araponga/MG,-20.666667,-42.520556,6,70.98072
1,Arapongas/PR,-23.415296,-51.42592,11222,8991.26673
D1,Arapongas/PR,-23.415296,-51.42592,430,344.52368
1,Araporã/MG,-18.4318188,-49.188313,1759,25378.73323
D1,Araporã/MG,-18.4318188,-49.188313,26,375.12624
1,Arapoti/PR,-24.1457957,-49.8224605,2647,9353.35689
D1,Arapoti/PR,-24.1457957,-49.8224605,49,173.14488
1,Araputanga/MT,-15.4710868,-58.346796,1863,10990.50204
D1,Araputanga/MT,-15.4710868,-58.346796,52,306.76656
1,Arapuá/MG,-19.034444,-46.155556,233,8218.69489
D1,Arapuá/MG,-19.034444,-46.155556,2,70.54674
1,Arapuã/PR,-24.3079525,-51.7901941,190,6314.39016
D1,Arapuã/PR,-24.3079525,-51.7901941,5,166.16816
1,Araquari/SC,-26.3703324,-48.7210994,3391,8579.59721
D1,Araquari/SC,-26.3703324,-48.7210994,71,179.63769
1,Arara/PB,-6.8271895,-35.7605703,920,6793.67892
D1,Arara/PB,-6.8271895,-35.7605703,22,162.45754
1,Araranguá/SC,-28.9348832,-49.4858389,9534,13844.07626
D1,Araranguá/SC,-28.9348832,-49.4858389,223,323.81257
1,Araraquara/SP,-21.7886713,-48.1773096,18837,7903.44845
D1,Araraquara/SP,-21.7886713,-48.1773096,414,173.70216
1,Araras/SP,-22.3569477,-47.3838889,14529,10722.03445
D1,Araras/SP,-22.3569477,-47.3838889,323,238.36583
1,Ararendá/CE,-4.7504395,-40.8303611,1059,9663.29045
D1,Ararendá/CE,-4.7504395,-40.8303611,17,155.12364
1,Arari/MA,-3.4547602,-44.7772723,681,2275.15702
D1,Arari/MA,-3.4547602,-44.7772723,30,100.22718
1,Araricá/RS,-29.6168543,-50.929121,973,16860.16288
D1,Araricá/RS,-29.6168543,-50.929121,24,415.87247
1,Araripe/CE,-7.212861,-40.1359222,1107,5112.21945
D1,Araripe/CE,-7.212861,-40.1359222,13,60.03510
1,Araripina/PE,-7.5768582,-40.5038509,6215,7323.48228
D1,Araripina/PE,-7.5768582,-40.5038509,131,154.36463
1,Araruama/RJ,-22.8733203,-42.3428897,5515,4106.69208
D1,Araruama/RJ,-22.8733203,-42.3428897,339,252.43311
1,Araruna/PB,-6.5321155,-35.7397595,612,2990.76382
D1,Araruna/PB,-6.5321155,-35.7397595,16,78.18990
1,Araruna/PR,-23.9320308,-52.4976047,1499,10707.14286
D1,Araruna/PR,-23.9320308,-52.4976047,22,157.14286
1,Arataca/BA,-15.2617424,-39.4122943,648,5911.86935
D1,Arataca/BA,-15.2617424,-39.4122943,15,136.84883
1,Aratiba/RS,-27.3955734,-52.3024325,362,5849.08709
D1,Aratiba/RS,-27.3955734,-52.3024325,6,96.94619
1,Aratuba/CE,-4.4195958,-39.0463737,1255,10633.79088
D1,Aratuba/CE,-4.4195958,-39.0463737,8,67.78512
1,Aratuípe/BA,-13.077137,-39.0010786,359,4062.46464
D1,Aratuípe/BA,-13.077137,-39.0010786,9,101.84452
1,Araucária/PR,-25.5861107,-49.4051209,22813,15602.47309
D1,Araucária/PR,-25.5861107,-49.4051209,354,242.11088
1,Arauá/SE,-11.2644014,-37.6181058,1161,11671.86086
D1,Arauá/SE,-11.2644014,-37.6181058,19,191.01237
1,Araxá/MG,-19.5928536,-46.940241,11607,10813.60575
D1,Araxá/MG,-19.5928536,-46.940241,178,165.83284
1,Araçagi/PB,-6.8519969,-35.3835602,1153,6814.01808
D1,Araçagi/PB,-6.8519969,-35.3835602,14,82.73743
1,Araçariguama/SP,-23.438611,-47.061389,1484,6491.68854
D1,Araçariguama/SP,-23.438611,-47.061389,48,209.97375
1,Araçatuba/SP,-21.207992,-50.4390225,23673,11948.27612
D1,Araçatuba/SP,-21.207992,-50.4390225,704,355.32406
1,Araçaí/MG,-19.200833,-44.2475,70,2973.66185
D1,Araçaí/MG,-19.200833,-44.2475,1,42.48088
1,Araçoiaba da Serra/SP,-23.5045367,-47.6168158,2274,6538.99241
D1,Araçoiaba da Serra/SP,-23.5045367,-47.6168158,52,149.52841
1,Araçoiaba/PE,-7.7856903,-35.0898881,603,2908.40689
D1,Araçoiaba/PE,-7.7856903,-35.0898881,28,135.05040
1,Araçu/GO,-16.3561579,-49.6815269,392,11244.97992
D1,Araçu/GO,-16.3561579,-49.6815269,15,430.29260
1,Araçuaí/MG,-16.8484451,-42.0661868,1466,3993.24472
D1,Araçuaí/MG,-16.8484451,-42.0661868,36,98.06058
1,Araçás/BA,-12.2139176,-38.2026159,598,4898.42726
D1,Araçás/BA,-12.2139176,-38.2026159,7,57.33945
1,Araújos/MG,-19.948055,-45.165556,706,7509.83938
D1,Araújos/MG,-19.948055,-45.165556,9,95.73450
1,Arceburgo/MG,-21.364444,-46.939722,937,8609.75834
D1,Arceburgo/MG,-21.364444,-46.939722,24,220.52743
1,Arco-Íris/SP,-21.7741308,-50.4668814,116,6542.58319
D1,Arco-Íris/SP,-21.7741308,-50.4668814,6,338.40948
1,Arcos/MG,-20.282223,-45.539444,4633,11473.50173
D1,Arcos/MG,-20.282223,-45.539444,107,264.98266
1,Arcoverde/PE,-8.415192,-37.057748,5315,7103.52570
D1,Arcoverde/PE,-8.415192,-37.057748,118,157.70763
1,Areado/MG,-21.3582771,-46.1476688,739,4867.92701
D1,Areado/MG,-21.3582771,-46.1476688,17,111.98208
1,Areal/RJ,-22.2314922,-43.1056264,1094,8635.25140
D1,Areal/RJ,-22.2314922,-43.1056264,41,323.62460
1,Arealva/SP,-22.0301906,-48.9111936,764,8870.31232
D1,Arealva/SP,-22.0301906,-48.9111936,11,127.71392
1,Areia Branca/RN,-4.9506652,-37.1263312,2260,8080.95255
D1,Areia Branca/RN,-4.9506652,-37.1263312,90,321.80784
1,Areia Branca/SE,-10.7591455,-37.3148072,1825,9766.67023
D1,Areia Branca/SE,-10.7591455,-37.3148072,43,230.11881
1,Areia de Baraúnas/PB,-7.1233949,-36.9446216,131,6190.92628
D1,Areia de Baraúnas/PB,-7.1233949,-36.9446216,3,141.77694
1,Areia/PB,-6.9680243,-35.6994783,1192,5261.29944
D1,Areia/PB,-6.9680243,-35.6994783,22,97.10452
1,Areial/PB,-7.0501306,-35.9245244,300,4269.24719
D1,Areial/PB,-7.0501306,-35.9245244,8,113.84659
1,Areias/SP,-22.5800929,-44.6975127,258,6622.17659
D1,Areias/SP,-22.5800929,-44.6975127,1,25.66735
1,Areiópolis/SP,-22.6758064,-48.6673653,1095,9813.58666
D1,Areiópolis/SP,-22.6758064,-48.6673653,14,125.47051
1,Arenápolis/MT,-14.4610369,-56.8432806,1553,16343.92759
D1,Arenápolis/MT,-14.4610369,-56.8432806,26,273.62660
1,Arenópolis/GO,-16.3859286,-51.55937,176,6940.06309
D1,Arenópolis/GO,-16.3859286,-51.55937,8,315.45741
1,Argirita/MG,-21.612761,-42.8371922,249,9208.57988
D1,Argirita/MG,-21.612761,-42.8371922,5,184.91124
1,Aricanduva/MG,-17.8678,-42.5569,83,1575.25147
1,Arinos/MG,-15.917223,-46.106111,614,3437.46501
D1,Arinos/MG,-15.917223,-46.106111,15,83.97716
1,Aripuanã/MT,-10.175806,-59.4439663,2491,10966.80461
D1,Aripuanã/MT,-10.175806,-59.4439663,42,184.90799
1,Ariquemes/RO,-9.9076522,-63.033069,20275,18512.09335
D1,Ariquemes/RO,-9.9076522,-63.033069,447,408.13345
1,Ariranha do Ivaí/PR,-24.3834527,-51.5876772,158,7647.62827
D1,Ariranha do Ivaí/PR,-24.3834527,-51.5876772,3,145.20813
1,Ariranha/SP,-21.18716,-48.790418,488,4999.48776
D1,Ariranha/SP,-21.18716,-48.790418,16,163.91763
1,Armazém/SC,-28.2624996,-49.0190126,1361,15538.30346
D1,Armazém/SC,-28.2624996,-49.0190126,30,342.50485
1,Armação dos Búzios/RJ,-22.7597805,-41.8875267,4192,12158.83052
D1,Armação dos Búzios/RJ,-22.7597805,-41.8875267,53,153.72567
1,Arneiroz/CE,-6.3235099,-40.1603859,576,7343.19225
D1,Arneiroz/CE,-6.3235099,-40.1603859,16,203.97756
1,Aroazes/PI,-6.1108814,-41.7886137,568,9747.72610
D1,Aroazes/PI,-6.1108814,-41.7886137,12,205.93788
1,Aroeiras do Itaim/PI,-7.2797031,-41.5629681,112,4390.43512
D1,Aroeiras do Itaim/PI,-7.2797031,-41.5629681,2,78.40063
1,Aroeiras/PB,-7.5462904,-35.7080002,1309,6847.66688
D1,Aroeiras/PB,-7.5462904,-35.7080002,8,41.84976
1,Arraial do Cabo/RJ,-22.9662839,-42.024427,683,2232.53685
D1,Arraial do Cabo/RJ,-22.9662839,-42.024427,33,107.86781
1,Arraial/PI,-6.6541632,-42.5335332,152,3220.33898
D1,Arraial/PI,-6.6541632,-42.5335332,3,63.55932
1,Arraias/TO,-12.9287788,-46.9437231,616,5847.73116
D1,Arraias/TO,-12.9287788,-46.9437231,7,66.45149
1,Arroio Grande/RS,-32.2384246,-53.0866661,1721,9436.34170
D1,Arroio Grande/RS,-32.2384246,-53.0866661,50,274.15287
1,Arroio Trinta/SC,-26.9301976,-51.334928,556,15666.38490
D1,Arroio Trinta/SC,-26.9301976,-51.334928,12,338.12342
1,Arroio do Meio/RS,-29.4020392,-51.9444993,2905,13855.10564
D1,Arroio do Meio/RS,-29.4020392,-51.9444993,42,200.31478
1,Arroio do Padre/RS,-31.4428773,-52.4228985,173,5862.41952
D1,Arroio do Padre/RS,-31.4428773,-52.4228985,3,101.66045
1,Arroio do Sal/RS,-29.549852,-49.8874395,1030,10020.43000
D1,Arroio do Sal/RS,-29.549852,-49.8874395,33,321.04290
1,Arroio do Tigre/RS,-29.334158,-53.0888935,1048,7813.31544
D1,Arroio do Tigre/RS,-29.334158,-53.0888935,19,141.65362
1,Arroio dos Ratos/RS,-30.0894524,-51.7265541,889,6270.72018
D1,Arroio dos Ratos/RS,-30.0894524,-51.7265541,31,218.66403
1,Artur Nogueira/SP,-22.572737,-47.172679,3928,7097.94001
D1,Artur Nogueira/SP,-22.572737,-47.172679,110,198.77123
1,Aruanã/GO,-14.9162439,-51.0715692,507,5014.83680
D1,Aruanã/GO,-14.9162439,-51.0715692,13,128.58556
1,Arujá/SP,-23.396266,-46.3175449,6788,7446.49341
D1,Arujá/SP,-23.396266,-46.3175449,262,287.41622
1,Arvoredo/SC,-27.0752908,-52.4571847,291,13025.96240
D1,Arvoredo/SC,-27.0752908,-52.4571847,4,179.05103
1,Arvorezinha/RS,-28.87369,-52.17808,773,7416.29090
D1,Arvorezinha/RS,-28.87369,-52.17808,24,230.26000
1,Arês/RN,-6.1969216,-35.1642968,945,6554.76174
D1,Arês/RN,-6.1969216,-35.1642968,21,145.66137
1,Ascurra/SC,-26.9569975,-49.3767752,1104,13838.05465
D1,Ascurra/SC,-26.9569975,-49.3767752,10,125.34470
1,Aspásia/SP,-20.160028,-50.728046,113,6215.62156
D1,Aspásia/SP,-20.160028,-50.728046,4,220.02200
1,Assaré/CE,-6.8746791,-39.8741385,1810,7709.34492
D1,Assaré/CE,-6.8746791,-39.8741385,34,144.81642
1,Assaí/PR,-23.3736041,-50.8454929,1244,8318.84446
D1,Assaí/PR,-23.3736041,-50.8454929,39,260.79979
1,Assis Brasil/AC,-10.9409203,-69.5672108,1664,22086.54101
D1,Assis Brasil/AC,-10.9409203,-69.5672108,24,318.55588
1,Assis Chateaubriand/PR,-24.4054826,-53.5120468,3833,11496.70066
D1,Assis Chateaubriand/PR,-24.4054826,-53.5120468,84,251.94961
1,Assis/SP,-22.6620892,-50.420623,9507,9046.78980
D1,Assis/SP,-22.6620892,-50.420623,318,302.60641
1,Assunção do Piauí/PI,-5.8610212,-41.0485091,310,3942.51558
D1,Assunção do Piauí/PI,-5.8610212,-41.0485091,8,101.74234
1,Assunção/PB,-7.073396,-36.7274003,358,8885.57955
D1,Assunção/PB,-7.073396,-36.7274003,4,99.28022
1,Astolfo Dutra/MG,-21.3132636,-42.8624102,1282,8983.88227
D1,Astolfo Dutra/MG,-21.3132636,-42.8624102,20,140.15417
1,Astorga/PR,-23.2350184,-51.6647074,2693,10275.09634
D1,Astorga/PR,-23.2350184,-51.6647074,65,248.00641
1,Atalaia do Norte/AM,-4.3658547,-70.1908742,2753,13496.42122
D1,Atalaia do Norte/AM,-4.3658547,-70.1908742,8,39.21953
1,Atalaia/AL,-9.5029595,-36.0219316,1122,2368.83775
D1,Atalaia/AL,-9.5029595,-36.0219316,46,97.11813
1,Atalaia/PR,-23.1513833,-52.0529697,372,9585.15846
D1,Atalaia/PR,-23.1513833,-52.0529697,17,438.03144
1,Atalanta/SC,-27.421916,-49.778863,390,12206.57277
D1,Atalanta/SC,-27.421916,-49.778863,11,344.28795
1,Ataléia/MG,-18.04432,-41.1110524,1057,8337.27717
D1,Ataléia/MG,-18.04432,-41.1110524,8,63.10144
1,Atibaia/SP,-23.1177393,-46.5547861,9796,6798.62306
D1,Atibaia/SP,-23.1177393,-46.5547861,227,157.54261
1,Atilio Vivacqua/ES,-20.9139369,-41.1947519,1427,11788.51714
D1,Atilio Vivacqua/ES,-20.9139369,-41.1947519,27,223.04833
1,Augustinópolis/TO,-5.4662267,-47.8897519,1421,7622.16381
D1,Augustinópolis/TO,-5.4662267,-47.8897519,27,144.82648
1,Augusto Corrêa/PA,-1.0229335,-46.6404029,1965,4228.44355
D1,Augusto Corrêa/PA,-1.0229335,-46.6404029,43,92.53083
1,Augusto Pestana/RS,-28.5148413,-53.9906433,674,10209.02757
D1,Augusto Pestana/RS,-28.5148413,-53.9906433,10,151.46925
1,Augusto de Lima/MG,-18.1092963,-44.2651945,238,4906.20491
D1,Augusto de Lima/MG,-18.1092963,-44.2651945,8,164.91445
1,Aurelino Leal/BA,-14.3167137,-39.3256107,896,7929.90530
D1,Aurelino Leal/BA,-14.3167137,-39.3256107,26,230.10886
1,Auriflama/SP,-20.6840418,-50.5554616,1749,11466.59674
D1,Auriflama/SP,-20.6840418,-50.5554616,65,426.14568
1,Aurilândia/GO,-16.6772599,-50.4641231,175,5722.69457
D1,Aurilândia/GO,-16.6772599,-50.4641231,7,228.90778
1,Aurora do Pará/PA,-2.1323199,-47.558436,1452,4569.91785
D1,Aurora do Pará/PA,-2.1323199,-47.558436,14,44.06257
1,Aurora do Tocantins/TO,-12.71045,-46.407604,178,4705.26038
D1,Aurora do Tocantins/TO,-12.71045,-46.407604,3,79.30214
1,Aurora/CE,-6.9426019,-38.9693765,1499,6091.01991
D1,Aurora/CE,-6.9426019,-38.9693765,33,134.09183
1,Aurora/SC,-27.3166417,-49.6368502,745,13109.27327
D1,Aurora/SC,-27.3166417,-49.6368502,14,246.34876
1,Autazes/AM,-3.5833283,-59.1301518,2850,7073.71556
D1,Autazes/AM,-3.5833283,-59.1301518,94,233.30851
1,Avanhandava/SP,-21.4603331,-49.9465156,781,5635.32722
D1,Avanhandava/SP,-21.4603331,-49.9465156,26,187.60372
1,Avaré/SP,-23.1045215,-48.9259103,8479,9293.88811
D1,Avaré/SP,-23.1045215,-48.9259103,183,200.58751
1,Avaí/SP,-22.1564662,-49.3316395,309,5684.32671
D1,Avaí/SP,-22.1564662,-49.3316395,9,165.56291
1,Aveiro/PA,-3.6049239,-55.3310742,629,3834.43063
D1,Aveiro/PA,-3.6049239,-55.3310742,10,60.96074
1,Avelino Lopes/PI,-10.1346855,-43.9489525,360,3178.52728
D1,Avelino Lopes/PI,-10.1346855,-43.9489525,19,167.75561
1,Avelinópolis/GO,-16.4672409,-49.7578661,267,11083.43711
D1,Avelinópolis/GO,-16.4672409,-49.7578661,12,498.13200
1,Axixá do Tocantins/TO,-5.612747,-47.77007,1012,10340.24727
D1,Axixá do Tocantins/TO,-5.612747,-47.77007,17,173.69981
1,Axixá/MA,-2.8379465,-44.0561053,191,1567.75835
D1,Axixá/MA,-2.8379465,-44.0561053,6,49.24895
1,Açailândia/MA,-4.9514278,-47.4844564,5027,4443.91404
D1,Açailândia/MA,-4.9514278,-47.4844564,188,166.19372
1,Açu/RN,-5.5836157,-36.9139541,5847,10014.73006
D1,Açu/RN,-5.5836157,-36.9139541,131,224.37654
1,Açucena/MG,-19.073056,-42.546666,726,7749.78651
D1,Açucena/MG,-19.073056,-42.546666,28,298.88984
1,Babaçulândia/TO,-7.2034355,-47.761613,712,6675.41721
D1,Babaçulândia/TO,-7.2034355,-47.761613,5,46.87793
1,Bacabal/MA,-4.2318132,-44.781167,4758,4540.50959
D1,Bacabal/MA,-4.2318132,-44.781167,171,163.18351
1,Bacabeira/MA,-2.9775747,-44.3155943,320,1854.85741
D1,Bacabeira/MA,-2.9775747,-44.3155943,6,34.77858
1,Bacuri/MA,-1.728894,-45.1417148,506,2712.55495
D1,Bacuri/MA,-1.728894,-45.1417148,4,21.44312
1,Bacurituba/MA,-2.7082587,-44.7381309,117,2063.49206
D1,Bacurituba/MA,-2.7082587,-44.7381309,1,17.63668
1,Bady Bassitt/SP,-20.9178969,-49.4517911,2853,16063.28472
D1,Bady Bassitt/SP,-20.9178969,-49.4517911,67,377.23101
1,Baependi/MG,-21.959162,-44.8899249,1325,6901.40111
D1,Baependi/MG,-21.959162,-44.8899249,12,62.50326
1,Bagre/PA,-1.8994498,-50.2103844,896,2860.33520
D1,Bagre/PA,-1.8994498,-50.2103844,12,38.30806
1,Bagé/RS,-31.3314264,-54.1062808,8930,7359.78901
D1,Bagé/RS,-31.3314264,-54.1062808,251,206.86529
1,Baianópolis/BA,-12.3067564,-44.5383591,771,5535.21430
D1,Baianópolis/BA,-12.3067564,-44.5383591,10,71.79266
1,Baixa Grande do Ribeiro/PI,-7.862861,-45.2113289,2320,19878.33091
D1,Baixa Grande do Ribeiro/PI,-7.862861,-45.2113289,26,222.77440
1,Baixa Grande/BA,-11.9630941,-40.1657537,674,3296.00469
D1,Baixa Grande/BA,-11.9630941,-40.1657537,11,53.79236
1,Baixio/CE,-6.7303544,-38.7170095,447,7091.86102
D1,Baixio/CE,-6.7303544,-38.7170095,10,158.65461
1,Baixo Guandu/ES,-19.5138322,-41.0182089,3305,10616.08634
D1,Baixo Guandu/ES,-19.5138322,-41.0182089,70,224.84903
1,Baião/PA,-2.7903479,-49.6702845,730,1506.42811
D1,Baião/PA,-2.7903479,-49.6702845,34,70.16241
1,Balbinos/SP,-21.9006253,-49.3583966,328,5527.46882
D1,Balbinos/SP,-21.9006253,-49.3583966,4,67.40816
1,Baldim/MG,-19.2913568,-43.9558262,586,7509.93208
D1,Baldim/MG,-19.2913568,-43.9558262,17,217.86492
1,Baliza/GO,-16.1978119,-52.542789,257,4867.42424
D1,Baliza/GO,-16.1978119,-52.542789,6,113.63636
1,Balneário Arroio do Silva/SC,-28.9815269,-49.4189932,1927,14348.47357
D1,Balneário Arroio do Silva/SC,-28.9815269,-49.4189932,52,387.19285
1,Balneário Barra do Sul/SC,-26.459842,-48.6061471,1355,12279.11192
D1,Balneário Barra do Sul/SC,-26.459842,-48.6061471,36,326.23471
1,Balneário Camboriú/SC,-26.9924395,-48.6339782,23301,15981.91994
D1,Balneário Camboriú/SC,-26.9924395,-48.6339782,352,241.43324
1,Balneário Gaivota/SC,-29.1553098,-49.5808712,1179,10470.69272
D1,Balneário Gaivota/SC,-29.1553098,-49.5808712,31,275.31083
1,Balneário Pinhal/RS,-30.2482978,-50.234585,672,4678.68830
D1,Balneário Pinhal/RS,-30.2482978,-50.234585,41,285.45568
1,Balneário Piçarras/SC,-26.7638889,-48.6716667,4384,18441.86438
D1,Balneário Piçarras/SC,-26.7638889,-48.6716667,45,189.29833
1,Balneário Rincão/SC,-28.8235718,-49.2241642,1281,9894.94825
D1,Balneário Rincão/SC,-28.8235718,-49.2241642,40,308.97575
1,Balsa Nova/PR,-25.5842234,-49.6312741,1409,10762.29759
D1,Balsa Nova/PR,-25.5842234,-49.6312741,26,198.59456
1,Balsas/MA,-7.53214,-46.037163,9301,9695.71245
D1,Balsas/MA,-7.53214,-46.037163,171,178.25684
1,Bambuí/MG,-20.0131996,-45.9777034,1401,5862.41526
D1,Bambuí/MG,-20.0131996,-45.9777034,23,96.24236
1,Banabuiú/CE,-5.3046404,-38.919766,1753,9602.32252
D1,Banabuiú/CE,-5.3046404,-38.919766,19,104.07537
1,Bananal/SP,-22.6828195,-44.3221095,919,8359.86537
D1,Bananal/SP,-22.6828195,-44.3221095,3,27.29009
1,Bananeiras/PB,-6.7537682,-35.6338343,1186,5576.19070
D1,Bananeiras/PB,-6.7537682,-35.6338343,22,103.43693
1,Bandeira do Sul/MG,-21.728056,-46.385555,374,6472.82797
D1,Bandeira do Sul/MG,-21.728056,-46.385555,10,173.07027
1,Bandeira/MG,-15.884444,-40.559167,453,9504.82585
D1,Bandeira/MG,-15.884444,-40.559167,9,188.83760
1,Bandeirante/SC,-26.7677402,-53.6397596,266,10045.31722
D1,Bandeirante/SC,-26.7677402,-53.6397596,3,113.29305
1,Bandeirantes do Tocantins/TO,-7.7635698,-48.579148,430,11971.04677
D1,Bandeirantes do Tocantins/TO,-7.7635698,-48.579148,6,167.03786
1,Bandeirantes/MS,-19.9179623,-54.3646768,518,7129.09441
D1,Bandeirantes/MS,-19.9179623,-54.3646768,10,137.62731
1,Bandeirantes/PR,-23.107788,-50.370407,4159,13325.43014
D1,Bandeirantes/PR,-23.107788,-50.370407,108,346.03185
1,Bannach/PA,-7.3508505,-50.4064531,640,19619.86511
D1,Bannach/PA,-7.3508505,-50.4064531,3,91.96812
1,Banzaê/BA,-10.5827616,-38.6122305,1018,7688.82175
D1,Banzaê/BA,-10.5827616,-38.6122305,7,52.87009
1,Baraúna/PB,-6.643394,-36.2531932,505,10173.24738
D1,Baraúna/PB,-6.643394,-36.2531932,8,161.16035
1,Baraúna/RN,-5.0775002,-37.61752,1018,3541.23909
D1,Baraúna/RN,-5.0775002,-37.61752,22,76.52972
1,Barbacena/MG,-21.2254524,-43.7735087,7174,5190.87725
D1,Barbacena/MG,-21.2254524,-43.7735087,235,170.03849
1,Barbalha/CE,-7.3121067,-39.3036427,5828,9518.52094
D1,Barbalha/CE,-7.3121067,-39.3036427,127,207.42144
1,Barbosa Ferraz/PR,-24.0287182,-52.00811,1039,9093.29599
D1,Barbosa Ferraz/PR,-24.0287182,-52.00811,30,262.55908
1,Barbosa/SP,-21.265661,-49.951816,410,5490.09106
D1,Barbosa/SP,-21.265661,-49.951816,11,147.29513
1,Barcarena/PA,-1.5107945,-48.6190679,10733,8449.38478
D1,Barcarena/PA,-1.5107945,-48.6190679,212,166.89365
1,Barcelona/RN,-5.9514918,-35.9260284,93,2328.49274
D1,Barcelona/RN,-5.9514918,-35.9260284,4,100.15023
1,Barcelos/AM,-0.9729214,-62.925635,4253,15388.23359
D1,Barcelos/AM,-0.9729214,-62.925635,59,213.47420
1,Bariri/SP,-22.0746355,-48.7394852,2445,6876.08977
D1,Bariri/SP,-22.0746355,-48.7394852,102,286.85528
1,Barra Bonita/SC,-26.6526364,-53.4419581,169,10236.22047
D1,Barra Bonita/SC,-26.6526364,-53.4419581,2,121.13870
1,Barra Bonita/SP,-22.490859,-48.558349,2917,8074.51697
D1,Barra Bonita/SP,-22.490859,-48.558349,79,218.67907
1,Barra D'Alcântara/PI,-6.5209258,-42.1071089,119,3011.13360
D1,Barra D'Alcântara/PI,-6.5209258,-42.1071089,4,101.21457
1,Barra Funda/RS,-27.9230048,-53.0401045,498,19521.75617
D1,Barra Funda/RS,-27.9230048,-53.0401045,9,352.80282
1,Barra Longa/MG,-20.2833541,-43.0423516,358,7138.58425
D1,Barra Longa/MG,-20.2833541,-43.0423516,9,179.46162
1,Barra Mansa/RJ,-22.5394843,-44.1735129,14632,7916.33529
D1,Barra Mansa/RJ,-22.5394843,-44.1735129,541,292.69665
1,Barra Velha/SC,-26.6338203,-48.6835001,3874,12973.87810
D1,Barra Velha/SC,-26.6338203,-48.6835001,88,294.70864
1,Barra da Estiva/BA,-13.6269662,-41.3278287,2075,10175.55904
D1,Barra da Estiva/BA,-13.6269662,-41.3278287,19,93.17379
1,Barra de Guabiraba/PE,-8.4173522,-35.6626669,348,2398.34597
D1,Barra de Guabiraba/PE,-8.4173522,-35.6626669,14,96.48518
1,Barra de Santa Rosa/PB,-6.7218007,-36.0564638,1384,8930.76079
D1,Barra de Santa Rosa/PB,-6.7218007,-36.0564638,9,58.07576
1,Barra de Santana/PB,-7.5230865,-35.9988518,427,5114.38496
D1,Barra de Santana/PB,-7.5230865,-35.9988518,5,59.88741
1,Barra de Santo Antônio/AL,-9.4038098,-35.5117693,407,2532.98481
D1,Barra de Santo Antônio/AL,-9.4038098,-35.5117693,26,161.81230
1,Barra de São Francisco/ES,-18.7570902,-40.8916119,4562,10142.51095
D1,Barra de São Francisco/ES,-18.7570902,-40.8916119,188,417.97283
1,Barra de São Miguel/AL,-9.8261357,-35.8837777,484,5777.03509
D1,Barra de São Miguel/AL,-9.8261357,-35.8837777,7,83.55216
1,Barra de São Miguel/PB,-7.7528088,-36.3170996,468,7716.40561
D1,Barra de São Miguel/PB,-7.7528088,-36.3170996,7,115.41632
1,Barra do Bugres/MT,-15.0683712,-57.1853688,2759,7814.31444
D1,Barra do Bugres/MT,-15.0683712,-57.1853688,65,184.09947
1,Barra do Chapéu/SP,-24.472203,-49.023784,258,4479.16667
D1,Barra do Chapéu/SP,-24.472203,-49.023784,2,34.72222
1,Barra do Choça/BA,-14.8638173,-40.5761637,1918,6145.66311
D1,Barra do Choça/BA,-14.8638173,-40.5761637,28,89.71771
1,Barra do Corda/MA,-5.496823,-45.248496,5570,6294.35429
D1,Barra do Corda/MA,-5.496823,-45.248496,56,63.28256
1,Barra do Garças/MT,-15.8916033,-52.2615413,7484,12241.76004
D1,Barra do Garças/MT,-15.8916033,-52.2615413,259,423.65257
1,Barra do Guarita/RS,-27.1888016,-53.7147086,111,3408.04421
D1,Barra do Guarita/RS,-27.1888016,-53.7147086,7,214.92171
1,Barra do Jacaré/PR,-23.1151788,-50.1813945,183,6580.36677
D1,Barra do Jacaré/PR,-23.1151788,-50.1813945,1,35.95829
1,Barra do Mendes/BA,-11.8053298,-42.057037,682,4930.23928
D1,Barra do Mendes/BA,-11.8053298,-42.057037,12,86.74908
1,Barra do Ouro/TO,-7.7113784,-47.6743925,127,2741.79620
D1,Barra do Ouro/TO,-7.7113784,-47.6743925,6,129.53368
1,Barra do Piraí/RJ,-22.4703403,-43.8263256,5769,5725.25902
D1,Barra do Piraí/RJ,-22.4703403,-43.8263256,336,333.45242
1,Barra do Quaraí/RS,-30.208947,-57.5505128,361,8540.33594
D1,Barra do Quaraí/RS,-30.208947,-57.5505128,6,141.94464
1,Barra do Ribeiro/RS,-30.2930206,-51.301437,1017,7502.21304
D1,Barra do Ribeiro/RS,-30.2930206,-51.301437,47,346.70994
1,Barra do Rio Azul/RS,-27.4101581,-52.4117471,93,5619.33535
D1,Barra do Rio Azul/RS,-27.4101581,-52.4117471,1,60.42296
1,Barra do Rocha/BA,-14.2090974,-39.6004395,406,7234.49751
D1,Barra do Rocha/BA,-14.2090974,-39.6004395,7,124.73272
1,Barra do Turvo/SP,-24.756421,-48.5056942,554,7258.90985
D1,Barra do Turvo/SP,-24.756421,-48.5056942,17,222.74633
1,Barra dos Coqueiros/SE,-10.9075694,-37.0386249,6531,21115.42192
D1,Barra dos Coqueiros/SE,-10.9075694,-37.0386249,82,265.11478
1,Barra/BA,-11.0892702,-43.1420453,1989,3689.48247
D1,Barra/BA,-11.0892702,-43.1420453,39,72.34279
1,Barracão/PR,-26.252395,-53.6349576,1129,10948.40962
D1,Barracão/PR,-26.252395,-53.6349576,31,300.62064
1,Barracão/RS,-27.6728964,-51.4582928,408,7762.55708
D1,Barracão/RS,-27.6728964,-51.4582928,14,266.36225
1,Barras/PI,-4.2446153,-42.2920241,4643,9839.99152
D1,Barras/PI,-4.2446153,-42.2920241,87,184.38063
1,Barreira/CE,-4.2883361,-38.641094,1374,6086.91800
D1,Barreira/CE,-4.2883361,-38.641094,38,168.34271
1,Barreiras do Piauí/PI,-9.9224524,-45.4763776,70,2088.30549
D1,Barreiras do Piauí/PI,-9.9224524,-45.4763776,1,29.83294
1,Barreiras/BA,-12.1440031,-44.9967406,16730,10657.74805
D1,Barreiras/BA,-12.1440031,-44.9967406,274,174.55009
1,Barreirinha/AM,-2.798863,-57.067897,2368,7289.96706
D1,Barreirinha/AM,-2.798863,-57.067897,62,190.86907
1,Barreirinhas/MA,-2.7541271,-42.8259693,2013,3184.27005
D1,Barreirinhas/MA,-2.7541271,-42.8259693,36,56.94671
1,Barreiros/PE,-8.8159644,-35.1831905,742,1735.10429
D1,Barreiros/PE,-8.8159644,-35.1831905,57,133.28968
1,Barretos/SP,-20.5531437,-48.5697509,12716,10352.26690
D1,Barretos/SP,-20.5531437,-48.5697509,383,311.80546
1,Barrinha/SP,-21.1898849,-48.1550642,1443,4349.00542
D1,Barrinha/SP,-21.1898849,-48.1550642,56,168.77637
1,Barro Alto/BA,-11.7618025,-41.9094904,808,5367.34423
D1,Barro Alto/BA,-11.7618025,-41.9094904,8,53.14202
1,Barro Alto/GO,-14.9696025,-48.9190985,1251,10965.98878
D1,Barro Alto/GO,-14.9696025,-48.9190985,16,140.25245
1,Barro Duro/PI,-5.8180139,-42.5106589,676,9620.03700
D1,Barro Duro/PI,-5.8180139,-42.5106589,11,156.53906
1,Barro Preto/BA,-14.8068289,-39.4727588,571,10480.91043
D1,Barro Preto/BA,-14.8068289,-39.4727588,10,183.55360
1,Barro/CE,-7.1713587,-38.7742136,1454,6388.96212
D1,Barro/CE,-7.1713587,-38.7742136,26,114.24554
1,Barrocas/BA,-11.5165,-39.099282894736845,722,4483.07979
D1,Barrocas/BA,-11.5165,-39.099282894736845,22,136.60354
1,Barrolândia/TO,-9.837246,-48.7264346,725,12829.58768
D1,Barrolândia/TO,-9.837246,-48.7264346,20,353.91966
1,Barroquinha/CE,-3.0200371,-41.1339229,1069,7105.82292
D1,Barroquinha/CE,-3.0200371,-41.1339229,24,159.53204
1,Barros Cassal/RS,-29.094938,-52.5832366,622,5562.51118
D1,Barros Cassal/RS,-29.094938,-52.5832366,9,80.48650
1,Barroso/MG,-21.187222,-43.976111,1627,7785.80658
D1,Barroso/MG,-21.187222,-43.976111,43,205.77116
1,Barueri/SP,-23.5112184,-46.8764612,26300,9495.20185
D1,Barueri/SP,-23.5112184,-46.8764612,947,341.89947
1,Barão de Antonina/SP,-23.6295651,-49.5632104,323,9233.84791
D1,Barão de Antonina/SP,-23.6295651,-49.5632104,7,200.11435
1,Barão de Cocais/MG,-19.9452437,-43.4870298,3443,10475.87172
D1,Barão de Cocais/MG,-19.9452437,-43.4870298,60,182.55948
1,Barão de Cotegipe/RS,-27.6214694,-52.3765316,657,9924.47130
D1,Barão de Cotegipe/RS,-27.6214694,-52.3765316,7,105.74018
1,Barão de Grajaú/MA,-6.7542591,-43.0263477,393,2076.72796
D1,Barão de Grajaú/MA,-6.7542591,-43.0263477,2,10.56859
1,Barão de Melgaço/MT,-16.195776,-55.9668049,352,4311.61195
D1,Barão de Melgaço/MT,-16.195776,-55.9668049,14,171.48457
1,Barão de Monte Alto/MG,-21.244722,-42.2375,190,3548.74860
D1,Barão de Monte Alto/MG,-21.244722,-42.2375,10,186.77624
1,Barão do Triunfo/RS,-30.3909877,-51.7375349,412,5479.45205
D1,Barão do Triunfo/RS,-30.3909877,-51.7375349,6,79.79785
1,Barão/RS,-29.372474,-51.494908,554,8932.60239
D1,Barão/RS,-29.372474,-51.494908,8,128.99065
1,Bastos/SP,-21.9222474,-50.7317727,1207,5760.51162
D1,Bastos/SP,-21.9222474,-50.7317727,34,162.26793
1,Bataguassu/MS,-21.715899,-52.422058,2799,12000.00000
D1,Bataguassu/MS,-21.715899,-52.422058,32,137.19185
1,Batalha/AL,-9.6733809,-37.1265481,1023,5578.58000
D1,Batalha/AL,-9.6733809,-37.1265481,15,81.79736
1,Batalha/PI,-4.022391,-42.0780926,1004,3731.64839
D1,Batalha/PI,-4.022391,-42.0780926,31,115.22022
1,Batatais/SP,-20.892867,-47.592149,2568,4077.48492
D1,Batatais/SP,-20.892867,-47.592149,131,208.00254
1,Batayporã/MS,-22.2976466,-53.2685608,909,8009.51626
D1,Batayporã/MS,-22.2976466,-53.2685608,14,123.35889
1,Baturité/CE,-4.3290203,-38.8821055,3713,10330.81995
D1,Baturité/CE,-4.3290203,-38.8821055,72,200.32832
1,Bauru/SP,-22.3218102,-49.0705863,40514,10681.33943
D1,Bauru/SP,-22.3218102,-49.0705863,914,240.97211
1,Bayeux/PB,-7.1301631,-34.936532,6582,6771.39594
D1,Bayeux/PB,-7.1301631,-34.936532,227,233.53189
1,Baía Formosa/RN,-6.3691885,-35.0063741,328,3518.55825
D1,Baía Formosa/RN,-6.3691885,-35.0063741,8,85.81849
1,Baía da Traição/PB,-6.691258,-34.9371244,1254,13786.27968
D1,Baía da Traição/PB,-6.691258,-34.9371244,12,131.92612
1,Bebedouro/SP,-20.949077,-48.479083,3578,4613.50010
D1,Bebedouro/SP,-20.949077,-48.479083,131,168.91238
1,Beberibe/CE,-4.1810469,-38.1298101,4419,8191.06934
D1,Beberibe/CE,-4.1810469,-38.1298101,97,179.79944
1,Bela Cruz/CE,-3.0529129,-40.167582,3241,9904.65130
D1,Bela Cruz/CE,-3.0529129,-40.167582,63,192.53102
1,Bela Vista da Caroba/PR,-25.8792818,-53.6672545,167,4830.77813
D1,Bela Vista da Caroba/PR,-25.8792818,-53.6672545,5,144.63408
1,Bela Vista de Goiás/GO,-16.9692949,-48.9513071,2293,7520.00525
D1,Bela Vista de Goiás/GO,-16.9692949,-48.9513071,62,203.33202
1,Bela Vista de Minas/MG,-19.8289721,-43.0973688,763,7435.19782
D1,Bela Vista de Minas/MG,-19.8289721,-43.0973688,22,214.38316
1,Bela Vista do Maranhão/MA,-3.7416367,-45.2514192,208,1844.13512
D1,Bela Vista do Maranhão/MA,-3.7416367,-45.2514192,17,150.72258
1,Bela Vista do Paraíso/PR,-22.9948493,-51.1907996,1750,11364.37431
D1,Bela Vista do Paraíso/PR,-22.9948493,-51.1907996,59,383.14176
1,Bela Vista do Piauí/PI,-7.9716353,-41.8715061,259,6426.79901
D1,Bela Vista do Piauí/PI,-7.9716353,-41.8715061,6,148.88337
1,Bela Vista do Toldo/SC,-26.274625,-50.466354,74,1163.15624
D1,Bela Vista do Toldo/SC,-26.274625,-50.466354,3,47.15498
1,Bela Vista/MS,-22.107327,-56.5317344,889,3594.09743
D1,Bela Vista/MS,-22.107327,-56.5317344,24,97.02850
1,Belford Roxo/RJ,-22.7667284,-43.4033603,20054,3908.26282
D1,Belford Roxo/RJ,-22.7667284,-43.4033603,672,130.96403
1,Belmiro Braga/MG,-21.9486291,-43.413564,189,5518.24818
D1,Belmiro Braga/MG,-21.9486291,-43.413564,3,87.59124
1,Belmonte/BA,-15.8630837,-38.8792845,998,4258.22418
D1,Belmonte/BA,-15.8630837,-38.8792845,20,85.33515
1,Belmonte/SC,-26.8448262,-53.578916,227,8379.47582
D1,Belmonte/SC,-26.8448262,-53.578916,5,184.56995
1,Belo Campo/BA,-15.0338286,-41.2585109,781,4564.84891
D1,Belo Campo/BA,-15.0338286,-41.2585109,13,75.98340
1,Belo Horizonte/MG,-19.9227318,-43.9450948,214493,8506.34765
D1,Belo Horizonte/MG,-19.9227318,-43.9450948,5196,206.06259
1,Belo Jardim/PE,-8.3338293,-36.4176419,3311,4317.55056
D1,Belo Jardim/PE,-8.3338293,-36.4176419,100,130.40020
1,Belo Monte/AL,-9.8269944,-37.2787165,304,4530.55142
D1,Belo Monte/AL,-9.8269944,-37.2787165,9,134.12817
1,Belo Oriente/MG,-19.2232523,-42.4807033,2484,9202.04490
D1,Belo Oriente/MG,-19.2232523,-42.4807033,58,214.86256
1,Belo Vale/MG,-20.407778,-44.024167,707,9159.21752
D1,Belo Vale/MG,-20.407778,-44.024167,10,129.55046
1,Belterra/PA,-2.636091,-54.937392,1417,7943.27036
D1,Belterra/PA,-2.636091,-54.937392,24,134.53669
1,Belágua/MA,-3.1604031,-43.5085052,389,5167.37513
D1,Belágua/MA,-3.1604031,-43.5085052,3,39.85122
1,Belém de Maria/PE,-8.6242497,-35.8388934,238,1963.37238
D1,Belém de Maria/PE,-8.6242497,-35.8388934,6,49.49678
1,Belém do Brejo do Cruz/PB,-6.1880727,-37.5332267,499,6790.03946
D1,Belém do Brejo do Cruz/PB,-6.1880727,-37.5332267,5,68.03647
1,Belém do Piauí/PI,-7.3767305,-40.9712156,437,12182.88263
D1,Belém do Piauí/PI,-7.3767305,-40.9712156,7,195.14915
1,Belém do São Francisco/PE,-8.7517707,-38.9625715,638,3077.66522
D1,Belém do São Francisco/PE,-8.7517707,-38.9625715,9,43.41534
1,Belém/AL,-9.5715351,-36.492841,110,2567.69374
D1,Belém/AL,-9.5715351,-36.492841,3,70.02801
1,Belém/PA,-1.45056,-48.4682453,100145,6677.93158
D1,Belém/PA,-1.45056,-48.4682453,4796,319.80987
1,Belém/PB,-6.6967586,-35.5369626,1990,11239.76278
D1,Belém/PB,-6.6967586,-35.5369626,41,231.57300
1,Beneditinos/PI,-5.4565671,-42.3605061,1108,10579.58560
D1,Beneditinos/PI,-5.4565671,-42.3605061,35,334.19269
1,Benedito Leite/MA,-7.2173453,-44.5523331,296,5250.08868
D1,Benedito Leite/MA,-7.2173453,-44.5523331,2,35.47357
1,Benedito Novo/SC,-26.7840657,-49.3629511,940,7983.01486
D1,Benedito Novo/SC,-26.7840657,-49.3629511,17,144.37367
1,Benevides/PA,-1.3555577,-48.252235,3792,5946.55627
D1,Benevides/PA,-1.3555577,-48.252235,96,150.54573
1,Benjamin Constant do Sul/RS,-27.5105555,-52.6007689,154,7865.16854
1,Benjamin Constant/AM,-4.3782748,-70.0290603,2690,6122.68123
D1,Benjamin Constant/AM,-4.3782748,-70.0290603,86,195.74371
1,Bento Fernandes/RN,-5.6926846,-35.8207423,145,2624.43439
D1,Bento Fernandes/RN,-5.6926846,-35.8207423,3,54.29864
1,Bento Gonçalves/RS,-29.1654014,-51.5197627,16335,13410.99973
D1,Bento Gonçalves/RS,-29.1654014,-51.5197627,284,233.16339
1,Bento de Abreu/SP,-21.2707225,-50.8120444,292,9717.13810
1,Bequimão/MA,-2.4495376,-44.7884889,275,1291.14043
D1,Bequimão/MA,-2.4495376,-44.7884889,17,79.81595
1,Berilo/MG,-16.9515764,-42.4643732,131,1103.43666
D1,Berilo/MG,-16.9515764,-42.4643732,1,8.42318
1,Berizal/MG,-15.6118785,-41.7417382,125,2623.84551
D1,Berizal/MG,-15.6118785,-41.7417382,1,20.99076
1,Bernardino Batista/PB,-6.4532173,-38.5495418,235,6645.92760
1,Bernardino de Campos/SP,-23.0140216,-49.4760724,576,5162.21545
D1,Bernardino de Campos/SP,-23.0140216,-49.4760724,17,152.35705
1,Bernardo Sayão/TO,-7.8794244,-48.8968905,479,10768.88489
D1,Bernardo Sayão/TO,-7.8794244,-48.8968905,6,134.89209
1,Bernardo do Mearim/MA,-4.6315929,-44.7617508,291,4791.70097
D1,Bernardo do Mearim/MA,-4.6315929,-44.7617508,6,98.79796
1,Bertioga/SP,-23.848568,-46.139586,5174,7994.06702
D1,Bertioga/SP,-23.848568,-46.139586,138,213.21632
1,Bertolínia/PI,-7.6372159,-43.9540611,843,15307.79009
D1,Bertolínia/PI,-7.6372159,-43.9540611,10,181.58707
1,Bertópolis/MG,-17.063333,-40.573889,292,6338.18103
1,Beruri/AM,-3.9007135,-61.3717319,2206,10978.94789
D1,Beruri/AM,-3.9007135,-61.3717319,32,159.25944
1,Betim/MG,-19.968056,-44.198333,27397,6159.61905
D1,Betim/MG,-19.968056,-44.198333,1057,237.64344
1,Betânia do Piauí/PI,-8.1460635,-40.7961387,157,2528.18035
D1,Betânia do Piauí/PI,-8.1460635,-40.7961387,2,32.20612
1,Betânia/PE,-8.2742779,-38.0351767,454,3556.60008
D1,Betânia/PE,-8.2742779,-38.0351767,13,101.84097
1,Bezerros/PE,-8.2372132,-35.7558262,3632,5965.83443
D1,Bezerros/PE,-8.2372132,-35.7558262,112,183.96846
1,Bias Fortes/MG,-21.605833,-43.756944,103,3094.02223
D1,Bias Fortes/MG,-21.605833,-43.756944,3,90.11715
1,Bicas/MG,-21.7213723,-43.0604327,1333,9158.99409
D1,Bicas/MG,-21.7213723,-43.0604327,42,288.58046
1,Biguaçu/SC,-27.4961277,-48.6542432,10585,15233.28440
D1,Biguaçu/SC,-27.4961277,-48.6542432,158,227.38393
1,Bilac/SP,-21.403962,-50.47464,791,9744.97967
D1,Bilac/SP,-21.403962,-50.47464,13,160.15769
1,Biquinhas/MG,-18.783611,-45.502222,106,4243.39472
D1,Biquinhas/MG,-18.783611,-45.502222,1,40.03203
1,Birigui/SP,-21.2908491,-50.34144,12996,10406.54052
D1,Birigui/SP,-21.2908491,-50.34144,461,369.14552
1,Biritiba Mirim/SP,-23.5697765,-46.0407456,1239,3761.84115
D1,Biritiba Mirim/SP,-23.5697765,-46.0407456,79,239.85912
1,Biritinga/BA,-11.6227908,-38.8066738,435,2721.47147
D1,Biritinga/BA,-11.6227908,-38.8066738,7,43.79379
1,Bituruna/PR,-26.161281,-51.5533319,997,6079.26829
D1,Bituruna/PR,-26.161281,-51.5533319,13,79.26829
1,Blumenau/SC,-26.9195567,-49.0658025,48201,13320.52894
D1,Blumenau/SC,-26.9195567,-49.0658025,544,150.33646
1,Boa Esperança do Iguaçu/PR,-25.6362851,-53.2139114,144,5829.95951
1,Boa Esperança do Sul/SP,-21.9930206,-48.3917372,912,6072.71274
D1,Boa Esperança do Sul/SP,-21.9930206,-48.3917372,14,93.22147
1,Boa Esperança/ES,-18.5395472,-40.2904088,1434,9501.72277
D1,Boa Esperança/ES,-18.5395472,-40.2904088,38,251.78903
1,Boa Esperança/MG,-21.0901253,-45.5660195,3628,9020.61215
D1,Boa Esperança/MG,-21.0901253,-45.5660195,96,238.69315
1,Boa Esperança/PR,-24.2411024,-52.7860277,363,8969.60712
D1,Boa Esperança/PR,-24.2411024,-52.7860277,13,321.22560
1,Boa Hora/PI,-4.4094627,-42.1255341,531,7791.63610
D1,Boa Hora/PI,-4.4094627,-42.1255341,6,88.04109
1,Boa Nova/BA,-14.365907,-40.2063056,830,6732.09506
D1,Boa Nova/BA,-14.365907,-40.2063056,15,121.66437
1,Boa Ventura de São Roque/PR,-24.88177,-51.5441292,407,6394.34407
D1,Boa Ventura de São Roque/PR,-24.88177,-51.5441292,5,78.55460
1,Boa Ventura/PB,-7.4202462,-38.2156782,332,6255.88845
D1,Boa Ventura/PB,-7.4202462,-38.2156782,5,94.21519
1,Boa Viagem/CE,-5.1261877,-39.7300055,3677,6737.27028
D1,Boa Viagem/CE,-5.1261877,-39.7300055,92,168.56918
1,Boa Vista da Aparecida/PR,-25.4357216,-53.4067721,763,10119.36340
D1,Boa Vista da Aparecida/PR,-25.4357216,-53.4067721,24,318.30239
1,Boa Vista das Missões/RS,-27.6677983,-53.3127622,175,8365.20076
D1,Boa Vista das Missões/RS,-27.6677983,-53.3127622,4,191.20459
1,Boa Vista do Buricá/RS,-27.6687782,-54.1111913,720,10727.05602
D1,Boa Vista do Buricá/RS,-27.6687782,-54.1111913,9,134.08820
1,Boa Vista do Cadeado/RS,-28.5783827,-53.8123759,144,5834.68395
D1,Boa Vista do Cadeado/RS,-28.5783827,-53.8123759,2,81.03728
1,Boa Vista do Gurupi/MA,-1.7981168,-46.3071882,15,178.95490
D1,Boa Vista do Gurupi/MA,-1.7981168,-46.3071882,4,47.72131
1,Boa Vista do Incra/RS,-28.8195551,-53.3866624,248,9480.12232
D1,Boa Vista do Incra/RS,-28.8195551,-53.3866624,4,152.90520
1,Boa Vista do Ramos/AM,-2.9716927,-57.5869819,921,4692.75451
D1,Boa Vista do Ramos/AM,-2.9716927,-57.5869819,11,56.04810
1,Boa Vista do Sul/RS,-29.3510488,-51.6779679,286,10295.17639
D1,Boa Vista do Sul/RS,-29.3510488,-51.6779679,3,107.99136
1,Boa Vista do Tupim/BA,-12.6605988,-40.6083594,245,1322.10890
D1,Boa Vista do Tupim/BA,-12.6605988,-40.6083594,4,21.58545
1,Boa Vista/PB,-7.2620711,-36.2415161,647,9066.70404
D1,Boa Vista/PB,-7.2620711,-36.2415161,10,140.13453
1,Boa Vista/RR,2.8208478,-60.6719582,80419,19163.25908
D1,Boa Vista/RR,2.8208478,-60.6719582,1277,304.29975
1,Boca da Mata/AL,-9.6452054,-36.2116658,1704,6228.98085
D1,Boca da Mata/AL,-9.6452054,-36.2116658,43,157.18672
1,Boca do Acre/AM,-8.7553487,-67.3930873,2569,7417.35239
D1,Boca do Acre/AM,-8.7553487,-67.3930873,23,66.40681
1,Bocaina de Minas/MG,-22.167778,-44.394722,172,3379.83887
D1,Bocaina de Minas/MG,-22.167778,-44.394722,7,137.55158
1,Bocaina do Sul/SC,-27.745494,-49.942279,369,10579.12844
D1,Bocaina do Sul/SC,-27.745494,-49.942279,3,86.00917
1,Bocaina/PI,-6.9445939,-41.3224599,252,5593.78468
D1,Bocaina/PI,-6.9445939,-41.3224599,4,88.79023
1,Bocaina/SP,-22.1421831,-48.522276,1157,9291.68005
D1,Bocaina/SP,-22.1421831,-48.522276,26,208.80180
1,Bocaiúva do Sul/PR,-25.206591,-49.114131,1632,12430.49737
D1,Bocaiúva do Sul/PR,-25.206591,-49.114131,15,114.25089
1,Bocaiúva/MG,-17.1160208,-43.8122678,2026,4031.35944
D1,Bocaiúva/MG,-17.1160208,-43.8122678,51,101.48042
1,Bodocó/PE,-7.777592,-39.933797,1889,4922.09078
D1,Bodocó/PE,-7.777592,-39.933797,29,75.56413
1,Bodoquena/MS,-20.5508775,-56.6769653,385,4911.96734
D1,Bodoquena/MS,-20.5508775,-56.6769653,14,178.61699
1,Bodó/RN,-5.9866104,-36.4134824,141,6417.84251
1,Bofete/SP,-23.1019554,-48.2610535,626,5251.23731
D1,Bofete/SP,-23.1019554,-48.2610535,13,109.05125
1,Boituva/SP,-23.2838893,-47.6738231,4778,7685.37880
D1,Boituva/SP,-23.2838893,-47.6738231,136,218.75503
1,Bom Conselho/PE,-9.169191,-36.685683,1548,3174.27769
D1,Bom Conselho/PE,-9.169191,-36.685683,57,116.88232
1,Bom Despacho/MG,-19.7375242,-45.2517288,3694,7239.16281
D1,Bom Despacho/MG,-19.7375242,-45.2517288,68,133.26017
1,Bom Jardim da Serra/SC,-28.3380324,-49.625588,575,12049.45516
D1,Bom Jardim da Serra/SC,-28.3380324,-49.625588,4,83.82230
1,Bom Jardim de Goiás/GO,-16.2062659,-52.172793,693,7813.73323
D1,Bom Jardim de Goiás/GO,-16.2062659,-52.172793,15,169.12842
1,Bom Jardim de Minas/MG,-21.9476466,-44.1906033,444,6874.12912
D1,Bom Jardim de Minas/MG,-21.9476466,-44.1906033,3,46.44682
1,Bom Jardim/MA,-3.54129,-45.606004,1372,3280.57003
D1,Bom Jardim/MA,-3.54129,-45.606004,47,112.38104
1,Bom Jardim/PE,-7.7961572,-35.5871696,1399,3498.98707
D1,Bom Jardim/PE,-7.7961572,-35.5871696,59,147.56271
1,Bom Jardim/RJ,-22.1515328,-42.4186683,1502,5438.87601
D1,Bom Jardim/RJ,-22.1515328,-42.4186683,40,144.84357
1,Bom Jesus da Lapa/BA,-13.250571,-43.410754,4677,6713.84686
D1,Bom Jesus da Lapa/BA,-13.250571,-43.410754,64,91.87218
1,Bom Jesus da Penha/MG,-21.0165299,-46.5226644,543,12794.53346
D1,Bom Jesus da Penha/MG,-21.0165299,-46.5226644,12,282.75212
1,Bom Jesus da Serra/BA,-14.3724084,-40.5047119,420,4275.67953
D1,Bom Jesus da Serra/BA,-14.3724084,-40.5047119,8,81.44151
1,Bom Jesus das Selvas/MA,-4.4878075,-46.8526639,3006,8696.15529
D1,Bom Jesus das Selvas/MA,-4.4878075,-46.8526639,23,66.53745
1,Bom Jesus de Goiás/GO,-18.2174587,-49.739721,2552,9950.09357
D1,Bom Jesus de Goiás/GO,-18.2174587,-49.739721,103,401.59077
1,Bom Jesus do Amparo/MG,-19.7045132,-43.4752911,204,3326.26773
D1,Bom Jesus do Amparo/MG,-19.7045132,-43.4752911,6,97.83140
1,Bom Jesus do Araguaia/MT,-12.1725897,-51.5074425,959,14300.62630
D1,Bom Jesus do Araguaia/MT,-12.1725897,-51.5074425,16,238.59231
1,Bom Jesus do Galho/MG,-19.8283191,-42.3162256,584,3929.48459
D1,Bom Jesus do Galho/MG,-19.8283191,-42.3162256,27,181.67138
1,Bom Jesus do Itabapoana/RJ,-21.1341025,-41.680095,3024,8128.37674
D1,Bom Jesus do Itabapoana/RJ,-21.1341025,-41.680095,80,215.03642
1,Bom Jesus do Norte/ES,-21.1254776,-41.6711646,995,9987.95423
D1,Bom Jesus do Norte/ES,-21.1254776,-41.6711646,23,230.87733
1,Bom Jesus do Oeste/SC,-26.6929713,-53.0967453,181,8461.89808
D1,Bom Jesus do Oeste/SC,-26.6929713,-53.0967453,6,280.50491
1,Bom Jesus do Sul/PR,-26.1922507,-53.6002033,389,11095.26526
D1,Bom Jesus do Sul/PR,-26.1922507,-53.6002033,3,85.56760
1,Bom Jesus do Tocantins/PA,-5.0471796,-48.5978362,751,4387.19477
D1,Bom Jesus do Tocantins/PA,-5.0471796,-48.5978362,25,146.04510
1,Bom Jesus do Tocantins/TO,-8.96306,-48.165043,127,2535.94249
D1,Bom Jesus do Tocantins/TO,-8.96306,-48.165043,3,59.90415
1,Bom Jesus dos Perdões/SP,-23.1353864,-46.4648052,1908,7342.69771
D1,Bom Jesus dos Perdões/SP,-23.1353864,-46.4648052,24,92.36098
1,Bom Jesus/PB,-6.8156725,-38.6551841,141,5475.72816
D1,Bom Jesus/PB,-6.8156725,-38.6551841,3,116.50485
1,Bom Jesus/PI,-9.0711644,-44.3583926,3200,12604.87651
D1,Bom Jesus/PI,-9.0711644,-44.3583926,35,137.86584
1,Bom Jesus/RN,-5.9887544,-35.5821149,726,7071.19899
D1,Bom Jesus/RN,-5.9887544,-35.5821149,15,146.09915
1,Bom Jesus/RS,-28.6692723,-50.4346894,799,7065.16933
D1,Bom Jesus/RS,-28.6692723,-50.4346894,17,150.32275
1,Bom Jesus/SC,-26.7350604,-52.3916519,362,11841.67484
D1,Bom Jesus/SC,-26.7350604,-52.3916519,6,196.27085
1,Bom Lugar/MA,-4.3728019,-45.0366054,450,2737.55931
D1,Bom Lugar/MA,-4.3728019,-45.0366054,7,42.58426
1,Bom Princípio do Piauí/PI,-3.1912777,-41.6430185,124,2194.30189
D1,Bom Princípio do Piauí/PI,-3.1912777,-41.6430185,12,212.35180
1,Bom Princípio/RS,-29.489788,-51.3566782,1709,11988.77587
D1,Bom Princípio/RS,-29.489788,-51.3566782,26,182.39214
1,Bom Progresso/RS,-27.5490948,-53.8655601,117,6161.13744
D1,Bom Progresso/RS,-27.5490948,-53.8655601,3,157.97788
1,Bom Repouso/MG,-22.4657069,-46.1485376,856,8123.75439
D1,Bom Repouso/MG,-22.4657069,-46.1485376,19,180.31698
1,Bom Retiro do Sul/RS,-29.6000007,-51.9359243,957,7723.97094
D1,Bom Retiro do Sul/RS,-29.6000007,-51.9359243,28,225.98870
1,Bom Retiro/SC,-27.798993,-49.486994,693,6888.66799
D1,Bom Retiro/SC,-27.798993,-49.486994,15,149.10537
1,Bom Sucesso de Itararé/SP,-24.3190016,-49.1446207,131,3288.15261
D1,Bom Sucesso de Itararé/SP,-24.3190016,-49.1446207,5,125.50201
1,Bom Sucesso do Sul/PR,-26.0749256,-52.8348629,355,10909.64966
D1,Bom Sucesso do Sul/PR,-26.0749256,-52.8348629,6,184.38844
1,Bom Sucesso/MG,-21.0323516,-44.7598082,776,4407.33799
D1,Bom Sucesso/MG,-21.0323516,-44.7598082,5,28.39780
1,Bom Sucesso/PB,-6.4458948,-37.9297662,291,5871.67070
D1,Bom Sucesso/PB,-6.4458948,-37.9297662,3,60.53269
1,Bom Sucesso/PR,-23.7088019,-51.7651297,695,9833.05037
D1,Bom Sucesso/PR,-23.7088019,-51.7651297,12,169.77929
1,Bombinhas/SC,-27.1519159,-48.4875691,3361,16528.15343
D1,Bombinhas/SC,-27.1519159,-48.4875691,56,275.38726
1,Bonfim do Piauí/PI,-9.1648678,-42.8734415,337,5927.88039
D1,Bonfim do Piauí/PI,-9.1648678,-42.8734415,7,123.13105
1,Bonfim/MG,-20.3266626, -44.2386157,363,5291.54519
D1,Bonfim/MG,-20.3266626, -44.2386157,13,189.50437
1,Bonfim/RR,3.3613818,-59.8427241,2203,17543.99936
D1,Bonfim/RR,3.3613818,-59.8427241,26,207.05583
1,Bonfinópolis de Minas/MG,-16.5660011,-45.98645,414,7604.70242
D1,Bonfinópolis de Minas/MG,-16.5660011,-45.98645,12,220.42616
1,Bonfinópolis/GO,-16.6172709,-48.9615701,451,4546.82932
D1,Bonfinópolis/GO,-16.6172709,-48.9615701,19,191.55157
1,Boninal/BA,-12.7095183,-41.8299984,586,4056.48622
D1,Boninal/BA,-12.7095183,-41.8299984,7,48.45632
1,Bonito de Minas/MG,-15.3191266,-44.7544,49,430.99657
1,Bonito de Santa Fé/PB,-7.3143332,-38.5146677,440,3659.95675
D1,Bonito de Santa Fé/PB,-7.3143332,-38.5146677,11,91.49892
1,Bonito/BA,-11.9665473,-41.2649896,825,4886.28287
D1,Bonito/BA,-11.9665473,-41.2649896,11,65.15044
1,Bonito/MS,-21.1264766,-56.4902208,2729,12298.33258
D1,Bonito/MS,-21.1264766,-56.4902208,58,261.37900
1,Bonito/PA,-1.3605722,-47.3049907,366,2214.15608
D1,Bonito/PA,-1.3605722,-47.3049907,13,78.64489
1,Bonito/PE,-8.4721161,-35.7314591,807,2117.16557
D1,Bonito/PE,-8.4721161,-35.7314591,37,97.06955
1,Bonópolis/GO,-13.649331,-49.8329113,145,3227.24238
D1,Bonópolis/GO,-13.649331,-49.8329113,1,22.25684
1,Boqueirão do Leão/RS,-29.30332,-52.4296817,562,7296.80602
D1,Boqueirão do Leão/RS,-29.30332,-52.4296817,30,389.50922
1,Boqueirão do Piauí/PI,-4.4850148,-42.1095161,580,9025.83256
D1,Boqueirão do Piauí/PI,-4.4850148,-42.1095161,10,155.61780
1,Boqueirão/PB,-7.487004,-36.130887,1525,8533.85562
D1,Boqueirão/PB,-7.487004,-36.130887,31,173.47510
1,Boquim/SE,-11.1450175,-37.6204228,2412,8966.87609
D1,Boquim/SE,-11.1450175,-37.6204228,58,215.62140
1,Boquira/BA,-12.8184859,-42.7270883,542,2521.28204
D1,Boquira/BA,-12.8184859,-42.7270883,11,51.16993
1,Boracéia/SP,-22.195355,-48.7801925,845,17358.25801
D1,Boracéia/SP,-22.195355,-48.7801925,22,451.93098
1,Borba/AM,-4.3934778,-59.5947721,2110,5054.13433
D1,Borba/AM,-4.3934778,-59.5947721,58,138.92881
1,Borborema/PB,-6.8066718,-35.5990191,377,7130.69794
D1,Borborema/PB,-6.8066718,-35.5990191,12,226.97182
1,Borborema/SP,-21.6212706,-49.074135,1307,8085.86983
D1,Borborema/SP,-21.6212706,-49.074135,40,247.46350
1,Borda da Mata/MG,-22.274167,-46.165278,1318,6719.69002
D1,Borda da Mata/MG,-22.274167,-46.165278,41,209.03436
1,Borebi/SP,-22.5700178,-48.9714871,178,6634.36452
D1,Borebi/SP,-22.5700178,-48.9714871,2,74.54342
1,Borrazópolis/PR,-23.9393362,-51.5850786,721,11197.39090
D1,Borrazópolis/PR,-23.9393362,-51.5850786,20,310.60724
1,Borá/SP,-22.2701088,-50.544407,101,12052.50597
D1,Borá/SP,-22.2701088,-50.544407,1,119.33174
1,Bossoroca/RS,-28.7278885,-54.9120278,388,6253.02176
D1,Bossoroca/RS,-28.7278885,-54.9120278,22,354.55278
1,Botelhos/MG,-21.65,-46.394722,1423,9519.03137
D1,Botelhos/MG,-21.65,-46.394722,19,127.09880
1,Botucatu/SP,-22.8879628,-48.4410712,12357,8341.99689
D1,Botucatu/SP,-22.8879628,-48.4410712,242,163.37001
1,Botumirim/MG,-16.862778,-43.011111,213,3387.40458
D1,Botumirim/MG,-16.862778,-43.011111,3,47.70992
1,Botuporã/BA,-13.3744752,-42.5198469,195,1925.16537
D1,Botuporã/BA,-13.3744752,-42.5198469,3,29.61793
1,Botuverá/SC,-27.200749,-49.068892,864,16234.49831
D1,Botuverá/SC,-27.200749,-49.068892,8,150.31943
1,Bozano/RS,-28.3669953,-53.7705165,229,10847.93937
D1,Bozano/RS,-28.3669953,-53.7705165,7,331.59640
1,Braga/RS,-27.617348,-53.740514,317,9574.14678
D1,Braga/RS,-27.617348,-53.740514,7,211.41649
1,Braganey/PR,-24.8179919,-53.118506,389,7227.79636
D1,Braganey/PR,-24.8179919,-53.118506,7,130.06317
1,Bragança Paulista/SP,-22.9520235,-46.5418586,15346,8998.84480
D1,Bragança Paulista/SP,-22.9520235,-46.5418586,420,246.28664
1,Bragança/PA,-1.0573967,-46.7635406,3935,3052.42255
D1,Bragança/PA,-1.0573967,-46.7635406,137,106.27240
1,Branquinha/AL,-9.2478057,-36.0152009,489,4674.95220
D1,Branquinha/AL,-9.2478057,-36.0152009,9,86.04207
1,Brasil Novo/PA,-3.3055853,-52.539198,1782,11893.47928
D1,Brasil Novo/PA,-3.3055853,-52.539198,41,273.64346
1,Brasileira/PI,-4.131182,-41.7824969,551,6601.17407
D1,Brasileira/PI,-4.131182,-41.7824969,11,131.78387
1,Brasilândia de Minas/MG,-17.0096469,-46.0087183,1105,6597.80272
D1,Brasilândia de Minas/MG,-17.0096469,-46.0087183,16,95.53380
1,Brasilândia do Sul/PR,-24.1975793,-53.527551,360,13926.49903
D1,Brasilândia do Sul/PR,-24.1975793,-53.527551,9,348.16248
1,Brasilândia do Tocantins/TO,-8.3886619,-48.4842729,222,10040.70556
D1,Brasilândia do Tocantins/TO,-8.3886619,-48.4842729,4,180.91361
1,Brasilândia/MS,-21.255575,-52.0365617,963,8124.52544
D1,Brasilândia/MS,-21.255575,-52.0365617,16,134.98692
1,Brasiléia/AC,-11.0010413,-68.7487894,2772,10381.24485
D1,Brasiléia/AC,-11.0010413,-68.7487894,38,142.31144
1,Brasnorte/MT,-12.1227151,-58.0050109,1876,9314.79643
D1,Brasnorte/MT,-12.1227151,-58.0050109,32,158.88779
1,Brasília de Minas/MG,-16.2075114,-44.430559,952,2937.81824
D1,Brasília de Minas/MG,-16.2075114,-44.430559,8,24.68755
1,Brasília/DF,-15.7934036,-47.8823172,412708,13508.60465
D1,Brasília/DF,-15.7934036,-47.8823172,8844,289.47852
1,Brazabrantes/GO,-16.4291635,-49.3858216,425,11345.43513
D1,Brazabrantes/GO,-16.4291635,-49.3858216,3,80.08542
1,Brazópolis/MG,-22.4742842,-45.6165577,767,5322.69257
D1,Brazópolis/MG,-22.4742842,-45.6165577,28,194.30951
1,Braço do Norte/SC,-28.2728633,-49.1622712,7669,22638.44610
D1,Braço do Norte/SC,-28.2728633,-49.1622712,85,250.91510
1,Braço do Trombudo/SC,-27.358578,-49.882145,594,15760.14858
D1,Braço do Trombudo/SC,-27.358578,-49.882145,4,106.12895
1,Braúna/SP,-21.5015319,-50.3175246,443,7716.42571
D1,Braúna/SP,-21.5015319,-50.3175246,20,348.37136
1,Braúnas/MG,-19.055556,-42.716111,200,4193.75131
D1,Braúnas/MG,-19.055556,-42.716111,7,146.78130
1,Brejetuba/ES,-20.1465817,-41.2902303,1548,12456.74740
D1,Brejetuba/ES,-20.1465817,-41.2902303,14,112.65792
1,Brejinho de Nazaré/TO,-11.0205883,-48.5722906,459,8316.72404
D1,Brejinho de Nazaré/TO,-11.0205883,-48.5722906,13,235.54992
1,Brejinho/PE,-7.3482153,-37.28538,629,8400.10684
D1,Brejinho/PE,-7.3482153,-37.28538,19,253.73932
1,Brejinho/RN,-6.1957907,-35.3583019,1204,9415.81294
D1,Brejinho/RN,-6.1957907,-35.3583019,14,109.48620
1,Brejo Alegre/SP,-21.1671191,-50.1850393,323,11180.33922
D1,Brejo Alegre/SP,-21.1671191,-50.1850393,13,449.98269
1,Brejo Grande do Araguaia/PA,-5.7011449,-48.4037308,780,10586.31922
D1,Brejo Grande do Araguaia/PA,-5.7011449,-48.4037308,4,54.28882
1,Brejo Grande/SE,-10.4287358,-36.4667918,412,4932.35963
D1,Brejo Grande/SE,-10.4287358,-36.4667918,12,143.66096
1,Brejo Santo/CE,-7.4909841,-38.9859152,7847,15743.75025
D1,Brejo Santo/CE,-7.4909841,-38.9859152,143,286.90662
1,Brejo da Madre de Deus/PE,-8.1409718,-36.3712527,1998,3900.43924
D1,Brejo da Madre de Deus/PE,-8.1409718,-36.3712527,47,91.75207
1,Brejo de Areia/MA,-4.3316785,-45.5833334,295,3272.68693
D1,Brejo de Areia/MA,-4.3316785,-45.5833334,9,99.84469
1,Brejo do Cruz/PB,-6.32926065,-37.48746163303929,1406,9897.22652
D1,Brejo do Cruz/PB,-6.32926065,-37.48746163303929,21,147.82486
1,Brejo do Piauí/PI,-8.207583,-42.8359849,103,2676.71518
D1,Brejo do Piauí/PI,-8.207583,-42.8359849,4,103.95010
1,Brejo dos Santos/PB,-6.3769367,-37.8243125,567,8771.65842
D1,Brejo dos Santos/PB,-6.3769367,-37.8243125,6,92.82178
1,Brejo/MA,-3.6804397,-42.7529313,866,2362.82775
D1,Brejo/MA,-3.6804397,-42.7529313,19,51.84033
1,Brejolândia/BA,-12.4843845,-43.9611861,141,1327.93370
D1,Brejolândia/BA,-12.4843845,-43.9611861,10,94.17969
1,Brejão/PE,-9.029146,-36.566034,378,4206.07544
D1,Brejão/PE,-9.029146,-36.566034,7,77.89029
1,Brejões/BA,-13.1033754,-39.7909837,649,4563.35255
D1,Brejões/BA,-13.1033754,-39.7909837,9,63.28224
1,Breu Branco/PA,-3.7785073,-49.5684795,686,1018.83206
D1,Breu Branco/PA,-3.7785073,-49.5684795,44,65.34783
1,Breves/PA,-1.68036,-50.479085,3937,3803.97499
D1,Breves/PA,-1.68036,-50.479085,110,106.28327
1,Britânia/GO,-15.2427599,-51.1602061,512,8832.15456
D1,Britânia/GO,-15.2427599,-51.1602061,4,69.00121
1,Brochier/RS,-29.556766,-51.5963047,402,7876.17555
D1,Brochier/RS,-29.556766,-51.5963047,5,97.96238
1,Brodowski/SP,-20.984532,-47.657217,2360,9336.55101
D1,Brodowski/SP,-20.984532,-47.657217,54,213.63295
1,Brotas de Macaúbas/BA,-12.0019007,-42.6257506,95,937.80849
D1,Brotas de Macaúbas/BA,-12.0019007,-42.6257506,3,29.61500
1,Brotas/SP,-22.2840884,-48.1267265,478,1940.25004
D1,Brotas/SP,-22.2840884,-48.1267265,34,138.00942
1,Brumadinho/MG,-20.143611,-44.2,3258,8011.60675
D1,Brumadinho/MG,-20.143611,-44.2,73,179.51114
1,Brumado/BA,-14.29507325,-41.659307508575985,8668,12872.94869
D1,Brumado/BA,-14.29507325,-41.659307508575985,179,265.83500
1,Brunópolis/SC,-27.310953,-50.837585,257,10853.04054
D1,Brunópolis/SC,-27.310953,-50.837585,8,337.83784
1,Brusque/SC,-27.0964628,-48.9136323,25299,18374.01681
D1,Brusque/SC,-27.0964628,-48.9136323,262,190.28390
1,Brás Pires/MG,-20.8483109,-43.2430524,193,4495.69066
D1,Brás Pires/MG,-20.8483109,-43.2430524,7,163.05614
1,Bueno Brandão/MG,-22.441976,-46.3517971,679,6177.78182
D1,Bueno Brandão/MG,-22.441976,-46.3517971,23,209.26212
1,Buenos Aires/PE,-7.7218931,-35.326587,293,2221.37983
D1,Buenos Aires/PE,-7.7218931,-35.326587,20,151.63002
1,Buenópolis/MG,-17.8756607,-44.1749365,305,2946.00599
D1,Buenópolis/MG,-17.8756607,-44.1749365,11,106.24940
1,Buerarema/BA,-14.9571177,-39.3008035,1283,7008.63105
D1,Buerarema/BA,-14.9571177,-39.3008035,39,213.04490
1,Bugre/MG,-19.4257687,-42.2556,358,8988.19985
D1,Bugre/MG,-19.4257687,-42.2556,12,301.28044
1,Bujari/AC,-9.8309656,-67.9520886,1121,10758.15739
D1,Bujari/AC,-9.8309656,-67.9520886,17,163.14779
1,Bujaru/PA,-1.5169239,-48.0410699,1373,4665.78312
D1,Bujaru/PA,-1.5169239,-48.0410699,37,125.73487
1,Buri/SP,-23.79849,-48.598924,2261,11324.81843
D1,Buri/SP,-23.79849,-48.598924,71,355.62234
1,Buritama/SP,-21.0664017,-50.1448077,2087,12076.84740
D1,Buritama/SP,-21.0664017,-50.1448077,57,329.84202
1,Buriti Alegre/GO,-18.1377879,-49.0404411,903,9521.29903
D1,Buriti Alegre/GO,-18.1377879,-49.0404411,29,305.77815
1,Buriti Bravo/MA,-5.8391884,-43.8367876,1385,5785.53824
D1,Buriti Bravo/MA,-5.8391884,-43.8367876,13,54.30469
1,Buriti de Goiás/GO,-16.180644,-50.4287479,184,7431.34087
D1,Buriti de Goiás/GO,-16.180644,-50.4287479,8,323.10178
1,Buriti do Tocantins/TO,-5.3187439,-48.2256609,871,7575.88936
D1,Buriti do Tocantins/TO,-5.3187439,-48.2256609,13,113.07298
1,Buriti dos Lopes/PI,-3.1776723,-41.8707444,1259,6356.33867
D1,Buriti dos Lopes/PI,-3.1776723,-41.8707444,31,156.51032
1,Buriti dos Montes/PI,-5.3136171,-41.0971256,613,7417.71539
D1,Buriti dos Montes/PI,-5.3136171,-41.0971256,8,96.80542
1,Buriti/MA,-3.9430944,-42.9244281,751,2607.81999
D1,Buriti/MA,-3.9430944,-42.9244281,7,24.30724
1,Buriticupu/MA,-4.3227472,-46.4516989,3178,4354.43870
D1,Buriticupu/MA,-4.3227472,-46.4516989,43,58.91783
1,Buritinópolis/GO,-14.4589282,-46.4293104,165,5025.89095
D1,Buritinópolis/GO,-14.4589282,-46.4293104,3,91.37984
1,Buritirama/BA,-10.7148421,-43.6362327,831,3905.80936
D1,Buritirama/BA,-10.7148421,-43.6362327,22,103.40290
1,Buritirana/MA,-5.5897455,-47.0148915,434,2805.97401
D1,Buritirana/MA,-5.5897455,-47.0148915,24,155.16907
1,Buritis/MG,-15.621389,-46.423889,1581,6320.71323
D1,Buritis/MG,-15.621389,-46.423889,33,131.93140
1,Buritis/RO,-10.2054937,-63.8281954,4477,11093.76549
D1,Buritis/RO,-10.2054937,-63.8281954,62,153.63267
1,Buritizal/SP,-20.1933264,-47.7097165,246,5449.71201
D1,Buritizal/SP,-20.1933264,-47.7097165,10,221.53301
1,Buritizeiro/MG,-17.3667765,-44.9647781,1175,4178.37204
D1,Buritizeiro/MG,-17.3667765,-44.9647781,30,106.68184
1,Butiá/RS,-30.1256795,-51.9692224,1885,8996.75449
D1,Butiá/RS,-30.1256795,-51.9692224,53,252.95914
1,Buíque/PE,-8.6239732,-37.157296,2024,3435.22463
D1,Buíque/PE,-8.6239732,-37.157296,41,69.58706
1,Bálsamo/SP,-20.7343722,-49.5807484,1439,15745.70522
D1,Bálsamo/SP,-20.7343722,-49.5807484,58,634.64274
0,CASO SEM LOCALIZAÇÃO DEFINIDA/BA,-13.415069300066518,-38.14174656569957,10524,70.75879
D0,CASO SEM LOCALIZAÇÃO DEFINIDA/BA,-13.415069300066518,-38.14174656569957,221,1.48591
0,CASO SEM LOCALIZAÇÃO DEFINIDA/CE,-3.3445126297392798,-38.624961942434304,12122,132.74087
D0,CASO SEM LOCALIZAÇÃO DEFINIDA/CE,-3.3445126297392798,-38.624961942434304,409,4.47872
0,CASO SEM LOCALIZAÇÃO DEFINIDA/ES,-20.30989267097039,-39.81745156645774,3994,99.38661
D0,CASO SEM LOCALIZAÇÃO DEFINIDA/ES,-20.30989267097039,-39.81745156645774,192,4.77772
0,CASO SEM LOCALIZAÇÃO DEFINIDA/GO,-16.701590966270153,-49.164524059025034,457,6.51150
D0,CASO SEM LOCALIZAÇÃO DEFINIDA/GO,-16.701590966270153,-49.164524059025034,44,0.62693
0,CASO SEM LOCALIZAÇÃO DEFINIDA/MG,-19.97049116501593,-43.8852149072783,4266,20.15231
D0,CASO SEM LOCALIZAÇÃO DEFINIDA/MG,-19.97049116501593,-43.8852149072783,292,1.37939
0,CASO SEM LOCALIZAÇÃO DEFINIDA/MT,-15.54791153961863,-56.17143998972475,2538,72.83756
D0,CASO SEM LOCALIZAÇÃO DEFINIDA/MT,-15.54791153961863,-56.17143998972475,185,5.30928
0,CASO SEM LOCALIZAÇÃO DEFINIDA/PA,-0.09317078214359542,-48.0050231510481,2531,29.42043
D0,CASO SEM LOCALIZAÇÃO DEFINIDA/PA,-0.09317078214359542,-48.0050231510481,50,0.58120
0,CASO SEM LOCALIZAÇÃO DEFINIDA/PI,-2.683810218391744,-41.470898009352254,243,7.42387
D0,CASO SEM LOCALIZAÇÃO DEFINIDA/PI,-2.683810218391744,-41.470898009352254,23,0.70267
0,CASO SEM LOCALIZAÇÃO DEFINIDA/PR,-25.69415946385943,-48.10141676336737,6002,52.49276
D0,CASO SEM LOCALIZAÇÃO DEFINIDA/PR,-25.69415946385943,-48.10141676336737,154,1.34687
0,CASO SEM LOCALIZAÇÃO DEFINIDA/RR,2.813328208465927,-60.663338675861986,2581,426.07563
D0,CASO SEM LOCALIZAÇÃO DEFINIDA/RR,2.813328208465927,-60.663338675861986,14,2.31114
0,CASO SEM LOCALIZAÇÃO DEFINIDA/SP,-24.30968974555485,-46.21366504207253,859,1.87068
1,Caapiranga/AM,-3.3188884,-61.2096404,624,4697.73395
D1,Caapiranga/AM,-3.3188884,-61.2096404,21,158.09682
1,Caaporã/PB,-7.510234,-34.9154114,1761,8020.95195
D1,Caaporã/PB,-7.510234,-34.9154114,31,141.19790
1,Caarapó/MS,-22.6349267,-54.8240903,3653,11940.64002
D1,Caarapó/MS,-22.6349267,-54.8240903,39,127.48014
1,Caatiba/BA,-14.9782759,-40.4092325,807,12438.34772
D1,Caatiba/BA,-14.9782759,-40.4092325,11,169.54377
1,Cabaceiras do Paraguaçu/BA,-12.5377868,-39.1901339,526,2781.44995
D1,Cabaceiras do Paraguaçu/BA,-12.5377868,-39.1901339,4,21.15171
1,Cabaceiras/PB,-7.4899156,-36.2860501,337,5953.01184
D1,Cabaceiras/PB,-7.4899156,-36.2860501,3,52.99417
1,Cabeceira Grande/MG,-16.0297,-47.0906,363,5194.61935
D1,Cabeceira Grande/MG,-16.0297,-47.0906,5,71.55123
1,Cabeceiras do Piauí/PI,-4.4733665,-42.3098716,508,4778.92756
D1,Cabeceiras do Piauí/PI,-4.4733665,-42.3098716,10,94.07338
1,Cabeceiras/GO,-15.7995459,-46.9264991,313,3890.13174
D1,Cabeceiras/GO,-15.7995459,-46.9264991,14,173.99950
1,Cabedelo/PB,-6.97324,-34.8351609,8251,11998.48765
D1,Cabedelo/PB,-6.97324,-34.8351609,184,267.57020
1,Cabixi/RO,-13.4956065,-60.5424442,732,14109.48342
D1,Cabixi/RO,-13.4956065,-60.5424442,17,327.67926
1,Cabo Frio/RJ,-22.8804369,-42.0189227,12025,5219.68243
D1,Cabo Frio/RJ,-22.8804369,-42.0189227,638,276.93617
1,Cabo Verde/MG,-21.4743338,-46.3964995,587,4170.51510
D1,Cabo Verde/MG,-21.4743338,-46.3964995,8,56.83837
1,Cabo de Santo Agostinho/PE,-8.2838945,-35.0320984,6678,3196.07167
D1,Cabo de Santo Agostinho/PE,-8.2838945,-35.0320984,451,215.84731
1,Cabreúva/SP,-23.3075813,-47.1324417,3354,6650.93498
D1,Cabreúva/SP,-23.3075813,-47.1324417,82,162.60485
1,Cabrobó/PE,-8.5083701,-39.3106961,2075,6013.96980
D1,Cabrobó/PE,-8.5083701,-39.3106961,25,72.45747
1,Cabrália Paulista/SP,-22.4562909,-49.3385645,342,8060.33467
D1,Cabrália Paulista/SP,-22.4562909,-49.3385645,5,117.84115
1,Cacaulândia/RO,-10.3380043,-62.9007231,800,12761.20593
D1,Cacaulândia/RO,-10.3380043,-62.9007231,10,159.51507
1,Cacequi/RS,-29.8838059,-54.8273443,455,3662.56138
D1,Cacequi/RS,-29.8838059,-54.8273443,7,56.34710
1,Cachoeira Alta/GO,-18.7618269,-50.9432431,1347,10634.77025
D1,Cachoeira Alta/GO,-18.7618269,-50.9432431,19,150.00790
1,Cachoeira Dourada/GO,-18.4934204,-49.481062,398,4955.79629
D1,Cachoeira Dourada/GO,-18.4934204,-49.481062,21,261.48674
1,Cachoeira Dourada/MG,-18.517136,-49.5002062,139,5136.73319
D1,Cachoeira Dourada/MG,-18.517136,-49.5002062,2,73.90983
1,Cachoeira Grande/MA,-2.9290492,-44.0573223,269,2838.15151
D1,Cachoeira Grande/MA,-2.9290492,-44.0573223,6,63.30449
1,Cachoeira Paulista/SP,-22.666498,-45.015384,2242,6676.39439
D1,Cachoeira Paulista/SP,-22.666498,-45.015384,35,104.22560
1,Cachoeira da Prata/MG,-19.524723,-44.453056,226,6293.51156
D1,Cachoeira da Prata/MG,-19.524723,-44.453056,9,250.62657
1,Cachoeira de Goiás/GO,-16.6688414,-50.6435997,76,5663.18927
D1,Cachoeira de Goiás/GO,-16.6688414,-50.6435997,2,149.03130
1,Cachoeira de Minas/MG,-22.3554043,-45.7796324,560,4836.34165
D1,Cachoeira de Minas/MG,-22.3554043,-45.7796324,8,69.09060
1,Cachoeira de Pajeú/MG,-15.965833,-41.496666,477,5051.89578
D1,Cachoeira de Pajeú/MG,-15.965833,-41.496666,8,84.72781
1,Cachoeira do Arari/PA,-1.0143572,-48.9621089,490,2036.23670
D1,Cachoeira do Arari/PA,-1.0143572,-48.9621089,22,91.42287
1,Cachoeira do Piriá/PA,-1.7599443,-46.5446954,827,2389.55185
D1,Cachoeira do Piriá/PA,-1.7599443,-46.5446954,4,11.55769
1,Cachoeira do Sul/RS,-30.0474778,-52.8905413,8782,10726.89296
D1,Cachoeira do Sul/RS,-30.0474778,-52.8905413,132,161.23319
1,Cachoeira dos Índios/PB,-6.9259193,-38.6742159,713,6918.97137
D1,Cachoeira dos Índios/PB,-6.9259193,-38.6742159,14,135.85638
1,Cachoeira/BA,-12.5998256,-38.9665918,1460,4349.50994
D1,Cachoeira/BA,-12.5998256,-38.9665918,23,68.51968
1,Cachoeiras de Macacu/RJ,-22.4626861,-42.6534414,2681,4520.85055
D1,Cachoeiras de Macacu/RJ,-22.4626861,-42.6534414,87,146.70421
1,Cachoeirinha/PE,-8.4906364,-36.2338963,517,2521.82820
D1,Cachoeirinha/PE,-8.4906364,-36.2338963,27,131.70089
1,Cachoeirinha/RS,-29.9493353,-51.0898927,13237,10086.10180
D1,Cachoeirinha/RS,-29.9493353,-51.0898927,394,300.21335
1,Cachoeirinha/TO,-6.118647,-47.9208885,117,5122.59194
D1,Cachoeirinha/TO,-6.118647,-47.9208885,2,87.56567
1,Cachoeiro de Itapemirim/ES,-20.848084,-41.11129,25114,11925.59915
D1,Cachoeiro de Itapemirim/ES,-20.848084,-41.11129,537,254.99907
1,Cacimba de Areia/PB,-7.1288513,-37.1575194,42,1136.67118
D1,Cacimba de Areia/PB,-7.1288513,-37.1575194,4,108.25440
1,Cacimba de Dentro/PB,-6.6425101,-35.7929304,1043,6071.71964
D1,Cacimba de Dentro/PB,-6.6425101,-35.7929304,32,186.28478
1,Cacimbas/PB,-7.2125451,-37.0593398,209,2903.18100
D1,Cacimbas/PB,-7.2125451,-37.0593398,6,83.34491
1,Cacimbinhas/AL,-9.401212,-36.991082,663,6088.71338
D1,Cacimbinhas/AL,-9.401212,-36.991082,9,82.65222
1,Cacique Doble/RS,-27.7700117,-51.6616409,484,9538.82538
D1,Cacique Doble/RS,-27.7700117,-51.6616409,10,197.08317
1,Cacoal/RO,-11.4333,-61.4420502,12484,14534.36252
D1,Cacoal/RO,-11.4333,-61.4420502,255,296.88100
1,Caconde/SP,-21.527995,-46.643659,1154,6070.80856
D1,Caconde/SP,-21.527995,-46.643659,27,142.03798
1,Caculé/BA,-14.4990734,-42.2233006,1449,6221.28719
D1,Caculé/BA,-14.4990734,-42.2233006,12,51.52205
1,Caetanos/BA,-14.3387456,-40.9085971,628,4299.01424
D1,Caetanos/BA,-14.3387456,-40.9085971,10,68.45564
1,Caetanópolis/MG,-19.2947496,-44.4138386,829,7055.91965
D1,Caetanópolis/MG,-19.2947496,-44.4138386,14,119.15908
1,Caetité/BA,-14.0691776,-42.4852428,2283,4469.37217
D1,Caetité/BA,-14.0691776,-42.4852428,24,46.98420
1,Caeté/MG,-19.897777,-43.670278,1789,3971.40764
D1,Caeté/MG,-19.897777,-43.670278,51,113.21509
1,Caetés/PE,-8.7728788,-36.6255835,1394,4822.86189
D1,Caetés/PE,-8.7728788,-36.6255835,18,62.27512
1,Cafarnaum/BA,-11.691399,-41.468823,838,4526.54891
D1,Cafarnaum/BA,-11.691399,-41.468823,20,108.03219
1,Cafeara/PR,-22.78905,-51.714195,266,9004.73934
D1,Cafeara/PR,-22.78905,-51.714195,10,338.52404
1,Cafelândia/PR,-24.6176963,-53.3218057,1865,10105.11487
D1,Cafelândia/PR,-24.6176963,-53.3218057,17,92.11097
1,Cafelândia/SP,-21.8054355,-49.6030627,690,3867.06271
D1,Cafelândia/SP,-21.8054355,-49.6030627,31,173.73760
1,Cafezal do Sul/PR,-23.900508,-53.512418,364,9079.57097
D1,Cafezal do Sul/PR,-23.900508,-53.512418,4,99.77551
1,Caiabu/SP,-22.0143038,-51.2356597,95,2265.68090
D1,Caiabu/SP,-22.0143038,-51.2356597,5,119.24636
1,Caiana/MG,-20.695555,-41.924723,135,2436.38332
D1,Caiana/MG,-20.695555,-41.924723,7,126.33099
1,Caiapônia/GO,-16.9538779,-51.8090761,1062,5558.17240
D1,Caiapônia/GO,-16.9538779,-51.8090761,34,177.94526
1,Caibaté/RS,-28.290475,-54.645407,218,4520.00829
D1,Caibaté/RS,-28.290475,-54.645407,7,145.13788
1,Caibi/SC,-27.0751925,-53.2502133,576,9396.41109
D1,Caibi/SC,-27.0751925,-53.2502133,11,179.44535
1,Caicó/RN,-6.4594544,-37.0971911,10159,14864.72645
D1,Caicó/RN,-6.4594544,-37.0971911,123,179.97454
1,Caieiras/SP,-23.3644621,-46.7484765,7324,7126.24666
D1,Caieiras/SP,-23.3644621,-46.7484765,261,253.95281
1,Cairu/BA,-13.4860505,-39.0455744,1208,6555.59776
D1,Cairu/BA,-13.4860505,-39.0455744,13,70.54865
1,Caiuá/SP,-21.8319357,-51.9887179,307,5163.13488
D1,Caiuá/SP,-21.8319357,-51.9887179,6,100.90817
1,Caiçara do Norte/RN,-5.0645017,-36.0561226,384,5852.76635
D1,Caiçara do Norte/RN,-5.0645017,-36.0561226,9,137.17421
1,Caiçara do Rio do Vento/RN,-5.757968,-36.00089,262,7052.48991
D1,Caiçara do Rio do Vento/RN,-5.757968,-36.00089,7,188.42530
1,Caiçara/PB,-6.6146866,-35.4681434,693,9637.04631
D1,Caiçara/PB,-6.6146866,-35.4681434,14,194.68780
1,Caiçara/RS,-27.2750478,-53.4310053,531,11297.87234
D1,Caiçara/RS,-27.2750478,-53.4310053,8,170.21277
1,Cajamar/SP,-23.3561111,-46.8769444,4053,5200.55432
D1,Cajamar/SP,-23.3561111,-46.8769444,192,246.36231
1,Cajapió/MA,-2.8778715,-44.6746871,91,811.34094
D1,Cajapió/MA,-2.8778715,-44.6746871,4,35.66334
1,Cajari/MA,-3.3213076,-45.0118757,205,1053.93039
D1,Cajari/MA,-3.3213076,-45.0118757,8,41.12899
1,Cajati/SP,-24.7272376,-48.1077914,3071,10777.70759
D1,Cajati/SP,-24.7272376,-48.1077914,83,291.28939
1,Cajazeiras do Piauí/PI,-6.794271,-42.3935024,56,1567.31038
D1,Cajazeiras do Piauí/PI,-6.794271,-42.3935024,1,27.98769
1,Cajazeiras/PB,-6.8897849,-38.5570389,8120,13036.00957
D1,Cajazeiras/PB,-6.8897849,-38.5570389,133,213.52085
1,Cajazeirinhas/PB,-6.961442,-37.7993733,157,4898.59594
1,Cajobi/SP,-20.8776238,-48.8106972,846,7984.14496
D1,Cajobi/SP,-20.8776238,-48.8106972,27,254.81314
1,Cajueiro da Praia/PI,-2.931114,-41.340801,474,6176.70055
D1,Cajueiro da Praia/PI,-2.931114,-41.340801,19,247.58926
1,Cajueiro/AL,-9.399589,-36.1524309,539,2526.83887
D1,Cajueiro/AL,-9.399589,-36.1524309,20,93.76026
1,Cajuri/MG,-20.7901414,-42.7954489,350,8807.24711
D1,Cajuri/MG,-20.7901414,-42.7954489,2,50.32713
1,Cajuru/SP,-21.2759978,-47.3046035,993,3762.36123
D1,Cajuru/SP,-21.2759978,-47.3046035,36,136.39980
1,Caldas Brandão/PB,-7.1027959,-35.3254676,502,8303.01025
D1,Caldas Brandão/PB,-7.1027959,-35.3254676,8,132.31889
1,Caldas Novas/GO,-17.745,-48.625,7915,8492.85377
D1,Caldas Novas/GO,-17.745,-48.625,198,212.45547
1,Caldas/MG,-21.923611,-46.386111,731,5027.16457
D1,Caldas/MG,-21.923611,-46.386111,25,171.92765
1,Caldazinha/GO,-16.7116649,-49.0012601,265,6886.69439
D1,Caldazinha/GO,-16.7116649,-49.0012601,6,155.92516
1,Caldeirão Grande do Piauí/PI,-7.3310393,-40.6374433,395,6832.72790
D1,Caldeirão Grande do Piauí/PI,-7.3310393,-40.6374433,2,34.59609
1,Caldeirão Grande/BA,-11.0208483,-40.3041387,558,4166.97782
D1,Caldeirão Grande/BA,-11.0208483,-40.3041387,6,44.80621
1,Califórnia/PR,-23.6672543,-51.3554556,994,11550.08134
D1,Califórnia/PR,-23.6672543,-51.3554556,22,255.63560
1,Calmon/SC,-26.6023644,-51.0992893,33,989.50525
D1,Calmon/SC,-26.6023644,-51.0992893,4,119.94003
1,Calumbi/PE,-7.9389746,-38.1516871,516,8978.59753
D1,Calumbi/PE,-7.9389746,-38.1516871,3,52.20115
1,Calçado/PE,-8.7413446,-36.3351787,426,3866.40044
D1,Calçado/PE,-8.7413446,-36.3351787,4,36.30423
1,Calçoene/AP,2.4981757,-50.9539503,1618,14310.98532
D1,Calçoene/AP,2.4981757,-50.9539503,10,88.44861
1,Camacan/BA,-15.4166631,-39.4930088,2703,8445.29151
D1,Camacan/BA,-15.4166631,-39.4930088,73,228.08223
1,Camacho/MG,-20.625556,-45.156667,49,1707.91216
D1,Camacho/MG,-20.625556,-45.156667,2,69.71070
1,Camalaú/PB,-7.885031,-36.824191,399,6615.81827
D1,Camalaú/PB,-7.885031,-36.824191,6,99.48599
1,Camamu/BA,-13.9438142,-39.1060917,2184,6172.63015
D1,Camamu/BA,-13.9438142,-39.1060917,47,132.83591
1,Camanducaia/MG,-22.755278,-46.144444,2762,12669.14362
D1,Camanducaia/MG,-22.755278,-46.144444,54,247.69506
1,Camapuã/MS,-19.5291747,-54.0434641,744,5433.43314
D1,Camapuã/MS,-19.5291747,-54.0434641,27,197.18104
1,Camaquã/RS,-30.8524752,-51.8075619,6354,9558.04928
D1,Camaquã/RS,-30.8524752,-51.8075619,131,197.05767
1,Camaragibe/PE,-8.0213832,-34.9810768,6048,3806.19135
D1,Camaragibe/PE,-8.0213832,-34.9810768,370,232.85231
1,Camargo/RS,-28.5865661,-52.2031474,358,13056.16338
D1,Camargo/RS,-28.5865661,-52.2031474,5,182.34865
1,Camaçari/BA,-12.6998188,-38.3260762,22300,7328.24628
D1,Camaçari/BA,-12.6998188,-38.3260762,569,186.98530
1,Cambará do Sul/RS,-29.0489517,-50.145412,294,4589.44739
D1,Cambará do Sul/RS,-29.0489517,-50.145412,10,156.10365
1,Cambará/PR,-23.042273,-50.075281,2181,8564.36032
D1,Cambará/PR,-23.042273,-50.075281,45,176.70620
1,Cambira/PR,-23.600265,-51.581045,737,9309.08172
D1,Cambira/PR,-23.600265,-51.581045,16,202.09675
1,Camboriú/SC,-27.0273601,-48.6535657,11746,13801.77428
D1,Camboriú/SC,-27.0273601,-48.6535657,150,176.25286
1,Cambuci/RJ,-21.5749919,-41.9107833,927,5975.24816
D1,Cambuci/RJ,-21.5749919,-41.9107833,31,199.81952
1,Cambuquira/MG,-21.853056,-45.2953619,579,4519.20075
D1,Cambuquira/MG,-21.853056,-45.2953619,16,124.88292
1,Cambuí/MG,-22.6122501,-46.0572137,3195,10716.44194
D1,Cambuí/MG,-22.6122501,-46.0572137,50,167.70645
1,Cambé/PR,-23.2782035,-51.2779583,9905,9227.60176
D1,Cambé/PR,-23.2782035,-51.2779583,210,195.63820
1,Cametá/PA,-2.242949,-49.497885,8360,5998.67972
D1,Cametá/PA,-2.242949,-49.497885,232,166.47054
1,Camocim de São Félix/PE,-8.3616757,-35.7638903,456,2412.69841
D1,Camocim de São Félix/PE,-8.3616757,-35.7638903,16,84.65608
1,Camocim/CE,-2.9009918,-40.8427389,5766,9022.48580
D1,Camocim/CE,-2.9009918,-40.8427389,159,248.79904
1,Campanha/MG,-21.8361108,-45.401986,1467,8751.93891
D1,Campanha/MG,-21.8361108,-45.401986,29,173.01038
1,Campanário/MG,-18.2398144,-41.7271768,210,5630.02681
D1,Campanário/MG,-18.2398144,-41.7271768,3,80.42895
1,Campestre da Serra/RS,-28.7966535,-51.0958149,189,5567.01031
D1,Campestre da Serra/RS,-28.7966535,-51.0958149,1,29.45508
1,Campestre de Goiás/GO,-16.7624179,-49.69497,473,12962.45547
D1,Campestre de Goiás/GO,-16.7624179,-49.69497,14,383.66676
1,Campestre do Maranhão/MA,-6.1729113,-47.3640512,1018,7043.52038
D1,Campestre do Maranhão/MA,-6.1729113,-47.3640512,43,297.51609
1,Campestre/AL,-8.8481634,-35.5660033,245,3523.15214
D1,Campestre/AL,-8.8481634,-35.5660033,6,86.28128
1,Campestre/MG,-19.6142116,-43.219378,1426,6773.05975
D1,Campestre/MG,-19.6142116,-43.219378,30,142.49074
1,Campina Grande do Sul/PR,-25.3046032,-49.0545355,4588,10502.46080
D1,Campina Grande do Sul/PR,-25.3046032,-49.0545355,111,254.09179
1,Campina Grande/PB,-7.2246743,-35.8771292,31021,7532.89769
