type,name,lat,lon,total,total_per_100k_inhabitants
1,Abadia de Goiás/GO,-16.7572644,-49.4412205,830,9265.46104
D1,Abadia de Goiás/GO,-16.7572644,-49.4412205,11,122.79527
1,Abadia dos Dourados/MG,-18.4911191,-47.4063589,177,2526.40594
D1,Abadia dos Dourados/MG,-18.4911191,-47.4063589,1,14.27348
1,Abadiânia/GO,-16.1940946,-48.7067767,222,1084.99096
D1,Abadiânia/GO,-16.1940946,-48.7067767,17,83.08489
1,Abaetetuba/PA,-1.721828,-48.878843,5657,3556.07242
D1,Abaetetuba/PA,-1.721828,-48.878843,126,79.20543
1,Abaeté/MG,-19.1566833,-45.4481213,458,1969.89247
D1,Abaeté/MG,-19.1566833,-45.4481213,7,30.10753
1,Abaiara/CE,-7.3607808,-39.0487878,194,1636.71644
D1,Abaiara/CE,-7.3607808,-39.0487878,4,33.74673
1,Abaré/BA,-8.7239913,-39.1139689,283,1390.86843
D1,Abaré/BA,-8.7239913,-39.1139689,1,4.91473
1,Abatiá/PR,-23.3052967,-50.3102532,253,3415.22678
D1,Abatiá/PR,-23.3052967,-50.3102532,3,40.49676
1,Abaíra/BA,-13.2503296,-41.6640342,182,2089.55224
D1,Abaíra/BA,-13.2503296,-41.6640342,5,57.40528
1,Abdon Batista/SC,-27.612419,-51.022992,184,7221.35008
D1,Abdon Batista/SC,-27.612419,-51.022992,1,39.24647
1,Abel Figueiredo/PA,-4.953001,-48.3958485,513,6852.79188
D1,Abel Figueiredo/PA,-4.953001,-48.3958485,3,40.07481
1,Abelardo Luz/SC,-26.5705893,-52.3280339,808,4498.88641
D1,Abelardo Luz/SC,-26.5705893,-52.3280339,19,105.79065
1,Abre Campo/MG,-20.2976097,-42.4764741,327,2432.31181
D1,Abre Campo/MG,-20.2976097,-42.4764741,4,29.75305
1,Abreu e Lima/PE,-7.900719,-34.898389,1487,1481.87272
D1,Abreu e Lima/PE,-7.900719,-34.898389,154,153.46900
1,Abreulândia/TO,-9.6221526,-49.1558343,133,5127.21665
D1,Abreulândia/TO,-9.6221526,-49.1558343,4,154.20200
1,Acaiaca/MG,-20.3621646,-43.1444162,110,2754.13120
D1,Acaiaca/MG,-20.3621646,-43.1444162,4,100.15023
1,Acajutiba/BA,-11.6609659,-38.0186381,306,2014.88115
D1,Acajutiba/BA,-11.6609659,-38.0186381,7,46.09205
1,Acarape/CE,-4.2237866,-38.7071663,1986,13208.30008
D1,Acarape/CE,-4.2237866,-38.7071663,14,93.10987
1,Acaraú/CE,-2.8869514,-40.1194713,2903,4600.34229
D1,Acaraú/CE,-2.8869514,-40.1194713,59,93.49645
1,Acari/RN,-6.4364689,-36.6394777,411,3695.71082
D1,Acari/RN,-6.4364689,-36.6394777,7,62.94398
1,Acará/PA,-1.961388,-48.1987043,904,1623.88403
D1,Acará/PA,-1.961388,-48.1987043,16,28.74131
1,Acauã/PI,-8.219542,-41.083059,134,1886.79245
D1,Acauã/PI,-8.219542,-41.083059,1,14.08054
1,Aceguá/RS,-31.8695131,-54.1615593,64,1295.02226
1,Acopiara/CE,-6.0936464,-39.4543204,1465,2689.01085
D1,Acopiara/CE,-6.0936464,-39.4543204,66,121.14315
1,Acorizal/MT,-15.2001544,-56.3668953,271,5080.61492
D1,Acorizal/MT,-15.2001544,-56.3668953,7,131.23360
1,Acrelândia/AC,-10.0759167,-67.0526898,752,4854.74500
D1,Acrelândia/AC,-10.0759167,-67.0526898,14,90.38089
1,Acreúna/GO,-17.3959899,-50.3749031,1218,5402.28865
D1,Acreúna/GO,-17.3959899,-50.3749031,28,124.19054
1,Adamantina/SP,-21.6866517,-51.0762975,1197,3409.18800
D1,Adamantina/SP,-21.6866517,-51.0762975,28,79.74709
1,Adelândia/GO,-16.4155077,-50.1665834,93,3696.34340
D1,Adelândia/GO,-16.4155077,-50.1665834,2,79.49126
1,Adolfo/SP,-21.2356597,-49.6441918,236,6640.40518
D1,Adolfo/SP,-21.2356597,-49.6441918,6,168.82386
1,Adrianópolis/PR,-24.6557863,-48.9912769,632,10790.50709
D1,Adrianópolis/PR,-24.6557863,-48.9912769,9,153.66228
1,Adustina/BA,-10.5358875,-38.114479,250,1459.76877
D1,Adustina/BA,-10.5358875,-38.114479,4,23.35630
1,Afogados da Ingazeira/PE,-7.750429,-37.6356375,2063,5515.45289
D1,Afogados da Ingazeira/PE,-7.750429,-37.6356375,28,74.85830
1,Afonso Bezerra/RN,-5.4745,-36.57625071327935,238,2157.94723
D1,Afonso Bezerra/RN,-5.4745,-36.57625071327935,11,99.73706
1,Afonso Cláudio/ES,-20.077841,-41.12606,2279,7483.17189
D1,Afonso Cláudio/ES,-20.077841,-41.12606,36,118.20719
1,Afonso Cunha/MA,-4.1326105,-43.3230026,152,2310.73275
D1,Afonso Cunha/MA,-4.1326105,-43.3230026,2,30.40438
1,Afrânio/PE,-8.5198919,-41.0070197,550,2776.37557
D1,Afrânio/PE,-8.5198919,-41.0070197,9,45.43160
1,Afuá/PA,-0.1535664,-50.3879223,2681,6775.84856
D1,Afuá/PA,-0.1535664,-50.3879223,11,27.80095
1,Agrestina/PE,-8.4558021,-35.9442663,760,3032.11650
D1,Agrestina/PE,-8.4558021,-35.9442663,34,135.64732
1,Agricolândia/PI,-5.7967843,-42.6605131,77,1500.68213
1,Agrolândia/SC,-27.4122212,-49.8295774,522,4739.85290
D1,Agrolândia/SC,-27.4122212,-49.8295774,6,54.48107
1,Agronômica/SC,-27.2660744,-49.7104753,272,4937.37520
D1,Agronômica/SC,-27.2660744,-49.7104753,7,127.06480
1,Aguanil/MG,-20.9424533,-45.3927152,227,5019.90270
D1,Aguanil/MG,-20.9424533,-45.3927152,7,154.79876
1,Aguaí/SP,-22.0592036,-46.979384,961,2622.24405
D1,Aguaí/SP,-22.0592036,-46.979384,21,57.30190
1,Agudo/RS,-29.6423259,-53.2494005,473,2883.97049
D1,Agudo/RS,-29.6423259,-53.2494005,4,24.38876
1,Agudos do Sul/PR,-25.9890808,-49.3328175,268,2829.98944
D1,Agudos do Sul/PR,-25.9890808,-49.3328175,2,21.11932
1,Agudos/SP,-22.471162,-48.987822,1364,3646.96131
D1,Agudos/SP,-22.471162,-48.987822,20,53.47451
1,Aguiar/PB,-7.0928404,-38.1727215,76,1349.91119
D1,Aguiar/PB,-7.0928404,-38.1727215,1,17.76199
1,Aguiarnópolis/TO,-6.5600452,-47.4721189,482,6993.61579
D1,Aguiarnópolis/TO,-6.5600452,-47.4721189,10,145.09576
1,Aimorés/MG,-19.4917754,-41.0615603,1083,4307.70455
D1,Aimorés/MG,-19.4917754,-41.0615603,28,111.37186
1,Aiquara/BA,-14.126918,-39.8887574,364,8242.75362
D1,Aiquara/BA,-14.126918,-39.8887574,6,135.86957
1,Aiuaba/CE,-6.5710836,-40.1212278,127,726.00469
D1,Aiuaba/CE,-6.5710836,-40.1212278,2,11.43314
1,Aiuruoca/MG,-21.9759554,-44.6036637,70,1171.35207
D1,Aiuruoca/MG,-21.9759554,-44.6036637,5,83.66801
1,Ajuricaba/RS,-28.239654,-53.7693013,525,7513.95449
D1,Ajuricaba/RS,-28.239654,-53.7693013,4,57.24918
1,Alagoa Grande/PB,-7.0415212,-35.6285322,1883,6621.18921
D1,Alagoa Grande/PB,-7.0415212,-35.6285322,31,109.00524
1,Alagoa Nova/PB,-7.0653703,-35.76695977336711,547,2614.59777
D1,Alagoa Nova/PB,-7.0653703,-35.76695977336711,11,52.57875
1,Alagoa/MG,-22.1697202,-44.6400042,156,5853.65854
1,Alagoinha do Piauí/PI,-7.0090952,-40.939675,221,2883.23549
D1,Alagoinha do Piauí/PI,-7.0090952,-40.939675,9,117.41683
1,Alagoinha/PB,-6.97063215,-35.51490901897793,1195,8207.41758
D1,Alagoinha/PB,-6.97063215,-35.51490901897793,16,109.89011
1,Alagoinha/PE,-8.50355635,-36.77701174370496,415,2819.67659
D1,Alagoinha/PE,-8.50355635,-36.77701174370496,12,81.53282
1,Alagoinhas/BA,-12.133526,-38.420772,8141,5344.42351
D1,Alagoinhas/BA,-12.133526,-38.420772,115,75.49548
1,Alambari/SP,-23.550338,-47.897971,175,2855.27819
D1,Alambari/SP,-23.550338,-47.897971,6,97.89525
1,Albertina/MG,-20.66164,-43.784039,96,3188.30953
D1,Albertina/MG,-20.66164,-43.784039,5,166.05779
1,Alcantil/PB,-7.7425491,-36.0609604,134,2432.38337
D1,Alcantil/PB,-7.7425491,-36.0609604,1,18.15211
1,Alcinópolis/MS,-18.3264121,-53.7094463,74,1366.06978
D1,Alcinópolis/MS,-18.3264121,-53.7094463,2,36.92080
1,Alcobaça/BA,-17.5215875,-39.1965474,973,4326.36727
D1,Alcobaça/BA,-17.5215875,-39.1965474,16,71.14273
1,Alcântara/MA,-2.4038956,-44.4154241,202,913.53111
D1,Alcântara/MA,-2.4038956,-44.4154241,8,36.17945
1,Alcântaras/CE,-3.586247,-40.5457641,701,5950.25889
D1,Alcântaras/CE,-3.586247,-40.5457641,5,42.44122
1,Aldeias Altas/MA,-4.6291957,-43.4708622,973,3636.43159
D1,Aldeias Altas/MA,-4.6291957,-43.4708622,11,41.11074
1,Alecrim/RS,-27.6566142,-54.7653195,86,1475.88811
D1,Alecrim/RS,-27.6566142,-54.7653195,2,34.32298
1,Alegre/ES,-20.7625787,-41.5318886,1203,4013.34445
D1,Alegre/ES,-20.7625787,-41.5318886,26,86.73895
1,Alegrete do Piauí/PI,-7.2440138,-40.8602296,362,7360.71574
D1,Alegrete do Piauí/PI,-7.2440138,-40.8602296,4,81.33388
1,Alegrete/RS,-29.790166,-55.794862,2794,3825.92978
D1,Alegrete/RS,-29.790166,-55.794862,57,78.05225
1,Alegria/RS,-27.8332103,-54.0574959,205,6075.87433
D1,Alegria/RS,-27.8332103,-54.0574959,1,29.63841
1,Alenquer/PA,-1.946229,-54.738355,1781,3119.52638
D1,Alenquer/PA,-1.946229,-54.738355,30,52.54677
1,Alexandria/RN,-6.414779,-38.0135516,685,5054.23154
D1,Alexandria/RN,-6.414779,-38.0135516,9,66.40596
1,Alexânia/GO,-16.0834049,-48.5077803,1643,5865.76223
D1,Alexânia/GO,-16.0834049,-48.5077803,27,96.39414
1,Alfenas/MG,-21.4297405,-45.9479419,3808,4730.78739
D1,Alfenas/MG,-21.4297405,-45.9479419,85,105.59793
1,Alfredo Chaves/ES,-20.624970400000002,-40.75006690147988,1599,10925.11615
D1,Alfredo Chaves/ES,-20.624970400000002,-40.75006690147988,22,150.31429
1,Alfredo Marcondes/SP,-21.9527,-51.413956,123,2939.77055
D1,Alfredo Marcondes/SP,-21.9527,-51.413956,4,95.60229
1,Alfredo Vasconcelos/MG,-21.145833,-43.776389,138,1976.79416
D1,Alfredo Vasconcelos/MG,-21.145833,-43.776389,4,57.29838
1,Alfredo Wagner/SC,-27.6961513,-49.3326734,539,5344.04125
D1,Alfredo Wagner/SC,-27.6961513,-49.3326734,1,9.91473
1,Algodão de Jandaíra/PB,-6.9040175,-36.0089879,50,1940.24059
1,Alhandra/PB,-7.4304246,-34.9106103,870,4410.19922
D1,Alhandra/PB,-7.4304246,-34.9106103,20,101.38389
1,Aliança do Tocantins/TO,-11.3055927,-48.9409096,311,5817.43360
D1,Aliança do Tocantins/TO,-11.3055927,-48.9409096,5,93.52787
1,Aliança/PE,-7.60398,-35.222696,423,1101.64857
D1,Aliança/PE,-7.60398,-35.222696,30,78.13110
1,Almadina/BA,-14.70466,-39.6381994,464,8647.03690
D1,Almadina/BA,-14.70466,-39.6381994,6,111.81513
1,Almas/TO,-11.5681309,-47.1702803,144,2063.33286
D1,Almas/TO,-11.5681309,-47.1702803,3,42.98610
1,Almeirim/PA,-1.5290377,-52.5788111,2162,6344.64139
D1,Almeirim/PA,-1.5290377,-52.5788111,18,52.82310
1,Almenara/MG,-16.1740678,-40.6904907,2091,4961.67810
D1,Almenara/MG,-16.1740678,-40.6904907,23,54.57609
1,Almino Afonso/RN,-6.1544208,-37.7649018,209,4437.36730
D1,Almino Afonso/RN,-6.1544208,-37.7649018,4,84.92569
1,Almirante Tamandaré do Sul/RS,-28.1141129,-52.9134874,89,4566.44433
1,Almirante Tamandaré/PR,-25.3133048,-49.2997838,4655,3877.84174
D1,Almirante Tamandaré/PR,-25.3133048,-49.2997838,126,104.96414
1,Aloândia/GO,-17.7277983,-49.4809338,161,8106.74723
D1,Aloândia/GO,-17.7277983,-49.4809338,5,251.76234
1,Alpercata/MG,-18.9803616,-41.9827637,331,4451.31791
D1,Alpercata/MG,-18.9803616,-41.9827637,12,161.37708
1,Alpestre/RS,-27.2512339,-53.0349646,150,2472.39163
D1,Alpestre/RS,-27.2512339,-53.0349646,3,49.44783
1,Alpinópolis/MG,-20.863611,-46.387777,425,2129.47189
D1,Alpinópolis/MG,-20.863611,-46.387777,5,25.05261
1,Alta Floresta D'Oeste/RO,-11.9296917,-61.9961284,2294,10093.27702
D1,Alta Floresta D'Oeste/RO,-11.9296917,-61.9961284,27,118.79620
1,Alta Floresta/MT,-9.8715018,-56.0839881,3945,7592.52488
D1,Alta Floresta/MT,-9.8715018,-56.0839881,45,86.60675
1,Altair/SP,-20.5238955,-49.0606135,58,1385.57095
D1,Altair/SP,-20.5238955,-49.0606135,4,95.55662
1,Altamira do Maranhão/MA,-4.1643006,-45.4674574,275,3358.16339
D1,Altamira do Maranhão/MA,-4.1643006,-45.4674574,7,85.48052
1,Altamira do Paraná/PR,-24.799114,-52.7128633,43,2556.48038
D1,Altamira do Paraná/PR,-24.799114,-52.7128633,2,118.90606
1,Altamira/PA,-3.204065,-52.209961,7748,6681.09581
D1,Altamira/PA,-3.204065,-52.209961,157,135.38101
1,Altaneira/CE,-6.9980933,-39.7385742,245,3202.61438
D1,Altaneira/CE,-6.9980933,-39.7385742,7,91.50327
1,Alterosa/MG,-21.249166,-46.143055,447,3079.14858
D1,Alterosa/MG,-21.249166,-46.143055,18,123.99256
1,Altinho/PE,-8.4904095,-36.0607494,668,2906.36965
D1,Altinho/PE,-8.4904095,-36.0607494,12,52.21023
1,Altinópolis/SP,-21.021364,-47.3712,451,2783.43517
D1,Altinópolis/SP,-21.021364,-47.3712,12,74.06036
1,Alto Alegre do Maranhão/MA,-4.2055693,-44.4525287,432,1550.72152
D1,Alto Alegre do Maranhão/MA,-4.2055693,-44.4525287,18,64.61340
1,Alto Alegre do Pindaré/MA,-3.6698186,-45.8462153,1621,5074.66425
D1,Alto Alegre do Pindaré/MA,-3.6698186,-45.8462153,25,78.26441
1,Alto Alegre dos Parecis/RO,-12.1314515,-61.856265,554,4179.55488
D1,Alto Alegre dos Parecis/RO,-12.1314515,-61.856265,15,113.16484
1,Alto Alegre/RR,2.98858,-61.307167,942,6124.83745
D1,Alto Alegre/RR,2.98858,-61.307167,21,136.54096
1,Alto Alegre/RS,-31.780844700000003,-52.81311114489171,32,1983.88097
1,Alto Alegre/SP,-21.5820592,-50.1661976,147,3595.89041
D1,Alto Alegre/SP,-21.5820592,-50.1661976,4,97.84736
1,Alto Araguaia/MT,-17.3156528,-53.2169365,602,3105.49394
D1,Alto Araguaia/MT,-17.3156528,-53.2169365,10,51.58628
1,Alto Bela Vista/SC,-27.4320737,-51.905771,61,3167.18588
D1,Alto Bela Vista/SC,-27.4320737,-51.905771,1,51.92108
1,Alto Boa Vista/MT,-11.6723985,-51.3744431,179,2580.73818
D1,Alto Boa Vista/MT,-11.6723985,-51.3744431,4,57.67013
1,Alto Caparaó/MG,-20.4405661,-41.8683799,251,4258.56804
D1,Alto Caparaó/MG,-20.4405661,-41.8683799,5,84.83203
1,Alto Feliz/RS,-29.3785943,-51.3123751,97,3194.99341
1,Alto Garças/MT,-16.9469683,-53.529427,351,2888.65114
D1,Alto Garças/MT,-16.9469683,-53.529427,16,131.67641
1,Alto Horizonte/GO,-14.1954948,-49.3366993,268,4057.53217
D1,Alto Horizonte/GO,-14.1954948,-49.3366993,3,45.42014
1,Alto Jequitibá/MG,-20.423611,-41.966111,393,4734.36935
D1,Alto Jequitibá/MG,-20.423611,-41.966111,9,108.42067
1,Alto Longá/PI,-5.2549051,-42.2072388,322,2245.62382
D1,Alto Longá/PI,-5.2549051,-42.2072388,6,41.84392
1,Alto Paraguai/MT,-14.513712,-56.4936374,371,3233.67907
D1,Alto Paraguai/MT,-14.513712,-56.4936374,11,95.87728
1,Alto Paraná/PR,-23.131247,-52.318893,418,2813.10990
D1,Alto Paraná/PR,-23.131247,-52.318893,4,26.91971
1,Alto Paraíso de Goiás/GO,-14.1304779,-47.5100161,427,5554.11030
1,Alto Paraíso/PR,-23.508137,-53.728537,62,2309.12477
1,Alto Paraíso/RO,-9.7240103,-63.3188123,707,3236.14226
D1,Alto Paraíso/RO,-9.7240103,-63.3188123,10,45.77287
1,Alto Parnaíba/MA,-9.112506,-45.9310154,591,5271.13807
D1,Alto Parnaíba/MA,-9.112506,-45.9310154,5,44.59508
1,Alto Piquiri/PR,-24.0239021,-53.4417448,324,3313.56106
D1,Alto Piquiri/PR,-24.0239021,-53.4417448,6,61.36224
1,Alto Rio Doce/MG,-21.0239537,-43.4133507,185,1703.65595
D1,Alto Rio Doce/MG,-21.0239537,-43.4133507,15,138.13427
1,Alto Rio Novo/ES,-19.0577208,-41.0171518,457,5803.91161
D1,Alto Rio Novo/ES,-19.0577208,-41.0171518,15,190.50038
1,Alto Santo/CE,-5.5190371,-38.2719351,599,3483.36823
D1,Alto Santo/CE,-5.5190371,-38.2719351,14,81.41428
1,Alto Taquari/MT,-17.8269099,-53.2831736,669,6009.16195
D1,Alto Taquari/MT,-17.8269099,-53.2831736,10,89.82305
1,Alto do Rodrigues/RN,-5.290868,-36.7616726,837,5683.05269
D1,Alto do Rodrigues/RN,-5.290868,-36.7616726,19,129.00598
1,Altos/PI,-5.0393915,-42.4611694,2454,6043.59069
D1,Altos/PI,-5.0393915,-42.4611694,34,83.73353
1,Altônia/PR,-23.8722004,-53.894037,596,2687.59019
D1,Altônia/PR,-23.8722004,-53.894037,5,22.54690
1,Alumínio/SP,-23.5203479,-47.2575256,597,3181.11579
D1,Alumínio/SP,-23.5203479,-47.2575256,20,106.57004
1,Alvarenga/MG,-19.4175,-41.728334,307,7986.47242
D1,Alvarenga/MG,-19.4175,-41.728334,3,78.04370
1,Alvarães/AM,-3.214786,-64.8143124,2134,13156.59679
D1,Alvarães/AM,-3.214786,-64.8143124,30,184.95684
1,Alvinlândia/SP,-22.4431852,-49.7643596,56,1729.99691
1,Alvinópolis/MG,-20.1105199,-43.0601805,281,1852.46226
D1,Alvinópolis/MG,-20.1105199,-43.0601805,3,19.77718
1,Alvorada D'Oeste/RO,-11.346271,-62.284697,461,3268.11286
D1,Alvorada D'Oeste/RO,-11.346271,-62.284697,8,56.71346
1,Alvorada de Minas/MG,-18.7318587,-43.3641479,127,3522.88488
D1,Alvorada de Minas/MG,-18.7318587,-43.3641479,1,27.73925
1,Alvorada do Gurguéia/PI,-8.4465288,-43.8655915,177,3250.68871
D1,Alvorada do Gurguéia/PI,-8.4465288,-43.8655915,5,91.82736
1,Alvorada do Norte/GO,-14.483911,-46.4959897,392,4503.15910
D1,Alvorada do Norte/GO,-14.483911,-46.4959897,2,22.97530
1,Alvorada do Sul/PR,-22.7807269,-51.2307721,317,2755.80283
D1,Alvorada do Sul/PR,-22.7807269,-51.2307721,8,69.54707
1,Alvorada/RS,-29.9981184,-51.0772509,10794,5107.11988
D1,Alvorada/RS,-29.9981184,-51.0772509,285,134.84613
1,Alvorada/TO,-12.478465,-49.124926,666,7932.34874
D1,Alvorada/TO,-12.478465,-49.124926,11,131.01477
1,Além Paraíba/MG,-21.8760576,-42.6810473,1483,4189.14720
D1,Além Paraíba/MG,-21.8760576,-42.6810473,49,138.41417
1,Amajari/RR,3.6523869,-61.4194315,680,5157.37581
D1,Amajari/RR,3.6523869,-61.4194315,16,121.35002
1,Amambai/MS,-23.1082701,-55.2284854,1689,4240.94812
D1,Amambai/MS,-23.1082701,-55.2284854,33,82.86044
1,Amaporã/PR,-23.094272,-52.786597,80,1263.42388
1,Amapá do Maranhão/MA,-1.6762114,-46.0109669,39,556.74518
1,Amapá/AP,2.0529997,-50.7930003,1068,11625.12246
D1,Amapá/AP,2.0529997,-50.7930003,7,76.19462
1,Amaraji/PE,-8.373925,-35.4536527,387,1692.17315
D1,Amaraji/PE,-8.373925,-35.4536527,24,104.94097
1,Amaral Ferrador/RS,-30.8750633,-52.2542051,159,2244.17784
D1,Amaral Ferrador/RS,-30.8750633,-52.2542051,2,28.22865
1,Amaralina/GO,-13.9236199,-49.2962411,18,468.14044
1,Amarante do Maranhão/MA,-5.56913,-46.747284,1174,2813.39117
D1,Amarante do Maranhão/MA,-5.56913,-46.747284,31,74.28886
1,Amarante/PI,-6.2459374,-42.8476238,886,5032.94706
D1,Amarante/PI,-6.2459374,-42.8476238,17,96.56896
1,Amargosa/BA,-13.03793715,-39.60796443875596,1228,3279.82693
D1,Amargosa/BA,-13.03793715,-39.60796443875596,19,50.74651
1,Amaturá/AM,-3.3640509,-68.1994689,1485,12653.37423
D1,Amaturá/AM,-3.3640509,-68.1994689,13,110.77028
1,Americana/SP,-22.7392463,-47.3306032,10179,4205.88551
D1,Americana/SP,-22.7392463,-47.3306032,258,106.60364
1,Americano do Brasil/GO,-16.2515808,-49.9806104,185,3001.29786
D1,Americano do Brasil/GO,-16.2515808,-49.9806104,4,64.89293
1,Ametista do Sul/RS,-27.3617341,-53.1826575,213,2877.21194
D1,Ametista do Sul/RS,-27.3617341,-53.1826575,2,27.01607
1,Amontada/CE,-3.3634586,-39.8284791,1137,2594.17281
D1,Amontada/CE,-3.3634586,-39.8284791,21,47.91348
1,Amorinópolis/GO,-16.6211308,-51.0949921,111,3616.81329
D1,Amorinópolis/GO,-16.6211308,-51.0949921,1,32.58390
1,Amparo de São Francisco/SE,-10.1299754,-36.9269099,77,3235.29412
D1,Amparo de São Francisco/SE,-10.1299754,-36.9269099,2,84.03361
1,Amparo do Serra/MG,-20.5070255,-42.8028462,74,1581.87260
D1,Amparo do Serra/MG,-20.5070255,-42.8028462,3,64.12997
1,Amparo/PB,-7.56394725,-37.04652873235175,56,2487.78321
D1,Amparo/PB,-7.56394725,-37.04652873235175,1,44.42470
1,Amparo/SP,-22.70111,-46.76444,2670,3673.78951
D1,Amparo/SP,-22.70111,-46.76444,42,57.78995
1,Ampére/PR,-25.9168712,-53.4742414,546,2827.40407
D1,Ampére/PR,-25.9168712,-53.4742414,12,62.14075
1,Amélia Rodrigues/BA,-12.4015388,-38.7516971,1073,4283.77515
D1,Amélia Rodrigues/BA,-12.4015388,-38.7516971,20,79.84669
1,América Dourada/BA,-11.4515262,-41.4357517,418,2597.88689
D1,América Dourada/BA,-11.4515262,-41.4357517,2,12.43008
1,Américo Brasiliense/SP,-21.7297099,-48.1052092,1740,4240.59271
D1,Américo Brasiliense/SP,-21.7297099,-48.1052092,33,80.42503
1,Américo de Campos/SP,-20.298476,-49.735904,417,6972.07825
D1,Américo de Campos/SP,-20.298476,-49.735904,13,217.35496
1,Anadia/AL,-9.6830208,-36.3052699,677,3862.83236
D1,Anadia/AL,-9.6830208,-36.3052699,11,62.76389
1,Anagé/BA,-14.6134669,-41.1376308,420,1943.81450
D1,Anagé/BA,-14.6134669,-41.1376308,9,41.65317
1,Anahy/PR,-24.6450861,-53.1337957,80,2869.44046
D1,Anahy/PR,-24.6450861,-53.1337957,2,71.73601
1,Anajatuba/MA,-3.26441,-44.6179916,413,1530.30977
D1,Anajatuba/MA,-3.26441,-44.6179916,13,48.16956
1,Anajás/PA,-0.9878802,-49.9390114,1038,3496.36217
D1,Anajás/PA,-0.9878802,-49.9390114,11,37.05201
1,Analândia/SP,-22.128917,-47.661939,178,3520.56962
D1,Analândia/SP,-22.128917,-47.661939,3,59.33544
1,Anamã/AM,-3.5797356,-61.4049996,1455,10425.62339
D1,Anamã/AM,-3.5797356,-61.4049996,4,28.66151
1,Ananindeua/PA,-1.374035,-48.4016623,13101,2446.28389
D1,Ananindeua/PA,-1.374035,-48.4016623,411,76.74396
1,Ananás/TO,-6.3663053,-48.080238,938,9882.00590
D1,Ananás/TO,-6.3663053,-48.080238,18,189.63338
1,Anapu/PA,-3.4668292,-51.2057035,1139,3981.54298
D1,Anapu/PA,-3.4668292,-51.2057035,23,80.39990
1,Anapurus/MA,-3.6751298,-43.1046001,824,5184.34629
D1,Anapurus/MA,-3.6751298,-43.1046001,7,44.04178
1,Anastácio/MS,-20.4832458,-55.8048448,1422,5634.58414
D1,Anastácio/MS,-20.4832458,-55.8048448,42,166.42232
1,Anaurilândia/MS,-22.185169,-52.719056,143,1575.58396
D1,Anaurilândia/MS,-22.185169,-52.719056,5,55.09035
1,Anchieta/ES,-20.8057672,-40.6454564,2515,8445.54888
D1,Anchieta/ES,-20.8057672,-40.6454564,41,137.68092
1,Anchieta/SC,-26.5350527,-53.3293938,229,4120.92856
D1,Anchieta/SC,-26.5350527,-53.3293938,4,71.98128
1,Andaraí/BA,-12.8059674,-41.3322919,523,3982.63783
D1,Andaraí/BA,-12.8059674,-41.3322919,3,22.84496
1,Andirá/PR,-23.0494761,-50.2310027,967,4852.95594
D1,Andirá/PR,-23.0494761,-50.2310027,15,75.27853
1,Andorinha/BA,-10.3445708,-39.8334411,491,3385.50645
D1,Andorinha/BA,-10.3445708,-39.8334411,7,48.26588
1,Andradas/MG,-22.0680484,-46.5688976,1163,2809.45019
D1,Andradas/MG,-22.0680484,-46.5688976,24,57.97662
1,Andradina/SP,-20.896505,-51.3742765,2818,4926.40117
D1,Andradina/SP,-20.896505,-51.3742765,103,180.06363
1,Andrelândia/MG,-21.739722,-44.308889,181,1482.87727
D1,Andrelândia/MG,-21.739722,-44.308889,3,24.57808
1,André da Rocha/RS,-28.6309124,-51.5733328,55,4095.30901
1,Angatuba/SP,-23.4938938,-48.4110675,614,2409.82770
D1,Angatuba/SP,-23.4938938,-48.4110675,19,74.57122
1,Angelim/PE,-8.8902038,-36.2872987,109,970.96027
D1,Angelim/PE,-8.8902038,-36.2872987,4,35.63157
1,Angelina/SC,-27.5805287,-48.9838759,270,5692.59962
1,Angelândia/MG,-17.7253,-42.2728,53,619.37595
1,Angical do Piauí/PI,-6.0872666,-42.7366138,256,3774.14124
D1,Angical do Piauí/PI,-6.0872666,-42.7366138,6,88.45644
1,Angical/BA,-12.005623,-44.7000236,317,2274.35787
D1,Angical/BA,-12.005623,-44.7000236,5,35.87315
1,Angico/TO,-6.3893733,-47.8656722,178,5153.44528
D1,Angico/TO,-6.3893733,-47.8656722,3,86.85582
1,Angicos/RN,-5.6666344,-36.6009064,243,2076.03588
D1,Angicos/RN,-5.6666344,-36.6009064,6,51.26015
1,Angra dos Reis/RJ,-23.0063966,-44.316326,10619,5128.86150
D1,Angra dos Reis/RJ,-23.0063966,-44.316326,331,159.86940
1,Anguera/BA,-12.1509425,-39.2452469,203,1796.93724
1,Angélica/MS,-22.1588196,-53.7728504,380,3476.03366
D1,Angélica/MS,-22.1588196,-53.7728504,7,64.03220
1,Anhanguera/GO,-18.3338749,-48.220363,42,3620.68966
D1,Anhanguera/GO,-18.3338749,-48.220363,5,431.03448
1,Anhembi/SP,-22.7891096,-48.1316776,73,1070.53820
D1,Anhembi/SP,-22.7891096,-48.1316776,2,29.32981
1,Anhumas/SP,-22.2956478,-51.3873401,144,3474.90347
D1,Anhumas/SP,-22.2956478,-51.3873401,1,24.13127
1,Anicuns/GO,-16.4606451,-49.9572265,1229,5591.19239
D1,Anicuns/GO,-16.4606451,-49.9572265,23,104.63582
1,Anita Garibaldi/SC,-27.6855032,-51.1293873,628,9026.87940
D1,Anita Garibaldi/SC,-27.6855032,-51.1293873,3,43.12204
1,Anitápolis/SC,-27.9041185,-49.1287395,199,6164.80793
1,Anori/AM,-3.7435254,-61.6605203,1671,7780.41626
D1,Anori/AM,-3.7435254,-61.6605203,28,130.37203
1,Anta Gorda/RS,-28.9718745,-52.0069187,378,6341.21792
D1,Anta Gorda/RS,-28.9718745,-52.0069187,1,16.77571
1,Antas/BA,-10.4114649,-38.3308815,707,3629.54977
1,Antonina do Norte/CE,-6.7754187,-39.9879345,103,1396.04229
D1,Antonina do Norte/CE,-6.7754187,-39.9879345,7,94.87666
1,Antonina/PR,-25.4298854,-48.7125431,1467,7741.83334
D1,Antonina/PR,-25.4298854,-48.7125431,37,195.26096
1,Antônio Almeida/PI,-7.2186016,-44.1950248,273,8611.98738
D1,Antônio Almeida/PI,-7.2186016,-44.1950248,5,157.72871
1,Antônio Cardoso/BA,-12.4363122,-39.1200307,197,1687.07716
D1,Antônio Cardoso/BA,-12.4363122,-39.1200307,5,42.81922
1,Antônio Carlos/MG,-21.318334,-43.746666,310,2705.29715
D1,Antônio Carlos/MG,-21.318334,-43.746666,5,43.63382
1,Antônio Carlos/SC,-27.5168462,-48.7684715,905,10507.37258
D1,Antônio Carlos/SC,-27.5168462,-48.7684715,14,162.54499
1,Antônio Dias/MG,-19.6525,-42.872778,224,2415.09434
D1,Antônio Dias/MG,-19.6525,-42.872778,6,64.69003
1,Antônio Gonçalves/BA,-10.5715409,-40.2748824,456,3839.03014
D1,Antônio Gonçalves/BA,-10.5715409,-40.2748824,3,25.25678
1,Antônio João/MS,-22.1892837,-55.9508227,193,2139.68958
D1,Antônio João/MS,-22.1892837,-55.9508227,4,44.34590
1,Antônio Martins/RN,-6.2155812,-37.8890129,179,2502.09673
D1,Antônio Martins/RN,-6.2155812,-37.8890129,2,27.95639
1,Antônio Olinto/PR,-25.9849006,-50.1974516,150,2019.65800
D1,Antônio Olinto/PR,-25.9849006,-50.1974516,1,13.46439
1,Antônio Prado de Minas/MG,-21.0171988,-42.1101106,134,8443.60428
D1,Antônio Prado de Minas/MG,-21.0171988,-42.1101106,3,189.03592
1,Antônio Prado/RS,-28.8567806,-51.2801355,1137,8715.98314
D1,Antônio Prado/RS,-28.8567806,-51.2801355,12,91.98927
1,Anápolis/GO,-16.3332828,-48.9525756,19544,4988.61583
D1,Anápolis/GO,-16.3332828,-48.9525756,465,118.69148
1,Anísio de Abreu/PI,-9.185643,-43.04941,219,2203.66271
D1,Anísio de Abreu/PI,-9.185643,-43.04941,2,20.12477
1,Aparecida d'Oeste/SP,-20.4498109,-50.8808706,413,9932.65993
D1,Aparecida d'Oeste/SP,-20.4498109,-50.8808706,10,240.50024
1,Aparecida de Goiânia/GO,-16.8226769,-49.2452546,43628,7392.74688
D1,Aparecida de Goiânia/GO,-16.8226769,-49.2452546,656,111.15893
1,Aparecida do Rio Doce/GO,-18.2980167,-51.1491312,124,5012.12611
D1,Aparecida do Rio Doce/GO,-18.2980167,-51.1491312,2,80.84074
1,Aparecida do Rio Negro/TO,-9.9513491,-47.9773786,141,2908.41584
D1,Aparecida do Rio Negro/TO,-9.9513491,-47.9773786,3,61.88119
1,Aparecida do Taboado/MS,-20.0840304,-51.1013943,1388,5324.33158
D1,Aparecida do Taboado/MS,-20.0840304,-51.1013943,23,88.22740
1,Aparecida/PB,-6.7859598, -38.0831353,585,6951.04563
D1,Aparecida/PB,-6.7859598, -38.0831353,8,95.05703
1,Aparecida/SP,-22.851552,-45.2340924,1151,3180.87605
D1,Aparecida/SP,-22.851552,-45.2340924,29,80.14371
1,Aperibé/RJ,-21.6211928,-42.1028167,290,2436.77002
D1,Aperibé/RJ,-21.6211928,-42.1028167,10,84.02655
1,Apiacá/ES,-21.152272,-41.569297,436,5771.77654
D1,Apiacá/ES,-21.152272,-41.569297,11,145.61822
1,Apiacás/MT,-9.5678422,-57.394852,393,3821.84187
D1,Apiacás/MT,-9.5678422,-57.394852,1,9.72479
1,Apiaí/SP,-24.5076527,-48.8461582,531,2191.85999
D1,Apiaí/SP,-24.5076527,-48.8461582,20,82.55593
1,Apicum-Açu/MA,-1.5279295,-45.082278,209,1200.25268
D1,Apicum-Açu/MA,-1.5279295,-45.082278,3,17.22851
1,Apiúna/SC,-27.0374658,-49.3885037,488,4498.52507
D1,Apiúna/SC,-27.0374658,-49.3885037,11,101.40118
1,Apodi/RN,-5.6631109,-37.796927,3903,10879.74578
D1,Apodi/RN,-5.6631109,-37.796927,51,142.16424
1,Aporá/BA,-11.6599747,-38.0794757,333,1872.04857
D1,Aporá/BA,-11.6599747,-38.0794757,9,50.59591
1,Aporé/GO,-18.9642193,-51.92804,194,4584.12098
D1,Aporé/GO,-18.9642193,-51.92804,4,94.51796
1,Apuarema/BA,-13.8517897,-39.7457126,508,6956.99808
D1,Apuarema/BA,-13.8517897,-39.7457126,7,95.86415
1,Apucarana/PR,-23.5525327,-51.4610764,3767,2765.09535
D1,Apucarana/PR,-23.5525327,-51.4610764,124,91.01986
1,Apuiarés/CE,-3.9460303,-39.4313298,298,2031.07961
D1,Apuiarés/CE,-3.9460303,-39.4313298,12,81.78844
1,Apuí/AM,-7.1940195,-59.8830192,817,3654.00957
D1,Apuí/AM,-7.1940195,-59.8830192,16,71.55955
1,Aquidabã/SE,-10.2837579,-37.0188687,1292,5959.13473
D1,Aquidabã/SE,-10.2837579,-37.0188687,20,92.24667
1,Aquidauana/MS,-20.473969,-55.7821375,3227,6718.85736
D1,Aquidauana/MS,-20.473969,-55.7821375,84,174.89433
1,Aquiraz/CE,-3.9063117,-38.387504,1715,2118.98437
D1,Aquiraz/CE,-3.9063117,-38.387504,42,51.89349
1,Arabutã/SC,-27.1587028,-52.1438142,191,4476.21280
D1,Arabutã/SC,-27.1587028,-52.1438142,2,46.87134
1,Aracaju/SE,-10.9162061,-37.0774655,72393,10887.67168
D1,Aracaju/SE,-10.9162061,-37.0774655,1038,156.11182
1,Aracati/CE,-4.558259,-37.767894,2884,3846.61554
D1,Aracati/CE,-4.558259,-37.767894,68,90.69690
1,Aracatu/BA,-14.4274236,-41.4604105,479,3671.90494
D1,Aracatu/BA,-14.4274236,-41.4604105,8,61.32618
1,Araci/BA,-11.3356065,-38.9573261,2168,3967.20832
D1,Araci/BA,-11.3356065,-38.9573261,21,38.42776
1,Aracitaba/MG,-21.3425,-43.378611,68,3302.57407
D1,Aracitaba/MG,-21.3425,-43.378611,5,242.83633
1,Aracoiaba/CE,-4.3702577,-38.8084313,967,3644.24345
D1,Aracoiaba/CE,-4.3702577,-38.8084313,18,67.83493
1,Aracruz/ES,-19.8245218,-40.2735025,10247,9938.79788
D1,Aracruz/ES,-19.8245218,-40.2735025,129,125.12003
1,Aragarças/GO,-15.8957166,-52.2514538,1344,6629.50723
D1,Aragarças/GO,-15.8957166,-52.2514538,27,133.18206
1,Aragoiânia/GO,-16.9146388,-49.4499148,508,4839.93902
D1,Aragoiânia/GO,-16.9146388,-49.4499148,6,57.16463
1,Aragominas/TO,-7.1654101,-48.525488,387,6752.74821
D1,Aragominas/TO,-7.1654101,-48.525488,7,122.14273
1,Araguacema/TO,-8.8067391,-49.5560969,163,2278.12718
D1,Araguacema/TO,-8.8067391,-49.5560969,1,13.97624
1,Araguaiana/MT,-15.729144,-51.834112,83,2669.66870
D1,Araguaiana/MT,-15.729144,-51.834112,1,32.16468
1,Araguainha/MT,-16.857016,-53.031778,15,1585.62368
1,Araguanã/MA,-2.9508403,-45.6651986,579,3723.23323
D1,Araguanã/MA,-2.9508403,-45.6651986,4,25.72182
1,Araguanã/TO,-6.5799107,-48.6428482,189,3262.55826
D1,Araguanã/TO,-6.5799107,-48.6428482,11,189.88434
1,Araguapaz/GO,-15.0937927,-50.626417,206,2646.79430
D1,Araguapaz/GO,-15.0937927,-50.626417,7,89.93961
1,Araguari/MG,-18.6511256,-48.1933764,7378,6261.82898
D1,Araguari/MG,-18.6511256,-48.1933764,162,137.49204
1,Araguatins/TO,-5.6522925,-48.1158973,1275,3525.02074
D1,Araguatins/TO,-5.6522925,-48.1158973,33,91.23583
1,Araguaçu/TO,-12.928934,-49.823134,634,7487.89418
D1,Araguaçu/TO,-12.928934,-49.823134,12,141.72670
1,Araguaína/TO,-7.193241,-48.2018597,20270,11053.48973
D1,Araguaína/TO,-7.193241,-48.2018597,260,141.78132
1,Araioses/MA,-2.890914,-41.904993,589,1259.32736
D1,Araioses/MA,-2.890914,-41.904993,10,21.38077
1,Aral Moreira/MS,-22.951141,-55.6268421,285,2311.06066
D1,Aral Moreira/MS,-22.951141,-55.6268421,7,56.76289
1,Aramari/BA,-12.0907897,-38.4985065,324,2826.97845
D1,Aramari/BA,-12.0907897,-38.4985065,7,61.07669
1,Arambaré/RS,-30.9132252,-51.4994625,61,1712.52106
D1,Arambaré/RS,-30.9132252,-51.4994625,2,56.14823
1,Arame/MA,-4.8858769,-46.0102484,958,2923.94091
D1,Arame/MA,-4.8858769,-46.0102484,22,67.14687
1,Aramina/SP,-20.0876144,-47.789201,169,2988.50575
D1,Aramina/SP,-20.0876144,-47.789201,6,106.10080
1,Arandu/SP,-23.1345103,-49.0545651,119,1869.59937
D1,Arandu/SP,-23.1345103,-49.0545651,7,109.97643
1,Arantina/MG,-21.911667,-44.255833,47,1686.40115
D1,Arantina/MG,-21.911667,-44.255833,2,71.76175
1,Arapeí/SP,-22.6738889,-44.4477778,130,5284.55285
D1,Arapeí/SP,-22.6738889,-44.4477778,1,40.65041
1,Arapiraca/AL,-9.754866,-36.661471,15631,6707.23073
D1,Arapiraca/AL,-9.754866,-36.661471,210,90.11058
1,Arapoema/TO,-7.6575001,-49.0641484,240,3627.56953
D1,Arapoema/TO,-7.6575001,-49.0641484,4,60.45949
1,Araponga/MG,-20.666667,-42.520556,228,2697.26724
D1,Araponga/MG,-20.666667,-42.520556,1,11.83012
1,Arapongas/PR,-23.415296,-51.42592,6374,5106.96258
D1,Arapongas/PR,-23.415296,-51.42592,190,152.23139
1,Araporã/MG,-18.4318188,-49.188313,1118,16130.42851
D1,Araporã/MG,-18.4318188,-49.188313,10,144.27932
1,Arapoti/PR,-24.1457957,-49.8224605,1409,4978.79859
D1,Arapoti/PR,-24.1457957,-49.8224605,11,38.86926
1,Araputanga/MT,-15.4710868,-58.346796,1077,6353.60746
D1,Araputanga/MT,-15.4710868,-58.346796,19,112.08778
1,Arapuá/MG,-19.034444,-46.155556,73,2574.95591
1,Arapuã/PR,-24.3079525,-51.7901941,108,3589.23230
D1,Arapuã/PR,-24.3079525,-51.7901941,3,99.70090
1,Araquari/SC,-26.3703324,-48.7210994,1839,4652.86914
D1,Araquari/SC,-26.3703324,-48.7210994,28,70.84303
1,Arara/PB,-6.8271895,-35.7605703,320,2363.01876
D1,Arara/PB,-6.8271895,-35.7605703,9,66.45990
1,Araranguá/SC,-28.9348832,-49.4858389,6214,9023.18963
D1,Araranguá/SC,-28.9348832,-49.4858389,98,142.30328
1,Araraquara/SP,-21.7886713,-48.1773096,9647,4047.59607
D1,Araraquara/SP,-21.7886713,-48.1773096,131,54.96373
1,Araras/SP,-22.3569477,-47.3838889,7566,5583.51660
D1,Araras/SP,-22.3569477,-47.3838889,131,96.67469
1,Ararendá/CE,-4.7504395,-40.8303611,466,4252.21279
D1,Ararendá/CE,-4.7504395,-40.8303611,9,82.12428
1,Arari/MA,-3.4547602,-44.7772723,374,1249.49886
D1,Arari/MA,-3.4547602,-44.7772723,11,36.74997
1,Araricá/RS,-29.6168543,-50.929121,456,7901.57685
D1,Araricá/RS,-29.6168543,-50.929121,11,190.60821
1,Araripe/CE,-7.212861,-40.1359222,478,2207.44435
D1,Araripe/CE,-7.212861,-40.1359222,5,23.09042
1,Araripina/PE,-7.5768582,-40.5038509,3923,4622.69042
D1,Araripina/PE,-7.5768582,-40.5038509,63,74.23643
1,Araruama/RJ,-22.8733203,-42.3428897,3110,2315.83180
D1,Araruama/RJ,-22.8733203,-42.3428897,103,76.69797
1,Araruna/PB,-6.5321155,-35.7397595,525,2565.60622
D1,Araruna/PB,-6.5321155,-35.7397595,15,73.30303
1,Araruna/PR,-23.9320308,-52.4976047,638,4557.14286
D1,Araruna/PR,-23.9320308,-52.4976047,12,85.71429
1,Arataca/BA,-15.2617424,-39.4122943,337,3074.53699
D1,Arataca/BA,-15.2617424,-39.4122943,10,91.23255
1,Aratiba/RS,-27.3955734,-52.3024325,236,3813.21700
D1,Aratiba/RS,-27.3955734,-52.3024325,4,64.63080
1,Aratuba/CE,-4.4195958,-39.0463737,294,2491.10320
D1,Aratuba/CE,-4.4195958,-39.0463737,2,16.94628
1,Aratuípe/BA,-13.077137,-39.0010786,215,2432.95236
D1,Aratuípe/BA,-13.077137,-39.0010786,6,67.89634
1,Araucária/PR,-25.5861107,-49.4051209,12611,8625.02907
D1,Araucária/PR,-25.5861107,-49.4051209,157,107.37686
1,Arauá/SE,-11.2644014,-37.6181058,559,5619.78486
D1,Arauá/SE,-11.2644014,-37.6181058,12,120.63939
1,Araxá/MG,-19.5928536,-46.940241,4888,4553.88170
D1,Araxá/MG,-19.5928536,-46.940241,52,48.44555
1,Araçagi/PB,-6.8519969,-35.3835602,686,4054.13392
D1,Araçagi/PB,-6.8519969,-35.3835602,8,47.27853
1,Araçariguama/SP,-23.438611,-47.061389,709,3101.48731
D1,Araçariguama/SP,-23.438611,-47.061389,19,83.11461
1,Araçatuba/SP,-21.207992,-50.4390225,13535,6831.40782
D1,Araçatuba/SP,-21.207992,-50.4390225,265,133.75124
1,Araçaí/MG,-19.200833,-44.2475,23,977.06032
1,Araçoiaba da Serra/SP,-23.5045367,-47.6168158,1263,3631.81504
D1,Araçoiaba da Serra/SP,-23.5045367,-47.6168158,26,74.76421
1,Araçoiaba/PE,-7.7856903,-35.0898881,235,1133.45874
D1,Araçoiaba/PE,-7.7856903,-35.0898881,20,96.46457
1,Araçu/GO,-16.3561579,-49.6815269,165,4733.21859
D1,Araçu/GO,-16.3561579,-49.6815269,4,114.74469
1,Araçuaí/MG,-16.8484451,-42.0661868,538,1465.46088
D1,Araçuaí/MG,-16.8484451,-42.0661868,15,40.85857
1,Araçás/BA,-12.2139176,-38.2026159,460,3768.02097
D1,Araçás/BA,-12.2139176,-38.2026159,7,57.33945
1,Araújos/MG,-19.948055,-45.165556,333,3542.17636
D1,Araújos/MG,-19.948055,-45.165556,2,21.27433
1,Arceburgo/MG,-21.364444,-46.939722,371,3408.98649
D1,Arceburgo/MG,-21.364444,-46.939722,6,55.13186
1,Arco-Íris/SP,-21.7741308,-50.4668814,49,2763.67738
D1,Arco-Íris/SP,-21.7741308,-50.4668814,4,225.60632
1,Arcos/MG,-20.282223,-45.539444,1699,4207.52848
D1,Arcos/MG,-20.282223,-45.539444,20,49.52947
1,Arcoverde/PE,-8.415192,-37.057748,3802,5081.39317
D1,Arcoverde/PE,-8.415192,-37.057748,81,108.25693
1,Areado/MG,-21.3582771,-46.1476688,368,2424.08273
D1,Areado/MG,-21.3582771,-46.1476688,8,52.69745
1,Areal/RJ,-22.2314922,-43.1056264,375,2959.98106
D1,Areal/RJ,-22.2314922,-43.1056264,14,110.50596
1,Arealva/SP,-22.0301906,-48.9111936,335,3889.46941
D1,Arealva/SP,-22.0301906,-48.9111936,2,23.22071
1,Areia Branca/RN,-4.9506652,-37.1263312,1195,4272.89305
D1,Areia Branca/RN,-4.9506652,-37.1263312,59,210.96292
1,Areia Branca/SE,-10.7591455,-37.3148072,1051,5624.53173
D1,Areia Branca/SE,-10.7591455,-37.3148072,23,123.08680
1,Areia de Baraúnas/PB,-7.1233949,-36.9446216,16,756.14367
1,Areia/PB,-6.9680243,-35.6994783,688,3036.72316
D1,Areia/PB,-6.9680243,-35.6994783,7,30.89689
1,Areial/PB,-7.0501306,-35.9245244,151,2148.85442
D1,Areial/PB,-7.0501306,-35.9245244,5,71.15412
1,Areias/SP,-22.5800929,-44.6975127,153,3927.10472
D1,Areias/SP,-22.5800929,-44.6975127,1,25.66735
1,Areiópolis/SP,-22.6758064,-48.6673653,312,2796.20004
D1,Areiópolis/SP,-22.6758064,-48.6673653,5,44.81090
1,Arenápolis/MT,-14.4610369,-56.8432806,780,8208.79815
D1,Arenápolis/MT,-14.4610369,-56.8432806,9,94.71690
1,Arenópolis/GO,-16.3859286,-51.55937,36,1419.55836
1,Argirita/MG,-21.612761,-42.8371922,182,6730.76923
D1,Argirita/MG,-21.612761,-42.8371922,5,184.91124
1,Aricanduva/MG,-17.8678,-42.5569,21,398.55760
1,Arinos/MG,-15.917223,-46.106111,177,990.93047
D1,Arinos/MG,-15.917223,-46.106111,4,22.39391
1,Aripuanã/MT,-10.175806,-59.4439663,1354,5961.08127
D1,Aripuanã/MT,-10.175806,-59.4439663,18,79.24628
1,Ariquemes/RO,-9.9076522,-63.033069,11057,10095.59636
D1,Ariquemes/RO,-9.9076522,-63.033069,196,178.95784
1,Ariranha do Ivaí/PR,-24.3834527,-51.5876772,81,3920.61955
D1,Ariranha do Ivaí/PR,-24.3834527,-51.5876772,1,48.40271
1,Ariranha/SP,-21.18716,-48.790418,237,2428.02991
D1,Ariranha/SP,-21.18716,-48.790418,12,122.93822
1,Armazém/SC,-28.2624996,-49.0190126,829,9464.55075
D1,Armazém/SC,-28.2624996,-49.0190126,8,91.33463
1,Armação dos Búzios/RJ,-22.7597805,-41.8875267,2767,8025.64028
D1,Armação dos Búzios/RJ,-22.7597805,-41.8875267,23,66.71114
1,Arneiroz/CE,-6.3235099,-40.1603859,79,1007.13921
D1,Arneiroz/CE,-6.3235099,-40.1603859,6,76.49159
1,Aroazes/PI,-6.1108814,-41.7886137,176,3020.42217
D1,Aroazes/PI,-6.1108814,-41.7886137,5,85.80745
1,Aroeiras do Itaim/PI,-7.2797031,-41.5629681,93,3645.62917
D1,Aroeiras do Itaim/PI,-7.2797031,-41.5629681,1,39.20031
1,Aroeiras/PB,-7.5462904,-35.7080002,421,2202.34359
D1,Aroeiras/PB,-7.5462904,-35.7080002,3,15.69366
1,Arraial do Cabo/RJ,-22.9662839,-42.024427,478,1562.44893
D1,Arraial do Cabo/RJ,-22.9662839,-42.024427,9,29.41849
1,Arraial/PI,-6.6541632,-42.5335332,98,2076.27119
D1,Arraial/PI,-6.6541632,-42.5335332,1,21.18644
1,Arraias/TO,-12.9287788,-46.9437231,203,1927.09322
1,Arroio Grande/RS,-32.2384246,-53.0866661,763,4183.57276
D1,Arroio Grande/RS,-32.2384246,-53.0866661,8,43.86446
1,Arroio Trinta/SC,-26.9301976,-51.334928,277,7805.01550
D1,Arroio Trinta/SC,-26.9301976,-51.334928,3,84.53085
1,Arroio do Meio/RS,-29.4020392,-51.9444993,1166,5561.11986
D1,Arroio do Meio/RS,-29.4020392,-51.9444993,9,42.92460
1,Arroio do Padre/RS,-31.4428773,-52.4228985,82,2778.71908
D1,Arroio do Padre/RS,-31.4428773,-52.4228985,1,33.88682
1,Arroio do Sal/RS,-29.549852,-49.8874395,481,4679.44353
D1,Arroio do Sal/RS,-29.549852,-49.8874395,10,97.28573
1,Arroio do Tigre/RS,-29.334158,-53.0888935,461,3436.96414
D1,Arroio do Tigre/RS,-29.334158,-53.0888935,4,29.82181
1,Arroio dos Ratos/RS,-30.0894524,-51.7265541,389,2743.88093
D1,Arroio dos Ratos/RS,-30.0894524,-51.7265541,19,134.01989
1,Artur Nogueira/SP,-22.572737,-47.172679,1853,3348.39176
D1,Artur Nogueira/SP,-22.572737,-47.172679,47,84.92953
1,Aruanã/GO,-14.9162439,-51.0715692,232,2294.75767
D1,Aruanã/GO,-14.9162439,-51.0715692,4,39.56479
1,Arujá/SP,-23.396266,-46.3175449,3641,3994.20780
D1,Arujá/SP,-23.396266,-46.3175449,124,136.02905
1,Arvoredo/SC,-27.0752908,-52.4571847,146,6535.36258
D1,Arvoredo/SC,-27.0752908,-52.4571847,1,44.76276
1,Arvorezinha/RS,-28.87369,-52.17808,406,3895.23170
D1,Arvorezinha/RS,-28.87369,-52.17808,10,95.94167
1,Arês/RN,-6.1969216,-35.1642968,478,3315.53028
D1,Arês/RN,-6.1969216,-35.1642968,11,76.29881
1,Ascurra/SC,-26.9569975,-49.3767752,647,8109.80196
D1,Ascurra/SC,-26.9569975,-49.3767752,3,37.60341
1,Aspásia/SP,-20.160028,-50.728046,66,3630.36304
D1,Aspásia/SP,-20.160028,-50.728046,2,110.01100
1,Assaré/CE,-6.8746791,-39.8741385,983,4186.89837
D1,Assaré/CE,-6.8746791,-39.8741385,21,89.44544
1,Assaí/PR,-23.3736041,-50.8454929,550,3677.94570
D1,Assaí/PR,-23.3736041,-50.8454929,18,120.36913
1,Assis Brasil/AC,-10.9409203,-69.5672108,1010,13405.89328
D1,Assis Brasil/AC,-10.9409203,-69.5672108,10,132.73162
1,Assis Chateaubriand/PR,-24.4054826,-53.5120468,1844,5530.89382
D1,Assis Chateaubriand/PR,-24.4054826,-53.5120468,28,83.98320
1,Assis/SP,-22.6620892,-50.420623,3341,3179.27051
D1,Assis/SP,-22.6620892,-50.420623,59,56.14396
1,Assunção do Piauí/PI,-5.8610212,-41.0485091,196,2492.68727
D1,Assunção do Piauí/PI,-5.8610212,-41.0485091,4,50.87117
1,Assunção/PB,-7.073396,-36.7274003,144,3574.08786
D1,Assunção/PB,-7.073396,-36.7274003,1,24.82005
1,Astolfo Dutra/MG,-21.3132636,-42.8624102,761,5332.86615
D1,Astolfo Dutra/MG,-21.3132636,-42.8624102,13,91.10021
1,Astorga/PR,-23.2350184,-51.6647074,1276,4868.55660
D1,Astorga/PR,-23.2350184,-51.6647074,20,76.30966
1,Atalaia do Norte/AM,-4.3658547,-70.1908742,2242,10991.27365
D1,Atalaia do Norte/AM,-4.3658547,-70.1908742,5,24.51221
1,Atalaia/AL,-9.5029595,-36.0219316,689,1454.66061
D1,Atalaia/AL,-9.5029595,-36.0219316,28,59.11538
1,Atalaia/PR,-23.1513833,-52.0529697,157,4045.34914
D1,Atalaia/PR,-23.1513833,-52.0529697,3,77.29967
1,Atalanta/SC,-27.421916,-49.778863,114,3568.07512
1,Ataléia/MG,-18.04432,-41.1110524,621,4898.24894
D1,Ataléia/MG,-18.04432,-41.1110524,5,39.43840
1,Atibaia/SP,-23.1177393,-46.5547861,5207,3613.76381
D1,Atibaia/SP,-23.1177393,-46.5547861,102,70.79007
1,Atilio Vivacqua/ES,-20.9139369,-41.1947519,918,7583.64312
D1,Atilio Vivacqua/ES,-20.9139369,-41.1947519,14,115.65469
1,Augustinópolis/TO,-5.4662267,-47.8897519,945,5068.92667
D1,Augustinópolis/TO,-5.4662267,-47.8897519,12,64.36732
1,Augusto Corrêa/PA,-1.0229335,-46.6404029,1534,3300.98341
D1,Augusto Corrêa/PA,-1.0229335,-46.6404029,22,47.34135
1,Augusto Pestana/RS,-28.5148413,-53.9906433,140,2120.56952
D1,Augusto Pestana/RS,-28.5148413,-53.9906433,2,30.29385
1,Augusto de Lima/MG,-18.1092963,-44.2651945,122,2514.94537
D1,Augusto de Lima/MG,-18.1092963,-44.2651945,4,82.45723
1,Aurelino Leal/BA,-14.3167137,-39.3256107,723,6398.79635
D1,Aurelino Leal/BA,-14.3167137,-39.3256107,18,159.30613
1,Auriflama/SP,-20.6840418,-50.5554616,839,5500.55727
D1,Auriflama/SP,-20.6840418,-50.5554616,19,124.56566
1,Aurilândia/GO,-16.6772599,-50.4641231,69,2256.37672
D1,Aurilândia/GO,-16.6772599,-50.4641231,3,98.10334
1,Aurora do Pará/PA,-2.1323199,-47.558436,786,2473.79851
D1,Aurora do Pará/PA,-2.1323199,-47.558436,8,25.17861
1,Aurora do Tocantins/TO,-12.71045,-46.407604,128,3383.55802
D1,Aurora do Tocantins/TO,-12.71045,-46.407604,2,52.86809
1,Aurora/CE,-6.9426019,-38.9693765,954,3876.47298
D1,Aurora/CE,-6.9426019,-38.9693765,24,97.52133
1,Aurora/SC,-27.3166417,-49.6368502,290,5102.93859
D1,Aurora/SC,-27.3166417,-49.6368502,6,105.57804
1,Autazes/AM,-3.5833283,-59.1301518,2287,5676.34649
D1,Autazes/AM,-3.5833283,-59.1301518,66,163.81236
1,Avanhandava/SP,-21.4603331,-49.9465156,335,2417.20182
D1,Avanhandava/SP,-21.4603331,-49.9465156,13,93.80186
1,Avaré/SP,-23.1045215,-48.9259103,2305,2526.52578
D1,Avaré/SP,-23.1045215,-48.9259103,33,36.17152
1,Avaí/SP,-22.1564662,-49.3316395,149,2740.98602
D1,Avaí/SP,-22.1564662,-49.3316395,3,55.18764
1,Aveiro/PA,-3.6049239,-55.3310742,457,2785.90588
D1,Aveiro/PA,-3.6049239,-55.3310742,5,30.48037
1,Avelino Lopes/PI,-10.1346855,-43.9489525,200,1765.84849
D1,Avelino Lopes/PI,-10.1346855,-43.9489525,15,132.43864
1,Avelinópolis/GO,-16.4672409,-49.7578661,155,6434.20506
D1,Avelinópolis/GO,-16.4672409,-49.7578661,4,166.04400
1,Axixá do Tocantins/TO,-5.612747,-47.77007,620,6334.93410
D1,Axixá do Tocantins/TO,-5.612747,-47.77007,5,51.08818
1,Axixá/MA,-2.8379465,-44.0561053,154,1264.05647
D1,Axixá/MA,-2.8379465,-44.0561053,3,24.62448
1,Açailândia/MA,-4.9514278,-47.4844564,3883,3432.60756
D1,Açailândia/MA,-4.9514278,-47.4844564,105,92.82096
1,Açu/RN,-5.5836157,-36.9139541,2822,4833.51603
D1,Açu/RN,-5.5836157,-36.9139541,86,147.30063
1,Açucena/MG,-19.073056,-42.546666,221,2359.09479
D1,Açucena/MG,-19.073056,-42.546666,8,85.39710
1,Babaçulândia/TO,-7.2034355,-47.761613,461,4322.14513
D1,Babaçulândia/TO,-7.2034355,-47.761613,4,37.50234
1,Bacabal/MA,-4.2318132,-44.781167,3755,3583.35719
D1,Bacabal/MA,-4.2318132,-44.781167,77,73.48029
1,Bacabeira/MA,-2.9775747,-44.3155943,185,1072.33944
D1,Bacabeira/MA,-2.9775747,-44.3155943,3,17.38929
1,Bacuri/MA,-1.728894,-45.1417148,429,2299.77485
D1,Bacuri/MA,-1.728894,-45.1417148,4,21.44312
1,Bacurituba/MA,-2.7082587,-44.7381309,97,1710.75838
1,Bady Bassitt/SP,-20.9178969,-49.4517911,1524,8580.59794
D1,Bady Bassitt/SP,-20.9178969,-49.4517911,24,135.12753
1,Baependi/MG,-21.959162,-44.8899249,717,3734.56951
D1,Baependi/MG,-21.959162,-44.8899249,10,52.08605
1,Bagre/PA,-1.8994498,-50.2103844,609,1944.13408
D1,Bagre/PA,-1.8994498,-50.2103844,11,35.11572
1,Bagé/RS,-31.3314264,-54.1062808,3481,2868.91664
D1,Bagé/RS,-31.3314264,-54.1062808,82,67.58149
1,Baianópolis/BA,-12.3067564,-44.5383591,189,1356.88133
D1,Baianópolis/BA,-12.3067564,-44.5383591,2,14.35853
1,Baixa Grande do Ribeiro/PI,-7.862861,-45.2113289,1686,14446.06289
D1,Baixa Grande do Ribeiro/PI,-7.862861,-45.2113289,15,128.52369
1,Baixa Grande/BA,-11.9630941,-40.1657537,403,1970.75652
D1,Baixa Grande/BA,-11.9630941,-40.1657537,3,14.67064
1,Baixio/CE,-6.7303544,-38.7170095,152,2411.55006
D1,Baixio/CE,-6.7303544,-38.7170095,4,63.46184
1,Baixo Guandu/ES,-19.5138322,-41.0182089,2286,7342.92689
D1,Baixo Guandu/ES,-19.5138322,-41.0182089,39,125.27303
1,Baião/PA,-2.7903479,-49.6702845,488,1007.03688
D1,Baião/PA,-2.7903479,-49.6702845,20,41.27200
1,Balbinos/SP,-21.9006253,-49.3583966,273,4600.60667
D1,Balbinos/SP,-21.9006253,-49.3583966,3,50.55612
1,Baldim/MG,-19.2913568,-43.9558262,265,3396.12969
D1,Baldim/MG,-19.2913568,-43.9558262,6,76.89350
1,Baliza/GO,-16.1978119,-52.542789,94,1780.30303
1,Balneário Arroio do Silva/SC,-28.9815269,-49.4189932,1189,8853.31348
D1,Balneário Arroio do Silva/SC,-28.9815269,-49.4189932,20,148.92033
1,Balneário Barra do Sul/SC,-26.459842,-48.6061471,953,8636.15768
D1,Balneário Barra do Sul/SC,-26.459842,-48.6061471,17,154.05528
1,Balneário Camboriú/SC,-26.9924395,-48.6339782,17672,12121.04584
D1,Balneário Camboriú/SC,-26.9924395,-48.6339782,192,131.69086
1,Balneário Gaivota/SC,-29.1553098,-49.5808712,783,6953.81883
D1,Balneário Gaivota/SC,-29.1553098,-49.5808712,11,97.69094
1,Balneário Pinhal/RS,-30.2482978,-50.234585,587,4086.88993
D1,Balneário Pinhal/RS,-30.2482978,-50.234585,15,104.43501
1,Balneário Piçarras/SC,-26.7638889,-48.6716667,2760,11610.29783
D1,Balneário Piçarras/SC,-26.7638889,-48.6716667,22,92.54585
1,Balneário Rincão/SC,-28.8235718,-49.2241642,920,7106.44214
D1,Balneário Rincão/SC,-28.8235718,-49.2241642,22,169.93666
1,Balsa Nova/PR,-25.5842234,-49.6312741,628,4796.82249
D1,Balsa Nova/PR,-25.5842234,-49.6312741,11,84.02078
1,Balsas/MA,-7.53214,-46.037163,7291,7600.41281
D1,Balsas/MA,-7.53214,-46.037163,87,90.69207
1,Bambuí/MG,-20.0131996,-45.9777034,408,1707.25584
D1,Bambuí/MG,-20.0131996,-45.9777034,1,4.18445
1,Banabuiú/CE,-5.3046404,-38.919766,712,3900.08764
D1,Banabuiú/CE,-5.3046404,-38.919766,4,21.91060
1,Bananal/SP,-22.6828195,-44.3221095,409,3720.54944
D1,Bananal/SP,-22.6828195,-44.3221095,1,9.09670
1,Bananeiras/PB,-6.7537682,-35.6338343,655,3079.59942
D1,Bananeiras/PB,-6.7537682,-35.6338343,4,18.80671
1,Bandeira do Sul/MG,-21.728056,-46.385555,86,1488.40429
D1,Bandeira do Sul/MG,-21.728056,-46.385555,4,69.22811
1,Bandeira/MG,-15.884444,-40.559167,404,8476.71003
D1,Bandeira/MG,-15.884444,-40.559167,6,125.89173
1,Bandeirante/SC,-26.7677402,-53.6397596,80,3021.14804
D1,Bandeirante/SC,-26.7677402,-53.6397596,1,37.76435
1,Bandeirantes do Tocantins/TO,-7.7635698,-48.579148,226,6291.75947
D1,Bandeirantes do Tocantins/TO,-7.7635698,-48.579148,2,55.67929
1,Bandeirantes/MS,-19.9179623,-54.3646768,254,3495.73355
D1,Bandeirantes/MS,-19.9179623,-54.3646768,4,55.05092
1,Bandeirantes/PR,-23.107788,-50.370407,1815,5815.25744
D1,Bandeirantes/PR,-23.107788,-50.370407,49,156.99593
1,Bannach/PA,-7.3508505,-50.4064531,124,3801.34887
D1,Bannach/PA,-7.3508505,-50.4064531,2,61.31208
1,Banzaê/BA,-10.5827616,-38.6122305,713,5385.19637
D1,Banzaê/BA,-10.5827616,-38.6122305,4,30.21148
1,Baraúna/PB,-6.643394,-36.2531932,158,3182.91700
1,Baraúna/RN,-5.0775002,-37.61752,668,2323.72074
D1,Baraúna/RN,-5.0775002,-37.61752,17,59.13661
1,Barbacena/MG,-21.2254524,-43.7735087,3446,2493.41553
D1,Barbacena/MG,-21.2254524,-43.7735087,79,57.16188
1,Barbalha/CE,-7.3121067,-39.3036427,2706,4419.54661
D1,Barbalha/CE,-7.3121067,-39.3036427,58,94.72790
1,Barbosa Ferraz/PR,-24.0287182,-52.00811,483,4227.20112
D1,Barbosa Ferraz/PR,-24.0287182,-52.00811,6,52.51182
1,Barbosa/SP,-21.265661,-49.951816,240,3213.71184
D1,Barbosa/SP,-21.265661,-49.951816,4,53.56186
1,Barcarena/PA,-1.5107945,-48.6190679,6138,4832.04358
D1,Barcarena/PA,-1.5107945,-48.6190679,133,104.70215
1,Barcelona/RN,-5.9514918,-35.9260284,41,1026.53981
D1,Barcelona/RN,-5.9514918,-35.9260284,3,75.11267
1,Barcelos/AM,-0.9729214,-62.925635,3786,13698.53101
D1,Barcelos/AM,-0.9729214,-62.925635,47,170.05572
1,Bariri/SP,-22.0746355,-48.7394852,1618,4550.31217
D1,Bariri/SP,-22.0746355,-48.7394852,40,112.49227
1,Barra Bonita/SC,-26.6526364,-53.4419581,60,3634.16111
1,Barra Bonita/SP,-22.490859,-48.558349,1889,5228.92100
D1,Barra Bonita/SP,-22.490859,-48.558349,37,102.41931
1,Barra D'Alcântara/PI,-6.5209258,-42.1071089,73,1847.16599
D1,Barra D'Alcântara/PI,-6.5209258,-42.1071089,1,25.30364
1,Barra Funda/RS,-27.9230048,-53.0401045,269,10544.88436
D1,Barra Funda/RS,-27.9230048,-53.0401045,5,196.00157
1,Barra Longa/MG,-20.2833541,-43.0423516,136,2711.86441
1,Barra Mansa/RJ,-22.5394843,-44.1735129,9263,5011.55097
D1,Barra Mansa/RJ,-22.5394843,-44.1735129,282,152.57016
1,Barra Velha/SC,-26.6338203,-48.6835001,2370,7937.03952
D1,Barra Velha/SC,-26.6338203,-48.6835001,41,137.30743
1,Barra da Estiva/BA,-13.6269662,-41.3278287,1074,5266.77128
D1,Barra da Estiva/BA,-13.6269662,-41.3278287,8,39.23107
1,Barra de Guabiraba/PE,-8.4173522,-35.6626669,280,1929.70365
D1,Barra de Guabiraba/PE,-8.4173522,-35.6626669,11,75.80979
1,Barra de Santa Rosa/PB,-6.7218007,-36.0564638,524,3381.29961
D1,Barra de Santa Rosa/PB,-6.7218007,-36.0564638,2,12.90572
1,Barra de Santana/PB,-7.5230865,-35.9988518,265,3174.03282
D1,Barra de Santana/PB,-7.5230865,-35.9988518,3,35.93245
1,Barra de Santo Antônio/AL,-9.4038098,-35.5117693,151,939.75604
D1,Barra de Santo Antônio/AL,-9.4038098,-35.5117693,15,93.35325
1,Barra de São Francisco/ES,-18.7570902,-40.8916119,2166,4815.58060
D1,Barra de São Francisco/ES,-18.7570902,-40.8916119,65,144.51188
1,Barra de São Miguel/AL,-9.8261357,-35.8837777,218,2602.05300
D1,Barra de São Miguel/AL,-9.8261357,-35.8837777,5,59.68011
1,Barra de São Miguel/PB,-7.7528088,-36.3170996,199,3281.12119
D1,Barra de São Miguel/PB,-7.7528088,-36.3170996,1,16.48805
1,Barra do Bugres/MT,-15.0683712,-57.1853688,1589,4500.52398
D1,Barra do Bugres/MT,-15.0683712,-57.1853688,34,96.29818
1,Barra do Chapéu/SP,-24.472203,-49.023784,130,2256.94444
1,Barra do Choça/BA,-14.8638173,-40.5761637,1023,3277.90061
D1,Barra do Choça/BA,-14.8638173,-40.5761637,12,38.45045
1,Barra do Corda/MA,-5.496823,-45.248496,4169,4711.16033
D1,Barra do Corda/MA,-5.496823,-45.248496,48,54.24219
1,Barra do Garças/MT,-15.8916033,-52.2615413,4574,7481.80257
D1,Barra do Garças/MT,-15.8916033,-52.2615413,156,255.17298
1,Barra do Guarita/RS,-27.1888016,-53.7147086,88,2701.87289
1,Barra do Jacaré/PR,-23.1151788,-50.1813945,112,4027.32830
1,Barra do Mendes/BA,-11.8053298,-42.057037,546,3947.08306
D1,Barra do Mendes/BA,-11.8053298,-42.057037,6,43.37454
1,Barra do Ouro/TO,-7.7113784,-47.6743925,92,1986.18307
D1,Barra do Ouro/TO,-7.7113784,-47.6743925,5,107.94473
1,Barra do Piraí/RJ,-22.4703403,-43.8263256,3294,3269.02465
D1,Barra do Piraí/RJ,-22.4703403,-43.8263256,128,127.02949
1,Barra do Quaraí/RS,-30.208947,-57.5505128,164,3879.82020
D1,Barra do Quaraí/RS,-30.208947,-57.5505128,2,47.31488
1,Barra do Ribeiro/RS,-30.2930206,-51.301437,467,3444.96902
D1,Barra do Ribeiro/RS,-30.2930206,-51.301437,29,213.92741
1,Barra do Rio Azul/RS,-27.4101581,-52.4117471,39,2356.49547
D1,Barra do Rio Azul/RS,-27.4101581,-52.4117471,1,60.42296
1,Barra do Rocha/BA,-14.2090974,-39.6004395,203,3617.24875
D1,Barra do Rocha/BA,-14.2090974,-39.6004395,3,53.45688
1,Barra do Turvo/SP,-24.756421,-48.5056942,287,3760.48218
D1,Barra do Turvo/SP,-24.756421,-48.5056942,8,104.82180
1,Barra dos Coqueiros/SE,-10.9075694,-37.0386249,3229,10439.70255
D1,Barra dos Coqueiros/SE,-10.9075694,-37.0386249,37,119.62496
1,Barra/BA,-11.0892702,-43.1420453,1032,1914.30161
D1,Barra/BA,-11.0892702,-43.1420453,16,29.67909
1,Barracão/PR,-26.252395,-53.6349576,492,4771.14042
D1,Barracão/PR,-26.252395,-53.6349576,7,67.88208
1,Barracão/RS,-27.6728964,-51.4582928,181,3443.68341
D1,Barracão/RS,-27.6728964,-51.4582928,4,76.10350
1,Barras/PI,-4.2446153,-42.2920241,3367,7135.74229
D1,Barras/PI,-4.2446153,-42.2920241,61,129.27837
1,Barreira/CE,-4.2883361,-38.641094,404,1789.74881
D1,Barreira/CE,-4.2883361,-38.641094,22,97.46157
1,Barreiras do Piauí/PI,-9.9224524,-45.4763776,41,1223.15036
D1,Barreiras do Piauí/PI,-9.9224524,-45.4763776,1,29.83294
1,Barreiras/BA,-12.1440031,-44.9967406,9039,5758.24176
D1,Barreiras/BA,-12.1440031,-44.9967406,109,69.43781
1,Barreirinha/AM,-2.798863,-57.067897,1838,5658.34436
D1,Barreirinha/AM,-2.798863,-57.067897,40,123.14134
1,Barreirinhas/MA,-2.7541271,-42.8259693,1395,2206.68491
D1,Barreirinhas/MA,-2.7541271,-42.8259693,28,44.29188
1,Barreiros/PE,-8.8159644,-35.1831905,388,907.30521
D1,Barreiros/PE,-8.8159644,-35.1831905,42,98.21345
1,Barretos/SP,-20.5531437,-48.5697509,7545,6142.48614
D1,Barretos/SP,-20.5531437,-48.5697509,181,147.35454
1,Barrinha/SP,-21.1898849,-48.1550642,900,2712.47740
D1,Barrinha/SP,-21.1898849,-48.1550642,36,108.49910
1,Barro Alto/BA,-11.7618025,-41.9094904,560,3719.94154
D1,Barro Alto/BA,-11.7618025,-41.9094904,4,26.57101
1,Barro Alto/GO,-14.9696025,-48.9190985,723,6337.65778
D1,Barro Alto/GO,-14.9696025,-48.9190985,8,70.12623
1,Barro Duro/PI,-5.8180139,-42.5106589,471,6702.71809
D1,Barro Duro/PI,-5.8180139,-42.5106589,7,99.61577
1,Barro Preto/BA,-14.8068289,-39.4727588,400,7342.14391
D1,Barro Preto/BA,-14.8068289,-39.4727588,6,110.13216
1,Barro/CE,-7.1713587,-38.7742136,520,2284.91080
D1,Barro/CE,-7.1713587,-38.7742136,11,48.33465
1,Barrocas/BA,-11.5165,-39.099282894736845,289,1794.47377
D1,Barrocas/BA,-11.5165,-39.099282894736845,4,24.83701
1,Barrolândia/TO,-9.837246,-48.7264346,290,5131.83507
D1,Barrolândia/TO,-9.837246,-48.7264346,4,70.78393
1,Barroquinha/CE,-3.0200371,-41.1339229,839,5576.97421
D1,Barroquinha/CE,-3.0200371,-41.1339229,20,132.94337
1,Barros Cassal/RS,-29.094938,-52.5832366,264,2360.93722
D1,Barros Cassal/RS,-29.094938,-52.5832366,2,17.88589
1,Barroso/MG,-21.187222,-43.976111,459,2196.48753
D1,Barroso/MG,-21.187222,-43.976111,7,33.49763
1,Barueri/SP,-23.5112184,-46.8764612,14308,5165.67864
D1,Barueri/SP,-23.5112184,-46.8764612,505,182.32232
1,Barão de Antonina/SP,-23.6295651,-49.5632104,40,1143.51058
D1,Barão de Antonina/SP,-23.6295651,-49.5632104,1,28.58776
1,Barão de Cocais/MG,-19.9452437,-43.4870298,1411,4293.19053
D1,Barão de Cocais/MG,-19.9452437,-43.4870298,14,42.59721
1,Barão de Cotegipe/RS,-27.6214694,-52.3765316,345,5211.48036
D1,Barão de Cotegipe/RS,-27.6214694,-52.3765316,4,60.42296
1,Barão de Grajaú/MA,-6.7542591,-43.0263477,27,142.67597
D1,Barão de Grajaú/MA,-6.7542591,-43.0263477,1,5.28430
1,Barão de Melgaço/MT,-16.195776,-55.9668049,173,2119.05928
D1,Barão de Melgaço/MT,-16.195776,-55.9668049,6,73.49339
1,Barão de Monte Alto/MG,-21.244722,-42.2375,139,2596.18976
D1,Barão de Monte Alto/MG,-21.244722,-42.2375,6,112.06575
1,Barão do Triunfo/RS,-30.3909877,-51.7375349,208,2766.32531
D1,Barão do Triunfo/RS,-30.3909877,-51.7375349,3,39.89892
1,Barão/RS,-29.372474,-51.494908,266,4288.93905
D1,Barão/RS,-29.372474,-51.494908,4,64.49532
1,Bastos/SP,-21.9222474,-50.7317727,321,1532.00019
D1,Bastos/SP,-21.9222474,-50.7317727,12,57.27104
1,Bataguassu/MS,-21.715899,-52.422058,1589,6812.43301
D1,Bataguassu/MS,-21.715899,-52.422058,16,68.59593
1,Batalha/AL,-9.6733809,-37.1265481,692,3773.58491
D1,Batalha/AL,-9.6733809,-37.1265481,13,70.89105
1,Batalha/PI,-4.022391,-42.0780926,539,2003.34510
D1,Batalha/PI,-4.022391,-42.0780926,15,55.75172
1,Batatais/SP,-20.892867,-47.592149,1243,1973.64243
D1,Batatais/SP,-20.892867,-47.592149,48,76.21467
1,Batayporã/MS,-22.2976466,-53.2685608,425,3744.82333
D1,Batayporã/MS,-22.2976466,-53.2685608,10,88.11349
1,Baturité/CE,-4.3290203,-38.8821055,979,2723.90863
D1,Baturité/CE,-4.3290203,-38.8821055,35,97.38182
1,Bauru/SP,-22.3218102,-49.0705863,23990,6324.85888
D1,Bauru/SP,-22.3218102,-49.0705863,389,102.55815
1,Bayeux/PB,-7.1301631,-34.936532,3583,3686.10022
D1,Bayeux/PB,-7.1301631,-34.936532,138,141.97093
1,Baía Formosa/RN,-6.3691885,-35.0063741,205,2199.09891
D1,Baía Formosa/RN,-6.3691885,-35.0063741,6,64.36387
1,Baía da Traição/PB,-6.691258,-34.9371244,989,10872.91117
D1,Baía da Traição/PB,-6.691258,-34.9371244,8,87.95075
1,Bebedouro/SP,-20.949077,-48.479083,2002,2581.39385
D1,Bebedouro/SP,-20.949077,-48.479083,53,68.33860
1,Beberibe/CE,-4.1810469,-38.1298101,1527,2830.45098
D1,Beberibe/CE,-4.1810469,-38.1298101,33,61.16888
1,Bela Cruz/CE,-3.0529129,-40.167582,1640,5011.91859
D1,Bela Cruz/CE,-3.0529129,-40.167582,25,76.40120
1,Bela Vista da Caroba/PR,-25.8792818,-53.6672545,84,2429.85247
D1,Bela Vista da Caroba/PR,-25.8792818,-53.6672545,1,28.92682
1,Bela Vista de Goiás/GO,-16.9692949,-48.9513071,1343,4404.43395
D1,Bela Vista de Goiás/GO,-16.9692949,-48.9513071,24,78.70917
1,Bela Vista de Minas/MG,-19.8289721,-43.0973688,335,3264.47086
D1,Bela Vista de Minas/MG,-19.8289721,-43.0973688,8,77.95751
1,Bela Vista do Maranhão/MA,-3.7416367,-45.2514192,157,1391.96737
D1,Bela Vista do Maranhão/MA,-3.7416367,-45.2514192,8,70.92827
1,Bela Vista do Paraíso/PR,-22.9948493,-51.1907996,680,4415.87116
D1,Bela Vista do Paraíso/PR,-22.9948493,-51.1907996,15,97.40892
1,Bela Vista do Piauí/PI,-7.9716353,-41.8715061,203,5037.22084
D1,Bela Vista do Piauí/PI,-7.9716353,-41.8715061,5,124.06948
1,Bela Vista do Toldo/SC,-26.274625,-50.466354,38,597.29645
D1,Bela Vista do Toldo/SC,-26.274625,-50.466354,1,15.71833
1,Bela Vista/MS,-22.107327,-56.5317344,300,1212.85628
D1,Bela Vista/MS,-22.107327,-56.5317344,9,36.38569
1,Belford Roxo/RJ,-22.7667284,-43.4033603,16685,3251.68870
D1,Belford Roxo/RJ,-22.7667284,-43.4033603,423,82.43718
1,Belmiro Braga/MG,-21.9486291,-43.413564,80,2335.76642
D1,Belmiro Braga/MG,-21.9486291,-43.413564,3,87.59124
1,Belmonte/BA,-15.8630837,-38.8792845,789,3366.47182
D1,Belmonte/BA,-15.8630837,-38.8792845,8,34.13406
1,Belmonte/SC,-26.8448262,-53.578916,84,3100.77519
D1,Belmonte/SC,-26.8448262,-53.578916,3,110.74197
1,Belo Campo/BA,-15.0338286,-41.2585109,295,1724.23870
D1,Belo Campo/BA,-15.0338286,-41.2585109,4,23.37951
1,Belo Horizonte/MG,-19.9227318,-43.9450948,98462,3904.79877
D1,Belo Horizonte/MG,-19.9227318,-43.9450948,2475,98.15337
1,Belo Jardim/PE,-8.3338293,-36.4176419,1634,2130.73924
D1,Belo Jardim/PE,-8.3338293,-36.4176419,43,56.07209
1,Belo Monte/AL,-9.8269944,-37.2787165,207,3084.94784
D1,Belo Monte/AL,-9.8269944,-37.2787165,6,89.41878
1,Belo Oriente/MG,-19.2232523,-42.4807033,1374,5090.02000
D1,Belo Oriente/MG,-19.2232523,-42.4807033,25,92.61317
1,Belo Vale/MG,-20.407778,-44.024167,277,3588.54774
D1,Belo Vale/MG,-20.407778,-44.024167,6,77.73028
1,Belterra/PA,-2.636091,-54.937392,566,3172.82359
D1,Belterra/PA,-2.636091,-54.937392,14,78.47974
1,Belágua/MA,-3.1604031,-43.5085052,279,3706.16366
D1,Belágua/MA,-3.1604031,-43.5085052,2,26.56748
1,Belém de Maria/PE,-8.6242497,-35.8388934,124,1022.93351
D1,Belém de Maria/PE,-8.6242497,-35.8388934,3,24.74839
1,Belém do Brejo do Cruz/PB,-6.1880727,-37.5332267,460,6259.35501
D1,Belém do Brejo do Cruz/PB,-6.1880727,-37.5332267,5,68.03647
1,Belém do Piauí/PI,-7.3767305,-40.9712156,355,9896.84974
D1,Belém do Piauí/PI,-7.3767305,-40.9712156,5,139.39225
1,Belém do São Francisco/PE,-8.7517707,-38.9625715,292,1408.58659
D1,Belém do São Francisco/PE,-8.7517707,-38.9625715,2,9.64785
1,Belém/AL,-9.5715351,-36.492841,75,1750.70028
D1,Belém/AL,-9.5715351,-36.492841,3,70.02801
1,Belém/PA,-1.45056,-48.4682453,68802,4587.89804
D1,Belém/PA,-1.45056,-48.4682453,2651,176.77564
1,Belém/PB,-6.6967586,-35.5369626,1287,7269.13301
D1,Belém/PB,-6.6967586,-35.5369626,19,107.31432
1,Beneditinos/PI,-5.4565671,-42.3605061,442,4220.37621
D1,Beneditinos/PI,-5.4565671,-42.3605061,15,143.22544
1,Benedito Leite/MA,-7.2173453,-44.5523331,251,4451.93331
D1,Benedito Leite/MA,-7.2173453,-44.5523331,2,35.47357
1,Benedito Novo/SC,-26.7840657,-49.3629511,569,4832.27176
D1,Benedito Novo/SC,-26.7840657,-49.3629511,6,50.95541
1,Benevides/PA,-1.3555577,-48.252235,2379,3730.71133
D1,Benevides/PA,-1.3555577,-48.252235,53,83.11379
1,Benjamin Constant do Sul/RS,-27.5105555,-52.6007689,130,6639.42799
1,Benjamin Constant/AM,-4.3782748,-70.0290603,2233,5082.50825
D1,Benjamin Constant/AM,-4.3782748,-70.0290603,57,129.73711
1,Bento Fernandes/RN,-5.6926846,-35.8207423,44,796.38009
D1,Bento Fernandes/RN,-5.6926846,-35.8207423,2,36.19910
1,Bento Gonçalves/RS,-29.1654014,-51.5197627,8873,7284.71384
D1,Bento Gonçalves/RS,-29.1654014,-51.5197627,160,131.35965
1,Bento de Abreu/SP,-21.2707225,-50.8120444,93,3094.84193
1,Bequimão/MA,-2.4495376,-44.7884889,263,1234.79976
D1,Bequimão/MA,-2.4495376,-44.7884889,13,61.03573
1,Berilo/MG,-16.9515764,-42.4643732,10,84.23181
1,Berizal/MG,-15.6118785,-41.7417382,66,1385.39043
1,Bernardino Batista/PB,-6.4532173,-38.5495418,182,5147.05882
1,Bernardino de Campos/SP,-23.0140216,-49.4760724,243,2177.80964
D1,Bernardino de Campos/SP,-23.0140216,-49.4760724,6,53.77308
1,Bernardo Sayão/TO,-7.8794244,-48.8968905,131,2945.14388
D1,Bernardo Sayão/TO,-7.8794244,-48.8968905,4,89.92806
1,Bernardo do Mearim/MA,-4.6315929,-44.7617508,171,2815.74181
D1,Bernardo do Mearim/MA,-4.6315929,-44.7617508,3,49.39898
1,Bertioga/SP,-23.848568,-46.139586,2987,4615.05184
D1,Bertioga/SP,-23.848568,-46.139586,58,89.61266
1,Bertolínia/PI,-7.6372159,-43.9540611,577,10477.57400
D1,Bertolínia/PI,-7.6372159,-43.9540611,6,108.95224
1,Bertópolis/MG,-17.063333,-40.573889,216,4688.51747
1,Beruri/AM,-3.9007135,-61.3717319,1832,9117.60315
D1,Beruri/AM,-3.9007135,-61.3717319,27,134.37516
1,Betim/MG,-19.968056,-44.198333,17175,3861.42487
D1,Betim/MG,-19.968056,-44.198333,423,95.10234
1,Betânia do Piauí/PI,-8.1460635,-40.7961387,110,1771.33655
D1,Betânia do Piauí/PI,-8.1460635,-40.7961387,2,32.20612
1,Betânia/PE,-8.2742779,-38.0351767,216,1692.12691
D1,Betânia/PE,-8.2742779,-38.0351767,3,23.50176
1,Bezerros/PE,-8.2372132,-35.7558262,2110,3465.83443
D1,Bezerros/PE,-8.2372132,-35.7558262,75,123.19317
1,Bias Fortes/MG,-21.605833,-43.756944,71,2132.77260
D1,Bias Fortes/MG,-21.605833,-43.756944,2,60.07810
1,Bicas/MG,-21.7213723,-43.0604327,484,3325.54624
D1,Bicas/MG,-21.7213723,-43.0604327,15,103.06445
1,Biguaçu/SC,-27.4961277,-48.6542432,6957,10012.08877
D1,Biguaçu/SC,-27.4961277,-48.6542432,73,105.05713
1,Bilac/SP,-21.403962,-50.47464,340,4188.73968
D1,Bilac/SP,-21.403962,-50.47464,6,73.91894
1,Biquinhas/MG,-18.783611,-45.502222,28,1120.89672
1,Birigui/SP,-21.2908491,-50.34144,6367,5098.37208
D1,Birigui/SP,-21.2908491,-50.34144,172,137.72891
1,Biritiba Mirim/SP,-23.5697765,-46.0407456,660,2003.88632
D1,Biritiba Mirim/SP,-23.5697765,-46.0407456,44,133.59242
1,Biritinga/BA,-11.6227908,-38.8066738,166,1038.53854
D1,Biritinga/BA,-11.6227908,-38.8066738,2,12.51251
1,Bituruna/PR,-26.161281,-51.5533319,199,1213.41463
D1,Bituruna/PR,-26.161281,-51.5533319,1,6.09756
1,Blumenau/SC,-26.9195567,-49.0658025,32378,8947.78295
D1,Blumenau/SC,-26.9195567,-49.0658025,311,85.94603
1,Boa Esperança do Iguaçu/PR,-25.6362851,-53.2139114,97,3927.12551
1,Boa Esperança do Sul/SP,-21.9930206,-48.3917372,473,3149.55387
D1,Boa Esperança do Sul/SP,-21.9930206,-48.3917372,8,53.26941
1,Boa Esperança/ES,-18.5395472,-40.2904088,683,4525.57646
D1,Boa Esperança/ES,-18.5395472,-40.2904088,23,152.39862
1,Boa Esperança/MG,-21.0901253,-45.5660195,1002,2491.35981
D1,Boa Esperança/MG,-21.0901253,-45.5660195,30,74.59161
1,Boa Esperança/PR,-24.2411024,-52.7860277,166,4101.80381
D1,Boa Esperança/PR,-24.2411024,-52.7860277,3,74.12898
1,Boa Hora/PI,-4.4094627,-42.1255341,287,4211.29861
D1,Boa Hora/PI,-4.4094627,-42.1255341,3,44.02054
1,Boa Nova/BA,-14.365907,-40.2063056,302,2449.50929
D1,Boa Nova/BA,-14.365907,-40.2063056,5,40.55479
1,Boa Ventura de São Roque/PR,-24.88177,-51.5441292,201,3157.89474
D1,Boa Ventura de São Roque/PR,-24.88177,-51.5441292,3,47.13276
1,Boa Ventura/PB,-7.4202462,-38.2156782,162,3052.57207
D1,Boa Ventura/PB,-7.4202462,-38.2156782,3,56.52911
1,Boa Viagem/CE,-5.1261877,-39.7300055,1744,3195.48528
D1,Boa Viagem/CE,-5.1261877,-39.7300055,44,80.62004
1,Boa Vista da Aparecida/PR,-25.4357216,-53.4067721,372,4933.68700
D1,Boa Vista da Aparecida/PR,-25.4357216,-53.4067721,10,132.62599
1,Boa Vista das Missões/RS,-27.6677983,-53.3127622,35,1673.04015
D1,Boa Vista das Missões/RS,-27.6677983,-53.3127622,1,47.80115
1,Boa Vista do Buricá/RS,-27.6687782,-54.1111913,308,4588.79619
D1,Boa Vista do Buricá/RS,-27.6687782,-54.1111913,4,59.59476
1,Boa Vista do Cadeado/RS,-28.5783827,-53.8123759,79,3200.97245
1,Boa Vista do Gurupi/MA,-1.7981168,-46.3071882,14,167.02458
D1,Boa Vista do Gurupi/MA,-1.7981168,-46.3071882,3,35.79098
1,Boa Vista do Incra/RS,-28.8195551,-53.3866624,102,3899.08257
D1,Boa Vista do Incra/RS,-28.8195551,-53.3866624,1,38.22630
1,Boa Vista do Ramos/AM,-2.9716927,-57.5869819,761,3877.50943
D1,Boa Vista do Ramos/AM,-2.9716927,-57.5869819,11,56.04810
1,Boa Vista do Sul/RS,-29.3510488,-51.6779679,126,4535.63715
D1,Boa Vista do Sul/RS,-29.3510488,-51.6779679,2,71.99424
1,Boa Vista do Tupim/BA,-12.6605988,-40.6083594,148,798.66170
D1,Boa Vista do Tupim/BA,-12.6605988,-40.6083594,3,16.18909
1,Boa Vista/PB,-7.2620711,-36.2415161,235,3293.16143
D1,Boa Vista/PB,-7.2620711,-36.2415161,2,28.02691
1,Boa Vista/RR,2.8208478,-60.6719582,58037,13829.79230
D1,Boa Vista/RR,2.8208478,-60.6719582,705,167.99634
1,Boca da Mata/AL,-9.6452054,-36.2116658,1320,4825.26685
D1,Boca da Mata/AL,-9.6452054,-36.2116658,26,95.04313
1,Boca do Acre/AM,-8.7553487,-67.3930873,2232,6444.34820
D1,Boca do Acre/AM,-8.7553487,-67.3930873,19,54.85780
1,Bocaina de Minas/MG,-22.167778,-44.394722,65,1277.26469
D1,Bocaina de Minas/MG,-22.167778,-44.394722,2,39.30045
1,Bocaina do Sul/SC,-27.745494,-49.942279,288,8256.88073
D1,Bocaina do Sul/SC,-27.745494,-49.942279,3,86.00917
1,Bocaina/PI,-6.9445939,-41.3224599,211,4683.68479
D1,Bocaina/PI,-6.9445939,-41.3224599,3,66.59267
1,Bocaina/SP,-22.1421831,-48.522276,730,5862.51205
D1,Bocaina/SP,-22.1421831,-48.522276,10,80.30838
1,Bocaiúva do Sul/PR,-25.206591,-49.114131,655,4988.95575
D1,Bocaiúva do Sul/PR,-25.206591,-49.114131,3,22.85018
1,Bocaiúva/MG,-17.1160208,-43.8122678,810,1611.74785
D1,Bocaiúva/MG,-17.1160208,-43.8122678,16,31.83699
1,Bodocó/PE,-7.777592,-39.933797,1235,3217.98947
D1,Bodocó/PE,-7.777592,-39.933797,15,39.08489
1,Bodoquena/MS,-20.5508775,-56.6769653,105,1339.62746
D1,Bodoquena/MS,-20.5508775,-56.6769653,2,25.51671
1,Bodó/RN,-5.9866104,-36.4134824,58,2639.96359
1,Bofete/SP,-23.1019554,-48.2610535,356,2986.32665
D1,Bofete/SP,-23.1019554,-48.2610535,4,33.55423
1,Boituva/SP,-23.2838893,-47.6738231,2637,4241.59562
D1,Boituva/SP,-23.2838893,-47.6738231,44,70.77369
1,Bom Conselho/PE,-9.169191,-36.685683,977,2003.40394
D1,Bom Conselho/PE,-9.169191,-36.685683,32,65.61814
1,Bom Despacho/MG,-19.7375242,-45.2517288,1924,3770.47895
D1,Bom Despacho/MG,-19.7375242,-45.2517288,36,70.54950
1,Bom Jardim da Serra/SC,-28.3380324,-49.625588,484,10142.49790
D1,Bom Jardim da Serra/SC,-28.3380324,-49.625588,3,62.86672
1,Bom Jardim de Goiás/GO,-16.2062659,-52.172793,246,2773.70617
D1,Bom Jardim de Goiás/GO,-16.2062659,-52.172793,4,45.10091
1,Bom Jardim de Minas/MG,-21.9476466,-44.1906033,119,1842.39046
D1,Bom Jardim de Minas/MG,-21.9476466,-44.1906033,1,15.48227
1,Bom Jardim/MA,-3.54129,-45.606004,1018,2434.12558
D1,Bom Jardim/MA,-3.54129,-45.606004,30,71.73258
1,Bom Jardim/PE,-7.7961572,-35.5871696,816,2040.86737
D1,Bom Jardim/PE,-7.7961572,-35.5871696,35,87.53720
1,Bom Jardim/RJ,-22.1515328,-42.4186683,639,2313.87601
D1,Bom Jardim/RJ,-22.1515328,-42.4186683,5,18.10545
1,Bom Jesus da Lapa/BA,-13.250571,-43.410754,1644,2359.96670
D1,Bom Jesus da Lapa/BA,-13.250571,-43.410754,19,27.27455
1,Bom Jesus da Penha/MG,-21.0165299,-46.5226644,163,3840.71631
D1,Bom Jesus da Penha/MG,-21.0165299,-46.5226644,2,47.12535
1,Bom Jesus da Serra/BA,-14.3724084,-40.5047119,290,2952.25491
D1,Bom Jesus da Serra/BA,-14.3724084,-40.5047119,1,10.18019
1,Bom Jesus das Selvas/MA,-4.4878075,-46.8526639,2045,5916.04710
D1,Bom Jesus das Selvas/MA,-4.4878075,-46.8526639,19,54.96572
1,Bom Jesus de Goiás/GO,-18.2174587,-49.739721,1199,4674.82845
D1,Bom Jesus de Goiás/GO,-18.2174587,-49.739721,33,128.66500
1,Bom Jesus do Amparo/MG,-19.7045132,-43.4752911,72,1173.97685
D1,Bom Jesus do Amparo/MG,-19.7045132,-43.4752911,3,48.91570
1,Bom Jesus do Araguaia/MT,-12.1725897,-51.5074425,330,4920.96630
D1,Bom Jesus do Araguaia/MT,-12.1725897,-51.5074425,1,14.91202
1,Bom Jesus do Galho/MG,-19.8283191,-42.3162256,283,1904.18517
D1,Bom Jesus do Galho/MG,-19.8283191,-42.3162256,9,60.55713
1,Bom Jesus do Itabapoana/RJ,-21.1341025,-41.680095,1873,5034.54023
D1,Bom Jesus do Itabapoana/RJ,-21.1341025,-41.680095,38,102.14230
1,Bom Jesus do Norte/ES,-21.1254776,-41.6711646,707,7096.96848
D1,Bom Jesus do Norte/ES,-21.1254776,-41.6711646,16,160.61032
1,Bom Jesus do Oeste/SC,-26.6929713,-53.0967453,88,4114.07200
D1,Bom Jesus do Oeste/SC,-26.6929713,-53.0967453,1,46.75082
1,Bom Jesus do Sul/PR,-26.1922507,-53.6002033,136,3879.06446
D1,Bom Jesus do Sul/PR,-26.1922507,-53.6002033,3,85.56760
1,Bom Jesus do Tocantins/PA,-5.0471796,-48.5978362,451,2634.65358
D1,Bom Jesus do Tocantins/PA,-5.0471796,-48.5978362,5,29.20902
1,Bom Jesus do Tocantins/TO,-8.96306,-48.165043,102,2036.74121
1,Bom Jesus dos Perdões/SP,-23.1353864,-46.4648052,847,3259.57283
D1,Bom Jesus dos Perdões/SP,-23.1353864,-46.4648052,6,23.09024
1,Bom Jesus/PB,-6.8156725,-38.6551841,79,3067.96117
D1,Bom Jesus/PB,-6.8156725,-38.6551841,3,116.50485
1,Bom Jesus/PI,-9.0711644,-44.3583926,2202,8673.73065
D1,Bom Jesus/PI,-9.0711644,-44.3583926,24,94.53657
1,Bom Jesus/RN,-5.9887544,-35.5821149,405,3944.67712
D1,Bom Jesus/RN,-5.9887544,-35.5821149,8,77.91955
1,Bom Jesus/RS,-28.6692723,-50.4346894,421,3722.69874
D1,Bom Jesus/RS,-28.6692723,-50.4346894,11,97.26766
1,Bom Jesus/SC,-26.7350604,-52.3916519,201,6575.07360
D1,Bom Jesus/SC,-26.7350604,-52.3916519,3,98.13543
1,Bom Lugar/MA,-4.3728019,-45.0366054,313,1904.12459
D1,Bom Lugar/MA,-4.3728019,-45.0366054,5,30.41733
1,Bom Princípio do Piauí/PI,-3.1912777,-41.6430185,47,831.71120
D1,Bom Princípio do Piauí/PI,-3.1912777,-41.6430185,3,53.08795
1,Bom Princípio/RS,-29.489788,-51.3566782,847,5941.77482
D1,Bom Princípio/RS,-29.489788,-51.3566782,11,77.16591
1,Bom Progresso/RS,-27.5490948,-53.8655601,34,1790.41601
1,Bom Repouso/MG,-22.4657069,-46.1485376,275,2609.85100
D1,Bom Repouso/MG,-22.4657069,-46.1485376,9,85.41331
1,Bom Retiro do Sul/RS,-29.6000007,-51.9359243,537,4334.14044
D1,Bom Retiro do Sul/RS,-29.6000007,-51.9359243,8,64.56820
1,Bom Retiro/SC,-27.798993,-49.486994,340,3379.72167
D1,Bom Retiro/SC,-27.798993,-49.486994,8,79.52286
1,Bom Sucesso de Itararé/SP,-24.3190016,-49.1446207,63,1581.32530
D1,Bom Sucesso de Itararé/SP,-24.3190016,-49.1446207,4,100.40161
1,Bom Sucesso do Sul/PR,-26.0749256,-52.8348629,161,4947.75661
D1,Bom Sucesso do Sul/PR,-26.0749256,-52.8348629,2,61.46281
1,Bom Sucesso/MG,-21.0323516,-44.7598082,197,1118.87318
D1,Bom Sucesso/MG,-21.0323516,-44.7598082,4,22.71824
1,Bom Sucesso/PB,-6.4458948,-37.9297662,80,1614.20500
1,Bom Sucesso/PR,-23.7088019,-51.7651297,342,4838.70968
D1,Bom Sucesso/PR,-23.7088019,-51.7651297,6,84.88964
1,Bombinhas/SC,-27.1519159,-48.4875691,2652,13041.55397
D1,Bombinhas/SC,-27.1519159,-48.4875691,27,132.77600
1,Bonfim do Piauí/PI,-9.1648678,-42.8734415,163,2867.19437
D1,Bonfim do Piauí/PI,-9.1648678,-42.8734415,2,35.18030
1,Bonfim/MG,-20.3266626, -44.2386157,179,2609.32945
D1,Bonfim/MG,-20.3266626, -44.2386157,3,43.73178
1,Bonfim/RR,3.3613818,-59.8427241,1443,11491.59831
D1,Bonfim/RR,3.3613818,-59.8427241,21,167.23740
1,Bonfinópolis de Minas/MG,-16.5660011,-45.98645,216,3967.67083
D1,Bonfinópolis de Minas/MG,-16.5660011,-45.98645,9,165.31962
1,Bonfinópolis/GO,-16.6172709,-48.9615701,401,4042.74624
D1,Bonfinópolis/GO,-16.6172709,-48.9615701,11,110.89828
1,Boninal/BA,-12.7095183,-41.8299984,374,2588.95196
D1,Boninal/BA,-12.7095183,-41.8299984,4,27.68933
1,Bonito de Minas/MG,-15.3191266,-44.7544,14,123.14188
1,Bonito de Santa Fé/PB,-7.3143332,-38.5146677,348,2894.69306
D1,Bonito de Santa Fé/PB,-7.3143332,-38.5146677,11,91.49892
1,Bonito/BA,-11.9665473,-41.2649896,458,2712.62734
D1,Bonito/BA,-11.9665473,-41.2649896,3,17.76830
1,Bonito/MS,-21.1264766,-56.4902208,1387,6250.56332
D1,Bonito/MS,-21.1264766,-56.4902208,22,99.14376
1,Bonito/PA,-1.3605722,-47.3049907,319,1929.82456
D1,Bonito/PA,-1.3605722,-47.3049907,10,60.49607
1,Bonito/PE,-8.4721161,-35.7314591,508,1332.73867
D1,Bonito/PE,-8.4721161,-35.7314591,28,73.45804
1,Bonópolis/GO,-13.649331,-49.8329113,95,2114.40018
D1,Bonópolis/GO,-13.649331,-49.8329113,1,22.25684
1,Boqueirão do Leão/RS,-29.30332,-52.4296817,204,2648.66269
D1,Boqueirão do Leão/RS,-29.30332,-52.4296817,6,77.90184
1,Boqueirão do Piauí/PI,-4.4850148,-42.1095161,316,4917.52256
D1,Boqueirão do Piauí/PI,-4.4850148,-42.1095161,4,62.24712
1,Boqueirão/PB,-7.487004,-36.130887,997,5579.18299
D1,Boqueirão/PB,-7.487004,-36.130887,15,83.93956
1,Boquim/SE,-11.1450175,-37.6204228,1190,4423.95628
D1,Boquim/SE,-11.1450175,-37.6204228,26,96.65787
1,Boquira/BA,-12.8184859,-42.7270883,315,1465.32074
D1,Boquira/BA,-12.8184859,-42.7270883,5,23.25906
1,Boracéia/SP,-22.195355,-48.7801925,286,5875.10271
D1,Boracéia/SP,-22.195355,-48.7801925,3,61.62695
1,Borba/AM,-4.3934778,-59.5947721,1303,3121.10760
D1,Borba/AM,-4.3934778,-59.5947721,40,95.81297
1,Borborema/PB,-6.8066718,-35.5990191,104,1967.08909
D1,Borborema/PB,-6.8066718,-35.5990191,1,18.91432
1,Borborema/SP,-21.6212706,-49.074135,534,3303.63771
D1,Borborema/SP,-21.6212706,-49.074135,13,80.42564
1,Borda da Mata/MG,-22.274167,-46.165278,736,3752.42174
D1,Borda da Mata/MG,-22.274167,-46.165278,22,112.16478
1,Borebi/SP,-22.5700178,-48.9714871,84,3130.82370
D1,Borebi/SP,-22.5700178,-48.9714871,2,74.54342
1,Borrazópolis/PR,-23.9393362,-51.5850786,384,5963.65895
D1,Borrazópolis/PR,-23.9393362,-51.5850786,9,139.77326
1,Borá/SP,-22.2701088,-50.544407,16,1909.30788
1,Bossoroca/RS,-28.7278885,-54.9120278,119,1917.80822
D1,Bossoroca/RS,-28.7278885,-54.9120278,5,80.58018
1,Botelhos/MG,-21.65,-46.394722,357,2388.11961
D1,Botelhos/MG,-21.65,-46.394722,4,26.75764
1,Botucatu/SP,-22.8879628,-48.4410712,6935,4681.69851
D1,Botucatu/SP,-22.8879628,-48.4410712,91,61.43253
1,Botumirim/MG,-16.862778,-43.011111,94,1494.91094
D1,Botumirim/MG,-16.862778,-43.011111,1,15.90331
1,Botuporã/BA,-13.3744752,-42.5198469,114,1125.48129
D1,Botuporã/BA,-13.3744752,-42.5198469,2,19.74529
1,Botuverá/SC,-27.200749,-49.068892,596,11198.79744
D1,Botuverá/SC,-27.200749,-49.068892,3,56.36979
1,Bozano/RS,-28.3669953,-53.7705165,73,3458.07674
1,Braga/RS,-27.617348,-53.740514,80,2416.18846
D1,Braga/RS,-27.617348,-53.740514,2,60.40471
1,Braganey/PR,-24.8179919,-53.118506,172,3195.83798
D1,Braganey/PR,-24.8179919,-53.118506,2,37.16091
1,Bragança Paulista/SP,-22.9520235,-46.5418586,7187,4214.43357
D1,Bragança Paulista/SP,-22.9520235,-46.5418586,133,77.99077
1,Bragança/PA,-1.0573967,-46.7635406,3233,2507.87347
D1,Bragança/PA,-1.0573967,-46.7635406,101,78.34680
1,Branquinha/AL,-9.2478057,-36.0152009,291,2782.02677
D1,Branquinha/AL,-9.2478057,-36.0152009,8,76.48184
1,Brasil Novo/PA,-3.3055853,-52.539198,868,5793.23233
D1,Brasil Novo/PA,-3.3055853,-52.539198,18,120.13615
1,Brasileira/PI,-4.131182,-41.7824969,297,3558.16461
D1,Brasileira/PI,-4.131182,-41.7824969,5,59.90176
1,Brasilândia de Minas/MG,-17.0096469,-46.0087183,614,3666.10939
D1,Brasilândia de Minas/MG,-17.0096469,-46.0087183,7,41.79604
1,Brasilândia do Sul/PR,-24.1975793,-53.527551,132,5106.38298
D1,Brasilândia do Sul/PR,-24.1975793,-53.527551,1,38.68472
1,Brasilândia do Tocantins/TO,-8.3886619,-48.4842729,75,3392.13026
D1,Brasilândia do Tocantins/TO,-8.3886619,-48.4842729,1,45.22840
1,Brasilândia/MS,-21.255575,-52.0365617,254,2142.91740
D1,Brasilândia/MS,-21.255575,-52.0365617,5,42.18341
1,Brasiléia/AC,-11.0010413,-68.7487894,1777,6654.93221
D1,Brasiléia/AC,-11.0010413,-68.7487894,25,93.62595
1,Brasnorte/MT,-12.1227151,-58.0050109,787,3907.64647
D1,Brasnorte/MT,-12.1227151,-58.0050109,8,39.72195
1,Brasília de Minas/MG,-16.2075114,-44.430559,475,1465.82318
D1,Brasília de Minas/MG,-16.2075114,-44.430559,5,15.42972
1,Brasília/DF,-15.7934036,-47.8823172,283706,9286.15920
D1,Brasília/DF,-15.7934036,-47.8823172,4671,152.88943
1,Brazabrantes/GO,-16.4291635,-49.3858216,219,5846.23599
D1,Brazabrantes/GO,-16.4291635,-49.3858216,2,53.39028
1,Brazópolis/MG,-22.4742842,-45.6165577,443,3074.25399
D1,Brazópolis/MG,-22.4742842,-45.6165577,10,69.39625
1,Braço do Norte/SC,-28.2728633,-49.1622712,4966,14659.34585
D1,Braço do Norte/SC,-28.2728633,-49.1622712,43,126.93352
1,Braço do Trombudo/SC,-27.358578,-49.882145,314,8331.12231
D1,Braço do Trombudo/SC,-27.358578,-49.882145,3,79.59671
1,Braúna/SP,-21.5015319,-50.3175246,180,3135.34227
D1,Braúna/SP,-21.5015319,-50.3175246,7,121.92998
1,Braúnas/MG,-19.055556,-42.716111,80,1677.50052
D1,Braúnas/MG,-19.055556,-42.716111,3,62.90627
1,Brejetuba/ES,-20.1465817,-41.2902303,991,7974.57150
D1,Brejetuba/ES,-20.1465817,-41.2902303,3,24.14098
1,Brejinho de Nazaré/TO,-11.0205883,-48.5722906,141,2554.81065
D1,Brejinho de Nazaré/TO,-11.0205883,-48.5722906,6,108.71535
1,Brejinho/PE,-7.3482153,-37.28538,324,4326.92308
D1,Brejinho/PE,-7.3482153,-37.28538,4,53.41880
1,Brejinho/RN,-6.1957907,-35.3583019,541,4230.85947
D1,Brejinho/RN,-6.1957907,-35.3583019,5,39.10221
1,Brejo Alegre/SP,-21.1671191,-50.1850393,174,6022.84528
D1,Brejo Alegre/SP,-21.1671191,-50.1850393,9,311.52648
1,Brejo Grande do Araguaia/PA,-5.7011449,-48.4037308,684,9283.38762
D1,Brejo Grande do Araguaia/PA,-5.7011449,-48.4037308,4,54.28882
1,Brejo Grande/SE,-10.4287358,-36.4667918,238,2849.27571
D1,Brejo Grande/SE,-10.4287358,-36.4667918,9,107.74572
1,Brejo Santo/CE,-7.4909841,-38.9859152,3290,6600.85871
D1,Brejo Santo/CE,-7.4909841,-38.9859152,31,62.19654
1,Brejo da Madre de Deus/PE,-8.1409718,-36.3712527,1262,2463.64080
D1,Brejo da Madre de Deus/PE,-8.1409718,-36.3712527,37,72.23036
1,Brejo de Areia/MA,-4.3316785,-45.5833334,267,2962.05902
D1,Brejo de Areia/MA,-4.3316785,-45.5833334,2,22.18771
1,Brejo do Cruz/PB,-6.32926065,-37.48746163303929,1085,7637.61791
D1,Brejo do Cruz/PB,-6.32926065,-37.48746163303929,12,84.47135
1,Brejo do Piauí/PI,-8.207583,-42.8359849,40,1039.50104
D1,Brejo do Piauí/PI,-8.207583,-42.8359849,3,77.96258
1,Brejo dos Santos/PB,-6.3769367,-37.8243125,167,2583.53960
D1,Brejo dos Santos/PB,-6.3769367,-37.8243125,4,61.88119
1,Brejo/MA,-3.6804397,-42.7529313,708,1931.73447
D1,Brejo/MA,-3.6804397,-42.7529313,18,49.11189
1,Brejolândia/BA,-12.4843845,-43.9611861,126,1186.66416
D1,Brejolândia/BA,-12.4843845,-43.9611861,7,65.92579
1,Brejão/PE,-9.029146,-36.566034,124,1379.77078
D1,Brejão/PE,-9.029146,-36.566034,3,33.38155
1,Brejões/BA,-13.1033754,-39.7909837,418,2939.10842
D1,Brejões/BA,-13.1033754,-39.7909837,7,49.21952
1,Breu Branco/PA,-3.7785073,-49.5684795,440,653.47829
D1,Breu Branco/PA,-3.7785073,-49.5684795,29,43.07016
1,Breves/PA,-1.68036,-50.479085,3569,3448.40913
D1,Breves/PA,-1.68036,-50.479085,99,95.65495
1,Britânia/GO,-15.2427599,-51.1602061,313,5399.34449
D1,Britânia/GO,-15.2427599,-51.1602061,1,17.25030
1,Brochier/RS,-29.556766,-51.5963047,135,2644.98433
1,Brodowski/SP,-20.984532,-47.657217,1136,4494.20422
D1,Brodowski/SP,-20.984532,-47.657217,27,106.81647
1,Brotas de Macaúbas/BA,-12.0019007,-42.6257506,52,513.32675
1,Brotas/SP,-22.2840884,-48.1267265,281,1140.60724
D1,Brotas/SP,-22.2840884,-48.1267265,10,40.59101
1,Brumadinho/MG,-20.143611,-44.2,2030,4991.88511
D1,Brumadinho/MG,-20.143611,-44.2,26,63.93547
1,Brumado/BA,-14.29507325,-41.659307508575985,4615,6853.79075
D1,Brumado/BA,-14.29507325,-41.659307508575985,44,65.34492
1,Brunópolis/SC,-27.310953,-50.837585,73,3082.77027
1,Brusque/SC,-27.0964628,-48.9136323,16310,11845.53595
D1,Brusque/SC,-27.0964628,-48.9136323,128,92.96313
1,Brás Pires/MG,-20.8483109,-43.2430524,95,2212.90473
D1,Brás Pires/MG,-20.8483109,-43.2430524,5,116.46867
1,Bueno Brandão/MG,-22.441976,-46.3517971,263,2392.86689
D1,Bueno Brandão/MG,-22.441976,-46.3517971,6,54.59012
1,Buenos Aires/PE,-7.7218931,-35.326587,80,606.52009
D1,Buenos Aires/PE,-7.7218931,-35.326587,11,83.39651
1,Buenópolis/MG,-17.8756607,-44.1749365,144,1390.90119
D1,Buenópolis/MG,-17.8756607,-44.1749365,5,48.29518
1,Buerarema/BA,-14.9571177,-39.3008035,920,5025.67464
D1,Buerarema/BA,-14.9571177,-39.3008035,27,147.49263
1,Bugre/MG,-19.4257687,-42.2556,286,7180.51720
D1,Bugre/MG,-19.4257687,-42.2556,8,200.85363
1,Bujari/AC,-9.8309656,-67.9520886,556,5335.89251
D1,Bujari/AC,-9.8309656,-67.9520886,8,76.77543
1,Bujaru/PA,-1.5169239,-48.0410699,870,2956.46855
D1,Bujaru/PA,-1.5169239,-48.0410699,26,88.35423
1,Buri/SP,-23.79849,-48.598924,715,3581.26722
D1,Buri/SP,-23.79849,-48.598924,15,75.13148
1,Buritama/SP,-21.0664017,-50.1448077,1189,6880.38887
D1,Buritama/SP,-21.0664017,-50.1448077,35,202.53458
1,Buriti Alegre/GO,-18.1377879,-49.0404411,489,5156.05230
D1,Buriti Alegre/GO,-18.1377879,-49.0404411,13,137.07296
1,Buriti Bravo/MA,-5.8391884,-43.8367876,1019,4256.65232
D1,Buriti Bravo/MA,-5.8391884,-43.8367876,10,41.77284
1,Buriti de Goiás/GO,-16.180644,-50.4287479,121,4886.91438
D1,Buriti de Goiás/GO,-16.180644,-50.4287479,1,40.38772
1,Buriti do Tocantins/TO,-5.3187439,-48.2256609,373,3244.32461
D1,Buriti do Tocantins/TO,-5.3187439,-48.2256609,1,8.69792
1,Buriti dos Lopes/PI,-3.1776723,-41.8707444,848,4281.31469
D1,Buriti dos Lopes/PI,-3.1776723,-41.8707444,12,60.58464
1,Buriti dos Montes/PI,-5.3136171,-41.0971256,322,3896.41820
D1,Buriti dos Montes/PI,-5.3136171,-41.0971256,2,24.20136
1,Buriti/MA,-3.9430944,-42.9244281,711,2468.92145
D1,Buriti/MA,-3.9430944,-42.9244281,5,17.36232
1,Buriticupu/MA,-4.3227472,-46.4516989,2658,3641.94401
D1,Buriticupu/MA,-4.3227472,-46.4516989,20,27.40364
1,Buritinópolis/GO,-14.4589282,-46.4293104,74,2254.03594
1,Buritirama/BA,-10.7148421,-43.6362327,587,2758.97725
D1,Buritirama/BA,-10.7148421,-43.6362327,15,70.50197
1,Buritirana/MA,-5.5897455,-47.0148915,244,1577.55221
D1,Buritirana/MA,-5.5897455,-47.0148915,10,64.65378
1,Buritis/MG,-15.621389,-46.423889,631,2522.68820
D1,Buritis/MG,-15.621389,-46.423889,8,31.98337
1,Buritis/RO,-10.2054937,-63.8281954,2926,7250.47081
D1,Buritis/RO,-10.2054937,-63.8281954,29,71.86044
1,Buritizal/SP,-20.1933264,-47.7097165,106,2348.24989
D1,Buritizal/SP,-20.1933264,-47.7097165,4,88.61320
1,Buritizeiro/MG,-17.3667765,-44.9647781,549,1952.27766
D1,Buritizeiro/MG,-17.3667765,-44.9647781,15,53.34092
1,Butiá/RS,-30.1256795,-51.9692224,767,3660.74838
D1,Butiá/RS,-30.1256795,-51.9692224,26,124.09317
1,Buíque/PE,-8.6239732,-37.157296,1136,1928.07074
D1,Buíque/PE,-8.6239732,-37.157296,13,22.06419
1,Bálsamo/SP,-20.7343722,-49.5807484,766,8381.66101
D1,Bálsamo/SP,-20.7343722,-49.5807484,31,339.20560
0,CASO SEM LOCALIZAÇÃO DEFINIDA/AC,-9.884083190922777,-67.85119819780795,372,42.17998
D0,CASO SEM LOCALIZAÇÃO DEFINIDA/AC,-9.884083190922777,-67.85119819780795,7,0.79371
0,CASO SEM LOCALIZAÇÃO DEFINIDA/AL,-9.931093434363673,-35.609611600637464,634,18.99707
D0,CASO SEM LOCALIZAÇÃO DEFINIDA/AL,-9.931093434363673,-35.609611600637464,16,0.47942
0,CASO SEM LOCALIZAÇÃO DEFINIDA/BA,-13.415069300066518,-38.14174656569957,12304,82.72673
D0,CASO SEM LOCALIZAÇÃO DEFINIDA/BA,-13.415069300066518,-38.14174656569957,141,0.94802
0,CASO SEM LOCALIZAÇÃO DEFINIDA/CE,-3.3445126297392798,-38.624961942434304,7207,78.91961
0,CASO SEM LOCALIZAÇÃO DEFINIDA/ES,-20.30989267097039,-39.81745156645774,3317,82.54016
D0,CASO SEM LOCALIZAÇÃO DEFINIDA/ES,-20.30989267097039,-39.81745156645774,114,2.83677
0,CASO SEM LOCALIZAÇÃO DEFINIDA/GO,-16.701590966270153,-49.164524059025034,1486,21.17306
D0,CASO SEM LOCALIZAÇÃO DEFINIDA/GO,-16.701590966270153,-49.164524059025034,50,0.71242
0,CASO SEM LOCALIZAÇÃO DEFINIDA/MG,-19.97049116501593,-43.8852149072783,9341,44.12628
D0,CASO SEM LOCALIZAÇÃO DEFINIDA/MG,-19.97049116501593,-43.8852149072783,311,1.46914
0,CASO SEM LOCALIZAÇÃO DEFINIDA/MS,-20.391549234908513,-54.645156949758444,818,29.43520
D0,CASO SEM LOCALIZAÇÃO DEFINIDA/MS,-20.391549234908513,-54.645156949758444,15,0.53977
0,CASO SEM LOCALIZAÇÃO DEFINIDA/MT,-15.54791153961863,-56.17143998972475,1322,37.93982
D0,CASO SEM LOCALIZAÇÃO DEFINIDA/MT,-15.54791153961863,-56.17143998972475,88,2.52549
0,CASO SEM LOCALIZAÇÃO DEFINIDA/PA,-0.09317078214359542,-48.0050231510481,1354,15.73894
D0,CASO SEM LOCALIZAÇÃO DEFINIDA/PA,-0.09317078214359542,-48.0050231510481,60,0.69744
0,CASO SEM LOCALIZAÇÃO DEFINIDA/PE,-8.121628543819208,-34.57313921302556,1805,18.88654
D0,CASO SEM LOCALIZAÇÃO DEFINIDA/PE,-8.121628543819208,-34.57313921302556,23,0.24066
0,CASO SEM LOCALIZAÇÃO DEFINIDA/PI,-2.683810218391744,-41.470898009352254,461,14.08396
D0,CASO SEM LOCALIZAÇÃO DEFINIDA/PI,-2.683810218391744,-41.470898009352254,9,0.27496
0,CASO SEM LOCALIZAÇÃO DEFINIDA/PR,-25.69415946385943,-48.10141676336737,7466,65.29673
D0,CASO SEM LOCALIZAÇÃO DEFINIDA/PR,-25.69415946385943,-48.10141676336737,150,1.31188
0,CASO SEM LOCALIZAÇÃO DEFINIDA/RJ,-23.210238986465157,-43.12864305824042,2158,12.49932
D0,CASO SEM LOCALIZAÇÃO DEFINIDA/RJ,-23.210238986465157,-43.12864305824042,100,0.57921
0,CASO SEM LOCALIZAÇÃO DEFINIDA/RN,-5.749310788669161,-34.95302586257457,1086,30.96794
D0,CASO SEM LOCALIZAÇÃO DEFINIDA/RN,-5.749310788669161,-34.95302586257457,20,0.57031
0,CASO SEM LOCALIZAÇÃO DEFINIDA/RR,2.813328208465927,-60.663338675861986,2338,385.96080
D0,CASO SEM LOCALIZAÇÃO DEFINIDA/RR,2.813328208465927,-60.663338675861986,23,3.79688
0,CASO SEM LOCALIZAÇÃO DEFINIDA/SC,-27.675643660562308,-48.18313219398259,12733,177.71635
0,CASO SEM LOCALIZAÇÃO DEFINIDA/SP,-24.30968974555485,-46.21366504207253,10158,22.12154
D0,CASO SEM LOCALIZAÇÃO DEFINIDA/SP,-24.30968974555485,-46.21366504207253,220,0.47910
0,CASO SEM LOCALIZAÇÃO DEFINIDA/TO,-10.213012114749148,-48.40023803990334,479,30.45396
D0,CASO SEM LOCALIZAÇÃO DEFINIDA/TO,-10.213012114749148,-48.40023803990334,4,0.25431
1,Caapiranga/AM,-3.3188884,-61.2096404,515,3877.13619
D1,Caapiranga/AM,-3.3188884,-61.2096404,18,135.51156
1,Caaporã/PB,-7.510234,-34.9154114,1248,5684.35436
D1,Caaporã/PB,-7.510234,-34.9154114,19,86.54065
1,Caarapó/MS,-22.6349267,-54.8240903,1864,6092.89707
D1,Caarapó/MS,-22.6349267,-54.8240903,17,55.56827
1,Caatiba/BA,-14.9782759,-40.4092325,499,7691.12207
D1,Caatiba/BA,-14.9782759,-40.4092325,5,77.06535
1,Cabaceiras do Paraguaçu/BA,-12.5377868,-39.1901339,260,1374.86119
D1,Cabaceiras do Paraguaçu/BA,-12.5377868,-39.1901339,1,5.28793
1,Cabaceiras/PB,-7.4899156,-36.2860501,251,4433.84561
1,Cabeceira Grande/MG,-16.0297,-47.0906,115,1645.67831
D1,Cabeceira Grande/MG,-16.0297,-47.0906,3,42.93074
1,Cabeceiras do Piauí/PI,-4.4733665,-42.3098716,297,2793.97930
D1,Cabeceiras do Piauí/PI,-4.4733665,-42.3098716,7,65.85136
1,Cabeceiras/GO,-15.7995459,-46.9264991,120,1491.42431
D1,Cabeceiras/GO,-15.7995459,-46.9264991,3,37.28561
1,Cabedelo/PB,-6.97324,-34.8351609,4993,7260.75007
D1,Cabedelo/PB,-6.97324,-34.8351609,100,145.41859
1,Cabixi/RO,-13.4956065,-60.5424442,429,8269.08250
D1,Cabixi/RO,-13.4956065,-60.5424442,9,173.47726
1,Cabo Frio/RJ,-22.8804369,-42.0189227,7001,3038.91865
D1,Cabo Frio/RJ,-22.8804369,-42.0189227,293,127.18228
1,Cabo Verde/MG,-21.4743338,-46.3964995,229,1626.99822
D1,Cabo Verde/MG,-21.4743338,-46.3964995,3,21.31439
1,Cabo de Santo Agostinho/PE,-8.2838945,-35.0320984,2793,1336.72180
D1,Cabo de Santo Agostinho/PE,-8.2838945,-35.0320984,316,151.23669
1,Cabreúva/SP,-23.3075813,-47.1324417,2203,4368.51811
D1,Cabreúva/SP,-23.3075813,-47.1324417,53,105.09826
1,Cabrobó/PE,-8.5083701,-39.3106961,1056,3060.60343
D1,Cabrobó/PE,-8.5083701,-39.3106961,9,26.08469
1,Cabrália Paulista/SP,-22.4562909,-49.3385645,145,3417.39335
D1,Cabrália Paulista/SP,-22.4562909,-49.3385645,1,23.56823
1,Cacaulândia/RO,-10.3380043,-62.9007231,258,4115.48891
D1,Cacaulândia/RO,-10.3380043,-62.9007231,4,63.80603
1,Cacequi/RS,-29.8838059,-54.8273443,126,1014.24777
D1,Cacequi/RS,-29.8838059,-54.8273443,2,16.09917
1,Cachoeira Alta/GO,-18.7618269,-50.9432431,877,6924.04863
D1,Cachoeira Alta/GO,-18.7618269,-50.9432431,13,102.63698
1,Cachoeira Dourada/GO,-18.4934204,-49.481062,207,2577.51214
D1,Cachoeira Dourada/GO,-18.4934204,-49.481062,4,49.80700
1,Cachoeira Dourada/MG,-18.517136,-49.5002062,96,3547.67184
1,Cachoeira Grande/MA,-2.9290492,-44.0573223,189,1994.09158
D1,Cachoeira Grande/MA,-2.9290492,-44.0573223,4,42.20300
1,Cachoeira Paulista/SP,-22.666498,-45.015384,877,2611.59584
D1,Cachoeira Paulista/SP,-22.666498,-45.015384,23,68.49111
1,Cachoeira da Prata/MG,-19.524723,-44.453056,170,4734.05737
D1,Cachoeira da Prata/MG,-19.524723,-44.453056,2,55.69479
1,Cachoeira de Goiás/GO,-16.6688414,-50.6435997,30,2235.46945
1,Cachoeira de Minas/MG,-22.3554043,-45.7796324,358,3091.80413
D1,Cachoeira de Minas/MG,-22.3554043,-45.7796324,4,34.54530
1,Cachoeira de Pajeú/MG,-15.965833,-41.496666,293,3103.15611
D1,Cachoeira de Pajeú/MG,-15.965833,-41.496666,4,42.36391
1,Cachoeira do Arari/PA,-1.0143572,-48.9621089,339,1408.74335
D1,Cachoeira do Arari/PA,-1.0143572,-48.9621089,13,54.02261
1,Cachoeira do Piriá/PA,-1.7599443,-46.5446954,542,1566.06663
D1,Cachoeira do Piriá/PA,-1.7599443,-46.5446954,3,8.66827
1,Cachoeira do Sul/RS,-30.0474778,-52.8905413,2594,3168.47647
D1,Cachoeira do Sul/RS,-30.0474778,-52.8905413,34,41.52976
1,Cachoeira dos Índios/PB,-6.9259193,-38.6742159,361,3503.15381
D1,Cachoeira dos Índios/PB,-6.9259193,-38.6742159,11,106.74430
1,Cachoeira/BA,-12.5998256,-38.9665918,731,2177.73408
D1,Cachoeira/BA,-12.5998256,-38.9665918,13,38.72851
1,Cachoeiras de Macacu/RJ,-22.4626861,-42.6534414,1754,2957.69185
D1,Cachoeiras de Macacu/RJ,-22.4626861,-42.6534414,54,91.05779
1,Cachoeirinha/PE,-8.4906364,-36.2338963,332,1619.43320
D1,Cachoeirinha/PE,-8.4906364,-36.2338963,22,107.31184
1,Cachoeirinha/RS,-29.9493353,-51.0898927,6521,4968.75952
D1,Cachoeirinha/RS,-29.9493353,-51.0898927,162,123.43798
1,Cachoeirinha/TO,-6.118647,-47.9208885,113,4947.46060
D1,Cachoeirinha/TO,-6.118647,-47.9208885,2,87.56567
1,Cachoeiro de Itapemirim/ES,-20.848084,-41.11129,16296,7738.29592
D1,Cachoeiro de Itapemirim/ES,-20.848084,-41.11129,318,151.00504
1,Cacimba de Areia/PB,-7.1288513,-37.1575194,22,595.39919
1,Cacimba de Dentro/PB,-6.6425101,-35.7929304,746,4342.76400
D1,Cacimba de Dentro/PB,-6.6425101,-35.7929304,18,104.78519
1,Cacimbas/PB,-7.2125451,-37.0593398,116,1611.33491
D1,Cacimbas/PB,-7.2125451,-37.0593398,6,83.34491
1,Cacimbinhas/AL,-9.401212,-36.991082,376,3453.02599
D1,Cacimbinhas/AL,-9.401212,-36.991082,3,27.55074
1,Cacique Doble/RS,-27.7700117,-51.6616409,190,3744.58021
D1,Cacique Doble/RS,-27.7700117,-51.6616409,1,19.70832
1,Cacoal/RO,-11.4333,-61.4420502,7451,8674.74649
D1,Cacoal/RO,-11.4333,-61.4420502,95,110.60273
1,Caconde/SP,-21.527995,-46.643659,597,3140.61760
D1,Caconde/SP,-21.527995,-46.643659,3,15.78200
1,Caculé/BA,-14.4990734,-42.2233006,533,2288.43759
D1,Caculé/BA,-14.4990734,-42.2233006,7,30.05453
1,Caetanos/BA,-14.3387456,-40.9085971,345,2361.71961
D1,Caetanos/BA,-14.3387456,-40.9085971,3,20.53669
1,Caetanópolis/MG,-19.2947496,-44.4138386,515,4383.35177
D1,Caetanópolis/MG,-19.2947496,-44.4138386,4,34.04545
1,Caetité/BA,-14.0691776,-42.4852428,1160,2270.90308
D1,Caetité/BA,-14.0691776,-42.4852428,7,13.70373
1,Caeté/MG,-19.897777,-43.670278,963,2137.76722
D1,Caeté/MG,-19.897777,-43.670278,27,59.93740
1,Caetés/PE,-8.7728788,-36.6255835,902,3120.67534
D1,Caetés/PE,-8.7728788,-36.6255835,10,34.59729
1,Cafarnaum/BA,-11.691399,-41.468823,659,3559.66078
D1,Cafarnaum/BA,-11.691399,-41.468823,10,54.01610
1,Cafeara/PR,-22.78905,-51.714195,144,4874.74611
D1,Cafeara/PR,-22.78905,-51.714195,2,67.70481
1,Cafelândia/PR,-24.6176963,-53.3218057,1007,5456.22020
D1,Cafelândia/PR,-24.6176963,-53.3218057,6,32.50975
1,Cafelândia/SP,-21.8054355,-49.6030627,523,2931.12145
D1,Cafelândia/SP,-21.8054355,-49.6030627,14,78.46214
1,Cafezal do Sul/PR,-23.900508,-53.512418,117,2918.43352
D1,Cafezal do Sul/PR,-23.900508,-53.512418,1,24.94388
1,Caiabu/SP,-22.0143038,-51.2356597,47,1120.91581
D1,Caiabu/SP,-22.0143038,-51.2356597,2,47.69855
1,Caiana/MG,-20.695555,-41.924723,79,1425.73543
D1,Caiana/MG,-20.695555,-41.924723,2,36.09457
1,Caiapônia/GO,-16.9538779,-51.8090761,491,2569.73884
D1,Caiapônia/GO,-16.9538779,-51.8090761,8,41.86947
1,Caibaté/RS,-28.290475,-54.645407,34,704.95542
D1,Caibaté/RS,-28.290475,-54.645407,3,62.20195
1,Caibi/SC,-27.0751925,-53.2502133,225,3670.47308
D1,Caibi/SC,-27.0751925,-53.2502133,2,32.62643
1,Caicó/RN,-6.4594544,-37.0971911,6878,10063.94217
D1,Caicó/RN,-6.4594544,-37.0971911,79,115.59340
1,Caieiras/SP,-23.3644621,-46.7484765,4381,4262.70980
D1,Caieiras/SP,-23.3644621,-46.7484765,131,127.46290
1,Cairu/BA,-13.4860505,-39.0455744,832,4515.11369
D1,Cairu/BA,-13.4860505,-39.0455744,8,43.41455
1,Caiuá/SP,-21.8319357,-51.9887179,157,2640.43054
D1,Caiuá/SP,-21.8319357,-51.9887179,2,33.63606
1,Caiçara do Norte/RN,-5.0645017,-36.0561226,148,2255.75370
D1,Caiçara do Norte/RN,-5.0645017,-36.0561226,3,45.72474
1,Caiçara do Rio do Vento/RN,-5.757968,-36.00089,112,3014.80485
D1,Caiçara do Rio do Vento/RN,-5.757968,-36.00089,3,80.75370
1,Caiçara/PB,-6.6146866,-35.4681434,502,6980.94841
D1,Caiçara/PB,-6.6146866,-35.4681434,10,139.06272
1,Caiçara/RS,-27.2750478,-53.4310053,276,5872.34043
D1,Caiçara/RS,-27.2750478,-53.4310053,3,63.82979
1,Cajamar/SP,-23.3561111,-46.8769444,2139,2744.63007
D1,Cajamar/SP,-23.3561111,-46.8769444,89,114.19919
1,Cajapió/MA,-2.8778715,-44.6746871,56,499.28673
D1,Cajapió/MA,-2.8778715,-44.6746871,2,17.83167
1,Cajari/MA,-3.3213076,-45.0118757,132,678.62835
D1,Cajari/MA,-3.3213076,-45.0118757,4,20.56450
1,Cajati/SP,-24.7272376,-48.1077914,2436,8549.16825
D1,Cajati/SP,-24.7272376,-48.1077914,49,171.96603
1,Cajazeiras do Piauí/PI,-6.794271,-42.3935024,25,699.69214
D1,Cajazeiras do Piauí/PI,-6.794271,-42.3935024,1,27.98769
1,Cajazeiras/PB,-6.8897849,-38.5570389,4152,6665.70341
D1,Cajazeiras/PB,-6.8897849,-38.5570389,76,122.01191
1,Cajazeirinhas/PB,-6.961442,-37.7993733,80,2496.09984
1,Cajobi/SP,-20.8776238,-48.8106972,409,3859.94715
D1,Cajobi/SP,-20.8776238,-48.8106972,10,94.37524
1,Cajueiro da Praia/PI,-2.931114,-41.340801,445,5798.80115
D1,Cajueiro da Praia/PI,-2.931114,-41.340801,10,130.31014
1,Cajueiro/AL,-9.399589,-36.1524309,403,1889.26914
D1,Cajueiro/AL,-9.399589,-36.1524309,18,84.38423
1,Cajuri/MG,-20.7901414,-42.7954489,160,4026.17011
D1,Cajuri/MG,-20.7901414,-42.7954489,1,25.16356
1,Cajuru/SP,-21.2759978,-47.3046035,537,2034.63039
D1,Cajuru/SP,-21.2759978,-47.3046035,17,64.41102
1,Caldas Brandão/PB,-7.1027959,-35.3254676,373,6169.36818
D1,Caldas Brandão/PB,-7.1027959,-35.3254676,5,82.69931
1,Caldas Novas/GO,-17.745,-48.625,4688,5030.25881
D1,Caldas Novas/GO,-17.745,-48.625,82,87.98661
1,Caldas/MG,-21.923611,-46.386111,357,2455.12688
D1,Caldas/MG,-21.923611,-46.386111,10,68.77106
1,Caldazinha/GO,-16.7116649,-49.0012601,134,3482.32848
D1,Caldazinha/GO,-16.7116649,-49.0012601,2,51.97505
1,Caldeirão Grande do Piauí/PI,-7.3310393,-40.6374433,192,3321.22470
D1,Caldeirão Grande do Piauí/PI,-7.3310393,-40.6374433,1,17.29805
1,Caldeirão Grande/BA,-11.0208483,-40.3041387,515,3845.86663
D1,Caldeirão Grande/BA,-11.0208483,-40.3041387,4,29.87081
1,Califórnia/PR,-23.6672543,-51.3554556,450,5228.91006
D1,Califórnia/PR,-23.6672543,-51.3554556,8,92.95840
1,Calmon/SC,-26.6023644,-51.0992893,17,509.74513
D1,Calmon/SC,-26.6023644,-51.0992893,2,59.97001
1,Calumbi/PE,-7.9389746,-38.1516871,321,5585.52288
D1,Calumbi/PE,-7.9389746,-38.1516871,2,34.80077
1,Calçado/PE,-8.7413446,-36.3351787,212,1924.12416
D1,Calçado/PE,-8.7413446,-36.3351787,2,18.15211
1,Calçoene/AP,2.4981757,-50.9539503,1527,13506.10295
D1,Calçoene/AP,2.4981757,-50.9539503,9,79.60375
1,Camacan/BA,-15.4166631,-39.4930088,1905,5952.00900
D1,Camacan/BA,-15.4166631,-39.4930088,42,131.22540
1,Camacho/MG,-20.625556,-45.156667,46,1603.34611
1,Camalaú/PB,-7.885031,-36.824191,213,3531.75261
D1,Camalaú/PB,-7.885031,-36.824191,3,49.74299
1,Camamu/BA,-13.9438142,-39.1060917,1351,3818.32570
D1,Camamu/BA,-13.9438142,-39.1060917,28,79.13628
1,Camanducaia/MG,-22.755278,-46.144444,1586,7274.89565
D1,Camanducaia/MG,-22.755278,-46.144444,18,82.56502
1,Camapuã/MS,-19.5291747,-54.0434641,317,2315.05149
D1,Camapuã/MS,-19.5291747,-54.0434641,8,58.42401
1,Camaquã/RS,-30.8524752,-51.8075619,3389,5097.92713
D1,Camaquã/RS,-30.8524752,-51.8075619,46,69.19582
1,Camaragibe/PE,-8.0213832,-34.9810768,3105,1954.07145
D1,Camaragibe/PE,-8.0213832,-34.9810768,236,148.52202
1,Camargo/RS,-28.5865661,-52.2031474,195,7111.59737
D1,Camargo/RS,-28.5865661,-52.2031474,2,72.93946
1,Camaçari/BA,-12.6998188,-38.3260762,10034,3297.38221
D1,Camaçari/BA,-12.6998188,-38.3260762,164,53.89383
1,Cambará do Sul/RS,-29.0489517,-50.145412,263,4105.52607
D1,Cambará do Sul/RS,-29.0489517,-50.145412,2,31.22073
1,Cambará/PR,-23.042273,-50.075281,799,3137.51669
D1,Cambará/PR,-23.042273,-50.075281,11,43.19485
1,Cambira/PR,-23.600265,-51.581045,326,4117.72136
D1,Cambira/PR,-23.600265,-51.581045,6,75.78628
1,Camboriú/SC,-27.0273601,-48.6535657,8136,9559.95535
D1,Camboriú/SC,-27.0273601,-48.6535657,91,106.92674
1,Cambuci/RJ,-21.5749919,-41.9107833,433,2791.02746
D1,Cambuci/RJ,-21.5749919,-41.9107833,8,51.56633
1,Cambuquira/MG,-21.853056,-45.2953619,178,1389.32251
D1,Cambuquira/MG,-21.853056,-45.2953619,7,54.63628
1,Cambuí/MG,-22.6122501,-46.0572137,1345,4511.30341
D1,Cambuí/MG,-22.6122501,-46.0572137,18,60.37432
1,Cambé/PR,-23.2782035,-51.2779583,6364,5928.76906
D1,Cambé/PR,-23.2782035,-51.2779583,81,75.46045
1,Cametá/PA,-2.242949,-49.497885,5871,4212.70916
D1,Cametá/PA,-2.242949,-49.497885,126,90.41072
1,Camocim de São Félix/PE,-8.3616757,-35.7638903,324,1714.28571
D1,Camocim de São Félix/PE,-8.3616757,-35.7638903,11,58.20106
1,Camocim/CE,-2.9009918,-40.8427389,2719,4254.61999
D1,Camocim/CE,-2.9009918,-40.8427389,85,133.00577
1,Campanha/MG,-21.8361108,-45.401986,695,4146.28326
D1,Campanha/MG,-21.8361108,-45.401986,12,71.59050
1,Campanário/MG,-18.2398144,-41.7271768,82,2198.39142
1,Campestre da Serra/RS,-28.7966535,-51.0958149,100,2945.50810
1,Campestre de Goiás/GO,-16.7624179,-49.69497,242,6631.95396
D1,Campestre de Goiás/GO,-16.7624179,-49.69497,4,109.61907
1,Campestre do Maranhão/MA,-6.1729113,-47.3640512,599,4144.46828
D1,Campestre do Maranhão/MA,-6.1729113,-47.3640512,17,117.62264
1,Campestre/AL,-8.8481634,-35.5660033,117,1682.48490
D1,Campestre/AL,-8.8481634,-35.5660033,4,57.52085
1,Campestre/MG,-19.6142116,-43.219378,536,2545.83452
D1,Campestre/MG,-19.6142116,-43.219378,6,28.49815
1,Campina Grande do Sul/PR,-25.3046032,-49.0545355,3272,7489.98512
D1,Campina Grande do Sul/PR,-25.3046032,-49.0545355,57,130.47957
1,Campina Grande/PB,-7.2246743,-35.8771292,18347,4455.24238
D1,Campina Grande/PB,-7.2246743,-35.8771292,537,130.40089
1,Campina Verde/MG,-19.535277,-49.486389,312,1579.58688
D1,Campina Verde/MG,-19.535277,-49.486389,12,60.75334
1,Campina da Lagoa/PR,-24.5937926,-52.8038965,341,2428.25607
D1,Campina da Lagoa/PR,-24.5937926,-52.8038965,8,56.96788
1,Campina das Missões/RS,-27.9883295,-54.8411665,216,4001.48203
D1,Campina das Missões/RS,-27.9883295,-54.8411665,6,111.15228
1,Campina do Monte Alegre/SP,-23.5935653,-48.4801876,176,2905.72891
1,Campina do Simão/PR,-25.1086375,-51.8076658,38,984.71107
D1,Campina do Simão/PR,-25.1086375,-51.8076658,1,25.91345
1,Campinas do Piauí/PI,-7.6593687,-41.8814875,107,1903.91459
D1,Campinas do Piauí/PI,-7.6593687,-41.8814875,1,17.79359
1,Campinas do Sul/RS,-27.7167968,-52.6257885,278,5112.17359
D1,Campinas do Sul/RS,-27.7167968,-52.6257885,3,55.16734
1,Campinas/SP,-22.90556,-47.06083,54799,4514.69445
D1,Campinas/SP,-22.90556,-47.06083,1750,144.17627
1,Campinaçu/GO,-13.7869969,-48.5703841,134,3689.42731
1,Campinorte/GO,-14.3136699,-49.1510931,689,5397.99436
D1,Campinorte/GO,-14.3136699,-49.1510931,9,70.51081
1,Campinápolis/MT,-14.5403731,-52.7970626,555,3280.33572
D1,Campinápolis/MT,-14.5403731,-52.7970626,17,100.47875
1,Campo Alegre de Goiás/GO,-17.6337896,-47.779291,74,956.31946
D1,Campo Alegre de Goiás/GO,-17.6337896,-47.779291,2,25.84647
1,Campo Alegre de Lourdes/BA,-9.5160326,-43.0101338,264,916.03053
D1,Campo Alegre de Lourdes/BA,-9.5160326,-43.0101338,5,17.34906
1,Campo Alegre do Fidalgo/PI,-8.3753852,-41.8364191,55,1085.02663
D1,Campo Alegre do Fidalgo/PI,-8.3753852,-41.8364191,1,19.72776
1,Campo Alegre/AL,-9.7798607,-36.3575793,1825,3171.87201
D1,Campo Alegre/AL,-9.7798607,-36.3575793,38,66.04446
1,Campo Alegre/SC,-26.1941684,-49.2657484,606,5058.00851
D1,Campo Alegre/SC,-26.1941684,-49.2657484,21,175.27752
1,Campo Azul/MG,-16.5078525,-44.8133524,52,1359.83264
1,Campo Belo do Sul/SC,-27.8987563,-50.7586887,402,5782.50863
D1,Campo Belo do Sul/SC,-27.8987563,-50.7586887,8,115.07480
1,Campo Belo/MG,-20.8975,-45.277223,2110,3893.99476
D1,Campo Belo/MG,-20.8975,-45.277223,46,84.89278
1,Campo Bom/RS,-29.674694,-51.060601,6045,8703.10115
D1,Campo Bom/RS,-29.674694,-51.060601,97,139.65274
1,Campo Bonito/PR,-25.0328004,-52.992976,116,3082.64682
D1,Campo Bonito/PR,-25.0328004,-52.992976,2,53.14908
1,Campo Erê/SC,-26.3947432,-53.0790495,563,6688.04942
D1,Campo Erê/SC,-26.3947432,-53.0790495,4,47.51722
1,Campo Florido/MG,-19.760833,-48.572223,297,3591.72814
D1,Campo Florido/MG,-19.760833,-48.572223,1,12.09336
