type,name,lat,lon,total,total_per_100k_inhabitants
1,Abadia de Goiás/GO,-16.7572644,-49.4412205,3568,38960.47172
D1,Abadia de Goiás/GO,-16.7572644,-49.4412205,46,502.29308
1,Abadia dos Dourados/MG,-18.4911191,-47.4063589,1692,24095.69923
D1,Abadia dos Dourados/MG,-18.4911191,-47.4063589,20,284.81914
1,Abadiânia/GO,-16.1940946,-48.7067767,1873,8973.31481
D1,Abadiânia/GO,-16.1940946,-48.7067767,55,263.49830
1,Abaetetuba/PA,-1.721828,-48.878843,10714,6677.92744
D1,Abaetetuba/PA,-1.721828,-48.878843,239,148.96627
1,Abaeté/MG,-19.1566833,-45.4481213,3690,15862.09861
D1,Abaeté/MG,-19.1566833,-45.4481213,50,214.93359
1,Abaiara/CE,-7.3607808,-39.0487878,1171,9786.87840
D1,Abaiara/CE,-7.3607808,-39.0487878,20,167.15420
1,Abaré/BA,-8.7239913,-39.1139689,2602,12634.74798
D1,Abaré/BA,-8.7239913,-39.1139689,17,82.54832
1,Abatiá/PR,-23.3052967,-50.3102532,1691,22975.54348
D1,Abatiá/PR,-23.3052967,-50.3102532,23,312.50000
1,Abaíra/BA,-13.2503296,-41.6640342,343,3951.15770
D1,Abaíra/BA,-13.2503296,-41.6640342,17,195.82997
1,Abdon Batista/SC,-27.612419,-51.022992,511,20165.74586
D1,Abdon Batista/SC,-27.612419,-51.022992,4,157.85320
1,Abel Figueiredo/PA,-4.953001,-48.3958485,1443,19148.08917
D1,Abel Figueiredo/PA,-4.953001,-48.3958485,12,159.23567
1,Abelardo Luz/SC,-26.5705893,-52.3280339,2369,13150.15265
D1,Abelardo Luz/SC,-26.5705893,-52.3280339,68,377.46323
1,Abre Campo/MG,-20.2976097,-42.4764741,1984,14768.49784
D1,Abre Campo/MG,-20.2976097,-42.4764741,19,141.43219
1,Abreu e Lima/PE,-7.900719,-34.898389,4925,4890.86178
D1,Abreu e Lima/PE,-7.900719,-34.898389,259,257.20471
1,Abreulândia/TO,-9.6221526,-49.1558343,510,19547.71943
D1,Abreulândia/TO,-9.6221526,-49.1558343,8,306.63089
1,Acaiaca/MG,-20.3621646,-43.1444162,270,6758.44806
D1,Acaiaca/MG,-20.3621646,-43.1444162,12,300.37547
1,Acajutiba/BA,-11.6609659,-38.0186381,638,4193.50598
D1,Acajutiba/BA,-11.6609659,-38.0186381,26,170.89523
1,Acarape/CE,-4.2237866,-38.7071663,3361,22199.47160
D1,Acarape/CE,-4.2237866,-38.7071663,36,237.78071
1,Acaraú/CE,-2.8869514,-40.1194713,7054,11098.87343
D1,Acaraú/CE,-2.8869514,-40.1194713,121,190.38328
1,Acari/RN,-6.4364689,-36.6394777,1442,12983.97263
D1,Acari/RN,-6.4364689,-36.6394777,25,225.10355
1,Acará/PA,-1.961388,-48.1987043,2457,4407.64925
D1,Acará/PA,-1.961388,-48.1987043,42,75.34443
1,Acauã/PI,-8.219542,-41.083059,250,3511.72918
D1,Acauã/PI,-8.219542,-41.083059,2,28.09383
1,Aceguá/RS,-31.8695131,-54.1615593,1001,20096.36619
D1,Aceguá/RS,-31.8695131,-54.1615593,8,160.61032
1,Acopiara/CE,-6.0936464,-39.4543204,5944,10869.12795
D1,Acopiara/CE,-6.0936464,-39.4543204,170,310.85999
1,Acorizal/MT,-15.2001544,-56.3668953,1452,27349.78339
D1,Acorizal/MT,-15.2001544,-56.3668953,24,452.06254
1,Acrelândia/AC,-10.0759167,-67.0526898,2935,18669.29585
D1,Acrelândia/AC,-10.0759167,-67.0526898,40,254.43674
1,Acreúna/GO,-17.3959899,-50.3749031,5334,23487.45046
D1,Acreúna/GO,-17.3959899,-50.3749031,83,365.47776
1,Adamantina/SP,-21.6866517,-51.0762975,9130,25972.17876
D1,Adamantina/SP,-21.6866517,-51.0762975,178,506.35792
1,Adelândia/GO,-16.4155077,-50.1665834,674,26799.20477
D1,Adelândia/GO,-16.4155077,-50.1665834,6,238.56859
1,Adolfo/SP,-21.2356597,-49.6441918,942,26572.63752
D1,Adolfo/SP,-21.2356597,-49.6441918,25,705.21862
1,Adrianópolis/PR,-24.6557863,-48.9912769,1957,33758.84078
D1,Adrianópolis/PR,-24.6557863,-48.9912769,30,517.50906
1,Adustina/BA,-10.5358875,-38.114479,1476,8576.90743
D1,Adustina/BA,-10.5358875,-38.114479,28,162.70556
1,Afogados da Ingazeira/PE,-7.750429,-37.6356375,8697,23163.58600
D1,Afogados da Ingazeira/PE,-7.750429,-37.6356375,79,210.40857
1,Afonso Bezerra/RN,-5.4745,-36.57625071327935,1288,11683.59942
D1,Afonso Bezerra/RN,-5.4745,-36.57625071327935,19,172.35123
1,Afonso Cláudio/ES,-20.077841,-41.12606,8030,26478.92897
D1,Afonso Cláudio/ES,-20.077841,-41.12606,84,276.99004
1,Afonso Cunha/MA,-4.1326105,-43.3230026,301,4539.28518
D1,Afonso Cunha/MA,-4.1326105,-43.3230026,3,45.24204
1,Afrânio/PE,-8.5198919,-41.0070197,1511,7562.18407
D1,Afrânio/PE,-8.5198919,-41.0070197,16,80.07607
1,Afuá/PA,-0.1535664,-50.3879223,3496,8759.70935
D1,Afuá/PA,-0.1535664,-50.3879223,17,42.59584
1,Agrestina/PE,-8.4558021,-35.9442663,2919,11564.97623
D1,Agrestina/PE,-8.4558021,-35.9442663,73,289.22345
1,Agricolândia/PI,-5.7967843,-42.6605131,841,16416.16240
D1,Agricolândia/PI,-5.7967843,-42.6605131,10,195.19813
1,Agrolândia/SC,-27.4122212,-49.8295774,2273,20367.38351
D1,Agrolândia/SC,-27.4122212,-49.8295774,34,304.65950
1,Agronômica/SC,-27.2660744,-49.7104753,1243,22315.97846
D1,Agronômica/SC,-27.2660744,-49.7104753,15,269.29982
1,Aguanil/MG,-20.9424533,-45.3927152,1297,28461.70726
D1,Aguanil/MG,-20.9424533,-45.3927152,8,175.55409
1,Aguaí/SP,-22.0592036,-46.979384,6541,17687.46113
D1,Aguaí/SP,-22.0592036,-46.979384,134,362.34823
1,Agudo/RS,-29.6423259,-53.2494005,3344,20460.10768
D1,Agudo/RS,-29.6423259,-53.2494005,38,232.50122
1,Agudos do Sul/PR,-25.9890808,-49.3328175,1611,16839.13452
D1,Agudos do Sul/PR,-25.9890808,-49.3328175,34,355.38831
1,Agudos/SP,-22.471162,-48.987822,6990,18599.32947
D1,Agudos/SP,-22.471162,-48.987822,121,321.96264
1,Aguiar/PB,-7.0928404,-38.1727215,895,15919.60157
D1,Aguiar/PB,-7.0928404,-38.1727215,7,124.51085
1,Aguiarnópolis/TO,-6.5600452,-47.4721189,992,14072.91814
D1,Aguiarnópolis/TO,-6.5600452,-47.4721189,15,212.79614
1,Aimorés/MG,-19.4917754,-41.0615603,3647,14520.62430
D1,Aimorés/MG,-19.4917754,-41.0615603,90,358.33731
1,Aiquara/BA,-14.126918,-39.8887574,652,14862.09255
D1,Aiquara/BA,-14.126918,-39.8887574,12,273.53545
1,Aiuaba/CE,-6.5710836,-40.1212278,1205,6852.82075
D1,Aiuaba/CE,-6.5710836,-40.1212278,16,90.99181
1,Aiuruoca/MG,-21.9759554,-44.6036637,1028,17280.21516
D1,Aiuruoca/MG,-21.9759554,-44.6036637,14,235.33367
1,Ajuricaba/RS,-28.239654,-53.7693013,2238,32196.80621
D1,Ajuricaba/RS,-28.239654,-53.7693013,37,532.29751
1,Alagoa Grande/PB,-7.0415212,-35.6285322,5584,19673.05524
D1,Alagoa Grande/PB,-7.0415212,-35.6285322,79,278.32582
1,Alagoa Nova/PB,-7.0653703,-35.76695977336711,2915,13886.24238
D1,Alagoa Nova/PB,-7.0653703,-35.76695977336711,37,176.25762
1,Alagoa/MG,-22.1697202,-44.6400042,687,25856.22883
D1,Alagoa/MG,-22.1697202,-44.6400042,8,301.09146
1,Alagoinha do Piauí/PI,-7.0090952,-40.939675,403,5248.76270
D1,Alagoinha do Piauí/PI,-7.0090952,-40.939675,13,169.31493
1,Alagoinha/PB,-6.97063215,-35.51490901897793,2475,16918.44965
D1,Alagoinha/PB,-6.97063215,-35.51490901897793,26,177.72917
1,Alagoinha/PE,-8.50355635,-36.77701174370496,2824,19083.65995
D1,Alagoinha/PE,-8.50355635,-36.77701174370496,31,209.48777
1,Alagoinhas/BA,-12.133526,-38.420772,18253,11928.27222
D1,Alagoinhas/BA,-12.133526,-38.420772,355,231.99127
1,Alambari/SP,-23.550338,-47.897971,1402,22500.40122
D1,Alambari/SP,-23.550338,-47.897971,13,208.63425
1,Albertina/MG,-20.66164,-43.784039,745,24709.78441
D1,Albertina/MG,-20.66164,-43.784039,12,398.00995
1,Alcantil/PB,-7.7425491,-36.0609604,1238,22399.13154
D1,Alcantil/PB,-7.7425491,-36.0609604,9,162.83698
1,Alcinópolis/MS,-18.3264121,-53.7094463,888,16177.81017
D1,Alcinópolis/MS,-18.3264121,-53.7094463,14,255.05557
1,Alcobaça/BA,-17.5215875,-39.1965474,2486,11044.47110
D1,Alcobaça/BA,-17.5215875,-39.1965474,32,142.16536
1,Alcântara/MA,-2.4038956,-44.4154241,337,1523.09500
D1,Alcântara/MA,-2.4038956,-44.4154241,20,90.39139
1,Alcântaras/CE,-3.586247,-40.5457641,2346,19804.15330
D1,Alcântaras/CE,-3.586247,-40.5457641,23,194.15837
1,Aldeias Altas/MA,-4.6291957,-43.4708622,1159,4295.93387
D1,Aldeias Altas/MA,-4.6291957,-43.4708622,14,51.89221
1,Alecrim/RS,-27.6566142,-54.7653195,630,11033.27496
D1,Alecrim/RS,-27.6566142,-54.7653195,13,227.67075
1,Alegre/ES,-20.7625787,-41.5318886,8200,27453.21236
D1,Alegre/ES,-20.7625787,-41.5318886,87,291.27189
1,Alegrete do Piauí/PI,-7.2440138,-40.8602296,627,12741.31274
D1,Alegrete do Piauí/PI,-7.2440138,-40.8602296,9,182.88966
1,Alegrete/RS,-29.790166,-55.794862,18501,25521.08479
D1,Alegrete/RS,-29.790166,-55.794862,328,452.45748
1,Alegria/RS,-27.8332103,-54.0574959,582,17706.11500
D1,Alegria/RS,-27.8332103,-54.0574959,5,152.11439
1,Alenquer/PA,-1.946229,-54.738355,5432,9465.06360
D1,Alenquer/PA,-1.946229,-54.738355,170,296.21885
1,Alexandria/RN,-6.414779,-38.0135516,2542,18789.26750
D1,Alexandria/RN,-6.414779,-38.0135516,33,243.92047
1,Alexânia/GO,-16.0834049,-48.5077803,7477,26364.59803
D1,Alexânia/GO,-16.0834049,-48.5077803,115,405.50071
1,Alfenas/MG,-21.4297405,-45.9479419,22709,28045.15085
D1,Alfenas/MG,-21.4297405,-45.9479419,250,308.74489
1,Alfredo Chaves/ES,-20.624970400000002,-40.75006690147988,4999,34076.34628
D1,Alfredo Chaves/ES,-20.624970400000002,-40.75006690147988,47,320.38173
1,Alfredo Marcondes/SP,-21.9527,-51.413956,305,7260.17615
D1,Alfredo Marcondes/SP,-21.9527,-51.413956,19,452.27327
1,Alfredo Vasconcelos/MG,-21.145833,-43.776389,1379,19554.73625
D1,Alfredo Vasconcelos/MG,-21.145833,-43.776389,16,226.88599
1,Alfredo Wagner/SC,-27.6961513,-49.3326734,1449,14295.58011
D1,Alfredo Wagner/SC,-27.6961513,-49.3326734,12,118.38990
1,Algodão de Jandaíra/PB,-6.9040175,-36.0089879,518,20015.45595
D1,Algodão de Jandaíra/PB,-6.9040175,-36.0089879,1,38.63988
1,Alhandra/PB,-7.4304246,-34.9106103,3085,15529.82633
D1,Alhandra/PB,-7.4304246,-34.9106103,47,236.59703
1,Aliança do Tocantins/TO,-11.3055927,-48.9409096,1243,23439.56251
D1,Aliança do Tocantins/TO,-11.3055927,-48.9409096,26,490.28852
1,Aliança/PE,-7.60398,-35.222696,2249,5855.55093
D1,Aliança/PE,-7.60398,-35.222696,84,218.70444
1,Almadina/BA,-14.70466,-39.6381994,828,15702.63607
D1,Almadina/BA,-14.70466,-39.6381994,13,246.53897
1,Almas/TO,-11.5681309,-47.1702803,320,4634.32295
D1,Almas/TO,-11.5681309,-47.1702803,5,72.41130
1,Almeirim/PA,-1.5290377,-52.5788111,4621,13573.61062
D1,Almeirim/PA,-1.5290377,-52.5788111,55,161.55563
1,Almenara/MG,-16.1740678,-40.6904907,7345,17331.28834
D1,Almenara/MG,-16.1740678,-40.6904907,67,158.09344
1,Almino Afonso/RN,-6.1544208,-37.7649018,760,16221.98506
D1,Almino Afonso/RN,-6.1544208,-37.7649018,15,320.17076
1,Almirante Tamandaré do Sul/RS,-28.1141129,-52.9134874,587,30335.91731
D1,Almirante Tamandaré do Sul/RS,-28.1141129,-52.9134874,7,361.75711
1,Almirante Tamandaré/PR,-25.3133048,-49.2997838,16897,13916.15879
D1,Almirante Tamandaré/PR,-25.3133048,-49.2997838,458,377.20310
1,Aloândia/GO,-17.7277983,-49.4809338,558,28238.86640
D1,Aloândia/GO,-17.7277983,-49.4809338,11,556.68016
1,Alpercata/MG,-18.9803616,-41.9827637,589,7908.16327
D1,Alpercata/MG,-18.9803616,-41.9827637,23,308.80773
1,Alpestre/RS,-27.2512339,-53.0349646,1296,22022.09006
D1,Alpestre/RS,-27.2512339,-53.0349646,17,288.87001
1,Alpinópolis/MG,-20.863611,-46.387777,4500,22433.82023
D1,Alpinópolis/MG,-20.863611,-46.387777,51,254.24996
1,Alta Floresta D'Oeste/RO,-11.9296917,-61.9961284,8663,38474.86232
D1,Alta Floresta D'Oeste/RO,-11.9296917,-61.9961284,81,359.74418
1,Alta Floresta/MT,-9.8715018,-56.0839881,17765,34094.61664
D1,Alta Floresta/MT,-9.8715018,-56.0839881,180,345.45629
1,Altair/SP,-20.5238955,-49.0606135,320,7599.14510
D1,Altair/SP,-20.5238955,-49.0606135,18,427.45191
1,Altamira do Maranhão/MA,-4.1643006,-45.4674574,499,6048.48485
D1,Altamira do Maranhão/MA,-4.1643006,-45.4674574,15,181.81818
1,Altamira do Paraná/PR,-24.799114,-52.7128633,579,40517.84465
D1,Altamira do Paraná/PR,-24.799114,-52.7128633,15,1049.68509
1,Altamira/PA,-3.204065,-52.209961,21926,18689.05557
D1,Altamira/PA,-3.204065,-52.209961,353,300.88646
1,Altaneira/CE,-6.9980933,-39.7385742,1030,13355.80913
D1,Altaneira/CE,-6.9980933,-39.7385742,19,246.36929
1,Alterosa/MG,-21.249166,-46.143055,2112,14499.51943
D1,Alterosa/MG,-21.249166,-46.143055,41,281.47741
1,Altinho/PE,-8.4904095,-36.0607494,1742,7575.23047
D1,Altinho/PE,-8.4904095,-36.0607494,30,130.45747
1,Altinópolis/SP,-21.021364,-47.3712,1234,7607.42248
D1,Altinópolis/SP,-21.021364,-47.3712,65,400.71512
1,Alto Alegre do Maranhão/MA,-4.2055693,-44.4525287,2057,7329.15271
D1,Alto Alegre do Maranhão/MA,-4.2055693,-44.4525287,29,103.32787
1,Alto Alegre do Pindaré/MA,-3.6698186,-45.8462153,2557,7998.87384
D1,Alto Alegre do Pindaré/MA,-3.6698186,-45.8462153,55,172.05243
1,Alto Alegre dos Parecis/RO,-12.1314515,-61.856265,2302,17350.01507
D1,Alto Alegre dos Parecis/RO,-12.1314515,-61.856265,51,384.38348
1,Alto Alegre/RR,2.98858,-61.307167,2510,16460.09574
D1,Alto Alegre/RR,2.98858,-61.307167,39,255.75448
1,Alto Alegre/RS,-31.780844700000003,-52.81311114489171,419,26352.20126
D1,Alto Alegre/RS,-31.780844700000003,-52.81311114489171,2,125.78616
1,Alto Alegre/SP,-21.5820592,-50.1661976,412,10102.99166
D1,Alto Alegre/SP,-21.5820592,-50.1661976,25,613.04561
1,Alto Araguaia/MT,-17.3156528,-53.2169365,3319,16835.75124
D1,Alto Araguaia/MT,-17.3156528,-53.2169365,34,172.46627
1,Alto Bela Vista/SC,-27.4320737,-51.905771,508,26527.41514
D1,Alto Bela Vista/SC,-27.4320737,-51.905771,3,156.65796
1,Alto Boa Vista/MT,-11.6723985,-51.3744431,1539,21700.50761
D1,Alto Boa Vista/MT,-11.6723985,-51.3744431,20,282.00790
1,Alto Caparaó/MG,-20.4405661,-41.8683799,602,10138.09363
D1,Alto Caparaó/MG,-20.4405661,-41.8683799,10,168.40687
1,Alto Feliz/RS,-29.3785943,-51.3123751,726,23858.03483
D1,Alto Feliz/RS,-29.3785943,-51.3123751,4,131.44923
1,Alto Garças/MT,-16.9469683,-53.529427,1453,11790.95999
D1,Alto Garças/MT,-16.9469683,-53.529427,45,365.17082
1,Alto Horizonte/GO,-14.1954948,-49.3366993,2637,38802.23661
D1,Alto Horizonte/GO,-14.1954948,-49.3366993,16,235.43261
1,Alto Jequitibá/MG,-20.423611,-41.966111,1464,17668.35626
D1,Alto Jequitibá/MG,-20.423611,-41.966111,14,168.95969
1,Alto Longá/PI,-5.2549051,-42.2072388,889,6186.06917
D1,Alto Longá/PI,-5.2549051,-42.2072388,15,104.37687
1,Alto Paraguai/MT,-14.513712,-56.4936374,963,8311.03823
D1,Alto Paraguai/MT,-14.513712,-56.4936374,32,276.17157
1,Alto Paraná/PR,-23.131247,-52.318893,3105,20776.17932
D1,Alto Paraná/PR,-23.131247,-52.318893,28,187.35363
1,Alto Paraíso de Goiás/GO,-14.1304779,-47.5100161,1605,20707.00555
D1,Alto Paraíso de Goiás/GO,-14.1304779,-47.5100161,10,129.01561
1,Alto Paraíso/PR,-23.508137,-53.728537,1230,46768.06084
D1,Alto Paraíso/PR,-23.508137,-53.728537,10,380.22814
1,Alto Paraíso/RO,-9.7240103,-63.3188123,4218,18950.48971
D1,Alto Paraíso/RO,-9.7240103,-63.3188123,65,292.02983
1,Alto Parnaíba/MA,-9.112506,-45.9310154,1021,9089.29048
D1,Alto Parnaíba/MA,-9.112506,-45.9310154,11,97.92575
1,Alto Piquiri/PR,-24.0239021,-53.4417448,2507,25786.87513
D1,Alto Piquiri/PR,-24.0239021,-53.4417448,32,329.15038
1,Alto Rio Doce/MG,-21.0239537,-43.4133507,1154,10761.91364
D1,Alto Rio Doce/MG,-21.0239537,-43.4133507,31,289.09820
1,Alto Rio Novo/ES,-19.0577208,-41.0171518,1534,19390.72178
D1,Alto Rio Novo/ES,-19.0577208,-41.0171518,29,366.57818
1,Alto Santo/CE,-5.5190371,-38.2719351,2922,18175.03266
D1,Alto Santo/CE,-5.5190371,-38.2719351,43,267.46284
1,Alto Taquari/MT,-17.8269099,-53.2831736,1679,14711.29414
D1,Alto Taquari/MT,-17.8269099,-53.2831736,30,262.85814
1,Alto do Rodrigues/RN,-5.290868,-36.7616726,3875,25966.62869
D1,Alto do Rodrigues/RN,-5.290868,-36.7616726,45,301.54795
1,Altos/PI,-5.0393915,-42.4611694,5843,14362.97043
D1,Altos/PI,-5.0393915,-42.4611694,111,272.85465
1,Altônia/PR,-23.8722004,-53.894037,4602,20643.25124
D1,Altônia/PR,-23.8722004,-53.894037,54,242.22850
1,Alumínio/SP,-23.5203479,-47.2575256,1704,9014.44215
D1,Alumínio/SP,-23.5203479,-47.2575256,56,296.24927
1,Alvarenga/MG,-19.4175,-41.728334,715,18900.34364
D1,Alvarenga/MG,-19.4175,-41.728334,6,158.60428
1,Alvarães/AM,-3.214786,-64.8143124,3708,22615.27202
D1,Alvarães/AM,-3.214786,-64.8143124,46,280.55623
1,Alvinlândia/SP,-22.4431852,-49.7643596,150,4613.96493
D1,Alvinlândia/SP,-22.4431852,-49.7643596,10,307.59766
1,Alvinópolis/MG,-20.1105199,-43.0601805,2266,14971.91939
D1,Alvinópolis/MG,-20.1105199,-43.0601805,25,165.18005
1,Alvorada D'Oeste/RO,-11.346271,-62.284697,3359,24328.23930
D1,Alvorada D'Oeste/RO,-11.346271,-62.284697,43,311.43623
1,Alvorada de Minas/MG,-18.7318587,-43.3641479,501,13897.36477
D1,Alvorada de Minas/MG,-18.7318587,-43.3641479,4,110.95700
1,Alvorada do Gurguéia/PI,-8.4465288,-43.8655915,845,15450.72225
D1,Alvorada do Gurguéia/PI,-8.4465288,-43.8655915,14,255.98830
1,Alvorada do Norte/GO,-14.483911,-46.4959897,1539,17590.58178
D1,Alvorada do Norte/GO,-14.483911,-46.4959897,22,251.45731
1,Alvorada do Sul/PR,-22.7807269,-51.2307721,1622,13985.16986
D1,Alvorada do Sul/PR,-22.7807269,-51.2307721,38,327.64270
1,Alvorada/RS,-29.9981184,-51.0772509,35688,16806.05787
D1,Alvorada/RS,-29.9981184,-51.0772509,895,421.47001
1,Alvorada/TO,-12.478465,-49.124926,3309,39482.16203
D1,Alvorada/TO,-12.478465,-49.124926,32,381.81601
1,Além Paraíba/MG,-21.8760576,-42.6810473,7096,20023.70337
D1,Além Paraíba/MG,-21.8760576,-42.6810473,172,485.35470
1,Amajari/RR,3.6523869,-61.4194315,1384,10205.73704
D1,Amajari/RR,3.6523869,-61.4194315,25,184.35219
1,Amambai/MS,-23.1082701,-55.2284854,5926,14724.07881
D1,Amambai/MS,-23.1082701,-55.2284854,102,253.43504
1,Amaporã/PR,-23.094272,-52.786597,957,14941.45199
D1,Amaporã/PR,-23.094272,-52.786597,8,124.90242
1,Amapá do Maranhão/MA,-1.6762114,-46.0109669,172,2440.75493
D1,Amapá do Maranhão/MA,-1.6762114,-46.0109669,6,85.14261
1,Amapá/AP,2.0529997,-50.7930003,1924,20766.32488
D1,Amapá/AP,2.0529997,-50.7930003,13,140.31301
1,Amaraji/PE,-8.373925,-35.4536527,1325,5783.50065
D1,Amaraji/PE,-8.373925,-35.4536527,50,218.24531
1,Amaral Ferrador/RS,-30.8750633,-52.2542051,573,8029.70852
D1,Amaral Ferrador/RS,-30.8750633,-52.2542051,14,196.18834
1,Amaralina/GO,-13.9236199,-49.2962411,398,10270.96774
D1,Amaralina/GO,-13.9236199,-49.2962411,2,51.61290
1,Amarante do Maranhão/MA,-5.56913,-46.747284,2269,5400.19516
D1,Amarante do Maranhão/MA,-5.56913,-46.747284,63,149.93931
1,Amarante/PI,-6.2459374,-42.8476238,1785,10136.86183
D1,Amarante/PI,-6.2459374,-42.8476238,36,204.44091
1,Amargosa/BA,-13.03793715,-39.60796443875596,5033,13374.61136
D1,Amargosa/BA,-13.03793715,-39.60796443875596,62,164.75778
1,Amaturá/AM,-3.3640509,-68.1994689,2624,21987.59846
D1,Amaturá/AM,-3.3640509,-68.1994689,19,159.20898
1,Americana/SP,-22.7392463,-47.3306032,28077,11489.54454
D1,Americana/SP,-22.7392463,-47.3306032,972,397.75750
1,Americano do Brasil/GO,-16.2515808,-49.9806104,2182,35080.38585
D1,Americano do Brasil/GO,-16.2515808,-49.9806104,27,434.08360
1,Ametista do Sul/RS,-27.3617341,-53.1826575,1821,24621.41698
D1,Ametista do Sul/RS,-27.3617341,-53.1826575,28,378.58302
1,Amontada/CE,-3.3634586,-39.8284791,3586,8114.04005
D1,Amontada/CE,-3.3634586,-39.8284791,62,140.28736
1,Amorinópolis/GO,-16.6211308,-51.0949921,671,22284.95516
D1,Amorinópolis/GO,-16.6211308,-51.0949921,14,464.96181
1,Amparo de São Francisco/SE,-10.1299754,-36.9269099,261,10938.80972
D1,Amparo de São Francisco/SE,-10.1299754,-36.9269099,5,209.55574
1,Amparo do Serra/MG,-20.5070255,-42.8028462,351,7559.76739
D1,Amparo do Serra/MG,-20.5070255,-42.8028462,12,258.45359
1,Amparo/PB,-7.56394725,-37.04652873235175,298,13162.54417
D1,Amparo/PB,-7.56394725,-37.04652873235175,4,176.67845
1,Amparo/SP,-22.70111,-46.76444,10181,13918.92816
D1,Amparo/SP,-22.70111,-46.76444,256,349.98975
1,Ampére/PR,-25.9168712,-53.4742414,5584,28685.91390
D1,Ampére/PR,-25.9168712,-53.4742414,69,354.46419
1,Amélia Rodrigues/BA,-12.4015388,-38.7516971,2823,11293.35520
D1,Amélia Rodrigues/BA,-12.4015388,-38.7516971,55,220.02640
1,América Dourada/BA,-11.4515262,-41.4357517,1217,7565.58498
D1,América Dourada/BA,-11.4515262,-41.4357517,14,87.03220
1,Américo Brasiliense/SP,-21.7297099,-48.1052092,6449,15522.92695
D1,Américo Brasiliense/SP,-21.7297099,-48.1052092,108,259.95908
1,Américo de Campos/SP,-20.298476,-49.735904,1290,21525.11263
D1,Américo de Campos/SP,-20.298476,-49.735904,38,634.07309
1,Anadia/AL,-9.6830208,-36.3052699,1831,10458.67367
D1,Anadia/AL,-9.6830208,-36.3052699,37,211.34403
1,Anagé/BA,-14.6134669,-41.1376308,1266,5963.54044
D1,Anagé/BA,-14.6134669,-41.1376308,32,150.73720
1,Anahy/PR,-24.6450861,-53.1337957,780,28118.24081
D1,Anahy/PR,-24.6450861,-53.1337957,15,540.73540
1,Anajatuba/MA,-3.26441,-44.6179916,1615,5944.05594
D1,Anajatuba/MA,-3.26441,-44.6179916,29,106.73537
1,Anajás/PA,-0.9878802,-49.9390114,1388,4612.67489
D1,Anajás/PA,-0.9878802,-49.9390114,23,76.43481
1,Analândia/SP,-22.128917,-47.661939,588,11495.60117
D1,Analândia/SP,-22.128917,-47.661939,5,97.75171
1,Anamã/AM,-3.5797356,-61.4049996,2477,17331.37420
D1,Anamã/AM,-3.5797356,-61.4049996,11,76.96613
1,Ananindeua/PA,-1.374035,-48.4016623,30785,5696.60073
D1,Ananindeua/PA,-1.374035,-48.4016623,863,159.69357
1,Ananás/TO,-6.3663053,-48.080238,2286,24228.93482
D1,Ananás/TO,-6.3663053,-48.080238,28,296.76736
1,Anapu/PA,-3.4668292,-51.2057035,2504,8542.57642
D1,Anapu/PA,-3.4668292,-51.2057035,69,235.39847
1,Anapurus/MA,-3.6751298,-43.1046001,832,5182.50903
D1,Anapurus/MA,-3.6751298,-43.1046001,15,93.43466
1,Anastácio/MS,-20.4832458,-55.8048448,3318,13095.98990
D1,Anastácio/MS,-20.4832458,-55.8048448,92,363.11967
1,Anaurilândia/MS,-22.185169,-52.719056,1262,13843.79114
D1,Anaurilândia/MS,-22.185169,-52.719056,16,175.51558
1,Anchieta/ES,-20.8057672,-40.6454564,10774,35575.36734
D1,Anchieta/ES,-20.8057672,-40.6454564,116,383.02790
1,Anchieta/SC,-26.5350527,-53.3293938,1235,22548.84061
D1,Anchieta/SC,-26.5350527,-53.3293938,12,219.09805
1,Andaraí/BA,-12.8059674,-41.3322919,1350,10288.06584
D1,Andaraí/BA,-12.8059674,-41.3322919,14,106.69105
1,Andirá/PR,-23.0494761,-50.2310027,5668,28593.04848
D1,Andirá/PR,-23.0494761,-50.2310027,100,504.46451
1,Andorinha/BA,-10.3445708,-39.8334411,1417,9829.35627
D1,Andorinha/BA,-10.3445708,-39.8334411,19,131.79800
1,Andradas/MG,-22.0680484,-46.5688976,7286,17470.74621
D1,Andradas/MG,-22.0680484,-46.5688976,139,333.30136
1,Andradina/SP,-20.896505,-51.3742765,13158,22985.41357
D1,Andradina/SP,-20.896505,-51.3742765,312,545.02577
1,Andrelândia/MG,-21.739722,-44.308889,206,1690.04840
D1,Andrelândia/MG,-21.739722,-44.308889,19,155.87825
1,André da Rocha/RS,-28.6309124,-51.5733328,263,19467.06144
D1,André da Rocha/RS,-28.6309124,-51.5733328,1,74.01925
1,Angatuba/SP,-23.4938938,-48.4110675,4614,17936.55730
D1,Angatuba/SP,-23.4938938,-48.4110675,90,349.86783
1,Angelim/PE,-8.8902038,-36.2872987,310,2743.12008
D1,Angelim/PE,-8.8902038,-36.2872987,16,141.58039
1,Angelina/SC,-27.5805287,-48.9838759,956,20401.19505
D1,Angelina/SC,-27.5805287,-48.9838759,6,128.04097
1,Angelândia/MG,-17.7253,-42.2728,531,6178.72935
D1,Angelândia/MG,-17.7253,-42.2728,4,46.54410
1,Angical do Piauí/PI,-6.0872666,-42.7366138,902,13305.79732
D1,Angical do Piauí/PI,-6.0872666,-42.7366138,12,177.01726
1,Angical/BA,-12.005623,-44.7000236,1260,9063.44411
D1,Angical/BA,-12.005623,-44.7000236,21,151.05740
1,Angico/TO,-6.3893733,-47.8656722,252,7251.79856
D1,Angico/TO,-6.3893733,-47.8656722,5,143.88489
1,Angicos/RN,-5.6666344,-36.6009064,1328,11355.28003
D1,Angicos/RN,-5.6666344,-36.6009064,30,256.51988
1,Angra dos Reis/RJ,-23.0063966,-44.316326,24053,11444.49044
D1,Angra dos Reis/RJ,-23.0063966,-44.316326,611,290.71566
1,Anguera/BA,-12.1509425,-39.2452469,641,5638.13880
D1,Anguera/BA,-12.1509425,-39.2452469,2,17.59170
1,Angélica/MS,-22.1588196,-53.7728504,2257,20368.19782
D1,Angélica/MS,-22.1588196,-53.7728504,23,207.56249
1,Anhanguera/GO,-18.3338749,-48.220363,237,20239.11187
D1,Anhanguera/GO,-18.3338749,-48.220363,7,597.77968
1,Anhembi/SP,-22.7891096,-48.1316776,446,6453.47996
D1,Anhembi/SP,-22.7891096,-48.1316776,14,202.57560
1,Anhumas/SP,-22.2956478,-51.3873401,409,9803.45158
D1,Anhumas/SP,-22.2956478,-51.3873401,9,215.72387
1,Anicuns/GO,-16.4606451,-49.9572265,7468,33771.98933
D1,Anicuns/GO,-16.4606451,-49.9572265,82,370.82259
1,Anita Garibaldi/SC,-27.6855032,-51.1293873,2033,29971.98880
D1,Anita Garibaldi/SC,-27.6855032,-51.1293873,12,176.91287
1,Anitápolis/SC,-27.9041185,-49.1287395,700,21718.89544
D1,Anitápolis/SC,-27.9041185,-49.1287395,6,186.16196
1,Anori/AM,-3.7435254,-61.6605203,2670,12171.21758
D1,Anori/AM,-3.7435254,-61.6605203,33,150.43078
1,Anta Gorda/RS,-28.9718745,-52.0069187,1010,17000.50497
D1,Anta Gorda/RS,-28.9718745,-52.0069187,8,134.65747
1,Antas/BA,-10.4114649,-38.3308815,1447,7360.49646
D1,Antas/BA,-10.4114649,-38.3308815,14,71.21420
1,Antonina do Norte/CE,-6.7754187,-39.9879345,1027,13874.62848
D1,Antonina do Norte/CE,-6.7754187,-39.9879345,27,364.76628
1,Antonina/PR,-25.4298854,-48.7125431,4768,25202.17770
D1,Antonina/PR,-25.4298854,-48.7125431,73,385.85549
1,Antônio Almeida/PI,-7.2186016,-44.1950248,409,12881.88976
D1,Antônio Almeida/PI,-7.2186016,-44.1950248,11,346.45669
1,Antônio Cardoso/BA,-12.4363122,-39.1200307,1075,9211.65381
D1,Antônio Cardoso/BA,-12.4363122,-39.1200307,12,102.82776
1,Antônio Carlos/MG,-21.318334,-43.746666,1987,17321.94229
D1,Antônio Carlos/MG,-21.318334,-43.746666,20,174.35272
1,Antônio Carlos/SC,-27.5168462,-48.7684715,2952,33884.29752
D1,Antônio Carlos/SC,-27.5168462,-48.7684715,29,332.87420
1,Antônio Dias/MG,-19.6525,-42.872778,826,8946.17134
D1,Antônio Dias/MG,-19.6525,-42.872778,29,314.09076
1,Antônio Gonçalves/BA,-10.5715409,-40.2748824,1161,9711.41782
D1,Antônio Gonçalves/BA,-10.5715409,-40.2748824,10,83.64701
1,Antônio João/MS,-22.1892837,-55.9508227,1234,13587.31557
D1,Antônio João/MS,-22.1892837,-55.9508227,21,231.22660
1,Antônio Martins/RN,-6.2155812,-37.8890129,1004,14018.43061
D1,Antônio Martins/RN,-6.2155812,-37.8890129,7,97.73806
1,Antônio Olinto/PR,-25.9849006,-50.1974516,1254,16897.99218
D1,Antônio Olinto/PR,-25.9849006,-50.1974516,17,229.07964
1,Antônio Prado de Minas/MG,-21.0171988,-42.1101106,166,10526.31579
D1,Antônio Prado de Minas/MG,-21.0171988,-42.1101106,6,380.46925
1,Antônio Prado/RS,-28.8567806,-51.2801355,4946,37926.53938
D1,Antônio Prado/RS,-28.8567806,-51.2801355,36,276.05245
1,Anápolis/GO,-16.3332828,-48.9525756,71716,18086.07758
D1,Anápolis/GO,-16.3332828,-48.9525756,1969,496.56265
1,Anísio de Abreu/PI,-9.185643,-43.04941,292,2921.75305
D1,Anísio de Abreu/PI,-9.185643,-43.04941,16,160.09606
1,Aparecida d'Oeste/SP,-20.4498109,-50.8808706,1560,37845.70597
D1,Aparecida d'Oeste/SP,-20.4498109,-50.8808706,22,533.72149
1,Aparecida de Goiânia/GO,-16.8226769,-49.2452546,143523,23847.20958
D1,Aparecida de Goiânia/GO,-16.8226769,-49.2452546,1977,328.49044
1,Aparecida do Rio Doce/GO,-18.2980167,-51.1491312,639,25828.61762
D1,Aparecida do Rio Doce/GO,-18.2980167,-51.1491312,6,242.52223
1,Aparecida do Rio Negro/TO,-9.9513491,-47.9773786,413,8426.85166
D1,Aparecida do Rio Negro/TO,-9.9513491,-47.9773786,13,265.25199
1,Aparecida do Taboado/MS,-20.0840304,-51.1013943,6138,23262.33609
D1,Aparecida do Taboado/MS,-20.0840304,-51.1013943,72,272.87198
1,Aparecida/PB,-6.7859598, -38.0831353,1657,19535.48691
D1,Aparecida/PB,-6.7859598, -38.0831353,16,188.63476
1,Aparecida/SP,-22.851552,-45.2340924,2974,8212.97396
D1,Aparecida/SP,-22.851552,-45.2340924,125,345.19897
1,Aperibé/RJ,-21.6211928,-42.1028167,1934,16068.46128
D1,Aperibé/RJ,-21.6211928,-42.1028167,35,290.79428
1,Apiacá/ES,-21.152272,-41.569297,2473,32789.71095
D1,Apiacá/ES,-21.152272,-41.569297,40,530.36330
1,Apiacás/MT,-9.5678422,-57.394852,3131,30016.29757
D1,Apiacás/MT,-9.5678422,-57.394852,19,182.14936
1,Apiaí/SP,-24.5076527,-48.8461582,1801,7478.92529
D1,Apiaí/SP,-24.5076527,-48.8461582,108,448.48636
1,Apicum-Açu/MA,-1.5279295,-45.082278,707,4021.15800
D1,Apicum-Açu/MA,-1.5279295,-45.082278,11,62.56399
1,Apiúna/SC,-27.0374658,-49.3885037,1663,15185.82778
D1,Apiúna/SC,-27.0374658,-49.3885037,20,182.63172
1,Apodi/RN,-5.6631109,-37.796927,8900,24788.32442
D1,Apodi/RN,-5.6631109,-37.796927,106,295.23173
1,Aporá/BA,-11.6599747,-38.0794757,712,3991.03139
D1,Aporá/BA,-11.6599747,-38.0794757,21,117.71300
1,Aporé/GO,-18.9642193,-51.92804,941,22058.13408
D1,Aporé/GO,-18.9642193,-51.92804,11,257.85279
1,Apuarema/BA,-13.8517897,-39.7457126,902,12400.32994
D1,Apuarema/BA,-13.8517897,-39.7457126,12,164.97113
1,Apucarana/PR,-23.5525327,-51.4610764,21090,15345.10106
D1,Apucarana/PR,-23.5525327,-51.4610764,554,403.09085
1,Apuiarés/CE,-3.9460303,-39.4313298,1720,11667.34500
D1,Apuiarés/CE,-3.9460303,-39.4313298,27,183.15018
1,Apuí/AM,-7.1940195,-59.8830192,2212,9727.78047
D1,Apuí/AM,-7.1940195,-59.8830192,36,158.31831
1,Aquidabã/SE,-10.2837579,-37.0188687,2621,12025.14223
D1,Aquidabã/SE,-10.2837579,-37.0188687,44,201.87190
1,Aquidauana/MS,-20.473969,-55.7821375,7790,16167.19243
D1,Aquidauana/MS,-20.473969,-55.7821375,176,365.26648
1,Aquiraz/CE,-3.9063117,-38.387504,10854,13304.56847
D1,Aquiraz/CE,-3.9063117,-38.387504,105,128.70644
1,Arabutã/SC,-27.1587028,-52.1438142,634,14854.73290
D1,Arabutã/SC,-27.1587028,-52.1438142,10,234.30178
1,Aracaju/SE,-10.9162061,-37.0774655,156996,23341.17339
D1,Aracaju/SE,-10.9162061,-37.0774655,2578,383.28075
1,Aracati/CE,-4.558259,-37.767894,13485,17886.51316
D1,Aracati/CE,-4.558259,-37.767894,181,240.07852
1,Aracatu/BA,-14.4274236,-41.4604105,1329,10254.62963
D1,Aracatu/BA,-14.4274236,-41.4604105,23,177.46914
1,Araci/BA,-11.3356065,-38.9573261,4425,8059.66887
D1,Araci/BA,-11.3356065,-38.9573261,61,111.10504
1,Aracitaba/MG,-21.3425,-43.378611,109,5301.55642
D1,Aracitaba/MG,-21.3425,-43.378611,11,535.01946
1,Aracoiaba/CE,-4.3702577,-38.8084313,5373,20199.24812
D1,Aracoiaba/CE,-4.3702577,-38.8084313,38,142.85714
1,Aracruz/ES,-19.8245218,-40.2735025,37404,35642.54541
D1,Aracruz/ES,-19.8245218,-40.2735025,279,265.86114
1,Aragarças/GO,-15.8957166,-52.2514538,4821,23620.77413
D1,Aragarças/GO,-15.8957166,-52.2514538,84,411.56296
1,Aragoiânia/GO,-16.9146388,-49.4499148,2989,27986.89139
D1,Aragoiânia/GO,-16.9146388,-49.4499148,33,308.98876
1,Aragominas/TO,-7.1654101,-48.525488,1081,18948.29097
D1,Aragominas/TO,-7.1654101,-48.525488,11,192.81332
1,Araguacema/TO,-8.8067391,-49.5560969,1271,17596.56652
D1,Araguacema/TO,-8.8067391,-49.5560969,20,276.89326
1,Araguaiana/MT,-15.729144,-51.834112,613,20006.52742
D1,Araguaiana/MT,-15.729144,-51.834112,8,261.09661
1,Araguainha/MT,-16.857016,-53.031778,64,7040.70407
D1,Araguainha/MT,-16.857016,-53.031778,2,220.02200
1,Araguanã/MA,-2.9508403,-45.6651986,862,5499.20255
D1,Araguanã/MA,-2.9508403,-45.6651986,6,38.27751
1,Araguanã/TO,-6.5799107,-48.6428482,629,10741.12022
D1,Araguanã/TO,-6.5799107,-48.6428482,16,273.22404
1,Araguapaz/GO,-15.0937927,-50.626417,1205,15458.62733
D1,Araguapaz/GO,-15.0937927,-50.626417,31,397.69083
1,Araguari/MG,-18.6511256,-48.1933764,30721,25955.34002
D1,Araguari/MG,-18.6511256,-48.1933764,514,434.26466
1,Araguatins/TO,-5.6522925,-48.1158973,3402,9301.94406
D1,Araguatins/TO,-5.6522925,-48.1158973,76,207.80357
1,Araguaçu/TO,-12.928934,-49.823134,2008,23853.64695
D1,Araguaçu/TO,-12.928934,-49.823134,25,296.98266
1,Araguaína/TO,-7.193241,-48.2018597,49701,26685.81707
D1,Araguaína/TO,-7.193241,-48.2018597,602,323.23015
1,Araioses/MA,-2.890914,-41.904993,687,1458.75358
D1,Araioses/MA,-2.890914,-41.904993,15,31.85051
1,Aral Moreira/MS,-22.951141,-55.6268421,580,4635.92039
D1,Aral Moreira/MS,-22.951141,-55.6268421,19,151.86636
1,Aramari/BA,-12.0907897,-38.4985065,1055,9158.78114
D1,Aramari/BA,-12.0907897,-38.4985065,14,121.53833
1,Arambaré/RS,-30.9132252,-51.4994625,379,10694.13093
D1,Arambaré/RS,-30.9132252,-51.4994625,10,282.16704
1,Arame/MA,-4.8858769,-46.0102484,1708,5203.35110
D1,Arame/MA,-4.8858769,-46.0102484,42,127.95126
1,Aramina/SP,-20.0876144,-47.789201,392,6890.49042
D1,Aramina/SP,-20.0876144,-47.789201,20,351.55563
1,Arandu/SP,-23.1345103,-49.0545651,666,10450.33736
D1,Arandu/SP,-23.1345103,-49.0545651,22,345.20634
1,Arantina/MG,-21.911667,-44.255833,655,23569.62936
D1,Arantina/MG,-21.911667,-44.255833,7,251.88917
1,Arapeí/SP,-22.6738889,-44.4477778,270,11011.41925
D1,Arapeí/SP,-22.6738889,-44.4477778,7,285.48124
1,Arapiraca/AL,-9.754866,-36.661471,38532,16444.95090
D1,Arapiraca/AL,-9.754866,-36.661471,570,243.26850
1,Arapoema/TO,-7.6575001,-49.0641484,645,9787.55690
D1,Arapoema/TO,-7.6575001,-49.0641484,12,182.09408
1,Araponga/MG,-20.666667,-42.520556,989,11680.64249
D1,Araponga/MG,-20.666667,-42.520556,15,177.15838
1,Arapongas/PR,-23.415296,-51.42592,28757,22724.72243
D1,Arapongas/PR,-23.415296,-51.42592,638,504.16848
1,Araporã/MG,-18.4318188,-49.188313,2749,39316.36156
D1,Araporã/MG,-18.4318188,-49.188313,43,614.98856
1,Arapoti/PR,-24.1457957,-49.8224605,5648,19831.46067
D1,Arapoti/PR,-24.1457957,-49.8224605,73,256.32022
1,Araputanga/MT,-15.4710868,-58.346796,4190,24534.48882
D1,Araputanga/MT,-15.4710868,-58.346796,56,327.90725
1,Arapuá/MG,-19.034444,-46.155556,462,16290.55007
D1,Arapuá/MG,-19.034444,-46.155556,3,105.78279
1,Arapuã/PR,-24.3079525,-51.7901941,857,29041.00305
D1,Arapuã/PR,-24.3079525,-51.7901941,9,304.98136
1,Araquari/SC,-26.3703324,-48.7210994,6972,17050.62362
D1,Araquari/SC,-26.3703324,-48.7210994,95,232.33064
1,Arara/PB,-6.8271895,-35.7605703,1173,8616.76339
D1,Arara/PB,-6.8271895,-35.7605703,31,227.72350
1,Araranguá/SC,-28.9348832,-49.4858389,17970,25858.71958
D1,Araranguá/SC,-28.9348832,-49.4858389,279,401.47929
1,Araraquara/SP,-21.7886713,-48.1773096,57903,24071.88765
D1,Araraquara/SP,-21.7886713,-48.1773096,637,264.81862
1,Araras/SP,-22.3569477,-47.3838889,20195,14769.01250
D1,Araras/SP,-22.3569477,-47.3838889,449,328.36279
1,Ararendá/CE,-4.7504395,-40.8303611,2001,18219.06583
D1,Ararendá/CE,-4.7504395,-40.8303611,22,200.30957
1,Arari/MA,-3.4547602,-44.7772723,1271,4234.69048
D1,Arari/MA,-3.4547602,-44.7772723,37,123.27580
1,Araricá/RS,-29.6168543,-50.929121,1710,29280.82192
D1,Araricá/RS,-29.6168543,-50.929121,30,513.69863
1,Araripe/CE,-7.212861,-40.1359222,2013,9273.50624
D1,Araripe/CE,-7.212861,-40.1359222,28,128.99065
1,Araripina/PE,-7.5768582,-40.5038509,10557,12376.17378
D1,Araripina/PE,-7.5768582,-40.5038509,182,213.36209
1,Araruama/RJ,-22.8733203,-42.3428897,10678,7845.18290
D1,Araruama/RJ,-22.8733203,-42.3428897,509,373.96498
1,Araruna/PB,-6.5321155,-35.7397595,1036,5026.68607
D1,Araruna/PB,-6.5321155,-35.7397595,18,87.33624
1,Araruna/PR,-23.9320308,-52.4976047,3399,24228.38406
D1,Araruna/PR,-23.9320308,-52.4976047,44,313.63604
1,Arataca/BA,-15.2617424,-39.4122943,957,8776.59574
D1,Arataca/BA,-15.2617424,-39.4122943,16,146.73514
1,Aratiba/RS,-27.3955734,-52.3024325,969,15768.91782
D1,Aratiba/RS,-27.3955734,-52.3024325,8,130.18714
1,Aratuba/CE,-4.4195958,-39.0463737,2166,18419.93367
D1,Aratuba/CE,-4.4195958,-39.0463737,14,119.05774
1,Aratuípe/BA,-13.077137,-39.0010786,1146,12952.07957
D1,Aratuípe/BA,-13.077137,-39.0010786,12,135.62387
1,Araucária/PR,-25.5861107,-49.4051209,44352,29862.24263
D1,Araucária/PR,-25.5861107,-49.4051209,575,387.14803
1,Arauá/SE,-11.2644014,-37.6181058,1418,14410.56911
D1,Arauá/SE,-11.2644014,-37.6181058,23,233.73984
1,Araxá/MG,-19.5928536,-46.940241,36257,33446.49133
D1,Araxá/MG,-19.5928536,-46.940241,292,269.36524
1,Araçagi/PB,-6.8519969,-35.3835602,2720,16135.72996
D1,Araçagi/PB,-6.8519969,-35.3835602,29,172.03536
1,Araçariguama/SP,-23.438611,-47.061389,2866,12277.77064
D1,Araçariguama/SP,-23.438611,-47.061389,75,321.29546
1,Araçatuba/SP,-21.207992,-50.4390225,45387,22783.49480
D1,Araçatuba/SP,-21.207992,-50.4390225,990,496.96300
1,Araçaí/MG,-19.200833,-44.2475,305,12923.72881
D1,Araçaí/MG,-19.200833,-44.2475,2,84.74576
1,Araçoiaba da Serra/SP,-23.5045367,-47.6168158,3292,9302.32558
D1,Araçoiaba da Serra/SP,-23.5045367,-47.6168158,101,285.39942
1,Araçoiaba/PE,-7.7856903,-35.0898881,1116,5330.53114
D1,Araçoiaba/PE,-7.7856903,-35.0898881,33,157.62323
1,Araçu/GO,-16.3561579,-49.6815269,1680,48695.65217
D1,Araçu/GO,-16.3561579,-49.6815269,22,637.68116
1,Araçuaí/MG,-16.8484451,-42.0661868,3835,10445.32208
D1,Araçuaí/MG,-16.8484451,-42.0661868,61,166.14463
1,Araçás/BA,-12.2139176,-38.2026159,914,7469.15094
D1,Araçás/BA,-12.2139176,-38.2026159,16,130.75100
1,Araújos/MG,-19.948055,-45.165556,947,9944.34527
D1,Araújos/MG,-19.948055,-45.165556,15,157.51339
1,Arceburgo/MG,-21.364444,-46.939722,2390,21747.04277
D1,Arceburgo/MG,-21.364444,-46.939722,36,327.57052
1,Arco-Íris/SP,-21.7741308,-50.4668814,545,31054.13105
D1,Arco-Íris/SP,-21.7741308,-50.4668814,9,512.82051
1,Arcos/MG,-20.282223,-45.539444,10137,24932.36263
D1,Arcos/MG,-20.282223,-45.539444,147,361.55246
1,Arcoverde/PE,-8.415192,-37.057748,11481,15248.02444
D1,Arcoverde/PE,-8.415192,-37.057748,143,189.91965
1,Areado/MG,-21.3582771,-46.1476688,3240,21193.09262
D1,Areado/MG,-21.3582771,-46.1476688,35,228.93773
1,Areal/RJ,-22.2314922,-43.1056264,2129,16681.03111
D1,Areal/RJ,-22.2314922,-43.1056264,54,423.09802
1,Arealva/SP,-22.0301906,-48.9111936,2006,23150.60589
D1,Arealva/SP,-22.0301906,-48.9111936,28,323.13907
1,Areia Branca/RN,-4.9506652,-37.1263312,4361,15488.70578
D1,Areia Branca/RN,-4.9506652,-37.1263312,119,422.64526
1,Areia Branca/SE,-10.7591455,-37.3148072,2413,12818.06109
D1,Areia Branca/SE,-10.7591455,-37.3148072,50,265.60425
1,Areia de Baraúnas/PB,-7.1233949,-36.9446216,376,17862.23278
D1,Areia de Baraúnas/PB,-7.1233949,-36.9446216,7,332.54157
1,Areia/PB,-6.9680243,-35.6994783,2888,12839.55008
D1,Areia/PB,-6.9680243,-35.6994783,37,164.49562
1,Areial/PB,-7.0501306,-35.9245244,560,7938.75815
D1,Areial/PB,-7.0501306,-35.9245244,13,184.29260
1,Areias/SP,-22.5800929,-44.6975127,362,9267.79314
D1,Areias/SP,-22.5800929,-44.6975127,3,76.80492
1,Areiópolis/SP,-22.6758064,-48.6673653,2044,18272.84105
D1,Areiópolis/SP,-22.6758064,-48.6673653,32,286.07188
1,Arenápolis/MT,-14.4610369,-56.8432806,2912,30982.01936
D1,Arenápolis/MT,-14.4610369,-56.8432806,43,457.49548
1,Arenópolis/GO,-16.3859286,-51.55937,858,34849.71568
D1,Arenópolis/GO,-16.3859286,-51.55937,10,406.17384
1,Argirita/MG,-21.612761,-42.8371922,722,26930.24991
D1,Argirita/MG,-21.612761,-42.8371922,14,522.19321
1,Aricanduva/MG,-17.8678,-42.5569,395,7445.80584
1,Arinos/MG,-15.917223,-46.106111,2876,16112.04482
D1,Arinos/MG,-15.917223,-46.106111,32,179.27171
1,Aripuanã/MT,-10.175806,-59.4439663,6055,26249.62067
D1,Aripuanã/MT,-10.175806,-59.4439663,57,247.10626
1,Ariquemes/RO,-9.9076522,-63.033069,33493,30133.69561
D1,Ariquemes/RO,-9.9076522,-63.033069,555,499.33422
1,Ariranha do Ivaí/PR,-24.3834527,-51.5876772,655,32329.71372
D1,Ariranha do Ivaí/PR,-24.3834527,-51.5876772,5,246.79171
1,Ariranha/SP,-21.18716,-48.790418,1037,10526.85007
D1,Ariranha/SP,-21.18716,-48.790418,35,355.29388
1,Armazém/SC,-28.2624996,-49.0190126,1758,19880.13118
D1,Armazém/SC,-28.2624996,-49.0190126,36,407.10166
1,Armação dos Búzios/RJ,-22.7597805,-41.8875267,8910,25413.57673
D1,Armação dos Búzios/RJ,-22.7597805,-41.8875267,82,233.88477
1,Arneiroz/CE,-6.3235099,-40.1603859,882,11238.53211
D1,Arneiroz/CE,-6.3235099,-40.1603859,21,267.58410
1,Aroazes/PI,-6.1108814,-41.7886137,700,12029.55834
D1,Aroazes/PI,-6.1108814,-41.7886137,15,257.77625
1,Aroeiras do Itaim/PI,-7.2797031,-41.5629681,190,7448.05958
D1,Aroeiras do Itaim/PI,-7.2797031,-41.5629681,2,78.40063
1,Aroeiras/PB,-7.5462904,-35.7080002,2792,14632.35679
D1,Aroeiras/PB,-7.5462904,-35.7080002,20,104.81631
1,Arraial do Cabo/RJ,-22.9662839,-42.024427,2971,9637.65530
D1,Arraial do Cabo/RJ,-22.9662839,-42.024427,53,171.92721
1,Arraial/PI,-6.6541632,-42.5335332,172,3649.48016
D1,Arraial/PI,-6.6541632,-42.5335332,3,63.65372
1,Arraias/TO,-12.9287788,-46.9437231,1687,16063.60693
D1,Arraias/TO,-12.9287788,-46.9437231,13,123.78595
1,Arroio Grande/RS,-32.2384246,-53.0866661,3268,17970.85510
D1,Arroio Grande/RS,-32.2384246,-53.0866661,62,340.94034
1,Arroio Trinta/SC,-26.9301976,-51.334928,1226,34564.42064
D1,Arroio Trinta/SC,-26.9301976,-51.334928,15,422.89259
1,Arroio do Meio/RS,-29.4020392,-51.9444993,5332,25245.01681
D1,Arroio do Meio/RS,-29.4020392,-51.9444993,56,265.13896
1,Arroio do Padre/RS,-31.4428773,-52.4228985,475,16014.83479
D1,Arroio do Padre/RS,-31.4428773,-52.4228985,4,134.86177
1,Arroio do Sal/RS,-29.549852,-49.8874395,3646,34780.12019
D1,Arroio do Sal/RS,-29.549852,-49.8874395,43,410.18792
1,Arroio do Tigre/RS,-29.334158,-53.0888935,2649,19692.23907
D1,Arroio do Tigre/RS,-29.334158,-53.0888935,25,185.84597
1,Arroio dos Ratos/RS,-30.0894524,-51.7265541,2682,18885.99394
D1,Arroio dos Ratos/RS,-30.0894524,-51.7265541,49,345.04612
1,Artur Nogueira/SP,-22.572737,-47.172679,8818,15677.28057
D1,Artur Nogueira/SP,-22.572737,-47.172679,155,275.57025
1,Aruanã/GO,-14.9162439,-51.0715692,1943,18791.10251
D1,Aruanã/GO,-14.9162439,-51.0715692,23,222.43714
1,Arujá/SP,-23.396266,-46.3175449,11437,12370.60993
D1,Arujá/SP,-23.396266,-46.3175449,360,389.38704
1,Arvoredo/SC,-27.0752908,-52.4571847,458,20556.55296
D1,Arvoredo/SC,-27.0752908,-52.4571847,5,224.41652
1,Arvorezinha/RS,-28.87369,-52.17808,1602,15371.32988
D1,Arvorezinha/RS,-28.87369,-52.17808,32,307.04279
1,Arês/RN,-6.1969216,-35.1642968,1554,10698.05865
D1,Arês/RN,-6.1969216,-35.1642968,27,185.87361
1,Ascurra/SC,-26.9569975,-49.3767752,2255,28113.70153
D1,Ascurra/SC,-26.9569975,-49.3767752,14,174.54183
1,Aspásia/SP,-20.160028,-50.728046,565,31129.47658
D1,Aspásia/SP,-20.160028,-50.728046,10,550.96419
1,Assaré/CE,-6.8746791,-39.8741385,3051,12962.56957
D1,Assaré/CE,-6.8746791,-39.8741385,55,233.67464
1,Assaí/PR,-23.3736041,-50.8454929,3244,21930.77339
D1,Assaí/PR,-23.3736041,-50.8454929,68,459.70795
1,Assis Brasil/AC,-10.9409203,-69.5672108,2054,26853.18342
D1,Assis Brasil/AC,-10.9409203,-69.5672108,25,326.84011
1,Assis Chateaubriand/PR,-24.4054826,-53.5120468,9348,28067.01495
D1,Assis Chateaubriand/PR,-24.4054826,-53.5120468,142,426.34961
1,Assis/SP,-22.6620892,-50.420623,21447,20277.39959
D1,Assis/SP,-22.6620892,-50.420623,465,439.64148
1,Assunção do Piauí/PI,-5.8610212,-41.0485091,410,5203.70605
D1,Assunção do Piauí/PI,-5.8610212,-41.0485091,10,126.91966
1,Assunção/PB,-7.073396,-36.7274003,721,17728.05508
D1,Assunção/PB,-7.073396,-36.7274003,6,147.52889
1,Astolfo Dutra/MG,-21.3132636,-42.8624102,2280,15879.64898
D1,Astolfo Dutra/MG,-21.3132636,-42.8624102,32,222.87227
1,Astorga/PR,-23.2350184,-51.6647074,8982,34146.89781
D1,Astorga/PR,-23.2350184,-51.6647074,106,402.98054
1,Atalaia do Norte/AM,-4.3658547,-70.1908742,3938,18870.99866
D1,Atalaia do Norte/AM,-4.3658547,-70.1908742,11,52.71229
1,Atalaia/AL,-9.5029595,-36.0219316,2049,4310.05469
D1,Atalaia/AL,-9.5029595,-36.0219316,58,122.00252
1,Atalaia/PR,-23.1513833,-52.0529697,1209,31232.23973
D1,Atalaia/PR,-23.1513833,-52.0529697,27,697.49419
1,Atalanta/SC,-27.421916,-49.778863,916,28814.09248
D1,Atalanta/SC,-27.421916,-49.778863,12,377.47719
1,Ataléia/MG,-18.04432,-41.1110524,1530,12243.91805
D1,Ataléia/MG,-18.04432,-41.1110524,12,96.03073
1,Atibaia/SP,-23.1177393,-46.5547861,13050,8976.59894
D1,Atibaia/SP,-23.1177393,-46.5547861,371,255.19680
1,Atilio Vivacqua/ES,-20.9139369,-41.1947519,3062,24955.17522
D1,Atilio Vivacqua/ES,-20.9139369,-41.1947519,37,301.54849
1,Augustinópolis/TO,-5.4662267,-47.8897519,2331,12352.94118
D1,Augustinópolis/TO,-5.4662267,-47.8897519,32,169.58135
1,Augusto Corrêa/PA,-1.0229335,-46.6404029,3036,6468.24467
D1,Augusto Corrêa/PA,-1.0229335,-46.6404029,56,119.30886
1,Augusto Pestana/RS,-28.5148413,-53.9906433,1899,29014.51490
D1,Augusto Pestana/RS,-28.5148413,-53.9906433,16,244.46142
1,Augusto de Lima/MG,-18.1092963,-44.2651945,327,6765.98386
D1,Augusto de Lima/MG,-18.1092963,-44.2651945,11,227.60190
1,Aurelino Leal/BA,-14.3167137,-39.3256107,1320,11914.43271
D1,Aurelino Leal/BA,-14.3167137,-39.3256107,41,370.06950
1,Auriflama/SP,-20.6840418,-50.5554616,2247,14670.93236
D1,Auriflama/SP,-20.6840418,-50.5554616,86,561.50431
1,Aurilândia/GO,-16.6772599,-50.4641231,1336,44533.33333
D1,Aurilândia/GO,-16.6772599,-50.4641231,16,533.33333
1,Aurora do Pará/PA,-2.1323199,-47.558436,2090,6490.68323
D1,Aurora do Pará/PA,-2.1323199,-47.558436,20,62.11180
1,Aurora do Tocantins/TO,-12.71045,-46.407604,570,14964.55763
D1,Aurora do Tocantins/TO,-12.71045,-46.407604,8,210.02888
1,Aurora/CE,-6.9426019,-38.9693765,2642,10754.26385
D1,Aurora/CE,-6.9426019,-38.9693765,44,179.10205
1,Aurora/SC,-27.3166417,-49.6368502,1505,26463.86496
D1,Aurora/SC,-27.3166417,-49.6368502,23,404.43116
1,Autazes/AM,-3.5833283,-59.1301518,4080,9950.00610
D1,Autazes/AM,-3.5833283,-59.1301518,102,248.75015
1,Avanhandava/SP,-21.4603331,-49.9465156,1731,12308.89568
D1,Avanhandava/SP,-21.4603331,-49.9465156,48,341.32120
1,Avaré/SP,-23.1045215,-48.9259103,15057,16403.39027
D1,Avaré/SP,-23.1045215,-48.9259103,316,344.25658
1,Avaí/SP,-22.1564662,-49.3316395,827,15127.12639
D1,Avaí/SP,-22.1564662,-49.3316395,14,256.08195
1,Aveiro/PA,-3.6049239,-55.3310742,1160,7064.12521
D1,Aveiro/PA,-3.6049239,-55.3310742,15,91.34645
1,Avelino Lopes/PI,-10.1346855,-43.9489525,562,4946.74765
D1,Avelino Lopes/PI,-10.1346855,-43.9489525,23,202.44697
1,Avelinópolis/GO,-16.4672409,-49.7578661,403,16784.67305
D1,Avelinópolis/GO,-16.4672409,-49.7578661,18,749.68763
1,Axixá do Tocantins/TO,-5.612747,-47.77007,1301,13252.52114
D1,Axixá do Tocantins/TO,-5.612747,-47.77007,24,244.47387
1,Axixá/MA,-2.8379465,-44.0561053,192,1569.39676
D1,Axixá/MA,-2.8379465,-44.0561053,8,65.39153
1,Açailândia/MA,-4.9514278,-47.4844564,6697,5885.76501
D1,Açailândia/MA,-4.9514278,-47.4844564,292,256.62885
1,Açu/RN,-5.5836157,-36.9139541,10438,17768.92566
D1,Açu/RN,-5.5836157,-36.9139541,170,289.39618
1,Açucena/MG,-19.073056,-42.546666,866,9341.96332
D1,Açucena/MG,-19.073056,-42.546666,39,420.71197
1,Babaçulândia/TO,-7.2034355,-47.761613,907,8502.06224
D1,Babaçulândia/TO,-7.2034355,-47.761613,8,74.99063
1,Bacabal/MA,-4.2318132,-44.781167,5759,5479.85613
D1,Bacabal/MA,-4.2318132,-44.781167,218,207.43335
1,Bacabeira/MA,-2.9775747,-44.3155943,600,3439.18377
D1,Bacabeira/MA,-2.9775747,-44.3155943,11,63.05170
1,Bacuri/MA,-1.728894,-45.1417148,937,5003.73812
D1,Bacuri/MA,-1.728894,-45.1417148,4,21.36067
1,Bacurituba/MA,-2.7082587,-44.7381309,117,2054.07303
D1,Bacurituba/MA,-2.7082587,-44.7381309,2,35.11236
1,Bady Bassitt/SP,-20.9178969,-49.4517911,4501,24987.50902
D1,Bady Bassitt/SP,-20.9178969,-49.4517911,101,560.70616
1,Baependi/MG,-21.959162,-44.8899249,3320,17247.64923
D1,Baependi/MG,-21.959162,-44.8899249,38,197.41285
1,Bagre/PA,-1.8994498,-50.2103844,1325,4144.89943
D1,Bagre/PA,-1.8994498,-50.2103844,13,40.66694
1,Bagé/RS,-31.3314264,-54.1062808,24895,20486.67687
D1,Bagé/RS,-31.3314264,-54.1062808,341,280.61686
1,Baianópolis/BA,-12.3067564,-44.5383591,1369,9793.26132
D1,Baianópolis/BA,-12.3067564,-44.5383591,26,185.99328
1,Baixa Grande do Ribeiro/PI,-7.862861,-45.2113289,2672,22738.49034
D1,Baixa Grande do Ribeiro/PI,-7.862861,-45.2113289,36,306.35691
1,Baixa Grande/BA,-11.9630941,-40.1657537,1363,6671.23489
D1,Baixa Grande/BA,-11.9630941,-40.1657537,25,122.36308
1,Baixio/CE,-6.7303544,-38.7170095,901,14260.84204
D1,Baixio/CE,-6.7303544,-38.7170095,18,284.90028
1,Baixo Guandu/ES,-19.5138322,-41.0182089,10091,32277.77245
D1,Baixo Guandu/ES,-19.5138322,-41.0182089,104,332.66161
1,Baião/PA,-2.7903479,-49.6702845,950,1920.97707
D1,Baião/PA,-2.7903479,-49.6702845,39,78.86116
1,Balbinos/SP,-21.9006253,-49.3583966,691,11277.95006
D1,Balbinos/SP,-21.9006253,-49.3583966,4,65.28480
1,Baldim/MG,-19.2913568,-43.9558262,820,10539.84576
D1,Baldim/MG,-19.2913568,-43.9558262,24,308.48329
1,Baliza/GO,-16.1978119,-52.542789,854,15762.27390
D1,Baliza/GO,-16.1978119,-52.542789,13,239.94094
1,Balneário Arroio do Silva/SC,-28.9815269,-49.4189932,3745,27173.12437
D1,Balneário Arroio do Silva/SC,-28.9815269,-49.4189932,65,471.62966
1,Balneário Barra do Sul/SC,-26.459842,-48.6061471,2278,20211.16139
D1,Balneário Barra do Sul/SC,-26.459842,-48.6061471,55,487.97800
1,Balneário Camboriú/SC,-26.9924395,-48.6339782,36746,24624.23020
D1,Balneário Camboriú/SC,-26.9924395,-48.6339782,496,332.37953
1,Balneário Gaivota/SC,-29.1553098,-49.5808712,3305,28646.96195
D1,Balneário Gaivota/SC,-29.1553098,-49.5808712,41,355.37835
1,Balneário Pinhal/RS,-30.2482978,-50.234585,3746,25578.69580
D1,Balneário Pinhal/RS,-30.2482978,-50.234585,63,430.18095
1,Balneário Piçarras/SC,-26.7638889,-48.6716667,7439,30506.45889
D1,Balneário Piçarras/SC,-26.7638889,-48.6716667,73,299.36436
1,Balneário Rincão/SC,-28.8235718,-49.2241642,2441,18592.42897
D1,Balneário Rincão/SC,-28.8235718,-49.2241642,54,411.30322
1,Balsa Nova/PR,-25.5842234,-49.6312741,3104,23447.65070
D1,Balsa Nova/PR,-25.5842234,-49.6312741,36,271.94440
1,Balsas/MA,-7.53214,-46.037163,16192,16701.22020
D1,Balsas/MA,-7.53214,-46.037163,236,243.42193
1,Bambuí/MG,-20.0131996,-45.9777034,6155,25684.35987
D1,Bambuí/MG,-20.0131996,-45.9777034,42,175.26289
1,Banabuiú/CE,-5.3046404,-38.919766,2931,16005.02375
D1,Banabuiú/CE,-5.3046404,-38.919766,22,120.13324
1,Bananal/SP,-22.6828195,-44.3221095,1145,10372.31633
D1,Bananal/SP,-22.6828195,-44.3221095,6,54.35275
1,Bananeiras/PB,-6.7537682,-35.6338343,2050,9660.69746
D1,Bananeiras/PB,-6.7537682,-35.6338343,29,136.66352
1,Bandeira do Sul/MG,-21.728056,-46.385555,1288,22176.30854
D1,Bandeira do Sul/MG,-21.728056,-46.385555,16,275.48209
1,Bandeira/MG,-15.884444,-40.559167,733,15470.66273
D1,Bandeira/MG,-15.884444,-40.559167,12,253.27142
1,Bandeirante/SC,-26.7677402,-53.6397596,746,28495.03438
D1,Bandeirante/SC,-26.7677402,-53.6397596,7,267.37968
1,Bandeirantes do Tocantins/TO,-7.7635698,-48.579148,816,22473.14789
D1,Bandeirantes do Tocantins/TO,-7.7635698,-48.579148,8,220.32498
1,Bandeirantes/MS,-19.9179623,-54.3646768,823,11303.39239
D1,Bandeirantes/MS,-19.9179623,-54.3646768,12,164.81253
1,Bandeirantes/PR,-23.107788,-50.370407,9452,30430.44332
D1,Bandeirantes/PR,-23.107788,-50.370407,163,524.77383
1,Bannach/PA,-7.3508505,-50.4064531,656,20253.16456
D1,Bannach/PA,-7.3508505,-50.4064531,3,92.62118
1,Banzaê/BA,-10.5827616,-38.6122305,1411,10648.25296
D1,Banzaê/BA,-10.5827616,-38.6122305,12,90.55920
1,Baraúna/PB,-6.643394,-36.2531932,792,15736.14147
D1,Baraúna/PB,-6.643394,-36.2531932,9,178.81979
1,Baraúna/RN,-5.0775002,-37.61752,1764,6059.35697
D1,Baraúna/RN,-5.0775002,-37.61752,32,109.92031
1,Barbacena/MG,-21.2254524,-43.7735087,17293,12435.54987
D1,Barbacena/MG,-21.2254524,-43.7735087,352,253.12633
1,Barbalha/CE,-7.3121067,-39.3036427,10990,17822.97039
D1,Barbalha/CE,-7.3121067,-39.3036427,210,340.56631
1,Barbosa Ferraz/PR,-24.0287182,-52.00811,3286,29113.13901
D1,Barbosa Ferraz/PR,-24.0287182,-52.00811,56,496.14601
1,Barbosa/SP,-21.265661,-49.951816,934,12400.42485
D1,Barbosa/SP,-21.265661,-49.951816,24,318.64047
1,Barcarena/PA,-1.5107945,-48.6190679,14365,11106.98739
D1,Barcarena/PA,-1.5107945,-48.6190679,259,200.25825
1,Barcelona/RN,-5.9514918,-35.9260284,488,12233.64252
D1,Barcelona/RN,-5.9514918,-35.9260284,11,275.75834
1,Barcelos/AM,-0.9729214,-62.925635,5319,19152.38370
D1,Barcelos/AM,-0.9729214,-62.925635,60,216.04494
1,Bariri/SP,-22.0746355,-48.7394852,5287,14750.02790
D1,Bariri/SP,-22.0746355,-48.7394852,149,415.69021
1,Barra Bonita/SC,-26.6526364,-53.4419581,473,29107.69231
D1,Barra Bonita/SC,-26.6526364,-53.4419581,2,123.07692
1,Barra Bonita/SP,-22.490859,-48.558349,5491,15200.00000
D1,Barra Bonita/SP,-22.490859,-48.558349,130,359.86159
1,Barra D'Alcântara/PI,-6.5209258,-42.1071089,164,4148.74779
D1,Barra D'Alcântara/PI,-6.5209258,-42.1071089,5,126.48621
1,Barra Funda/RS,-27.9230048,-53.0401045,1055,41162.69996
D1,Barra Funda/RS,-27.9230048,-53.0401045,14,546.23488
1,Barra Longa/MG,-20.2833541,-43.0423516,664,13537.20693
D1,Barra Longa/MG,-20.2833541,-43.0423516,14,285.42304
1,Barra Mansa/RJ,-22.5394843,-44.1735129,47244,25504.62381
D1,Barra Mansa/RJ,-22.5394843,-44.1735129,750,404.88671
1,Barra Velha/SC,-26.6338203,-48.6835001,6770,22168.37486
D1,Barra Velha/SC,-26.6338203,-48.6835001,144,471.52821
1,Barra da Estiva/BA,-13.6269662,-41.3278287,3853,19076.14615
D1,Barra da Estiva/BA,-13.6269662,-41.3278287,36,178.23547
1,Barra de Guabiraba/PE,-8.4173522,-35.6626669,932,6369.60087
D1,Barra de Guabiraba/PE,-8.4173522,-35.6626669,21,143.52105
1,Barra de Santa Rosa/PB,-6.7218007,-36.0564638,1749,11206.50990
D1,Barra de Santa Rosa/PB,-6.7218007,-36.0564638,16,102.51810
1,Barra de Santana/PB,-7.5230865,-35.9988518,1159,13900.21588
D1,Barra de Santana/PB,-7.5230865,-35.9988518,8,95.94627
1,Barra de Santo Antônio/AL,-9.4038098,-35.5117693,615,3796.06197
D1,Barra de Santo Antônio/AL,-9.4038098,-35.5117693,33,203.69113
1,Barra de São Francisco/ES,-18.7570902,-40.8916119,11530,25451.97678
D1,Barra de São Francisco/ES,-18.7570902,-40.8916119,262,578.35368
1,Barra de São Miguel/AL,-9.8261357,-35.8837777,1006,11927.91084
D1,Barra de São Miguel/AL,-9.8261357,-35.8837777,10,118.56770
1,Barra de São Miguel/PB,-7.7528088,-36.3170996,1353,22198.52338
D1,Barra de São Miguel/PB,-7.7528088,-36.3170996,10,164.06891
1,Barra do Bugres/MT,-15.0683712,-57.1853688,7508,21065.03563
D1,Barra do Bugres/MT,-15.0683712,-57.1853688,102,286.17923
1,Barra do Chapéu/SP,-24.472203,-49.023784,465,8025.54367
D1,Barra do Chapéu/SP,-24.472203,-49.023784,14,241.62927
1,Barra do Choça/BA,-14.8638173,-40.5761637,2904,9419.09117
D1,Barra do Choça/BA,-14.8638173,-40.5761637,41,132.98304
1,Barra do Corda/MA,-5.496823,-45.248496,5876,6610.04556
D1,Barra do Corda/MA,-5.496823,-45.248496,80,89.99381
1,Barra do Garças/MT,-15.8916033,-52.2615413,15993,25919.74328
D1,Barra do Garças/MT,-15.8916033,-52.2615413,407,659.62205
1,Barra do Guarita/RS,-27.1888016,-53.7147086,137,4194.73362
D1,Barra do Guarita/RS,-27.1888016,-53.7147086,8,244.94795
1,Barra do Jacaré/PR,-23.1151788,-50.1813945,673,24199.92808
D1,Barra do Jacaré/PR,-23.1151788,-50.1813945,7,251.70802
1,Barra do Mendes/BA,-11.8053298,-42.057037,1126,8577.08714
D1,Barra do Mendes/BA,-11.8053298,-42.057037,21,159.96344
1,Barra do Ouro/TO,-7.7113784,-47.6743925,198,4237.10678
D1,Barra do Ouro/TO,-7.7113784,-47.6743925,8,171.19623
1,Barra do Piraí/RJ,-22.4703403,-43.8263256,11870,11736.32328
D1,Barra do Piraí/RJ,-22.4703403,-43.8263256,443,438.01105
1,Barra do Quaraí/RS,-30.208947,-57.5505128,1033,24374.70505
D1,Barra do Quaraí/RS,-30.208947,-57.5505128,9,212.36432
1,Barra do Ribeiro/RS,-30.2930206,-51.301437,2357,17307.97474
D1,Barra do Ribeiro/RS,-30.2930206,-51.301437,60,440.59333
1,Barra do Rio Azul/RS,-27.4101581,-52.4117471,209,12893.27576
D1,Barra do Rio Azul/RS,-27.4101581,-52.4117471,1,61.69031
1,Barra do Rocha/BA,-14.2090974,-39.6004395,748,13563.00997
D1,Barra do Rocha/BA,-14.2090974,-39.6004395,8,145.05893
1,Barra do Turvo/SP,-24.756421,-48.5056942,789,10373.38943
D1,Barra do Turvo/SP,-24.756421,-48.5056942,25,328.68788
1,Barra dos Coqueiros/SE,-10.9075694,-37.0386249,8615,27402.27106
D1,Barra dos Coqueiros/SE,-10.9075694,-37.0386249,108,343.52238
1,Barra/BA,-11.0892702,-43.1420453,3351,6179.80636
D1,Barra/BA,-11.0892702,-43.1420453,71,130.93592
1,Barracão/PR,-26.252395,-53.6349576,2672,25823.91031
D1,Barracão/PR,-26.252395,-53.6349576,39,376.92085
1,Barracão/RS,-27.6728964,-51.4582928,871,16631.65935
D1,Barracão/RS,-27.6728964,-51.4582928,18,343.70823
1,Barras/PI,-4.2446153,-42.2920241,6386,13501.62798
D1,Barras/PI,-4.2446153,-42.2920241,107,226.22521
1,Barreira/CE,-4.2883361,-38.641094,2333,10270.74620
D1,Barreira/CE,-4.2883361,-38.641094,53,233.32600
1,Barreiras do Piauí/PI,-9.9224524,-45.4763776,114,3396.90107
D1,Barreiras do Piauí/PI,-9.9224524,-45.4763776,4,119.18951
1,Barreiras/BA,-12.1440031,-44.9967406,25659,16195.59180
D1,Barreiras/BA,-12.1440031,-44.9967406,354,223.43971
1,Barreirinha/AM,-2.798863,-57.067897,3908,11871.56353
D1,Barreirinha/AM,-2.798863,-57.067897,69,209.60540
1,Barreirinhas/MA,-2.7541271,-42.8259693,2797,4377.76839
D1,Barreirinhas/MA,-2.7541271,-42.8259693,49,76.69312
1,Barreiros/PE,-8.8159644,-35.1831905,1434,3345.30864
D1,Barreiros/PE,-8.8159644,-35.1831905,67,156.30103
1,Barretos/SP,-20.5531437,-48.5697509,27331,22122.12455
D1,Barretos/SP,-20.5531437,-48.5697509,635,513.97860
1,Barrinha/SP,-21.1898849,-48.1550642,1753,5227.06265
D1,Barrinha/SP,-21.1898849,-48.1550642,90,268.36032
1,Barro Alto/BA,-11.7618025,-41.9094904,1197,7890.05339
D1,Barro Alto/BA,-11.7618025,-41.9094904,17,112.05590
1,Barro Alto/GO,-14.9696025,-48.9190985,2630,22588.67989
D1,Barro Alto/GO,-14.9696025,-48.9190985,24,206.13244
1,Barro Duro/PI,-5.8180139,-42.5106589,812,11563.65708
D1,Barro Duro/PI,-5.8180139,-42.5106589,12,170.89148
1,Barro Preto/BA,-14.8068289,-39.4727588,755,14213.10241
D1,Barro Preto/BA,-14.8068289,-39.4727588,14,263.55422
1,Barro/CE,-7.1713587,-38.7742136,2803,12275.55400
D1,Barro/CE,-7.1713587,-38.7742136,50,218.97171
1,Barrocas/BA,-11.5165,-39.099282894736845,1148,7075.50077
D1,Barrocas/BA,-11.5165,-39.099282894736845,29,178.73652
1,Barrolândia/TO,-9.837246,-48.7264346,863,15223.14341
D1,Barrolândia/TO,-9.837246,-48.7264346,21,370.43570
1,Barroquinha/CE,-3.0200371,-41.1339229,1623,10770.45590
D1,Barroquinha/CE,-3.0200371,-41.1339229,28,185.81193
1,Barros Cassal/RS,-29.094938,-52.5832366,1554,13916.00251
D1,Barros Cassal/RS,-29.094938,-52.5832366,16,143.27931
1,Barroso/MG,-21.187222,-43.976111,5809,27686.95486
D1,Barroso/MG,-21.187222,-43.976111,73,347.93384
1,Barueri/SP,-23.5112184,-46.8764612,42107,15054.12865
D1,Barueri/SP,-23.5112184,-46.8764612,1254,448.33109
1,Barão de Antonina/SP,-23.6295651,-49.5632104,891,25276.59574
D1,Barão de Antonina/SP,-23.6295651,-49.5632104,11,312.05674
1,Barão de Cocais/MG,-19.9452437,-43.4870298,7317,22017.93452
D1,Barão de Cocais/MG,-19.9452437,-43.4870298,85,255.77756
1,Barão de Cotegipe/RS,-27.6214694,-52.3765316,1072,16203.14389
D1,Barão de Cotegipe/RS,-27.6214694,-52.3765316,11,166.26360
1,Barão de Grajaú/MA,-6.7542591,-43.0263477,481,2528.11942
D1,Barão de Grajaú/MA,-6.7542591,-43.0263477,7,36.79176
1,Barão de Melgaço/MT,-16.195776,-55.9668049,1194,14623.39253
D1,Barão de Melgaço/MT,-16.195776,-55.9668049,18,220.45315
1,Barão de Monte Alto/MG,-21.244722,-42.2375,387,7286.76332
D1,Barão de Monte Alto/MG,-21.244722,-42.2375,16,301.26153
1,Barão do Triunfo/RS,-30.3909877,-51.7375349,737,9761.58940
D1,Barão do Triunfo/RS,-30.3909877,-51.7375349,10,132.45033
1,Barão/RS,-29.372474,-51.494908,1328,21309.37099
D1,Barão/RS,-29.372474,-51.494908,15,240.69320
1,Bastos/SP,-21.9222474,-50.7317727,2401,11459.52654
D1,Bastos/SP,-21.9222474,-50.7317727,72,343.64261
1,Bataguassu/MS,-21.715899,-52.422058,4347,18403.89500
D1,Bataguassu/MS,-21.715899,-52.422058,53,224.38611
1,Batalha/AL,-9.6733809,-37.1265481,1287,6979.39262
D1,Batalha/AL,-9.6733809,-37.1265481,23,124.72885
1,Batalha/PI,-4.022391,-42.0780926,1526,5662.12756
D1,Batalha/PI,-4.022391,-42.0780926,40,148.41750
1,Batatais/SP,-20.892867,-47.592149,6802,10722.28002
D1,Batatais/SP,-20.892867,-47.592149,209,329.45553
1,Batayporã/MS,-22.2976466,-53.2685608,1796,15798.73329
D1,Batayporã/MS,-22.2976466,-53.2685608,31,272.69529
1,Baturité/CE,-4.3290203,-38.8821055,5547,15354.16724
D1,Baturité/CE,-4.3290203,-38.8821055,92,254.65718
1,Bauru/SP,-22.3218102,-49.0705863,79430,20809.20918
D1,Bauru/SP,-22.3218102,-49.0705863,1440,377.25370
1,Bayeux/PB,-7.1301631,-34.936532,11235,11520.83184
D1,Bayeux/PB,-7.1301631,-34.936532,270,276.86912
1,Baía Formosa/RN,-6.3691885,-35.0063741,742,7916.35549
D1,Baía Formosa/RN,-6.3691885,-35.0063741,11,117.35837
1,Baía da Traição/PB,-6.691258,-34.9371244,1651,17951.50593
D1,Baía da Traição/PB,-6.691258,-34.9371244,13,141.35044
1,Bebedouro/SP,-20.949077,-48.479083,5186,6681.95640
D1,Bebedouro/SP,-20.949077,-48.479083,343,441.94197
1,Beberibe/CE,-4.1810469,-38.1298101,9820,18079.72015
D1,Beberibe/CE,-4.1810469,-38.1298101,145,266.96124
1,Bela Cruz/CE,-3.0529129,-40.167582,4118,12535.38705
D1,Bela Cruz/CE,-3.0529129,-40.167582,77,234.39165
1,Bela Vista da Caroba/PR,-25.8792818,-53.6672545,732,21504.11281
D1,Bela Vista da Caroba/PR,-25.8792818,-53.6672545,9,264.39483
1,Bela Vista de Goiás/GO,-16.9692949,-48.9513071,5374,17333.24732
D1,Bela Vista de Goiás/GO,-16.9692949,-48.9513071,93,299.96130
1,Bela Vista de Minas/MG,-19.8289721,-43.0973688,1308,12737.36488
D1,Bela Vista de Minas/MG,-19.8289721,-43.0973688,25,243.45116
1,Bela Vista do Maranhão/MA,-3.7416367,-45.2514192,265,2335.41905
D1,Bela Vista do Maranhão/MA,-3.7416367,-45.2514192,20,176.25804
1,Bela Vista do Paraíso/PR,-22.9948493,-51.1907996,3849,24993.50649
D1,Bela Vista do Paraíso/PR,-22.9948493,-51.1907996,85,551.94805
1,Bela Vista do Piauí/PI,-7.9716353,-41.8715061,324,8011.86944
D1,Bela Vista do Piauí/PI,-7.9716353,-41.8715061,7,173.09594
1,Bela Vista do Toldo/SC,-26.274625,-50.466354,108,1691.19950
D1,Bela Vista do Toldo/SC,-26.274625,-50.466354,5,78.29627
1,Bela Vista/MS,-22.107327,-56.5317344,2731,10993.47879
D1,Bela Vista/MS,-22.107327,-56.5317344,42,169.06851
1,Belford Roxo/RJ,-22.7667284,-43.4033603,50114,9726.36000
D1,Belford Roxo/RJ,-22.7667284,-43.4033603,1018,197.57821
1,Belmiro Braga/MG,-21.9486291,-43.413564,873,25511.39684
D1,Belmiro Braga/MG,-21.9486291,-43.413564,6,175.33606
1,Belmonte/BA,-15.8630837,-38.8792845,1747,7421.41037
D1,Belmonte/BA,-15.8630837,-38.8792845,32,135.93883
1,Belmonte/SC,-26.8448262,-53.578916,638,23525.07375
D1,Belmonte/SC,-26.8448262,-53.578916,5,184.36578
1,Belo Campo/BA,-15.0338286,-41.2585109,1170,6877.09399
D1,Belo Campo/BA,-15.0338286,-41.2585109,22,129.31288
1,Belo Horizonte/MG,-19.9227318,-43.9450948,428654,16938.15271
D1,Belo Horizonte/MG,-19.9227318,-43.9450948,7932,313.43094
1,Belo Jardim/PE,-8.3338293,-36.4176419,9995,12992.33069
D1,Belo Jardim/PE,-8.3338293,-36.4176419,138,179.38386
1,Belo Monte/AL,-9.8269944,-37.2787165,648,9647.16391
D1,Belo Monte/AL,-9.8269944,-37.2787165,9,133.98839
1,Belo Oriente/MG,-19.2232523,-42.4807033,3471,12725.00642
D1,Belo Oriente/MG,-19.2232523,-42.4807033,83,304.28566
1,Belo Vale/MG,-20.407778,-44.024167,1723,22309.98317
D1,Belo Vale/MG,-20.407778,-44.024167,15,194.22504
1,Belterra/PA,-2.636091,-54.937392,2981,16612.79536
D1,Belterra/PA,-2.636091,-54.937392,50,278.64467
1,Belágua/MA,-3.1604031,-43.5085052,446,5879.25125
D1,Belágua/MA,-3.1604031,-43.5085052,4,52.72871
1,Belém de Maria/PE,-8.6242497,-35.8388934,544,4470.37554
D1,Belém de Maria/PE,-8.6242497,-35.8388934,10,82.17602
1,Belém do Brejo do Cruz/PB,-6.1880727,-37.5332267,855,11623.16476
D1,Belém do Brejo do Cruz/PB,-6.1880727,-37.5332267,8,108.75476
1,Belém do Piauí/PI,-7.3767305,-40.9712156,625,17327.41891
D1,Belém do Piauí/PI,-7.3767305,-40.9712156,8,221.79096
1,Belém do São Francisco/PE,-8.7517707,-38.9625715,1578,7612.15630
D1,Belém do São Francisco/PE,-8.7517707,-38.9625715,16,77.18283
1,Belém/AL,-9.5715351,-36.492841,236,5584.47705
D1,Belém/AL,-9.5715351,-36.492841,8,189.30431
1,Belém/PA,-1.45056,-48.4682453,143390,9518.59375
D1,Belém/PA,-1.45056,-48.4682453,5364,356.07599
1,Belém/PB,-6.6967586,-35.5369626,3074,17334.91231
D1,Belém/PB,-6.6967586,-35.5369626,48,270.68178
1,Beneditinos/PI,-5.4565671,-42.3605061,1484,14161.65665
D1,Beneditinos/PI,-5.4565671,-42.3605061,41,391.25871
1,Benedito Leite/MA,-7.2173453,-44.5523331,339,6007.44285
D1,Benedito Leite/MA,-7.2173453,-44.5523331,2,35.44214
1,Benedito Novo/SC,-26.7840657,-49.3629511,1541,12953.93410
D1,Benedito Novo/SC,-26.7840657,-49.3629511,24,201.74849
1,Benevides/PA,-1.3555577,-48.252235,6588,10169.80550
D1,Benevides/PA,-1.3555577,-48.252235,116,179.06761
1,Benjamin Constant do Sul/RS,-27.5105555,-52.6007689,207,10758.83576
D1,Benjamin Constant do Sul/RS,-27.5105555,-52.6007689,3,155.92516
1,Benjamin Constant/AM,-4.3782748,-70.0290603,3995,8902.90375
D1,Benjamin Constant/AM,-4.3782748,-70.0290603,88,196.10902
1,Bento Fernandes/RN,-5.6926846,-35.8207423,243,4376.80115
D1,Bento Fernandes/RN,-5.6926846,-35.8207423,4,72.04611
1,Bento Gonçalves/RS,-29.1654014,-51.5197627,38118,30967.58469
D1,Bento Gonçalves/RS,-29.1654014,-51.5197627,469,381.02202
1,Bento de Abreu/SP,-21.2707225,-50.8120444,638,21070.01321
D1,Bento de Abreu/SP,-21.2707225,-50.8120444,5,165.12550
1,Bequimão/MA,-2.4495376,-44.7884889,652,3058.59173
D1,Bequimão/MA,-2.4495376,-44.7884889,29,136.04166
1,Berilo/MG,-16.9515764,-42.4643732,508,4300.34708
D1,Berilo/MG,-16.9515764,-42.4643732,2,16.93050
1,Berizal/MG,-15.6118785,-41.7417382,401,8368.11352
D1,Berizal/MG,-15.6118785,-41.7417382,3,62.60434
1,Bernardino Batista/PB,-6.4532173,-38.5495418,467,13077.56931
D1,Bernardino Batista/PB,-6.4532173,-38.5495418,3,84.01008
1,Bernardino de Campos/SP,-23.0140216,-49.4760724,2051,18364.97135
D1,Bernardino de Campos/SP,-23.0140216,-49.4760724,40,358.16619
1,Bernardo Sayão/TO,-7.8794244,-48.8968905,1141,25703.98738
D1,Bernardo Sayão/TO,-7.8794244,-48.8968905,13,292.85875
1,Bernardo do Mearim/MA,-4.6315929,-44.7617508,587,9619.79679
D1,Bernardo do Mearim/MA,-4.6315929,-44.7617508,7,114.71649
1,Bertioga/SP,-23.848568,-46.139586,9484,14336.24573
D1,Bertioga/SP,-23.848568,-46.139586,197,297.79001
1,Bertolínia/PI,-7.6372159,-43.9540611,1222,22169.81132
D1,Bertolínia/PI,-7.6372159,-43.9540611,12,217.70682
1,Bertópolis/MG,-17.063333,-40.573889,793,17205.46756
D1,Bertópolis/MG,-17.063333,-40.573889,6,130.18008
1,Beruri/AM,-3.9007135,-61.3717319,2906,14173.53558
D1,Beruri/AM,-3.9007135,-61.3717319,35,170.70673
1,Betim/MG,-19.968056,-44.198333,50678,11261.17718
D1,Betim/MG,-19.968056,-44.198333,1448,321.76062
1,Betânia do Piauí/PI,-8.1460635,-40.7961387,184,2961.05568
D1,Betânia do Piauí/PI,-8.1460635,-40.7961387,4,64.37078
1,Betânia/PE,-8.2742779,-38.0351767,740,5776.28600
D1,Betânia/PE,-8.2742779,-38.0351767,19,148.31005
1,Bezerros/PE,-8.2372132,-35.7558262,8891,14584.97375
D1,Bezerros/PE,-8.2372132,-35.7558262,130,213.25459
1,Bias Fortes/MG,-21.605833,-43.756944,506,15417.42840
D1,Bias Fortes/MG,-21.605833,-43.756944,4,121.87690
1,Bicas/MG,-21.7213723,-43.0604327,3838,26266.08267
D1,Bicas/MG,-21.7213723,-43.0604327,55,376.40296
1,Biguaçu/SC,-27.4961277,-48.6542432,17047,24190.09238
D1,Biguaçu/SC,-27.4961277,-48.6542432,186,263.93836
1,Bilac/SP,-21.403962,-50.47464,967,11796.99890
D1,Bilac/SP,-21.403962,-50.47464,25,304.98963
1,Biquinhas/MG,-18.783611,-45.502222,425,17123.28767
D1,Biquinhas/MG,-18.783611,-45.502222,4,161.16035
1,Birigui/SP,-21.2908491,-50.34144,29280,23220.77181
D1,Birigui/SP,-21.2908491,-50.34144,643,509.93703
1,Biritiba Mirim/SP,-23.5697765,-46.0407456,1584,4761.76161
D1,Biritiba Mirim/SP,-23.5697765,-46.0407456,119,357.73335
1,Biritinga/BA,-11.6227908,-38.8066738,1064,6654.57502
D1,Biritinga/BA,-11.6227908,-38.8066738,10,62.54300
1,Bituruna/PR,-26.161281,-51.5533319,2612,15916.15380
D1,Bituruna/PR,-26.161281,-51.5533319,37,225.45853
1,Blumenau/SC,-26.9195567,-49.0658025,99549,27168.15222
D1,Blumenau/SC,-26.9195567,-49.0658025,803,219.14862
1,Boa Esperança do Iguaçu/PR,-25.6362851,-53.2139114,500,20517.02913
D1,Boa Esperança do Iguaçu/PR,-25.6362851,-53.2139114,1,41.03406
1,Boa Esperança do Sul/SP,-21.9930206,-48.3917372,2633,17424.39283
D1,Boa Esperança do Sul/SP,-21.9930206,-48.3917372,26,172.06009
1,Boa Esperança/ES,-18.5395472,-40.2904088,4801,31698.13812
D1,Boa Esperança/ES,-18.5395472,-40.2904088,55,363.13218
1,Boa Esperança/MG,-21.0901253,-45.5660195,8552,21216.63193
D1,Boa Esperança/MG,-21.0901253,-45.5660195,152,377.09636
1,Boa Esperança/PR,-24.2411024,-52.7860277,1442,36131.29541
D1,Boa Esperança/PR,-24.2411024,-52.7860277,20,501.12754
1,Boa Hora/PI,-4.4094627,-42.1255341,608,8878.50467
D1,Boa Hora/PI,-4.4094627,-42.1255341,7,102.21963
1,Boa Nova/BA,-14.365907,-40.2063056,1329,11039.12285
D1,Boa Nova/BA,-14.365907,-40.2063056,23,191.04577
1,Boa Ventura de São Roque/PR,-24.88177,-51.5441292,1137,17925.27195
D1,Boa Ventura de São Roque/PR,-24.88177,-51.5441292,10,157.65411
1,Boa Ventura/PB,-7.4202462,-38.2156782,1032,19664.63415
D1,Boa Ventura/PB,-7.4202462,-38.2156782,12,228.65854
1,Boa Viagem/CE,-5.1261877,-39.7300055,6097,11150.32919
D1,Boa Viagem/CE,-5.1261877,-39.7300055,124,226.77396
1,Boa Vista da Aparecida/PR,-25.4357216,-53.4067721,1782,23684.21053
D1,Boa Vista da Aparecida/PR,-25.4357216,-53.4067721,39,518.34131
1,Boa Vista das Missões/RS,-27.6677983,-53.3127622,636,30474.36512
D1,Boa Vista das Missões/RS,-27.6677983,-53.3127622,7,335.40968
1,Boa Vista do Buricá/RS,-27.6687782,-54.1111913,1650,24582.83671
D1,Boa Vista do Buricá/RS,-27.6687782,-54.1111913,13,193.68296
1,Boa Vista do Cadeado/RS,-28.5783827,-53.8123759,457,18532.03569
D1,Boa Vista do Cadeado/RS,-28.5783827,-53.8123759,5,202.75750
1,Boa Vista do Gurupi/MA,-1.7981168,-46.3071882,16,188.36826
D1,Boa Vista do Gurupi/MA,-1.7981168,-46.3071882,5,58.86508
1,Boa Vista do Incra/RS,-28.8195551,-53.3866624,811,30859.96956
D1,Boa Vista do Incra/RS,-28.8195551,-53.3866624,5,190.25875
1,Boa Vista do Ramos/AM,-2.9716927,-57.5869819,1737,8667.66467
D1,Boa Vista do Ramos/AM,-2.9716927,-57.5869819,14,69.86028
1,Boa Vista do Sul/RS,-29.3510488,-51.6779679,637,22971.51100
D1,Boa Vista do Sul/RS,-29.3510488,-51.6779679,5,180.31013
1,Boa Vista do Tupim/BA,-12.6605988,-40.6083594,313,1692.71538
D1,Boa Vista do Tupim/BA,-12.6605988,-40.6083594,14,75.71251
1,Boa Vista/PB,-7.2620711,-36.2415161,1531,21210.86173
D1,Boa Vista/PB,-7.2620711,-36.2415161,17,235.52231
1,Boa Vista/RR,2.8208478,-60.6719582,130371,29861.12861
D1,Boa Vista/RR,2.8208478,-60.6719582,1623,371.74381
1,Boca da Mata/AL,-9.6452054,-36.2116658,2747,10014.94768
D1,Boca da Mata/AL,-9.6452054,-36.2116658,51,185.93459
1,Boca do Acre/AM,-8.7553487,-67.3930873,4372,12506.43629
D1,Boca do Acre/AM,-8.7553487,-67.3930873,32,91.53842
1,Bocaina de Minas/MG,-22.167778,-44.394722,773,15192.61006
D1,Bocaina de Minas/MG,-22.167778,-44.394722,7,137.57862
1,Bocaina do Sul/SC,-27.745494,-49.942279,804,22964.86718
D1,Bocaina do Sul/SC,-27.745494,-49.942279,5,142.81634
1,Bocaina/PI,-6.9445939,-41.3224599,451,10002.21779
D1,Bocaina/PI,-6.9445939,-41.3224599,11,243.95653
1,Bocaina/SP,-22.1421831,-48.522276,2416,19218.83701
D1,Bocaina/SP,-22.1421831,-48.522276,38,302.28303
1,Bocaiúva do Sul/PR,-25.206591,-49.114131,3222,24211.00090
D1,Bocaiúva do Sul/PR,-25.206591,-49.114131,31,232.94259
1,Bocaiúva/MG,-17.1160208,-43.8122678,4817,9534.64896
D1,Bocaiúva/MG,-17.1160208,-43.8122678,80,158.34999
1,Bodocó/PE,-7.777592,-39.933797,2958,7662.21992
D1,Bodocó/PE,-7.777592,-39.933797,45,116.56521
1,Bodoquena/MS,-20.5508775,-56.6769653,639,8190.20764
D1,Bodoquena/MS,-20.5508775,-56.6769653,24,307.61343
1,Bodó/RN,-5.9866104,-36.4134824,556,25610.31783
D1,Bodó/RN,-5.9866104,-36.4134824,2,92.12345
1,Bofete/SP,-23.1019554,-48.2610535,2200,18171.30586
D1,Bofete/SP,-23.1019554,-48.2610535,29,239.53085
1,Boituva/SP,-23.2838893,-47.6738231,7024,11094.61381
D1,Boituva/SP,-23.2838893,-47.6738231,211,333.28068
1,Bom Conselho/PE,-9.169191,-36.685683,3666,7485.45176
D1,Bom Conselho/PE,-9.169191,-36.685683,91,185.80909
1,Bom Despacho/MG,-19.7375242,-45.2517288,11893,23121.93794
D1,Bom Despacho/MG,-19.7375242,-45.2517288,128,248.85294
1,Bom Jardim da Serra/SC,-28.3380324,-49.625588,1080,22495.31348
D1,Bom Jardim da Serra/SC,-28.3380324,-49.625588,8,166.63195
1,Bom Jardim de Goiás/GO,-16.2062659,-52.172793,2249,25235.63734
D1,Bom Jardim de Goiás/GO,-16.2062659,-52.172793,32,359.06643
1,Bom Jardim de Minas/MG,-21.9476466,-44.1906033,1415,21958.41092
D1,Bom Jardim de Minas/MG,-21.9476466,-44.1906033,8,124.14649
1,Bom Jardim/MA,-3.54129,-45.606004,2062,4908.35515
D1,Bom Jardim/MA,-3.54129,-45.606004,59,140.44275
1,Bom Jardim/PE,-7.7961572,-35.5871696,2802,6998.35157
D1,Bom Jardim/PE,-7.7961572,-35.5871696,73,182.32679
1,Bom Jardim/RJ,-22.1515328,-42.4186683,4384,15781.70560
D1,Bom Jardim/RJ,-22.1515328,-42.4186683,60,215.99050
1,Bom Jesus da Lapa/BA,-13.250571,-43.410754,8365,11924.27763
D1,Bom Jesus da Lapa/BA,-13.250571,-43.410754,107,152.52812
1,Bom Jesus da Penha/MG,-21.0165299,-46.5226644,1281,30000.00000
D1,Bom Jesus da Penha/MG,-21.0165299,-46.5226644,21,491.80328
1,Bom Jesus da Serra/BA,-14.3724084,-40.5047119,636,6511.05651
D1,Bom Jesus da Serra/BA,-14.3724084,-40.5047119,12,122.85012
1,Bom Jesus das Selvas/MA,-4.4878075,-46.8526639,4450,12679.86893
D1,Bom Jesus das Selvas/MA,-4.4878075,-46.8526639,48,136.77162
1,Bom Jesus de Goiás/GO,-18.2174587,-49.739721,5751,22060.68510
D1,Bom Jesus de Goiás/GO,-18.2174587,-49.739721,123,471.82477
1,Bom Jesus do Amparo/MG,-19.7045132,-43.4752911,640,10352.63669
D1,Bom Jesus do Amparo/MG,-19.7045132,-43.4752911,9,145.58395
1,Bom Jesus do Araguaia/MT,-12.1725897,-51.5074425,1131,16559.29722
D1,Bom Jesus do Araguaia/MT,-12.1725897,-51.5074425,17,248.90190
1,Bom Jesus do Galho/MG,-19.8283191,-42.3162256,1026,6936.18172
D1,Bom Jesus do Galho/MG,-19.8283191,-42.3162256,42,283.93726
1,Bom Jesus do Itabapoana/RJ,-21.1341025,-41.680095,8015,21484.47971
D1,Bom Jesus do Itabapoana/RJ,-21.1341025,-41.680095,125,335.06675
1,Bom Jesus do Norte/ES,-21.1254776,-41.6711646,2644,26471.76612
D1,Bom Jesus do Norte/ES,-21.1254776,-41.6711646,33,330.39648
1,Bom Jesus do Oeste/SC,-26.6929713,-53.0967453,367,17181.64794
D1,Bom Jesus do Oeste/SC,-26.6929713,-53.0967453,6,280.89888
1,Bom Jesus do Sul/PR,-26.1922507,-53.6002033,1321,38047.23502
D1,Bom Jesus do Sul/PR,-26.1922507,-53.6002033,9,259.21659
1,Bom Jesus do Tocantins/PA,-5.0471796,-48.5978362,1258,7291.06294
D1,Bom Jesus do Tocantins/PA,-5.0471796,-48.5978362,29,168.07697
1,Bom Jesus do Tocantins/TO,-8.96306,-48.165043,199,3886.71875
D1,Bom Jesus do Tocantins/TO,-8.96306,-48.165043,3,58.59375
1,Bom Jesus dos Perdões/SP,-23.1353864,-46.4648052,2525,9526.14502
D1,Bom Jesus dos Perdões/SP,-23.1353864,-46.4648052,36,135.81831
1,Bom Jesus/PB,-6.8156725,-38.6551841,455,17581.14374
D1,Bom Jesus/PB,-6.8156725,-38.6551841,4,154.55951
1,Bom Jesus/PI,-9.0711644,-44.3583926,3860,15087.55472
D1,Bom Jesus/PI,-9.0711644,-44.3583926,53,207.16073
1,Bom Jesus/RN,-5.9887544,-35.5821149,1464,14181.92386
D1,Bom Jesus/RN,-5.9887544,-35.5821149,20,193.74213
1,Bom Jesus/RS,-28.6692723,-50.4346894,1921,17045.25288
D1,Bom Jesus/RS,-28.6692723,-50.4346894,27,239.57409
1,Bom Jesus/SC,-26.7350604,-52.3916519,784,25257.73196
D1,Bom Jesus/SC,-26.7350604,-52.3916519,12,386.59794
1,Bom Lugar/MA,-4.3728019,-45.0366054,656,3957.05151
D1,Bom Lugar/MA,-4.3728019,-45.0366054,7,42.22464
1,Bom Princípio do Piauí/PI,-3.1912777,-41.6430185,247,4356.26102
D1,Bom Princípio do Piauí/PI,-3.1912777,-41.6430185,13,229.27690
1,Bom Princípio/RS,-29.489788,-51.3566782,3610,24989.61650
D1,Bom Princípio/RS,-29.489788,-51.3566782,35,242.28160
1,Bom Progresso/RS,-27.5490948,-53.8655601,309,16630.78579
D1,Bom Progresso/RS,-27.5490948,-53.8655601,3,161.46394
1,Bom Repouso/MG,-22.4657069,-46.1485376,2545,24175.92856
D1,Bom Repouso/MG,-22.4657069,-46.1485376,34,322.97901
1,Bom Retiro do Sul/RS,-29.6000007,-51.9359243,2177,17488.75321
D1,Bom Retiro do Sul/RS,-29.6000007,-51.9359243,40,321.33676
1,Bom Retiro/SC,-27.798993,-49.486994,1254,12351.02925
D1,Bom Retiro/SC,-27.798993,-49.486994,22,216.68472
1,Bom Sucesso de Itararé/SP,-24.3190016,-49.1446207,592,14752.05582
D1,Bom Sucesso de Itararé/SP,-24.3190016,-49.1446207,7,174.43309
1,Bom Sucesso do Sul/PR,-26.0749256,-52.8348629,1012,31196.05425
D1,Bom Sucesso do Sul/PR,-26.0749256,-52.8348629,10,308.26141
1,Bom Sucesso/MG,-21.0323516,-44.7598082,2272,12900.29525
D1,Bom Sucesso/MG,-21.0323516,-44.7598082,34,193.05019
1,Bom Sucesso/PB,-6.4458948,-37.9297662,814,16487.74559
D1,Bom Sucesso/PB,-6.4458948,-37.9297662,5,101.27608
1,Bom Sucesso/PR,-23.7088019,-51.7651297,2500,35196.39589
D1,Bom Sucesso/PR,-23.7088019,-51.7651297,22,309.72828
1,Bombinhas/SC,-27.1519159,-48.4875691,4767,22820.62329
D1,Bombinhas/SC,-27.1519159,-48.4875691,76,363.82785
1,Bonfim do Piauí/PI,-9.1648678,-42.8734415,518,9087.71930
D1,Bonfim do Piauí/PI,-9.1648678,-42.8734415,9,157.89474
1,Bonfim/MG,-20.3266626, -44.2386157,974,14214.82779
D1,Bonfim/MG,-20.3266626, -44.2386157,20,291.88558
1,Bonfim/RR,3.3613818,-59.8427241,3086,24297.29943
D1,Bonfim/RR,3.3613818,-59.8427241,36,283.44225
1,Bonfinópolis de Minas/MG,-16.5660011,-45.98645,960,17787.65981
D1,Bonfinópolis de Minas/MG,-16.5660011,-45.98645,14,259.40337
1,Bonfinópolis/GO,-16.6172709,-48.9615701,633,6254.94071
D1,Bonfinópolis/GO,-16.6172709,-48.9615701,37,365.61265
1,Boninal/BA,-12.7095183,-41.8299984,1158,7976.30528
D1,Boninal/BA,-12.7095183,-41.8299984,10,68.88001
1,Bonito de Minas/MG,-15.3191266,-44.7544,379,3295.07912
D1,Bonito de Minas/MG,-15.3191266,-44.7544,5,43.47070
1,Bonito de Santa Fé/PB,-7.3143332,-38.5146677,871,7182.91275
D1,Bonito de Santa Fé/PB,-7.3143332,-38.5146677,14,115.45440
1,Bonito/BA,-11.9665473,-41.2649896,1514,8906.40626
D1,Bonito/BA,-11.9665473,-41.2649896,16,94.12318
1,Bonito/MS,-21.1264766,-56.4902208,5076,22659.70269
D1,Bonito/MS,-21.1264766,-56.4902208,80,357.12691
1,Bonito/PA,-1.3605722,-47.3049907,527,3142.70380
D1,Bonito/PA,-1.3605722,-47.3049907,18,107.34093
1,Bonito/PE,-8.4721161,-35.7314591,2735,7178.28928
D1,Bonito/PE,-8.4721161,-35.7314591,48,125.98095
1,Bonópolis/GO,-13.649331,-49.8329113,801,17492.90238
D1,Bonópolis/GO,-13.649331,-49.8329113,5,109.19415
1,Boqueirão do Leão/RS,-29.30332,-52.4296817,714,9283.57821
D1,Boqueirão do Leão/RS,-29.30332,-52.4296817,35,455.07736
1,Boqueirão do Piauí/PI,-4.4850148,-42.1095161,884,13720.31662
D1,Boqueirão do Piauí/PI,-4.4850148,-42.1095161,14,217.29008
1,Boqueirão/PB,-7.487004,-36.130887,2468,13761.57020
D1,Boqueirão/PB,-7.487004,-36.130887,49,273.22404
1,Boquim/SE,-11.1450175,-37.6204228,3809,14117.86509
D1,Boquim/SE,-11.1450175,-37.6204228,76,281.69014
1,Boquira/BA,-12.8184859,-42.7270883,1090,5073.07084
D1,Boquira/BA,-12.8184859,-42.7270883,26,121.00903
1,Boracéia/SP,-22.195355,-48.7801925,1054,21453.28720
D1,Boracéia/SP,-22.195355,-48.7801925,26,529.20822
1,Borba/AM,-4.3934778,-59.5947721,3728,8807.40881
D1,Borba/AM,-4.3934778,-59.5947721,71,167.73767
1,Borborema/PB,-6.8066718,-35.5990191,478,9000.18829
D1,Borborema/PB,-6.8066718,-35.5990191,14,263.60384
1,Borborema/SP,-21.6212706,-49.074135,3886,23872.71164
D1,Borborema/SP,-21.6212706,-49.074135,58,356.30913
1,Borda da Mata/MG,-22.274167,-46.165278,5569,28113.48377
D1,Borda da Mata/MG,-22.274167,-46.165278,65,328.13368
1,Borebi/SP,-22.5700178,-48.9714871,304,11205.30778
D1,Borebi/SP,-22.5700178,-48.9714871,4,147.43826
1,Borrazópolis/PR,-23.9393362,-51.5850786,1965,31240.06359
D1,Borrazópolis/PR,-23.9393362,-51.5850786,36,572.33704
1,Borá/SP,-22.2701088,-50.544407,203,24195.47080
D1,Borá/SP,-22.2701088,-50.544407,1,119.18951
1,Bossoroca/RS,-28.7278885,-54.9120278,831,13545.23227
D1,Bossoroca/RS,-28.7278885,-54.9120278,22,358.59821
1,Botelhos/MG,-21.65,-46.394722,3685,24686.80914
D1,Botelhos/MG,-21.65,-46.394722,35,234.47444
1,Botucatu/SP,-22.8879628,-48.4410712,47428,31678.22172
D1,Botucatu/SP,-22.8879628,-48.4410712,385,257.15011
1,Botumirim/MG,-16.862778,-43.011111,1005,16056.87810
D1,Botumirim/MG,-16.862778,-43.011111,5,79.88497
1,Botuporã/BA,-13.3744752,-42.5198469,1012,10069.65174
D1,Botuporã/BA,-13.3744752,-42.5198469,8,79.60199
1,Botuverá/SC,-27.200749,-49.068892,1699,31486.28614
D1,Botuverá/SC,-27.200749,-49.068892,12,222.38695
1,Bozano/RS,-28.3669953,-53.7705165,605,28823.24917
D1,Bozano/RS,-28.3669953,-53.7705165,9,428.77561
1,Braga/RS,-27.617348,-53.740514,694,21216.75329
D1,Braga/RS,-27.617348,-53.740514,11,336.28860
1,Braganey/PR,-24.8179919,-53.118506,1323,24784.56351
D1,Braganey/PR,-24.8179919,-53.118506,15,281.00412
1,Bragança Paulista/SP,-22.9520235,-46.5418586,36404,21122.62542
D1,Bragança Paulista/SP,-22.9520235,-46.5418586,637,369.60533
1,Bragança/PA,-1.0573967,-46.7635406,6987,5369.57624
D1,Bragança/PA,-1.0573967,-46.7635406,196,150.62787
1,Branquinha/AL,-9.2478057,-36.0152009,1135,10886.24592
D1,Branquinha/AL,-9.2478057,-36.0152009,16,153.46250
1,Brasil Novo/PA,-3.3055853,-52.539198,4434,29792.38057
D1,Brasil Novo/PA,-3.3055853,-52.539198,47,315.79655
1,Brasileira/PI,-4.131182,-41.7824969,792,9469.15352
D1,Brasileira/PI,-4.131182,-41.7824969,21,251.07604
1,Brasilândia de Minas/MG,-17.0096469,-46.0087183,3316,19563.42183
D1,Brasilândia de Minas/MG,-17.0096469,-46.0087183,31,182.89086
1,Brasilândia do Sul/PR,-24.1975793,-53.527551,915,36295.12098
D1,Brasilândia do Sul/PR,-24.1975793,-53.527551,13,515.66839
1,Brasilândia do Tocantins/TO,-8.3886619,-48.4842729,301,13552.45385
D1,Brasilândia do Tocantins/TO,-8.3886619,-48.4842729,6,270.14858
1,Brasilândia/MS,-21.255575,-52.0365617,2130,17997.46515
D1,Brasilândia/MS,-21.255575,-52.0365617,27,228.13688
1,Brasiléia/AC,-11.0010413,-68.7487894,3752,13833.27803
D1,Brasiléia/AC,-11.0010413,-68.7487894,47,173.28467
1,Brasnorte/MT,-12.1227151,-58.0050109,3675,17864.95552
D1,Brasnorte/MT,-12.1227151,-58.0050109,45,218.75456
1,Brasília de Minas/MG,-16.2075114,-44.430559,2182,6722.11953
D1,Brasília de Minas/MG,-16.2075114,-44.430559,18,55.45287
1,Brasília/DF,-15.7934036,-47.8823172,824297,26638.99235
D1,Brasília/DF,-15.7934036,-47.8823172,11803,381.44022
1,Brazabrantes/GO,-16.4291635,-49.3858216,896,23504.72193
D1,Brazabrantes/GO,-16.4291635,-49.3858216,8,209.86359
1,Brazópolis/MG,-22.4742842,-45.6165577,1915,13331.94096
D1,Brazópolis/MG,-22.4742842,-45.6165577,38,264.55026
1,Braço do Norte/SC,-28.2728633,-49.1622712,12820,37382.63253
D1,Braço do Norte/SC,-28.2728633,-49.1622712,119,346.99948
1,Braço do Trombudo/SC,-27.358578,-49.882145,1247,32867.68582
D1,Braço do Trombudo/SC,-27.358578,-49.882145,8,210.85925
1,Braúna/SP,-21.5015319,-50.3175246,631,10888.69715
D1,Braúna/SP,-21.5015319,-50.3175246,26,448.66264
1,Braúnas/MG,-19.055556,-42.716111,472,9964.11231
D1,Braúnas/MG,-19.055556,-42.716111,11,232.21448
1,Brejetuba/ES,-20.1465817,-41.2902303,3070,24658.63454
D1,Brejetuba/ES,-20.1465817,-41.2902303,21,168.67470
1,Brejinho de Nazaré/TO,-11.0205883,-48.5722906,1324,23898.91697
D1,Brejinho de Nazaré/TO,-11.0205883,-48.5722906,20,361.01083
1,Brejinho/PE,-7.3482153,-37.28538,1056,14100.68100
D1,Brejinho/PE,-7.3482153,-37.28538,22,293.76419
1,Brejinho/RN,-6.1957907,-35.3583019,1852,14386.70085
D1,Brejinho/RN,-6.1957907,-35.3583019,20,155.36394
1,Brejo Alegre/SP,-21.1671191,-50.1850393,809,27791.13707
D1,Brejo Alegre/SP,-21.1671191,-50.1850393,14,480.93439
1,Brejo Grande do Araguaia/PA,-5.7011449,-48.4037308,1239,16841.10371
D1,Brejo Grande do Araguaia/PA,-5.7011449,-48.4037308,6,81.55498
1,Brejo Grande/SE,-10.4287358,-36.4667918,618,7360.64793
D1,Brejo Grande/SE,-10.4287358,-36.4667918,13,154.83564
1,Brejo Santo/CE,-7.4909841,-38.9859152,10936,21787.03058
D1,Brejo Santo/CE,-7.4909841,-38.9859152,158,314.77239
1,Brejo da Madre de Deus/PE,-8.1409718,-36.3712527,4028,7791.70535
D1,Brejo da Madre de Deus/PE,-8.1409718,-36.3712527,63,121.86630
1,Brejo de Areia/MA,-4.3316785,-45.5833334,465,5259.58602
D1,Brejo de Areia/MA,-4.3316785,-45.5833334,12,135.73125
1,Brejo do Cruz/PB,-6.32926065,-37.48746163303929,2075,14523.69287
D1,Brejo do Cruz/PB,-6.32926065,-37.48746163303929,25,174.98425
1,Brejo do Piauí/PI,-8.207583,-42.8359849,161,4210.25105
D1,Brejo do Piauí/PI,-8.207583,-42.8359849,5,130.75314
1,Brejo dos Santos/PB,-6.3769367,-37.8243125,1513,23352.36919
D1,Brejo dos Santos/PB,-6.3769367,-37.8243125,8,123.47585
1,Brejo/MA,-3.6804397,-42.7529313,1079,2924.11924
D1,Brejo/MA,-3.6804397,-42.7529313,19,51.49051
1,Brejolândia/BA,-12.4843845,-43.9611861,384,3597.18970
D1,Brejolândia/BA,-12.4843845,-43.9611861,12,112.41218
1,Brejão/PE,-9.029146,-36.566034,656,7304.30910
D1,Brejão/PE,-9.029146,-36.566034,9,100.21156
1,Brejões/BA,-13.1033754,-39.7909837,1345,9501.94278
D1,Brejões/BA,-13.1033754,-39.7909837,16,113.03426
1,Breu Branco/PA,-3.7785073,-49.5684795,1618,2358.70373
D1,Breu Branco/PA,-3.7785073,-49.5684795,74,107.87644
1,Breves/PA,-1.68036,-50.479085,5378,5157.26889
D1,Breves/PA,-1.68036,-50.479085,127,121.78750
1,Britânia/GO,-15.2427599,-51.1602061,1184,20361.13500
D1,Britânia/GO,-15.2427599,-51.1602061,10,171.96905
1,Brochier/RS,-29.556766,-51.5963047,1190,23187.84100
D1,Brochier/RS,-29.556766,-51.5963047,8,155.88465
1,Brodowski/SP,-20.984532,-47.657217,4344,16965.43644
D1,Brodowski/SP,-20.984532,-47.657217,85,331.96641
1,Brotas de Macaúbas/BA,-12.0019007,-42.6257506,668,6240.07473
D1,Brotas de Macaúbas/BA,-12.0019007,-42.6257506,9,84.07286
1,Brotas/SP,-22.2840884,-48.1267265,6901,27757.21985
D1,Brotas/SP,-22.2840884,-48.1267265,77,309.70960
1,Brumadinho/MG,-20.143611,-44.2,7573,18377.49951
D1,Brumadinho/MG,-20.143611,-44.2,108,262.08503
1,Brumado/BA,-14.29507325,-41.659307508575985,11637,17248.17691
D1,Brumado/BA,-14.29507325,-41.659307508575985,209,309.77649
1,Brunópolis/SC,-27.310953,-50.837585,718,30974.97843
D1,Brunópolis/SC,-27.310953,-50.837585,9,388.26575
1,Brusque/SC,-27.0964628,-48.9136323,43391,30861.96718
D1,Brusque/SC,-27.0964628,-48.9136323,358,254.62848
1,Brás Pires/MG,-20.8483109,-43.2430524,694,16310.22327
D1,Brás Pires/MG,-20.8483109,-43.2430524,11,258.51939
1,Bueno Brandão/MG,-22.441976,-46.3517971,2169,19750.50082
D1,Bueno Brandão/MG,-22.441976,-46.3517971,37,336.91495
1,Buenos Aires/PE,-7.7218931,-35.326587,709,5361.46400
D1,Buenos Aires/PE,-7.7218931,-35.326587,27,204.17423
1,Buenópolis/MG,-17.8756607,-44.1749365,799,7725.77838
D1,Buenópolis/MG,-17.8756607,-44.1749365,19,183.71688
1,Buerarema/BA,-14.9571177,-39.3008035,1586,8681.37282
D1,Buerarema/BA,-14.9571177,-39.3008035,52,284.63517
1,Bugre/MG,-19.4257687,-42.2556,380,9538.15261
D1,Bugre/MG,-19.4257687,-42.2556,13,326.30522
1,Bujari/AC,-9.8309656,-67.9520886,1618,15304.57813
D1,Bujari/AC,-9.8309656,-67.9520886,17,160.80212
1,Bujaru/PA,-1.5169239,-48.0410699,1949,6558.53552
D1,Bujaru/PA,-1.5169239,-48.0410699,43,144.69832
1,Buri/SP,-23.79849,-48.598924,3874,19321.69576
D1,Buri/SP,-23.79849,-48.598924,106,528.67830
1,Buritama/SP,-21.0664017,-50.1448077,5352,30733.89227
D1,Buritama/SP,-21.0664017,-50.1448077,87,499.59802
1,Buriti Alegre/GO,-18.1377879,-49.0404411,1731,18192.32790
D1,Buriti Alegre/GO,-18.1377879,-49.0404411,40,420.38886
1,Buriti Bravo/MA,-5.8391884,-43.8367876,2323,9681.99058
D1,Buriti Bravo/MA,-5.8391884,-43.8367876,21,87.52553
1,Buriti de Goiás/GO,-16.180644,-50.4287479,698,28327.92208
D1,Buriti de Goiás/GO,-16.180644,-50.4287479,9,365.25974
1,Buriti do Tocantins/TO,-5.3187439,-48.2256609,1685,14470.97217
D1,Buriti do Tocantins/TO,-5.3187439,-48.2256609,27,231.87908
1,Buriti dos Lopes/PI,-3.1776723,-41.8707444,1704,8592.17426
D1,Buriti dos Lopes/PI,-3.1776723,-41.8707444,38,191.60952
1,Buriti dos Montes/PI,-5.3136171,-41.0971256,724,8741.84979
D1,Buriti dos Montes/PI,-5.3136171,-41.0971256,10,120.74378
1,Buriti/MA,-3.9430944,-42.9244281,1169,4042.74450
D1,Buriti/MA,-3.9430944,-42.9244281,9,31.12464
1,Buriticupu/MA,-4.3227472,-46.4516989,4668,6342.82220
D1,Buriticupu/MA,-4.3227472,-46.4516989,88,119.57334
1,Buritinópolis/GO,-14.4589282,-46.4293104,626,19132.02934
D1,Buritinópolis/GO,-14.4589282,-46.4293104,4,122.24939
1,Buritirama/BA,-10.7148421,-43.6362327,1362,6372.22794
D1,Buritirama/BA,-10.7148421,-43.6362327,25,116.96454
1,Buritirana/MA,-5.5897455,-47.0148915,451,2909.11436
D1,Buritirana/MA,-5.5897455,-47.0148915,28,180.61020
1,Buritis/MG,-15.621389,-46.423889,5687,22586.28222
D1,Buritis/MG,-15.621389,-46.423889,56,222.40756
1,Buritis/RO,-10.2054937,-63.8281954,12375,30151.30473
D1,Buritis/RO,-10.2054937,-63.8281954,103,250.95631
1,Buritizal/SP,-20.1933264,-47.7097165,361,7939.30064
D1,Buritizal/SP,-20.1933264,-47.7097165,10,219.92523
1,Buritizeiro/MG,-17.3667765,-44.9647781,3154,11190.74652
D1,Buritizeiro/MG,-17.3667765,-44.9647781,43,152.56883
1,Butiá/RS,-30.1256795,-51.9692224,3532,16848.73348
D1,Butiá/RS,-30.1256795,-51.9692224,67,319.61074
1,Buíque/PE,-8.6239732,-37.157296,2950,4962.32001
D1,Buíque/PE,-8.6239732,-37.157296,54,90.83569
1,Bálsamo/SP,-20.7343722,-49.5807484,2866,31121.72874
D1,Bálsamo/SP,-20.7343722,-49.5807484,76,825.27962
0,CASO SEM LOCALIZAÇÃO DEFINIDA/BA,-13.415069300066518,-38.14174656569957,19857,133.50981
D0,CASO SEM LOCALIZAÇÃO DEFINIDA/BA,-13.415069300066518,-38.14174656569957,350,2.35325
0,CASO SEM LOCALIZAÇÃO DEFINIDA/CE,-3.3445126297392798,-38.624961942434304,18049,197.64395
0,CASO SEM LOCALIZAÇÃO DEFINIDA/ES,-20.30989267097039,-39.81745156645774,9111,226.71793
D0,CASO SEM LOCALIZAÇÃO DEFINIDA/ES,-20.30989267097039,-39.81745156645774,277,6.89286
0,CASO SEM LOCALIZAÇÃO DEFINIDA/MG,-19.97049116501593,-43.8852149072783,4266,20.15231
D0,CASO SEM LOCALIZAÇÃO DEFINIDA/MG,-19.97049116501593,-43.8852149072783,419,1.97933
0,CASO SEM LOCALIZAÇÃO DEFINIDA/PR,-25.69415946385943,-48.10141676336737,11554,101.04988
D0,CASO SEM LOCALIZAÇÃO DEFINIDA/PR,-25.69415946385943,-48.10141676336737,241,2.10776
0,CASO SEM LOCALIZAÇÃO DEFINIDA/RR,2.813328208465927,-60.663338675861986,3818,630.28158
D0,CASO SEM LOCALIZAÇÃO DEFINIDA/RR,2.813328208465927,-60.663338675861986,23,3.79688
0,CASO SEM LOCALIZAÇÃO DEFINIDA/SP,-24.30968974555485,-46.21366504207253,128,0.27875
1,Caapiranga/AM,-3.3188884,-61.2096404,1011,7498.88741
D1,Caapiranga/AM,-3.3188884,-61.2096404,23,170.59783
1,Caaporã/PB,-7.510234,-34.9154114,2746,12437.15748
D1,Caaporã/PB,-7.510234,-34.9154114,39,176.63843
1,Caarapó/MS,-22.6349267,-54.8240903,6346,20467.66651
D1,Caarapó/MS,-22.6349267,-54.8240903,64,206.41832
1,Caatiba/BA,-14.9782759,-40.4092325,1012,16238.76765
D1,Caatiba/BA,-14.9782759,-40.4092325,17,272.78562
1,Cabaceiras do Paraguaçu/BA,-12.5377868,-39.1901339,1556,8185.16570
D1,Cabaceiras do Paraguaçu/BA,-12.5377868,-39.1901339,8,42.08311
1,Cabaceiras/PB,-7.4899156,-36.2860501,661,11576.18214
D1,Cabaceiras/PB,-7.4899156,-36.2860501,5,87.56567
1,Cabeceira Grande/MG,-16.0297,-47.0906,975,13879.00356
D1,Cabeceira Grande/MG,-16.0297,-47.0906,9,128.11388
1,Cabeceiras do Piauí/PI,-4.4733665,-42.3098716,779,7300.15931
D1,Cabeceiras do Piauí/PI,-4.4733665,-42.3098716,18,168.68147
1,Cabeceiras/GO,-15.7995459,-46.9264991,1374,16967.15238
D1,Cabeceiras/GO,-15.7995459,-46.9264991,19,234.62583
1,Cabedelo/PB,-6.97324,-34.8351609,13632,19537.64350
D1,Cabedelo/PB,-6.97324,-34.8351609,218,312.44178
1,Cabixi/RO,-13.4956065,-60.5424442,1776,35050.32564
D1,Cabixi/RO,-13.4956065,-60.5424442,22,434.18196
1,Cabo Frio/RJ,-22.8804369,-42.0189227,28745,12280.14713
D1,Cabo Frio/RJ,-22.8804369,-42.0189227,1019,435.32684
1,Cabo Verde/MG,-21.4743338,-46.3964995,2304,16370.61248
D1,Cabo Verde/MG,-21.4743338,-46.3964995,15,106.57951
1,Cabo de Santo Agostinho/PE,-8.2838945,-35.0320984,13112,6220.23188
D1,Cabo de Santo Agostinho/PE,-8.2838945,-35.0320984,556,263.76212
1,Cabreúva/SP,-23.3075813,-47.1324417,7039,13766.86877
D1,Cabreúva/SP,-23.3075813,-47.1324417,150,293.36984
1,Cabrobó/PE,-8.5083701,-39.3106961,5028,14457.41561
D1,Cabrobó/PE,-8.5083701,-39.3106961,34,97.76295
1,Cabrália Paulista/SP,-22.4562909,-49.3385645,1019,24135.48081
D1,Cabrália Paulista/SP,-22.4562909,-49.3385645,9,213.16911
1,Cacaulândia/RO,-10.3380043,-62.9007231,2050,32503.56746
D1,Cacaulândia/RO,-10.3380043,-62.9007231,17,269.54178
1,Cacequi/RS,-29.8838059,-54.8273443,1487,12098.28330
D1,Cacequi/RS,-29.8838059,-54.8273443,18,146.44862
1,Cachoeira Alta/GO,-18.7618269,-50.9432431,3620,28186.56077
D1,Cachoeira Alta/GO,-18.7618269,-50.9432431,33,256.94931
1,Cachoeira Dourada/GO,-18.4934204,-49.481062,1767,22095.78592
D1,Cachoeira Dourada/GO,-18.4934204,-49.481062,33,412.65475
1,Cachoeira Dourada/MG,-18.517136,-49.5002062,609,22389.70588
D1,Cachoeira Dourada/MG,-18.517136,-49.5002062,2,73.52941
1,Cachoeira Grande/MA,-2.9290492,-44.0573223,486,5102.89794
D1,Cachoeira Grande/MA,-2.9290492,-44.0573223,8,83.99832
1,Cachoeira Paulista/SP,-22.666498,-45.015384,4642,13722.76584
D1,Cachoeira Paulista/SP,-22.666498,-45.015384,67,198.06663
1,Cachoeira da Prata/MG,-19.524723,-44.453056,226,6312.84916
D1,Cachoeira da Prata/MG,-19.524723,-44.453056,15,418.99441
1,Cachoeira de Goiás/GO,-16.6688414,-50.6435997,477,35703.59281
D1,Cachoeira de Goiás/GO,-16.6688414,-50.6435997,6,449.10180
1,Cachoeira de Minas/MG,-22.3554043,-45.7796324,2437,20992.33353
D1,Cachoeira de Minas/MG,-22.3554043,-45.7796324,21,180.89413
1,Cachoeira de Pajeú/MG,-15.965833,-41.496666,687,7254.48786
D1,Cachoeira de Pajeú/MG,-15.965833,-41.496666,11,116.15628
1,Cachoeira do Arari/PA,-1.0143572,-48.9621089,624,2562.10224
D1,Cachoeira do Arari/PA,-1.0143572,-48.9621089,27,110.86019
1,Cachoeira do Piriá/PA,-1.7599443,-46.5446954,1607,4551.50537
D1,Cachoeira do Piriá/PA,-1.7599443,-46.5446954,12,33.98759
1,Cachoeira do Sul/RS,-30.0474778,-52.8905413,22352,27408.27938
D1,Cachoeira do Sul/RS,-30.0474778,-52.8905413,242,296.74318
1,Cachoeira dos Índios/PB,-6.9259193,-38.6742159,1547,14926.66924
D1,Cachoeira dos Índios/PB,-6.9259193,-38.6742159,24,231.57082
1,Cachoeira/BA,-12.5998256,-38.9665918,2544,7558.15681
D1,Cachoeira/BA,-12.5998256,-38.9665918,33,98.04213
1,Cachoeiras de Macacu/RJ,-22.4626861,-42.6534414,4774,8003.08456
D1,Cachoeiras de Macacu/RJ,-22.4626861,-42.6534414,121,202.84316
1,Cachoeirinha/PE,-8.4906364,-36.2338963,1077,5223.59104
D1,Cachoeirinha/PE,-8.4906364,-36.2338963,37,179.45485
1,Cachoeirinha/RS,-29.9493353,-51.0898927,21800,16497.15462
D1,Cachoeirinha/RS,-29.9493353,-51.0898927,545,412.42887
1,Cachoeirinha/TO,-6.118647,-47.9208885,130,5669.42870
D1,Cachoeirinha/TO,-6.118647,-47.9208885,2,87.22198
1,Cachoeiro de Itapemirim/ES,-20.848084,-41.11129,53952,25428.42599
D1,Cachoeiro de Itapemirim/ES,-20.848084,-41.11129,732,345.00311
1,Cacimba de Areia/PB,-7.1288513,-37.1575194,370,9978.42503
D1,Cacimba de Areia/PB,-7.1288513,-37.1575194,5,134.84358
1,Cacimba de Dentro/PB,-6.6425101,-35.7929304,1522,8864.81449
D1,Cacimba de Dentro/PB,-6.6425101,-35.7929304,39,227.15359
1,Cacimbas/PB,-7.2125451,-37.0593398,484,6698.96194
D1,Cacimbas/PB,-7.2125451,-37.0593398,11,152.24913
1,Cacimbinhas/AL,-9.401212,-36.991082,1108,10146.52015
D1,Cacimbinhas/AL,-9.401212,-36.991082,13,119.04762
1,Cacique Doble/RS,-27.7700117,-51.6616409,1320,25968.91599
D1,Cacique Doble/RS,-27.7700117,-51.6616409,14,275.42790
1,Cacoal/RO,-11.4333,-61.4420502,28119,32539.11313
D1,Cacoal/RO,-11.4333,-61.4420502,347,401.54601
1,Caconde/SP,-21.527995,-46.643659,3128,16436.34071
D1,Caconde/SP,-21.527995,-46.643659,46,241.71089
1,Caculé/BA,-14.4990734,-42.2233006,3389,14478.57479
D1,Caculé/BA,-14.4990734,-42.2233006,32,136.71124
1,Caetanos/BA,-14.3387456,-40.9085971,821,5596.07389
D1,Caetanos/BA,-14.3387456,-40.9085971,13,88.61018
1,Caetanópolis/MG,-19.2947496,-44.4138386,1840,15502.56972
D1,Caetanópolis/MG,-19.2947496,-44.4138386,21,176.93150
1,Caetité/BA,-14.0691776,-42.4852428,5160,10081.27540
D1,Caetité/BA,-14.0691776,-42.4852428,51,99.64051
1,Caeté/MG,-19.897777,-43.670278,3296,7265.67322
D1,Caeté/MG,-19.897777,-43.670278,83,182.96447
1,Caetés/PE,-8.7728788,-36.6255835,2691,9258.55840
D1,Caetés/PE,-8.7728788,-36.6255835,29,99.77636
1,Cafarnaum/BA,-11.691399,-41.468823,1246,6704.33145
D1,Cafarnaum/BA,-11.691399,-41.468823,24,129.13640
1,Cafeara/PR,-22.78905,-51.714195,869,29229.73428
D1,Cafeara/PR,-22.78905,-51.714195,13,437.26875
1,Cafelândia/PR,-24.6176963,-53.3218057,5204,27705.90428
D1,Cafelândia/PR,-24.6176963,-53.3218057,49,260.87419
1,Cafelândia/SP,-21.8054355,-49.6030627,880,4911.53653
D1,Cafelândia/SP,-21.8054355,-49.6030627,60,334.87749
1,Cafezal do Sul/PR,-23.900508,-53.512418,1081,27194.96855
D1,Cafezal do Sul/PR,-23.900508,-53.512418,10,251.57233
1,Caiabu/SP,-22.0143038,-51.2356597,329,7842.66985
D1,Caiabu/SP,-22.0143038,-51.2356597,8,190.70322
1,Caiana/MG,-20.695555,-41.924723,287,5139.68481
D1,Caiana/MG,-20.695555,-41.924723,7,125.35817
1,Caiapônia/GO,-16.9538779,-51.8090761,3802,19695.39992
D1,Caiapônia/GO,-16.9538779,-51.8090761,46,238.29258
1,Caibaté/RS,-28.290475,-54.645407,538,11203.66514
D1,Caibaté/RS,-28.290475,-54.645407,8,166.59725
1,Caibi/SC,-27.0751925,-53.2502133,1306,21367.80105
D1,Caibi/SC,-27.0751925,-53.2502133,19,310.86387
1,Caicó/RN,-6.4594544,-37.0971911,19217,27961.76120
D1,Caicó/RN,-6.4594544,-37.0971911,183,266.27477
1,Caieiras/SP,-23.3644621,-46.7484765,12171,11697.93549
D1,Caieiras/SP,-23.3644621,-46.7484765,355,341.20180
1,Cairu/BA,-13.4860505,-39.0455744,1853,9927.14026
D1,Cairu/BA,-13.4860505,-39.0455744,19,101.78935
1,Caiuá/SP,-21.8319357,-51.9887179,511,8492.60429
D1,Caiuá/SP,-21.8319357,-51.9887179,12,199.43493
1,Caiçara do Norte/RN,-5.0645017,-36.0561226,701,10666.46379
D1,Caiçara do Norte/RN,-5.0645017,-36.0561226,13,197.80889
1,Caiçara do Rio do Vento/RN,-5.757968,-36.00089,820,21895.86115
D1,Caiçara do Rio do Vento/RN,-5.757968,-36.00089,8,213.61816
1,Caiçara/PB,-6.6146866,-35.4681434,1111,15469.22863
D1,Caiçara/PB,-6.6146866,-35.4681434,15,208.85547
1,Caiçara/RS,-27.2750478,-53.4310053,1214,26057.09380
D1,Caiçara/RS,-27.2750478,-53.4310053,12,257.56600
1,Cajamar/SP,-23.3561111,-46.8769444,5639,7134.90397
D1,Cajamar/SP,-23.3561111,-46.8769444,260,328.97234
1,Cajapió/MA,-2.8778715,-44.6746871,463,4113.72723
D1,Cajapió/MA,-2.8778715,-44.6746871,8,71.07952
1,Cajari/MA,-3.3213076,-45.0118757,442,2264.22827
D1,Cajari/MA,-3.3213076,-45.0118757,9,46.10420
1,Cajati/SP,-24.7272376,-48.1077914,6436,22629.30277
D1,Cajati/SP,-24.7272376,-48.1077914,111,390.28164
1,Cajazeiras do Piauí/PI,-6.794271,-42.3935024,83,2314.55661
D1,Cajazeiras do Piauí/PI,-6.794271,-42.3935024,2,55.77245
1,Cajazeiras/PB,-6.8897849,-38.5570389,17244,27556.89082
D1,Cajazeiras/PB,-6.8897849,-38.5570389,190,303.63078
1,Cajazeirinhas/PB,-6.961442,-37.7993733,341,10599.93783
D1,Cajazeirinhas/PB,-6.961442,-37.7993733,1,31.08486
1,Cajobi/SP,-20.8776238,-48.8106972,2231,20950.32397
D1,Cajobi/SP,-20.8776238,-48.8106972,38,356.84102
1,Cajueiro da Praia/PI,-2.931114,-41.340801,500,6490.13499
D1,Cajueiro da Praia/PI,-2.931114,-41.340801,21,272.58567
1,Cajueiro/AL,-9.399589,-36.1524309,882,4122.07319
D1,Cajueiro/AL,-9.399589,-36.1524309,34,158.90078
1,Cajuri/MG,-20.7901414,-42.7954489,734,18530.67407
D1,Cajuri/MG,-20.7901414,-42.7954489,9,227.21535
1,Cajuru/SP,-21.2759978,-47.3046035,2073,7789.42622
D1,Cajuru/SP,-21.2759978,-47.3046035,78,293.08984
1,Caldas Brandão/PB,-7.1027959,-35.3254676,992,16323.84400
D1,Caldas Brandão/PB,-7.1027959,-35.3254676,13,213.92134
1,Caldas Novas/GO,-17.745,-48.625,20532,21571.07887
D1,Caldas Novas/GO,-17.745,-48.625,348,365.61151
1,Caldas/MG,-21.923611,-46.386111,2051,14047.94521
D1,Caldas/MG,-21.923611,-46.386111,43,294.52055
1,Caldazinha/GO,-16.7116649,-49.0012601,1304,33435.89744
D1,Caldazinha/GO,-16.7116649,-49.0012601,12,307.69231
1,Caldeirão Grande do Piauí/PI,-7.3310393,-40.6374433,551,9522.98652
D1,Caldeirão Grande do Piauí/PI,-7.3310393,-40.6374433,2,34.56619
1,Caldeirão Grande/BA,-11.0208483,-40.3041387,716,5322.62861
D1,Caldeirão Grande/BA,-11.0208483,-40.3041387,7,52.03687
1,Califórnia/PR,-23.6672543,-51.3554556,2174,25159.12510
D1,Califórnia/PR,-23.6672543,-51.3554556,42,486.05485
1,Calmon/SC,-26.6023644,-51.0992893,74,2225.56391
D1,Calmon/SC,-26.6023644,-51.0992893,7,210.52632
1,Calumbi/PE,-7.9389746,-38.1516871,1284,22353.76045
D1,Calumbi/PE,-7.9389746,-38.1516871,6,104.45682
1,Calçado/PE,-8.7413446,-36.3351787,829,7548.02877
D1,Calçado/PE,-8.7413446,-36.3351787,9,81.94482
1,Calçoene/AP,2.4981757,-50.9539503,2752,23945.01001
D1,Calçoene/AP,2.4981757,-50.9539503,15,130.51423
1,Camacan/BA,-15.4166631,-39.4930088,3645,11382.44387
D1,Camacan/BA,-15.4166631,-39.4930088,99,309.15280
1,Camacho/MG,-20.625556,-45.156667,356,12539.62663
D1,Camacho/MG,-20.625556,-45.156667,2,70.44734
1,Camalaú/PB,-7.885031,-36.824191,953,15757.27513
D1,Camalaú/PB,-7.885031,-36.824191,8,132.27513
1,Camamu/BA,-13.9438142,-39.1060917,3077,8681.30008
D1,Camamu/BA,-13.9438142,-39.1060917,64,180.56653
1,Camanducaia/MG,-22.755278,-46.144444,5232,23965.92002
D1,Camanducaia/MG,-22.755278,-46.144444,88,403.09651
1,Camapuã/MS,-19.5291747,-54.0434641,1820,13308.95795
D1,Camapuã/MS,-19.5291747,-54.0434641,38,277.87934
1,Camaquã/RS,-30.8524752,-51.8075619,12806,19203.43101
D1,Camaquã/RS,-30.8524752,-51.8075619,187,280.41868
1,Camaragibe/PE,-8.0213832,-34.9810768,12125,7580.73088
D1,Camaragibe/PE,-8.0213832,-34.9810768,473,295.72666
1,Camargo/RS,-28.5865661,-52.2031474,690,25090.90909
D1,Camargo/RS,-28.5865661,-52.2031474,8,290.90909
1,Camaçari/BA,-12.6998188,-38.3260762,33134,10715.76415
D1,Camaçari/BA,-12.6998188,-38.3260762,676,218.62306
1,Cambará do Sul/RS,-29.0489517,-50.145412,424,6642.64452
D1,Cambará do Sul/RS,-29.0489517,-50.145412,12,187.99937
1,Cambará/PR,-23.042273,-50.075281,6352,24842.58282
D1,Cambará/PR,-23.042273,-50.075281,77,301.14592
1,Cambira/PR,-23.600265,-51.581045,2650,33262.20660
D1,Cambira/PR,-23.600265,-51.581045,32,401.65683
1,Camboriú/SC,-27.0273601,-48.6535657,18934,21718.53313
D1,Camboriú/SC,-27.0273601,-48.6535657,212,243.17783
1,Cambuci/RJ,-21.5749919,-41.9107833,3200,20617.22827
D1,Cambuci/RJ,-21.5749919,-41.9107833,51,328.58708
1,Cambuquira/MG,-21.853056,-45.2953619,1946,15191.25683
D1,Cambuquira/MG,-21.853056,-45.2953619,38,296.64325
1,Cambuí/MG,-22.6122501,-46.0572137,9104,30278.03645
D1,Cambuí/MG,-22.6122501,-46.0572137,65,216.17667
1,Cambé/PR,-23.2782035,-51.2779583,22990,21262.23110
D1,Cambé/PR,-23.2782035,-51.2779583,393,363.46485
1,Cametá/PA,-2.242949,-49.497885,11593,8232.84617
D1,Cametá/PA,-2.242949,-49.497885,312,221.56888
1,Camocim de São Félix/PE,-8.3616757,-35.7638903,1059,5564.31274
D1,Camocim de São Félix/PE,-8.3616757,-35.7638903,23,120.84910
1,Camocim/CE,-2.9009918,-40.8427389,8006,12480.70837
D1,Camocim/CE,-2.9009918,-40.8427389,166,258.78061
1,Campanha/MG,-21.8361108,-45.401986,4071,24153.07031
D1,Campanha/MG,-21.8361108,-45.401986,69,409.37407
