type,name,lat,lon,total,total_per_100k_inhabitants
1,Abadia de Goiás/GO,-16.7572644,-49.4412205,2073,22635.94671
D1,Abadia de Goiás/GO,-16.7572644,-49.4412205,44,480.45425
1,Abadia dos Dourados/MG,-18.4911191,-47.4063589,714,10168.04329
D1,Abadia dos Dourados/MG,-18.4911191,-47.4063589,20,284.81914
1,Abadiânia/GO,-16.1940946,-48.7067767,617,2955.97183
D1,Abadiânia/GO,-16.1940946,-48.7067767,48,229.96215
1,Abaetetuba/PA,-1.721828,-48.878843,9949,6201.11070
D1,Abaetetuba/PA,-1.721828,-48.878843,227,141.48680
1,Abaeté/MG,-19.1566833,-45.4481213,1800,7737.60908
D1,Abaeté/MG,-19.1566833,-45.4481213,44,189.14156
1,Abaiara/CE,-7.3607808,-39.0487878,642,5365.64981
D1,Abaiara/CE,-7.3607808,-39.0487878,17,142.08107
1,Abaré/BA,-8.7239913,-39.1139689,1368,6642.71147
D1,Abaré/BA,-8.7239913,-39.1139689,12,58.26940
1,Abatiá/PR,-23.3052967,-50.3102532,1230,16711.95652
D1,Abatiá/PR,-23.3052967,-50.3102532,21,285.32609
1,Abaíra/BA,-13.2503296,-41.6640342,310,3571.01716
D1,Abaíra/BA,-13.2503296,-41.6640342,13,149.75233
1,Abdon Batista/SC,-27.612419,-51.022992,416,16416.73244
D1,Abdon Batista/SC,-27.612419,-51.022992,4,157.85320
1,Abel Figueiredo/PA,-4.953001,-48.3958485,1110,14729.29936
D1,Abel Figueiredo/PA,-4.953001,-48.3958485,12,159.23567
1,Abelardo Luz/SC,-26.5705893,-52.3280339,1989,11040.79933
D1,Abelardo Luz/SC,-26.5705893,-52.3280339,61,338.60672
1,Abre Campo/MG,-20.2976097,-42.4764741,1329,9892.80929
D1,Abre Campo/MG,-20.2976097,-42.4764741,17,126.54459
1,Abreu e Lima/PE,-7.900719,-34.898389,3744,3718.04802
D1,Abreu e Lima/PE,-7.900719,-34.898389,251,249.26016
1,Abreulândia/TO,-9.6221526,-49.1558343,345,13223.45726
D1,Abreulândia/TO,-9.6221526,-49.1558343,8,306.63089
1,Acaiaca/MG,-20.3621646,-43.1444162,243,6082.60325
D1,Acaiaca/MG,-20.3621646,-43.1444162,12,300.37547
1,Acajutiba/BA,-11.6609659,-38.0186381,575,3779.41370
D1,Acajutiba/BA,-11.6609659,-38.0186381,21,138.03076
1,Acarape/CE,-4.2237866,-38.7071663,2860,18890.35667
D1,Acarape/CE,-4.2237866,-38.7071663,31,204.75561
1,Acaraú/CE,-2.8869514,-40.1194713,5470,8606.58317
D1,Acaraú/CE,-2.8869514,-40.1194713,115,180.94279
1,Acari/RN,-6.4364689,-36.6394777,1244,11201.15253
D1,Acari/RN,-6.4364689,-36.6394777,22,198.09112
1,Acará/PA,-1.961388,-48.1987043,1813,3252.36797
D1,Acará/PA,-1.961388,-48.1987043,41,73.55052
1,Acauã/PI,-8.219542,-41.083059,219,3076.27476
D1,Acauã/PI,-8.219542,-41.083059,2,28.09383
1,Aceguá/RS,-31.8695131,-54.1615593,427,8572.57579
D1,Aceguá/RS,-31.8695131,-54.1615593,8,160.61032
1,Acopiara/CE,-6.0936464,-39.4543204,4211,7700.18469
D1,Acopiara/CE,-6.0936464,-39.4543204,152,277.94540
1,Acorizal/MT,-15.2001544,-56.3668953,948,17856.47015
D1,Acorizal/MT,-15.2001544,-56.3668953,22,414.39066
1,Acrelândia/AC,-10.0759167,-67.0526898,1815,11545.06711
D1,Acrelândia/AC,-10.0759167,-67.0526898,37,235.35399
1,Acreúna/GO,-17.3959899,-50.3749031,3483,15336.85601
D1,Acreúna/GO,-17.3959899,-50.3749031,71,312.63760
1,Adamantina/SP,-21.6866517,-51.0762975,4295,12218.01838
D1,Adamantina/SP,-21.6866517,-51.0762975,148,421.01670
1,Adelândia/GO,-16.4155077,-50.1665834,241,9582.50497
D1,Adelândia/GO,-16.4155077,-50.1665834,4,159.04573
1,Adolfo/SP,-21.2356597,-49.6441918,623,17574.04795
D1,Adolfo/SP,-21.2356597,-49.6441918,19,535.96615
1,Adrianópolis/PR,-24.6557863,-48.9912769,1457,25133.68984
D1,Adrianópolis/PR,-24.6557863,-48.9912769,29,500.25875
1,Adustina/BA,-10.5358875,-38.114479,1108,6438.49149
D1,Adustina/BA,-10.5358875,-38.114479,27,156.89465
1,Afogados da Ingazeira/PE,-7.750429,-37.6356375,5367,14294.46546
D1,Afogados da Ingazeira/PE,-7.750429,-37.6356375,75,199.75497
1,Afonso Bezerra/RN,-5.4745,-36.57625071327935,832,7547.16981
D1,Afonso Bezerra/RN,-5.4745,-36.57625071327935,18,163.28012
1,Afonso Cláudio/ES,-20.077841,-41.12606,4414,14555.16718
D1,Afonso Cláudio/ES,-20.077841,-41.12606,74,244.01504
1,Afonso Cunha/MA,-4.1326105,-43.3230026,267,4026.54200
D1,Afonso Cunha/MA,-4.1326105,-43.3230026,3,45.24204
1,Afrânio/PE,-8.5198919,-41.0070197,1060,5305.03979
D1,Afrânio/PE,-8.5198919,-41.0070197,16,80.07607
1,Afuá/PA,-0.1535664,-50.3879223,3211,8045.60261
D1,Afuá/PA,-0.1535664,-50.3879223,16,40.09020
1,Agrestina/PE,-8.4558021,-35.9442663,1785,7072.10777
D1,Agrestina/PE,-8.4558021,-35.9442663,68,269.41363
1,Agricolândia/PI,-5.7967843,-42.6605131,780,15225.45384
D1,Agricolândia/PI,-5.7967843,-42.6605131,9,175.67831
1,Agrolândia/SC,-27.4122212,-49.8295774,1820,16308.24373
D1,Agrolândia/SC,-27.4122212,-49.8295774,30,268.81720
1,Agronômica/SC,-27.2660744,-49.7104753,759,13626.57092
D1,Agronômica/SC,-27.2660744,-49.7104753,14,251.34650
1,Aguanil/MG,-20.9424533,-45.3927152,775,17006.80272
D1,Aguanil/MG,-20.9424533,-45.3927152,8,175.55409
1,Aguaí/SP,-22.0592036,-46.979384,3650,9869.93321
D1,Aguaí/SP,-22.0592036,-46.979384,113,305.56232
1,Agudo/RS,-29.6423259,-53.2494005,2083,12744.73813
D1,Agudo/RS,-29.6423259,-53.2494005,32,195.79050
1,Agudos do Sul/PR,-25.9890808,-49.3328175,1013,10588.48124
D1,Agudos do Sul/PR,-25.9890808,-49.3328175,33,344.93572
1,Agudos/SP,-22.471162,-48.987822,4796,12761.42834
D1,Agudos/SP,-22.471162,-48.987822,111,295.35416
1,Aguiar/PB,-7.0928404,-38.1727215,549,9765.20811
D1,Aguiar/PB,-7.0928404,-38.1727215,5,88.93632
1,Aguiarnópolis/TO,-6.5600452,-47.4721189,727,10313.51965
D1,Aguiarnópolis/TO,-6.5600452,-47.4721189,14,198.60973
1,Aimorés/MG,-19.4917754,-41.0615603,2265,9018.15576
D1,Aimorés/MG,-19.4917754,-41.0615603,80,318.52206
1,Aiquara/BA,-14.126918,-39.8887574,509,11602.46182
D1,Aiquara/BA,-14.126918,-39.8887574,12,273.53545
1,Aiuaba/CE,-6.5710836,-40.1212278,868,4936.30573
D1,Aiuaba/CE,-6.5710836,-40.1212278,11,62.55687
1,Aiuruoca/MG,-21.9759554,-44.6036637,472,7934.10657
D1,Aiuruoca/MG,-21.9759554,-44.6036637,10,168.09548
1,Ajuricaba/RS,-28.239654,-53.7693013,1597,22975.11149
D1,Ajuricaba/RS,-28.239654,-53.7693013,33,474.75183
1,Alagoa Grande/PB,-7.0415212,-35.6285322,4351,15329.05862
D1,Alagoa Grande/PB,-7.0415212,-35.6285322,72,253.66404
1,Alagoa Nova/PB,-7.0653703,-35.76695977336711,1929,9189.21494
D1,Alagoa Nova/PB,-7.0653703,-35.76695977336711,34,161.96646
1,Alagoa/MG,-22.1697202,-44.6400042,481,18103.12382
D1,Alagoa/MG,-22.1697202,-44.6400042,8,301.09146
1,Alagoinha do Piauí/PI,-7.0090952,-40.939675,397,5170.61735
D1,Alagoinha do Piauí/PI,-7.0090952,-40.939675,13,169.31493
1,Alagoinha/PB,-6.97063215,-35.51490901897793,2153,14717.34227
D1,Alagoinha/PB,-6.97063215,-35.51490901897793,25,170.89343
1,Alagoinha/PE,-8.50355635,-36.77701174370496,1481,10008.10920
D1,Alagoinha/PE,-8.50355635,-36.77701174370496,29,195.97243
1,Alagoinhas/BA,-12.133526,-38.420772,14700,9606.39904
D1,Alagoinhas/BA,-12.133526,-38.420772,328,214.34686
1,Alambari/SP,-23.550338,-47.897971,686,11009.46879
D1,Alambari/SP,-23.550338,-47.897971,12,192.58546
1,Albertina/MG,-20.66164,-43.784039,396,13134.32836
D1,Albertina/MG,-20.66164,-43.784039,11,364.84245
1,Alcantil/PB,-7.7425491,-36.0609604,787,14239.18943
D1,Alcantil/PB,-7.7425491,-36.0609604,8,144.74398
1,Alcinópolis/MS,-18.3264121,-53.7094463,430,7833.84952
D1,Alcinópolis/MS,-18.3264121,-53.7094463,11,200.40080
1,Alcobaça/BA,-17.5215875,-39.1965474,1845,8196.72131
D1,Alcobaça/BA,-17.5215875,-39.1965474,31,137.72269
1,Alcântara/MA,-2.4038956,-44.4154241,336,1518.57543
D1,Alcântara/MA,-2.4038956,-44.4154241,19,85.87183
1,Alcântaras/CE,-3.586247,-40.5457641,1840,15532.66926
D1,Alcântaras/CE,-3.586247,-40.5457641,22,185.71670
1,Aldeias Altas/MA,-4.6291957,-43.4708622,977,3621.33511
D1,Aldeias Altas/MA,-4.6291957,-43.4708622,14,51.89221
1,Alecrim/RS,-27.6566142,-54.7653195,317,5551.66375
D1,Alecrim/RS,-27.6566142,-54.7653195,12,210.15762
1,Alegre/ES,-20.7625787,-41.5318886,3798,12715.52446
D1,Alegre/ES,-20.7625787,-41.5318886,81,271.18417
1,Alegrete do Piauí/PI,-7.2440138,-40.8602296,530,10770.16866
D1,Alegrete do Piauí/PI,-7.2440138,-40.8602296,9,182.88966
1,Alegrete/RS,-29.790166,-55.794862,11954,16489.86799
D1,Alegrete/RS,-29.790166,-55.794862,301,415.21250
1,Alegria/RS,-27.8332103,-54.0574959,399,12138.72832
D1,Alegria/RS,-27.8332103,-54.0574959,4,121.69151
1,Alenquer/PA,-1.946229,-54.738355,3901,6797.35145
D1,Alenquer/PA,-1.946229,-54.738355,148,257.88465
1,Alexandria/RN,-6.414779,-38.0135516,1926,14236.08545
D1,Alexandria/RN,-6.414779,-38.0135516,32,236.52894
1,Alexânia/GO,-16.0834049,-48.5077803,4416,15571.22708
D1,Alexânia/GO,-16.0834049,-48.5077803,104,366.71368
1,Alfenas/MG,-21.4297405,-45.9479419,12667,15643.48610
D1,Alfenas/MG,-21.4297405,-45.9479419,218,269.22554
1,Alfredo Chaves/ES,-20.624970400000002,-40.75006690147988,2933,19993.18337
D1,Alfredo Chaves/ES,-20.624970400000002,-40.75006690147988,43,293.11520
1,Alfredo Marcondes/SP,-21.9527,-51.413956,284,6760.29517
D1,Alfredo Marcondes/SP,-21.9527,-51.413956,15,357.05784
1,Alfredo Vasconcelos/MG,-21.145833,-43.776389,724,10266.59104
D1,Alfredo Vasconcelos/MG,-21.145833,-43.776389,16,226.88599
1,Alfredo Wagner/SC,-27.6961513,-49.3326734,1112,10970.79716
D1,Alfredo Wagner/SC,-27.6961513,-49.3326734,8,78.92660
1,Algodão de Jandaíra/PB,-6.9040175,-36.0089879,324,12519.31994
D1,Algodão de Jandaíra/PB,-6.9040175,-36.0089879,1,38.63988
1,Alhandra/PB,-7.4304246,-34.9106103,2551,12841.68135
D1,Alhandra/PB,-7.4304246,-34.9106103,40,201.35917
1,Aliança do Tocantins/TO,-11.3055927,-48.9409096,901,16990.38280
D1,Aliança do Tocantins/TO,-11.3055927,-48.9409096,25,471.43127
1,Aliança/PE,-7.60398,-35.222696,1095,2850.96855
D1,Aliança/PE,-7.60398,-35.222696,75,195.27182
1,Almadina/BA,-14.70466,-39.6381994,656,12440.73582
D1,Almadina/BA,-14.70466,-39.6381994,12,227.57444
1,Almas/TO,-11.5681309,-47.1702803,239,3461.25996
D1,Almas/TO,-11.5681309,-47.1702803,5,72.41130
1,Almeirim/PA,-1.5290377,-52.5788111,3854,11320.64387
D1,Almeirim/PA,-1.5290377,-52.5788111,52,152.74351
1,Almenara/MG,-16.1740678,-40.6904907,4569,10781.02879
D1,Almenara/MG,-16.1740678,-40.6904907,53,125.05899
1,Almino Afonso/RN,-6.1544208,-37.7649018,511,10907.15048
D1,Almino Afonso/RN,-6.1544208,-37.7649018,13,277.48132
1,Almirante Tamandaré do Sul/RS,-28.1141129,-52.9134874,390,20155.03876
D1,Almirante Tamandaré do Sul/RS,-28.1141129,-52.9134874,7,361.75711
1,Almirante Tamandaré/PR,-25.3133048,-49.2997838,11918,9815.51639
D1,Almirante Tamandaré/PR,-25.3133048,-49.2997838,441,363.20211
1,Aloândia/GO,-17.7277983,-49.4809338,336,17004.04858
D1,Aloândia/GO,-17.7277983,-49.4809338,11,556.68016
1,Alpercata/MG,-18.9803616,-41.9827637,548,7357.67991
D1,Alpercata/MG,-18.9803616,-41.9827637,21,281.95489
1,Alpestre/RS,-27.2512339,-53.0349646,711,12081.56330
D1,Alpestre/RS,-27.2512339,-53.0349646,17,288.87001
1,Alpinópolis/MG,-20.863611,-46.387777,2177,10852.98370
D1,Alpinópolis/MG,-20.863611,-46.387777,47,234.30879
1,Alta Floresta D'Oeste/RO,-11.9296917,-61.9961284,4940,21939.95381
D1,Alta Floresta D'Oeste/RO,-11.9296917,-61.9961284,75,333.09646
1,Alta Floresta/MT,-9.8715018,-56.0839881,11898,22834.66078
D1,Alta Floresta/MT,-9.8715018,-56.0839881,154,295.55705
1,Altair/SP,-20.5238955,-49.0606135,312,7409.16647
D1,Altair/SP,-20.5238955,-49.0606135,17,403.70458
1,Altamira do Maranhão/MA,-4.1643006,-45.4674574,406,4921.21212
D1,Altamira do Maranhão/MA,-4.1643006,-45.4674574,14,169.69697
1,Altamira do Paraná/PR,-24.799114,-52.7128633,315,22043.38698
D1,Altamira do Paraná/PR,-24.799114,-52.7128633,13,909.72708
1,Altamira/PA,-3.204065,-52.209961,17068,14548.24412
D1,Altamira/PA,-3.204065,-52.209961,344,293.21514
1,Altaneira/CE,-6.9980933,-39.7385742,757,9815.87137
D1,Altaneira/CE,-6.9980933,-39.7385742,18,233.40249
1,Alterosa/MG,-21.249166,-46.143055,1047,7187.97199
D1,Alterosa/MG,-21.249166,-46.143055,38,260.88150
1,Altinho/PE,-8.4904095,-36.0607494,1381,6005.39224
D1,Altinho/PE,-8.4904095,-36.0607494,30,130.45747
1,Altinópolis/SP,-21.021364,-47.3712,1046,6448.43105
D1,Altinópolis/SP,-21.021364,-47.3712,56,345.23149
1,Alto Alegre do Maranhão/MA,-4.2055693,-44.4525287,1570,5593.95710
D1,Alto Alegre do Maranhão/MA,-4.2055693,-44.4525287,29,103.32787
1,Alto Alegre do Pindaré/MA,-3.6698186,-45.8462153,2324,7269.99718
D1,Alto Alegre do Pindaré/MA,-3.6698186,-45.8462153,55,172.05243
1,Alto Alegre dos Parecis/RO,-12.1314515,-61.856265,1639,12353.02985
D1,Alto Alegre dos Parecis/RO,-12.1314515,-61.856265,47,354.23576
1,Alto Alegre/RR,2.98858,-61.307167,1744,11436.81553
D1,Alto Alegre/RR,2.98858,-61.307167,39,255.75448
1,Alto Alegre/RS,-31.780844700000003,-52.81311114489171,248,15597.48428
D1,Alto Alegre/RS,-31.780844700000003,-52.81311114489171,2,125.78616
1,Alto Alegre/SP,-21.5820592,-50.1661976,403,9882.29524
D1,Alto Alegre/SP,-21.5820592,-50.1661976,22,539.48014
1,Alto Araguaia/MT,-17.3156528,-53.2169365,1922,9749.41666
D1,Alto Araguaia/MT,-17.3156528,-53.2169365,31,157.24866
1,Alto Bela Vista/SC,-27.4320737,-51.905771,206,10757.18016
D1,Alto Bela Vista/SC,-27.4320737,-51.905771,3,156.65796
1,Alto Boa Vista/MT,-11.6723985,-51.3744431,1180,16638.46588
D1,Alto Boa Vista/MT,-11.6723985,-51.3744431,19,267.90750
1,Alto Caparaó/MG,-20.4405661,-41.8683799,439,7393.06164
D1,Alto Caparaó/MG,-20.4405661,-41.8683799,9,151.56618
1,Alto Feliz/RS,-29.3785943,-51.3123751,393,12914.88663
D1,Alto Feliz/RS,-29.3785943,-51.3123751,2,65.72461
1,Alto Garças/MT,-16.9469683,-53.529427,1204,9770.34813
D1,Alto Garças/MT,-16.9469683,-53.529427,42,340.82610
1,Alto Horizonte/GO,-14.1954948,-49.3366993,1270,18687.46321
D1,Alto Horizonte/GO,-14.1954948,-49.3366993,14,206.00353
1,Alto Jequitibá/MG,-20.423611,-41.966111,1017,12273.71470
D1,Alto Jequitibá/MG,-20.423611,-41.966111,13,156.89114
1,Alto Longá/PI,-5.2549051,-42.2072388,745,5184.05121
D1,Alto Longá/PI,-5.2549051,-42.2072388,15,104.37687
1,Alto Paraguai/MT,-14.513712,-56.4936374,935,8069.38811
D1,Alto Paraguai/MT,-14.513712,-56.4936374,29,250.28049
1,Alto Paraná/PR,-23.131247,-52.318893,1562,10451.65607
D1,Alto Paraná/PR,-23.131247,-52.318893,26,173.97123
1,Alto Paraíso de Goiás/GO,-14.1304779,-47.5100161,1077,13894.98129
D1,Alto Paraíso de Goiás/GO,-14.1304779,-47.5100161,9,116.11405
1,Alto Paraíso/PR,-23.508137,-53.728537,438,16653.99240
D1,Alto Paraíso/PR,-23.508137,-53.728537,9,342.20532
1,Alto Paraíso/RO,-9.7240103,-63.3188123,2443,10975.82892
D1,Alto Paraíso/RO,-9.7240103,-63.3188123,59,265.07323
1,Alto Parnaíba/MA,-9.112506,-45.9310154,1021,9089.29048
D1,Alto Parnaíba/MA,-9.112506,-45.9310154,11,97.92575
1,Alto Piquiri/PR,-24.0239021,-53.4417448,1333,13711.17054
D1,Alto Piquiri/PR,-24.0239021,-53.4417448,29,298.29253
1,Alto Rio Doce/MG,-21.0239537,-43.4133507,707,6593.30411
D1,Alto Rio Doce/MG,-21.0239537,-43.4133507,29,270.44670
1,Alto Rio Novo/ES,-19.0577208,-41.0171518,887,11212.23613
D1,Alto Rio Novo/ES,-19.0577208,-41.0171518,28,353.93756
1,Alto Santo/CE,-5.5190371,-38.2719351,2067,12856.87628
D1,Alto Santo/CE,-5.5190371,-38.2719351,36,223.92237
1,Alto Taquari/MT,-17.8269099,-53.2831736,1660,14544.81731
D1,Alto Taquari/MT,-17.8269099,-53.2831736,29,254.09621
1,Alto do Rodrigues/RN,-5.290868,-36.7616726,2695,18059.37144
D1,Alto do Rodrigues/RN,-5.290868,-36.7616726,40,268.04262
1,Altos/PI,-5.0393915,-42.4611694,5097,12529.19053
D1,Altos/PI,-5.0393915,-42.4611694,101,248.27315
1,Altônia/PR,-23.8722004,-53.894037,2219,9953.79716
D1,Altônia/PR,-23.8722004,-53.894037,50,224.28565
1,Alumínio/SP,-23.5203479,-47.2575256,1636,8654.71089
D1,Alumínio/SP,-23.5203479,-47.2575256,53,280.37878
1,Alvarenga/MG,-19.4175,-41.728334,541,14300.81946
D1,Alvarenga/MG,-19.4175,-41.728334,6,158.60428
1,Alvarães/AM,-3.214786,-64.8143124,3008,18345.93803
D1,Alvarães/AM,-3.214786,-64.8143124,46,280.55623
1,Alvinlândia/SP,-22.4431852,-49.7643596,145,4460.16610
D1,Alvinlândia/SP,-22.4431852,-49.7643596,9,276.83790
1,Alvinópolis/MG,-20.1105199,-43.0601805,964,6369.34258
D1,Alvinópolis/MG,-20.1105199,-43.0601805,23,151.96564
1,Alvorada D'Oeste/RO,-11.346271,-62.284697,1457,10552.61824
D1,Alvorada D'Oeste/RO,-11.346271,-62.284697,31,224.52379
1,Alvorada de Minas/MG,-18.7318587,-43.3641479,312,8654.64632
D1,Alvorada de Minas/MG,-18.7318587,-43.3641479,3,83.21775
1,Alvorada do Gurguéia/PI,-8.4465288,-43.8655915,453,8283.04992
D1,Alvorada do Gurguéia/PI,-8.4465288,-43.8655915,12,219.41854
1,Alvorada do Norte/GO,-14.483911,-46.4959897,959,10961.25271
D1,Alvorada do Norte/GO,-14.483911,-46.4959897,17,194.30792
1,Alvorada do Sul/PR,-22.7807269,-51.2307721,933,8044.49043
D1,Alvorada do Sul/PR,-22.7807269,-51.2307721,29,250.04311
1,Alvorada/RS,-29.9981184,-51.0772509,23953,11279.85609
D1,Alvorada/RS,-29.9981184,-51.0772509,828,389.91863
1,Alvorada/TO,-12.478465,-49.124926,1703,20319.77091
D1,Alvorada/TO,-12.478465,-49.124926,30,357.95251
1,Além Paraíba/MG,-21.8760576,-42.6810473,3830,10807.60765
D1,Além Paraíba/MG,-21.8760576,-42.6810473,163,459.95824
1,Amajari/RR,3.6523869,-61.4194315,1201,8856.27904
D1,Amajari/RR,3.6523869,-61.4194315,25,184.35219
1,Amambai/MS,-23.1082701,-55.2284854,3749,9314.98000
D1,Amambai/MS,-23.1082701,-55.2284854,86,213.68052
1,Amaporã/PR,-23.094272,-52.786597,507,7915.69087
D1,Amaporã/PR,-23.094272,-52.786597,8,124.90242
1,Amapá do Maranhão/MA,-1.6762114,-46.0109669,172,2440.75493
D1,Amapá do Maranhão/MA,-1.6762114,-46.0109669,6,85.14261
1,Amapá/AP,2.0529997,-50.7930003,1437,15509.98381
D1,Amapá/AP,2.0529997,-50.7930003,13,140.31301
1,Amaraji/PE,-8.373925,-35.4536527,698,3046.70450
D1,Amaraji/PE,-8.373925,-35.4536527,48,209.51550
1,Amaral Ferrador/RS,-30.8750633,-52.2542051,326,4568.38565
D1,Amaral Ferrador/RS,-30.8750633,-52.2542051,11,154.14798
1,Amaralina/GO,-13.9236199,-49.2962411,147,3793.54839
D1,Amaralina/GO,-13.9236199,-49.2962411,2,51.61290
1,Amarante do Maranhão/MA,-5.56913,-46.747284,1767,4205.44065
D1,Amarante do Maranhão/MA,-5.56913,-46.747284,58,138.03937
1,Amarante/PI,-6.2459374,-42.8476238,1598,9074.90488
D1,Amarante/PI,-6.2459374,-42.8476238,35,198.76200
1,Amargosa/BA,-13.03793715,-39.60796443875596,3290,8742.79185
D1,Amargosa/BA,-13.03793715,-39.60796443875596,57,151.47086
1,Amaturá/AM,-3.3640509,-68.1994689,2409,20186.02313
D1,Amaturá/AM,-3.3640509,-68.1994689,18,150.82956
1,Americana/SP,-22.7392463,-47.3306032,27303,11172.81172
D1,Americana/SP,-22.7392463,-47.3306032,858,351.10693
1,Americano do Brasil/GO,-16.2515808,-49.9806104,904,14533.76206
D1,Americano do Brasil/GO,-16.2515808,-49.9806104,25,401.92926
1,Ametista do Sul/RS,-27.3617341,-53.1826575,1063,14372.63386
D1,Ametista do Sul/RS,-27.3617341,-53.1826575,26,351.54137
1,Amontada/CE,-3.3634586,-39.8284791,3042,6883.13158
D1,Amontada/CE,-3.3634586,-39.8284791,58,131.23657
1,Amorinópolis/GO,-16.6211308,-51.0949921,412,13683.16174
D1,Amorinópolis/GO,-16.6211308,-51.0949921,11,365.32713
1,Amparo de São Francisco/SE,-10.1299754,-36.9269099,256,10729.25398
D1,Amparo de São Francisco/SE,-10.1299754,-36.9269099,5,209.55574
1,Amparo do Serra/MG,-20.5070255,-42.8028462,183,3941.41719
D1,Amparo do Serra/MG,-20.5070255,-42.8028462,8,172.30239
1,Amparo/PB,-7.56394725,-37.04652873235175,190,8392.22615
D1,Amparo/PB,-7.56394725,-37.04652873235175,4,176.67845
1,Amparo/SP,-22.70111,-46.76444,8317,11370.56532
D1,Amparo/SP,-22.70111,-46.76444,222,303.50673
1,Ampére/PR,-25.9168712,-53.4742414,3013,15478.26980
D1,Ampére/PR,-25.9168712,-53.4742414,60,308.22973
1,Amélia Rodrigues/BA,-12.4015388,-38.7516971,2468,9873.18478
D1,Amélia Rodrigues/BA,-12.4015388,-38.7516971,52,208.02496
1,América Dourada/BA,-11.4515262,-41.4357517,973,6048.73803
D1,América Dourada/BA,-11.4515262,-41.4357517,13,80.81562
1,Américo Brasiliense/SP,-21.7297099,-48.1052092,4378,10537.97087
D1,Américo Brasiliense/SP,-21.7297099,-48.1052092,99,238.29582
1,Américo de Campos/SP,-20.298476,-49.735904,1172,19556.14884
D1,Américo de Campos/SP,-20.298476,-49.735904,35,584.01468
1,Anadia/AL,-9.6830208,-36.3052699,1528,8727.93740
D1,Anadia/AL,-9.6830208,-36.3052699,34,194.20803
1,Anagé/BA,-14.6134669,-41.1376308,1164,5483.06562
D1,Anagé/BA,-14.6134669,-41.1376308,30,141.31612
1,Anahy/PR,-24.6450861,-53.1337957,473,17051.18962
D1,Anahy/PR,-24.6450861,-53.1337957,13,468.63735
1,Anajatuba/MA,-3.26441,-44.6179916,1250,4600.66250
D1,Anajatuba/MA,-3.26441,-44.6179916,27,99.37431
1,Anajás/PA,-0.9878802,-49.9390114,1369,4549.53308
D1,Anajás/PA,-0.9878802,-49.9390114,22,73.11156
1,Analândia/SP,-22.128917,-47.661939,396,7741.93548
D1,Analândia/SP,-22.128917,-47.661939,5,97.75171
1,Anamã/AM,-3.5797356,-61.4049996,2087,14602.57487
D1,Anamã/AM,-3.5797356,-61.4049996,10,69.96921
1,Ananindeua/PA,-1.374035,-48.4016623,27065,5008.23449
D1,Ananindeua/PA,-1.374035,-48.4016623,834,154.32727
1,Ananás/TO,-6.3663053,-48.080238,1791,18982.51192
D1,Ananás/TO,-6.3663053,-48.080238,28,296.76736
1,Anapu/PA,-3.4668292,-51.2057035,2000,6823.14410
D1,Anapu/PA,-3.4668292,-51.2057035,57,194.45961
1,Anapurus/MA,-3.6751298,-43.1046001,832,5182.50903
D1,Anapurus/MA,-3.6751298,-43.1046001,15,93.43466
1,Anastácio/MS,-20.4832458,-55.8048448,2671,10542.31134
D1,Anastácio/MS,-20.4832458,-55.8048448,88,347.33186
1,Anaurilândia/MS,-22.185169,-52.719056,575,6307.59105
D1,Anaurilândia/MS,-22.185169,-52.719056,15,164.54585
1,Anchieta/ES,-20.8057672,-40.6454564,6025,19894.33713
D1,Anchieta/ES,-20.8057672,-40.6454564,97,320.29057
1,Anchieta/SC,-26.5350527,-53.3293938,731,13346.72266
D1,Anchieta/SC,-26.5350527,-53.3293938,11,200.83988
1,Andaraí/BA,-12.8059674,-41.3322919,989,7536.96083
D1,Andaraí/BA,-12.8059674,-41.3322919,11,83.82868
1,Andirá/PR,-23.0494761,-50.2310027,3033,15300.40862
D1,Andirá/PR,-23.0494761,-50.2310027,96,484.28593
1,Andorinha/BA,-10.3445708,-39.8334411,1002,6950.61043
D1,Andorinha/BA,-10.3445708,-39.8334411,18,124.86127
1,Andradas/MG,-22.0680484,-46.5688976,4595,11018.12776
D1,Andradas/MG,-22.0680484,-46.5688976,125,299.73144
1,Andradina/SP,-20.896505,-51.3742765,7210,12594.98646
D1,Andradina/SP,-20.896505,-51.3742765,282,492.61944
1,Andrelândia/MG,-21.739722,-44.308889,206,1690.04840
D1,Andrelândia/MG,-21.739722,-44.308889,16,131.26590
1,André da Rocha/RS,-28.6309124,-51.5733328,117,8660.25167
D1,André da Rocha/RS,-28.6309124,-51.5733328,1,74.01925
1,Angatuba/SP,-23.4938938,-48.4110675,3193,12412.53304
D1,Angatuba/SP,-23.4938938,-48.4110675,78,303.21878
1,Angelim/PE,-8.8902038,-36.2872987,241,2132.55464
D1,Angelim/PE,-8.8902038,-36.2872987,12,106.18529
1,Angelina/SC,-27.5805287,-48.9838759,597,12740.07682
D1,Angelina/SC,-27.5805287,-48.9838759,4,85.36065
1,Angelândia/MG,-17.7253,-42.2728,275,3199.90691
D1,Angelândia/MG,-17.7253,-42.2728,4,46.54410
1,Angical do Piauí/PI,-6.0872666,-42.7366138,894,13187.78581
D1,Angical do Piauí/PI,-6.0872666,-42.7366138,12,177.01726
1,Angical/BA,-12.005623,-44.7000236,952,6847.93555
D1,Angical/BA,-12.005623,-44.7000236,20,143.86419
1,Angico/TO,-6.3893733,-47.8656722,249,7165.46763
D1,Angico/TO,-6.3893733,-47.8656722,5,143.88489
1,Angicos/RN,-5.6666344,-36.6009064,1133,9687.90081
D1,Angicos/RN,-5.6666344,-36.6009064,24,205.21590
1,Angra dos Reis/RJ,-23.0063966,-44.316326,18600,8849.93648
D1,Angra dos Reis/RJ,-23.0063966,-44.316326,576,274.06255
1,Anguera/BA,-12.1509425,-39.2452469,541,4758.55396
D1,Anguera/BA,-12.1509425,-39.2452469,2,17.59170
1,Angélica/MS,-22.1588196,-53.7728504,1451,13094.48606
D1,Angélica/MS,-22.1588196,-53.7728504,21,189.51358
1,Anhanguera/GO,-18.3338749,-48.220363,129,11016.22545
D1,Anhanguera/GO,-18.3338749,-48.220363,7,597.77968
1,Anhembi/SP,-22.7891096,-48.1316776,366,5295.90508
D1,Anhembi/SP,-22.7891096,-48.1316776,11,159.16655
1,Anhumas/SP,-22.2956478,-51.3873401,385,9228.18792
D1,Anhumas/SP,-22.2956478,-51.3873401,7,167.78523
1,Anicuns/GO,-16.4606451,-49.9572265,4129,18672.27423
D1,Anicuns/GO,-16.4606451,-49.9572265,72,325.60033
1,Anita Garibaldi/SC,-27.6855032,-51.1293873,1266,18664.30783
D1,Anita Garibaldi/SC,-27.6855032,-51.1293873,10,147.42739
1,Anitápolis/SC,-27.9041185,-49.1287395,419,13000.31027
D1,Anitápolis/SC,-27.9041185,-49.1287395,5,155.13497
1,Anori/AM,-3.7435254,-61.6605203,2006,9144.36796
D1,Anori/AM,-3.7435254,-61.6605203,33,150.43078
1,Anta Gorda/RS,-28.9718745,-52.0069187,716,12051.84312
D1,Anta Gorda/RS,-28.9718745,-52.0069187,8,134.65747
1,Antas/BA,-10.4114649,-38.3308815,1321,6719.56865
D1,Antas/BA,-10.4114649,-38.3308815,13,66.12747
1,Antonina do Norte/CE,-6.7754187,-39.9879345,852,11510.40259
D1,Antonina do Norte/CE,-6.7754187,-39.9879345,26,351.25642
1,Antonina/PR,-25.4298854,-48.7125431,2890,15275.64882
D1,Antonina/PR,-25.4298854,-48.7125431,73,385.85549
1,Antônio Almeida/PI,-7.2186016,-44.1950248,407,12818.89764
D1,Antônio Almeida/PI,-7.2186016,-44.1950248,10,314.96063
1,Antônio Cardoso/BA,-12.4363122,-39.1200307,647,5544.13025
D1,Antônio Cardoso/BA,-12.4363122,-39.1200307,11,94.25878
1,Antônio Carlos/MG,-21.318334,-43.746666,909,7924.33092
D1,Antônio Carlos/MG,-21.318334,-43.746666,18,156.91744
1,Antônio Carlos/SC,-27.5168462,-48.7684715,1734,19903.58127
D1,Antônio Carlos/SC,-27.5168462,-48.7684715,27,309.91736
1,Antônio Dias/MG,-19.6525,-42.872778,611,6617.56742
D1,Antônio Dias/MG,-19.6525,-42.872778,27,292.42933
1,Antônio Gonçalves/BA,-10.5715409,-40.2748824,931,7787.53660
D1,Antônio Gonçalves/BA,-10.5715409,-40.2748824,10,83.64701
1,Antônio João/MS,-22.1892837,-55.9508227,624,6870.73332
D1,Antônio João/MS,-22.1892837,-55.9508227,18,198.19423
1,Antônio Martins/RN,-6.2155812,-37.8890129,707,9871.54426
D1,Antônio Martins/RN,-6.2155812,-37.8890129,7,97.73806
1,Antônio Olinto/PR,-25.9849006,-50.1974516,610,8219.91645
D1,Antônio Olinto/PR,-25.9849006,-50.1974516,16,215.60437
1,Antônio Prado de Minas/MG,-21.0171988,-42.1101106,166,10526.31579
D1,Antônio Prado de Minas/MG,-21.0171988,-42.1101106,5,317.05770
1,Antônio Prado/RS,-28.8567806,-51.2801355,3086,23663.82946
D1,Antônio Prado/RS,-28.8567806,-51.2801355,35,268.38433
1,Anápolis/GO,-16.3332828,-48.9525756,54429,13726.46434
D1,Anápolis/GO,-16.3332828,-48.9525756,1807,455.70782
1,Anísio de Abreu/PI,-9.185643,-43.04941,291,2911.74705
D1,Anísio de Abreu/PI,-9.185643,-43.04941,14,140.08405
1,Aparecida d'Oeste/SP,-20.4498109,-50.8808706,891,21615.72052
D1,Aparecida d'Oeste/SP,-20.4498109,-50.8808706,22,533.72149
1,Aparecida de Goiânia/GO,-16.8226769,-49.2452546,98876,16428.84203
D1,Aparecida de Goiânia/GO,-16.8226769,-49.2452546,1783,296.25617
1,Aparecida do Rio Doce/GO,-18.2980167,-51.1491312,271,10953.92078
D1,Aparecida do Rio Doce/GO,-18.2980167,-51.1491312,4,161.68149
1,Aparecida do Rio Negro/TO,-9.9513491,-47.9773786,398,8120.79168
D1,Aparecida do Rio Negro/TO,-9.9513491,-47.9773786,13,265.25199
1,Aparecida do Taboado/MS,-20.0840304,-51.1013943,4087,15489.27462
D1,Aparecida do Taboado/MS,-20.0840304,-51.1013943,62,234.97309
1,Aparecida/PB,-6.7859598, -38.0831353,1095,12909.69111
D1,Aparecida/PB,-6.7859598, -38.0831353,14,165.05541
1,Aparecida/SP,-22.851552,-45.2340924,2900,8008.61617
D1,Aparecida/SP,-22.851552,-45.2340924,117,323.10624
1,Aperibé/RJ,-21.6211928,-42.1028167,1273,10576.60352
D1,Aperibé/RJ,-21.6211928,-42.1028167,32,265.86906
1,Apiacá/ES,-21.152272,-41.569297,1104,14638.02705
D1,Apiacá/ES,-21.152272,-41.569297,38,503.84513
1,Apiacás/MT,-9.5678422,-57.394852,2116,20285.68689
D1,Apiacás/MT,-9.5678422,-57.394852,18,172.56255
1,Apiaí/SP,-24.5076527,-48.8461582,1781,7395.87226
D1,Apiaí/SP,-24.5076527,-48.8461582,97,402.80719
1,Apicum-Açu/MA,-1.5279295,-45.082278,610,3469.45740
D1,Apicum-Açu/MA,-1.5279295,-45.082278,11,62.56399
1,Apiúna/SC,-27.0374658,-49.3885037,989,9031.13871
D1,Apiúna/SC,-27.0374658,-49.3885037,18,164.36855
1,Apodi/RN,-5.6631109,-37.796927,6676,18594.02852
D1,Apodi/RN,-5.6631109,-37.796927,97,270.16488
1,Aporá/BA,-11.6599747,-38.0794757,680,3811.65919
D1,Aporá/BA,-11.6599747,-38.0794757,19,106.50224
1,Aporé/GO,-18.9642193,-51.92804,499,11697.14018
D1,Aporé/GO,-18.9642193,-51.92804,11,257.85279
1,Apuarema/BA,-13.8517897,-39.7457126,779,10709.37586
D1,Apuarema/BA,-13.8517897,-39.7457126,11,151.22354
1,Apucarana/PR,-23.5525327,-51.4610764,12676,9223.06786
D1,Apucarana/PR,-23.5525327,-51.4610764,493,358.70720
1,Apuiarés/CE,-3.9460303,-39.4313298,1396,9469.54280
D1,Apuiarés/CE,-3.9460303,-39.4313298,25,169.58350
1,Apuí/AM,-7.1940195,-59.8830192,1631,7172.69889
D1,Apuí/AM,-7.1940195,-59.8830192,34,149.52285
1,Aquidabã/SE,-10.2837579,-37.0188687,2413,11070.83869
D1,Aquidabã/SE,-10.2837579,-37.0188687,40,183.51991
1,Aquidauana/MS,-20.473969,-55.7821375,5789,12014.36161
D1,Aquidauana/MS,-20.473969,-55.7821375,168,348.66346
1,Aquiraz/CE,-3.9063117,-38.387504,7596,9310.99153
D1,Aquiraz/CE,-3.9063117,-38.387504,95,116.44868
1,Arabutã/SC,-27.1587028,-52.1438142,424,9934.39550
D1,Arabutã/SC,-27.1587028,-52.1438142,10,234.30178
1,Aracaju/SE,-10.9162061,-37.0774655,129250,19216.07341
D1,Aracaju/SE,-10.9162061,-37.0774655,2436,362.16909
1,Aracati/CE,-4.558259,-37.767894,8288,10993.20883
D1,Aracati/CE,-4.558259,-37.767894,167,221.50891
1,Aracatu/BA,-14.4274236,-41.4604105,1003,7739.19753
D1,Aracatu/BA,-14.4274236,-41.4604105,19,146.60494
1,Araci/BA,-11.3356065,-38.9573261,3859,7028.75981
D1,Araci/BA,-11.3356065,-38.9573261,56,101.99807
1,Aracitaba/MG,-21.3425,-43.378611,95,4620.62257
D1,Aracitaba/MG,-21.3425,-43.378611,11,535.01946
1,Aracoiaba/CE,-4.3702577,-38.8084313,4366,16413.53383
D1,Aracoiaba/CE,-4.3702577,-38.8084313,35,131.57895
1,Aracruz/ES,-19.8245218,-40.2735025,20761,19783.30888
D1,Aracruz/ES,-19.8245218,-40.2735025,253,241.08555
1,Aragarças/GO,-15.8957166,-52.2514538,3381,16565.40911
D1,Aragarças/GO,-15.8957166,-52.2514538,79,387.06516
1,Aragoiânia/GO,-16.9146388,-49.4499148,1749,16376.40449
D1,Aragoiânia/GO,-16.9146388,-49.4499148,30,280.89888
1,Aragominas/TO,-7.1654101,-48.525488,611,10709.90359
D1,Aragominas/TO,-7.1654101,-48.525488,11,192.81332
1,Araguacema/TO,-8.8067391,-49.5560969,825,11421.84688
D1,Araguacema/TO,-8.8067391,-49.5560969,18,249.20393
1,Araguaiana/MT,-15.729144,-51.834112,425,13870.75718
D1,Araguaiana/MT,-15.729144,-51.834112,8,261.09661
1,Araguainha/MT,-16.857016,-53.031778,32,3520.35204
D1,Araguainha/MT,-16.857016,-53.031778,1,110.01100
1,Araguanã/MA,-2.9508403,-45.6651986,818,5218.50080
D1,Araguanã/MA,-2.9508403,-45.6651986,5,31.89793
1,Araguanã/TO,-6.5799107,-48.6428482,591,10092.21311
D1,Araguanã/TO,-6.5799107,-48.6428482,16,273.22404
1,Araguapaz/GO,-15.0937927,-50.626417,817,10481.07761
D1,Araguapaz/GO,-15.0937927,-50.626417,30,384.86209
1,Araguari/MG,-18.6511256,-48.1933764,21215,17923.97834
D1,Araguari/MG,-18.6511256,-48.1933764,474,400.46975
1,Araguatins/TO,-5.6522925,-48.1158973,2893,7910.20698
D1,Araguatins/TO,-5.6522925,-48.1158973,74,202.33506
1,Araguaçu/TO,-12.928934,-49.823134,1148,13637.44357
D1,Araguaçu/TO,-12.928934,-49.823134,22,261.34474
1,Araguaína/TO,-7.193241,-48.2018597,39791,21364.86886
D1,Araguaína/TO,-7.193241,-48.2018597,566,303.90078
1,Araioses/MA,-2.890914,-41.904993,687,1458.75358
D1,Araioses/MA,-2.890914,-41.904993,15,31.85051
1,Aral Moreira/MS,-22.951141,-55.6268421,570,4555.99073
D1,Aral Moreira/MS,-22.951141,-55.6268421,19,151.86636
1,Aramari/BA,-12.0907897,-38.4985065,695,6033.50985
D1,Aramari/BA,-12.0907897,-38.4985065,14,121.53833
1,Arambaré/RS,-30.9132252,-51.4994625,262,7392.77652
D1,Arambaré/RS,-30.9132252,-51.4994625,9,253.95034
1,Arame/MA,-4.8858769,-46.0102484,1563,4761.61462
D1,Arame/MA,-4.8858769,-46.0102484,42,127.95126
1,Aramina/SP,-20.0876144,-47.789201,367,6451.04588
D1,Aramina/SP,-20.0876144,-47.789201,18,316.40007
1,Arandu/SP,-23.1345103,-49.0545651,657,10309.11659
D1,Arandu/SP,-23.1345103,-49.0545651,21,329.51514
1,Arantina/MG,-21.911667,-44.255833,300,10795.25009
D1,Arantina/MG,-21.911667,-44.255833,6,215.90500
1,Arapeí/SP,-22.6738889,-44.4477778,271,11052.20228
D1,Arapeí/SP,-22.6738889,-44.4477778,4,163.13214
1,Arapiraca/AL,-9.754866,-36.661471,31357,13382.75525
D1,Arapiraca/AL,-9.754866,-36.661471,538,229.61133
1,Arapoema/TO,-7.6575001,-49.0641484,588,8922.61002
D1,Arapoema/TO,-7.6575001,-49.0641484,12,182.09408
1,Araponga/MG,-20.666667,-42.520556,744,8787.05563
D1,Araponga/MG,-20.666667,-42.520556,12,141.72670
1,Arapongas/PR,-23.415296,-51.42592,16514,13049.90320
D1,Arapongas/PR,-23.415296,-51.42592,590,466.23731
1,Araporã/MG,-18.4318188,-49.188313,2178,31149.88558
D1,Araporã/MG,-18.4318188,-49.188313,41,586.38444
1,Arapoti/PR,-24.1457957,-49.8224605,3743,13142.55618
D1,Arapoti/PR,-24.1457957,-49.8224605,68,238.76404
1,Araputanga/MT,-15.4710868,-58.346796,2562,15001.75665
D1,Araputanga/MT,-15.4710868,-58.346796,56,327.90725
1,Arapuá/MG,-19.034444,-46.155556,310,10930.88858
D1,Arapuá/MG,-19.034444,-46.155556,3,105.78279
1,Arapuã/PR,-24.3079525,-51.7901941,431,14605.21857
D1,Arapuã/PR,-24.3079525,-51.7901941,9,304.98136
1,Araquari/SC,-26.3703324,-48.7210994,4887,11951.57740
D1,Araquari/SC,-26.3703324,-48.7210994,89,217.65713
1,Arara/PB,-6.8271895,-35.7605703,1062,7801.36634
D1,Arara/PB,-6.8271895,-35.7605703,29,213.03166
1,Araranguá/SC,-28.9348832,-49.4858389,12174,17518.31120
D1,Araranguá/SC,-28.9348832,-49.4858389,261,375.57740
1,Araraquara/SP,-21.7886713,-48.1773096,24163,10045.23119
D1,Araraquara/SP,-21.7886713,-48.1773096,548,227.81884
1,Araras/SP,-22.3569477,-47.3838889,18652,13640.58535
D1,Araras/SP,-22.3569477,-47.3838889,403,294.72206
1,Ararendá/CE,-4.7504395,-40.8303611,1495,13611.94573
D1,Ararendá/CE,-4.7504395,-40.8303611,22,200.30957
1,Arari/MA,-3.4547602,-44.7772723,1087,3621.64323
D1,Arari/MA,-3.4547602,-44.7772723,35,116.61225
1,Araricá/RS,-29.6168543,-50.929121,1142,19554.79452
D1,Araricá/RS,-29.6168543,-50.929121,27,462.32877
1,Araripe/CE,-7.212861,-40.1359222,1430,6587.73667
D1,Araripe/CE,-7.212861,-40.1359222,23,105.95660
1,Araripina/PE,-7.5768582,-40.5038509,8404,9852.17055
D1,Araripina/PE,-7.5768582,-40.5038509,171,200.46658
1,Araruama/RJ,-22.8733203,-42.3428897,7830,5752.74229
D1,Araruama/RJ,-22.8733203,-42.3428897,492,361.47499
1,Araruna/PB,-6.5321155,-35.7397595,730,3541.96992
D1,Araruna/PB,-6.5321155,-35.7397595,18,87.33624
1,Araruna/PR,-23.9320308,-52.4976047,2398,17093.16416
D1,Araruna/PR,-23.9320308,-52.4976047,37,263.73940
1,Arataca/BA,-15.2617424,-39.4122943,797,7309.24431
D1,Arataca/BA,-15.2617424,-39.4122943,15,137.56420
1,Aratiba/RS,-27.3955734,-52.3024325,538,8755.08544
D1,Aratiba/RS,-27.3955734,-52.3024325,7,113.91375
1,Aratuba/CE,-4.4195958,-39.0463737,1725,14669.61476
D1,Aratuba/CE,-4.4195958,-39.0463737,13,110.55362
1,Aratuípe/BA,-13.077137,-39.0010786,499,5639.69259
D1,Aratuípe/BA,-13.077137,-39.0010786,12,135.62387
1,Araucária/PR,-25.5861107,-49.4051209,31631,21297.18156
D1,Araucária/PR,-25.5861107,-49.4051209,560,377.04852
1,Arauá/SE,-11.2644014,-37.6181058,1298,13191.05691
D1,Arauá/SE,-11.2644014,-37.6181058,22,223.57724
1,Araxá/MG,-19.5928536,-46.940241,18639,17194.17359
D1,Araxá/MG,-19.5928536,-46.940241,246,226.93099
1,Araçagi/PB,-6.8519969,-35.3835602,1918,11378.06253
D1,Araçagi/PB,-6.8519969,-35.3835602,26,154.23860
1,Araçariguama/SP,-23.438611,-47.061389,2224,9527.48147
D1,Araçariguama/SP,-23.438611,-47.061389,74,317.01152
1,Araçatuba/SP,-21.207992,-50.4390225,31670,15897.79630
D1,Araçatuba/SP,-21.207992,-50.4390225,936,469.85593
1,Araçaí/MG,-19.200833,-44.2475,104,4406.77966
D1,Araçaí/MG,-19.200833,-44.2475,1,42.37288
1,Araçoiaba da Serra/SP,-23.5045367,-47.6168158,3107,8779.56427
D1,Araçoiaba da Serra/SP,-23.5045367,-47.6168158,91,257.14205
1,Araçoiaba/PE,-7.7856903,-35.0898881,704,3362.62896
D1,Araçoiaba/PE,-7.7856903,-35.0898881,33,157.62323
1,Araçu/GO,-16.3561579,-49.6815269,681,19739.13043
D1,Araçu/GO,-16.3561579,-49.6815269,20,579.71014
1,Araçuaí/MG,-16.8484451,-42.0661868,2359,6425.16683
D1,Araçuaí/MG,-16.8484451,-42.0661868,54,147.07885
1,Araçás/BA,-12.2139176,-38.2026159,720,5883.79505
D1,Araçás/BA,-12.2139176,-38.2026159,17,138.92294
1,Araújos/MG,-19.948055,-45.165556,947,9944.34527
D1,Araújos/MG,-19.948055,-45.165556,14,147.01250
1,Arceburgo/MG,-21.364444,-46.939722,1498,13630.57325
D1,Arceburgo/MG,-21.364444,-46.939722,34,309.37216
1,Arco-Íris/SP,-21.7741308,-50.4668814,177,10085.47009
D1,Arco-Íris/SP,-21.7741308,-50.4668814,8,455.84046
1,Arcos/MG,-20.282223,-45.539444,6899,16968.37031
D1,Arcos/MG,-20.282223,-45.539444,140,344.33568
1,Arcoverde/PE,-8.415192,-37.057748,7422,9857.22824
D1,Arcoverde/PE,-8.415192,-37.057748,136,180.62288
1,Areado/MG,-21.3582771,-46.1476688,1556,10177.91732
D1,Areado/MG,-21.3582771,-46.1476688,33,215.85557
1,Areal/RJ,-22.2314922,-43.1056264,1664,13037.68706
D1,Areal/RJ,-22.2314922,-43.1056264,51,399.59257
1,Arealva/SP,-22.0301906,-48.9111936,1092,12602.42354
D1,Arealva/SP,-22.0301906,-48.9111936,21,242.35430
1,Areia Branca/RN,-4.9506652,-37.1263312,3210,11400.76715
D1,Areia Branca/RN,-4.9506652,-37.1263312,105,372.92229
1,Areia Branca/SE,-10.7591455,-37.3148072,2118,11250.99602
D1,Areia Branca/SE,-10.7591455,-37.3148072,49,260.29216
1,Areia de Baraúnas/PB,-7.1233949,-36.9446216,243,11543.94299
D1,Areia de Baraúnas/PB,-7.1233949,-36.9446216,7,332.54157
1,Areia/PB,-6.9680243,-35.6994783,2579,11465.78936
D1,Areia/PB,-6.9680243,-35.6994783,34,151.15814
1,Areial/PB,-7.0501306,-35.9245244,421,5968.24497
D1,Areial/PB,-7.0501306,-35.9245244,12,170.11625
1,Areias/SP,-22.5800929,-44.6975127,366,9370.19969
D1,Areias/SP,-22.5800929,-44.6975127,2,51.20328
1,Areiópolis/SP,-22.6758064,-48.6673653,1419,12685.49973
D1,Areiópolis/SP,-22.6758064,-48.6673653,23,205.61416
1,Arenápolis/MT,-14.4610369,-56.8432806,2088,22215.12927
D1,Arenápolis/MT,-14.4610369,-56.8432806,40,425.57719
1,Arenópolis/GO,-16.3859286,-51.55937,486,19740.04874
D1,Arenópolis/GO,-16.3859286,-51.55937,9,365.55646
1,Argirita/MG,-21.612761,-42.8371922,319,11898.54532
D1,Argirita/MG,-21.612761,-42.8371922,10,372.99515
1,Aricanduva/MG,-17.8678,-42.5569,196,3694.62771
1,Arinos/MG,-15.917223,-46.106111,1501,8408.96359
D1,Arinos/MG,-15.917223,-46.106111,30,168.06723
1,Aripuanã/MT,-10.175806,-59.4439663,3487,15116.83357
D1,Aripuanã/MT,-10.175806,-59.4439663,49,212.42468
1,Ariquemes/RO,-9.9076522,-63.033069,25764,23179.90427
D1,Ariquemes/RO,-9.9076522,-63.033069,533,479.54079
1,Ariranha do Ivaí/PR,-24.3834527,-51.5876772,219,10809.47680
D1,Ariranha do Ivaí/PR,-24.3834527,-51.5876772,4,197.43337
1,Ariranha/SP,-21.18716,-48.790418,1018,10333.97625
D1,Ariranha/SP,-21.18716,-48.790418,31,314.68886
1,Armazém/SC,-28.2624996,-49.0190126,1498,16939.95250
D1,Armazém/SC,-28.2624996,-49.0190126,35,395.79328
1,Armação dos Búzios/RJ,-22.7597805,-41.8875267,6233,17778.09469
D1,Armação dos Búzios/RJ,-22.7597805,-41.8875267,76,216.77125
1,Arneiroz/CE,-6.3235099,-40.1603859,681,8677.37003
D1,Arneiroz/CE,-6.3235099,-40.1603859,17,216.61570
1,Aroazes/PI,-6.1108814,-41.7886137,659,11324.96993
D1,Aroazes/PI,-6.1108814,-41.7886137,12,206.22100
1,Aroeiras do Itaim/PI,-7.2797031,-41.5629681,184,7212.85770
D1,Aroeiras do Itaim/PI,-7.2797031,-41.5629681,2,78.40063
1,Aroeiras/PB,-7.5462904,-35.7080002,2184,11445.94099
D1,Aroeiras/PB,-7.5462904,-35.7080002,18,94.33468
1,Arraial do Cabo/RJ,-22.9662839,-42.024427,943,3059.00671
D1,Arraial do Cabo/RJ,-22.9662839,-42.024427,47,152.46375
1,Arraial/PI,-6.6541632,-42.5335332,172,3649.48016
D1,Arraial/PI,-6.6541632,-42.5335332,3,63.65372
1,Arraias/TO,-12.9287788,-46.9437231,1178,11216.91106
D1,Arraias/TO,-12.9287788,-46.9437231,13,123.78595
1,Arroio Grande/RS,-32.2384246,-53.0866661,2321,12763.26643
D1,Arroio Grande/RS,-32.2384246,-53.0866661,59,324.44322
1,Arroio Trinta/SC,-26.9301976,-51.334928,731,20608.96532
D1,Arroio Trinta/SC,-26.9301976,-51.334928,14,394.69975
1,Arroio do Meio/RS,-29.4020392,-51.9444993,3433,16253.96525
D1,Arroio do Meio/RS,-29.4020392,-51.9444993,51,241.46584
1,Arroio do Padre/RS,-31.4428773,-52.4228985,276,9305.46190
D1,Arroio do Padre/RS,-31.4428773,-52.4228985,4,134.86177
1,Arroio do Sal/RS,-29.549852,-49.8874395,1703,16245.34961
D1,Arroio do Sal/RS,-29.549852,-49.8874395,40,381.57016
1,Arroio do Tigre/RS,-29.334158,-53.0888935,1397,10385.07285
D1,Arroio do Tigre/RS,-29.334158,-53.0888935,22,163.54445
1,Arroio dos Ratos/RS,-30.0894524,-51.7265541,1528,10759.80565
D1,Arroio dos Ratos/RS,-30.0894524,-51.7265541,42,295.75382
1,Artur Nogueira/SP,-22.572737,-47.172679,6524,11598.84083
D1,Artur Nogueira/SP,-22.572737,-47.172679,146,259.56940
1,Aruanã/GO,-14.9162439,-51.0715692,837,8094.77756
D1,Aruanã/GO,-14.9162439,-51.0715692,19,183.75242
1,Arujá/SP,-23.396266,-46.3175449,8817,9536.73759
D1,Arujá/SP,-23.396266,-46.3175449,343,370.99932
1,Arvoredo/SC,-27.0752908,-52.4571847,363,16292.63914
D1,Arvoredo/SC,-27.0752908,-52.4571847,5,224.41652
1,Arvorezinha/RS,-28.87369,-52.17808,1030,9882.93993
D1,Arvorezinha/RS,-28.87369,-52.17808,29,278.25753
1,Arês/RN,-6.1969216,-35.1642968,1215,8364.31227
D1,Arês/RN,-6.1969216,-35.1642968,26,178.98940
1,Ascurra/SC,-26.9569975,-49.3767752,1495,18638.57374
D1,Ascurra/SC,-26.9569975,-49.3767752,13,162.07455
1,Aspásia/SP,-20.160028,-50.728046,214,11790.63361
D1,Aspásia/SP,-20.160028,-50.728046,9,495.86777
1,Assaré/CE,-6.8746791,-39.8741385,2469,10489.86702
D1,Assaré/CE,-6.8746791,-39.8741385,47,199.68560
1,Assaí/PR,-23.3736041,-50.8454929,1967,13297.72850
D1,Assaí/PR,-23.3736041,-50.8454929,57,385.34343
1,Assis Brasil/AC,-10.9409203,-69.5672108,1838,24029.28487
D1,Assis Brasil/AC,-10.9409203,-69.5672108,24,313.76651
1,Assis Chateaubriand/PR,-24.4054826,-53.5120468,5867,17615.44466
D1,Assis Chateaubriand/PR,-24.4054826,-53.5120468,135,405.33237
1,Assis/SP,-22.6620892,-50.420623,12981,12273.08827
D1,Assis/SP,-22.6620892,-50.420623,416,393.31367
1,Assunção do Piauí/PI,-5.8610212,-41.0485091,407,5165.63016
D1,Assunção do Piauí/PI,-5.8610212,-41.0485091,9,114.22769
1,Assunção/PB,-7.073396,-36.7274003,424,10425.37497
D1,Assunção/PB,-7.073396,-36.7274003,5,122.94074
1,Astolfo Dutra/MG,-21.3132636,-42.8624102,1565,10899.84678
D1,Astolfo Dutra/MG,-21.3132636,-42.8624102,28,195.01323
1,Astorga/PR,-23.2350184,-51.6647074,4615,17544.86010
D1,Astorga/PR,-23.2350184,-51.6647074,98,372.56691
1,Atalaia do Norte/AM,-4.3658547,-70.1908742,2930,14040.63638
D1,Atalaia do Norte/AM,-4.3658547,-70.1908742,11,52.71229
1,Atalaia/AL,-9.5029595,-36.0219316,1287,2707.19394
D1,Atalaia/AL,-9.5029595,-36.0219316,54,113.58856
1,Atalaia/PR,-23.1513833,-52.0529697,611,15784.03513
D1,Atalaia/PR,-23.1513833,-52.0529697,25,645.82795
1,Atalanta/SC,-27.421916,-49.778863,540,16986.47373
D1,Atalanta/SC,-27.421916,-49.778863,11,346.02076
1,Ataléia/MG,-18.04432,-41.1110524,1367,10939.50064
D1,Ataléia/MG,-18.04432,-41.1110524,10,80.02561
1,Atibaia/SP,-23.1177393,-46.5547861,12764,8779.87041
D1,Atibaia/SP,-23.1177393,-46.5547861,293,201.54356
1,Atilio Vivacqua/ES,-20.9139369,-41.1947519,1804,14702.52649
D1,Atilio Vivacqua/ES,-20.9139369,-41.1947519,31,252.64874
1,Augustinópolis/TO,-5.4662267,-47.8897519,2009,10646.52888
D1,Augustinópolis/TO,-5.4662267,-47.8897519,32,169.58135
1,Augusto Corrêa/PA,-1.0229335,-46.6404029,2088,4448.51610
D1,Augusto Corrêa/PA,-1.0229335,-46.6404029,52,110.78680
1,Augusto Pestana/RS,-28.5148413,-53.9906433,1058,16165.01146
D1,Augusto Pestana/RS,-28.5148413,-53.9906433,14,213.90374
1,Augusto de Lima/MG,-18.1092963,-44.2651945,327,6765.98386
D1,Augusto de Lima/MG,-18.1092963,-44.2651945,11,227.60190
1,Aurelino Leal/BA,-14.3167137,-39.3256107,1116,10073.11129
D1,Aurelino Leal/BA,-14.3167137,-39.3256107,35,315.91299
1,Auriflama/SP,-20.6840418,-50.5554616,2125,13874.37973
D1,Auriflama/SP,-20.6840418,-50.5554616,78,509.27135
1,Aurilândia/GO,-16.6772599,-50.4641231,568,18933.33333
D1,Aurilândia/GO,-16.6772599,-50.4641231,14,466.66667
1,Aurora do Pará/PA,-2.1323199,-47.558436,1827,5673.91304
D1,Aurora do Pará/PA,-2.1323199,-47.558436,15,46.58385
1,Aurora do Tocantins/TO,-12.71045,-46.407604,390,10238.90785
D1,Aurora do Tocantins/TO,-12.71045,-46.407604,7,183.77527
1,Aurora/CE,-6.9426019,-38.9693765,2206,8979.52538
D1,Aurora/CE,-6.9426019,-38.9693765,42,170.96105
1,Aurora/SC,-27.3166417,-49.6368502,994,17478.45964
D1,Aurora/SC,-27.3166417,-49.6368502,19,334.09531
1,Autazes/AM,-3.5833283,-59.1301518,3383,8250.21339
D1,Autazes/AM,-3.5833283,-59.1301518,96,234.11779
1,Avanhandava/SP,-21.4603331,-49.9465156,1231,8753.46654
D1,Avanhandava/SP,-21.4603331,-49.9465156,44,312.87776
1,Avaré/SP,-23.1045215,-48.9259103,12161,13248.43124
D1,Avaré/SP,-23.1045215,-48.9259103,282,307.21632
1,Avaí/SP,-22.1564662,-49.3316395,516,9438.44888
D1,Avaí/SP,-22.1564662,-49.3316395,13,237.79038
1,Aveiro/PA,-3.6049239,-55.3310742,910,5541.68443
D1,Aveiro/PA,-3.6049239,-55.3310742,15,91.34645
1,Avelino Lopes/PI,-10.1346855,-43.9489525,526,4629.87413
D1,Avelino Lopes/PI,-10.1346855,-43.9489525,20,176.04084
1,Avelinópolis/GO,-16.4672409,-49.7578661,361,15035.40192
D1,Avelinópolis/GO,-16.4672409,-49.7578661,17,708.03832
1,Axixá do Tocantins/TO,-5.612747,-47.77007,1123,11439.33992
D1,Axixá do Tocantins/TO,-5.612747,-47.77007,23,234.28746
1,Axixá/MA,-2.8379465,-44.0561053,192,1569.39676
D1,Axixá/MA,-2.8379465,-44.0561053,8,65.39153
1,Açailândia/MA,-4.9514278,-47.4844564,6031,5300.44031
D1,Açailândia/MA,-4.9514278,-47.4844564,267,234.65720
1,Açu/RN,-5.5836157,-36.9139541,8670,14759.20535
D1,Açu/RN,-5.5836157,-36.9139541,157,267.26589
1,Açucena/MG,-19.073056,-42.546666,811,8748.65156
D1,Açucena/MG,-19.073056,-42.546666,38,409.92449
1,Babaçulândia/TO,-7.2034355,-47.761613,888,8323.95951
D1,Babaçulândia/TO,-7.2034355,-47.761613,8,74.99063
1,Bacabal/MA,-4.2318132,-44.781167,5666,5391.36392
D1,Bacabal/MA,-4.2318132,-44.781167,206,196.01500
1,Bacabeira/MA,-2.9775747,-44.3155943,413,2367.30483
D1,Bacabeira/MA,-2.9775747,-44.3155943,10,57.31973
1,Bacuri/MA,-1.728894,-45.1417148,664,3545.87205
D1,Bacuri/MA,-1.728894,-45.1417148,4,21.36067
1,Bacurituba/MA,-2.7082587,-44.7381309,117,2054.07303
D1,Bacurituba/MA,-2.7082587,-44.7381309,2,35.11236
1,Bady Bassitt/SP,-20.9178969,-49.4517911,4207,23355.35447
D1,Bady Bassitt/SP,-20.9178969,-49.4517911,86,477.43297
1,Baependi/MG,-21.959162,-44.8899249,2177,11309.67842
D1,Baependi/MG,-21.959162,-44.8899249,33,171.43748
1,Bagre/PA,-1.8994498,-50.2103844,958,2996.84049
D1,Bagre/PA,-1.8994498,-50.2103844,12,37.53871
1,Bagé/RS,-31.3314264,-54.1062808,12615,10381.17810
D1,Bagé/RS,-31.3314264,-54.1062808,299,246.05408
1,Baianópolis/BA,-12.3067564,-44.5383591,1070,7654.33865
D1,Baianópolis/BA,-12.3067564,-44.5383591,20,143.07175
1,Baixa Grande do Ribeiro/PI,-7.862861,-45.2113289,2669,22712.96060
D1,Baixa Grande do Ribeiro/PI,-7.862861,-45.2113289,35,297.84699
1,Baixa Grande/BA,-11.9630941,-40.1657537,1056,5168.61632
D1,Baixa Grande/BA,-11.9630941,-40.1657537,19,92.99594
1,Baixio/CE,-6.7303544,-38.7170095,723,11443.49478
D1,Baixio/CE,-6.7303544,-38.7170095,15,237.41690
1,Baixo Guandu/ES,-19.5138322,-41.0182089,4416,14125.32387
D1,Baixo Guandu/ES,-19.5138322,-41.0182089,95,303.87359
1,Baião/PA,-2.7903479,-49.6702845,842,1702.59231
D1,Baião/PA,-2.7903479,-49.6702845,39,78.86116
1,Balbinos/SP,-21.9006253,-49.3583966,373,6087.80806
D1,Balbinos/SP,-21.9006253,-49.3583966,4,65.28480
1,Baldim/MG,-19.2913568,-43.9558262,692,8894.60154
D1,Baldim/MG,-19.2913568,-43.9558262,22,282.77635
1,Baliza/GO,-16.1978119,-52.542789,562,10372.83130
D1,Baliza/GO,-16.1978119,-52.542789,11,203.02695
1,Balneário Arroio do Silva/SC,-28.9815269,-49.4189932,2380,17268.90147
D1,Balneário Arroio do Silva/SC,-28.9815269,-49.4189932,61,442.60630
1,Balneário Barra do Sul/SC,-26.459842,-48.6061471,1692,15011.97764
D1,Balneário Barra do Sul/SC,-26.459842,-48.6061471,48,425.87171
1,Balneário Camboriú/SC,-26.9924395,-48.6339782,30421,20385.72108
D1,Balneário Camboriú/SC,-26.9924395,-48.6339782,445,298.20341
1,Balneário Gaivota/SC,-29.1553098,-49.5808712,1528,13244.34428
D1,Balneário Gaivota/SC,-29.1553098,-49.5808712,39,338.04282
1,Balneário Pinhal/RS,-30.2482978,-50.234585,1251,8542.16456
D1,Balneário Pinhal/RS,-30.2482978,-50.234585,56,382.38307
1,Balneário Piçarras/SC,-26.7638889,-48.6716667,5722,23465.24503
D1,Balneário Piçarras/SC,-26.7638889,-48.6716667,67,274.75907
1,Balneário Rincão/SC,-28.8235718,-49.2241642,1779,13550.15614
D1,Balneário Rincão/SC,-28.8235718,-49.2241642,54,411.30322
1,Balsa Nova/PR,-25.5842234,-49.6312741,1868,14110.89288
D1,Balsa Nova/PR,-25.5842234,-49.6312741,37,279.49841
1,Balsas/MA,-7.53214,-46.037163,14617,15076.68822
D1,Balsas/MA,-7.53214,-46.037163,213,219.69861
1,Bambuí/MG,-20.0131996,-45.9777034,2923,12197.46286
D1,Bambuí/MG,-20.0131996,-45.9777034,35,146.05241
1,Banabuiú/CE,-5.3046404,-38.919766,2380,12996.23218
D1,Banabuiú/CE,-5.3046404,-38.919766,22,120.13324
1,Bananal/SP,-22.6828195,-44.3221095,1133,10263.61083
D1,Bananal/SP,-22.6828195,-44.3221095,4,36.23517
1,Bananeiras/PB,-6.7537682,-35.6338343,1594,7511.78134
D1,Bananeiras/PB,-6.7537682,-35.6338343,27,127.23845
1,Bandeira do Sul/MG,-21.728056,-46.385555,855,14721.07438
D1,Bandeira do Sul/MG,-21.728056,-46.385555,15,258.26446
1,Bandeira/MG,-15.884444,-40.559167,487,10278.59856
D1,Bandeira/MG,-15.884444,-40.559167,10,211.05952
1,Bandeirante/SC,-26.7677402,-53.6397596,455,17379.67914
D1,Bandeirante/SC,-26.7677402,-53.6397596,6,229.18258
1,Bandeirantes do Tocantins/TO,-7.7635698,-48.579148,599,16496.83283
D1,Bandeirantes do Tocantins/TO,-7.7635698,-48.579148,8,220.32498
1,Bandeirantes/MS,-19.9179623,-54.3646768,646,8872.40764
D1,Bandeirantes/MS,-19.9179623,-54.3646768,12,164.81253
1,Bandeirantes/PR,-23.107788,-50.370407,5853,18843.56589
D1,Bandeirantes/PR,-23.107788,-50.370407,148,476.48176
1,Bannach/PA,-7.3508505,-50.4064531,655,20222.29083
D1,Bannach/PA,-7.3508505,-50.4064531,3,92.62118
1,Banzaê/BA,-10.5827616,-38.6122305,1202,9071.01351
D1,Banzaê/BA,-10.5827616,-38.6122305,11,83.01260
1,Baraúna/PB,-6.643394,-36.2531932,726,14424.79634
D1,Baraúna/PB,-6.643394,-36.2531932,9,178.81979
1,Baraúna/RN,-5.0775002,-37.61752,1714,5887.60649
D1,Baraúna/RN,-5.0775002,-37.61752,29,99.61528
1,Barbacena/MG,-21.2254524,-43.7735087,10426,7497.42919
D1,Barbacena/MG,-21.2254524,-43.7735087,312,224.36197
1,Barbalha/CE,-7.3121067,-39.3036427,7232,11728.45513
D1,Barbalha/CE,-7.3121067,-39.3036427,179,290.29224
1,Barbosa Ferraz/PR,-24.0287182,-52.00811,1778,15752.63578
D1,Barbosa Ferraz/PR,-24.0287182,-52.00811,47,416.40826
1,Barbosa/SP,-21.265661,-49.951816,787,10448.75199
D1,Barbosa/SP,-21.265661,-49.951816,21,278.81041
1,Barcarena/PA,-1.5107945,-48.6190679,12086,9344.86945
D1,Barcarena/PA,-1.5107945,-48.6190679,244,188.66028
1,Barcelona/RN,-5.9514918,-35.9260284,266,6668.33793
D1,Barcelona/RN,-5.9514918,-35.9260284,8,200.55152
1,Barcelos/AM,-0.9729214,-62.925635,4543,16358.20251
D1,Barcelos/AM,-0.9729214,-62.925635,60,216.04494
1,Bariri/SP,-22.0746355,-48.7394852,3231,9014.06093
D1,Bariri/SP,-22.0746355,-48.7394852,135,376.63207
1,Barra Bonita/SC,-26.6526364,-53.4419581,277,17046.15385
D1,Barra Bonita/SC,-26.6526364,-53.4419581,2,123.07692
1,Barra Bonita/SP,-22.490859,-48.558349,4846,13414.53287
D1,Barra Bonita/SP,-22.490859,-48.558349,117,323.87543
1,Barra D'Alcântara/PI,-6.5209258,-42.1071089,155,3921.07260
D1,Barra D'Alcântara/PI,-6.5209258,-42.1071089,4,101.18897
1,Barra Funda/RS,-27.9230048,-53.0401045,691,26960.59306
D1,Barra Funda/RS,-27.9230048,-53.0401045,14,546.23488
1,Barra Longa/MG,-20.2833541,-43.0423516,499,10173.29256
D1,Barra Longa/MG,-20.2833541,-43.0423516,13,265.03568
1,Barra Mansa/RJ,-22.5394843,-44.1735129,37466,20225.98077
D1,Barra Mansa/RJ,-22.5394843,-44.1735129,707,381.67321
1,Barra Velha/SC,-26.6338203,-48.6835001,5211,17063.42709
D1,Barra Velha/SC,-26.6338203,-48.6835001,138,451.88120
1,Barra da Estiva/BA,-13.6269662,-41.3278287,2933,14521.23973
D1,Barra da Estiva/BA,-13.6269662,-41.3278287,33,163.38251
1,Barra de Guabiraba/PE,-8.4173522,-35.6626669,456,3116.45708
D1,Barra de Guabiraba/PE,-8.4173522,-35.6626669,17,116.18371
1,Barra de Santa Rosa/PB,-6.7218007,-36.0564638,1723,11039.91799
D1,Barra de Santa Rosa/PB,-6.7218007,-36.0564638,13,83.29596
1,Barra de Santana/PB,-7.5230865,-35.9988518,760,9114.89566
D1,Barra de Santana/PB,-7.5230865,-35.9988518,8,95.94627
1,Barra de Santo Antônio/AL,-9.4038098,-35.5117693,475,2931.91778
D1,Barra de Santo Antônio/AL,-9.4038098,-35.5117693,33,203.69113
1,Barra de São Francisco/ES,-18.7570902,-40.8916119,5855,12924.65950
D1,Barra de São Francisco/ES,-18.7570902,-40.8916119,238,525.37472
1,Barra de São Miguel/AL,-9.8261357,-35.8837777,699,8287.88238
D1,Barra de São Miguel/AL,-9.8261357,-35.8837777,8,94.85416
1,Barra de São Miguel/PB,-7.7528088,-36.3170996,768,12600.49221
D1,Barra de São Miguel/PB,-7.7528088,-36.3170996,10,164.06891
1,Barra do Bugres/MT,-15.0683712,-57.1853688,4231,11870.82655
D1,Barra do Bugres/MT,-15.0683712,-57.1853688,88,246.89973
1,Barra do Chapéu/SP,-24.472203,-49.023784,452,7801.17363
D1,Barra do Chapéu/SP,-24.472203,-49.023784,11,189.85157
1,Barra do Choça/BA,-14.8638173,-40.5761637,2381,7722.74659
D1,Barra do Choça/BA,-14.8638173,-40.5761637,36,116.76559
1,Barra do Corda/MA,-5.496823,-45.248496,5864,6596.54649
D1,Barra do Corda/MA,-5.496823,-45.248496,78,87.74397
1,Barra do Garças/MT,-15.8916033,-52.2615413,11086,17967.00269
D1,Barra do Garças/MT,-15.8916033,-52.2615413,385,623.96681
1,Barra do Guarita/RS,-27.1888016,-53.7147086,118,3612.98224
D1,Barra do Guarita/RS,-27.1888016,-53.7147086,8,244.94795
1,Barra do Jacaré/PR,-23.1151788,-50.1813945,330,11866.23517
D1,Barra do Jacaré/PR,-23.1151788,-50.1813945,7,251.70802
1,Barra do Mendes/BA,-11.8053298,-42.057037,866,6596.58745
D1,Barra do Mendes/BA,-11.8053298,-42.057037,17,129.49421
1,Barra do Ouro/TO,-7.7113784,-47.6743925,173,3702.11855
D1,Barra do Ouro/TO,-7.7113784,-47.6743925,8,171.19623
1,Barra do Piraí/RJ,-22.4703403,-43.8263256,7878,7789.28010
D1,Barra do Piraí/RJ,-22.4703403,-43.8263256,405,400.43900
1,Barra do Quaraí/RS,-30.208947,-57.5505128,613,14464.36999
D1,Barra do Quaraí/RS,-30.208947,-57.5505128,9,212.36432
1,Barra do Ribeiro/RS,-30.2930206,-51.301437,1240,9105.59554
D1,Barra do Ribeiro/RS,-30.2930206,-51.301437,54,396.53400
1,Barra do Rio Azul/RS,-27.4101581,-52.4117471,135,8328.19247
D1,Barra do Rio Azul/RS,-27.4101581,-52.4117471,1,61.69031
1,Barra do Rocha/BA,-14.2090974,-39.6004395,447,8105.16772
D1,Barra do Rocha/BA,-14.2090974,-39.6004395,7,126.92656
1,Barra do Turvo/SP,-24.756421,-48.5056942,738,9702.86616
D1,Barra do Turvo/SP,-24.756421,-48.5056942,23,302.39285
1,Barra dos Coqueiros/SE,-10.9075694,-37.0386249,7154,22755.17669
D1,Barra dos Coqueiros/SE,-10.9075694,-37.0386249,100,318.07627
1,Barra/BA,-11.0892702,-43.1420453,2296,4234.20931
D1,Barra/BA,-11.0892702,-43.1420453,66,121.71508
1,Barracão/PR,-26.252395,-53.6349576,1525,14738.57157
D1,Barracão/PR,-26.252395,-53.6349576,37,357.59157
1,Barracão/RS,-27.6728964,-51.4582928,648,12373.49628
D1,Barracão/RS,-27.6728964,-51.4582928,16,305.51843
1,Barras/PI,-4.2446153,-42.2920241,5705,12061.82080
D1,Barras/PI,-4.2446153,-42.2920241,99,209.31118
1,Barreira/CE,-4.2883361,-38.641094,1618,7123.04645
D1,Barreira/CE,-4.2883361,-38.641094,51,224.52124
1,Barreiras do Piauí/PI,-9.9224524,-45.4763776,114,3396.90107
D1,Barreiras do Piauí/PI,-9.9224524,-45.4763776,4,119.18951
1,Barreiras/BA,-12.1440031,-44.9967406,21233,13401.96425
D1,Barreiras/BA,-12.1440031,-44.9967406,338,213.34074
1,Barreirinha/AM,-2.798863,-57.067897,2742,8329.53613
D1,Barreirinha/AM,-2.798863,-57.067897,65,197.45436
1,Barreirinhas/MA,-2.7541271,-42.8259693,2667,4174.29685
D1,Barreirinhas/MA,-2.7541271,-42.8259693,48,75.12795
1,Barreiros/PE,-8.8159644,-35.1831905,816,1903.60659
D1,Barreiros/PE,-8.8159644,-35.1831905,67,156.30103
1,Barretos/SP,-20.5531437,-48.5697509,18251,14772.63529
D1,Barretos/SP,-20.5531437,-48.5697509,591,478.36433
1,Barrinha/SP,-21.1898849,-48.1550642,1713,5107.79139
D1,Barrinha/SP,-21.1898849,-48.1550642,73,217.67004
1,Barro Alto/BA,-11.7618025,-41.9094904,964,6354.22846
D1,Barro Alto/BA,-11.7618025,-41.9094904,14,92.28133
1,Barro Alto/GO,-14.9696025,-48.9190985,1806,15511.46612
D1,Barro Alto/GO,-14.9696025,-48.9190985,24,206.13244
1,Barro Duro/PI,-5.8180139,-42.5106589,768,10937.05497
D1,Barro Duro/PI,-5.8180139,-42.5106589,12,170.89148
1,Barro Preto/BA,-14.8068289,-39.4727588,681,12820.03012
D1,Barro Preto/BA,-14.8068289,-39.4727588,12,225.90361
1,Barro/CE,-7.1713587,-38.7742136,2020,8846.45704
D1,Barro/CE,-7.1713587,-38.7742136,47,205.83341
1,Barrocas/BA,-11.5165,-39.099282894736845,953,5873.65177
D1,Barrocas/BA,-11.5165,-39.099282894736845,27,166.40986
1,Barrolândia/TO,-9.837246,-48.7264346,809,14270.59446
D1,Barrolândia/TO,-9.837246,-48.7264346,20,352.79591
1,Barroquinha/CE,-3.0200371,-41.1339229,1345,8925.60887
D1,Barroquinha/CE,-3.0200371,-41.1339229,25,165.90351
1,Barros Cassal/RS,-29.094938,-52.5832366,952,8525.11865
D1,Barros Cassal/RS,-29.094938,-52.5832366,14,125.36939
1,Barroso/MG,-21.187222,-43.976111,2476,11801.15342
D1,Barroso/MG,-21.187222,-43.976111,59,281.20681
1,Barueri/SP,-23.5112184,-46.8764612,35776,12790.66442
D1,Barueri/SP,-23.5112184,-46.8764612,1175,420.08695
1,Barão de Antonina/SP,-23.6295651,-49.5632104,519,14723.40426
D1,Barão de Antonina/SP,-23.6295651,-49.5632104,11,312.05674
1,Barão de Cocais/MG,-19.9452437,-43.4870298,5191,15620.48628
D1,Barão de Cocais/MG,-19.9452437,-43.4870298,79,237.72268
1,Barão de Cotegipe/RS,-27.6214694,-52.3765316,871,13165.05441
D1,Barão de Cotegipe/RS,-27.6214694,-52.3765316,10,151.14873
1,Barão de Grajaú/MA,-6.7542591,-43.0263477,481,2528.11942
D1,Barão de Grajaú/MA,-6.7542591,-43.0263477,7,36.79176
1,Barão de Melgaço/MT,-16.195776,-55.9668049,597,7311.69626
D1,Barão de Melgaço/MT,-16.195776,-55.9668049,17,208.20576
1,Barão de Monte Alto/MG,-21.244722,-42.2375,359,6759.55564
D1,Barão de Monte Alto/MG,-21.244722,-42.2375,13,244.77500
1,Barão do Triunfo/RS,-30.3909877,-51.7375349,519,6874.17219
D1,Barão do Triunfo/RS,-30.3909877,-51.7375349,8,105.96026
1,Barão/RS,-29.372474,-51.494908,844,13543.00385
D1,Barão/RS,-29.372474,-51.494908,13,208.60077
1,Bastos/SP,-21.9222474,-50.7317727,2162,10318.82398
D1,Bastos/SP,-21.9222474,-50.7317727,50,238.64070
1,Bataguassu/MS,-21.715899,-52.422058,3598,15232.85351
D1,Bataguassu/MS,-21.715899,-52.422058,51,215.91871
1,Batalha/AL,-9.6733809,-37.1265481,1144,6203.90456
D1,Batalha/AL,-9.6733809,-37.1265481,20,108.45987
1,Batalha/PI,-4.022391,-42.0780926,1365,5064.74713
D1,Batalha/PI,-4.022391,-42.0780926,36,133.57575
1,Batatais/SP,-20.892867,-47.592149,6470,10198.93439
D1,Batatais/SP,-20.892867,-47.592149,177,279.01258
1,Batayporã/MS,-22.2976466,-53.2685608,1176,10344.82759
D1,Batayporã/MS,-22.2976466,-53.2685608,27,237.50880
1,Baturité/CE,-4.3290203,-38.8821055,4295,11888.61516
D1,Baturité/CE,-4.3290203,-38.8821055,89,246.35314
1,Bauru/SP,-22.3218102,-49.0705863,55481,14535.00862
D1,Bauru/SP,-22.3218102,-49.0705863,1246,326.42924
1,Bayeux/PB,-7.1301631,-34.936532,9430,9669.91048
D1,Bayeux/PB,-7.1301631,-34.936532,258,264.56383
1,Baía Formosa/RN,-6.3691885,-35.0063741,543,5793.23589
D1,Baía Formosa/RN,-6.3691885,-35.0063741,9,96.02048
1,Baía da Traição/PB,-6.691258,-34.9371244,1379,14994.01979
D1,Baía da Traição/PB,-6.691258,-34.9371244,12,130.47733
1,Bebedouro/SP,-20.949077,-48.479083,4913,6330.20667
D1,Bebedouro/SP,-20.949077,-48.479083,324,417.46122
1,Beberibe/CE,-4.1810469,-38.1298101,5955,10963.82215
D1,Beberibe/CE,-4.1810469,-38.1298101,131,241.18568
1,Bela Cruz/CE,-3.0529129,-40.167582,3584,10909.86576
D1,Bela Cruz/CE,-3.0529129,-40.167582,73,222.21546
1,Bela Vista da Caroba/PR,-25.8792818,-53.6672545,305,8960.04700
D1,Bela Vista da Caroba/PR,-25.8792818,-53.6672545,7,205.64042
1,Bela Vista de Goiás/GO,-16.9692949,-48.9513071,3991,12872.53258
D1,Bela Vista de Goiás/GO,-16.9692949,-48.9513071,88,283.83434
1,Bela Vista de Minas/MG,-19.8289721,-43.0973688,1047,10195.73474
D1,Bela Vista de Minas/MG,-19.8289721,-43.0973688,25,243.45116
1,Bela Vista do Maranhão/MA,-3.7416367,-45.2514192,230,2026.96748
D1,Bela Vista do Maranhão/MA,-3.7416367,-45.2514192,20,176.25804
1,Bela Vista do Paraíso/PR,-22.9948493,-51.1907996,2475,16071.42857
D1,Bela Vista do Paraíso/PR,-22.9948493,-51.1907996,80,519.48052
1,Bela Vista do Piauí/PI,-7.9716353,-41.8715061,321,7937.68546
D1,Bela Vista do Piauí/PI,-7.9716353,-41.8715061,7,173.09594
1,Bela Vista do Toldo/SC,-26.274625,-50.466354,93,1456.31068
D1,Bela Vista do Toldo/SC,-26.274625,-50.466354,5,78.29627
1,Bela Vista/MS,-22.107327,-56.5317344,1308,5265.27655
D1,Bela Vista/MS,-22.107327,-56.5317344,34,136.86499
1,Belford Roxo/RJ,-22.7667284,-43.4033603,24641,4782.44077
D1,Belford Roxo/RJ,-22.7667284,-43.4033603,974,189.03849
1,Belmiro Braga/MG,-21.9486291,-43.413564,285,8328.46289
D1,Belmiro Braga/MG,-21.9486291,-43.413564,4,116.89071
1,Belmonte/BA,-15.8630837,-38.8792845,1365,5798.64061
D1,Belmonte/BA,-15.8630837,-38.8792845,29,123.19456
1,Belmonte/SC,-26.8448262,-53.578916,374,13790.56047
D1,Belmonte/SC,-26.8448262,-53.578916,5,184.36578
1,Belo Campo/BA,-15.0338286,-41.2585109,1001,5883.73597
D1,Belo Campo/BA,-15.0338286,-41.2585109,18,105.80145
1,Belo Horizonte/MG,-19.9227318,-43.9450948,304138,12017.93495
D1,Belo Horizonte/MG,-19.9227318,-43.9450948,7101,280.59419
1,Belo Jardim/PE,-8.3338293,-36.4176419,4714,6127.64851
D1,Belo Jardim/PE,-8.3338293,-36.4176419,131,170.28467
1,Belo Monte/AL,-9.8269944,-37.2787165,555,8262.61724
D1,Belo Monte/AL,-9.8269944,-37.2787165,9,133.98839
1,Belo Oriente/MG,-19.2232523,-42.4807033,2840,10411.70217
D1,Belo Oriente/MG,-19.2232523,-42.4807033,74,271.29083
1,Belo Vale/MG,-20.407778,-44.024167,1143,14799.94821
D1,Belo Vale/MG,-20.407778,-44.024167,12,155.38003
1,Belterra/PA,-2.636091,-54.937392,1817,10125.94739
D1,Belterra/PA,-2.636091,-54.937392,38,211.76995
1,Belágua/MA,-3.1604031,-43.5085052,413,5444.23939
D1,Belágua/MA,-3.1604031,-43.5085052,4,52.72871
1,Belém de Maria/PE,-8.6242497,-35.8388934,314,2580.32706
D1,Belém de Maria/PE,-8.6242497,-35.8388934,8,65.74082
1,Belém do Brejo do Cruz/PB,-6.1880727,-37.5332267,604,8210.98423
D1,Belém do Brejo do Cruz/PB,-6.1880727,-37.5332267,7,95.16041
1,Belém do Piauí/PI,-7.3767305,-40.9712156,495,13723.31577
D1,Belém do Piauí/PI,-7.3767305,-40.9712156,8,221.79096
1,Belém do São Francisco/PE,-8.7517707,-38.9625715,1079,5205.01688
D1,Belém do São Francisco/PE,-8.7517707,-38.9625715,14,67.53497
1,Belém/AL,-9.5715351,-36.492841,133,3147.18410
D1,Belém/AL,-9.5715351,-36.492841,8,189.30431
1,Belém/PA,-1.45056,-48.4682453,108028,7171.17404
D1,Belém/PA,-1.45056,-48.4682453,5163,342.73310
1,Belém/PB,-6.6967586,-35.5369626,2470,13928.83325
D1,Belém/PB,-6.6967586,-35.5369626,45,253.76417
1,Beneditinos/PI,-5.4565671,-42.3605061,1340,12787.47972
D1,Beneditinos/PI,-5.4565671,-42.3605061,41,391.25871
1,Benedito Leite/MA,-7.2173453,-44.5523331,339,6007.44285
D1,Benedito Leite/MA,-7.2173453,-44.5523331,2,35.44214
1,Benedito Novo/SC,-26.7840657,-49.3629511,1112,9347.67989
D1,Benedito Novo/SC,-26.7840657,-49.3629511,20,168.12374
1,Benevides/PA,-1.3555577,-48.252235,4343,6704.22970
D1,Benevides/PA,-1.3555577,-48.252235,109,168.26181
1,Benjamin Constant do Sul/RS,-27.5105555,-52.6007689,196,10187.11019
D1,Benjamin Constant do Sul/RS,-27.5105555,-52.6007689,2,103.95010
1,Benjamin Constant/AM,-4.3782748,-70.0290603,3282,7313.97500
D1,Benjamin Constant/AM,-4.3782748,-70.0290603,88,196.10902
1,Bento Fernandes/RN,-5.6926846,-35.8207423,181,3260.08646
D1,Bento Fernandes/RN,-5.6926846,-35.8207423,3,54.03458
1,Bento Gonçalves/RS,-29.1654014,-51.5197627,24193,19654.72419
D1,Bento Gonçalves/RS,-29.1654014,-51.5197627,408,331.46478
1,Bento de Abreu/SP,-21.2707225,-50.8120444,367,12120.21136
D1,Bento de Abreu/SP,-21.2707225,-50.8120444,5,165.12550
1,Bequimão/MA,-2.4495376,-44.7884889,324,1519.91368
D1,Bequimão/MA,-2.4495376,-44.7884889,25,117.27729
1,Berilo/MG,-16.9515764,-42.4643732,253,2141.70829
D1,Berilo/MG,-16.9515764,-42.4643732,1,8.46525
1,Berizal/MG,-15.6118785,-41.7417382,262,5467.44574
D1,Berizal/MG,-15.6118785,-41.7417382,1,20.86811
1,Bernardino Batista/PB,-6.4532173,-38.5495418,348,9745.16942
D1,Bernardino Batista/PB,-6.4532173,-38.5495418,2,56.00672
1,Bernardino de Campos/SP,-23.0140216,-49.4760724,917,8210.95989
D1,Bernardino de Campos/SP,-23.0140216,-49.4760724,34,304.44126
1,Bernardo Sayão/TO,-7.8794244,-48.8968905,694,15634.15184
D1,Bernardo Sayão/TO,-7.8794244,-48.8968905,13,292.85875
1,Bernardo do Mearim/MA,-4.6315929,-44.7617508,340,5571.94363
D1,Bernardo do Mearim/MA,-4.6315929,-44.7617508,7,114.71649
1,Bertioga/SP,-23.848568,-46.139586,6847,10350.09221
D1,Bertioga/SP,-23.848568,-46.139586,176,266.04589
1,Bertolínia/PI,-7.6372159,-43.9540611,948,17198.83890
D1,Bertolínia/PI,-7.6372159,-43.9540611,12,217.70682
1,Bertópolis/MG,-17.063333,-40.573889,497,10783.25016
D1,Bertópolis/MG,-17.063333,-40.573889,5,108.48340
1,Beruri/AM,-3.9007135,-61.3717319,2629,12822.51378
D1,Beruri/AM,-3.9007135,-61.3717319,34,165.82939
1,Betim/MG,-19.968056,-44.198333,33290,7397.38325
D1,Betim/MG,-19.968056,-44.198333,1379,306.42810
1,Betânia do Piauí/PI,-8.1460635,-40.7961387,182,2928.87029
D1,Betânia do Piauí/PI,-8.1460635,-40.7961387,4,64.37078
1,Betânia/PE,-8.2742779,-38.0351767,537,4191.71025
D1,Betânia/PE,-8.2742779,-38.0351767,17,132.69846
1,Bezerros/PE,-8.2372132,-35.7558262,5017,8229.98688
D1,Bezerros/PE,-8.2372132,-35.7558262,128,209.97375
1,Bias Fortes/MG,-21.605833,-43.756944,119,3625.83790
D1,Bias Fortes/MG,-21.605833,-43.756944,4,121.87690
1,Bicas/MG,-21.7213723,-43.0604327,1780,12181.76841
D1,Bicas/MG,-21.7213723,-43.0604327,48,328.49713
1,Biguaçu/SC,-27.4961277,-48.6542432,13016,18470.00894
D1,Biguaçu/SC,-27.4961277,-48.6542432,175,248.32910
1,Bilac/SP,-21.403962,-50.47464,957,11675.00305
D1,Bilac/SP,-21.403962,-50.47464,22,268.39087
1,Biquinhas/MG,-18.783611,-45.502222,177,7131.34569
D1,Biquinhas/MG,-18.783611,-45.502222,4,161.16035
1,Birigui/SP,-21.2908491,-50.34144,18429,14615.28701
D1,Birigui/SP,-21.2908491,-50.34144,613,486.14526
1,Biritiba Mirim/SP,-23.5697765,-46.0407456,1562,4695.62603
D1,Biritiba Mirim/SP,-23.5697765,-46.0407456,110,330.67789
1,Biritinga/BA,-11.6227908,-38.8066738,623,3896.42879
D1,Biritinga/BA,-11.6227908,-38.8066738,7,43.78010
1,Bituruna/PR,-26.161281,-51.5533319,1570,9566.75401
D1,Bituruna/PR,-26.161281,-51.5533319,22,134.05643
1,Blumenau/SC,-26.9195567,-49.0658025,69282,18907.91391
D1,Blumenau/SC,-26.9195567,-49.0658025,705,192.40321
1,Boa Esperança do Iguaçu/PR,-25.6362851,-53.2139114,219,8986.45876
D1,Boa Esperança do Iguaçu/PR,-25.6362851,-53.2139114,1,41.03406
1,Boa Esperança do Sul/SP,-21.9930206,-48.3917372,1864,12335.38482
D1,Boa Esperança do Sul/SP,-21.9930206,-48.3917372,22,145.58931
1,Boa Esperança/ES,-18.5395472,-40.2904088,2028,13389.67384
D1,Boa Esperança/ES,-18.5395472,-40.2904088,49,323.51776
1,Boa Esperança/MG,-21.0901253,-45.5660195,5431,13473.75211
D1,Boa Esperança/MG,-21.0901253,-45.5660195,145,359.73008
1,Boa Esperança/PR,-24.2411024,-52.7860277,565,14156.85292
D1,Boa Esperança/PR,-24.2411024,-52.7860277,19,476.07116
1,Boa Hora/PI,-4.4094627,-42.1255341,606,8849.29907
D1,Boa Hora/PI,-4.4094627,-42.1255341,7,102.21963
1,Boa Nova/BA,-14.365907,-40.2063056,1058,8788.10532
D1,Boa Nova/BA,-14.365907,-40.2063056,22,182.73943
1,Boa Ventura de São Roque/PR,-24.88177,-51.5441292,656,10342.10941
D1,Boa Ventura de São Roque/PR,-24.88177,-51.5441292,8,126.12329
1,Boa Ventura/PB,-7.4202462,-38.2156782,794,15129.57317
D1,Boa Ventura/PB,-7.4202462,-38.2156782,12,228.65854
1,Boa Viagem/CE,-5.1261877,-39.7300055,4370,7991.95318
D1,Boa Viagem/CE,-5.1261877,-39.7300055,118,215.80102
1,Boa Vista da Aparecida/PR,-25.4357216,-53.4067721,1220,16214.77937
D1,Boa Vista da Aparecida/PR,-25.4357216,-53.4067721,35,465.17810
1,Boa Vista das Missões/RS,-27.6677983,-53.3127622,277,13272.64015
D1,Boa Vista das Missões/RS,-27.6677983,-53.3127622,7,335.40968
1,Boa Vista do Buricá/RS,-27.6687782,-54.1111913,1003,14943.38498
D1,Boa Vista do Buricá/RS,-27.6687782,-54.1111913,11,163.88558
1,Boa Vista do Cadeado/RS,-28.5783827,-53.8123759,256,10381.18410
D1,Boa Vista do Cadeado/RS,-28.5783827,-53.8123759,4,162.20600
1,Boa Vista do Gurupi/MA,-1.7981168,-46.3071882,15,176.59524
D1,Boa Vista do Gurupi/MA,-1.7981168,-46.3071882,4,47.09206
1,Boa Vista do Incra/RS,-28.8195551,-53.3866624,354,13470.31963
D1,Boa Vista do Incra/RS,-28.8195551,-53.3866624,4,152.20700
1,Boa Vista do Ramos/AM,-2.9716927,-57.5869819,1350,6736.52695
D1,Boa Vista do Ramos/AM,-2.9716927,-57.5869819,13,64.87026
1,Boa Vista do Sul/RS,-29.3510488,-51.6779679,372,13415.07393
D1,Boa Vista do Sul/RS,-29.3510488,-51.6779679,4,144.24811
1,Boa Vista do Tupim/BA,-12.6605988,-40.6083594,291,1573.73858
D1,Boa Vista do Tupim/BA,-12.6605988,-40.6083594,11,59.48840
1,Boa Vista/PB,-7.2620711,-36.2415161,886,12274.86838
D1,Boa Vista/PB,-7.2620711,-36.2415161,16,221.66805
1,Boa Vista/RR,2.8208478,-60.6719582,102907,23570.57292
D1,Boa Vista/RR,2.8208478,-60.6719582,1570,359.60430
1,Boca da Mata/AL,-9.6452054,-36.2116658,2001,7295.19851
D1,Boca da Mata/AL,-9.6452054,-36.2116658,46,167.70571
1,Boca do Acre/AM,-8.7553487,-67.3930873,2709,7749.29916
D1,Boca do Acre/AM,-8.7553487,-67.3930873,28,80.09612
1,Bocaina de Minas/MG,-22.167778,-44.394722,229,4500.78616
D1,Bocaina de Minas/MG,-22.167778,-44.394722,7,137.57862
1,Bocaina do Sul/SC,-27.745494,-49.942279,439,12539.27449
D1,Bocaina do Sul/SC,-27.745494,-49.942279,4,114.25307
1,Bocaina/PI,-6.9445939,-41.3224599,442,9802.61699
D1,Bocaina/PI,-6.9445939,-41.3224599,10,221.77866
1,Bocaina/SP,-22.1421831,-48.522276,1416,11264.02036
D1,Bocaina/SP,-22.1421831,-48.522276,35,278.41858
1,Bocaiúva do Sul/PR,-25.206591,-49.114131,2305,17320.40878
D1,Bocaiúva do Sul/PR,-25.206591,-49.114131,29,217.91404
1,Bocaiúva/MG,-17.1160208,-43.8122678,3125,6185.54660
D1,Bocaiúva/MG,-17.1160208,-43.8122678,72,142.51499
1,Bodocó/PE,-7.777592,-39.933797,2200,5698.74369
D1,Bodocó/PE,-7.777592,-39.933797,42,108.79420
1,Bodoquena/MS,-20.5508775,-56.6769653,610,7818.50807
D1,Bodoquena/MS,-20.5508775,-56.6769653,18,230.71007
1,Bodó/RN,-5.9866104,-36.4134824,209,9626.90005
D1,Bodó/RN,-5.9866104,-36.4134824,1,46.06172
1,Bofete/SP,-23.1019554,-48.2610535,995,8218.38606
D1,Bofete/SP,-23.1019554,-48.2610535,24,198.23243
1,Boituva/SP,-23.2838893,-47.6738231,6722,10617.59596
D1,Boituva/SP,-23.2838893,-47.6738231,196,309.58774
1,Bom Conselho/PE,-9.169191,-36.685683,2423,4947.42215
D1,Bom Conselho/PE,-9.169191,-36.685683,76,155.18121
1,Bom Despacho/MG,-19.7375242,-45.2517288,6469,12576.79446
D1,Bom Despacho/MG,-19.7375242,-45.2517288,115,223.57882
1,Bom Jardim da Serra/SC,-28.3380324,-49.625588,742,15455.11352
D1,Bom Jardim da Serra/SC,-28.3380324,-49.625588,8,166.63195
1,Bom Jardim de Goiás/GO,-16.2062659,-52.172793,1373,15406.19390
D1,Bom Jardim de Goiás/GO,-16.2062659,-52.172793,30,336.62478
1,Bom Jardim de Minas/MG,-21.9476466,-44.1906033,589,9140.28554
D1,Bom Jardim de Minas/MG,-21.9476466,-44.1906033,5,77.59156
1,Bom Jardim/MA,-3.54129,-45.606004,1518,3613.42537
D1,Bom Jardim/MA,-3.54129,-45.606004,56,133.30159
1,Bom Jardim/PE,-7.7961572,-35.5871696,1895,4733.00365
D1,Bom Jardim/PE,-7.7961572,-35.5871696,72,179.82916
1,Bom Jardim/RJ,-22.1515328,-42.4186683,2023,7282.47957
D1,Bom Jardim/RJ,-22.1515328,-42.4186683,51,183.59192
1,Bom Jesus da Lapa/BA,-13.250571,-43.410754,6473,9227.23839
D1,Bom Jesus da Lapa/BA,-13.250571,-43.410754,98,139.69865
1,Bom Jesus da Penha/MG,-21.0165299,-46.5226644,795,18618.26698
D1,Bom Jesus da Penha/MG,-21.0165299,-46.5226644,20,468.38407
1,Bom Jesus da Serra/BA,-14.3724084,-40.5047119,495,5067.56757
D1,Bom Jesus da Serra/BA,-14.3724084,-40.5047119,9,92.13759
1,Bom Jesus das Selvas/MA,-4.4878075,-46.8526639,4262,12144.18008
D1,Bom Jesus das Selvas/MA,-4.4878075,-46.8526639,44,125.37398
1,Bom Jesus de Goiás/GO,-18.2174587,-49.739721,3485,13368.36856
D1,Bom Jesus de Goiás/GO,-18.2174587,-49.739721,115,441.13698
1,Bom Jesus do Amparo/MG,-19.7045132,-43.4752911,331,5354.25429
D1,Bom Jesus do Amparo/MG,-19.7045132,-43.4752911,8,129.40796
1,Bom Jesus do Araguaia/MT,-12.1725897,-51.5074425,1118,16368.96047
D1,Bom Jesus do Araguaia/MT,-12.1725897,-51.5074425,17,248.90190
1,Bom Jesus do Galho/MG,-19.8283191,-42.3162256,822,5557.05787
D1,Bom Jesus do Galho/MG,-19.8283191,-42.3162256,38,256.89562
1,Bom Jesus do Itabapoana/RJ,-21.1341025,-41.680095,4466,11971.26468
D1,Bom Jesus do Itabapoana/RJ,-21.1341025,-41.680095,116,310.94194
1,Bom Jesus do Norte/ES,-21.1254776,-41.6711646,1325,13265.91910
D1,Bom Jesus do Norte/ES,-21.1254776,-41.6711646,30,300.36043
1,Bom Jesus do Oeste/SC,-26.6929713,-53.0967453,185,8661.04869
D1,Bom Jesus do Oeste/SC,-26.6929713,-53.0967453,6,280.89888
1,Bom Jesus do Sul/PR,-26.1922507,-53.6002033,580,16705.06912
D1,Bom Jesus do Sul/PR,-26.1922507,-53.6002033,8,230.41475
1,Bom Jesus do Tocantins/PA,-5.0471796,-48.5978362,880,5100.26660
D1,Bom Jesus do Tocantins/PA,-5.0471796,-48.5978362,27,156.48545
1,Bom Jesus do Tocantins/TO,-8.96306,-48.165043,186,3632.81250
D1,Bom Jesus do Tocantins/TO,-8.96306,-48.165043,3,58.59375
1,Bom Jesus dos Perdões/SP,-23.1353864,-46.4648052,2484,9371.46306
D1,Bom Jesus dos Perdões/SP,-23.1353864,-46.4648052,32,120.72738
1,Bom Jesus/PB,-6.8156725,-38.6551841,282,10896.44513
D1,Bom Jesus/PB,-6.8156725,-38.6551841,3,115.91963
1,Bom Jesus/PI,-9.0711644,-44.3583926,3824,14946.84178
D1,Bom Jesus/PI,-9.0711644,-44.3583926,49,191.52595
1,Bom Jesus/RN,-5.9887544,-35.5821149,1015,9832.41306
D1,Bom Jesus/RN,-5.9887544,-35.5821149,19,184.05502
1,Bom Jesus/RS,-28.6692723,-50.4346894,1072,9511.97870
D1,Bom Jesus/RS,-28.6692723,-50.4346894,24,212.95475
1,Bom Jesus/SC,-26.7350604,-52.3916519,549,17686.85567
D1,Bom Jesus/SC,-26.7350604,-52.3916519,10,322.16495
1,Bom Lugar/MA,-4.3728019,-45.0366054,546,3293.52153
D1,Bom Lugar/MA,-4.3728019,-45.0366054,7,42.22464
1,Bom Princípio do Piauí/PI,-3.1912777,-41.6430185,143,2522.04586
D1,Bom Princípio do Piauí/PI,-3.1912777,-41.6430185,13,229.27690
1,Bom Princípio/RS,-29.489788,-51.3566782,2418,16738.19742
D1,Bom Princípio/RS,-29.489788,-51.3566782,34,235.35927
1,Bom Progresso/RS,-27.5490948,-53.8655601,202,10871.90527
D1,Bom Progresso/RS,-27.5490948,-53.8655601,3,161.46394
1,Bom Repouso/MG,-22.4657069,-46.1485376,1392,13223.14050
D1,Bom Repouso/MG,-22.4657069,-46.1485376,29,275.48209
1,Bom Retiro do Sul/RS,-29.6000007,-51.9359243,1298,10427.37789
D1,Bom Retiro do Sul/RS,-29.6000007,-51.9359243,38,305.26992
1,Bom Retiro/SC,-27.798993,-49.486994,936,9218.95006
D1,Bom Retiro/SC,-27.798993,-49.486994,21,206.83542
1,Bom Sucesso de Itararé/SP,-24.3190016,-49.1446207,260,6478.94343
D1,Bom Sucesso de Itararé/SP,-24.3190016,-49.1446207,7,174.43309
1,Bom Sucesso do Sul/PR,-26.0749256,-52.8348629,569,17540.07398
D1,Bom Sucesso do Sul/PR,-26.0749256,-52.8348629,9,277.43527
1,Bom Sucesso/MG,-21.0323516,-44.7598082,1500,8516.92028
D1,Bom Sucesso/MG,-21.0323516,-44.7598082,28,158.98251
1,Bom Sucesso/PB,-6.4458948,-37.9297662,536,10856.79562
D1,Bom Sucesso/PB,-6.4458948,-37.9297662,5,101.27608
1,Bom Sucesso/PR,-23.7088019,-51.7651297,1497,21075.60186
D1,Bom Sucesso/PR,-23.7088019,-51.7651297,20,281.57117
1,Bombinhas/SC,-27.1519159,-48.4875691,3944,18880.75063
D1,Bombinhas/SC,-27.1519159,-48.4875691,70,335.10460
1,Bonfim do Piauí/PI,-9.1648678,-42.8734415,511,8964.91228
D1,Bonfim do Piauí/PI,-9.1648678,-42.8734415,8,140.35088
1,Bonfim/MG,-20.3266626, -44.2386157,547,7983.07064
D1,Bonfim/MG,-20.3266626, -44.2386157,18,262.69702
1,Bonfim/RR,3.3613818,-59.8427241,2590,20392.09511
D1,Bonfim/RR,3.3613818,-59.8427241,36,283.44225
1,Bonfinópolis de Minas/MG,-16.5660011,-45.98645,658,12191.95850
D1,Bonfinópolis de Minas/MG,-16.5660011,-45.98645,14,259.40337
1,Bonfinópolis/GO,-16.6172709,-48.9615701,542,5355.73123
D1,Bonfinópolis/GO,-16.6172709,-48.9615701,34,335.96838
1,Boninal/BA,-12.7095183,-41.8299984,686,4725.16876
D1,Boninal/BA,-12.7095183,-41.8299984,9,61.99201
1,Bonito de Minas/MG,-15.3191266,-44.7544,139,1208.48548
D1,Bonito de Minas/MG,-15.3191266,-44.7544,1,8.69414
1,Bonito de Santa Fé/PB,-7.3143332,-38.5146677,574,4733.63022
D1,Bonito de Santa Fé/PB,-7.3143332,-38.5146677,14,115.45440
1,Bonito/BA,-11.9665473,-41.2649896,1143,6723.92494
D1,Bonito/BA,-11.9665473,-41.2649896,14,82.35779
1,Bonito/MS,-21.1264766,-56.4902208,3722,16615.32967
D1,Bonito/MS,-21.1264766,-56.4902208,77,343.73465
1,Bonito/PA,-1.3605722,-47.3049907,462,2755.08379
D1,Bonito/PA,-1.3605722,-47.3049907,15,89.45077
1,Bonito/PE,-8.4721161,-35.7314591,1238,3249.25855
D1,Bonito/PE,-8.4721161,-35.7314591,47,123.35634
1,Bonópolis/GO,-13.649331,-49.8329113,355,7752.78445
D1,Bonópolis/GO,-13.649331,-49.8329113,3,65.51649
1,Boqueirão do Leão/RS,-29.30332,-52.4296817,636,8269.40580
D1,Boqueirão do Leão/RS,-29.30332,-52.4296817,32,416.07073
1,Boqueirão do Piauí/PI,-4.4850148,-42.1095161,859,13332.29862
D1,Boqueirão do Piauí/PI,-4.4850148,-42.1095161,12,186.24864
1,Boqueirão/PB,-7.487004,-36.130887,2374,13237.42612
D1,Boqueirão/PB,-7.487004,-36.130887,45,250.92004
1,Boquim/SE,-11.1450175,-37.6204228,2713,10055.59674
D1,Boquim/SE,-11.1450175,-37.6204228,68,252.03855
1,Boquira/BA,-12.8184859,-42.7270883,899,4184.11989
D1,Boquira/BA,-12.8184859,-42.7270883,22,102.39226
1,Boracéia/SP,-22.195355,-48.7801925,997,20293.09994
D1,Boracéia/SP,-22.195355,-48.7801925,24,488.49990
1,Borba/AM,-4.3934778,-59.5947721,2595,6130.69363
D1,Borba/AM,-4.3934778,-59.5947721,70,165.37517
1,Borborema/PB,-6.8066718,-35.5990191,387,7286.76332
D1,Borborema/PB,-6.8066718,-35.5990191,14,263.60384
1,Borborema/SP,-21.6212706,-49.074135,1726,10603.26821
D1,Borborema/SP,-21.6212706,-49.074135,54,331.73609
1,Borda da Mata/MG,-22.274167,-46.165278,2718,13721.03589
D1,Borda da Mata/MG,-22.274167,-46.165278,57,287.74799
1,Borebi/SP,-22.5700178,-48.9714871,290,10689.27387
D1,Borebi/SP,-22.5700178,-48.9714871,4,147.43826
1,Borrazópolis/PR,-23.9393362,-51.5850786,1118,17774.24483
D1,Borrazópolis/PR,-23.9393362,-51.5850786,35,556.43879
1,Borá/SP,-22.2701088,-50.544407,127,15137.06794
D1,Borá/SP,-22.2701088,-50.544407,1,119.18951
1,Bossoroca/RS,-28.7278885,-54.9120278,524,8541.15729
D1,Bossoroca/RS,-28.7278885,-54.9120278,22,358.59821
1,Botelhos/MG,-21.65,-46.394722,2185,14637.90447
D1,Botelhos/MG,-21.65,-46.394722,34,227.77517
1,Botucatu/SP,-22.8879628,-48.4410712,20603,13761.20440
D1,Botucatu/SP,-22.8879628,-48.4410712,335,223.75399
1,Botumirim/MG,-16.862778,-43.011111,327,5224.47675
D1,Botumirim/MG,-16.862778,-43.011111,4,63.90797
1,Botuporã/BA,-13.3744752,-42.5198469,465,4626.86567
D1,Botuporã/BA,-13.3744752,-42.5198469,5,49.75124
1,Botuverá/SC,-27.200749,-49.068892,1066,19755.37435
D1,Botuverá/SC,-27.200749,-49.068892,10,185.32246
1,Bozano/RS,-28.3669953,-53.7705165,302,14387.80372
D1,Bozano/RS,-28.3669953,-53.7705165,8,381.13387
1,Braga/RS,-27.617348,-53.740514,484,14796.69826
D1,Braga/RS,-27.617348,-53.740514,10,305.71691
1,Braganey/PR,-24.8179919,-53.118506,721,13506.93143
D1,Braganey/PR,-24.8179919,-53.118506,11,206.06969
1,Bragança Paulista/SP,-22.9520235,-46.5418586,24098,13982.33786
D1,Bragança Paulista/SP,-22.9520235,-46.5418586,593,344.07529
1,Bragança/PA,-1.0573967,-46.7635406,4562,3505.94058
D1,Bragança/PA,-1.0573967,-46.7635406,179,137.56321
1,Branquinha/AL,-9.2478057,-36.0152009,767,7356.60848
D1,Branquinha/AL,-9.2478057,-36.0152009,14,134.27969
1,Brasil Novo/PA,-3.3055853,-52.539198,3240,21769.80447
D1,Brasil Novo/PA,-3.3055853,-52.539198,44,295.63932
1,Brasileira/PI,-4.131182,-41.7824969,661,7902.91726
D1,Brasileira/PI,-4.131182,-41.7824969,16,191.29603
1,Brasilândia de Minas/MG,-17.0096469,-46.0087183,1968,11610.61947
D1,Brasilândia de Minas/MG,-17.0096469,-46.0087183,28,165.19174
1,Brasilândia do Sul/PR,-24.1975793,-53.527551,532,21102.73701
D1,Brasilândia do Sul/PR,-24.1975793,-53.527551,12,476.00159
1,Brasilândia do Tocantins/TO,-8.3886619,-48.4842729,256,11526.33949
D1,Brasilândia do Tocantins/TO,-8.3886619,-48.4842729,6,270.14858
1,Brasilândia/MS,-21.255575,-52.0365617,1286,10866.07520
D1,Brasilândia/MS,-21.255575,-52.0365617,26,219.68737
1,Brasiléia/AC,-11.0010413,-68.7487894,3112,11473.65704
D1,Brasiléia/AC,-11.0010413,-68.7487894,44,162.22394
1,Brasnorte/MT,-12.1227151,-58.0050109,2545,12371.78552
D1,Brasnorte/MT,-12.1227151,-58.0050109,43,209.03213
1,Brasília de Minas/MG,-16.2075114,-44.430559,1560,4805.91497
D1,Brasília de Minas/MG,-16.2075114,-44.430559,10,30.80715
1,Brasília/DF,-15.7934036,-47.8823172,551680,17828.76718
D1,Brasília/DF,-15.7934036,-47.8823172,11132,359.75536
1,Brazabrantes/GO,-16.4291635,-49.3858216,659,17287.51312
D1,Brazabrantes/GO,-16.4291635,-49.3858216,6,157.39769
1,Brazópolis/MG,-22.4742842,-45.6165577,1285,8945.97605
D1,Brazópolis/MG,-22.4742842,-45.6165577,32,222.77917
1,Braço do Norte/SC,-28.2728633,-49.1622712,9884,28821.36817
D1,Braço do Norte/SC,-28.2728633,-49.1622712,114,332.41967
1,Braço do Trombudo/SC,-27.358578,-49.882145,821,21639.43068
D1,Braço do Trombudo/SC,-27.358578,-49.882145,7,184.50185
1,Braúna/SP,-21.5015319,-50.3175246,623,10750.64711
D1,Braúna/SP,-21.5015319,-50.3175246,24,414.15013
1,Braúnas/MG,-19.055556,-42.716111,264,5573.14756
D1,Braúnas/MG,-19.055556,-42.716111,11,232.21448
1,Brejetuba/ES,-20.1465817,-41.2902303,1867,14995.98394
D1,Brejetuba/ES,-20.1465817,-41.2902303,16,128.51406
1,Brejinho de Nazaré/TO,-11.0205883,-48.5722906,769,13880.86643
D1,Brejinho de Nazaré/TO,-11.0205883,-48.5722906,19,342.96029
1,Brejinho/PE,-7.3482153,-37.28538,875,11683.80291
D1,Brejinho/PE,-7.3482153,-37.28538,21,280.41127
1,Brejinho/RN,-6.1957907,-35.3583019,1554,12071.77814
D1,Brejinho/RN,-6.1957907,-35.3583019,17,132.05935
1,Brejo Alegre/SP,-21.1671191,-50.1850393,404,13878.39231
D1,Brejo Alegre/SP,-21.1671191,-50.1850393,13,446.58193
1,Brejo Grande do Araguaia/PA,-5.7011449,-48.4037308,1049,14258.52929
D1,Brejo Grande do Araguaia/PA,-5.7011449,-48.4037308,5,67.96248
1,Brejo Grande/SE,-10.4287358,-36.4667918,467,5562.17246
D1,Brejo Grande/SE,-10.4287358,-36.4667918,13,154.83564
1,Brejo Santo/CE,-7.4909841,-38.9859152,8515,16963.84102
D1,Brejo Santo/CE,-7.4909841,-38.9859152,156,310.78793
1,Brejo da Madre de Deus/PE,-8.1409718,-36.3712527,2599,5027.46828
D1,Brejo da Madre de Deus/PE,-8.1409718,-36.3712527,57,110.25998
1,Brejo de Areia/MA,-4.3316785,-45.5833334,323,3653.43287
D1,Brejo de Areia/MA,-4.3316785,-45.5833334,11,124.42031
1,Brejo do Cruz/PB,-6.32926065,-37.48746163303929,1996,13970.74263
D1,Brejo do Cruz/PB,-6.32926065,-37.48746163303929,24,167.98488
1,Brejo do Piauí/PI,-8.207583,-42.8359849,159,4157.94979
D1,Brejo do Piauí/PI,-8.207583,-42.8359849,4,104.60251
1,Brejo dos Santos/PB,-6.3769367,-37.8243125,780,12038.89489
D1,Brejo dos Santos/PB,-6.3769367,-37.8243125,8,123.47585
1,Brejo/MA,-3.6804397,-42.7529313,1000,2710.02710
D1,Brejo/MA,-3.6804397,-42.7529313,19,51.49051
1,Brejolândia/BA,-12.4843845,-43.9611861,160,1498.82904
D1,Brejolândia/BA,-12.4843845,-43.9611861,11,103.04450
1,Brejão/PE,-9.029146,-36.566034,517,5756.59726
D1,Brejão/PE,-9.029146,-36.566034,9,100.21156
1,Brejões/BA,-13.1033754,-39.7909837,900,6358.17732
D1,Brejões/BA,-13.1033754,-39.7909837,13,91.84034
1,Breu Branco/PA,-3.7785073,-49.5684795,1044,1521.93245
D1,Breu Branco/PA,-3.7785073,-49.5684795,63,91.84075
1,Breves/PA,-1.68036,-50.479085,4513,4327.77138
D1,Breves/PA,-1.68036,-50.479085,122,116.99271
1,Britânia/GO,-15.2427599,-51.1602061,733,12605.33104
D1,Britânia/GO,-15.2427599,-51.1602061,8,137.57524
1,Brochier/RS,-29.556766,-51.5963047,730,14224.47389
D1,Brochier/RS,-29.556766,-51.5963047,6,116.91348
1,Brodowski/SP,-20.984532,-47.657217,2897,11314.19645
D1,Brodowski/SP,-20.984532,-47.657217,79,308.53349
1,Brotas de Macaúbas/BA,-12.0019007,-42.6257506,337,3148.06165
D1,Brotas de Macaúbas/BA,-12.0019007,-42.6257506,8,74.73143
1,Brotas/SP,-22.2840884,-48.1267265,2406,9677.41935
D1,Brotas/SP,-22.2840884,-48.1267265,69,277.53198
1,Brumadinho/MG,-20.143611,-44.2,4454,10808.58086
D1,Brumadinho/MG,-20.143611,-44.2,91,220.83091
1,Brumado/BA,-14.29507325,-41.659307508575985,9937,14728.46386
D1,Brumado/BA,-14.29507325,-41.659307508575985,199,294.95465
1,Brunópolis/SC,-27.310953,-50.837585,363,15660.05177
D1,Brunópolis/SC,-27.310953,-50.837585,9,388.26575
1,Brusque/SC,-27.0964628,-48.9136323,32205,22905.89415
D1,Brusque/SC,-27.0964628,-48.9136323,331,235.42465
1,Brás Pires/MG,-20.8483109,-43.2430524,373,8766.15746
D1,Brás Pires/MG,-20.8483109,-43.2430524,8,188.01410
1,Bueno Brandão/MG,-22.441976,-46.3517971,1201,10936.07722
D1,Bueno Brandão/MG,-22.441976,-46.3517971,31,282.28009
1,Buenos Aires/PE,-7.7218931,-35.326587,400,3024.80339
D1,Buenos Aires/PE,-7.7218931,-35.326587,25,189.05021
1,Buenópolis/MG,-17.8756607,-44.1749365,305,2949.13943
D1,Buenópolis/MG,-17.8756607,-44.1749365,13,125.70102
1,Buerarema/BA,-14.9571177,-39.3008035,1514,8287.26258
D1,Buerarema/BA,-14.9571177,-39.3008035,48,262.74016
1,Bugre/MG,-19.4257687,-42.2556,374,9387.55020
D1,Bugre/MG,-19.4257687,-42.2556,13,326.30522
1,Bujari/AC,-9.8309656,-67.9520886,1173,11095.34620
D1,Bujari/AC,-9.8309656,-67.9520886,17,160.80212
1,Bujaru/PA,-1.5169239,-48.0410699,1597,5374.02833
D1,Bujaru/PA,-1.5169239,-48.0410699,42,141.33324
1,Buri/SP,-23.79849,-48.598924,2674,13336.65835
D1,Buri/SP,-23.79849,-48.598924,94,468.82793
1,Buritama/SP,-21.0664017,-50.1448077,3149,18083.15149
D1,Buritama/SP,-21.0664017,-50.1448077,77,442.17296
1,Buriti Alegre/GO,-18.1377879,-49.0404411,1268,13326.32685
D1,Buriti Alegre/GO,-18.1377879,-49.0404411,36,378.34997
1,Buriti Bravo/MA,-5.8391884,-43.8367876,1851,7714.75014
D1,Buriti Bravo/MA,-5.8391884,-43.8367876,20,83.35765
1,Buriti de Goiás/GO,-16.180644,-50.4287479,335,13595.77922
D1,Buriti de Goiás/GO,-16.180644,-50.4287479,9,365.25974
1,Buriti do Tocantins/TO,-5.3187439,-48.2256609,1449,12444.17726
D1,Buriti do Tocantins/TO,-5.3187439,-48.2256609,26,223.29097
1,Buriti dos Lopes/PI,-3.1776723,-41.8707444,1370,6908.02743
D1,Buriti dos Lopes/PI,-3.1776723,-41.8707444,35,176.48245
1,Buriti dos Montes/PI,-5.3136171,-41.0971256,719,8681.47790
D1,Buriti dos Montes/PI,-5.3136171,-41.0971256,10,120.74378
1,Buriti/MA,-3.9430944,-42.9244281,1032,3568.95836
D1,Buriti/MA,-3.9430944,-42.9244281,9,31.12464
1,Buriticupu/MA,-4.3227472,-46.4516989,4041,5490.86215
D1,Buriticupu/MA,-4.3227472,-46.4516989,81,110.06182
1,Buritinópolis/GO,-14.4589282,-46.4293104,250,7640.58680
D1,Buritinópolis/GO,-14.4589282,-46.4293104,3,91.68704
1,Buritirama/BA,-10.7148421,-43.6362327,881,4121.83026
D1,Buritirama/BA,-10.7148421,-43.6362327,24,112.28595
1,Buritirana/MA,-5.5897455,-47.0148915,448,2889.76327
D1,Buritirana/MA,-5.5897455,-47.0148915,25,161.25911
1,Buritis/MG,-15.621389,-46.423889,3377,13411.97029
D1,Buritis/MG,-15.621389,-46.423889,54,214.46443
1,Buritis/RO,-10.2054937,-63.8281954,6329,15420.41274
D1,Buritis/RO,-10.2054937,-63.8281954,92,224.15515
1,Buritizal/SP,-20.1933264,-47.7097165,356,7829.33803
D1,Buritizal/SP,-20.1933264,-47.7097165,10,219.92523
1,Buritizeiro/MG,-17.3667765,-44.9647781,1890,6705.93244
D1,Buritizeiro/MG,-17.3667765,-44.9647781,41,145.47261
1,Butiá/RS,-30.1256795,-51.9692224,2698,12870.29528
D1,Butiá/RS,-30.1256795,-51.9692224,59,281.44827
1,Buíque/PE,-8.6239732,-37.157296,2631,4425.71659
D1,Buíque/PE,-8.6239732,-37.157296,48,80.74283
1,Bálsamo/SP,-20.7343722,-49.5807484,1882,20436.52948
D1,Bálsamo/SP,-20.7343722,-49.5807484,67,727.54914
0,CASO SEM LOCALIZAÇÃO DEFINIDA/BA,-13.415069300066518,-38.14174656569957,13125,88.24678
D0,CASO SEM LOCALIZAÇÃO DEFINIDA/BA,-13.415069300066518,-38.14174656569957,317,2.13137
0,CASO SEM LOCALIZAÇÃO DEFINIDA/CE,-3.3445126297392798,-38.624961942434304,10335,113.17249
0,CASO SEM LOCALIZAÇÃO DEFINIDA/ES,-20.30989267097039,-39.81745156645774,8790,218.73017
D0,CASO SEM LOCALIZAÇÃO DEFINIDA/ES,-20.30989267097039,-39.81745156645774,263,6.54449
0,CASO SEM LOCALIZAÇÃO DEFINIDA/GO,-16.701590966270153,-49.164524059025034,2582,36.78925
D0,CASO SEM LOCALIZAÇÃO DEFINIDA/GO,-16.701590966270153,-49.164524059025034,8,0.11399
0,CASO SEM LOCALIZAÇÃO DEFINIDA/MG,-19.97049116501593,-43.8852149072783,4266,20.15231
D0,CASO SEM LOCALIZAÇÃO DEFINIDA/MG,-19.97049116501593,-43.8852149072783,390,1.84233
D0,CASO SEM LOCALIZAÇÃO DEFINIDA/MS,-20.391549234908513,-54.645156949758444,1,0.03598
0,CASO SEM LOCALIZAÇÃO DEFINIDA/MT,-15.54791153961863,-56.17143998972475,3803,109.14154
D0,CASO SEM LOCALIZAÇÃO DEFINIDA/MT,-15.54791153961863,-56.17143998972475,256,7.34689
0,CASO SEM LOCALIZAÇÃO DEFINIDA/PA,-0.09317078214359542,-48.0050231510481,651,7.56725
D0,CASO SEM LOCALIZAÇÃO DEFINIDA/PA,-0.09317078214359542,-48.0050231510481,12,0.13949
0,CASO SEM LOCALIZAÇÃO DEFINIDA/PI,-2.683810218391744,-41.470898009352254,8481,259.10210
D0,CASO SEM LOCALIZAÇÃO DEFINIDA/PI,-2.683810218391744,-41.470898009352254,6,0.18331
0,CASO SEM LOCALIZAÇÃO DEFINIDA/PR,-25.69415946385943,-48.10141676336737,8301,72.59954
D0,CASO SEM LOCALIZAÇÃO DEFINIDA/PR,-25.69415946385943,-48.10141676336737,224,1.95908
0,CASO SEM LOCALIZAÇÃO DEFINIDA/RR,2.813328208465927,-60.663338675861986,3307,545.92488
D0,CASO SEM LOCALIZAÇÃO DEFINIDA/RR,2.813328208465927,-60.663338675861986,21,3.46671
0,CASO SEM LOCALIZAÇÃO DEFINIDA/SP,-24.30968974555485,-46.21366504207253,128,0.27875
1,Caapiranga/AM,-3.3188884,-61.2096404,883,6549.47337
D1,Caapiranga/AM,-3.3188884,-61.2096404,22,163.18054
1,Caaporã/PB,-7.510234,-34.9154114,2237,10131.79945
D1,Caaporã/PB,-7.510234,-34.9154114,37,167.58005
1,Caarapó/MS,-22.6349267,-54.8240903,4241,13678.43896
D1,Caarapó/MS,-22.6349267,-54.8240903,57,183.84132
1,Caatiba/BA,-14.9782759,-40.4092325,977,15677.15019
D1,Caatiba/BA,-14.9782759,-40.4092325,15,240.69320
1,Cabaceiras do Paraguaçu/BA,-12.5377868,-39.1901339,823,4329.30037
D1,Cabaceiras do Paraguaçu/BA,-12.5377868,-39.1901339,6,31.56234
1,Cabaceiras/PB,-7.4899156,-36.2860501,490,8581.43608
D1,Cabaceiras/PB,-7.4899156,-36.2860501,4,70.05254
1,Cabeceira Grande/MG,-16.0297,-47.0906,572,8142.34875
D1,Cabeceira Grande/MG,-16.0297,-47.0906,7,99.64413
1,Cabeceiras do Piauí/PI,-4.4733665,-42.3098716,724,6784.74370
D1,Cabeceiras do Piauí/PI,-4.4733665,-42.3098716,17,159.31028
1,Cabeceiras/GO,-15.7995459,-46.9264991,628,7755.00123
D1,Cabeceiras/GO,-15.7995459,-46.9264991,18,222.27711
1,Cabedelo/PB,-6.97324,-34.8351609,10109,14488.41242
D1,Cabedelo/PB,-6.97324,-34.8351609,206,295.24315
1,Cabixi/RO,-13.4956065,-60.5424442,1008,19893.42806
D1,Cabixi/RO,-13.4956065,-60.5424442,22,434.18196
1,Cabo Frio/RJ,-22.8804369,-42.0189227,18408,7864.07891
D1,Cabo Frio/RJ,-22.8804369,-42.0189227,922,393.88748
1,Cabo Verde/MG,-21.4743338,-46.3964995,1079,7666.61930
D1,Cabo Verde/MG,-21.4743338,-46.3964995,11,78.15831
1,Cabo de Santo Agostinho/PE,-8.2838945,-35.0320984,10267,4870.58578
D1,Cabo de Santo Agostinho/PE,-8.2838945,-35.0320984,538,255.22306
1,Cabreúva/SP,-23.3075813,-47.1324417,5202,10174.06611
D1,Cabreúva/SP,-23.3075813,-47.1324417,143,279.67925
1,Cabrobó/PE,-8.5083701,-39.3106961,2760,7936.05153
D1,Cabrobó/PE,-8.5083701,-39.3106961,33,94.88757
1,Cabrália Paulista/SP,-22.4562909,-49.3385645,466,11037.42302
D1,Cabrália Paulista/SP,-22.4562909,-49.3385645,9,213.16911
1,Cacaulândia/RO,-10.3380043,-62.9007231,1102,17472.64944
D1,Cacaulândia/RO,-10.3380043,-62.9007231,17,269.54178
1,Cacequi/RS,-29.8838059,-54.8273443,860,6996.98967
D1,Cacequi/RS,-29.8838059,-54.8273443,14,113.90448
1,Cachoeira Alta/GO,-18.7618269,-50.9432431,1959,15253.44546
D1,Cachoeira Alta/GO,-18.7618269,-50.9432431,30,233.59028
1,Cachoeira Dourada/GO,-18.4934204,-49.481062,1005,12567.21270
D1,Cachoeira Dourada/GO,-18.4934204,-49.481062,33,412.65475
1,Cachoeira Dourada/MG,-18.517136,-49.5002062,307,11286.76471
D1,Cachoeira Dourada/MG,-18.517136,-49.5002062,2,73.52941
1,Cachoeira Grande/MA,-2.9290492,-44.0573223,327,3433.43133
D1,Cachoeira Grande/MA,-2.9290492,-44.0573223,8,83.99832
1,Cachoeira Paulista/SP,-22.666498,-45.015384,2780,8218.28717
D1,Cachoeira Paulista/SP,-22.666498,-45.015384,47,138.94227
1,Cachoeira da Prata/MG,-19.524723,-44.453056,226,6312.84916
D1,Cachoeira da Prata/MG,-19.524723,-44.453056,14,391.06145
1,Cachoeira de Goiás/GO,-16.6688414,-50.6435997,143,10703.59281
D1,Cachoeira de Goiás/GO,-16.6688414,-50.6435997,5,374.25150
1,Cachoeira de Minas/MG,-22.3554043,-45.7796324,1323,11396.33043
D1,Cachoeira de Minas/MG,-22.3554043,-45.7796324,20,172.28013
1,Cachoeira de Pajeú/MG,-15.965833,-41.496666,550,5807.81415
D1,Cachoeira de Pajeú/MG,-15.965833,-41.496666,11,116.15628
1,Cachoeira do Arari/PA,-1.0143572,-48.9621089,610,2504.61917
D1,Cachoeira do Arari/PA,-1.0143572,-48.9621089,25,102.64833
1,Cachoeira do Piriá/PA,-1.7599443,-46.5446954,1151,3259.97678
D1,Cachoeira do Piriá/PA,-1.7599443,-46.5446954,8,22.65840
1,Cachoeira do Sul/RS,-30.0474778,-52.8905413,12696,15567.98117
D1,Cachoeira do Sul/RS,-30.0474778,-52.8905413,214,262.40926
1,Cachoeira dos Índios/PB,-6.9259193,-38.6742159,1105,10661.90660
D1,Cachoeira dos Índios/PB,-6.9259193,-38.6742159,23,221.92204
1,Cachoeira/BA,-12.5998256,-38.9665918,1810,5377.46219
D1,Cachoeira/BA,-12.5998256,-38.9665918,32,95.07115
1,Cachoeiras de Macacu/RJ,-22.4626861,-42.6534414,3493,5855.62932
D1,Cachoeiras de Macacu/RJ,-22.4626861,-42.6534414,116,194.46121
1,Cachoeirinha/PE,-8.4906364,-36.2338963,657,3186.53604
D1,Cachoeirinha/PE,-8.4906364,-36.2338963,34,164.90445
1,Cachoeirinha/RS,-29.9493353,-51.0898927,16865,12762.59232
D1,Cachoeirinha/RS,-29.9493353,-51.0898927,493,373.07785
1,Cachoeirinha/TO,-6.118647,-47.9208885,129,5625.81771
D1,Cachoeirinha/TO,-6.118647,-47.9208885,2,87.22198
1,Cachoeiro de Itapemirim/ES,-20.848084,-41.11129,32106,15132.06267
D1,Cachoeiro de Itapemirim/ES,-20.848084,-41.11129,657,309.65443
1,Cacimba de Areia/PB,-7.1288513,-37.1575194,150,4045.30744
D1,Cacimba de Areia/PB,-7.1288513,-37.1575194,5,134.84358
1,Cacimba de Dentro/PB,-6.6425101,-35.7929304,1251,7286.38826
D1,Cacimba de Dentro/PB,-6.6425101,-35.7929304,37,215.50469
1,Cacimbas/PB,-7.2125451,-37.0593398,305,4221.45329
D1,Cacimbas/PB,-7.2125451,-37.0593398,8,110.72664
1,Cacimbinhas/AL,-9.401212,-36.991082,912,8351.64835
D1,Cacimbinhas/AL,-9.401212,-36.991082,12,109.89011
1,Cacique Doble/RS,-27.7700117,-51.6616409,669,13161.51879
D1,Cacique Doble/RS,-27.7700117,-51.6616409,12,236.08105
1,Cacoal/RO,-11.4333,-61.4420502,17400,20135.16016
D1,Cacoal/RO,-11.4333,-61.4420502,328,379.55934
1,Caconde/SP,-21.527995,-46.643659,1575,8275.97078
D1,Caconde/SP,-21.527995,-46.643659,39,204.92880
1,Caculé/BA,-14.4990734,-42.2233006,2850,12175.84483
D1,Caculé/BA,-14.4990734,-42.2233006,22,93.98898
1,Caetanos/BA,-14.3387456,-40.9085971,788,5371.14034
D1,Caetanos/BA,-14.3387456,-40.9085971,11,74.97785
1,Caetanópolis/MG,-19.2947496,-44.4138386,1180,9941.86536
D1,Caetanópolis/MG,-19.2947496,-44.4138386,21,176.93150
1,Caetité/BA,-14.0691776,-42.4852428,4180,8166.61457
D1,Caetité/BA,-14.0691776,-42.4852428,44,85.96436
1,Caeté/MG,-19.897777,-43.670278,2310,5092.14355
D1,Caeté/MG,-19.897777,-43.670278,77,169.73812
1,Caetés/PE,-8.7728788,-36.6255835,1854,6378.80612
D1,Caetés/PE,-8.7728788,-36.6255835,23,79.13298
1,Cafarnaum/BA,-11.691399,-41.468823,1008,5423.72881
D1,Cafarnaum/BA,-11.691399,-41.468823,24,129.13640
1,Cafeara/PR,-22.78905,-51.714195,533,17928.01884
D1,Cafeara/PR,-22.78905,-51.714195,13,437.26875
1,Cafelândia/PR,-24.6176963,-53.3218057,3130,16664.00469
D1,Cafelândia/PR,-24.6176963,-53.3218057,43,228.93042
1,Cafelândia/SP,-21.8054355,-49.6030627,835,4660.37841
D1,Cafelândia/SP,-21.8054355,-49.6030627,51,284.64587
1,Cafezal do Sul/PR,-23.900508,-53.512418,560,14088.05031
D1,Cafezal do Sul/PR,-23.900508,-53.512418,8,201.25786
1,Caiabu/SP,-22.0143038,-51.2356597,321,7651.96663
D1,Caiabu/SP,-22.0143038,-51.2356597,8,190.70322
1,Caiana/MG,-20.695555,-41.924723,200,3581.66189
D1,Caiana/MG,-20.695555,-41.924723,7,125.35817
1,Caiapônia/GO,-16.9538779,-51.8090761,1859,9630.12847
D1,Caiapônia/GO,-16.9538779,-51.8090761,44,227.93203
1,Caibaté/RS,-28.290475,-54.645407,446,9287.79675
D1,Caibaté/RS,-28.290475,-54.645407,7,145.77259
1,Caibi/SC,-27.0751925,-53.2502133,785,12843.58639
D1,Caibi/SC,-27.0751925,-53.2502133,16,261.78010
1,Caicó/RN,-6.4594544,-37.0971911,13786,20059.36618
D1,Caicó/RN,-6.4594544,-37.0971911,168,244.44897
1,Caieiras/SP,-23.3644621,-46.7484765,10003,9614.20168
D1,Caieiras/SP,-23.3644621,-46.7484765,336,322.94029
1,Cairu/BA,-13.4860505,-39.0455744,1624,8700.31073
D1,Cairu/BA,-13.4860505,-39.0455744,17,91.07468
1,Caiuá/SP,-21.8319357,-51.9887179,420,6980.22270
D1,Caiuá/SP,-21.8319357,-51.9887179,11,182.81536
1,Caiçara do Norte/RN,-5.0645017,-36.0561226,585,8901.39988
D1,Caiçara do Norte/RN,-5.0645017,-36.0561226,12,182.59282
1,Caiçara do Rio do Vento/RN,-5.757968,-36.00089,391,10440.58745
D1,Caiçara do Rio do Vento/RN,-5.757968,-36.00089,8,213.61816
1,Caiçara/PB,-6.6146866,-35.4681434,841,11709.83013
D1,Caiçara/PB,-6.6146866,-35.4681434,14,194.93177
1,Caiçara/RS,-27.2750478,-53.4310053,799,17149.60292
D1,Caiçara/RS,-27.2750478,-53.4310053,11,236.10217
1,Cajamar/SP,-23.3561111,-46.8769444,5482,6936.25528
D1,Cajamar/SP,-23.3561111,-46.8769444,249,315.05428
1,Cajapió/MA,-2.8778715,-44.6746871,208,1848.06753
D1,Cajapió/MA,-2.8778715,-44.6746871,7,62.19458
1,Cajari/MA,-3.3213076,-45.0118757,295,1511.19307
D1,Cajari/MA,-3.3213076,-45.0118757,9,46.10420
1,Cajati/SP,-24.7272376,-48.1077914,4959,17436.09578
D1,Cajati/SP,-24.7272376,-48.1077914,105,369.18533
1,Cajazeiras do Piauí/PI,-6.794271,-42.3935024,81,2258.78416
D1,Cajazeiras do Piauí/PI,-6.794271,-42.3935024,2,55.77245
1,Cajazeiras/PB,-6.8897849,-38.5570389,12071,19290.14319
D1,Cajazeiras/PB,-6.8897849,-38.5570389,178,284.45410
1,Cajazeirinhas/PB,-6.961442,-37.7993733,215,6683.24526
D1,Cajazeirinhas/PB,-6.961442,-37.7993733,1,31.08486
1,Cajobi/SP,-20.8776238,-48.8106972,1116,10479.85726
D1,Cajobi/SP,-20.8776238,-48.8106972,33,309.88825
1,Cajueiro da Praia/PI,-2.931114,-41.340801,497,6451.19418
D1,Cajueiro da Praia/PI,-2.931114,-41.340801,20,259.60540
1,Cajueiro/AL,-9.399589,-36.1524309,653,3051.82970
D1,Cajueiro/AL,-9.399589,-36.1524309,31,144.88012
1,Cajuri/MG,-20.7901414,-42.7954489,505,12749.30573
D1,Cajuri/MG,-20.7901414,-42.7954489,8,201.96920
1,Cajuru/SP,-21.2759978,-47.3046035,1994,7492.57881
D1,Cajuru/SP,-21.2759978,-47.3046035,59,221.69616
1,Caldas Brandão/PB,-7.1027959,-35.3254676,631,10383.41287
D1,Caldas Brandão/PB,-7.1027959,-35.3254676,10,164.55488
1,Caldas Novas/GO,-17.745,-48.625,13502,14185.30620
D1,Caldas Novas/GO,-17.745,-48.625,311,326.73902
1,Caldas/MG,-21.923611,-46.386111,1176,8054.79452
D1,Caldas/MG,-21.923611,-46.386111,39,267.12329
1,Caldazinha/GO,-16.7116649,-49.0012601,645,16538.46154
D1,Caldazinha/GO,-16.7116649,-49.0012601,12,307.69231
1,Caldeirão Grande do Piauí/PI,-7.3310393,-40.6374433,551,9522.98652
D1,Caldeirão Grande do Piauí/PI,-7.3310393,-40.6374433,2,34.56619
1,Caldeirão Grande/BA,-11.0208483,-40.3041387,576,4281.89117
D1,Caldeirão Grande/BA,-11.0208483,-40.3041387,6,44.60303
1,Califórnia/PR,-23.6672543,-51.3554556,1421,16444.85592
D1,Califórnia/PR,-23.6672543,-51.3554556,39,451.33665
1,Calmon/SC,-26.6023644,-51.0992893,53,1593.98496
D1,Calmon/SC,-26.6023644,-51.0992893,7,210.52632
1,Calumbi/PE,-7.9389746,-38.1516871,870,15146.23955
D1,Calumbi/PE,-7.9389746,-38.1516871,5,87.04735
1,Calçado/PE,-8.7413446,-36.3351787,527,4798.32468
D1,Calçado/PE,-8.7413446,-36.3351787,7,63.73486
1,Calçoene/AP,2.4981757,-50.9539503,1970,17140.86835
D1,Calçoene/AP,2.4981757,-50.9539503,15,130.51423
1,Camacan/BA,-15.4166631,-39.4930088,3110,9711.76967
D1,Camacan/BA,-15.4166631,-39.4930088,90,281.04800
1,Camacho/MG,-20.625556,-45.156667,224,7890.10215
D1,Camacho/MG,-20.625556,-45.156667,2,70.44734
1,Camalaú/PB,-7.885031,-36.824191,511,8449.07407
D1,Camalaú/PB,-7.885031,-36.824191,7,115.74074
1,Camamu/BA,-13.9438142,-39.1060917,2532,7143.66324
D1,Camamu/BA,-13.9438142,-39.1060917,58,163.63842
1,Camanducaia/MG,-22.755278,-46.144444,3713,17007.92451
D1,Camanducaia/MG,-22.755278,-46.144444,73,334.38688
1,Camapuã/MS,-19.5291747,-54.0434641,1008,7371.11517
D1,Camapuã/MS,-19.5291747,-54.0434641,32,234.00366
1,Camaquã/RS,-30.8524752,-51.8075619,7838,11753.59146
D1,Camaquã/RS,-30.8524752,-51.8075619,158,236.93129
1,Camaragibe/PE,-8.0213832,-34.9810768,8222,5140.51705
D1,Camaragibe/PE,-8.0213832,-34.9810768,454,283.84757
1,Camargo/RS,-28.5865661,-52.2031474,497,18072.72727
D1,Camargo/RS,-28.5865661,-52.2031474,8,290.90909
1,Camaçari/BA,-12.6998188,-38.3260762,25938,8388.52811
D1,Camaçari/BA,-12.6998188,-38.3260762,638,206.33360
1,Cambará do Sul/RS,-29.0489517,-50.145412,370,5796.64734
D1,Cambará do Sul/RS,-29.0489517,-50.145412,11,172.33276
1,Cambará/PR,-23.042273,-50.075281,3524,13782.31452
D1,Cambará/PR,-23.042273,-50.075281,68,265.94705
1,Cambira/PR,-23.600265,-51.581045,1489,18689.59458
D1,Cambira/PR,-23.600265,-51.581045,28,351.44973
1,Camboriú/SC,-27.0273601,-48.6535657,15662,17965.33569
D1,Camboriú/SC,-27.0273601,-48.6535657,189,216.79533
1,Cambuci/RJ,-21.5749919,-41.9107833,1865,12015.97835
D1,Cambuci/RJ,-21.5749919,-41.9107833,40,257.71535
1,Cambuquira/MG,-21.853056,-45.2953619,1034,8071.81889
D1,Cambuquira/MG,-21.853056,-45.2953619,28,218.57923
1,Cambuí/MG,-22.6122501,-46.0572137,5078,16888.38632
D1,Cambuí/MG,-22.6122501,-46.0572137,62,206.19928
1,Cambé/PR,-23.2782035,-51.2779583,15986,14784.60315
D1,Cambé/PR,-23.2782035,-51.2779583,362,334.79459
