type,name,lat,lon,total,total_per_100k_inhabitants
1,Abadia de Goiás/GO,-16.7572644,-49.4412205,1409,15728.95736
D1,Abadia de Goiás/GO,-16.7572644,-49.4412205,32,357.22259
1,Abadia dos Dourados/MG,-18.4911191,-47.4063589,410,5852.12675
D1,Abadia dos Dourados/MG,-18.4911191,-47.4063589,14,199.82872
1,Abadiânia/GO,-16.1940946,-48.7067767,415,2028.24886
D1,Abadiânia/GO,-16.1940946,-48.7067767,30,146.62040
1,Abaetetuba/PA,-1.721828,-48.878843,8510,5349.50968
D1,Abaetetuba/PA,-1.721828,-48.878843,217,136.40935
1,Abaeté/MG,-19.1566833,-45.4481213,1141,4907.52688
D1,Abaeté/MG,-19.1566833,-45.4481213,26,111.82796
1,Abaiara/CE,-7.3607808,-39.0487878,547,4614.86543
D1,Abaiara/CE,-7.3607808,-39.0487878,14,118.11356
1,Abaré/BA,-8.7239913,-39.1139689,910,4472.40379
D1,Abaré/BA,-8.7239913,-39.1139689,11,54.06202
1,Abatiá/PR,-23.3052967,-50.3102532,875,11811.55508
D1,Abatiá/PR,-23.3052967,-50.3102532,14,188.98488
1,Abaíra/BA,-13.2503296,-41.6640342,275,3157.29047
D1,Abaíra/BA,-13.2503296,-41.6640342,10,114.81056
1,Abdon Batista/SC,-27.612419,-51.022992,390,15306.12245
D1,Abdon Batista/SC,-27.612419,-51.022992,4,156.98587
1,Abel Figueiredo/PA,-4.953001,-48.3958485,927,12383.11515
D1,Abel Figueiredo/PA,-4.953001,-48.3958485,10,133.58269
1,Abelardo Luz/SC,-26.5705893,-52.3280339,1415,7878.61915
D1,Abelardo Luz/SC,-26.5705893,-52.3280339,45,250.55679
1,Abre Campo/MG,-20.2976097,-42.4764741,1025,7624.21898
D1,Abre Campo/MG,-20.2976097,-42.4764741,16,119.01220
1,Abreu e Lima/PE,-7.900719,-34.898389,2959,2948.79716
D1,Abreu e Lima/PE,-7.900719,-34.898389,213,212.26556
1,Abreulândia/TO,-9.6221526,-49.1558343,270,10408.63531
D1,Abreulândia/TO,-9.6221526,-49.1558343,6,231.30301
1,Acaiaca/MG,-20.3621646,-43.1444162,221,5533.29995
D1,Acaiaca/MG,-20.3621646,-43.1444162,11,275.41312
1,Acajutiba/BA,-11.6609659,-38.0186381,497,3272.53572
D1,Acajutiba/BA,-11.6609659,-38.0186381,16,105.35326
1,Acarape/CE,-4.2237866,-38.7071663,2691,17897.04709
D1,Acarape/CE,-4.2237866,-38.7071663,27,179.56903
1,Acaraú/CE,-2.8869514,-40.1194713,4760,7543.10345
D1,Acaraú/CE,-2.8869514,-40.1194713,98,155.29919
1,Acari/RN,-6.4364689,-36.6394777,983,8839.13317
D1,Acari/RN,-6.4364689,-36.6394777,15,134.87996
1,Acará/PA,-1.961388,-48.1987043,1299,2333.43513
D1,Acará/PA,-1.961388,-48.1987043,29,52.09362
1,Acauã/PI,-8.219542,-41.083059,195,2745.70544
D1,Acauã/PI,-8.219542,-41.083059,1,14.08054
1,Aceguá/RS,-31.8695131,-54.1615593,326,6596.51963
D1,Aceguá/RS,-31.8695131,-54.1615593,5,101.17361
1,Acopiara/CE,-6.0936464,-39.4543204,3353,6154.43916
D1,Acopiara/CE,-6.0936464,-39.4543204,129,236.77979
1,Acorizal/MT,-15.2001544,-56.3668953,479,8980.12748
D1,Acorizal/MT,-15.2001544,-56.3668953,19,356.20547
1,Acrelândia/AC,-10.0759167,-67.0526898,1614,10419.62556
D1,Acrelândia/AC,-10.0759167,-67.0526898,34,219.49645
1,Acreúna/GO,-17.3959899,-50.3749031,1886,8365.12020
D1,Acreúna/GO,-17.3959899,-50.3749031,44,195.15657
1,Adamantina/SP,-21.6866517,-51.0762975,2921,8319.33012
D1,Adamantina/SP,-21.6866517,-51.0762975,91,259.17804
1,Adelândia/GO,-16.4155077,-50.1665834,185,7352.94118
D1,Adelândia/GO,-16.4155077,-50.1665834,4,158.98251
1,Adolfo/SP,-21.2356597,-49.6441918,455,12802.47608
D1,Adolfo/SP,-21.2356597,-49.6441918,11,309.51041
1,Adrianópolis/PR,-24.6557863,-48.9912769,1233,21051.73297
D1,Adrianópolis/PR,-24.6557863,-48.9912769,26,443.91327
1,Adustina/BA,-10.5358875,-38.114479,842,4916.50123
D1,Adustina/BA,-10.5358875,-38.114479,20,116.78150
1,Afogados da Ingazeira/PE,-7.750429,-37.6356375,4679,12509.35729
D1,Afogados da Ingazeira/PE,-7.750429,-37.6356375,65,173.77821
1,Afonso Bezerra/RN,-5.4745,-36.57625071327935,669,6065.82646
D1,Afonso Bezerra/RN,-5.4745,-36.57625071327935,16,145.07208
1,Afonso Cláudio/ES,-20.077841,-41.12606,3330,10934.16516
D1,Afonso Cláudio/ES,-20.077841,-41.12606,56,183.87785
1,Afonso Cunha/MA,-4.1326105,-43.3230026,175,2660.38310
D1,Afonso Cunha/MA,-4.1326105,-43.3230026,2,30.40438
1,Afrânio/PE,-8.5198919,-41.0070197,849,4285.71429
D1,Afrânio/PE,-8.5198919,-41.0070197,14,70.67138
1,Afuá/PA,-0.1535664,-50.3879223,2954,7465.81747
D1,Afuá/PA,-0.1535664,-50.3879223,14,35.38302
1,Agrestina/PE,-8.4558021,-35.9442663,1602,6391.38241
D1,Agrestina/PE,-8.4558021,-35.9442663,59,235.38799
1,Agricolândia/PI,-5.7967843,-42.6605131,463,9023.58215
D1,Agricolândia/PI,-5.7967843,-42.6605131,5,97.44689
1,Agrolândia/SC,-27.4122212,-49.8295774,1438,13057.29592
D1,Agrolândia/SC,-27.4122212,-49.8295774,19,172.52338
1,Agronômica/SC,-27.2660744,-49.7104753,605,10982.02941
D1,Agronômica/SC,-27.2660744,-49.7104753,13,235.97749
1,Aguanil/MG,-20.9424533,-45.3927152,580,12826.18310
D1,Aguanil/MG,-20.9424533,-45.3927152,8,176.91287
1,Aguaí/SP,-22.0592036,-46.979384,2593,7075.42021
D1,Aguaí/SP,-22.0592036,-46.979384,85,231.93626
1,Agudo/RS,-29.6423259,-53.2494005,1590,9694.53082
D1,Agudo/RS,-29.6423259,-53.2494005,26,158.52692
1,Agudos do Sul/PR,-25.9890808,-49.3328175,538,5681.09820
D1,Agudos do Sul/PR,-25.9890808,-49.3328175,23,242.87223
1,Agudos/SP,-22.471162,-48.987822,3320,8876.76800
D1,Agudos/SP,-22.471162,-48.987822,76,203.20312
1,Aguiar/PB,-7.0928404,-38.1727215,429,7619.89343
D1,Aguiar/PB,-7.0928404,-38.1727215,5,88.80995
1,Aguiarnópolis/TO,-6.5600452,-47.4721189,580,8415.55427
D1,Aguiarnópolis/TO,-6.5600452,-47.4721189,12,174.11492
1,Aimorés/MG,-19.4917754,-41.0615603,1866,7422.13914
D1,Aimorés/MG,-19.4917754,-41.0615603,58,230.69886
1,Aiquara/BA,-14.126918,-39.8887574,463,10484.60145
D1,Aiquara/BA,-14.126918,-39.8887574,11,249.09420
1,Aiuaba/CE,-6.5710836,-40.1212278,630,3601.44058
D1,Aiuaba/CE,-6.5710836,-40.1212278,11,62.88230
1,Aiuruoca/MG,-21.9759554,-44.6036637,273,4568.27309
D1,Aiuruoca/MG,-21.9759554,-44.6036637,7,117.13521
1,Ajuricaba/RS,-28.239654,-53.7693013,997,14269.35738
D1,Ajuricaba/RS,-28.239654,-53.7693013,24,343.49506
1,Alagoa Grande/PB,-7.0415212,-35.6285322,3629,12760.64559
D1,Alagoa Grande/PB,-7.0415212,-35.6285322,65,228.55937
1,Alagoa Nova/PB,-7.0653703,-35.76695977336711,911,4354.47636
D1,Alagoa Nova/PB,-7.0653703,-35.76695977336711,17,81.25807
1,Alagoa/MG,-22.1697202,-44.6400042,438,16435.27205
D1,Alagoa/MG,-22.1697202,-44.6400042,6,225.14071
1,Alagoinha do Piauí/PI,-7.0090952,-40.939675,334,4357.46902
D1,Alagoinha do Piauí/PI,-7.0090952,-40.939675,10,130.46314
1,Alagoinha/PB,-6.97063215,-35.51490901897793,1795,12328.29670
D1,Alagoinha/PB,-6.97063215,-35.51490901897793,24,164.83516
1,Alagoinha/PE,-8.50355635,-36.77701174370496,1085,7371.92553
D1,Alagoinha/PE,-8.50355635,-36.77701174370496,24,163.06563
1,Alagoinhas/BA,-12.133526,-38.420772,12264,8051.10059
D1,Alagoinhas/BA,-12.133526,-38.420772,239,156.89930
1,Alambari/SP,-23.550338,-47.897971,498,8125.30592
D1,Alambari/SP,-23.550338,-47.897971,10,163.15875
1,Albertina/MG,-20.66164,-43.784039,223,7406.17735
D1,Albertina/MG,-20.66164,-43.784039,7,232.48090
1,Alcantil/PB,-7.7425491,-36.0609604,410,7442.36704
D1,Alcantil/PB,-7.7425491,-36.0609604,6,108.91269
1,Alcinópolis/MS,-18.3264121,-53.7094463,302,5575.04154
D1,Alcinópolis/MS,-18.3264121,-53.7094463,8,147.68322
1,Alcobaça/BA,-17.5215875,-39.1965474,1429,6353.93508
D1,Alcobaça/BA,-17.5215875,-39.1965474,28,124.49978
1,Alcântara/MA,-2.4038956,-44.4154241,304,1374.81910
D1,Alcântara/MA,-2.4038956,-44.4154241,16,72.35890
1,Alcântaras/CE,-3.586247,-40.5457641,1598,13564.21356
D1,Alcântaras/CE,-3.586247,-40.5457641,20,169.76488
1,Aldeias Altas/MA,-4.6291957,-43.4708622,975,3643.90627
D1,Aldeias Altas/MA,-4.6291957,-43.4708622,13,48.58542
1,Alecrim/RS,-27.6566142,-54.7653195,286,4908.18603
D1,Alecrim/RS,-27.6566142,-54.7653195,11,188.77639
1,Alegre/ES,-20.7625787,-41.5318886,2220,7406.17181
D1,Alegre/ES,-20.7625787,-41.5318886,50,166.80567
1,Alegrete do Piauí/PI,-7.2440138,-40.8602296,484,9841.39894
D1,Alegrete do Piauí/PI,-7.2440138,-40.8602296,6,122.00081
1,Alegrete/RS,-29.790166,-55.794862,8525,11673.60464
D1,Alegrete/RS,-29.790166,-55.794862,252,345.07312
1,Alegria/RS,-27.8332103,-54.0574959,350,10373.44398
D1,Alegria/RS,-27.8332103,-54.0574959,2,59.27682
1,Alenquer/PA,-1.946229,-54.738355,3276,5738.10692
D1,Alenquer/PA,-1.946229,-54.738355,125,218.94486
1,Alexandria/RN,-6.414779,-38.0135516,1396,10300.30252
D1,Alexandria/RN,-6.414779,-38.0135516,21,154.94724
1,Alexânia/GO,-16.0834049,-48.5077803,2997,10699.75009
D1,Alexânia/GO,-16.0834049,-48.5077803,73,260.62121
1,Alfenas/MG,-21.4297405,-45.9479419,8070,10025.59197
D1,Alfenas/MG,-21.4297405,-45.9479419,156,193.80326
1,Alfredo Chaves/ES,-20.624970400000002,-40.75006690147988,2303,15735.17354
D1,Alfredo Chaves/ES,-20.624970400000002,-40.75006690147988,34,232.30391
1,Alfredo Marcondes/SP,-21.9527,-51.413956,224,5353.72849
D1,Alfredo Marcondes/SP,-21.9527,-51.413956,10,239.00574
1,Alfredo Vasconcelos/MG,-21.145833,-43.776389,426,6102.27761
D1,Alfredo Vasconcelos/MG,-21.145833,-43.776389,12,171.89514
1,Alfredo Wagner/SC,-27.6961513,-49.3326734,660,6543.72397
D1,Alfredo Wagner/SC,-27.6961513,-49.3326734,7,69.40313
1,Algodão de Jandaíra/PB,-6.9040175,-36.0089879,150,5820.72177
1,Alhandra/PB,-7.4304246,-34.9106103,2007,10173.87337
D1,Alhandra/PB,-7.4304246,-34.9106103,35,177.42181
1,Aliança do Tocantins/TO,-11.3055927,-48.9409096,573,10718.29405
D1,Aliança do Tocantins/TO,-11.3055927,-48.9409096,20,374.11149
1,Aliança/PE,-7.60398,-35.222696,610,1588.66578
D1,Aliança/PE,-7.60398,-35.222696,57,148.44910
1,Almadina/BA,-14.70466,-39.6381994,600,11181.51323
D1,Almadina/BA,-14.70466,-39.6381994,9,167.72270
1,Almas/TO,-11.5681309,-47.1702803,225,3223.95759
D1,Almas/TO,-11.5681309,-47.1702803,5,71.64350
1,Almeirim/PA,-1.5290377,-52.5788111,3360,9860.31224
D1,Almeirim/PA,-1.5290377,-52.5788111,43,126.18852
1,Almenara/MG,-16.1740678,-40.6904907,3789,8990.81698
D1,Almenara/MG,-16.1740678,-40.6904907,44,104.40643
1,Almino Afonso/RN,-6.1544208,-37.7649018,410,8704.88323
D1,Almino Afonso/RN,-6.1544208,-37.7649018,12,254.77707
1,Almirante Tamandaré do Sul/RS,-28.1141129,-52.9134874,305,15649.05080
D1,Almirante Tamandaré do Sul/RS,-28.1141129,-52.9134874,4,205.23345
1,Almirante Tamandaré/PR,-25.3133048,-49.2997838,8897,7411.63436
D1,Almirante Tamandaré/PR,-25.3133048,-49.2997838,342,284.90266
1,Aloândia/GO,-17.7277983,-49.4809338,239,12034.23968
D1,Aloândia/GO,-17.7277983,-49.4809338,6,302.11480
1,Alpercata/MG,-18.9803616,-41.9827637,470,6320.60247
D1,Alpercata/MG,-18.9803616,-41.9827637,18,242.06563
1,Alpestre/RS,-27.2512339,-53.0349646,323,5323.88330
D1,Alpestre/RS,-27.2512339,-53.0349646,7,115.37828
1,Alpinópolis/MG,-20.863611,-46.387777,1197,5997.59495
D1,Alpinópolis/MG,-20.863611,-46.387777,28,140.29462
1,Alta Floresta D'Oeste/RO,-11.9296917,-61.9961284,3794,16693.06582
D1,Alta Floresta D'Oeste/RO,-11.9296917,-61.9961284,64,281.59099
1,Alta Floresta/MT,-9.8715018,-56.0839881,8128,15643.10322
D1,Alta Floresta/MT,-9.8715018,-56.0839881,117,225.17754
1,Altair/SP,-20.5238955,-49.0606135,159,3798.37554
D1,Altair/SP,-20.5238955,-49.0606135,12,286.66985
1,Altamira do Maranhão/MA,-4.1643006,-45.4674574,318,3883.25803
D1,Altamira do Maranhão/MA,-4.1643006,-45.4674574,10,122.11503
1,Altamira do Paraná/PR,-24.799114,-52.7128633,196,11652.79429
D1,Altamira do Paraná/PR,-24.799114,-52.7128633,7,416.17122
1,Altamira/PA,-3.204065,-52.209961,13166,11353.03400
D1,Altamira/PA,-3.204065,-52.209961,282,243.16843
1,Altaneira/CE,-6.9980933,-39.7385742,501,6549.01961
D1,Altaneira/CE,-6.9980933,-39.7385742,16,209.15033
1,Alterosa/MG,-21.249166,-46.143055,655,4511.95151
D1,Alterosa/MG,-21.249166,-46.143055,31,213.54274
1,Altinho/PE,-8.4904095,-36.0607494,1077,4685.86843
D1,Altinho/PE,-8.4904095,-36.0607494,22,95.71876
1,Altinópolis/SP,-21.021364,-47.3712,806,4974.38746
D1,Altinópolis/SP,-21.021364,-47.3712,39,240.69617
1,Alto Alegre do Maranhão/MA,-4.2055693,-44.4525287,1129,4052.69581
D1,Alto Alegre do Maranhão/MA,-4.2055693,-44.4525287,25,89.74083
1,Alto Alegre do Pindaré/MA,-3.6698186,-45.8462153,1891,5919.91986
D1,Alto Alegre do Pindaré/MA,-3.6698186,-45.8462153,45,140.87594
1,Alto Alegre dos Parecis/RO,-12.1314515,-61.856265,1428,10773.29310
D1,Alto Alegre dos Parecis/RO,-12.1314515,-61.856265,44,331.95021
1,Alto Alegre/RR,2.98858,-61.307167,1331,8654.09623
D1,Alto Alegre/RR,2.98858,-61.307167,31,201.56047
1,Alto Alegre/RS,-31.780844700000003,-52.81311114489171,191,11841.28952
D1,Alto Alegre/RS,-31.780844700000003,-52.81311114489171,1,61.99628
1,Alto Alegre/SP,-21.5820592,-50.1661976,326,7974.55969
D1,Alto Alegre/SP,-21.5820592,-50.1661976,18,440.31311
1,Alto Araguaia/MT,-17.3156528,-53.2169365,1147,5916.94609
D1,Alto Araguaia/MT,-17.3156528,-53.2169365,24,123.80707
1,Alto Bela Vista/SC,-27.4320737,-51.905771,163,8463.13603
D1,Alto Bela Vista/SC,-27.4320737,-51.905771,2,103.84216
1,Alto Boa Vista/MT,-11.6723985,-51.3744431,735,10596.88581
D1,Alto Boa Vista/MT,-11.6723985,-51.3744431,12,173.01038
1,Alto Caparaó/MG,-20.4405661,-41.8683799,380,6447.23448
D1,Alto Caparaó/MG,-20.4405661,-41.8683799,8,135.73125
1,Alto Feliz/RS,-29.3785943,-51.3123751,253,8333.33333
D1,Alto Feliz/RS,-29.3785943,-51.3123751,2,65.87615
1,Alto Garças/MT,-16.9469683,-53.529427,845,6954.16015
D1,Alto Garças/MT,-16.9469683,-53.529427,32,263.35281
1,Alto Horizonte/GO,-14.1954948,-49.3366993,795,12036.33611
D1,Alto Horizonte/GO,-14.1954948,-49.3366993,9,136.26041
1,Alto Jequitibá/MG,-20.423611,-41.966111,680,8191.78412
D1,Alto Jequitibá/MG,-20.423611,-41.966111,10,120.46741
1,Alto Longá/PI,-5.2549051,-42.2072388,614,4282.02804
D1,Alto Longá/PI,-5.2549051,-42.2072388,13,90.66183
1,Alto Paraguai/MT,-14.513712,-56.4936374,853,7434.84703
D1,Alto Paraguai/MT,-14.513712,-56.4936374,28,244.05125
1,Alto Paraná/PR,-23.131247,-52.318893,890,5989.63591
D1,Alto Paraná/PR,-23.131247,-52.318893,21,141.32849
1,Alto Paraíso de Goiás/GO,-14.1304779,-47.5100161,620,8064.51613
D1,Alto Paraíso de Goiás/GO,-14.1304779,-47.5100161,7,91.05099
1,Alto Paraíso/PR,-23.508137,-53.728537,215,8007.44879
D1,Alto Paraíso/PR,-23.508137,-53.728537,3,111.73184
1,Alto Paraíso/RO,-9.7240103,-63.3188123,1779,8142.99446
D1,Alto Paraíso/RO,-9.7240103,-63.3188123,45,205.97794
1,Alto Parnaíba/MA,-9.112506,-45.9310154,840,7491.97289
D1,Alto Parnaíba/MA,-9.112506,-45.9310154,10,89.19015
1,Alto Piquiri/PR,-24.0239021,-53.4417448,787,8048.68071
D1,Alto Piquiri/PR,-24.0239021,-53.4417448,18,184.08673
1,Alto Rio Doce/MG,-21.0239537,-43.4133507,412,3794.08785
D1,Alto Rio Doce/MG,-21.0239537,-43.4133507,24,221.01483
1,Alto Rio Novo/ES,-19.0577208,-41.0171518,679,8623.31725
D1,Alto Rio Novo/ES,-19.0577208,-41.0171518,21,266.70053
1,Alto Santo/CE,-5.5190371,-38.2719351,1611,9368.45778
D1,Alto Santo/CE,-5.5190371,-38.2719351,25,145.38265
1,Alto Taquari/MT,-17.8269099,-53.2831736,1406,12629.12063
D1,Alto Taquari/MT,-17.8269099,-53.2831736,26,233.53993
1,Alto do Rodrigues/RN,-5.290868,-36.7616726,1976,13416.62140
D1,Alto do Rodrigues/RN,-5.290868,-36.7616726,33,224.06301
1,Altos/PI,-5.0393915,-42.4611694,4257,10483.93055
D1,Altos/PI,-5.0393915,-42.4611694,87,214.25933
1,Altônia/PR,-23.8722004,-53.894037,994,4482.32323
D1,Altônia/PR,-23.8722004,-53.894037,18,81.16883
1,Alumínio/SP,-23.5203479,-47.2575256,1318,7022.96584
D1,Alumínio/SP,-23.5203479,-47.2575256,39,207.81158
1,Alvarenga/MG,-19.4175,-41.728334,431,11212.27888
D1,Alvarenga/MG,-19.4175,-41.728334,4,104.05827
1,Alvarães/AM,-3.214786,-64.8143124,2827,17429.09988
D1,Alvarães/AM,-3.214786,-64.8143124,44,271.27004
1,Alvinlândia/SP,-22.4431852,-49.7643596,133,4108.74266
D1,Alvinlândia/SP,-22.4431852,-49.7643596,7,216.24961
1,Alvinópolis/MG,-20.1105199,-43.0601805,623,4107.06045
D1,Alvinópolis/MG,-20.1105199,-43.0601805,20,131.84785
1,Alvorada D'Oeste/RO,-11.346271,-62.284697,1065,7549.97873
D1,Alvorada D'Oeste/RO,-11.346271,-62.284697,28,198.49709
1,Alvorada de Minas/MG,-18.7318587,-43.3641479,242,6712.89875
D1,Alvorada de Minas/MG,-18.7318587,-43.3641479,2,55.47850
1,Alvorada do Gurguéia/PI,-8.4465288,-43.8655915,352,6464.64646
D1,Alvorada do Gurguéia/PI,-8.4465288,-43.8655915,9,165.28926
1,Alvorada do Norte/GO,-14.483911,-46.4959897,683,7846.06548
D1,Alvorada do Norte/GO,-14.483911,-46.4959897,4,45.95060
1,Alvorada do Sul/PR,-22.7807269,-51.2307721,688,5981.04842
D1,Alvorada do Sul/PR,-22.7807269,-51.2307721,23,199.94784
1,Alvorada/RS,-29.9981184,-51.0772509,19642,9293.50089
D1,Alvorada/RS,-29.9981184,-51.0772509,699,330.72789
1,Alvorada/TO,-12.478465,-49.124926,1068,12720.34302
D1,Alvorada/TO,-12.478465,-49.124926,20,238.20867
1,Além Paraíba/MG,-21.8760576,-42.6810473,3000,8474.33688
D1,Além Paraíba/MG,-21.8760576,-42.6810473,138,389.81950
1,Amajari/RR,3.6523869,-61.4194315,1000,7584.37619
D1,Amajari/RR,3.6523869,-61.4194315,20,151.68752
1,Amambai/MS,-23.1082701,-55.2284854,2822,7085.82333
D1,Amambai/MS,-23.1082701,-55.2284854,66,165.72089
1,Amaporã/PR,-23.094272,-52.786597,299,4722.04675
D1,Amaporã/PR,-23.094272,-52.786597,6,94.75679
1,Amapá do Maranhão/MA,-1.6762114,-46.0109669,172,2455.38901
D1,Amapá do Maranhão/MA,-1.6762114,-46.0109669,4,57.10207
1,Amapá/AP,2.0529997,-50.7930003,1290,14041.58049
D1,Amapá/AP,2.0529997,-50.7930003,10,108.84946
1,Amaraji/PE,-8.373925,-35.4536527,530,2317.44644
D1,Amaraji/PE,-8.373925,-35.4536527,32,139.92129
1,Amaral Ferrador/RS,-30.8750633,-52.2542051,285,4022.58292
D1,Amaral Ferrador/RS,-30.8750633,-52.2542051,7,98.80028
1,Amaralina/GO,-13.9236199,-49.2962411,72,1872.56177
1,Amarante do Maranhão/MA,-5.56913,-46.747284,1575,3774.35357
D1,Amarante do Maranhão/MA,-5.56913,-46.747284,55,131.80282
1,Amarante/PI,-6.2459374,-42.8476238,1475,8378.77755
D1,Amarante/PI,-6.2459374,-42.8476238,32,181.77687
1,Amargosa/BA,-13.03793715,-39.60796443875596,2532,6762.63989
D1,Amargosa/BA,-13.03793715,-39.60796443875596,47,125.53084
1,Amaturá/AM,-3.3640509,-68.1994689,2352,20040.89980
D1,Amaturá/AM,-3.3640509,-68.1994689,17,144.85344
1,Americana/SP,-22.7392463,-47.3306032,19329,7986.59604
D1,Americana/SP,-22.7392463,-47.3306032,591,244.19671
1,Americano do Brasil/GO,-16.2515808,-49.9806104,579,9393.25114
D1,Americano do Brasil/GO,-16.2515808,-49.9806104,19,308.24140
1,Ametista do Sul/RS,-27.3617341,-53.1826575,677,9144.94124
D1,Ametista do Sul/RS,-27.3617341,-53.1826575,16,216.12860
1,Amontada/CE,-3.3634586,-39.8284791,2725,6217.34468
D1,Amontada/CE,-3.3634586,-39.8284791,51,116.36131
1,Amorinópolis/GO,-16.6211308,-51.0949921,208,6777.45194
D1,Amorinópolis/GO,-16.6211308,-51.0949921,3,97.75171
1,Amparo de São Francisco/SE,-10.1299754,-36.9269099,215,9033.61345
D1,Amparo de São Francisco/SE,-10.1299754,-36.9269099,3,126.05042
1,Amparo do Serra/MG,-20.5070255,-42.8028462,143,3056.86191
D1,Amparo do Serra/MG,-20.5070255,-42.8028462,7,149.63660
1,Amparo/PB,-7.56394725,-37.04652873235175,161,7152.37672
D1,Amparo/PB,-7.56394725,-37.04652873235175,4,177.69880
1,Amparo/SP,-22.70111,-46.76444,5560,7650.28826
D1,Amparo/SP,-22.70111,-46.76444,129,177.49770
1,Ampére/PR,-25.9168712,-53.4742414,1536,7954.01585
D1,Ampére/PR,-25.9168712,-53.4742414,33,170.88706
1,Amélia Rodrigues/BA,-12.4015388,-38.7516971,2113,8435.80326
D1,Amélia Rodrigues/BA,-12.4015388,-38.7516971,39,155.70105
1,América Dourada/BA,-11.4515262,-41.4357517,843,5239.27906
D1,América Dourada/BA,-11.4515262,-41.4357517,9,55.93536
1,Américo Brasiliense/SP,-21.7297099,-48.1052092,3555,8663.96958
D1,Américo Brasiliense/SP,-21.7297099,-48.1052092,83,202.28115
1,Américo de Campos/SP,-20.298476,-49.735904,813,13593.04464
D1,Américo de Campos/SP,-20.298476,-49.735904,24,401.27069
1,Anadia/AL,-9.6830208,-36.3052699,1307,7457.49173
D1,Anadia/AL,-9.6830208,-36.3052699,29,165.46845
1,Anagé/BA,-14.6134669,-41.1376308,849,3929.28218
D1,Anagé/BA,-14.6134669,-41.1376308,19,87.93447
1,Anahy/PR,-24.6450861,-53.1337957,337,12087.51793
D1,Anahy/PR,-24.6450861,-53.1337957,8,286.94405
1,Anajatuba/MA,-3.26441,-44.6179916,885,3279.23522
D1,Anajatuba/MA,-3.26441,-44.6179916,23,85.22306
1,Anajás/PA,-0.9878802,-49.9390114,1339,4510.23983
D1,Anajás/PA,-0.9878802,-49.9390114,22,74.10402
1,Analândia/SP,-22.128917,-47.661939,302,5973.10127
D1,Analândia/SP,-22.128917,-47.661939,4,79.11392
1,Anamã/AM,-3.5797356,-61.4049996,1763,12632.55947
D1,Anamã/AM,-3.5797356,-61.4049996,9,64.48839
1,Ananindeua/PA,-1.374035,-48.4016623,23045,4303.07704
D1,Ananindeua/PA,-1.374035,-48.4016623,795,148.44635
1,Ananás/TO,-6.3663053,-48.080238,1524,16055.62579
D1,Ananás/TO,-6.3663053,-48.080238,22,231.77413
1,Anapu/PA,-3.4668292,-51.2057035,1473,5149.08938
D1,Anapu/PA,-3.4668292,-51.2057035,36,125.84333
1,Anapurus/MA,-3.6751298,-43.1046001,829,5215.80471
D1,Anapurus/MA,-3.6751298,-43.1046001,12,75.50019
1,Anastácio/MS,-20.4832458,-55.8048448,2174,8614.33609
D1,Anastácio/MS,-20.4832458,-55.8048448,63,249.63347
1,Anaurilândia/MS,-22.185169,-52.719056,469,5167.47466
D1,Anaurilândia/MS,-22.185169,-52.719056,13,143.23491
1,Anchieta/ES,-20.8057672,-40.6454564,4586,15400.11417
D1,Anchieta/ES,-20.8057672,-40.6454564,84,282.07797
1,Anchieta/SC,-26.5350527,-53.3293938,615,11067.12255
D1,Anchieta/SC,-26.5350527,-53.3293938,8,143.96257
1,Andaraí/BA,-12.8059674,-41.3322919,772,5878.76942
D1,Andaraí/BA,-12.8059674,-41.3322919,7,53.30490
1,Andirá/PR,-23.0494761,-50.2310027,1873,9399.77918
D1,Andirá/PR,-23.0494761,-50.2310027,70,351.29981
1,Andorinha/BA,-10.3445708,-39.8334411,789,5440.25374
D1,Andorinha/BA,-10.3445708,-39.8334411,14,96.53175
1,Andradas/MG,-22.0680484,-46.5688976,3307,7988.69456
D1,Andradas/MG,-22.0680484,-46.5688976,101,243.98493
1,Andradina/SP,-20.896505,-51.3742765,5561,9721.68805
D1,Andradina/SP,-20.896505,-51.3742765,232,405.58022
1,Andrelândia/MG,-21.739722,-44.308889,206,1687.69458
D1,Andrelândia/MG,-21.739722,-44.308889,9,73.73423
1,André da Rocha/RS,-28.6309124,-51.5733328,110,8190.61802
1,Angatuba/SP,-23.4938938,-48.4110675,2396,9403.82276
D1,Angatuba/SP,-23.4938938,-48.4110675,58,227.63845
1,Angelim/PE,-8.8902038,-36.2872987,202,1799.39426
D1,Angelim/PE,-8.8902038,-36.2872987,7,62.35525
1,Angelina/SC,-27.5805287,-48.9838759,502,10584.01855
D1,Angelina/SC,-27.5805287,-48.9838759,1,21.08370
1,Angelândia/MG,-17.7253,-42.2728,94,1098.51583
D1,Angelândia/MG,-17.7253,-42.2728,1,11.68634
1,Angical do Piauí/PI,-6.0872666,-42.7366138,751,11071.79714
D1,Angical do Piauí/PI,-6.0872666,-42.7366138,10,147.42739
1,Angical/BA,-12.005623,-44.7000236,594,4261.73052
D1,Angical/BA,-12.005623,-44.7000236,12,86.09557
1,Angico/TO,-6.3893733,-47.8656722,232,6716.85003
D1,Angico/TO,-6.3893733,-47.8656722,3,86.85582
1,Angicos/RN,-5.6666344,-36.6009064,818,6988.46647
D1,Angicos/RN,-5.6666344,-36.6009064,21,179.41051
1,Angra dos Reis/RJ,-23.0063966,-44.316326,13251,6400.08887
D1,Angra dos Reis/RJ,-23.0063966,-44.316326,453,218.79407
1,Anguera/BA,-12.1509425,-39.2452469,414,3664.68974
D1,Anguera/BA,-12.1509425,-39.2452469,1,8.85191
1,Angélica/MS,-22.1588196,-53.7728504,1114,10190.26711
D1,Angélica/MS,-22.1588196,-53.7728504,19,173.80168
1,Anhanguera/GO,-18.3338749,-48.220363,88,7586.20690
D1,Anhanguera/GO,-18.3338749,-48.220363,6,517.24138
1,Anhembi/SP,-22.7891096,-48.1316776,239,3504.91274
D1,Anhembi/SP,-22.7891096,-48.1316776,5,73.32453
1,Anhumas/SP,-22.2956478,-51.3873401,203,4898.64865
D1,Anhumas/SP,-22.2956478,-51.3873401,4,96.52510
1,Anicuns/GO,-16.4606451,-49.9572265,2537,11541.78609
D1,Anicuns/GO,-16.4606451,-49.9572265,58,263.86425
1,Anita Garibaldi/SC,-27.6855032,-51.1293873,1131,16257.00733
D1,Anita Garibaldi/SC,-27.6855032,-51.1293873,10,143.74012
1,Anitápolis/SC,-27.9041185,-49.1287395,315,9758.36431
D1,Anitápolis/SC,-27.9041185,-49.1287395,4,123.91574
1,Anori/AM,-3.7435254,-61.6605203,1880,8753.55031
D1,Anori/AM,-3.7435254,-61.6605203,31,144.34046
1,Anta Gorda/RS,-28.9718745,-52.0069187,580,9729.91109
D1,Anta Gorda/RS,-28.9718745,-52.0069187,4,67.10284
1,Antas/BA,-10.4114649,-38.3308815,1206,6191.28292
D1,Antas/BA,-10.4114649,-38.3308815,10,51.33734
1,Antonina do Norte/CE,-6.7754187,-39.9879345,653,8850.63703
D1,Antonina do Norte/CE,-6.7754187,-39.9879345,24,325.29141
1,Antonina/PR,-25.4298854,-48.7125431,2378,12549.47491
D1,Antonina/PR,-25.4298854,-48.7125431,61,321.91672
1,Antônio Almeida/PI,-7.2186016,-44.1950248,405,12776.02524
D1,Antônio Almeida/PI,-7.2186016,-44.1950248,10,315.45741
1,Antônio Cardoso/BA,-12.4363122,-39.1200307,428,3665.32500
D1,Antônio Cardoso/BA,-12.4363122,-39.1200307,9,77.07459
1,Antônio Carlos/MG,-21.318334,-43.746666,620,5410.59429
D1,Antônio Carlos/MG,-21.318334,-43.746666,13,113.44794
1,Antônio Carlos/SC,-27.5168462,-48.7684715,1504,17461.97608
D1,Antônio Carlos/SC,-27.5168462,-48.7684715,23,267.03820
1,Antônio Dias/MG,-19.6525,-42.872778,559,6026.95418
D1,Antônio Dias/MG,-19.6525,-42.872778,22,237.19677
1,Antônio Gonçalves/BA,-10.5715409,-40.2748824,797,6709.88382
D1,Antônio Gonçalves/BA,-10.5715409,-40.2748824,8,67.35141
1,Antônio João/MS,-22.1892837,-55.9508227,453,5022.17295
D1,Antônio João/MS,-22.1892837,-55.9508227,11,121.95122
1,Antônio Martins/RN,-6.2155812,-37.8890129,626,8750.34945
D1,Antônio Martins/RN,-6.2155812,-37.8890129,6,83.86916
1,Antônio Olinto/PR,-25.9849006,-50.1974516,369,4968.35869
D1,Antônio Olinto/PR,-25.9849006,-50.1974516,8,107.71509
1,Antônio Prado de Minas/MG,-21.0171988,-42.1101106,158,9955.89162
D1,Antônio Prado de Minas/MG,-21.0171988,-42.1101106,5,315.05986
1,Antônio Prado/RS,-28.8567806,-51.2801355,2452,18796.47374
D1,Antônio Prado/RS,-28.8567806,-51.2801355,28,214.64163
1,Anápolis/GO,-16.3332828,-48.9525756,37459,9561.42859
D1,Anápolis/GO,-16.3332828,-48.9525756,1313,335.14391
1,Anísio de Abreu/PI,-9.185643,-43.04941,286,2877.84262
D1,Anísio de Abreu/PI,-9.185643,-43.04941,10,100.62387
1,Aparecida d'Oeste/SP,-20.4498109,-50.8808706,701,16859.06686
D1,Aparecida d'Oeste/SP,-20.4498109,-50.8808706,12,288.60029
1,Aparecida de Goiânia/GO,-16.8226769,-49.2452546,66158,11210.44623
D1,Aparecida de Goiânia/GO,-16.8226769,-49.2452546,1324,224.35126
1,Aparecida do Rio Doce/GO,-18.2980167,-51.1491312,213,8609.53921
D1,Aparecida do Rio Doce/GO,-18.2980167,-51.1491312,3,121.26112
1,Aparecida do Rio Negro/TO,-9.9513491,-47.9773786,327,6745.04950
D1,Aparecida do Rio Negro/TO,-9.9513491,-47.9773786,6,123.76238
1,Aparecida do Taboado/MS,-20.0840304,-51.1013943,3240,12428.55499
D1,Aparecida do Taboado/MS,-20.0840304,-51.1013943,47,180.29077
1,Aparecida/PB,-6.7859598, -38.0831353,861,10230.51331
D1,Aparecida/PB,-6.7859598, -38.0831353,13,154.46768
1,Aparecida/SP,-22.851552,-45.2340924,2183,6032.88656
D1,Aparecida/SP,-22.851552,-45.2340924,84,232.14039
1,Aperibé/RJ,-21.6211928,-42.1028167,548,4604.65507
D1,Aperibé/RJ,-21.6211928,-42.1028167,24,201.66373
1,Apiacá/ES,-21.152272,-41.569297,764,10113.84697
D1,Apiacá/ES,-21.152272,-41.569297,31,410.37861
1,Apiacás/MT,-9.5678422,-57.394852,1637,15919.47875
D1,Apiacás/MT,-9.5678422,-57.394852,15,145.87183
1,Apiaí/SP,-24.5076527,-48.8461582,1202,4961.61149
D1,Apiaí/SP,-24.5076527,-48.8461582,66,272.43457
1,Apicum-Açu/MA,-1.5279295,-45.082278,499,2865.67507
D1,Apicum-Açu/MA,-1.5279295,-45.082278,5,28.71418
1,Apiúna/SC,-27.0374658,-49.3885037,801,7383.84956
D1,Apiúna/SC,-27.0374658,-49.3885037,15,138.27434
1,Apodi/RN,-5.6631109,-37.796927,5684,15844.34409
D1,Apodi/RN,-5.6631109,-37.796927,93,259.24068
1,Aporá/BA,-11.6599747,-38.0794757,488,2743.42253
D1,Aporá/BA,-11.6599747,-38.0794757,18,101.19181
1,Aporé/GO,-18.9642193,-51.92804,363,8577.50473
D1,Aporé/GO,-18.9642193,-51.92804,10,236.29490
1,Apuarema/BA,-13.8517897,-39.7457126,663,9079.70419
D1,Apuarema/BA,-13.8517897,-39.7457126,9,123.25390
1,Apucarana/PR,-23.5525327,-51.4610764,8047,5906.74868
D1,Apucarana/PR,-23.5525327,-51.4610764,309,226.81563
1,Apuiarés/CE,-3.9460303,-39.4313298,1081,7367.77535
D1,Apuiarés/CE,-3.9460303,-39.4313298,23,156.76118
1,Apuí/AM,-7.1940195,-59.8830192,1358,6073.61689
D1,Apuí/AM,-7.1940195,-59.8830192,30,134.17416
1,Aquidabã/SE,-10.2837579,-37.0188687,2110,9732.02343
D1,Aquidabã/SE,-10.2837579,-37.0188687,35,161.43167
1,Aquidauana/MS,-20.473969,-55.7821375,4748,9885.69406
D1,Aquidauana/MS,-20.473969,-55.7821375,130,270.66980
1,Aquiraz/CE,-3.9063117,-38.387504,6149,7597.45475
D1,Aquiraz/CE,-3.9063117,-38.387504,82,101.31587
1,Arabutã/SC,-27.1587028,-52.1438142,393,9210.21795
D1,Arabutã/SC,-27.1587028,-52.1438142,7,164.04968
1,Aracaju/SE,-10.9162061,-37.0774655,115234,17330.81870
D1,Aracaju/SE,-10.9162061,-37.0774655,2167,325.90975
1,Aracati/CE,-4.558259,-37.767894,6941,9257.75258
D1,Aracati/CE,-4.558259,-37.767894,139,185.39513
1,Aracatu/BA,-14.4274236,-41.4604105,796,6101.95477
D1,Aracatu/BA,-14.4274236,-41.4604105,14,107.32081
1,Araci/BA,-11.3356065,-38.9573261,3383,6190.52847
D1,Araci/BA,-11.3356065,-38.9573261,46,84.17508
1,Aracitaba/MG,-21.3425,-43.378611,78,3788.24672
D1,Aracitaba/MG,-21.3425,-43.378611,8,388.53813
1,Aracoiaba/CE,-4.3702577,-38.8084313,3756,14154.88977
D1,Aracoiaba/CE,-4.3702577,-38.8084313,29,109.28962
1,Aracruz/ES,-19.8245218,-40.2735025,15110,14655.53195
D1,Aracruz/ES,-19.8245218,-40.2735025,213,206.59353
1,Aragarças/GO,-15.8957166,-52.2514538,2222,10960.39067
D1,Aragarças/GO,-15.8957166,-52.2514538,52,256.49879
1,Aragoiânia/GO,-16.9146388,-49.4499148,989,9422.63720
D1,Aragoiânia/GO,-16.9146388,-49.4499148,20,190.54878
1,Aragominas/TO,-7.1654101,-48.525488,513,8951.31740
D1,Aragominas/TO,-7.1654101,-48.525488,9,157.04066
1,Araguacema/TO,-8.8067391,-49.5560969,580,8106.21943
D1,Araguacema/TO,-8.8067391,-49.5560969,11,153.73864
1,Araguaiana/MT,-15.729144,-51.834112,261,8394.98231
D1,Araguaiana/MT,-15.729144,-51.834112,5,160.82342
1,Araguainha/MT,-16.857016,-53.031778,25,2642.70613
1,Araguanã/MA,-2.9508403,-45.6651986,800,5144.36371
D1,Araguanã/MA,-2.9508403,-45.6651986,5,32.15227
1,Araguanã/TO,-6.5799107,-48.6428482,527,9097.18626
D1,Araguanã/TO,-6.5799107,-48.6428482,13,224.40877
1,Araguapaz/GO,-15.0937927,-50.626417,523,6719.77387
D1,Araguapaz/GO,-15.0937927,-50.626417,20,256.97032
1,Araguari/MG,-18.6511256,-48.1933764,14477,12286.86612
D1,Araguari/MG,-18.6511256,-48.1933764,375,318.26862
1,Araguatins/TO,-5.6522925,-48.1158973,2217,6129.38900
D1,Araguatins/TO,-5.6522925,-48.1158973,55,152.05972
1,Araguaçu/TO,-12.928934,-49.823134,809,9554.74194
D1,Araguaçu/TO,-12.928934,-49.823134,18,212.59006
1,Araguaína/TO,-7.193241,-48.2018597,31969,17433.10376
D1,Araguaína/TO,-7.193241,-48.2018597,420,229.03136
1,Araioses/MA,-2.890914,-41.904993,651,1391.88814
D1,Araioses/MA,-2.890914,-41.904993,13,27.79500
1,Aral Moreira/MS,-22.951141,-55.6268421,494,4005.83847
D1,Aral Moreira/MS,-22.951141,-55.6268421,9,72.98086
1,Aramari/BA,-12.0907897,-38.4985065,567,4947.21229
D1,Aramari/BA,-12.0907897,-38.4985065,12,104.70291
1,Arambaré/RS,-30.9132252,-51.4994625,175,4912.97024
D1,Arambaré/RS,-30.9132252,-51.4994625,8,224.59293
1,Arame/MA,-4.8858769,-46.0102484,1233,3763.27677
D1,Arame/MA,-4.8858769,-46.0102484,36,109.87669
1,Aramina/SP,-20.0876144,-47.789201,282,4986.73740
D1,Aramina/SP,-20.0876144,-47.789201,11,194.51813
1,Arandu/SP,-23.1345103,-49.0545651,420,6598.58602
D1,Arandu/SP,-23.1345103,-49.0545651,11,172.82011
1,Arantina/MG,-21.911667,-44.255833,156,5597.41658
D1,Arantina/MG,-21.911667,-44.255833,3,107.64263
1,Arapeí/SP,-22.6738889,-44.4477778,195,7926.82927
D1,Arapeí/SP,-22.6738889,-44.4477778,3,121.95122
1,Arapiraca/AL,-9.754866,-36.661471,25864,11098.19049
D1,Arapiraca/AL,-9.754866,-36.661471,412,176.78837
1,Arapoema/TO,-7.6575001,-49.0641484,466,7043.53083
D1,Arapoema/TO,-7.6575001,-49.0641484,10,151.14873
1,Araponga/MG,-20.666667,-42.520556,406,4803.02851
D1,Araponga/MG,-20.666667,-42.520556,6,70.98072
1,Arapongas/PR,-23.415296,-51.42592,11284,9040.94223
D1,Arapongas/PR,-23.415296,-51.42592,441,353.33707
1,Araporã/MG,-18.4318188,-49.188313,1781,25696.14774
D1,Araporã/MG,-18.4318188,-49.188313,26,375.12624
1,Arapoti/PR,-24.1457957,-49.8224605,2668,9427.56184
D1,Arapoti/PR,-24.1457957,-49.8224605,51,180.21201
1,Araputanga/MT,-15.4710868,-58.346796,1883,11108.48917
D1,Araputanga/MT,-15.4710868,-58.346796,52,306.76656
1,Arapuá/MG,-19.034444,-46.155556,238,8395.06173
D1,Arapuá/MG,-19.034444,-46.155556,2,70.54674
1,Arapuã/PR,-24.3079525,-51.7901941,190,6314.39016
D1,Arapuã/PR,-24.3079525,-51.7901941,5,166.16816
1,Araquari/SC,-26.3703324,-48.7210994,3415,8640.31981
D1,Araquari/SC,-26.3703324,-48.7210994,73,184.69791
1,Arara/PB,-6.8271895,-35.7605703,927,6845.36996
D1,Arara/PB,-6.8271895,-35.7605703,23,169.84197
1,Araranguá/SC,-28.9348832,-49.4858389,9712,14102.54549
D1,Araranguá/SC,-28.9348832,-49.4858389,222,322.36049
1,Araraquara/SP,-21.7886713,-48.1773096,19208,8059.10908
D1,Araraquara/SP,-21.7886713,-48.1773096,415,174.12173
1,Araras/SP,-22.3569477,-47.3838889,14678,10831.99268
D1,Araras/SP,-22.3569477,-47.3838889,328,242.05570
1,Ararendá/CE,-4.7504395,-40.8303611,1109,10119.53645
D1,Ararendá/CE,-4.7504395,-40.8303611,17,155.12364
1,Arari/MA,-3.4547602,-44.7772723,681,2275.15702
D1,Arari/MA,-3.4547602,-44.7772723,30,100.22718
1,Araricá/RS,-29.6168543,-50.929121,974,16877.49090
D1,Araricá/RS,-29.6168543,-50.929121,24,415.87247
1,Araripe/CE,-7.212861,-40.1359222,1133,5232.28965
D1,Araripe/CE,-7.212861,-40.1359222,13,60.03510
1,Araripina/PE,-7.5768582,-40.5038509,6288,7409.50226
D1,Araripina/PE,-7.5768582,-40.5038509,133,156.72134
1,Araruama/RJ,-22.8733203,-42.3428897,5649,4206.47390
D1,Araruama/RJ,-22.8733203,-42.3428897,355,264.34736
1,Araruna/PB,-6.5321155,-35.7397595,612,2990.76382
D1,Araruna/PB,-6.5321155,-35.7397595,16,78.18990
1,Araruna/PR,-23.9320308,-52.4976047,1519,10850.00000
D1,Araruna/PR,-23.9320308,-52.4976047,23,164.28571
1,Arataca/BA,-15.2617424,-39.4122943,706,6441.01816
D1,Arataca/BA,-15.2617424,-39.4122943,15,136.84883
1,Aratiba/RS,-27.3955734,-52.3024325,363,5865.24479
D1,Aratiba/RS,-27.3955734,-52.3024325,6,96.94619
1,Aratuba/CE,-4.4195958,-39.0463737,1262,10693.10286
D1,Aratuba/CE,-4.4195958,-39.0463737,8,67.78512
1,Aratuípe/BA,-13.077137,-39.0010786,366,4141.67704
D1,Aratuípe/BA,-13.077137,-39.0010786,9,101.84452
1,Araucária/PR,-25.5861107,-49.4051209,22946,15693.43565
D1,Araucária/PR,-25.5861107,-49.4051209,360,246.21445
1,Arauá/SE,-11.2644014,-37.6181058,1164,11702.02071
D1,Arauá/SE,-11.2644014,-37.6181058,19,191.01237
1,Araxá/MG,-19.5928536,-46.940241,11977,11158.31447
D1,Araxá/MG,-19.5928536,-46.940241,187,174.21765
1,Araçagi/PB,-6.8519969,-35.3835602,1211,7156.78742
D1,Araçagi/PB,-6.8519969,-35.3835602,15,88.64724
1,Araçariguama/SP,-23.438611,-47.061389,1529,6688.53893
D1,Araçariguama/SP,-23.438611,-47.061389,53,231.84602
1,Araçatuba/SP,-21.207992,-50.4390225,23867,12046.19213
D1,Araçatuba/SP,-21.207992,-50.4390225,713,359.86655
1,Araçaí/MG,-19.200833,-44.2475,70,2973.66185
D1,Araçaí/MG,-19.200833,-44.2475,1,42.48088
1,Araçoiaba da Serra/SP,-23.5045367,-47.6168158,2283,6564.87233
D1,Araçoiaba da Serra/SP,-23.5045367,-47.6168158,53,152.40396
1,Araçoiaba/PE,-7.7856903,-35.0898881,608,2932.52303
D1,Araçoiaba/PE,-7.7856903,-35.0898881,29,139.87363
1,Araçu/GO,-16.3561579,-49.6815269,397,11388.41079
D1,Araçu/GO,-16.3561579,-49.6815269,16,458.97877
1,Araçuaí/MG,-16.8484451,-42.0661868,1524,4151.23121
D1,Araçuaí/MG,-16.8484451,-42.0661868,38,103.50839
1,Araçás/BA,-12.2139176,-38.2026159,605,4955.76671
D1,Araçás/BA,-12.2139176,-38.2026159,9,73.72215
1,Araújos/MG,-19.948055,-45.165556,706,7509.83938
D1,Araújos/MG,-19.948055,-45.165556,9,95.73450
1,Arceburgo/MG,-21.364444,-46.939722,970,8912.98355
D1,Arceburgo/MG,-21.364444,-46.939722,25,229.71607
1,Arco-Íris/SP,-21.7741308,-50.4668814,124,6993.79583
D1,Arco-Íris/SP,-21.7741308,-50.4668814,6,338.40948
1,Arcos/MG,-20.282223,-45.539444,4684,11599.80188
D1,Arcos/MG,-20.282223,-45.539444,108,267.45914
1,Arcoverde/PE,-8.415192,-37.057748,5379,7189.06204
D1,Arcoverde/PE,-8.415192,-37.057748,121,161.71714
1,Areado/MG,-21.3582771,-46.1476688,793,5223.63481
D1,Areado/MG,-21.3582771,-46.1476688,18,118.56926
1,Areal/RJ,-22.2314922,-43.1056264,1153,9100.95509
D1,Areal/RJ,-22.2314922,-43.1056264,41,323.62460
1,Arealva/SP,-22.0301906,-48.9111936,795,9230.23337
D1,Arealva/SP,-22.0301906,-48.9111936,13,150.93463
1,Areia Branca/RN,-4.9506652,-37.1263312,2302,8231.12955
D1,Areia Branca/RN,-4.9506652,-37.1263312,90,321.80784
1,Areia Branca/SE,-10.7591455,-37.3148072,1848,9889.75704
D1,Areia Branca/SE,-10.7591455,-37.3148072,43,230.11881
1,Areia de Baraúnas/PB,-7.1233949,-36.9446216,136,6427.22117
D1,Areia de Baraúnas/PB,-7.1233949,-36.9446216,3,141.77694
1,Areia/PB,-6.9680243,-35.6994783,1214,5358.40395
D1,Areia/PB,-6.9680243,-35.6994783,23,101.51836
1,Areial/PB,-7.0501306,-35.9245244,302,4297.70884
D1,Areial/PB,-7.0501306,-35.9245244,9,128.07742
1,Areias/SP,-22.5800929,-44.6975127,262,6724.84600
D1,Areias/SP,-22.5800929,-44.6975127,1,25.66735
1,Areiópolis/SP,-22.6758064,-48.6673653,1096,9822.54884
D1,Areiópolis/SP,-22.6758064,-48.6673653,15,134.43269
1,Arenápolis/MT,-14.4610369,-56.8432806,1664,17512.10272
D1,Arenápolis/MT,-14.4610369,-56.8432806,28,294.67481
1,Arenópolis/GO,-16.3859286,-51.55937,191,7531.54574
D1,Arenópolis/GO,-16.3859286,-51.55937,8,315.45741
1,Argirita/MG,-21.612761,-42.8371922,252,9319.52663
D1,Argirita/MG,-21.612761,-42.8371922,5,184.91124
1,Aricanduva/MG,-17.8678,-42.5569,83,1575.25147
1,Arinos/MG,-15.917223,-46.106111,628,3515.84369
D1,Arinos/MG,-15.917223,-46.106111,19,106.37107
1,Aripuanã/MT,-10.175806,-59.4439663,2584,11376.24373
D1,Aripuanã/MT,-10.175806,-59.4439663,42,184.90799
1,Ariquemes/RO,-9.9076522,-63.033069,20582,18792.39977
D1,Ariquemes/RO,-9.9076522,-63.033069,450,410.87260
1,Ariranha do Ivaí/PR,-24.3834527,-51.5876772,160,7744.43369
D1,Ariranha do Ivaí/PR,-24.3834527,-51.5876772,3,145.20813
1,Ariranha/SP,-21.18716,-48.790418,514,5265.85391
D1,Ariranha/SP,-21.18716,-48.790418,18,184.40734
1,Armazém/SC,-28.2624996,-49.0190126,1367,15606.80443
D1,Armazém/SC,-28.2624996,-49.0190126,30,342.50485
1,Armação dos Búzios/RJ,-22.7597805,-41.8875267,4241,12300.95426
D1,Armação dos Búzios/RJ,-22.7597805,-41.8875267,55,159.52664
1,Arneiroz/CE,-6.3235099,-40.1603859,581,7406.93524
D1,Arneiroz/CE,-6.3235099,-40.1603859,16,203.97756
1,Aroazes/PI,-6.1108814,-41.7886137,573,9833.53355
D1,Aroazes/PI,-6.1108814,-41.7886137,12,205.93788
1,Aroeiras do Itaim/PI,-7.2797031,-41.5629681,113,4429.63544
D1,Aroeiras do Itaim/PI,-7.2797031,-41.5629681,2,78.40063
1,Aroeiras/PB,-7.5462904,-35.7080002,1390,7271.39569
D1,Aroeiras/PB,-7.5462904,-35.7080002,8,41.84976
1,Arraial do Cabo/RJ,-22.9662839,-42.024427,689,2252.14918
D1,Arraial do Cabo/RJ,-22.9662839,-42.024427,34,111.13653
1,Arraial/PI,-6.6541632,-42.5335332,152,3220.33898
D1,Arraial/PI,-6.6541632,-42.5335332,3,63.55932
1,Arraias/TO,-12.9287788,-46.9437231,692,6569.20448
D1,Arraias/TO,-12.9287788,-46.9437231,7,66.45149
1,Arroio Grande/RS,-32.2384246,-53.0866661,1732,9496.65534
D1,Arroio Grande/RS,-32.2384246,-53.0866661,51,279.63592
1,Arroio Trinta/SC,-26.9301976,-51.334928,569,16032.68526
D1,Arroio Trinta/SC,-26.9301976,-51.334928,13,366.30037
1,Arroio do Meio/RS,-29.4020392,-51.9444993,2944,14041.11222
D1,Arroio do Meio/RS,-29.4020392,-51.9444993,42,200.31478
1,Arroio do Padre/RS,-31.4428773,-52.4228985,176,5964.07997
D1,Arroio do Padre/RS,-31.4428773,-52.4228985,3,101.66045
1,Arroio do Sal/RS,-29.549852,-49.8874395,1056,10273.37290
D1,Arroio do Sal/RS,-29.549852,-49.8874395,33,321.04290
1,Arroio do Tigre/RS,-29.334158,-53.0888935,1075,8014.61269
D1,Arroio do Tigre/RS,-29.334158,-53.0888935,19,141.65362
1,Arroio dos Ratos/RS,-30.0894524,-51.7265541,907,6397.68639
D1,Arroio dos Ratos/RS,-30.0894524,-51.7265541,31,218.66403
1,Artur Nogueira/SP,-22.572737,-47.172679,4052,7322.00940
D1,Artur Nogueira/SP,-22.572737,-47.172679,111,200.57824
1,Aruanã/GO,-14.9162439,-51.0715692,510,5044.51039
D1,Aruanã/GO,-14.9162439,-51.0715692,13,128.58556
1,Arujá/SP,-23.396266,-46.3175449,6849,7513.41093
D1,Arujá/SP,-23.396266,-46.3175449,267,292.90126
1,Arvoredo/SC,-27.0752908,-52.4571847,291,13025.96240
D1,Arvoredo/SC,-27.0752908,-52.4571847,4,179.05103
1,Arvorezinha/RS,-28.87369,-52.17808,785,7531.42090
D1,Arvorezinha/RS,-28.87369,-52.17808,24,230.26000
1,Arês/RN,-6.1969216,-35.1642968,949,6582.50676
D1,Arês/RN,-6.1969216,-35.1642968,21,145.66137
1,Ascurra/SC,-26.9569975,-49.3767752,1117,14001.00276
D1,Ascurra/SC,-26.9569975,-49.3767752,10,125.34470
1,Aspásia/SP,-20.160028,-50.728046,122,6710.67107
D1,Aspásia/SP,-20.160028,-50.728046,4,220.02200
1,Assaré/CE,-6.8746791,-39.8741385,1817,7739.16006
D1,Assaré/CE,-6.8746791,-39.8741385,36,153.33504
1,Assaí/PR,-23.3736041,-50.8454929,1256,8399.09054
D1,Assaí/PR,-23.3736041,-50.8454929,39,260.79979
1,Assis Brasil/AC,-10.9409203,-69.5672108,1697,22524.55535
D1,Assis Brasil/AC,-10.9409203,-69.5672108,24,318.55588
1,Assis Chateaubriand/PR,-24.4054826,-53.5120468,3848,11541.69166
D1,Assis Chateaubriand/PR,-24.4054826,-53.5120468,85,254.94901
1,Assis/SP,-22.6620892,-50.420623,9767,9294.20385
D1,Assis/SP,-22.6620892,-50.420623,324,308.31597
1,Assunção do Piauí/PI,-5.8610212,-41.0485091,314,3993.38675
D1,Assunção do Piauí/PI,-5.8610212,-41.0485091,8,101.74234
1,Assunção/PB,-7.073396,-36.7274003,365,9059.31993
D1,Assunção/PB,-7.073396,-36.7274003,4,99.28022
1,Astolfo Dutra/MG,-21.3132636,-42.8624102,1286,9011.91310
D1,Astolfo Dutra/MG,-21.3132636,-42.8624102,22,154.16959
1,Astorga/PR,-23.2350184,-51.6647074,2694,10278.91182
D1,Astorga/PR,-23.2350184,-51.6647074,68,259.45286
1,Atalaia do Norte/AM,-4.3658547,-70.1908742,2769,13574.86028
D1,Atalaia do Norte/AM,-4.3658547,-70.1908742,8,39.21953
1,Atalaia/AL,-9.5029595,-36.0219316,1129,2383.61659
D1,Atalaia/AL,-9.5029595,-36.0219316,46,97.11813
1,Atalaia/PR,-23.1513833,-52.0529697,374,9636.69157
D1,Atalaia/PR,-23.1513833,-52.0529697,17,438.03144
1,Atalanta/SC,-27.421916,-49.778863,400,12519.56182
D1,Atalanta/SC,-27.421916,-49.778863,11,344.28795
1,Ataléia/MG,-18.04432,-41.1110524,1057,8337.27717
D1,Ataléia/MG,-18.04432,-41.1110524,8,63.10144
1,Atibaia/SP,-23.1177393,-46.5547861,9915,6881.21148
D1,Atibaia/SP,-23.1177393,-46.5547861,230,159.62467
1,Atilio Vivacqua/ES,-20.9139369,-41.1947519,1438,11879.38868
D1,Atilio Vivacqua/ES,-20.9139369,-41.1947519,27,223.04833
1,Augustinópolis/TO,-5.4662267,-47.8897519,1440,7724.07874
D1,Augustinópolis/TO,-5.4662267,-47.8897519,27,144.82648
1,Augusto Corrêa/PA,-1.0229335,-46.6404029,1982,4265.02550
D1,Augusto Corrêa/PA,-1.0229335,-46.6404029,43,92.53083
1,Augusto Pestana/RS,-28.5148413,-53.9906433,716,10845.19842
D1,Augusto Pestana/RS,-28.5148413,-53.9906433,10,151.46925
1,Augusto de Lima/MG,-18.1092963,-44.2651945,259,5339.10534
D1,Augusto de Lima/MG,-18.1092963,-44.2651945,8,164.91445
1,Aurelino Leal/BA,-14.3167137,-39.3256107,917,8115.76246
D1,Aurelino Leal/BA,-14.3167137,-39.3256107,26,230.10886
1,Auriflama/SP,-20.6840418,-50.5554616,1760,11538.71370
D1,Auriflama/SP,-20.6840418,-50.5554616,65,426.14568
1,Aurilândia/GO,-16.6772599,-50.4641231,187,6115.10791
D1,Aurilândia/GO,-16.6772599,-50.4641231,7,228.90778
1,Aurora do Pará/PA,-2.1323199,-47.558436,1453,4573.06518
D1,Aurora do Pará/PA,-2.1323199,-47.558436,14,44.06257
1,Aurora do Tocantins/TO,-12.71045,-46.407604,183,4837.43061
D1,Aurora do Tocantins/TO,-12.71045,-46.407604,3,79.30214
1,Aurora/CE,-6.9426019,-38.9693765,1525,6196.66802
D1,Aurora/CE,-6.9426019,-38.9693765,35,142.21861
1,Aurora/SC,-27.3166417,-49.6368502,755,13285.23667
D1,Aurora/SC,-27.3166417,-49.6368502,14,246.34876
1,Autazes/AM,-3.5833283,-59.1301518,2856,7088.60759
D1,Autazes/AM,-3.5833283,-59.1301518,94,233.30851
1,Avanhandava/SP,-21.4603331,-49.9465156,799,5765.20672
D1,Avanhandava/SP,-21.4603331,-49.9465156,28,202.03478
1,Avaré/SP,-23.1045215,-48.9259103,8650,9481.32234
D1,Avaré/SP,-23.1045215,-48.9259103,190,208.26026
1,Avaí/SP,-22.1564662,-49.3316395,317,5831.49375
D1,Avaí/SP,-22.1564662,-49.3316395,9,165.56291
1,Aveiro/PA,-3.6049239,-55.3310742,630,3840.52670
D1,Aveiro/PA,-3.6049239,-55.3310742,12,73.15289
1,Avelino Lopes/PI,-10.1346855,-43.9489525,362,3196.18577
D1,Avelino Lopes/PI,-10.1346855,-43.9489525,19,167.75561
1,Avelinópolis/GO,-16.4672409,-49.7578661,268,11124.94811
D1,Avelinópolis/GO,-16.4672409,-49.7578661,12,498.13200
1,Axixá do Tocantins/TO,-5.612747,-47.77007,1015,10370.90017
D1,Axixá do Tocantins/TO,-5.612747,-47.77007,17,173.69981
1,Axixá/MA,-2.8379465,-44.0561053,191,1567.75835
D1,Axixá/MA,-2.8379465,-44.0561053,6,49.24895
1,Açailândia/MA,-4.9514278,-47.4844564,5078,4488.99851
D1,Açailândia/MA,-4.9514278,-47.4844564,196,173.26580
1,Açu/RN,-5.5836157,-36.9139541,5955,10199.71225
D1,Açu/RN,-5.5836157,-36.9139541,134,229.51494
1,Açucena/MG,-19.073056,-42.546666,732,7813.83433
D1,Açucena/MG,-19.073056,-42.546666,27,288.21520
1,Babaçulândia/TO,-7.2034355,-47.761613,741,6947.30921
D1,Babaçulândia/TO,-7.2034355,-47.761613,5,46.87793
1,Bacabal/MA,-4.2318132,-44.781167,4798,4578.68117
D1,Bacabal/MA,-4.2318132,-44.781167,171,163.18351
1,Bacabeira/MA,-2.9775747,-44.3155943,320,1854.85741
D1,Bacabeira/MA,-2.9775747,-44.3155943,6,34.77858
1,Bacuri/MA,-1.728894,-45.1417148,537,2878.73914
D1,Bacuri/MA,-1.728894,-45.1417148,4,21.44312
1,Bacurituba/MA,-2.7082587,-44.7381309,117,2063.49206
D1,Bacurituba/MA,-2.7082587,-44.7381309,1,17.63668
1,Bady Bassitt/SP,-20.9178969,-49.4517911,2924,16463.03699
D1,Bady Bassitt/SP,-20.9178969,-49.4517911,67,377.23101
1,Baependi/MG,-21.959162,-44.8899249,1371,7140.99693
D1,Baependi/MG,-21.959162,-44.8899249,13,67.71186
1,Bagre/PA,-1.8994498,-50.2103844,896,2860.33520
D1,Bagre/PA,-1.8994498,-50.2103844,12,38.30806
1,Bagé/RS,-31.3314264,-54.1062808,9150,7541.10520
D1,Bagé/RS,-31.3314264,-54.1062808,256,210.98611
1,Baianópolis/BA,-12.3067564,-44.5383591,789,5664.44109
D1,Baianópolis/BA,-12.3067564,-44.5383591,10,71.79266
1,Baixa Grande do Ribeiro/PI,-7.862861,-45.2113289,2328,19946.87687
D1,Baixa Grande do Ribeiro/PI,-7.862861,-45.2113289,27,231.34264
1,Baixa Grande/BA,-11.9630941,-40.1657537,682,3335.12641
D1,Baixa Grande/BA,-11.9630941,-40.1657537,11,53.79236
1,Baixio/CE,-6.7303544,-38.7170095,461,7313.97747
D1,Baixio/CE,-6.7303544,-38.7170095,10,158.65461
1,Baixo Guandu/ES,-19.5138322,-41.0182089,3344,10741.35937
D1,Baixo Guandu/ES,-19.5138322,-41.0182089,70,224.84903
1,Baião/PA,-2.7903479,-49.6702845,734,1514.68252
D1,Baião/PA,-2.7903479,-49.6702845,34,70.16241
1,Balbinos/SP,-21.9006253,-49.3583966,328,5527.46882
D1,Balbinos/SP,-21.9006253,-49.3583966,4,67.40816
1,Baldim/MG,-19.2913568,-43.9558262,593,7599.64116
D1,Baldim/MG,-19.2913568,-43.9558262,17,217.86492
1,Baliza/GO,-16.1978119,-52.542789,265,5018.93939
D1,Baliza/GO,-16.1978119,-52.542789,6,113.63636
1,Balneário Arroio do Silva/SC,-28.9815269,-49.4189932,1949,14512.28593
D1,Balneário Arroio do Silva/SC,-28.9815269,-49.4189932,55,409.53090
1,Balneário Barra do Sul/SC,-26.459842,-48.6061471,1361,12333.48437
D1,Balneário Barra do Sul/SC,-26.459842,-48.6061471,36,326.23471
1,Balneário Camboriú/SC,-26.9924395,-48.6339782,23484,16107.43779
D1,Balneário Camboriú/SC,-26.9924395,-48.6339782,353,242.11913
1,Balneário Gaivota/SC,-29.1553098,-49.5808712,1201,10666.07460
D1,Balneário Gaivota/SC,-29.1553098,-49.5808712,32,284.19183
1,Balneário Pinhal/RS,-30.2482978,-50.234585,675,4699.57530
D1,Balneário Pinhal/RS,-30.2482978,-50.234585,42,292.41802
1,Balneário Piçarras/SC,-26.7638889,-48.6716667,4418,18584.88979
D1,Balneário Piçarras/SC,-26.7638889,-48.6716667,45,189.29833
1,Balneário Rincão/SC,-28.8235718,-49.2241642,1303,10064.88491
D1,Balneário Rincão/SC,-28.8235718,-49.2241642,40,308.97575
1,Balsa Nova/PR,-25.5842234,-49.6312741,1427,10899.78613
D1,Balsa Nova/PR,-25.5842234,-49.6312741,27,206.23281
1,Balsas/MA,-7.53214,-46.037163,9402,9800.99866
D1,Balsas/MA,-7.53214,-46.037163,177,184.51146
1,Bambuí/MG,-20.0131996,-45.9777034,1465,6130.22010
D1,Bambuí/MG,-20.0131996,-45.9777034,23,96.24236
1,Banabuiú/CE,-5.3046404,-38.919766,1794,9826.90622
D1,Banabuiú/CE,-5.3046404,-38.919766,19,104.07537
1,Bananal/SP,-22.6828195,-44.3221095,919,8359.86537
D1,Bananal/SP,-22.6828195,-44.3221095,3,27.29009
1,Bananeiras/PB,-6.7537682,-35.6338343,1211,5693.73266
D1,Bananeiras/PB,-6.7537682,-35.6338343,22,103.43693
1,Bandeira do Sul/MG,-21.728056,-46.385555,418,7234.33714
D1,Bandeira do Sul/MG,-21.728056,-46.385555,10,173.07027
1,Bandeira/MG,-15.884444,-40.559167,454,9525.80781
D1,Bandeira/MG,-15.884444,-40.559167,9,188.83760
1,Bandeirante/SC,-26.7677402,-53.6397596,296,11178.24773
D1,Bandeirante/SC,-26.7677402,-53.6397596,3,113.29305
1,Bandeirantes do Tocantins/TO,-7.7635698,-48.579148,456,12694.87751
D1,Bandeirantes do Tocantins/TO,-7.7635698,-48.579148,7,194.87751
1,Bandeirantes/MS,-19.9179623,-54.3646768,536,7376.82356
D1,Bandeirantes/MS,-19.9179623,-54.3646768,10,137.62731
1,Bandeirantes/PR,-23.107788,-50.370407,4210,13488.83406
D1,Bandeirantes/PR,-23.107788,-50.370407,111,355.64384
1,Bannach/PA,-7.3508505,-50.4064531,640,19619.86511
D1,Bannach/PA,-7.3508505,-50.4064531,3,91.96812
1,Banzaê/BA,-10.5827616,-38.6122305,1017,7681.26888
D1,Banzaê/BA,-10.5827616,-38.6122305,8,60.42296
1,Baraúna/PB,-6.643394,-36.2531932,530,10676.87349
D1,Baraúna/PB,-6.643394,-36.2531932,8,161.16035
1,Baraúna/RN,-5.0775002,-37.61752,1038,3610.81156
D1,Baraúna/RN,-5.0775002,-37.61752,22,76.52972
1,Barbacena/MG,-21.2254524,-43.7735087,7317,5294.34749
D1,Barbacena/MG,-21.2254524,-43.7735087,238,172.20920
1,Barbalha/CE,-7.3121067,-39.3036427,5927,9680.21167
D1,Barbalha/CE,-7.3121067,-39.3036427,129,210.68792
1,Barbosa Ferraz/PR,-24.0287182,-52.00811,1047,9163.31175
D1,Barbosa Ferraz/PR,-24.0287182,-52.00811,30,262.55908
1,Barbosa/SP,-21.265661,-49.951816,429,5744.50991
D1,Barbosa/SP,-21.265661,-49.951816,12,160.68559
1,Barcarena/PA,-1.5107945,-48.6190679,10842,8535.19331
D1,Barcarena/PA,-1.5107945,-48.6190679,213,167.68089
1,Barcelona/RN,-5.9514918,-35.9260284,93,2328.49274
D1,Barcelona/RN,-5.9514918,-35.9260284,4,100.15023
1,Barcelos/AM,-0.9729214,-62.925635,4257,15402.70642
D1,Barcelos/AM,-0.9729214,-62.925635,59,213.47420
1,Bariri/SP,-22.0746355,-48.7394852,2471,6949.20974
D1,Bariri/SP,-22.0746355,-48.7394852,104,292.47989
1,Barra Bonita/SC,-26.6526364,-53.4419581,170,10296.78982
D1,Barra Bonita/SC,-26.6526364,-53.4419581,2,121.13870
1,Barra Bonita/SP,-22.490859,-48.558349,2945,8152.02347
D1,Barra Bonita/SP,-22.490859,-48.558349,80,221.44716
1,Barra D'Alcântara/PI,-6.5209258,-42.1071089,121,3061.74089
D1,Barra D'Alcântara/PI,-6.5209258,-42.1071089,4,101.21457
1,Barra Funda/RS,-27.9230048,-53.0401045,510,19992.15994
D1,Barra Funda/RS,-27.9230048,-53.0401045,11,431.20345
1,Barra Longa/MG,-20.2833541,-43.0423516,366,7298.10568
D1,Barra Longa/MG,-20.2833541,-43.0423516,9,179.46162
1,Barra Mansa/RJ,-22.5394843,-44.1735129,14824,8020.21284
D1,Barra Mansa/RJ,-22.5394843,-44.1735129,554,299.73003
1,Barra Velha/SC,-26.6338203,-48.6835001,3902,13067.64903
D1,Barra Velha/SC,-26.6338203,-48.6835001,90,301.40656
1,Barra da Estiva/BA,-13.6269662,-41.3278287,2152,10553.15810
D1,Barra da Estiva/BA,-13.6269662,-41.3278287,21,102.98156
1,Barra de Guabiraba/PE,-8.4173522,-35.6626669,348,2398.34597
D1,Barra de Guabiraba/PE,-8.4173522,-35.6626669,14,96.48518
1,Barra de Santa Rosa/PB,-6.7218007,-36.0564638,1432,9240.49816
D1,Barra de Santa Rosa/PB,-6.7218007,-36.0564638,10,64.52862
1,Barra de Santana/PB,-7.5230865,-35.9988518,435,5210.20481
D1,Barra de Santana/PB,-7.5230865,-35.9988518,6,71.86489
1,Barra de Santo Antônio/AL,-9.4038098,-35.5117693,414,2576.54966
D1,Barra de Santo Antônio/AL,-9.4038098,-35.5117693,26,161.81230
1,Barra de São Francisco/ES,-18.7570902,-40.8916119,4588,10200.31570
D1,Barra de São Francisco/ES,-18.7570902,-40.8916119,189,420.19609
1,Barra de São Miguel/AL,-9.8261357,-35.8837777,492,5872.52328
D1,Barra de São Miguel/AL,-9.8261357,-35.8837777,7,83.55216
1,Barra de São Miguel/PB,-7.7528088,-36.3170996,478,7881.28607
D1,Barra de São Miguel/PB,-7.7528088,-36.3170996,7,115.41632
1,Barra do Bugres/MT,-15.0683712,-57.1853688,2804,7941.76792
D1,Barra do Bugres/MT,-15.0683712,-57.1853688,66,186.93177
1,Barra do Chapéu/SP,-24.472203,-49.023784,270,4687.50000
D1,Barra do Chapéu/SP,-24.472203,-49.023784,2,34.72222
1,Barra do Choça/BA,-14.8638173,-40.5761637,1960,6280.23967
D1,Barra do Choça/BA,-14.8638173,-40.5761637,28,89.71771
1,Barra do Corda/MA,-5.496823,-45.248496,5630,6362.15703
D1,Barra do Corda/MA,-5.496823,-45.248496,56,63.28256
1,Barra do Garças/MT,-15.8916033,-52.2615413,7646,12506.74736
D1,Barra do Garças/MT,-15.8916033,-52.2615413,266,435.10264
1,Barra do Guarita/RS,-27.1888016,-53.7147086,111,3408.04421
D1,Barra do Guarita/RS,-27.1888016,-53.7147086,7,214.92171
1,Barra do Jacaré/PR,-23.1151788,-50.1813945,184,6616.32506
D1,Barra do Jacaré/PR,-23.1151788,-50.1813945,1,35.95829
1,Barra do Mendes/BA,-11.8053298,-42.057037,688,4973.61382
D1,Barra do Mendes/BA,-11.8053298,-42.057037,12,86.74908
1,Barra do Ouro/TO,-7.7113784,-47.6743925,132,2849.74093
D1,Barra do Ouro/TO,-7.7113784,-47.6743925,6,129.53368
1,Barra do Piraí/RJ,-22.4703403,-43.8263256,5841,5796.71311
D1,Barra do Piraí/RJ,-22.4703403,-43.8263256,340,337.42210
1,Barra do Quaraí/RS,-30.208947,-57.5505128,377,8918.85498
D1,Barra do Quaraí/RS,-30.208947,-57.5505128,6,141.94464
1,Barra do Ribeiro/RS,-30.2930206,-51.301437,1023,7546.47389
D1,Barra do Ribeiro/RS,-30.2930206,-51.301437,47,346.70994
1,Barra do Rio Azul/RS,-27.4101581,-52.4117471,97,5861.02719
D1,Barra do Rio Azul/RS,-27.4101581,-52.4117471,1,60.42296
1,Barra do Rocha/BA,-14.2090974,-39.6004395,410,7305.77334
D1,Barra do Rocha/BA,-14.2090974,-39.6004395,7,124.73272
1,Barra do Turvo/SP,-24.756421,-48.5056942,563,7376.83438
D1,Barra do Turvo/SP,-24.756421,-48.5056942,17,222.74633
1,Barra dos Coqueiros/SE,-10.9075694,-37.0386249,6605,21354.67184
D1,Barra dos Coqueiros/SE,-10.9075694,-37.0386249,83,268.34788
1,Barra/BA,-11.0892702,-43.1420453,2035,3774.80987
D1,Barra/BA,-11.0892702,-43.1420453,43,79.76257
1,Barracão/PR,-26.252395,-53.6349576,1130,10958.10706
D1,Barracão/PR,-26.252395,-53.6349576,31,300.62064
1,Barracão/RS,-27.6728964,-51.4582928,438,8333.33333
D1,Barracão/RS,-27.6728964,-51.4582928,16,304.41400
1,Barras/PI,-4.2446153,-42.2920241,4696,9952.31535
D1,Barras/PI,-4.2446153,-42.2920241,87,184.38063
1,Barreira/CE,-4.2883361,-38.641094,1383,6126.78864
D1,Barreira/CE,-4.2883361,-38.641094,39,172.77278
1,Barreiras do Piauí/PI,-9.9224524,-45.4763776,70,2088.30549
D1,Barreiras do Piauí/PI,-9.9224524,-45.4763776,1,29.83294
1,Barreiras/BA,-12.1440031,-44.9967406,17098,10892.18028
D1,Barreiras/BA,-12.1440031,-44.9967406,285,181.55757
1,Barreirinha/AM,-2.798863,-57.067897,2381,7329.98799
D1,Barreirinha/AM,-2.798863,-57.067897,62,190.86907
1,Barreirinhas/MA,-2.7541271,-42.8259693,2037,3222.23453
D1,Barreirinhas/MA,-2.7541271,-42.8259693,36,56.94671
1,Barreiros/PE,-8.8159644,-35.1831905,750,1753.81162
D1,Barreiros/PE,-8.8159644,-35.1831905,59,137.96651
1,Barretos/SP,-20.5531437,-48.5697509,12986,10572.07754
D1,Barretos/SP,-20.5531437,-48.5697509,393,319.94659
1,Barrinha/SP,-21.1898849,-48.1550642,1454,4382.15793
D1,Barrinha/SP,-21.1898849,-48.1550642,57,171.79024
1,Barro Alto/BA,-11.7618025,-41.9094904,821,5453.70001
D1,Barro Alto/BA,-11.7618025,-41.9094904,9,59.78477
1,Barro Alto/GO,-14.9696025,-48.9190985,1259,11036.11501
D1,Barro Alto/GO,-14.9696025,-48.9190985,16,140.25245
1,Barro Duro/PI,-5.8180139,-42.5106589,681,9691.19112
D1,Barro Duro/PI,-5.8180139,-42.5106589,11,156.53906
1,Barro Preto/BA,-14.8068289,-39.4727588,576,10572.68722
D1,Barro Preto/BA,-14.8068289,-39.4727588,10,183.55360
1,Barro/CE,-7.1713587,-38.7742136,1510,6635.02944
D1,Barro/CE,-7.1713587,-38.7742136,29,127.42772
1,Barrocas/BA,-11.5165,-39.099282894736845,730,4532.75380
D1,Barrocas/BA,-11.5165,-39.099282894736845,23,142.81279
1,Barrolândia/TO,-9.837246,-48.7264346,729,12900.37162
D1,Barrolândia/TO,-9.837246,-48.7264346,20,353.91966
1,Barroquinha/CE,-3.0200371,-41.1339229,1073,7132.41159
D1,Barroquinha/CE,-3.0200371,-41.1339229,25,166.17921
1,Barros Cassal/RS,-29.094938,-52.5832366,650,5812.91361
D1,Barros Cassal/RS,-29.094938,-52.5832366,12,107.31533
1,Barroso/MG,-21.187222,-43.976111,1698,8125.56826
D1,Barroso/MG,-21.187222,-43.976111,45,215.34192
1,Barueri/SP,-23.5112184,-46.8764612,26711,9643.58695
D1,Barueri/SP,-23.5112184,-46.8764612,962,347.31499
1,Barão de Antonina/SP,-23.6295651,-49.5632104,330,9433.96226
D1,Barão de Antonina/SP,-23.6295651,-49.5632104,7,200.11435
1,Barão de Cocais/MG,-19.9452437,-43.4870298,3482,10594.53539
D1,Barão de Cocais/MG,-19.9452437,-43.4870298,60,182.55948
1,Barão de Cotegipe/RS,-27.6214694,-52.3765316,689,10407.85498
D1,Barão de Cotegipe/RS,-27.6214694,-52.3765316,7,105.74018
1,Barão de Grajaú/MA,-6.7542591,-43.0263477,393,2076.72796
D1,Barão de Grajaú/MA,-6.7542591,-43.0263477,2,10.56859
1,Barão de Melgaço/MT,-16.195776,-55.9668049,354,4336.10975
D1,Barão de Melgaço/MT,-16.195776,-55.9668049,14,171.48457
1,Barão de Monte Alto/MG,-21.244722,-42.2375,190,3548.74860
D1,Barão de Monte Alto/MG,-21.244722,-42.2375,11,205.45387
1,Barão do Triunfo/RS,-30.3909877,-51.7375349,432,5745.44487
D1,Barão do Triunfo/RS,-30.3909877,-51.7375349,6,79.79785
1,Barão/RS,-29.372474,-51.494908,569,9174.45985
D1,Barão/RS,-29.372474,-51.494908,8,128.99065
1,Bastos/SP,-21.9222474,-50.7317727,1240,5918.00697
D1,Bastos/SP,-21.9222474,-50.7317727,34,162.26793
1,Bataguassu/MS,-21.715899,-52.422058,2922,12527.33119
D1,Bataguassu/MS,-21.715899,-52.422058,32,137.19185
1,Batalha/AL,-9.6733809,-37.1265481,1040,5671.28367
D1,Batalha/AL,-9.6733809,-37.1265481,15,81.79736
1,Batalha/PI,-4.022391,-42.0780926,1024,3805.98402
D1,Batalha/PI,-4.022391,-42.0780926,31,115.22022
1,Batatais/SP,-20.892867,-47.592149,2639,4190.21912
D1,Batatais/SP,-20.892867,-47.592149,138,219.11718
1,Batayporã/MS,-22.2976466,-53.2685608,957,8432.46101
D1,Batayporã/MS,-22.2976466,-53.2685608,16,140.98158
1,Baturité/CE,-4.3290203,-38.8821055,3747,10425.41944
D1,Baturité/CE,-4.3290203,-38.8821055,72,200.32832
1,Bauru/SP,-22.3218102,-49.0705863,41261,10878.28272
D1,Bauru/SP,-22.3218102,-49.0705863,941,248.09055
1,Bayeux/PB,-7.1301631,-34.936532,6671,6862.95690
D1,Bayeux/PB,-7.1301631,-34.936532,229,235.58944
1,Baía Formosa/RN,-6.3691885,-35.0063741,331,3550.74018
D1,Baía Formosa/RN,-6.3691885,-35.0063741,8,85.81849
1,Baía da Traição/PB,-6.691258,-34.9371244,1255,13797.27353
D1,Baía da Traição/PB,-6.691258,-34.9371244,12,131.92612
1,Bebedouro/SP,-20.949077,-48.479083,3598,4639.28825
D1,Bebedouro/SP,-20.949077,-48.479083,137,176.64883
1,Beberibe/CE,-4.1810469,-38.1298101,4490,8322.67512
D1,Beberibe/CE,-4.1810469,-38.1298101,97,179.79944
1,Bela Cruz/CE,-3.0529129,-40.167582,3250,9932.15574
D1,Bela Cruz/CE,-3.0529129,-40.167582,69,210.86731
1,Bela Vista da Caroba/PR,-25.8792818,-53.6672545,169,4888.63176
D1,Bela Vista da Caroba/PR,-25.8792818,-53.6672545,6,173.56089
1,Bela Vista de Goiás/GO,-16.9692949,-48.9513071,2341,7677.42359
D1,Bela Vista de Goiás/GO,-16.9692949,-48.9513071,64,209.89112
1,Bela Vista de Minas/MG,-19.8289721,-43.0973688,762,7425.45313
D1,Bela Vista de Minas/MG,-19.8289721,-43.0973688,22,214.38316
1,Bela Vista do Maranhão/MA,-3.7416367,-45.2514192,213,1888.46529
D1,Bela Vista do Maranhão/MA,-3.7416367,-45.2514192,17,150.72258
1,Bela Vista do Paraíso/PR,-22.9948493,-51.1907996,1761,11435.80752
D1,Bela Vista do Paraíso/PR,-22.9948493,-51.1907996,60,389.63569
1,Bela Vista do Piauí/PI,-7.9716353,-41.8715061,261,6476.42680
D1,Bela Vista do Piauí/PI,-7.9716353,-41.8715061,6,148.88337
1,Bela Vista do Toldo/SC,-26.274625,-50.466354,78,1226.02955
D1,Bela Vista do Toldo/SC,-26.274625,-50.466354,3,47.15498
1,Bela Vista/MS,-22.107327,-56.5317344,922,3727.51162
D1,Bela Vista/MS,-22.107327,-56.5317344,27,109.15706
1,Belford Roxo/RJ,-22.7667284,-43.4033603,20112,3919.56626
D1,Belford Roxo/RJ,-22.7667284,-43.4033603,676,131.74358
1,Belmiro Braga/MG,-21.9486291,-43.413564,189,5518.24818
D1,Belmiro Braga/MG,-21.9486291,-43.413564,3,87.59124
1,Belmonte/BA,-15.8630837,-38.8792845,1010,4309.42527
D1,Belmonte/BA,-15.8630837,-38.8792845,22,93.86867
1,Belmonte/SC,-26.8448262,-53.578916,241,8896.27169
D1,Belmonte/SC,-26.8448262,-53.578916,5,184.56995
1,Belo Campo/BA,-15.0338286,-41.2585109,789,4611.60793
D1,Belo Campo/BA,-15.0338286,-41.2585109,13,75.98340
1,Belo Horizonte/MG,-19.9227318,-43.9450948,219074,8688.02061
D1,Belo Horizonte/MG,-19.9227318,-43.9450948,5317,210.86120
1,Belo Jardim/PE,-8.3338293,-36.4176419,3430,4472.72680
D1,Belo Jardim/PE,-8.3338293,-36.4176419,102,133.00820
1,Belo Monte/AL,-9.8269944,-37.2787165,305,4545.45455
D1,Belo Monte/AL,-9.8269944,-37.2787165,9,134.12817
1,Belo Oriente/MG,-19.2232523,-42.4807033,2508,9290.95355
D1,Belo Oriente/MG,-19.2232523,-42.4807033,60,222.27162
1,Belo Vale/MG,-20.407778,-44.024167,751,9729.23954
D1,Belo Vale/MG,-20.407778,-44.024167,10,129.55046
1,Belterra/PA,-2.636091,-54.937392,1419,7954.48175
D1,Belterra/PA,-2.636091,-54.937392,24,134.53669
1,Belágua/MA,-3.1604031,-43.5085052,400,5313.49628
D1,Belágua/MA,-3.1604031,-43.5085052,3,39.85122
1,Belém de Maria/PE,-8.6242497,-35.8388934,243,2004.61970
D1,Belém de Maria/PE,-8.6242497,-35.8388934,6,49.49678
1,Belém do Brejo do Cruz/PB,-6.1880727,-37.5332267,502,6830.86134
D1,Belém do Brejo do Cruz/PB,-6.1880727,-37.5332267,5,68.03647
1,Belém do Piauí/PI,-7.3767305,-40.9712156,447,12461.66713
D1,Belém do Piauí/PI,-7.3767305,-40.9712156,7,195.14915
1,Belém do São Francisco/PE,-8.7517707,-38.9625715,647,3121.08056
D1,Belém do São Francisco/PE,-8.7517707,-38.9625715,10,48.23927
1,Belém/AL,-9.5715351,-36.492841,110,2567.69374
D1,Belém/AL,-9.5715351,-36.492841,3,70.02801
1,Belém/PA,-1.45056,-48.4682453,100935,6730.61086
D1,Belém/PA,-1.45056,-48.4682453,4837,322.54386
1,Belém/PB,-6.6967586,-35.5369626,2016,11386.61395
D1,Belém/PB,-6.6967586,-35.5369626,42,237.22112
1,Beneditinos/PI,-5.4565671,-42.3605061,1120,10694.16595
D1,Beneditinos/PI,-5.4565671,-42.3605061,35,334.19269
1,Benedito Leite/MA,-7.2173453,-44.5523331,296,5250.08868
D1,Benedito Leite/MA,-7.2173453,-44.5523331,2,35.47357
1,Benedito Novo/SC,-26.7840657,-49.3629511,970,8237.79193
D1,Benedito Novo/SC,-26.7840657,-49.3629511,18,152.86624
1,Benevides/PA,-1.3555577,-48.252235,3808,5971.64722
D1,Benevides/PA,-1.3555577,-48.252235,100,156.81847
1,Benjamin Constant do Sul/RS,-27.5105555,-52.6007689,154,7865.16854
1,Benjamin Constant/AM,-4.3782748,-70.0290603,2691,6124.95732
D1,Benjamin Constant/AM,-4.3782748,-70.0290603,87,198.01980
1,Bento Fernandes/RN,-5.6926846,-35.8207423,145,2624.43439
D1,Bento Fernandes/RN,-5.6926846,-35.8207423,3,54.29864
1,Bento Gonçalves/RS,-29.1654014,-51.5197627,16612,13638.41613
D1,Bento Gonçalves/RS,-29.1654014,-51.5197627,290,238.08937
1,Bento de Abreu/SP,-21.2707225,-50.8120444,300,9983.36106
1,Bequimão/MA,-2.4495376,-44.7884889,275,1291.14043
D1,Bequimão/MA,-2.4495376,-44.7884889,17,79.81595
1,Berilo/MG,-16.9515764,-42.4643732,142,1196.09164
D1,Berilo/MG,-16.9515764,-42.4643732,1,8.42318
1,Berizal/MG,-15.6118785,-41.7417382,149,3127.62385
D1,Berizal/MG,-15.6118785,-41.7417382,1,20.99076
1,Bernardino Batista/PB,-6.4532173,-38.5495418,236,6674.20814
1,Bernardino de Campos/SP,-23.0140216,-49.4760724,600,5377.30776
D1,Bernardino de Campos/SP,-23.0140216,-49.4760724,17,152.35705
1,Bernardo Sayão/TO,-7.8794244,-48.8968905,515,11578.23741
D1,Bernardo Sayão/TO,-7.8794244,-48.8968905,6,134.89209
1,Bernardo do Mearim/MA,-4.6315929,-44.7617508,291,4791.70097
D1,Bernardo do Mearim/MA,-4.6315929,-44.7617508,6,98.79796
1,Bertioga/SP,-23.848568,-46.139586,5220,8065.13913
D1,Bertioga/SP,-23.848568,-46.139586,141,217.85146
1,Bertolínia/PI,-7.6372159,-43.9540611,846,15362.26621
D1,Bertolínia/PI,-7.6372159,-43.9540611,10,181.58707
1,Bertópolis/MG,-17.063333,-40.573889,297,6446.71153
1,Beruri/AM,-3.9007135,-61.3717319,2208,10988.90161
D1,Beruri/AM,-3.9007135,-61.3717319,32,159.25944
1,Betim/MG,-19.968056,-44.198333,28393,6383.54797
D1,Betim/MG,-19.968056,-44.198333,1072,241.01586
1,Betânia do Piauí/PI,-8.1460635,-40.7961387,157,2528.18035
D1,Betânia do Piauí/PI,-8.1460635,-40.7961387,2,32.20612
1,Betânia/PE,-8.2742779,-38.0351767,464,3634.93929
D1,Betânia/PE,-8.2742779,-38.0351767,13,101.84097
1,Bezerros/PE,-8.2372132,-35.7558262,3702,6080.81472
D1,Bezerros/PE,-8.2372132,-35.7558262,112,183.96846
1,Bias Fortes/MG,-21.605833,-43.756944,106,3184.13938
D1,Bias Fortes/MG,-21.605833,-43.756944,3,90.11715
1,Bicas/MG,-21.7213723,-43.0604327,1357,9323.89721
D1,Bicas/MG,-21.7213723,-43.0604327,43,295.45142
1,Biguaçu/SC,-27.4961277,-48.6542432,10658,15338.34154
D1,Biguaçu/SC,-27.4961277,-48.6542432,159,228.82307
1,Bilac/SP,-21.403962,-50.47464,812,10003.69595
D1,Bilac/SP,-21.403962,-50.47464,13,160.15769
1,Biquinhas/MG,-18.783611,-45.502222,106,4243.39472
D1,Biquinhas/MG,-18.783611,-45.502222,1,40.03203
1,Birigui/SP,-21.2908491,-50.34144,13294,10645.16387
D1,Birigui/SP,-21.2908491,-50.34144,467,373.95002
1,Biritiba Mirim/SP,-23.5697765,-46.0407456,1260,3825.60117
D1,Biritiba Mirim/SP,-23.5697765,-46.0407456,80,242.89531
1,Biritinga/BA,-11.6227908,-38.8066738,451,2821.57157
D1,Biritinga/BA,-11.6227908,-38.8066738,7,43.79379
1,Bituruna/PR,-26.161281,-51.5533319,1002,6109.75610
D1,Bituruna/PR,-26.161281,-51.5533319,13,79.26829
1,Blumenau/SC,-26.9195567,-49.0658025,48890,13510.93670
D1,Blumenau/SC,-26.9195567,-49.0658025,546,150.88917
1,Boa Esperança do Iguaçu/PR,-25.6362851,-53.2139114,144,5829.95951
1,Boa Esperança do Sul/SP,-21.9930206,-48.3917372,930,6192.56892
D1,Boa Esperança do Sul/SP,-21.9930206,-48.3917372,14,93.22147
1,Boa Esperança/ES,-18.5395472,-40.2904088,1475,9773.38988
D1,Boa Esperança/ES,-18.5395472,-40.2904088,38,251.78903
1,Boa Esperança/MG,-21.0901253,-45.5660195,3816,9488.05291
D1,Boa Esperança/MG,-21.0901253,-45.5660195,99,246.15232
1,Boa Esperança/PR,-24.2411024,-52.7860277,377,9315.54238
D1,Boa Esperança/PR,-24.2411024,-52.7860277,15,370.64492
1,Boa Hora/PI,-4.4094627,-42.1255341,542,7953.04475
D1,Boa Hora/PI,-4.4094627,-42.1255341,6,88.04109
1,Boa Nova/BA,-14.365907,-40.2063056,842,6829.42656
D1,Boa Nova/BA,-14.365907,-40.2063056,15,121.66437
1,Boa Ventura de São Roque/PR,-24.88177,-51.5441292,411,6457.18775
D1,Boa Ventura de São Roque/PR,-24.88177,-51.5441292,5,78.55460
1,Boa Ventura/PB,-7.4202462,-38.2156782,347,6538.53401
D1,Boa Ventura/PB,-7.4202462,-38.2156782,6,113.05822
1,Boa Viagem/CE,-5.1261877,-39.7300055,3719,6814.22577
D1,Boa Viagem/CE,-5.1261877,-39.7300055,92,168.56918
1,Boa Vista da Aparecida/PR,-25.4357216,-53.4067721,774,10265.25199
D1,Boa Vista da Aparecida/PR,-25.4357216,-53.4067721,24,318.30239
1,Boa Vista das Missões/RS,-27.6677983,-53.3127622,193,9225.62141
D1,Boa Vista das Missões/RS,-27.6677983,-53.3127622,4,191.20459
1,Boa Vista do Buricá/RS,-27.6687782,-54.1111913,773,11516.68653
D1,Boa Vista do Buricá/RS,-27.6687782,-54.1111913,9,134.08820
1,Boa Vista do Cadeado/RS,-28.5783827,-53.8123759,171,6928.68720
D1,Boa Vista do Cadeado/RS,-28.5783827,-53.8123759,2,81.03728
1,Boa Vista do Gurupi/MA,-1.7981168,-46.3071882,15,178.95490
D1,Boa Vista do Gurupi/MA,-1.7981168,-46.3071882,4,47.72131
1,Boa Vista do Incra/RS,-28.8195551,-53.3866624,248,9480.12232
D1,Boa Vista do Incra/RS,-28.8195551,-53.3866624,4,152.90520
1,Boa Vista do Ramos/AM,-2.9716927,-57.5869819,935,4764.08845
D1,Boa Vista do Ramos/AM,-2.9716927,-57.5869819,11,56.04810
1,Boa Vista do Sul/RS,-29.3510488,-51.6779679,293,10547.15623
D1,Boa Vista do Sul/RS,-29.3510488,-51.6779679,3,107.99136
1,Boa Vista do Tupim/BA,-12.6605988,-40.6083594,245,1322.10890
D1,Boa Vista do Tupim/BA,-12.6605988,-40.6083594,6,32.37818
1,Boa Vista/PB,-7.2620711,-36.2415161,663,9290.91928
D1,Boa Vista/PB,-7.2620711,-36.2415161,11,154.14798
1,Boa Vista/RR,2.8208478,-60.6719582,81775,19486.38396
D1,Boa Vista/RR,2.8208478,-60.6719582,1290,307.39756
1,Boca da Mata/AL,-9.6452054,-36.2116658,1743,6371.54555
D1,Boca da Mata/AL,-9.6452054,-36.2116658,43,157.18672
1,Boca do Acre/AM,-8.7553487,-67.3930873,2585,7463.54843
D1,Boca do Acre/AM,-8.7553487,-67.3930873,23,66.40681
1,Bocaina de Minas/MG,-22.167778,-44.394722,172,3379.83887
D1,Bocaina de Minas/MG,-22.167778,-44.394722,7,137.55158
1,Bocaina do Sul/SC,-27.745494,-49.942279,369,10579.12844
D1,Bocaina do Sul/SC,-27.745494,-49.942279,3,86.00917
1,Bocaina/PI,-6.9445939,-41.3224599,264,5860.15538
D1,Bocaina/PI,-6.9445939,-41.3224599,4,88.79023
1,Bocaina/SP,-22.1421831,-48.522276,1181,9484.42017
D1,Bocaina/SP,-22.1421831,-48.522276,27,216.83264
1,Bocaiúva do Sul/PR,-25.206591,-49.114131,1633,12438.11410
D1,Bocaiúva do Sul/PR,-25.206591,-49.114131,15,114.25089
1,Bocaiúva/MG,-17.1160208,-43.8122678,2115,4208.45272
D1,Bocaiúva/MG,-17.1160208,-43.8122678,54,107.44986
1,Bodocó/PE,-7.777592,-39.933797,1894,4935.11908
D1,Bodocó/PE,-7.777592,-39.933797,29,75.56413
1,Bodoquena/MS,-20.5508775,-56.6769653,418,5332.99311
D1,Bodoquena/MS,-20.5508775,-56.6769653,14,178.61699
1,Bodó/RN,-5.9866104,-36.4134824,142,6463.35913
1,Bofete/SP,-23.1019554,-48.2610535,664,5570.00252
D1,Bofete/SP,-23.1019554,-48.2610535,13,109.05125
1,Boituva/SP,-23.2838893,-47.6738231,4957,7973.29902
D1,Boituva/SP,-23.2838893,-47.6738231,144,231.62297
1,Bom Conselho/PE,-9.169191,-36.685683,1634,3350.62645
D1,Bom Conselho/PE,-9.169191,-36.685683,58,118.93288
1,Bom Despacho/MG,-19.7375242,-45.2517288,3802,7450.81132
D1,Bom Despacho/MG,-19.7375242,-45.2517288,68,133.26017
1,Bom Jardim da Serra/SC,-28.3380324,-49.625588,580,12154.23303
D1,Bom Jardim da Serra/SC,-28.3380324,-49.625588,4,83.82230
1,Bom Jardim de Goiás/GO,-16.2062659,-52.172793,726,8185.81576
D1,Bom Jardim de Goiás/GO,-16.2062659,-52.172793,15,169.12842
1,Bom Jardim de Minas/MG,-21.9476466,-44.1906033,459,7106.36321
D1,Bom Jardim de Minas/MG,-21.9476466,-44.1906033,3,46.44682
1,Bom Jardim/MA,-3.54129,-45.606004,1383,3306.87198
D1,Bom Jardim/MA,-3.54129,-45.606004,47,112.38104
1,Bom Jardim/PE,-7.7961572,-35.5871696,1460,3651.55191
D1,Bom Jardim/PE,-7.7961572,-35.5871696,63,157.56697
1,Bom Jardim/RJ,-22.1515328,-42.4186683,1507,5456.98146
D1,Bom Jardim/RJ,-22.1515328,-42.4186683,41,148.46466
1,Bom Jesus da Lapa/BA,-13.250571,-43.410754,4850,6962.18885
D1,Bom Jesus da Lapa/BA,-13.250571,-43.410754,67,96.17869
1,Bom Jesus da Penha/MG,-21.0165299,-46.5226644,567,13360.03770
D1,Bom Jesus da Penha/MG,-21.0165299,-46.5226644,12,282.75212
1,Bom Jesus da Serra/BA,-14.3724084,-40.5047119,423,4306.22010
D1,Bom Jesus da Serra/BA,-14.3724084,-40.5047119,8,81.44151
1,Bom Jesus das Selvas/MA,-4.4878075,-46.8526639,3057,8843.69485
D1,Bom Jesus das Selvas/MA,-4.4878075,-46.8526639,23,66.53745
1,Bom Jesus de Goiás/GO,-18.2174587,-49.739721,2612,10184.02994
D1,Bom Jesus de Goiás/GO,-18.2174587,-49.739721,103,401.59077
1,Bom Jesus do Amparo/MG,-19.7045132,-43.4752911,213,3473.01484
D1,Bom Jesus do Amparo/MG,-19.7045132,-43.4752911,6,97.83140
1,Bom Jesus do Araguaia/MT,-12.1725897,-51.5074425,974,14524.30659
D1,Bom Jesus do Araguaia/MT,-12.1725897,-51.5074425,16,238.59231
1,Bom Jesus do Galho/MG,-19.8283191,-42.3162256,585,3936.21316
D1,Bom Jesus do Galho/MG,-19.8283191,-42.3162256,26,174.94281
1,Bom Jesus do Itabapoana/RJ,-21.1341025,-41.680095,3100,8332.66134
D1,Bom Jesus do Itabapoana/RJ,-21.1341025,-41.680095,80,215.03642
1,Bom Jesus do Norte/ES,-21.1254776,-41.6711646,1012,10158.60269
D1,Bom Jesus do Norte/ES,-21.1254776,-41.6711646,23,230.87733
1,Bom Jesus do Oeste/SC,-26.6929713,-53.0967453,181,8461.89808
D1,Bom Jesus do Oeste/SC,-26.6929713,-53.0967453,6,280.50491
1,Bom Jesus do Sul/PR,-26.1922507,-53.6002033,390,11123.78779
D1,Bom Jesus do Sul/PR,-26.1922507,-53.6002033,3,85.56760
1,Bom Jesus do Tocantins/PA,-5.0471796,-48.5978362,755,4410.56198
D1,Bom Jesus do Tocantins/PA,-5.0471796,-48.5978362,25,146.04510
1,Bom Jesus do Tocantins/TO,-8.96306,-48.165043,129,2575.87859
D1,Bom Jesus do Tocantins/TO,-8.96306,-48.165043,3,59.90415
1,Bom Jesus dos Perdões/SP,-23.1353864,-46.4648052,1929,7423.51357
D1,Bom Jesus dos Perdões/SP,-23.1353864,-46.4648052,24,92.36098
1,Bom Jesus/PB,-6.8156725,-38.6551841,144,5592.23301
D1,Bom Jesus/PB,-6.8156725,-38.6551841,3,116.50485
1,Bom Jesus/PI,-9.0711644,-44.3583926,3270,12880.60819
D1,Bom Jesus/PI,-9.0711644,-44.3583926,35,137.86584
1,Bom Jesus/RN,-5.9887544,-35.5821149,734,7149.11854
D1,Bom Jesus/RN,-5.9887544,-35.5821149,15,146.09915
1,Bom Jesus/RS,-28.6692723,-50.4346894,824,7286.23220
D1,Bom Jesus/RS,-28.6692723,-50.4346894,18,159.16527
1,Bom Jesus/SC,-26.7350604,-52.3916519,387,12659.47007
D1,Bom Jesus/SC,-26.7350604,-52.3916519,6,196.27085
1,Bom Lugar/MA,-4.3728019,-45.0366054,451,2743.64278
D1,Bom Lugar/MA,-4.3728019,-45.0366054,7,42.58426
1,Bom Princípio do Piauí/PI,-3.1912777,-41.6430185,128,2265.08583
D1,Bom Princípio do Piauí/PI,-3.1912777,-41.6430185,12,212.35180
1,Bom Princípio/RS,-29.489788,-51.3566782,1761,12353.56015
D1,Bom Princípio/RS,-29.489788,-51.3566782,26,182.39214
1,Bom Progresso/RS,-27.5490948,-53.8655601,120,6319.11532
D1,Bom Progresso/RS,-27.5490948,-53.8655601,3,157.97788
1,Bom Repouso/MG,-22.4657069,-46.1485376,885,8398.97504
D1,Bom Repouso/MG,-22.4657069,-46.1485376,19,180.31698
1,Bom Retiro do Sul/RS,-29.6000007,-51.9359243,968,7812.75222
D1,Bom Retiro do Sul/RS,-29.6000007,-51.9359243,28,225.98870
1,Bom Retiro/SC,-27.798993,-49.486994,707,7027.83300
D1,Bom Retiro/SC,-27.798993,-49.486994,15,149.10537
1,Bom Sucesso de Itararé/SP,-24.3190016,-49.1446207,141,3539.15663
D1,Bom Sucesso de Itararé/SP,-24.3190016,-49.1446207,5,125.50201
1,Bom Sucesso do Sul/PR,-26.0749256,-52.8348629,357,10971.11248
D1,Bom Sucesso do Sul/PR,-26.0749256,-52.8348629,6,184.38844
1,Bom Sucesso/MG,-21.0323516,-44.7598082,829,4708.35463
D1,Bom Sucesso/MG,-21.0323516,-44.7598082,5,28.39780
1,Bom Sucesso/PB,-6.4458948,-37.9297662,315,6355.93220
D1,Bom Sucesso/PB,-6.4458948,-37.9297662,3,60.53269
1,Bom Sucesso/PR,-23.7088019,-51.7651297,697,9861.34692
D1,Bom Sucesso/PR,-23.7088019,-51.7651297,12,169.77929
1,Bombinhas/SC,-27.1519159,-48.4875691,3369,16567.49447
D1,Bombinhas/SC,-27.1519159,-48.4875691,56,275.38726
1,Bonfim do Piauí/PI,-9.1648678,-42.8734415,340,5980.65084
D1,Bonfim do Piauí/PI,-9.1648678,-42.8734415,7,123.13105
1,Bonfim/MG,-20.3266626, -44.2386157,363,5291.54519
D1,Bonfim/MG,-20.3266626, -44.2386157,13,189.50437
1,Bonfim/RR,3.3613818,-59.8427241,2213,17623.63622
D1,Bonfim/RR,3.3613818,-59.8427241,26,207.05583
1,Bonfinópolis de Minas/MG,-16.5660011,-45.98645,441,8100.66128
D1,Bonfinópolis de Minas/MG,-16.5660011,-45.98645,12,220.42616
1,Bonfinópolis/GO,-16.6172709,-48.9615701,452,4556.91098
D1,Bonfinópolis/GO,-16.6172709,-48.9615701,19,191.55157
1,Boninal/BA,-12.7095183,-41.8299984,587,4063.40856
D1,Boninal/BA,-12.7095183,-41.8299984,7,48.45632
1,Bonito de Minas/MG,-15.3191266,-44.7544,49,430.99657
1,Bonito de Santa Fé/PB,-7.3143332,-38.5146677,444,3693.22908
D1,Bonito de Santa Fé/PB,-7.3143332,-38.5146677,11,91.49892
1,Bonito/BA,-11.9665473,-41.2649896,837,4957.35608
D1,Bonito/BA,-11.9665473,-41.2649896,11,65.15044
1,Bonito/MS,-21.1264766,-56.4902208,2773,12496.62010
D1,Bonito/MS,-21.1264766,-56.4902208,58,261.37900
1,Bonito/PA,-1.3605722,-47.3049907,381,2304.90018
D1,Bonito/PA,-1.3605722,-47.3049907,13,78.64489
1,Bonito/PE,-8.4721161,-35.7314591,849,2227.35262
D1,Bonito/PE,-8.4721161,-35.7314591,37,97.06955
1,Bonópolis/GO,-13.649331,-49.8329113,153,3405.29713
D1,Bonópolis/GO,-13.649331,-49.8329113,1,22.25684
1,Boqueirão do Leão/RS,-29.30332,-52.4296817,563,7309.78967
D1,Boqueirão do Leão/RS,-29.30332,-52.4296817,30,389.50922
1,Boqueirão do Piauí/PI,-4.4850148,-42.1095161,615,9570.49486
D1,Boqueirão do Piauí/PI,-4.4850148,-42.1095161,10,155.61780
1,Boqueirão/PB,-7.487004,-36.130887,1571,8791.27029
D1,Boqueirão/PB,-7.487004,-36.130887,35,195.85898
1,Boquim/SE,-11.1450175,-37.6204228,2430,9033.79308
D1,Boquim/SE,-11.1450175,-37.6204228,60,223.05662
1,Boquira/BA,-12.8184859,-42.7270883,575,2674.79183
D1,Boquira/BA,-12.8184859,-42.7270883,11,51.16993
1,Boracéia/SP,-22.195355,-48.7801925,850,17460.96960
D1,Boracéia/SP,-22.195355,-48.7801925,22,451.93098
1,Borba/AM,-4.3934778,-59.5947721,2146,5140.36601
D1,Borba/AM,-4.3934778,-59.5947721,58,138.92881
1,Borborema/PB,-6.8066718,-35.5990191,379,7168.52657
D1,Borborema/PB,-6.8066718,-35.5990191,12,226.97182
1,Borborema/SP,-21.6212706,-49.074135,1350,8351.89310
D1,Borborema/SP,-21.6212706,-49.074135,40,247.46350
1,Borda da Mata/MG,-22.274167,-46.165278,1330,6780.87081
D1,Borda da Mata/MG,-22.274167,-46.165278,42,214.13276
1,Borebi/SP,-22.5700178,-48.9714871,189,7044.35334
D1,Borebi/SP,-22.5700178,-48.9714871,2,74.54342
1,Borrazópolis/PR,-23.9393362,-51.5850786,727,11290.57307
D1,Borrazópolis/PR,-23.9393362,-51.5850786,21,326.13760
1,Borá/SP,-22.2701088,-50.544407,101,12052.50597
D1,Borá/SP,-22.2701088,-50.544407,1,119.33174
1,Bossoroca/RS,-28.7278885,-54.9120278,388,6253.02176
D1,Bossoroca/RS,-28.7278885,-54.9120278,22,354.55278
1,Botelhos/MG,-21.65,-46.394722,1515,10134.45715
D1,Botelhos/MG,-21.65,-46.394722,19,127.09880
1,Botucatu/SP,-22.8879628,-48.4410712,12554,8474.98819
D1,Botucatu/SP,-22.8879628,-48.4410712,250,168.77067
1,Botumirim/MG,-16.862778,-43.011111,218,3466.92112
D1,Botumirim/MG,-16.862778,-43.011111,4,63.61323
1,Botuporã/BA,-13.3744752,-42.5198469,195,1925.16537
D1,Botuporã/BA,-13.3744752,-42.5198469,3,29.61793
1,Botuverá/SC,-27.200749,-49.068892,874,16422.39759
D1,Botuverá/SC,-27.200749,-49.068892,8,150.31943
1,Bozano/RS,-28.3669953,-53.7705165,237,11226.90668
D1,Bozano/RS,-28.3669953,-53.7705165,7,331.59640
1,Braga/RS,-27.617348,-53.740514,324,9785.56327
D1,Braga/RS,-27.617348,-53.740514,9,271.82120
1,Braganey/PR,-24.8179919,-53.118506,402,7469.34225
D1,Braganey/PR,-24.8179919,-53.118506,7,130.06317
1,Bragança Paulista/SP,-22.9520235,-46.5418586,15487,9081.52674
D1,Bragança Paulista/SP,-22.9520235,-46.5418586,423,248.04583
1,Bragança/PA,-1.0573967,-46.7635406,3955,3067.93676
D1,Bragança/PA,-1.0573967,-46.7635406,141,109.37524
1,Branquinha/AL,-9.2478057,-36.0152009,493,4713.19312
D1,Branquinha/AL,-9.2478057,-36.0152009,9,86.04207
1,Brasil Novo/PA,-3.3055853,-52.539198,1803,12033.63812
D1,Brasil Novo/PA,-3.3055853,-52.539198,41,273.64346
1,Brasileira/PI,-4.131182,-41.7824969,561,6720.97760
D1,Brasileira/PI,-4.131182,-41.7824969,11,131.78387
1,Brasilândia de Minas/MG,-17.0096469,-46.0087183,1153,6884.40411
D1,Brasilândia de Minas/MG,-17.0096469,-46.0087183,16,95.53380
1,Brasilândia do Sul/PR,-24.1975793,-53.527551,366,14158.60735
D1,Brasilândia do Sul/PR,-24.1975793,-53.527551,9,348.16248
1,Brasilândia do Tocantins/TO,-8.3886619,-48.4842729,232,10492.98960
D1,Brasilândia do Tocantins/TO,-8.3886619,-48.4842729,5,226.14202
1,Brasilândia/MS,-21.255575,-52.0365617,999,8428.24601
D1,Brasilândia/MS,-21.255575,-52.0365617,17,143.42361
1,Brasiléia/AC,-11.0010413,-68.7487894,2780,10411.20515
D1,Brasiléia/AC,-11.0010413,-68.7487894,38,142.31144
1,Brasnorte/MT,-12.1227151,-58.0050109,1891,9389.27507
D1,Brasnorte/MT,-12.1227151,-58.0050109,33,163.85303
1,Brasília de Minas/MG,-16.2075114,-44.430559,959,2959.41984
D1,Brasília de Minas/MG,-16.2075114,-44.430559,8,24.68755
1,Brasília/DF,-15.7934036,-47.8823172,414875,13579.53409
D1,Brasília/DF,-15.7934036,-47.8823172,8923,292.06432
1,Brazabrantes/GO,-16.4291635,-49.3858216,434,11585.69140
D1,Brazabrantes/GO,-16.4291635,-49.3858216,3,80.08542
1,Brazópolis/MG,-22.4742842,-45.6165577,773,5364.33033
D1,Brazópolis/MG,-22.4742842,-45.6165577,28,194.30951
1,Braço do Norte/SC,-28.2728633,-49.1622712,7779,22963.15976
D1,Braço do Norte/SC,-28.2728633,-49.1622712,89,262.72287
1,Braço do Trombudo/SC,-27.358578,-49.882145,597,15839.74529
D1,Braço do Trombudo/SC,-27.358578,-49.882145,4,106.12895
1,Braúna/SP,-21.5015319,-50.3175246,451,7855.77426
D1,Braúna/SP,-21.5015319,-50.3175246,20,348.37136
1,Braúnas/MG,-19.055556,-42.716111,208,4361.50136
D1,Braúnas/MG,-19.055556,-42.716111,7,146.78130
1,Brejetuba/ES,-20.1465817,-41.2902303,1562,12569.40533
D1,Brejetuba/ES,-20.1465817,-41.2902303,14,112.65792
1,Brejinho de Nazaré/TO,-11.0205883,-48.5722906,478,8660.98931
D1,Brejinho de Nazaré/TO,-11.0205883,-48.5722906,13,235.54992
1,Brejinho/PE,-7.3482153,-37.28538,640,8547.00855
D1,Brejinho/PE,-7.3482153,-37.28538,19,253.73932
1,Brejinho/RN,-6.1957907,-35.3583019,1217,9517.47869
D1,Brejinho/RN,-6.1957907,-35.3583019,14,109.48620
1,Brejo Alegre/SP,-21.1671191,-50.1850393,331,11457.25164
D1,Brejo Alegre/SP,-21.1671191,-50.1850393,13,449.98269
1,Brejo Grande do Araguaia/PA,-5.7011449,-48.4037308,780,10586.31922
D1,Brejo Grande do Araguaia/PA,-5.7011449,-48.4037308,4,54.28882
1,Brejo Grande/SE,-10.4287358,-36.4667918,410,4908.41614
D1,Brejo Grande/SE,-10.4287358,-36.4667918,12,143.66096
1,Brejo Santo/CE,-7.4909841,-38.9859152,7922,15894.22575
D1,Brejo Santo/CE,-7.4909841,-38.9859152,150,300.95101
1,Brejo da Madre de Deus/PE,-8.1409718,-36.3712527,2020,3943.38702
D1,Brejo da Madre de Deus/PE,-8.1409718,-36.3712527,47,91.75207
1,Brejo de Areia/MA,-4.3316785,-45.5833334,295,3272.68693
D1,Brejo de Areia/MA,-4.3316785,-45.5833334,9,99.84469
1,Brejo do Cruz/PB,-6.32926065,-37.48746163303929,1477,10397.01535
D1,Brejo do Cruz/PB,-6.32926065,-37.48746163303929,21,147.82486
1,Brejo do Piauí/PI,-8.207583,-42.8359849,112,2910.60291
D1,Brejo do Piauí/PI,-8.207583,-42.8359849,4,103.95010
1,Brejo dos Santos/PB,-6.3769367,-37.8243125,604,9344.05941
D1,Brejo dos Santos/PB,-6.3769367,-37.8243125,6,92.82178
1,Brejo/MA,-3.6804397,-42.7529313,869,2371.01307
D1,Brejo/MA,-3.6804397,-42.7529313,20,54.56877
1,Brejolândia/BA,-12.4843845,-43.9611861,142,1337.35167
D1,Brejolândia/BA,-12.4843845,-43.9611861,10,94.17969
1,Brejão/PE,-9.029146,-36.566034,405,4506.50940
D1,Brejão/PE,-9.029146,-36.566034,7,77.89029
1,Brejões/BA,-13.1033754,-39.7909837,665,4675.85431
D1,Brejões/BA,-13.1033754,-39.7909837,9,63.28224
1,Breu Branco/PA,-3.7785073,-49.5684795,711,1055.96150
D1,Breu Branco/PA,-3.7785073,-49.5684795,44,65.34783
1,Breves/PA,-1.68036,-50.479085,3980,3845.52209
D1,Breves/PA,-1.68036,-50.479085,113,109.18191
1,Britânia/GO,-15.2427599,-51.1602061,523,9021.90788
D1,Britânia/GO,-15.2427599,-51.1602061,4,69.00121
1,Brochier/RS,-29.556766,-51.5963047,404,7915.36050
D1,Brochier/RS,-29.556766,-51.5963047,5,97.96238
1,Brodowski/SP,-20.984532,-47.657217,2420,9573.92096
D1,Brodowski/SP,-20.984532,-47.657217,56,221.54528
1,Brotas de Macaúbas/BA,-12.0019007,-42.6257506,127,1253.70188
D1,Brotas de Macaúbas/BA,-12.0019007,-42.6257506,3,29.61500
1,Brotas/SP,-22.2840884,-48.1267265,488,1980.84105
D1,Brotas/SP,-22.2840884,-48.1267265,34,138.00942
1,Brumadinho/MG,-20.143611,-44.2,3310,8139.47770
D1,Brumadinho/MG,-20.143611,-44.2,73,179.51114
1,Brumado/BA,-14.29507325,-41.659307508575985,8757,13005.12364
D1,Brumado/BA,-14.29507325,-41.659307508575985,179,265.83500
1,Brunópolis/SC,-27.310953,-50.837585,261,11021.95946
D1,Brunópolis/SC,-27.310953,-50.837585,8,337.83784
1,Brusque/SC,-27.0964628,-48.9136323,25615,18603.51953
D1,Brusque/SC,-27.0964628,-48.9136323,265,192.46272
1,Brás Pires/MG,-20.8483109,-43.2430524,193,4495.69066
D1,Brás Pires/MG,-20.8483109,-43.2430524,7,163.05614
1,Bueno Brandão/MG,-22.441976,-46.3517971,702,6387.04395
D1,Bueno Brandão/MG,-22.441976,-46.3517971,23,209.26212
1,Buenos Aires/PE,-7.7218931,-35.326587,312,2365.42835
D1,Buenos Aires/PE,-7.7218931,-35.326587,20,151.63002
1,Buenópolis/MG,-17.8756607,-44.1749365,305,2946.00599
D1,Buenópolis/MG,-17.8756607,-44.1749365,11,106.24940
1,Buerarema/BA,-14.9571177,-39.3008035,1295,7074.18333
D1,Buerarema/BA,-14.9571177,-39.3008035,39,213.04490
1,Bugre/MG,-19.4257687,-42.2556,359,9013.30655
D1,Bugre/MG,-19.4257687,-42.2556,12,301.28044
1,Bujari/AC,-9.8309656,-67.9520886,1128,10825.33589
D1,Bujari/AC,-9.8309656,-67.9520886,17,163.14779
1,Bujaru/PA,-1.5169239,-48.0410699,1384,4703.16376
D1,Bujaru/PA,-1.5169239,-48.0410699,38,129.13311
1,Buri/SP,-23.79849,-48.598924,2310,11570.24793
D1,Buri/SP,-23.79849,-48.598924,71,355.62234
1,Buritama/SP,-21.0664017,-50.1448077,2122,12279.38198
D1,Buritama/SP,-21.0664017,-50.1448077,57,329.84202
1,Buriti Alegre/GO,-18.1377879,-49.0404411,928,9784.90089
D1,Buriti Alegre/GO,-18.1377879,-49.0404411,30,316.32223
1,Buriti Bravo/MA,-5.8391884,-43.8367876,1393,5818.95651
D1,Buriti Bravo/MA,-5.8391884,-43.8367876,14,58.48198
1,Buriti de Goiás/GO,-16.180644,-50.4287479,198,7996.76898
D1,Buriti de Goiás/GO,-16.180644,-50.4287479,8,323.10178
1,Buriti do Tocantins/TO,-5.3187439,-48.2256609,875,7610.68105
D1,Buriti do Tocantins/TO,-5.3187439,-48.2256609,14,121.77090
1,Buriti dos Lopes/PI,-3.1776723,-41.8707444,1263,6376.53355
D1,Buriti dos Lopes/PI,-3.1776723,-41.8707444,31,156.51032
1,Buriti dos Montes/PI,-5.3136171,-41.0971256,616,7454.01742
D1,Buriti dos Montes/PI,-5.3136171,-41.0971256,8,96.80542
1,Buriti/MA,-3.9430944,-42.9244281,752,2611.29245
D1,Buriti/MA,-3.9430944,-42.9244281,8,27.77971
1,Buriticupu/MA,-4.3227472,-46.4516989,3217,4407.87581
D1,Buriticupu/MA,-4.3227472,-46.4516989,46,63.02838
1,Buritinópolis/GO,-14.4589282,-46.4293104,167,5086.81084
D1,Buritinópolis/GO,-14.4589282,-46.4293104,3,91.37984
1,Buritirama/BA,-10.7148421,-43.6362327,836,3929.31002
D1,Buritirama/BA,-10.7148421,-43.6362327,22,103.40290
1,Buritirana/MA,-5.5897455,-47.0148915,437,2825.37014
D1,Buritirana/MA,-5.5897455,-47.0148915,24,155.16907
1,Buritis/MG,-15.621389,-46.423889,1608,6428.65710
D1,Buritis/MG,-15.621389,-46.423889,34,135.92932
1,Buritis/RO,-10.2054937,-63.8281954,4529,11222.61869
D1,Buritis/RO,-10.2054937,-63.8281954,63,156.11062
1,Buritizal/SP,-20.1933264,-47.7097165,251,5560.47851
D1,Buritizal/SP,-20.1933264,-47.7097165,10,221.53301
1,Buritizeiro/MG,-17.3667765,-44.9647781,1208,4295.72206
D1,Buritizeiro/MG,-17.3667765,-44.9647781,30,106.68184
1,Butiá/RS,-30.1256795,-51.9692224,1946,9287.89614
D1,Butiá/RS,-30.1256795,-51.9692224,54,257.73196
1,Buíque/PE,-8.6239732,-37.157296,2133,3620.22438
D1,Buíque/PE,-8.6239732,-37.157296,41,69.58706
1,Bálsamo/SP,-20.7343722,-49.5807484,1444,15800.41580
D1,Bálsamo/SP,-20.7343722,-49.5807484,58,634.64274
0,CASO SEM LOCALIZAÇÃO DEFINIDA/BA,-13.415069300066518,-38.14174656569957,10567,71.04790
D0,CASO SEM LOCALIZAÇÃO DEFINIDA/BA,-13.415069300066518,-38.14174656569957,223,1.49935
0,CASO SEM LOCALIZAÇÃO DEFINIDA/CE,-3.3445126297392798,-38.624961942434304,13753,150.60099
0,CASO SEM LOCALIZAÇÃO DEFINIDA/ES,-20.30989267097039,-39.81745156645774,3973,98.86405
D0,CASO SEM LOCALIZAÇÃO DEFINIDA/ES,-20.30989267097039,-39.81745156645774,196,4.87726
0,CASO SEM LOCALIZAÇÃO DEFINIDA/GO,-16.701590966270153,-49.164524059025034,2199,31.33213
D0,CASO SEM LOCALIZAÇÃO DEFINIDA/GO,-16.701590966270153,-49.164524059025034,34,0.48444
0,CASO SEM LOCALIZAÇÃO DEFINIDA/MG,-19.97049116501593,-43.8852149072783,4266,20.15231
D0,CASO SEM LOCALIZAÇÃO DEFINIDA/MG,-19.97049116501593,-43.8852149072783,296,1.39828
0,CASO SEM LOCALIZAÇÃO DEFINIDA/MT,-15.54791153961863,-56.17143998972475,2478,71.11563
D0,CASO SEM LOCALIZAÇÃO DEFINIDA/MT,-15.54791153961863,-56.17143998972475,193,5.53887
0,CASO SEM LOCALIZAÇÃO DEFINIDA/PA,-0.09317078214359542,-48.0050231510481,1538,17.87777
D0,CASO SEM LOCALIZAÇÃO DEFINIDA/PA,-0.09317078214359542,-48.0050231510481,26,0.30222
0,CASO SEM LOCALIZAÇÃO DEFINIDA/PI,-2.683810218391744,-41.470898009352254,1103,33.69763
D0,CASO SEM LOCALIZAÇÃO DEFINIDA/PI,-2.683810218391744,-41.470898009352254,19,0.58047
0,CASO SEM LOCALIZAÇÃO DEFINIDA/PR,-25.69415946385943,-48.10141676336737,11768,102.92150
D0,CASO SEM LOCALIZAÇÃO DEFINIDA/PR,-25.69415946385943,-48.10141676336737,292,2.55380
0,CASO SEM LOCALIZAÇÃO DEFINIDA/RR,2.813328208465927,-60.663338675861986,2589,427.39628
D0,CASO SEM LOCALIZAÇÃO DEFINIDA/RR,2.813328208465927,-60.663338675861986,15,2.47622
0,CASO SEM LOCALIZAÇÃO DEFINIDA/SP,-24.30968974555485,-46.21366504207253,874,1.90335
1,Caapiranga/AM,-3.3188884,-61.2096404,631,4750.43288
D1,Caapiranga/AM,-3.3188884,-61.2096404,22,165.62524
1,Caaporã/PB,-7.510234,-34.9154114,1786,8134.82123
D1,Caaporã/PB,-7.510234,-34.9154114,31,141.19790
1,Caarapó/MS,-22.6349267,-54.8240903,3799,12417.87337
D1,Caarapó/MS,-22.6349267,-54.8240903,41,134.01759
1,Caatiba/BA,-14.9782759,-40.4092325,828,12762.02219
D1,Caatiba/BA,-14.9782759,-40.4092325,11,169.54377
1,Cabaceiras do Paraguaçu/BA,-12.5377868,-39.1901339,537,2839.61715
D1,Cabaceiras do Paraguaçu/BA,-12.5377868,-39.1901339,4,21.15171
1,Cabaceiras/PB,-7.4899156,-36.2860501,344,6076.66490
D1,Cabaceiras/PB,-7.4899156,-36.2860501,3,52.99417
1,Cabeceira Grande/MG,-16.0297,-47.0906,367,5251.86033
D1,Cabeceira Grande/MG,-16.0297,-47.0906,5,71.55123
1,Cabeceiras do Piauí/PI,-4.4733665,-42.3098716,516,4854.18627
D1,Cabeceiras do Piauí/PI,-4.4733665,-42.3098716,10,94.07338
1,Cabeceiras/GO,-15.7995459,-46.9264991,344,4275.41636
D1,Cabeceiras/GO,-15.7995459,-46.9264991,14,173.99950
1,Cabedelo/PB,-6.97324,-34.8351609,8371,12172.98995
D1,Cabedelo/PB,-6.97324,-34.8351609,184,267.57020
1,Cabixi/RO,-13.4956065,-60.5424442,752,14494.98843
D1,Cabixi/RO,-13.4956065,-60.5424442,18,346.95451
1,Cabo Frio/RJ,-22.8804369,-42.0189227,12204,5297.38083
D1,Cabo Frio/RJ,-22.8804369,-42.0189227,651,282.57907
1,Cabo Verde/MG,-21.4743338,-46.3964995,602,4277.08703
D1,Cabo Verde/MG,-21.4743338,-46.3964995,8,56.83837
1,Cabo de Santo Agostinho/PE,-8.2838945,-35.0320984,6885,3295.14128
D1,Cabo de Santo Agostinho/PE,-8.2838945,-35.0320984,456,218.24029
1,Cabreúva/SP,-23.3075813,-47.1324417,3374,6690.59470
D1,Cabreúva/SP,-23.3075813,-47.1324417,82,162.60485
1,Cabrobó/PE,-8.5083701,-39.3106961,2114,6127.00345
D1,Cabrobó/PE,-8.5083701,-39.3106961,26,75.35577
1,Cabrália Paulista/SP,-22.4562909,-49.3385645,342,8060.33467
D1,Cabrália Paulista/SP,-22.4562909,-49.3385645,5,117.84115
1,Cacaulândia/RO,-10.3380043,-62.9007231,800,12761.20593
D1,Cacaulândia/RO,-10.3380043,-62.9007231,10,159.51507
1,Cacequi/RS,-29.8838059,-54.8273443,457,3678.66055
D1,Cacequi/RS,-29.8838059,-54.8273443,7,56.34710
1,Cachoeira Alta/GO,-18.7618269,-50.9432431,1383,10918.99574
D1,Cachoeira Alta/GO,-18.7618269,-50.9432431,19,150.00790
1,Cachoeira Dourada/GO,-18.4934204,-49.481062,399,4968.24804
D1,Cachoeira Dourada/GO,-18.4934204,-49.481062,21,261.48674
1,Cachoeira Dourada/MG,-18.517136,-49.5002062,143,5284.55285
D1,Cachoeira Dourada/MG,-18.517136,-49.5002062,2,73.90983
1,Cachoeira Grande/MA,-2.9290492,-44.0573223,274,2890.90525
D1,Cachoeira Grande/MA,-2.9290492,-44.0573223,7,73.85524
1,Cachoeira Paulista/SP,-22.666498,-45.015384,2268,6753.81912
D1,Cachoeira Paulista/SP,-22.666498,-45.015384,35,104.22560
1,Cachoeira da Prata/MG,-19.524723,-44.453056,226,6293.51156
D1,Cachoeira da Prata/MG,-19.524723,-44.453056,9,250.62657
1,Cachoeira de Goiás/GO,-16.6688414,-50.6435997,77,5737.70492
D1,Cachoeira de Goiás/GO,-16.6688414,-50.6435997,2,149.03130
1,Cachoeira de Minas/MG,-22.3554043,-45.7796324,616,5319.97582
D1,Cachoeira de Minas/MG,-22.3554043,-45.7796324,8,69.09060
1,Cachoeira de Pajeú/MG,-15.965833,-41.496666,480,5083.66871
D1,Cachoeira de Pajeú/MG,-15.965833,-41.496666,10,105.90976
1,Cachoeira do Arari/PA,-1.0143572,-48.9621089,491,2040.39229
D1,Cachoeira do Arari/PA,-1.0143572,-48.9621089,22,91.42287
1,Cachoeira do Piriá/PA,-1.7599443,-46.5446954,841,2430.00376
D1,Cachoeira do Piriá/PA,-1.7599443,-46.5446954,5,14.44711
1,Cachoeira do Sul/RS,-30.0474778,-52.8905413,9074,11083.56032
D1,Cachoeira do Sul/RS,-30.0474778,-52.8905413,136,166.11904
1,Cachoeira dos Índios/PB,-6.9259193,-38.6742159,721,6996.60359
D1,Cachoeira dos Índios/PB,-6.9259193,-38.6742159,14,135.85638
1,Cachoeira/BA,-12.5998256,-38.9665918,1477,4400.15491
D1,Cachoeira/BA,-12.5998256,-38.9665918,25,74.47791
1,Cachoeiras de Macacu/RJ,-22.4626861,-42.6534414,2709,4568.06570
D1,Cachoeiras de Macacu/RJ,-22.4626861,-42.6534414,89,150.07672
1,Cachoeirinha/PE,-8.4906364,-36.2338963,556,2712.06283
D1,Cachoeirinha/PE,-8.4906364,-36.2338963,27,131.70089
1,Cachoeirinha/RS,-29.9493353,-51.0898927,13482,10272.78269
D1,Cachoeirinha/RS,-29.9493353,-51.0898927,396,301.73728
1,Cachoeirinha/TO,-6.118647,-47.9208885,117,5122.59194
D1,Cachoeirinha/TO,-6.118647,-47.9208885,2,87.56567
1,Cachoeiro de Itapemirim/ES,-20.848084,-41.11129,25362,12043.36409
D1,Cachoeiro de Itapemirim/ES,-20.848084,-41.11129,541,256.89851
1,Cacimba de Areia/PB,-7.1288513,-37.1575194,46,1244.92558
D1,Cacimba de Areia/PB,-7.1288513,-37.1575194,4,108.25440
1,Cacimba de Dentro/PB,-6.6425101,-35.7929304,1083,6304.57562
D1,Cacimba de Dentro/PB,-6.6425101,-35.7929304,33,192.10618
1,Cacimbas/PB,-7.2125451,-37.0593398,210,2917.07182
D1,Cacimbas/PB,-7.2125451,-37.0593398,6,83.34491
1,Cacimbinhas/AL,-9.401212,-36.991082,668,6134.63128
D1,Cacimbinhas/AL,-9.401212,-36.991082,9,82.65222
1,Cacique Doble/RS,-27.7700117,-51.6616409,521,10268.03311
D1,Cacique Doble/RS,-27.7700117,-51.6616409,10,197.08317
1,Cacoal/RO,-11.4333,-61.4420502,12904,15023.34300
D1,Cacoal/RO,-11.4333,-61.4420502,263,306.19492
1,Caconde/SP,-21.527995,-46.643659,1168,6144.45789
D1,Caconde/SP,-21.527995,-46.643659,27,142.03798
1,Caculé/BA,-14.4990734,-42.2233006,1526,6551.88699
D1,Caculé/BA,-14.4990734,-42.2233006,12,51.52205
1,Caetanos/BA,-14.3387456,-40.9085971,638,4367.46988
D1,Caetanos/BA,-14.3387456,-40.9085971,10,68.45564
1,Caetanópolis/MG,-19.2947496,-44.4138386,829,7055.91965
D1,Caetanópolis/MG,-19.2947496,-44.4138386,14,119.15908
1,Caetité/BA,-14.0691776,-42.4852428,2336,4573.12895
D1,Caetité/BA,-14.0691776,-42.4852428,24,46.98420
1,Caeté/MG,-19.897777,-43.670278,1856,4120.14119
D1,Caeté/MG,-19.897777,-43.670278,52,115.43499
1,Caetés/PE,-8.7728788,-36.6255835,1425,4930.11348
D1,Caetés/PE,-8.7728788,-36.6255835,18,62.27512
1,Cafarnaum/BA,-11.691399,-41.468823,847,4575.16340
D1,Cafarnaum/BA,-11.691399,-41.468823,20,108.03219
1,Cafeara/PR,-22.78905,-51.714195,274,9275.55856
D1,Cafeara/PR,-22.78905,-51.714195,10,338.52404
1,Cafelândia/PR,-24.6176963,-53.3218057,1940,10511.48678
D1,Cafelândia/PR,-24.6176963,-53.3218057,16,86.69267
1,Cafelândia/SP,-21.8054355,-49.6030627,696,3900.68935
D1,Cafelândia/SP,-21.8054355,-49.6030627,31,173.73760
1,Cafezal do Sul/PR,-23.900508,-53.512418,365,9104.51484
D1,Cafezal do Sul/PR,-23.900508,-53.512418,4,99.77551
1,Caiabu/SP,-22.0143038,-51.2356597,99,2361.07799
D1,Caiabu/SP,-22.0143038,-51.2356597,6,143.09564
1,Caiana/MG,-20.695555,-41.924723,135,2436.38332
D1,Caiana/MG,-20.695555,-41.924723,7,126.33099
1,Caiapônia/GO,-16.9538779,-51.8090761,1109,5804.15555
D1,Caiapônia/GO,-16.9538779,-51.8090761,34,177.94526
1,Caibaté/RS,-28.290475,-54.645407,222,4602.94423
D1,Caibaté/RS,-28.290475,-54.645407,7,145.13788
1,Caibi/SC,-27.0751925,-53.2502133,581,9477.97716
D1,Caibi/SC,-27.0751925,-53.2502133,11,179.44535
1,Caicó/RN,-6.4594544,-37.0971911,10205,14932.03400
D1,Caicó/RN,-6.4594544,-37.0971911,125,182.90096
1,Caieiras/SP,-23.3644621,-46.7484765,7453,7251.76356
D1,Caieiras/SP,-23.3644621,-46.7484765,270,262.70980
1,Cairu/BA,-13.4860505,-39.0455744,1219,6615.29278
D1,Cairu/BA,-13.4860505,-39.0455744,13,70.54865
1,Caiuá/SP,-21.8319357,-51.9887179,308,5179.95291
D1,Caiuá/SP,-21.8319357,-51.9887179,6,100.90817
1,Caiçara do Norte/RN,-5.0645017,-36.0561226,397,6050.90687
D1,Caiçara do Norte/RN,-5.0645017,-36.0561226,9,137.17421
1,Caiçara do Rio do Vento/RN,-5.757968,-36.00089,262,7052.48991
D1,Caiçara do Rio do Vento/RN,-5.757968,-36.00089,7,188.42530
1,Caiçara/PB,-6.6146866,-35.4681434,712,9901.26547
D1,Caiçara/PB,-6.6146866,-35.4681434,14,194.68780
1,Caiçara/RS,-27.2750478,-53.4310053,555,11808.51064
D1,Caiçara/RS,-27.2750478,-53.4310053,8,170.21277
1,Cajamar/SP,-23.3561111,-46.8769444,4145,5318.60292
D1,Cajamar/SP,-23.3561111,-46.8769444,201,257.91054
1,Cajapió/MA,-2.8778715,-44.6746871,91,811.34094
D1,Cajapió/MA,-2.8778715,-44.6746871,4,35.66334
1,Cajari/MA,-3.3213076,-45.0118757,210,1079.63601
D1,Cajari/MA,-3.3213076,-45.0118757,8,41.12899
1,Cajati/SP,-24.7272376,-48.1077914,3086,10830.35025
D1,Cajati/SP,-24.7272376,-48.1077914,85,298.30842
1,Cajazeiras do Piauí/PI,-6.794271,-42.3935024,57,1595.29807
D1,Cajazeiras do Piauí/PI,-6.794271,-42.3935024,1,27.98769
1,Cajazeiras/PB,-6.8897849,-38.5570389,8274,13283.24423
D1,Cajazeiras/PB,-6.8897849,-38.5570389,134,215.12627
1,Cajazeirinhas/PB,-6.961442,-37.7993733,163,5085.80343
1,Cajobi/SP,-20.8776238,-48.8106972,851,8031.33258
D1,Cajobi/SP,-20.8776238,-48.8106972,27,254.81314
1,Cajueiro da Praia/PI,-2.931114,-41.340801,475,6189.73156
D1,Cajueiro da Praia/PI,-2.931114,-41.340801,20,260.62028
1,Cajueiro/AL,-9.399589,-36.1524309,542,2540.90291
D1,Cajueiro/AL,-9.399589,-36.1524309,21,98.44827
1,Cajuri/MG,-20.7901414,-42.7954489,362,9109.20986
D1,Cajuri/MG,-20.7901414,-42.7954489,2,50.32713
1,Cajuru/SP,-21.2759978,-47.3046035,1008,3819.19448
D1,Cajuru/SP,-21.2759978,-47.3046035,36,136.39980
1,Caldas Brandão/PB,-7.1027959,-35.3254676,512,8468.40887
D1,Caldas Brandão/PB,-7.1027959,-35.3254676,8,132.31889
1,Caldas Novas/GO,-17.745,-48.625,8139,8733.20743
D1,Caldas Novas/GO,-17.745,-48.625,201,215.67449
1,Caldas/MG,-21.923611,-46.386111,768,5281.61750
D1,Caldas/MG,-21.923611,-46.386111,28,192.55897
1,Caldazinha/GO,-16.7116649,-49.0012601,279,7250.51975
D1,Caldazinha/GO,-16.7116649,-49.0012601,6,155.92516
1,Caldeirão Grande do Piauí/PI,-7.3310393,-40.6374433,395,6832.72790
D1,Caldeirão Grande do Piauí/PI,-7.3310393,-40.6374433,2,34.59609
1,Caldeirão Grande/BA,-11.0208483,-40.3041387,560,4181.91323
D1,Caldeirão Grande/BA,-11.0208483,-40.3041387,6,44.80621
1,Califórnia/PR,-23.6672543,-51.3554556,1017,11817.33674
D1,Califórnia/PR,-23.6672543,-51.3554556,23,267.25540
1,Calmon/SC,-26.6023644,-51.0992893,34,1019.49025
D1,Calmon/SC,-26.6023644,-51.0992893,4,119.94003
1,Calumbi/PE,-7.9389746,-38.1516871,584,10161.82356
D1,Calumbi/PE,-7.9389746,-38.1516871,4,69.60153
1,Calçado/PE,-8.7413446,-36.3351787,446,4047.92158
D1,Calçado/PE,-8.7413446,-36.3351787,5,45.38029
1,Calçoene/AP,2.4981757,-50.9539503,1621,14337.51990
D1,Calçoene/AP,2.4981757,-50.9539503,10,88.44861
1,Camacan/BA,-15.4166631,-39.4930088,2803,8757.73293
D1,Camacan/BA,-15.4166631,-39.4930088,74,231.20665
1,Camacho/MG,-20.625556,-45.156667,49,1707.91216
D1,Camacho/MG,-20.625556,-45.156667,2,69.71070
1,Camalaú/PB,-7.885031,-36.824191,401,6648.98027
D1,Camalaú/PB,-7.885031,-36.824191,6,99.48599
1,Camamu/BA,-13.9438142,-39.1060917,2203,6226.32977
D1,Camamu/BA,-13.9438142,-39.1060917,49,138.48850
1,Camanducaia/MG,-22.755278,-46.144444,2762,12669.14362
D1,Camanducaia/MG,-22.755278,-46.144444,56,256.86895
1,Camapuã/MS,-19.5291747,-54.0434641,760,5550.28117
D1,Camapuã/MS,-19.5291747,-54.0434641,27,197.18104
1,Camaquã/RS,-30.8524752,-51.8075619,6463,9722.01330
D1,Camaquã/RS,-30.8524752,-51.8075619,132,198.56193
1,Camaragibe/PE,-8.0213832,-34.9810768,6361,4003.17183
D1,Camaragibe/PE,-8.0213832,-34.9810768,373,234.74031
1,Camargo/RS,-28.5865661,-52.2031474,391,14259.66448
D1,Camargo/RS,-28.5865661,-52.2031474,5,182.34865
1,Camaçari/BA,-12.6998188,-38.3260762,22508,7396.59943
D1,Camaçari/BA,-12.6998188,-38.3260762,572,187.97116
1,Cambará do Sul/RS,-29.0489517,-50.145412,294,4589.44739
D1,Cambará do Sul/RS,-29.0489517,-50.145412,10,156.10365
1,Cambará/PR,-23.042273,-50.075281,2244,8811.74900
D1,Cambará/PR,-23.042273,-50.075281,45,176.70620
1,Cambira/PR,-23.600265,-51.581045,738,9321.71277
D1,Cambira/PR,-23.600265,-51.581045,16,202.09675
1,Camboriú/SC,-27.0273601,-48.6535657,11817,13885.20063
D1,Camboriú/SC,-27.0273601,-48.6535657,152,178.60290
1,Cambuci/RJ,-21.5749919,-41.9107833,935,6026.81449
D1,Cambuci/RJ,-21.5749919,-41.9107833,32,206.26531
1,Cambuquira/MG,-21.853056,-45.2953619,618,4823.60287
D1,Cambuquira/MG,-21.853056,-45.2953619,17,132.68810
1,Cambuí/MG,-22.6122501,-46.0572137,3371,11306.76863
D1,Cambuí/MG,-22.6122501,-46.0572137,52,174.41470
1,Cambé/PR,-23.2782035,-51.2779583,9973,9290.95127
D1,Cambé/PR,-23.2782035,-51.2779583,222,206.81753
1,Cametá/PA,-2.242949,-49.497885,8545,6131.42562
D1,Cametá/PA,-2.242949,-49.497885,234,167.90563
1,Camocim de São Félix/PE,-8.3616757,-35.7638903,496,2624.33862
D1,Camocim de São Félix/PE,-8.3616757,-35.7638903,16,84.65608
1,Camocim/CE,-2.9009918,-40.8427389,5808,9088.20630
D1,Camocim/CE,-2.9009918,-40.8427389,157,245.66949
1,Campanha/MG,-21.8361108,-45.401986,1522,9080.06205
D1,Campanha/MG,-21.8361108,-45.401986,29,173.01038
1,Campanário/MG,-18.2398144,-41.7271768,214,5737.26542
D1,Campanário/MG,-18.2398144,-41.7271768,4,107.23861
1,Campestre da Serra/RS,-28.7966535,-51.0958149,190,5596.46539
D1,Campestre da Serra/RS,-28.7966535,-51.0958149,2,58.91016
1,Campestre de Goiás/GO,-16.7624179,-49.69497,497,13620.16991
D1,Campestre de Goiás/GO,-16.7624179,-49.69497,14,383.66676
1,Campestre do Maranhão/MA,-6.1729113,-47.3640512,1033,7147.30506
D1,Campestre do Maranhão/MA,-6.1729113,-47.3640512,43,297.51609
1,Campestre/AL,-8.8481634,-35.5660033,246,3537.53236
D1,Campestre/AL,-8.8481634,-35.5660033,6,86.28128
1,Campestre/MG,-19.6142116,-43.219378,1507,7157.78474
D1,Campestre/MG,-19.6142116,-43.219378,30,142.49074
1,Campina Grande do Sul/PR,-25.3046032,-49.0545355,4593,10513.90638
D1,Campina Grande do Sul/PR,-25.3046032,-49.0545355,111,254.09179
1,Campina Grande/PB,-7.2246743,-35.8771292,32006,7772.08741
D1,Campina Grande/PB,-7.2246743,-35.8771292,943,228.99077
