type,name,lat,lon,total,total_per_100k_inhabitants
1,Abadia de Goiás/GO,-16.7572644,-49.4412205,1362,15204.28667
D1,Abadia de Goiás/GO,-16.7572644,-49.4412205,28,312.56977
1,Abadia dos Dourados/MG,-18.4911191,-47.4063589,375,5352.55495
D1,Abadia dos Dourados/MG,-18.4911191,-47.4063589,14,199.82872
1,Abadiânia/GO,-16.1940946,-48.7067767,400,1954.93866
D1,Abadiânia/GO,-16.1940946,-48.7067767,27,131.95836
1,Abaetetuba/PA,-1.721828,-48.878843,7733,4861.07619
D1,Abaetetuba/PA,-1.721828,-48.878843,214,134.52351
1,Abaeté/MG,-19.1566833,-45.4481213,1019,4382.79570
D1,Abaeté/MG,-19.1566833,-45.4481213,26,111.82796
1,Abaiara/CE,-7.3607808,-39.0487878,473,3990.55092
D1,Abaiara/CE,-7.3607808,-39.0487878,12,101.24019
1,Abaré/BA,-8.7239913,-39.1139689,834,4098.88436
D1,Abaré/BA,-8.7239913,-39.1139689,9,44.23256
1,Abatiá/PR,-23.3052967,-50.3102532,774,10448.16415
D1,Abatiá/PR,-23.3052967,-50.3102532,11,148.48812
1,Abaíra/BA,-13.2503296,-41.6640342,252,2893.22618
D1,Abaíra/BA,-13.2503296,-41.6640342,10,114.81056
1,Abdon Batista/SC,-27.612419,-51.022992,348,13657.77080
D1,Abdon Batista/SC,-27.612419,-51.022992,3,117.73940
1,Abel Figueiredo/PA,-4.953001,-48.3958485,888,11862.14267
D1,Abel Figueiredo/PA,-4.953001,-48.3958485,10,133.58269
1,Abelardo Luz/SC,-26.5705893,-52.3280339,1363,7589.08686
D1,Abelardo Luz/SC,-26.5705893,-52.3280339,43,239.42094
1,Abre Campo/MG,-20.2976097,-42.4764741,919,6835.76317
D1,Abre Campo/MG,-20.2976097,-42.4764741,15,111.57394
1,Abreu e Lima/PE,-7.900719,-34.898389,2706,2696.66952
D1,Abreu e Lima/PE,-7.900719,-34.898389,197,196.32073
1,Abreulândia/TO,-9.6221526,-49.1558343,263,10138.78180
D1,Abreulândia/TO,-9.6221526,-49.1558343,6,231.30301
1,Acaiaca/MG,-20.3621646,-43.1444162,221,5533.29995
D1,Acaiaca/MG,-20.3621646,-43.1444162,10,250.37556
1,Acajutiba/BA,-11.6609659,-38.0186381,483,3180.35162
D1,Acajutiba/BA,-11.6609659,-38.0186381,15,98.76868
1,Acarape/CE,-4.2237866,-38.7071663,2622,17438.14844
D1,Acarape/CE,-4.2237866,-38.7071663,24,159.61692
1,Acaraú/CE,-2.8869514,-40.1194713,4578,7254.69067
D1,Acaraú/CE,-2.8869514,-40.1194713,93,147.37576
1,Acari/RN,-6.4364689,-36.6394777,909,8173.72538
D1,Acari/RN,-6.4364689,-36.6394777,13,116.89596
1,Acará/PA,-1.961388,-48.1987043,1228,2205.89556
D1,Acará/PA,-1.961388,-48.1987043,28,50.29729
1,Acauã/PI,-8.219542,-41.083059,188,2647.14165
D1,Acauã/PI,-8.219542,-41.083059,1,14.08054
1,Aceguá/RS,-31.8695131,-54.1615593,300,6070.41684
D1,Aceguá/RS,-31.8695131,-54.1615593,4,80.93889
1,Acopiara/CE,-6.0936464,-39.4543204,3033,5567.07843
D1,Acopiara/CE,-6.0936464,-39.4543204,119,218.42477
1,Acorizal/MT,-15.2001544,-56.3668953,470,8811.39858
D1,Acorizal/MT,-15.2001544,-56.3668953,18,337.45782
1,Acrelândia/AC,-10.0759167,-67.0526898,1544,9967.72111
D1,Acrelândia/AC,-10.0759167,-67.0526898,33,213.04067
1,Acreúna/GO,-17.3959899,-50.3749031,1731,7677.63683
D1,Acreúna/GO,-17.3959899,-50.3749031,44,195.15657
1,Adamantina/SP,-21.6866517,-51.0762975,2721,7749.70807
D1,Adamantina/SP,-21.6866517,-51.0762975,75,213.60827
1,Adelândia/GO,-16.4155077,-50.1665834,152,6041.33545
D1,Adelândia/GO,-16.4155077,-50.1665834,4,158.98251
1,Adolfo/SP,-21.2356597,-49.6441918,422,11873.94485
D1,Adolfo/SP,-21.2356597,-49.6441918,11,309.51041
1,Adrianópolis/PR,-24.6557863,-48.9912769,1158,19771.21393
D1,Adrianópolis/PR,-24.6557863,-48.9912769,22,375.61892
1,Adustina/BA,-10.5358875,-38.114479,731,4268.36389
D1,Adustina/BA,-10.5358875,-38.114479,12,70.06890
1,Afogados da Ingazeira/PE,-7.750429,-37.6356375,4123,11022.88525
D1,Afogados da Ingazeira/PE,-7.750429,-37.6356375,60,160.41065
1,Afonso Bezerra/RN,-5.4745,-36.57625071327935,622,5639.67721
D1,Afonso Bezerra/RN,-5.4745,-36.57625071327935,14,126.93807
1,Afonso Cláudio/ES,-20.077841,-41.12606,3211,10543.42473
D1,Afonso Cláudio/ES,-20.077841,-41.12606,55,180.59432
1,Afonso Cunha/MA,-4.1326105,-43.3230026,166,2523.56339
D1,Afonso Cunha/MA,-4.1326105,-43.3230026,2,30.40438
1,Afrânio/PE,-8.5198919,-41.0070197,796,4018.17264
D1,Afrânio/PE,-8.5198919,-41.0070197,14,70.67138
1,Afuá/PA,-0.1535664,-50.3879223,2903,7336.92218
D1,Afuá/PA,-0.1535664,-50.3879223,14,35.38302
1,Agrestina/PE,-8.4558021,-35.9442663,1397,5573.50888
D1,Agrestina/PE,-8.4558021,-35.9442663,51,203.47098
1,Agricolândia/PI,-5.7967843,-42.6605131,429,8360.94329
D1,Agricolândia/PI,-5.7967843,-42.6605131,4,77.95751
1,Agrolândia/SC,-27.4122212,-49.8295774,1250,11350.22246
D1,Agrolândia/SC,-27.4122212,-49.8295774,18,163.44320
1,Agronômica/SC,-27.2660744,-49.7104753,557,10110.72790
D1,Agronômica/SC,-27.2660744,-49.7104753,11,199.67326
1,Aguanil/MG,-20.9424533,-45.3927152,492,10880.14153
D1,Aguanil/MG,-20.9424533,-45.3927152,8,176.91287
1,Aguaí/SP,-22.0592036,-46.979384,2378,6488.75791
D1,Aguaí/SP,-22.0592036,-46.979384,76,207.37830
1,Agudo/RS,-29.6423259,-53.2494005,1390,8475.09298
D1,Agudo/RS,-29.6423259,-53.2494005,22,134.13816
1,Agudos do Sul/PR,-25.9890808,-49.3328175,512,5406.54699
D1,Agudos do Sul/PR,-25.9890808,-49.3328175,19,200.63358
1,Agudos/SP,-22.471162,-48.987822,3061,8184.27315
D1,Agudos/SP,-22.471162,-48.987822,72,192.50822
1,Aguiar/PB,-7.0928404,-38.1727215,308,5470.69272
D1,Aguiar/PB,-7.0928404,-38.1727215,4,71.04796
1,Aguiarnópolis/TO,-6.5600452,-47.4721189,564,8183.40104
D1,Aguiarnópolis/TO,-6.5600452,-47.4721189,12,174.11492
1,Aimorés/MG,-19.4917754,-41.0615603,1795,7139.73191
D1,Aimorés/MG,-19.4917754,-41.0615603,56,222.74373
1,Aiquara/BA,-14.126918,-39.8887574,448,10144.92754
D1,Aiquara/BA,-14.126918,-39.8887574,11,249.09420
1,Aiuaba/CE,-6.5710836,-40.1212278,506,2892.58561
D1,Aiuaba/CE,-6.5710836,-40.1212278,10,57.16572
1,Aiuruoca/MG,-21.9759554,-44.6036637,79,1321.95448
D1,Aiuruoca/MG,-21.9759554,-44.6036637,6,100.40161
1,Ajuricaba/RS,-28.239654,-53.7693013,931,13324.74596
D1,Ajuricaba/RS,-28.239654,-53.7693013,23,329.18277
1,Alagoa Grande/PB,-7.0415212,-35.6285322,3135,11023.59436
D1,Alagoa Grande/PB,-7.0415212,-35.6285322,60,210.97788
1,Alagoa Nova/PB,-7.0653703,-35.76695977336711,797,3809.56933
D1,Alagoa Nova/PB,-7.0653703,-35.76695977336711,17,81.25807
1,Alagoa/MG,-22.1697202,-44.6400042,417,15647.27955
D1,Alagoa/MG,-22.1697202,-44.6400042,5,187.61726
1,Alagoinha do Piauí/PI,-7.0090952,-40.939675,318,4148.72798
D1,Alagoinha do Piauí/PI,-7.0090952,-40.939675,10,130.46314
1,Alagoinha/PB,-6.97063215,-35.51490901897793,1605,11023.35165
D1,Alagoinha/PB,-6.97063215,-35.51490901897793,23,157.96703
1,Alagoinha/PE,-8.50355635,-36.77701174370496,752,5109.38986
D1,Alagoinha/PE,-8.50355635,-36.77701174370496,20,135.88803
1,Alagoinhas/BA,-12.133526,-38.420772,11403,7485.86922
D1,Alagoinhas/BA,-12.133526,-38.420772,223,146.39558
1,Alambari/SP,-23.550338,-47.897971,481,7847.93604
D1,Alambari/SP,-23.550338,-47.897971,9,146.84288
1,Albertina/MG,-20.66164,-43.784039,202,6708.73464
D1,Albertina/MG,-20.66164,-43.784039,7,232.48090
1,Alcantil/PB,-7.7425491,-36.0609604,372,6752.58668
D1,Alcantil/PB,-7.7425491,-36.0609604,6,108.91269
1,Alcinópolis/MS,-18.3264121,-53.7094463,215,3968.98652
D1,Alcinópolis/MS,-18.3264121,-53.7094463,6,110.76241
1,Alcobaça/BA,-17.5215875,-39.1965474,1340,5958.20365
D1,Alcobaça/BA,-17.5215875,-39.1965474,23,102.26767
1,Alcântara/MA,-2.4038956,-44.4154241,265,1198.44428
D1,Alcântara/MA,-2.4038956,-44.4154241,15,67.83647
1,Alcântaras/CE,-3.586247,-40.5457641,1431,12146.67685
D1,Alcântaras/CE,-3.586247,-40.5457641,17,144.30014
1,Aldeias Altas/MA,-4.6291957,-43.4708622,975,3643.90627
D1,Aldeias Altas/MA,-4.6291957,-43.4708622,13,48.58542
1,Alecrim/RS,-27.6566142,-54.7653195,249,4273.21091
D1,Alecrim/RS,-27.6566142,-54.7653195,11,188.77639
1,Alegre/ES,-20.7625787,-41.5318886,2063,6882.40200
D1,Alegre/ES,-20.7625787,-41.5318886,47,156.79733
1,Alegrete do Piauí/PI,-7.2440138,-40.8602296,476,9678.73119
D1,Alegrete do Piauí/PI,-7.2440138,-40.8602296,5,101.66734
1,Alegrete/RS,-29.790166,-55.794862,8092,11080.68138
D1,Alegrete/RS,-29.790166,-55.794862,228,312.20902
1,Alegria/RS,-27.8332103,-54.0574959,323,9573.20688
D1,Alegria/RS,-27.8332103,-54.0574959,2,59.27682
1,Alenquer/PA,-1.946229,-54.738355,2838,4970.92412
D1,Alenquer/PA,-1.946229,-54.738355,120,210.18707
1,Alexandria/RN,-6.414779,-38.0135516,1255,9259.94245
D1,Alexandria/RN,-6.414779,-38.0135516,16,118.05504
1,Alexânia/GO,-16.0834049,-48.5077803,2863,10221.34952
D1,Alexânia/GO,-16.0834049,-48.5077803,73,260.62121
1,Alfenas/MG,-21.4297405,-45.9479419,6750,8385.71819
D1,Alfenas/MG,-21.4297405,-45.9479419,150,186.34929
1,Alfredo Chaves/ES,-20.624970400000002,-40.75006690147988,2162,14771.79557
D1,Alfredo Chaves/ES,-20.624970400000002,-40.75006690147988,31,211.80650
1,Alfredo Marcondes/SP,-21.9527,-51.413956,211,5043.02103
D1,Alfredo Marcondes/SP,-21.9527,-51.413956,9,215.10516
1,Alfredo Vasconcelos/MG,-21.145833,-43.776389,329,4712.79186
D1,Alfredo Vasconcelos/MG,-21.145833,-43.776389,11,157.57055
1,Alfredo Wagner/SC,-27.6961513,-49.3326734,644,6385.08824
D1,Alfredo Wagner/SC,-27.6961513,-49.3326734,7,69.40313
1,Algodão de Jandaíra/PB,-6.9040175,-36.0089879,134,5199.84478
D1,Algodão de Jandaíra/PB,-6.9040175,-36.0089879,1,38.80481
1,Alhandra/PB,-7.4304246,-34.9106103,1798,9114.41172
D1,Alhandra/PB,-7.4304246,-34.9106103,32,162.21422
1,Aliança do Tocantins/TO,-11.3055927,-48.9409096,558,10437.71044
D1,Aliança do Tocantins/TO,-11.3055927,-48.9409096,20,374.11149
1,Aliança/PE,-7.60398,-35.222696,571,1487.09535
D1,Aliança/PE,-7.60398,-35.222696,49,127.61414
1,Almadina/BA,-14.70466,-39.6381994,588,10957.88297
D1,Almadina/BA,-14.70466,-39.6381994,9,167.72270
1,Almas/TO,-11.5681309,-47.1702803,210,3009.02708
D1,Almas/TO,-11.5681309,-47.1702803,4,57.31480
1,Almeirim/PA,-1.5290377,-52.5788111,3330,9772.27374
D1,Almeirim/PA,-1.5290377,-52.5788111,42,123.25390
1,Almenara/MG,-16.1740678,-40.6904907,3638,8632.51311
D1,Almenara/MG,-16.1740678,-40.6904907,42,99.66068
1,Almino Afonso/RN,-6.1544208,-37.7649018,403,8556.26327
D1,Almino Afonso/RN,-6.1544208,-37.7649018,11,233.54565
1,Almirante Tamandaré do Sul/RS,-28.1141129,-52.9134874,263,13494.09954
D1,Almirante Tamandaré do Sul/RS,-28.1141129,-52.9134874,3,153.92509
1,Almirante Tamandaré/PR,-25.3133048,-49.2997838,8374,6975.94988
D1,Almirante Tamandaré/PR,-25.3133048,-49.2997838,324,269.90778
1,Aloândia/GO,-17.7277983,-49.4809338,223,11228.60020
D1,Aloândia/GO,-17.7277983,-49.4809338,6,302.11480
1,Alpercata/MG,-18.9803616,-41.9827637,450,6051.64067
D1,Alpercata/MG,-18.9803616,-41.9827637,15,201.72136
1,Alpestre/RS,-27.2512339,-53.0349646,282,4648.09626
D1,Alpestre/RS,-27.2512339,-53.0349646,7,115.37828
1,Alpinópolis/MG,-20.863611,-46.387777,949,4754.98547
D1,Alpinópolis/MG,-20.863611,-46.387777,20,100.21044
1,Alta Floresta D'Oeste/RO,-11.9296917,-61.9961284,3667,16134.28370
D1,Alta Floresta D'Oeste/RO,-11.9296917,-61.9961284,62,272.79127
1,Alta Floresta/MT,-9.8715018,-56.0839881,7596,14619.21900
D1,Alta Floresta/MT,-9.8715018,-56.0839881,113,217.47917
1,Altair/SP,-20.5238955,-49.0606135,151,3607.26230
D1,Altair/SP,-20.5238955,-49.0606135,11,262.78070
1,Altamira do Maranhão/MA,-4.1643006,-45.4674574,307,3748.93149
D1,Altamira do Maranhão/MA,-4.1643006,-45.4674574,9,109.90353
1,Altamira do Paraná/PR,-24.799114,-52.7128633,185,10998.81094
D1,Altamira do Paraná/PR,-24.799114,-52.7128633,6,356.71819
1,Altamira/PA,-3.204065,-52.209961,12734,10980.52066
D1,Altamira/PA,-3.204065,-52.209961,274,236.27004
1,Altaneira/CE,-6.9980933,-39.7385742,426,5568.62745
D1,Altaneira/CE,-6.9980933,-39.7385742,14,183.00654
1,Alterosa/MG,-21.249166,-46.143055,581,4002.20431
D1,Alterosa/MG,-21.249166,-46.143055,31,213.54274
1,Altinho/PE,-8.4904095,-36.0607494,982,4272.53742
D1,Altinho/PE,-8.4904095,-36.0607494,19,82.66620
1,Altinópolis/SP,-21.021364,-47.3712,755,4659.63093
D1,Altinópolis/SP,-21.021364,-47.3712,25,154.29241
1,Alto Alegre do Maranhão/MA,-4.2055693,-44.4525287,1075,3858.85562
D1,Alto Alegre do Maranhão/MA,-4.2055693,-44.4525287,25,89.74083
1,Alto Alegre do Pindaré/MA,-3.6698186,-45.8462153,1833,5738.34643
D1,Alto Alegre do Pindaré/MA,-3.6698186,-45.8462153,45,140.87594
1,Alto Alegre dos Parecis/RO,-12.1314515,-61.856265,1377,10388.53263
D1,Alto Alegre dos Parecis/RO,-12.1314515,-61.856265,36,271.59562
1,Alto Alegre/RR,2.98858,-61.307167,1260,8192.45774
D1,Alto Alegre/RR,2.98858,-61.307167,29,188.55657
1,Alto Alegre/RS,-31.780844700000003,-52.81311114489171,174,10787.35276
D1,Alto Alegre/RS,-31.780844700000003,-52.81311114489171,1,61.99628
1,Alto Alegre/SP,-21.5820592,-50.1661976,292,7142.85714
D1,Alto Alegre/SP,-21.5820592,-50.1661976,14,342.46575
1,Alto Araguaia/MT,-17.3156528,-53.2169365,1075,5545.52489
D1,Alto Araguaia/MT,-17.3156528,-53.2169365,23,118.64844
1,Alto Bela Vista/SC,-27.4320737,-51.905771,156,8099.68847
D1,Alto Bela Vista/SC,-27.4320737,-51.905771,2,103.84216
1,Alto Boa Vista/MT,-11.6723985,-51.3744431,708,10207.61246
D1,Alto Boa Vista/MT,-11.6723985,-51.3744431,12,173.01038
1,Alto Caparaó/MG,-20.4405661,-41.8683799,361,6124.87275
D1,Alto Caparaó/MG,-20.4405661,-41.8683799,8,135.73125
1,Alto Feliz/RS,-29.3785943,-51.3123751,231,7608.69565
D1,Alto Feliz/RS,-29.3785943,-51.3123751,2,65.87615
1,Alto Garças/MT,-16.9469683,-53.529427,748,6155.87194
D1,Alto Garças/MT,-16.9469683,-53.529427,26,213.97416
1,Alto Horizonte/GO,-14.1954948,-49.3366993,734,11112.79334
D1,Alto Horizonte/GO,-14.1954948,-49.3366993,9,136.26041
1,Alto Jequitibá/MG,-20.423611,-41.966111,614,7396.69919
D1,Alto Jequitibá/MG,-20.423611,-41.966111,9,108.42067
1,Alto Longá/PI,-5.2549051,-42.2072388,583,4065.83444
D1,Alto Longá/PI,-5.2549051,-42.2072388,13,90.66183
1,Alto Paraguai/MT,-14.513712,-56.4936374,803,6999.04123
D1,Alto Paraguai/MT,-14.513712,-56.4936374,26,226.61902
1,Alto Paraná/PR,-23.131247,-52.318893,837,5632.94973
D1,Alto Paraná/PR,-23.131247,-52.318893,19,127.86863
1,Alto Paraíso de Goiás/GO,-14.1304779,-47.5100161,613,7973.46514
D1,Alto Paraíso de Goiás/GO,-14.1304779,-47.5100161,7,91.05099
1,Alto Paraíso/PR,-23.508137,-53.728537,174,6480.44693
D1,Alto Paraíso/PR,-23.508137,-53.728537,3,111.73184
1,Alto Paraíso/RO,-9.7240103,-63.3188123,1691,7740.19316
D1,Alto Paraíso/RO,-9.7240103,-63.3188123,40,183.09150
1,Alto Parnaíba/MA,-9.112506,-45.9310154,719,6412.77203
D1,Alto Parnaíba/MA,-9.112506,-45.9310154,7,62.43311
1,Alto Piquiri/PR,-24.0239021,-53.4417448,674,6893.02516
D1,Alto Piquiri/PR,-24.0239021,-53.4417448,18,184.08673
1,Alto Rio Doce/MG,-21.0239537,-43.4133507,324,2983.70016
D1,Alto Rio Doce/MG,-21.0239537,-43.4133507,23,211.80588
1,Alto Rio Novo/ES,-19.0577208,-41.0171518,671,8521.71704
D1,Alto Rio Novo/ES,-19.0577208,-41.0171518,21,266.70053
1,Alto Santo/CE,-5.5190371,-38.2719351,1305,7588.97418
D1,Alto Santo/CE,-5.5190371,-38.2719351,23,133.75204
1,Alto Taquari/MT,-17.8269099,-53.2831736,1371,12314.73996
D1,Alto Taquari/MT,-17.8269099,-53.2831736,26,233.53993
1,Alto do Rodrigues/RN,-5.290868,-36.7616726,1795,12187.66974
D1,Alto do Rodrigues/RN,-5.290868,-36.7616726,32,217.27322
1,Altos/PI,-5.0393915,-42.4611694,4033,9932.27435
D1,Altos/PI,-5.0393915,-42.4611694,82,201.94557
1,Altônia/PR,-23.8722004,-53.894037,937,4225.28860
D1,Altônia/PR,-23.8722004,-53.894037,18,81.16883
1,Alumínio/SP,-23.5203479,-47.2575256,1226,6532.74365
D1,Alumínio/SP,-23.5203479,-47.2575256,38,202.48308
1,Alvarenga/MG,-19.4175,-41.728334,402,10457.85640
D1,Alvarenga/MG,-19.4175,-41.728334,4,104.05827
1,Alvarães/AM,-3.214786,-64.8143124,2773,17096.17756
D1,Alvarães/AM,-3.214786,-64.8143124,44,271.27004
1,Alvinlândia/SP,-22.4431852,-49.7643596,127,3923.38585
D1,Alvinlândia/SP,-22.4431852,-49.7643596,7,216.24961
1,Alvinópolis/MG,-20.1105199,-43.0601805,575,3790.62562
D1,Alvinópolis/MG,-20.1105199,-43.0601805,18,118.66306
1,Alvorada D'Oeste/RO,-11.346271,-62.284697,1009,7152.98455
D1,Alvorada D'Oeste/RO,-11.346271,-62.284697,25,177.22955
1,Alvorada de Minas/MG,-18.7318587,-43.3641479,238,6601.94175
D1,Alvorada de Minas/MG,-18.7318587,-43.3641479,1,27.73925
1,Alvorada do Gurguéia/PI,-8.4465288,-43.8655915,320,5876.95133
D1,Alvorada do Gurguéia/PI,-8.4465288,-43.8655915,9,165.28926
1,Alvorada do Norte/GO,-14.483911,-46.4959897,648,7443.99770
D1,Alvorada do Norte/GO,-14.483911,-46.4959897,3,34.46295
1,Alvorada do Sul/PR,-22.7807269,-51.2307721,682,5928.88812
D1,Alvorada do Sul/PR,-22.7807269,-51.2307721,21,182.56107
1,Alvorada/RS,-29.9981184,-51.0772509,18984,8982.17192
D1,Alvorada/RS,-29.9981184,-51.0772509,684,323.63072
1,Alvorada/TO,-12.478465,-49.124926,1047,12470.22392
D1,Alvorada/TO,-12.478465,-49.124926,18,214.38780
1,Além Paraíba/MG,-21.8760576,-42.6810473,2830,7994.12446
D1,Além Paraíba/MG,-21.8760576,-42.6810473,135,381.34516
1,Amajari/RR,3.6523869,-61.4194315,978,7417.51991
D1,Amajari/RR,3.6523869,-61.4194315,20,151.68752
1,Amambai/MS,-23.1082701,-55.2284854,2359,5923.26621
D1,Amambai/MS,-23.1082701,-55.2284854,44,110.48059
1,Amaporã/PR,-23.094272,-52.786597,274,4327.22678
D1,Amaporã/PR,-23.094272,-52.786597,5,78.96399
1,Amapá do Maranhão/MA,-1.6762114,-46.0109669,172,2455.38901
D1,Amapá do Maranhão/MA,-1.6762114,-46.0109669,4,57.10207
1,Amapá/AP,2.0529997,-50.7930003,1272,13845.65146
D1,Amapá/AP,2.0529997,-50.7930003,10,108.84946
1,Amaraji/PE,-8.373925,-35.4536527,469,2050.72147
D1,Amaraji/PE,-8.373925,-35.4536527,29,126.80367
1,Amaral Ferrador/RS,-30.8750633,-52.2542051,233,3288.63797
D1,Amaral Ferrador/RS,-30.8750633,-52.2542051,6,84.68596
1,Amaralina/GO,-13.9236199,-49.2962411,63,1638.49155
1,Amarante do Maranhão/MA,-5.56913,-46.747284,1541,3692.87546
D1,Amarante do Maranhão/MA,-5.56913,-46.747284,55,131.80282
1,Amarante/PI,-6.2459374,-42.8476238,1424,8089.07067
D1,Amarante/PI,-6.2459374,-42.8476238,32,181.77687
1,Amargosa/BA,-13.03793715,-39.60796443875596,2418,6458.16084
D1,Amargosa/BA,-13.03793715,-39.60796443875596,47,125.53084
1,Amaturá/AM,-3.3640509,-68.1994689,2351,20032.37900
D1,Amaturá/AM,-3.3640509,-68.1994689,17,144.85344
1,Americana/SP,-22.7392463,-47.3306032,17764,7339.94992
D1,Americana/SP,-22.7392463,-47.3306032,542,223.95028
1,Americano do Brasil/GO,-16.2515808,-49.9806104,440,7138.22193
D1,Americano do Brasil/GO,-16.2515808,-49.9806104,16,259.57171
1,Ametista do Sul/RS,-27.3617341,-53.1826575,571,7713.08929
D1,Ametista do Sul/RS,-27.3617341,-53.1826575,13,175.60448
1,Amontada/CE,-3.3634586,-39.8284791,2570,5863.69755
D1,Amontada/CE,-3.3634586,-39.8284791,47,107.23494
1,Amorinópolis/GO,-16.6211308,-51.0949921,173,5637.01531
D1,Amorinópolis/GO,-16.6211308,-51.0949921,3,97.75171
1,Amparo de São Francisco/SE,-10.1299754,-36.9269099,202,8487.39496
D1,Amparo de São Francisco/SE,-10.1299754,-36.9269099,3,126.05042
1,Amparo do Serra/MG,-20.5070255,-42.8028462,134,2864.47200
D1,Amparo do Serra/MG,-20.5070255,-42.8028462,5,106.88328
1,Amparo/PB,-7.56394725,-37.04652873235175,159,7063.52732
D1,Amparo/PB,-7.56394725,-37.04652873235175,4,177.69880
1,Amparo/SP,-22.70111,-46.76444,4949,6809.58212
D1,Amparo/SP,-22.70111,-46.76444,118,162.36223
1,Ampére/PR,-25.9168712,-53.4742414,1236,6400.49713
D1,Ampére/PR,-25.9168712,-53.4742414,27,139.81668
1,Amélia Rodrigues/BA,-12.4015388,-38.7516971,1936,7729.16001
D1,Amélia Rodrigues/BA,-12.4015388,-38.7516971,38,151.70872
1,América Dourada/BA,-11.4515262,-41.4357517,782,4860.16159
D1,América Dourada/BA,-11.4515262,-41.4357517,7,43.50528
1,Américo Brasiliense/SP,-21.7297099,-48.1052092,3338,8135.11406
D1,Américo Brasiliense/SP,-21.7297099,-48.1052092,79,192.53266
1,Américo de Campos/SP,-20.298476,-49.735904,687,11486.37352
D1,Américo de Campos/SP,-20.298476,-49.735904,23,384.55108
1,Anadia/AL,-9.6830208,-36.3052699,1151,6567.38560
D1,Anadia/AL,-9.6830208,-36.3052699,27,154.05683
1,Anagé/BA,-14.6134669,-41.1376308,816,3776.55389
D1,Anagé/BA,-14.6134669,-41.1376308,17,78.67821
1,Anahy/PR,-24.6450861,-53.1337957,327,11728.83788
D1,Anahy/PR,-24.6450861,-53.1337957,8,286.94405
1,Anajatuba/MA,-3.26441,-44.6179916,815,3019.86068
D1,Anajatuba/MA,-3.26441,-44.6179916,21,77.81236
1,Anajás/PA,-0.9878802,-49.9390114,1319,4442.87254
D1,Anajás/PA,-0.9878802,-49.9390114,21,70.73565
1,Analândia/SP,-22.128917,-47.661939,271,5359.96835
D1,Analândia/SP,-22.128917,-47.661939,3,59.33544
1,Anamã/AM,-3.5797356,-61.4049996,1729,12388.93666
D1,Anamã/AM,-3.5797356,-61.4049996,9,64.48839
1,Ananindeua/PA,-1.374035,-48.4016623,21901,4089.46367
D1,Ananindeua/PA,-1.374035,-48.4016623,775,144.71186
1,Ananás/TO,-6.3663053,-48.080238,1471,15497.26085
D1,Ananás/TO,-6.3663053,-48.080238,22,231.77413
1,Anapu/PA,-3.4668292,-51.2057035,1301,4547.83794
D1,Anapu/PA,-3.4668292,-51.2057035,36,125.84333
1,Anapurus/MA,-3.6751298,-43.1046001,828,5209.51302
D1,Anapurus/MA,-3.6751298,-43.1046001,11,69.20851
1,Anastácio/MS,-20.4832458,-55.8048448,1883,7461.26719
D1,Anastácio/MS,-20.4832458,-55.8048448,58,229.82129
1,Anaurilândia/MS,-22.185169,-52.719056,396,4363.15558
D1,Anaurilândia/MS,-22.185169,-52.719056,13,143.23491
1,Anchieta/ES,-20.8057672,-40.6454564,4433,14886.32929
D1,Anchieta/ES,-20.8057672,-40.6454564,81,272.00376
1,Anchieta/SC,-26.5350527,-53.3293938,432,7773.97877
D1,Anchieta/SC,-26.5350527,-53.3293938,7,125.96725
1,Andaraí/BA,-12.8059674,-41.3322919,701,5338.10539
D1,Andaraí/BA,-12.8059674,-41.3322919,6,45.68992
1,Andirá/PR,-23.0494761,-50.2310027,1752,8792.53237
D1,Andirá/PR,-23.0494761,-50.2310027,64,321.18840
1,Andorinha/BA,-10.3445708,-39.8334411,750,5171.34386
D1,Andorinha/BA,-10.3445708,-39.8334411,12,82.74150
1,Andradas/MG,-22.0680484,-46.5688976,2869,6930.62132
D1,Andradas/MG,-22.0680484,-46.5688976,85,205.33385
1,Andradina/SP,-20.896505,-51.3742765,5052,8831.85903
D1,Andradina/SP,-20.896505,-51.3742765,217,379.35737
1,Andrelândia/MG,-21.739722,-44.308889,206,1687.69458
D1,Andrelândia/MG,-21.739722,-44.308889,7,57.34884
1,André da Rocha/RS,-28.6309124,-51.5733328,99,7371.55622
1,Angatuba/SP,-23.4938938,-48.4110675,2304,9042.74108
D1,Angatuba/SP,-23.4938938,-48.4110675,58,227.63845
1,Angelim/PE,-8.8902038,-36.2872987,178,1585.60485
D1,Angelim/PE,-8.8902038,-36.2872987,6,53.44735
1,Angelina/SC,-27.5805287,-48.9838759,480,10120.17710
D1,Angelina/SC,-27.5805287,-48.9838759,1,21.08370
1,Angelândia/MG,-17.7253,-42.2728,94,1098.51583
D1,Angelândia/MG,-17.7253,-42.2728,1,11.68634
1,Angical do Piauí/PI,-6.0872666,-42.7366138,637,9391.12487
D1,Angical do Piauí/PI,-6.0872666,-42.7366138,9,132.68465
1,Angical/BA,-12.005623,-44.7000236,527,3781.03028
D1,Angical/BA,-12.005623,-44.7000236,11,78.92094
1,Angico/TO,-6.3893733,-47.8656722,219,6340.47481
D1,Angico/TO,-6.3893733,-47.8656722,3,86.85582
1,Angicos/RN,-5.6666344,-36.6009064,721,6159.76079
D1,Angicos/RN,-5.6666344,-36.6009064,18,153.78044
1,Angra dos Reis/RJ,-23.0063966,-44.316326,12789,6176.94790
D1,Angra dos Reis/RJ,-23.0063966,-44.316326,432,208.65130
1,Anguera/BA,-12.1509425,-39.2452469,367,3248.65008
D1,Anguera/BA,-12.1509425,-39.2452469,1,8.85191
1,Angélica/MS,-22.1588196,-53.7728504,888,8122.94182
D1,Angélica/MS,-22.1588196,-53.7728504,16,146.35931
1,Anhanguera/GO,-18.3338749,-48.220363,88,7586.20690
D1,Anhanguera/GO,-18.3338749,-48.220363,6,517.24138
1,Anhembi/SP,-22.7891096,-48.1316776,197,2888.98665
D1,Anhembi/SP,-22.7891096,-48.1316776,5,73.32453
1,Anhumas/SP,-22.2956478,-51.3873401,195,4705.59846
D1,Anhumas/SP,-22.2956478,-51.3873401,4,96.52510
1,Anicuns/GO,-16.4606451,-49.9572265,2366,10763.84150
D1,Anicuns/GO,-16.4606451,-49.9572265,57,259.31486
1,Anita Garibaldi/SC,-27.6855032,-51.1293873,1078,15495.18471
D1,Anita Garibaldi/SC,-27.6855032,-51.1293873,9,129.36611
1,Anitápolis/SC,-27.9041185,-49.1287395,312,9665.42751
D1,Anitápolis/SC,-27.9041185,-49.1287395,4,123.91574
1,Anori/AM,-3.7435254,-61.6605203,1869,8702.33273
D1,Anori/AM,-3.7435254,-61.6605203,31,144.34046
1,Anta Gorda/RS,-28.9718745,-52.0069187,574,9629.25684
D1,Anta Gorda/RS,-28.9718745,-52.0069187,4,67.10284
1,Antas/BA,-10.4114649,-38.3308815,1109,5693.31074
D1,Antas/BA,-10.4114649,-38.3308815,7,35.93614
1,Antonina do Norte/CE,-6.7754187,-39.9879345,597,8091.62375
D1,Antonina do Norte/CE,-6.7754187,-39.9879345,24,325.29141
1,Antonina/PR,-25.4298854,-48.7125431,2227,11752.59908
D1,Antonina/PR,-25.4298854,-48.7125431,56,295.53011
1,Antônio Almeida/PI,-7.2186016,-44.1950248,403,12712.93375
D1,Antônio Almeida/PI,-7.2186016,-44.1950248,10,315.45741
1,Antônio Cardoso/BA,-12.4363122,-39.1200307,375,3211.44129
D1,Antônio Cardoso/BA,-12.4363122,-39.1200307,7,59.94690
1,Antônio Carlos/MG,-21.318334,-43.746666,509,4441.92338
D1,Antônio Carlos/MG,-21.318334,-43.746666,10,87.26765
1,Antônio Carlos/SC,-27.5168462,-48.7684715,1452,16858.23755
D1,Antônio Carlos/SC,-27.5168462,-48.7684715,21,243.81749
1,Antônio Dias/MG,-19.6525,-42.872778,508,5477.08895
D1,Antônio Dias/MG,-19.6525,-42.872778,22,237.19677
1,Antônio Gonçalves/BA,-10.5715409,-40.2748824,720,6061.62654
D1,Antônio Gonçalves/BA,-10.5715409,-40.2748824,8,67.35141
1,Antônio João/MS,-22.1892837,-55.9508227,366,4057.64967
D1,Antônio João/MS,-22.1892837,-55.9508227,7,77.60532
1,Antônio Martins/RN,-6.2155812,-37.8890129,563,7869.72323
D1,Antônio Martins/RN,-6.2155812,-37.8890129,5,69.89097
1,Antônio Olinto/PR,-25.9849006,-50.1974516,365,4914.50114
D1,Antônio Olinto/PR,-25.9849006,-50.1974516,8,107.71509
1,Antônio Prado de Minas/MG,-21.0171988,-42.1101106,155,9766.85570
D1,Antônio Prado de Minas/MG,-21.0171988,-42.1101106,5,315.05986
1,Antônio Prado/RS,-28.8567806,-51.2801355,2120,16251.43733
D1,Antônio Prado/RS,-28.8567806,-51.2801355,19,145.64967
1,Anápolis/GO,-16.3332828,-48.9525756,35438,9045.56732
D1,Anápolis/GO,-16.3332828,-48.9525756,1232,314.46862
1,Anísio de Abreu/PI,-9.185643,-43.04941,284,2857.71785
D1,Anísio de Abreu/PI,-9.185643,-43.04941,10,100.62387
1,Aparecida d'Oeste/SP,-20.4498109,-50.8808706,641,15416.06542
D1,Aparecida d'Oeste/SP,-20.4498109,-50.8808706,12,288.60029
1,Aparecida de Goiânia/GO,-16.8226769,-49.2452546,64185,10876.12218
D1,Aparecida de Goiânia/GO,-16.8226769,-49.2452546,1229,208.25355
1,Aparecida do Rio Doce/GO,-18.2980167,-51.1491312,185,7477.76880
D1,Aparecida do Rio Doce/GO,-18.2980167,-51.1491312,3,121.26112
1,Aparecida do Rio Negro/TO,-9.9513491,-47.9773786,315,6497.52475
D1,Aparecida do Rio Negro/TO,-9.9513491,-47.9773786,5,103.13531
1,Aparecida do Taboado/MS,-20.0840304,-51.1013943,2829,10851.96977
D1,Aparecida do Taboado/MS,-20.0840304,-51.1013943,43,164.94687
1,Aparecida/PB,-6.7859598, -38.0831353,729,8662.07224
D1,Aparecida/PB,-6.7859598, -38.0831353,13,154.46768
1,Aparecida/SP,-22.851552,-45.2340924,2125,5872.59914
D1,Aparecida/SP,-22.851552,-45.2340924,74,204.50463
1,Aperibé/RJ,-21.6211928,-42.1028167,519,4360.97807
D1,Aperibé/RJ,-21.6211928,-42.1028167,23,193.26107
1,Apiacá/ES,-21.152272,-41.569297,727,9624.04024
D1,Apiacá/ES,-21.152272,-41.569297,29,383.90257
1,Apiacás/MT,-9.5678422,-57.394852,1531,14888.65117
D1,Apiacás/MT,-9.5678422,-57.394852,14,136.14704
1,Apiaí/SP,-24.5076527,-48.8461582,1099,4536.44844
D1,Apiaí/SP,-24.5076527,-48.8461582,65,268.30678
1,Apicum-Açu/MA,-1.5279295,-45.082278,470,2699.13283
D1,Apicum-Açu/MA,-1.5279295,-45.082278,5,28.71418
1,Apiúna/SC,-27.0374658,-49.3885037,772,7116.51917
D1,Apiúna/SC,-27.0374658,-49.3885037,15,138.27434
1,Apodi/RN,-5.6631109,-37.796927,5387,15016.44645
D1,Apodi/RN,-5.6631109,-37.796927,85,236.94040
1,Aporá/BA,-11.6599747,-38.0794757,469,2636.60895
D1,Aporá/BA,-11.6599747,-38.0794757,18,101.19181
1,Aporé/GO,-18.9642193,-51.92804,332,7844.99055
D1,Aporé/GO,-18.9642193,-51.92804,9,212.66541
1,Apuarema/BA,-13.8517897,-39.7457126,649,8887.97590
D1,Apuarema/BA,-13.8517897,-39.7457126,9,123.25390
1,Apucarana/PR,-23.5525327,-51.4610764,7910,5806.18641
D1,Apucarana/PR,-23.5525327,-51.4610764,284,208.46485
1,Apuiarés/CE,-3.9460303,-39.4313298,964,6570.33806
D1,Apuiarés/CE,-3.9460303,-39.4313298,21,143.12977
1,Apuí/AM,-7.1940195,-59.8830192,1298,5805.26857
D1,Apuí/AM,-7.1940195,-59.8830192,27,120.75674
1,Aquidabã/SE,-10.2837579,-37.0188687,1953,9007.88709
D1,Aquidabã/SE,-10.2837579,-37.0188687,33,152.20700
1,Aquidauana/MS,-20.473969,-55.7821375,4308,8969.58088
D1,Aquidauana/MS,-20.473969,-55.7821375,123,256.09528
1,Aquiraz/CE,-3.9063117,-38.387504,5838,7213.19577
D1,Aquiraz/CE,-3.9063117,-38.387504,79,97.60919
1,Arabutã/SC,-27.1587028,-52.1438142,390,9139.91094
D1,Arabutã/SC,-27.1587028,-52.1438142,7,164.04968
1,Aracaju/SE,-10.9162061,-37.0774655,107692,16196.52644
D1,Aracaju/SE,-10.9162061,-37.0774655,2015,303.04944
1,Aracati/CE,-4.558259,-37.767894,6268,8360.12004
D1,Aracati/CE,-4.558259,-37.767894,125,166.72224
1,Aracatu/BA,-14.4274236,-41.4604105,762,5841.31851
D1,Aracatu/BA,-14.4274236,-41.4604105,14,107.32081
1,Araci/BA,-11.3356065,-38.9573261,3265,5974.60108
D1,Araci/BA,-11.3356065,-38.9573261,42,76.85551
1,Aracitaba/MG,-21.3425,-43.378611,77,3739.67946
D1,Aracitaba/MG,-21.3425,-43.378611,8,388.53813
1,Aracoiaba/CE,-4.3702577,-38.8084313,3339,12583.38044
D1,Aracoiaba/CE,-4.3702577,-38.8084313,28,105.52101
1,Aracruz/ES,-19.8245218,-40.2735025,14362,13930.02978
D1,Aracruz/ES,-19.8245218,-40.2735025,204,197.86423
1,Aragarças/GO,-15.8957166,-52.2514538,2017,9949.19351
D1,Aragarças/GO,-15.8957166,-52.2514538,49,241.70078
1,Aragoiânia/GO,-16.9146388,-49.4499148,935,8908.15549
D1,Aragoiânia/GO,-16.9146388,-49.4499148,17,161.96646
1,Aragominas/TO,-7.1654101,-48.525488,481,8392.95062
D1,Aragominas/TO,-7.1654101,-48.525488,9,157.04066
1,Araguacema/TO,-8.8067391,-49.5560969,538,7519.21733
D1,Araguacema/TO,-8.8067391,-49.5560969,11,153.73864
1,Araguaiana/MT,-15.729144,-51.834112,179,5757.47829
D1,Araguaiana/MT,-15.729144,-51.834112,5,160.82342
1,Araguainha/MT,-16.857016,-53.031778,25,2642.70613
1,Araguanã/MA,-2.9508403,-45.6651986,761,4893.57598
D1,Araguanã/MA,-2.9508403,-45.6651986,5,32.15227
1,Araguanã/TO,-6.5799107,-48.6428482,431,7440.01381
D1,Araguanã/TO,-6.5799107,-48.6428482,12,207.14656
1,Araguapaz/GO,-15.0937927,-50.626417,491,6308.62135
D1,Araguapaz/GO,-15.0937927,-50.626417,19,244.12180
1,Araguari/MG,-18.6511256,-48.1933764,13020,11050.28644
D1,Araguari/MG,-18.6511256,-48.1933764,356,302.14301
1,Araguatins/TO,-5.6522925,-48.1158973,2114,5844.62262
D1,Araguatins/TO,-5.6522925,-48.1158973,52,143.76555
1,Araguaçu/TO,-12.928934,-49.823134,790,9330.34133
D1,Araguaçu/TO,-12.928934,-49.823134,18,212.59006
1,Araguaína/TO,-7.193241,-48.2018597,29743,16219.23754
D1,Araguaína/TO,-7.193241,-48.2018597,390,212.67198
1,Araioses/MA,-2.890914,-41.904993,644,1376.92160
D1,Araioses/MA,-2.890914,-41.904993,13,27.79500
1,Aral Moreira/MS,-22.951141,-55.6268421,422,3421.99157
D1,Aral Moreira/MS,-22.951141,-55.6268421,9,72.98086
1,Aramari/BA,-12.0907897,-38.4985065,532,4641.82881
D1,Aramari/BA,-12.0907897,-38.4985065,11,95.97766
1,Arambaré/RS,-30.9132252,-51.4994625,168,4716.45143
D1,Arambaré/RS,-30.9132252,-51.4994625,7,196.51881
1,Arame/MA,-4.8858769,-46.0102484,1166,3558.78403
D1,Arame/MA,-4.8858769,-46.0102484,35,106.82456
1,Aramina/SP,-20.0876144,-47.789201,262,4633.06808
D1,Aramina/SP,-20.0876144,-47.789201,10,176.83466
1,Arandu/SP,-23.1345103,-49.0545651,356,5593.08720
D1,Arandu/SP,-23.1345103,-49.0545651,7,109.97643
1,Arantina/MG,-21.911667,-44.255833,156,5597.41658
D1,Arantina/MG,-21.911667,-44.255833,3,107.64263
1,Arapeí/SP,-22.6738889,-44.4477778,187,7601.62602
D1,Arapeí/SP,-22.6738889,-44.4477778,2,81.30081
1,Arapiraca/AL,-9.754866,-36.661471,23620,10135.29460
D1,Arapiraca/AL,-9.754866,-36.661471,383,164.34453
1,Arapoema/TO,-7.6575001,-49.0641484,425,6423.82104
D1,Arapoema/TO,-7.6575001,-49.0641484,6,90.68924
1,Araponga/MG,-20.666667,-42.520556,375,4436.29481
D1,Araponga/MG,-20.666667,-42.520556,6,70.98072
1,Arapongas/PR,-23.415296,-51.42592,10884,8720.45509
D1,Arapongas/PR,-23.415296,-51.42592,413,330.90297
1,Araporã/MG,-18.4318188,-49.188313,1678,24210.07070
D1,Araporã/MG,-18.4318188,-49.188313,25,360.69831
1,Arapoti/PR,-24.1457957,-49.8224605,2466,8713.78092
D1,Arapoti/PR,-24.1457957,-49.8224605,45,159.01060
1,Araputanga/MT,-15.4710868,-58.346796,1776,10477.25798
D1,Araputanga/MT,-15.4710868,-58.346796,47,277.26978
1,Arapuá/MG,-19.034444,-46.155556,202,7125.22046
D1,Arapuá/MG,-19.034444,-46.155556,2,70.54674
1,Arapuã/PR,-24.3079525,-51.7901941,189,6281.15653
D1,Arapuã/PR,-24.3079525,-51.7901941,5,166.16816
1,Araquari/SC,-26.3703324,-48.7210994,3284,8308.87562
D1,Araquari/SC,-26.3703324,-48.7210994,68,172.04736
1,Arara/PB,-6.8271895,-35.7605703,835,6166.00207
D1,Arara/PB,-6.8271895,-35.7605703,21,155.07311
1,Araranguá/SC,-28.9348832,-49.4858389,9219,13386.67286
D1,Araranguá/SC,-28.9348832,-49.4858389,218,316.55219
1,Araraquara/SP,-21.7886713,-48.1773096,17781,7460.38206
D1,Araraquara/SP,-21.7886713,-48.1773096,396,166.14990
1,Araras/SP,-22.3569477,-47.3838889,14030,10353.78507
D1,Araras/SP,-22.3569477,-47.3838889,308,227.29621
1,Ararendá/CE,-4.7504395,-40.8303611,849,7747.05721
D1,Ararendá/CE,-4.7504395,-40.8303611,16,145.99872
1,Arari/MA,-3.4547602,-44.7772723,680,2271.81612
D1,Arari/MA,-3.4547602,-44.7772723,29,96.88628
1,Araricá/RS,-29.6168543,-50.929121,956,16565.58655
D1,Araricá/RS,-29.6168543,-50.929121,24,415.87247
1,Araripe/CE,-7.212861,-40.1359222,958,4424.12487
D1,Araripe/CE,-7.212861,-40.1359222,13,60.03510
1,Araripina/PE,-7.5768582,-40.5038509,5876,6924.01961
D1,Araripina/PE,-7.5768582,-40.5038509,126,148.47285
1,Araruama/RJ,-22.8733203,-42.3428897,5344,3979.35857
D1,Araruama/RJ,-22.8733203,-42.3428897,325,242.00815
1,Araruna/PB,-6.5321155,-35.7397595,600,2932.12139
D1,Araruna/PB,-6.5321155,-35.7397595,16,78.18990
1,Araruna/PR,-23.9320308,-52.4976047,1262,9014.28571
D1,Araruna/PR,-23.9320308,-52.4976047,20,142.85714
1,Arataca/BA,-15.2617424,-39.4122943,575,5245.87173
D1,Arataca/BA,-15.2617424,-39.4122943,14,127.72557
1,Aratiba/RS,-27.3955734,-52.3024325,357,5768.29859
D1,Aratiba/RS,-27.3955734,-52.3024325,6,96.94619
1,Aratuba/CE,-4.4195958,-39.0463737,1191,10091.50991
D1,Aratuba/CE,-4.4195958,-39.0463737,8,67.78512
1,Aratuípe/BA,-13.077137,-39.0010786,344,3892.72378
D1,Aratuípe/BA,-13.077137,-39.0010786,9,101.84452
1,Araucária/PR,-25.5861107,-49.4051209,21341,14595.72955
D1,Araucária/PR,-25.5861107,-49.4051209,324,221.59301
1,Arauá/SE,-11.2644014,-37.6181058,1047,10525.78667
D1,Arauá/SE,-11.2644014,-37.6181058,19,191.01237
1,Araxá/MG,-19.5928536,-46.940241,10300,9595.94548
D1,Araxá/MG,-19.5928536,-46.940241,155,144.40500
1,Araçagi/PB,-6.8519969,-35.3835602,1043,6163.93830
D1,Araçagi/PB,-6.8519969,-35.3835602,14,82.73743
1,Araçariguama/SP,-23.438611,-47.061389,1389,6076.11549
D1,Araçariguama/SP,-23.438611,-47.061389,46,201.22485
1,Araçatuba/SP,-21.207992,-50.4390225,22742,11478.38025
D1,Araçatuba/SP,-21.207992,-50.4390225,676,341.19185
1,Araçaí/MG,-19.200833,-44.2475,49,2081.56330
1,Araçoiaba da Serra/SP,-23.5045367,-47.6168158,2202,6331.95307
D1,Araçoiaba da Serra/SP,-23.5045367,-47.6168158,51,146.65286
1,Araçoiaba/PE,-7.7856903,-35.0898881,541,2609.36671
D1,Araçoiaba/PE,-7.7856903,-35.0898881,28,135.05040
1,Araçu/GO,-16.3561579,-49.6815269,387,11101.54905
D1,Araçu/GO,-16.3561579,-49.6815269,15,430.29260
1,Araçuaí/MG,-16.8484451,-42.0661868,1322,3601.00240
D1,Araçuaí/MG,-16.8484451,-42.0661868,32,87.16496
1,Araçás/BA,-12.2139176,-38.2026159,570,4669.06946
D1,Araçás/BA,-12.2139176,-38.2026159,7,57.33945
1,Araújos/MG,-19.948055,-45.165556,618,6573.76875
D1,Araújos/MG,-19.948055,-45.165556,9,95.73450
1,Arceburgo/MG,-21.364444,-46.939722,858,7883.85555
D1,Arceburgo/MG,-21.364444,-46.939722,23,211.33879
1,Arco-Íris/SP,-21.7741308,-50.4668814,109,6147.77214
D1,Arco-Íris/SP,-21.7741308,-50.4668814,6,338.40948
1,Arcos/MG,-20.282223,-45.539444,4432,10975.73056
D1,Arcos/MG,-20.282223,-45.539444,106,262.50619
1,Arcoverde/PE,-8.415192,-37.057748,5199,6948.49109
D1,Arcoverde/PE,-8.415192,-37.057748,110,147.01558
1,Areado/MG,-21.3582771,-46.1476688,606,3991.83190
D1,Areado/MG,-21.3582771,-46.1476688,16,105.39490
1,Areal/RJ,-22.2314922,-43.1056264,979,7727.52388
D1,Areal/RJ,-22.2314922,-43.1056264,40,315.73131
1,Arealva/SP,-22.0301906,-48.9111936,662,7686.05596
D1,Arealva/SP,-22.0301906,-48.9111936,10,116.10356
1,Areia Branca/RN,-4.9506652,-37.1263312,2184,7809.20370
D1,Areia Branca/RN,-4.9506652,-37.1263312,84,300.35399
1,Areia Branca/SE,-10.7591455,-37.3148072,1656,8862.24981
D1,Areia Branca/SE,-10.7591455,-37.3148072,42,224.76721
1,Areia de Baraúnas/PB,-7.1233949,-36.9446216,110,5198.48771
D1,Areia de Baraúnas/PB,-7.1233949,-36.9446216,3,141.77694
1,Areia/PB,-6.9680243,-35.6994783,1099,4850.81215
D1,Areia/PB,-6.9680243,-35.6994783,22,97.10452
1,Areial/PB,-7.0501306,-35.9245244,267,3799.63000
D1,Areial/PB,-7.0501306,-35.9245244,7,99.61577
1,Areias/SP,-22.5800929,-44.6975127,247,6339.83573
D1,Areias/SP,-22.5800929,-44.6975127,1,25.66735
1,Areiópolis/SP,-22.6758064,-48.6673653,1047,9383.40204
D1,Areiópolis/SP,-22.6758064,-48.6673653,13,116.50833
1,Arenápolis/MT,-14.4610369,-56.8432806,1394,14670.59566
D1,Arenápolis/MT,-14.4610369,-56.8432806,24,252.57840
1,Arenópolis/GO,-16.3859286,-51.55937,171,6742.90221
D1,Arenópolis/GO,-16.3859286,-51.55937,8,315.45741
1,Argirita/MG,-21.612761,-42.8371922,248,9171.59763
D1,Argirita/MG,-21.612761,-42.8371922,5,184.91124
1,Aricanduva/MG,-17.8678,-42.5569,81,1537.29360
1,Arinos/MG,-15.917223,-46.106111,544,3045.57160
D1,Arinos/MG,-15.917223,-46.106111,13,72.78020
1,Aripuanã/MT,-10.175806,-59.4439663,2309,10165.53667
D1,Aripuanã/MT,-10.175806,-59.4439663,41,180.50542
1,Ariquemes/RO,-9.9076522,-63.033069,19669,17958.78491
D1,Ariquemes/RO,-9.9076522,-63.033069,430,392.61160
1,Ariranha do Ivaí/PR,-24.3834527,-51.5876772,139,6727.97677
D1,Ariranha do Ivaí/PR,-24.3834527,-51.5876772,2,96.80542
1,Ariranha/SP,-21.18716,-48.790418,438,4487.24516
D1,Ariranha/SP,-21.18716,-48.790418,16,163.91763
1,Armazém/SC,-28.2624996,-49.0190126,1342,15321.38372
D1,Armazém/SC,-28.2624996,-49.0190126,28,319.67120
1,Armação dos Búzios/RJ,-22.7597805,-41.8875267,4107,11912.28935
D1,Armação dos Búzios/RJ,-22.7597805,-41.8875267,50,145.02422
1,Arneiroz/CE,-6.3235099,-40.1603859,532,6782.25395
D1,Arneiroz/CE,-6.3235099,-40.1603859,15,191.22896
1,Aroazes/PI,-6.1108814,-41.7886137,544,9335.85035
D1,Aroazes/PI,-6.1108814,-41.7886137,12,205.93788
1,Aroeiras do Itaim/PI,-7.2797031,-41.5629681,106,4155.23324
D1,Aroeiras do Itaim/PI,-7.2797031,-41.5629681,2,78.40063
1,Aroeiras/PB,-7.5462904,-35.7080002,1012,5293.99456
D1,Aroeiras/PB,-7.5462904,-35.7080002,7,36.61854
1,Arraial do Cabo/RJ,-22.9662839,-42.024427,643,2101.78799
D1,Arraial do Cabo/RJ,-22.9662839,-42.024427,31,101.33037
1,Arraial/PI,-6.6541632,-42.5335332,141,2987.28814
D1,Arraial/PI,-6.6541632,-42.5335332,2,42.37288
1,Arraias/TO,-12.9287788,-46.9437231,527,5002.84792
D1,Arraias/TO,-12.9287788,-46.9437231,4,37.97228
1,Arroio Grande/RS,-32.2384246,-53.0866661,1705,9348.61279
D1,Arroio Grande/RS,-32.2384246,-53.0866661,49,268.66981
1,Arroio Trinta/SC,-26.9301976,-51.334928,529,14905.60721
D1,Arroio Trinta/SC,-26.9301976,-51.334928,12,338.12342
1,Arroio do Meio/RS,-29.4020392,-51.9444993,2816,13430.62908
D1,Arroio do Meio/RS,-29.4020392,-51.9444993,37,176.46778
1,Arroio do Padre/RS,-31.4428773,-52.4228985,160,5421.89088
D1,Arroio do Padre/RS,-31.4428773,-52.4228985,3,101.66045
1,Arroio do Sal/RS,-29.549852,-49.8874395,972,9456.17278
D1,Arroio do Sal/RS,-29.549852,-49.8874395,33,321.04290
1,Arroio do Tigre/RS,-29.334158,-53.0888935,990,7380.89913
D1,Arroio do Tigre/RS,-29.334158,-53.0888935,19,141.65362
1,Arroio dos Ratos/RS,-30.0894524,-51.7265541,852,6009.73408
D1,Arroio dos Ratos/RS,-30.0894524,-51.7265541,31,218.66403
1,Artur Nogueira/SP,-22.572737,-47.172679,3577,6463.67907
D1,Artur Nogueira/SP,-22.572737,-47.172679,101,182.50813
1,Aruanã/GO,-14.9162439,-51.0715692,470,4648.86251
D1,Aruanã/GO,-14.9162439,-51.0715692,10,98.91197
1,Arujá/SP,-23.396266,-46.3175449,6450,7075.70455
D1,Arujá/SP,-23.396266,-46.3175449,243,266.57306
1,Arvoredo/SC,-27.0752908,-52.4571847,275,12309.75828
D1,Arvoredo/SC,-27.0752908,-52.4571847,4,179.05103
1,Arvorezinha/RS,-28.87369,-52.17808,740,7099.68339
D1,Arvorezinha/RS,-28.87369,-52.17808,24,230.26000
1,Arês/RN,-6.1969216,-35.1642968,909,6305.05653
D1,Arês/RN,-6.1969216,-35.1642968,20,138.72512
1,Ascurra/SC,-26.9569975,-49.3767752,1068,13386.81374
D1,Ascurra/SC,-26.9569975,-49.3767752,9,112.81023
1,Aspásia/SP,-20.160028,-50.728046,104,5720.57206
D1,Aspásia/SP,-20.160028,-50.728046,4,220.02200
1,Assaré/CE,-6.8746791,-39.8741385,1636,6968.22557
D1,Assaré/CE,-6.8746791,-39.8741385,32,136.29781
1,Assaí/PR,-23.3736041,-50.8454929,1211,8098.16771
D1,Assaí/PR,-23.3736041,-50.8454929,39,260.79979
1,Assis Brasil/AC,-10.9409203,-69.5672108,1612,21396.33661
D1,Assis Brasil/AC,-10.9409203,-69.5672108,22,292.00956
1,Assis Chateaubriand/PR,-24.4054826,-53.5120468,3505,10512.89742
D1,Assis Chateaubriand/PR,-24.4054826,-53.5120468,79,236.95261
1,Assis/SP,-22.6620892,-50.420623,8465,8055.23043
D1,Assis/SP,-22.6620892,-50.420623,274,260.73634
1,Assunção do Piauí/PI,-5.8610212,-41.0485091,301,3828.05545
D1,Assunção do Piauí/PI,-5.8610212,-41.0485091,7,89.02455
1,Assunção/PB,-7.073396,-36.7274003,307,7619.75676
D1,Assunção/PB,-7.073396,-36.7274003,3,74.46016
1,Astolfo Dutra/MG,-21.3132636,-42.8624102,1228,8605.46601
D1,Astolfo Dutra/MG,-21.3132636,-42.8624102,18,126.13875
1,Astorga/PR,-23.2350184,-51.6647074,2690,10263.64989
D1,Astorga/PR,-23.2350184,-51.6647074,63,240.37544
1,Atalaia do Norte/AM,-4.3658547,-70.1908742,2725,13359.15286
D1,Atalaia do Norte/AM,-4.3658547,-70.1908742,8,39.21953
1,Atalaia/AL,-9.5029595,-36.0219316,1084,2288.60973
D1,Atalaia/AL,-9.5029595,-36.0219316,44,92.89560
1,Atalaia/PR,-23.1513833,-52.0529697,345,8889.46148
D1,Atalaia/PR,-23.1513833,-52.0529697,16,412.26488
1,Atalanta/SC,-27.421916,-49.778863,352,11017.21440
D1,Atalanta/SC,-27.421916,-49.778863,10,312.98905
1,Ataléia/MG,-18.04432,-41.1110524,1038,8187.41126
D1,Ataléia/MG,-18.04432,-41.1110524,8,63.10144
1,Atibaia/SP,-23.1177393,-46.5547861,9394,6519.62689
D1,Atibaia/SP,-23.1177393,-46.5547861,220,152.68447
1,Atilio Vivacqua/ES,-20.9139369,-41.1947519,1375,11358.94259
D1,Atilio Vivacqua/ES,-20.9139369,-41.1947519,26,214.78728
1,Augustinópolis/TO,-5.4662267,-47.8897519,1386,7434.42579
D1,Augustinópolis/TO,-5.4662267,-47.8897519,26,139.46253
1,Augusto Corrêa/PA,-1.0229335,-46.6404029,1951,4198.31723
D1,Augusto Corrêa/PA,-1.0229335,-46.6404029,42,90.37895
1,Augusto Pestana/RS,-28.5148413,-53.9906433,628,9512.26901
D1,Augusto Pestana/RS,-28.5148413,-53.9906433,8,121.17540
1,Augusto de Lima/MG,-18.1092963,-44.2651945,232,4782.51907
D1,Augusto de Lima/MG,-18.1092963,-44.2651945,8,164.91445
1,Aurelino Leal/BA,-14.3167137,-39.3256107,865,7655.54474
D1,Aurelino Leal/BA,-14.3167137,-39.3256107,25,221.25852
1,Auriflama/SP,-20.6840418,-50.5554616,1717,11256.80194
D1,Auriflama/SP,-20.6840418,-50.5554616,60,393.36524
1,Aurilândia/GO,-16.6772599,-50.4641231,174,5689.99346
D1,Aurilândia/GO,-16.6772599,-50.4641231,7,228.90778
1,Aurora do Pará/PA,-2.1323199,-47.558436,1407,4428.28817
D1,Aurora do Pará/PA,-2.1323199,-47.558436,14,44.06257
1,Aurora do Tocantins/TO,-12.71045,-46.407604,172,4546.65609
D1,Aurora do Tocantins/TO,-12.71045,-46.407604,3,79.30214
1,Aurora/CE,-6.9426019,-38.9693765,1425,5790.32913
D1,Aurora/CE,-6.9426019,-38.9693765,30,121.90167
1,Aurora/SC,-27.3166417,-49.6368502,709,12475.80503
D1,Aurora/SC,-27.3166417,-49.6368502,14,246.34876
1,Autazes/AM,-3.5833283,-59.1301518,2820,6999.25540
D1,Autazes/AM,-3.5833283,-59.1301518,92,228.34450
1,Avanhandava/SP,-21.4603331,-49.9465156,647,4668.44650
D1,Avanhandava/SP,-21.4603331,-49.9465156,25,180.38820
1,Avaré/SP,-23.1045215,-48.9259103,7579,8307.39214
D1,Avaré/SP,-23.1045215,-48.9259103,166,181.95370
1,Avaí/SP,-22.1564662,-49.3316395,301,5537.15968
D1,Avaí/SP,-22.1564662,-49.3316395,9,165.56291
1,Aveiro/PA,-3.6049239,-55.3310742,618,3767.37381
D1,Aveiro/PA,-3.6049239,-55.3310742,9,54.86467
1,Avelino Lopes/PI,-10.1346855,-43.9489525,340,3001.94243
D1,Avelino Lopes/PI,-10.1346855,-43.9489525,19,167.75561
1,Avelinópolis/GO,-16.4672409,-49.7578661,264,10958.90411
D1,Avelinópolis/GO,-16.4672409,-49.7578661,11,456.62100
1,Axixá do Tocantins/TO,-5.612747,-47.77007,1010,10319.81200
D1,Axixá do Tocantins/TO,-5.612747,-47.77007,17,173.69981
1,Axixá/MA,-2.8379465,-44.0561053,190,1559.55019
D1,Axixá/MA,-2.8379465,-44.0561053,5,41.04079
1,Açailândia/MA,-4.9514278,-47.4844564,4926,4354.62911
D1,Açailândia/MA,-4.9514278,-47.4844564,181,160.00566
1,Açu/RN,-5.5836157,-36.9139541,5354,9170.32064
D1,Açu/RN,-5.5836157,-36.9139541,128,219.23815
1,Açucena/MG,-19.073056,-42.546666,709,7568.31768
D1,Açucena/MG,-19.073056,-42.546666,25,266.86593
1,Babaçulândia/TO,-7.2034355,-47.761613,627,5878.49241
D1,Babaçulândia/TO,-7.2034355,-47.761613,5,46.87793
1,Bacabal/MA,-4.2318132,-44.781167,4605,4394.50329
D1,Bacabal/MA,-4.2318132,-44.781167,164,156.50348
1,Bacabeira/MA,-2.9775747,-44.3155943,320,1854.85741
D1,Bacabeira/MA,-2.9775747,-44.3155943,6,34.77858
1,Bacuri/MA,-1.728894,-45.1417148,432,2315.85719
D1,Bacuri/MA,-1.728894,-45.1417148,4,21.44312
1,Bacurituba/MA,-2.7082587,-44.7381309,117,2063.49206
D1,Bacurituba/MA,-2.7082587,-44.7381309,1,17.63668
1,Bady Bassitt/SP,-20.9178969,-49.4517911,2638,14852.76730
D1,Bady Bassitt/SP,-20.9178969,-49.4517911,63,354.70976
1,Baependi/MG,-21.959162,-44.8899249,1214,6323.24600
D1,Baependi/MG,-21.959162,-44.8899249,12,62.50326
1,Bagre/PA,-1.8994498,-50.2103844,879,2806.06544
D1,Bagre/PA,-1.8994498,-50.2103844,11,35.11572
1,Bagé/RS,-31.3314264,-54.1062808,8289,6831.49957
D1,Bagé/RS,-31.3314264,-54.1062808,224,184.61285
1,Baianópolis/BA,-12.3067564,-44.5383591,667,4788.57061
D1,Baianópolis/BA,-12.3067564,-44.5383591,8,57.43413
1,Baixa Grande do Ribeiro/PI,-7.862861,-45.2113289,2122,18181.81818
D1,Baixa Grande do Ribeiro/PI,-7.862861,-45.2113289,22,188.50141
1,Baixa Grande/BA,-11.9630941,-40.1657537,641,3134.62761
D1,Baixa Grande/BA,-11.9630941,-40.1657537,10,48.90215
1,Baixio/CE,-6.7303544,-38.7170095,414,6568.30081
D1,Baixio/CE,-6.7303544,-38.7170095,10,158.65461
1,Baixo Guandu/ES,-19.5138322,-41.0182089,3204,10291.66131
D1,Baixo Guandu/ES,-19.5138322,-41.0182089,69,221.63690
1,Baião/PA,-2.7903479,-49.6702845,716,1477.53771
D1,Baião/PA,-2.7903479,-49.6702845,30,61.90800
1,Balbinos/SP,-21.9006253,-49.3583966,322,5426.35659
D1,Balbinos/SP,-21.9006253,-49.3583966,4,67.40816
1,Baldim/MG,-19.2913568,-43.9558262,520,6664.10355
D1,Baldim/MG,-19.2913568,-43.9558262,15,192.23376
1,Baliza/GO,-16.1978119,-52.542789,236,4469.69697
D1,Baliza/GO,-16.1978119,-52.542789,6,113.63636
1,Balneário Arroio do Silva/SC,-28.9815269,-49.4189932,1871,13931.49665
D1,Balneário Arroio do Silva/SC,-28.9815269,-49.4189932,43,320.17870
1,Balneário Barra do Sul/SC,-26.459842,-48.6061471,1318,11943.81513
D1,Balneário Barra do Sul/SC,-26.459842,-48.6061471,33,299.04848
1,Balneário Camboriú/SC,-26.9924395,-48.6339782,22802,15639.66090
D1,Balneário Camboriú/SC,-26.9924395,-48.6339782,336,230.45900
1,Balneário Gaivota/SC,-29.1553098,-49.5808712,1142,10142.09591
D1,Balneário Gaivota/SC,-29.1553098,-49.5808712,30,266.42984
1,Balneário Pinhal/RS,-30.2482978,-50.234585,661,4602.10262
D1,Balneário Pinhal/RS,-30.2482978,-50.234585,40,278.49335
1,Balneário Piçarras/SC,-26.7638889,-48.6716667,4265,17941.27545
D1,Balneário Piçarras/SC,-26.7638889,-48.6716667,44,185.09170
1,Balneário Rincão/SC,-28.8235718,-49.2241642,1265,9771.35795
D1,Balneário Rincão/SC,-28.8235718,-49.2241642,38,293.52696
1,Balsa Nova/PR,-25.5842234,-49.6312741,1297,9906.81332
D1,Balsa Nova/PR,-25.5842234,-49.6312741,25,190.95631
1,Balsas/MA,-7.53214,-46.037163,8898,9275.61009
D1,Balsas/MA,-7.53214,-46.037163,159,165.74758
1,Bambuí/MG,-20.0131996,-45.9777034,1300,5439.78576
D1,Bambuí/MG,-20.0131996,-45.9777034,17,71.13566
1,Banabuiú/CE,-5.3046404,-38.919766,1530,8380.80631
D1,Banabuiú/CE,-5.3046404,-38.919766,14,76.68712
1,Bananal/SP,-22.6828195,-44.3221095,904,8223.41490
D1,Bananal/SP,-22.6828195,-44.3221095,2,18.19340
1,Bananeiras/PB,-6.7537682,-35.6338343,1018,4786.30871
D1,Bananeiras/PB,-6.7537682,-35.6338343,18,84.63021
1,Bandeira do Sul/MG,-21.728056,-46.385555,284,4915.19557
D1,Bandeira do Sul/MG,-21.728056,-46.385555,11,190.37729
1,Bandeira/MG,-15.884444,-40.559167,453,9504.82585
D1,Bandeira/MG,-15.884444,-40.559167,9,188.83760
1,Bandeirante/SC,-26.7677402,-53.6397596,242,9138.97281
D1,Bandeirante/SC,-26.7677402,-53.6397596,2,75.52870
1,Bandeirantes do Tocantins/TO,-7.7635698,-48.579148,411,11442.09354
D1,Bandeirantes do Tocantins/TO,-7.7635698,-48.579148,6,167.03786
1,Bandeirantes/MS,-19.9179623,-54.3646768,472,6496.00881
D1,Bandeirantes/MS,-19.9179623,-54.3646768,9,123.86457
1,Bandeirantes/PR,-23.107788,-50.370407,3564,11419.05098
D1,Bandeirantes/PR,-23.107788,-50.370407,101,323.60386
1,Bannach/PA,-7.3508505,-50.4064531,638,19558.55303
D1,Bannach/PA,-7.3508505,-50.4064531,3,91.96812
1,Banzaê/BA,-10.5827616,-38.6122305,905,6835.34743
D1,Banzaê/BA,-10.5827616,-38.6122305,7,52.87009
1,Baraúna/PB,-6.643394,-36.2531932,304,6124.09347
D1,Baraúna/PB,-6.643394,-36.2531932,5,100.72522
1,Baraúna/RN,-5.0775002,-37.61752,961,3342.95753
D1,Baraúna/RN,-5.0775002,-37.61752,22,76.52972
1,Barbacena/MG,-21.2254524,-43.7735087,6511,4711.15163
D1,Barbacena/MG,-21.2254524,-43.7735087,210,151.94929
1,Barbalha/CE,-7.3121067,-39.3036427,5221,8527.14444
D1,Barbalha/CE,-7.3121067,-39.3036427,113,184.55609
1,Barbosa Ferraz/PR,-24.0287182,-52.00811,979,8568.17784
D1,Barbosa Ferraz/PR,-24.0287182,-52.00811,29,253.80711
1,Barbosa/SP,-21.265661,-49.951816,378,5061.59614
D1,Barbosa/SP,-21.265661,-49.951816,11,147.29513
1,Barcarena/PA,-1.5107945,-48.6190679,10497,8263.59750
D1,Barcarena/PA,-1.5107945,-48.6190679,206,162.17025
1,Barcelona/RN,-5.9514918,-35.9260284,86,2153.22984
D1,Barcelona/RN,-5.9514918,-35.9260284,3,75.11267
1,Barcelos/AM,-0.9729214,-62.925635,4212,15239.88711
D1,Barcelos/AM,-0.9729214,-62.925635,57,206.23779
1,Bariri/SP,-22.0746355,-48.7394852,2378,6687.66522
D1,Bariri/SP,-22.0746355,-48.7394852,96,269.98144
1,Barra Bonita/SC,-26.6526364,-53.4419581,162,9812.23501
D1,Barra Bonita/SC,-26.6526364,-53.4419581,1,60.56935
1,Barra Bonita/SP,-22.490859,-48.558349,2754,7623.31839
D1,Barra Bonita/SP,-22.490859,-48.558349,79,218.67907
1,Barra D'Alcântara/PI,-6.5209258,-42.1071089,110,2783.40081
D1,Barra D'Alcântara/PI,-6.5209258,-42.1071089,3,75.91093
1,Barra Funda/RS,-27.9230048,-53.0401045,442,17326.53861
D1,Barra Funda/RS,-27.9230048,-53.0401045,8,313.60251
1,Barra Longa/MG,-20.2833541,-43.0423516,319,6360.91725
D1,Barra Longa/MG,-20.2833541,-43.0423516,9,179.46162
1,Barra Mansa/RJ,-22.5394843,-44.1735129,14166,7664.21581
D1,Barra Mansa/RJ,-22.5394843,-44.1735129,518,280.25299
1,Barra Velha/SC,-26.6338203,-48.6835001,3783,12669.12257
D1,Barra Velha/SC,-26.6338203,-48.6835001,85,284.66175
1,Barra da Estiva/BA,-13.6269662,-41.3278287,1876,9199.68615
D1,Barra da Estiva/BA,-13.6269662,-41.3278287,17,83.36603
1,Barra de Guabiraba/PE,-8.4173522,-35.6626669,345,2377.67057
D1,Barra de Guabiraba/PE,-8.4173522,-35.6626669,14,96.48518
1,Barra de Santa Rosa/PB,-6.7218007,-36.0564638,1078,6956.18507
D1,Barra de Santa Rosa/PB,-6.7218007,-36.0564638,7,45.17003
1,Barra de Santana/PB,-7.5230865,-35.9988518,382,4575.39825
D1,Barra de Santana/PB,-7.5230865,-35.9988518,5,59.88741
1,Barra de Santo Antônio/AL,-9.4038098,-35.5117693,364,2265.37217
D1,Barra de Santo Antônio/AL,-9.4038098,-35.5117693,22,136.91810
1,Barra de São Francisco/ES,-18.7570902,-40.8916119,4444,9880.16630
D1,Barra de São Francisco/ES,-18.7570902,-40.8916119,183,406.85653
1,Barra de São Miguel/AL,-9.8261357,-35.8837777,451,5383.14634
D1,Barra de São Miguel/AL,-9.8261357,-35.8837777,7,83.55216
1,Barra de São Miguel/PB,-7.7528088,-36.3170996,431,7106.34790
D1,Barra de São Miguel/PB,-7.7528088,-36.3170996,6,98.92828
1,Barra do Bugres/MT,-15.0683712,-57.1853688,2495,7066.58736
D1,Barra do Bugres/MT,-15.0683712,-57.1853688,58,164.27337
1,Barra do Chapéu/SP,-24.472203,-49.023784,242,4201.38889
D1,Barra do Chapéu/SP,-24.472203,-49.023784,1,17.36111
1,Barra do Choça/BA,-14.8638173,-40.5761637,1879,6020.69916
D1,Barra do Choça/BA,-14.8638173,-40.5761637,27,86.51351
1,Barra do Corda/MA,-5.496823,-45.248496,5340,6034.44379
D1,Barra do Corda/MA,-5.496823,-45.248496,55,62.15251
1,Barra do Garças/MT,-15.8916033,-52.2615413,6835,11180.17502
D1,Barra do Garças/MT,-15.8916033,-52.2615413,239,390.93809
1,Barra do Guarita/RS,-27.1888016,-53.7147086,111,3408.04421
D1,Barra do Guarita/RS,-27.1888016,-53.7147086,7,214.92171
1,Barra do Jacaré/PR,-23.1151788,-50.1813945,162,5825.24272
D1,Barra do Jacaré/PR,-23.1151788,-50.1813945,1,35.95829
1,Barra do Mendes/BA,-11.8053298,-42.057037,665,4807.34476
D1,Barra do Mendes/BA,-11.8053298,-42.057037,11,79.51999
1,Barra do Ouro/TO,-7.7113784,-47.6743925,121,2612.26252
D1,Barra do Ouro/TO,-7.7113784,-47.6743925,6,129.53368
1,Barra do Piraí/RJ,-22.4703403,-43.8263256,5485,5443.41233
D1,Barra do Piraí/RJ,-22.4703403,-43.8263256,318,315.58890
1,Barra do Quaraí/RS,-30.208947,-57.5505128,359,8493.02106
D1,Barra do Quaraí/RS,-30.208947,-57.5505128,6,141.94464
1,Barra do Ribeiro/RS,-30.2930206,-51.301437,1005,7413.69135
D1,Barra do Ribeiro/RS,-30.2930206,-51.301437,47,346.70994
1,Barra do Rio Azul/RS,-27.4101581,-52.4117471,72,4350.45317
D1,Barra do Rio Azul/RS,-27.4101581,-52.4117471,1,60.42296
1,Barra do Rocha/BA,-14.2090974,-39.6004395,390,6949.39416
D1,Barra do Rocha/BA,-14.2090974,-39.6004395,5,89.09480
1,Barra do Turvo/SP,-24.756421,-48.5056942,524,6865.82809
D1,Barra do Turvo/SP,-24.756421,-48.5056942,15,196.54088
1,Barra dos Coqueiros/SE,-10.9075694,-37.0386249,6070,19624.95959
D1,Barra dos Coqueiros/SE,-10.9075694,-37.0386249,79,255.41545
1,Barra/BA,-11.0892702,-43.1420453,1883,3492.85847
D1,Barra/BA,-11.0892702,-43.1420453,39,72.34279
1,Barracão/PR,-26.252395,-53.6349576,1092,10589.60434
D1,Barracão/PR,-26.252395,-53.6349576,28,271.52832
1,Barracão/RS,-27.6728964,-51.4582928,361,6868.34094
D1,Barracão/RS,-27.6728964,-51.4582928,13,247.33638
1,Barras/PI,-4.2446153,-42.2920241,4429,9386.45756
D1,Barras/PI,-4.2446153,-42.2920241,86,182.26131
1,Barreira/CE,-4.2883361,-38.641094,1233,5462.27794
D1,Barreira/CE,-4.2883361,-38.641094,32,141.76228
1,Barreiras do Piauí/PI,-9.9224524,-45.4763776,68,2028.63962
D1,Barreiras do Piauí/PI,-9.9224524,-45.4763776,1,29.83294
1,Barreiras/BA,-12.1440031,-44.9967406,15332,9767.16038
D1,Barreiras/BA,-12.1440031,-44.9967406,252,160.53512
1,Barreirinha/AM,-2.798863,-57.067897,2343,7213.00373
D1,Barreirinha/AM,-2.798863,-57.067897,61,187.79054
1,Barreirinhas/MA,-2.7541271,-42.8259693,1890,2989.70214
D1,Barreirinhas/MA,-2.7541271,-42.8259693,35,55.36485
1,Barreiros/PE,-8.8159644,-35.1831905,737,1723.41222
D1,Barreiros/PE,-8.8159644,-35.1831905,53,123.93602
1,Barretos/SP,-20.5531437,-48.5697509,11735,9553.62158
D1,Barretos/SP,-20.5531437,-48.5697509,357,290.63851
1,Barrinha/SP,-21.1898849,-48.1550642,1362,4104.88246
D1,Barrinha/SP,-21.1898849,-48.1550642,53,159.73478
1,Barro Alto/BA,-11.7618025,-41.9094904,759,5041.84934
D1,Barro Alto/BA,-11.7618025,-41.9094904,8,53.14202
1,Barro Alto/GO,-14.9696025,-48.9190985,1241,10878.33100
D1,Barro Alto/GO,-14.9696025,-48.9190985,15,131.48668
1,Barro Duro/PI,-5.8180139,-42.5106589,666,9477.72876
D1,Barro Duro/PI,-5.8180139,-42.5106589,10,142.30824
1,Barro Preto/BA,-14.8068289,-39.4727588,568,10425.84435
D1,Barro Preto/BA,-14.8068289,-39.4727588,10,183.55360
1,Barro/CE,-7.1713587,-38.7742136,1126,4947.71070
D1,Barro/CE,-7.1713587,-38.7742136,21,92.27524
1,Barrocas/BA,-11.5165,-39.099282894736845,706,4383.73176
D1,Barrocas/BA,-11.5165,-39.099282894736845,20,124.18504
1,Barrolândia/TO,-9.837246,-48.7264346,709,12546.45196
D1,Barrolândia/TO,-9.837246,-48.7264346,20,353.91966
1,Barroquinha/CE,-3.0200371,-41.1339229,984,6540.81361
D1,Barroquinha/CE,-3.0200371,-41.1339229,24,159.53204
1,Barros Cassal/RS,-29.094938,-52.5832366,589,5267.39403
D1,Barros Cassal/RS,-29.094938,-52.5832366,7,62.60061
1,Barroso/MG,-21.187222,-43.976111,1440,6890.94128
D1,Barroso/MG,-21.187222,-43.976111,33,157.91740
1,Barueri/SP,-23.5112184,-46.8764612,24994,9023.69107
D1,Barueri/SP,-23.5112184,-46.8764612,946,341.53844
1,Barão de Antonina/SP,-23.6295651,-49.5632104,303,8662.09262
D1,Barão de Antonina/SP,-23.6295651,-49.5632104,7,200.11435
1,Barão de Cocais/MG,-19.9452437,-43.4870298,3348,10186.81921
D1,Barão de Cocais/MG,-19.9452437,-43.4870298,58,176.47417
1,Barão de Cotegipe/RS,-27.6214694,-52.3765316,611,9229.60725
D1,Barão de Cotegipe/RS,-27.6214694,-52.3765316,7,105.74018
1,Barão de Grajaú/MA,-6.7542591,-43.0263477,355,1875.92475
D1,Barão de Grajaú/MA,-6.7542591,-43.0263477,2,10.56859
1,Barão de Melgaço/MT,-16.195776,-55.9668049,331,4054.38511
D1,Barão de Melgaço/MT,-16.195776,-55.9668049,14,171.48457
1,Barão de Monte Alto/MG,-21.244722,-42.2375,190,3548.74860
D1,Barão de Monte Alto/MG,-21.244722,-42.2375,8,149.42099
1,Barão do Triunfo/RS,-30.3909877,-51.7375349,406,5399.65421
D1,Barão do Triunfo/RS,-30.3909877,-51.7375349,6,79.79785
1,Barão/RS,-29.372474,-51.494908,512,8255.40148
D1,Barão/RS,-29.372474,-51.494908,8,128.99065
1,Bastos/SP,-21.9222474,-50.7317727,1039,4958.71713
D1,Bastos/SP,-21.9222474,-50.7317727,30,143.17759
1,Bataguassu/MS,-21.715899,-52.422058,2461,10550.91104
D1,Bataguassu/MS,-21.715899,-52.422058,28,120.04287
1,Batalha/AL,-9.6733809,-37.1265481,978,5333.18792
D1,Batalha/AL,-9.6733809,-37.1265481,15,81.79736
1,Batalha/PI,-4.022391,-42.0780926,954,3545.80933
D1,Batalha/PI,-4.022391,-42.0780926,30,111.50344
1,Batatais/SP,-20.892867,-47.592149,2430,3858.36774
D1,Batatais/SP,-20.892867,-47.592149,118,187.36107
1,Batayporã/MS,-22.2976466,-53.2685608,775,6828.79549
D1,Batayporã/MS,-22.2976466,-53.2685608,12,105.73619
1,Baturité/CE,-4.3290203,-38.8821055,3329,9262.40227
D1,Baturité/CE,-4.3290203,-38.8821055,69,191.98130
1,Bauru/SP,-22.3218102,-49.0705863,38548,10163.01210
D1,Bauru/SP,-22.3218102,-49.0705863,853,224.88973
1,Bayeux/PB,-7.1301631,-34.936532,6172,6349.59826
D1,Bayeux/PB,-7.1301631,-34.936532,222,228.38801
1,Baía Formosa/RN,-6.3691885,-35.0063741,318,3411.28513
D1,Baía Formosa/RN,-6.3691885,-35.0063741,8,85.81849
1,Baía da Traição/PB,-6.691258,-34.9371244,1242,13654.35356
D1,Baía da Traição/PB,-6.691258,-34.9371244,11,120.93228
1,Bebedouro/SP,-20.949077,-48.479083,3461,4462.63942
D1,Bebedouro/SP,-20.949077,-48.479083,106,136.67720
1,Beberibe/CE,-4.1810469,-38.1298101,4039,7486.70040
D1,Beberibe/CE,-4.1810469,-38.1298101,97,179.79944
1,Bela Cruz/CE,-3.0529129,-40.167582,3114,9516.53322
D1,Bela Cruz/CE,-3.0529129,-40.167582,63,192.53102
1,Bela Vista da Caroba/PR,-25.8792818,-53.6672545,160,4628.29043
D1,Bela Vista da Caroba/PR,-25.8792818,-53.6672545,5,144.63408
1,Bela Vista de Goiás/GO,-16.9692949,-48.9513071,2214,7260.92090
D1,Bela Vista de Goiás/GO,-16.9692949,-48.9513071,57,186.93428
1,Bela Vista de Minas/MG,-19.8289721,-43.0973688,720,7016.17618
D1,Bela Vista de Minas/MG,-19.8289721,-43.0973688,20,194.89378
1,Bela Vista do Maranhão/MA,-3.7416367,-45.2514192,206,1826.40305
D1,Bela Vista do Maranhão/MA,-3.7416367,-45.2514192,16,141.85655
1,Bela Vista do Paraíso/PR,-22.9948493,-51.1907996,1685,10942.26898
D1,Bela Vista do Paraíso/PR,-22.9948493,-51.1907996,58,376.64783
1,Bela Vista do Piauí/PI,-7.9716353,-41.8715061,238,5905.70720
D1,Bela Vista do Piauí/PI,-7.9716353,-41.8715061,6,148.88337
1,Bela Vista do Toldo/SC,-26.274625,-50.466354,72,1131.71959
D1,Bela Vista do Toldo/SC,-26.274625,-50.466354,2,31.43666
1,Bela Vista/MS,-22.107327,-56.5317344,777,3141.29776
D1,Bela Vista/MS,-22.107327,-56.5317344,20,80.85709
1,Belford Roxo/RJ,-22.7667284,-43.4033603,19785,3855.83823
D1,Belford Roxo/RJ,-22.7667284,-43.4033603,610,118.88104
1,Belmiro Braga/MG,-21.9486291,-43.413564,158,4613.13869
D1,Belmiro Braga/MG,-21.9486291,-43.413564,3,87.59124
1,Belmonte/BA,-15.8630837,-38.8792845,967,4125.95469
D1,Belmonte/BA,-15.8630837,-38.8792845,19,81.06840
1,Belmonte/SC,-26.8448262,-53.578916,223,8231.81986
D1,Belmonte/SC,-26.8448262,-53.578916,4,147.65596
1,Belo Campo/BA,-15.0338286,-41.2585109,741,4331.05383
D1,Belo Campo/BA,-15.0338286,-41.2585109,9,52.60389
1,Belo Horizonte/MG,-19.9227318,-43.9450948,201030,7972.43298
D1,Belo Horizonte/MG,-19.9227318,-43.9450948,4899,194.28418
1,Belo Jardim/PE,-8.3338293,-36.4176419,3029,3949.82200
D1,Belo Jardim/PE,-8.3338293,-36.4176419,93,121.27218
1,Belo Monte/AL,-9.8269944,-37.2787165,278,4143.07004
D1,Belo Monte/AL,-9.8269944,-37.2787165,8,119.22504
1,Belo Oriente/MG,-19.2232523,-42.4807033,2424,8979.77328
D1,Belo Oriente/MG,-19.2232523,-42.4807033,58,214.86256
1,Belo Vale/MG,-20.407778,-44.024167,649,8407.82485
D1,Belo Vale/MG,-20.407778,-44.024167,10,129.55046
1,Belterra/PA,-2.636091,-54.937392,1302,7298.61539
D1,Belterra/PA,-2.636091,-54.937392,24,134.53669
1,Belágua/MA,-3.1604031,-43.5085052,351,4662.59299
D1,Belágua/MA,-3.1604031,-43.5085052,3,39.85122
1,Belém de Maria/PE,-8.6242497,-35.8388934,207,1707.63900
D1,Belém de Maria/PE,-8.6242497,-35.8388934,6,49.49678
1,Belém do Brejo do Cruz/PB,-6.1880727,-37.5332267,487,6626.75194
D1,Belém do Brejo do Cruz/PB,-6.1880727,-37.5332267,5,68.03647
1,Belém do Piauí/PI,-7.3767305,-40.9712156,436,12155.00418
D1,Belém do Piauí/PI,-7.3767305,-40.9712156,7,195.14915
1,Belém do São Francisco/PE,-8.7517707,-38.9625715,613,2957.06705
D1,Belém do São Francisco/PE,-8.7517707,-38.9625715,9,43.41534
1,Belém/AL,-9.5715351,-36.492841,110,2567.69374
D1,Belém/AL,-9.5715351,-36.492841,3,70.02801
1,Belém/PA,-1.45056,-48.4682453,99162,6612.38256
D1,Belém/PA,-1.45056,-48.4682453,4711,314.14185
1,Belém/PB,-6.6967586,-35.5369626,1897,10714.48743
D1,Belém/PB,-6.6967586,-35.5369626,34,192.03615
1,Beneditinos/PI,-5.4565671,-42.3605061,1056,10083.07075
D1,Beneditinos/PI,-5.4565671,-42.3605061,34,324.64432
1,Benedito Leite/MA,-7.2173453,-44.5523331,295,5232.35190
D1,Benedito Leite/MA,-7.2173453,-44.5523331,2,35.47357
1,Benedito Novo/SC,-26.7840657,-49.3629511,922,7830.14862
D1,Benedito Novo/SC,-26.7840657,-49.3629511,17,144.37367
1,Benevides/PA,-1.3555577,-48.252235,3711,5819.53331
D1,Benevides/PA,-1.3555577,-48.252235,93,145.84117
1,Benjamin Constant do Sul/RS,-27.5105555,-52.6007689,152,7763.02349
1,Benjamin Constant/AM,-4.3782748,-70.0290603,2685,6111.30079
D1,Benjamin Constant/AM,-4.3782748,-70.0290603,85,193.46762
1,Bento Fernandes/RN,-5.6926846,-35.8207423,137,2479.63801
D1,Bento Fernandes/RN,-5.6926846,-35.8207423,3,54.29864
1,Bento Gonçalves/RS,-29.1654014,-51.5197627,15553,12768.97942
D1,Bento Gonçalves/RS,-29.1654014,-51.5197627,271,222.49041
1,Bento de Abreu/SP,-21.2707225,-50.8120444,287,9550.74875
1,Bequimão/MA,-2.4495376,-44.7884889,275,1291.14043
D1,Bequimão/MA,-2.4495376,-44.7884889,17,79.81595
1,Berilo/MG,-16.9515764,-42.4643732,133,1120.28302
D1,Berilo/MG,-16.9515764,-42.4643732,1,8.42318
1,Berizal/MG,-15.6118785,-41.7417382,113,2371.95634
D1,Berizal/MG,-15.6118785,-41.7417382,1,20.99076
1,Bernardino Batista/PB,-6.4532173,-38.5495418,232,6561.08597
1,Bernardino de Campos/SP,-23.0140216,-49.4760724,518,4642.40903
D1,Bernardino de Campos/SP,-23.0140216,-49.4760724,10,89.62180
1,Bernardo Sayão/TO,-7.8794244,-48.8968905,462,10386.69065
D1,Bernardo Sayão/TO,-7.8794244,-48.8968905,6,134.89209
1,Bernardo do Mearim/MA,-4.6315929,-44.7617508,268,4412.97547
D1,Bernardo do Mearim/MA,-4.6315929,-44.7617508,6,98.79796
1,Bertioga/SP,-23.848568,-46.139586,5085,7856.55795
D1,Bertioga/SP,-23.848568,-46.139586,127,196.22082
1,Bertolínia/PI,-7.6372159,-43.9540611,821,14908.29853
D1,Bertolínia/PI,-7.6372159,-43.9540611,10,181.58707
1,Bertópolis/MG,-17.063333,-40.573889,275,5969.17734
1,Beruri/AM,-3.9007135,-61.3717319,2170,10799.78102
D1,Beruri/AM,-3.9007135,-61.3717319,32,159.25944
1,Betim/MG,-19.968056,-44.198333,26527,5964.01849
D1,Betim/MG,-19.968056,-44.198333,993,223.25443
1,Betânia do Piauí/PI,-8.1460635,-40.7961387,157,2528.18035
D1,Betânia do Piauí/PI,-8.1460635,-40.7961387,2,32.20612
1,Betânia/PE,-8.2742779,-38.0351767,438,3431.25734
D1,Betânia/PE,-8.2742779,-38.0351767,10,78.33921
1,Bezerros/PE,-8.2372132,-35.7558262,3474,5706.30749
D1,Bezerros/PE,-8.2372132,-35.7558262,103,169.18528
1,Bias Fortes/MG,-21.605833,-43.756944,99,2973.86603
D1,Bias Fortes/MG,-21.605833,-43.756944,3,90.11715
1,Bicas/MG,-21.7213723,-43.0604327,1240,8519.99450
D1,Bicas/MG,-21.7213723,-43.0604327,35,240.48372
1,Biguaçu/SC,-27.4961277,-48.6542432,10381,14939.70008
D1,Biguaçu/SC,-27.4961277,-48.6542432,153,220.18824
1,Bilac/SP,-21.403962,-50.47464,745,9178.26783
D1,Bilac/SP,-21.403962,-50.47464,13,160.15769
1,Biquinhas/MG,-18.783611,-45.502222,104,4163.33066
D1,Biquinhas/MG,-18.783611,-45.502222,1,40.03203
1,Birigui/SP,-21.2908491,-50.34144,12149,9728.30569
D1,Birigui/SP,-21.2908491,-50.34144,435,348.32603
1,Biritiba Mirim/SP,-23.5697765,-46.0407456,1125,3415.71533
D1,Biritiba Mirim/SP,-23.5697765,-46.0407456,72,218.60578
1,Biritinga/BA,-11.6227908,-38.8066738,364,2277.27728
D1,Biritinga/BA,-11.6227908,-38.8066738,6,37.53754
1,Bituruna/PR,-26.161281,-51.5533319,770,4695.12195
D1,Bituruna/PR,-26.161281,-51.5533319,10,60.97561
1,Blumenau/SC,-26.9195567,-49.0658025,46306,12796.83851
D1,Blumenau/SC,-26.9195567,-49.0658025,527,145.63845
1,Boa Esperança do Iguaçu/PR,-25.6362851,-53.2139114,144,5829.95951
1,Boa Esperança do Sul/SP,-21.9930206,-48.3917372,838,5579.97070
D1,Boa Esperança do Sul/SP,-21.9930206,-48.3917372,11,73.24544
1,Boa Esperança/ES,-18.5395472,-40.2904088,1303,8633.71323
D1,Boa Esperança/ES,-18.5395472,-40.2904088,36,238.53697
1,Boa Esperança/MG,-21.0901253,-45.5660195,3253,8088.21701
D1,Boa Esperança/MG,-21.0901253,-45.5660195,89,221.28845
1,Boa Esperança/PR,-24.2411024,-52.7860277,303,7487.02743
D1,Boa Esperança/PR,-24.2411024,-52.7860277,11,271.80628
1,Boa Hora/PI,-4.4094627,-42.1255341,508,7454.14527
D1,Boa Hora/PI,-4.4094627,-42.1255341,6,88.04109
1,Boa Nova/BA,-14.365907,-40.2063056,790,6407.65674
D1,Boa Nova/BA,-14.365907,-40.2063056,11,89.22054
1,Boa Ventura de São Roque/PR,-24.88177,-51.5441292,400,6284.36764
D1,Boa Ventura de São Roque/PR,-24.88177,-51.5441292,5,78.55460
1,Boa Ventura/PB,-7.4202462,-38.2156782,310,5841.34162
D1,Boa Ventura/PB,-7.4202462,-38.2156782,5,94.21519
1,Boa Viagem/CE,-5.1261877,-39.7300055,3342,6123.45860
D1,Boa Viagem/CE,-5.1261877,-39.7300055,88,161.24008
1,Boa Vista da Aparecida/PR,-25.4357216,-53.4067721,742,9840.84881
D1,Boa Vista da Aparecida/PR,-25.4357216,-53.4067721,22,291.77719
1,Boa Vista das Missões/RS,-27.6677983,-53.3127622,144,6883.36520
D1,Boa Vista das Missões/RS,-27.6677983,-53.3127622,4,191.20459
1,Boa Vista do Buricá/RS,-27.6687782,-54.1111913,667,9937.42551
D1,Boa Vista do Buricá/RS,-27.6687782,-54.1111913,8,119.18951
1,Boa Vista do Cadeado/RS,-28.5783827,-53.8123759,144,5834.68395
D1,Boa Vista do Cadeado/RS,-28.5783827,-53.8123759,2,81.03728
1,Boa Vista do Gurupi/MA,-1.7981168,-46.3071882,15,178.95490
D1,Boa Vista do Gurupi/MA,-1.7981168,-46.3071882,4,47.72131
1,Boa Vista do Incra/RS,-28.8195551,-53.3866624,231,8830.27523
D1,Boa Vista do Incra/RS,-28.8195551,-53.3866624,4,152.90520
1,Boa Vista do Ramos/AM,-2.9716927,-57.5869819,895,4560.27718
D1,Boa Vista do Ramos/AM,-2.9716927,-57.5869819,11,56.04810
1,Boa Vista do Sul/RS,-29.3510488,-51.6779679,260,9359.25126
D1,Boa Vista do Sul/RS,-29.3510488,-51.6779679,3,107.99136
1,Boa Vista do Tupim/BA,-12.6605988,-40.6083594,227,1224.97437
D1,Boa Vista do Tupim/BA,-12.6605988,-40.6083594,4,21.58545
1,Boa Vista/PB,-7.2620711,-36.2415161,564,7903.58744
D1,Boa Vista/PB,-7.2620711,-36.2415161,9,126.12108
1,Boa Vista/RR,2.8208478,-60.6719582,77984,18583.01640
D1,Boa Vista/RR,2.8208478,-60.6719582,1238,295.00634
1,Boca da Mata/AL,-9.6452054,-36.2116658,1671,6108.34917
D1,Boca da Mata/AL,-9.6452054,-36.2116658,42,153.53122
1,Boca do Acre/AM,-8.7553487,-67.3930873,2528,7298.97503
D1,Boca do Acre/AM,-8.7553487,-67.3930873,22,63.51956
1,Bocaina de Minas/MG,-22.167778,-44.394722,169,3320.88819
D1,Bocaina de Minas/MG,-22.167778,-44.394722,7,137.55158
1,Bocaina do Sul/SC,-27.745494,-49.942279,362,10378.44037
D1,Bocaina do Sul/SC,-27.745494,-49.942279,3,86.00917
1,Bocaina/PI,-6.9445939,-41.3224599,246,5460.59933
D1,Bocaina/PI,-6.9445939,-41.3224599,4,88.79023
1,Bocaina/SP,-22.1421831,-48.522276,1108,8898.16897
D1,Bocaina/SP,-22.1421831,-48.522276,26,208.80180
1,Bocaiúva do Sul/PR,-25.206591,-49.114131,1603,12209.61231
D1,Bocaiúva do Sul/PR,-25.206591,-49.114131,15,114.25089
1,Bocaiúva/MG,-17.1160208,-43.8122678,1891,3762.73480
D1,Bocaiúva/MG,-17.1160208,-43.8122678,50,99.49061
1,Bodocó/PE,-7.777592,-39.933797,1766,4601.59466
D1,Bodocó/PE,-7.777592,-39.933797,27,70.35281
1,Bodoquena/MS,-20.5508775,-56.6769653,300,3827.50702
D1,Bodoquena/MS,-20.5508775,-56.6769653,11,140.34192
1,Bodó/RN,-5.9866104,-36.4134824,115,5234.41056
1,Bofete/SP,-23.1019554,-48.2610535,602,5049.91192
D1,Bofete/SP,-23.1019554,-48.2610535,13,109.05125
1,Boituva/SP,-23.2838893,-47.6738231,4568,7347.59530
D1,Boituva/SP,-23.2838893,-47.6738231,117,188.19366
1,Bom Conselho/PE,-9.169191,-36.685683,1493,3061.49650
D1,Bom Conselho/PE,-9.169191,-36.685683,47,96.37665
1,Bom Despacho/MG,-19.7375242,-45.2517288,3214,6298.50278
D1,Bom Despacho/MG,-19.7375242,-45.2517288,65,127.38105
1,Bom Jardim da Serra/SC,-28.3380324,-49.625588,563,11797.98826
D1,Bom Jardim da Serra/SC,-28.3380324,-49.625588,4,83.82230
1,Bom Jardim de Goiás/GO,-16.2062659,-52.172793,654,7373.99932
D1,Bom Jardim de Goiás/GO,-16.2062659,-52.172793,14,157.85320
1,Bom Jardim de Minas/MG,-21.9476466,-44.1906033,396,6130.98003
D1,Bom Jardim de Minas/MG,-21.9476466,-44.1906033,3,46.44682
1,Bom Jardim/MA,-3.54129,-45.606004,1329,3177.75334
D1,Bom Jardim/MA,-3.54129,-45.606004,44,105.20779
1,Bom Jardim/PE,-7.7961572,-35.5871696,1200,3001.27554
D1,Bom Jardim/PE,-7.7961572,-35.5871696,54,135.05740
1,Bom Jardim/RJ,-22.1515328,-42.4186683,1417,5131.08343
D1,Bom Jardim/RJ,-22.1515328,-42.4186683,36,130.35921
1,Bom Jesus da Lapa/BA,-13.250571,-43.410754,4178,5997.53094
D1,Bom Jesus da Lapa/BA,-13.250571,-43.410754,57,81.82366
1,Bom Jesus da Penha/MG,-21.0165299,-46.5226644,417,9825.63619
D1,Bom Jesus da Penha/MG,-21.0165299,-46.5226644,9,212.06409
1,Bom Jesus da Serra/BA,-14.3724084,-40.5047119,416,4234.95877
D1,Bom Jesus da Serra/BA,-14.3724084,-40.5047119,8,81.44151
1,Bom Jesus das Selvas/MA,-4.4878075,-46.8526639,2913,8427.11256
D1,Bom Jesus das Selvas/MA,-4.4878075,-46.8526639,23,66.53745
1,Bom Jesus de Goiás/GO,-18.2174587,-49.739721,2462,9599.18902
D1,Bom Jesus de Goiás/GO,-18.2174587,-49.739721,98,382.09607
1,Bom Jesus do Amparo/MG,-19.7045132,-43.4752911,187,3049.07875
D1,Bom Jesus do Amparo/MG,-19.7045132,-43.4752911,6,97.83140
1,Bom Jesus do Araguaia/MT,-12.1725897,-51.5074425,910,13569.93737
D1,Bom Jesus do Araguaia/MT,-12.1725897,-51.5074425,15,223.68029
1,Bom Jesus do Galho/MG,-19.8283191,-42.3162256,559,3761.27035
D1,Bom Jesus do Galho/MG,-19.8283191,-42.3162256,26,174.94281
1,Bom Jesus do Itabapoana/RJ,-21.1341025,-41.680095,2880,7741.31118
D1,Bom Jesus do Itabapoana/RJ,-21.1341025,-41.680095,76,204.28460
1,Bom Jesus do Norte/ES,-21.1254776,-41.6711646,897,9004.21602
D1,Bom Jesus do Norte/ES,-21.1254776,-41.6711646,22,220.83919
1,Bom Jesus do Oeste/SC,-26.6929713,-53.0967453,173,8087.89154
D1,Bom Jesus do Oeste/SC,-26.6929713,-53.0967453,5,233.75409
1,Bom Jesus do Sul/PR,-26.1922507,-53.6002033,344,9811.75128
D1,Bom Jesus do Sul/PR,-26.1922507,-53.6002033,3,85.56760
1,Bom Jesus do Tocantins/PA,-5.0471796,-48.5978362,745,4352.14394
D1,Bom Jesus do Tocantins/PA,-5.0471796,-48.5978362,24,140.20329
1,Bom Jesus do Tocantins/TO,-8.96306,-48.165043,127,2535.94249
D1,Bom Jesus do Tocantins/TO,-8.96306,-48.165043,3,59.90415
1,Bom Jesus dos Perdões/SP,-23.1353864,-46.4648052,1868,7188.76275
D1,Bom Jesus dos Perdões/SP,-23.1353864,-46.4648052,24,92.36098
1,Bom Jesus/PB,-6.8156725,-38.6551841,124,4815.53398
D1,Bom Jesus/PB,-6.8156725,-38.6551841,3,116.50485
1,Bom Jesus/PI,-9.0711644,-44.3583926,3033,11947.05952
D1,Bom Jesus/PI,-9.0711644,-44.3583926,32,126.04877
1,Bom Jesus/RN,-5.9887544,-35.5821149,677,6593.94176
D1,Bom Jesus/RN,-5.9887544,-35.5821149,13,126.61927
1,Bom Jesus/RS,-28.6692723,-50.4346894,712,6295.87055
D1,Bom Jesus/RS,-28.6692723,-50.4346894,15,132.63772
1,Bom Jesus/SC,-26.7350604,-52.3916519,339,11089.30324
D1,Bom Jesus/SC,-26.7350604,-52.3916519,6,196.27085
1,Bom Lugar/MA,-4.3728019,-45.0366054,447,2719.30892
D1,Bom Lugar/MA,-4.3728019,-45.0366054,7,42.58426
1,Bom Princípio do Piauí/PI,-3.1912777,-41.6430185,118,2088.12600
D1,Bom Princípio do Piauí/PI,-3.1912777,-41.6430185,11,194.65581
1,Bom Princípio/RS,-29.489788,-51.3566782,1579,11076.81515
D1,Bom Princípio/RS,-29.489788,-51.3566782,26,182.39214
1,Bom Progresso/RS,-27.5490948,-53.8655601,117,6161.13744
D1,Bom Progresso/RS,-27.5490948,-53.8655601,3,157.97788
1,Bom Repouso/MG,-22.4657069,-46.1485376,790,7497.39015
D1,Bom Repouso/MG,-22.4657069,-46.1485376,19,180.31698
1,Bom Retiro do Sul/RS,-29.6000007,-51.9359243,922,7441.48507
D1,Bom Retiro do Sul/RS,-29.6000007,-51.9359243,25,201.77563
1,Bom Retiro/SC,-27.798993,-49.486994,659,6550.69583
D1,Bom Retiro/SC,-27.798993,-49.486994,14,139.16501
1,Bom Sucesso de Itararé/SP,-24.3190016,-49.1446207,129,3237.95181
D1,Bom Sucesso de Itararé/SP,-24.3190016,-49.1446207,5,125.50201
1,Bom Sucesso do Sul/PR,-26.0749256,-52.8348629,353,10848.18685
D1,Bom Sucesso do Sul/PR,-26.0749256,-52.8348629,6,184.38844
1,Bom Sucesso/MG,-21.0323516,-44.7598082,633,3595.16102
D1,Bom Sucesso/MG,-21.0323516,-44.7598082,5,28.39780
1,Bom Sucesso/PB,-6.4458948,-37.9297662,212,4277.64326
D1,Bom Sucesso/PB,-6.4458948,-37.9297662,3,60.53269
1,Bom Sucesso/PR,-23.7088019,-51.7651297,688,9734.01245
D1,Bom Sucesso/PR,-23.7088019,-51.7651297,12,169.77929
1,Bombinhas/SC,-27.1519159,-48.4875691,3331,16380.62454
D1,Bombinhas/SC,-27.1519159,-48.4875691,53,260.63437
1,Bonfim do Piauí/PI,-9.1648678,-42.8734415,302,5312.22515
D1,Bonfim do Piauí/PI,-9.1648678,-42.8734415,6,105.54090
1,Bonfim/MG,-20.3266626, -44.2386157,349,5087.46356
D1,Bonfim/MG,-20.3266626, -44.2386157,13,189.50437
1,Bonfim/RR,3.3613818,-59.8427241,2196,17488.25356
D1,Bonfim/RR,3.3613818,-59.8427241,25,199.09214
1,Bonfinópolis de Minas/MG,-16.5660011,-45.98645,387,7108.74357
D1,Bonfinópolis de Minas/MG,-16.5660011,-45.98645,12,220.42616
1,Bonfinópolis/GO,-16.6172709,-48.9615701,443,4466.17603
D1,Bonfinópolis/GO,-16.6172709,-48.9615701,17,171.38824
1,Boninal/BA,-12.7095183,-41.8299984,575,3980.34058
D1,Boninal/BA,-12.7095183,-41.8299984,7,48.45632
1,Bonito de Minas/MG,-15.3191266,-44.7544,43,378.22148
1,Bonito de Santa Fé/PB,-7.3143332,-38.5146677,418,3476.95891
D1,Bonito de Santa Fé/PB,-7.3143332,-38.5146677,11,91.49892
1,Bonito/BA,-11.9665473,-41.2649896,750,4442.07534
D1,Bonito/BA,-11.9665473,-41.2649896,10,59.22767
1,Bonito/MS,-21.1264766,-56.4902208,2442,11004.95719
D1,Bonito/MS,-21.1264766,-56.4902208,49,220.82019
1,Bonito/PA,-1.3605722,-47.3049907,360,2177.85844
D1,Bonito/PA,-1.3605722,-47.3049907,12,72.59528
1,Bonito/PE,-8.4721161,-35.7314591,703,1844.32143
D1,Bonito/PE,-8.4721161,-35.7314591,35,91.82255
1,Bonópolis/GO,-13.649331,-49.8329113,146,3249.49922
D1,Bonópolis/GO,-13.649331,-49.8329113,1,22.25684
1,Boqueirão do Leão/RS,-29.30332,-52.4296817,557,7231.88782
D1,Boqueirão do Leão/RS,-29.30332,-52.4296817,28,363.54194
1,Boqueirão do Piauí/PI,-4.4850148,-42.1095161,538,8372.23778
D1,Boqueirão do Piauí/PI,-4.4850148,-42.1095161,10,155.61780
1,Boqueirão/PB,-7.487004,-36.130887,1329,7437.04533
D1,Boqueirão/PB,-7.487004,-36.130887,25,139.89927
1,Boquim/SE,-11.1450175,-37.6204228,2113,7855.31061
D1,Boquim/SE,-11.1450175,-37.6204228,51,189.59813
1,Boquira/BA,-12.8184859,-42.7270883,498,2316.60232
D1,Boquira/BA,-12.8184859,-42.7270883,10,46.51812
1,Boracéia/SP,-22.195355,-48.7801925,829,17029.58094
D1,Boracéia/SP,-22.195355,-48.7801925,21,431.38866
1,Borba/AM,-4.3934778,-59.5947721,1983,4749.92814
D1,Borba/AM,-4.3934778,-59.5947721,55,131.74284
1,Borborema/PB,-6.8066718,-35.5990191,362,6846.98317
D1,Borborema/PB,-6.8066718,-35.5990191,12,226.97182
1,Borborema/SP,-21.6212706,-49.074135,1209,7479.58426
D1,Borborema/SP,-21.6212706,-49.074135,39,241.27691
1,Borda da Mata/MG,-22.274167,-46.165278,1203,6133.37412
D1,Borda da Mata/MG,-22.274167,-46.165278,37,188.64077
1,Borebi/SP,-22.5700178,-48.9714871,156,5814.38688
D1,Borebi/SP,-22.5700178,-48.9714871,2,74.54342
1,Borrazópolis/PR,-23.9393362,-51.5850786,604,9380.33856
D1,Borrazópolis/PR,-23.9393362,-51.5850786,19,295.07688
1,Borá/SP,-22.2701088,-50.544407,99,11813.84248
D1,Borá/SP,-22.2701088,-50.544407,1,119.33174
1,Bossoroca/RS,-28.7278885,-54.9120278,378,6091.86140
D1,Bossoroca/RS,-28.7278885,-54.9120278,20,322.32071
1,Botelhos/MG,-21.65,-46.394722,1252,8375.14215
D1,Botelhos/MG,-21.65,-46.394722,18,120.40939
1,Botucatu/SP,-22.8879628,-48.4410712,11898,8032.13394
D1,Botucatu/SP,-22.8879628,-48.4410712,221,149.19328
1,Botumirim/MG,-16.862778,-43.011111,200,3180.66158
D1,Botumirim/MG,-16.862778,-43.011111,3,47.70992
1,Botuporã/BA,-13.3744752,-42.5198469,193,1905.42008
D1,Botuporã/BA,-13.3744752,-42.5198469,3,29.61793
1,Botuverá/SC,-27.200749,-49.068892,855,16065.38895
D1,Botuverá/SC,-27.200749,-49.068892,8,150.31943
1,Bozano/RS,-28.3669953,-53.7705165,216,10232.11748
D1,Bozano/RS,-28.3669953,-53.7705165,7,331.59640
1,Braga/RS,-27.617348,-53.740514,216,6523.70885
D1,Braga/RS,-27.617348,-53.740514,7,211.41649
1,Braganey/PR,-24.8179919,-53.118506,349,6484.57822
D1,Braganey/PR,-24.8179919,-53.118506,7,130.06317
1,Bragança Paulista/SP,-22.9520235,-46.5418586,14145,8294.58228
D1,Bragança Paulista/SP,-22.9520235,-46.5418586,392,229.86753
1,Bragança/PA,-1.0573967,-46.7635406,3903,3027.59980
D1,Bragança/PA,-1.0573967,-46.7635406,135,104.72098
1,Branquinha/AL,-9.2478057,-36.0152009,472,4512.42830
D1,Branquinha/AL,-9.2478057,-36.0152009,9,86.04207
1,Brasil Novo/PA,-3.3055853,-52.539198,1676,11186.01081
D1,Brasil Novo/PA,-3.3055853,-52.539198,39,260.29500
1,Brasileira/PI,-4.131182,-41.7824969,515,6169.88139
D1,Brasileira/PI,-4.131182,-41.7824969,10,119.80352
1,Brasilândia de Minas/MG,-17.0096469,-46.0087183,1009,6024.59995
D1,Brasilândia de Minas/MG,-17.0096469,-46.0087183,13,77.62121
1,Brasilândia do Sul/PR,-24.1975793,-53.527551,349,13500.96712
D1,Brasilândia do Sul/PR,-24.1975793,-53.527551,8,309.47776
1,Brasilândia do Tocantins/TO,-8.3886619,-48.4842729,191,8638.62506
D1,Brasilândia do Tocantins/TO,-8.3886619,-48.4842729,4,180.91361
1,Brasilândia/MS,-21.255575,-52.0365617,896,7559.26770
D1,Brasilândia/MS,-21.255575,-52.0365617,15,126.55024
1,Brasiléia/AC,-11.0010413,-68.7487894,2693,10085.38686
D1,Brasiléia/AC,-11.0010413,-68.7487894,36,134.82136
1,Brasnorte/MT,-12.1227151,-58.0050109,1825,9061.56902
D1,Brasnorte/MT,-12.1227151,-58.0050109,31,153.92254
1,Brasília de Minas/MG,-16.2075114,-44.430559,875,2700.20059
D1,Brasília de Minas/MG,-16.2075114,-44.430559,7,21.60160
1,Brasília/DF,-15.7934036,-47.8823172,400188,13098.80467
D1,Brasília/DF,-15.7934036,-47.8823172,8514,278.67708
1,Brazabrantes/GO,-16.4291635,-49.3858216,384,10250.93433
D1,Brazabrantes/GO,-16.4291635,-49.3858216,3,80.08542
1,Brazópolis/MG,-22.4742842,-45.6165577,737,5114.50382
D1,Brazópolis/MG,-22.4742842,-45.6165577,28,194.30951
1,Braço do Norte/SC,-28.2728633,-49.1622712,7358,21720.39202
D1,Braço do Norte/SC,-28.2728633,-49.1622712,82,242.05928
1,Braço do Trombudo/SC,-27.358578,-49.882145,580,15388.69727
D1,Braço do Trombudo/SC,-27.358578,-49.882145,4,106.12895
1,Braúna/SP,-21.5015319,-50.3175246,396,6897.75300
D1,Braúna/SP,-21.5015319,-50.3175246,19,330.95280
1,Braúnas/MG,-19.055556,-42.716111,197,4130.84504
D1,Braúnas/MG,-19.055556,-42.716111,7,146.78130
1,Brejetuba/ES,-20.1465817,-41.2902303,1515,12191.19659
D1,Brejetuba/ES,-20.1465817,-41.2902303,13,104.61093
1,Brejinho de Nazaré/TO,-11.0205883,-48.5722906,427,7736.90886
D1,Brejinho de Nazaré/TO,-11.0205883,-48.5722906,11,199.31147
1,Brejinho/PE,-7.3482153,-37.28538,612,8173.07692
D1,Brejinho/PE,-7.3482153,-37.28538,18,240.38462
1,Brejinho/RN,-6.1957907,-35.3583019,1078,8430.43716
D1,Brejinho/RN,-6.1957907,-35.3583019,10,78.20443
1,Brejo Alegre/SP,-21.1671191,-50.1850393,301,10418.83004
D1,Brejo Alegre/SP,-21.1671191,-50.1850393,11,380.75459
1,Brejo Grande do Araguaia/PA,-5.7011449,-48.4037308,765,10382.73616
D1,Brejo Grande do Araguaia/PA,-5.7011449,-48.4037308,4,54.28882
1,Brejo Grande/SE,-10.4287358,-36.4667918,360,4309.82880
D1,Brejo Grande/SE,-10.4287358,-36.4667918,12,143.66096
1,Brejo Santo/CE,-7.4909841,-38.9859152,7571,15190.00040
D1,Brejo Santo/CE,-7.4909841,-38.9859152,139,278.88126
1,Brejo da Madre de Deus/PE,-8.1409718,-36.3712527,1893,3695.46120
D1,Brejo da Madre de Deus/PE,-8.1409718,-36.3712527,47,91.75207
1,Brejo de Areia/MA,-4.3316785,-45.5833334,286,3172.84225
D1,Brejo de Areia/MA,-4.3316785,-45.5833334,8,88.75083
1,Brejo do Cruz/PB,-6.32926065,-37.48746163303929,1250,8799.09897
D1,Brejo do Cruz/PB,-6.32926065,-37.48746163303929,20,140.78558
1,Brejo do Piauí/PI,-8.207583,-42.8359849,94,2442.82744
D1,Brejo do Piauí/PI,-8.207583,-42.8359849,3,77.96258
1,Brejo dos Santos/PB,-6.3769367,-37.8243125,413,6389.23267
D1,Brejo dos Santos/PB,-6.3769367,-37.8243125,4,61.88119
1,Brejo/MA,-3.6804397,-42.7529313,841,2294.61679
D1,Brejo/MA,-3.6804397,-42.7529313,19,51.84033
1,Brejolândia/BA,-12.4843845,-43.9611861,129,1214.91806
D1,Brejolândia/BA,-12.4843845,-43.9611861,8,75.34376
1,Brejão/PE,-9.029146,-36.566034,264,2937.57650
D1,Brejão/PE,-9.029146,-36.566034,5,55.63592
1,Brejões/BA,-13.1033754,-39.7909837,582,4092.25144
D1,Brejões/BA,-13.1033754,-39.7909837,9,63.28224
1,Breu Branco/PA,-3.7785073,-49.5684795,638,947.54352
D1,Breu Branco/PA,-3.7785073,-49.5684795,44,65.34783
1,Breves/PA,-1.68036,-50.479085,3850,3719.91459
D1,Breves/PA,-1.68036,-50.479085,110,106.28327
1,Britânia/GO,-15.2427599,-51.1602061,486,8383.64671
D1,Britânia/GO,-15.2427599,-51.1602061,4,69.00121
1,Brochier/RS,-29.556766,-51.5963047,376,7366.77116
D1,Brochier/RS,-29.556766,-51.5963047,3,58.77743
1,Brodowski/SP,-20.984532,-47.657217,2137,8454.32607
D1,Brodowski/SP,-20.984532,-47.657217,50,197.80828
1,Brotas de Macaúbas/BA,-12.0019007,-42.6257506,78,769.99013
D1,Brotas de Macaúbas/BA,-12.0019007,-42.6257506,3,29.61500
1,Brotas/SP,-22.2840884,-48.1267265,467,1895.59994
D1,Brotas/SP,-22.2840884,-48.1267265,32,129.89122
1,Brumadinho/MG,-20.143611,-44.2,3063,7532.09069
D1,Brumadinho/MG,-20.143611,-44.2,71,174.59303
1,Brumado/BA,-14.29507325,-41.659307508575985,8476,12587.80723
D1,Brumado/BA,-14.29507325,-41.659307508575985,173,256.92433
1,Brunópolis/SC,-27.310953,-50.837585,250,10557.43243
D1,Brunópolis/SC,-27.310953,-50.837585,8,337.83784
1,Brusque/SC,-27.0964628,-48.9136323,24556,17834.39490
D1,Brusque/SC,-27.0964628,-48.9136323,246,178.66351
1,Brás Pires/MG,-20.8483109,-43.2430524,182,4239.45959
D1,Brás Pires/MG,-20.8483109,-43.2430524,6,139.76240
1,Bueno Brandão/MG,-22.441976,-46.3517971,621,5650.07734
D1,Bueno Brandão/MG,-22.441976,-46.3517971,22,200.16377
1,Buenos Aires/PE,-7.7218931,-35.326587,252,1910.53829
D1,Buenos Aires/PE,-7.7218931,-35.326587,19,144.04852
1,Buenópolis/MG,-17.8756607,-44.1749365,305,2946.00599
D1,Buenópolis/MG,-17.8756607,-44.1749365,11,106.24940
1,Buerarema/BA,-14.9571177,-39.3008035,1262,6893.91456
D1,Buerarema/BA,-14.9571177,-39.3008035,37,202.11952
1,Bugre/MG,-19.4257687,-42.2556,354,8887.77304
D1,Bugre/MG,-19.4257687,-42.2556,12,301.28044
1,Bujari/AC,-9.8309656,-67.9520886,1110,10652.59117
D1,Bujari/AC,-9.8309656,-67.9520886,15,143.95393
1,Bujaru/PA,-1.5169239,-48.0410699,1339,4550.24297
D1,Bujaru/PA,-1.5169239,-48.0410699,37,125.73487
1,Buri/SP,-23.79849,-48.598924,2216,11099.42399
D1,Buri/SP,-23.79849,-48.598924,66,330.57851
1,Buritama/SP,-21.0664017,-50.1448077,2010,11631.27134
D1,Buritama/SP,-21.0664017,-50.1448077,56,324.05532
1,Buriti Alegre/GO,-18.1377879,-49.0404411,843,8888.65458
D1,Buriti Alegre/GO,-18.1377879,-49.0404411,28,295.23408
1,Buriti Bravo/MA,-5.8391884,-43.8367876,1287,5376.16442
D1,Buriti Bravo/MA,-5.8391884,-43.8367876,12,50.12741
1,Buriti de Goiás/GO,-16.180644,-50.4287479,180,7269.78998
D1,Buriti de Goiás/GO,-16.180644,-50.4287479,8,323.10178
1,Buriti do Tocantins/TO,-5.3187439,-48.2256609,822,7149.69122
D1,Buriti do Tocantins/TO,-5.3187439,-48.2256609,8,69.58337
1,Buriti dos Lopes/PI,-3.1776723,-41.8707444,1219,6154.38986
D1,Buriti dos Lopes/PI,-3.1776723,-41.8707444,28,141.36416
1,Buriti dos Montes/PI,-5.3136171,-41.0971256,582,7042.59439
D1,Buriti dos Montes/PI,-5.3136171,-41.0971256,7,84.70474
1,Buriti/MA,-3.9430944,-42.9244281,751,2607.81999
D1,Buriti/MA,-3.9430944,-42.9244281,7,24.30724
1,Buriticupu/MA,-4.3227472,-46.4516989,3074,4211.93977
D1,Buriticupu/MA,-4.3227472,-46.4516989,40,54.80728
1,Buritinópolis/GO,-14.4589282,-46.4293104,162,4934.51112
D1,Buritinópolis/GO,-14.4589282,-46.4293104,2,60.91989
1,Buritirama/BA,-10.7148421,-43.6362327,818,3844.70765
D1,Buritirama/BA,-10.7148421,-43.6362327,20,94.00263
1,Buritirana/MA,-5.5897455,-47.0148915,428,2767.18174
D1,Buritirana/MA,-5.5897455,-47.0148915,23,148.70369
1,Buritis/MG,-15.621389,-46.423889,1499,5992.88370
D1,Buritis/MG,-15.621389,-46.423889,31,123.93555
1,Buritis/RO,-10.2054937,-63.8281954,4327,10722.07355
D1,Buritis/RO,-10.2054937,-63.8281954,62,153.63267
1,Buritizal/SP,-20.1933264,-47.7097165,245,5427.55871
D1,Buritizal/SP,-20.1933264,-47.7097165,10,221.53301
1,Buritizeiro/MG,-17.3667765,-44.9647781,1058,3762.31286
D1,Buritizeiro/MG,-17.3667765,-44.9647781,29,103.12578
1,Butiá/RS,-30.1256795,-51.9692224,1755,8376.28866
D1,Butiá/RS,-30.1256795,-51.9692224,48,229.09507
1,Buíque/PE,-8.6239732,-37.157296,1915,3250.22489
D1,Buíque/PE,-8.6239732,-37.157296,40,67.88981
1,Bálsamo/SP,-20.7343722,-49.5807484,1352,14793.74111
D1,Bálsamo/SP,-20.7343722,-49.5807484,51,558.04793
0,CASO SEM LOCALIZAÇÃO DEFINIDA/BA,-13.415069300066518,-38.14174656569957,10333,69.47459
D0,CASO SEM LOCALIZAÇÃO DEFINIDA/BA,-13.415069300066518,-38.14174656569957,197,1.32454
0,CASO SEM LOCALIZAÇÃO DEFINIDA/CE,-3.3445126297392798,-38.624961942434304,13465,147.44727
D0,CASO SEM LOCALIZAÇÃO DEFINIDA/CE,-3.3445126297392798,-38.624961942434304,142,1.55496
0,CASO SEM LOCALIZAÇÃO DEFINIDA/ES,-20.30989267097039,-39.81745156645774,3900,97.04752
D0,CASO SEM LOCALIZAÇÃO DEFINIDA/ES,-20.30989267097039,-39.81745156645774,179,4.45423
0,CASO SEM LOCALIZAÇÃO DEFINIDA/GO,-16.701590966270153,-49.164524059025034,792,11.28470
0,CASO SEM LOCALIZAÇÃO DEFINIDA/MG,-19.97049116501593,-43.8852149072783,15306,72.30455
D0,CASO SEM LOCALIZAÇÃO DEFINIDA/MG,-19.97049116501593,-43.8852149072783,643,3.03749
0,CASO SEM LOCALIZAÇÃO DEFINIDA/MT,-15.54791153961863,-56.17143998972475,2330,66.86821
D0,CASO SEM LOCALIZAÇÃO DEFINIDA/MT,-15.54791153961863,-56.17143998972475,176,5.05099
0,CASO SEM LOCALIZAÇÃO DEFINIDA/PI,-2.683810218391744,-41.470898009352254,1371,41.88527
D0,CASO SEM LOCALIZAÇÃO DEFINIDA/PI,-2.683810218391744,-41.470898009352254,23,0.70267
0,CASO SEM LOCALIZAÇÃO DEFINIDA/PR,-25.69415946385943,-48.10141676336737,5841,51.08468
D0,CASO SEM LOCALIZAÇÃO DEFINIDA/PR,-25.69415946385943,-48.10141676336737,145,1.26815
0,CASO SEM LOCALIZAÇÃO DEFINIDA/RR,2.813328208465927,-60.663338675861986,2851,470.64766
D0,CASO SEM LOCALIZAÇÃO DEFINIDA/RR,2.813328208465927,-60.663338675861986,16,2.64131
0,CASO SEM LOCALIZAÇÃO DEFINIDA/RS,-30.50647488532064,-49.906261466443524,1,0.00879
0,CASO SEM LOCALIZAÇÃO DEFINIDA/SP,-24.30968974555485,-46.21366504207253,758,1.65073
1,Caapiranga/AM,-3.3188884,-61.2096404,584,4396.59715
D1,Caapiranga/AM,-3.3188884,-61.2096404,21,158.09682
1,Caaporã/PB,-7.510234,-34.9154114,1721,7838.76110
D1,Caaporã/PB,-7.510234,-34.9154114,30,136.64313
1,Caarapó/MS,-22.6349267,-54.8240903,3075,10051.31893
D1,Caarapó/MS,-22.6349267,-54.8240903,28,91.52420
1,Caatiba/BA,-14.9782759,-40.4092325,782,12053.02096
D1,Caatiba/BA,-14.9782759,-40.4092325,9,138.71763
1,Cabaceiras do Paraguaçu/BA,-12.5377868,-39.1901339,486,2569.93284
D1,Cabaceiras do Paraguaçu/BA,-12.5377868,-39.1901339,4,21.15171
1,Cabaceiras/PB,-7.4899156,-36.2860501,323,5705.70571
D1,Cabaceiras/PB,-7.4899156,-36.2860501,2,35.32945
1,Cabeceira Grande/MG,-16.0297,-47.0906,323,4622.20950
D1,Cabeceira Grande/MG,-16.0297,-47.0906,5,71.55123
1,Cabeceiras do Piauí/PI,-4.4733665,-42.3098716,476,4477.89276
D1,Cabeceiras do Piauí/PI,-4.4733665,-42.3098716,10,94.07338
1,Cabeceiras/GO,-15.7995459,-46.9264991,313,3890.13174
D1,Cabeceiras/GO,-15.7995459,-46.9264991,14,173.99950
1,Cabedelo/PB,-6.97324,-34.8351609,7824,11377.55028
D1,Cabedelo/PB,-6.97324,-34.8351609,177,257.39090
1,Cabixi/RO,-13.4956065,-60.5424442,680,13107.17039
D1,Cabixi/RO,-13.4956065,-60.5424442,18,346.95451
1,Cabo Frio/RJ,-22.8804369,-42.0189227,11565,5020.01059
D1,Cabo Frio/RJ,-22.8804369,-42.0189227,607,263.48002
1,Cabo Verde/MG,-21.4743338,-46.3964995,472,3353.46359
D1,Cabo Verde/MG,-21.4743338,-46.3964995,5,35.52398
1,Cabo de Santo Agostinho/PE,-8.2838945,-35.0320984,5927,2836.64523
D1,Cabo de Santo Agostinho/PE,-8.2838945,-35.0320984,429,205.31817
1,Cabreúva/SP,-23.3075813,-47.1324417,3218,6381.24888
D1,Cabreúva/SP,-23.3075813,-47.1324417,78,154.67291
1,Cabrobó/PE,-8.5083701,-39.3106961,1927,5585.02159
D1,Cabrobó/PE,-8.5083701,-39.3106961,23,66.66087
1,Cabrália Paulista/SP,-22.4562909,-49.3385645,293,6905.49140
D1,Cabrália Paulista/SP,-22.4562909,-49.3385645,4,94.27292
1,Cacaulândia/RO,-10.3380043,-62.9007231,779,12426.22428
D1,Cacaulândia/RO,-10.3380043,-62.9007231,10,159.51507
1,Cacequi/RS,-29.8838059,-54.8273443,452,3638.41262
D1,Cacequi/RS,-29.8838059,-54.8273443,6,48.29751
1,Cachoeira Alta/GO,-18.7618269,-50.9432431,1258,9932.10169
D1,Cachoeira Alta/GO,-18.7618269,-50.9432431,18,142.11274
1,Cachoeira Dourada/GO,-18.4934204,-49.481062,389,4843.73054
D1,Cachoeira Dourada/GO,-18.4934204,-49.481062,18,224.13149
1,Cachoeira Dourada/MG,-18.517136,-49.5002062,135,4988.91353
D1,Cachoeira Dourada/MG,-18.517136,-49.5002062,2,73.90983
1,Cachoeira Grande/MA,-2.9290492,-44.0573223,238,2511.07829
D1,Cachoeira Grande/MA,-2.9290492,-44.0573223,6,63.30449
1,Cachoeira Paulista/SP,-22.666498,-45.015384,2110,6283.31497
D1,Cachoeira Paulista/SP,-22.666498,-45.015384,33,98.26985
1,Cachoeira da Prata/MG,-19.524723,-44.453056,226,6293.51156
D1,Cachoeira da Prata/MG,-19.524723,-44.453056,9,250.62657
1,Cachoeira de Goiás/GO,-16.6688414,-50.6435997,63,4694.48584
D1,Cachoeira de Goiás/GO,-16.6688414,-50.6435997,2,149.03130
1,Cachoeira de Minas/MG,-22.3554043,-45.7796324,548,4732.70576
D1,Cachoeira de Minas/MG,-22.3554043,-45.7796324,8,69.09060
1,Cachoeira de Pajeú/MG,-15.965833,-41.496666,293,3103.15611
D1,Cachoeira de Pajeú/MG,-15.965833,-41.496666,8,84.72781
1,Cachoeira do Arari/PA,-1.0143572,-48.9621089,454,1886.63564
D1,Cachoeira do Arari/PA,-1.0143572,-48.9621089,22,91.42287
1,Cachoeira do Piriá/PA,-1.7599443,-46.5446954,764,2207.51828
D1,Cachoeira do Piriá/PA,-1.7599443,-46.5446954,4,11.55769
1,Cachoeira do Sul/RS,-30.0474778,-52.8905413,7656,9351.52500
D1,Cachoeira do Sul/RS,-30.0474778,-52.8905413,118,144.13270
1,Cachoeira dos Índios/PB,-6.9259193,-38.6742159,653,6336.72974
D1,Cachoeira dos Índios/PB,-6.9259193,-38.6742159,14,135.85638
1,Cachoeira/BA,-12.5998256,-38.9665918,1390,4140.97179
D1,Cachoeira/BA,-12.5998256,-38.9665918,21,62.56144
1,Cachoeiras de Macacu/RJ,-22.4626861,-42.6534414,2606,4394.38140
D1,Cachoeiras de Macacu/RJ,-22.4626861,-42.6534414,87,146.70421
1,Cachoeirinha/PE,-8.4906364,-36.2338963,460,2243.79299
D1,Cachoeirinha/PE,-8.4906364,-36.2338963,23,112.18965
1,Cachoeirinha/RS,-29.9493353,-51.0898927,12720,9692.16702
D1,Cachoeirinha/RS,-29.9493353,-51.0898927,383,291.83176
1,Cachoeirinha/TO,-6.118647,-47.9208885,117,5122.59194
D1,Cachoeirinha/TO,-6.118647,-47.9208885,2,87.56567
1,Cachoeiro de Itapemirim/ES,-20.848084,-41.11129,24054,11422.24903
D1,Cachoeiro de Itapemirim/ES,-20.848084,-41.11129,509,241.70303
1,Cacimba de Areia/PB,-7.1288513,-37.1575194,31,838.97158
D1,Cacimba de Areia/PB,-7.1288513,-37.1575194,3,81.19080
1,Cacimba de Dentro/PB,-6.6425101,-35.7929304,929,5408.08010
D1,Cacimba de Dentro/PB,-6.6425101,-35.7929304,28,162.99919
1,Cacimbas/PB,-7.2125451,-37.0593398,196,2722.60036
D1,Cacimbas/PB,-7.2125451,-37.0593398,6,83.34491
1,Cacimbinhas/AL,-9.401212,-36.991082,626,5748.92093
D1,Cacimbinhas/AL,-9.401212,-36.991082,7,64.28506
1,Cacique Doble/RS,-27.7700117,-51.6616409,423,8336.61805
D1,Cacique Doble/RS,-27.7700117,-51.6616409,9,177.37485
1,Cacoal/RO,-11.4333,-61.4420502,12050,14029.08270
D1,Cacoal/RO,-11.4333,-61.4420502,237,275.92470
1,Caconde/SP,-21.527995,-46.643659,1099,5781.47193
D1,Caconde/SP,-21.527995,-46.643659,25,131.51665
1,Caculé/BA,-14.4990734,-42.2233006,1372,5890.68739
D1,Caculé/BA,-14.4990734,-42.2233006,11,47.22854
1,Caetanos/BA,-14.3387456,-40.9085971,605,4141.56627
D1,Caetanos/BA,-14.3387456,-40.9085971,10,68.45564
1,Caetanópolis/MG,-19.2947496,-44.4138386,802,6826.11286
D1,Caetanópolis/MG,-19.2947496,-44.4138386,13,110.64771
1,Caetité/BA,-14.0691776,-42.4852428,2097,4105.24461
D1,Caetité/BA,-14.0691776,-42.4852428,23,45.02653
1,Caeté/MG,-19.897777,-43.670278,1708,3791.59544
D1,Caeté/MG,-19.897777,-43.670278,44,97.67576
1,Caetés/PE,-8.7728788,-36.6255835,1256,4345.41932
D1,Caetés/PE,-8.7728788,-36.6255835,17,58.81539
1,Cafarnaum/BA,-11.691399,-41.468823,798,4310.48452
D1,Cafarnaum/BA,-11.691399,-41.468823,18,97.22897
1,Cafeara/PR,-22.78905,-51.714195,247,8361.54367
D1,Cafeara/PR,-22.78905,-51.714195,10,338.52404
1,Cafelândia/PR,-24.6176963,-53.3218057,1700,9211.09666
D1,Cafelândia/PR,-24.6176963,-53.3218057,14,75.85609
1,Cafelândia/SP,-21.8054355,-49.6030627,667,3738.16062
D1,Cafelândia/SP,-21.8054355,-49.6030627,30,168.13316
1,Cafezal do Sul/PR,-23.900508,-53.512418,311,7757.54552
D1,Cafezal do Sul/PR,-23.900508,-53.512418,4,99.77551
1,Caiabu/SP,-22.0143038,-51.2356597,88,2098.73599
D1,Caiabu/SP,-22.0143038,-51.2356597,5,119.24636
1,Caiana/MG,-20.695555,-41.924723,127,2292.00505
D1,Caiana/MG,-20.695555,-41.924723,7,126.33099
1,Caiapônia/GO,-16.9538779,-51.8090761,1026,5369.75977
D1,Caiapônia/GO,-16.9538779,-51.8090761,33,172.71157
1,Caibaté/RS,-28.290475,-54.645407,217,4499.27431
D1,Caibaté/RS,-28.290475,-54.645407,7,145.13788
1,Caibi/SC,-27.0751925,-53.2502133,560,9135.39967
D1,Caibi/SC,-27.0751925,-53.2502133,11,179.44535
1,Caicó/RN,-6.4594544,-37.0971911,9814,14359.91982
D1,Caicó/RN,-6.4594544,-37.0971911,117,171.19529
1,Caieiras/SP,-23.3644621,-46.7484765,7012,6822.67088
D1,Caieiras/SP,-23.3644621,-46.7484765,251,244.22282
1,Cairu/BA,-13.4860505,-39.0455744,1130,6132.30586
D1,Cairu/BA,-13.4860505,-39.0455744,13,70.54865
1,Caiuá/SP,-21.8319357,-51.9887179,270,4540.86781
D1,Caiuá/SP,-21.8319357,-51.9887179,5,84.09014
1,Caiçara do Norte/RN,-5.0645017,-36.0561226,361,5502.21003
D1,Caiçara do Norte/RN,-5.0645017,-36.0561226,9,137.17421
1,Caiçara do Rio do Vento/RN,-5.757968,-36.00089,257,6917.90040
D1,Caiçara do Rio do Vento/RN,-5.757968,-36.00089,7,188.42530
1,Caiçara/PB,-6.6146866,-35.4681434,653,9080.79544
D1,Caiçara/PB,-6.6146866,-35.4681434,14,194.68780
1,Caiçara/RS,-27.2750478,-53.4310053,467,9936.17021
D1,Caiçara/RS,-27.2750478,-53.4310053,8,170.21277
1,Cajamar/SP,-23.3561111,-46.8769444,3745,4805.34812
D1,Cajamar/SP,-23.3561111,-46.8769444,184,236.09721
1,Cajapió/MA,-2.8778715,-44.6746871,78,695.43509
D1,Cajapió/MA,-2.8778715,-44.6746871,4,35.66334
1,Cajari/MA,-3.3213076,-45.0118757,197,1012.80140
D1,Cajari/MA,-3.3213076,-45.0118757,6,30.84674
1,Cajati/SP,-24.7272376,-48.1077914,3017,10588.19401
D1,Cajati/SP,-24.7272376,-48.1077914,79,277.25135
1,Cajazeiras do Piauí/PI,-6.794271,-42.3935024,47,1315.42121
D1,Cajazeiras do Piauí/PI,-6.794271,-42.3935024,1,27.98769
1,Cajazeiras/PB,-6.8897849,-38.5570389,7271,11673.00808
D1,Cajazeiras/PB,-6.8897849,-38.5570389,126,202.28291
1,Cajazeirinhas/PB,-6.961442,-37.7993733,126,3931.35725
1,Cajobi/SP,-20.8776238,-48.8106972,802,7568.89392
D1,Cajobi/SP,-20.8776238,-48.8106972,26,245.37561
1,Cajueiro da Praia/PI,-2.931114,-41.340801,473,6163.66953
D1,Cajueiro da Praia/PI,-2.931114,-41.340801,18,234.55825
1,Cajueiro/AL,-9.399589,-36.1524309,518,2428.39061
D1,Cajueiro/AL,-9.399589,-36.1524309,20,93.76026
1,Cajuri/MG,-20.7901414,-42.7954489,336,8454.95722
D1,Cajuri/MG,-20.7901414,-42.7954489,2,50.32713
1,Cajuru/SP,-21.2759978,-47.3046035,920,3485.77274
D1,Cajuru/SP,-21.2759978,-47.3046035,35,132.61092
1,Caldas Brandão/PB,-7.1027959,-35.3254676,474,7839.89414
D1,Caldas Brandão/PB,-7.1027959,-35.3254676,8,132.31889
1,Caldas Novas/GO,-17.745,-48.625,7646,8204.21477
D1,Caldas Novas/GO,-17.745,-48.625,191,204.94442
1,Caldas/MG,-21.923611,-46.386111,655,4504.50450
D1,Caldas/MG,-21.923611,-46.386111,22,151.29633
1,Caldazinha/GO,-16.7116649,-49.0012601,242,6288.98129
D1,Caldazinha/GO,-16.7116649,-49.0012601,5,129.93763
1,Caldeirão Grande do Piauí/PI,-7.3310393,-40.6374433,356,6158.10413
D1,Caldeirão Grande do Piauí/PI,-7.3310393,-40.6374433,2,34.59609
1,Caldeirão Grande/BA,-11.0208483,-40.3041387,545,4069.89769
D1,Caldeirão Grande/BA,-11.0208483,-40.3041387,6,44.80621
1,Califórnia/PR,-23.6672543,-51.3554556,883,10260.28352
D1,Califórnia/PR,-23.6672543,-51.3554556,18,209.15640
1,Calmon/SC,-26.6023644,-51.0992893,30,899.55022
D1,Calmon/SC,-26.6023644,-51.0992893,4,119.94003
1,Calumbi/PE,-7.9389746,-38.1516871,475,8265.18183
D1,Calumbi/PE,-7.9389746,-38.1516871,3,52.20115
1,Calçado/PE,-8.7413446,-36.3351787,394,3575.96660
D1,Calçado/PE,-8.7413446,-36.3351787,3,27.22817
1,Calçoene/AP,2.4981757,-50.9539503,1608,14222.53671
D1,Calçoene/AP,2.4981757,-50.9539503,10,88.44861
1,Camacan/BA,-15.4166631,-39.4930088,2593,8101.60595
D1,Camacan/BA,-15.4166631,-39.4930088,70,218.70899
1,Camacho/MG,-20.625556,-45.156667,49,1707.91216
D1,Camacho/MG,-20.625556,-45.156667,1,34.85535
1,Camalaú/PB,-7.885031,-36.824191,382,6333.94130
D1,Camalaú/PB,-7.885031,-36.824191,6,99.48599
1,Camamu/BA,-13.9438142,-39.1060917,2075,5864.56390
D1,Camamu/BA,-13.9438142,-39.1060917,45,127.18331
1,Camanducaia/MG,-22.755278,-46.144444,2621,12022.38429
D1,Camanducaia/MG,-22.755278,-46.144444,52,238.52117
1,Camapuã/MS,-19.5291747,-54.0434641,693,5060.98006
D1,Camapuã/MS,-19.5291747,-54.0434641,22,160.66603
1,Camaquã/RS,-30.8524752,-51.8075619,6261,9418.15337
D1,Camaquã/RS,-30.8524752,-51.8075619,126,189.53639
1,Camaragibe/PE,-8.0213832,-34.9810768,5428,3416.00639
D1,Camaragibe/PE,-8.0213832,-34.9810768,345,217.11905
1,Camargo/RS,-28.5865661,-52.2031474,316,11524.43472
D1,Camargo/RS,-28.5865661,-52.2031474,5,182.34865
1,Camaçari/BA,-12.6998188,-38.3260762,21566,7087.03853
D1,Camaçari/BA,-12.6998188,-38.3260762,544,178.76977
1,Cambará do Sul/RS,-29.0489517,-50.145412,293,4573.83703
D1,Cambará do Sul/RS,-29.0489517,-50.145412,10,156.10365
1,Cambará/PR,-23.042273,-50.075281,2017,7920.36441
D1,Cambará/PR,-23.042273,-50.075281,41,160.99898
1,Cambira/PR,-23.600265,-51.581045,734,9271.18858
D1,Cambira/PR,-23.600265,-51.581045,16,202.09675
1,Camboriú/SC,-27.0273601,-48.6535657,11446,13449.26855
D1,Camboriú/SC,-27.0273601,-48.6535657,151,177.42788
1,Cambuci/RJ,-21.5749919,-41.9107833,777,5008.37953
D1,Cambuci/RJ,-21.5749919,-41.9107833,30,193.37373
1,Cambuquira/MG,-21.853056,-45.2953619,489,3816.73431
D1,Cambuquira/MG,-21.853056,-45.2953619,16,124.88292
1,Cambuí/MG,-22.6122501,-46.0572137,2873,9636.41242
D1,Cambuí/MG,-22.6122501,-46.0572137,45,150.93580
1,Cambé/PR,-23.2782035,-51.2779583,9512,8861.47884
D1,Cambé/PR,-23.2782035,-51.2779583,201,187.25371
1,Cametá/PA,-2.242949,-49.497885,8009,5746.82127
D1,Cametá/PA,-2.242949,-49.497885,219,157.14245
1,Camocim de São Félix/PE,-8.3616757,-35.7638903,447,2365.07937
D1,Camocim de São Félix/PE,-8.3616757,-35.7638903,14,74.07407
1,Camocim/CE,-2.9009918,-40.8427389,5517,8632.85712
D1,Camocim/CE,-2.9009918,-40.8427389,147,230.02175
1,Campanha/MG,-21.8361108,-45.401986,1270,7576.66150
D1,Campanha/MG,-21.8361108,-45.401986,27,161.07863
1,Campanário/MG,-18.2398144,-41.7271768,199,5335.12064
D1,Campanário/MG,-18.2398144,-41.7271768,3,80.42895
1,Campestre da Serra/RS,-28.7966535,-51.0958149,175,5154.63918
1,Campestre de Goiás/GO,-16.7624179,-49.69497,455,12469.16964
D1,Campestre de Goiás/GO,-16.7624179,-49.69497,13,356.26199
1,Campestre do Maranhão/MA,-6.1729113,-47.3640512,969,6704.49042
D1,Campestre do Maranhão/MA,-6.1729113,-47.3640512,41,283.67813
1,Campestre/AL,-8.8481634,-35.5660033,244,3508.77193
D1,Campestre/AL,-8.8481634,-35.5660033,6,86.28128
1,Campestre/MG,-19.6142116,-43.219378,1162,5519.14126
D1,Campestre/MG,-19.6142116,-43.219378,27,128.24166
1,Campina Grande do Sul/PR,-25.3046032,-49.0545355,4557,10431.49823
D1,Campina Grande do Sul/PR,-25.3046032,-49.0545355,103,235.77887
1,Campina Grande/PB,-7.2246743,-35.8771292,28480,6915.86107
D1,Campina Grande/PB,-7.2246743,-35.8771292,865,210.04985
1,Campina Verde/MG,-19.535277,-49.486389,955,4834.95342
D1,Campina Verde/MG,-19.535277,-49.486389,25,126.56946
1,Campina da Lagoa/PR,-24.5937926,-52.8038965,1247,8879.86897
D1,Campina da Lagoa/PR,-24.5937926,-52.8038965,30,213.62957
1,Campina das Missões/RS,-27.9883295,-54.8411665,471,8725.45387
