type,name,lat,lon,total,total_per_100k_inhabitants
1,Abadia de Goiás/GO,-16.7572644,-49.4412205,1151,12848.85019
D1,Abadia de Goiás/GO,-16.7572644,-49.4412205,18,200.93771
1,Abadia dos Dourados/MG,-18.4911191,-47.4063589,324,4624.60748
D1,Abadia dos Dourados/MG,-18.4911191,-47.4063589,11,157.00828
1,Abadiânia/GO,-16.1940946,-48.7067767,300,1466.20400
D1,Abadiânia/GO,-16.1940946,-48.7067767,20,97.74693
1,Abaetetuba/PA,-1.721828,-48.878843,6099,3833.92004
D1,Abaetetuba/PA,-1.721828,-48.878843,134,84.23435
1,Abaeté/MG,-19.1566833,-45.4481213,763,3281.72043
D1,Abaeté/MG,-19.1566833,-45.4481213,16,68.81720
1,Abaiara/CE,-7.3607808,-39.0487878,307,2590.06159
D1,Abaiara/CE,-7.3607808,-39.0487878,7,59.05678
1,Abaré/BA,-8.7239913,-39.1139689,586,2880.03145
D1,Abaré/BA,-8.7239913,-39.1139689,2,9.82946
1,Abatiá/PR,-23.3052967,-50.3102532,379,5116.09071
D1,Abatiá/PR,-23.3052967,-50.3102532,6,80.99352
1,Abaíra/BA,-13.2503296,-41.6640342,241,2766.93456
D1,Abaíra/BA,-13.2503296,-41.6640342,9,103.32951
1,Abdon Batista/SC,-27.612419,-51.022992,232,9105.18053
D1,Abdon Batista/SC,-27.612419,-51.022992,2,78.49294
1,Abel Figueiredo/PA,-4.953001,-48.3958485,732,9778.25274
D1,Abel Figueiredo/PA,-4.953001,-48.3958485,6,80.14961
1,Abelardo Luz/SC,-26.5705893,-52.3280339,1119,6230.51225
D1,Abelardo Luz/SC,-26.5705893,-52.3280339,36,200.44543
1,Abre Campo/MG,-20.2976097,-42.4764741,720,5355.54894
D1,Abre Campo/MG,-20.2976097,-42.4764741,7,52.06784
1,Abreu e Lima/PE,-7.900719,-34.898389,1900,1893.44867
D1,Abreu e Lima/PE,-7.900719,-34.898389,168,167.42072
1,Abreulândia/TO,-9.6221526,-49.1558343,207,7979.95374
D1,Abreulândia/TO,-9.6221526,-49.1558343,5,192.75251
1,Acaiaca/MG,-20.3621646,-43.1444162,158,3955.93390
D1,Acaiaca/MG,-20.3621646,-43.1444162,5,125.18778
1,Acajutiba/BA,-11.6609659,-38.0186381,433,2851.12267
D1,Acajutiba/BA,-11.6609659,-38.0186381,13,85.59953
1,Acarape/CE,-4.2237866,-38.7071663,2185,14531.79037
D1,Acarape/CE,-4.2237866,-38.7071663,16,106.41128
1,Acaraú/CE,-2.8869514,-40.1194713,3968,6288.03245
D1,Acaraú/CE,-2.8869514,-40.1194713,77,122.02079
1,Acari/RN,-6.4364689,-36.6394777,658,5916.73411
D1,Acari/RN,-6.4364689,-36.6394777,9,80.92797
1,Acará/PA,-1.961388,-48.1987043,1049,1884.35215
D1,Acará/PA,-1.961388,-48.1987043,22,39.51930
1,Acauã/PI,-8.219542,-41.083059,157,2210.64489
D1,Acauã/PI,-8.219542,-41.083059,1,14.08054
1,Aceguá/RS,-31.8695131,-54.1615593,158,3197.08620
1,Acopiara/CE,-6.0936464,-39.4543204,2113,3878.41633
D1,Acopiara/CE,-6.0936464,-39.4543204,85,156.01769
1,Acorizal/MT,-15.2001544,-56.3668953,380,7124.10949
D1,Acorizal/MT,-15.2001544,-56.3668953,14,262.46719
1,Acrelândia/AC,-10.0759167,-67.0526898,1331,8592.64041
D1,Acrelândia/AC,-10.0759167,-67.0526898,22,142.02711
1,Acreúna/GO,-17.3959899,-50.3749031,1344,5961.14610
D1,Acreúna/GO,-17.3959899,-50.3749031,36,159.67356
1,Adamantina/SP,-21.6866517,-51.0762975,1960,5582.29615
D1,Adamantina/SP,-21.6866517,-51.0762975,50,142.40551
1,Adelândia/GO,-16.4155077,-50.1665834,108,4292.52782
D1,Adelândia/GO,-16.4155077,-50.1665834,2,79.49126
1,Adolfo/SP,-21.2356597,-49.6441918,296,8328.64378
D1,Adolfo/SP,-21.2356597,-49.6441918,8,225.09848
1,Adrianópolis/PR,-24.6557863,-48.9912769,1018,17380.91173
D1,Adrianópolis/PR,-24.6557863,-48.9912769,21,358.54533
1,Adustina/BA,-10.5358875,-38.114479,510,2977.92830
D1,Adustina/BA,-10.5358875,-38.114479,9,52.55168
1,Afogados da Ingazeira/PE,-7.750429,-37.6356375,3012,8052.61469
D1,Afogados da Ingazeira/PE,-7.750429,-37.6356375,43,114.96097
1,Afonso Bezerra/RN,-5.4745,-36.57625071327935,329,2983.04470
D1,Afonso Bezerra/RN,-5.4745,-36.57625071327935,11,99.73706
1,Afonso Cláudio/ES,-20.077841,-41.12606,2887,9479.56001
D1,Afonso Cláudio/ES,-20.077841,-41.12606,46,151.04252
1,Afonso Cunha/MA,-4.1326105,-43.3230026,155,2356.33931
D1,Afonso Cunha/MA,-4.1326105,-43.3230026,2,30.40438
1,Afrânio/PE,-8.5198919,-41.0070197,597,3013.62948
D1,Afrânio/PE,-8.5198919,-41.0070197,9,45.43160
1,Afuá/PA,-0.1535664,-50.3879223,2757,6967.92782
D1,Afuá/PA,-0.1535664,-50.3879223,14,35.38302
1,Agrestina/PE,-8.4558021,-35.9442663,953,3802.11450
D1,Agrestina/PE,-8.4558021,-35.9442663,39,155.59545
1,Agricolândia/PI,-5.7967843,-42.6605131,131,2553.10856
D1,Agricolândia/PI,-5.7967843,-42.6605131,2,38.97876
1,Agrolândia/SC,-27.4122212,-49.8295774,773,7018.97757
D1,Agrolândia/SC,-27.4122212,-49.8295774,8,72.64142
1,Agronômica/SC,-27.2660744,-49.7104753,399,7242.69377
D1,Agronômica/SC,-27.2660744,-49.7104753,9,163.36903
1,Aguanil/MG,-20.9424533,-45.3927152,310,6855.37373
D1,Aguanil/MG,-20.9424533,-45.3927152,7,154.79876
1,Aguaí/SP,-22.0592036,-46.979384,1522,4153.02336
D1,Aguaí/SP,-22.0592036,-46.979384,31,84.58852
1,Agudo/RS,-29.6423259,-53.2494005,838,5109.44455
D1,Agudo/RS,-29.6423259,-53.2494005,9,54.87470
1,Agudos do Sul/PR,-25.9890808,-49.3328175,408,4308.34213
D1,Agudos do Sul/PR,-25.9890808,-49.3328175,5,52.79831
1,Agudos/SP,-22.471162,-48.987822,2106,5630.86548
D1,Agudos/SP,-22.471162,-48.987822,47,125.66509
1,Aguiar/PB,-7.0928404,-38.1727215,244,4333.92540
D1,Aguiar/PB,-7.0928404,-38.1727215,3,53.28597
1,Aguiarnópolis/TO,-6.5600452,-47.4721189,496,7196.74985
D1,Aguiarnópolis/TO,-6.5600452,-47.4721189,11,159.60534
1,Aimorés/MG,-19.4917754,-41.0615603,1495,5946.46195
D1,Aimorés/MG,-19.4917754,-41.0615603,38,151.14753
1,Aiquara/BA,-14.126918,-39.8887574,435,9850.54348
D1,Aiquara/BA,-14.126918,-39.8887574,9,203.80435
1,Aiuaba/CE,-6.5710836,-40.1212278,301,1720.68828
D1,Aiuaba/CE,-6.5710836,-40.1212278,7,40.01601
1,Aiuruoca/MG,-21.9759554,-44.6036637,79,1321.95448
D1,Aiuruoca/MG,-21.9759554,-44.6036637,5,83.66801
1,Ajuricaba/RS,-28.239654,-53.7693013,571,8172.32002
D1,Ajuricaba/RS,-28.239654,-53.7693013,19,271.93359
1,Alagoa Grande/PB,-7.0415212,-35.6285322,2251,7915.18689
D1,Alagoa Grande/PB,-7.0415212,-35.6285322,43,151.20082
1,Alagoa Nova/PB,-7.0653703,-35.76695977336711,675,3226.42321
D1,Alagoa Nova/PB,-7.0653703,-35.76695977336711,13,62.13852
1,Alagoa/MG,-22.1697202,-44.6400042,251,9418.38649
D1,Alagoa/MG,-22.1697202,-44.6400042,3,112.57036
1,Alagoinha do Piauí/PI,-7.0090952,-40.939675,242,3157.20809
D1,Alagoinha do Piauí/PI,-7.0090952,-40.939675,9,117.41683
1,Alagoinha/PB,-6.97063215,-35.51490901897793,1301,8935.43956
D1,Alagoinha/PB,-6.97063215,-35.51490901897793,17,116.75824
1,Alagoinha/PE,-8.50355635,-36.77701174370496,460,3125.42465
D1,Alagoinha/PE,-8.50355635,-36.77701174370496,13,88.32722
1,Alagoinhas/BA,-12.133526,-38.420772,10105,6633.75501
D1,Alagoinhas/BA,-12.133526,-38.420772,183,120.13629
1,Alambari/SP,-23.550338,-47.897971,308,5025.28961
D1,Alambari/SP,-23.550338,-47.897971,9,146.84288
1,Albertina/MG,-20.66164,-43.784039,166,5513.11857
D1,Albertina/MG,-20.66164,-43.784039,6,199.26935
1,Alcantil/PB,-7.7425491,-36.0609604,203,3684.87929
D1,Alcantil/PB,-7.7425491,-36.0609604,6,108.91269
1,Alcinópolis/MS,-18.3264121,-53.7094463,102,1882.96105
D1,Alcinópolis/MS,-18.3264121,-53.7094463,4,73.84161
1,Alcobaça/BA,-17.5215875,-39.1965474,1151,5117.83015
D1,Alcobaça/BA,-17.5215875,-39.1965474,16,71.14273
1,Alcântara/MA,-2.4038956,-44.4154241,208,940.66570
D1,Alcântara/MA,-2.4038956,-44.4154241,11,49.74674
1,Alcântaras/CE,-3.586247,-40.5457641,896,7605.46643
D1,Alcântaras/CE,-3.586247,-40.5457641,8,67.90595
1,Aldeias Altas/MA,-4.6291957,-43.4708622,973,3636.43159
D1,Aldeias Altas/MA,-4.6291957,-43.4708622,11,41.11074
1,Alecrim/RS,-27.6566142,-54.7653195,220,3775.52772
D1,Alecrim/RS,-27.6566142,-54.7653195,9,154.45341
1,Alegre/ES,-20.7625787,-41.5318886,1536,5124.27023
D1,Alegre/ES,-20.7625787,-41.5318886,33,110.09174
1,Alegrete do Piauí/PI,-7.2440138,-40.8602296,397,8072.38715
D1,Alegrete do Piauí/PI,-7.2440138,-40.8602296,4,81.33388
1,Alegrete/RS,-29.790166,-55.794862,4911,6724.81788
D1,Alegrete/RS,-29.790166,-55.794862,154,210.87802
1,Alegria/RS,-27.8332103,-54.0574959,281,8328.39360
D1,Alegria/RS,-27.8332103,-54.0574959,1,29.63841
1,Alenquer/PA,-1.946229,-54.738355,2112,3699.29237
D1,Alenquer/PA,-1.946229,-54.738355,69,120.85756
1,Alexandria/RN,-6.414779,-38.0135516,978,7216.11451
D1,Alexandria/RN,-6.414779,-38.0135516,10,73.78440
1,Alexânia/GO,-16.0834049,-48.5077803,2147,7665.11960
D1,Alexânia/GO,-16.0834049,-48.5077803,39,139.23599
1,Alfenas/MG,-21.4297405,-45.9479419,5132,6375.63048
D1,Alfenas/MG,-21.4297405,-45.9479419,117,145.35245
1,Alfredo Chaves/ES,-20.624970400000002,-40.75006690147988,1896,12954.35911
D1,Alfredo Chaves/ES,-20.624970400000002,-40.75006690147988,24,163.97923
1,Alfredo Marcondes/SP,-21.9527,-51.413956,187,4469.40727
D1,Alfredo Marcondes/SP,-21.9527,-51.413956,6,143.40344
1,Alfredo Vasconcelos/MG,-21.145833,-43.776389,193,2764.64690
D1,Alfredo Vasconcelos/MG,-21.145833,-43.776389,5,71.62298
1,Alfredo Wagner/SC,-27.6961513,-49.3326734,585,5800.11898
D1,Alfredo Wagner/SC,-27.6961513,-49.3326734,5,49.57367
1,Algodão de Jandaíra/PB,-6.9040175,-36.0089879,88,3414.82344
1,Alhandra/PB,-7.4304246,-34.9106103,1127,5712.98221
D1,Alhandra/PB,-7.4304246,-34.9106103,22,111.52228
1,Aliança do Tocantins/TO,-11.3055927,-48.9409096,462,8641.97531
D1,Aliança do Tocantins/TO,-11.3055927,-48.9409096,14,261.87804
1,Aliança/PE,-7.60398,-35.222696,472,1229.26270
D1,Aliança/PE,-7.60398,-35.222696,32,83.33984
1,Almadina/BA,-14.70466,-39.6381994,570,10622.43757
D1,Almadina/BA,-14.70466,-39.6381994,9,167.72270
1,Almas/TO,-11.5681309,-47.1702803,174,2493.19387
D1,Almas/TO,-11.5681309,-47.1702803,4,57.31480
1,Almeirim/PA,-1.5290377,-52.5788111,2961,8689.40016
D1,Almeirim/PA,-1.5290377,-52.5788111,26,76.30004
1,Almenara/MG,-16.1740678,-40.6904907,2893,6864.72249
D1,Almenara/MG,-16.1740678,-40.6904907,28,66.44045
1,Almino Afonso/RN,-6.1544208,-37.7649018,306,6496.81529
D1,Almino Afonso/RN,-6.1544208,-37.7649018,7,148.61996
1,Almirante Tamandaré do Sul/RS,-28.1141129,-52.9134874,142,7285.78758
D1,Almirante Tamandaré do Sul/RS,-28.1141129,-52.9134874,1,51.30836
1,Almirante Tamandaré/PR,-25.3133048,-49.2997838,7035,5860.49766
D1,Almirante Tamandaré/PR,-25.3133048,-49.2997838,227,189.10206
1,Aloândia/GO,-17.7277983,-49.4809338,184,9264.85398
D1,Aloândia/GO,-17.7277983,-49.4809338,6,302.11480
1,Alpercata/MG,-18.9803616,-41.9827637,346,4653.03927
D1,Alpercata/MG,-18.9803616,-41.9827637,12,161.37708
1,Alpestre/RS,-27.2512339,-53.0349646,251,4137.13532
D1,Alpestre/RS,-27.2512339,-53.0349646,6,98.89567
1,Alpinópolis/MG,-20.863611,-46.387777,659,3301.93406
D1,Alpinópolis/MG,-20.863611,-46.387777,11,55.11574
1,Alta Floresta D'Oeste/RO,-11.9296917,-61.9961284,2882,12680.39423
D1,Alta Floresta D'Oeste/RO,-11.9296917,-61.9961284,45,197.99366
1,Alta Floresta/MT,-9.8715018,-56.0839881,5969,11487.90392
D1,Alta Floresta/MT,-9.8715018,-56.0839881,74,142.41998
1,Altair/SP,-20.5238955,-49.0606135,108,2580.02867
D1,Altair/SP,-20.5238955,-49.0606135,7,167.22408
1,Altamira do Maranhão/MA,-4.1643006,-45.4674574,279,3407.00940
D1,Altamira do Maranhão/MA,-4.1643006,-45.4674574,8,97.69203
1,Altamira do Paraná/PR,-24.799114,-52.7128633,97,5766.94411
D1,Altamira do Paraná/PR,-24.799114,-52.7128633,2,118.90606
1,Altamira/PA,-3.204065,-52.209961,10778,9293.86302
D1,Altamira/PA,-3.204065,-52.209961,208,179.35828
1,Altaneira/CE,-6.9980933,-39.7385742,293,3830.06536
D1,Altaneira/CE,-6.9980933,-39.7385742,8,104.57516
1,Alterosa/MG,-21.249166,-46.143055,490,3375.35303
D1,Alterosa/MG,-21.249166,-46.143055,25,172.21189
1,Altinho/PE,-8.4904095,-36.0607494,810,3524.19074
D1,Altinho/PE,-8.4904095,-36.0607494,16,69.61364
1,Altinópolis/SP,-21.021364,-47.3712,587,3622.78590
D1,Altinópolis/SP,-21.021364,-47.3712,19,117.26224
1,Alto Alegre do Maranhão/MA,-4.2055693,-44.4525287,700,2512.74320
D1,Alto Alegre do Maranhão/MA,-4.2055693,-44.4525287,21,75.38230
1,Alto Alegre do Pindaré/MA,-3.6698186,-45.8462153,1708,5347.02439
D1,Alto Alegre do Pindaré/MA,-3.6698186,-45.8462153,28,87.65614
1,Alto Alegre dos Parecis/RO,-12.1314515,-61.856265,797,6012.82535
D1,Alto Alegre dos Parecis/RO,-12.1314515,-61.856265,18,135.79781
1,Alto Alegre/RR,2.98858,-61.307167,1140,7412.22367
D1,Alto Alegre/RR,2.98858,-61.307167,23,149.54486
1,Alto Alegre/RS,-31.780844700000003,-52.81311114489171,107,6633.60198
1,Alto Alegre/SP,-21.5820592,-50.1661976,181,4427.59295
D1,Alto Alegre/SP,-21.5820592,-50.1661976,4,97.84736
1,Alto Araguaia/MT,-17.3156528,-53.2169365,899,4637.60640
D1,Alto Araguaia/MT,-17.3156528,-53.2169365,18,92.85530
1,Alto Bela Vista/SC,-27.4320737,-51.905771,103,5347.87124
D1,Alto Bela Vista/SC,-27.4320737,-51.905771,2,103.84216
1,Alto Boa Vista/MT,-11.6723985,-51.3744431,430,6199.53864
D1,Alto Boa Vista/MT,-11.6723985,-51.3744431,7,100.92272
1,Alto Caparaó/MG,-20.4405661,-41.8683799,299,5072.95555
D1,Alto Caparaó/MG,-20.4405661,-41.8683799,7,118.76485
1,Alto Feliz/RS,-29.3785943,-51.3123751,155,5105.40184
1,Alto Garças/MT,-16.9469683,-53.529427,449,3695.16912
D1,Alto Garças/MT,-16.9469683,-53.529427,21,172.82528
1,Alto Horizonte/GO,-14.1954948,-49.3366993,555,8402.72521
D1,Alto Horizonte/GO,-14.1954948,-49.3366993,5,75.70023
1,Alto Jequitibá/MG,-20.423611,-41.966111,468,5637.87495
D1,Alto Jequitibá/MG,-20.423611,-41.966111,9,108.42067
1,Alto Longá/PI,-5.2549051,-42.2072388,474,3305.66985
D1,Alto Longá/PI,-5.2549051,-42.2072388,11,76.71386
1,Alto Paraguai/MT,-14.513712,-56.4936374,503,4384.20640
D1,Alto Paraguai/MT,-14.513712,-56.4936374,13,113.30951
1,Alto Paraná/PR,-23.131247,-52.318893,597,4017.76701
D1,Alto Paraná/PR,-23.131247,-52.318893,14,94.21899
1,Alto Paraíso de Goiás/GO,-14.1304779,-47.5100161,481,6256.50364
D1,Alto Paraíso de Goiás/GO,-14.1304779,-47.5100161,2,26.01457
1,Alto Paraíso/PR,-23.508137,-53.728537,147,5474.86034
D1,Alto Paraíso/PR,-23.508137,-53.728537,2,74.48790
1,Alto Paraíso/RO,-9.7240103,-63.3188123,1394,6380.73877
D1,Alto Paraíso/RO,-9.7240103,-63.3188123,30,137.31862
1,Alto Parnaíba/MA,-9.112506,-45.9310154,650,5797.35997
D1,Alto Parnaíba/MA,-9.112506,-45.9310154,5,44.59508
1,Alto Piquiri/PR,-24.0239021,-53.4417448,427,4366.94621
D1,Alto Piquiri/PR,-24.0239021,-53.4417448,11,112.49744
1,Alto Rio Doce/MG,-21.0239537,-43.4133507,260,2394.32729
D1,Alto Rio Doce/MG,-21.0239537,-43.4133507,21,193.38797
1,Alto Rio Novo/ES,-19.0577208,-41.0171518,594,7543.81509
D1,Alto Rio Novo/ES,-19.0577208,-41.0171518,18,228.60046
1,Alto Santo/CE,-5.5190371,-38.2719351,701,4076.52943
D1,Alto Santo/CE,-5.5190371,-38.2719351,18,104.67551
1,Alto Taquari/MT,-17.8269099,-53.2831736,1061,9530.22546
D1,Alto Taquari/MT,-17.8269099,-53.2831736,16,143.71688
1,Alto do Rodrigues/RN,-5.290868,-36.7616726,1104,7495.92613
D1,Alto do Rodrigues/RN,-5.290868,-36.7616726,23,156.16513
1,Altos/PI,-5.0393915,-42.4611694,3325,8188.64672
D1,Altos/PI,-5.0393915,-42.4611694,62,152.69056
1,Altônia/PR,-23.8722004,-53.894037,809,3648.08802
D1,Altônia/PR,-23.8722004,-53.894037,13,58.62193
1,Alumínio/SP,-23.5203479,-47.2575256,910,4848.93696
D1,Alumínio/SP,-23.5203479,-47.2575256,25,133.21255
1,Alvarenga/MG,-19.4175,-41.728334,336,8740.89490
D1,Alvarenga/MG,-19.4175,-41.728334,3,78.04370
1,Alvarães/AM,-3.214786,-64.8143124,2626,16189.88903
D1,Alvarães/AM,-3.214786,-64.8143124,35,215.78298
1,Alvinlândia/SP,-22.4431852,-49.7643596,96,2965.70899
1,Alvinópolis/MG,-20.1105199,-43.0601805,421,2775.39719
D1,Alvinópolis/MG,-20.1105199,-43.0601805,6,39.55435
1,Alvorada D'Oeste/RO,-11.346271,-62.284697,728,5160.92443
D1,Alvorada D'Oeste/RO,-11.346271,-62.284697,18,127.60527
1,Alvorada de Minas/MG,-18.7318587,-43.3641479,197,5464.63245
D1,Alvorada de Minas/MG,-18.7318587,-43.3641479,1,27.73925
1,Alvorada do Gurguéia/PI,-8.4465288,-43.8655915,224,4113.86593
D1,Alvorada do Gurguéia/PI,-8.4465288,-43.8655915,6,110.19284
1,Alvorada do Norte/GO,-14.483911,-46.4959897,543,6237.79437
D1,Alvorada do Norte/GO,-14.483911,-46.4959897,2,22.97530
1,Alvorada do Sul/PR,-22.7807269,-51.2307721,603,5242.11075
D1,Alvorada do Sul/PR,-22.7807269,-51.2307721,13,113.01400
1,Alvorada/RS,-29.9981184,-51.0772509,14780,6993.07317
D1,Alvorada/RS,-29.9981184,-51.0772509,506,239.41103
1,Alvorada/TO,-12.478465,-49.124926,945,11255.35970
D1,Alvorada/TO,-12.478465,-49.124926,15,178.65650
1,Além Paraíba/MG,-21.8760576,-42.6810473,2213,6251.23584
D1,Além Paraíba/MG,-21.8760576,-42.6810473,99,279.65312
1,Amajari/RR,3.6523869,-61.4194315,817,6196.43534
D1,Amajari/RR,3.6523869,-61.4194315,18,136.51877
1,Amambai/MS,-23.1082701,-55.2284854,1930,4846.08045
D1,Amambai/MS,-23.1082701,-55.2284854,37,92.90413
1,Amaporã/PR,-23.094272,-52.786597,167,2637.39735
1,Amapá do Maranhão/MA,-1.6762114,-46.0109669,77,1099.21485
1,Amapá/AP,2.0529997,-50.7930003,1186,12909.54610
D1,Amapá/AP,2.0529997,-50.7930003,10,108.84946
1,Amaraji/PE,-8.373925,-35.4536527,410,1792.74158
D1,Amaraji/PE,-8.373925,-35.4536527,26,113.68605
1,Amaral Ferrador/RS,-30.8750633,-52.2542051,164,2314.74947
D1,Amaral Ferrador/RS,-30.8750633,-52.2542051,4,56.45730
1,Amaralina/GO,-13.9236199,-49.2962411,43,1118.33550
1,Amarante do Maranhão/MA,-5.56913,-46.747284,1278,3062.61832
D1,Amarante do Maranhão/MA,-5.56913,-46.747284,43,103.04584
1,Amarante/PI,-6.2459374,-42.8476238,1112,6316.74619
D1,Amarante/PI,-6.2459374,-42.8476238,24,136.33265
1,Amargosa/BA,-13.03793715,-39.60796443875596,2062,5507.33153
D1,Amargosa/BA,-13.03793715,-39.60796443875596,39,104.16388
1,Amaturá/AM,-3.3640509,-68.1994689,2057,17527.26653
D1,Amaturá/AM,-3.3640509,-68.1994689,17,144.85344
1,Americana/SP,-22.7392463,-47.3306032,13378,5527.68802
D1,Americana/SP,-22.7392463,-47.3306032,366,151.22842
1,Americano do Brasil/GO,-16.2515808,-49.9806104,317,5142.76444
D1,Americano do Brasil/GO,-16.2515808,-49.9806104,11,178.45555
1,Ametista do Sul/RS,-27.3617341,-53.1826575,446,6024.58463
D1,Ametista do Sul/RS,-27.3617341,-53.1826575,11,148.58841
1,Amontada/CE,-3.3634586,-39.8284791,1541,3515.93694
D1,Amontada/CE,-3.3634586,-39.8284791,26,59.32145
1,Amorinópolis/GO,-16.6211308,-51.0949921,143,4659.49821
D1,Amorinópolis/GO,-16.6211308,-51.0949921,1,32.58390
1,Amparo de São Francisco/SE,-10.1299754,-36.9269099,117,4915.96639
D1,Amparo de São Francisco/SE,-10.1299754,-36.9269099,3,126.05042
1,Amparo do Serra/MG,-20.5070255,-42.8028462,96,2052.15904
D1,Amparo do Serra/MG,-20.5070255,-42.8028462,3,64.12997
1,Amparo/PB,-7.56394725,-37.04652873235175,140,6219.45802
D1,Amparo/PB,-7.56394725,-37.04652873235175,3,133.27410
1,Amparo/SP,-22.70111,-46.76444,3430,4719.51236
D1,Amparo/SP,-22.70111,-46.76444,99,136.21916
1,Ampére/PR,-25.9168712,-53.4742414,838,4339.49562
D1,Ampére/PR,-25.9168712,-53.4742414,21,108.74631
1,Amélia Rodrigues/BA,-12.4015388,-38.7516971,1644,6563.39828
D1,Amélia Rodrigues/BA,-12.4015388,-38.7516971,32,127.75471
1,América Dourada/BA,-11.4515262,-41.4357517,483,3001.86451
D1,América Dourada/BA,-11.4515262,-41.4357517,2,12.43008
1,Américo Brasiliense/SP,-21.7297099,-48.1052092,2790,6799.57107
D1,Américo Brasiliense/SP,-21.7297099,-48.1052092,61,148.66446
1,Américo de Campos/SP,-20.298476,-49.735904,531,8878.11403
D1,Américo de Campos/SP,-20.298476,-49.735904,17,284.23341
1,Anadia/AL,-9.6830208,-36.3052699,947,5403.40066
D1,Anadia/AL,-9.6830208,-36.3052699,17,96.99874
1,Anagé/BA,-14.6134669,-41.1376308,616,2850.92794
D1,Anagé/BA,-14.6134669,-41.1376308,14,64.79382
1,Anahy/PR,-24.6450861,-53.1337957,220,7890.96126
D1,Anahy/PR,-24.6450861,-53.1337957,4,143.47202
1,Anajatuba/MA,-3.26441,-44.6179916,651,2412.18319
D1,Anajatuba/MA,-3.26441,-44.6179916,17,62.99096
1,Anajás/PA,-0.9878802,-49.9390114,1211,4079.08919
D1,Anajás/PA,-0.9878802,-49.9390114,14,47.15710
1,Analândia/SP,-22.128917,-47.661939,235,4647.94304
D1,Analândia/SP,-22.128917,-47.661939,3,59.33544
1,Anamã/AM,-3.5797356,-61.4049996,1587,11371.45314
D1,Anamã/AM,-3.5797356,-61.4049996,6,42.99226
1,Ananindeua/PA,-1.374035,-48.4016623,16348,3052.57989
D1,Ananindeua/PA,-1.374035,-48.4016623,536,100.08459
1,Ananás/TO,-6.3663053,-48.080238,1278,13463.96966
D1,Ananás/TO,-6.3663053,-48.080238,20,210.70375
1,Anapu/PA,-3.4668292,-51.2057035,1224,4278.67305
D1,Anapu/PA,-3.4668292,-51.2057035,26,90.88685
1,Anapurus/MA,-3.6751298,-43.1046001,827,5203.22134
D1,Anapurus/MA,-3.6751298,-43.1046001,10,62.91682
1,Anastácio/MS,-20.4832458,-55.8048448,1552,6149.70084
D1,Anastácio/MS,-20.4832458,-55.8048448,48,190.19693
1,Anaurilândia/MS,-22.185169,-52.719056,234,2578.22829
D1,Anaurilândia/MS,-22.185169,-52.719056,7,77.12649
1,Anchieta/ES,-20.8057672,-40.6454564,3624,12169.64975
D1,Anchieta/ES,-20.8057672,-40.6454564,46,154.47127
1,Anchieta/SC,-26.5350527,-53.3293938,384,6910.20335
D1,Anchieta/SC,-26.5350527,-53.3293938,6,107.97193
1,Andaraí/BA,-12.8059674,-41.3322919,594,4523.30186
D1,Andaraí/BA,-12.8059674,-41.3322919,5,38.07493
1,Andirá/PR,-23.0494761,-50.2310027,1298,6514.10218
D1,Andirá/PR,-23.0494761,-50.2310027,44,220.81702
1,Andorinha/BA,-10.3445708,-39.8334411,621,4281.87272
D1,Andorinha/BA,-10.3445708,-39.8334411,9,62.05613
1,Andradas/MG,-22.0680484,-46.5688976,2173,5249.29945
D1,Andradas/MG,-22.0680484,-46.5688976,54,130.44739
1,Andradina/SP,-20.896505,-51.3742765,3868,6762.00133
D1,Andradina/SP,-20.896505,-51.3742765,135,236.00573
1,Andrelândia/MG,-21.739722,-44.308889,206,1687.69458
D1,Andrelândia/MG,-21.739722,-44.308889,6,49.15615
1,André da Rocha/RS,-28.6309124,-51.5733328,74,5510.05212
1,Angatuba/SP,-23.4938938,-48.4110675,1742,6837.00302
D1,Angatuba/SP,-23.4938938,-48.4110675,38,149.14243
1,Angelim/PE,-8.8902038,-36.2872987,119,1060.03919
D1,Angelim/PE,-8.8902038,-36.2872987,4,35.63157
1,Angelina/SC,-27.5805287,-48.9838759,423,8918.40607
D1,Angelina/SC,-27.5805287,-48.9838759,1,21.08370
1,Angelândia/MG,-17.7253,-42.2728,80,934.90709
1,Angical do Piauí/PI,-6.0872666,-42.7366138,325,4791.39024
D1,Angical do Piauí/PI,-6.0872666,-42.7366138,7,103.19917
1,Angical/BA,-12.005623,-44.7000236,366,2625.91477
D1,Angical/BA,-12.005623,-44.7000236,6,43.04778
1,Angico/TO,-6.3893733,-47.8656722,199,5761.43602
D1,Angico/TO,-6.3893733,-47.8656722,3,86.85582
1,Angicos/RN,-5.6666344,-36.6009064,434,3707.81717
D1,Angicos/RN,-5.6666344,-36.6009064,10,85.43358
1,Angra dos Reis/RJ,-23.0063966,-44.316326,11473,5541.33421
D1,Angra dos Reis/RJ,-23.0063966,-44.316326,358,172.91011
1,Anguera/BA,-12.1509425,-39.2452469,296,2620.16465
D1,Anguera/BA,-12.1509425,-39.2452469,1,8.85191
1,Angélica/MS,-22.1588196,-53.7728504,543,4967.06915
D1,Angélica/MS,-22.1588196,-53.7728504,9,82.32711
1,Anhanguera/GO,-18.3338749,-48.220363,77,6637.93103
D1,Anhanguera/GO,-18.3338749,-48.220363,6,517.24138
1,Anhembi/SP,-22.7891096,-48.1316776,101,1481.15559
D1,Anhembi/SP,-22.7891096,-48.1316776,2,29.32981
1,Anhumas/SP,-22.2956478,-51.3873401,172,4150.57915
D1,Anhumas/SP,-22.2956478,-51.3873401,3,72.39382
1,Anicuns/GO,-16.4606451,-49.9572265,2065,9394.47705
D1,Anicuns/GO,-16.4606451,-49.9572265,45,204.72226
1,Anita Garibaldi/SC,-27.6855032,-51.1293873,758,10895.50093
D1,Anita Garibaldi/SC,-27.6855032,-51.1293873,5,71.87006
1,Anitápolis/SC,-27.9041185,-49.1287395,295,9138.78563
D1,Anitápolis/SC,-27.9041185,-49.1287395,1,30.97893
1,Anori/AM,-3.7435254,-61.6605203,1812,8436.93253
D1,Anori/AM,-3.7435254,-61.6605203,31,144.34046
1,Anta Gorda/RS,-28.9718745,-52.0069187,508,8522.06006
D1,Anta Gorda/RS,-28.9718745,-52.0069187,4,67.10284
1,Antas/BA,-10.4114649,-38.3308815,927,4758.97120
D1,Antas/BA,-10.4114649,-38.3308815,3,15.40120
1,Antonina do Norte/CE,-6.7754187,-39.9879345,137,1856.87178
D1,Antonina do Norte/CE,-6.7754187,-39.9879345,8,108.43047
1,Antonina/PR,-25.4298854,-48.7125431,1771,9346.13964
D1,Antonina/PR,-25.4298854,-48.7125431,43,226.92490
1,Antônio Almeida/PI,-7.2186016,-44.1950248,377,11892.74448
D1,Antônio Almeida/PI,-7.2186016,-44.1950248,10,315.45741
1,Antônio Cardoso/BA,-12.4363122,-39.1200307,295,2526.33382
D1,Antônio Cardoso/BA,-12.4363122,-39.1200307,6,51.38306
1,Antônio Carlos/MG,-21.318334,-43.746666,374,3263.81011
D1,Antônio Carlos/MG,-21.318334,-43.746666,6,52.36059
1,Antônio Carlos/SC,-27.5168462,-48.7684715,1394,16184.83687
D1,Antônio Carlos/SC,-27.5168462,-48.7684715,18,208.98642
1,Antônio Dias/MG,-19.6525,-42.872778,355,3827.49326
D1,Antônio Dias/MG,-19.6525,-42.872778,9,97.03504
1,Antônio Gonçalves/BA,-10.5715409,-40.2748824,536,4512.54420
D1,Antônio Gonçalves/BA,-10.5715409,-40.2748824,5,42.09463
1,Antônio João/MS,-22.1892837,-55.9508227,237,2627.49446
D1,Antônio João/MS,-22.1892837,-55.9508227,4,44.34590
1,Antônio Martins/RN,-6.2155812,-37.8890129,236,3298.85379
D1,Antônio Martins/RN,-6.2155812,-37.8890129,2,27.95639
1,Antônio Olinto/PR,-25.9849006,-50.1974516,260,3500.74054
D1,Antônio Olinto/PR,-25.9849006,-50.1974516,5,67.32193
1,Antônio Prado de Minas/MG,-21.0171988,-42.1101106,148,9325.77190
D1,Antônio Prado de Minas/MG,-21.0171988,-42.1101106,4,252.04789
1,Antônio Prado/RS,-28.8567806,-51.2801355,1495,11460.32963
D1,Antônio Prado/RS,-28.8567806,-51.2801355,16,122.65236
1,Anápolis/GO,-16.3332828,-48.9525756,26153,6675.56640
D1,Anápolis/GO,-16.3332828,-48.9525756,663,169.23108
1,Anísio de Abreu/PI,-9.185643,-43.04941,244,2455.22238
D1,Anísio de Abreu/PI,-9.185643,-43.04941,3,30.18716
1,Aparecida d'Oeste/SP,-20.4498109,-50.8808706,515,12385.76239
D1,Aparecida d'Oeste/SP,-20.4498109,-50.8808706,11,264.55026
1,Aparecida de Goiânia/GO,-16.8226769,-49.2452546,52761,8940.33002
D1,Aparecida de Goiânia/GO,-16.8226769,-49.2452546,954,161.65491
1,Aparecida do Rio Doce/GO,-18.2980167,-51.1491312,158,6386.41876
D1,Aparecida do Rio Doce/GO,-18.2980167,-51.1491312,2,80.84074
1,Aparecida do Rio Negro/TO,-9.9513491,-47.9773786,272,5610.56106
D1,Aparecida do Rio Negro/TO,-9.9513491,-47.9773786,5,103.13531
1,Aparecida do Taboado/MS,-20.0840304,-51.1013943,1894,7265.33431
D1,Aparecida do Taboado/MS,-20.0840304,-51.1013943,28,107.40727
1,Aparecida/PB,-6.7859598, -38.0831353,632,7509.50570
D1,Aparecida/PB,-6.7859598, -38.0831353,10,118.82129
1,Aparecida/SP,-22.851552,-45.2340924,1907,5270.13956
D1,Aparecida/SP,-22.851552,-45.2340924,50,138.17880
1,Aperibé/RJ,-21.6211928,-42.1028167,352,2957.73464
D1,Aperibé/RJ,-21.6211928,-42.1028167,15,126.03983
1,Apiacá/ES,-21.152272,-41.569297,550,7280.91078
D1,Apiacá/ES,-21.152272,-41.569297,17,225.04633
1,Apiacás/MT,-9.5678422,-57.394852,861,8373.04289
D1,Apiacás/MT,-9.5678422,-57.394852,7,68.07352
1,Apiaí/SP,-24.5076527,-48.8461582,851,3512.75489
D1,Apiaí/SP,-24.5076527,-48.8461582,31,127.96169
1,Apicum-Açu/MA,-1.5279295,-45.082278,322,1849.19313
D1,Apicum-Açu/MA,-1.5279295,-45.082278,3,17.22851
1,Apiúna/SC,-27.0374658,-49.3885037,656,6047.19764
D1,Apiúna/SC,-27.0374658,-49.3885037,13,119.83776
1,Apodi/RN,-5.6631109,-37.796927,4316,12030.99738
D1,Apodi/RN,-5.6631109,-37.796927,55,153.31438
1,Aporá/BA,-11.6599747,-38.0794757,404,2271.19406
D1,Aporá/BA,-11.6599747,-38.0794757,12,67.46121
1,Aporé/GO,-18.9642193,-51.92804,248,5860.11342
D1,Aporé/GO,-18.9642193,-51.92804,5,118.14745
1,Apuarema/BA,-13.8517897,-39.7457126,599,8203.23199
D1,Apuarema/BA,-13.8517897,-39.7457126,9,123.25390
1,Apucarana/PR,-23.5525327,-51.4610764,4865,3571.06156
D1,Apucarana/PR,-23.5525327,-51.4610764,155,113.77483
1,Apuiarés/CE,-3.9460303,-39.4313298,647,4409.76009
D1,Apuiarés/CE,-3.9460303,-39.4313298,13,88.60414
1,Apuí/AM,-7.1940195,-59.8830192,1072,4794.48991
D1,Apuí/AM,-7.1940195,-59.8830192,23,102.86685
1,Aquidabã/SE,-10.2837579,-37.0188687,1484,6844.70274
D1,Aquidabã/SE,-10.2837579,-37.0188687,25,115.30833
1,Aquidauana/MS,-20.473969,-55.7821375,3703,7709.92525
D1,Aquidauana/MS,-20.473969,-55.7821375,99,206.12547
1,Aquiraz/CE,-3.9063117,-38.387504,3703,4575.27646
D1,Aquiraz/CE,-3.9063117,-38.387504,58,71.66245
1,Arabutã/SC,-27.1587028,-52.1438142,334,7827.51348
D1,Arabutã/SC,-27.1587028,-52.1438142,4,93.74268
1,Aracaju/SE,-10.9162061,-37.0774655,87677,13186.33555
D1,Aracaju/SE,-10.9162061,-37.0774655,1353,203.48680
1,Aracati/CE,-4.558259,-37.767894,4028,5372.45749
D1,Aracati/CE,-4.558259,-37.767894,82,109.36979
1,Aracatu/BA,-14.4274236,-41.4604105,639,4898.42852
D1,Aracatu/BA,-14.4274236,-41.4604105,9,68.99195
1,Araci/BA,-11.3356065,-38.9573261,3034,5551.89577
D1,Araci/BA,-11.3356065,-38.9573261,31,56.72669
1,Aracitaba/MG,-21.3425,-43.378611,71,3448.27586
D1,Aracitaba/MG,-21.3425,-43.378611,7,339.97086
1,Aracoiaba/CE,-4.3702577,-38.8084313,1603,6041.07782
D1,Aracoiaba/CE,-4.3702577,-38.8084313,21,79.14076
1,Aracruz/ES,-19.8245218,-40.2735025,11716,11363.61432
D1,Aracruz/ES,-19.8245218,-40.2735025,163,158.09740
1,Aragarças/GO,-15.8957166,-52.2514538,1653,8153.70197
D1,Aragarças/GO,-15.8957166,-52.2514538,37,182.50876
1,Aragoiânia/GO,-16.9146388,-49.4499148,773,7364.71037
D1,Aragoiânia/GO,-16.9146388,-49.4499148,7,66.69207
1,Aragominas/TO,-7.1654101,-48.525488,433,7555.40045
D1,Aragominas/TO,-7.1654101,-48.525488,8,139.59169
1,Araguacema/TO,-8.8067391,-49.5560969,334,4668.06429
D1,Araguacema/TO,-8.8067391,-49.5560969,10,139.76240
1,Araguaiana/MT,-15.729144,-51.834112,104,3345.12705
D1,Araguaiana/MT,-15.729144,-51.834112,1,32.16468
1,Araguainha/MT,-16.857016,-53.031778,16,1691.33192
1,Araguanã/MA,-2.9508403,-45.6651986,664,4269.82188
D1,Araguanã/MA,-2.9508403,-45.6651986,5,32.15227
1,Araguanã/TO,-6.5799107,-48.6428482,233,4022.09563
D1,Araguanã/TO,-6.5799107,-48.6428482,11,189.88434
1,Araguapaz/GO,-15.0937927,-50.626417,362,4651.16279
D1,Araguapaz/GO,-15.0937927,-50.626417,15,192.72774
1,Araguari/MG,-18.6511256,-48.1933764,10310,8750.26522
D1,Araguari/MG,-18.6511256,-48.1933764,287,243.58158
1,Araguatins/TO,-5.6522925,-48.1158973,1503,4155.37738
D1,Araguatins/TO,-5.6522925,-48.1158973,42,116.11833
1,Araguaçu/TO,-12.928934,-49.823134,703,8302.82272
D1,Araguaçu/TO,-12.928934,-49.823134,14,165.34782
1,Araguaína/TO,-7.193241,-48.2018597,24268,13233.65016
D1,Araguaína/TO,-7.193241,-48.2018597,311,169.59227
1,Araioses/MA,-2.890914,-41.904993,603,1289.26044
D1,Araioses/MA,-2.890914,-41.904993,11,23.51885
1,Aral Moreira/MS,-22.951141,-55.6268421,327,2651.63801
D1,Aral Moreira/MS,-22.951141,-55.6268421,8,64.87188
1,Aramari/BA,-12.0907897,-38.4985065,484,4223.01719
D1,Aramari/BA,-12.0907897,-38.4985065,10,87.25242
1,Arambaré/RS,-30.9132252,-51.4994625,125,3509.26446
D1,Arambaré/RS,-30.9132252,-51.4994625,4,112.29646
1,Arame/MA,-4.8858769,-46.0102484,982,2997.19204
D1,Arame/MA,-4.8858769,-46.0102484,26,79.35539
1,Aramina/SP,-20.0876144,-47.789201,208,3678.16092
D1,Aramina/SP,-20.0876144,-47.789201,8,141.46773
1,Arandu/SP,-23.1345103,-49.0545651,217,3409.26944
D1,Arandu/SP,-23.1345103,-49.0545651,7,109.97643
1,Arantina/MG,-21.911667,-44.255833,68,2439.89953
D1,Arantina/MG,-21.911667,-44.255833,2,71.76175
1,Arapeí/SP,-22.6738889,-44.4477778,169,6869.91870
D1,Arapeí/SP,-22.6738889,-44.4477778,2,81.30081
1,Arapiraca/AL,-9.754866,-36.661471,19257,8263.14005
D1,Arapiraca/AL,-9.754866,-36.661471,291,124.86752
1,Arapoema/TO,-7.6575001,-49.0641484,390,5894.80048
D1,Arapoema/TO,-7.6575001,-49.0641484,5,75.57437
1,Araponga/MG,-20.666667,-42.520556,278,3288.77322
D1,Araponga/MG,-20.666667,-42.520556,3,35.49036
1,Arapongas/PR,-23.415296,-51.42592,8515,6822.37000
D1,Arapongas/PR,-23.415296,-51.42592,301,241.16657
1,Araporã/MG,-18.4318188,-49.188313,1449,20906.07416
D1,Araporã/MG,-18.4318188,-49.188313,18,259.70278
1,Arapoti/PR,-24.1457957,-49.8224605,1938,6848.05654
D1,Arapoti/PR,-24.1457957,-49.8224605,26,91.87279
1,Araputanga/MT,-15.4710868,-58.346796,1311,7734.05699
D1,Araputanga/MT,-15.4710868,-58.346796,32,188.77942
1,Arapuá/MG,-19.034444,-46.155556,96,3386.24339
D1,Arapuá/MG,-19.034444,-46.155556,1,35.27337
1,Arapuã/PR,-24.3079525,-51.7901941,158,5250.91392
D1,Arapuã/PR,-24.3079525,-51.7901941,5,166.16816
1,Araquari/SC,-26.3703324,-48.7210994,2606,6593.46220
D1,Araquari/SC,-26.3703324,-48.7210994,47,118.91509
1,Arara/PB,-6.8271895,-35.7605703,427,3153.15315
D1,Arara/PB,-6.8271895,-35.7605703,12,88.61320
1,Araranguá/SC,-28.9348832,-49.4858389,7747,11249.21951
D1,Araranguá/SC,-28.9348832,-49.4858389,149,216.35907
1,Araraquara/SP,-21.7886713,-48.1773096,13985,5867.69266
D1,Araraquara/SP,-21.7886713,-48.1773096,312,130.90598
1,Araras/SP,-22.3569477,-47.3838889,10847,8004.81160
D1,Araras/SP,-22.3569477,-47.3838889,230,169.73418
1,Ararendá/CE,-4.7504395,-40.8303611,575,5246.82909
D1,Ararendá/CE,-4.7504395,-40.8303611,11,100.37412
1,Arari/MA,-3.4547602,-44.7772723,382,1276.22611
D1,Arari/MA,-3.4547602,-44.7772723,16,53.45450
1,Araricá/RS,-29.6168543,-50.929121,854,14798.12857
D1,Araricá/RS,-29.6168543,-50.929121,21,363.88841
1,Araripe/CE,-7.212861,-40.1359222,629,2904.77510
D1,Araripe/CE,-7.212861,-40.1359222,7,32.32659
1,Araripina/PE,-7.5768582,-40.5038509,4992,5882.35294
D1,Araripina/PE,-7.5768582,-40.5038509,94,110.76546
1,Araruama/RJ,-22.8733203,-42.3428897,4088,3044.09016
D1,Araruama/RJ,-22.8733203,-42.3428897,175,130.31208
1,Araruna/PB,-6.5321155,-35.7397595,576,2814.83653
D1,Araruna/PB,-6.5321155,-35.7397595,15,73.30303
1,Araruna/PR,-23.9320308,-52.4976047,835,5964.28571
D1,Araruna/PR,-23.9320308,-52.4976047,15,107.14286
1,Arataca/BA,-15.2617424,-39.4122943,427,3895.62996
D1,Arataca/BA,-15.2617424,-39.4122943,12,109.47906
1,Aratiba/RS,-27.3955734,-52.3024325,295,4766.52125
D1,Aratiba/RS,-27.3955734,-52.3024325,5,80.78850
1,Aratuba/CE,-4.4195958,-39.0463737,637,5397.39027
D1,Aratuba/CE,-4.4195958,-39.0463737,3,25.41942
1,Aratuípe/BA,-13.077137,-39.0010786,261,2953.49100
D1,Aratuípe/BA,-13.077137,-39.0010786,7,79.21240
1,Araucária/PR,-25.5861107,-49.4051209,17363,11875.05984
D1,Araucária/PR,-25.5861107,-49.4051209,225,153.88403
1,Arauá/SE,-11.2644014,-37.6181058,674,6775.91234
D1,Arauá/SE,-11.2644014,-37.6181058,12,120.63939
1,Araxá/MG,-19.5928536,-46.940241,7671,7146.65027
D1,Araxá/MG,-19.5928536,-46.940241,110,102.48097
1,Araçagi/PB,-6.8519969,-35.3835602,843,4981.97506
D1,Araçagi/PB,-6.8519969,-35.3835602,10,59.09816
1,Araçariguama/SP,-23.438611,-47.061389,962,4208.22397
D1,Araçariguama/SP,-23.438611,-47.061389,27,118.11024
1,Araçatuba/SP,-21.207992,-50.4390225,19032,9605.86285
D1,Araçatuba/SP,-21.207992,-50.4390225,467,235.70502
1,Araçaí/MG,-19.200833,-44.2475,49,2081.56330
1,Araçoiaba da Serra/SP,-23.5045367,-47.6168158,1652,4750.40258
D1,Araçoiaba da Serra/SP,-23.5045367,-47.6168158,36,103.51967
1,Araçoiaba/PE,-7.7856903,-35.0898881,317,1528.96349
D1,Araçoiaba/PE,-7.7856903,-35.0898881,22,106.11103
1,Araçu/GO,-16.3561579,-49.6815269,334,9581.18187
D1,Araçu/GO,-16.3561579,-49.6815269,10,286.86173
1,Araçuaí/MG,-16.8484451,-42.0661868,891,2426.99935
D1,Araçuaí/MG,-16.8484451,-42.0661868,16,43.58248
1,Araçás/BA,-12.2139176,-38.2026159,507,4153.01442
D1,Araçás/BA,-12.2139176,-38.2026159,7,57.33945
1,Araújos/MG,-19.948055,-45.165556,512,5446.22912
D1,Araújos/MG,-19.948055,-45.165556,4,42.54867
1,Arceburgo/MG,-21.364444,-46.939722,447,4107.32335
D1,Arceburgo/MG,-21.364444,-46.939722,8,73.50914
1,Arco-Íris/SP,-21.7741308,-50.4668814,66,3722.50423
D1,Arco-Íris/SP,-21.7741308,-50.4668814,5,282.00790
1,Arcos/MG,-20.282223,-45.539444,3706,9177.81080
D1,Arcos/MG,-20.282223,-45.539444,45,111.44131
1,Arcoverde/PE,-8.415192,-37.057748,4443,5938.09307
D1,Arcoverde/PE,-8.415192,-37.057748,90,120.28548
1,Areado/MG,-21.3582771,-46.1476688,451,2970.81879
D1,Areado/MG,-21.3582771,-46.1476688,12,79.04618
1,Areal/RJ,-22.2314922,-43.1056264,538,4246.58616
D1,Areal/RJ,-22.2314922,-43.1056264,22,173.65222
1,Arealva/SP,-22.0301906,-48.9111936,491,5700.68501
D1,Arealva/SP,-22.0301906,-48.9111936,8,92.88285
1,Areia Branca/RN,-4.9506652,-37.1263312,1696,6064.29006
D1,Areia Branca/RN,-4.9506652,-37.1263312,68,243.14371
1,Areia Branca/SE,-10.7591455,-37.3148072,1219,6523.60056
D1,Areia Branca/SE,-10.7591455,-37.3148072,25,133.79000
1,Areia de Baraúnas/PB,-7.1233949,-36.9446216,56,2646.50284
D1,Areia de Baraúnas/PB,-7.1233949,-36.9446216,1,47.25898
1,Areia/PB,-6.9680243,-35.6994783,985,4347.63418
D1,Areia/PB,-6.9680243,-35.6994783,18,79.44915
1,Areial/PB,-7.0501306,-35.9245244,187,2661.16408
D1,Areial/PB,-7.0501306,-35.9245244,6,85.38494
1,Areias/SP,-22.5800929,-44.6975127,202,5184.80493
D1,Areias/SP,-22.5800929,-44.6975127,1,25.66735
1,Areiópolis/SP,-22.6758064,-48.6673653,609,5457.96738
D1,Areiópolis/SP,-22.6758064,-48.6673653,7,62.73526
1,Arenápolis/MT,-14.4610369,-56.8432806,1081,11376.55230
D1,Arenápolis/MT,-14.4610369,-56.8432806,17,178.90970
1,Arenópolis/GO,-16.3859286,-51.55937,137,5402.20820
D1,Arenópolis/GO,-16.3859286,-51.55937,1,39.43218
1,Argirita/MG,-21.612761,-42.8371922,231,8542.89941
D1,Argirita/MG,-21.612761,-42.8371922,5,184.91124
1,Aricanduva/MG,-17.8678,-42.5569,60,1138.73600
1,Arinos/MG,-15.917223,-46.106111,305,1707.53555
D1,Arinos/MG,-15.917223,-46.106111,10,55.98477
1,Aripuanã/MT,-10.175806,-59.4439663,1736,7642.86343
D1,Aripuanã/MT,-10.175806,-59.4439663,32,140.88228
1,Ariquemes/RO,-9.9076522,-63.033069,16188,14780.45707
D1,Ariquemes/RO,-9.9076522,-63.033069,329,300.39352
1,Ariranha do Ivaí/PR,-24.3834527,-51.5876772,112,5421.10358
D1,Ariranha do Ivaí/PR,-24.3834527,-51.5876772,2,96.80542
1,Ariranha/SP,-21.18716,-48.790418,312,3196.39381
D1,Ariranha/SP,-21.18716,-48.790418,13,133.18308
1,Armazém/SC,-28.2624996,-49.0190126,1200,13700.19409
D1,Armazém/SC,-28.2624996,-49.0190126,17,194.08608
1,Armação dos Búzios/RJ,-22.7597805,-41.8875267,3030,8788.46767
D1,Armação dos Búzios/RJ,-22.7597805,-41.8875267,29,84.11405
1,Arneiroz/CE,-6.3235099,-40.1603859,187,2383.98776
D1,Arneiroz/CE,-6.3235099,-40.1603859,8,101.98878
1,Aroazes/PI,-6.1108814,-41.7886137,443,7602.53990
D1,Aroazes/PI,-6.1108814,-41.7886137,11,188.77639
1,Aroeiras do Itaim/PI,-7.2797031,-41.5629681,97,3802.43042
D1,Aroeiras do Itaim/PI,-7.2797031,-41.5629681,1,39.20031
1,Aroeiras/PB,-7.5462904,-35.7080002,765,4001.88324
D1,Aroeiras/PB,-7.5462904,-35.7080002,5,26.15610
1,Arraial do Cabo/RJ,-22.9662839,-42.024427,534,1745.49734
D1,Arraial do Cabo/RJ,-22.9662839,-42.024427,12,39.22466
1,Arraial/PI,-6.6541632,-42.5335332,123,2605.93220
D1,Arraial/PI,-6.6541632,-42.5335332,2,42.37288
1,Arraias/TO,-12.9287788,-46.9437231,376,3569.39434
D1,Arraias/TO,-12.9287788,-46.9437231,3,28.47921
1,Arroio Grande/RS,-32.2384246,-53.0866661,841,4611.25123
D1,Arroio Grande/RS,-32.2384246,-53.0866661,26,142.55949
1,Arroio Trinta/SC,-26.9301976,-51.334928,374,10538.17977
D1,Arroio Trinta/SC,-26.9301976,-51.334928,7,197.23866
1,Arroio do Meio/RS,-29.4020392,-51.9444993,2162,10311.44179
D1,Arroio do Meio/RS,-29.4020392,-51.9444993,20,95.38799
1,Arroio do Padre/RS,-31.4428773,-52.4228985,111,3761.43680
D1,Arroio do Padre/RS,-31.4428773,-52.4228985,1,33.88682
1,Arroio do Sal/RS,-29.549852,-49.8874395,817,7948.24399
D1,Arroio do Sal/RS,-29.549852,-49.8874395,24,233.48575
1,Arroio do Tigre/RS,-29.334158,-53.0888935,868,6471.33378
D1,Arroio do Tigre/RS,-29.334158,-53.0888935,15,111.83180
1,Arroio dos Ratos/RS,-30.0894524,-51.7265541,711,5015.16541
D1,Arroio dos Ratos/RS,-30.0894524,-51.7265541,25,176.34196
1,Artur Nogueira/SP,-22.572737,-47.172679,2648,4784.96567
D1,Artur Nogueira/SP,-22.572737,-47.172679,65,117.45573
1,Aruanã/GO,-14.9162439,-51.0715692,346,3422.35410
D1,Aruanã/GO,-14.9162439,-51.0715692,9,89.02077
1,Arujá/SP,-23.396266,-46.3175449,4823,5290.87179
D1,Arujá/SP,-23.396266,-46.3175449,176,193.07349
1,Arvoredo/SC,-27.0752908,-52.4571847,257,11504.02865
D1,Arvoredo/SC,-27.0752908,-52.4571847,3,134.28827
1,Arvorezinha/RS,-28.87369,-52.17808,628,6025.13672
D1,Arvorezinha/RS,-28.87369,-52.17808,19,182.28917
1,Arês/RN,-6.1969216,-35.1642968,616,4272.73358
D1,Arês/RN,-6.1969216,-35.1642968,18,124.85260
1,Ascurra/SC,-26.9569975,-49.3767752,950,11907.74630
D1,Ascurra/SC,-26.9569975,-49.3767752,6,75.20682
1,Aspásia/SP,-20.160028,-50.728046,72,3960.39604
D1,Aspásia/SP,-20.160028,-50.728046,3,165.01650
1,Assaré/CE,-6.8746791,-39.8741385,1079,4595.79181
D1,Assaré/CE,-6.8746791,-39.8741385,24,102.22336
1,Assaí/PR,-23.3736041,-50.8454929,982,6566.80487
D1,Assaí/PR,-23.3736041,-50.8454929,25,167.17935
1,Assis Brasil/AC,-10.9409203,-69.5672108,1331,17666.57818
D1,Assis Brasil/AC,-10.9409203,-69.5672108,18,238.91691
1,Assis Chateaubriand/PR,-24.4054826,-53.5120468,2762,8284.34313
D1,Assis Chateaubriand/PR,-24.4054826,-53.5120468,40,119.97600
1,Assis/SP,-22.6620892,-50.420623,5501,5234.71029
D1,Assis/SP,-22.6620892,-50.420623,151,143.69047
1,Assunção do Piauí/PI,-5.8610212,-41.0485091,242,3077.70571
D1,Assunção do Piauí/PI,-5.8610212,-41.0485091,4,50.87117
1,Assunção/PB,-7.073396,-36.7274003,243,6031.27327
D1,Assunção/PB,-7.073396,-36.7274003,1,24.82005
1,Astolfo Dutra/MG,-21.3132636,-42.8624102,910,6377.01472
D1,Astolfo Dutra/MG,-21.3132636,-42.8624102,13,91.10021
1,Astorga/PR,-23.2350184,-51.6647074,2075,7917.12770
D1,Astorga/PR,-23.2350184,-51.6647074,42,160.25030
1,Atalaia do Norte/AM,-4.3658547,-70.1908742,2568,12589.46956
D1,Atalaia do Norte/AM,-4.3658547,-70.1908742,8,39.21953
1,Atalaia/AL,-9.5029595,-36.0219316,873,1843.13312
D1,Atalaia/AL,-9.5029595,-36.0219316,32,67.56043
1,Atalaia/PR,-23.1513833,-52.0529697,294,7575.36717
D1,Atalaia/PR,-23.1513833,-52.0529697,12,309.19866
1,Atalanta/SC,-27.421916,-49.778863,193,6040.68858
D1,Atalanta/SC,-27.421916,-49.778863,3,93.89671
1,Ataléia/MG,-18.04432,-41.1110524,900,7098.91150
D1,Ataléia/MG,-18.04432,-41.1110524,6,47.32608
1,Atibaia/SP,-23.1177393,-46.5547861,7468,5182.94376
D1,Atibaia/SP,-23.1177393,-46.5547861,175,121.45356
1,Atilio Vivacqua/ES,-20.9139369,-41.1947519,1117,9227.59190
D1,Atilio Vivacqua/ES,-20.9139369,-41.1947519,18,148.69888
1,Augustinópolis/TO,-5.4662267,-47.8897519,1210,6490.37172
D1,Augustinópolis/TO,-5.4662267,-47.8897519,17,91.18704
1,Augusto Corrêa/PA,-1.0229335,-46.6404029,1691,3638.82852
D1,Augusto Corrêa/PA,-1.0229335,-46.6404029,29,62.40451
1,Augusto Pestana/RS,-28.5148413,-53.9906433,273,4135.11057
D1,Augusto Pestana/RS,-28.5148413,-53.9906433,4,60.58770
1,Augusto de Lima/MG,-18.1092963,-44.2651945,149,3071.53164
D1,Augusto de Lima/MG,-18.1092963,-44.2651945,5,103.07153
1,Aurelino Leal/BA,-14.3167137,-39.3256107,782,6920.96646
D1,Aurelino Leal/BA,-14.3167137,-39.3256107,21,185.85716
1,Auriflama/SP,-20.6840418,-50.5554616,1360,8916.27876
D1,Auriflama/SP,-20.6840418,-50.5554616,36,236.01914
1,Aurilândia/GO,-16.6772599,-50.4641231,164,5362.98234
D1,Aurilândia/GO,-16.6772599,-50.4641231,3,98.10334
1,Aurora do Pará/PA,-2.1323199,-47.558436,926,2914.42420
D1,Aurora do Pará/PA,-2.1323199,-47.558436,11,34.62059
1,Aurora do Tocantins/TO,-12.71045,-46.407604,139,3674.33254
D1,Aurora do Tocantins/TO,-12.71045,-46.407604,2,52.86809
1,Aurora/CE,-6.9426019,-38.9693765,1085,4408.77692
D1,Aurora/CE,-6.9426019,-38.9693765,25,101.58472
1,Aurora/SC,-27.3166417,-49.6368502,582,10241.06986
D1,Aurora/SC,-27.3166417,-49.6368502,11,193.55974
1,Autazes/AM,-3.5833283,-59.1301518,2611,6480.51626
D1,Autazes/AM,-3.5833283,-59.1301518,85,210.97046
1,Avanhandava/SP,-21.4603331,-49.9465156,490,3535.60863
D1,Avanhandava/SP,-21.4603331,-49.9465156,21,151.52608
1,Avaré/SP,-23.1045215,-48.9259103,4341,4758.19888
D1,Avaré/SP,-23.1045215,-48.9259103,91,99.74570
1,Avaí/SP,-22.1564662,-49.3316395,209,3844.73878
D1,Avaí/SP,-22.1564662,-49.3316395,3,55.18764
1,Aveiro/PA,-3.6049239,-55.3310742,563,3432.08973
D1,Aveiro/PA,-3.6049239,-55.3310742,7,42.67252
1,Avelino Lopes/PI,-10.1346855,-43.9489525,250,2207.31061
D1,Avelino Lopes/PI,-10.1346855,-43.9489525,17,150.09712
1,Avelinópolis/GO,-16.4672409,-49.7578661,234,9713.57410
D1,Avelinópolis/GO,-16.4672409,-49.7578661,10,415.11000
1,Axixá do Tocantins/TO,-5.612747,-47.77007,814,8317.15541
D1,Axixá do Tocantins/TO,-5.612747,-47.77007,12,122.61163
1,Axixá/MA,-2.8379465,-44.0561053,184,1510.30124
D1,Axixá/MA,-2.8379465,-44.0561053,4,32.83264
1,Açailândia/MA,-4.9514278,-47.4844564,4369,3862.23601
D1,Açailândia/MA,-4.9514278,-47.4844564,143,126.41331
1,Açu/RN,-5.5836157,-36.9139541,3892,6666.20992
D1,Açu/RN,-5.5836157,-36.9139541,105,179.84379
1,Açucena/MG,-19.073056,-42.546666,477,5091.80188
D1,Açucena/MG,-19.073056,-42.546666,12,128.09564
1,Babaçulândia/TO,-7.2034355,-47.761613,537,5034.68967
D1,Babaçulândia/TO,-7.2034355,-47.761613,4,37.50234
1,Bacabal/MA,-4.2318132,-44.781167,4090,3903.04418
D1,Bacabal/MA,-4.2318132,-44.781167,119,113.56045
1,Bacabeira/MA,-2.9775747,-44.3155943,268,1553.44308
D1,Bacabeira/MA,-2.9775747,-44.3155943,4,23.18572
1,Bacuri/MA,-1.728894,-45.1417148,429,2299.77485
D1,Bacuri/MA,-1.728894,-45.1417148,4,21.44312
1,Bacurituba/MA,-2.7082587,-44.7381309,111,1957.67196
D1,Bacurituba/MA,-2.7082587,-44.7381309,1,17.63668
1,Bady Bassitt/SP,-20.9178969,-49.4517911,2043,11502.73070
D1,Bady Bassitt/SP,-20.9178969,-49.4517911,34,191.43066
1,Baependi/MG,-21.959162,-44.8899249,938,4885.67113
D1,Baependi/MG,-21.959162,-44.8899249,10,52.08605
1,Bagre/PA,-1.8994498,-50.2103844,784,2502.79330
D1,Bagre/PA,-1.8994498,-50.2103844,11,35.11572
1,Bagé/RS,-31.3314264,-54.1062808,5467,4505.70734
D1,Bagé/RS,-31.3314264,-54.1062808,138,113.73470
1,Baianópolis/BA,-12.3067564,-44.5383591,271,1945.58116
D1,Baianópolis/BA,-12.3067564,-44.5383591,2,14.35853
1,Baixa Grande do Ribeiro/PI,-7.862861,-45.2113289,1822,15611.34436
D1,Baixa Grande do Ribeiro/PI,-7.862861,-45.2113289,19,162.79668
1,Baixa Grande/BA,-11.9630941,-40.1657537,515,2518.46056
D1,Baixa Grande/BA,-11.9630941,-40.1657537,6,29.34129
1,Baixio/CE,-6.7303544,-38.7170095,267,4236.07806
D1,Baixio/CE,-6.7303544,-38.7170095,7,111.05823
1,Baixo Guandu/ES,-19.5138322,-41.0182089,2845,9138.50700
D1,Baixo Guandu/ES,-19.5138322,-41.0182089,56,179.87922
1,Baião/PA,-2.7903479,-49.6702845,599,1236.09649
D1,Baião/PA,-2.7903479,-49.6702845,21,43.33560
1,Balbinos/SP,-21.9006253,-49.3583966,289,4870.23930
D1,Balbinos/SP,-21.9006253,-49.3583966,3,50.55612
1,Baldim/MG,-19.2913568,-43.9558262,340,4357.29847
D1,Baldim/MG,-19.2913568,-43.9558262,7,89.70909
1,Baliza/GO,-16.1978119,-52.542789,145,2746.21212
D1,Baliza/GO,-16.1978119,-52.542789,4,75.75758
1,Balneário Arroio do Silva/SC,-28.9815269,-49.4189932,1539,11459.41921
D1,Balneário Arroio do Silva/SC,-28.9815269,-49.4189932,34,253.16456
1,Balneário Barra do Sul/SC,-26.459842,-48.6061471,1172,10620.75215
D1,Balneário Barra do Sul/SC,-26.459842,-48.6061471,22,199.36565
1,Balneário Camboriú/SC,-26.9924395,-48.6339782,20994,14399.57200
D1,Balneário Camboriú/SC,-26.9924395,-48.6339782,265,181.76082
1,Balneário Gaivota/SC,-29.1553098,-49.5808712,1027,9120.78153
D1,Balneário Gaivota/SC,-29.1553098,-49.5808712,18,159.85790
1,Balneário Pinhal/RS,-30.2482978,-50.234585,641,4462.85595
D1,Balneário Pinhal/RS,-30.2482978,-50.234585,26,181.02068
1,Balneário Piçarras/SC,-26.7638889,-48.6716667,3574,15034.49436
D1,Balneário Piçarras/SC,-26.7638889,-48.6716667,32,134.61215
1,Balneário Rincão/SC,-28.8235718,-49.2241642,1123,8674.49405
D1,Balneário Rincão/SC,-28.8235718,-49.2241642,27,208.55863
1,Balsa Nova/PR,-25.5842234,-49.6312741,1024,7821.57042
D1,Balsa Nova/PR,-25.5842234,-49.6312741,16,122.21204
1,Balsas/MA,-7.53214,-46.037163,7900,8235.25733
D1,Balsas/MA,-7.53214,-46.037163,100,104.24376
1,Bambuí/MG,-20.0131996,-45.9777034,831,3477.27843
D1,Bambuí/MG,-20.0131996,-45.9777034,7,29.29115
1,Banabuiú/CE,-5.3046404,-38.919766,841,4606.70465
D1,Banabuiú/CE,-5.3046404,-38.919766,7,38.34356
1,Bananal/SP,-22.6828195,-44.3221095,614,5585.37251
D1,Bananal/SP,-22.6828195,-44.3221095,2,18.19340
1,Bananeiras/PB,-6.7537682,-35.6338343,847,3982.32169
D1,Bananeiras/PB,-6.7537682,-35.6338343,11,51.71846
1,Bandeira do Sul/MG,-21.728056,-46.385555,135,2336.44860
D1,Bandeira do Sul/MG,-21.728056,-46.385555,5,86.53513
1,Bandeira/MG,-15.884444,-40.559167,433,9085.18674
D1,Bandeira/MG,-15.884444,-40.559167,9,188.83760
1,Bandeirante/SC,-26.7677402,-53.6397596,183,6910.87613
D1,Bandeirante/SC,-26.7677402,-53.6397596,1,37.76435
1,Bandeirantes do Tocantins/TO,-7.7635698,-48.579148,259,7210.46771
D1,Bandeirantes do Tocantins/TO,-7.7635698,-48.579148,3,83.51893
1,Bandeirantes/MS,-19.9179623,-54.3646768,404,5560.14313
D1,Bandeirantes/MS,-19.9179623,-54.3646768,7,96.33911
1,Bandeirantes/PR,-23.107788,-50.370407,2237,7167.34485
D1,Bandeirantes/PR,-23.107788,-50.370407,59,189.03592
1,Bannach/PA,-7.3508505,-50.4064531,269,8246.47456
D1,Bannach/PA,-7.3508505,-50.4064531,2,61.31208
1,Banzaê/BA,-10.5827616,-38.6122305,788,5951.66163
D1,Banzaê/BA,-10.5827616,-38.6122305,6,45.31722
1,Baraúna/PB,-6.643394,-36.2531932,200,4029.00886
D1,Baraúna/PB,-6.643394,-36.2531932,3,60.43513
1,Baraúna/RN,-5.0775002,-37.61752,730,2539.39542
D1,Baraúna/RN,-5.0775002,-37.61752,17,59.13661
1,Barbacena/MG,-21.2254524,-43.7735087,4292,3105.55411
D1,Barbacena/MG,-21.2254524,-43.7735087,111,80.31605
1,Barbalha/CE,-7.3121067,-39.3036427,3283,5361.92592
D1,Barbalha/CE,-7.3121067,-39.3036427,62,101.26086
1,Barbosa Ferraz/PR,-24.0287182,-52.00811,576,5041.13426
D1,Barbosa Ferraz/PR,-24.0287182,-52.00811,12,105.02363
1,Barbosa/SP,-21.265661,-49.951816,295,3950.18747
D1,Barbosa/SP,-21.265661,-49.951816,8,107.12373
1,Barcarena/PA,-1.5107945,-48.6190679,7990,6290.00134
D1,Barcarena/PA,-1.5107945,-48.6190679,151,118.87237
1,Barcelona/RN,-5.9514918,-35.9260284,51,1276.91537
D1,Barcelona/RN,-5.9514918,-35.9260284,3,75.11267
1,Barcelos/AM,-0.9729214,-62.925635,4020,14545.19140
D1,Barcelos/AM,-0.9729214,-62.925635,53,191.76496
1,Bariri/SP,-22.0746355,-48.7394852,2074,5832.72400
D1,Bariri/SP,-22.0746355,-48.7394852,76,213.73531
1,Barra Bonita/SC,-26.6526364,-53.4419581,97,5875.22714
D1,Barra Bonita/SC,-26.6526364,-53.4419581,1,60.56935
1,Barra Bonita/SP,-22.490859,-48.558349,2386,6604.66146
D1,Barra Bonita/SP,-22.490859,-48.558349,58,160.54919
1,Barra D'Alcântara/PI,-6.5209258,-42.1071089,99,2505.06073
D1,Barra D'Alcântara/PI,-6.5209258,-42.1071089,3,75.91093
1,Barra Funda/RS,-27.9230048,-53.0401045,350,13720.10976
D1,Barra Funda/RS,-27.9230048,-53.0401045,7,274.40220
1,Barra Longa/MG,-20.2833541,-43.0423516,178,3549.35194
D1,Barra Longa/MG,-20.2833541,-43.0423516,2,39.88036
1,Barra Mansa/RJ,-22.5394843,-44.1735129,11439,6188.82992
D1,Barra Mansa/RJ,-22.5394843,-44.1735129,318,172.04720
1,Barra Velha/SC,-26.6338203,-48.6835001,3103,10391.82853
D1,Barra Velha/SC,-26.6338203,-48.6835001,64,214.33356
1,Barra da Estiva/BA,-13.6269662,-41.3278287,1235,6056.29659
D1,Barra da Estiva/BA,-13.6269662,-41.3278287,8,39.23107
1,Barra de Guabiraba/PE,-8.4173522,-35.6626669,331,2281.18539
D1,Barra de Guabiraba/PE,-8.4173522,-35.6626669,12,82.70159
1,Barra de Santa Rosa/PB,-6.7218007,-36.0564638,654,4220.17165
D1,Barra de Santa Rosa/PB,-6.7218007,-36.0564638,3,19.35859
1,Barra de Santana/PB,-7.5230865,-35.9988518,292,3497.42484
D1,Barra de Santana/PB,-7.5230865,-35.9988518,4,47.90993
1,Barra de Santo Antônio/AL,-9.4038098,-35.5117693,187,1163.80383
D1,Barra de Santo Antônio/AL,-9.4038098,-35.5117693,15,93.35325
1,Barra de São Francisco/ES,-18.7570902,-40.8916119,3247,7218.92439
D1,Barra de São Francisco/ES,-18.7570902,-40.8916119,111,246.78183
1,Barra de São Miguel/AL,-9.8261357,-35.8837777,265,3163.04607
D1,Barra de São Miguel/AL,-9.8261357,-35.8837777,6,71.61614
1,Barra de São Miguel/PB,-7.7528088,-36.3170996,264,4352.84419
D1,Barra de São Miguel/PB,-7.7528088,-36.3170996,2,32.97609
1,Barra do Bugres/MT,-15.0683712,-57.1853688,1980,5607.95310
D1,Barra do Bugres/MT,-15.0683712,-57.1853688,45,127.45348
1,Barra do Chapéu/SP,-24.472203,-49.023784,202,3506.94444
1,Barra do Choça/BA,-14.8638173,-40.5761637,1619,5187.60614
D1,Barra do Choça/BA,-14.8638173,-40.5761637,24,76.90089
1,Barra do Corda/MA,-5.496823,-45.248496,4740,5356.41640
D1,Barra do Corda/MA,-5.496823,-45.248496,48,54.24219
1,Barra do Garças/MT,-15.8916033,-52.2615413,5586,9137.15548
D1,Barra do Garças/MT,-15.8916033,-52.2615413,189,309.15188
1,Barra do Guarita/RS,-27.1888016,-53.7147086,102,3131.71630
D1,Barra do Guarita/RS,-27.1888016,-53.7147086,3,92.10930
1,Barra do Jacaré/PR,-23.1151788,-50.1813945,138,4962.24380
D1,Barra do Jacaré/PR,-23.1151788,-50.1813945,1,35.95829
1,Barra do Mendes/BA,-11.8053298,-42.057037,585,4229.01757
D1,Barra do Mendes/BA,-11.8053298,-42.057037,9,65.06181
1,Barra do Ouro/TO,-7.7113784,-47.6743925,109,2353.19516
D1,Barra do Ouro/TO,-7.7113784,-47.6743925,5,107.94473
1,Barra do Piraí/RJ,-22.4703403,-43.8263256,4058,4027.23195
D1,Barra do Piraí/RJ,-22.4703403,-43.8263256,189,187.56699
1,Barra do Quaraí/RS,-30.208947,-57.5505128,194,4589.54341
D1,Barra do Quaraí/RS,-30.208947,-57.5505128,2,47.31488
1,Barra do Ribeiro/RS,-30.2930206,-51.301437,872,6432.57598
D1,Barra do Ribeiro/RS,-30.2930206,-51.301437,40,295.07229
1,Barra do Rio Azul/RS,-27.4101581,-52.4117471,59,3564.95468
D1,Barra do Rio Azul/RS,-27.4101581,-52.4117471,1,60.42296
1,Barra do Rocha/BA,-14.2090974,-39.6004395,302,5381.32573
D1,Barra do Rocha/BA,-14.2090974,-39.6004395,4,71.27584
1,Barra do Turvo/SP,-24.756421,-48.5056942,338,4428.72117
D1,Barra do Turvo/SP,-24.756421,-48.5056942,10,131.02725
1,Barra dos Coqueiros/SE,-10.9075694,-37.0386249,4508,14574.84643
D1,Barra dos Coqueiros/SE,-10.9075694,-37.0386249,50,161.65535
1,Barra/BA,-11.0892702,-43.1420453,1338,2481.91430
D1,Barra/BA,-11.0892702,-43.1420453,22,40.80876
1,Barracão/PR,-26.252395,-53.6349576,825,8000.38790
D1,Barracão/PR,-26.252395,-53.6349576,20,193.94880
1,Barracão/RS,-27.6728964,-51.4582928,239,4547.18417
D1,Barracão/RS,-27.6728964,-51.4582928,7,133.18113
1,Barras/PI,-4.2446153,-42.2920241,3776,8002.54318
D1,Barras/PI,-4.2446153,-42.2920241,74,156.82950
1,Barreira/CE,-4.2883361,-38.641094,764,3384.57449
D1,Barreira/CE,-4.2883361,-38.641094,24,106.32171
1,Barreiras do Piauí/PI,-9.9224524,-45.4763776,49,1461.81384
D1,Barreiras do Piauí/PI,-9.9224524,-45.4763776,1,29.83294
1,Barreiras/BA,-12.1440031,-44.9967406,10525,6704.88931
D1,Barreiras/BA,-12.1440031,-44.9967406,127,80.90460
1,Barreirinha/AM,-2.798863,-57.067897,2224,6846.65825
D1,Barreirinha/AM,-2.798863,-57.067897,60,184.71200
1,Barreirinhas/MA,-2.7541271,-42.8259693,1524,2410.74395
D1,Barreirinhas/MA,-2.7541271,-42.8259693,31,49.03744
1,Barreiros/PE,-8.8159644,-35.1831905,561,1311.85109
D1,Barreiros/PE,-8.8159644,-35.1831905,44,102.89028
1,Barretos/SP,-20.5531437,-48.5697509,9235,7518.33791
D1,Barretos/SP,-20.5531437,-48.5697509,244,198.64369
1,Barrinha/SP,-21.1898849,-48.1550642,1095,3300.18083
D1,Barrinha/SP,-21.1898849,-48.1550642,40,120.55455
1,Barro Alto/BA,-11.7618025,-41.9094904,597,3965.72340
D1,Barro Alto/BA,-11.7618025,-41.9094904,4,26.57101
1,Barro Alto/GO,-14.9696025,-48.9190985,1138,9975.45582
D1,Barro Alto/GO,-14.9696025,-48.9190985,12,105.18934
1,Barro Duro/PI,-5.8180139,-42.5106589,515,7328.87434
D1,Barro Duro/PI,-5.8180139,-42.5106589,7,99.61577
1,Barro Preto/BA,-14.8068289,-39.4727588,476,8737.15125
D1,Barro Preto/BA,-14.8068289,-39.4727588,7,128.48752
1,Barro/CE,-7.1713587,-38.7742136,602,2645.22366
D1,Barro/CE,-7.1713587,-38.7742136,14,61.51683
1,Barrocas/BA,-11.5165,-39.099282894736845,609,3781.43434
D1,Barrocas/BA,-11.5165,-39.099282894736845,15,93.13878
1,Barrolândia/TO,-9.837246,-48.7264346,582,10299.06211
D1,Barrolândia/TO,-9.837246,-48.7264346,10,176.95983
1,Barroquinha/CE,-3.0200371,-41.1339229,910,6048.92316
D1,Barroquinha/CE,-3.0200371,-41.1339229,23,152.88487
1,Barros Cassal/RS,-29.094938,-52.5832366,434,3881.23770
D1,Barros Cassal/RS,-29.094938,-52.5832366,6,53.65766
1,Barroso/MG,-21.187222,-43.976111,588,2813.80102
D1,Barroso/MG,-21.187222,-43.976111,11,52.63913
1,Barueri/SP,-23.5112184,-46.8764612,19497,7039.08557
D1,Barueri/SP,-23.5112184,-46.8764612,656,236.83849
1,Barão de Antonina/SP,-23.6295651,-49.5632104,108,3087.47856
D1,Barão de Antonina/SP,-23.6295651,-49.5632104,2,57.17553
1,Barão de Cocais/MG,-19.9452437,-43.4870298,2621,7974.80679
D1,Barão de Cocais/MG,-19.9452437,-43.4870298,34,103.45037
1,Barão de Cotegipe/RS,-27.6214694,-52.3765316,504,7613.29305
D1,Barão de Cotegipe/RS,-27.6214694,-52.3765316,6,90.63444
1,Barão de Grajaú/MA,-6.7542591,-43.0263477,252,1331.64236
D1,Barão de Grajaú/MA,-6.7542591,-43.0263477,2,10.56859
1,Barão de Melgaço/MT,-16.195776,-55.9668049,215,2633.51298
D1,Barão de Melgaço/MT,-16.195776,-55.9668049,9,110.24008
1,Barão de Monte Alto/MG,-21.244722,-42.2375,163,3044.45275
D1,Barão de Monte Alto/MG,-21.244722,-42.2375,7,130.74337
1,Barão do Triunfo/RS,-30.3909877,-51.7375349,324,4309.08365
D1,Barão do Triunfo/RS,-30.3909877,-51.7375349,4,53.19856
1,Barão/RS,-29.372474,-51.494908,409,6594.64689
D1,Barão/RS,-29.372474,-51.494908,7,112.86682
1,Bastos/SP,-21.9222474,-50.7317727,429,2047.43951
D1,Bastos/SP,-21.9222474,-50.7317727,16,76.36138
1,Bataguassu/MS,-21.715899,-52.422058,1851,7935.69132
D1,Bataguassu/MS,-21.715899,-52.422058,18,77.17042
1,Batalha/AL,-9.6733809,-37.1265481,811,4422.51063
D1,Batalha/AL,-9.6733809,-37.1265481,15,81.79736
1,Batalha/PI,-4.022391,-42.0780926,744,2765.28526
D1,Batalha/PI,-4.022391,-42.0780926,23,85.48597
1,Batatais/SP,-20.892867,-47.592149,1841,2923.15021
D1,Batatais/SP,-20.892867,-47.592149,66,104.79517
1,Batayporã/MS,-22.2976466,-53.2685608,562,4951.97815
D1,Batayporã/MS,-22.2976466,-53.2685608,11,96.92484
1,Baturité/CE,-4.3290203,-38.8821055,1553,4320.97048
D1,Baturité/CE,-4.3290203,-38.8821055,43,119.64052
1,Bauru/SP,-22.3218102,-49.0705863,29847,7869.03139
D1,Bauru/SP,-22.3218102,-49.0705863,581,153.17812
1,Bayeux/PB,-7.1301631,-34.936532,5175,5323.90976
D1,Bayeux/PB,-7.1301631,-34.936532,185,190.32334
1,Baía Formosa/RN,-6.3691885,-35.0063741,241,2585.28213
D1,Baía Formosa/RN,-6.3691885,-35.0063741,8,85.81849
1,Baía da Traição/PB,-6.691258,-34.9371244,1077,11840.36939
D1,Baía da Traição/PB,-6.691258,-34.9371244,10,109.93843
1,Bebedouro/SP,-20.949077,-48.479083,3037,3915.93063
D1,Bebedouro/SP,-20.949077,-48.479083,70,90.25853
1,Beberibe/CE,-4.1810469,-38.1298101,2355,4365.23383
D1,Beberibe/CE,-4.1810469,-38.1298101,46,85.26571
1,Bela Cruz/CE,-3.0529129,-40.167582,2153,6579.67117
D1,Bela Cruz/CE,-3.0529129,-40.167582,44,134.46611
1,Bela Vista da Caroba/PR,-25.8792818,-53.6672545,148,4281.16864
D1,Bela Vista da Caroba/PR,-25.8792818,-53.6672545,3,86.78045
1,Bela Vista de Goiás/GO,-16.9692949,-48.9513071,1852,6073.72426
D1,Bela Vista de Goiás/GO,-16.9692949,-48.9513071,39,127.90240
1,Bela Vista de Minas/MG,-19.8289721,-43.0973688,482,4696.94017
D1,Bela Vista de Minas/MG,-19.8289721,-43.0973688,9,87.70220
1,Bela Vista do Maranhão/MA,-3.7416367,-45.2514192,180,1595.88616
D1,Bela Vista do Maranhão/MA,-3.7416367,-45.2514192,10,88.66034
1,Bela Vista do Paraíso/PR,-22.9948493,-51.1907996,1443,9370.73836
D1,Bela Vista do Paraíso/PR,-22.9948493,-51.1907996,39,253.26320
1,Bela Vista do Piauí/PI,-7.9716353,-41.8715061,217,5384.61538
D1,Bela Vista do Piauí/PI,-7.9716353,-41.8715061,6,148.88337
1,Bela Vista do Toldo/SC,-26.274625,-50.466354,57,895.94467
D1,Bela Vista do Toldo/SC,-26.274625,-50.466354,1,15.71833
1,Bela Vista/MS,-22.107327,-56.5317344,548,2215.48413
D1,Bela Vista/MS,-22.107327,-56.5317344,15,60.64281
1,Belford Roxo/RJ,-22.7667284,-43.4033603,17923,3492.95873
D1,Belford Roxo/RJ,-22.7667284,-43.4033603,461,89.84288
1,Belmiro Braga/MG,-21.9486291,-43.413564,137,4000.00000
D1,Belmiro Braga/MG,-21.9486291,-43.413564,3,87.59124
1,Belmonte/BA,-15.8630837,-38.8792845,860,3669.41161
D1,Belmonte/BA,-15.8630837,-38.8792845,15,64.00137
1,Belmonte/SC,-26.8448262,-53.578916,196,7235.14212
D1,Belmonte/SC,-26.8448262,-53.578916,4,147.65596
1,Belo Campo/BA,-15.0338286,-41.2585109,513,2998.42188
D1,Belo Campo/BA,-15.0338286,-41.2585109,6,35.06926
1,Belo Horizonte/MG,-19.9227318,-43.9450948,142938,5668.62471
D1,Belo Horizonte/MG,-19.9227318,-43.9450948,3224,127.85716
1,Belo Jardim/PE,-8.3338293,-36.4176419,2158,2814.03628
D1,Belo Jardim/PE,-8.3338293,-36.4176419,54,70.41611
1,Belo Monte/AL,-9.8269944,-37.2787165,228,3397.91356
D1,Belo Monte/AL,-9.8269944,-37.2787165,6,89.41878
1,Belo Oriente/MG,-19.2232523,-42.4807033,2007,7434.98555
D1,Belo Oriente/MG,-19.2232523,-42.4807033,36,133.36297
1,Belo Vale/MG,-20.407778,-44.024167,415,5376.34409
D1,Belo Vale/MG,-20.407778,-44.024167,7,90.68532
1,Belterra/PA,-2.636091,-54.937392,1054,5908.40294
D1,Belterra/PA,-2.636091,-54.937392,17,95.29682
1,Belágua/MA,-3.1604031,-43.5085052,282,3746.01488
D1,Belágua/MA,-3.1604031,-43.5085052,2,26.56748
1,Belém de Maria/PE,-8.6242497,-35.8388934,135,1113.67761
D1,Belém de Maria/PE,-8.6242497,-35.8388934,3,24.74839
1,Belém do Brejo do Cruz/PB,-6.1880727,-37.5332267,477,6490.67900
D1,Belém do Brejo do Cruz/PB,-6.1880727,-37.5332267,5,68.03647
1,Belém do Piauí/PI,-7.3767305,-40.9712156,387,10788.96013
D1,Belém do Piauí/PI,-7.3767305,-40.9712156,7,195.14915
1,Belém do São Francisco/PE,-8.7517707,-38.9625715,432,2083.93632
D1,Belém do São Francisco/PE,-8.7517707,-38.9625715,7,33.76749
1,Belém/AL,-9.5715351,-36.492841,86,2007.46965
D1,Belém/AL,-9.5715351,-36.492841,3,70.02801
1,Belém/PA,-1.45056,-48.4682453,85958,5731.90517
D1,Belém/PA,-1.45056,-48.4682453,3573,238.25702
1,Belém/PB,-6.6967586,-35.5369626,1573,8884.49591
D1,Belém/PB,-6.6967586,-35.5369626,29,163.79554
1,Beneditinos/PI,-5.4565671,-42.3605061,586,5595.34040
D1,Beneditinos/PI,-5.4565671,-42.3605061,22,210.06397
1,Benedito Leite/MA,-7.2173453,-44.5523331,263,4664.77474
D1,Benedito Leite/MA,-7.2173453,-44.5523331,2,35.47357
1,Benedito Novo/SC,-26.7840657,-49.3629511,846,7184.71338
D1,Benedito Novo/SC,-26.7840657,-49.3629511,12,101.91083
1,Benevides/PA,-1.3555577,-48.252235,2809,4405.03074
D1,Benevides/PA,-1.3555577,-48.252235,67,105.06837
1,Benjamin Constant do Sul/RS,-27.5105555,-52.6007689,149,7609.80592
1,Benjamin Constant/AM,-4.3782748,-70.0290603,2579,5870.03528
D1,Benjamin Constant/AM,-4.3782748,-70.0290603,69,157.05019
1,Bento Fernandes/RN,-5.6926846,-35.8207423,65,1176.47059
D1,Bento Fernandes/RN,-5.6926846,-35.8207423,2,36.19910
1,Bento Gonçalves/RS,-29.1654014,-51.5197627,12206,10021.09964
D1,Bento Gonçalves/RS,-29.1654014,-51.5197627,222,182.26152
1,Bento de Abreu/SP,-21.2707225,-50.8120444,198,6589.01830
1,Bequimão/MA,-2.4495376,-44.7884889,269,1262.97009
D1,Bequimão/MA,-2.4495376,-44.7884889,15,70.42584
1,Berilo/MG,-16.9515764,-42.4643732,10,84.23181
1,Berizal/MG,-15.6118785,-41.7417382,95,1994.12259
D1,Berizal/MG,-15.6118785,-41.7417382,1,20.99076
1,Bernardino Batista/PB,-6.4532173,-38.5495418,208,5882.35294
1,Bernardino de Campos/SP,-23.0140216,-49.4760724,317,2841.01093
D1,Bernardino de Campos/SP,-23.0140216,-49.4760724,6,53.77308
1,Bernardo Sayão/TO,-7.8794244,-48.8968905,294,6609.71223
D1,Bernardo Sayão/TO,-7.8794244,-48.8968905,5,112.41007
1,Bernardo do Mearim/MA,-4.6315929,-44.7617508,205,3375.59690
D1,Bernardo do Mearim/MA,-4.6315929,-44.7617508,4,65.86531
1,Bertioga/SP,-23.848568,-46.139586,3486,5386.02970
D1,Bertioga/SP,-23.848568,-46.139586,75,115.87844
1,Bertolínia/PI,-7.6372159,-43.9540611,628,11403.66806
D1,Bertolínia/PI,-7.6372159,-43.9540611,6,108.95224
1,Bertópolis/MG,-17.063333,-40.573889,242,5252.87606
1,Beruri/AM,-3.9007135,-61.3717319,1990,9903.94665
D1,Beruri/AM,-3.9007135,-61.3717319,31,154.28259
1,Betim/MG,-19.968056,-44.198333,20627,4637.53193
D1,Betim/MG,-19.968056,-44.198333,635,142.76593
1,Betânia do Piauí/PI,-8.1460635,-40.7961387,148,2383.25282
D1,Betânia do Piauí/PI,-8.1460635,-40.7961387,2,32.20612
1,Betânia/PE,-8.2742779,-38.0351767,264,2068.15511
D1,Betânia/PE,-8.2742779,-38.0351767,5,39.16960
1,Bezerros/PE,-8.2372132,-35.7558262,2874,4720.76216
D1,Bezerros/PE,-8.2372132,-35.7558262,82,134.69120
1,Bias Fortes/MG,-21.605833,-43.756944,92,2763.59267
D1,Bias Fortes/MG,-21.605833,-43.756944,2,60.07810
1,Bicas/MG,-21.7213723,-43.0604327,776,5331.86753
D1,Bicas/MG,-21.7213723,-43.0604327,22,151.16119
1,Biguaçu/SC,-27.4961277,-48.6542432,9564,13763.92367
D1,Biguaçu/SC,-27.4961277,-48.6542432,127,182.77063
1,Bilac/SP,-21.403962,-50.47464,626,7712.20894
D1,Bilac/SP,-21.403962,-50.47464,11,135.51805
1,Biquinhas/MG,-18.783611,-45.502222,76,3042.43395
1,Birigui/SP,-21.2908491,-50.34144,9399,7526.24456
D1,Birigui/SP,-21.2908491,-50.34144,247,197.78513
1,Biritiba Mirim/SP,-23.5697765,-46.0407456,855,2595.94365
D1,Biritiba Mirim/SP,-23.5697765,-46.0407456,55,166.99053
1,Biritinga/BA,-11.6227908,-38.8066738,264,1651.65165
D1,Biritinga/BA,-11.6227908,-38.8066738,5,31.28128
1,Bituruna/PR,-26.161281,-51.5533319,469,2859.75610
D1,Bituruna/PR,-26.161281,-51.5533319,5,30.48780
1,Blumenau/SC,-26.9195567,-49.0658025,41507,11470.61668
D1,Blumenau/SC,-26.9195567,-49.0658025,412,113.85776
1,Boa Esperança do Iguaçu/PR,-25.6362851,-53.2139114,116,4696.35628
1,Boa Esperança do Sul/SP,-21.9930206,-48.3917372,648,4314.82221
D1,Boa Esperança do Sul/SP,-21.9930206,-48.3917372,11,73.24544
1,Boa Esperança/ES,-18.5395472,-40.2904088,928,6148.95309
D1,Boa Esperança/ES,-18.5395472,-40.2904088,31,205.40684
1,Boa Esperança/MG,-21.0901253,-45.5660195,2024,5032.44735
D1,Boa Esperança/MG,-21.0901253,-45.5660195,51,126.80574
1,Boa Esperança/PR,-24.2411024,-52.7860277,229,5658.51248
D1,Boa Esperança/PR,-24.2411024,-52.7860277,6,148.25797
1,Boa Hora/PI,-4.4094627,-42.1255341,413,6060.16141
D1,Boa Hora/PI,-4.4094627,-42.1255341,5,73.36757
1,Boa Nova/BA,-14.365907,-40.2063056,609,4939.57336
D1,Boa Nova/BA,-14.365907,-40.2063056,11,89.22054
1,Boa Ventura de São Roque/PR,-24.88177,-51.5441292,262,4116.26080
D1,Boa Ventura de São Roque/PR,-24.88177,-51.5441292,5,78.55460
1,Boa Ventura/PB,-7.4202462,-38.2156782,223,4201.99736
D1,Boa Ventura/PB,-7.4202462,-38.2156782,4,75.37215
1,Boa Viagem/CE,-5.1261877,-39.7300055,2231,4087.80255
D1,Boa Viagem/CE,-5.1261877,-39.7300055,55,100.77505
1,Boa Vista da Aparecida/PR,-25.4357216,-53.4067721,520,6896.55172
D1,Boa Vista da Aparecida/PR,-25.4357216,-53.4067721,17,225.46419
1,Boa Vista das Missões/RS,-27.6677983,-53.3127622,80,3824.09178
D1,Boa Vista das Missões/RS,-27.6677983,-53.3127622,2,95.60229
1,Boa Vista do Buricá/RS,-27.6687782,-54.1111913,550,8194.27890
D1,Boa Vista do Buricá/RS,-27.6687782,-54.1111913,7,104.29082
1,Boa Vista do Cadeado/RS,-28.5783827,-53.8123759,133,5388.97893
D1,Boa Vista do Cadeado/RS,-28.5783827,-53.8123759,1,40.51864
1,Boa Vista do Gurupi/MA,-1.7981168,-46.3071882,14,167.02458
D1,Boa Vista do Gurupi/MA,-1.7981168,-46.3071882,3,35.79098
1,Boa Vista do Incra/RS,-28.8195551,-53.3866624,151,5772.17125
D1,Boa Vista do Incra/RS,-28.8195551,-53.3866624,1,38.22630
1,Boa Vista do Ramos/AM,-2.9716927,-57.5869819,819,4173.03577
D1,Boa Vista do Ramos/AM,-2.9716927,-57.5869819,11,56.04810
1,Boa Vista do Sul/RS,-29.3510488,-51.6779679,234,8423.32613
D1,Boa Vista do Sul/RS,-29.3510488,-51.6779679,2,71.99424
1,Boa Vista do Tupim/BA,-12.6605988,-40.6083594,163,879.60714
D1,Boa Vista do Tupim/BA,-12.6605988,-40.6083594,4,21.58545
1,Boa Vista/PB,-7.2620711,-36.2415161,431,6039.79821
D1,Boa Vista/PB,-7.2620711,-36.2415161,5,70.06726
1,Boa Vista/RR,2.8208478,-60.6719582,67953,16192.70252
D1,Boa Vista/RR,2.8208478,-60.6719582,1032,245.91805
1,Boca da Mata/AL,-9.6452054,-36.2116658,1461,5340.69308
D1,Boca da Mata/AL,-9.6452054,-36.2116658,34,124.28718
1,Boca do Acre/AM,-8.7553487,-67.3930873,2379,6868.77436
D1,Boca do Acre/AM,-8.7553487,-67.3930873,22,63.51956
1,Bocaina de Minas/MG,-22.167778,-44.394722,97,1906.07192
D1,Bocaina de Minas/MG,-22.167778,-44.394722,2,39.30045
1,Bocaina do Sul/SC,-27.745494,-49.942279,348,9977.06422
D1,Bocaina do Sul/SC,-27.745494,-49.942279,3,86.00917
1,Bocaina/PI,-6.9445939,-41.3224599,218,4839.06770
D1,Bocaina/PI,-6.9445939,-41.3224599,3,66.59267
1,Bocaina/SP,-22.1421831,-48.522276,1049,8424.34950
D1,Bocaina/SP,-22.1421831,-48.522276,21,168.64761
1,Bocaiúva do Sul/PR,-25.206591,-49.114131,875,6664.63554
D1,Bocaiúva do Sul/PR,-25.206591,-49.114131,5,38.08363
1,Bocaiúva/MG,-17.1160208,-43.8122678,1412,2809.61477
D1,Bocaiúva/MG,-17.1160208,-43.8122678,32,63.67399
1,Bodocó/PE,-7.777592,-39.933797,1448,3772.99495
D1,Bodocó/PE,-7.777592,-39.933797,22,57.32451
1,Bodoquena/MS,-20.5508775,-56.6769653,171,2181.67900
D1,Bodoquena/MS,-20.5508775,-56.6769653,3,38.27507
1,Bodó/RN,-5.9866104,-36.4134824,92,4187.52845
1,Bofete/SP,-23.1019554,-48.2610535,483,4051.67352
D1,Bofete/SP,-23.1019554,-48.2610535,9,75.49702
1,Boituva/SP,-23.2838893,-47.6738231,3525,5669.93727
D1,Boituva/SP,-23.2838893,-47.6738231,63,101.33505
1,Bom Conselho/PE,-9.169191,-36.685683,1200,2460.68038
D1,Bom Conselho/PE,-9.169191,-36.685683,37,75.87098
1,Bom Despacho/MG,-19.7375242,-45.2517288,2416,4734.65548
D1,Bom Despacho/MG,-19.7375242,-45.2517288,51,99.94513
1,Bom Jardim da Serra/SC,-28.3380324,-49.625588,529,11085.49874
D1,Bom Jardim da Serra/SC,-28.3380324,-49.625588,3,62.86672
1,Bom Jardim de Goiás/GO,-16.2062659,-52.172793,504,5682.71507
D1,Bom Jardim de Goiás/GO,-16.2062659,-52.172793,10,112.75228
1,Bom Jardim de Minas/MG,-21.9476466,-44.1906033,203,3142.90138
D1,Bom Jardim de Minas/MG,-21.9476466,-44.1906033,1,15.48227
1,Bom Jardim/MA,-3.54129,-45.606004,1113,2661.27875
D1,Bom Jardim/MA,-3.54129,-45.606004,36,86.07910
1,Bom Jardim/PE,-7.7961572,-35.5871696,940,2350.99917
D1,Bom Jardim/PE,-7.7961572,-35.5871696,39,97.54146
1,Bom Jardim/RJ,-22.1515328,-42.4186683,768,2780.99652
D1,Bom Jardim/RJ,-22.1515328,-42.4186683,21,76.04287
1,Bom Jesus da Lapa/BA,-13.250571,-43.410754,2325,3337.54414
D1,Bom Jesus da Lapa/BA,-13.250571,-43.410754,34,48.80710
1,Bom Jesus da Penha/MG,-21.0165299,-46.5226644,254,5984.91989
D1,Bom Jesus da Penha/MG,-21.0165299,-46.5226644,5,117.81338
1,Bom Jesus da Serra/BA,-14.3724084,-40.5047119,388,3949.91347
D1,Bom Jesus da Serra/BA,-14.3724084,-40.5047119,6,61.08114
1,Bom Jesus das Selvas/MA,-4.4878075,-46.8526639,2259,6535.13467
D1,Bom Jesus das Selvas/MA,-4.4878075,-46.8526639,19,54.96572
1,Bom Jesus de Goiás/GO,-18.2174587,-49.739721,2148,8374.92202
D1,Bom Jesus de Goiás/GO,-18.2174587,-49.739721,75,292.42046
1,Bom Jesus do Amparo/MG,-19.7045132,-43.4752911,140,2282.73276
D1,Bom Jesus do Amparo/MG,-19.7045132,-43.4752911,4,65.22094
1,Bom Jesus do Araguaia/MT,-12.1725897,-51.5074425,545,8127.05040
D1,Bom Jesus do Araguaia/MT,-12.1725897,-51.5074425,6,89.47211
1,Bom Jesus do Galho/MG,-19.8283191,-42.3162256,419,2819.27062
D1,Bom Jesus do Galho/MG,-19.8283191,-42.3162256,11,74.01426
1,Bom Jesus do Itabapoana/RJ,-21.1341025,-41.680095,2331,6265.62374
D1,Bom Jesus do Itabapoana/RJ,-21.1341025,-41.680095,55,147.83754
1,Bom Jesus do Norte/ES,-21.1254776,-41.6711646,765,7679.18089
D1,Bom Jesus do Norte/ES,-21.1254776,-41.6711646,18,180.68661
1,Bom Jesus do Oeste/SC,-26.6929713,-53.0967453,116,5423.09490
D1,Bom Jesus do Oeste/SC,-26.6929713,-53.0967453,3,140.25245
1,Bom Jesus do Sul/PR,-26.1922507,-53.6002033,210,5989.73189
D1,Bom Jesus do Sul/PR,-26.1922507,-53.6002033,3,85.56760
1,Bom Jesus do Tocantins/PA,-5.0471796,-48.5978362,621,3627.76025
D1,Bom Jesus do Tocantins/PA,-5.0471796,-48.5978362,16,93.46886
1,Bom Jesus do Tocantins/TO,-8.96306,-48.165043,115,2296.32588
D1,Bom Jesus do Tocantins/TO,-8.96306,-48.165043,1,19.96805
1,Bom Jesus dos Perdões/SP,-23.1353864,-46.4648052,1208,4648.83587
D1,Bom Jesus dos Perdões/SP,-23.1353864,-46.4648052,16,61.57398
1,Bom Jesus/PB,-6.8156725,-38.6551841,98,3805.82524
D1,Bom Jesus/PB,-6.8156725,-38.6551841,3,116.50485
1,Bom Jesus/PI,-9.0711644,-44.3583926,2421,9536.37689
D1,Bom Jesus/PI,-9.0711644,-44.3583926,27,106.35365
1,Bom Jesus/RN,-5.9887544,-35.5821149,563,5483.58820
D1,Bom Jesus/RN,-5.9887544,-35.5821149,11,107.13938
1,Bom Jesus/RS,-28.6692723,-50.4346894,511,4518.52507
D1,Bom Jesus/RS,-28.6692723,-50.4346894,13,114.95269
1,Bom Jesus/SC,-26.7350604,-52.3916519,307,10042.52535
D1,Bom Jesus/SC,-26.7350604,-52.3916519,5,163.55904
1,Bom Lugar/MA,-4.3728019,-45.0366054,359,2183.96399
D1,Bom Lugar/MA,-4.3728019,-45.0366054,7,42.58426
1,Bom Princípio do Piauí/PI,-3.1912777,-41.6430185,87,1539.55052
D1,Bom Princípio do Piauí/PI,-3.1912777,-41.6430185,7,123.87188
1,Bom Princípio/RS,-29.489788,-51.3566782,1211,8495.26482
D1,Bom Princípio/RS,-29.489788,-51.3566782,21,147.31673
1,Bom Progresso/RS,-27.5490948,-53.8655601,99,5213.27014
D1,Bom Progresso/RS,-27.5490948,-53.8655601,1,52.65929
1,Bom Repouso/MG,-22.4657069,-46.1485376,372,3530.41663
D1,Bom Repouso/MG,-22.4657069,-46.1485376,11,104.39404
1,Bom Retiro do Sul/RS,-29.6000007,-51.9359243,844,6811.94512
D1,Bom Retiro do Sul/RS,-29.6000007,-51.9359243,20,161.42050
1,Bom Retiro/SC,-27.798993,-49.486994,541,5377.73360
D1,Bom Retiro/SC,-27.798993,-49.486994,12,119.28429
1,Bom Sucesso de Itararé/SP,-24.3190016,-49.1446207,98,2459.83936
D1,Bom Sucesso de Itararé/SP,-24.3190016,-49.1446207,4,100.40161
1,Bom Sucesso do Sul/PR,-26.0749256,-52.8348629,257,7897.97173
D1,Bom Sucesso do Sul/PR,-26.0749256,-52.8348629,4,122.92563
1,Bom Sucesso/MG,-21.0323516,-44.7598082,323,1834.49764
D1,Bom Sucesso/MG,-21.0323516,-44.7598082,4,22.71824
1,Bom Sucesso/PB,-6.4458948,-37.9297662,157,3167.87732
D1,Bom Sucesso/PB,-6.4458948,-37.9297662,1,20.17756
1,Bom Sucesso/PR,-23.7088019,-51.7651297,504,7130.73005
D1,Bom Sucesso/PR,-23.7088019,-51.7651297,11,155.63101
1,Bombinhas/SC,-27.1519159,-48.4875691,3083,15161.05237
D1,Bombinhas/SC,-27.1519159,-48.4875691,42,206.54045
1,Bonfim do Piauí/PI,-9.1648678,-42.8734415,220,3869.83289
D1,Bonfim do Piauí/PI,-9.1648678,-42.8734415,4,70.36060
1,Bonfim/MG,-20.3266626, -44.2386157,269,3921.28280
D1,Bonfim/MG,-20.3266626, -44.2386157,6,87.46356
1,Bonfim/RR,3.3613818,-59.8427241,1846,14700.96361
D1,Bonfim/RR,3.3613818,-59.8427241,24,191.12845
1,Bonfinópolis de Minas/MG,-16.5660011,-45.98645,318,5841.29317
D1,Bonfinópolis de Minas/MG,-16.5660011,-45.98645,10,183.68846
1,Bonfinópolis/GO,-16.6172709,-48.9615701,419,4224.21615
D1,Bonfinópolis/GO,-16.6172709,-48.9615701,13,131.06160
1,Boninal/BA,-12.7095183,-41.8299984,536,3710.36965
D1,Boninal/BA,-12.7095183,-41.8299984,6,41.53399
1,Bonito de Minas/MG,-15.3191266,-44.7544,38,334.24224
1,Bonito de Santa Fé/PB,-7.3143332,-38.5146677,351,2919.64731
D1,Bonito de Santa Fé/PB,-7.3143332,-38.5146677,11,91.49892
1,Bonito/BA,-11.9665473,-41.2649896,582,3447.05046
D1,Bonito/BA,-11.9665473,-41.2649896,6,35.53660
1,Bonito/MS,-21.1264766,-56.4902208,1855,8359.62145
D1,Bonito/MS,-21.1264766,-56.4902208,28,126.18297
1,Bonito/PA,-1.3605722,-47.3049907,331,2002.41984
D1,Bonito/PA,-1.3605722,-47.3049907,12,72.59528
1,Bonito/PE,-8.4721161,-35.7314591,559,1466.53724
D1,Bonito/PE,-8.4721161,-35.7314591,28,73.45804
1,Bonópolis/GO,-13.649331,-49.8329113,102,2270.19809
D1,Bonópolis/GO,-13.649331,-49.8329113,1,22.25684
1,Boqueirão do Leão/RS,-29.30332,-52.4296817,422,5479.09634
D1,Boqueirão do Leão/RS,-29.30332,-52.4296817,28,363.54194
1,Boqueirão do Piauí/PI,-4.4850148,-42.1095161,379,5897.91472
D1,Boqueirão do Piauí/PI,-4.4850148,-42.1095161,7,108.93246
1,Boqueirão/PB,-7.487004,-36.130887,1152,6446.55848
D1,Boqueirão/PB,-7.487004,-36.130887,21,117.51539
1,Boquim/SE,-11.1450175,-37.6204228,1486,5524.36894
D1,Boquim/SE,-11.1450175,-37.6204228,30,111.52831
1,Boquira/BA,-12.8184859,-42.7270883,385,1790.94757
D1,Boquira/BA,-12.8184859,-42.7270883,5,23.25906
1,Boracéia/SP,-22.195355,-48.7801925,705,14482.33361
D1,Boracéia/SP,-22.195355,-48.7801925,14,287.59244
1,Borba/AM,-4.3934778,-59.5947721,1565,3748.68257
D1,Borba/AM,-4.3934778,-59.5947721,49,117.37089
1,Borborema/PB,-6.8066718,-35.5990191,169,3196.51977
D1,Borborema/PB,-6.8066718,-35.5990191,3,56.74295
1,Borborema/SP,-21.6212706,-49.074135,752,4652.31378
D1,Borborema/SP,-21.6212706,-49.074135,25,154.66469
1,Borda da Mata/MG,-22.274167,-46.165278,903,4603.85439
D1,Borda da Mata/MG,-22.274167,-46.165278,26,132.55838
1,Borebi/SP,-22.5700178,-48.9714871,113,4211.70332
D1,Borebi/SP,-22.5700178,-48.9714871,2,74.54342
1,Borrazópolis/PR,-23.9393362,-51.5850786,460,7143.96645
D1,Borrazópolis/PR,-23.9393362,-51.5850786,13,201.89470
1,Borá/SP,-22.2701088,-50.544407,41,4892.60143
D1,Borá/SP,-22.2701088,-50.544407,1,119.33174
1,Bossoroca/RS,-28.7278885,-54.9120278,149,2401.28928
D1,Bossoroca/RS,-28.7278885,-54.9120278,16,257.85657
1,Botelhos/MG,-21.65,-46.394722,753,5037.12623
D1,Botelhos/MG,-21.65,-46.394722,6,40.13646
1,Botucatu/SP,-22.8879628,-48.4410712,10081,6805.50867
D1,Botucatu/SP,-22.8879628,-48.4410712,157,105.98798
1,Botumirim/MG,-16.862778,-43.011111,140,2226.46310
D1,Botumirim/MG,-16.862778,-43.011111,2,31.80662
1,Botuporã/BA,-13.3744752,-42.5198469,176,1737.58515
D1,Botuporã/BA,-13.3744752,-42.5198469,3,29.61793
1,Botuverá/SC,-27.200749,-49.068892,765,14374.29538
D1,Botuverá/SC,-27.200749,-49.068892,7,131.52950
1,Bozano/RS,-28.3669953,-53.7705165,187,8858.36097
D1,Bozano/RS,-28.3669953,-53.7705165,6,284.22549
1,Braga/RS,-27.617348,-53.740514,118,3563.87798
D1,Braga/RS,-27.617348,-53.740514,3,90.60707
1,Braganey/PR,-24.8179919,-53.118506,280,5202.52694
D1,Braganey/PR,-24.8179919,-53.118506,6,111.48272
1,Bragança Paulista/SP,-22.9520235,-46.5418586,9884,5795.94565
D1,Bragança Paulista/SP,-22.9520235,-46.5418586,250,146.59919
1,Bragança/PA,-1.0573967,-46.7635406,3330,2583.11743
D1,Bragança/PA,-1.0573967,-46.7635406,109,84.55249
1,Branquinha/AL,-9.2478057,-36.0152009,372,3556.40535
D1,Branquinha/AL,-9.2478057,-36.0152009,9,86.04207
1,Brasil Novo/PA,-3.3055853,-52.539198,1151,7682.03964
D1,Brasil Novo/PA,-3.3055853,-52.539198,23,153.50731
1,Brasileira/PI,-4.131182,-41.7824969,380,4552.53384
D1,Brasileira/PI,-4.131182,-41.7824969,8,95.84282
1,Brasilândia de Minas/MG,-17.0096469,-46.0087183,737,4400.52544
D1,Brasilândia de Minas/MG,-17.0096469,-46.0087183,9,53.73776
1,Brasilândia do Sul/PR,-24.1975793,-53.527551,261,10096.71180
D1,Brasilândia do Sul/PR,-24.1975793,-53.527551,7,270.79304
1,Brasilândia do Tocantins/TO,-8.3886619,-48.4842729,107,4839.43917
D1,Brasilândia do Tocantins/TO,-8.3886619,-48.4842729,1,45.22840
1,Brasilândia/MS,-21.255575,-52.0365617,417,3518.09668
D1,Brasilândia/MS,-21.255575,-52.0365617,10,84.36683
1,Brasiléia/AC,-11.0010413,-68.7487894,2107,7890.79470
D1,Brasiléia/AC,-11.0010413,-68.7487894,29,108.60610
1,Brasnorte/MT,-12.1227151,-58.0050109,1356,6732.86991
D1,Brasnorte/MT,-12.1227151,-58.0050109,18,89.37438
1,Brasília de Minas/MG,-16.2075114,-44.430559,642,1981.17574
D1,Brasília de Minas/MG,-16.2075114,-44.430559,5,15.42972
1,Brasília/DF,-15.7934036,-47.8823172,345682,11314.73457
D1,Brasília/DF,-15.7934036,-47.8823172,6150,201.29951
1,Brazabrantes/GO,-16.4291635,-49.3858216,331,8836.09183
D1,Brazabrantes/GO,-16.4291635,-49.3858216,2,53.39028
1,Brazópolis/MG,-22.4742842,-45.6165577,563,3907.00902
D1,Brazópolis/MG,-22.4742842,-45.6165577,21,145.73213
1,Braço do Norte/SC,-28.2728633,-49.1622712,6490,19158.10603
D1,Braço do Norte/SC,-28.2728633,-49.1622712,57,168.26072
1,Braço do Trombudo/SC,-27.358578,-49.882145,490,13000.79597
D1,Braço do Trombudo/SC,-27.358578,-49.882145,3,79.59671
1,Braúna/SP,-21.5015319,-50.3175246,320,5573.94182
D1,Braúna/SP,-21.5015319,-50.3175246,12,209.02282
1,Braúnas/MG,-19.055556,-42.716111,132,2767.87586
D1,Braúnas/MG,-19.055556,-42.716111,5,104.84378
1,Brejetuba/ES,-20.1465817,-41.2902303,1316,10589.84469
D1,Brejetuba/ES,-20.1465817,-41.2902303,11,88.51694
1,Brejinho de Nazaré/TO,-11.0205883,-48.5722906,290,5254.57510
D1,Brejinho de Nazaré/TO,-11.0205883,-48.5722906,7,126.83457
1,Brejinho/PE,-7.3482153,-37.28538,369,4927.88462
D1,Brejinho/PE,-7.3482153,-37.28538,4,53.41880
1,Brejinho/RN,-6.1957907,-35.3583019,704,5505.59162
D1,Brejinho/RN,-6.1957907,-35.3583019,6,46.92266
1,Brejo Alegre/SP,-21.1671191,-50.1850393,238,8238.14469
D1,Brejo Alegre/SP,-21.1671191,-50.1850393,10,346.14053
1,Brejo Grande do Araguaia/PA,-5.7011449,-48.4037308,722,9799.13138
D1,Brejo Grande do Araguaia/PA,-5.7011449,-48.4037308,4,54.28882
1,Brejo Grande/SE,-10.4287358,-36.4667918,269,3220.39986
D1,Brejo Grande/SE,-10.4287358,-36.4667918,10,119.71747
1,Brejo Santo/CE,-7.4909841,-38.9859152,5390,10814.17279
D1,Brejo Santo/CE,-7.4909841,-38.9859152,72,144.45648
1,Brejo da Madre de Deus/PE,-8.1409718,-36.3712527,1512,2951.68375
D1,Brejo da Madre de Deus/PE,-8.1409718,-36.3712527,41,80.03904
1,Brejo de Areia/MA,-4.3316785,-45.5833334,280,3106.27912
D1,Brejo de Areia/MA,-4.3316785,-45.5833334,7,77.65698
1,Brejo do Cruz/PB,-6.32926065,-37.48746163303929,1222,8601.99916
D1,Brejo do Cruz/PB,-6.32926065,-37.48746163303929,19,133.74630
1,Brejo do Piauí/PI,-8.207583,-42.8359849,58,1507.27651
D1,Brejo do Piauí/PI,-8.207583,-42.8359849,3,77.96258
1,Brejo dos Santos/PB,-6.3769367,-37.8243125,314,4857.67327
D1,Brejo dos Santos/PB,-6.3769367,-37.8243125,4,61.88119
1,Brejo/MA,-3.6804397,-42.7529313,765,2087.25546
D1,Brejo/MA,-3.6804397,-42.7529313,18,49.11189
1,Brejolândia/BA,-12.4843845,-43.9611861,129,1214.91806
D1,Brejolândia/BA,-12.4843845,-43.9611861,8,75.34376
1,Brejão/PE,-9.029146,-36.566034,139,1546.67854
D1,Brejão/PE,-9.029146,-36.566034,4,44.50873
1,Brejões/BA,-13.1033754,-39.7909837,495,3480.52313
D1,Brejões/BA,-13.1033754,-39.7909837,7,49.21952
1,Breu Branco/PA,-3.7785073,-49.5684795,533,791.59983
D1,Breu Branco/PA,-3.7785073,-49.5684795,31,46.04052
1,Breves/PA,-1.68036,-50.479085,3648,3524.73985
D1,Breves/PA,-1.68036,-50.479085,103,99.51979
1,Britânia/GO,-15.2427599,-51.1602061,394,6796.61894
D1,Britânia/GO,-15.2427599,-51.1602061,2,34.50060
1,Brochier/RS,-29.556766,-51.5963047,316,6191.22257
D1,Brochier/RS,-29.556766,-51.5963047,1,19.59248
1,Brodowski/SP,-20.984532,-47.657217,1524,6029.19650
D1,Brodowski/SP,-20.984532,-47.657217,38,150.33430
1,Brotas de Macaúbas/BA,-12.0019007,-42.6257506,56,552.81343
D1,Brotas de Macaúbas/BA,-12.0019007,-42.6257506,1,9.87167
1,Brotas/SP,-22.2840884,-48.1267265,340,1380.09417
D1,Brotas/SP,-22.2840884,-48.1267265,16,64.94561
1,Brumadinho/MG,-20.143611,-44.2,2478,6093.54252
D1,Brumadinho/MG,-20.143611,-44.2,44,108.19850
1,Brumado/BA,-14.29507325,-41.659307508575985,7036,10449.24631
D1,Brumado/BA,-14.29507325,-41.659307508575985,113,167.81763
1,Brunópolis/SC,-27.310953,-50.837585,156,6587.83784
D1,Brunópolis/SC,-27.310953,-50.837585,4,168.91892
1,Brusque/SC,-27.0964628,-48.9136323,20269,14720.85642
D1,Brusque/SC,-27.0964628,-48.9136323,194,140.89724
1,Brás Pires/MG,-20.8483109,-43.2430524,111,2585.60447
D1,Brás Pires/MG,-20.8483109,-43.2430524,5,116.46867
1,Bueno Brandão/MG,-22.441976,-46.3517971,458,4167.04576
D1,Bueno Brandão/MG,-22.441976,-46.3517971,15,136.47530
1,Buenos Aires/PE,-7.7218931,-35.326587,178,1349.50720
D1,Buenos Aires/PE,-7.7218931,-35.326587,16,121.30402
1,Buenópolis/MG,-17.8756607,-44.1749365,225,2173.28311
D1,Buenópolis/MG,-17.8756607,-44.1749365,6,57.95422
1,Buerarema/BA,-14.9571177,-39.3008035,1142,6238.39178
D1,Buerarema/BA,-14.9571177,-39.3008035,35,191.19414
1,Bugre/MG,-19.4257687,-42.2556,332,8335.42556
D1,Bugre/MG,-19.4257687,-42.2556,10,251.06703
1,Bujari/AC,-9.8309656,-67.9520886,967,9280.23033
D1,Bujari/AC,-9.8309656,-67.9520886,12,115.16315
1,Bujaru/PA,-1.5169239,-48.0410699,1102,3744.86016
D1,Bujaru/PA,-1.5169239,-48.0410699,27,91.75247
1,Buri/SP,-23.79849,-48.598924,1698,8504.88355
D1,Buri/SP,-23.79849,-48.598924,25,125.21913
1,Buritama/SP,-21.0664017,-50.1448077,1514,8761.06707
D1,Buritama/SP,-21.0664017,-50.1448077,41,237.25479
1,Buriti Alegre/GO,-18.1377879,-49.0404411,693,7307.04344
D1,Buriti Alegre/GO,-18.1377879,-49.0404411,23,242.51371
1,Buriti Bravo/MA,-5.8391884,-43.8367876,1088,4544.88492
D1,Buriti Bravo/MA,-5.8391884,-43.8367876,10,41.77284
1,Buriti de Goiás/GO,-16.180644,-50.4287479,156,6300.48465
D1,Buriti de Goiás/GO,-16.180644,-50.4287479,3,121.16317
1,Buriti do Tocantins/TO,-5.3187439,-48.2256609,501,4357.65852
D1,Buriti do Tocantins/TO,-5.3187439,-48.2256609,3,26.09376
1,Buriti dos Lopes/PI,-3.1776723,-41.8707444,1030,5200.18175
D1,Buriti dos Lopes/PI,-3.1776723,-41.8707444,18,90.87696
1,Buriti dos Montes/PI,-5.3136171,-41.0971256,466,5638.91578
D1,Buriti dos Montes/PI,-5.3136171,-41.0971256,3,36.30203
1,Buriti/MA,-3.9430944,-42.9244281,742,2576.56782
D1,Buriti/MA,-3.9430944,-42.9244281,7,24.30724
1,Buriticupu/MA,-4.3227472,-46.4516989,2810,3850.21169
D1,Buriticupu/MA,-4.3227472,-46.4516989,33,45.21601
1,Buritinópolis/GO,-14.4589282,-46.4293104,120,3655.19342
1,Buritirama/BA,-10.7148421,-43.6362327,648,3045.68528
D1,Buritirama/BA,-10.7148421,-43.6362327,15,70.50197
1,Buritirana/MA,-5.5897455,-47.0148915,280,1810.30581
D1,Buritirana/MA,-5.5897455,-47.0148915,21,135.77294
1,Buritis/MG,-15.621389,-46.423889,943,3770.03958
D1,Buritis/MG,-15.621389,-46.423889,17,67.96466
1,Buritis/RO,-10.2054937,-63.8281954,3909,9686.29200
D1,Buritis/RO,-10.2054937,-63.8281954,49,121.41937
1,Buritizal/SP,-20.1933264,-47.7097165,138,3057.15552
D1,Buritizal/SP,-20.1933264,-47.7097165,5,110.76650
1,Buritizeiro/MG,-17.3667765,-44.9647781,752,2674.15810
D1,Buritizeiro/MG,-17.3667765,-44.9647781,17,60.45304
1,Butiá/RS,-30.1256795,-51.9692224,1270,6061.47384
D1,Butiá/RS,-30.1256795,-51.9692224,35,167.04849
1,Buíque/PE,-8.6239732,-37.157296,1613,2737.65678
D1,Buíque/PE,-8.6239732,-37.157296,28,47.52287
1,Bálsamo/SP,-20.7343722,-49.5807484,1111,12156.69110
D1,Bálsamo/SP,-20.7343722,-49.5807484,37,404.85830
0,CASO SEM LOCALIZAÇÃO DEFINIDA/AL,-9.931093434363673,-35.609611600637464,2,0.05993
D0,CASO SEM LOCALIZAÇÃO DEFINIDA/AL,-9.931093434363673,-35.609611600637464,2,0.05993
0,CASO SEM LOCALIZAÇÃO DEFINIDA/BA,-13.415069300066518,-38.14174656569957,13101,88.08541
D0,CASO SEM LOCALIZAÇÃO DEFINIDA/BA,-13.415069300066518,-38.14174656569957,193,1.29765
0,CASO SEM LOCALIZAÇÃO DEFINIDA/CE,-3.3445126297392798,-38.624961942434304,10389,113.76381
D0,CASO SEM LOCALIZAÇÃO DEFINIDA/CE,-3.3445126297392798,-38.624961942434304,101,1.10599
0,CASO SEM LOCALIZAÇÃO DEFINIDA/ES,-20.30989267097039,-39.81745156645774,3036,75.54776
D0,CASO SEM LOCALIZAÇÃO DEFINIDA/ES,-20.30989267097039,-39.81745156645774,148,3.68283
0,CASO SEM LOCALIZAÇÃO DEFINIDA/GO,-16.701590966270153,-49.164524059025034,1012,14.41934
D0,CASO SEM LOCALIZAÇÃO DEFINIDA/GO,-16.701590966270153,-49.164524059025034,69,0.98314
0,CASO SEM LOCALIZAÇÃO DEFINIDA/MG,-19.97049116501593,-43.8852149072783,15988,75.52628
D0,CASO SEM LOCALIZAÇÃO DEFINIDA/MG,-19.97049116501593,-43.8852149072783,684,3.23117
0,CASO SEM LOCALIZAÇÃO DEFINIDA/MT,-15.54791153961863,-56.17143998972475,1902,54.58512
D0,CASO SEM LOCALIZAÇÃO DEFINIDA/MT,-15.54791153961863,-56.17143998972475,137,3.93174
0,CASO SEM LOCALIZAÇÃO DEFINIDA/PA,-0.09317078214359542,-48.0050231510481,1594,18.52871
D0,CASO SEM LOCALIZAÇÃO DEFINIDA/PA,-0.09317078214359542,-48.0050231510481,116,1.34839
0,CASO SEM LOCALIZAÇÃO DEFINIDA/PE,-8.121628543819208,-34.57313921302556,1779,18.61449
D0,CASO SEM LOCALIZAÇÃO DEFINIDA/PE,-8.121628543819208,-34.57313921302556,46,0.48132
0,CASO SEM LOCALIZAÇÃO DEFINIDA/PI,-2.683810218391744,-41.470898009352254,1206,36.84437
D0,CASO SEM LOCALIZAÇÃO DEFINIDA/PI,-2.683810218391744,-41.470898009352254,40,1.22204
0,CASO SEM LOCALIZAÇÃO DEFINIDA/PR,-25.69415946385943,-48.10141676336737,5377,47.02659
D0,CASO SEM LOCALIZAÇÃO DEFINIDA/PR,-25.69415946385943,-48.10141676336737,117,1.02327
0,CASO SEM LOCALIZAÇÃO DEFINIDA/RN,-5.749310788669161,-34.95302586257457,735,20.95896
D0,CASO SEM LOCALIZAÇÃO DEFINIDA/RN,-5.749310788669161,-34.95302586257457,2,0.05703
0,CASO SEM LOCALIZAÇÃO DEFINIDA/RR,2.813328208465927,-60.663338675861986,2489,410.88812
D0,CASO SEM LOCALIZAÇÃO DEFINIDA/RR,2.813328208465927,-60.663338675861986,13,2.14606
0,CASO SEM LOCALIZAÇÃO DEFINIDA/SP,-24.30968974555485,-46.21366504207253,423,0.92119
1,Caapiranga/AM,-3.3188884,-61.2096404,542,4080.40352
D1,Caapiranga/AM,-3.3188884,-61.2096404,20,150.56840
1,Caaporã/PB,-7.510234,-34.9154114,1365,6217.26258
D1,Caaporã/PB,-7.510234,-34.9154114,23,104.75974
1,Caarapó/MS,-22.6349267,-54.8240903,2364,7727.25787
D1,Caarapó/MS,-22.6349267,-54.8240903,19,62.10571
1,Caatiba/BA,-14.9782759,-40.4092325,603,9294.08138
D1,Caatiba/BA,-14.9782759,-40.4092325,7,107.89149
1,Cabaceiras do Paraguaçu/BA,-12.5377868,-39.1901339,381,2014.70044
D1,Cabaceiras do Paraguaçu/BA,-12.5377868,-39.1901339,3,15.86378
1,Cabaceiras/PB,-7.4899156,-36.2860501,294,5193.42872
D1,Cabaceiras/PB,-7.4899156,-36.2860501,1,17.66472
1,Cabeceira Grande/MG,-16.0297,-47.0906,212,3033.77218
D1,Cabeceira Grande/MG,-16.0297,-47.0906,3,42.93074
1,Cabeceiras do Piauí/PI,-4.4733665,-42.3098716,384,3612.41769
D1,Cabeceiras do Piauí/PI,-4.4733665,-42.3098716,8,75.25870
1,Cabeceiras/GO,-15.7995459,-46.9264991,226,2808.84912
D1,Cabeceiras/GO,-15.7995459,-46.9264991,8,99.42829
1,Cabedelo/PB,-6.97324,-34.8351609,6607,9607.80607
D1,Cabedelo/PB,-6.97324,-34.8351609,144,209.40277
1,Cabixi/RO,-13.4956065,-60.5424442,559,10774.86507
D1,Cabixi/RO,-13.4956065,-60.5424442,13,250.57826
1,Cabo Frio/RJ,-22.8804369,-42.0189227,8591,3729.08872
D1,Cabo Frio/RJ,-22.8804369,-42.0189227,388,168.41886
1,Cabo Verde/MG,-21.4743338,-46.3964995,298,2117.22913
D1,Cabo Verde/MG,-21.4743338,-46.3964995,5,35.52398
1,Cabo de Santo Agostinho/PE,-8.2838945,-35.0320984,3733,1786.60311
D1,Cabo de Santo Agostinho/PE,-8.2838945,-35.0320984,338,161.76583
1,Cabreúva/SP,-23.3075813,-47.1324417,2702,5358.02812
D1,Cabreúva/SP,-23.3075813,-47.1324417,61,120.96214
1,Cabrobó/PE,-8.5083701,-39.3106961,1262,3657.65296
D1,Cabrobó/PE,-8.5083701,-39.3106961,13,37.67788
1,Cabrália Paulista/SP,-22.4562909,-49.3385645,186,4383.69078
D1,Cabrália Paulista/SP,-22.4562909,-49.3385645,2,47.13646
1,Cacaulândia/RO,-10.3380043,-62.9007231,645,10288.72228
D1,Cacaulândia/RO,-10.3380043,-62.9007231,8,127.61206
1,Cacequi/RS,-29.8838059,-54.8273443,137,1102.79321
D1,Cacequi/RS,-29.8838059,-54.8273443,4,32.19834
1,Cachoeira Alta/GO,-18.7618269,-50.9432431,1018,8037.26512
D1,Cachoeira Alta/GO,-18.7618269,-50.9432431,14,110.53213
1,Cachoeira Dourada/GO,-18.4934204,-49.481062,313,3897.39758
D1,Cachoeira Dourada/GO,-18.4934204,-49.481062,7,87.16225
1,Cachoeira Dourada/MG,-18.517136,-49.5002062,122,4508.49963
D1,Cachoeira Dourada/MG,-18.517136,-49.5002062,2,73.90983
1,Cachoeira Grande/MA,-2.9290492,-44.0573223,203,2141.80207
D1,Cachoeira Grande/MA,-2.9290492,-44.0573223,5,52.75375
1,Cachoeira Paulista/SP,-22.666498,-45.015384,1461,4350.67449
D1,Cachoeira Paulista/SP,-22.666498,-45.015384,27,80.40261
1,Cachoeira da Prata/MG,-19.524723,-44.453056,192,5346.70008
D1,Cachoeira da Prata/MG,-19.524723,-44.453056,3,83.54219
1,Cachoeira de Goiás/GO,-16.6688414,-50.6435997,41,3055.14158
1,Cachoeira de Minas/MG,-22.3554043,-45.7796324,461,3981.34554
D1,Cachoeira de Minas/MG,-22.3554043,-45.7796324,5,43.18162
1,Cachoeira de Pajeú/MG,-15.965833,-41.496666,293,3103.15611
D1,Cachoeira de Pajeú/MG,-15.965833,-41.496666,6,63.54586
1,Cachoeira do Arari/PA,-1.0143572,-48.9621089,350,1454.45479
D1,Cachoeira do Arari/PA,-1.0143572,-48.9621089,15,62.33378
1,Cachoeira do Piriá/PA,-1.7599443,-46.5446954,666,1924.35494
D1,Cachoeira do Piriá/PA,-1.7599443,-46.5446954,3,8.66827
1,Cachoeira do Sul/RS,-30.0474778,-52.8905413,4974,6075.55974
D1,Cachoeira do Sul/RS,-30.0474778,-52.8905413,76,92.83123
1,Cachoeira dos Índios/PB,-6.9259193,-38.6742159,496,4813.19748
D1,Cachoeira dos Índios/PB,-6.9259193,-38.6742159,13,126.15235
1,Cachoeira/BA,-12.5998256,-38.9665918,1096,3265.11157
D1,Cachoeira/BA,-12.5998256,-38.9665918,17,50.64498
1,Cachoeiras de Macacu/RJ,-22.4626861,-42.6534414,2108,3554.62624
D1,Cachoeiras de Macacu/RJ,-22.4626861,-42.6534414,65,109.60660
1,Cachoeirinha/PE,-8.4906364,-36.2338963,352,1716.98942
D1,Cachoeirinha/PE,-8.4906364,-36.2338963,22,107.31184
1,Cachoeirinha/RS,-29.9493353,-51.0898927,9697,7388.75343
D1,Cachoeirinha/RS,-29.9493353,-51.0898927,289,220.20725
1,Cachoeirinha/TO,-6.118647,-47.9208885,116,5078.80911
D1,Cachoeirinha/TO,-6.118647,-47.9208885,2,87.56567
1,Cachoeiro de Itapemirim/ES,-20.848084,-41.11129,20161,9573.62445
D1,Cachoeiro de Itapemirim/ES,-20.848084,-41.11129,385,182.82057
1,Cacimba de Areia/PB,-7.1288513,-37.1575194,26,703.65359
D1,Cacimba de Areia/PB,-7.1288513,-37.1575194,1,27.06360
1,Cacimba de Dentro/PB,-6.6425101,-35.7929304,808,4703.69077
D1,Cacimba de Dentro/PB,-6.6425101,-35.7929304,21,122.24939
1,Cacimbas/PB,-7.2125451,-37.0593398,183,2542.01972
D1,Cacimbas/PB,-7.2125451,-37.0593398,6,83.34491
1,Cacimbinhas/AL,-9.401212,-36.991082,440,4040.77509
D1,Cacimbinhas/AL,-9.401212,-36.991082,6,55.10148
1,Cacique Doble/RS,-27.7700117,-51.6616409,275,5419.78715
D1,Cacique Doble/RS,-27.7700117,-51.6616409,4,78.83327
1,Cacoal/RO,-11.4333,-61.4420502,9743,11343.18280
D1,Cacoal/RO,-11.4333,-61.4420502,150,174.63588
1,Caconde/SP,-21.527995,-46.643659,827,4350.57078
D1,Caconde/SP,-21.527995,-46.643659,9,47.34599
1,Caculé/BA,-14.4990734,-42.2233006,1017,4366.49350
D1,Caculé/BA,-14.4990734,-42.2233006,10,42.93504
1,Caetanos/BA,-14.3387456,-40.9085971,471,3224.26068
D1,Caetanos/BA,-14.3387456,-40.9085971,6,41.07338
1,Caetanópolis/MG,-19.2947496,-44.4138386,646,5498.34028
D1,Caetanópolis/MG,-19.2947496,-44.4138386,5,42.55681
1,Caetité/BA,-14.0691776,-42.4852428,1607,3145.98383
D1,Caetité/BA,-14.0691776,-42.4852428,13,25.44978
1,Caeté/MG,-19.897777,-43.670278,1237,2746.02082
D1,Caeté/MG,-19.897777,-43.670278,35,77.69663
1,Caetés/PE,-8.7728788,-36.6255835,988,3418.21201
D1,Caetés/PE,-8.7728788,-36.6255835,11,38.05702
1,Cafarnaum/BA,-11.691399,-41.468823,724,3910.76541
D1,Cafarnaum/BA,-11.691399,-41.468823,15,81.02415
1,Cafeara/PR,-22.78905,-51.714195,207,7007.44753
D1,Cafeara/PR,-22.78905,-51.714195,4,135.40961
1,Cafelândia/PR,-24.6176963,-53.3218057,1261,6832.46641
D1,Cafelândia/PR,-24.6176963,-53.3218057,9,48.76463
1,Cafelândia/SP,-21.8054355,-49.6030627,624,3497.16976
D1,Cafelândia/SP,-21.8054355,-49.6030627,27,151.31985
1,Cafezal do Sul/PR,-23.900508,-53.512418,181,4514.84161
D1,Cafezal do Sul/PR,-23.900508,-53.512418,1,24.94388
1,Caiabu/SP,-22.0143038,-51.2356597,61,1454.80563
D1,Caiabu/SP,-22.0143038,-51.2356597,4,95.39709
1,Caiana/MG,-20.695555,-41.924723,108,1949.10666
D1,Caiana/MG,-20.695555,-41.924723,2,36.09457
1,Caiapônia/GO,-16.9538779,-51.8090761,792,4145.07772
D1,Caiapônia/GO,-16.9538779,-51.8090761,23,120.37473
1,Caibaté/RS,-28.290475,-54.645407,111,2301.47211
D1,Caibaté/RS,-28.290475,-54.645407,7,145.13788
1,Caibi/SC,-27.0751925,-53.2502133,482,7862.96900
D1,Caibi/SC,-27.0751925,-53.2502133,8,130.50571
1,Caicó/RN,-6.4594544,-37.0971911,8336,12197.29892
D1,Caicó/RN,-6.4594544,-37.0971911,98,143.39435
1,Caieiras/SP,-23.3644621,-46.7484765,5372,5226.95208
D1,Caieiras/SP,-23.3644621,-46.7484765,171,166.38288
1,Cairu/BA,-13.4860505,-39.0455744,986,5350.84387
D1,Cairu/BA,-13.4860505,-39.0455744,9,48.84137
1,Caiuá/SP,-21.8319357,-51.9887179,201,3380.42381
D1,Caiuá/SP,-21.8319357,-51.9887179,3,50.45409
1,Caiçara do Norte/RN,-5.0645017,-36.0561226,235,3581.77107
D1,Caiçara do Norte/RN,-5.0645017,-36.0561226,5,76.20790
1,Caiçara do Rio do Vento/RN,-5.757968,-36.00089,173,4656.79677
D1,Caiçara do Rio do Vento/RN,-5.757968,-36.00089,5,134.58950
1,Caiçara/PB,-6.6146866,-35.4681434,562,7815.32471
D1,Caiçara/PB,-6.6146866,-35.4681434,11,152.96899
1,Caiçara/RS,-27.2750478,-53.4310053,380,8085.10638
D1,Caiçara/RS,-27.2750478,-53.4310053,7,148.93617
1,Cajamar/SP,-23.3561111,-46.8769444,2873,3686.45264
D1,Cajamar/SP,-23.3561111,-46.8769444,113,144.99448
1,Cajapió/MA,-2.8778715,-44.6746871,67,597.36091
D1,Cajapió/MA,-2.8778715,-44.6746871,3,26.74750
1,Cajari/MA,-3.3213076,-45.0118757,136,699.19284
D1,Cajari/MA,-3.3213076,-45.0118757,4,20.56450
1,Cajati/SP,-24.7272376,-48.1077914,2730,9580.96441
D1,Cajati/SP,-24.7272376,-48.1077914,62,217.58967
1,Cajazeiras do Piauí/PI,-6.794271,-42.3935024,30,839.63056
D1,Cajazeiras do Piauí/PI,-6.794271,-42.3935024,1,27.98769
1,Cajazeiras/PB,-6.8897849,-38.5570389,5849,9390.10098
D1,Cajazeiras/PB,-6.8897849,-38.5570389,107,171.77993
1,Cajazeirinhas/PB,-6.961442,-37.7993733,106,3307.33229
1,Cajobi/SP,-20.8776238,-48.8106972,580,5473.76368
D1,Cajobi/SP,-20.8776238,-48.8106972,21,198.18800
1,Cajueiro da Praia/PI,-2.931114,-41.340801,463,6033.35940
D1,Cajueiro da Praia/PI,-2.931114,-41.340801,12,156.37217
1,Cajueiro/AL,-9.399589,-36.1524309,461,2161.17388
D1,Cajueiro/AL,-9.399589,-36.1524309,18,84.38423
1,Cajuri/MG,-20.7901414,-42.7954489,198,4982.38551
D1,Cajuri/MG,-20.7901414,-42.7954489,1,25.16356
1,Cajuru/SP,-21.2759978,-47.3046035,571,2163.45243
D1,Cajuru/SP,-21.2759978,-47.3046035,19,71.98878
1,Caldas Brandão/PB,-7.1027959,-35.3254676,424,7012.90109
D1,Caldas Brandão/PB,-7.1027959,-35.3254676,6,99.23917
1,Caldas Novas/GO,-17.745,-48.625,6333,6795.35602
D1,Caldas Novas/GO,-17.745,-48.625,138,148.07502
1,Caldas/MG,-21.923611,-46.386111,502,3452.30727
D1,Caldas/MG,-21.923611,-46.386111,13,89.40238
1,Caldazinha/GO,-16.7116649,-49.0012601,186,4833.67983
D1,Caldazinha/GO,-16.7116649,-49.0012601,2,51.97505
1,Caldeirão Grande do Piauí/PI,-7.3310393,-40.6374433,250,4324.51133
D1,Caldeirão Grande do Piauí/PI,-7.3310393,-40.6374433,2,34.59609
1,Caldeirão Grande/BA,-11.0208483,-40.3041387,533,3980.28527
D1,Caldeirão Grande/BA,-11.0208483,-40.3041387,6,44.80621
1,Califórnia/PR,-23.6672543,-51.3554556,661,7680.68789
D1,Califórnia/PR,-23.6672543,-51.3554556,12,139.43760
1,Calmon/SC,-26.6023644,-51.0992893,21,629.68516
D1,Calmon/SC,-26.6023644,-51.0992893,2,59.97001
1,Calumbi/PE,-7.9389746,-38.1516871,378,6577.34470
D1,Calumbi/PE,-7.9389746,-38.1516871,2,34.80077
1,Calçado/PE,-8.7413446,-36.3351787,288,2613.90452
D1,Calçado/PE,-8.7413446,-36.3351787,2,18.15211
1,Calçoene/AP,2.4981757,-50.9539503,1578,13957.19087
D1,Calçoene/AP,2.4981757,-50.9539503,9,79.60375
1,Camacan/BA,-15.4166631,-39.4930088,2198,6867.46235
D1,Camacan/BA,-15.4166631,-39.4930088,50,156.22071
1,Camacho/MG,-20.625556,-45.156667,49,1707.91216
D1,Camacho/MG,-20.625556,-45.156667,1,34.85535
1,Camalaú/PB,-7.885031,-36.824191,299,4957.71845
D1,Camalaú/PB,-7.885031,-36.824191,5,82.90499
1,Camamu/BA,-13.9438142,-39.1060917,1830,5172.12142
D1,Camamu/BA,-13.9438142,-39.1060917,36,101.74665
1,Camanducaia/MG,-22.755278,-46.144444,2130,9770.19403
D1,Camanducaia/MG,-22.755278,-46.144444,35,160.54309
1,Camapuã/MS,-19.5291747,-54.0434641,481,3512.74374
D1,Camapuã/MS,-19.5291747,-54.0434641,15,109.54502
1,Camaquã/RS,-30.8524752,-51.8075619,4191,6304.34129
D1,Camaquã/RS,-30.8524752,-51.8075619,87,130.87036
1,Camaragibe/PE,-8.0213832,-34.9810768,3970,2498.44241
D1,Camaragibe/PE,-8.0213832,-34.9810768,267,168.03127
1,Camargo/RS,-28.5865661,-52.2031474,268,9773.88767
D1,Camargo/RS,-28.5865661,-52.2031474,4,145.87892
1,Camaçari/BA,-12.6998188,-38.3260762,18617,6117.93547
D1,Camaçari/BA,-12.6998188,-38.3260762,418,137.36354
1,Cambará do Sul/RS,-29.0489517,-50.145412,278,4339.68155
D1,Cambará do Sul/RS,-29.0489517,-50.145412,4,62.44146
1,Cambará/PR,-23.042273,-50.075281,1552,6094.40038
D1,Cambará/PR,-23.042273,-50.075281,19,74.60928
1,Cambira/PR,-23.600265,-51.581045,510,6441.83403
D1,Cambira/PR,-23.600265,-51.581045,12,151.57257
1,Camboriú/SC,-27.0273601,-48.6535657,10378,12194.34816
D1,Camboriú/SC,-27.0273601,-48.6535657,122,143.35233
1,Cambuci/RJ,-21.5749919,-41.9107833,598,3854.58296
D1,Cambuci/RJ,-21.5749919,-41.9107833,15,96.68686
1,Cambuquira/MG,-21.853056,-45.2953619,312,2435.21698
D1,Cambuquira/MG,-21.853056,-45.2953619,8,62.44146
1,Cambuí/MG,-22.6122501,-46.0572137,1867,6262.15872
D1,Cambuí/MG,-22.6122501,-46.0572137,29,97.26974
1,Cambé/PR,-23.2782035,-51.2779583,8177,7617.77885
D1,Cambé/PR,-23.2782035,-51.2779583,130,121.10936
1,Cametá/PA,-2.242949,-49.497885,6511,4671.93823
D1,Cametá/PA,-2.242949,-49.497885,153,109.78445
1,Camocim de São Félix/PE,-8.3616757,-35.7638903,370,1957.67196
D1,Camocim de São Félix/PE,-8.3616757,-35.7638903,11,58.20106
1,Camocim/CE,-2.9009918,-40.8427389,3616,5658.22210
D1,Camocim/CE,-2.9009918,-40.8427389,108,168.99557
1,Campanha/MG,-21.8361108,-45.401986,926,5524.40043
D1,Campanha/MG,-21.8361108,-45.401986,21,125.28338
1,Campanário/MG,-18.2398144,-41.7271768,140,3753.35121
D1,Campanário/MG,-18.2398144,-41.7271768,1,26.80965
1,Campestre da Serra/RS,-28.7966535,-51.0958149,131,3858.61561
1,Campestre de Goiás/GO,-16.7624179,-49.69497,357,9783.50233
D1,Campestre de Goiás/GO,-16.7624179,-49.69497,8,219.23815
1,Campestre do Maranhão/MA,-6.1729113,-47.3640512,817,5652.80565
D1,Campestre do Maranhão/MA,-6.1729113,-47.3640512,34,235.24528
1,Campestre/AL,-8.8481634,-35.5660033,220,3163.64682
D1,Campestre/AL,-8.8481634,-35.5660033,6,86.28128
1,Campestre/MG,-19.6142116,-43.219378,709,3367.53111
D1,Campestre/MG,-19.6142116,-43.219378,11,52.24660
1,Campina Grande do Sul/PR,-25.3046032,-49.0545355,3860,8835.98489
D1,Campina Grande do Sul/PR,-25.3046032,-49.0545355,61,139.63603
1,Campina Grande/PB,-7.2246743,-35.8771292,23800,5779.40637
D1,Campina Grande/PB,-7.2246743,-35.8771292,676,164.15457
1,Campina Verde/MG,-19.535277,-49.486389,611,3093.35763
D1,Campina Verde/MG,-19.535277,-49.486389,21,106.31835
1,Campina da Lagoa/PR,-24.5937926,-52.8038965,642,4571.67272
D1,Campina da Lagoa/PR,-24.5937926,-52.8038965,13,92.57281
1,Campina das Missões/RS,-27.9883295,-54.8411665,339,6280.10374
D1,Campina das Missões/RS,-27.9883295,-54.8411665,7,129.67766
1,Campina do Monte Alegre/SP,-23.5935653,-48.4801876,294,4853.88806
D1,Campina do Monte Alegre/SP,-23.5935653,-48.4801876,1,16.50982
1,Campina do Simão/PR,-25.1086375,-51.8076658,188,4871.72843
D1,Campina do Simão/PR,-25.1086375,-51.8076658,6,155.48069
1,Campinas do Piauí/PI,-7.6593687,-41.8814875,136,2419.92883
D1,Campinas do Piauí/PI,-7.6593687,-41.8814875,1,17.79359
1,Campinas do Sul/RS,-27.7167968,-52.6257885,362,6656.85914
