type,name,lat,lon,total,total_per_100k_inhabitants
1,Abadia de Goiás/GO,-16.7572644,-49.4412205,2853,31153.09019
D1,Abadia de Goiás/GO,-16.7572644,-49.4412205,46,502.29308
1,Abadia dos Dourados/MG,-18.4911191,-47.4063589,1448,20620.90572
D1,Abadia dos Dourados/MG,-18.4911191,-47.4063589,20,284.81914
1,Abadiânia/GO,-16.1940946,-48.7067767,1549,7421.07028
D1,Abadiânia/GO,-16.1940946,-48.7067767,52,249.12566
1,Abaetetuba/PA,-1.721828,-48.878843,10670,6650.50268
D1,Abaetetuba/PA,-1.721828,-48.878843,235,146.47311
1,Abaeté/MG,-19.1566833,-45.4481213,3215,13820.22955
D1,Abaeté/MG,-19.1566833,-45.4481213,49,210.63491
1,Abaiara/CE,-7.3607808,-39.0487878,987,8249.05976
D1,Abaiara/CE,-7.3607808,-39.0487878,19,158.79649
1,Abaré/BA,-8.7239913,-39.1139689,2240,10876.95445
D1,Abaré/BA,-8.7239913,-39.1139689,17,82.54832
1,Abatiá/PR,-23.3052967,-50.3102532,1564,21250.00000
D1,Abatiá/PR,-23.3052967,-50.3102532,23,312.50000
1,Abaíra/BA,-13.2503296,-41.6640342,330,3801.40537
D1,Abaíra/BA,-13.2503296,-41.6640342,17,195.82997
1,Abdon Batista/SC,-27.612419,-51.022992,510,20126.28256
D1,Abdon Batista/SC,-27.612419,-51.022992,4,157.85320
1,Abel Figueiredo/PA,-4.953001,-48.3958485,1411,18723.46072
D1,Abel Figueiredo/PA,-4.953001,-48.3958485,12,159.23567
1,Abelardo Luz/SC,-26.5705893,-52.3280339,2115,11740.21649
D1,Abelardo Luz/SC,-26.5705893,-52.3280339,68,377.46323
1,Abre Campo/MG,-20.2976097,-42.4764741,1917,14269.76329
D1,Abre Campo/MG,-20.2976097,-42.4764741,19,141.43219
1,Abreu e Lima/PE,-7.900719,-34.898389,4698,4665.43526
D1,Abreu e Lima/PE,-7.900719,-34.898389,254,252.23937
1,Abreulândia/TO,-9.6221526,-49.1558343,446,17094.67229
D1,Abreulândia/TO,-9.6221526,-49.1558343,8,306.63089
1,Acaiaca/MG,-20.3621646,-43.1444162,270,6758.44806
D1,Acaiaca/MG,-20.3621646,-43.1444162,12,300.37547
1,Acajutiba/BA,-11.6609659,-38.0186381,627,4121.20415
D1,Acajutiba/BA,-11.6609659,-38.0186381,26,170.89523
1,Acarape/CE,-4.2237866,-38.7071663,3174,20964.33289
D1,Acarape/CE,-4.2237866,-38.7071663,36,237.78071
1,Acaraú/CE,-2.8869514,-40.1194713,6585,10360.94153
D1,Acaraú/CE,-2.8869514,-40.1194713,120,188.80987
1,Acari/RN,-6.4364689,-36.6394777,1329,11966.50459
D1,Acari/RN,-6.4364689,-36.6394777,24,216.09941
1,Acará/PA,-1.961388,-48.1987043,2433,4364.59529
D1,Acará/PA,-1.961388,-48.1987043,41,73.55052
1,Acauã/PI,-8.219542,-41.083059,228,3202.69701
D1,Acauã/PI,-8.219542,-41.083059,2,28.09383
1,Aceguá/RS,-31.8695131,-54.1615593,820,16462.55772
D1,Aceguá/RS,-31.8695131,-54.1615593,8,160.61032
1,Acopiara/CE,-6.0936464,-39.4543204,5249,9598.25918
D1,Acopiara/CE,-6.0936464,-39.4543204,164,299.88846
1,Acorizal/MT,-15.2001544,-56.3668953,1176,22151.06423
D1,Acorizal/MT,-15.2001544,-56.3668953,24,452.06254
1,Acrelândia/AC,-10.0759167,-67.0526898,2862,18204.94879
D1,Acrelândia/AC,-10.0759167,-67.0526898,40,254.43674
1,Acreúna/GO,-17.3959899,-50.3749031,4647,20462.35139
D1,Acreúna/GO,-17.3959899,-50.3749031,81,356.67107
1,Adamantina/SP,-21.6866517,-51.0762975,7610,21648.22348
D1,Adamantina/SP,-21.6866517,-51.0762975,169,480.75555
1,Adelândia/GO,-16.4155077,-50.1665834,484,19244.53280
D1,Adelândia/GO,-16.4155077,-50.1665834,4,159.04573
1,Adolfo/SP,-21.2356597,-49.6441918,639,18025.38787
D1,Adolfo/SP,-21.2356597,-49.6441918,23,648.80113
1,Adrianópolis/PR,-24.6557863,-48.9912769,1851,31930.30878
D1,Adrianópolis/PR,-24.6557863,-48.9912769,30,517.50906
1,Adustina/BA,-10.5358875,-38.114479,1366,7937.70701
D1,Adustina/BA,-10.5358875,-38.114479,28,162.70556
1,Afogados da Ingazeira/PE,-7.750429,-37.6356375,8041,21416.39589
D1,Afogados da Ingazeira/PE,-7.750429,-37.6356375,79,210.40857
1,Afonso Bezerra/RN,-5.4745,-36.57625071327935,1169,10604.13643
D1,Afonso Bezerra/RN,-5.4745,-36.57625071327935,19,172.35123
1,Afonso Cláudio/ES,-20.077841,-41.12606,7243,23883.79608
D1,Afonso Cláudio/ES,-20.077841,-41.12606,83,273.69254
1,Afonso Cunha/MA,-4.1326105,-43.3230026,301,4539.28518
D1,Afonso Cunha/MA,-4.1326105,-43.3230026,2,30.16136
1,Afrânio/PE,-8.5198919,-41.0070197,1349,6751.41384
D1,Afrânio/PE,-8.5198919,-41.0070197,16,80.07607
1,Afuá/PA,-0.1535664,-50.3879223,3490,8744.67552
D1,Afuá/PA,-0.1535664,-50.3879223,16,40.09020
1,Agrestina/PE,-8.4558021,-35.9442663,2601,10305.07132
D1,Agrestina/PE,-8.4558021,-35.9442663,72,285.26149
1,Agricolândia/PI,-5.7967843,-42.6605131,829,16181.92465
D1,Agricolândia/PI,-5.7967843,-42.6605131,10,195.19813
1,Agrolândia/SC,-27.4122212,-49.8295774,2256,20215.05376
D1,Agrolândia/SC,-27.4122212,-49.8295774,33,295.69892
1,Agronômica/SC,-27.2660744,-49.7104753,1175,21095.15260
D1,Agronômica/SC,-27.2660744,-49.7104753,15,269.29982
1,Aguanil/MG,-20.9424533,-45.3927152,1295,28417.81874
D1,Aguanil/MG,-20.9424533,-45.3927152,8,175.55409
1,Aguaí/SP,-22.0592036,-46.979384,5745,15535.00446
D1,Aguaí/SP,-22.0592036,-46.979384,131,354.23596
1,Agudo/RS,-29.6423259,-53.2494005,3022,18489.96574
D1,Agudo/RS,-29.6423259,-53.2494005,37,226.38277
1,Agudos do Sul/PR,-25.9890808,-49.3328175,1500,15678.89621
D1,Agudos do Sul/PR,-25.9890808,-49.3328175,34,355.38831
1,Agudos/SP,-22.471162,-48.987822,6697,17819.70092
D1,Agudos/SP,-22.471162,-48.987822,119,316.64095
1,Aguiar/PB,-7.0928404,-38.1727215,847,15065.81288
D1,Aguiar/PB,-7.0928404,-38.1727215,7,124.51085
1,Aguiarnópolis/TO,-6.5600452,-47.4721189,966,13704.07150
D1,Aguiarnópolis/TO,-6.5600452,-47.4721189,14,198.60973
1,Aimorés/MG,-19.4917754,-41.0615603,3388,13489.40914
D1,Aimorés/MG,-19.4917754,-41.0615603,86,342.41121
1,Aiquara/BA,-14.126918,-39.8887574,605,13790.74538
D1,Aiquara/BA,-14.126918,-39.8887574,12,273.53545
1,Aiuaba/CE,-6.5710836,-40.1212278,1184,6733.39399
D1,Aiuaba/CE,-6.5710836,-40.1212278,16,90.99181
1,Aiuruoca/MG,-21.9759554,-44.6036637,745,12523.11313
D1,Aiuruoca/MG,-21.9759554,-44.6036637,12,201.71457
1,Ajuricaba/RS,-28.239654,-53.7693013,1853,26658.03482
D1,Ajuricaba/RS,-28.239654,-53.7693013,36,517.91109
1,Alagoa Grande/PB,-7.0415212,-35.6285322,5403,19035.37204
D1,Alagoa Grande/PB,-7.0415212,-35.6285322,77,271.27959
1,Alagoa Nova/PB,-7.0653703,-35.76695977336711,2781,13247.90396
D1,Alagoa Nova/PB,-7.0653703,-35.76695977336711,37,176.25762
1,Alagoa/MG,-22.1697202,-44.6400042,670,25216.40948
D1,Alagoa/MG,-22.1697202,-44.6400042,8,301.09146
1,Alagoinha do Piauí/PI,-7.0090952,-40.939675,402,5235.73847
D1,Alagoinha do Piauí/PI,-7.0090952,-40.939675,13,169.31493
1,Alagoinha/PB,-6.97063215,-35.51490901897793,2434,16638.18443
D1,Alagoinha/PB,-6.97063215,-35.51490901897793,26,177.72917
1,Alagoinha/PE,-8.50355635,-36.77701174370496,2348,15867.00906
D1,Alagoinha/PE,-8.50355635,-36.77701174370496,31,209.48777
1,Alagoinhas/BA,-12.133526,-38.420772,17509,11442.07080
D1,Alagoinhas/BA,-12.133526,-38.420772,349,228.07029
1,Alambari/SP,-23.550338,-47.897971,1185,19017.81416
D1,Alambari/SP,-23.550338,-47.897971,13,208.63425
1,Albertina/MG,-20.66164,-43.784039,631,20928.68988
D1,Albertina/MG,-20.66164,-43.784039,11,364.84245
1,Alcantil/PB,-7.7425491,-36.0609604,1237,22381.03854
D1,Alcantil/PB,-7.7425491,-36.0609604,9,162.83698
1,Alcinópolis/MS,-18.3264121,-53.7094463,760,13845.87357
D1,Alcinópolis/MS,-18.3264121,-53.7094463,12,218.61906
1,Alcobaça/BA,-17.5215875,-39.1965474,2247,9982.67360
D1,Alcobaça/BA,-17.5215875,-39.1965474,32,142.16536
1,Alcântara/MA,-2.4038956,-44.4154241,337,1523.09500
D1,Alcântara/MA,-2.4038956,-44.4154241,21,94.91096
1,Alcântaras/CE,-3.586247,-40.5457641,2187,18461.92808
D1,Alcântaras/CE,-3.586247,-40.5457641,23,194.15837
1,Aldeias Altas/MA,-4.6291957,-43.4708622,1098,4069.83209
D1,Aldeias Altas/MA,-4.6291957,-43.4708622,14,51.89221
1,Alecrim/RS,-27.6566142,-54.7653195,607,10630.47285
D1,Alecrim/RS,-27.6566142,-54.7653195,13,227.67075
1,Alegre/ES,-20.7625787,-41.5318886,7173,24014.86491
D1,Alegre/ES,-20.7625787,-41.5318886,85,284.57598
1,Alegrete do Piauí/PI,-7.2440138,-40.8602296,583,11847.18553
D1,Alegrete do Piauí/PI,-7.2440138,-40.8602296,9,182.88966
1,Alegrete/RS,-29.790166,-55.794862,15724,21690.37010
D1,Alegrete/RS,-29.790166,-55.794862,326,449.69859
1,Alegria/RS,-27.8332103,-54.0574959,540,16428.35412
D1,Alegria/RS,-27.8332103,-54.0574959,5,152.11439
1,Alenquer/PA,-1.946229,-54.738355,4952,8628.68095
D1,Alenquer/PA,-1.946229,-54.738355,163,284.02161
1,Alexandria/RN,-6.414779,-38.0135516,2405,17776.62798
D1,Alexandria/RN,-6.414779,-38.0135516,33,243.92047
1,Alexânia/GO,-16.0834049,-48.5077803,5865,20680.53597
D1,Alexânia/GO,-16.0834049,-48.5077803,112,394.92243
1,Alfenas/MG,-21.4297405,-45.9479419,20689,25550.49214
D1,Alfenas/MG,-21.4297405,-45.9479419,246,303.80497
1,Alfredo Chaves/ES,-20.624970400000002,-40.75006690147988,4334,29543.28562
D1,Alfredo Chaves/ES,-20.624970400000002,-40.75006690147988,47,320.38173
1,Alfredo Marcondes/SP,-21.9527,-51.413956,299,7117.35301
D1,Alfredo Marcondes/SP,-21.9527,-51.413956,16,380.86170
1,Alfredo Vasconcelos/MG,-21.145833,-43.776389,1151,16321.61089
D1,Alfredo Vasconcelos/MG,-21.145833,-43.776389,16,226.88599
1,Alfredo Wagner/SC,-27.6961513,-49.3326734,1400,13812.15470
D1,Alfredo Wagner/SC,-27.6961513,-49.3326734,12,118.38990
1,Algodão de Jandaíra/PB,-6.9040175,-36.0089879,461,17812.98300
D1,Algodão de Jandaíra/PB,-6.9040175,-36.0089879,1,38.63988
1,Alhandra/PB,-7.4304246,-34.9106103,2962,14910.64687
D1,Alhandra/PB,-7.4304246,-34.9106103,47,236.59703
1,Aliança do Tocantins/TO,-11.3055927,-48.9409096,1186,22364.69923
D1,Aliança do Tocantins/TO,-11.3055927,-48.9409096,25,471.43127
1,Aliança/PE,-7.60398,-35.222696,2037,5303.58259
D1,Aliança/PE,-7.60398,-35.222696,79,205.68632
1,Almadina/BA,-14.70466,-39.6381994,769,14583.72843
D1,Almadina/BA,-14.70466,-39.6381994,12,227.57444
1,Almas/TO,-11.5681309,-47.1702803,312,4518.46488
D1,Almas/TO,-11.5681309,-47.1702803,5,72.41130
1,Almeirim/PA,-1.5290377,-52.5788111,4418,12977.32346
D1,Almeirim/PA,-1.5290377,-52.5788111,54,158.61826
1,Almenara/MG,-16.1740678,-40.6904907,6654,15700.80227
D1,Almenara/MG,-16.1740678,-40.6904907,65,153.37423
1,Almino Afonso/RN,-6.1544208,-37.7649018,732,15624.33298
D1,Almino Afonso/RN,-6.1544208,-37.7649018,14,298.82604
1,Almirante Tamandaré do Sul/RS,-28.1141129,-52.9134874,523,27028.42377
D1,Almirante Tamandaré do Sul/RS,-28.1141129,-52.9134874,7,361.75711
1,Almirante Tamandaré/PR,-25.3133048,-49.2997838,15786,13001.15302
D1,Almirante Tamandaré/PR,-25.3133048,-49.2997838,451,371.43798
1,Aloândia/GO,-17.7277983,-49.4809338,340,17206.47773
D1,Aloândia/GO,-17.7277983,-49.4809338,11,556.68016
1,Alpercata/MG,-18.9803616,-41.9827637,583,7827.60473
D1,Alpercata/MG,-18.9803616,-41.9827637,23,308.80773
1,Alpestre/RS,-27.2512339,-53.0349646,1240,21070.51827
D1,Alpestre/RS,-27.2512339,-53.0349646,17,288.87001
1,Alpinópolis/MG,-20.863611,-46.387777,3880,19342.93833
D1,Alpinópolis/MG,-20.863611,-46.387777,51,254.24996
1,Alta Floresta D'Oeste/RO,-11.9296917,-61.9961284,7997,35516.96571
D1,Alta Floresta D'Oeste/RO,-11.9296917,-61.9961284,79,350.86161
1,Alta Floresta/MT,-9.8715018,-56.0839881,14922,28638.32646
D1,Alta Floresta/MT,-9.8715018,-56.0839881,170,326.26427
1,Altair/SP,-20.5238955,-49.0606135,320,7599.14510
D1,Altair/SP,-20.5238955,-49.0606135,18,427.45191
1,Altamira do Maranhão/MA,-4.1643006,-45.4674574,499,6048.48485
D1,Altamira do Maranhão/MA,-4.1643006,-45.4674574,14,169.69697
1,Altamira do Paraná/PR,-24.799114,-52.7128633,540,37788.66340
D1,Altamira do Paraná/PR,-24.799114,-52.7128633,14,979.70609
1,Altamira/PA,-3.204065,-52.209961,21053,17944.93692
D1,Altamira/PA,-3.204065,-52.209961,351,299.18173
1,Altaneira/CE,-6.9980933,-39.7385742,875,11345.95436
D1,Altaneira/CE,-6.9980933,-39.7385742,19,246.36929
1,Alterosa/MG,-21.249166,-46.143055,1601,10991.34972
D1,Alterosa/MG,-21.249166,-46.143055,41,281.47741
1,Altinho/PE,-8.4904095,-36.0607494,1689,7344.75561
D1,Altinho/PE,-8.4904095,-36.0607494,30,130.45747
1,Altinópolis/SP,-21.021364,-47.3712,1229,7576.59824
D1,Altinópolis/SP,-21.021364,-47.3712,64,394.55027
1,Alto Alegre do Maranhão/MA,-4.2055693,-44.4525287,2025,7215.13575
D1,Alto Alegre do Maranhão/MA,-4.2055693,-44.4525287,28,99.76484
1,Alto Alegre do Pindaré/MA,-3.6698186,-45.8462153,2405,7523.38349
D1,Alto Alegre do Pindaré/MA,-3.6698186,-45.8462153,54,168.92420
1,Alto Alegre dos Parecis/RO,-12.1314515,-61.856265,2244,16912.87308
D1,Alto Alegre dos Parecis/RO,-12.1314515,-61.856265,51,384.38348
1,Alto Alegre/RR,2.98858,-61.307167,2218,14545.21608
D1,Alto Alegre/RR,2.98858,-61.307167,39,255.75448
1,Alto Alegre/RS,-31.780844700000003,-52.81311114489171,401,25220.12579
D1,Alto Alegre/RS,-31.780844700000003,-52.81311114489171,2,125.78616
1,Alto Alegre/SP,-21.5820592,-50.1661976,407,9980.38254
D1,Alto Alegre/SP,-21.5820592,-50.1661976,23,564.00196
1,Alto Araguaia/MT,-17.3156528,-53.2169365,2790,14152.37902
D1,Alto Araguaia/MT,-17.3156528,-53.2169365,34,172.46627
1,Alto Bela Vista/SC,-27.4320737,-51.905771,432,22558.74674
D1,Alto Bela Vista/SC,-27.4320737,-51.905771,3,156.65796
1,Alto Boa Vista/MT,-11.6723985,-51.3744431,1273,17949.80259
D1,Alto Boa Vista/MT,-11.6723985,-51.3744431,19,267.90750
1,Alto Caparaó/MG,-20.4405661,-41.8683799,554,9329.74065
D1,Alto Caparaó/MG,-20.4405661,-41.8683799,9,151.56618
1,Alto Feliz/RS,-29.3785943,-51.3123751,656,21557.67335
D1,Alto Feliz/RS,-29.3785943,-51.3123751,4,131.44923
1,Alto Garças/MT,-16.9469683,-53.529427,1443,11709.81092
D1,Alto Garças/MT,-16.9469683,-53.529427,43,348.94100
1,Alto Horizonte/GO,-14.1954948,-49.3366993,2206,32460.27075
D1,Alto Horizonte/GO,-14.1954948,-49.3366993,16,235.43261
1,Alto Jequitibá/MG,-20.423611,-41.966111,1381,16666.66667
D1,Alto Jequitibá/MG,-20.423611,-41.966111,13,156.89114
1,Alto Longá/PI,-5.2549051,-42.2072388,858,5970.35697
D1,Alto Longá/PI,-5.2549051,-42.2072388,15,104.37687
1,Alto Paraguai/MT,-14.513712,-56.4936374,955,8241.99534
D1,Alto Paraguai/MT,-14.513712,-56.4936374,31,267.54121
1,Alto Paraná/PR,-23.131247,-52.318893,2686,17972.56608
D1,Alto Paraná/PR,-23.131247,-52.318893,27,180.66243
1,Alto Paraíso de Goiás/GO,-14.1304779,-47.5100161,1242,16023.73887
D1,Alto Paraíso de Goiás/GO,-14.1304779,-47.5100161,9,116.11405
1,Alto Paraíso/PR,-23.508137,-53.728537,994,37794.67681
D1,Alto Paraíso/PR,-23.508137,-53.728537,10,380.22814
1,Alto Paraíso/RO,-9.7240103,-63.3188123,3591,16133.52502
D1,Alto Paraíso/RO,-9.7240103,-63.3188123,63,283.04430
1,Alto Parnaíba/MA,-9.112506,-45.9310154,1021,9089.29048
D1,Alto Parnaíba/MA,-9.112506,-45.9310154,11,97.92575
1,Alto Piquiri/PR,-24.0239021,-53.4417448,2410,24789.13804
D1,Alto Piquiri/PR,-24.0239021,-53.4417448,31,318.86443
1,Alto Rio Doce/MG,-21.0239537,-43.4133507,994,9269.79390
D1,Alto Rio Doce/MG,-21.0239537,-43.4133507,31,289.09820
1,Alto Rio Novo/ES,-19.0577208,-41.0171518,1467,18543.79977
D1,Alto Rio Novo/ES,-19.0577208,-41.0171518,28,353.93756
1,Alto Santo/CE,-5.5190371,-38.2719351,2531,15742.98688
D1,Alto Santo/CE,-5.5190371,-38.2719351,42,261.24277
1,Alto Taquari/MT,-17.8269099,-53.2831736,1673,14658.72251
D1,Alto Taquari/MT,-17.8269099,-53.2831736,30,262.85814
1,Alto do Rodrigues/RN,-5.290868,-36.7616726,3601,24130.53676
D1,Alto do Rodrigues/RN,-5.290868,-36.7616726,43,288.14582
1,Altos/PI,-5.0393915,-42.4611694,5568,13686.97918
D1,Altos/PI,-5.0393915,-42.4611694,108,265.48020
1,Altônia/PR,-23.8722004,-53.894037,4314,19351.36590
D1,Altônia/PR,-23.8722004,-53.894037,53,237.74279
1,Alumínio/SP,-23.5203479,-47.2575256,1701,8998.57166
D1,Alumínio/SP,-23.5203479,-47.2575256,55,290.95911
1,Alvarenga/MG,-19.4175,-41.728334,541,14300.81946
D1,Alvarenga/MG,-19.4175,-41.728334,6,158.60428
1,Alvarães/AM,-3.214786,-64.8143124,3704,22590.87582
D1,Alvarães/AM,-3.214786,-64.8143124,46,280.55623
1,Alvinlândia/SP,-22.4431852,-49.7643596,149,4583.20517
D1,Alvinlândia/SP,-22.4431852,-49.7643596,10,307.59766
1,Alvinópolis/MG,-20.1105199,-43.0601805,1920,12685.82755
D1,Alvinópolis/MG,-20.1105199,-43.0601805,25,165.18005
1,Alvorada D'Oeste/RO,-11.346271,-62.284697,2385,17273.84660
D1,Alvorada D'Oeste/RO,-11.346271,-62.284697,38,275.22271
1,Alvorada de Minas/MG,-18.7318587,-43.3641479,455,12621.35922
D1,Alvorada de Minas/MG,-18.7318587,-43.3641479,4,110.95700
1,Alvorada do Gurguéia/PI,-8.4465288,-43.8655915,709,12963.97879
D1,Alvorada do Gurguéia/PI,-8.4465288,-43.8655915,14,255.98830
1,Alvorada do Norte/GO,-14.483911,-46.4959897,1226,14013.03006
D1,Alvorada do Norte/GO,-14.483911,-46.4959897,22,251.45731
1,Alvorada do Sul/PR,-22.7807269,-51.2307721,1296,11174.34040
D1,Alvorada do Sul/PR,-22.7807269,-51.2307721,31,267.28746
1,Alvorada/RS,-29.9981184,-51.0772509,32207,15166.79852
D1,Alvorada/RS,-29.9981184,-51.0772509,877,412.99352
1,Alvorada/TO,-12.478465,-49.124926,2787,33253.78833
D1,Alvorada/TO,-12.478465,-49.124926,32,381.81601
1,Além Paraíba/MG,-21.8760576,-42.6810473,6059,17097.46600
D1,Além Paraíba/MG,-21.8760576,-42.6810473,170,479.71104
1,Amajari/RR,3.6523869,-61.4194315,1280,9438.83194
D1,Amajari/RR,3.6523869,-61.4194315,25,184.35219
1,Amambai/MS,-23.1082701,-55.2284854,5818,14455.73583
D1,Amambai/MS,-23.1082701,-55.2284854,102,253.43504
1,Amaporã/PR,-23.094272,-52.786597,827,12911.78767
D1,Amaporã/PR,-23.094272,-52.786597,8,124.90242
1,Amapá do Maranhão/MA,-1.6762114,-46.0109669,172,2440.75493
D1,Amapá do Maranhão/MA,-1.6762114,-46.0109669,4,56.76174
1,Amapá/AP,2.0529997,-50.7930003,1876,20248.24609
D1,Amapá/AP,2.0529997,-50.7930003,13,140.31301
1,Amaraji/PE,-8.373925,-35.4536527,1201,5242.25229
D1,Amaraji/PE,-8.373925,-35.4536527,49,213.88040
1,Amaral Ferrador/RS,-30.8750633,-52.2542051,540,7567.26457
D1,Amaral Ferrador/RS,-30.8750633,-52.2542051,13,182.17489
1,Amaralina/GO,-13.9236199,-49.2962411,219,5651.61290
D1,Amaralina/GO,-13.9236199,-49.2962411,2,51.61290
1,Amarante do Maranhão/MA,-5.56913,-46.747284,1974,4698.09839
D1,Amarante do Maranhão/MA,-5.56913,-46.747284,64,152.31930
1,Amarante/PI,-6.2459374,-42.8476238,1736,9858.59504
D1,Amarante/PI,-6.2459374,-42.8476238,36,204.44091
1,Amargosa/BA,-13.03793715,-39.60796443875596,4532,12043.26220
D1,Amargosa/BA,-13.03793715,-39.60796443875596,61,162.10040
1,Amaturá/AM,-3.3640509,-68.1994689,2623,21979.21904
D1,Amaturá/AM,-3.3640509,-68.1994689,19,159.20898
1,Americana/SP,-22.7392463,-47.3306032,27915,11423.25163
D1,Americana/SP,-22.7392463,-47.3306032,953,389.98240
1,Americano do Brasil/GO,-16.2515808,-49.9806104,1428,22958.19936
D1,Americano do Brasil/GO,-16.2515808,-49.9806104,26,418.00643
1,Ametista do Sul/RS,-27.3617341,-53.1826575,1738,23499.18875
D1,Ametista do Sul/RS,-27.3617341,-53.1826575,28,378.58302
1,Amontada/CE,-3.3634586,-39.8284791,3559,8052.94717
D1,Amontada/CE,-3.3634586,-39.8284791,61,138.02466
1,Amorinópolis/GO,-16.6211308,-51.0949921,599,19893.72302
D1,Amorinópolis/GO,-16.6211308,-51.0949921,11,365.32713
1,Amparo de São Francisco/SE,-10.1299754,-36.9269099,258,10813.07628
D1,Amparo de São Francisco/SE,-10.1299754,-36.9269099,5,209.55574
1,Amparo do Serra/MG,-20.5070255,-42.8028462,293,6310.57506
D1,Amparo do Serra/MG,-20.5070255,-42.8028462,11,236.91579
1,Amparo/PB,-7.56394725,-37.04652873235175,283,12500.00000
D1,Amparo/PB,-7.56394725,-37.04652873235175,4,176.67845
1,Amparo/SP,-22.70111,-46.76444,9917,13558.00123
D1,Amparo/SP,-22.70111,-46.76444,247,337.68542
1,Ampére/PR,-25.9168712,-53.4742414,5090,26148.15576
D1,Ampére/PR,-25.9168712,-53.4742414,67,344.18987
1,Amélia Rodrigues/BA,-12.4015388,-38.7516971,2809,11237.34848
D1,Amélia Rodrigues/BA,-12.4015388,-38.7516971,53,212.02544
1,América Dourada/BA,-11.4515262,-41.4357517,1072,6664.18003
D1,América Dourada/BA,-11.4515262,-41.4357517,14,87.03220
1,Américo Brasiliense/SP,-21.7297099,-48.1052092,5347,12870.38151
D1,Américo Brasiliense/SP,-21.7297099,-48.1052092,106,255.14502
1,Américo de Campos/SP,-20.298476,-49.735904,1286,21458.36810
D1,Américo de Campos/SP,-20.298476,-49.735904,37,617.38695
1,Anadia/AL,-9.6830208,-36.3052699,1698,9698.97755
D1,Anadia/AL,-9.6830208,-36.3052699,37,211.34403
1,Anagé/BA,-14.6134669,-41.1376308,1216,5728.01357
D1,Anagé/BA,-14.6134669,-41.1376308,31,146.02666
1,Anahy/PR,-24.6450861,-53.1337957,709,25558.75991
D1,Anahy/PR,-24.6450861,-53.1337957,15,540.73540
1,Anajatuba/MA,-3.26441,-44.6179916,1614,5940.37541
D1,Anajatuba/MA,-3.26441,-44.6179916,29,106.73537
1,Anajás/PA,-0.9878802,-49.9390114,1386,4606.02838
D1,Anajás/PA,-0.9878802,-49.9390114,23,76.43481
1,Analândia/SP,-22.128917,-47.661939,497,9716.52004
D1,Analândia/SP,-22.128917,-47.661939,5,97.75171
1,Anamã/AM,-3.5797356,-61.4049996,2477,17331.37420
D1,Anamã/AM,-3.5797356,-61.4049996,11,76.96613
1,Ananindeua/PA,-1.374035,-48.4016623,29848,5523.21386
D1,Ananindeua/PA,-1.374035,-48.4016623,854,158.02816
1,Ananás/TO,-6.3663053,-48.080238,2207,23391.62692
D1,Ananás/TO,-6.3663053,-48.080238,28,296.76736
1,Anapu/PA,-3.4668292,-51.2057035,2198,7498.63537
D1,Anapu/PA,-3.4668292,-51.2057035,67,228.57533
1,Anapurus/MA,-3.6751298,-43.1046001,832,5182.50903
D1,Anapurus/MA,-3.6751298,-43.1046001,15,93.43466
1,Anastácio/MS,-20.4832458,-55.8048448,3205,12649.98421
D1,Anastácio/MS,-20.4832458,-55.8048448,92,363.11967
1,Anaurilândia/MS,-22.185169,-52.719056,1124,12329.96928
D1,Anaurilândia/MS,-22.185169,-52.719056,16,175.51558
1,Anchieta/ES,-20.8057672,-40.6454564,9260,30576.19283
D1,Anchieta/ES,-20.8057672,-40.6454564,113,373.12201
1,Anchieta/SC,-26.5350527,-53.3293938,1085,19810.11503
D1,Anchieta/SC,-26.5350527,-53.3293938,12,219.09805
1,Andaraí/BA,-12.8059674,-41.3322919,1265,9640.29873
D1,Andaraí/BA,-12.8059674,-41.3322919,14,106.69105
1,Andirá/PR,-23.0494761,-50.2310027,5131,25884.07406
D1,Andirá/PR,-23.0494761,-50.2310027,97,489.33058
1,Andorinha/BA,-10.3445708,-39.8334411,1327,9205.04994
D1,Andorinha/BA,-10.3445708,-39.8334411,19,131.79800
1,Andradas/MG,-22.0680484,-46.5688976,6624,15883.36850
D1,Andradas/MG,-22.0680484,-46.5688976,137,328.50566
1,Andradina/SP,-20.896505,-51.3742765,11346,19820.07162
D1,Andradina/SP,-20.896505,-51.3742765,309,539.78513
1,Andrelândia/MG,-21.739722,-44.308889,206,1690.04840
D1,Andrelândia/MG,-21.739722,-44.308889,18,147.67413
1,André da Rocha/RS,-28.6309124,-51.5733328,191,14137.67580
D1,André da Rocha/RS,-28.6309124,-51.5733328,1,74.01925
1,Angatuba/SP,-23.4938938,-48.4110675,3269,12707.97699
D1,Angatuba/SP,-23.4938938,-48.4110675,86,334.31815
1,Angelim/PE,-8.8902038,-36.2872987,279,2468.80807
D1,Angelim/PE,-8.8902038,-36.2872987,14,123.88284
1,Angelina/SC,-27.5805287,-48.9838759,871,18587.28126
D1,Angelina/SC,-27.5805287,-48.9838759,6,128.04097
1,Angelândia/MG,-17.7253,-42.2728,407,4735.86223
D1,Angelândia/MG,-17.7253,-42.2728,4,46.54410
1,Angical do Piauí/PI,-6.0872666,-42.7366138,901,13291.04588
D1,Angical do Piauí/PI,-6.0872666,-42.7366138,12,177.01726
1,Angical/BA,-12.005623,-44.7000236,1059,7617.60898
D1,Angical/BA,-12.005623,-44.7000236,20,143.86419
1,Angico/TO,-6.3893733,-47.8656722,257,7395.68345
D1,Angico/TO,-6.3893733,-47.8656722,5,143.88489
1,Angicos/RN,-5.6666344,-36.6009064,1249,10679.77768
D1,Angicos/RN,-5.6666344,-36.6009064,28,239.41855
1,Angra dos Reis/RJ,-23.0063966,-44.316326,22082,10506.68265
D1,Angra dos Reis/RJ,-23.0063966,-44.316326,593,282.15120
1,Anguera/BA,-12.1509425,-39.2452469,639,5620.54710
D1,Anguera/BA,-12.1509425,-39.2452469,2,17.59170
1,Angélica/MS,-22.1588196,-53.7728504,2079,18761.84460
D1,Angélica/MS,-22.1588196,-53.7728504,22,198.53804
1,Anhanguera/GO,-18.3338749,-48.220363,194,16567.03672
D1,Anhanguera/GO,-18.3338749,-48.220363,7,597.77968
1,Anhembi/SP,-22.7891096,-48.1316776,441,6381.13153
D1,Anhembi/SP,-22.7891096,-48.1316776,13,188.10592
1,Anhumas/SP,-22.2956478,-51.3873401,404,9683.60499
D1,Anhumas/SP,-22.2956478,-51.3873401,10,239.69319
1,Anicuns/GO,-16.4606451,-49.9572265,5883,26604.25994
D1,Anicuns/GO,-16.4606451,-49.9572265,78,352.73369
1,Anita Garibaldi/SC,-27.6855032,-51.1293873,1936,28541.94309
D1,Anita Garibaldi/SC,-27.6855032,-51.1293873,11,162.17013
1,Anitápolis/SC,-27.9041185,-49.1287395,470,14582.68694
D1,Anitápolis/SC,-27.9041185,-49.1287395,6,186.16196
1,Anori/AM,-3.7435254,-61.6605203,2670,12171.21758
D1,Anori/AM,-3.7435254,-61.6605203,33,150.43078
1,Anta Gorda/RS,-28.9718745,-52.0069187,974,16394.54637
D1,Anta Gorda/RS,-28.9718745,-52.0069187,8,134.65747
1,Antas/BA,-10.4114649,-38.3308815,1420,7223.15479
D1,Antas/BA,-10.4114649,-38.3308815,14,71.21420
1,Antonina do Norte/CE,-6.7754187,-39.9879345,988,13347.74385
D1,Antonina do Norte/CE,-6.7754187,-39.9879345,26,351.25642
1,Antonina/PR,-25.4298854,-48.7125431,4142,21893.33474
D1,Antonina/PR,-25.4298854,-48.7125431,74,391.14118
1,Antônio Almeida/PI,-7.2186016,-44.1950248,409,12881.88976
D1,Antônio Almeida/PI,-7.2186016,-44.1950248,11,346.45669
1,Antônio Cardoso/BA,-12.4363122,-39.1200307,1053,9023.13625
D1,Antônio Cardoso/BA,-12.4363122,-39.1200307,11,94.25878
1,Antônio Carlos/MG,-21.318334,-43.746666,1743,15194.83916
D1,Antônio Carlos/MG,-21.318334,-43.746666,20,174.35272
1,Antônio Carlos/SC,-27.5168462,-48.7684715,2669,30635.90450
D1,Antônio Carlos/SC,-27.5168462,-48.7684715,29,332.87420
1,Antônio Dias/MG,-19.6525,-42.872778,826,8946.17134
D1,Antônio Dias/MG,-19.6525,-42.872778,29,314.09076
1,Antônio Gonçalves/BA,-10.5715409,-40.2748824,1068,8933.50063
D1,Antônio Gonçalves/BA,-10.5715409,-40.2748824,10,83.64701
1,Antônio João/MS,-22.1892837,-55.9508227,1068,11759.52433
D1,Antônio João/MS,-22.1892837,-55.9508227,21,231.22660
1,Antônio Martins/RN,-6.2155812,-37.8890129,960,13404.07707
D1,Antônio Martins/RN,-6.2155812,-37.8890129,7,97.73806
1,Antônio Olinto/PR,-25.9849006,-50.1974516,1059,14270.31397
D1,Antônio Olinto/PR,-25.9849006,-50.1974516,16,215.60437
1,Antônio Prado de Minas/MG,-21.0171988,-42.1101106,166,10526.31579
D1,Antônio Prado de Minas/MG,-21.0171988,-42.1101106,5,317.05770
1,Antônio Prado/RS,-28.8567806,-51.2801355,4478,34337.85753
D1,Antônio Prado/RS,-28.8567806,-51.2801355,35,268.38433
1,Anápolis/GO,-16.3332828,-48.9525756,67295,16971.14439
D1,Anápolis/GO,-16.3332828,-48.9525756,1913,482.43999
1,Anísio de Abreu/PI,-9.185643,-43.04941,291,2911.74705
D1,Anísio de Abreu/PI,-9.185643,-43.04941,15,150.09005
1,Aparecida d'Oeste/SP,-20.4498109,-50.8808706,1367,33163.51286
D1,Aparecida d'Oeste/SP,-20.4498109,-50.8808706,22,533.72149
1,Aparecida de Goiânia/GO,-16.8226769,-49.2452546,115766,19235.21710
D1,Aparecida de Goiânia/GO,-16.8226769,-49.2452546,1944,323.00729
1,Aparecida do Rio Doce/GO,-18.2980167,-51.1491312,550,22231.20453
D1,Aparecida do Rio Doce/GO,-18.2980167,-51.1491312,5,202.10186
1,Aparecida do Rio Negro/TO,-9.9513491,-47.9773786,401,8182.00367
D1,Aparecida do Rio Negro/TO,-9.9513491,-47.9773786,13,265.25199
1,Aparecida do Taboado/MS,-20.0840304,-51.1013943,5671,21492.45812
D1,Aparecida do Taboado/MS,-20.0840304,-51.1013943,68,257.71242
1,Aparecida/PB,-6.7859598, -38.0831353,1500,17684.50837
D1,Aparecida/PB,-6.7859598, -38.0831353,16,188.63476
1,Aparecida/SP,-22.851552,-45.2340924,2955,8160.50371
D1,Aparecida/SP,-22.851552,-45.2340924,123,339.67579
1,Aperibé/RJ,-21.6211928,-42.1028167,1648,13692.25656
D1,Aperibé/RJ,-21.6211928,-42.1028167,35,290.79428
1,Apiacá/ES,-21.152272,-41.569297,2126,28188.80933
D1,Apiacá/ES,-21.152272,-41.569297,39,517.10422
1,Apiacás/MT,-9.5678422,-57.394852,3006,28817.94651
D1,Apiacás/MT,-9.5678422,-57.394852,19,182.14936
1,Apiaí/SP,-24.5076527,-48.8461582,1792,7441.55143
D1,Apiaí/SP,-24.5076527,-48.8461582,104,431.87575
1,Apicum-Açu/MA,-1.5279295,-45.082278,676,3844.84131
D1,Apicum-Açu/MA,-1.5279295,-45.082278,11,62.56399
1,Apiúna/SC,-27.0374658,-49.3885037,1543,14090.03744
D1,Apiúna/SC,-27.0374658,-49.3885037,20,182.63172
1,Apodi/RN,-5.6631109,-37.796927,8575,23883.13280
D1,Apodi/RN,-5.6631109,-37.796927,106,295.23173
1,Aporá/BA,-11.6599747,-38.0794757,709,3974.21525
D1,Aporá/BA,-11.6599747,-38.0794757,21,117.71300
1,Aporé/GO,-18.9642193,-51.92804,839,19667.13549
D1,Aporé/GO,-18.9642193,-51.92804,11,257.85279
1,Apuarema/BA,-13.8517897,-39.7457126,883,12139.12565
D1,Apuarema/BA,-13.8517897,-39.7457126,12,164.97113
1,Apucarana/PR,-23.5525327,-51.4610764,18753,13644.69797
D1,Apucarana/PR,-23.5525327,-51.4610764,528,384.17323
1,Apuiarés/CE,-3.9460303,-39.4313298,1631,11063.62773
D1,Apuiarés/CE,-3.9460303,-39.4313298,27,183.15018
1,Apuí/AM,-7.1940195,-59.8830192,2166,9525.48485
D1,Apuí/AM,-7.1940195,-59.8830192,36,158.31831
1,Aquidabã/SE,-10.2837579,-37.0188687,2595,11905.85429
D1,Aquidabã/SE,-10.2837579,-37.0188687,43,197.28391
1,Aquidauana/MS,-20.473969,-55.7821375,7341,15235.34783
D1,Aquidauana/MS,-20.473969,-55.7821375,174,361.11572
1,Aquiraz/CE,-3.9063117,-38.387504,9982,12235.69213
D1,Aquiraz/CE,-3.9063117,-38.387504,107,131.15799
1,Arabutã/SC,-27.1587028,-52.1438142,632,14807.87254
D1,Arabutã/SC,-27.1587028,-52.1438142,10,234.30178
1,Aracaju/SE,-10.9162061,-37.0774655,150191,22329.44899
D1,Aracaju/SE,-10.9162061,-37.0774655,2548,378.82054
1,Aracati/CE,-4.558259,-37.767894,12191,16170.15068
D1,Aracati/CE,-4.558259,-37.767894,178,236.09932
1,Aracatu/BA,-14.4274236,-41.4604105,1292,9969.13580
D1,Aracatu/BA,-14.4274236,-41.4604105,23,177.46914
1,Araci/BA,-11.3356065,-38.9573261,4282,7799.20951
D1,Araci/BA,-11.3356065,-38.9573261,60,109.28365
1,Aracitaba/MG,-21.3425,-43.378611,109,5301.55642
D1,Aracitaba/MG,-21.3425,-43.378611,11,535.01946
1,Aracoiaba/CE,-4.3702577,-38.8084313,4851,18236.84211
D1,Aracoiaba/CE,-4.3702577,-38.8084313,38,142.85714
1,Aracruz/ES,-19.8245218,-40.2735025,32826,31280.13569
D1,Aracruz/ES,-19.8245218,-40.2735025,274,261.09661
1,Aragarças/GO,-15.8957166,-52.2514538,4271,20926.01666
D1,Aragarças/GO,-15.8957166,-52.2514538,83,406.66340
1,Aragoiânia/GO,-16.9146388,-49.4499148,2293,21470.03745
D1,Aragoiânia/GO,-16.9146388,-49.4499148,32,299.62547
1,Aragominas/TO,-7.1654101,-48.525488,853,14951.79667
D1,Aragominas/TO,-7.1654101,-48.525488,11,192.81332
1,Araguacema/TO,-8.8067391,-49.5560969,1148,15893.67299
D1,Araguacema/TO,-8.8067391,-49.5560969,20,276.89326
1,Araguaiana/MT,-15.729144,-51.834112,537,17526.10966
D1,Araguaiana/MT,-15.729144,-51.834112,8,261.09661
1,Araguainha/MT,-16.857016,-53.031778,53,5830.58306
D1,Araguainha/MT,-16.857016,-53.031778,1,110.01100
1,Araguanã/MA,-2.9508403,-45.6651986,854,5448.16587
D1,Araguanã/MA,-2.9508403,-45.6651986,5,31.89793
1,Araguanã/TO,-6.5799107,-48.6428482,610,10416.66667
D1,Araguanã/TO,-6.5799107,-48.6428482,16,273.22404
1,Araguapaz/GO,-15.0937927,-50.626417,899,11533.03400
D1,Araguapaz/GO,-15.0937927,-50.626417,31,397.69083
1,Araguari/MG,-18.6511256,-48.1933764,28369,23968.19898
D1,Araguari/MG,-18.6511256,-48.1933764,503,424.97106
1,Araguatins/TO,-5.6522925,-48.1158973,3213,8785.16939
D1,Araguatins/TO,-5.6522925,-48.1158973,76,207.80357
1,Araguaçu/TO,-12.928934,-49.823134,1674,19885.95866
D1,Araguaçu/TO,-12.928934,-49.823134,25,296.98266
1,Araguaína/TO,-7.193241,-48.2018597,46302,24860.80163
D1,Araguaína/TO,-7.193241,-48.2018597,599,321.61937
1,Araioses/MA,-2.890914,-41.904993,687,1458.75358
D1,Araioses/MA,-2.890914,-41.904993,15,31.85051
1,Aral Moreira/MS,-22.951141,-55.6268421,579,4627.92742
D1,Aral Moreira/MS,-22.951141,-55.6268421,19,151.86636
1,Aramari/BA,-12.0907897,-38.4985065,1019,8846.25402
D1,Aramari/BA,-12.0907897,-38.4985065,14,121.53833
1,Arambaré/RS,-30.9132252,-51.4994625,359,10129.79684
D1,Arambaré/RS,-30.9132252,-51.4994625,10,282.16704
1,Arame/MA,-4.8858769,-46.0102484,1708,5203.35110
D1,Arame/MA,-4.8858769,-46.0102484,42,127.95126
1,Aramina/SP,-20.0876144,-47.789201,383,6732.29038
D1,Aramina/SP,-20.0876144,-47.789201,20,351.55563
1,Arandu/SP,-23.1345103,-49.0545651,662,10387.57257
D1,Arandu/SP,-23.1345103,-49.0545651,22,345.20634
1,Arantina/MG,-21.911667,-44.255833,477,17164.44764
D1,Arantina/MG,-21.911667,-44.255833,7,251.88917
1,Arapeí/SP,-22.6738889,-44.4477778,268,10929.85318
D1,Arapeí/SP,-22.6738889,-44.4477778,4,163.13214
1,Arapiraca/AL,-9.754866,-36.661471,35786,15272.99421
D1,Arapiraca/AL,-9.754866,-36.661471,560,239.00064
1,Arapoema/TO,-7.6575001,-49.0641484,619,9393.01973
D1,Arapoema/TO,-7.6575001,-49.0641484,12,182.09408
1,Araponga/MG,-20.666667,-42.520556,989,11680.64249
D1,Araponga/MG,-20.666667,-42.520556,14,165.34782
1,Arapongas/PR,-23.415296,-51.42592,25103,19837.21206
D1,Arapongas/PR,-23.415296,-51.42592,630,497.84662
1,Araporã/MG,-18.4318188,-49.188313,2676,38272.31121
D1,Araporã/MG,-18.4318188,-49.188313,43,614.98856
1,Arapoti/PR,-24.1457957,-49.8224605,5382,18897.47191
D1,Arapoti/PR,-24.1457957,-49.8224605,70,245.78652
1,Araputanga/MT,-15.4710868,-58.346796,3468,20306.82750
D1,Araputanga/MT,-15.4710868,-58.346796,56,327.90725
1,Arapuá/MG,-19.034444,-46.155556,444,15655.85331
D1,Arapuá/MG,-19.034444,-46.155556,3,105.78279
1,Arapuã/PR,-24.3079525,-51.7901941,765,25923.41579
D1,Arapuã/PR,-24.3079525,-51.7901941,9,304.98136
1,Araquari/SC,-26.3703324,-48.7210994,6476,15837.61311
D1,Araquari/SC,-26.3703324,-48.7210994,95,232.33064
1,Arara/PB,-6.8271895,-35.7605703,1158,8506.57460
D1,Arara/PB,-6.8271895,-35.7605703,31,227.72350
1,Araranguá/SC,-28.9348832,-49.4858389,16338,23510.28161
D1,Araranguá/SC,-28.9348832,-49.4858389,274,394.28432
1,Araraquara/SP,-21.7886713,-48.1773096,37059,15406.45708
D1,Araraquara/SP,-21.7886713,-48.1773096,616,256.08833
1,Araras/SP,-22.3569477,-47.3838889,19829,14501.34929
D1,Araras/SP,-22.3569477,-47.3838889,444,324.70619
1,Ararendá/CE,-4.7504395,-40.8303611,1834,16698.53410
D1,Ararendá/CE,-4.7504395,-40.8303611,22,200.30957
1,Arari/MA,-3.4547602,-44.7772723,1245,4148.06424
D1,Arari/MA,-3.4547602,-44.7772723,35,116.61225
1,Araricá/RS,-29.6168543,-50.929121,1618,27705.47945
D1,Araricá/RS,-29.6168543,-50.929121,29,496.57534
1,Araripe/CE,-7.212861,-40.1359222,1774,8172.47892
D1,Araripe/CE,-7.212861,-40.1359222,28,128.99065
1,Araripina/PE,-7.5768582,-40.5038509,9779,11464.10945
D1,Araripina/PE,-7.5768582,-40.5038509,176,206.32818
1,Araruama/RJ,-22.8733203,-42.3428897,9445,6939.29130
D1,Araruama/RJ,-22.8733203,-42.3428897,506,371.76087
1,Araruna/PB,-6.5321155,-35.7397595,936,4541.48472
D1,Araruna/PB,-6.5321155,-35.7397595,18,87.33624
1,Araruna/PR,-23.9320308,-52.4976047,3245,23130.65792
D1,Araruna/PR,-23.9320308,-52.4976047,43,306.50795
1,Arataca/BA,-15.2617424,-39.4122943,956,8767.42480
D1,Arataca/BA,-15.2617424,-39.4122943,16,146.73514
1,Aratiba/RS,-27.3955734,-52.3024325,878,14288.03906
D1,Aratiba/RS,-27.3955734,-52.3024325,8,130.18714
1,Aratuba/CE,-4.4195958,-39.0463737,2033,17288.88511
D1,Aratuba/CE,-4.4195958,-39.0463737,14,119.05774
1,Aratuípe/BA,-13.077137,-39.0010786,1134,12816.45570
D1,Aratuípe/BA,-13.077137,-39.0010786,12,135.62387
1,Araucária/PR,-25.5861107,-49.4051209,40589,27328.61125
D1,Araucária/PR,-25.5861107,-49.4051209,572,385.12813
1,Arauá/SE,-11.2644014,-37.6181058,1409,14319.10569
D1,Arauá/SE,-11.2644014,-37.6181058,23,233.73984
1,Araxá/MG,-19.5928536,-46.940241,31181,28763.96410
D1,Araxá/MG,-19.5928536,-46.940241,283,261.06289
1,Araçagi/PB,-6.8519969,-35.3835602,2505,14860.29543
D1,Araçagi/PB,-6.8519969,-35.3835602,27,160.17085
1,Araçariguama/SP,-23.438611,-47.061389,2611,11185.36606
D1,Araçariguama/SP,-23.438611,-47.061389,75,321.29546
1,Araçatuba/SP,-21.207992,-50.4390225,42225,21196.22509
D1,Araçatuba/SP,-21.207992,-50.4390225,979,491.44119
1,Araçaí/MG,-19.200833,-44.2475,248,10508.47458
D1,Araçaí/MG,-19.200833,-44.2475,2,84.74576
1,Araçoiaba da Serra/SP,-23.5045367,-47.6168158,3268,9234.50790
D1,Araçoiaba da Serra/SP,-23.5045367,-47.6168158,99,279.74794
1,Araçoiaba/PE,-7.7856903,-35.0898881,1087,5192.01376
D1,Araçoiaba/PE,-7.7856903,-35.0898881,33,157.62323
1,Araçu/GO,-16.3561579,-49.6815269,1252,36289.85507
D1,Araçu/GO,-16.3561579,-49.6815269,21,608.69565
1,Araçuaí/MG,-16.8484451,-42.0661868,3389,9230.55972
D1,Araçuaí/MG,-16.8484451,-42.0661868,61,166.14463
1,Araçás/BA,-12.2139176,-38.2026159,894,7305.71218
D1,Araçás/BA,-12.2139176,-38.2026159,17,138.92294
1,Araújos/MG,-19.948055,-45.165556,947,9944.34527
D1,Araújos/MG,-19.948055,-45.165556,15,157.51339
1,Arceburgo/MG,-21.364444,-46.939722,2068,18817.10646
D1,Arceburgo/MG,-21.364444,-46.939722,35,318.47134
1,Arco-Íris/SP,-21.7741308,-50.4668814,429,24444.44444
D1,Arco-Íris/SP,-21.7741308,-50.4668814,9,512.82051
1,Arcos/MG,-20.282223,-45.539444,10137,24932.36263
D1,Arcos/MG,-20.282223,-45.539444,142,349.25476
1,Arcoverde/PE,-8.415192,-37.057748,9855,13088.51849
D1,Arcoverde/PE,-8.415192,-37.057748,139,184.60721
1,Areado/MG,-21.3582771,-46.1476688,2630,17203.03506
D1,Areado/MG,-21.3582771,-46.1476688,35,228.93773
1,Areal/RJ,-22.2314922,-43.1056264,1825,14299.14597
D1,Areal/RJ,-22.2314922,-43.1056264,53,415.26287
1,Arealva/SP,-22.0301906,-48.9111936,1514,17472.59088
D1,Arealva/SP,-22.0301906,-48.9111936,23,265.43566
1,Areia Branca/RN,-4.9506652,-37.1263312,3956,14050.29123
D1,Areia Branca/RN,-4.9506652,-37.1263312,117,415.54198
1,Areia Branca/SE,-10.7591455,-37.3148072,2377,12626.82603
D1,Areia Branca/SE,-10.7591455,-37.3148072,50,265.60425
1,Areia de Baraúnas/PB,-7.1233949,-36.9446216,349,16579.57245
D1,Areia de Baraúnas/PB,-7.1233949,-36.9446216,7,332.54157
1,Areia/PB,-6.9680243,-35.6994783,2794,12421.64229
D1,Areia/PB,-6.9680243,-35.6994783,36,160.04979
1,Areial/PB,-7.0501306,-35.9245244,556,7882.05274
D1,Areial/PB,-7.0501306,-35.9245244,13,184.29260
1,Areias/SP,-22.5800929,-44.6975127,354,9062.98003
D1,Areias/SP,-22.5800929,-44.6975127,2,51.20328
1,Areiópolis/SP,-22.6758064,-48.6673653,1944,17378.86644
D1,Areiópolis/SP,-22.6758064,-48.6673653,29,259.25264
1,Arenápolis/MT,-14.4610369,-56.8432806,2720,28939.24886
D1,Arenápolis/MT,-14.4610369,-56.8432806,43,457.49548
1,Arenópolis/GO,-16.3859286,-51.55937,761,30909.82941
D1,Arenópolis/GO,-16.3859286,-51.55937,10,406.17384
1,Argirita/MG,-21.612761,-42.8371922,528,19694.14398
D1,Argirita/MG,-21.612761,-42.8371922,14,522.19321
1,Aricanduva/MG,-17.8678,-42.5569,354,6672.95005
1,Arinos/MG,-15.917223,-46.106111,2244,12571.42857
D1,Arinos/MG,-15.917223,-46.106111,30,168.06723
1,Aripuanã/MT,-10.175806,-59.4439663,5630,24407.16175
D1,Aripuanã/MT,-10.175806,-59.4439663,55,238.43586
1,Ariquemes/RO,-9.9076522,-63.033069,30300,27260.94936
D1,Ariquemes/RO,-9.9076522,-63.033069,550,494.83571
1,Ariranha do Ivaí/PR,-24.3834527,-51.5876772,553,27295.16288
D1,Ariranha do Ivaí/PR,-24.3834527,-51.5876772,5,246.79171
1,Ariranha/SP,-21.18716,-48.790418,1034,10496.39630
D1,Ariranha/SP,-21.18716,-48.790418,35,355.29388
1,Armazém/SC,-28.2624996,-49.0190126,1749,19778.35576
D1,Armazém/SC,-28.2624996,-49.0190126,36,407.10166
1,Armação dos Búzios/RJ,-22.7597805,-41.8875267,8047,22952.08214
D1,Armação dos Búzios/RJ,-22.7597805,-41.8875267,81,231.03252
1,Arneiroz/CE,-6.3235099,-40.1603859,833,10614.16922
D1,Arneiroz/CE,-6.3235099,-40.1603859,21,267.58410
1,Aroazes/PI,-6.1108814,-41.7886137,699,12012.37326
D1,Aroazes/PI,-6.1108814,-41.7886137,15,257.77625
1,Aroeiras do Itaim/PI,-7.2797031,-41.5629681,188,7369.65896
D1,Aroeiras do Itaim/PI,-7.2797031,-41.5629681,2,78.40063
1,Aroeiras/PB,-7.5462904,-35.7080002,2696,14129.23851
D1,Aroeiras/PB,-7.5462904,-35.7080002,20,104.81631
1,Arraial do Cabo/RJ,-22.9662839,-42.024427,2677,8683.94589
D1,Arraial do Cabo/RJ,-22.9662839,-42.024427,50,162.19548
1,Arraial/PI,-6.6541632,-42.5335332,172,3649.48016
D1,Arraial/PI,-6.6541632,-42.5335332,3,63.65372
1,Arraias/TO,-12.9287788,-46.9437231,1449,13797.37193
D1,Arraias/TO,-12.9287788,-46.9437231,13,123.78595
1,Arroio Grande/RS,-32.2384246,-53.0866661,2767,15215.83723
D1,Arroio Grande/RS,-32.2384246,-53.0866661,62,340.94034
1,Arroio Trinta/SC,-26.9301976,-51.334928,1063,29968.98788
D1,Arroio Trinta/SC,-26.9301976,-51.334928,15,422.89259
1,Arroio do Meio/RS,-29.4020392,-51.9444993,4982,23587.89830
D1,Arroio do Meio/RS,-29.4020392,-51.9444993,56,265.13896
1,Arroio do Padre/RS,-31.4428773,-52.4228985,398,13418.74579
D1,Arroio do Padre/RS,-31.4428773,-52.4228985,4,134.86177
1,Arroio do Sal/RS,-29.549852,-49.8874395,2803,26738.52905
D1,Arroio do Sal/RS,-29.549852,-49.8874395,43,410.18792
1,Arroio do Tigre/RS,-29.334158,-53.0888935,2517,18710.97235
D1,Arroio do Tigre/RS,-29.334158,-53.0888935,24,178.41213
1,Arroio dos Ratos/RS,-30.0894524,-51.7265541,1928,13576.50870
D1,Arroio dos Ratos/RS,-30.0894524,-51.7265541,49,345.04612
1,Artur Nogueira/SP,-22.572737,-47.172679,7612,13533.16621
D1,Artur Nogueira/SP,-22.572737,-47.172679,154,273.79238
1,Aruanã/GO,-14.9162439,-51.0715692,1446,13984.52611
D1,Aruanã/GO,-14.9162439,-51.0715692,22,212.76596
1,Arujá/SP,-23.396266,-46.3175449,11182,12094.79411
D1,Arujá/SP,-23.396266,-46.3175449,359,388.30541
1,Arvoredo/SC,-27.0752908,-52.4571847,431,19344.70377
D1,Arvoredo/SC,-27.0752908,-52.4571847,5,224.41652
1,Arvorezinha/RS,-28.87369,-52.17808,1574,15102.66743
D1,Arvorezinha/RS,-28.87369,-52.17808,31,297.44771
1,Arês/RN,-6.1969216,-35.1642968,1431,9851.30112
D1,Arês/RN,-6.1969216,-35.1642968,27,185.87361
1,Ascurra/SC,-26.9569975,-49.3767752,2187,27265.92694
D1,Ascurra/SC,-26.9569975,-49.3767752,13,162.07455
1,Aspásia/SP,-20.160028,-50.728046,340,18732.78237
D1,Aspásia/SP,-20.160028,-50.728046,10,550.96419
1,Assaré/CE,-6.8746791,-39.8741385,2866,12176.57306
D1,Assaré/CE,-6.8746791,-39.8741385,51,216.68012
1,Assaí/PR,-23.3736041,-50.8454929,2917,19720.11898
D1,Assaí/PR,-23.3736041,-50.8454929,64,432.66631
1,Assis Brasil/AC,-10.9409203,-69.5672108,1999,26134.13518
D1,Assis Brasil/AC,-10.9409203,-69.5672108,25,326.84011
1,Assis Chateaubriand/PR,-24.4054826,-53.5120468,8774,26343.60175
D1,Assis Chateaubriand/PR,-24.4054826,-53.5120468,140,420.34468
1,Assis/SP,-22.6620892,-50.420623,15678,14823.00885
D1,Assis/SP,-22.6620892,-50.420623,452,427.35043
1,Assunção do Piauí/PI,-5.8610212,-41.0485091,410,5203.70605
D1,Assunção do Piauí/PI,-5.8610212,-41.0485091,10,126.91966
1,Assunção/PB,-7.073396,-36.7274003,669,16449.47135
D1,Assunção/PB,-7.073396,-36.7274003,6,147.52889
1,Astolfo Dutra/MG,-21.3132636,-42.8624102,2117,14744.39337
D1,Astolfo Dutra/MG,-21.3132636,-42.8624102,30,208.94275
1,Astorga/PR,-23.2350184,-51.6647074,7688,29227.49392
D1,Astorga/PR,-23.2350184,-51.6647074,106,402.98054
1,Atalaia do Norte/AM,-4.3658547,-70.1908742,3910,18736.82193
D1,Atalaia do Norte/AM,-4.3658547,-70.1908742,11,52.71229
1,Atalaia/AL,-9.5029595,-36.0219316,1868,3929.32268
D1,Atalaia/AL,-9.5029595,-36.0219316,58,122.00252
1,Atalaia/PR,-23.1513833,-52.0529697,953,24618.96151
D1,Atalaia/PR,-23.1513833,-52.0529697,26,671.66107
1,Atalanta/SC,-27.421916,-49.778863,900,28310.78956
D1,Atalanta/SC,-27.421916,-49.778863,11,346.02076
1,Ataléia/MG,-18.04432,-41.1110524,1529,12235.91549
D1,Ataléia/MG,-18.04432,-41.1110524,12,96.03073
1,Atibaia/SP,-23.1177393,-46.5547861,12935,8897.49481
D1,Atibaia/SP,-23.1177393,-46.5547861,328,225.61873
1,Atilio Vivacqua/ES,-20.9139369,-41.1947519,2710,22086.38957
D1,Atilio Vivacqua/ES,-20.9139369,-41.1947519,37,301.54849
1,Augustinópolis/TO,-5.4662267,-47.8897519,2161,11452.04028
D1,Augustinópolis/TO,-5.4662267,-47.8897519,32,169.58135
1,Augusto Corrêa/PA,-1.0229335,-46.6404029,2810,5986.74819
D1,Augusto Corrêa/PA,-1.0229335,-46.6404029,54,115.04783
1,Augusto Pestana/RS,-28.5148413,-53.9906433,1734,26493.50649
D1,Augusto Pestana/RS,-28.5148413,-53.9906433,14,213.90374
1,Augusto de Lima/MG,-18.1092963,-44.2651945,327,6765.98386
D1,Augusto de Lima/MG,-18.1092963,-44.2651945,11,227.60190
1,Aurelino Leal/BA,-14.3167137,-39.3256107,1300,11733.91100
D1,Aurelino Leal/BA,-14.3167137,-39.3256107,39,352.01733
1,Auriflama/SP,-20.6840418,-50.5554616,2189,14292.24341
D1,Auriflama/SP,-20.6840418,-50.5554616,82,535.38783
1,Aurilândia/GO,-16.6772599,-50.4641231,859,28633.33333
D1,Aurilândia/GO,-16.6772599,-50.4641231,15,500.00000
1,Aurora do Pará/PA,-2.1323199,-47.558436,1966,6105.59006
D1,Aurora do Pará/PA,-2.1323199,-47.558436,17,52.79503
1,Aurora do Tocantins/TO,-12.71045,-46.407604,434,11394.06668
D1,Aurora do Tocantins/TO,-12.71045,-46.407604,8,210.02888
1,Aurora/CE,-6.9426019,-38.9693765,2467,10041.92616
D1,Aurora/CE,-6.9426019,-38.9693765,44,179.10205
1,Aurora/SC,-27.3166417,-49.6368502,1416,24898.89221
D1,Aurora/SC,-27.3166417,-49.6368502,20,351.67927
1,Autazes/AM,-3.5833283,-59.1301518,4038,9847.57956
D1,Autazes/AM,-3.5833283,-59.1301518,102,248.75015
1,Avanhandava/SP,-21.4603331,-49.9465156,1242,8831.68598
D1,Avanhandava/SP,-21.4603331,-49.9465156,48,341.32120
1,Avaré/SP,-23.1045215,-48.9259103,14012,15264.94684
D1,Avaré/SP,-23.1045215,-48.9259103,306,333.36238
1,Avaí/SP,-22.1564662,-49.3316395,810,14816.16975
D1,Avaí/SP,-22.1564662,-49.3316395,14,256.08195
1,Aveiro/PA,-3.6049239,-55.3310742,1058,6442.96937
D1,Aveiro/PA,-3.6049239,-55.3310742,16,97.43621
1,Avelino Lopes/PI,-10.1346855,-43.9489525,527,4638.67617
D1,Avelino Lopes/PI,-10.1346855,-43.9489525,23,202.44697
1,Avelinópolis/GO,-16.4672409,-49.7578661,460,19158.68388
D1,Avelinópolis/GO,-16.4672409,-49.7578661,17,708.03832
1,Axixá do Tocantins/TO,-5.612747,-47.77007,1255,12783.94622
D1,Axixá do Tocantins/TO,-5.612747,-47.77007,24,244.47387
1,Axixá/MA,-2.8379465,-44.0561053,192,1569.39676
D1,Axixá/MA,-2.8379465,-44.0561053,7,57.21759
1,Açailândia/MA,-4.9514278,-47.4844564,6473,5688.89904
D1,Açailândia/MA,-4.9514278,-47.4844564,293,257.50771
1,Açu/RN,-5.5836157,-36.9139541,10341,17603.79960
D1,Açu/RN,-5.5836157,-36.9139541,168,285.99152
1,Açucena/MG,-19.073056,-42.546666,845,9115.42611
D1,Açucena/MG,-19.073056,-42.546666,38,409.92449
1,Babaçulândia/TO,-7.2034355,-47.761613,897,8408.32396
D1,Babaçulândia/TO,-7.2034355,-47.761613,8,74.99063
1,Bacabal/MA,-4.2318132,-44.781167,5723,5445.60108
D1,Bacabal/MA,-4.2318132,-44.781167,230,218.85169
1,Bacabeira/MA,-2.9775747,-44.3155943,573,3284.42050
D1,Bacabeira/MA,-2.9775747,-44.3155943,10,57.31973
1,Bacuri/MA,-1.728894,-45.1417148,876,4677.98782
D1,Bacuri/MA,-1.728894,-45.1417148,4,21.36067
1,Bacurituba/MA,-2.7082587,-44.7381309,117,2054.07303
D1,Bacurituba/MA,-2.7082587,-44.7381309,1,17.55618
1,Bady Bassitt/SP,-20.9178969,-49.4517911,4409,24476.76678
D1,Bady Bassitt/SP,-20.9178969,-49.4517911,97,538.49997
1,Baependi/MG,-21.959162,-44.8899249,2900,15065.71770
D1,Baependi/MG,-21.959162,-44.8899249,37,192.21778
1,Bagre/PA,-1.8994498,-50.2103844,1325,4144.89943
D1,Bagre/PA,-1.8994498,-50.2103844,13,40.66694
1,Bagé/RS,-31.3314264,-54.1062808,18612,15316.24944
D1,Bagé/RS,-31.3314264,-54.1062808,327,269.09594
1,Baianópolis/BA,-12.3067564,-44.5383591,1239,8863.29494
D1,Baianópolis/BA,-12.3067564,-44.5383591,26,185.99328
1,Baixa Grande do Ribeiro/PI,-7.862861,-45.2113289,2672,22738.49034
D1,Baixa Grande do Ribeiro/PI,-7.862861,-45.2113289,36,306.35691
1,Baixa Grande/BA,-11.9630941,-40.1657537,1347,6592.92252
D1,Baixa Grande/BA,-11.9630941,-40.1657537,25,122.36308
1,Baixio/CE,-6.7303544,-38.7170095,836,13232.03545
D1,Baixio/CE,-6.7303544,-38.7170095,17,269.07249
1,Baixo Guandu/ES,-19.5138322,-41.0182089,9239,29552.50616
D1,Baixo Guandu/ES,-19.5138322,-41.0182089,102,326.26427
1,Baião/PA,-2.7903479,-49.6702845,938,1896.71210
D1,Baião/PA,-2.7903479,-49.6702845,39,78.86116
1,Balbinos/SP,-21.9006253,-49.3583966,600,9792.72074
D1,Balbinos/SP,-21.9006253,-49.3583966,4,65.28480
1,Baldim/MG,-19.2913568,-43.9558262,744,9562.98201
D1,Baldim/MG,-19.2913568,-43.9558262,24,308.48329
1,Baliza/GO,-16.1978119,-52.542789,678,12513.84275
D1,Baliza/GO,-16.1978119,-52.542789,11,203.02695
1,Balneário Arroio do Silva/SC,-28.9815269,-49.4189932,3435,24923.81367
D1,Balneário Arroio do Silva/SC,-28.9815269,-49.4189932,63,457.11798
1,Balneário Barra do Sul/SC,-26.459842,-48.6061471,2112,18738.35507
D1,Balneário Barra do Sul/SC,-26.459842,-48.6061471,52,461.36101
1,Balneário Camboriú/SC,-26.9924395,-48.6339782,35278,23640.49401
D1,Balneário Camboriú/SC,-26.9924395,-48.6339782,485,325.00821
1,Balneário Gaivota/SC,-29.1553098,-49.5808712,2861,24798.47447
D1,Balneário Gaivota/SC,-29.1553098,-49.5808712,40,346.71058
1,Balneário Pinhal/RS,-30.2482978,-50.234585,3388,23134.17549
D1,Balneário Pinhal/RS,-30.2482978,-50.234585,62,423.35268
1,Balneário Piçarras/SC,-26.7638889,-48.6716667,7084,29050.64589
D1,Balneário Piçarras/SC,-26.7638889,-48.6716667,71,291.16260
1,Balneário Rincão/SC,-28.8235718,-49.2241642,2296,17488.00366
D1,Balneário Rincão/SC,-28.8235718,-49.2241642,54,411.30322
1,Balsa Nova/PR,-25.5842234,-49.6312741,2776,20969.93504
D1,Balsa Nova/PR,-25.5842234,-49.6312741,36,271.94440
1,Balsas/MA,-7.53214,-46.037163,15021,15493.39357
D1,Balsas/MA,-7.53214,-46.037163,236,243.42193
1,Bambuí/MG,-20.0131996,-45.9777034,5992,25004.17293
D1,Bambuí/MG,-20.0131996,-45.9777034,41,171.08997
1,Banabuiú/CE,-5.3046404,-38.919766,2771,15131.32747
D1,Banabuiú/CE,-5.3046404,-38.919766,22,120.13324
1,Bananal/SP,-22.6828195,-44.3221095,1136,10290.78721
D1,Bananal/SP,-22.6828195,-44.3221095,4,36.23517
1,Bananeiras/PB,-6.7537682,-35.6338343,2022,9528.74647
D1,Bananeiras/PB,-6.7537682,-35.6338343,29,136.66352
1,Bandeira do Sul/MG,-21.728056,-46.385555,1211,20850.55096
D1,Bandeira do Sul/MG,-21.728056,-46.385555,16,275.48209
1,Bandeira/MG,-15.884444,-40.559167,674,14225.41157
D1,Bandeira/MG,-15.884444,-40.559167,12,253.27142
1,Bandeirante/SC,-26.7677402,-53.6397596,700,26737.96791
D1,Bandeirante/SC,-26.7677402,-53.6397596,7,267.37968
1,Bandeirantes do Tocantins/TO,-7.7635698,-48.579148,636,17515.83586
D1,Bandeirantes do Tocantins/TO,-7.7635698,-48.579148,8,220.32498
1,Bandeirantes/MS,-19.9179623,-54.3646768,756,10383.18912
D1,Bandeirantes/MS,-19.9179623,-54.3646768,12,164.81253
1,Bandeirantes/PR,-23.107788,-50.370407,8545,27510.38280
D1,Bandeirantes/PR,-23.107788,-50.370407,158,508.67648
1,Bannach/PA,-7.3508505,-50.4064531,656,20253.16456
D1,Bannach/PA,-7.3508505,-50.4064531,3,92.62118
1,Banzaê/BA,-10.5827616,-38.6122305,1295,9772.84733
D1,Banzaê/BA,-10.5827616,-38.6122305,12,90.55920
1,Baraúna/PB,-6.643394,-36.2531932,776,15418.23962
D1,Baraúna/PB,-6.643394,-36.2531932,9,178.81979
1,Baraúna/RN,-5.0775002,-37.61752,1751,6014.70184
D1,Baraúna/RN,-5.0775002,-37.61752,32,109.92031
1,Barbacena/MG,-21.2254524,-43.7735087,14534,10451.52847
D1,Barbacena/MG,-21.2254524,-43.7735087,344,247.37345
1,Barbalha/CE,-7.3121067,-39.3036427,9281,15051.40930
D1,Barbalha/CE,-7.3121067,-39.3036427,205,332.45759
1,Barbosa Ferraz/PR,-24.0287182,-52.00811,3074,27234.87198
D1,Barbosa Ferraz/PR,-24.0287182,-52.00811,50,442.98751
1,Barbosa/SP,-21.265661,-49.951816,881,11696.76049
D1,Barbosa/SP,-21.265661,-49.951816,23,305.36378
1,Barcarena/PA,-1.5107945,-48.6190679,13357,10327.60394
D1,Barcarena/PA,-1.5107945,-48.6190679,252,194.84586
1,Barcelona/RN,-5.9514918,-35.9260284,422,10579.09250
D1,Barcelona/RN,-5.9514918,-35.9260284,9,225.62046
1,Barcelos/AM,-0.9729214,-62.925635,5309,19116.37621
D1,Barcelos/AM,-0.9729214,-62.925635,60,216.04494
1,Bariri/SP,-22.0746355,-48.7394852,4550,12693.89577
D1,Bariri/SP,-22.0746355,-48.7394852,144,401.74088
1,Barra Bonita/SC,-26.6526364,-53.4419581,404,24861.53846
D1,Barra Bonita/SC,-26.6526364,-53.4419581,2,123.07692
1,Barra Bonita/SP,-22.490859,-48.558349,5369,14862.28374
D1,Barra Bonita/SP,-22.490859,-48.558349,127,351.55709
1,Barra D'Alcântara/PI,-6.5209258,-42.1071089,156,3946.36985
D1,Barra D'Alcântara/PI,-6.5209258,-42.1071089,5,126.48621
1,Barra Funda/RS,-27.9230048,-53.0401045,950,37065.93835
D1,Barra Funda/RS,-27.9230048,-53.0401045,14,546.23488
1,Barra Longa/MG,-20.2833541,-43.0423516,593,12089.70438
D1,Barra Longa/MG,-20.2833541,-43.0423516,13,265.03568
1,Barra Mansa/RJ,-22.5394843,-44.1735129,44416,23977.93097
D1,Barra Mansa/RJ,-22.5394843,-44.1735129,739,398.94837
1,Barra Velha/SC,-26.6338203,-48.6835001,6195,20285.53653
D1,Barra Velha/SC,-26.6338203,-48.6835001,143,468.25371
1,Barra da Estiva/BA,-13.6269662,-41.3278287,3535,17501.73284
D1,Barra da Estiva/BA,-13.6269662,-41.3278287,36,178.23547
1,Barra de Guabiraba/PE,-8.4173522,-35.6626669,850,5809.18535
D1,Barra de Guabiraba/PE,-8.4173522,-35.6626669,19,129.85238
1,Barra de Santa Rosa/PB,-6.7218007,-36.0564638,1744,11174.47299
D1,Barra de Santa Rosa/PB,-6.7218007,-36.0564638,16,102.51810
1,Barra de Santana/PB,-7.5230865,-35.9988518,1105,13252.57856
D1,Barra de Santana/PB,-7.5230865,-35.9988518,8,95.94627
1,Barra de Santo Antônio/AL,-9.4038098,-35.5117693,603,3721.99247
D1,Barra de Santo Antônio/AL,-9.4038098,-35.5117693,33,203.69113
1,Barra de São Francisco/ES,-18.7570902,-40.8916119,10726,23677.18152
D1,Barra de São Francisco/ES,-18.7570902,-40.8916119,256,565.10894
1,Barra de São Miguel/AL,-9.8261357,-35.8837777,930,11026.79630
D1,Barra de São Miguel/AL,-9.8261357,-35.8837777,10,118.56770
1,Barra de São Miguel/PB,-7.7528088,-36.3170996,1186,19458.57260
D1,Barra de São Miguel/PB,-7.7528088,-36.3170996,10,164.06891
1,Barra do Bugres/MT,-15.0683712,-57.1853688,5883,16505.80775
D1,Barra do Bugres/MT,-15.0683712,-57.1853688,98,274.95651
1,Barra do Chapéu/SP,-24.472203,-49.023784,454,7835.69210
D1,Barra do Chapéu/SP,-24.472203,-49.023784,12,207.11080
1,Barra do Choça/BA,-14.8638173,-40.5761637,2819,9143.39464
D1,Barra do Choça/BA,-14.8638173,-40.5761637,40,129.73955
1,Barra do Corda/MA,-5.496823,-45.248496,5876,6610.04556
D1,Barra do Corda/MA,-5.496823,-45.248496,78,87.74397
1,Barra do Garças/MT,-15.8916033,-52.2615413,13929,22574.63291
D1,Barra do Garças/MT,-15.8916033,-52.2615413,401,649.89790
1,Barra do Guarita/RS,-27.1888016,-53.7147086,133,4072.25964
D1,Barra do Guarita/RS,-27.1888016,-53.7147086,8,244.94795
1,Barra do Jacaré/PR,-23.1151788,-50.1813945,582,20927.72384
D1,Barra do Jacaré/PR,-23.1151788,-50.1813945,7,251.70802
1,Barra do Mendes/BA,-11.8053298,-42.057037,1064,8104.81414
D1,Barra do Mendes/BA,-11.8053298,-42.057037,20,152.34613
1,Barra do Ouro/TO,-7.7113784,-47.6743925,177,3787.71667
D1,Barra do Ouro/TO,-7.7113784,-47.6743925,8,171.19623
1,Barra do Piraí/RJ,-22.4703403,-43.8263256,10490,10371.86446
D1,Barra do Piraí/RJ,-22.4703403,-43.8263256,436,431.08989
1,Barra do Quaraí/RS,-30.208947,-57.5505128,1022,24115.14866
D1,Barra do Quaraí/RS,-30.208947,-57.5505128,9,212.36432
1,Barra do Ribeiro/RS,-30.2930206,-51.301437,1769,12990.16008
D1,Barra do Ribeiro/RS,-30.2930206,-51.301437,57,418.56367
1,Barra do Rio Azul/RS,-27.4101581,-52.4117471,208,12831.58544
D1,Barra do Rio Azul/RS,-27.4101581,-52.4117471,1,61.69031
1,Barra do Rocha/BA,-14.2090974,-39.6004395,663,12021.75884
D1,Barra do Rocha/BA,-14.2090974,-39.6004395,8,145.05893
1,Barra do Turvo/SP,-24.756421,-48.5056942,771,10136.73416
D1,Barra do Turvo/SP,-24.756421,-48.5056942,25,328.68788
1,Barra dos Coqueiros/SE,-10.9075694,-37.0386249,8421,26785.20309
D1,Barra dos Coqueiros/SE,-10.9075694,-37.0386249,107,340.34161
1,Barra/BA,-11.0892702,-43.1420453,3223,5943.75288
D1,Barra/BA,-11.0892702,-43.1420453,70,129.09175
1,Barracão/PR,-26.252395,-53.6349576,2546,24606.16604
D1,Barracão/PR,-26.252395,-53.6349576,39,376.92085
1,Barracão/RS,-27.6728964,-51.4582928,843,16097.00210
D1,Barracão/RS,-27.6728964,-51.4582928,18,343.70823
1,Barras/PI,-4.2446153,-42.2920241,5936,12550.21354
D1,Barras/PI,-4.2446153,-42.2920241,105,221.99670
1,Barreira/CE,-4.2883361,-38.641094,2104,9262.60180
D1,Barreira/CE,-4.2883361,-38.641094,53,233.32600
1,Barreiras do Piauí/PI,-9.9224524,-45.4763776,114,3396.90107
D1,Barreiras do Piauí/PI,-9.9224524,-45.4763776,4,119.18951
1,Barreiras/BA,-12.1440031,-44.9967406,23491,14827.18138
D1,Barreiras/BA,-12.1440031,-44.9967406,352,222.17734
1,Barreirinha/AM,-2.798863,-57.067897,3754,11403.74860
D1,Barreirinha/AM,-2.798863,-57.067897,68,206.56764
1,Barreirinhas/MA,-2.7541271,-42.8259693,2794,4373.07289
D1,Barreirinhas/MA,-2.7541271,-42.8259693,46,71.99762
1,Barreiros/PE,-8.8159644,-35.1831905,1225,2857.74273
D1,Barreiros/PE,-8.8159644,-35.1831905,67,156.30103
1,Barretos/SP,-20.5531437,-48.5697509,21750,17604.77879
D1,Barretos/SP,-20.5531437,-48.5697509,626,506.69386
1,Barrinha/SP,-21.1898849,-48.1550642,1740,5188.29949
D1,Barrinha/SP,-21.1898849,-48.1550642,89,265.37854
1,Barro Alto/BA,-11.7618025,-41.9094904,1158,7632.98398
D1,Barro Alto/BA,-11.7618025,-41.9094904,17,112.05590
1,Barro Alto/GO,-14.9696025,-48.9190985,2101,18045.17736
D1,Barro Alto/GO,-14.9696025,-48.9190985,24,206.13244
1,Barro Duro/PI,-5.8180139,-42.5106589,810,11535.17516
D1,Barro Duro/PI,-5.8180139,-42.5106589,12,170.89148
1,Barro Preto/BA,-14.8068289,-39.4727588,752,14156.62651
D1,Barro Preto/BA,-14.8068289,-39.4727588,14,263.55422
1,Barro/CE,-7.1713587,-38.7742136,2518,11027.41526
D1,Barro/CE,-7.1713587,-38.7742136,49,214.59227
1,Barrocas/BA,-11.5165,-39.099282894736845,1047,6453.00462
D1,Barrocas/BA,-11.5165,-39.099282894736845,28,172.57319
1,Barrolândia/TO,-9.837246,-48.7264346,843,14870.34750
D1,Barrolândia/TO,-9.837246,-48.7264346,21,370.43570
1,Barroquinha/CE,-3.0200371,-41.1339229,1598,10604.55239
D1,Barroquinha/CE,-3.0200371,-41.1339229,27,179.17579
1,Barros Cassal/RS,-29.094938,-52.5832366,1488,13324.97537
D1,Barros Cassal/RS,-29.094938,-52.5832366,16,143.27931
1,Barroso/MG,-21.187222,-43.976111,4983,23750.05958
D1,Barroso/MG,-21.187222,-43.976111,69,328.86898
1,Barueri/SP,-23.5112184,-46.8764612,39944,14280.81114
D1,Barueri/SP,-23.5112184,-46.8764612,1242,444.04084
1,Barão de Antonina/SP,-23.6295651,-49.5632104,809,22950.35461
D1,Barão de Antonina/SP,-23.6295651,-49.5632104,11,312.05674
1,Barão de Cocais/MG,-19.9452437,-43.4870298,6702,20167.30862
D1,Barão de Cocais/MG,-19.9452437,-43.4870298,84,252.76842
1,Barão de Cotegipe/RS,-27.6214694,-52.3765316,1032,15598.54897
D1,Barão de Cotegipe/RS,-27.6214694,-52.3765316,11,166.26360
1,Barão de Grajaú/MA,-6.7542591,-43.0263477,481,2528.11942
D1,Barão de Grajaú/MA,-6.7542591,-43.0263477,6,31.53579
1,Barão de Melgaço/MT,-16.195776,-55.9668049,919,11255.35824
D1,Barão de Melgaço/MT,-16.195776,-55.9668049,18,220.45315
1,Barão de Monte Alto/MG,-21.244722,-42.2375,387,7286.76332
D1,Barão de Monte Alto/MG,-21.244722,-42.2375,16,301.26153
1,Barão do Triunfo/RS,-30.3909877,-51.7375349,715,9470.19868
D1,Barão do Triunfo/RS,-30.3909877,-51.7375349,9,119.20530
1,Barão/RS,-29.372474,-51.494908,1179,18918.48524
D1,Barão/RS,-29.372474,-51.494908,14,224.64698
1,Bastos/SP,-21.9222474,-50.7317727,2297,10963.15388
D1,Bastos/SP,-21.9222474,-50.7317727,55,262.50477
1,Bataguassu/MS,-21.715899,-52.422058,4163,17624.89416
D1,Bataguassu/MS,-21.715899,-52.422058,53,224.38611
1,Batalha/AL,-9.6733809,-37.1265481,1262,6843.81779
D1,Batalha/AL,-9.6733809,-37.1265481,23,124.72885
1,Batalha/PI,-4.022391,-42.0780926,1453,5391.26563
D1,Batalha/PI,-4.022391,-42.0780926,40,148.41750
1,Batatais/SP,-20.892867,-47.592149,6698,10558.34043
D1,Batatais/SP,-20.892867,-47.592149,204,321.57382
1,Batayporã/MS,-22.2976466,-53.2685608,1734,15253.34272
D1,Batayporã/MS,-22.2976466,-53.2685608,30,263.89866
1,Baturité/CE,-4.3290203,-38.8821055,5269,14584.65967
D1,Baturité/CE,-4.3290203,-38.8821055,91,251.88917
1,Bauru/SP,-22.3218102,-49.0705863,71316,18683.48939
D1,Bauru/SP,-22.3218102,-49.0705863,1393,364.94056
1,Bayeux/PB,-7.1301631,-34.936532,10717,10989.65330
D1,Bayeux/PB,-7.1301631,-34.936532,270,276.86912
1,Baía Formosa/RN,-6.3691885,-35.0063741,717,7649.63192
D1,Baía Formosa/RN,-6.3691885,-35.0063741,10,106.68943
1,Baía da Traição/PB,-6.691258,-34.9371244,1618,17592.69327
D1,Baía da Traição/PB,-6.691258,-34.9371244,13,141.35044
1,Bebedouro/SP,-20.949077,-48.479083,5035,6487.39886
D1,Bebedouro/SP,-20.949077,-48.479083,337,434.21120
1,Beberibe/CE,-4.1810469,-38.1298101,8492,15634.72337
D1,Beberibe/CE,-4.1810469,-38.1298101,141,259.59680
1,Bela Cruz/CE,-3.0529129,-40.167582,4019,12234.02636
D1,Bela Cruz/CE,-3.0529129,-40.167582,77,234.39165
1,Bela Vista da Caroba/PR,-25.8792818,-53.6672545,695,20417.15629
D1,Bela Vista da Caroba/PR,-25.8792818,-53.6672545,8,235.01763
1,Bela Vista de Goiás/GO,-16.9692949,-48.9513071,4711,15194.81357
D1,Bela Vista de Goiás/GO,-16.9692949,-48.9513071,89,287.05973
1,Bela Vista de Minas/MG,-19.8289721,-43.0973688,1308,12737.36488
D1,Bela Vista de Minas/MG,-19.8289721,-43.0973688,25,243.45116
1,Bela Vista do Maranhão/MA,-3.7416367,-45.2514192,230,2026.96748
D1,Bela Vista do Maranhão/MA,-3.7416367,-45.2514192,19,167.44514
1,Bela Vista do Paraíso/PR,-22.9948493,-51.1907996,3217,20889.61039
D1,Bela Vista do Paraíso/PR,-22.9948493,-51.1907996,80,519.48052
1,Bela Vista do Piauí/PI,-7.9716353,-41.8715061,324,8011.86944
D1,Bela Vista do Piauí/PI,-7.9716353,-41.8715061,7,173.09594
1,Bela Vista do Toldo/SC,-26.274625,-50.466354,100,1565.92546
D1,Bela Vista do Toldo/SC,-26.274625,-50.466354,5,78.29627
1,Bela Vista/MS,-22.107327,-56.5317344,2527,10172.28887
D1,Bela Vista/MS,-22.107327,-56.5317344,42,169.06851
1,Belford Roxo/RJ,-22.7667284,-43.4033603,40216,7805.30977
D1,Belford Roxo/RJ,-22.7667284,-43.4033603,1007,195.44328
1,Belmiro Braga/MG,-21.9486291,-43.413564,655,19140.85330
D1,Belmiro Braga/MG,-21.9486291,-43.413564,5,146.11338
1,Belmonte/BA,-15.8630837,-38.8792845,1605,6818.18182
D1,Belmonte/BA,-15.8630837,-38.8792845,32,135.93883
1,Belmonte/SC,-26.8448262,-53.578916,569,20980.82596
D1,Belmonte/SC,-26.8448262,-53.578916,5,184.36578
1,Belo Campo/BA,-15.0338286,-41.2585109,1162,6830.07112
D1,Belo Campo/BA,-15.0338286,-41.2585109,22,129.31288
1,Belo Horizonte/MG,-19.9227318,-43.9450948,386884,15287.62189
D1,Belo Horizonte/MG,-19.9227318,-43.9450948,7686,303.71032
1,Belo Jardim/PE,-8.3338293,-36.4176419,8034,10443.26011
D1,Belo Jardim/PE,-8.3338293,-36.4176419,134,174.18432
1,Belo Monte/AL,-9.8269944,-37.2787165,601,8947.44678
D1,Belo Monte/AL,-9.8269944,-37.2787165,9,133.98839
1,Belo Oriente/MG,-19.2232523,-42.4807033,3346,12266.74488
D1,Belo Oriente/MG,-19.2232523,-42.4807033,81,296.95348
1,Belo Vale/MG,-20.407778,-44.024167,1723,22309.98317
D1,Belo Vale/MG,-20.407778,-44.024167,15,194.22504
1,Belterra/PA,-2.636091,-54.937392,2852,15893.89211
D1,Belterra/PA,-2.636091,-54.937392,48,267.49889
1,Belágua/MA,-3.1604031,-43.5085052,446,5879.25125
D1,Belágua/MA,-3.1604031,-43.5085052,4,52.72871
1,Belém de Maria/PE,-8.6242497,-35.8388934,509,4182.75947
D1,Belém de Maria/PE,-8.6242497,-35.8388934,8,65.74082
1,Belém do Brejo do Cruz/PB,-6.1880727,-37.5332267,820,11147.36270
D1,Belém do Brejo do Cruz/PB,-6.1880727,-37.5332267,8,108.75476
1,Belém do Piauí/PI,-7.3767305,-40.9712156,625,17327.41891
D1,Belém do Piauí/PI,-7.3767305,-40.9712156,8,221.79096
1,Belém do São Francisco/PE,-8.7517707,-38.9625715,1460,7042.93295
D1,Belém do São Francisco/PE,-8.7517707,-38.9625715,16,77.18283
1,Belém/AL,-9.5715351,-36.492841,210,4969.23805
D1,Belém/AL,-9.5715351,-36.492841,8,189.30431
1,Belém/PA,-1.45056,-48.4682453,138824,9215.49103
D1,Belém/PA,-1.45056,-48.4682453,5311,352.55772
1,Belém/PB,-6.6967586,-35.5369626,3063,17272.88107
D1,Belém/PB,-6.6967586,-35.5369626,48,270.68178
1,Beneditinos/PI,-5.4565671,-42.3605061,1474,14066.22769
D1,Beneditinos/PI,-5.4565671,-42.3605061,41,391.25871
1,Benedito Leite/MA,-7.2173453,-44.5523331,339,6007.44285
D1,Benedito Leite/MA,-7.2173453,-44.5523331,2,35.44214
1,Benedito Novo/SC,-26.7840657,-49.3629511,1489,12516.81237
D1,Benedito Novo/SC,-26.7840657,-49.3629511,22,184.93611
1,Benevides/PA,-1.3555577,-48.252235,6270,9678.91324
D1,Benevides/PA,-1.3555577,-48.252235,112,172.89287
1,Benjamin Constant do Sul/RS,-27.5105555,-52.6007689,204,10602.91060
D1,Benjamin Constant do Sul/RS,-27.5105555,-52.6007689,3,155.92516
1,Benjamin Constant/AM,-4.3782748,-70.0290603,3987,8885.07566
D1,Benjamin Constant/AM,-4.3782748,-70.0290603,88,196.10902
1,Bento Fernandes/RN,-5.6926846,-35.8207423,202,3638.32853
D1,Bento Fernandes/RN,-5.6926846,-35.8207423,3,54.03458
1,Bento Gonçalves/RS,-29.1654014,-51.5197627,35256,28642.45674
D1,Bento Gonçalves/RS,-29.1654014,-51.5197627,448,363.96133
1,Bento de Abreu/SP,-21.2707225,-50.8120444,627,20706.73712
D1,Bento de Abreu/SP,-21.2707225,-50.8120444,5,165.12550
1,Bequimão/MA,-2.4495376,-44.7884889,499,2340.85472
D1,Bequimão/MA,-2.4495376,-44.7884889,28,131.35057
1,Berilo/MG,-16.9515764,-42.4643732,406,3436.89156
D1,Berilo/MG,-16.9515764,-42.4643732,1,8.46525
1,Berizal/MG,-15.6118785,-41.7417382,331,6907.34558
D1,Berizal/MG,-15.6118785,-41.7417382,3,62.60434
1,Bernardino Batista/PB,-6.4532173,-38.5495418,445,12461.49538
D1,Bernardino Batista/PB,-6.4532173,-38.5495418,3,84.01008
1,Bernardino de Campos/SP,-23.0140216,-49.4760724,2043,18293.33811
D1,Bernardino de Campos/SP,-23.0140216,-49.4760724,38,340.25788
1,Bernardo Sayão/TO,-7.8794244,-48.8968905,955,21513.85447
D1,Bernardo Sayão/TO,-7.8794244,-48.8968905,13,292.85875
1,Bernardo do Mearim/MA,-4.6315929,-44.7617508,577,9455.91609
D1,Bernardo do Mearim/MA,-4.6315929,-44.7617508,7,114.71649
1,Bertioga/SP,-23.848568,-46.139586,8949,13527.52668
D1,Bertioga/SP,-23.848568,-46.139586,185,279.65051
1,Bertolínia/PI,-7.6372159,-43.9540611,1140,20682.14804
D1,Bertolínia/PI,-7.6372159,-43.9540611,12,217.70682
1,Bertópolis/MG,-17.063333,-40.573889,725,15730.09330
D1,Bertópolis/MG,-17.063333,-40.573889,6,130.18008
1,Beruri/AM,-3.9007135,-61.3717319,2895,14119.88489
D1,Beruri/AM,-3.9007135,-61.3717319,35,170.70673
1,Betim/MG,-19.968056,-44.198333,46511,10335.22657
D1,Betim/MG,-19.968056,-44.198333,1424,316.42757
1,Betânia do Piauí/PI,-8.1460635,-40.7961387,183,2944.96299
D1,Betânia do Piauí/PI,-8.1460635,-40.7961387,4,64.37078
1,Betânia/PE,-8.2742779,-38.0351767,565,4410.27242
D1,Betânia/PE,-8.2742779,-38.0351767,19,148.31005
1,Bezerros/PE,-8.2372132,-35.7558262,7334,12030.83990
D1,Bezerros/PE,-8.2372132,-35.7558262,130,213.25459
1,Bias Fortes/MG,-21.605833,-43.756944,368,11212.67520
D1,Bias Fortes/MG,-21.605833,-43.756944,4,121.87690
1,Bicas/MG,-21.7213723,-43.0604327,3376,23104.29784
D1,Bicas/MG,-21.7213723,-43.0604327,52,355.87189
1,Biguaçu/SC,-27.4961277,-48.6542432,16200,22988.17953
D1,Biguaçu/SC,-27.4961277,-48.6542432,183,259.68129
1,Bilac/SP,-21.403962,-50.47464,962,11736.00098
D1,Bilac/SP,-21.403962,-50.47464,23,280.59046
1,Biquinhas/MG,-18.783611,-45.502222,425,17123.28767
D1,Biquinhas/MG,-18.783611,-45.502222,4,161.16035
1,Birigui/SP,-21.2908491,-50.34144,26446,20973.24218
D1,Birigui/SP,-21.2908491,-50.34144,635,503.59256
1,Biritiba Mirim/SP,-23.5697765,-46.0407456,1578,4743.72464
D1,Biritiba Mirim/SP,-23.5697765,-46.0407456,118,354.72719
1,Biritinga/BA,-11.6227908,-38.8066738,975,6097.94234
D1,Biritinga/BA,-11.6227908,-38.8066738,10,62.54300
1,Bituruna/PR,-26.161281,-51.5533319,2537,15459.14326
D1,Bituruna/PR,-26.161281,-51.5533319,37,225.45853
1,Blumenau/SC,-26.9195567,-49.0658025,87501,23880.10414
D1,Blumenau/SC,-26.9195567,-49.0658025,772,210.68834
1,Boa Esperança do Iguaçu/PR,-25.6362851,-53.2139114,455,18670.49651
D1,Boa Esperança do Iguaçu/PR,-25.6362851,-53.2139114,1,41.03406
1,Boa Esperança do Sul/SP,-21.9930206,-48.3917372,2612,17285.42122
D1,Boa Esperança do Sul/SP,-21.9930206,-48.3917372,26,172.06009
1,Boa Esperança/ES,-18.5395472,-40.2904088,3974,26237.95061
D1,Boa Esperança/ES,-18.5395472,-40.2904088,51,336.72257
1,Boa Esperança/MG,-21.0901253,-45.5660195,7916,19638.78138
D1,Boa Esperança/MG,-21.0901253,-45.5660195,152,377.09636
1,Boa Esperança/PR,-24.2411024,-52.7860277,1327,33249.81208
D1,Boa Esperança/PR,-24.2411024,-52.7860277,20,501.12754
1,Boa Hora/PI,-4.4094627,-42.1255341,607,8863.90187
D1,Boa Hora/PI,-4.4094627,-42.1255341,7,102.21963
1,Boa Nova/BA,-14.365907,-40.2063056,1193,9909.46092
D1,Boa Nova/BA,-14.365907,-40.2063056,23,191.04577
1,Boa Ventura de São Roque/PR,-24.88177,-51.5441292,1068,16837.45862
D1,Boa Ventura de São Roque/PR,-24.88177,-51.5441292,10,157.65411
1,Boa Ventura/PB,-7.4202462,-38.2156782,925,17625.76220
D1,Boa Ventura/PB,-7.4202462,-38.2156782,12,228.65854
1,Boa Viagem/CE,-5.1261877,-39.7300055,5329,9745.79371
D1,Boa Viagem/CE,-5.1261877,-39.7300055,121,221.28749
1,Boa Vista da Aparecida/PR,-25.4357216,-53.4067721,1751,23272.19564
D1,Boa Vista da Aparecida/PR,-25.4357216,-53.4067721,38,505.05051
1,Boa Vista das Missões/RS,-27.6677983,-53.3127622,426,20412.07475
D1,Boa Vista das Missões/RS,-27.6677983,-53.3127622,7,335.40968
1,Boa Vista do Buricá/RS,-27.6687782,-54.1111913,1640,24433.84982
D1,Boa Vista do Buricá/RS,-27.6687782,-54.1111913,13,193.68296
1,Boa Vista do Cadeado/RS,-28.5783827,-53.8123759,386,15652.87916
D1,Boa Vista do Cadeado/RS,-28.5783827,-53.8123759,5,202.75750
1,Boa Vista do Gurupi/MA,-1.7981168,-46.3071882,16,188.36826
D1,Boa Vista do Gurupi/MA,-1.7981168,-46.3071882,5,58.86508
1,Boa Vista do Incra/RS,-28.8195551,-53.3866624,656,24961.94825
D1,Boa Vista do Incra/RS,-28.8195551,-53.3866624,5,190.25875
1,Boa Vista do Ramos/AM,-2.9716927,-57.5869819,1667,8318.36327
D1,Boa Vista do Ramos/AM,-2.9716927,-57.5869819,14,69.86028
1,Boa Vista do Sul/RS,-29.3510488,-51.6779679,557,20086.54886
D1,Boa Vista do Sul/RS,-29.3510488,-51.6779679,5,180.31013
1,Boa Vista do Tupim/BA,-12.6605988,-40.6083594,308,1665.67519
D1,Boa Vista do Tupim/BA,-12.6605988,-40.6083594,13,70.30447
1,Boa Vista/PB,-7.2620711,-36.2415161,1427,19770.01940
D1,Boa Vista/PB,-7.2620711,-36.2415161,16,221.66805
1,Boa Vista/RR,2.8208478,-60.6719582,119681,27412.61272
D1,Boa Vista/RR,2.8208478,-60.6719582,1620,371.05666
1,Boca da Mata/AL,-9.6452054,-36.2116658,2539,9256.62620
D1,Boca da Mata/AL,-9.6452054,-36.2116658,50,182.28882
1,Boca do Acre/AM,-8.7553487,-67.3930873,4178,11951.48464
D1,Boca do Acre/AM,-8.7553487,-67.3930873,32,91.53842
1,Bocaina de Minas/MG,-22.167778,-44.394722,469,9217.76730
D1,Bocaina de Minas/MG,-22.167778,-44.394722,7,137.57862
1,Bocaina do Sul/SC,-27.745494,-49.942279,766,21879.46301
D1,Bocaina do Sul/SC,-27.745494,-49.942279,5,142.81634
1,Bocaina/PI,-6.9445939,-41.3224599,451,10002.21779
D1,Bocaina/PI,-6.9445939,-41.3224599,11,243.95653
1,Bocaina/SP,-22.1421831,-48.522276,2244,17850.60854
D1,Bocaina/SP,-22.1421831,-48.522276,37,294.32822
1,Bocaiúva do Sul/PR,-25.206591,-49.114131,2977,22370.00301
D1,Bocaiúva do Sul/PR,-25.206591,-49.114131,29,217.91404
1,Bocaiúva/MG,-17.1160208,-43.8122678,4395,8699.35274
D1,Bocaiúva/MG,-17.1160208,-43.8122678,74,146.47374
1,Bodocó/PE,-7.777592,-39.933797,2441,6323.01515
D1,Bodocó/PE,-7.777592,-39.933797,44,113.97487
1,Bodoquena/MS,-20.5508775,-56.6769653,627,8036.40092
D1,Bodoquena/MS,-20.5508775,-56.6769653,23,294.79621
1,Bodó/RN,-5.9866104,-36.4134824,442,20359.28144
D1,Bodó/RN,-5.9866104,-36.4134824,1,46.06172
1,Bofete/SP,-23.1019554,-48.2610535,1798,14850.91270
D1,Bofete/SP,-23.1019554,-48.2610535,29,239.53085
1,Boituva/SP,-23.2838893,-47.6738231,7009,11070.92087
D1,Boituva/SP,-23.2838893,-47.6738231,209,330.12162
1,Bom Conselho/PE,-9.169191,-36.685683,3461,7066.87085
D1,Bom Conselho/PE,-9.169191,-36.685683,85,173.55794
1,Bom Despacho/MG,-19.7375242,-45.2517288,10807,21010.57625
D1,Bom Despacho/MG,-19.7375242,-45.2517288,127,246.90878
1,Bom Jardim da Serra/SC,-28.3380324,-49.625588,991,20641.53301
D1,Bom Jardim da Serra/SC,-28.3380324,-49.625588,8,166.63195
1,Bom Jardim de Goiás/GO,-16.2062659,-52.172793,1885,21151.25673
D1,Bom Jardim de Goiás/GO,-16.2062659,-52.172793,31,347.84560
1,Bom Jardim de Minas/MG,-21.9476466,-44.1906033,1123,17427.06394
D1,Bom Jardim de Minas/MG,-21.9476466,-44.1906033,7,108.62818
1,Bom Jardim/MA,-3.54129,-45.606004,1995,4748.86932
D1,Bom Jardim/MA,-3.54129,-45.606004,58,138.06237
1,Bom Jardim/PE,-7.7961572,-35.5871696,2413,6026.77456
D1,Bom Jardim/PE,-7.7961572,-35.5871696,73,182.32679
1,Bom Jardim/RJ,-22.1515328,-42.4186683,4063,14626.15645
D1,Bom Jardim/RJ,-22.1515328,-42.4186683,60,215.99050
1,Bom Jesus da Lapa/BA,-13.250571,-43.410754,7302,10408.97493
D1,Bom Jesus da Lapa/BA,-13.250571,-43.410754,105,149.67713
1,Bom Jesus da Penha/MG,-21.0165299,-46.5226644,1124,26323.18501
D1,Bom Jesus da Penha/MG,-21.0165299,-46.5226644,20,468.38407
1,Bom Jesus da Serra/BA,-14.3724084,-40.5047119,595,6091.31859
D1,Bom Jesus da Serra/BA,-14.3724084,-40.5047119,12,122.85012
1,Bom Jesus das Selvas/MA,-4.4878075,-46.8526639,4435,12637.12780
D1,Bom Jesus das Selvas/MA,-4.4878075,-46.8526639,44,125.37398
1,Bom Jesus de Goiás/GO,-18.2174587,-49.739721,4947,18976.56220
D1,Bom Jesus de Goiás/GO,-18.2174587,-49.739721,123,471.82477
1,Bom Jesus do Amparo/MG,-19.7045132,-43.4752911,638,10320.28470
D1,Bom Jesus do Amparo/MG,-19.7045132,-43.4752911,8,129.40796
1,Bom Jesus do Araguaia/MT,-12.1725897,-51.5074425,1130,16544.65593
D1,Bom Jesus do Araguaia/MT,-12.1725897,-51.5074425,17,248.90190
1,Bom Jesus do Galho/MG,-19.8283191,-42.3162256,1023,6915.90049
D1,Bom Jesus do Galho/MG,-19.8283191,-42.3162256,39,263.65603
1,Bom Jesus do Itabapoana/RJ,-21.1341025,-41.680095,7410,19862.75666
D1,Bom Jesus do Itabapoana/RJ,-21.1341025,-41.680095,123,329.70568
1,Bom Jesus do Norte/ES,-21.1254776,-41.6711646,2256,22587.10453
D1,Bom Jesus do Norte/ES,-21.1254776,-41.6711646,31,310.37245
1,Bom Jesus do Oeste/SC,-26.6929713,-53.0967453,362,16947.56554
D1,Bom Jesus do Oeste/SC,-26.6929713,-53.0967453,6,280.89888
1,Bom Jesus do Sul/PR,-26.1922507,-53.6002033,1235,35570.27650
D1,Bom Jesus do Sul/PR,-26.1922507,-53.6002033,9,259.21659
1,Bom Jesus do Tocantins/PA,-5.0471796,-48.5978362,1217,7053.43688
D1,Bom Jesus do Tocantins/PA,-5.0471796,-48.5978362,29,168.07697
1,Bom Jesus do Tocantins/TO,-8.96306,-48.165043,192,3750.00000
D1,Bom Jesus do Tocantins/TO,-8.96306,-48.165043,3,58.59375
1,Bom Jesus dos Perdões/SP,-23.1353864,-46.4648052,2516,9492.19045
D1,Bom Jesus dos Perdões/SP,-23.1353864,-46.4648052,32,120.72738
1,Bom Jesus/PB,-6.8156725,-38.6551841,392,15146.83153
D1,Bom Jesus/PB,-6.8156725,-38.6551841,4,154.55951
1,Bom Jesus/PI,-9.0711644,-44.3583926,3840,15009.38086
D1,Bom Jesus/PI,-9.0711644,-44.3583926,52,203.25203
1,Bom Jesus/RN,-5.9887544,-35.5821149,1324,12825.72895
D1,Bom Jesus/RN,-5.9887544,-35.5821149,20,193.74213
1,Bom Jesus/RS,-28.6692723,-50.4346894,1745,15483.58474
D1,Bom Jesus/RS,-28.6692723,-50.4346894,26,230.70098
1,Bom Jesus/SC,-26.7350604,-52.3916519,774,24935.56701
D1,Bom Jesus/SC,-26.7350604,-52.3916519,12,386.59794
1,Bom Lugar/MA,-4.3728019,-45.0366054,656,3957.05151
D1,Bom Lugar/MA,-4.3728019,-45.0366054,7,42.22464
1,Bom Princípio do Piauí/PI,-3.1912777,-41.6430185,241,4250.44092
D1,Bom Princípio do Piauí/PI,-3.1912777,-41.6430185,13,229.27690
1,Bom Princípio/RS,-29.489788,-51.3566782,3442,23826.66482
D1,Bom Princípio/RS,-29.489788,-51.3566782,34,235.35927
1,Bom Progresso/RS,-27.5490948,-53.8655601,308,16576.96448
D1,Bom Progresso/RS,-27.5490948,-53.8655601,3,161.46394
1,Bom Repouso/MG,-22.4657069,-46.1485376,1967,18685.28546
D1,Bom Repouso/MG,-22.4657069,-46.1485376,33,313.47962
1,Bom Retiro do Sul/RS,-29.6000007,-51.9359243,2017,16203.40617
D1,Bom Retiro do Sul/RS,-29.6000007,-51.9359243,40,321.33676
1,Bom Retiro/SC,-27.798993,-49.486994,1231,12124.49522
D1,Bom Retiro/SC,-27.798993,-49.486994,22,216.68472
1,Bom Sucesso de Itararé/SP,-24.3190016,-49.1446207,263,6553.70047
D1,Bom Sucesso de Itararé/SP,-24.3190016,-49.1446207,7,174.43309
1,Bom Sucesso do Sul/PR,-26.0749256,-52.8348629,891,27466.09125
D1,Bom Sucesso do Sul/PR,-26.0749256,-52.8348629,10,308.26141
1,Bom Sucesso/MG,-21.0323516,-44.7598082,1972,11196.91120
D1,Bom Sucesso/MG,-21.0323516,-44.7598082,30,170.33841
1,Bom Sucesso/PB,-6.4458948,-37.9297662,673,13631.76018
D1,Bom Sucesso/PB,-6.4458948,-37.9297662,5,101.27608
1,Bom Sucesso/PR,-23.7088019,-51.7651297,2313,32563.70548
D1,Bom Sucesso/PR,-23.7088019,-51.7651297,22,309.72828
1,Bombinhas/SC,-27.1519159,-48.4875691,4455,21327.01422
D1,Bombinhas/SC,-27.1519159,-48.4875691,75,359.04064
1,Bonfim do Piauí/PI,-9.1648678,-42.8734415,518,9087.71930
D1,Bonfim do Piauí/PI,-9.1648678,-42.8734415,9,157.89474
1,Bonfim/MG,-20.3266626, -44.2386157,833,12157.03444
D1,Bonfim/MG,-20.3266626, -44.2386157,20,291.88558
1,Bonfim/RR,3.3613818,-59.8427241,2891,22761.98725
D1,Bonfim/RR,3.3613818,-59.8427241,36,283.44225
1,Bonfinópolis de Minas/MG,-16.5660011,-45.98645,939,17398.55475
D1,Bonfinópolis de Minas/MG,-16.5660011,-45.98645,14,259.40337
1,Bonfinópolis/GO,-16.6172709,-48.9615701,583,5760.86957
D1,Bonfinópolis/GO,-16.6172709,-48.9615701,36,355.73123
1,Boninal/BA,-12.7095183,-41.8299984,915,6302.52101
D1,Boninal/BA,-12.7095183,-41.8299984,9,61.99201
1,Bonito de Minas/MG,-15.3191266,-44.7544,379,3295.07912
D1,Bonito de Minas/MG,-15.3191266,-44.7544,4,34.77656
1,Bonito de Santa Fé/PB,-7.3143332,-38.5146677,812,6696.35494
D1,Bonito de Santa Fé/PB,-7.3143332,-38.5146677,14,115.45440
1,Bonito/BA,-11.9665473,-41.2649896,1349,7935.76093
D1,Bonito/BA,-11.9665473,-41.2649896,14,82.35779
1,Bonito/MS,-21.1264766,-56.4902208,4762,21257.97955
D1,Bonito/MS,-21.1264766,-56.4902208,80,357.12691
1,Bonito/PA,-1.3605722,-47.3049907,514,3065.17980
D1,Bonito/PA,-1.3605722,-47.3049907,16,95.41416
1,Bonito/PE,-8.4721161,-35.7314591,2388,6267.55203
D1,Bonito/PE,-8.4721161,-35.7314591,46,120.73174
1,Bonópolis/GO,-13.649331,-49.8329113,680,14850.40402
D1,Bonópolis/GO,-13.649331,-49.8329113,4,87.35532
1,Boqueirão do Leão/RS,-29.30332,-52.4296817,709,9218.56716
D1,Boqueirão do Leão/RS,-29.30332,-52.4296817,35,455.07736
1,Boqueirão do Piauí/PI,-4.4850148,-42.1095161,884,13720.31662
D1,Boqueirão do Piauí/PI,-4.4850148,-42.1095161,14,217.29008
1,Boqueirão/PB,-7.487004,-36.130887,2457,13700.23419
D1,Boqueirão/PB,-7.487004,-36.130887,48,267.64804
1,Boquim/SE,-11.1450175,-37.6204228,3598,13335.80430
D1,Boquim/SE,-11.1450175,-37.6204228,76,281.69014
1,Boquira/BA,-12.8184859,-42.7270883,1054,4905.51987
D1,Boquira/BA,-12.8184859,-42.7270883,24,111.70064
1,Boracéia/SP,-22.195355,-48.7801925,1051,21392.22471
D1,Boracéia/SP,-22.195355,-48.7801925,26,529.20822
1,Borba/AM,-4.3934778,-59.5947721,3544,8372.70837
D1,Borba/AM,-4.3934778,-59.5947721,71,167.73767
1,Borborema/PB,-6.8066718,-35.5990191,476,8962.53060
D1,Borborema/PB,-6.8066718,-35.5990191,14,263.60384
1,Borborema/SP,-21.6212706,-49.074135,3197,19640.00491
D1,Borborema/SP,-21.6212706,-49.074135,58,356.30913
1,Borda da Mata/MG,-22.274167,-46.165278,4357,21995.05275
D1,Borda da Mata/MG,-22.274167,-46.165278,63,318.03726
1,Borebi/SP,-22.5700178,-48.9714871,300,11057.86952
D1,Borebi/SP,-22.5700178,-48.9714871,4,147.43826
1,Borrazópolis/PR,-23.9393362,-51.5850786,1769,28124.00636
D1,Borrazópolis/PR,-23.9393362,-51.5850786,36,572.33704
1,Borá/SP,-22.2701088,-50.544407,199,23718.71275
D1,Borá/SP,-22.2701088,-50.544407,1,119.18951
1,Bossoroca/RS,-28.7278885,-54.9120278,640,10431.94784
D1,Bossoroca/RS,-28.7278885,-54.9120278,22,358.59821
1,Botelhos/MG,-21.65,-46.394722,3257,21819.52167
D1,Botelhos/MG,-21.65,-46.394722,35,234.47444
1,Botucatu/SP,-22.8879628,-48.4410712,36003,24047.20875
D1,Botucatu/SP,-22.8879628,-48.4410712,362,241.78789
1,Botumirim/MG,-16.862778,-43.011111,698,11151.94120
D1,Botumirim/MG,-16.862778,-43.011111,5,79.88497
1,Botuporã/BA,-13.3744752,-42.5198469,702,6985.07463
D1,Botuporã/BA,-13.3744752,-42.5198469,8,79.60199
1,Botuverá/SC,-27.200749,-49.068892,1530,28354.33655
D1,Botuverá/SC,-27.200749,-49.068892,12,222.38695
1,Bozano/RS,-28.3669953,-53.7705165,514,24487.85136
D1,Bozano/RS,-28.3669953,-53.7705165,8,381.13387
1,Braga/RS,-27.617348,-53.740514,682,20849.89300
D1,Braga/RS,-27.617348,-53.740514,11,336.28860
1,Braganey/PR,-24.8179919,-53.118506,1224,22929.93631
D1,Braganey/PR,-24.8179919,-53.118506,12,224.80330
1,Bragança Paulista/SP,-22.9520235,-46.5418586,29472,17100.48391
D1,Bragança Paulista/SP,-22.9520235,-46.5418586,625,362.64259
1,Bragança/PA,-1.0573967,-46.7635406,6928,5324.23418
D1,Bragança/PA,-1.0573967,-46.7635406,186,142.94278
1,Branquinha/AL,-9.2478057,-36.0152009,1094,10492.99827
D1,Branquinha/AL,-9.2478057,-36.0152009,16,153.46250
1,Brasil Novo/PA,-3.3055853,-52.539198,4229,28414.97010
D1,Brasil Novo/PA,-3.3055853,-52.539198,47,315.79655
1,Brasileira/PI,-4.131182,-41.7824969,739,8835.48541
D1,Brasileira/PI,-4.131182,-41.7824969,21,251.07604
1,Brasilândia de Minas/MG,-17.0096469,-46.0087183,2800,16519.17404
D1,Brasilândia de Minas/MG,-17.0096469,-46.0087183,31,182.89086
1,Brasilândia do Sul/PR,-24.1975793,-53.527551,841,33359.77787
D1,Brasilândia do Sul/PR,-24.1975793,-53.527551,13,515.66839
1,Brasilândia do Tocantins/TO,-8.3886619,-48.4842729,258,11616.38901
D1,Brasilândia do Tocantins/TO,-8.3886619,-48.4842729,6,270.14858
1,Brasilândia/MS,-21.255575,-52.0365617,1897,16028.72835
D1,Brasilândia/MS,-21.255575,-52.0365617,27,228.13688
1,Brasiléia/AC,-11.0010413,-68.7487894,3587,13224.93824
D1,Brasiléia/AC,-11.0010413,-68.7487894,46,169.59776
1,Brasnorte/MT,-12.1227151,-58.0050109,3118,15157.26022
D1,Brasnorte/MT,-12.1227151,-58.0050109,44,213.89335
1,Brasília de Minas/MG,-16.2075114,-44.430559,2182,6722.11953
D1,Brasília de Minas/MG,-16.2075114,-44.430559,11,33.88786
1,Brasília/DF,-15.7934036,-47.8823172,693413,22409.18456
D1,Brasília/DF,-15.7934036,-47.8823172,11610,375.20299
1,Brazabrantes/GO,-16.4291635,-49.3858216,782,20514.16579
D1,Brazabrantes/GO,-16.4291635,-49.3858216,8,209.86359
1,Brazópolis/MG,-22.4742842,-45.6165577,1694,11793.37232
D1,Brazópolis/MG,-22.4742842,-45.6165577,36,250.62657
1,Braço do Norte/SC,-28.2728633,-49.1622712,12353,36020.87829
D1,Braço do Norte/SC,-28.2728633,-49.1622712,119,346.99948
1,Braço do Trombudo/SC,-27.358578,-49.882145,1240,32683.18397
D1,Braço do Trombudo/SC,-27.358578,-49.882145,7,184.50185
1,Braúna/SP,-21.5015319,-50.3175246,630,10871.44090
D1,Braúna/SP,-21.5015319,-50.3175246,26,448.66264
1,Braúnas/MG,-19.055556,-42.716111,341,7198.64893
D1,Braúnas/MG,-19.055556,-42.716111,11,232.21448
1,Brejetuba/ES,-20.1465817,-41.2902303,2889,23204.81928
D1,Brejetuba/ES,-20.1465817,-41.2902303,20,160.64257
1,Brejinho de Nazaré/TO,-11.0205883,-48.5722906,1106,19963.89892
D1,Brejinho de Nazaré/TO,-11.0205883,-48.5722906,19,342.96029
1,Brejinho/PE,-7.3482153,-37.28538,1018,13593.27013
D1,Brejinho/PE,-7.3482153,-37.28538,22,293.76419
1,Brejinho/RN,-6.1957907,-35.3583019,1720,13361.29884
D1,Brejinho/RN,-6.1957907,-35.3583019,20,155.36394
1,Brejo Alegre/SP,-21.1671191,-50.1850393,645,22157.33425
D1,Brejo Alegre/SP,-21.1671191,-50.1850393,14,480.93439
1,Brejo Grande do Araguaia/PA,-5.7011449,-48.4037308,1128,15332.33655
D1,Brejo Grande do Araguaia/PA,-5.7011449,-48.4037308,6,81.55498
1,Brejo Grande/SE,-10.4287358,-36.4667918,601,7158.17056
D1,Brejo Grande/SE,-10.4287358,-36.4667918,13,154.83564
1,Brejo Santo/CE,-7.4909841,-38.9859152,10092,20105.58821
D1,Brejo Santo/CE,-7.4909841,-38.9859152,159,316.76462
1,Brejo da Madre de Deus/PE,-8.1409718,-36.3712527,3330,6441.50418
D1,Brejo da Madre de Deus/PE,-8.1409718,-36.3712527,61,117.99752
1,Brejo de Areia/MA,-4.3316785,-45.5833334,412,4660.10632
D1,Brejo de Areia/MA,-4.3316785,-45.5833334,11,124.42031
1,Brejo do Cruz/PB,-6.32926065,-37.48746163303929,2065,14453.69917
D1,Brejo do Cruz/PB,-6.32926065,-37.48746163303929,25,174.98425
1,Brejo do Piauí/PI,-8.207583,-42.8359849,160,4184.10042
D1,Brejo do Piauí/PI,-8.207583,-42.8359849,5,130.75314
1,Brejo dos Santos/PB,-6.3769367,-37.8243125,1347,20790.24541
D1,Brejo dos Santos/PB,-6.3769367,-37.8243125,8,123.47585
1,Brejo/MA,-3.6804397,-42.7529313,1076,2915.98916
D1,Brejo/MA,-3.6804397,-42.7529313,20,54.20054
1,Brejolândia/BA,-12.4843845,-43.9611861,219,2051.52225
D1,Brejolândia/BA,-12.4843845,-43.9611861,12,112.41218
1,Brejão/PE,-9.029146,-36.566034,573,6380.13584
D1,Brejão/PE,-9.029146,-36.566034,9,100.21156
1,Brejões/BA,-13.1033754,-39.7909837,1157,8173.79018
D1,Brejões/BA,-13.1033754,-39.7909837,16,113.03426
1,Breu Branco/PA,-3.7785073,-49.5684795,1554,2265.40519
D1,Breu Branco/PA,-3.7785073,-49.5684795,73,106.41865
1,Breves/PA,-1.68036,-50.479085,5066,4858.07442
D1,Breves/PA,-1.68036,-50.479085,125,119.86958
1,Britânia/GO,-15.2427599,-51.1602061,818,14067.06793
D1,Britânia/GO,-15.2427599,-51.1602061,9,154.77214
1,Brochier/RS,-29.556766,-51.5963047,1071,20869.05690
D1,Brochier/RS,-29.556766,-51.5963047,7,136.39906
1,Brodowski/SP,-20.984532,-47.657217,3591,14024.60457
D1,Brodowski/SP,-20.984532,-47.657217,83,324.15544
1,Brotas de Macaúbas/BA,-12.0019007,-42.6257506,466,4353.10603
D1,Brotas de Macaúbas/BA,-12.0019007,-42.6257506,9,84.07286
1,Brotas/SP,-22.2840884,-48.1267265,4944,19885.76945
D1,Brotas/SP,-22.2840884,-48.1267265,75,301.66519
1,Brumadinho/MG,-20.143611,-44.2,6536,15860.99786
D1,Brumadinho/MG,-20.143611,-44.2,106,257.23161
1,Brumado/BA,-14.29507325,-41.659307508575985,11145,16518.94231
D1,Brumado/BA,-14.29507325,-41.659307508575985,207,306.81212
1,Brunópolis/SC,-27.310953,-50.837585,633,27308.02416
D1,Brunópolis/SC,-27.310953,-50.837585,9,388.26575
1,Brusque/SC,-27.0964628,-48.9136323,37182,26445.79899
D1,Brusque/SC,-27.0964628,-48.9136323,353,251.07221
1,Brás Pires/MG,-20.8483109,-43.2430524,634,14900.11751
D1,Brás Pires/MG,-20.8483109,-43.2430524,10,235.01763
1,Bueno Brandão/MG,-22.441976,-46.3517971,1630,14842.46950
D1,Bueno Brandão/MG,-22.441976,-46.3517971,33,300.49171
1,Buenos Aires/PE,-7.7218931,-35.326587,689,5210.22384
D1,Buenos Aires/PE,-7.7218931,-35.326587,25,189.05021
1,Buenópolis/MG,-17.8756607,-44.1749365,790,7638.75459
D1,Buenópolis/MG,-17.8756607,-44.1749365,19,183.71688
1,Buerarema/BA,-14.9571177,-39.3008035,1577,8632.10904
D1,Buerarema/BA,-14.9571177,-39.3008035,52,284.63517
1,Bugre/MG,-19.4257687,-42.2556,378,9487.95181
D1,Bugre/MG,-19.4257687,-42.2556,13,326.30522
1,Bujari/AC,-9.8309656,-67.9520886,1592,15058.64548
D1,Bujari/AC,-9.8309656,-67.9520886,17,160.80212
1,Bujaru/PA,-1.5169239,-48.0410699,1892,6366.72612
D1,Bujaru/PA,-1.5169239,-48.0410699,43,144.69832
1,Buri/SP,-23.79849,-48.598924,3483,17371.57107
D1,Buri/SP,-23.79849,-48.598924,102,508.72818
1,Buritama/SP,-21.0664017,-50.1448077,4706,27024.23338
D1,Buritama/SP,-21.0664017,-50.1448077,87,499.59802
1,Buriti Alegre/GO,-18.1377879,-49.0404411,1558,16374.14609
D1,Buriti Alegre/GO,-18.1377879,-49.0404411,38,399.36942
1,Buriti Bravo/MA,-5.8391884,-43.8367876,2261,9423.58188
D1,Buriti Bravo/MA,-5.8391884,-43.8367876,21,87.52553
1,Buriti de Goiás/GO,-16.180644,-50.4287479,606,24594.15584
D1,Buriti de Goiás/GO,-16.180644,-50.4287479,9,365.25974
1,Buriti do Tocantins/TO,-5.3187439,-48.2256609,1641,14093.09516
D1,Buriti do Tocantins/TO,-5.3187439,-48.2256609,27,231.87908
1,Buriti dos Lopes/PI,-3.1776723,-41.8707444,1494,7533.27955
D1,Buriti dos Lopes/PI,-3.1776723,-41.8707444,37,186.56716
1,Buriti dos Montes/PI,-5.3136171,-41.0971256,722,8717.70104
D1,Buriti dos Montes/PI,-5.3136171,-41.0971256,10,120.74378
1,Buriti/MA,-3.9430944,-42.9244281,1169,4042.74450
D1,Buriti/MA,-3.9430944,-42.9244281,9,31.12464
1,Buriticupu/MA,-4.3227472,-46.4516989,4606,6258.57735
D1,Buriticupu/MA,-4.3227472,-46.4516989,82,111.42061
1,Buritinópolis/GO,-14.4589282,-46.4293104,460,14058.67971
D1,Buritinópolis/GO,-14.4589282,-46.4293104,3,91.68704
1,Buritirama/BA,-10.7148421,-43.6362327,1309,6124.26312
D1,Buritirama/BA,-10.7148421,-43.6362327,25,116.96454
1,Buritirana/MA,-5.5897455,-47.0148915,451,2909.11436
D1,Buritirana/MA,-5.5897455,-47.0148915,27,174.15984
1,Buritis/MG,-15.621389,-46.423889,5240,20810.99329
D1,Buritis/MG,-15.621389,-46.423889,55,218.43600
1,Buritis/RO,-10.2054937,-63.8281954,10584,25787.58863
D1,Buritis/RO,-10.2054937,-63.8281954,100,243.64691
1,Buritizal/SP,-20.1933264,-47.7097165,359,7895.31559
D1,Buritizal/SP,-20.1933264,-47.7097165,10,219.92523
1,Buritizeiro/MG,-17.3667765,-44.9647781,2718,9643.76951
D1,Buritizeiro/MG,-17.3667765,-44.9647781,43,152.56883
1,Butiá/RS,-30.1256795,-51.9692224,3073,14659.16138
D1,Butiá/RS,-30.1256795,-51.9692224,64,305.29981
1,Buíque/PE,-8.6239732,-37.157296,2739,4607.38797
D1,Buíque/PE,-8.6239732,-37.157296,50,84.10712
1,Bálsamo/SP,-20.7343722,-49.5807484,2296,24932.13161
D1,Bálsamo/SP,-20.7343722,-49.5807484,72,781.84385
0,CASO SEM LOCALIZAÇÃO DEFINIDA/BA,-13.415069300066518,-38.14174656569957,17191,115.58479
D0,CASO SEM LOCALIZAÇÃO DEFINIDA/BA,-13.415069300066518,-38.14174656569957,347,2.33308
0,CASO SEM LOCALIZAÇÃO DEFINIDA/CE,-3.3445126297392798,-38.624961942434304,16525,180.95553
0,CASO SEM LOCALIZAÇÃO DEFINIDA/ES,-20.30989267097039,-39.81745156645774,8636,214.89804
D0,CASO SEM LOCALIZAÇÃO DEFINIDA/ES,-20.30989267097039,-39.81745156645774,272,6.76844
0,CASO SEM LOCALIZAÇÃO DEFINIDA/MG,-19.97049116501593,-43.8852149072783,4266,20.15231
D0,CASO SEM LOCALIZAÇÃO DEFINIDA/MG,-19.97049116501593,-43.8852149072783,410,1.93681
0,CASO SEM LOCALIZAÇÃO DEFINIDA/MT,-15.54791153961863,-56.17143998972475,1577,45.25801
D0,CASO SEM LOCALIZAÇÃO DEFINIDA/MT,-15.54791153961863,-56.17143998972475,255,7.31819
0,CASO SEM LOCALIZAÇÃO DEFINIDA/PR,-25.69415946385943,-48.10141676336737,10818,94.61291
D0,CASO SEM LOCALIZAÇÃO DEFINIDA/PR,-25.69415946385943,-48.10141676336737,233,2.03779
0,CASO SEM LOCALIZAÇÃO DEFINIDA/RR,2.813328208465927,-60.663338675861986,3551,586.20479
D0,CASO SEM LOCALIZAÇÃO DEFINIDA/RR,2.813328208465927,-60.663338675861986,23,3.79688
0,CASO SEM LOCALIZAÇÃO DEFINIDA/SP,-24.30968974555485,-46.21366504207253,128,0.27875
1,Caapiranga/AM,-3.3188884,-61.2096404,1006,7461.80092
D1,Caapiranga/AM,-3.3188884,-61.2096404,23,170.59783
1,Caaporã/PB,-7.510234,-34.9154114,2737,12396.39476
D1,Caaporã/PB,-7.510234,-34.9154114,39,176.63843
1,Caarapó/MS,-22.6349267,-54.8240903,5834,18816.31995
D1,Caarapó/MS,-22.6349267,-54.8240903,63,203.19303
1,Caatiba/BA,-14.9782759,-40.4092325,999,16030.16688
D1,Caatiba/BA,-14.9782759,-40.4092325,16,256.73941
1,Cabaceiras do Paraguaçu/BA,-12.5377868,-39.1901339,1428,7511.83588
D1,Cabaceiras do Paraguaçu/BA,-12.5377868,-39.1901339,7,36.82272
1,Cabaceiras/PB,-7.4899156,-36.2860501,635,11120.84063
D1,Cabaceiras/PB,-7.4899156,-36.2860501,5,87.56567
1,Cabeceira Grande/MG,-16.0297,-47.0906,962,13693.95018
D1,Cabeceira Grande/MG,-16.0297,-47.0906,8,113.87900
1,Cabeceiras do Piauí/PI,-4.4733665,-42.3098716,759,7112.73545
D1,Cabeceiras do Piauí/PI,-4.4733665,-42.3098716,17,159.31028
1,Cabeceiras/GO,-15.7995459,-46.9264991,983,12138.79970
D1,Cabeceiras/GO,-15.7995459,-46.9264991,18,222.27711
1,Cabedelo/PB,-6.97324,-34.8351609,12989,18616.08359
D1,Cabedelo/PB,-6.97324,-34.8351609,218,312.44178
1,Cabixi/RO,-13.4956065,-60.5424442,1750,34537.20150
D1,Cabixi/RO,-13.4956065,-60.5424442,22,434.18196
1,Cabo Frio/RJ,-22.8804369,-42.0189227,26348,11256.12512
D1,Cabo Frio/RJ,-22.8804369,-42.0189227,980,418.66565
1,Cabo Verde/MG,-21.4743338,-46.3964995,1884,13386.38624
D1,Cabo Verde/MG,-21.4743338,-46.3964995,13,92.36891
1,Cabo de Santo Agostinho/PE,-8.2838945,-35.0320984,11711,5555.60827
D1,Cabo de Santo Agostinho/PE,-8.2838945,-35.0320984,549,260.44137
1,Cabreúva/SP,-23.3075813,-47.1324417,6566,12841.77587
D1,Cabreúva/SP,-23.3075813,-47.1324417,150,293.36984
1,Cabrobó/PE,-8.5083701,-39.3106961,4589,13195.12335
D1,Cabrobó/PE,-8.5083701,-39.3106961,34,97.76295
1,Cabrália Paulista/SP,-22.4562909,-49.3385645,828,19611.55850
D1,Cabrália Paulista/SP,-22.4562909,-49.3385645,9,213.16911
1,Cacaulândia/RO,-10.3380043,-62.9007231,1811,28714.12716
D1,Cacaulândia/RO,-10.3380043,-62.9007231,17,269.54178
1,Cacequi/RS,-29.8838059,-54.8273443,1468,11943.69864
D1,Cacequi/RS,-29.8838059,-54.8273443,17,138.31259
1,Cachoeira Alta/GO,-18.7618269,-50.9432431,3251,25313.40030
D1,Cachoeira Alta/GO,-18.7618269,-50.9432431,33,256.94931
1,Cachoeira Dourada/GO,-18.4934204,-49.481062,1556,19457.29649
D1,Cachoeira Dourada/GO,-18.4934204,-49.481062,33,412.65475
1,Cachoeira Dourada/MG,-18.517136,-49.5002062,560,20588.23529
D1,Cachoeira Dourada/MG,-18.517136,-49.5002062,2,73.52941
1,Cachoeira Grande/MA,-2.9290492,-44.0573223,446,4682.90634
D1,Cachoeira Grande/MA,-2.9290492,-44.0573223,8,83.99832
1,Cachoeira Paulista/SP,-22.666498,-45.015384,3827,11313.44784
D1,Cachoeira Paulista/SP,-22.666498,-45.015384,59,174.41689
1,Cachoeira da Prata/MG,-19.524723,-44.453056,226,6312.84916
D1,Cachoeira da Prata/MG,-19.524723,-44.453056,15,418.99441
1,Cachoeira de Goiás/GO,-16.6688414,-50.6435997,345,25823.35329
D1,Cachoeira de Goiás/GO,-16.6688414,-50.6435997,6,449.10180
1,Cachoeira de Minas/MG,-22.3554043,-45.7796324,1974,17004.04858
D1,Cachoeira de Minas/MG,-22.3554043,-45.7796324,21,180.89413
1,Cachoeira de Pajeú/MG,-15.965833,-41.496666,666,7032.73495
D1,Cachoeira de Pajeú/MG,-15.965833,-41.496666,11,116.15628
1,Cachoeira do Arari/PA,-1.0143572,-48.9621089,622,2553.89037
D1,Cachoeira do Arari/PA,-1.0143572,-48.9621089,26,106.75426
1,Cachoeira do Piriá/PA,-1.7599443,-46.5446954,1590,4503.35627
D1,Cachoeira do Piriá/PA,-1.7599443,-46.5446954,11,31.15529
1,Cachoeira do Sul/RS,-30.0474778,-52.8905413,18408,22572.10124
D1,Cachoeira do Sul/RS,-30.0474778,-52.8905413,234,286.93349
1,Cachoeira dos Índios/PB,-6.9259193,-38.6742159,1420,13701.27364
D1,Cachoeira dos Índios/PB,-6.9259193,-38.6742159,24,231.57082
1,Cachoeira/BA,-12.5998256,-38.9665918,2177,6467.80950
D1,Cachoeira/BA,-12.5998256,-38.9665918,33,98.04213
1,Cachoeiras de Macacu/RJ,-22.4626861,-42.6534414,4131,6925.16596
D1,Cachoeiras de Macacu/RJ,-22.4626861,-42.6534414,119,199.49038
1,Cachoeirinha/PE,-8.4906364,-36.2338963,973,4719.17742
D1,Cachoeirinha/PE,-8.4906364,-36.2338963,37,179.45485
1,Cachoeirinha/RS,-29.9493353,-51.0898927,20179,15270.46253
D1,Cachoeirinha/RS,-29.9493353,-51.0898927,530,401.07761
1,Cachoeirinha/TO,-6.118647,-47.9208885,131,5713.03969
D1,Cachoeirinha/TO,-6.118647,-47.9208885,2,87.22198
1,Cachoeiro de Itapemirim/ES,-20.848084,-41.11129,49109,23145.84394
D1,Cachoeiro de Itapemirim/ES,-20.848084,-41.11129,715,336.99074
1,Cacimba de Areia/PB,-7.1288513,-37.1575194,338,9115.42611
D1,Cacimba de Areia/PB,-7.1288513,-37.1575194,5,134.84358
1,Cacimba de Dentro/PB,-6.6425101,-35.7929304,1491,8684.25651
D1,Cacimba de Dentro/PB,-6.6425101,-35.7929304,39,227.15359
1,Cacimbas/PB,-7.2125451,-37.0593398,459,6352.94118
D1,Cacimbas/PB,-7.2125451,-37.0593398,10,138.40830
1,Cacimbinhas/AL,-9.401212,-36.991082,1027,9404.76190
D1,Cacimbinhas/AL,-9.401212,-36.991082,13,119.04762
1,Cacique Doble/RS,-27.7700117,-51.6616409,1174,23096.59650
D1,Cacique Doble/RS,-27.7700117,-51.6616409,14,275.42790
1,Cacoal/RO,-11.4333,-61.4420502,25570,29589.42788
D1,Cacoal/RO,-11.4333,-61.4420502,343,396.91724
1,Caconde/SP,-21.527995,-46.643659,2496,13115.44322
D1,Caconde/SP,-21.527995,-46.643659,45,236.45631
1,Caculé/BA,-14.4990734,-42.2233006,3259,13923.18537
D1,Caculé/BA,-14.4990734,-42.2233006,30,128.16679
1,Caetanos/BA,-14.3387456,-40.9085971,818,5575.62538
D1,Caetanos/BA,-14.3387456,-40.9085971,12,81.79402
1,Caetanópolis/MG,-19.2947496,-44.4138386,1642,13834.35841
D1,Caetanópolis/MG,-19.2947496,-44.4138386,21,176.93150
1,Caetité/BA,-14.0691776,-42.4852428,4718,9217.72429
D1,Caetité/BA,-14.0691776,-42.4852428,50,97.68678
1,Caeté/MG,-19.897777,-43.670278,2936,6472.09241
D1,Caeté/MG,-19.897777,-43.670278,82,180.76007
1,Caetés/PE,-8.7728788,-36.6255835,2350,8085.32599
D1,Caetés/PE,-8.7728788,-36.6255835,26,89.45467
1,Cafarnaum/BA,-11.691399,-41.468823,1169,6290.01883
D1,Cafarnaum/BA,-11.691399,-41.468823,24,129.13640
1,Cafeara/PR,-22.78905,-51.714195,797,26807.93811
D1,Cafeara/PR,-22.78905,-51.714195,13,437.26875
1,Cafelândia/PR,-24.6176963,-53.3218057,4931,26252.46233
D1,Cafelândia/PR,-24.6176963,-53.3218057,47,250.22627
1,Cafelândia/SP,-21.8054355,-49.6030627,866,4833.39845
D1,Cafelândia/SP,-21.8054355,-49.6030627,60,334.87749
1,Cafezal do Sul/PR,-23.900508,-53.512418,989,24880.50314
D1,Cafezal do Sul/PR,-23.900508,-53.512418,10,251.57233
1,Caiabu/SP,-22.0143038,-51.2356597,327,7794.99404
D1,Caiabu/SP,-22.0143038,-51.2356597,8,190.70322
1,Caiana/MG,-20.695555,-41.924723,272,4871.06017
D1,Caiana/MG,-20.695555,-41.924723,7,125.35817
1,Caiapônia/GO,-16.9538779,-51.8090761,3141,16271.23912
D1,Caiapônia/GO,-16.9538779,-51.8090761,46,238.29258
1,Caibaté/RS,-28.290475,-54.645407,528,10995.41858
D1,Caibaté/RS,-28.290475,-54.645407,8,166.59725
1,Caibi/SC,-27.0751925,-53.2502133,1229,20107.98429
D1,Caibi/SC,-27.0751925,-53.2502133,16,261.78010
1,Caicó/RN,-6.4594544,-37.0971911,17215,25048.74429
D1,Caicó/RN,-6.4594544,-37.0971911,180,261.90961
1,Caieiras/SP,-23.3644621,-46.7484765,11410,10966.51417
D1,Caieiras/SP,-23.3644621,-46.7484765,349,335.43501
1,Cairu/BA,-13.4860505,-39.0455744,1819,9744.99089
D1,Cairu/BA,-13.4860505,-39.0455744,19,101.78935
1,Caiuá/SP,-21.8319357,-51.9887179,491,8160.21273
D1,Caiuá/SP,-21.8319357,-51.9887179,12,199.43493
1,Caiçara do Norte/RN,-5.0645017,-36.0561226,687,10453.43883
D1,Caiçara do Norte/RN,-5.0645017,-36.0561226,12,182.59282
1,Caiçara do Rio do Vento/RN,-5.757968,-36.00089,729,19465.95461
D1,Caiçara do Rio do Vento/RN,-5.757968,-36.00089,8,213.61816
1,Caiçara/PB,-6.6146866,-35.4681434,1084,15093.28878
D1,Caiçara/PB,-6.6146866,-35.4681434,15,208.85547
1,Caiçara/RS,-27.2750478,-53.4310053,1048,22494.09745
D1,Caiçara/RS,-27.2750478,-53.4310053,12,257.56600
1,Cajamar/SP,-23.3561111,-46.8769444,5617,7107.06784
D1,Cajamar/SP,-23.3561111,-46.8769444,258,326.44178
1,Cajapió/MA,-2.8778715,-44.6746871,394,3500.66637
D1,Cajapió/MA,-2.8778715,-44.6746871,7,62.19458
1,Cajari/MA,-3.3213076,-45.0118757,431,2207.87869
D1,Cajari/MA,-3.3213076,-45.0118757,8,40.98151
1,Cajati/SP,-24.7272376,-48.1077914,5930,20850.18108
D1,Cajati/SP,-24.7272376,-48.1077914,109,383.24953
1,Cajazeiras do Piauí/PI,-6.794271,-42.3935024,83,2314.55661
D1,Cajazeiras do Piauí/PI,-6.794271,-42.3935024,2,55.77245
1,Cajazeiras/PB,-6.8897849,-38.5570389,15049,24049.15623
D1,Cajazeiras/PB,-6.8897849,-38.5570389,187,298.83661
1,Cajazeirinhas/PB,-6.961442,-37.7993733,330,10258.00435
D1,Cajazeirinhas/PB,-6.961442,-37.7993733,1,31.08486
1,Cajobi/SP,-20.8776238,-48.8106972,1801,16912.38614
D1,Cajobi/SP,-20.8776238,-48.8106972,36,338.05991
1,Cajueiro da Praia/PI,-2.931114,-41.340801,499,6477.15472
D1,Cajueiro da Praia/PI,-2.931114,-41.340801,21,272.58567
1,Cajueiro/AL,-9.399589,-36.1524309,827,3865.02781
D1,Cajueiro/AL,-9.399589,-36.1524309,34,158.90078
1,Cajuri/MG,-20.7901414,-42.7954489,734,18530.67407
D1,Cajuri/MG,-20.7901414,-42.7954489,9,227.21535
1,Cajuru/SP,-21.2759978,-47.3046035,2040,7665.42667
D1,Cajuru/SP,-21.2759978,-47.3046035,68,255.51422
1,Caldas Brandão/PB,-7.1027959,-35.3254676,951,15649.16900
D1,Caldas Brandão/PB,-7.1027959,-35.3254676,12,197.46585
1,Caldas Novas/GO,-17.745,-48.625,17484,18368.82637
D1,Caldas Novas/GO,-17.745,-48.625,333,349.85239
1,Caldas/MG,-21.923611,-46.386111,1681,11513.69863
D1,Caldas/MG,-21.923611,-46.386111,42,287.67123
1,Caldazinha/GO,-16.7116649,-49.0012601,1021,26179.48718
D1,Caldazinha/GO,-16.7116649,-49.0012601,12,307.69231
1,Caldeirão Grande do Piauí/PI,-7.3310393,-40.6374433,551,9522.98652
D1,Caldeirão Grande do Piauí/PI,-7.3310393,-40.6374433,2,34.56619
1,Caldeirão Grande/BA,-11.0208483,-40.3041387,637,4735.35534
D1,Caldeirão Grande/BA,-11.0208483,-40.3041387,6,44.60303
1,Califórnia/PR,-23.6672543,-51.3554556,1989,23018.16919
D1,Califórnia/PR,-23.6672543,-51.3554556,40,462.90939
1,Calmon/SC,-26.6023644,-51.0992893,73,2195.48872
D1,Calmon/SC,-26.6023644,-51.0992893,7,210.52632
1,Calumbi/PE,-7.9389746,-38.1516871,1189,20699.86072
D1,Calumbi/PE,-7.9389746,-38.1516871,5,87.04735
1,Calçado/PE,-8.7413446,-36.3351787,814,7411.45407
D1,Calçado/PE,-8.7413446,-36.3351787,9,81.94482
1,Calçoene/AP,2.4981757,-50.9539503,2638,22953.10189
D1,Calçoene/AP,2.4981757,-50.9539503,15,130.51423
1,Camacan/BA,-15.4166631,-39.4930088,3528,11017.08147
D1,Camacan/BA,-15.4166631,-39.4930088,98,306.03004
1,Camacho/MG,-20.625556,-45.156667,356,12539.62663
D1,Camacho/MG,-20.625556,-45.156667,2,70.44734
1,Camalaú/PB,-7.885031,-36.824191,897,14831.34921
D1,Camalaú/PB,-7.885031,-36.824191,8,132.27513
1,Camamu/BA,-13.9438142,-39.1060917,2934,8277.84674
D1,Camamu/BA,-13.9438142,-39.1060917,64,180.56653
1,Camanducaia/MG,-22.755278,-46.144444,4518,20695.34149
D1,Camanducaia/MG,-22.755278,-46.144444,86,393.93523
1,Camapuã/MS,-19.5291747,-54.0434641,1729,12643.51005
D1,Camapuã/MS,-19.5291747,-54.0434641,37,270.56673
1,Camaquã/RS,-30.8524752,-51.8075619,9284,13921.96263
D1,Camaquã/RS,-30.8524752,-51.8075619,183,274.42042
1,Camaragibe/PE,-8.0213832,-34.9810768,10461,6540.37325
D1,Camaragibe/PE,-8.0213832,-34.9810768,466,291.35015
1,Camargo/RS,-28.5865661,-52.2031474,663,24109.09091
D1,Camargo/RS,-28.5865661,-52.2031474,8,290.90909
1,Camaçari/BA,-12.6998188,-38.3260762,31887,10312.47574
D1,Camaçari/BA,-12.6998188,-38.3260762,674,217.97625
1,Cambará do Sul/RS,-29.0489517,-50.145412,416,6517.31161
D1,Cambará do Sul/RS,-29.0489517,-50.145412,12,187.99937
1,Cambará/PR,-23.042273,-50.075281,5351,20927.68587
D1,Cambará/PR,-23.042273,-50.075281,71,277.68000
1,Cambira/PR,-23.600265,-51.581045,2299,28856.53320
D1,Cambira/PR,-23.600265,-51.581045,32,401.65683
1,Camboriú/SC,-27.0273601,-48.6535657,18114,20777.93964
D1,Camboriú/SC,-27.0273601,-48.6535657,207,237.44250
1,Cambuci/RJ,-21.5749919,-41.9107833,2795,18007.86032
D1,Cambuci/RJ,-21.5749919,-41.9107833,48,309.25842
1,Cambuquira/MG,-21.853056,-45.2953619,1486,11600.31226
D1,Cambuquira/MG,-21.853056,-45.2953619,37,288.83685
1,Cambuí/MG,-22.6122501,-46.0572137,7542,25083.14487
D1,Cambuí/MG,-22.6122501,-46.0572137,65,216.17667
1,Cambé/PR,-23.2782035,-51.2779583,20727,19169.30248
D1,Cambé/PR,-23.2782035,-51.2779583,376,347.74245
1,Cametá/PA,-2.242949,-49.497885,10965,7786.86778
D1,Cametá/PA,-2.242949,-49.497885,308,218.72825
1,Camocim de São Félix/PE,-8.3616757,-35.7638903,1017,5343.63178
D1,Camocim de São Félix/PE,-8.3616757,-35.7638903,21,110.34048
1,Camocim/CE,-2.9009918,-40.8427389,7654,11931.96876
D1,Camocim/CE,-2.9009918,-40.8427389,167,260.33953
