type,name,lat,lon,total,total_per_100k_inhabitants
1,Abadia de Goiás/GO,-16.7572644,-49.4412205,1381,15416.38759
D1,Abadia de Goiás/GO,-16.7572644,-49.4412205,28,312.56977
1,Abadia dos Dourados/MG,-18.4911191,-47.4063589,378,5395.37539
D1,Abadia dos Dourados/MG,-18.4911191,-47.4063589,14,199.82872
1,Abadiânia/GO,-16.1940946,-48.7067767,404,1974.48805
D1,Abadiânia/GO,-16.1940946,-48.7067767,27,131.95836
1,Abaetetuba/PA,-1.721828,-48.878843,7769,4883.70631
D1,Abaetetuba/PA,-1.721828,-48.878843,214,134.52351
1,Abaeté/MG,-19.1566833,-45.4481213,1043,4486.02151
D1,Abaeté/MG,-19.1566833,-45.4481213,25,107.52688
1,Abaiara/CE,-7.3607808,-39.0487878,483,4074.91774
D1,Abaiara/CE,-7.3607808,-39.0487878,12,101.24019
1,Abaré/BA,-8.7239913,-39.1139689,843,4143.11692
D1,Abaré/BA,-8.7239913,-39.1139689,10,49.14729
1,Abatiá/PR,-23.3052967,-50.3102532,790,10664.14687
D1,Abatiá/PR,-23.3052967,-50.3102532,12,161.98704
1,Abaíra/BA,-13.2503296,-41.6640342,255,2927.66935
D1,Abaíra/BA,-13.2503296,-41.6640342,10,114.81056
1,Abdon Batista/SC,-27.612419,-51.022992,361,14167.97488
D1,Abdon Batista/SC,-27.612419,-51.022992,3,117.73940
1,Abel Figueiredo/PA,-4.953001,-48.3958485,890,11888.85920
D1,Abel Figueiredo/PA,-4.953001,-48.3958485,10,133.58269
1,Abelardo Luz/SC,-26.5705893,-52.3280339,1373,7644.76615
D1,Abelardo Luz/SC,-26.5705893,-52.3280339,43,239.42094
1,Abre Campo/MG,-20.2976097,-42.4764741,922,6858.07795
D1,Abre Campo/MG,-20.2976097,-42.4764741,15,111.57394
1,Abreu e Lima/PE,-7.900719,-34.898389,2732,2722.57987
D1,Abreu e Lima/PE,-7.900719,-34.898389,199,198.31383
1,Abreulândia/TO,-9.6221526,-49.1558343,264,10177.33231
D1,Abreulândia/TO,-9.6221526,-49.1558343,6,231.30301
1,Acaiaca/MG,-20.3621646,-43.1444162,221,5533.29995
D1,Acaiaca/MG,-20.3621646,-43.1444162,11,275.41312
1,Acajutiba/BA,-11.6609659,-38.0186381,485,3193.52077
D1,Acajutiba/BA,-11.6609659,-38.0186381,16,105.35326
1,Acarape/CE,-4.2237866,-38.7071663,2625,17458.10056
D1,Acarape/CE,-4.2237866,-38.7071663,25,166.26762
1,Acaraú/CE,-2.8869514,-40.1194713,4643,7357.69523
D1,Acaraú/CE,-2.8869514,-40.1194713,95,150.54513
1,Acari/RN,-6.4364689,-36.6394777,926,8326.58934
D1,Acari/RN,-6.4364689,-36.6394777,14,125.88796
1,Acará/PA,-1.961388,-48.1987043,1228,2205.89556
D1,Acará/PA,-1.961388,-48.1987043,28,50.29729
1,Acauã/PI,-8.219542,-41.083059,188,2647.14165
D1,Acauã/PI,-8.219542,-41.083059,1,14.08054
1,Aceguá/RS,-31.8695131,-54.1615593,307,6212.05989
D1,Aceguá/RS,-31.8695131,-54.1615593,4,80.93889
1,Acopiara/CE,-6.0936464,-39.4543204,3079,5651.51154
D1,Acopiara/CE,-6.0936464,-39.4543204,120,220.26027
1,Acorizal/MT,-15.2001544,-56.3668953,473,8867.64154
D1,Acorizal/MT,-15.2001544,-56.3668953,18,337.45782
1,Acrelândia/AC,-10.0759167,-67.0526898,1546,9980.63267
D1,Acrelândia/AC,-10.0759167,-67.0526898,33,213.04067
1,Acreúna/GO,-17.3959899,-50.3749031,1732,7682.07221
D1,Acreúna/GO,-17.3959899,-50.3749031,44,195.15657
1,Adamantina/SP,-21.6866517,-51.0762975,2741,7806.67027
D1,Adamantina/SP,-21.6866517,-51.0762975,77,219.30449
1,Adelândia/GO,-16.4155077,-50.1665834,152,6041.33545
D1,Adelândia/GO,-16.4155077,-50.1665834,4,158.98251
1,Adolfo/SP,-21.2356597,-49.6441918,443,12464.82836
D1,Adolfo/SP,-21.2356597,-49.6441918,11,309.51041
1,Adrianópolis/PR,-24.6557863,-48.9912769,1164,19873.65546
D1,Adrianópolis/PR,-24.6557863,-48.9912769,23,392.69250
1,Adustina/BA,-10.5358875,-38.114479,739,4315.07649
D1,Adustina/BA,-10.5358875,-38.114479,15,87.58613
1,Afogados da Ingazeira/PE,-7.750429,-37.6356375,4206,11244.78665
D1,Afogados da Ingazeira/PE,-7.750429,-37.6356375,60,160.41065
1,Afonso Bezerra/RN,-5.4745,-36.57625071327935,622,5639.67721
D1,Afonso Bezerra/RN,-5.4745,-36.57625071327935,15,136.00508
1,Afonso Cláudio/ES,-20.077841,-41.12606,3234,10618.94599
D1,Afonso Cláudio/ES,-20.077841,-41.12606,55,180.59432
1,Afonso Cunha/MA,-4.1326105,-43.3230026,166,2523.56339
D1,Afonso Cunha/MA,-4.1326105,-43.3230026,2,30.40438
1,Afrânio/PE,-8.5198919,-41.0070197,807,4073.70015
D1,Afrânio/PE,-8.5198919,-41.0070197,14,70.67138
1,Afuá/PA,-0.1535664,-50.3879223,2905,7341.97690
D1,Afuá/PA,-0.1535664,-50.3879223,14,35.38302
1,Agrestina/PE,-8.4558021,-35.9442663,1402,5593.45701
D1,Agrestina/PE,-8.4558021,-35.9442663,51,203.47098
1,Agricolândia/PI,-5.7967843,-42.6605131,434,8458.39018
D1,Agricolândia/PI,-5.7967843,-42.6605131,5,97.44689
1,Agrolândia/SC,-27.4122212,-49.8295774,1274,11568.14674
D1,Agrolândia/SC,-27.4122212,-49.8295774,19,172.52338
1,Agronômica/SC,-27.2660744,-49.7104753,573,10401.16174
D1,Agronômica/SC,-27.2660744,-49.7104753,12,217.82538
1,Aguanil/MG,-20.9424533,-45.3927152,519,11477.22247
D1,Aguanil/MG,-20.9424533,-45.3927152,8,176.91287
1,Aguaí/SP,-22.0592036,-46.979384,2400,6548.78847
D1,Aguaí/SP,-22.0592036,-46.979384,76,207.37830
1,Agudo/RS,-29.6423259,-53.2494005,1425,8688.49460
D1,Agudo/RS,-29.6423259,-53.2494005,23,140.23535
1,Agudos do Sul/PR,-25.9890808,-49.3328175,514,5427.66631
D1,Agudos do Sul/PR,-25.9890808,-49.3328175,19,200.63358
1,Agudos/SP,-22.471162,-48.987822,3075,8221.70530
D1,Agudos/SP,-22.471162,-48.987822,73,195.18195
1,Aguiar/PB,-7.0928404,-38.1727215,310,5506.21670
D1,Aguiar/PB,-7.0928404,-38.1727215,5,88.80995
1,Aguiarnópolis/TO,-6.5600452,-47.4721189,564,8183.40104
D1,Aguiarnópolis/TO,-6.5600452,-47.4721189,12,174.11492
1,Aimorés/MG,-19.4917754,-41.0615603,1803,7171.55244
D1,Aimorés/MG,-19.4917754,-41.0615603,56,222.74373
1,Aiquara/BA,-14.126918,-39.8887574,449,10167.57246
D1,Aiquara/BA,-14.126918,-39.8887574,11,249.09420
1,Aiuaba/CE,-6.5710836,-40.1212278,539,3081.23249
D1,Aiuaba/CE,-6.5710836,-40.1212278,10,57.16572
1,Aiuruoca/MG,-21.9759554,-44.6036637,79,1321.95448
D1,Aiuruoca/MG,-21.9759554,-44.6036637,6,100.40161
1,Ajuricaba/RS,-28.239654,-53.7693013,936,13396.30743
D1,Ajuricaba/RS,-28.239654,-53.7693013,24,343.49506
1,Alagoa Grande/PB,-7.0415212,-35.6285322,3179,11178.31147
D1,Alagoa Grande/PB,-7.0415212,-35.6285322,60,210.97788
1,Alagoa Nova/PB,-7.0653703,-35.76695977336711,825,3943.40615
D1,Alagoa Nova/PB,-7.0653703,-35.76695977336711,17,81.25807
1,Alagoa/MG,-22.1697202,-44.6400042,421,15797.37336
D1,Alagoa/MG,-22.1697202,-44.6400042,5,187.61726
1,Alagoinha do Piauí/PI,-7.0090952,-40.939675,320,4174.82061
D1,Alagoinha do Piauí/PI,-7.0090952,-40.939675,10,130.46314
1,Alagoinha/PB,-6.97063215,-35.51490901897793,1626,11167.58242
D1,Alagoinha/PB,-6.97063215,-35.51490901897793,24,164.83516
1,Alagoinha/PE,-8.50355635,-36.77701174370496,803,5455.90433
D1,Alagoinha/PE,-8.50355635,-36.77701174370496,20,135.88803
1,Alagoinhas/BA,-12.133526,-38.420772,11524,7565.30359
D1,Alagoinhas/BA,-12.133526,-38.420772,224,147.05207
1,Alambari/SP,-23.550338,-47.897971,483,7880.56779
D1,Alambari/SP,-23.550338,-47.897971,9,146.84288
1,Albertina/MG,-20.66164,-43.784039,205,6808.36931
D1,Albertina/MG,-20.66164,-43.784039,7,232.48090
1,Alcantil/PB,-7.7425491,-36.0609604,376,6825.19514
D1,Alcantil/PB,-7.7425491,-36.0609604,6,108.91269
1,Alcinópolis/MS,-18.3264121,-53.7094463,220,4061.28854
D1,Alcinópolis/MS,-18.3264121,-53.7094463,6,110.76241
1,Alcobaça/BA,-17.5215875,-39.1965474,1349,5998.22143
D1,Alcobaça/BA,-17.5215875,-39.1965474,25,111.16052
1,Alcântara/MA,-2.4038956,-44.4154241,265,1198.44428
D1,Alcântara/MA,-2.4038956,-44.4154241,15,67.83647
1,Alcântaras/CE,-3.586247,-40.5457641,1462,12409.81241
D1,Alcântaras/CE,-3.586247,-40.5457641,17,144.30014
1,Aldeias Altas/MA,-4.6291957,-43.4708622,975,3643.90627
D1,Aldeias Altas/MA,-4.6291957,-43.4708622,13,48.58542
1,Alecrim/RS,-27.6566142,-54.7653195,249,4273.21091
D1,Alecrim/RS,-27.6566142,-54.7653195,11,188.77639
1,Alegre/ES,-20.7625787,-41.5318886,2099,7002.50209
D1,Alegre/ES,-20.7625787,-41.5318886,47,156.79733
1,Alegrete do Piauí/PI,-7.2440138,-40.8602296,477,9699.06466
D1,Alegrete do Piauí/PI,-7.2440138,-40.8602296,5,101.66734
1,Alegrete/RS,-29.790166,-55.794862,8144,11151.88695
D1,Alegrete/RS,-29.790166,-55.794862,228,312.20902
1,Alegria/RS,-27.8332103,-54.0574959,330,9780.67576
D1,Alegria/RS,-27.8332103,-54.0574959,2,59.27682
1,Alenquer/PA,-1.946229,-54.738355,2838,4970.92412
D1,Alenquer/PA,-1.946229,-54.738355,120,210.18707
1,Alexandria/RN,-6.414779,-38.0135516,1298,9577.21538
D1,Alexandria/RN,-6.414779,-38.0135516,16,118.05504
1,Alexânia/GO,-16.0834049,-48.5077803,2889,10314.17351
D1,Alexânia/GO,-16.0834049,-48.5077803,74,264.19136
1,Alfenas/MG,-21.4297405,-45.9479419,6750,8385.71819
D1,Alfenas/MG,-21.4297405,-45.9479419,150,186.34929
1,Alfredo Chaves/ES,-20.624970400000002,-40.75006690147988,2178,14881.11506
D1,Alfredo Chaves/ES,-20.624970400000002,-40.75006690147988,31,211.80650
1,Alfredo Marcondes/SP,-21.9527,-51.413956,215,5138.62333
D1,Alfredo Marcondes/SP,-21.9527,-51.413956,9,215.10516
1,Alfredo Vasconcelos/MG,-21.145833,-43.776389,347,4970.63458
D1,Alfredo Vasconcelos/MG,-21.145833,-43.776389,11,157.57055
1,Alfredo Wagner/SC,-27.6961513,-49.3326734,662,6563.55344
D1,Alfredo Wagner/SC,-27.6961513,-49.3326734,7,69.40313
1,Algodão de Jandaíra/PB,-6.9040175,-36.0089879,136,5277.45440
1,Alhandra/PB,-7.4304246,-34.9106103,1838,9317.17950
D1,Alhandra/PB,-7.4304246,-34.9106103,32,162.21422
1,Aliança do Tocantins/TO,-11.3055927,-48.9409096,559,10456.41601
D1,Aliança do Tocantins/TO,-11.3055927,-48.9409096,20,374.11149
1,Aliança/PE,-7.60398,-35.222696,577,1502.72157
D1,Aliança/PE,-7.60398,-35.222696,50,130.21851
1,Almadina/BA,-14.70466,-39.6381994,594,11069.69810
D1,Almadina/BA,-14.70466,-39.6381994,9,167.72270
1,Almas/TO,-11.5681309,-47.1702803,211,3023.35578
D1,Almas/TO,-11.5681309,-47.1702803,4,57.31480
1,Almeirim/PA,-1.5290377,-52.5788111,3330,9772.27374
D1,Almeirim/PA,-1.5290377,-52.5788111,42,123.25390
1,Almenara/MG,-16.1740678,-40.6904907,3638,8632.51311
D1,Almenara/MG,-16.1740678,-40.6904907,42,99.66068
1,Almino Afonso/RN,-6.1544208,-37.7649018,406,8619.95754
D1,Almino Afonso/RN,-6.1544208,-37.7649018,11,233.54565
1,Almirante Tamandaré do Sul/RS,-28.1141129,-52.9134874,275,14109.79990
D1,Almirante Tamandaré do Sul/RS,-28.1141129,-52.9134874,3,153.92509
1,Almirante Tamandaré/PR,-25.3133048,-49.2997838,8504,7084.24622
D1,Almirante Tamandaré/PR,-25.3133048,-49.2997838,326,271.57388
1,Aloândia/GO,-17.7277983,-49.4809338,225,11329.30514
D1,Aloândia/GO,-17.7277983,-49.4809338,6,302.11480
1,Alpercata/MG,-18.9803616,-41.9827637,450,6051.64067
D1,Alpercata/MG,-18.9803616,-41.9827637,15,201.72136
1,Alpestre/RS,-27.2512339,-53.0349646,282,4648.09626
D1,Alpestre/RS,-27.2512339,-53.0349646,7,115.37828
1,Alpinópolis/MG,-20.863611,-46.387777,997,4995.49053
D1,Alpinópolis/MG,-20.863611,-46.387777,22,110.23149
1,Alta Floresta D'Oeste/RO,-11.9296917,-61.9961284,3683,16204.68145
D1,Alta Floresta D'Oeste/RO,-11.9296917,-61.9961284,62,272.79127
1,Alta Floresta/MT,-9.8715018,-56.0839881,7690,14800.13087
D1,Alta Floresta/MT,-9.8715018,-56.0839881,113,217.47917
1,Altair/SP,-20.5238955,-49.0606135,157,3750.59723
D1,Altair/SP,-20.5238955,-49.0606135,11,262.78070
1,Altamira do Maranhão/MA,-4.1643006,-45.4674574,307,3748.93149
D1,Altamira do Maranhão/MA,-4.1643006,-45.4674574,9,109.90353
1,Altamira do Paraná/PR,-24.799114,-52.7128633,187,11117.71700
D1,Altamira do Paraná/PR,-24.799114,-52.7128633,6,356.71819
1,Altamira/PA,-3.204065,-52.209961,12774,11015.01263
D1,Altamira/PA,-3.204065,-52.209961,274,236.27004
1,Altaneira/CE,-6.9980933,-39.7385742,432,5647.05882
D1,Altaneira/CE,-6.9980933,-39.7385742,14,183.00654
1,Alterosa/MG,-21.249166,-46.143055,598,4119.30840
D1,Alterosa/MG,-21.249166,-46.143055,31,213.54274
1,Altinho/PE,-8.4904095,-36.0607494,984,4281.23912
D1,Altinho/PE,-8.4904095,-36.0607494,19,82.66620
1,Altinópolis/SP,-21.021364,-47.3712,760,4690.48942
D1,Altinópolis/SP,-21.021364,-47.3712,30,185.15090
1,Alto Alegre do Maranhão/MA,-4.2055693,-44.4525287,1099,3945.00682
D1,Alto Alegre do Maranhão/MA,-4.2055693,-44.4525287,25,89.74083
1,Alto Alegre do Pindaré/MA,-3.6698186,-45.8462153,1847,5782.17450
D1,Alto Alegre do Pindaré/MA,-3.6698186,-45.8462153,45,140.87594
1,Alto Alegre dos Parecis/RO,-12.1314515,-61.856265,1377,10388.53263
D1,Alto Alegre dos Parecis/RO,-12.1314515,-61.856265,38,286.68427
1,Alto Alegre/RR,2.98858,-61.307167,1287,8368.01040
D1,Alto Alegre/RR,2.98858,-61.307167,29,188.55657
1,Alto Alegre/RS,-31.780844700000003,-52.81311114489171,176,10911.34532
D1,Alto Alegre/RS,-31.780844700000003,-52.81311114489171,1,61.99628
1,Alto Alegre/SP,-21.5820592,-50.1661976,294,7191.78082
D1,Alto Alegre/SP,-21.5820592,-50.1661976,14,342.46575
1,Alto Araguaia/MT,-17.3156528,-53.2169365,1084,5591.95254
D1,Alto Araguaia/MT,-17.3156528,-53.2169365,23,118.64844
1,Alto Bela Vista/SC,-27.4320737,-51.905771,156,8099.68847
D1,Alto Bela Vista/SC,-27.4320737,-51.905771,2,103.84216
1,Alto Boa Vista/MT,-11.6723985,-51.3744431,713,10279.70012
D1,Alto Boa Vista/MT,-11.6723985,-51.3744431,12,173.01038
1,Alto Caparaó/MG,-20.4405661,-41.8683799,363,6158.80556
D1,Alto Caparaó/MG,-20.4405661,-41.8683799,8,135.73125
1,Alto Feliz/RS,-29.3785943,-51.3123751,235,7740.44796
D1,Alto Feliz/RS,-29.3785943,-51.3123751,2,65.87615
1,Alto Garças/MT,-16.9469683,-53.529427,767,6312.23768
D1,Alto Garças/MT,-16.9469683,-53.529427,26,213.97416
1,Alto Horizonte/GO,-14.1954948,-49.3366993,751,11370.17411
D1,Alto Horizonte/GO,-14.1954948,-49.3366993,9,136.26041
1,Alto Jequitibá/MG,-20.423611,-41.966111,622,7493.07312
D1,Alto Jequitibá/MG,-20.423611,-41.966111,9,108.42067
1,Alto Longá/PI,-5.2549051,-42.2072388,584,4072.80842
D1,Alto Longá/PI,-5.2549051,-42.2072388,13,90.66183
1,Alto Paraguai/MT,-14.513712,-56.4936374,808,7042.62181
D1,Alto Paraguai/MT,-14.513712,-56.4936374,26,226.61902
1,Alto Paraná/PR,-23.131247,-52.318893,846,5693.51908
D1,Alto Paraná/PR,-23.131247,-52.318893,21,141.32849
1,Alto Paraíso de Goiás/GO,-14.1304779,-47.5100161,613,7973.46514
D1,Alto Paraíso de Goiás/GO,-14.1304779,-47.5100161,7,91.05099
1,Alto Paraíso/PR,-23.508137,-53.728537,175,6517.69088
D1,Alto Paraíso/PR,-23.508137,-53.728537,3,111.73184
1,Alto Paraíso/RO,-9.7240103,-63.3188123,1693,7749.34774
D1,Alto Paraíso/RO,-9.7240103,-63.3188123,40,183.09150
1,Alto Parnaíba/MA,-9.112506,-45.9310154,750,6689.26151
D1,Alto Parnaíba/MA,-9.112506,-45.9310154,8,71.35212
1,Alto Piquiri/PR,-24.0239021,-53.4417448,698,7138.47413
D1,Alto Piquiri/PR,-24.0239021,-53.4417448,18,184.08673
1,Alto Rio Doce/MG,-21.0239537,-43.4133507,324,2983.70016
D1,Alto Rio Doce/MG,-21.0239537,-43.4133507,23,211.80588
1,Alto Rio Novo/ES,-19.0577208,-41.0171518,674,8559.81712
D1,Alto Rio Novo/ES,-19.0577208,-41.0171518,21,266.70053
1,Alto Santo/CE,-5.5190371,-38.2719351,1308,7606.42010
D1,Alto Santo/CE,-5.5190371,-38.2719351,22,127.93673
1,Alto Taquari/MT,-17.8269099,-53.2831736,1370,12305.75766
D1,Alto Taquari/MT,-17.8269099,-53.2831736,26,233.53993
1,Alto do Rodrigues/RN,-5.290868,-36.7616726,1818,12343.83487
D1,Alto do Rodrigues/RN,-5.290868,-36.7616726,32,217.27322
1,Altos/PI,-5.0393915,-42.4611694,4060,9998.76862
D1,Altos/PI,-5.0393915,-42.4611694,83,204.40832
1,Altônia/PR,-23.8722004,-53.894037,941,4243.32612
D1,Altônia/PR,-23.8722004,-53.894037,18,81.16883
1,Alumínio/SP,-23.5203479,-47.2575256,1234,6575.37166
D1,Alumínio/SP,-23.5203479,-47.2575256,38,202.48308
1,Alvarenga/MG,-19.4175,-41.728334,407,10587.92924
D1,Alvarenga/MG,-19.4175,-41.728334,4,104.05827
1,Alvarães/AM,-3.214786,-64.8143124,2781,17145.49938
D1,Alvarães/AM,-3.214786,-64.8143124,44,271.27004
1,Alvinlândia/SP,-22.4431852,-49.7643596,128,3954.27865
D1,Alvinlândia/SP,-22.4431852,-49.7643596,7,216.24961
1,Alvinópolis/MG,-20.1105199,-43.0601805,581,3830.17997
D1,Alvinópolis/MG,-20.1105199,-43.0601805,19,125.25546
1,Alvorada D'Oeste/RO,-11.346271,-62.284697,1010,7160.07373
D1,Alvorada D'Oeste/RO,-11.346271,-62.284697,25,177.22955
1,Alvorada de Minas/MG,-18.7318587,-43.3641479,239,6629.68100
D1,Alvorada de Minas/MG,-18.7318587,-43.3641479,1,27.73925
1,Alvorada do Gurguéia/PI,-8.4465288,-43.8655915,326,5987.14417
D1,Alvorada do Gurguéia/PI,-8.4465288,-43.8655915,9,165.28926
1,Alvorada do Norte/GO,-14.483911,-46.4959897,657,7547.38656
D1,Alvorada do Norte/GO,-14.483911,-46.4959897,3,34.46295
1,Alvorada do Sul/PR,-22.7807269,-51.2307721,682,5928.88812
D1,Alvorada do Sul/PR,-22.7807269,-51.2307721,22,191.25446
1,Alvorada/RS,-29.9981184,-51.0772509,19092,9033.27151
D1,Alvorada/RS,-29.9981184,-51.0772509,686,324.57701
1,Alvorada/TO,-12.478465,-49.124926,1052,12529.77608
D1,Alvorada/TO,-12.478465,-49.124926,18,214.38780
1,Além Paraíba/MG,-21.8760576,-42.6810473,2863,8087.34217
D1,Além Paraíba/MG,-21.8760576,-42.6810473,135,381.34516
1,Amajari/RR,3.6523869,-61.4194315,981,7440.27304
D1,Amajari/RR,3.6523869,-61.4194315,20,151.68752
1,Amambai/MS,-23.1082701,-55.2284854,2402,6031.23588
D1,Amambai/MS,-23.1082701,-55.2284854,46,115.50244
1,Amaporã/PR,-23.094272,-52.786597,275,4343.01958
D1,Amaporã/PR,-23.094272,-52.786597,5,78.96399
1,Amapá do Maranhão/MA,-1.6762114,-46.0109669,172,2455.38901
D1,Amapá do Maranhão/MA,-1.6762114,-46.0109669,4,57.10207
1,Amapá/AP,2.0529997,-50.7930003,1276,13889.19125
D1,Amapá/AP,2.0529997,-50.7930003,10,108.84946
1,Amaraji/PE,-8.373925,-35.4536527,469,2050.72147
D1,Amaraji/PE,-8.373925,-35.4536527,29,126.80367
1,Amaral Ferrador/RS,-30.8750633,-52.2542051,240,3387.43825
D1,Amaral Ferrador/RS,-30.8750633,-52.2542051,6,84.68596
1,Amaralina/GO,-13.9236199,-49.2962411,63,1638.49155
1,Amarante do Maranhão/MA,-5.56913,-46.747284,1559,3736.01093
D1,Amarante do Maranhão/MA,-5.56913,-46.747284,55,131.80282
1,Amarante/PI,-6.2459374,-42.8476238,1440,8179.95910
D1,Amarante/PI,-6.2459374,-42.8476238,32,181.77687
1,Amargosa/BA,-13.03793715,-39.60796443875596,2424,6474.18605
D1,Amargosa/BA,-13.03793715,-39.60796443875596,47,125.53084
1,Amaturá/AM,-3.3640509,-68.1994689,2351,20032.37900
D1,Amaturá/AM,-3.3640509,-68.1994689,17,144.85344
1,Americana/SP,-22.7392463,-47.3306032,17953,7418.04329
D1,Americana/SP,-22.7392463,-47.3306032,551,227.66902
1,Americano do Brasil/GO,-16.2515808,-49.9806104,463,7511.35626
D1,Americano do Brasil/GO,-16.2515808,-49.9806104,16,259.57171
1,Ametista do Sul/RS,-27.3617341,-53.1826575,593,8010.26611
D1,Ametista do Sul/RS,-27.3617341,-53.1826575,13,175.60448
1,Amontada/CE,-3.3634586,-39.8284791,2602,5936.70857
D1,Amontada/CE,-3.3634586,-39.8284791,49,111.79812
1,Amorinópolis/GO,-16.6211308,-51.0949921,182,5930.27045
D1,Amorinópolis/GO,-16.6211308,-51.0949921,3,97.75171
1,Amparo de São Francisco/SE,-10.1299754,-36.9269099,202,8487.39496
D1,Amparo de São Francisco/SE,-10.1299754,-36.9269099,3,126.05042
1,Amparo do Serra/MG,-20.5070255,-42.8028462,136,2907.22531
D1,Amparo do Serra/MG,-20.5070255,-42.8028462,7,149.63660
1,Amparo/PB,-7.56394725,-37.04652873235175,160,7107.95202
D1,Amparo/PB,-7.56394725,-37.04652873235175,4,177.69880
1,Amparo/SP,-22.70111,-46.76444,5028,6918.28226
D1,Amparo/SP,-22.70111,-46.76444,121,166.49009
1,Ampére/PR,-25.9168712,-53.4742414,1264,6545.49221
D1,Ampére/PR,-25.9168712,-53.4742414,27,139.81668
1,Amélia Rodrigues/BA,-12.4015388,-38.7516971,1951,7789.04503
D1,Amélia Rodrigues/BA,-12.4015388,-38.7516971,38,151.70872
1,América Dourada/BA,-11.4515262,-41.4357517,790,4909.88191
D1,América Dourada/BA,-11.4515262,-41.4357517,7,43.50528
1,Américo Brasiliense/SP,-21.7297099,-48.1052092,3370,8213.10197
D1,Américo Brasiliense/SP,-21.7297099,-48.1052092,79,192.53266
1,Américo de Campos/SP,-20.298476,-49.735904,694,11603.41080
D1,Américo de Campos/SP,-20.298476,-49.735904,23,384.55108
1,Anadia/AL,-9.6830208,-36.3052699,1168,6664.38434
D1,Anadia/AL,-9.6830208,-36.3052699,27,154.05683
1,Anagé/BA,-14.6134669,-41.1376308,821,3799.69454
D1,Anagé/BA,-14.6134669,-41.1376308,17,78.67821
1,Anahy/PR,-24.6450861,-53.1337957,328,11764.70588
D1,Anahy/PR,-24.6450861,-53.1337957,8,286.94405
1,Anajatuba/MA,-3.26441,-44.6179916,821,3042.09278
D1,Anajatuba/MA,-3.26441,-44.6179916,21,77.81236
1,Anajás/PA,-0.9878802,-49.9390114,1323,4456.34600
D1,Anajás/PA,-0.9878802,-49.9390114,21,70.73565
1,Analândia/SP,-22.128917,-47.661939,273,5399.52532
D1,Analândia/SP,-22.128917,-47.661939,3,59.33544
1,Anamã/AM,-3.5797356,-61.4049996,1729,12388.93666
D1,Anamã/AM,-3.5797356,-61.4049996,9,64.48839
1,Ananindeua/PA,-1.374035,-48.4016623,22060,4119.15294
D1,Ananindeua/PA,-1.374035,-48.4016623,778,145.27203
1,Ananás/TO,-6.3663053,-48.080238,1479,15581.54235
D1,Ananás/TO,-6.3663053,-48.080238,22,231.77413
1,Anapu/PA,-3.4668292,-51.2057035,1301,4547.83794
D1,Anapu/PA,-3.4668292,-51.2057035,36,125.84333
1,Anapurus/MA,-3.6751298,-43.1046001,828,5209.51302
D1,Anapurus/MA,-3.6751298,-43.1046001,11,69.20851
1,Anastácio/MS,-20.4832458,-55.8048448,1924,7623.72707
D1,Anastácio/MS,-20.4832458,-55.8048448,59,233.78373
1,Anaurilândia/MS,-22.185169,-52.719056,404,4451.30013
D1,Anaurilândia/MS,-22.185169,-52.719056,13,143.23491
1,Anchieta/ES,-20.8057672,-40.6454564,4486,15064.30706
D1,Anchieta/ES,-20.8057672,-40.6454564,81,272.00376
1,Anchieta/SC,-26.5350527,-53.3293938,449,8079.89923
D1,Anchieta/SC,-26.5350527,-53.3293938,7,125.96725
1,Andaraí/BA,-12.8059674,-41.3322919,716,5452.33019
D1,Andaraí/BA,-12.8059674,-41.3322919,6,45.68992
1,Andirá/PR,-23.0494761,-50.2310027,1781,8938.07086
D1,Andirá/PR,-23.0494761,-50.2310027,65,326.20697
1,Andorinha/BA,-10.3445708,-39.8334411,764,5267.87561
D1,Andorinha/BA,-10.3445708,-39.8334411,12,82.74150
1,Andradas/MG,-22.0680484,-46.5688976,2955,7138.37086
D1,Andradas/MG,-22.0680484,-46.5688976,86,207.74954
1,Andradina/SP,-20.896505,-51.3742765,5120,8950.73599
D1,Andradina/SP,-20.896505,-51.3742765,218,381.10556
1,Andrelândia/MG,-21.739722,-44.308889,206,1687.69458
D1,Andrelândia/MG,-21.739722,-44.308889,7,57.34884
1,André da Rocha/RS,-28.6309124,-51.5733328,101,7520.47655
1,Angatuba/SP,-23.4938938,-48.4110675,2306,9050.59068
D1,Angatuba/SP,-23.4938938,-48.4110675,58,227.63845
1,Angelim/PE,-8.8902038,-36.2872987,180,1603.42063
D1,Angelim/PE,-8.8902038,-36.2872987,6,53.44735
1,Angelina/SC,-27.5805287,-48.9838759,481,10141.26081
D1,Angelina/SC,-27.5805287,-48.9838759,1,21.08370
1,Angelândia/MG,-17.7253,-42.2728,94,1098.51583
D1,Angelândia/MG,-17.7253,-42.2728,1,11.68634
1,Angical do Piauí/PI,-6.0872666,-42.7366138,656,9671.23692
D1,Angical do Piauí/PI,-6.0872666,-42.7366138,9,132.68465
1,Angical/BA,-12.005623,-44.7000236,541,3881.47510
D1,Angical/BA,-12.005623,-44.7000236,11,78.92094
1,Angico/TO,-6.3893733,-47.8656722,220,6369.42675
D1,Angico/TO,-6.3893733,-47.8656722,3,86.85582
1,Angicos/RN,-5.6666344,-36.6009064,722,6168.30414
D1,Angicos/RN,-5.6666344,-36.6009064,18,153.78044
1,Angra dos Reis/RJ,-23.0063966,-44.316326,12825,6194.33550
D1,Angra dos Reis/RJ,-23.0063966,-44.316326,432,208.65130
1,Anguera/BA,-12.1509425,-39.2452469,377,3337.16916
D1,Anguera/BA,-12.1509425,-39.2452469,1,8.85191
1,Angélica/MS,-22.1588196,-53.7728504,912,8342.48079
D1,Angélica/MS,-22.1588196,-53.7728504,16,146.35931
1,Anhanguera/GO,-18.3338749,-48.220363,88,7586.20690
D1,Anhanguera/GO,-18.3338749,-48.220363,6,517.24138
1,Anhembi/SP,-22.7891096,-48.1316776,207,3035.63572
D1,Anhembi/SP,-22.7891096,-48.1316776,5,73.32453
1,Anhumas/SP,-22.2956478,-51.3873401,197,4753.86100
D1,Anhumas/SP,-22.2956478,-51.3873401,4,96.52510
1,Anicuns/GO,-16.4606451,-49.9572265,2398,10909.42177
D1,Anicuns/GO,-16.4606451,-49.9572265,57,259.31486
1,Anita Garibaldi/SC,-27.6855032,-51.1293873,1093,15710.79488
D1,Anita Garibaldi/SC,-27.6855032,-51.1293873,9,129.36611
1,Anitápolis/SC,-27.9041185,-49.1287395,314,9727.38538
D1,Anitápolis/SC,-27.9041185,-49.1287395,4,123.91574
1,Anori/AM,-3.7435254,-61.6605203,1869,8702.33273
D1,Anori/AM,-3.7435254,-61.6605203,31,144.34046
1,Anta Gorda/RS,-28.9718745,-52.0069187,574,9629.25684
D1,Anta Gorda/RS,-28.9718745,-52.0069187,4,67.10284
1,Antas/BA,-10.4114649,-38.3308815,1129,5795.98542
D1,Antas/BA,-10.4114649,-38.3308815,8,41.06987
1,Antonina do Norte/CE,-6.7754187,-39.9879345,614,8322.03849
D1,Antonina do Norte/CE,-6.7754187,-39.9879345,24,325.29141
1,Antonina/PR,-25.4298854,-48.7125431,2245,11847.59090
D1,Antonina/PR,-25.4298854,-48.7125431,56,295.53011
1,Antônio Almeida/PI,-7.2186016,-44.1950248,403,12712.93375
D1,Antônio Almeida/PI,-7.2186016,-44.1950248,10,315.45741
1,Antônio Cardoso/BA,-12.4363122,-39.1200307,381,3262.82436
D1,Antônio Cardoso/BA,-12.4363122,-39.1200307,7,59.94690
1,Antônio Carlos/MG,-21.318334,-43.746666,520,4537.91779
D1,Antônio Carlos/MG,-21.318334,-43.746666,10,87.26765
1,Antônio Carlos/SC,-27.5168462,-48.7684715,1458,16927.89969
D1,Antônio Carlos/SC,-27.5168462,-48.7684715,21,243.81749
1,Antônio Dias/MG,-19.6525,-42.872778,524,5649.59569
D1,Antônio Dias/MG,-19.6525,-42.872778,22,237.19677
1,Antônio Gonçalves/BA,-10.5715409,-40.2748824,741,6238.42398
D1,Antônio Gonçalves/BA,-10.5715409,-40.2748824,8,67.35141
1,Antônio João/MS,-22.1892837,-55.9508227,373,4135.25499
D1,Antônio João/MS,-22.1892837,-55.9508227,7,77.60532
1,Antônio Martins/RN,-6.2155812,-37.8890129,581,8121.33072
D1,Antônio Martins/RN,-6.2155812,-37.8890129,5,69.89097
1,Antônio Olinto/PR,-25.9849006,-50.1974516,365,4914.50114
D1,Antônio Olinto/PR,-25.9849006,-50.1974516,8,107.71509
1,Antônio Prado de Minas/MG,-21.0171988,-42.1101106,155,9766.85570
D1,Antônio Prado de Minas/MG,-21.0171988,-42.1101106,5,315.05986
1,Antônio Prado/RS,-28.8567806,-51.2801355,2143,16427.75010
D1,Antônio Prado/RS,-28.8567806,-51.2801355,19,145.64967
1,Anápolis/GO,-16.3332828,-48.9525756,35628,9094.06492
D1,Anápolis/GO,-16.3332828,-48.9525756,1242,317.02112
1,Anísio de Abreu/PI,-9.185643,-43.04941,284,2857.71785
D1,Anísio de Abreu/PI,-9.185643,-43.04941,10,100.62387
1,Aparecida d'Oeste/SP,-20.4498109,-50.8808706,646,15536.31554
D1,Aparecida d'Oeste/SP,-20.4498109,-50.8808706,12,288.60029
1,Aparecida de Goiânia/GO,-16.8226769,-49.2452546,64406,10913.57054
D1,Aparecida de Goiânia/GO,-16.8226769,-49.2452546,1251,211.98144
1,Aparecida do Rio Doce/GO,-18.2980167,-51.1491312,184,7437.34842
D1,Aparecida do Rio Doce/GO,-18.2980167,-51.1491312,3,121.26112
1,Aparecida do Rio Negro/TO,-9.9513491,-47.9773786,324,6683.16832
D1,Aparecida do Rio Negro/TO,-9.9513491,-47.9773786,5,103.13531
1,Aparecida do Taboado/MS,-20.0840304,-51.1013943,2871,11013.08067
D1,Aparecida do Taboado/MS,-20.0840304,-51.1013943,45,172.61882
1,Aparecida/PB,-6.7859598, -38.0831353,777,9232.41445
D1,Aparecida/PB,-6.7859598, -38.0831353,13,154.46768
1,Aparecida/SP,-22.851552,-45.2340924,2130,5886.41702
D1,Aparecida/SP,-22.851552,-45.2340924,75,207.26821
1,Aperibé/RJ,-21.6211928,-42.1028167,520,4369.38072
D1,Aperibé/RJ,-21.6211928,-42.1028167,23,193.26107
1,Apiacá/ES,-21.152272,-41.569297,731,9676.99232
D1,Apiacá/ES,-21.152272,-41.569297,31,410.37861
1,Apiacás/MT,-9.5678422,-57.394852,1552,15092.87173
D1,Apiacás/MT,-9.5678422,-57.394852,14,136.14704
1,Apiaí/SP,-24.5076527,-48.8461582,1120,4623.13217
D1,Apiaí/SP,-24.5076527,-48.8461582,66,272.43457
1,Apicum-Açu/MA,-1.5279295,-45.082278,475,2727.84701
D1,Apicum-Açu/MA,-1.5279295,-45.082278,5,28.71418
1,Apiúna/SC,-27.0374658,-49.3885037,775,7144.17404
D1,Apiúna/SC,-27.0374658,-49.3885037,15,138.27434
1,Apodi/RN,-5.6631109,-37.796927,5458,15214.36138
D1,Apodi/RN,-5.6631109,-37.796927,85,236.94040
1,Aporá/BA,-11.6599747,-38.0794757,472,2653.47425
D1,Aporá/BA,-11.6599747,-38.0794757,18,101.19181
1,Aporé/GO,-18.9642193,-51.92804,333,7868.62004
D1,Aporé/GO,-18.9642193,-51.92804,9,212.66541
1,Apuarema/BA,-13.8517897,-39.7457126,650,8901.67078
D1,Apuarema/BA,-13.8517897,-39.7457126,9,123.25390
1,Apucarana/PR,-23.5525327,-51.4610764,7928,5819.39898
D1,Apucarana/PR,-23.5525327,-51.4610764,284,208.46485
1,Apuiarés/CE,-3.9460303,-39.4313298,983,6699.83642
D1,Apuiarés/CE,-3.9460303,-39.4313298,21,143.12977
1,Apuí/AM,-7.1940195,-59.8830192,1304,5832.10340
D1,Apuí/AM,-7.1940195,-59.8830192,27,120.75674
1,Aquidabã/SE,-10.2837579,-37.0188687,1981,9137.03242
D1,Aquidabã/SE,-10.2837579,-37.0188687,33,152.20700
1,Aquidauana/MS,-20.473969,-55.7821375,4360,9077.84880
D1,Aquidauana/MS,-20.473969,-55.7821375,124,258.17735
1,Aquiraz/CE,-3.9063117,-38.387504,5936,7334.28060
D1,Aquiraz/CE,-3.9063117,-38.387504,79,97.60919
1,Arabutã/SC,-27.1587028,-52.1438142,390,9139.91094
D1,Arabutã/SC,-27.1587028,-52.1438142,7,164.04968
1,Aracaju/SE,-10.9162061,-37.0774655,108755,16356.39818
D1,Aracaju/SE,-10.9162061,-37.0774655,2041,306.95976
1,Aracati/CE,-4.558259,-37.767894,6362,8485.49517
D1,Aracati/CE,-4.558259,-37.767894,127,169.38980
1,Aracatu/BA,-14.4274236,-41.4604105,775,5940.97355
D1,Aracatu/BA,-14.4274236,-41.4604105,14,107.32081
1,Araci/BA,-11.3356065,-38.9573261,3280,6002.04948
D1,Araci/BA,-11.3356065,-38.9573261,43,78.68540
1,Aracitaba/MG,-21.3425,-43.378611,77,3739.67946
D1,Aracitaba/MG,-21.3425,-43.378611,8,388.53813
1,Aracoiaba/CE,-4.3702577,-38.8084313,3408,12843.41436
D1,Aracoiaba/CE,-4.3702577,-38.8084313,28,105.52101
1,Aracruz/ES,-19.8245218,-40.2735025,14462,14027.02205
D1,Aracruz/ES,-19.8245218,-40.2735025,206,199.80408
1,Aragarças/GO,-15.8957166,-52.2514538,2036,10042.91422
D1,Aragarças/GO,-15.8957166,-52.2514538,49,241.70078
1,Aragoiânia/GO,-16.9146388,-49.4499148,946,9012.95732
D1,Aragoiânia/GO,-16.9146388,-49.4499148,17,161.96646
1,Aragominas/TO,-7.1654101,-48.525488,486,8480.19543
D1,Aragominas/TO,-7.1654101,-48.525488,9,157.04066
1,Araguacema/TO,-8.8067391,-49.5560969,550,7686.93222
D1,Araguacema/TO,-8.8067391,-49.5560969,11,153.73864
1,Araguaiana/MT,-15.729144,-51.834112,193,6207.78385
D1,Araguaiana/MT,-15.729144,-51.834112,5,160.82342
1,Araguainha/MT,-16.857016,-53.031778,25,2642.70613
1,Araguanã/MA,-2.9508403,-45.6651986,766,4925.72825
D1,Araguanã/MA,-2.9508403,-45.6651986,5,32.15227
1,Araguanã/TO,-6.5799107,-48.6428482,432,7457.27602
D1,Araguanã/TO,-6.5799107,-48.6428482,12,207.14656
1,Araguapaz/GO,-15.0937927,-50.626417,491,6308.62135
D1,Araguapaz/GO,-15.0937927,-50.626417,19,244.12180
1,Araguari/MG,-18.6511256,-48.1933764,13230,11228.51687
D1,Araguari/MG,-18.6511256,-48.1933764,359,304.68916
1,Araguatins/TO,-5.6522925,-48.1158973,2121,5863.97567
D1,Araguatins/TO,-5.6522925,-48.1158973,52,143.76555
1,Araguaçu/TO,-12.928934,-49.823134,790,9330.34133
D1,Araguaçu/TO,-12.928934,-49.823134,18,212.59006
1,Araguaína/TO,-7.193241,-48.2018597,29961,16338.11573
D1,Araguaína/TO,-7.193241,-48.2018597,391,213.21729
1,Araioses/MA,-2.890914,-41.904993,648,1385.47390
D1,Araioses/MA,-2.890914,-41.904993,13,27.79500
1,Aral Moreira/MS,-22.951141,-55.6268421,433,3511.19040
D1,Aral Moreira/MS,-22.951141,-55.6268421,9,72.98086
1,Aramari/BA,-12.0907897,-38.4985065,542,4729.08123
D1,Aramari/BA,-12.0907897,-38.4985065,12,104.70291
1,Arambaré/RS,-30.9132252,-51.4994625,171,4800.67378
D1,Arambaré/RS,-30.9132252,-51.4994625,7,196.51881
1,Arame/MA,-4.8858769,-46.0102484,1196,3650.34794
D1,Arame/MA,-4.8858769,-46.0102484,36,109.87669
1,Aramina/SP,-20.0876144,-47.789201,266,4703.80195
D1,Aramina/SP,-20.0876144,-47.789201,10,176.83466
1,Arandu/SP,-23.1345103,-49.0545651,371,5828.75098
D1,Arandu/SP,-23.1345103,-49.0545651,9,141.39827
1,Arantina/MG,-21.911667,-44.255833,156,5597.41658
D1,Arantina/MG,-21.911667,-44.255833,3,107.64263
1,Arapeí/SP,-22.6738889,-44.4477778,188,7642.27642
D1,Arapeí/SP,-22.6738889,-44.4477778,2,81.30081
1,Arapiraca/AL,-9.754866,-36.661471,23819,10220.68510
D1,Arapiraca/AL,-9.754866,-36.661471,386,165.63183
1,Arapoema/TO,-7.6575001,-49.0641484,431,6514.51028
D1,Arapoema/TO,-7.6575001,-49.0641484,6,90.68924
1,Araponga/MG,-20.666667,-42.520556,375,4436.29481
D1,Araponga/MG,-20.666667,-42.520556,6,70.98072
1,Arapongas/PR,-23.415296,-51.42592,10917,8746.89528
D1,Arapongas/PR,-23.415296,-51.42592,421,337.31272
1,Araporã/MG,-18.4318188,-49.188313,1685,24311.06622
D1,Araporã/MG,-18.4318188,-49.188313,26,375.12624
1,Arapoti/PR,-24.1457957,-49.8224605,2505,8851.59011
D1,Arapoti/PR,-24.1457957,-49.8224605,46,162.54417
1,Araputanga/MT,-15.4710868,-58.346796,1785,10530.35219
D1,Araputanga/MT,-15.4710868,-58.346796,47,277.26978
1,Arapuá/MG,-19.034444,-46.155556,207,7301.58730
D1,Arapuá/MG,-19.034444,-46.155556,2,70.54674
1,Arapuã/PR,-24.3079525,-51.7901941,189,6281.15653
D1,Arapuã/PR,-24.3079525,-51.7901941,5,166.16816
1,Araquari/SC,-26.3703324,-48.7210994,3308,8369.59822
D1,Araquari/SC,-26.3703324,-48.7210994,68,172.04736
1,Arara/PB,-6.8271895,-35.7605703,867,6402.30394
D1,Arara/PB,-6.8271895,-35.7605703,21,155.07311
1,Araranguá/SC,-28.9348832,-49.4858389,9250,13431.68717
D1,Araranguá/SC,-28.9348832,-49.4858389,218,316.55219
1,Araraquara/SP,-21.7886713,-48.1773096,17961,7535.90474
D1,Araraquara/SP,-21.7886713,-48.1773096,398,166.98904
1,Araras/SP,-22.3569477,-47.3838889,14154,10445.29394
D1,Araras/SP,-22.3569477,-47.3838889,311,229.51013
1,Ararendá/CE,-4.7504395,-40.8303611,910,8303.67734
D1,Ararendá/CE,-4.7504395,-40.8303611,17,155.12364
1,Arari/MA,-3.4547602,-44.7772723,681,2275.15702
D1,Arari/MA,-3.4547602,-44.7772723,30,100.22718
1,Araricá/RS,-29.6168543,-50.929121,962,16669.55467
D1,Araricá/RS,-29.6168543,-50.929121,24,415.87247
1,Araripe/CE,-7.212861,-40.1359222,961,4437.97913
D1,Araripe/CE,-7.212861,-40.1359222,13,60.03510
1,Araripina/PE,-7.5768582,-40.5038509,5907,6960.54864
D1,Araripina/PE,-7.5768582,-40.5038509,127,149.65121
1,Araruama/RJ,-22.8733203,-42.3428897,5357,3989.03889
D1,Araruama/RJ,-22.8733203,-42.3428897,325,242.00815
1,Araruna/PB,-6.5321155,-35.7397595,600,2932.12139
D1,Araruna/PB,-6.5321155,-35.7397595,16,78.18990
1,Araruna/PR,-23.9320308,-52.4976047,1318,9414.28571
D1,Araruna/PR,-23.9320308,-52.4976047,20,142.85714
1,Arataca/BA,-15.2617424,-39.4122943,582,5309.73451
D1,Arataca/BA,-15.2617424,-39.4122943,14,127.72557
1,Aratiba/RS,-27.3955734,-52.3024325,357,5768.29859
D1,Aratiba/RS,-27.3955734,-52.3024325,6,96.94619
1,Aratuba/CE,-4.4195958,-39.0463737,1216,10303.33842
D1,Aratuba/CE,-4.4195958,-39.0463737,8,67.78512
1,Aratuípe/BA,-13.077137,-39.0010786,350,3960.62012
D1,Aratuípe/BA,-13.077137,-39.0010786,9,101.84452
1,Araucária/PR,-25.5861107,-49.4051209,21491,14698.31890
D1,Araucária/PR,-25.5861107,-49.4051209,328,224.32872
1,Arauá/SE,-11.2644014,-37.6181058,1055,10606.21293
D1,Arauá/SE,-11.2644014,-37.6181058,19,191.01237
1,Araxá/MG,-19.5928536,-46.940241,10618,9892.20865
D1,Araxá/MG,-19.5928536,-46.940241,164,152.78981
1,Araçagi/PB,-6.8519969,-35.3835602,1053,6223.03646
D1,Araçagi/PB,-6.8519969,-35.3835602,14,82.73743
1,Araçariguama/SP,-23.438611,-47.061389,1401,6128.60892
D1,Araçariguama/SP,-23.438611,-47.061389,46,201.22485
1,Araçatuba/SP,-21.207992,-50.4390225,22922,11569.23015
D1,Araçatuba/SP,-21.207992,-50.4390225,678,342.20129
1,Araçaí/MG,-19.200833,-44.2475,49,2081.56330
1,Araçoiaba da Serra/SP,-23.5045367,-47.6168158,2209,6352.08190
D1,Araçoiaba da Serra/SP,-23.5045367,-47.6168158,52,149.52841
1,Araçoiaba/PE,-7.7856903,-35.0898881,547,2638.30608
D1,Araçoiaba/PE,-7.7856903,-35.0898881,28,135.05040
1,Araçu/GO,-16.3561579,-49.6815269,390,11187.60757
D1,Araçu/GO,-16.3561579,-49.6815269,15,430.29260
1,Araçuaí/MG,-16.8484451,-42.0661868,1349,3674.54783
D1,Araçuaí/MG,-16.8484451,-42.0661868,32,87.16496
1,Araçás/BA,-12.2139176,-38.2026159,578,4734.60026
D1,Araçás/BA,-12.2139176,-38.2026159,7,57.33945
1,Araújos/MG,-19.948055,-45.165556,618,6573.76875
D1,Araújos/MG,-19.948055,-45.165556,9,95.73450
1,Arceburgo/MG,-21.364444,-46.939722,872,8012.49655
D1,Arceburgo/MG,-21.364444,-46.939722,24,220.52743
1,Arco-Íris/SP,-21.7741308,-50.4668814,110,6204.17372
D1,Arco-Íris/SP,-21.7741308,-50.4668814,6,338.40948
1,Arcos/MG,-20.282223,-45.539444,4465,11057.45419
D1,Arcos/MG,-20.282223,-45.539444,106,262.50619
1,Arcoverde/PE,-8.415192,-37.057748,5212,6965.86565
D1,Arcoverde/PE,-8.415192,-37.057748,110,147.01558
1,Areado/MG,-21.3582771,-46.1476688,624,4110.40116
D1,Areado/MG,-21.3582771,-46.1476688,16,105.39490
1,Areal/RJ,-22.2314922,-43.1056264,1007,7948.53580
D1,Areal/RJ,-22.2314922,-43.1056264,40,315.73131
1,Arealva/SP,-22.0301906,-48.9111936,668,7755.71810
D1,Arealva/SP,-22.0301906,-48.9111936,10,116.10356
1,Areia Branca/RN,-4.9506652,-37.1263312,2205,7884.29220
D1,Areia Branca/RN,-4.9506652,-37.1263312,85,303.92963
1,Areia Branca/SE,-10.7591455,-37.3148072,1680,8990.68822
D1,Areia Branca/SE,-10.7591455,-37.3148072,42,224.76721
1,Areia de Baraúnas/PB,-7.1233949,-36.9446216,120,5671.07750
D1,Areia de Baraúnas/PB,-7.1233949,-36.9446216,3,141.77694
1,Areia/PB,-6.9680243,-35.6994783,1104,4872.88136
D1,Areia/PB,-6.9680243,-35.6994783,22,97.10452
1,Areial/PB,-7.0501306,-35.9245244,276,3927.70741
D1,Areial/PB,-7.0501306,-35.9245244,7,99.61577
1,Areias/SP,-22.5800929,-44.6975127,256,6570.84189
D1,Areias/SP,-22.5800929,-44.6975127,1,25.66735
1,Areiópolis/SP,-22.6758064,-48.6673653,1049,9401.32640
D1,Areiópolis/SP,-22.6758064,-48.6673653,13,116.50833
1,Arenápolis/MT,-14.4610369,-56.8432806,1419,14933.69817
D1,Arenápolis/MT,-14.4610369,-56.8432806,24,252.57840
1,Arenópolis/GO,-16.3859286,-51.55937,174,6861.19874
D1,Arenópolis/GO,-16.3859286,-51.55937,8,315.45741
1,Argirita/MG,-21.612761,-42.8371922,248,9171.59763
D1,Argirita/MG,-21.612761,-42.8371922,5,184.91124
1,Aricanduva/MG,-17.8678,-42.5569,81,1537.29360
1,Arinos/MG,-15.917223,-46.106111,556,3112.75333
D1,Arinos/MG,-15.917223,-46.106111,13,72.78020
1,Aripuanã/MT,-10.175806,-59.4439663,2352,10354.84723
D1,Aripuanã/MT,-10.175806,-59.4439663,41,180.50542
1,Ariquemes/RO,-9.9076522,-63.033069,19739,18022.69843
D1,Ariquemes/RO,-9.9076522,-63.033069,430,392.61160
1,Ariranha do Ivaí/PR,-24.3834527,-51.5876772,140,6776.37948
D1,Ariranha do Ivaí/PR,-24.3834527,-51.5876772,2,96.80542
1,Ariranha/SP,-21.18716,-48.790418,440,4507.73486
D1,Ariranha/SP,-21.18716,-48.790418,16,163.91763
1,Armazém/SC,-28.2624996,-49.0190126,1344,15344.21738
D1,Armazém/SC,-28.2624996,-49.0190126,28,319.67120
1,Armação dos Búzios/RJ,-22.7597805,-41.8875267,4181,12126.92520
D1,Armação dos Búzios/RJ,-22.7597805,-41.8875267,51,147.92470
1,Arneiroz/CE,-6.3235099,-40.1603859,542,6909.73993
D1,Arneiroz/CE,-6.3235099,-40.1603859,15,191.22896
1,Aroazes/PI,-6.1108814,-41.7886137,545,9353.01184
D1,Aroazes/PI,-6.1108814,-41.7886137,12,205.93788
1,Aroeiras do Itaim/PI,-7.2797031,-41.5629681,106,4155.23324
D1,Aroeiras do Itaim/PI,-7.2797031,-41.5629681,2,78.40063
1,Aroeiras/PB,-7.5462904,-35.7080002,1081,5654.94873
D1,Aroeiras/PB,-7.5462904,-35.7080002,7,36.61854
1,Arraial do Cabo/RJ,-22.9662839,-42.024427,653,2134.47521
D1,Arraial do Cabo/RJ,-22.9662839,-42.024427,31,101.33037
1,Arraial/PI,-6.6541632,-42.5335332,141,2987.28814
D1,Arraial/PI,-6.6541632,-42.5335332,2,42.37288
1,Arraias/TO,-12.9287788,-46.9437231,535,5078.79248
D1,Arraias/TO,-12.9287788,-46.9437231,5,47.46535
1,Arroio Grande/RS,-32.2384246,-53.0866661,1704,9343.12973
D1,Arroio Grande/RS,-32.2384246,-53.0866661,49,268.66981
1,Arroio Trinta/SC,-26.9301976,-51.334928,538,15159.19977
D1,Arroio Trinta/SC,-26.9301976,-51.334928,12,338.12342
1,Arroio do Meio/RS,-29.4020392,-51.9444993,2832,13506.93948
D1,Arroio do Meio/RS,-29.4020392,-51.9444993,40,190.77598
1,Arroio do Padre/RS,-31.4428773,-52.4228985,161,5455.77770
D1,Arroio do Padre/RS,-31.4428773,-52.4228985,3,101.66045
1,Arroio do Sal/RS,-29.549852,-49.8874395,990,9631.28709
D1,Arroio do Sal/RS,-29.549852,-49.8874395,33,321.04290
1,Arroio do Tigre/RS,-29.334158,-53.0888935,1004,7485.27548
D1,Arroio do Tigre/RS,-29.334158,-53.0888935,19,141.65362
1,Arroio dos Ratos/RS,-30.0894524,-51.7265541,857,6045.00247
D1,Arroio dos Ratos/RS,-30.0894524,-51.7265541,31,218.66403
1,Artur Nogueira/SP,-22.572737,-47.172679,3596,6498.01229
D1,Artur Nogueira/SP,-22.572737,-47.172679,102,184.31514
1,Aruanã/GO,-14.9162439,-51.0715692,486,4807.12166
D1,Aruanã/GO,-14.9162439,-51.0715692,11,108.80317
1,Arujá/SP,-23.396266,-46.3175449,6512,7143.71908
D1,Arujá/SP,-23.396266,-46.3175449,250,274.25211
1,Arvoredo/SC,-27.0752908,-52.4571847,275,12309.75828
D1,Arvoredo/SC,-27.0752908,-52.4571847,4,179.05103
1,Arvorezinha/RS,-28.87369,-52.17808,751,7205.21923
D1,Arvorezinha/RS,-28.87369,-52.17808,24,230.26000
1,Arês/RN,-6.1969216,-35.1642968,910,6311.99279
D1,Arês/RN,-6.1969216,-35.1642968,20,138.72512
1,Ascurra/SC,-26.9569975,-49.3767752,1070,13411.88268
D1,Ascurra/SC,-26.9569975,-49.3767752,9,112.81023
1,Aspásia/SP,-20.160028,-50.728046,105,5775.57756
D1,Aspásia/SP,-20.160028,-50.728046,4,220.02200
1,Assaré/CE,-6.8746791,-39.8741385,1648,7019.33725
D1,Assaré/CE,-6.8746791,-39.8741385,32,136.29781
1,Assaí/PR,-23.3736041,-50.8454929,1220,8158.35228
D1,Assaí/PR,-23.3736041,-50.8454929,39,260.79979
1,Assis Brasil/AC,-10.9409203,-69.5672108,1613,21409.60977
D1,Assis Brasil/AC,-10.9409203,-69.5672108,22,292.00956
1,Assis Chateaubriand/PR,-24.4054826,-53.5120468,3557,10668.86623
D1,Assis Chateaubriand/PR,-24.4054826,-53.5120468,79,236.95261
1,Assis/SP,-22.6620892,-50.420623,8615,8197.96930
D1,Assis/SP,-22.6620892,-50.420623,284,270.25227
1,Assunção do Piauí/PI,-5.8610212,-41.0485091,303,3853.49103
D1,Assunção do Piauí/PI,-5.8610212,-41.0485091,7,89.02455
1,Assunção/PB,-7.073396,-36.7274003,319,7917.59742
D1,Assunção/PB,-7.073396,-36.7274003,3,74.46016
1,Astolfo Dutra/MG,-21.3132636,-42.8624102,1241,8696.56622
D1,Astolfo Dutra/MG,-21.3132636,-42.8624102,19,133.14646
1,Astorga/PR,-23.2350184,-51.6647074,2691,10267.46537
D1,Astorga/PR,-23.2350184,-51.6647074,63,240.37544
1,Atalaia do Norte/AM,-4.3658547,-70.1908742,2735,13408.17727
D1,Atalaia do Norte/AM,-4.3658547,-70.1908742,8,39.21953
1,Atalaia/AL,-9.5029595,-36.0219316,1085,2290.72100
D1,Atalaia/AL,-9.5029595,-36.0219316,44,92.89560
1,Atalaia/PR,-23.1513833,-52.0529697,349,8992.52770
D1,Atalaia/PR,-23.1513833,-52.0529697,16,412.26488
1,Atalanta/SC,-27.421916,-49.778863,371,11611.89358
D1,Atalanta/SC,-27.421916,-49.778863,10,312.98905
1,Ataléia/MG,-18.04432,-41.1110524,1038,8187.41126
D1,Ataléia/MG,-18.04432,-41.1110524,8,63.10144
1,Atibaia/SP,-23.1177393,-46.5547861,9469,6571.67842
D1,Atibaia/SP,-23.1177393,-46.5547861,222,154.07251
1,Atilio Vivacqua/ES,-20.9139369,-41.1947519,1389,11474.59727
D1,Atilio Vivacqua/ES,-20.9139369,-41.1947519,26,214.78728
1,Augustinópolis/TO,-5.4662267,-47.8897519,1395,7482.70128
D1,Augustinópolis/TO,-5.4662267,-47.8897519,26,139.46253
1,Augusto Corrêa/PA,-1.0229335,-46.6404029,1955,4206.92475
D1,Augusto Corrêa/PA,-1.0229335,-46.6404029,42,90.37895
1,Augusto Pestana/RS,-28.5148413,-53.9906433,630,9542.56286
D1,Augusto Pestana/RS,-28.5148413,-53.9906433,8,121.17540
1,Augusto de Lima/MG,-18.1092963,-44.2651945,232,4782.51907
D1,Augusto de Lima/MG,-18.1092963,-44.2651945,8,164.91445
1,Aurelino Leal/BA,-14.3167137,-39.3256107,879,7779.44951
D1,Aurelino Leal/BA,-14.3167137,-39.3256107,25,221.25852
1,Auriflama/SP,-20.6840418,-50.5554616,1720,11276.47020
D1,Auriflama/SP,-20.6840418,-50.5554616,61,399.92133
1,Aurilândia/GO,-16.6772599,-50.4641231,175,5722.69457
D1,Aurilândia/GO,-16.6772599,-50.4641231,7,228.90778
1,Aurora do Pará/PA,-2.1323199,-47.558436,1409,4434.58282
D1,Aurora do Pará/PA,-2.1323199,-47.558436,14,44.06257
1,Aurora do Tocantins/TO,-12.71045,-46.407604,172,4546.65609
D1,Aurora do Tocantins/TO,-12.71045,-46.407604,3,79.30214
1,Aurora/CE,-6.9426019,-38.9693765,1440,5851.27997
D1,Aurora/CE,-6.9426019,-38.9693765,30,121.90167
1,Aurora/SC,-27.3166417,-49.6368502,714,12563.78673
D1,Aurora/SC,-27.3166417,-49.6368502,14,246.34876
1,Autazes/AM,-3.5833283,-59.1301518,2826,7014.14743
D1,Autazes/AM,-3.5833283,-59.1301518,93,230.82651
1,Avanhandava/SP,-21.4603331,-49.9465156,657,4740.60178
D1,Avanhandava/SP,-21.4603331,-49.9465156,25,180.38820
1,Avaré/SP,-23.1045215,-48.9259103,7747,8491.53806
D1,Avaré/SP,-23.1045215,-48.9259103,168,184.14591
1,Avaí/SP,-22.1564662,-49.3316395,302,5555.55556
D1,Avaí/SP,-22.1564662,-49.3316395,9,165.56291
1,Aveiro/PA,-3.6049239,-55.3310742,628,3828.33455
D1,Aveiro/PA,-3.6049239,-55.3310742,10,60.96074
1,Avelino Lopes/PI,-10.1346855,-43.9489525,349,3081.40562
D1,Avelino Lopes/PI,-10.1346855,-43.9489525,19,167.75561
1,Avelinópolis/GO,-16.4672409,-49.7578661,264,10958.90411
D1,Avelinópolis/GO,-16.4672409,-49.7578661,11,456.62100
1,Axixá do Tocantins/TO,-5.612747,-47.77007,1011,10330.02963
D1,Axixá do Tocantins/TO,-5.612747,-47.77007,17,173.69981
1,Axixá/MA,-2.8379465,-44.0561053,191,1567.75835
D1,Axixá/MA,-2.8379465,-44.0561053,6,49.24895
1,Açailândia/MA,-4.9514278,-47.4844564,4955,4380.26538
D1,Açailândia/MA,-4.9514278,-47.4844564,181,160.00566
1,Açu/RN,-5.5836157,-36.9139541,5387,9226.84297
D1,Açu/RN,-5.5836157,-36.9139541,128,219.23815
1,Açucena/MG,-19.073056,-42.546666,714,7621.69086
D1,Açucena/MG,-19.073056,-42.546666,27,288.21520
1,Babaçulândia/TO,-7.2034355,-47.761613,628,5887.86799
D1,Babaçulândia/TO,-7.2034355,-47.761613,5,46.87793
1,Bacabal/MA,-4.2318132,-44.781167,4629,4417.40624
D1,Bacabal/MA,-4.2318132,-44.781167,165,157.45777
1,Bacabeira/MA,-2.9775747,-44.3155943,320,1854.85741
D1,Bacabeira/MA,-2.9775747,-44.3155943,6,34.77858
1,Bacuri/MA,-1.728894,-45.1417148,432,2315.85719
D1,Bacuri/MA,-1.728894,-45.1417148,4,21.44312
1,Bacurituba/MA,-2.7082587,-44.7381309,117,2063.49206
D1,Bacurituba/MA,-2.7082587,-44.7381309,1,17.63668
1,Bady Bassitt/SP,-20.9178969,-49.4517911,2696,15179.32549
D1,Bady Bassitt/SP,-20.9178969,-49.4517911,64,360.34007
1,Baependi/MG,-21.959162,-44.8899249,1254,6531.59019
D1,Baependi/MG,-21.959162,-44.8899249,12,62.50326
1,Bagre/PA,-1.8994498,-50.2103844,879,2806.06544
D1,Bagre/PA,-1.8994498,-50.2103844,11,35.11572
1,Bagé/RS,-31.3314264,-54.1062808,8386,6911.44352
D1,Bagé/RS,-31.3314264,-54.1062808,231,190.38200
1,Baianópolis/BA,-12.3067564,-44.5383591,688,4939.33520
D1,Baianópolis/BA,-12.3067564,-44.5383591,8,57.43413
1,Baixa Grande do Ribeiro/PI,-7.862861,-45.2113289,2122,18181.81818
D1,Baixa Grande do Ribeiro/PI,-7.862861,-45.2113289,22,188.50141
1,Baixa Grande/BA,-11.9630941,-40.1657537,644,3149.29825
D1,Baixa Grande/BA,-11.9630941,-40.1657537,10,48.90215
1,Baixio/CE,-6.7303544,-38.7170095,420,6663.49357
D1,Baixio/CE,-6.7303544,-38.7170095,10,158.65461
1,Baixo Guandu/ES,-19.5138322,-41.0182089,3232,10381.60093
D1,Baixo Guandu/ES,-19.5138322,-41.0182089,69,221.63690
1,Baião/PA,-2.7903479,-49.6702845,716,1477.53771
D1,Baião/PA,-2.7903479,-49.6702845,30,61.90800
1,Balbinos/SP,-21.9006253,-49.3583966,323,5443.20863
D1,Balbinos/SP,-21.9006253,-49.3583966,4,67.40816
1,Baldim/MG,-19.2913568,-43.9558262,545,6984.49314
D1,Baldim/MG,-19.2913568,-43.9558262,15,192.23376
1,Baliza/GO,-16.1978119,-52.542789,236,4469.69697
D1,Baliza/GO,-16.1978119,-52.542789,6,113.63636
1,Balneário Arroio do Silva/SC,-28.9815269,-49.4189932,1877,13976.17275
D1,Balneário Arroio do Silva/SC,-28.9815269,-49.4189932,44,327.62472
1,Balneário Barra do Sul/SC,-26.459842,-48.6061471,1320,11961.93928
D1,Balneário Barra do Sul/SC,-26.459842,-48.6061471,34,308.11056
1,Balneário Camboriú/SC,-26.9924395,-48.6339782,22903,15708.93577
D1,Balneário Camboriú/SC,-26.9924395,-48.6339782,337,231.14489
1,Balneário Gaivota/SC,-29.1553098,-49.5808712,1149,10204.26288
D1,Balneário Gaivota/SC,-29.1553098,-49.5808712,30,266.42984
1,Balneário Pinhal/RS,-30.2482978,-50.234585,662,4609.06496
D1,Balneário Pinhal/RS,-30.2482978,-50.234585,40,278.49335
1,Balneário Piçarras/SC,-26.7638889,-48.6716667,4293,18059.06108
D1,Balneário Piçarras/SC,-26.7638889,-48.6716667,44,185.09170
1,Balneário Rincão/SC,-28.8235718,-49.2241642,1269,9802.25552
D1,Balneário Rincão/SC,-28.8235718,-49.2241642,39,301.25135
1,Balsa Nova/PR,-25.5842234,-49.6312741,1317,10059.57837
D1,Balsa Nova/PR,-25.5842234,-49.6312741,25,190.95631
1,Balsas/MA,-7.53214,-46.037163,9044,9427.80598
D1,Balsas/MA,-7.53214,-46.037163,160,166.79002
1,Bambuí/MG,-20.0131996,-45.9777034,1325,5544.39702
D1,Bambuí/MG,-20.0131996,-45.9777034,18,75.32011
1,Banabuiú/CE,-5.3046404,-38.919766,1569,8594.43471
D1,Banabuiú/CE,-5.3046404,-38.919766,15,82.16477
1,Bananal/SP,-22.6828195,-44.3221095,904,8223.41490
D1,Bananal/SP,-22.6828195,-44.3221095,2,18.19340
1,Bananeiras/PB,-6.7537682,-35.6338343,1035,4866.23725
D1,Bananeiras/PB,-6.7537682,-35.6338343,18,84.63021
1,Bandeira do Sul/MG,-21.728056,-46.385555,285,4932.50260
D1,Bandeira do Sul/MG,-21.728056,-46.385555,10,173.07027
1,Bandeira/MG,-15.884444,-40.559167,453,9504.82585
D1,Bandeira/MG,-15.884444,-40.559167,9,188.83760
1,Bandeirante/SC,-26.7677402,-53.6397596,249,9403.32326
D1,Bandeirante/SC,-26.7677402,-53.6397596,2,75.52870
1,Bandeirantes do Tocantins/TO,-7.7635698,-48.579148,414,11525.61247
D1,Bandeirantes do Tocantins/TO,-7.7635698,-48.579148,6,167.03786
1,Bandeirantes/MS,-19.9179623,-54.3646768,477,6564.82246
D1,Bandeirantes/MS,-19.9179623,-54.3646768,9,123.86457
1,Bandeirantes/PR,-23.107788,-50.370407,3722,11925.28275
D1,Bandeirantes/PR,-23.107788,-50.370407,104,333.21585
1,Bannach/PA,-7.3508505,-50.4064531,638,19558.55303
D1,Bannach/PA,-7.3508505,-50.4064531,3,91.96812
1,Banzaê/BA,-10.5827616,-38.6122305,918,6933.53474
D1,Banzaê/BA,-10.5827616,-38.6122305,7,52.87009
1,Baraúna/PB,-6.643394,-36.2531932,375,7554.39162
D1,Baraúna/PB,-6.643394,-36.2531932,5,100.72522
1,Baraúna/RN,-5.0775002,-37.61752,973,3384.70101
D1,Baraúna/RN,-5.0775002,-37.61752,22,76.52972
1,Barbacena/MG,-21.2254524,-43.7735087,6511,4711.15163
D1,Barbacena/MG,-21.2254524,-43.7735087,210,151.94929
1,Barbalha/CE,-7.3121067,-39.3036427,5306,8665.96982
D1,Barbalha/CE,-7.3121067,-39.3036427,113,184.55609
1,Barbosa Ferraz/PR,-24.0287182,-52.00811,994,8699.45738
D1,Barbosa Ferraz/PR,-24.0287182,-52.00811,29,253.80711
1,Barbosa/SP,-21.265661,-49.951816,386,5168.71987
D1,Barbosa/SP,-21.265661,-49.951816,11,147.29513
1,Barcarena/PA,-1.5107945,-48.6190679,10552,8306.89538
D1,Barcarena/PA,-1.5107945,-48.6190679,208,163.74472
1,Barcelona/RN,-5.9514918,-35.9260284,86,2153.22984
D1,Barcelona/RN,-5.9514918,-35.9260284,4,100.15023
1,Barcelos/AM,-0.9729214,-62.925635,4217,15257.97815
D1,Barcelos/AM,-0.9729214,-62.925635,57,206.23779
1,Bariri/SP,-22.0746355,-48.7394852,2409,6774.84673
D1,Bariri/SP,-22.0746355,-48.7394852,96,269.98144
1,Barra Bonita/SC,-26.6526364,-53.4419581,162,9812.23501
D1,Barra Bonita/SC,-26.6526364,-53.4419581,1,60.56935
1,Barra Bonita/SP,-22.490859,-48.558349,2776,7684.21635
D1,Barra Bonita/SP,-22.490859,-48.558349,79,218.67907
1,Barra D'Alcântara/PI,-6.5209258,-42.1071089,118,2985.82996
D1,Barra D'Alcântara/PI,-6.5209258,-42.1071089,3,75.91093
1,Barra Funda/RS,-27.9230048,-53.0401045,454,17796.94238
D1,Barra Funda/RS,-27.9230048,-53.0401045,8,313.60251
1,Barra Longa/MG,-20.2833541,-43.0423516,334,6660.01994
D1,Barra Longa/MG,-20.2833541,-43.0423516,9,179.46162
1,Barra Mansa/RJ,-22.5394843,-44.1735129,14249,7709.12121
D1,Barra Mansa/RJ,-22.5394843,-44.1735129,522,282.41710
1,Barra Velha/SC,-26.6338203,-48.6835001,3809,12756.19558
D1,Barra Velha/SC,-26.6338203,-48.6835001,85,284.66175
1,Barra da Estiva/BA,-13.6269662,-41.3278287,1930,9464.49588
D1,Barra da Estiva/BA,-13.6269662,-41.3278287,17,83.36603
1,Barra de Guabiraba/PE,-8.4173522,-35.6626669,345,2377.67057
D1,Barra de Guabiraba/PE,-8.4173522,-35.6626669,14,96.48518
1,Barra de Santa Rosa/PB,-6.7218007,-36.0564638,1120,7227.20527
D1,Barra de Santa Rosa/PB,-6.7218007,-36.0564638,7,45.17003
1,Barra de Santana/PB,-7.5230865,-35.9988518,402,4814.94790
D1,Barra de Santana/PB,-7.5230865,-35.9988518,5,59.88741
1,Barra de Santo Antônio/AL,-9.4038098,-35.5117693,366,2277.81927
D1,Barra de Santo Antônio/AL,-9.4038098,-35.5117693,22,136.91810
1,Barra de São Francisco/ES,-18.7570902,-40.8916119,4464,9924.63149
D1,Barra de São Francisco/ES,-18.7570902,-40.8916119,183,406.85653
1,Barra de São Miguel/AL,-9.8261357,-35.8837777,459,5478.63452
D1,Barra de São Miguel/AL,-9.8261357,-35.8837777,7,83.55216
1,Barra de São Miguel/PB,-7.7528088,-36.3170996,436,7188.78813
D1,Barra de São Miguel/PB,-7.7528088,-36.3170996,6,98.92828
1,Barra do Bugres/MT,-15.0683712,-57.1853688,2551,7225.19614
D1,Barra do Bugres/MT,-15.0683712,-57.1853688,59,167.10567
1,Barra do Chapéu/SP,-24.472203,-49.023784,242,4201.38889
D1,Barra do Chapéu/SP,-24.472203,-49.023784,1,17.36111
1,Barra do Choça/BA,-14.8638173,-40.5761637,1887,6046.33279
D1,Barra do Choça/BA,-14.8638173,-40.5761637,27,86.51351
1,Barra do Corda/MA,-5.496823,-45.248496,5384,6084.16580
D1,Barra do Corda/MA,-5.496823,-45.248496,55,62.15251
1,Barra do Garças/MT,-15.8916033,-52.2615413,6972,11404.26924
D1,Barra do Garças/MT,-15.8916033,-52.2615413,244,399.11671
1,Barra do Guarita/RS,-27.1888016,-53.7147086,111,3408.04421
D1,Barra do Guarita/RS,-27.1888016,-53.7147086,7,214.92171
1,Barra do Jacaré/PR,-23.1151788,-50.1813945,162,5825.24272
D1,Barra do Jacaré/PR,-23.1151788,-50.1813945,1,35.95829
1,Barra do Mendes/BA,-11.8053298,-42.057037,668,4829.03202
D1,Barra do Mendes/BA,-11.8053298,-42.057037,11,79.51999
1,Barra do Ouro/TO,-7.7113784,-47.6743925,121,2612.26252
D1,Barra do Ouro/TO,-7.7113784,-47.6743925,6,129.53368
1,Barra do Piraí/RJ,-22.4703403,-43.8263256,5581,5538.68445
D1,Barra do Piraí/RJ,-22.4703403,-43.8263256,319,316.58132
1,Barra do Quaraí/RS,-30.208947,-57.5505128,360,8516.67850
D1,Barra do Quaraí/RS,-30.208947,-57.5505128,6,141.94464
1,Barra do Ribeiro/RS,-30.2930206,-51.301437,1005,7413.69135
D1,Barra do Ribeiro/RS,-30.2930206,-51.301437,47,346.70994
1,Barra do Rio Azul/RS,-27.4101581,-52.4117471,83,5015.10574
D1,Barra do Rio Azul/RS,-27.4101581,-52.4117471,1,60.42296
1,Barra do Rocha/BA,-14.2090974,-39.6004395,394,7020.66999
D1,Barra do Rocha/BA,-14.2090974,-39.6004395,5,89.09480
1,Barra do Turvo/SP,-24.756421,-48.5056942,525,6878.93082
D1,Barra do Turvo/SP,-24.756421,-48.5056942,16,209.64361
1,Barra dos Coqueiros/SE,-10.9075694,-37.0386249,6128,19812.47979
D1,Barra dos Coqueiros/SE,-10.9075694,-37.0386249,80,258.64856
1,Barra/BA,-11.0892702,-43.1420453,1917,3555.92654
D1,Barra/BA,-11.0892702,-43.1420453,39,72.34279
1,Barracão/PR,-26.252395,-53.6349576,1093,10599.30178
D1,Barracão/PR,-26.252395,-53.6349576,28,271.52832
1,Barracão/RS,-27.6728964,-51.4582928,382,7267.88432
D1,Barracão/RS,-27.6728964,-51.4582928,13,247.33638
1,Barras/PI,-4.2446153,-42.2920241,4461,9454.27572
D1,Barras/PI,-4.2446153,-42.2920241,86,182.26131
1,Barreira/CE,-4.2883361,-38.641094,1263,5595.18008
D1,Barreira/CE,-4.2883361,-38.641094,32,141.76228
1,Barreiras do Piauí/PI,-9.9224524,-45.4763776,69,2058.47255
D1,Barreiras do Piauí/PI,-9.9224524,-45.4763776,1,29.83294
1,Barreiras/BA,-12.1440031,-44.9967406,15498,9872.90970
D1,Barreiras/BA,-12.1440031,-44.9967406,251,159.89807
1,Barreirinha/AM,-2.798863,-57.067897,2350,7234.55346
D1,Barreirinha/AM,-2.798863,-57.067897,61,187.79054
1,Barreirinhas/MA,-2.7541271,-42.8259693,1898,3002.35696
D1,Barreirinhas/MA,-2.7541271,-42.8259693,35,55.36485
1,Barreiros/PE,-8.8159644,-35.1831905,737,1723.41222
D1,Barreiros/PE,-8.8159644,-35.1831905,54,126.27444
1,Barretos/SP,-20.5531437,-48.5697509,11851,9648.05875
D1,Barretos/SP,-20.5531437,-48.5697509,365,297.15142
1,Barrinha/SP,-21.1898849,-48.1550642,1385,4174.20133
D1,Barrinha/SP,-21.1898849,-48.1550642,53,159.73478
1,Barro Alto/BA,-11.7618025,-41.9094904,767,5094.99136
D1,Barro Alto/BA,-11.7618025,-41.9094904,8,53.14202
1,Barro Alto/GO,-14.9696025,-48.9190985,1244,10904.62833
D1,Barro Alto/GO,-14.9696025,-48.9190985,15,131.48668
1,Barro Duro/PI,-5.8180139,-42.5106589,666,9477.72876
D1,Barro Duro/PI,-5.8180139,-42.5106589,10,142.30824
1,Barro Preto/BA,-14.8068289,-39.4727588,568,10425.84435
D1,Barro Preto/BA,-14.8068289,-39.4727588,10,183.55360
1,Barro/CE,-7.1713587,-38.7742136,1188,5220.14237
D1,Barro/CE,-7.1713587,-38.7742136,21,92.27524
1,Barrocas/BA,-11.5165,-39.099282894736845,711,4414.77802
D1,Barrocas/BA,-11.5165,-39.099282894736845,22,136.60354
1,Barrolândia/TO,-9.837246,-48.7264346,712,12599.53990
D1,Barrolândia/TO,-9.837246,-48.7264346,20,353.91966
1,Barroquinha/CE,-3.0200371,-41.1339229,985,6547.46078
D1,Barroquinha/CE,-3.0200371,-41.1339229,24,159.53204
1,Barros Cassal/RS,-29.094938,-52.5832366,600,5365.76641
D1,Barros Cassal/RS,-29.094938,-52.5832366,8,71.54355
1,Barroso/MG,-21.187222,-43.976111,1499,7173.27846
D1,Barroso/MG,-21.187222,-43.976111,33,157.91740
1,Barueri/SP,-23.5112184,-46.8764612,25242,9113.22757
D1,Barueri/SP,-23.5112184,-46.8764612,955,344.78775
1,Barão de Antonina/SP,-23.6295651,-49.5632104,311,8890.79474
D1,Barão de Antonina/SP,-23.6295651,-49.5632104,7,200.11435
1,Barão de Cocais/MG,-19.9452437,-43.4870298,3376,10272.01363
D1,Barão de Cocais/MG,-19.9452437,-43.4870298,58,176.47417
1,Barão de Cotegipe/RS,-27.6214694,-52.3765316,624,9425.98187
D1,Barão de Cotegipe/RS,-27.6214694,-52.3765316,7,105.74018
1,Barão de Grajaú/MA,-6.7542591,-43.0263477,363,1918.19911
D1,Barão de Grajaú/MA,-6.7542591,-43.0263477,2,10.56859
1,Barão de Melgaço/MT,-16.195776,-55.9668049,334,4091.13180
D1,Barão de Melgaço/MT,-16.195776,-55.9668049,14,171.48457
1,Barão de Monte Alto/MG,-21.244722,-42.2375,190,3548.74860
D1,Barão de Monte Alto/MG,-21.244722,-42.2375,8,149.42099
1,Barão do Triunfo/RS,-30.3909877,-51.7375349,406,5399.65421
D1,Barão do Triunfo/RS,-30.3909877,-51.7375349,6,79.79785
1,Barão/RS,-29.372474,-51.494908,520,8384.39213
D1,Barão/RS,-29.372474,-51.494908,8,128.99065
1,Bastos/SP,-21.9222474,-50.7317727,1068,5097.12213
D1,Bastos/SP,-21.9222474,-50.7317727,30,143.17759
1,Bataguassu/MS,-21.715899,-52.422058,2522,10812.43301
D1,Bataguassu/MS,-21.715899,-52.422058,29,124.33012
1,Batalha/AL,-9.6733809,-37.1265481,988,5387.71949
D1,Batalha/AL,-9.6733809,-37.1265481,15,81.79736
1,Batalha/PI,-4.022391,-42.0780926,964,3582.97714
D1,Batalha/PI,-4.022391,-42.0780926,30,111.50344
1,Batatais/SP,-20.892867,-47.592149,2485,3945.69705
D1,Batatais/SP,-20.892867,-47.592149,121,192.12448
1,Batayporã/MS,-22.2976466,-53.2685608,780,6872.85223
D1,Batayporã/MS,-22.2976466,-53.2685608,12,105.73619
1,Baturité/CE,-4.3290203,-38.8821055,3384,9415.43084
D1,Baturité/CE,-4.3290203,-38.8821055,70,194.76364
1,Bauru/SP,-22.3218102,-49.0705863,38826,10236.30559
D1,Bauru/SP,-22.3218102,-49.0705863,869,229.10806
1,Bayeux/PB,-7.1301631,-34.936532,6228,6407.20965
D1,Bayeux/PB,-7.1301631,-34.936532,226,232.50311
1,Baía Formosa/RN,-6.3691885,-35.0063741,318,3411.28513
D1,Baía Formosa/RN,-6.3691885,-35.0063741,8,85.81849
1,Baía da Traição/PB,-6.691258,-34.9371244,1244,13676.34125
D1,Baía da Traição/PB,-6.691258,-34.9371244,12,131.92612
1,Bebedouro/SP,-20.949077,-48.479083,3486,4494.87461
D1,Bebedouro/SP,-20.949077,-48.479083,111,143.12423
1,Beberibe/CE,-4.1810469,-38.1298101,4110,7618.30618
D1,Beberibe/CE,-4.1810469,-38.1298101,97,179.79944
1,Bela Cruz/CE,-3.0529129,-40.167582,3145,9611.27070
D1,Bela Cruz/CE,-3.0529129,-40.167582,63,192.53102
1,Bela Vista da Caroba/PR,-25.8792818,-53.6672545,161,4657.21724
D1,Bela Vista da Caroba/PR,-25.8792818,-53.6672545,5,144.63408
1,Bela Vista de Goiás/GO,-16.9692949,-48.9513071,2229,7310.11413
D1,Bela Vista de Goiás/GO,-16.9692949,-48.9513071,58,190.21383
1,Bela Vista de Minas/MG,-19.8289721,-43.0973688,723,7045.41025
D1,Bela Vista de Minas/MG,-19.8289721,-43.0973688,20,194.89378
1,Bela Vista do Maranhão/MA,-3.7416367,-45.2514192,206,1826.40305
D1,Bela Vista do Maranhão/MA,-3.7416367,-45.2514192,16,141.85655
1,Bela Vista do Paraíso/PR,-22.9948493,-51.1907996,1702,11052.66576
D1,Bela Vista do Paraíso/PR,-22.9948493,-51.1907996,59,383.14176
1,Bela Vista do Piauí/PI,-7.9716353,-41.8715061,242,6004.96278
D1,Bela Vista do Piauí/PI,-7.9716353,-41.8715061,6,148.88337
1,Bela Vista do Toldo/SC,-26.274625,-50.466354,71,1116.00126
D1,Bela Vista do Toldo/SC,-26.274625,-50.466354,2,31.43666
1,Bela Vista/MS,-22.107327,-56.5317344,792,3201.94057
D1,Bela Vista/MS,-22.107327,-56.5317344,20,80.85709
1,Belford Roxo/RJ,-22.7667284,-43.4033603,19836,3865.77746
D1,Belford Roxo/RJ,-22.7667284,-43.4033603,621,121.02479
1,Belmiro Braga/MG,-21.9486291,-43.413564,164,4788.32117
D1,Belmiro Braga/MG,-21.9486291,-43.413564,3,87.59124
1,Belmonte/BA,-15.8630837,-38.8792845,971,4143.02172
D1,Belmonte/BA,-15.8630837,-38.8792845,19,81.06840
1,Belmonte/SC,-26.8448262,-53.578916,224,8268.73385
D1,Belmonte/SC,-26.8448262,-53.578916,5,184.56995
1,Belo Campo/BA,-15.0338286,-41.2585109,745,4354.43334
D1,Belo Campo/BA,-15.0338286,-41.2585109,10,58.44877
1,Belo Horizonte/MG,-19.9227318,-43.9450948,203719,8079.07315
D1,Belo Horizonte/MG,-19.9227318,-43.9450948,4988,197.81374
1,Belo Jardim/PE,-8.3338293,-36.4176419,3076,4011.11010
D1,Belo Jardim/PE,-8.3338293,-36.4176419,94,122.57619
1,Belo Monte/AL,-9.8269944,-37.2787165,280,4172.87630
D1,Belo Monte/AL,-9.8269944,-37.2787165,8,119.22504
1,Belo Oriente/MG,-19.2232523,-42.4807033,2435,9020.52308
D1,Belo Oriente/MG,-19.2232523,-42.4807033,58,214.86256
1,Belo Vale/MG,-20.407778,-44.024167,653,8459.64503
D1,Belo Vale/MG,-20.407778,-44.024167,10,129.55046
1,Belterra/PA,-2.636091,-54.937392,1302,7298.61539
D1,Belterra/PA,-2.636091,-54.937392,24,134.53669
1,Belágua/MA,-3.1604031,-43.5085052,365,4848.56536
D1,Belágua/MA,-3.1604031,-43.5085052,3,39.85122
1,Belém de Maria/PE,-8.6242497,-35.8388934,220,1814.88203
D1,Belém de Maria/PE,-8.6242497,-35.8388934,6,49.49678
1,Belém do Brejo do Cruz/PB,-6.1880727,-37.5332267,494,6722.00299
D1,Belém do Brejo do Cruz/PB,-6.1880727,-37.5332267,5,68.03647
1,Belém do Piauí/PI,-7.3767305,-40.9712156,437,12182.88263
D1,Belém do Piauí/PI,-7.3767305,-40.9712156,7,195.14915
1,Belém do São Francisco/PE,-8.7517707,-38.9625715,615,2966.71491
D1,Belém do São Francisco/PE,-8.7517707,-38.9625715,9,43.41534
1,Belém/AL,-9.5715351,-36.492841,110,2567.69374
D1,Belém/AL,-9.5715351,-36.492841,3,70.02801
1,Belém/PA,-1.45056,-48.4682453,99300,6621.58477
D1,Belém/PA,-1.45056,-48.4682453,4722,314.87536
1,Belém/PB,-6.6967586,-35.5369626,1906,10765.32053
D1,Belém/PB,-6.6967586,-35.5369626,35,197.68427
1,Beneditinos/PI,-5.4565671,-42.3605061,1064,10159.45765
D1,Beneditinos/PI,-5.4565671,-42.3605061,34,324.64432
1,Benedito Leite/MA,-7.2173453,-44.5523331,295,5232.35190
D1,Benedito Leite/MA,-7.2173453,-44.5523331,2,35.47357
1,Benedito Novo/SC,-26.7840657,-49.3629511,923,7838.64119
D1,Benedito Novo/SC,-26.7840657,-49.3629511,17,144.37367
1,Benevides/PA,-1.3555577,-48.252235,3716,5827.37423
D1,Benevides/PA,-1.3555577,-48.252235,93,145.84117
1,Benjamin Constant do Sul/RS,-27.5105555,-52.6007689,152,7763.02349
1,Benjamin Constant/AM,-4.3782748,-70.0290603,2685,6111.30079
D1,Benjamin Constant/AM,-4.3782748,-70.0290603,85,193.46762
1,Bento Fernandes/RN,-5.6926846,-35.8207423,139,2515.83710
D1,Bento Fernandes/RN,-5.6926846,-35.8207423,3,54.29864
1,Bento Gonçalves/RS,-29.1654014,-51.5197627,15773,12949.59894
D1,Bento Gonçalves/RS,-29.1654014,-51.5197627,272,223.31141
1,Bento de Abreu/SP,-21.2707225,-50.8120444,287,9550.74875
1,Bequimão/MA,-2.4495376,-44.7884889,275,1291.14043
D1,Bequimão/MA,-2.4495376,-44.7884889,17,79.81595
1,Berilo/MG,-16.9515764,-42.4643732,131,1103.43666
D1,Berilo/MG,-16.9515764,-42.4643732,1,8.42318
1,Berizal/MG,-15.6118785,-41.7417382,113,2371.95634
D1,Berizal/MG,-15.6118785,-41.7417382,1,20.99076
1,Bernardino Batista/PB,-6.4532173,-38.5495418,232,6561.08597
1,Bernardino de Campos/SP,-23.0140216,-49.4760724,534,4785.80391
D1,Bernardino de Campos/SP,-23.0140216,-49.4760724,10,89.62180
1,Bernardo Sayão/TO,-7.8794244,-48.8968905,462,10386.69065
D1,Bernardo Sayão/TO,-7.8794244,-48.8968905,6,134.89209
1,Bernardo do Mearim/MA,-4.6315929,-44.7617508,269,4429.44179
D1,Bernardo do Mearim/MA,-4.6315929,-44.7617508,6,98.79796
1,Bertioga/SP,-23.848568,-46.139586,5106,7889.00391
D1,Bertioga/SP,-23.848568,-46.139586,131,202.40100
1,Bertolínia/PI,-7.6372159,-43.9540611,828,15035.40948
D1,Bertolínia/PI,-7.6372159,-43.9540611,10,181.58707
1,Bertópolis/MG,-17.063333,-40.573889,275,5969.17734
1,Beruri/AM,-3.9007135,-61.3717319,2173,10814.71159
D1,Beruri/AM,-3.9007135,-61.3717319,32,159.25944
1,Betim/MG,-19.968056,-44.198333,26872,6041.58423
D1,Betim/MG,-19.968056,-44.198333,1017,228.65031
1,Betânia do Piauí/PI,-8.1460635,-40.7961387,157,2528.18035
D1,Betânia do Piauí/PI,-8.1460635,-40.7961387,2,32.20612
1,Betânia/PE,-8.2742779,-38.0351767,444,3478.26087
D1,Betânia/PE,-8.2742779,-38.0351767,12,94.00705
1,Bezerros/PE,-8.2372132,-35.7558262,3477,5711.23522
D1,Bezerros/PE,-8.2372132,-35.7558262,104,170.82786
1,Bias Fortes/MG,-21.605833,-43.756944,101,3033.94413
D1,Bias Fortes/MG,-21.605833,-43.756944,3,90.11715
1,Bicas/MG,-21.7213723,-43.0604327,1283,8815.44593
D1,Bicas/MG,-21.7213723,-43.0604327,37,254.22564
1,Biguaçu/SC,-27.4961277,-48.6542432,10427,15005.90047
D1,Biguaçu/SC,-27.4961277,-48.6542432,153,220.18824
1,Bilac/SP,-21.403962,-50.47464,751,9252.18677
D1,Bilac/SP,-21.403962,-50.47464,13,160.15769
1,Biquinhas/MG,-18.783611,-45.502222,104,4163.33066
D1,Biquinhas/MG,-18.783611,-45.502222,1,40.03203
1,Birigui/SP,-21.2908491,-50.34144,12251,9809.98214
D1,Birigui/SP,-21.2908491,-50.34144,440,352.32978
1,Biritiba Mirim/SP,-23.5697765,-46.0407456,1139,3458.22201
D1,Biritiba Mirim/SP,-23.5697765,-46.0407456,76,230.75055
1,Biritinga/BA,-11.6227908,-38.8066738,377,2358.60861
D1,Biritinga/BA,-11.6227908,-38.8066738,6,37.53754
1,Bituruna/PR,-26.161281,-51.5533319,803,4896.34146
D1,Bituruna/PR,-26.161281,-51.5533319,10,60.97561
1,Blumenau/SC,-26.9195567,-49.0658025,46620,12883.61360
D1,Blumenau/SC,-26.9195567,-49.0658025,528,145.91480
1,Boa Esperança do Iguaçu/PR,-25.6362851,-53.2139114,144,5829.95951
1,Boa Esperança do Sul/SP,-21.9930206,-48.3917372,843,5613.26408
D1,Boa Esperança do Sul/SP,-21.9930206,-48.3917372,12,79.90412
1,Boa Esperança/ES,-18.5395472,-40.2904088,1331,8819.24198
D1,Boa Esperança/ES,-18.5395472,-40.2904088,37,245.16300
1,Boa Esperança/MG,-21.0901253,-45.5660195,3360,8354.26042
D1,Boa Esperança/MG,-21.0901253,-45.5660195,89,221.28845
1,Boa Esperança/PR,-24.2411024,-52.7860277,314,7758.83370
D1,Boa Esperança/PR,-24.2411024,-52.7860277,11,271.80628
1,Boa Hora/PI,-4.4094627,-42.1255341,509,7468.81878
D1,Boa Hora/PI,-4.4094627,-42.1255341,6,88.04109
1,Boa Nova/BA,-14.365907,-40.2063056,806,6537.43207
D1,Boa Nova/BA,-14.365907,-40.2063056,11,89.22054
1,Boa Ventura de São Roque/PR,-24.88177,-51.5441292,400,6284.36764
D1,Boa Ventura de São Roque/PR,-24.88177,-51.5441292,5,78.55460
1,Boa Ventura/PB,-7.4202462,-38.2156782,314,5916.71377
D1,Boa Ventura/PB,-7.4202462,-38.2156782,5,94.21519
1,Boa Viagem/CE,-5.1261877,-39.7300055,3439,6301.18915
D1,Boa Viagem/CE,-5.1261877,-39.7300055,89,163.07236
1,Boa Vista da Aparecida/PR,-25.4357216,-53.4067721,742,9840.84881
D1,Boa Vista da Aparecida/PR,-25.4357216,-53.4067721,22,291.77719
1,Boa Vista das Missões/RS,-27.6677983,-53.3127622,154,7361.37667
D1,Boa Vista das Missões/RS,-27.6677983,-53.3127622,4,191.20459
1,Boa Vista do Buricá/RS,-27.6687782,-54.1111913,691,10294.99404
D1,Boa Vista do Buricá/RS,-27.6687782,-54.1111913,9,134.08820
1,Boa Vista do Cadeado/RS,-28.5783827,-53.8123759,144,5834.68395
D1,Boa Vista do Cadeado/RS,-28.5783827,-53.8123759,2,81.03728
1,Boa Vista do Gurupi/MA,-1.7981168,-46.3071882,15,178.95490
D1,Boa Vista do Gurupi/MA,-1.7981168,-46.3071882,4,47.72131
1,Boa Vista do Incra/RS,-28.8195551,-53.3866624,248,9480.12232
D1,Boa Vista do Incra/RS,-28.8195551,-53.3866624,4,152.90520
1,Boa Vista do Ramos/AM,-2.9716927,-57.5869819,899,4580.65831
D1,Boa Vista do Ramos/AM,-2.9716927,-57.5869819,11,56.04810
1,Boa Vista do Sul/RS,-29.3510488,-51.6779679,261,9395.24838
D1,Boa Vista do Sul/RS,-29.3510488,-51.6779679,3,107.99136
1,Boa Vista do Tupim/BA,-12.6605988,-40.6083594,231,1246.55982
D1,Boa Vista do Tupim/BA,-12.6605988,-40.6083594,4,21.58545
1,Boa Vista/PB,-7.2620711,-36.2415161,567,7945.62780
D1,Boa Vista/PB,-7.2620711,-36.2415161,10,140.13453
1,Boa Vista/RR,2.8208478,-60.6719582,78384,18678.33348
D1,Boa Vista/RR,2.8208478,-60.6719582,1239,295.24463
1,Boca da Mata/AL,-9.6452054,-36.2116658,1672,6112.00468
D1,Boca da Mata/AL,-9.6452054,-36.2116658,42,153.53122
1,Boca do Acre/AM,-8.7553487,-67.3930873,2540,7333.62206
D1,Boca do Acre/AM,-8.7553487,-67.3930873,23,66.40681
1,Bocaina de Minas/MG,-22.167778,-44.394722,170,3340.53842
D1,Bocaina de Minas/MG,-22.167778,-44.394722,7,137.55158
1,Bocaina do Sul/SC,-27.745494,-49.942279,362,10378.44037
D1,Bocaina do Sul/SC,-27.745494,-49.942279,3,86.00917
1,Bocaina/PI,-6.9445939,-41.3224599,248,5504.99445
D1,Bocaina/PI,-6.9445939,-41.3224599,4,88.79023
1,Bocaina/SP,-22.1421831,-48.522276,1113,8938.32316
D1,Bocaina/SP,-22.1421831,-48.522276,26,208.80180
1,Bocaiúva do Sul/PR,-25.206591,-49.114131,1615,12301.01302
D1,Bocaiúva do Sul/PR,-25.206591,-49.114131,15,114.25089
1,Bocaiúva/MG,-17.1160208,-43.8122678,1920,3820.43935
D1,Bocaiúva/MG,-17.1160208,-43.8122678,50,99.49061
1,Bodocó/PE,-7.777592,-39.933797,1775,4625.04560
D1,Bodocó/PE,-7.777592,-39.933797,27,70.35281
1,Bodoquena/MS,-20.5508775,-56.6769653,327,4171.98265
D1,Bodoquena/MS,-20.5508775,-56.6769653,11,140.34192
1,Bodó/RN,-5.9866104,-36.4134824,130,5917.15976
1,Bofete/SP,-23.1019554,-48.2610535,605,5075.07759
D1,Bofete/SP,-23.1019554,-48.2610535,13,109.05125
1,Boituva/SP,-23.2838893,-47.6738231,4606,7408.71803
D1,Boituva/SP,-23.2838893,-47.6738231,118,189.80216
1,Bom Conselho/PE,-9.169191,-36.685683,1522,3120.96295
D1,Bom Conselho/PE,-9.169191,-36.685683,47,96.37665
1,Bom Despacho/MG,-19.7375242,-45.2517288,3279,6425.88383
D1,Bom Despacho/MG,-19.7375242,-45.2517288,67,131.30046
1,Bom Jardim da Serra/SC,-28.3380324,-49.625588,564,11818.94384
D1,Bom Jardim da Serra/SC,-28.3380324,-49.625588,4,83.82230
1,Bom Jardim de Goiás/GO,-16.2062659,-52.172793,667,7520.57729
D1,Bom Jardim de Goiás/GO,-16.2062659,-52.172793,14,157.85320
1,Bom Jardim de Minas/MG,-21.9476466,-44.1906033,396,6130.98003
D1,Bom Jardim de Minas/MG,-21.9476466,-44.1906033,3,46.44682
1,Bom Jardim/MA,-3.54129,-45.606004,1338,3199.27311
D1,Bom Jardim/MA,-3.54129,-45.606004,44,105.20779
1,Bom Jardim/PE,-7.7961572,-35.5871696,1224,3061.30105
D1,Bom Jardim/PE,-7.7961572,-35.5871696,54,135.05740
1,Bom Jardim/RJ,-22.1515328,-42.4186683,1430,5178.15759
D1,Bom Jardim/RJ,-22.1515328,-42.4186683,37,133.98030
1,Bom Jesus da Lapa/BA,-13.250571,-43.410754,4251,6102.32264
D1,Bom Jesus da Lapa/BA,-13.250571,-43.410754,57,81.82366
1,Bom Jesus da Penha/MG,-21.0165299,-46.5226644,446,10508.95382
D1,Bom Jesus da Penha/MG,-21.0165299,-46.5226644,9,212.06409
1,Bom Jesus da Serra/BA,-14.3724084,-40.5047119,416,4234.95877
D1,Bom Jesus da Serra/BA,-14.3724084,-40.5047119,8,81.44151
1,Bom Jesus das Selvas/MA,-4.4878075,-46.8526639,2941,8508.11468
D1,Bom Jesus das Selvas/MA,-4.4878075,-46.8526639,23,66.53745
1,Bom Jesus de Goiás/GO,-18.2174587,-49.739721,2490,9708.35933
D1,Bom Jesus de Goiás/GO,-18.2174587,-49.739721,99,385.99501
1,Bom Jesus do Amparo/MG,-19.7045132,-43.4752911,190,3097.99446
D1,Bom Jesus do Amparo/MG,-19.7045132,-43.4752911,6,97.83140
1,Bom Jesus do Araguaia/MT,-12.1725897,-51.5074425,923,13763.79362
D1,Bom Jesus do Araguaia/MT,-12.1725897,-51.5074425,15,223.68029
1,Bom Jesus do Galho/MG,-19.8283191,-42.3162256,567,3815.09891
D1,Bom Jesus do Galho/MG,-19.8283191,-42.3162256,26,174.94281
1,Bom Jesus do Itabapoana/RJ,-21.1341025,-41.680095,2908,7816.57393
D1,Bom Jesus do Itabapoana/RJ,-21.1341025,-41.680095,79,212.34847
1,Bom Jesus do Norte/ES,-21.1254776,-41.6711646,927,9305.36037
D1,Bom Jesus do Norte/ES,-21.1254776,-41.6711646,22,220.83919
1,Bom Jesus do Oeste/SC,-26.6929713,-53.0967453,174,8134.64236
D1,Bom Jesus do Oeste/SC,-26.6929713,-53.0967453,6,280.50491
1,Bom Jesus do Sul/PR,-26.1922507,-53.6002033,356,10154.02168
D1,Bom Jesus do Sul/PR,-26.1922507,-53.6002033,3,85.56760
1,Bom Jesus do Tocantins/PA,-5.0471796,-48.5978362,746,4357.98575
D1,Bom Jesus do Tocantins/PA,-5.0471796,-48.5978362,24,140.20329
1,Bom Jesus do Tocantins/TO,-8.96306,-48.165043,127,2535.94249
D1,Bom Jesus do Tocantins/TO,-8.96306,-48.165043,3,59.90415
1,Bom Jesus dos Perdões/SP,-23.1353864,-46.4648052,1883,7246.48836
D1,Bom Jesus dos Perdões/SP,-23.1353864,-46.4648052,24,92.36098
1,Bom Jesus/PB,-6.8156725,-38.6551841,125,4854.36893
D1,Bom Jesus/PB,-6.8156725,-38.6551841,3,116.50485
1,Bom Jesus/PI,-9.0711644,-44.3583926,3060,12053.41316
D1,Bom Jesus/PI,-9.0711644,-44.3583926,34,133.92681
1,Bom Jesus/RN,-5.9887544,-35.5821149,681,6632.90153
D1,Bom Jesus/RN,-5.9887544,-35.5821149,13,126.61927
1,Bom Jesus/RS,-28.6692723,-50.4346894,741,6552.30348
D1,Bom Jesus/RS,-28.6692723,-50.4346894,15,132.63772
1,Bom Jesus/SC,-26.7350604,-52.3916519,341,11154.72686
D1,Bom Jesus/SC,-26.7350604,-52.3916519,6,196.27085
1,Bom Lugar/MA,-4.3728019,-45.0366054,447,2719.30892
D1,Bom Lugar/MA,-4.3728019,-45.0366054,7,42.58426
1,Bom Princípio do Piauí/PI,-3.1912777,-41.6430185,118,2088.12600
D1,Bom Princípio do Piauí/PI,-3.1912777,-41.6430185,12,212.35180
1,Bom Princípio/RS,-29.489788,-51.3566782,1602,11238.16205
D1,Bom Princípio/RS,-29.489788,-51.3566782,26,182.39214
1,Bom Progresso/RS,-27.5490948,-53.8655601,117,6161.13744
D1,Bom Progresso/RS,-27.5490948,-53.8655601,3,157.97788
1,Bom Repouso/MG,-22.4657069,-46.1485376,815,7734.64933
D1,Bom Repouso/MG,-22.4657069,-46.1485376,19,180.31698
1,Bom Retiro do Sul/RS,-29.6000007,-51.9359243,924,7457.62712
D1,Bom Retiro do Sul/RS,-29.6000007,-51.9359243,26,209.84665
1,Bom Retiro/SC,-27.798993,-49.486994,660,6560.63618
D1,Bom Retiro/SC,-27.798993,-49.486994,14,139.16501
1,Bom Sucesso de Itararé/SP,-24.3190016,-49.1446207,130,3263.05221
D1,Bom Sucesso de Itararé/SP,-24.3190016,-49.1446207,5,125.50201
1,Bom Sucesso do Sul/PR,-26.0749256,-52.8348629,353,10848.18685
D1,Bom Sucesso do Sul/PR,-26.0749256,-52.8348629,6,184.38844
1,Bom Sucesso/MG,-21.0323516,-44.7598082,633,3595.16102
D1,Bom Sucesso/MG,-21.0323516,-44.7598082,5,28.39780
1,Bom Sucesso/PB,-6.4458948,-37.9297662,222,4479.41889
D1,Bom Sucesso/PB,-6.4458948,-37.9297662,3,60.53269
1,Bom Sucesso/PR,-23.7088019,-51.7651297,694,9818.90209
D1,Bom Sucesso/PR,-23.7088019,-51.7651297,12,169.77929
1,Bombinhas/SC,-27.1519159,-48.4875691,3334,16395.37743
D1,Bombinhas/SC,-27.1519159,-48.4875691,54,265.55200
1,Bonfim do Piauí/PI,-9.1648678,-42.8734415,311,5470.53650
D1,Bonfim do Piauí/PI,-9.1648678,-42.8734415,6,105.54090
1,Bonfim/MG,-20.3266626, -44.2386157,351,5116.61808
D1,Bonfim/MG,-20.3266626, -44.2386157,13,189.50437
1,Bonfim/RR,3.3613818,-59.8427241,2197,17496.21725
D1,Bonfim/RR,3.3613818,-59.8427241,25,199.09214
1,Bonfinópolis de Minas/MG,-16.5660011,-45.98645,392,7200.58780
D1,Bonfinópolis de Minas/MG,-16.5660011,-45.98645,12,220.42616
1,Bonfinópolis/GO,-16.6172709,-48.9615701,445,4486.33935
D1,Bonfinópolis/GO,-16.6172709,-48.9615701,18,181.46991
1,Boninal/BA,-12.7095183,-41.8299984,578,4001.10757
D1,Boninal/BA,-12.7095183,-41.8299984,7,48.45632
1,Bonito de Minas/MG,-15.3191266,-44.7544,43,378.22148
1,Bonito de Santa Fé/PB,-7.3143332,-38.5146677,423,3518.54933
D1,Bonito de Santa Fé/PB,-7.3143332,-38.5146677,11,91.49892
1,Bonito/BA,-11.9665473,-41.2649896,771,4566.45345
D1,Bonito/BA,-11.9665473,-41.2649896,10,59.22767
1,Bonito/MS,-21.1264766,-56.4902208,2463,11099.59441
D1,Bonito/MS,-21.1264766,-56.4902208,50,225.32672
1,Bonito/PA,-1.3605722,-47.3049907,360,2177.85844
D1,Bonito/PA,-1.3605722,-47.3049907,12,72.59528
1,Bonito/PE,-8.4721161,-35.7314591,715,1875.80345
D1,Bonito/PE,-8.4721161,-35.7314591,35,91.82255
1,Bonópolis/GO,-13.649331,-49.8329113,145,3227.24238
D1,Bonópolis/GO,-13.649331,-49.8329113,1,22.25684
1,Boqueirão do Leão/RS,-29.30332,-52.4296817,557,7231.88782
D1,Boqueirão do Leão/RS,-29.30332,-52.4296817,28,363.54194
1,Boqueirão do Piauí/PI,-4.4850148,-42.1095161,540,8403.36134
D1,Boqueirão do Piauí/PI,-4.4850148,-42.1095161,10,155.61780
1,Boqueirão/PB,-7.487004,-36.130887,1333,7459.42921
D1,Boqueirão/PB,-7.487004,-36.130887,26,145.49524
1,Boquim/SE,-11.1450175,-37.6204228,2170,8067.21439
D1,Boquim/SE,-11.1450175,-37.6204228,54,200.75096
1,Boquira/BA,-12.8184859,-42.7270883,505,2349.16500
D1,Boquira/BA,-12.8184859,-42.7270883,11,51.16993
1,Boracéia/SP,-22.195355,-48.7801925,829,17029.58094
D1,Boracéia/SP,-22.195355,-48.7801925,21,431.38866
1,Borba/AM,-4.3934778,-59.5947721,2021,4840.95046
D1,Borba/AM,-4.3934778,-59.5947721,56,134.13816
1,Borborema/PB,-6.8066718,-35.5990191,367,6941.55476
D1,Borborema/PB,-6.8066718,-35.5990191,12,226.97182
1,Borborema/SP,-21.6212706,-49.074135,1226,7584.75625
D1,Borborema/SP,-21.6212706,-49.074135,39,241.27691
1,Borda da Mata/MG,-22.274167,-46.165278,1220,6220.04691
D1,Borda da Mata/MG,-22.274167,-46.165278,39,198.83757
1,Borebi/SP,-22.5700178,-48.9714871,159,5926.20201
D1,Borebi/SP,-22.5700178,-48.9714871,2,74.54342
1,Borrazópolis/PR,-23.9393362,-51.5850786,625,9706.47616
D1,Borrazópolis/PR,-23.9393362,-51.5850786,19,295.07688
1,Borá/SP,-22.2701088,-50.544407,99,11813.84248
D1,Borá/SP,-22.2701088,-50.544407,1,119.33174
1,Bossoroca/RS,-28.7278885,-54.9120278,380,6124.09347
D1,Bossoroca/RS,-28.7278885,-54.9120278,20,322.32071
1,Botelhos/MG,-21.65,-46.394722,1360,9097.59850
D1,Botelhos/MG,-21.65,-46.394722,19,127.09880
1,Botucatu/SP,-22.8879628,-48.4410712,12009,8107.06812
D1,Botucatu/SP,-22.8879628,-48.4410712,226,152.56869
1,Botumirim/MG,-16.862778,-43.011111,204,3244.27481
D1,Botumirim/MG,-16.862778,-43.011111,3,47.70992
1,Botuporã/BA,-13.3744752,-42.5198469,193,1905.42008
D1,Botuporã/BA,-13.3744752,-42.5198469,3,29.61793
1,Botuverá/SC,-27.200749,-49.068892,855,16065.38895
D1,Botuverá/SC,-27.200749,-49.068892,8,150.31943
1,Bozano/RS,-28.3669953,-53.7705165,217,10279.48839
D1,Bozano/RS,-28.3669953,-53.7705165,7,331.59640
1,Braga/RS,-27.617348,-53.740514,250,7550.58895
D1,Braga/RS,-27.617348,-53.740514,7,211.41649
1,Braganey/PR,-24.8179919,-53.118506,364,6763.28502
D1,Braganey/PR,-24.8179919,-53.118506,7,130.06317
1,Bragança Paulista/SP,-22.9520235,-46.5418586,14218,8337.38924
D1,Bragança Paulista/SP,-22.9520235,-46.5418586,393,230.45393
1,Bragança/PA,-1.0573967,-46.7635406,3905,3029.15122
D1,Bragança/PA,-1.0573967,-46.7635406,135,104.72098
1,Branquinha/AL,-9.2478057,-36.0152009,473,4521.98853
D1,Branquinha/AL,-9.2478057,-36.0152009,9,86.04207
1,Brasil Novo/PA,-3.3055853,-52.539198,1680,11212.70774
D1,Brasil Novo/PA,-3.3055853,-52.539198,39,260.29500
1,Brasileira/PI,-4.131182,-41.7824969,526,6301.66527
D1,Brasileira/PI,-4.131182,-41.7824969,10,119.80352
1,Brasilândia de Minas/MG,-17.0096469,-46.0087183,1019,6084.30857
D1,Brasilândia de Minas/MG,-17.0096469,-46.0087183,14,83.59207
1,Brasilândia do Sul/PR,-24.1975793,-53.527551,351,13578.33656
D1,Brasilândia do Sul/PR,-24.1975793,-53.527551,8,309.47776
1,Brasilândia do Tocantins/TO,-8.3886619,-48.4842729,193,8729.08186
D1,Brasilândia do Tocantins/TO,-8.3886619,-48.4842729,4,180.91361
1,Brasilândia/MS,-21.255575,-52.0365617,951,8023.28524
D1,Brasilândia/MS,-21.255575,-52.0365617,15,126.55024
1,Brasiléia/AC,-11.0010413,-68.7487894,2709,10145.30747
D1,Brasiléia/AC,-11.0010413,-68.7487894,37,138.56640
1,Brasnorte/MT,-12.1227151,-58.0050109,1840,9136.04767
D1,Brasnorte/MT,-12.1227151,-58.0050109,31,153.92254
1,Brasília de Minas/MG,-16.2075114,-44.430559,888,2740.31785
D1,Brasília de Minas/MG,-16.2075114,-44.430559,7,21.60160
1,Brasília/DF,-15.7934036,-47.8823172,402182,13164.07154
D1,Brasília/DF,-15.7934036,-47.8823172,8569,280.47732
1,Brazabrantes/GO,-16.4291635,-49.3858216,407,10864.92258
D1,Brazabrantes/GO,-16.4291635,-49.3858216,3,80.08542
1,Brazópolis/MG,-22.4742842,-45.6165577,744,5163.08119
D1,Brazópolis/MG,-22.4742842,-45.6165577,28,194.30951
1,Braço do Norte/SC,-28.2728633,-49.1622712,7399,21841.42166
D1,Braço do Norte/SC,-28.2728633,-49.1622712,82,242.05928
1,Braço do Trombudo/SC,-27.358578,-49.882145,581,15415.22950
D1,Braço do Trombudo/SC,-27.358578,-49.882145,4,106.12895
1,Braúna/SP,-21.5015319,-50.3175246,402,7002.26441
D1,Braúna/SP,-21.5015319,-50.3175246,19,330.95280
1,Braúnas/MG,-19.055556,-42.716111,197,4130.84504
D1,Braúnas/MG,-19.055556,-42.716111,7,146.78130
1,Brejetuba/ES,-20.1465817,-41.2902303,1524,12263.61954
D1,Brejetuba/ES,-20.1465817,-41.2902303,13,104.61093
1,Brejinho de Nazaré/TO,-11.0205883,-48.5722906,428,7755.02808
D1,Brejinho de Nazaré/TO,-11.0205883,-48.5722906,12,217.43069
1,Brejinho/PE,-7.3482153,-37.28538,614,8199.78632
D1,Brejinho/PE,-7.3482153,-37.28538,18,240.38462
1,Brejinho/RN,-6.1957907,-35.3583019,1080,8446.07805
D1,Brejinho/RN,-6.1957907,-35.3583019,11,86.02487
1,Brejo Alegre/SP,-21.1671191,-50.1850393,303,10488.05815
D1,Brejo Alegre/SP,-21.1671191,-50.1850393,11,380.75459
1,Brejo Grande do Araguaia/PA,-5.7011449,-48.4037308,766,10396.30836
D1,Brejo Grande do Araguaia/PA,-5.7011449,-48.4037308,4,54.28882
1,Brejo Grande/SE,-10.4287358,-36.4667918,368,4405.60278
D1,Brejo Grande/SE,-10.4287358,-36.4667918,12,143.66096
1,Brejo Santo/CE,-7.4909841,-38.9859152,7629,15306.36812
D1,Brejo Santo/CE,-7.4909841,-38.9859152,139,278.88126
1,Brejo da Madre de Deus/PE,-8.1409718,-36.3712527,1894,3697.41337
D1,Brejo da Madre de Deus/PE,-8.1409718,-36.3712527,47,91.75207
1,Brejo de Areia/MA,-4.3316785,-45.5833334,287,3183.93610
D1,Brejo de Areia/MA,-4.3316785,-45.5833334,9,99.84469
1,Brejo do Cruz/PB,-6.32926065,-37.48746163303929,1256,8841.33465
D1,Brejo do Cruz/PB,-6.32926065,-37.48746163303929,20,140.78558
1,Brejo do Piauí/PI,-8.207583,-42.8359849,99,2572.76507
D1,Brejo do Piauí/PI,-8.207583,-42.8359849,3,77.96258
1,Brejo dos Santos/PB,-6.3769367,-37.8243125,433,6698.63861
D1,Brejo dos Santos/PB,-6.3769367,-37.8243125,4,61.88119
1,Brejo/MA,-3.6804397,-42.7529313,858,2341.00025
D1,Brejo/MA,-3.6804397,-42.7529313,19,51.84033
1,Brejolândia/BA,-12.4843845,-43.9611861,129,1214.91806
D1,Brejolândia/BA,-12.4843845,-43.9611861,8,75.34376
1,Brejão/PE,-9.029146,-36.566034,274,3048.84834
D1,Brejão/PE,-9.029146,-36.566034,5,55.63592
1,Brejões/BA,-13.1033754,-39.7909837,593,4169.59640
D1,Brejões/BA,-13.1033754,-39.7909837,9,63.28224
1,Breu Branco/PA,-3.7785073,-49.5684795,638,947.54352
D1,Breu Branco/PA,-3.7785073,-49.5684795,44,65.34783
1,Breves/PA,-1.68036,-50.479085,3850,3719.91459
D1,Breves/PA,-1.68036,-50.479085,110,106.28327
1,Britânia/GO,-15.2427599,-51.1602061,486,8383.64671
D1,Britânia/GO,-15.2427599,-51.1602061,4,69.00121
1,Brochier/RS,-29.556766,-51.5963047,383,7503.91850
D1,Brochier/RS,-29.556766,-51.5963047,3,58.77743
1,Brodowski/SP,-20.984532,-47.657217,2168,8576.96720
D1,Brodowski/SP,-20.984532,-47.657217,50,197.80828
1,Brotas de Macaúbas/BA,-12.0019007,-42.6257506,84,829.22014
D1,Brotas de Macaúbas/BA,-12.0019007,-42.6257506,3,29.61500
1,Brotas/SP,-22.2840884,-48.1267265,469,1903.71814
D1,Brotas/SP,-22.2840884,-48.1267265,32,129.89122
1,Brumadinho/MG,-20.143611,-44.2,3081,7576.35371
D1,Brumadinho/MG,-20.143611,-44.2,72,177.05208
1,Brumado/BA,-14.29507325,-41.659307508575985,8514,12644.24148
D1,Brumado/BA,-14.29507325,-41.659307508575985,174,258.40945
1,Brunópolis/SC,-27.310953,-50.837585,252,10641.89189
D1,Brunópolis/SC,-27.310953,-50.837585,8,337.83784
1,Brusque/SC,-27.0964628,-48.9136323,24717,17951.32509
D1,Brusque/SC,-27.0964628,-48.9136323,248,180.11606
1,Brás Pires/MG,-20.8483109,-43.2430524,183,4262.75332
D1,Brás Pires/MG,-20.8483109,-43.2430524,6,139.76240
1,Bueno Brandão/MG,-22.441976,-46.3517971,628,5713.76581
D1,Bueno Brandão/MG,-22.441976,-46.3517971,22,200.16377
1,Buenos Aires/PE,-7.7218931,-35.326587,262,1986.35330
D1,Buenos Aires/PE,-7.7218931,-35.326587,19,144.04852
1,Buenópolis/MG,-17.8756607,-44.1749365,305,2946.00599
D1,Buenópolis/MG,-17.8756607,-44.1749365,11,106.24940
1,Buerarema/BA,-14.9571177,-39.3008035,1265,6910.30263
D1,Buerarema/BA,-14.9571177,-39.3008035,36,196.65683
1,Bugre/MG,-19.4257687,-42.2556,354,8887.77304
D1,Bugre/MG,-19.4257687,-42.2556,12,301.28044
1,Bujari/AC,-9.8309656,-67.9520886,1111,10662.18810
D1,Bujari/AC,-9.8309656,-67.9520886,15,143.95393
1,Bujaru/PA,-1.5169239,-48.0410699,1347,4577.42889
D1,Bujaru/PA,-1.5169239,-48.0410699,37,125.73487
1,Buri/SP,-23.79849,-48.598924,2218,11109.44152
D1,Buri/SP,-23.79849,-48.598924,67,335.58728
1,Buritama/SP,-21.0664017,-50.1448077,2015,11660.20485
D1,Buritama/SP,-21.0664017,-50.1448077,56,324.05532
1,Buriti Alegre/GO,-18.1377879,-49.0404411,856,9025.72754
D1,Buriti Alegre/GO,-18.1377879,-49.0404411,28,295.23408
1,Buriti Bravo/MA,-5.8391884,-43.8367876,1328,5547.43306
D1,Buriti Bravo/MA,-5.8391884,-43.8367876,12,50.12741
1,Buriti de Goiás/GO,-16.180644,-50.4287479,179,7229.40226
D1,Buriti de Goiás/GO,-16.180644,-50.4287479,8,323.10178
1,Buriti do Tocantins/TO,-5.3187439,-48.2256609,835,7262.76420
D1,Buriti do Tocantins/TO,-5.3187439,-48.2256609,8,69.58337
1,Buriti dos Lopes/PI,-3.1776723,-41.8707444,1220,6159.43858
D1,Buriti dos Lopes/PI,-3.1776723,-41.8707444,29,146.41288
1,Buriti dos Montes/PI,-5.3136171,-41.0971256,600,7260.40658
D1,Buriti dos Montes/PI,-5.3136171,-41.0971256,7,84.70474
1,Buriti/MA,-3.9430944,-42.9244281,751,2607.81999
D1,Buriti/MA,-3.9430944,-42.9244281,7,24.30724
1,Buriticupu/MA,-4.3227472,-46.4516989,3111,4262.63650
D1,Buriticupu/MA,-4.3227472,-46.4516989,40,54.80728
1,Buritinópolis/GO,-14.4589282,-46.4293104,163,4964.97106
D1,Buritinópolis/GO,-14.4589282,-46.4293104,2,60.91989
1,Buritirama/BA,-10.7148421,-43.6362327,823,3868.20831
D1,Buritirama/BA,-10.7148421,-43.6362327,21,98.70276
1,Buritirana/MA,-5.5897455,-47.0148915,431,2786.57788
D1,Buritirana/MA,-5.5897455,-47.0148915,23,148.70369
1,Buritis/MG,-15.621389,-46.423889,1509,6032.86291
D1,Buritis/MG,-15.621389,-46.423889,31,123.93555
1,Buritis/RO,-10.2054937,-63.8281954,4342,10759.24274
D1,Buritis/RO,-10.2054937,-63.8281954,62,153.63267
1,Buritizal/SP,-20.1933264,-47.7097165,245,5427.55871
D1,Buritizal/SP,-20.1933264,-47.7097165,10,221.53301
1,Buritizeiro/MG,-17.3667765,-44.9647781,1092,3883.21895
D1,Buritizeiro/MG,-17.3667765,-44.9647781,29,103.12578
1,Butiá/RS,-30.1256795,-51.9692224,1800,8591.06529
D1,Butiá/RS,-30.1256795,-51.9692224,48,229.09507
1,Buíque/PE,-8.6239732,-37.157296,1928,3272.28907
D1,Buíque/PE,-8.6239732,-37.157296,40,67.88981
1,Bálsamo/SP,-20.7343722,-49.5807484,1365,14935.98862
D1,Bálsamo/SP,-20.7343722,-49.5807484,53,579.93216
0,CASO SEM LOCALIZAÇÃO DEFINIDA/BA,-13.415069300066518,-38.14174656569957,10353,69.60906
D0,CASO SEM LOCALIZAÇÃO DEFINIDA/BA,-13.415069300066518,-38.14174656569957,202,1.35816
0,CASO SEM LOCALIZAÇÃO DEFINIDA/CE,-3.3445126297392798,-38.624961942434304,9070,99.32022
0,CASO SEM LOCALIZAÇÃO DEFINIDA/ES,-20.30989267097039,-39.81745156645774,3923,97.61985
D0,CASO SEM LOCALIZAÇÃO DEFINIDA/ES,-20.30989267097039,-39.81745156645774,182,4.52888
0,CASO SEM LOCALIZAÇÃO DEFINIDA/MG,-19.97049116501593,-43.8852149072783,13848,65.41706
D0,CASO SEM LOCALIZAÇÃO DEFINIDA/MG,-19.97049116501593,-43.8852149072783,528,2.49424
0,CASO SEM LOCALIZAÇÃO DEFINIDA/MT,-15.54791153961863,-56.17143998972475,2457,70.51296
D0,CASO SEM LOCALIZAÇÃO DEFINIDA/MT,-15.54791153961863,-56.17143998972475,178,5.10839
0,CASO SEM LOCALIZAÇÃO DEFINIDA/PA,-0.09317078214359542,-48.0050231510481,1385,16.09929
D0,CASO SEM LOCALIZAÇÃO DEFINIDA/PA,-0.09317078214359542,-48.0050231510481,28,0.32547
0,CASO SEM LOCALIZAÇÃO DEFINIDA/PI,-2.683810218391744,-41.470898009352254,644,19.67477
D0,CASO SEM LOCALIZAÇÃO DEFINIDA/PI,-2.683810218391744,-41.470898009352254,19,0.58047
0,CASO SEM LOCALIZAÇÃO DEFINIDA/PR,-25.69415946385943,-48.10141676336737,5864,51.28583
D0,CASO SEM LOCALIZAÇÃO DEFINIDA/PR,-25.69415946385943,-48.10141676336737,147,1.28564
0,CASO SEM LOCALIZAÇÃO DEFINIDA/RR,2.813328208465927,-60.663338675861986,2559,422.44384
D0,CASO SEM LOCALIZAÇÃO DEFINIDA/RR,2.813328208465927,-60.663338675861986,14,2.31114
0,CASO SEM LOCALIZAÇÃO DEFINIDA/SP,-24.30968974555485,-46.21366504207253,787,1.71389
1,Caapiranga/AM,-3.3188884,-61.2096404,595,4479.40977
D1,Caapiranga/AM,-3.3188884,-61.2096404,21,158.09682
1,Caaporã/PB,-7.510234,-34.9154114,1725,7856.98019
D1,Caaporã/PB,-7.510234,-34.9154114,31,141.19790
1,Caarapó/MS,-22.6349267,-54.8240903,3209,10489.32762
D1,Caarapó/MS,-22.6349267,-54.8240903,28,91.52420
1,Caatiba/BA,-14.9782759,-40.4092325,785,12099.26017
D1,Caatiba/BA,-14.9782759,-40.4092325,9,138.71763
1,Cabaceiras do Paraguaçu/BA,-12.5377868,-39.1901339,498,2633.38798
D1,Cabaceiras do Paraguaçu/BA,-12.5377868,-39.1901339,4,21.15171
1,Cabaceiras/PB,-7.4899156,-36.2860501,327,5776.36460
D1,Cabaceiras/PB,-7.4899156,-36.2860501,3,52.99417
1,Cabeceira Grande/MG,-16.0297,-47.0906,326,4665.14024
D1,Cabeceira Grande/MG,-16.0297,-47.0906,5,71.55123
1,Cabeceiras do Piauí/PI,-4.4733665,-42.3098716,483,4543.74412
D1,Cabeceiras do Piauí/PI,-4.4733665,-42.3098716,10,94.07338
1,Cabeceiras/GO,-15.7995459,-46.9264991,313,3890.13174
D1,Cabeceiras/GO,-15.7995459,-46.9264991,14,173.99950
1,Cabedelo/PB,-6.97324,-34.8351609,7844,11406.63400
D1,Cabedelo/PB,-6.97324,-34.8351609,178,258.84509
1,Cabixi/RO,-13.4956065,-60.5424442,681,13126.44564
D1,Cabixi/RO,-13.4956065,-60.5424442,18,346.95451
1,Cabo Frio/RJ,-22.8804369,-42.0189227,11652,5057.77461
D1,Cabo Frio/RJ,-22.8804369,-42.0189227,616,267.38664
1,Cabo Verde/MG,-21.4743338,-46.3964995,480,3410.30195
D1,Cabo Verde/MG,-21.4743338,-46.3964995,6,42.62877
1,Cabo de Santo Agostinho/PE,-8.2838945,-35.0320984,6083,2911.30638
D1,Cabo de Santo Agostinho/PE,-8.2838945,-35.0320984,429,205.31817
1,Cabreúva/SP,-23.3075813,-47.1324417,3240,6424.87458
D1,Cabreúva/SP,-23.3075813,-47.1324417,80,158.63888
1,Cabrobó/PE,-8.5083701,-39.3106961,1948,5645.88586
D1,Cabrobó/PE,-8.5083701,-39.3106961,23,66.66087
1,Cabrália Paulista/SP,-22.4562909,-49.3385645,310,7306.15131
D1,Cabrália Paulista/SP,-22.4562909,-49.3385645,4,94.27292
1,Cacaulândia/RO,-10.3380043,-62.9007231,780,12442.17579
D1,Cacaulândia/RO,-10.3380043,-62.9007231,10,159.51507
1,Cacequi/RS,-29.8838059,-54.8273443,452,3638.41262
D1,Cacequi/RS,-29.8838059,-54.8273443,6,48.29751
1,Cachoeira Alta/GO,-18.7618269,-50.9432431,1262,9963.68230
D1,Cachoeira Alta/GO,-18.7618269,-50.9432431,18,142.11274
1,Cachoeira Dourada/GO,-18.4934204,-49.481062,390,4856.18229
D1,Cachoeira Dourada/GO,-18.4934204,-49.481062,19,236.58324
1,Cachoeira Dourada/MG,-18.517136,-49.5002062,135,4988.91353
D1,Cachoeira Dourada/MG,-18.517136,-49.5002062,2,73.90983
1,Cachoeira Grande/MA,-2.9290492,-44.0573223,240,2532.17978
D1,Cachoeira Grande/MA,-2.9290492,-44.0573223,6,63.30449
1,Cachoeira Paulista/SP,-22.666498,-45.015384,2145,6387.54057
D1,Cachoeira Paulista/SP,-22.666498,-45.015384,34,101.24773
1,Cachoeira da Prata/MG,-19.524723,-44.453056,226,6293.51156
D1,Cachoeira da Prata/MG,-19.524723,-44.453056,9,250.62657
1,Cachoeira de Goiás/GO,-16.6688414,-50.6435997,63,4694.48584
D1,Cachoeira de Goiás/GO,-16.6688414,-50.6435997,2,149.03130
1,Cachoeira de Minas/MG,-22.3554043,-45.7796324,551,4758.61473
D1,Cachoeira de Minas/MG,-22.3554043,-45.7796324,8,69.09060
1,Cachoeira de Pajeú/MG,-15.965833,-41.496666,293,3103.15611
D1,Cachoeira de Pajeú/MG,-15.965833,-41.496666,8,84.72781
1,Cachoeira do Arari/PA,-1.0143572,-48.9621089,454,1886.63564
D1,Cachoeira do Arari/PA,-1.0143572,-48.9621089,22,91.42287
1,Cachoeira do Piriá/PA,-1.7599443,-46.5446954,777,2245.08076
D1,Cachoeira do Piriá/PA,-1.7599443,-46.5446954,4,11.55769
1,Cachoeira do Sul/RS,-30.0474778,-52.8905413,7749,9465.12111
D1,Cachoeira do Sul/RS,-30.0474778,-52.8905413,120,146.57563
1,Cachoeira dos Índios/PB,-6.9259193,-38.6742159,670,6501.69820
D1,Cachoeira dos Índios/PB,-6.9259193,-38.6742159,14,135.85638
1,Cachoeira/BA,-12.5998256,-38.9665918,1402,4176.72118
D1,Cachoeira/BA,-12.5998256,-38.9665918,21,62.56144
1,Cachoeiras de Macacu/RJ,-22.4626861,-42.6534414,2634,4441.59655
D1,Cachoeiras de Macacu/RJ,-22.4626861,-42.6534414,87,146.70421
1,Cachoeirinha/PE,-8.4906364,-36.2338963,467,2277.93766
D1,Cachoeirinha/PE,-8.4906364,-36.2338963,23,112.18965
1,Cachoeirinha/RS,-29.9493353,-51.0898927,12791,9746.26638
D1,Cachoeirinha/RS,-29.9493353,-51.0898927,385,293.35568
1,Cachoeirinha/TO,-6.118647,-47.9208885,117,5122.59194
D1,Cachoeirinha/TO,-6.118647,-47.9208885,2,87.56567
1,Cachoeiro de Itapemirim/ES,-20.848084,-41.11129,24323,11549.98599
D1,Cachoeiro de Itapemirim/ES,-20.848084,-41.11129,511,242.65275
1,Cacimba de Areia/PB,-7.1288513,-37.1575194,31,838.97158
D1,Cacimba de Areia/PB,-7.1288513,-37.1575194,3,81.19080
1,Cacimba de Dentro/PB,-6.6425101,-35.7929304,966,5623.47188
D1,Cacimba de Dentro/PB,-6.6425101,-35.7929304,28,162.99919
1,Cacimbas/PB,-7.2125451,-37.0593398,200,2778.16363
D1,Cacimbas/PB,-7.2125451,-37.0593398,6,83.34491
1,Cacimbinhas/AL,-9.401212,-36.991082,637,5849.94031
D1,Cacimbinhas/AL,-9.401212,-36.991082,7,64.28506
1,Cacique Doble/RS,-27.7700117,-51.6616409,478,9420.57548
D1,Cacique Doble/RS,-27.7700117,-51.6616409,9,177.37485
1,Cacoal/RO,-11.4333,-61.4420502,12127,14118.72912
D1,Cacoal/RO,-11.4333,-61.4420502,241,280.58165
1,Caconde/SP,-21.527995,-46.643659,1114,5860.38192
D1,Caconde/SP,-21.527995,-46.643659,26,136.77732
1,Caculé/BA,-14.4990734,-42.2233006,1375,5903.56790
D1,Caculé/BA,-14.4990734,-42.2233006,11,47.22854
1,Caetanos/BA,-14.3387456,-40.9085971,613,4196.33078
D1,Caetanos/BA,-14.3387456,-40.9085971,10,68.45564
1,Caetanópolis/MG,-19.2947496,-44.4138386,805,6851.64695
D1,Caetanópolis/MG,-19.2947496,-44.4138386,13,110.64771
1,Caetité/BA,-14.0691776,-42.4852428,2102,4115.03299
D1,Caetité/BA,-14.0691776,-42.4852428,24,46.98420
1,Caeté/MG,-19.897777,-43.670278,1713,3802.69496
D1,Caeté/MG,-19.897777,-43.670278,45,99.89566
1,Caetés/PE,-8.7728788,-36.6255835,1283,4438.83200
D1,Caetés/PE,-8.7728788,-36.6255835,17,58.81539
1,Cafarnaum/BA,-11.691399,-41.468823,810,4375.30384
D1,Cafarnaum/BA,-11.691399,-41.468823,18,97.22897
1,Cafeara/PR,-22.78905,-51.714195,249,8429.24848
D1,Cafeara/PR,-22.78905,-51.714195,10,338.52404
1,Cafelândia/PR,-24.6176963,-53.3218057,1716,9297.78934
D1,Cafelândia/PR,-24.6176963,-53.3218057,14,75.85609
1,Cafelândia/SP,-21.8054355,-49.6030627,675,3782.99613
D1,Cafelândia/SP,-21.8054355,-49.6030627,31,173.73760
1,Cafezal do Sul/PR,-23.900508,-53.512418,316,7882.26490
D1,Cafezal do Sul/PR,-23.900508,-53.512418,4,99.77551
1,Caiabu/SP,-22.0143038,-51.2356597,88,2098.73599
D1,Caiabu/SP,-22.0143038,-51.2356597,5,119.24636
1,Caiana/MG,-20.695555,-41.924723,128,2310.05234
D1,Caiana/MG,-20.695555,-41.924723,7,126.33099
1,Caiapônia/GO,-16.9538779,-51.8090761,1030,5390.69451
D1,Caiapônia/GO,-16.9538779,-51.8090761,34,177.94526
1,Caibaté/RS,-28.290475,-54.645407,217,4499.27431
D1,Caibaté/RS,-28.290475,-54.645407,7,145.13788
1,Caibi/SC,-27.0751925,-53.2502133,560,9135.39967
D1,Caibi/SC,-27.0751925,-53.2502133,11,179.44535
1,Caicó/RN,-6.4594544,-37.0971911,9879,14455.02831
D1,Caicó/RN,-6.4594544,-37.0971911,118,172.65850
1,Caieiras/SP,-23.3644621,-46.7484765,7068,6877.15884
D1,Caieiras/SP,-23.3644621,-46.7484765,252,245.19582
1,Cairu/BA,-13.4860505,-39.0455744,1143,6202.85451
D1,Cairu/BA,-13.4860505,-39.0455744,13,70.54865
1,Caiuá/SP,-21.8319357,-51.9887179,273,4591.32190
D1,Caiuá/SP,-21.8319357,-51.9887179,6,100.90817
1,Caiçara do Norte/RN,-5.0645017,-36.0561226,361,5502.21003
D1,Caiçara do Norte/RN,-5.0645017,-36.0561226,9,137.17421
1,Caiçara do Rio do Vento/RN,-5.757968,-36.00089,257,6917.90040
D1,Caiçara do Rio do Vento/RN,-5.757968,-36.00089,7,188.42530
1,Caiçara/PB,-6.6146866,-35.4681434,663,9219.85816
D1,Caiçara/PB,-6.6146866,-35.4681434,14,194.68780
1,Caiçara/RS,-27.2750478,-53.4310053,479,10191.48936
D1,Caiçara/RS,-27.2750478,-53.4310053,8,170.21277
1,Cajamar/SP,-23.3561111,-46.8769444,3756,4819.46262
D1,Cajamar/SP,-23.3561111,-46.8769444,184,236.09721
1,Cajapió/MA,-2.8778715,-44.6746871,78,695.43509
D1,Cajapió/MA,-2.8778715,-44.6746871,4,35.66334
1,Cajari/MA,-3.3213076,-45.0118757,198,1017.94252
D1,Cajari/MA,-3.3213076,-45.0118757,7,35.98787
1,Cajati/SP,-24.7272376,-48.1077914,3019,10595.21303
D1,Cajati/SP,-24.7272376,-48.1077914,78,273.74184
1,Cajazeiras do Piauí/PI,-6.794271,-42.3935024,48,1343.40890
D1,Cajazeiras do Piauí/PI,-6.794271,-42.3935024,1,27.98769
1,Cajazeiras/PB,-6.8897849,-38.5570389,7472,11995.69747
D1,Cajazeiras/PB,-6.8897849,-38.5570389,126,202.28291
1,Cajazeirinhas/PB,-6.961442,-37.7993733,134,4180.96724
1,Cajobi/SP,-20.8776238,-48.8106972,814,7682.14421
D1,Cajobi/SP,-20.8776238,-48.8106972,27,254.81314
1,Cajueiro da Praia/PI,-2.931114,-41.340801,473,6163.66953
D1,Cajueiro da Praia/PI,-2.931114,-41.340801,18,234.55825
1,Cajueiro/AL,-9.399589,-36.1524309,523,2451.83067
D1,Cajueiro/AL,-9.399589,-36.1524309,20,93.76026
1,Cajuri/MG,-20.7901414,-42.7954489,338,8505.28435
D1,Cajuri/MG,-20.7901414,-42.7954489,2,50.32713
1,Cajuru/SP,-21.2759978,-47.3046035,928,3516.08381
D1,Cajuru/SP,-21.2759978,-47.3046035,36,136.39980
1,Caldas Brandão/PB,-7.1027959,-35.3254676,484,8005.29276
D1,Caldas Brandão/PB,-7.1027959,-35.3254676,8,132.31889
1,Caldas Novas/GO,-17.745,-48.625,7709,8271.81424
D1,Caldas Novas/GO,-17.745,-48.625,194,208.16344
1,Caldas/MG,-21.923611,-46.386111,666,4580.15267
D1,Caldas/MG,-21.923611,-46.386111,22,151.29633
1,Caldazinha/GO,-16.7116649,-49.0012601,248,6444.90644
D1,Caldazinha/GO,-16.7116649,-49.0012601,5,129.93763
1,Caldeirão Grande do Piauí/PI,-7.3310393,-40.6374433,356,6158.10413
D1,Caldeirão Grande do Piauí/PI,-7.3310393,-40.6374433,2,34.59609
1,Caldeirão Grande/BA,-11.0208483,-40.3041387,545,4069.89769
D1,Caldeirão Grande/BA,-11.0208483,-40.3041387,6,44.80621
1,Califórnia/PR,-23.6672543,-51.3554556,892,10364.86172
D1,Califórnia/PR,-23.6672543,-51.3554556,19,220.77620
1,Calmon/SC,-26.6023644,-51.0992893,31,929.53523
D1,Calmon/SC,-26.6023644,-51.0992893,4,119.94003
1,Calumbi/PE,-7.9389746,-38.1516871,482,8386.98451
D1,Calumbi/PE,-7.9389746,-38.1516871,3,52.20115
1,Calçado/PE,-8.7413446,-36.3351787,397,3603.19477
D1,Calçado/PE,-8.7413446,-36.3351787,3,27.22817
1,Calçoene/AP,2.4981757,-50.9539503,1609,14231.38157
D1,Calçoene/AP,2.4981757,-50.9539503,10,88.44861
1,Camacan/BA,-15.4166631,-39.4930088,2618,8179.71630
D1,Camacan/BA,-15.4166631,-39.4930088,71,221.83341
1,Camacho/MG,-20.625556,-45.156667,49,1707.91216
D1,Camacho/MG,-20.625556,-45.156667,1,34.85535
1,Camalaú/PB,-7.885031,-36.824191,386,6400.26530
D1,Camalaú/PB,-7.885031,-36.824191,6,99.48599
1,Camamu/BA,-13.9438142,-39.1060917,2107,5955.00537
D1,Camamu/BA,-13.9438142,-39.1060917,45,127.18331
1,Camanducaia/MG,-22.755278,-46.144444,2621,12022.38429
D1,Camanducaia/MG,-22.755278,-46.144444,54,247.69506
1,Camapuã/MS,-19.5291747,-54.0434641,701,5119.40408
D1,Camapuã/MS,-19.5291747,-54.0434641,22,160.66603
1,Camaquã/RS,-30.8524752,-51.8075619,6291,9463.28109
D1,Camaquã/RS,-30.8524752,-51.8075619,128,192.54490
1,Camaragibe/PE,-8.0213832,-34.9810768,5545,3489.63807
D1,Camaragibe/PE,-8.0213832,-34.9810768,349,219.63637
1,Camargo/RS,-28.5865661,-52.2031474,328,11962.07148
D1,Camargo/RS,-28.5865661,-52.2031474,5,182.34865
1,Camaçari/BA,-12.6998188,-38.3260762,21687,7126.80166
D1,Camaçari/BA,-12.6998188,-38.3260762,549,180.41288
1,Cambará do Sul/RS,-29.0489517,-50.145412,293,4573.83703
D1,Cambará do Sul/RS,-29.0489517,-50.145412,10,156.10365
1,Cambará/PR,-23.042273,-50.075281,2052,8057.80256
D1,Cambará/PR,-23.042273,-50.075281,41,160.99898
1,Cambira/PR,-23.600265,-51.581045,735,9283.81963
D1,Cambira/PR,-23.600265,-51.581045,16,202.09675
1,Camboriú/SC,-27.0273601,-48.6535657,11501,13513.89460
D1,Camboriú/SC,-27.0273601,-48.6535657,151,177.42788
1,Cambuci/RJ,-21.5749919,-41.9107833,865,5575.60913
D1,Cambuci/RJ,-21.5749919,-41.9107833,30,193.37373
1,Cambuquira/MG,-21.853056,-45.2953619,515,4019.66906
D1,Cambuquira/MG,-21.853056,-45.2953619,16,124.88292
1,Cambuí/MG,-22.6122501,-46.0572137,2873,9636.41242
D1,Cambuí/MG,-22.6122501,-46.0572137,46,154.28993
1,Cambé/PR,-23.2782035,-51.2779583,9590,8934.14446
D1,Cambé/PR,-23.2782035,-51.2779583,202,188.18532
1,Cametá/PA,-2.242949,-49.497885,8056,5780.54591
D1,Cametá/PA,-2.242949,-49.497885,220,157.85999
1,Camocim de São Félix/PE,-8.3616757,-35.7638903,448,2370.37037
D1,Camocim de São Félix/PE,-8.3616757,-35.7638903,14,74.07407
1,Camocim/CE,-2.9009918,-40.8427389,5583,8736.13219
D1,Camocim/CE,-2.9009918,-40.8427389,157,245.66949
1,Campanha/MG,-21.8361108,-45.401986,1287,7678.08137
D1,Campanha/MG,-21.8361108,-45.401986,29,173.01038
1,Campanário/MG,-18.2398144,-41.7271768,205,5495.97855
D1,Campanário/MG,-18.2398144,-41.7271768,3,80.42895
1,Campestre da Serra/RS,-28.7966535,-51.0958149,178,5243.00442
1,Campestre de Goiás/GO,-16.7624179,-49.69497,460,12606.19348
D1,Campestre de Goiás/GO,-16.7624179,-49.69497,14,383.66676
1,Campestre do Maranhão/MA,-6.1729113,-47.3640512,985,6815.19408
D1,Campestre do Maranhão/MA,-6.1729113,-47.3640512,41,283.67813
1,Campestre/AL,-8.8481634,-35.5660033,244,3508.77193
D1,Campestre/AL,-8.8481634,-35.5660033,6,86.28128
1,Campestre/MG,-19.6142116,-43.219378,1225,5818.37181
D1,Campestre/MG,-19.6142116,-43.219378,28,132.99136
1,Campina Grande do Sul/PR,-25.3046032,-49.0545355,4563,10445.23292
D1,Campina Grande do Sul/PR,-25.3046032,-49.0545355,104,238.06799
1,Campina Grande/PB,-7.2246743,-35.8771292,28745,6980.21160
D1,Campina Grande/PB,-7.2246743,-35.8771292,873,211.99251
1,Campina Verde/MG,-19.535277,-49.486389,977,4946.33455
D1,Campina Verde/MG,-19.535277,-49.486389,26,131.63224
1,Campina da Lagoa/PR,-24.5937926,-52.8038965,1274,9072.13558
D1,Campina da Lagoa/PR,-24.5937926,-52.8038965,32,227.87154
1,Campina das Missões/RS,-27.9883295,-54.8411665,477,8836.60615
D1,Campina das Missões/RS,-27.9883295,-54.8411665,9,166.72842
1,Campina do Monte Alegre/SP,-23.5935653,-48.4801876,456,7528.47945
