type,name,lat,lon,total,total_per_100k_inhabitants
1,Abadia de Goiás/GO,-16.7572644,-49.4412205,1421,15862.91583
D1,Abadia de Goiás/GO,-16.7572644,-49.4412205,32,357.22259
1,Abadia dos Dourados/MG,-18.4911191,-47.4063589,426,6080.50243
D1,Abadia dos Dourados/MG,-18.4911191,-47.4063589,14,199.82872
1,Abadiânia/GO,-16.1940946,-48.7067767,421,2057.57294
D1,Abadiânia/GO,-16.1940946,-48.7067767,31,151.50775
1,Abaetetuba/PA,-1.721828,-48.878843,8817,5542.49434
D1,Abaetetuba/PA,-1.721828,-48.878843,219,137.66658
1,Abaeté/MG,-19.1566833,-45.4481213,1200,5161.29032
D1,Abaeté/MG,-19.1566833,-45.4481213,27,116.12903
1,Abaiara/CE,-7.3607808,-39.0487878,576,4859.52923
D1,Abaiara/CE,-7.3607808,-39.0487878,15,126.55024
1,Abaré/BA,-8.7239913,-39.1139689,928,4560.86892
D1,Abaré/BA,-8.7239913,-39.1139689,11,54.06202
1,Abatiá/PR,-23.3052967,-50.3102532,928,12526.99784
D1,Abatiá/PR,-23.3052967,-50.3102532,15,202.48380
1,Abaíra/BA,-13.2503296,-41.6640342,279,3203.21470
D1,Abaíra/BA,-13.2503296,-41.6640342,11,126.29162
1,Abdon Batista/SC,-27.612419,-51.022992,397,15580.84772
D1,Abdon Batista/SC,-27.612419,-51.022992,4,156.98587
1,Abel Figueiredo/PA,-4.953001,-48.3958485,943,12596.84745
D1,Abel Figueiredo/PA,-4.953001,-48.3958485,10,133.58269
1,Abelardo Luz/SC,-26.5705893,-52.3280339,1446,8051.22494
D1,Abelardo Luz/SC,-26.5705893,-52.3280339,46,256.12472
1,Abre Campo/MG,-20.2976097,-42.4764741,1069,7951.50253
D1,Abre Campo/MG,-20.2976097,-42.4764741,15,111.57394
1,Abreu e Lima/PE,-7.900719,-34.898389,3041,3030.51442
D1,Abreu e Lima/PE,-7.900719,-34.898389,219,218.24487
1,Abreulândia/TO,-9.6221526,-49.1558343,270,10408.63531
D1,Abreulândia/TO,-9.6221526,-49.1558343,6,231.30301
1,Acaiaca/MG,-20.3621646,-43.1444162,223,5583.37506
D1,Acaiaca/MG,-20.3621646,-43.1444162,11,275.41312
1,Acajutiba/BA,-11.6609659,-38.0186381,504,3318.62777
D1,Acajutiba/BA,-11.6609659,-38.0186381,16,105.35326
1,Acarape/CE,-4.2237866,-38.7071663,2751,18296.08939
D1,Acarape/CE,-4.2237866,-38.7071663,27,179.56903
1,Acaraú/CE,-2.8869514,-40.1194713,4833,7658.78550
D1,Acaraú/CE,-2.8869514,-40.1194713,98,155.29919
1,Acari/RN,-6.4364689,-36.6394777,1014,9117.88508
D1,Acari/RN,-6.4364689,-36.6394777,15,134.87996
1,Acará/PA,-1.961388,-48.1987043,1313,2358.58377
D1,Acará/PA,-1.961388,-48.1987043,29,52.09362
1,Acauã/PI,-8.219542,-41.083059,196,2759.78598
D1,Acauã/PI,-8.219542,-41.083059,1,14.08054
1,Aceguá/RS,-31.8695131,-54.1615593,336,6798.86686
D1,Aceguá/RS,-31.8695131,-54.1615593,5,101.17361
1,Acopiara/CE,-6.0936464,-39.4543204,3521,6462.80355
D1,Acopiara/CE,-6.0936464,-39.4543204,132,242.28630
1,Acorizal/MT,-15.2001544,-56.3668953,485,9092.61342
D1,Acorizal/MT,-15.2001544,-56.3668953,19,356.20547
1,Acrelândia/AC,-10.0759167,-67.0526898,1635,10555.19690
D1,Acrelândia/AC,-10.0759167,-67.0526898,35,225.95223
1,Acreúna/GO,-17.3959899,-50.3749031,1930,8560.27677
D1,Acreúna/GO,-17.3959899,-50.3749031,47,208.46270
1,Adamantina/SP,-21.6866517,-51.0762975,3110,8857.62297
D1,Adamantina/SP,-21.6866517,-51.0762975,94,267.72237
1,Adelândia/GO,-16.4155077,-50.1665834,192,7631.16057
D1,Adelândia/GO,-16.4155077,-50.1665834,4,158.98251
1,Adolfo/SP,-21.2356597,-49.6441918,497,13984.24311
D1,Adolfo/SP,-21.2356597,-49.6441918,13,365.78503
1,Adrianópolis/PR,-24.6557863,-48.9912769,1285,21939.55950
D1,Adrianópolis/PR,-24.6557863,-48.9912769,27,460.98685
1,Adustina/BA,-10.5358875,-38.114479,893,5214.29406
D1,Adustina/BA,-10.5358875,-38.114479,20,116.78150
1,Afogados da Ingazeira/PE,-7.750429,-37.6356375,4906,13116.24425
D1,Afogados da Ingazeira/PE,-7.750429,-37.6356375,66,176.45172
1,Afonso Bezerra/RN,-5.4745,-36.57625071327935,696,6310.63560
D1,Afonso Bezerra/RN,-5.4745,-36.57625071327935,17,154.13909
1,Afonso Cláudio/ES,-20.077841,-41.12606,3376,11085.20768
D1,Afonso Cláudio/ES,-20.077841,-41.12606,56,183.87785
1,Afonso Cunha/MA,-4.1326105,-43.3230026,179,2721.19185
D1,Afonso Cunha/MA,-4.1326105,-43.3230026,2,30.40438
1,Afrânio/PE,-8.5198919,-41.0070197,870,4391.72135
D1,Afrânio/PE,-8.5198919,-41.0070197,14,70.67138
1,Afuá/PA,-0.1535664,-50.3879223,2970,7506.25521
D1,Afuá/PA,-0.1535664,-50.3879223,14,35.38302
1,Agrestina/PE,-8.4558021,-35.9442663,1632,6511.07121
D1,Agrestina/PE,-8.4558021,-35.9442663,60,239.37762
1,Agricolândia/PI,-5.7967843,-42.6605131,475,9257.45469
D1,Agricolândia/PI,-5.7967843,-42.6605131,6,116.93627
1,Agrolândia/SC,-27.4122212,-49.8295774,1497,13593.02642
D1,Agrolândia/SC,-27.4122212,-49.8295774,21,190.68374
1,Agronômica/SC,-27.2660744,-49.7104753,619,11236.15901
D1,Agronômica/SC,-27.2660744,-49.7104753,13,235.97749
1,Aguanil/MG,-20.9424533,-45.3927152,599,13246.35117
D1,Aguanil/MG,-20.9424533,-45.3927152,8,176.91287
1,Aguaí/SP,-22.0592036,-46.979384,2777,7577.49400
D1,Aguaí/SP,-22.0592036,-46.979384,86,234.66492
1,Agudo/RS,-29.6423259,-53.2494005,1627,9920.12682
D1,Agudo/RS,-29.6423259,-53.2494005,29,176.81849
1,Agudos do Sul/PR,-25.9890808,-49.3328175,572,6040.12672
D1,Agudos do Sul/PR,-25.9890808,-49.3328175,24,253.43189
1,Agudos/SP,-22.471162,-48.987822,3570,9545.19933
D1,Agudos/SP,-22.471162,-48.987822,82,219.24547
1,Aguiar/PB,-7.0928404,-38.1727215,472,8383.65897
D1,Aguiar/PB,-7.0928404,-38.1727215,5,88.80995
1,Aguiarnópolis/TO,-6.5600452,-47.4721189,627,9097.50435
D1,Aguiarnópolis/TO,-6.5600452,-47.4721189,12,174.11492
1,Aimorés/MG,-19.4917754,-41.0615603,1910,7597.15206
D1,Aimorés/MG,-19.4917754,-41.0615603,61,242.63156
1,Aiquara/BA,-14.126918,-39.8887574,467,10575.18116
D1,Aiquara/BA,-14.126918,-39.8887574,11,249.09420
1,Aiuaba/CE,-6.5710836,-40.1212278,709,4053.04979
D1,Aiuaba/CE,-6.5710836,-40.1212278,11,62.88230
1,Aiuruoca/MG,-21.9759554,-44.6036637,288,4819.27711
D1,Aiuruoca/MG,-21.9759554,-44.6036637,7,117.13521
1,Ajuricaba/RS,-28.239654,-53.7693013,1011,14469.72950
D1,Ajuricaba/RS,-28.239654,-53.7693013,26,372.11965
1,Alagoa Grande/PB,-7.0415212,-35.6285322,3804,13375.99775
D1,Alagoa Grande/PB,-7.0415212,-35.6285322,68,239.10827
1,Alagoa Nova/PB,-7.0653703,-35.76695977336711,987,4717.74772
D1,Alagoa Nova/PB,-7.0653703,-35.76695977336711,18,86.03795
1,Alagoa/MG,-22.1697202,-44.6400042,439,16472.79550
D1,Alagoa/MG,-22.1697202,-44.6400042,6,225.14071
1,Alagoinha do Piauí/PI,-7.0090952,-40.939675,342,4461.83953
D1,Alagoinha do Piauí/PI,-7.0090952,-40.939675,10,130.46314
1,Alagoinha/PB,-6.97063215,-35.51490901897793,1894,13008.24176
D1,Alagoinha/PB,-6.97063215,-35.51490901897793,24,164.83516
1,Alagoinha/PE,-8.50355635,-36.77701174370496,1186,8058.16008
D1,Alagoinha/PE,-8.50355635,-36.77701174370496,25,169.86004
1,Alagoinhas/BA,-12.133526,-38.420772,12749,8369.49457
D1,Alagoinhas/BA,-12.133526,-38.420772,250,164.12061
1,Alambari/SP,-23.550338,-47.897971,509,8304.78055
D1,Alambari/SP,-23.550338,-47.897971,10,163.15875
1,Albertina/MG,-20.66164,-43.784039,229,7605.44670
D1,Albertina/MG,-20.66164,-43.784039,9,298.90402
1,Alcantil/PB,-7.7425491,-36.0609604,464,8422.58123
D1,Alcantil/PB,-7.7425491,-36.0609604,6,108.91269
1,Alcinópolis/MS,-18.3264121,-53.7094463,319,5888.86838
D1,Alcinópolis/MS,-18.3264121,-53.7094463,8,147.68322
1,Alcobaça/BA,-17.5215875,-39.1965474,1447,6433.97065
D1,Alcobaça/BA,-17.5215875,-39.1965474,29,128.94620
1,Alcântara/MA,-2.4038956,-44.4154241,306,1383.86397
D1,Alcântara/MA,-2.4038956,-44.4154241,17,76.88133
1,Alcântaras/CE,-3.586247,-40.5457641,1647,13980.13751
D1,Alcântaras/CE,-3.586247,-40.5457641,21,178.25312
1,Aldeias Altas/MA,-4.6291957,-43.4708622,976,3647.64361
D1,Aldeias Altas/MA,-4.6291957,-43.4708622,14,52.32276
1,Alecrim/RS,-27.6566142,-54.7653195,295,5062.63944
D1,Alecrim/RS,-27.6566142,-54.7653195,11,188.77639
1,Alegre/ES,-20.7625787,-41.5318886,2300,7673.06088
D1,Alegre/ES,-20.7625787,-41.5318886,50,166.80567
1,Alegrete do Piauí/PI,-7.2440138,-40.8602296,495,10065.06710
D1,Alegrete do Piauí/PI,-7.2440138,-40.8602296,6,122.00081
1,Alegrete/RS,-29.790166,-55.794862,8758,11992.66035
D1,Alegrete/RS,-29.790166,-55.794862,262,358.76650
1,Alegria/RS,-27.8332103,-54.0574959,359,10640.18969
D1,Alegria/RS,-27.8332103,-54.0574959,2,59.27682
1,Alenquer/PA,-1.946229,-54.738355,3344,5857.21292
D1,Alenquer/PA,-1.946229,-54.738355,130,227.70266
1,Alexandria/RN,-6.414779,-38.0135516,1527,11266.87818
D1,Alexandria/RN,-6.414779,-38.0135516,22,162.32568
1,Alexânia/GO,-16.0834049,-48.5077803,3035,10835.41592
D1,Alexânia/GO,-16.0834049,-48.5077803,75,267.76151
1,Alfenas/MG,-21.4297405,-45.9479419,8614,10701.41874
D1,Alfenas/MG,-21.4297405,-45.9479419,159,197.53025
1,Alfredo Chaves/ES,-20.624970400000002,-40.75006690147988,2351,16063.13200
D1,Alfredo Chaves/ES,-20.624970400000002,-40.75006690147988,35,239.13638
1,Alfredo Marcondes/SP,-21.9527,-51.413956,235,5616.63480
D1,Alfredo Marcondes/SP,-21.9527,-51.413956,10,239.00574
1,Alfredo Vasconcelos/MG,-21.145833,-43.776389,466,6675.26142
D1,Alfredo Vasconcelos/MG,-21.145833,-43.776389,12,171.89514
1,Alfredo Wagner/SC,-27.6961513,-49.3326734,661,6553.63871
D1,Alfredo Wagner/SC,-27.6961513,-49.3326734,7,69.40313
1,Algodão de Jandaíra/PB,-6.9040175,-36.0089879,174,6752.03725
1,Alhandra/PB,-7.4304246,-34.9106103,2134,10817.66107
D1,Alhandra/PB,-7.4304246,-34.9106103,35,177.42181
1,Aliança do Tocantins/TO,-11.3055927,-48.9409096,584,10924.05537
D1,Aliança do Tocantins/TO,-11.3055927,-48.9409096,20,374.11149
1,Aliança/PE,-7.60398,-35.222696,625,1627.73133
D1,Aliança/PE,-7.60398,-35.222696,58,151.05347
1,Almadina/BA,-14.70466,-39.6381994,606,11293.32836
D1,Almadina/BA,-14.70466,-39.6381994,9,167.72270
1,Almas/TO,-11.5681309,-47.1702803,229,3281.27239
D1,Almas/TO,-11.5681309,-47.1702803,5,71.64350
1,Almeirim/PA,-1.5290377,-52.5788111,3583,10514.73178
D1,Almeirim/PA,-1.5290377,-52.5788111,43,126.18852
1,Almenara/MG,-16.1740678,-40.6904907,3789,8990.81698
D1,Almenara/MG,-16.1740678,-40.6904907,45,106.77930
1,Almino Afonso/RN,-6.1544208,-37.7649018,420,8917.19745
D1,Almino Afonso/RN,-6.1544208,-37.7649018,12,254.77707
1,Almirante Tamandaré do Sul/RS,-28.1141129,-52.9134874,314,16110.82606
D1,Almirante Tamandaré do Sul/RS,-28.1141129,-52.9134874,4,205.23345
1,Almirante Tamandaré/PR,-25.3133048,-49.2997838,9185,7651.55239
D1,Almirante Tamandaré/PR,-25.3133048,-49.2997838,352,293.23315
1,Aloândia/GO,-17.7277983,-49.4809338,260,13091.64149
D1,Aloândia/GO,-17.7277983,-49.4809338,7,352.46727
1,Alpercata/MG,-18.9803616,-41.9827637,473,6360.94675
D1,Alpercata/MG,-18.9803616,-41.9827637,19,255.51372
1,Alpestre/RS,-27.2512339,-53.0349646,324,5340.36591
D1,Alpestre/RS,-27.2512339,-53.0349646,8,131.86089
1,Alpinópolis/MG,-20.863611,-46.387777,1248,6253.13158
D1,Alpinópolis/MG,-20.863611,-46.387777,33,165.34723
1,Alta Floresta D'Oeste/RO,-11.9296917,-61.9961284,3844,16913.05878
D1,Alta Floresta D'Oeste/RO,-11.9296917,-61.9961284,64,281.59099
1,Alta Floresta/MT,-9.8715018,-56.0839881,8359,16087.68452
D1,Alta Floresta/MT,-9.8715018,-56.0839881,120,230.95133
1,Altair/SP,-20.5238955,-49.0606135,176,4204.49116
D1,Altair/SP,-20.5238955,-49.0606135,12,286.66985
1,Altamira do Maranhão/MA,-4.1643006,-45.4674574,318,3883.25803
D1,Altamira do Maranhão/MA,-4.1643006,-45.4674574,10,122.11503
1,Altamira do Paraná/PR,-24.799114,-52.7128633,200,11890.60642
D1,Altamira do Paraná/PR,-24.799114,-52.7128633,10,594.53032
1,Altamira/PA,-3.204065,-52.209961,13370,11528.94308
D1,Altamira/PA,-3.204065,-52.209961,281,242.30613
1,Altaneira/CE,-6.9980933,-39.7385742,530,6928.10458
D1,Altaneira/CE,-6.9980933,-39.7385742,15,196.07843
1,Alterosa/MG,-21.249166,-46.143055,674,4642.83254
D1,Alterosa/MG,-21.249166,-46.143055,31,213.54274
1,Altinho/PE,-8.4904095,-36.0607494,1089,4738.07866
D1,Altinho/PE,-8.4904095,-36.0607494,24,104.42047
1,Altinópolis/SP,-21.021364,-47.3712,809,4992.90255
D1,Altinópolis/SP,-21.021364,-47.3712,39,240.69617
1,Alto Alegre do Maranhão/MA,-4.2055693,-44.4525287,1152,4135.25738
D1,Alto Alegre do Maranhão/MA,-4.2055693,-44.4525287,25,89.74083
1,Alto Alegre do Pindaré/MA,-3.6698186,-45.8462153,1916,5998.18427
D1,Alto Alegre do Pindaré/MA,-3.6698186,-45.8462153,45,140.87594
1,Alto Alegre dos Parecis/RO,-12.1314515,-61.856265,1440,10863.82497
D1,Alto Alegre dos Parecis/RO,-12.1314515,-61.856265,44,331.95021
1,Alto Alegre/RR,2.98858,-61.307167,1368,8894.66840
D1,Alto Alegre/RR,2.98858,-61.307167,31,201.56047
1,Alto Alegre/RS,-31.780844700000003,-52.81311114489171,194,12027.27836
D1,Alto Alegre/RS,-31.780844700000003,-52.81311114489171,1,61.99628
1,Alto Alegre/SP,-21.5820592,-50.1661976,332,8121.33072
D1,Alto Alegre/SP,-21.5820592,-50.1661976,19,464.77495
1,Alto Araguaia/MT,-17.3156528,-53.2169365,1195,6164.56023
D1,Alto Araguaia/MT,-17.3156528,-53.2169365,24,123.80707
1,Alto Bela Vista/SC,-27.4320737,-51.905771,171,8878.50467
D1,Alto Bela Vista/SC,-27.4320737,-51.905771,3,155.76324
1,Alto Boa Vista/MT,-11.6723985,-51.3744431,743,10712.22607
D1,Alto Boa Vista/MT,-11.6723985,-51.3744431,12,173.01038
1,Alto Caparaó/MG,-20.4405661,-41.8683799,384,6515.10010
D1,Alto Caparaó/MG,-20.4405661,-41.8683799,9,152.69766
1,Alto Feliz/RS,-29.3785943,-51.3123751,257,8465.08564
D1,Alto Feliz/RS,-29.3785943,-51.3123751,2,65.87615
1,Alto Garças/MT,-16.9469683,-53.529427,850,6995.30903
D1,Alto Garças/MT,-16.9469683,-53.529427,36,296.27191
1,Alto Horizonte/GO,-14.1954948,-49.3366993,833,12611.65783
D1,Alto Horizonte/GO,-14.1954948,-49.3366993,10,151.40045
1,Alto Jequitibá/MG,-20.423611,-41.966111,714,8601.37333
D1,Alto Jequitibá/MG,-20.423611,-41.966111,10,120.46741
1,Alto Longá/PI,-5.2549051,-42.2072388,630,4393.61183
D1,Alto Longá/PI,-5.2549051,-42.2072388,13,90.66183
1,Alto Paraguai/MT,-14.513712,-56.4936374,864,7530.72431
D1,Alto Paraguai/MT,-14.513712,-56.4936374,28,244.05125
1,Alto Paraná/PR,-23.131247,-52.318893,923,6211.72353
D1,Alto Paraná/PR,-23.131247,-52.318893,24,161.51827
1,Alto Paraíso de Goiás/GO,-14.1304779,-47.5100161,622,8090.53070
D1,Alto Paraíso de Goiás/GO,-14.1304779,-47.5100161,7,91.05099
1,Alto Paraíso/PR,-23.508137,-53.728537,223,8305.40037
D1,Alto Paraíso/PR,-23.508137,-53.728537,4,148.97579
1,Alto Paraíso/RO,-9.7240103,-63.3188123,1797,8225.38564
D1,Alto Paraíso/RO,-9.7240103,-63.3188123,46,210.55522
1,Alto Parnaíba/MA,-9.112506,-45.9310154,861,7679.27221
D1,Alto Parnaíba/MA,-9.112506,-45.9310154,10,89.19015
1,Alto Piquiri/PR,-24.0239021,-53.4417448,846,8652.07609
D1,Alto Piquiri/PR,-24.0239021,-53.4417448,21,214.76785
1,Alto Rio Doce/MG,-21.0239537,-43.4133507,424,3904.59527
D1,Alto Rio Doce/MG,-21.0239537,-43.4133507,25,230.22378
1,Alto Rio Novo/ES,-19.0577208,-41.0171518,683,8674.11735
D1,Alto Rio Novo/ES,-19.0577208,-41.0171518,21,266.70053
1,Alto Santo/CE,-5.5190371,-38.2719351,1729,10054.66388
D1,Alto Santo/CE,-5.5190371,-38.2719351,28,162.82856
1,Alto Taquari/MT,-17.8269099,-53.2831736,1416,12718.94368
D1,Alto Taquari/MT,-17.8269099,-53.2831736,27,242.52223
1,Alto do Rodrigues/RN,-5.290868,-36.7616726,2065,14020.91255
D1,Alto do Rodrigues/RN,-5.290868,-36.7616726,36,244.43237
1,Altos/PI,-5.0393915,-42.4611694,4308,10609.53085
D1,Altos/PI,-5.0393915,-42.4611694,88,216.72208
1,Altônia/PR,-23.8722004,-53.894037,1059,4775.43290
D1,Altônia/PR,-23.8722004,-53.894037,19,85.67821
1,Alumínio/SP,-23.5203479,-47.2575256,1372,7310.70496
D1,Alumínio/SP,-23.5203479,-47.2575256,39,207.81158
1,Alvarenga/MG,-19.4175,-41.728334,446,11602.49740
D1,Alvarenga/MG,-19.4175,-41.728334,4,104.05827
1,Alvarães/AM,-3.214786,-64.8143124,2846,17546.23921
D1,Alvarães/AM,-3.214786,-64.8143124,45,277.43527
1,Alvinlândia/SP,-22.4431852,-49.7643596,137,4232.31387
D1,Alvinlândia/SP,-22.4431852,-49.7643596,8,247.14242
1,Alvinópolis/MG,-20.1105199,-43.0601805,638,4205.94634
D1,Alvinópolis/MG,-20.1105199,-43.0601805,21,138.44024
1,Alvorada D'Oeste/RO,-11.346271,-62.284697,1072,7599.60301
D1,Alvorada D'Oeste/RO,-11.346271,-62.284697,29,205.58628
1,Alvorada de Minas/MG,-18.7318587,-43.3641479,254,7045.76976
D1,Alvorada de Minas/MG,-18.7318587,-43.3641479,3,83.21775
1,Alvorada do Gurguéia/PI,-8.4465288,-43.8655915,385,7070.70707
D1,Alvorada do Gurguéia/PI,-8.4465288,-43.8655915,9,165.28926
1,Alvorada do Norte/GO,-14.483911,-46.4959897,736,8454.91097
D1,Alvorada do Norte/GO,-14.483911,-46.4959897,4,45.95060
1,Alvorada do Sul/PR,-22.7807269,-51.2307721,735,6389.63749
D1,Alvorada do Sul/PR,-22.7807269,-51.2307721,23,199.94784
1,Alvorada/RS,-29.9981184,-51.0772509,19990,9458.15512
D1,Alvorada/RS,-29.9981184,-51.0772509,707,334.51304
1,Alvorada/TO,-12.478465,-49.124926,1097,13065.74559
D1,Alvorada/TO,-12.478465,-49.124926,20,238.20867
1,Além Paraíba/MG,-21.8760576,-42.6810473,3072,8677.72097
D1,Além Paraíba/MG,-21.8760576,-42.6810473,137,386.99472
1,Amajari/RR,3.6523869,-61.4194315,1011,7667.80432
D1,Amajari/RR,3.6523869,-61.4194315,20,151.68752
1,Amambai/MS,-23.1082701,-55.2284854,2956,7422.28695
D1,Amambai/MS,-23.1082701,-55.2284854,70,175.76458
1,Amaporã/PR,-23.094272,-52.786597,308,4864.18193
D1,Amaporã/PR,-23.094272,-52.786597,6,94.75679
1,Amapá do Maranhão/MA,-1.6762114,-46.0109669,172,2455.38901
D1,Amapá do Maranhão/MA,-1.6762114,-46.0109669,4,57.10207
1,Amapá/AP,2.0529997,-50.7930003,1304,14193.96974
D1,Amapá/AP,2.0529997,-50.7930003,10,108.84946
1,Amaraji/PE,-8.373925,-35.4536527,561,2452.99519
D1,Amaraji/PE,-8.373925,-35.4536527,35,153.03892
1,Amaral Ferrador/RS,-30.8750633,-52.2542051,289,4079.04023
D1,Amaral Ferrador/RS,-30.8750633,-52.2542051,7,98.80028
1,Amaralina/GO,-13.9236199,-49.2962411,76,1976.59298
D1,Amaralina/GO,-13.9236199,-49.2962411,1,26.00780
1,Amarante do Maranhão/MA,-5.56913,-46.747284,1581,3788.73206
D1,Amarante do Maranhão/MA,-5.56913,-46.747284,55,131.80282
1,Amarante/PI,-6.2459374,-42.8476238,1491,8469.66599
D1,Amarante/PI,-6.2459374,-42.8476238,34,193.13792
1,Amargosa/BA,-13.03793715,-39.60796443875596,2607,6962.95505
D1,Amargosa/BA,-13.03793715,-39.60796443875596,49,130.87257
1,Amaturá/AM,-3.3640509,-68.1994689,2353,20049.42059
D1,Amaturá/AM,-3.3640509,-68.1994689,17,144.85344
1,Americana/SP,-22.7392463,-47.3306032,20467,8456.80900
D1,Americana/SP,-22.7392463,-47.3306032,622,257.00568
1,Americano do Brasil/GO,-16.2515808,-49.9806104,671,10885.78845
D1,Americano do Brasil/GO,-16.2515808,-49.9806104,21,340.68787
1,Ametista do Sul/RS,-27.3617341,-53.1826575,720,9725.78684
D1,Ametista do Sul/RS,-27.3617341,-53.1826575,17,229.63663
1,Amontada/CE,-3.3634586,-39.8284791,2807,6404.43542
D1,Amontada/CE,-3.3634586,-39.8284791,53,120.92450
1,Amorinópolis/GO,-16.6211308,-51.0949921,231,7526.88172
D1,Amorinópolis/GO,-16.6211308,-51.0949921,3,97.75171
1,Amparo de São Francisco/SE,-10.1299754,-36.9269099,239,10042.01681
D1,Amparo de São Francisco/SE,-10.1299754,-36.9269099,4,168.06723
1,Amparo do Serra/MG,-20.5070255,-42.8028462,146,3120.99188
D1,Amparo do Serra/MG,-20.5070255,-42.8028462,8,171.01325
1,Amparo/PB,-7.56394725,-37.04652873235175,164,7285.65082
D1,Amparo/PB,-7.56394725,-37.04652873235175,4,177.69880
1,Amparo/SP,-22.70111,-46.76444,5973,8218.55608
D1,Amparo/SP,-22.70111,-46.76444,129,177.49770
1,Ampére/PR,-25.9168712,-53.4742414,1722,8917.19745
D1,Ampére/PR,-25.9168712,-53.4742414,39,201.95743
1,Amélia Rodrigues/BA,-12.4015388,-38.7516971,2174,8679.33568
D1,Amélia Rodrigues/BA,-12.4015388,-38.7516971,41,163.68572
1,América Dourada/BA,-11.4515262,-41.4357517,871,5413.30019
D1,América Dourada/BA,-11.4515262,-41.4357517,11,68.36544
1,Américo Brasiliense/SP,-21.7297099,-48.1052092,3643,8878.43634
D1,Américo Brasiliense/SP,-21.7297099,-48.1052092,86,209.59251
1,Américo de Campos/SP,-20.298476,-49.735904,878,14679.81943
D1,Américo de Campos/SP,-20.298476,-49.735904,24,401.27069
1,Anadia/AL,-9.6830208,-36.3052699,1349,7697.13568
D1,Anadia/AL,-9.6830208,-36.3052699,29,165.46845
1,Anagé/BA,-14.6134669,-41.1376308,857,3966.30722
D1,Anagé/BA,-14.6134669,-41.1376308,20,92.56260
1,Anahy/PR,-24.6450861,-53.1337957,345,12374.46198
D1,Anahy/PR,-24.6450861,-53.1337957,9,322.81205
1,Anajatuba/MA,-3.26441,-44.6179916,914,3386.69038
D1,Anajatuba/MA,-3.26441,-44.6179916,23,85.22306
1,Anajás/PA,-0.9878802,-49.9390114,1347,4537.18674
D1,Anajás/PA,-0.9878802,-49.9390114,22,74.10402
1,Analândia/SP,-22.128917,-47.661939,308,6091.77215
D1,Analândia/SP,-22.128917,-47.661939,4,79.11392
1,Anamã/AM,-3.5797356,-61.4049996,1774,12711.37862
D1,Anamã/AM,-3.5797356,-61.4049996,9,64.48839
1,Ananindeua/PA,-1.374035,-48.4016623,23756,4435.83850
D1,Ananindeua/PA,-1.374035,-48.4016623,798,149.00653
1,Ananás/TO,-6.3663053,-48.080238,1541,16234.72398
D1,Ananás/TO,-6.3663053,-48.080238,24,252.84450
1,Anapu/PA,-3.4668292,-51.2057035,1522,5320.37613
D1,Anapu/PA,-3.4668292,-51.2057035,37,129.33897
1,Anapurus/MA,-3.6751298,-43.1046001,829,5215.80471
D1,Anapurus/MA,-3.6751298,-43.1046001,12,75.50019
1,Anastácio/MS,-20.4832458,-55.8048448,2301,9117.56548
D1,Anastácio/MS,-20.4832458,-55.8048448,68,269.44566
1,Anaurilândia/MS,-22.185169,-52.719056,491,5409.87219
D1,Anaurilândia/MS,-22.185169,-52.719056,13,143.23491
1,Anchieta/ES,-20.8057672,-40.6454564,4649,15611.67266
D1,Anchieta/ES,-20.8057672,-40.6454564,84,282.07797
1,Anchieta/SC,-26.5350527,-53.3293938,634,11409.03365
D1,Anchieta/SC,-26.5350527,-53.3293938,9,161.95789
1,Andaraí/BA,-12.8059674,-41.3322919,815,6206.21383
D1,Andaraí/BA,-12.8059674,-41.3322919,8,60.91989
1,Andirá/PR,-23.0494761,-50.2310027,1992,9996.98886
D1,Andirá/PR,-23.0494761,-50.2310027,71,356.31838
1,Andorinha/BA,-10.3445708,-39.8334411,801,5522.99524
D1,Andorinha/BA,-10.3445708,-39.8334411,16,110.32200
1,Andradas/MG,-22.0680484,-46.5688976,3461,8360.71118
D1,Andradas/MG,-22.0680484,-46.5688976,105,253.64770
1,Andradina/SP,-20.896505,-51.3742765,5770,10087.05989
D1,Andradina/SP,-20.896505,-51.3742765,239,417.81756
1,Andrelândia/MG,-21.739722,-44.308889,206,1687.69458
D1,Andrelândia/MG,-21.739722,-44.308889,9,73.73423
1,André da Rocha/RS,-28.6309124,-51.5733328,112,8339.53835
1,Angatuba/SP,-23.4938938,-48.4110675,2472,9702.10762
D1,Angatuba/SP,-23.4938938,-48.4110675,61,239.41285
1,Angelim/PE,-8.8902038,-36.2872987,212,1888.47319
D1,Angelim/PE,-8.8902038,-36.2872987,8,71.26314
1,Angelina/SC,-27.5805287,-48.9838759,509,10731.60447
D1,Angelina/SC,-27.5805287,-48.9838759,2,42.16740
1,Angelândia/MG,-17.7253,-42.2728,122,1425.73332
D1,Angelândia/MG,-17.7253,-42.2728,1,11.68634
1,Angical do Piauí/PI,-6.0872666,-42.7366138,796,11735.22040
D1,Angical do Piauí/PI,-6.0872666,-42.7366138,11,162.17013
1,Angical/BA,-12.005623,-44.7000236,620,4448.27091
D1,Angical/BA,-12.005623,-44.7000236,14,100.44483
1,Angico/TO,-6.3893733,-47.8656722,231,6687.89809
D1,Angico/TO,-6.3893733,-47.8656722,3,86.85582
1,Angicos/RN,-5.6666344,-36.6009064,843,7202.05041
D1,Angicos/RN,-5.6666344,-36.6009064,21,179.41051
1,Angra dos Reis/RJ,-23.0063966,-44.316326,13553,6545.95159
D1,Angra dos Reis/RJ,-23.0063966,-44.316326,463,223.62396
1,Anguera/BA,-12.1509425,-39.2452469,430,3806.32026
D1,Anguera/BA,-12.1509425,-39.2452469,2,17.70382
1,Angélica/MS,-22.1588196,-53.7728504,1197,10949.50604
D1,Angélica/MS,-22.1588196,-53.7728504,19,173.80168
1,Anhanguera/GO,-18.3338749,-48.220363,88,7586.20690
D1,Anhanguera/GO,-18.3338749,-48.220363,6,517.24138
1,Anhembi/SP,-22.7891096,-48.1316776,249,3651.56181
D1,Anhembi/SP,-22.7891096,-48.1316776,5,73.32453
1,Anhumas/SP,-22.2956478,-51.3873401,207,4995.17375
D1,Anhumas/SP,-22.2956478,-51.3873401,5,120.65637
1,Anicuns/GO,-16.4606451,-49.9572265,2631,11969.42814
D1,Anicuns/GO,-16.4606451,-49.9572265,60,272.96301
1,Anita Garibaldi/SC,-27.6855032,-51.1293873,1137,16343.25140
D1,Anita Garibaldi/SC,-27.6855032,-51.1293873,10,143.74012
1,Anitápolis/SC,-27.9041185,-49.1287395,322,9975.21685
D1,Anitápolis/SC,-27.9041185,-49.1287395,4,123.91574
1,Anori/AM,-3.7435254,-61.6605203,1884,8772.17488
D1,Anori/AM,-3.7435254,-61.6605203,31,144.34046
1,Anta Gorda/RS,-28.9718745,-52.0069187,590,9897.66818
D1,Anta Gorda/RS,-28.9718745,-52.0069187,4,67.10284
1,Antas/BA,-10.4114649,-38.3308815,1264,6489.03948
D1,Antas/BA,-10.4114649,-38.3308815,11,56.47107
1,Antonina do Norte/CE,-6.7754187,-39.9879345,681,9230.14367
D1,Antonina do Norte/CE,-6.7754187,-39.9879345,25,338.84522
1,Antonina/PR,-25.4298854,-48.7125431,2422,12781.67713
D1,Antonina/PR,-25.4298854,-48.7125431,62,327.19405
1,Antônio Almeida/PI,-7.2186016,-44.1950248,405,12776.02524
D1,Antônio Almeida/PI,-7.2186016,-44.1950248,10,315.45741
1,Antônio Cardoso/BA,-12.4363122,-39.1200307,487,4170.59176
D1,Antônio Cardoso/BA,-12.4363122,-39.1200307,10,85.63843
1,Antônio Carlos/MG,-21.318334,-43.746666,658,5742.21136
D1,Antônio Carlos/MG,-21.318334,-43.746666,13,113.44794
1,Antônio Carlos/SC,-27.5168462,-48.7684715,1546,17949.61105
D1,Antônio Carlos/SC,-27.5168462,-48.7684715,24,278.64855
1,Antônio Dias/MG,-19.6525,-42.872778,562,6059.29919
D1,Antônio Dias/MG,-19.6525,-42.872778,23,247.97844
1,Antônio Gonçalves/BA,-10.5715409,-40.2748824,830,6987.70837
D1,Antônio Gonçalves/BA,-10.5715409,-40.2748824,8,67.35141
1,Antônio João/MS,-22.1892837,-55.9508227,484,5365.85366
D1,Antônio João/MS,-22.1892837,-55.9508227,11,121.95122
1,Antônio Martins/RN,-6.2155812,-37.8890129,632,8834.21862
D1,Antônio Martins/RN,-6.2155812,-37.8890129,6,83.86916
1,Antônio Olinto/PR,-25.9849006,-50.1974516,392,5278.03959
D1,Antônio Olinto/PR,-25.9849006,-50.1974516,9,121.17948
1,Antônio Prado de Minas/MG,-21.0171988,-42.1101106,160,10081.91556
D1,Antônio Prado de Minas/MG,-21.0171988,-42.1101106,5,315.05986
1,Antônio Prado/RS,-28.8567806,-51.2801355,2559,19616.71138
D1,Antônio Prado/RS,-28.8567806,-51.2801355,28,214.64163
1,Anápolis/GO,-16.3332828,-48.9525756,38482,9822.54985
D1,Anápolis/GO,-16.3332828,-48.9525756,1364,348.16169
1,Anísio de Abreu/PI,-9.185643,-43.04941,290,2918.09217
D1,Anísio de Abreu/PI,-9.185643,-43.04941,11,110.68625
1,Aparecida d'Oeste/SP,-20.4498109,-50.8808706,714,17171.71717
D1,Aparecida d'Oeste/SP,-20.4498109,-50.8808706,13,312.65031
1,Aparecida de Goiânia/GO,-16.8226769,-49.2452546,67772,11483.93787
D1,Aparecida de Goiânia/GO,-16.8226769,-49.2452546,1358,230.11255
1,Aparecida do Rio Doce/GO,-18.2980167,-51.1491312,225,9094.58367
D1,Aparecida do Rio Doce/GO,-18.2980167,-51.1491312,3,121.26112
1,Aparecida do Rio Negro/TO,-9.9513491,-47.9773786,329,6786.30363
D1,Aparecida do Rio Negro/TO,-9.9513491,-47.9773786,7,144.38944
1,Aparecida do Taboado/MS,-20.0840304,-51.1013943,3368,12919.55963
D1,Aparecida do Taboado/MS,-20.0840304,-51.1013943,48,184.12674
1,Aparecida/PB,-6.7859598, -38.0831353,889,10563.21293
D1,Aparecida/PB,-6.7859598, -38.0831353,13,154.46768
1,Aparecida/SP,-22.851552,-45.2340924,2200,6079.86735
D1,Aparecida/SP,-22.851552,-45.2340924,86,237.66754
1,Aperibé/RJ,-21.6211928,-42.1028167,553,4646.66835
D1,Aperibé/RJ,-21.6211928,-42.1028167,25,210.06638
1,Apiacá/ES,-21.152272,-41.569297,799,10577.17765
D1,Apiacá/ES,-21.152272,-41.569297,33,436.85465
1,Apiacás/MT,-9.5678422,-57.394852,1722,16746.08577
D1,Apiacás/MT,-9.5678422,-57.394852,15,145.87183
1,Apiaí/SP,-24.5076527,-48.8461582,1280,5283.57963
D1,Apiaí/SP,-24.5076527,-48.8461582,67,276.56237
1,Apicum-Açu/MA,-1.5279295,-45.082278,499,2865.67507
D1,Apicum-Açu/MA,-1.5279295,-45.082278,5,28.71418
1,Apiúna/SC,-27.0374658,-49.3885037,811,7476.03245
D1,Apiúna/SC,-27.0374658,-49.3885037,15,138.27434
1,Apodi/RN,-5.6631109,-37.796927,5833,16259.68668
D1,Apodi/RN,-5.6631109,-37.796927,93,259.24068
1,Aporá/BA,-11.6599747,-38.0794757,512,2878.34495
D1,Aporá/BA,-11.6599747,-38.0794757,19,106.81358
1,Aporé/GO,-18.9642193,-51.92804,361,8530.24575
D1,Aporé/GO,-18.9642193,-51.92804,10,236.29490
1,Apuarema/BA,-13.8517897,-39.7457126,678,9285.12736
D1,Apuarema/BA,-13.8517897,-39.7457126,9,123.25390
1,Apucarana/PR,-23.5525327,-51.4610764,8468,6215.77580
D1,Apucarana/PR,-23.5525327,-51.4610764,371,272.32556
1,Apuiarés/CE,-3.9460303,-39.4313298,1159,7899.40022
D1,Apuiarés/CE,-3.9460303,-39.4313298,23,156.76118
1,Apuí/AM,-7.1940195,-59.8830192,1367,6113.86914
D1,Apuí/AM,-7.1940195,-59.8830192,30,134.17416
1,Aquidabã/SE,-10.2837579,-37.0188687,2170,10008.76343
D1,Aquidabã/SE,-10.2837579,-37.0188687,37,170.65634
1,Aquidauana/MS,-20.473969,-55.7821375,4971,10349.99688
D1,Aquidauana/MS,-20.473969,-55.7821375,135,281.08018
1,Aquiraz/CE,-3.9063117,-38.387504,6337,7829.73991
D1,Aquiraz/CE,-3.9063117,-38.387504,85,105.02255
1,Arabutã/SC,-27.1587028,-52.1438142,413,9678.93133
D1,Arabutã/SC,-27.1587028,-52.1438142,8,187.48535
1,Aracaju/SE,-10.9162061,-37.0774655,117547,17678.68637
D1,Aracaju/SE,-10.9162061,-37.0774655,2231,335.53514
1,Aracati/CE,-4.558259,-37.767894,7313,9753.91797
D1,Aracati/CE,-4.558259,-37.767894,147,196.06536
1,Aracatu/BA,-14.4274236,-41.4604105,796,6101.95477
D1,Aracatu/BA,-14.4274236,-41.4604105,14,107.32081
1,Araci/BA,-11.3356065,-38.9573261,3423,6263.72420
D1,Araci/BA,-11.3356065,-38.9573261,47,86.00498
1,Aracitaba/MG,-21.3425,-43.378611,85,4128.21758
D1,Aracitaba/MG,-21.3425,-43.378611,8,388.53813
1,Aracoiaba/CE,-4.3702577,-38.8084313,3935,14829.47051
D1,Aracoiaba/CE,-4.3702577,-38.8084313,30,113.05822
1,Aracruz/ES,-19.8245218,-40.2735025,15351,14889.28332
D1,Aracruz/ES,-19.8245218,-40.2735025,219,212.41307
1,Aragarças/GO,-15.8957166,-52.2514538,2355,11616.43565
D1,Aragarças/GO,-15.8957166,-52.2514538,54,266.36413
1,Aragoiânia/GO,-16.9146388,-49.4499148,1013,9651.29573
D1,Aragoiânia/GO,-16.9146388,-49.4499148,20,190.54878
1,Aragominas/TO,-7.1654101,-48.525488,526,9178.15390
D1,Aragominas/TO,-7.1654101,-48.525488,9,157.04066
1,Araguacema/TO,-8.8067391,-49.5560969,630,8805.03145
D1,Araguacema/TO,-8.8067391,-49.5560969,11,153.73864
1,Araguaiana/MT,-15.729144,-51.834112,261,8394.98231
D1,Araguaiana/MT,-15.729144,-51.834112,6,192.98810
1,Araguainha/MT,-16.857016,-53.031778,25,2642.70613
1,Araguanã/MA,-2.9508403,-45.6651986,806,5182.94643
D1,Araguanã/MA,-2.9508403,-45.6651986,5,32.15227
1,Araguanã/TO,-6.5799107,-48.6428482,539,9304.33282
D1,Araguanã/TO,-6.5799107,-48.6428482,13,224.40877
1,Araguapaz/GO,-15.0937927,-50.626417,546,7015.28973
D1,Araguapaz/GO,-15.0937927,-50.626417,21,269.81884
1,Araguari/MG,-18.6511256,-48.1933764,14882,12630.59622
D1,Araguari/MG,-18.6511256,-48.1933764,382,324.20963
1,Araguatins/TO,-5.6522925,-48.1158973,2311,6389.27288
D1,Araguatins/TO,-5.6522925,-48.1158973,57,157.58916
1,Araguaçu/TO,-12.928934,-49.823134,819,9672.84753
D1,Araguaçu/TO,-12.928934,-49.823134,18,212.59006
1,Araguaína/TO,-7.193241,-48.2018597,32873,17926.06650
D1,Araguaína/TO,-7.193241,-48.2018597,435,237.21105
1,Araioses/MA,-2.890914,-41.904993,651,1391.88814
D1,Araioses/MA,-2.890914,-41.904993,13,27.79500
1,Aral Moreira/MS,-22.951141,-55.6268421,502,4070.71035
D1,Aral Moreira/MS,-22.951141,-55.6268421,11,89.19883
1,Aramari/BA,-12.0907897,-38.4985065,581,5069.36567
D1,Aramari/BA,-12.0907897,-38.4985065,12,104.70291
1,Arambaré/RS,-30.9132252,-51.4994625,179,5025.26670
D1,Arambaré/RS,-30.9132252,-51.4994625,8,224.59293
1,Arame/MA,-4.8858769,-46.0102484,1332,4065.43768
D1,Arame/MA,-4.8858769,-46.0102484,36,109.87669
1,Aramina/SP,-20.0876144,-47.789201,305,5393.45712
D1,Aramina/SP,-20.0876144,-47.789201,15,265.25199
1,Arandu/SP,-23.1345103,-49.0545651,459,7211.31186
D1,Arandu/SP,-23.1345103,-49.0545651,12,188.53103
1,Arantina/MG,-21.911667,-44.255833,156,5597.41658
D1,Arantina/MG,-21.911667,-44.255833,3,107.64263
1,Arapeí/SP,-22.6738889,-44.4477778,204,8292.68293
D1,Arapeí/SP,-22.6738889,-44.4477778,3,121.95122
1,Arapiraca/AL,-9.754866,-36.661471,27309,11718.23709
D1,Arapiraca/AL,-9.754866,-36.661471,425,182.36665
1,Arapoema/TO,-7.6575001,-49.0641484,479,7240.02418
D1,Arapoema/TO,-7.6575001,-49.0641484,10,151.14873
1,Araponga/MG,-20.666667,-42.520556,431,5098.78150
D1,Araponga/MG,-20.666667,-42.520556,6,70.98072
1,Arapongas/PR,-23.415296,-51.42592,11721,9391.07443
D1,Arapongas/PR,-23.415296,-51.42592,460,368.56021
1,Araporã/MG,-18.4318188,-49.188313,1814,26172.26951
D1,Araporã/MG,-18.4318188,-49.188313,27,389.55418
1,Arapoti/PR,-24.1457957,-49.8224605,2801,9897.52650
D1,Arapoti/PR,-24.1457957,-49.8224605,54,190.81272
1,Araputanga/MT,-15.4710868,-58.346796,1912,11279.57053
D1,Araputanga/MT,-15.4710868,-58.346796,52,306.76656
1,Arapuá/MG,-19.034444,-46.155556,249,8783.06878
D1,Arapuá/MG,-19.034444,-46.155556,2,70.54674
1,Arapuã/PR,-24.3079525,-51.7901941,193,6414.09106
D1,Arapuã/PR,-24.3079525,-51.7901941,5,166.16816
1,Araquari/SC,-26.3703324,-48.7210994,3460,8754.17468
D1,Araquari/SC,-26.3703324,-48.7210994,73,184.69791
1,Arara/PB,-6.8271895,-35.7605703,951,7022.59637
D1,Arara/PB,-6.8271895,-35.7605703,27,199.37971
1,Araranguá/SC,-28.9348832,-49.4858389,9970,14477.18065
D1,Araranguá/SC,-28.9348832,-49.4858389,231,335.42916
1,Araraquara/SP,-21.7886713,-48.1773096,19933,8363.29766
D1,Araraquara/SP,-21.7886713,-48.1773096,426,178.73701
1,Araras/SP,-22.3569477,-47.3838889,14992,11063.71674
D1,Araras/SP,-22.3569477,-47.3838889,333,245.74558
1,Ararendá/CE,-4.7504395,-40.8303611,1198,10931.65435
D1,Ararendá/CE,-4.7504395,-40.8303611,20,182.49840
1,Arari/MA,-3.4547602,-44.7772723,681,2275.15702
D1,Arari/MA,-3.4547602,-44.7772723,30,100.22718
1,Araricá/RS,-29.6168543,-50.929121,978,16946.80298
D1,Araricá/RS,-29.6168543,-50.929121,24,415.87247
1,Araripe/CE,-7.212861,-40.1359222,1257,5804.93211
D1,Araripe/CE,-7.212861,-40.1359222,17,78.50744
1,Araripina/PE,-7.5768582,-40.5038509,6470,7623.96305
D1,Araripina/PE,-7.5768582,-40.5038509,134,157.89970
1,Araruama/RJ,-22.8733203,-42.3428897,5802,4320.40389
D1,Araruama/RJ,-22.8733203,-42.3428897,382,284.45265
1,Araruna/PB,-6.5321155,-35.7397595,630,3078.72746
D1,Araruna/PB,-6.5321155,-35.7397595,16,78.18990
1,Araruna/PR,-23.9320308,-52.4976047,1676,11971.42857
D1,Araruna/PR,-23.9320308,-52.4976047,29,207.14286
1,Arataca/BA,-15.2617424,-39.4122943,747,6815.07162
D1,Arataca/BA,-15.2617424,-39.4122943,15,136.84883
1,Aratiba/RS,-27.3955734,-52.3024325,365,5897.56019
D1,Aratiba/RS,-27.3955734,-52.3024325,6,96.94619
1,Aratuba/CE,-4.4195958,-39.0463737,1297,10989.66277
D1,Aratuba/CE,-4.4195958,-39.0463737,8,67.78512
1,Aratuípe/BA,-13.077137,-39.0010786,378,4277.46973
D1,Aratuípe/BA,-13.077137,-39.0010786,9,101.84452
1,Araucária/PR,-25.5861107,-49.4051209,23898,16344.53609
D1,Araucária/PR,-25.5861107,-49.4051209,383,261.94482
1,Arauá/SE,-11.2644014,-37.6181058,1210,12164.47170
D1,Arauá/SE,-11.2644014,-37.6181058,20,201.06565
1,Araxá/MG,-19.5928536,-46.940241,12372,11526.31432
D1,Araxá/MG,-19.5928536,-46.940241,196,182.60246
1,Araçagi/PB,-6.8519969,-35.3835602,1338,7907.33408
D1,Araçagi/PB,-6.8519969,-35.3835602,17,100.46688
1,Araçariguama/SP,-23.438611,-47.061389,1628,7121.60980
D1,Araçariguama/SP,-23.438611,-47.061389,54,236.22047
1,Araçatuba/SP,-21.207992,-50.4390225,24614,12423.21922
D1,Araçatuba/SP,-21.207992,-50.4390225,728,367.43738
1,Araçaí/MG,-19.200833,-44.2475,70,2973.66185
D1,Araçaí/MG,-19.200833,-44.2475,1,42.48088
1,Araçoiaba da Serra/SP,-23.5045367,-47.6168158,2352,6763.28502
D1,Araçoiaba da Serra/SP,-23.5045367,-47.6168158,59,169.65723
1,Araçoiaba/PE,-7.7856903,-35.0898881,624,3009.69469
D1,Araçoiaba/PE,-7.7856903,-35.0898881,29,139.87363
1,Araçu/GO,-16.3561579,-49.6815269,408,11703.95869
D1,Araçu/GO,-16.3561579,-49.6815269,16,458.97877
1,Araçuaí/MG,-16.8484451,-42.0661868,1598,4352.80017
D1,Araçuaí/MG,-16.8484451,-42.0661868,38,103.50839
1,Araçás/BA,-12.2139176,-38.2026159,620,5078.63696
D1,Araçás/BA,-12.2139176,-38.2026159,10,81.91350
1,Araújos/MG,-19.948055,-45.165556,706,7509.83938
D1,Araújos/MG,-19.948055,-45.165556,9,95.73450
1,Arceburgo/MG,-21.364444,-46.939722,1018,9354.03841
D1,Arceburgo/MG,-21.364444,-46.939722,27,248.09336
1,Arco-Íris/SP,-21.7741308,-50.4668814,132,7445.00846
D1,Arco-Íris/SP,-21.7741308,-50.4668814,6,338.40948
1,Arcos/MG,-20.282223,-45.539444,4757,11780.58445
D1,Arcos/MG,-20.282223,-45.539444,109,269.93561
1,Arcoverde/PE,-8.415192,-37.057748,5518,7374.83628
D1,Arcoverde/PE,-8.415192,-37.057748,124,165.72666
1,Areado/MG,-21.3582771,-46.1476688,859,5658.38878
D1,Areado/MG,-21.3582771,-46.1476688,18,118.56926
1,Areal/RJ,-22.2314922,-43.1056264,1229,9700.84458
D1,Areal/RJ,-22.2314922,-43.1056264,41,323.62460
1,Arealva/SP,-22.0301906,-48.9111936,868,10077.78939
D1,Arealva/SP,-22.0301906,-48.9111936,14,162.54499
1,Areia Branca/RN,-4.9506652,-37.1263312,2402,8588.69382
D1,Areia Branca/RN,-4.9506652,-37.1263312,91,325.38349
1,Areia Branca/SE,-10.7591455,-37.3148072,1949,10430.26865
D1,Areia Branca/SE,-10.7591455,-37.3148072,46,246.17361
1,Areia de Baraúnas/PB,-7.1233949,-36.9446216,158,7466.91871
D1,Areia de Baraúnas/PB,-7.1233949,-36.9446216,3,141.77694
1,Areia/PB,-6.9680243,-35.6994783,1303,5751.23588
D1,Areia/PB,-6.9680243,-35.6994783,24,105.93220
1,Areial/PB,-7.0501306,-35.9245244,336,4781.55685
D1,Areial/PB,-7.0501306,-35.9245244,10,142.30824
1,Areias/SP,-22.5800929,-44.6975127,299,7674.53799
D1,Areias/SP,-22.5800929,-44.6975127,1,25.66735
1,Areiópolis/SP,-22.6758064,-48.6673653,1159,10387.16616
D1,Areiópolis/SP,-22.6758064,-48.6673653,17,152.35705
1,Arenápolis/MT,-14.4610369,-56.8432806,1704,17933.06672
D1,Arenápolis/MT,-14.4610369,-56.8432806,30,315.72301
1,Arenópolis/GO,-16.3859286,-51.55937,195,7689.27445
D1,Arenópolis/GO,-16.3859286,-51.55937,8,315.45741
1,Argirita/MG,-21.612761,-42.8371922,254,9393.49112
D1,Argirita/MG,-21.612761,-42.8371922,5,184.91124
1,Aricanduva/MG,-17.8678,-42.5569,83,1575.25147
1,Arinos/MG,-15.917223,-46.106111,668,3739.78278
D1,Arinos/MG,-15.917223,-46.106111,19,106.37107
1,Aripuanã/MT,-10.175806,-59.4439663,2735,12041.03196
D1,Aripuanã/MT,-10.175806,-59.4439663,43,189.31056
1,Ariquemes/RO,-9.9076522,-63.033069,21211,19366.70836
D1,Ariquemes/RO,-9.9076522,-63.033069,456,416.35090
1,Ariranha do Ivaí/PR,-24.3834527,-51.5876772,168,8131.65537
D1,Ariranha do Ivaí/PR,-24.3834527,-51.5876772,3,145.20813
1,Ariranha/SP,-21.18716,-48.790418,738,7560.70075
D1,Ariranha/SP,-21.18716,-48.790418,20,204.89704
1,Armazém/SC,-28.2624996,-49.0190126,1379,15743.80637
D1,Armazém/SC,-28.2624996,-49.0190126,30,342.50485
1,Armação dos Búzios/RJ,-22.7597805,-41.8875267,4362,12651.91287
D1,Armação dos Búzios/RJ,-22.7597805,-41.8875267,56,162.42713
1,Arneiroz/CE,-6.3235099,-40.1603859,619,7891.38195
D1,Arneiroz/CE,-6.3235099,-40.1603859,16,203.97756
1,Aroazes/PI,-6.1108814,-41.7886137,574,9850.69504
D1,Aroazes/PI,-6.1108814,-41.7886137,12,205.93788
1,Aroeiras do Itaim/PI,-7.2797031,-41.5629681,123,4821.63857
D1,Aroeiras do Itaim/PI,-7.2797031,-41.5629681,2,78.40063
1,Aroeiras/PB,-7.5462904,-35.7080002,1559,8155.47186
D1,Aroeiras/PB,-7.5462904,-35.7080002,9,47.08098
1,Arraial do Cabo/RJ,-22.9662839,-42.024427,700,2288.10512
D1,Arraial do Cabo/RJ,-22.9662839,-42.024427,35,114.40526
1,Arraial/PI,-6.6541632,-42.5335332,153,3241.52542
D1,Arraial/PI,-6.6541632,-42.5335332,3,63.55932
1,Arraias/TO,-12.9287788,-46.9437231,866,8220.99867
D1,Arraias/TO,-12.9287788,-46.9437231,7,66.45149
1,Arroio Grande/RS,-32.2384246,-53.0866661,1782,9770.80820
D1,Arroio Grande/RS,-32.2384246,-53.0866661,51,279.63592
1,Arroio Trinta/SC,-26.9301976,-51.334928,583,16427.16258
D1,Arroio Trinta/SC,-26.9301976,-51.334928,13,366.30037
1,Arroio do Meio/RS,-29.4020392,-51.9444993,3003,14322.50680
D1,Arroio do Meio/RS,-29.4020392,-51.9444993,42,200.31478
1,Arroio do Padre/RS,-31.4428773,-52.4228985,188,6370.72179
D1,Arroio do Padre/RS,-31.4428773,-52.4228985,3,101.66045
1,Arroio do Sal/RS,-29.549852,-49.8874395,1076,10467.94435
D1,Arroio do Sal/RS,-29.549852,-49.8874395,34,330.77148
1,Arroio do Tigre/RS,-29.334158,-53.0888935,1114,8305.37538
D1,Arroio do Tigre/RS,-29.334158,-53.0888935,19,141.65362
1,Arroio dos Ratos/RS,-30.0894524,-51.7265541,937,6609.29675
D1,Arroio dos Ratos/RS,-30.0894524,-51.7265541,31,218.66403
1,Artur Nogueira/SP,-22.572737,-47.172679,4242,7665.34153
D1,Artur Nogueira/SP,-22.572737,-47.172679,112,202.38525
1,Aruanã/GO,-14.9162439,-51.0715692,524,5182.98714
D1,Aruanã/GO,-14.9162439,-51.0715692,13,128.58556
1,Arujá/SP,-23.396266,-46.3175449,6968,7643.95493
D1,Arujá/SP,-23.396266,-46.3175449,274,300.58032
1,Arvoredo/SC,-27.0752908,-52.4571847,295,13205.01343
D1,Arvoredo/SC,-27.0752908,-52.4571847,4,179.05103
1,Arvorezinha/RS,-28.87369,-52.17808,798,7656.14506
D1,Arvorezinha/RS,-28.87369,-52.17808,25,239.85417
1,Arês/RN,-6.1969216,-35.1642968,969,6721.23188
D1,Arês/RN,-6.1969216,-35.1642968,21,145.66137
1,Ascurra/SC,-26.9569975,-49.3767752,1135,14226.62321
D1,Ascurra/SC,-26.9569975,-49.3767752,10,125.34470
1,Aspásia/SP,-20.160028,-50.728046,146,8030.80308
D1,Aspásia/SP,-20.160028,-50.728046,5,275.02750
1,Assaré/CE,-6.8746791,-39.8741385,1993,8488.79802
D1,Assaré/CE,-6.8746791,-39.8741385,37,157.59434
1,Assaí/PR,-23.3736041,-50.8454929,1285,8593.01859
D1,Assaí/PR,-23.3736041,-50.8454929,42,280.86131
1,Assis Brasil/AC,-10.9409203,-69.5672108,1719,22816.56491
D1,Assis Brasil/AC,-10.9409203,-69.5672108,24,318.55588
1,Assis Chateaubriand/PR,-24.4054826,-53.5120468,3979,11934.61308
D1,Assis Chateaubriand/PR,-24.4054826,-53.5120468,92,275.94481
1,Assis/SP,-22.6620892,-50.420623,10190,9696.72747
D1,Assis/SP,-22.6620892,-50.420623,345,328.29941
1,Assunção do Piauí/PI,-5.8610212,-41.0485091,327,4158.71805
D1,Assunção do Piauí/PI,-5.8610212,-41.0485091,8,101.74234
1,Assunção/PB,-7.073396,-36.7274003,388,9630.18119
D1,Assunção/PB,-7.073396,-36.7274003,4,99.28022
1,Astolfo Dutra/MG,-21.3132636,-42.8624102,1297,9088.99790
D1,Astolfo Dutra/MG,-21.3132636,-42.8624102,22,154.16959
1,Astorga/PR,-23.2350184,-51.6647074,2786,10629.93628
D1,Astorga/PR,-23.2350184,-51.6647074,73,278.53028
1,Atalaia do Norte/AM,-4.3658547,-70.1908742,2790,13677.81155
D1,Atalaia do Norte/AM,-4.3658547,-70.1908742,9,44.12197
1,Atalaia/AL,-9.5029595,-36.0219316,1141,2408.95176
D1,Atalaia/AL,-9.5029595,-36.0219316,46,97.11813
1,Atalaia/PR,-23.1513833,-52.0529697,402,10358.15511
D1,Atalaia/PR,-23.1513833,-52.0529697,18,463.79799
1,Atalanta/SC,-27.421916,-49.778863,419,13114.24100
D1,Atalanta/SC,-27.421916,-49.778863,11,344.28795
1,Ataléia/MG,-18.04432,-41.1110524,1085,8558.13220
D1,Ataléia/MG,-18.04432,-41.1110524,8,63.10144
1,Atibaia/SP,-23.1177393,-46.5547861,10145,7040.83616
D1,Atibaia/SP,-23.1177393,-46.5547861,235,163.09478
1,Atilio Vivacqua/ES,-20.9139369,-41.1947519,1460,12061.13176
D1,Atilio Vivacqua/ES,-20.9139369,-41.1947519,27,223.04833
1,Augustinópolis/TO,-5.4662267,-47.8897519,1457,7815.26578
D1,Augustinópolis/TO,-5.4662267,-47.8897519,27,144.82648
1,Augusto Corrêa/PA,-1.0229335,-46.6404029,1994,4290.84806
D1,Augusto Corrêa/PA,-1.0229335,-46.6404029,43,92.53083
1,Augusto Pestana/RS,-28.5148413,-53.9906433,728,11026.96153
D1,Augusto Pestana/RS,-28.5148413,-53.9906433,11,166.61618
1,Augusto de Lima/MG,-18.1092963,-44.2651945,259,5339.10534
D1,Augusto de Lima/MG,-18.1092963,-44.2651945,8,164.91445
1,Aurelino Leal/BA,-14.3167137,-39.3256107,944,8354.72166
D1,Aurelino Leal/BA,-14.3167137,-39.3256107,26,230.10886
1,Auriflama/SP,-20.6840418,-50.5554616,1814,11892.74241
D1,Auriflama/SP,-20.6840418,-50.5554616,65,426.14568
1,Aurilândia/GO,-16.6772599,-50.4641231,189,6180.51014
D1,Aurilândia/GO,-16.6772599,-50.4641231,7,228.90778
1,Aurora do Pará/PA,-2.1323199,-47.558436,1473,4636.01171
D1,Aurora do Pará/PA,-2.1323199,-47.558436,14,44.06257
1,Aurora do Tocantins/TO,-12.71045,-46.407604,187,4943.16680
D1,Aurora do Tocantins/TO,-12.71045,-46.407604,5,132.17024
1,Aurora/CE,-6.9426019,-38.9693765,1607,6529.86591
D1,Aurora/CE,-6.9426019,-38.9693765,35,142.21861
1,Aurora/SC,-27.3166417,-49.6368502,797,14024.28295
D1,Aurora/SC,-27.3166417,-49.6368502,14,246.34876
1,Autazes/AM,-3.5833283,-59.1301518,2867,7115.90966
D1,Autazes/AM,-3.5833283,-59.1301518,95,235.79052
1,Avanhandava/SP,-21.4603331,-49.9465156,864,6234.21603
D1,Avanhandava/SP,-21.4603331,-49.9465156,29,209.25031
1,Avaré/SP,-23.1045215,-48.9259103,9144,10022.79902
D1,Avaré/SP,-23.1045215,-48.9259103,207,226.89407
1,Avaí/SP,-22.1564662,-49.3316395,373,6861.66299
D1,Avaí/SP,-22.1564662,-49.3316395,11,202.35467
1,Aveiro/PA,-3.6049239,-55.3310742,631,3846.62277
D1,Aveiro/PA,-3.6049239,-55.3310742,12,73.15289
1,Avelino Lopes/PI,-10.1346855,-43.9489525,383,3381.59986
D1,Avelino Lopes/PI,-10.1346855,-43.9489525,19,167.75561
1,Avelinópolis/GO,-16.4672409,-49.7578661,278,11540.05812
D1,Avelinópolis/GO,-16.4672409,-49.7578661,13,539.64301
1,Axixá do Tocantins/TO,-5.612747,-47.77007,1019,10411.77072
D1,Axixá do Tocantins/TO,-5.612747,-47.77007,17,173.69981
1,Axixá/MA,-2.8379465,-44.0561053,191,1567.75835
D1,Axixá/MA,-2.8379465,-44.0561053,6,49.24895
1,Açailândia/MA,-4.9514278,-47.4844564,5234,4626.90393
D1,Açailândia/MA,-4.9514278,-47.4844564,201,177.68584
1,Açu/RN,-5.5836157,-36.9139541,6157,10545.69745
D1,Açu/RN,-5.5836157,-36.9139541,139,238.07893
1,Açucena/MG,-19.073056,-42.546666,744,7941.92997
D1,Açucena/MG,-19.073056,-42.546666,29,309.56447
1,Babaçulândia/TO,-7.2034355,-47.761613,779,7303.58147
D1,Babaçulândia/TO,-7.2034355,-47.761613,5,46.87793
1,Bacabal/MA,-4.2318132,-44.781167,4945,4718.96173
D1,Bacabal/MA,-4.2318132,-44.781167,176,167.95496
1,Bacabeira/MA,-2.9775747,-44.3155943,332,1924.41456
D1,Bacabeira/MA,-2.9775747,-44.3155943,6,34.77858
1,Bacuri/MA,-1.728894,-45.1417148,561,3007.39788
D1,Bacuri/MA,-1.728894,-45.1417148,4,21.44312
1,Bacurituba/MA,-2.7082587,-44.7381309,117,2063.49206
D1,Bacurituba/MA,-2.7082587,-44.7381309,1,17.63668
1,Bady Bassitt/SP,-20.9178969,-49.4517911,3057,17211.86870
D1,Bady Bassitt/SP,-20.9178969,-49.4517911,68,382.86133
1,Baependi/MG,-21.959162,-44.8899249,1409,7338.92390
D1,Baependi/MG,-21.959162,-44.8899249,13,67.71186
1,Bagre/PA,-1.8994498,-50.2103844,910,2905.02793
D1,Bagre/PA,-1.8994498,-50.2103844,12,38.30806
1,Bagé/RS,-31.3314264,-54.1062808,9534,7857.58437
D1,Bagé/RS,-31.3314264,-54.1062808,265,218.40359
1,Baianópolis/BA,-12.3067564,-44.5383591,813,5836.74348
D1,Baianópolis/BA,-12.3067564,-44.5383591,11,78.97193
1,Baixa Grande do Ribeiro/PI,-7.862861,-45.2113289,2398,20546.65410
D1,Baixa Grande do Ribeiro/PI,-7.862861,-45.2113289,28,239.91089
1,Baixa Grande/BA,-11.9630941,-40.1657537,713,3486.72307
D1,Baixa Grande/BA,-11.9630941,-40.1657537,11,53.79236
1,Baixio/CE,-6.7303544,-38.7170095,511,8107.25052
D1,Baixio/CE,-6.7303544,-38.7170095,11,174.52007
1,Baixo Guandu/ES,-19.5138322,-41.0182089,3413,10962.99627
D1,Baixo Guandu/ES,-19.5138322,-41.0182089,71,228.06116
1,Baião/PA,-2.7903479,-49.6702845,737,1520.87332
D1,Baião/PA,-2.7903479,-49.6702845,34,70.16241
1,Balbinos/SP,-21.9006253,-49.3583966,340,5729.69329
D1,Balbinos/SP,-21.9006253,-49.3583966,4,67.40816
1,Baldim/MG,-19.2913568,-43.9558262,603,7727.79700
D1,Baldim/MG,-19.2913568,-43.9558262,19,243.49609
1,Baliza/GO,-16.1978119,-52.542789,308,5833.33333
D1,Baliza/GO,-16.1978119,-52.542789,7,132.57576
1,Balneário Arroio do Silva/SC,-28.9815269,-49.4189932,1984,14772.89650
D1,Balneário Arroio do Silva/SC,-28.9815269,-49.4189932,54,402.08488
1,Balneário Barra do Sul/SC,-26.459842,-48.6061471,1383,12532.85002
D1,Balneário Barra do Sul/SC,-26.459842,-48.6061471,38,344.35886
1,Balneário Camboriú/SC,-26.9924395,-48.6339782,23750,16289.88450
D1,Balneário Camboriú/SC,-26.9924395,-48.6339782,358,245.54857
1,Balneário Gaivota/SC,-29.1553098,-49.5808712,1228,10905.86146
D1,Balneário Gaivota/SC,-29.1553098,-49.5808712,33,293.07282
1,Balneário Pinhal/RS,-30.2482978,-50.234585,696,4845.78431
D1,Balneário Pinhal/RS,-30.2482978,-50.234585,43,299.38035
1,Balneário Piçarras/SC,-26.7638889,-48.6716667,4557,19169.61131
D1,Balneário Piçarras/SC,-26.7638889,-48.6716667,49,206.12485
1,Balneário Rincão/SC,-28.8235718,-49.2241642,1335,10312.06550
D1,Balneário Rincão/SC,-28.8235718,-49.2241642,41,316.70014
1,Balsa Nova/PR,-25.5842234,-49.6312741,1478,11289.33700
D1,Balsa Nova/PR,-25.5842234,-49.6312741,28,213.87107
1,Balsas/MA,-7.53214,-46.037163,9643,10052.22613
D1,Balsas/MA,-7.53214,-46.037163,181,188.68121
1,Bambuí/MG,-20.0131996,-45.9777034,1528,6393.84049
D1,Bambuí/MG,-20.0131996,-45.9777034,24,100.42681
1,Banabuiú/CE,-5.3046404,-38.919766,1985,10873.13760
D1,Banabuiú/CE,-5.3046404,-38.919766,19,104.07537
1,Bananal/SP,-22.6828195,-44.3221095,955,8687.34649
D1,Bananal/SP,-22.6828195,-44.3221095,3,27.29009
1,Bananeiras/PB,-6.7537682,-35.6338343,1282,6027.55184
D1,Bananeiras/PB,-6.7537682,-35.6338343,23,108.13861
1,Bandeira do Sul/MG,-21.728056,-46.385555,494,8549.67117
D1,Bandeira do Sul/MG,-21.728056,-46.385555,12,207.68432
1,Bandeira/MG,-15.884444,-40.559167,454,9525.80781
D1,Bandeira/MG,-15.884444,-40.559167,9,188.83760
1,Bandeirante/SC,-26.7677402,-53.6397596,335,12651.05740
D1,Bandeirante/SC,-26.7677402,-53.6397596,4,151.05740
1,Bandeirantes do Tocantins/TO,-7.7635698,-48.579148,460,12806.23608
D1,Bandeirantes do Tocantins/TO,-7.7635698,-48.579148,7,194.87751
1,Bandeirantes/MS,-19.9179623,-54.3646768,553,7610.78998
D1,Bandeirantes/MS,-19.9179623,-54.3646768,10,137.62731
1,Bandeirantes/PR,-23.107788,-50.370407,4505,14434.01365
D1,Bandeirantes/PR,-23.107788,-50.370407,116,371.66384
1,Bannach/PA,-7.3508505,-50.4064531,641,19650.52115
D1,Bannach/PA,-7.3508505,-50.4064531,3,91.96812
1,Banzaê/BA,-10.5827616,-38.6122305,1043,7877.64350
D1,Banzaê/BA,-10.5827616,-38.6122305,8,60.42296
1,Baraúna/PB,-6.643394,-36.2531932,652,13134.56890
D1,Baraúna/PB,-6.643394,-36.2531932,9,181.30540
1,Baraúna/RN,-5.0775002,-37.61752,1107,3850.83661
D1,Baraúna/RN,-5.0775002,-37.61752,23,80.00835
1,Barbacena/MG,-21.2254524,-43.7735087,7607,5504.18222
D1,Barbacena/MG,-21.2254524,-43.7735087,251,181.61558
1,Barbalha/CE,-7.3121067,-39.3036427,6202,10129.35258
D1,Barbalha/CE,-7.3121067,-39.3036427,133,217.22088
1,Barbosa Ferraz/PR,-24.0287182,-52.00811,1084,9487.13461
D1,Barbosa Ferraz/PR,-24.0287182,-52.00811,31,271.31104
1,Barbosa/SP,-21.265661,-49.951816,471,6306.90948
D1,Barbosa/SP,-21.265661,-49.951816,12,160.68559
1,Barcarena/PA,-1.5107945,-48.6190679,11009,8666.66142
D1,Barcarena/PA,-1.5107945,-48.6190679,213,167.68089
1,Barcelona/RN,-5.9514918,-35.9260284,106,2653.98097
D1,Barcelona/RN,-5.9514918,-35.9260284,4,100.15023
1,Barcelos/AM,-0.9729214,-62.925635,4304,15572.76214
D1,Barcelos/AM,-0.9729214,-62.925635,59,213.47420
1,Bariri/SP,-22.0746355,-48.7394852,2530,7115.13583
D1,Bariri/SP,-22.0746355,-48.7394852,106,298.10451
1,Barra Bonita/SC,-26.6526364,-53.4419581,173,10478.49788
D1,Barra Bonita/SC,-26.6526364,-53.4419581,2,121.13870
1,Barra Bonita/SP,-22.490859,-48.558349,3046,8431.60051
D1,Barra Bonita/SP,-22.490859,-48.558349,85,235.28760
1,Barra D'Alcântara/PI,-6.5209258,-42.1071089,136,3441.29555
D1,Barra D'Alcântara/PI,-6.5209258,-42.1071089,4,101.21457
1,Barra Funda/RS,-27.9230048,-53.0401045,562,22030.57624
D1,Barra Funda/RS,-27.9230048,-53.0401045,12,470.40376
1,Barra Longa/MG,-20.2833541,-43.0423516,375,7477.56730
D1,Barra Longa/MG,-20.2833541,-43.0423516,9,179.46162
1,Barra Mansa/RJ,-22.5394843,-44.1735129,15017,8124.63142
D1,Barra Mansa/RJ,-22.5394843,-44.1735129,565,305.68134
1,Barra Velha/SC,-26.6338203,-48.6835001,3991,13365.70663
D1,Barra Velha/SC,-26.6338203,-48.6835001,92,308.10449
1,Barra da Estiva/BA,-13.6269662,-41.3278287,2230,10935.66104
D1,Barra da Estiva/BA,-13.6269662,-41.3278287,21,102.98156
1,Barra de Guabiraba/PE,-8.4173522,-35.6626669,379,2611.99173
D1,Barra de Guabiraba/PE,-8.4173522,-35.6626669,15,103.37698
1,Barra de Santa Rosa/PB,-6.7218007,-36.0564638,1521,9814.80287
D1,Barra de Santa Rosa/PB,-6.7218007,-36.0564638,11,70.98148
1,Barra de Santana/PB,-7.5230865,-35.9988518,483,5785.12397
D1,Barra de Santana/PB,-7.5230865,-35.9988518,6,71.86489
1,Barra de Santo Antônio/AL,-9.4038098,-35.5117693,422,2626.33806
D1,Barra de Santo Antônio/AL,-9.4038098,-35.5117693,26,161.81230
1,Barra de São Francisco/ES,-18.7570902,-40.8916119,4642,10320.37173
D1,Barra de São Francisco/ES,-18.7570902,-40.8916119,190,422.41935
1,Barra de São Miguel/AL,-9.8261357,-35.8837777,527,6290.28408
D1,Barra de São Miguel/AL,-9.8261357,-35.8837777,7,83.55216
1,Barra de São Miguel/PB,-7.7528088,-36.3170996,505,8326.46331
D1,Barra de São Miguel/PB,-7.7528088,-36.3170996,7,115.41632
1,Barra do Bugres/MT,-15.0683712,-57.1853688,2896,8202.33948
D1,Barra do Bugres/MT,-15.0683712,-57.1853688,69,195.42867
1,Barra do Chapéu/SP,-24.472203,-49.023784,286,4965.27778
D1,Barra do Chapéu/SP,-24.472203,-49.023784,2,34.72222
1,Barra do Choça/BA,-14.8638173,-40.5761637,2001,6411.61203
D1,Barra do Choça/BA,-14.8638173,-40.5761637,28,89.71771
1,Barra do Corda/MA,-5.496823,-45.248496,5690,6429.95977
D1,Barra do Corda/MA,-5.496823,-45.248496,56,63.28256
1,Barra do Garças/MT,-15.8916033,-52.2615413,7884,12896.04973
D1,Barra do Garças/MT,-15.8916033,-52.2615413,274,448.18844
1,Barra do Guarita/RS,-27.1888016,-53.7147086,111,3408.04421
D1,Barra do Guarita/RS,-27.1888016,-53.7147086,7,214.92171
1,Barra do Jacaré/PR,-23.1151788,-50.1813945,206,7407.40741
D1,Barra do Jacaré/PR,-23.1151788,-50.1813945,1,35.95829
1,Barra do Mendes/BA,-11.8053298,-42.057037,698,5045.90472
D1,Barra do Mendes/BA,-11.8053298,-42.057037,12,86.74908
1,Barra do Ouro/TO,-7.7113784,-47.6743925,142,3065.63040
D1,Barra do Ouro/TO,-7.7113784,-47.6743925,6,129.53368
1,Barra do Piraí/RJ,-22.4703403,-43.8263256,5918,5873.12929
D1,Barra do Piraí/RJ,-22.4703403,-43.8263256,346,343.37660
1,Barra do Quaraí/RS,-30.208947,-57.5505128,404,9557.60587
D1,Barra do Quaraí/RS,-30.208947,-57.5505128,6,141.94464
1,Barra do Ribeiro/RS,-30.2930206,-51.301437,1025,7561.22750
D1,Barra do Ribeiro/RS,-30.2930206,-51.301437,47,346.70994
1,Barra do Rio Azul/RS,-27.4101581,-52.4117471,97,5861.02719
D1,Barra do Rio Azul/RS,-27.4101581,-52.4117471,1,60.42296
1,Barra do Rocha/BA,-14.2090974,-39.6004395,407,7252.31646
D1,Barra do Rocha/BA,-14.2090974,-39.6004395,7,124.73272
1,Barra do Turvo/SP,-24.756421,-48.5056942,565,7403.03983
D1,Barra do Turvo/SP,-24.756421,-48.5056942,18,235.84906
1,Barra dos Coqueiros/SE,-10.9075694,-37.0386249,6732,21765.27643
D1,Barra dos Coqueiros/SE,-10.9075694,-37.0386249,89,287.74652
1,Barra/BA,-11.0892702,-43.1420453,2062,3824.89334
D1,Barra/BA,-11.0892702,-43.1420453,43,79.76257
1,Barracão/PR,-26.252395,-53.6349576,1161,11258.72770
D1,Barracão/PR,-26.252395,-53.6349576,34,329.71296
1,Barracão/RS,-27.6728964,-51.4582928,440,8371.38508
D1,Barracão/RS,-27.6728964,-51.4582928,16,304.41400
1,Barras/PI,-4.2446153,-42.2920241,4774,10117.62213
D1,Barras/PI,-4.2446153,-42.2920241,88,186.49995
1,Barreira/CE,-4.2883361,-38.641094,1451,6428.03349
D1,Barreira/CE,-4.2883361,-38.641094,39,172.77278
1,Barreiras do Piauí/PI,-9.9224524,-45.4763776,70,2088.30549
D1,Barreiras do Piauí/PI,-9.9224524,-45.4763776,1,29.83294
1,Barreiras/BA,-12.1440031,-44.9967406,17714,11284.59946
D1,Barreiras/BA,-12.1440031,-44.9967406,291,185.37984
1,Barreirinha/AM,-2.798863,-57.067897,2396,7376.16599
D1,Barreirinha/AM,-2.798863,-57.067897,62,190.86907
1,Barreirinhas/MA,-2.7541271,-42.8259693,2115,3345.61906
D1,Barreirinhas/MA,-2.7541271,-42.8259693,36,56.94671
1,Barreiros/PE,-8.8159644,-35.1831905,765,1788.88785
D1,Barreiros/PE,-8.8159644,-35.1831905,59,137.96651
1,Barretos/SP,-20.5531437,-48.5697509,13922,11334.08775
D1,Barretos/SP,-20.5531437,-48.5697509,417,339.48532
1,Barrinha/SP,-21.1898849,-48.1550642,1507,4541.89271
D1,Barrinha/SP,-21.1898849,-48.1550642,58,174.80410
1,Barro Alto/BA,-11.7618025,-41.9094904,854,5672.91085
D1,Barro Alto/BA,-11.7618025,-41.9094904,12,79.71303
1,Barro Alto/GO,-14.9696025,-48.9190985,1281,11228.96213
D1,Barro Alto/GO,-14.9696025,-48.9190985,16,140.25245
1,Barro Duro/PI,-5.8180139,-42.5106589,683,9719.65277
D1,Barro Duro/PI,-5.8180139,-42.5106589,11,156.53906
1,Barro Preto/BA,-14.8068289,-39.4727588,580,10646.10866
D1,Barro Preto/BA,-14.8068289,-39.4727588,10,183.55360
1,Barro/CE,-7.1713587,-38.7742136,1656,7276.56209
D1,Barro/CE,-7.1713587,-38.7742136,33,145.00395
1,Barrocas/BA,-11.5165,-39.099282894736845,738,4582.42782
D1,Barrocas/BA,-11.5165,-39.099282894736845,23,142.81279
1,Barrolândia/TO,-9.837246,-48.7264346,747,13218.89931
D1,Barrolândia/TO,-9.837246,-48.7264346,20,353.91966
1,Barroquinha/CE,-3.0200371,-41.1339229,1181,7850.30577
D1,Barroquinha/CE,-3.0200371,-41.1339229,25,166.17921
1,Barros Cassal/RS,-29.094938,-52.5832366,701,6269.00376
D1,Barros Cassal/RS,-29.094938,-52.5832366,12,107.31533
1,Barroso/MG,-21.187222,-43.976111,1792,8575.39360
D1,Barroso/MG,-21.187222,-43.976111,47,224.91267
1,Barueri/SP,-23.5112184,-46.8764612,27799,10036.39226
D1,Barueri/SP,-23.5112184,-46.8764612,989,357.06291
1,Barão de Antonina/SP,-23.6295651,-49.5632104,389,11120.64037
D1,Barão de Antonina/SP,-23.6295651,-49.5632104,8,228.70212
1,Barão de Cocais/MG,-19.9452437,-43.4870298,3540,10771.00955
D1,Barão de Cocais/MG,-19.9452437,-43.4870298,60,182.55948
1,Barão de Cotegipe/RS,-27.6214694,-52.3765316,712,10755.28701
D1,Barão de Cotegipe/RS,-27.6214694,-52.3765316,7,105.74018
1,Barão de Grajaú/MA,-6.7542591,-43.0263477,437,2309.23695
D1,Barão de Grajaú/MA,-6.7542591,-43.0263477,2,10.56859
1,Barão de Melgaço/MT,-16.195776,-55.9668049,356,4360.60755
D1,Barão de Melgaço/MT,-16.195776,-55.9668049,14,171.48457
1,Barão de Monte Alto/MG,-21.244722,-42.2375,326,6088.90549
D1,Barão de Monte Alto/MG,-21.244722,-42.2375,12,224.13149
1,Barão do Triunfo/RS,-30.3909877,-51.7375349,445,5918.34020
D1,Barão do Triunfo/RS,-30.3909877,-51.7375349,6,79.79785
1,Barão/RS,-29.372474,-51.494908,592,9545.30797
D1,Barão/RS,-29.372474,-51.494908,8,128.99065
1,Bastos/SP,-21.9222474,-50.7317727,1288,6147.09111
D1,Bastos/SP,-21.9222474,-50.7317727,34,162.26793
1,Bataguassu/MS,-21.715899,-52.422058,3035,13011.78992
D1,Bataguassu/MS,-21.715899,-52.422058,35,150.05359
1,Batalha/AL,-9.6733809,-37.1265481,1074,5856.69102
D1,Batalha/AL,-9.6733809,-37.1265481,15,81.79736
1,Batalha/PI,-4.022391,-42.0780926,1057,3928.63780
D1,Batalha/PI,-4.022391,-42.0780926,31,115.22022
1,Batatais/SP,-20.892867,-47.592149,2935,4660.20959
D1,Batatais/SP,-20.892867,-47.592149,146,231.81963
1,Batayporã/MS,-22.2976466,-53.2685608,1002,8828.97172
D1,Batayporã/MS,-22.2976466,-53.2685608,17,149.79293
1,Baturité/CE,-4.3290203,-38.8821055,3923,10915.11088
D1,Baturité/CE,-4.3290203,-38.8821055,75,208.67533
1,Bauru/SP,-22.3218102,-49.0705863,43632,11503.38653
D1,Bauru/SP,-22.3218102,-49.0705863,983,259.16366
1,Bayeux/PB,-7.1301631,-34.936532,6974,7174.67568
D1,Bayeux/PB,-7.1301631,-34.936532,231,237.64699
1,Baía Formosa/RN,-6.3691885,-35.0063741,348,3733.10448
D1,Baía Formosa/RN,-6.3691885,-35.0063741,8,85.81849
1,Baía da Traição/PB,-6.691258,-34.9371244,1267,13929.19965
D1,Baía da Traição/PB,-6.691258,-34.9371244,12,131.92612
1,Bebedouro/SP,-20.949077,-48.479083,3657,4715.36329
D1,Bebedouro/SP,-20.949077,-48.479083,142,183.09587
1,Beberibe/CE,-4.1810469,-38.1298101,4691,8695.24922
D1,Beberibe/CE,-4.1810469,-38.1298101,98,181.65304
1,Bela Cruz/CE,-3.0529129,-40.167582,3327,10167.47143
D1,Bela Cruz/CE,-3.0529129,-40.167582,69,210.86731
1,Bela Vista da Caroba/PR,-25.8792818,-53.6672545,171,4946.48539
D1,Bela Vista da Caroba/PR,-25.8792818,-53.6672545,6,173.56089
1,Bela Vista de Goiás/GO,-16.9692949,-48.9513071,2406,7890.59425
D1,Bela Vista de Goiás/GO,-16.9692949,-48.9513071,65,213.17067
1,Bela Vista de Minas/MG,-19.8289721,-43.0973688,776,7561.87878
D1,Bela Vista de Minas/MG,-19.8289721,-43.0973688,22,214.38316
1,Bela Vista do Maranhão/MA,-3.7416367,-45.2514192,213,1888.46529
D1,Bela Vista do Maranhão/MA,-3.7416367,-45.2514192,17,150.72258
1,Bela Vista do Paraíso/PR,-22.9948493,-51.1907996,1785,11591.66180
D1,Bela Vista do Paraíso/PR,-22.9948493,-51.1907996,60,389.63569
1,Bela Vista do Piauí/PI,-7.9716353,-41.8715061,261,6476.42680
D1,Bela Vista do Piauí/PI,-7.9716353,-41.8715061,6,148.88337
1,Bela Vista do Toldo/SC,-26.274625,-50.466354,79,1241.74788
D1,Bela Vista do Toldo/SC,-26.274625,-50.466354,3,47.15498
1,Bela Vista/MS,-22.107327,-56.5317344,955,3860.92581
D1,Bela Vista/MS,-22.107327,-56.5317344,28,113.19992
1,Belford Roxo/RJ,-22.7667284,-43.4033603,20239,3944.31690
D1,Belford Roxo/RJ,-22.7667284,-43.4033603,690,134.47199
1,Belmiro Braga/MG,-21.9486291,-43.413564,198,5781.02190
D1,Belmiro Braga/MG,-21.9486291,-43.413564,3,87.59124
1,Belmonte/BA,-15.8630837,-38.8792845,1047,4467.29530
D1,Belmonte/BA,-15.8630837,-38.8792845,23,98.13543
1,Belmonte/SC,-26.8448262,-53.578916,250,9228.49760
D1,Belmonte/SC,-26.8448262,-53.578916,5,184.56995
1,Belo Campo/BA,-15.0338286,-41.2585109,843,4927.23128
D1,Belo Campo/BA,-15.0338286,-41.2585109,14,81.82828
1,Belo Horizonte/MG,-19.9227318,-43.9450948,226544,8984.26532
D1,Belo Horizonte/MG,-19.9227318,-43.9450948,5503,218.23757
1,Belo Jardim/PE,-8.3338293,-36.4176419,3623,4724.39918
D1,Belo Jardim/PE,-8.3338293,-36.4176419,110,143.44022
1,Belo Monte/AL,-9.8269944,-37.2787165,369,5499.25484
D1,Belo Monte/AL,-9.8269944,-37.2787165,9,134.12817
1,Belo Oriente/MG,-19.2232523,-42.4807033,2537,9398.38483
D1,Belo Oriente/MG,-19.2232523,-42.4807033,61,225.97614
1,Belo Vale/MG,-20.407778,-44.024167,833,10791.55331
D1,Belo Vale/MG,-20.407778,-44.024167,10,129.55046
1,Belterra/PA,-2.636091,-54.937392,1454,8150.68109
D1,Belterra/PA,-2.636091,-54.937392,25,140.14238
1,Belágua/MA,-3.1604031,-43.5085052,407,5406.48247
D1,Belágua/MA,-3.1604031,-43.5085052,3,39.85122
1,Belém de Maria/PE,-8.6242497,-35.8388934,248,2045.86702
D1,Belém de Maria/PE,-8.6242497,-35.8388934,6,49.49678
1,Belém do Brejo do Cruz/PB,-6.1880727,-37.5332267,506,6885.29052
D1,Belém do Brejo do Cruz/PB,-6.1880727,-37.5332267,5,68.03647
1,Belém do Piauí/PI,-7.3767305,-40.9712156,454,12656.81628
D1,Belém do Piauí/PI,-7.3767305,-40.9712156,7,195.14915
1,Belém do São Francisco/PE,-8.7517707,-38.9625715,693,3342.98119
D1,Belém do São Francisco/PE,-8.7517707,-38.9625715,10,48.23927
1,Belém/AL,-9.5715351,-36.492841,114,2661.06443
D1,Belém/AL,-9.5715351,-36.492841,4,93.37068
1,Belém/PA,-1.45056,-48.4682453,102033,6803.82838
D1,Belém/PA,-1.45056,-48.4682453,4880,325.41122
1,Belém/PB,-6.6967586,-35.5369626,2039,11516.52076
D1,Belém/PB,-6.6967586,-35.5369626,43,242.86925
1,Beneditinos/PI,-5.4565671,-42.3605061,1160,11076.10045
D1,Beneditinos/PI,-5.4565671,-42.3605061,38,362.83777
1,Benedito Leite/MA,-7.2173453,-44.5523331,296,5250.08868
D1,Benedito Leite/MA,-7.2173453,-44.5523331,2,35.47357
1,Benedito Novo/SC,-26.7840657,-49.3629511,993,8433.12102
D1,Benedito Novo/SC,-26.7840657,-49.3629511,18,152.86624
1,Benevides/PA,-1.3555577,-48.252235,3854,6043.78372
D1,Benevides/PA,-1.3555577,-48.252235,100,156.81847
1,Benjamin Constant do Sul/RS,-27.5105555,-52.6007689,156,7967.31359
1,Benjamin Constant/AM,-4.3782748,-70.0290603,2691,6124.95732
D1,Benjamin Constant/AM,-4.3782748,-70.0290603,87,198.01980
1,Bento Fernandes/RN,-5.6926846,-35.8207423,148,2678.73303
D1,Bento Fernandes/RN,-5.6926846,-35.8207423,3,54.29864
1,Bento Gonçalves/RS,-29.1654014,-51.5197627,17368,14259.09050
D1,Bento Gonçalves/RS,-29.1654014,-51.5197627,298,244.65736
1,Bento de Abreu/SP,-21.2707225,-50.8120444,302,10049.91681
1,Bequimão/MA,-2.4495376,-44.7884889,276,1295.83549
D1,Bequimão/MA,-2.4495376,-44.7884889,18,84.51101
1,Berilo/MG,-16.9515764,-42.4643732,145,1221.36119
D1,Berilo/MG,-16.9515764,-42.4643732,1,8.42318
1,Berizal/MG,-15.6118785,-41.7417382,172,3610.41142
D1,Berizal/MG,-15.6118785,-41.7417382,1,20.99076
1,Bernardino Batista/PB,-6.4532173,-38.5495418,258,7296.38009
1,Bernardino de Campos/SP,-23.0140216,-49.4760724,670,6004.66033
D1,Bernardino de Campos/SP,-23.0140216,-49.4760724,17,152.35705
1,Bernardo Sayão/TO,-7.8794244,-48.8968905,572,12859.71223
D1,Bernardo Sayão/TO,-7.8794244,-48.8968905,7,157.37410
1,Bernardo do Mearim/MA,-4.6315929,-44.7617508,292,4808.16730
D1,Bernardo do Mearim/MA,-4.6315929,-44.7617508,6,98.79796
1,Bertioga/SP,-23.848568,-46.139586,5391,8329.34196
D1,Bertioga/SP,-23.848568,-46.139586,144,222.48660
1,Bertolínia/PI,-7.6372159,-43.9540611,847,15380.42491
D1,Bertolínia/PI,-7.6372159,-43.9540611,10,181.58707
1,Bertópolis/MG,-17.063333,-40.573889,347,7532.01650
1,Beruri/AM,-3.9007135,-61.3717319,2215,11023.73961
D1,Beruri/AM,-3.9007135,-61.3717319,33,164.23630
1,Betim/MG,-19.968056,-44.198333,28970,6513.27386
D1,Betim/MG,-19.968056,-44.198333,1155,259.67661
1,Betânia do Piauí/PI,-8.1460635,-40.7961387,157,2528.18035
D1,Betânia do Piauí/PI,-8.1460635,-40.7961387,2,32.20612
1,Betânia/PE,-8.2742779,-38.0351767,472,3697.61065
D1,Betânia/PE,-8.2742779,-38.0351767,13,101.84097
1,Bezerros/PE,-8.2372132,-35.7558262,3738,6139.94744
D1,Bezerros/PE,-8.2372132,-35.7558262,113,185.61104
1,Bias Fortes/MG,-21.605833,-43.756944,111,3334.33464
D1,Bias Fortes/MG,-21.605833,-43.756944,3,90.11715
1,Bicas/MG,-21.7213723,-43.0604327,1377,9461.31648
D1,Bicas/MG,-21.7213723,-43.0604327,43,295.45142
1,Biguaçu/SC,-27.4961277,-48.6542432,10790,15528.30786
D1,Biguaçu/SC,-27.4961277,-48.6542432,161,231.70135
1,Bilac/SP,-21.403962,-50.47464,831,10237.77258
D1,Bilac/SP,-21.403962,-50.47464,13,160.15769
1,Biquinhas/MG,-18.783611,-45.502222,118,4723.77902
D1,Biquinhas/MG,-18.783611,-45.502222,1,40.03203
1,Birigui/SP,-21.2908491,-50.34144,13972,11188.07204
D1,Birigui/SP,-21.2908491,-50.34144,477,381.95751
1,Biritiba Mirim/SP,-23.5697765,-46.0407456,1338,4062.42410
D1,Biritiba Mirim/SP,-23.5697765,-46.0407456,85,258.07627
1,Biritinga/BA,-11.6227908,-38.8066738,473,2959.20921
D1,Biritinga/BA,-11.6227908,-38.8066738,7,43.79379
1,Bituruna/PR,-26.161281,-51.5533319,1089,6640.24390
D1,Bituruna/PR,-26.161281,-51.5533319,16,97.56098
1,Blumenau/SC,-26.9195567,-49.0658025,49662,13724.28183
D1,Blumenau/SC,-26.9195567,-49.0658025,549,151.71823
1,Boa Esperança do Iguaçu/PR,-25.6362851,-53.2139114,148,5991.90283
1,Boa Esperança do Sul/SP,-21.9930206,-48.3917372,1041,6931.68198
D1,Boa Esperança do Sul/SP,-21.9930206,-48.3917372,17,113.19750
1,Boa Esperança/ES,-18.5395472,-40.2904088,1536,10177.57752
D1,Boa Esperança/ES,-18.5395472,-40.2904088,39,258.41505
1,Boa Esperança/MG,-21.0901253,-45.5660195,3971,9873.44290
D1,Boa Esperança/MG,-21.0901253,-45.5660195,104,258.58425
1,Boa Esperança/PR,-24.2411024,-52.7860277,385,9513.21967
D1,Boa Esperança/PR,-24.2411024,-52.7860277,15,370.64492
1,Boa Hora/PI,-4.4094627,-42.1255341,548,8041.08584
D1,Boa Hora/PI,-4.4094627,-42.1255341,6,88.04109
1,Boa Nova/BA,-14.365907,-40.2063056,876,7105.19912
D1,Boa Nova/BA,-14.365907,-40.2063056,15,121.66437
1,Boa Ventura de São Roque/PR,-24.88177,-51.5441292,421,6614.29694
D1,Boa Ventura de São Roque/PR,-24.88177,-51.5441292,5,78.55460
1,Boa Ventura/PB,-7.4202462,-38.2156782,417,7857.54664
D1,Boa Ventura/PB,-7.4202462,-38.2156782,8,150.74430
1,Boa Viagem/CE,-5.1261877,-39.7300055,3850,7054.25362
D1,Boa Viagem/CE,-5.1261877,-39.7300055,94,172.23372
1,Boa Vista da Aparecida/PR,-25.4357216,-53.4067721,821,10888.59416
D1,Boa Vista da Aparecida/PR,-25.4357216,-53.4067721,26,344.82759
1,Boa Vista das Missões/RS,-27.6677983,-53.3127622,211,10086.04207
D1,Boa Vista das Missões/RS,-27.6677983,-53.3127622,4,191.20459
1,Boa Vista do Buricá/RS,-27.6687782,-54.1111913,811,12082.83671
D1,Boa Vista do Buricá/RS,-27.6687782,-54.1111913,9,134.08820
1,Boa Vista do Cadeado/RS,-28.5783827,-53.8123759,172,6969.20583
D1,Boa Vista do Cadeado/RS,-28.5783827,-53.8123759,2,81.03728
1,Boa Vista do Gurupi/MA,-1.7981168,-46.3071882,15,178.95490
D1,Boa Vista do Gurupi/MA,-1.7981168,-46.3071882,4,47.72131
1,Boa Vista do Incra/RS,-28.8195551,-53.3866624,249,9518.34862
D1,Boa Vista do Incra/RS,-28.8195551,-53.3866624,4,152.90520
1,Boa Vista do Ramos/AM,-2.9716927,-57.5869819,953,4855.80353
D1,Boa Vista do Ramos/AM,-2.9716927,-57.5869819,11,56.04810
1,Boa Vista do Sul/RS,-29.3510488,-51.6779679,296,10655.14759
D1,Boa Vista do Sul/RS,-29.3510488,-51.6779679,3,107.99136
1,Boa Vista do Tupim/BA,-12.6605988,-40.6083594,254,1370.67616
D1,Boa Vista do Tupim/BA,-12.6605988,-40.6083594,8,43.17090
1,Boa Vista/PB,-7.2620711,-36.2415161,716,10033.63229
D1,Boa Vista/PB,-7.2620711,-36.2415161,12,168.16143
1,Boa Vista/RR,2.8208478,-60.6719582,83705,19946.28883
D1,Boa Vista/RR,2.8208478,-60.6719582,1309,311.92512
1,Boca da Mata/AL,-9.6452054,-36.2116658,1786,6528.73227
D1,Boca da Mata/AL,-9.6452054,-36.2116658,43,157.18672
1,Boca do Acre/AM,-8.7553487,-67.3930873,2611,7538.61701
D1,Boca do Acre/AM,-8.7553487,-67.3930873,24,69.29407
1,Bocaina de Minas/MG,-22.167778,-44.394722,176,3458.43977
D1,Bocaina de Minas/MG,-22.167778,-44.394722,7,137.55158
1,Bocaina do Sul/SC,-27.745494,-49.942279,370,10607.79817
D1,Bocaina do Sul/SC,-27.745494,-49.942279,3,86.00917
1,Bocaina/PI,-6.9445939,-41.3224599,271,6015.53829
D1,Bocaina/PI,-6.9445939,-41.3224599,4,88.79023
1,Bocaina/SP,-22.1421831,-48.522276,1220,9797.62287
D1,Bocaina/SP,-22.1421831,-48.522276,30,240.92515
1,Bocaiúva do Sul/PR,-25.206591,-49.114131,1675,12758.01660
D1,Bocaiúva do Sul/PR,-25.206591,-49.114131,15,114.25089
1,Bocaiúva/MG,-17.1160208,-43.8122678,2202,4381.56638
D1,Bocaiúva/MG,-17.1160208,-43.8122678,57,113.41929
1,Bodocó/PE,-7.777592,-39.933797,1896,4940.33040
D1,Bodocó/PE,-7.777592,-39.933797,29,75.56413
1,Bodoquena/MS,-20.5508775,-56.6769653,472,6021.94437
D1,Bodoquena/MS,-20.5508775,-56.6769653,14,178.61699
1,Bodó/RN,-5.9866104,-36.4134824,161,7328.17478
1,Bofete/SP,-23.1019554,-48.2610535,689,5779.71647
D1,Bofete/SP,-23.1019554,-48.2610535,13,109.05125
1,Boituva/SP,-23.2838893,-47.6738231,5433,8738.94161
D1,Boituva/SP,-23.2838893,-47.6738231,154,247.70790
1,Bom Conselho/PE,-9.169191,-36.685683,1807,3705.37454
D1,Bom Conselho/PE,-9.169191,-36.685683,60,123.03402
1,Bom Despacho/MG,-19.7375242,-45.2517288,4104,8042.64325
D1,Bom Despacho/MG,-19.7375242,-45.2517288,74,145.01842
1,Bom Jardim da Serra/SC,-28.3380324,-49.625588,588,12321.87762
D1,Bom Jardim da Serra/SC,-28.3380324,-49.625588,4,83.82230
1,Bom Jardim de Goiás/GO,-16.2062659,-52.172793,749,8445.14601
D1,Bom Jardim de Goiás/GO,-16.2062659,-52.172793,15,169.12842
1,Bom Jardim de Minas/MG,-21.9476466,-44.1906033,459,7106.36321
D1,Bom Jardim de Minas/MG,-21.9476466,-44.1906033,3,46.44682
1,Bom Jardim/MA,-3.54129,-45.606004,1392,3328.39176
D1,Bom Jardim/MA,-3.54129,-45.606004,47,112.38104
1,Bom Jardim/PE,-7.7961572,-35.5871696,1524,3811.61994
D1,Bom Jardim/PE,-7.7961572,-35.5871696,67,167.57122
1,Bom Jardim/RJ,-22.1515328,-42.4186683,1538,5569.23523
D1,Bom Jardim/RJ,-22.1515328,-42.4186683,41,148.46466
1,Bom Jesus da Lapa/BA,-13.250571,-43.410754,5277,7575.14857
D1,Bom Jesus da Lapa/BA,-13.250571,-43.410754,68,97.61419
1,Bom Jesus da Penha/MG,-21.0165299,-46.5226644,617,14538.17154
D1,Bom Jesus da Penha/MG,-21.0165299,-46.5226644,14,329.87747
1,Bom Jesus da Serra/BA,-14.3724084,-40.5047119,428,4357.12104
D1,Bom Jesus da Serra/BA,-14.3724084,-40.5047119,8,81.44151
1,Bom Jesus das Selvas/MA,-4.4878075,-46.8526639,3120,9025.94961
D1,Bom Jesus das Selvas/MA,-4.4878075,-46.8526639,24,69.43038
1,Bom Jesus de Goiás/GO,-18.2174587,-49.739721,2696,10511.54086
D1,Bom Jesus de Goiás/GO,-18.2174587,-49.739721,104,405.48971
1,Bom Jesus do Amparo/MG,-19.7045132,-43.4752911,227,3701.28811
D1,Bom Jesus do Amparo/MG,-19.7045132,-43.4752911,6,97.83140
1,Bom Jesus do Araguaia/MT,-12.1725897,-51.5074425,1004,14971.66716
D1,Bom Jesus do Araguaia/MT,-12.1725897,-51.5074425,16,238.59231
1,Bom Jesus do Galho/MG,-19.8283191,-42.3162256,609,4097.69883
D1,Bom Jesus do Galho/MG,-19.8283191,-42.3162256,27,181.67138
1,Bom Jesus do Itabapoana/RJ,-21.1341025,-41.680095,3182,8553.07368
D1,Bom Jesus do Itabapoana/RJ,-21.1341025,-41.680095,83,223.10029
1,Bom Jesus do Norte/ES,-21.1254776,-41.6711646,1038,10419.59446
D1,Bom Jesus do Norte/ES,-21.1254776,-41.6711646,25,250.95362
1,Bom Jesus do Oeste/SC,-26.6929713,-53.0967453,182,8508.64890
D1,Bom Jesus do Oeste/SC,-26.6929713,-53.0967453,6,280.50491
1,Bom Jesus do Sul/PR,-26.1922507,-53.6002033,421,12007.98631
D1,Bom Jesus do Sul/PR,-26.1922507,-53.6002033,5,142.61266
1,Bom Jesus do Tocantins/PA,-5.0471796,-48.5978362,759,4433.92920
D1,Bom Jesus do Tocantins/PA,-5.0471796,-48.5978362,25,146.04510
1,Bom Jesus do Tocantins/TO,-8.96306,-48.165043,129,2575.87859
D1,Bom Jesus do Tocantins/TO,-8.96306,-48.165043,3,59.90415
1,Bom Jesus dos Perdões/SP,-23.1353864,-46.4648052,1952,7512.02617
D1,Bom Jesus dos Perdões/SP,-23.1353864,-46.4648052,23,88.51260
1,Bom Jesus/PB,-6.8156725,-38.6551841,153,5941.74757
D1,Bom Jesus/PB,-6.8156725,-38.6551841,3,116.50485
1,Bom Jesus/PI,-9.0711644,-44.3583926,3365,13254.81546
D1,Bom Jesus/PI,-9.0711644,-44.3583926,36,141.80486
1,Bom Jesus/RN,-5.9887544,-35.5821149,777,7567.93611
D1,Bom Jesus/RN,-5.9887544,-35.5821149,15,146.09915
1,Bom Jesus/RS,-28.6692723,-50.4346894,853,7542.66513
D1,Bom Jesus/RS,-28.6692723,-50.4346894,19,168.00778
1,Bom Jesus/SC,-26.7350604,-52.3916519,402,13150.14720
D1,Bom Jesus/SC,-26.7350604,-52.3916519,7,228.98266
1,Bom Lugar/MA,-4.3728019,-45.0366054,464,2822.72783
D1,Bom Lugar/MA,-4.3728019,-45.0366054,7,42.58426
1,Bom Princípio do Piauí/PI,-3.1912777,-41.6430185,129,2282.78181
D1,Bom Princípio do Piauí/PI,-3.1912777,-41.6430185,12,212.35180
1,Bom Princípio/RS,-29.489788,-51.3566782,1838,12893.72150
D1,Bom Princípio/RS,-29.489788,-51.3566782,26,182.39214
1,Bom Progresso/RS,-27.5490948,-53.8655601,129,6793.04897
D1,Bom Progresso/RS,-27.5490948,-53.8655601,3,157.97788
1,Bom Repouso/MG,-22.4657069,-46.1485376,915,8683.68606
D1,Bom Repouso/MG,-22.4657069,-46.1485376,19,180.31698
1,Bom Retiro do Sul/RS,-29.6000007,-51.9359243,985,7949.95964
D1,Bom Retiro do Sul/RS,-29.6000007,-51.9359243,28,225.98870
1,Bom Retiro/SC,-27.798993,-49.486994,737,7326.04374
D1,Bom Retiro/SC,-27.798993,-49.486994,15,149.10537
1,Bom Sucesso de Itararé/SP,-24.3190016,-49.1446207,158,3965.86345
D1,Bom Sucesso de Itararé/SP,-24.3190016,-49.1446207,5,125.50201
1,Bom Sucesso do Sul/PR,-26.0749256,-52.8348629,393,12077.44315
D1,Bom Sucesso do Sul/PR,-26.0749256,-52.8348629,7,215.11985
1,Bom Sucesso/MG,-21.0323516,-44.7598082,940,5338.78571
D1,Bom Sucesso/MG,-21.0323516,-44.7598082,11,62.47515
1,Bom Sucesso/PB,-6.4458948,-37.9297662,370,7465.69814
D1,Bom Sucesso/PB,-6.4458948,-37.9297662,4,80.71025
1,Bom Sucesso/PR,-23.7088019,-51.7651297,812,11488.39842
D1,Bom Sucesso/PR,-23.7088019,-51.7651297,15,212.22411
1,Bombinhas/SC,-27.1519159,-48.4875691,3395,16695.35284
D1,Bombinhas/SC,-27.1519159,-48.4875691,56,275.38726
1,Bonfim do Piauí/PI,-9.1648678,-42.8734415,348,6121.37203
D1,Bonfim do Piauí/PI,-9.1648678,-42.8734415,7,123.13105
1,Bonfim/MG,-20.3266626, -44.2386157,380,5539.35860
D1,Bonfim/MG,-20.3266626, -44.2386157,13,189.50437
1,Bonfim/RR,3.3613818,-59.8427241,2236,17806.80099
D1,Bonfim/RR,3.3613818,-59.8427241,26,207.05583
1,Bonfinópolis de Minas/MG,-16.5660011,-45.98645,459,8431.30051
D1,Bonfinópolis de Minas/MG,-16.5660011,-45.98645,12,220.42616
1,Bonfinópolis/GO,-16.6172709,-48.9615701,453,4566.99264
D1,Bonfinópolis/GO,-16.6172709,-48.9615701,19,191.55157
1,Boninal/BA,-12.7095183,-41.8299984,599,4146.47653
D1,Boninal/BA,-12.7095183,-41.8299984,7,48.45632
1,Bonito de Minas/MG,-15.3191266,-44.7544,56,492.56751
1,Bonito de Santa Fé/PB,-7.3143332,-38.5146677,448,3726.50141
D1,Bonito de Santa Fé/PB,-7.3143332,-38.5146677,11,91.49892
1,Bonito/BA,-11.9665473,-41.2649896,845,5004.73821
D1,Bonito/BA,-11.9665473,-41.2649896,11,65.15044
1,Bonito/MS,-21.1264766,-56.4902208,2879,12974.31275
D1,Bonito/MS,-21.1264766,-56.4902208,61,274.89860
1,Bonito/PA,-1.3605722,-47.3049907,382,2310.94979
D1,Bonito/PA,-1.3605722,-47.3049907,13,78.64489
1,Bonito/PE,-8.4721161,-35.7314591,910,2387.38621
D1,Bonito/PE,-8.4721161,-35.7314591,39,102.31655
1,Bonópolis/GO,-13.649331,-49.8329113,160,3561.09504
D1,Bonópolis/GO,-13.649331,-49.8329113,1,22.25684
1,Boqueirão do Leão/RS,-29.30332,-52.4296817,567,7361.72423
D1,Boqueirão do Leão/RS,-29.30332,-52.4296817,30,389.50922
1,Boqueirão do Piauí/PI,-4.4850148,-42.1095161,660,10270.77498
D1,Boqueirão do Piauí/PI,-4.4850148,-42.1095161,10,155.61780
1,Boqueirão/PB,-7.487004,-36.130887,1712,9580.30218
D1,Boqueirão/PB,-7.487004,-36.130887,35,195.85898
1,Boquim/SE,-11.1450175,-37.6204228,2536,9427.85977
D1,Boquim/SE,-11.1450175,-37.6204228,63,234.20945
1,Boquira/BA,-12.8184859,-42.7270883,605,2814.34619
D1,Boquira/BA,-12.8184859,-42.7270883,11,51.16993
1,Boracéia/SP,-22.195355,-48.7801925,875,17974.52753
D1,Boracéia/SP,-22.195355,-48.7801925,22,451.93098
1,Borba/AM,-4.3934778,-59.5947721,2171,5200.24911
D1,Borba/AM,-4.3934778,-59.5947721,60,143.71946
1,Borborema/PB,-6.8066718,-35.5990191,382,7225.26953
D1,Borborema/PB,-6.8066718,-35.5990191,12,226.97182
1,Borborema/SP,-21.6212706,-49.074135,1474,9119.02994
D1,Borborema/SP,-21.6212706,-49.074135,46,284.58302
1,Borda da Mata/MG,-22.274167,-46.165278,1467,7479.35148
D1,Borda da Mata/MG,-22.274167,-46.165278,42,214.13276
1,Borebi/SP,-22.5700178,-48.9714871,226,8423.40663
D1,Borebi/SP,-22.5700178,-48.9714871,3,111.81513
1,Borrazópolis/PR,-23.9393362,-51.5850786,776,12051.56080
D1,Borrazópolis/PR,-23.9393362,-51.5850786,22,341.66796
1,Borá/SP,-22.2701088,-50.544407,105,12529.83294
D1,Borá/SP,-22.2701088,-50.544407,1,119.33174
1,Bossoroca/RS,-28.7278885,-54.9120278,390,6285.25383
D1,Bossoroca/RS,-28.7278885,-54.9120278,22,354.55278
1,Botelhos/MG,-21.65,-46.394722,1609,10763.26176
D1,Botelhos/MG,-21.65,-46.394722,19,127.09880
1,Botucatu/SP,-22.8879628,-48.4410712,13121,8857.76008
D1,Botucatu/SP,-22.8879628,-48.4410712,259,174.84642
1,Botumirim/MG,-16.862778,-43.011111,227,3610.05089
D1,Botumirim/MG,-16.862778,-43.011111,4,63.61323
1,Botuporã/BA,-13.3744752,-42.5198469,200,1974.52858
D1,Botuporã/BA,-13.3744752,-42.5198469,3,29.61793
1,Botuverá/SC,-27.200749,-49.068892,885,16629.08681
D1,Botuverá/SC,-27.200749,-49.068892,8,150.31943
1,Bozano/RS,-28.3669953,-53.7705165,239,11321.64851
D1,Bozano/RS,-28.3669953,-53.7705165,7,331.59640
1,Braga/RS,-27.617348,-53.740514,336,10147.99154
D1,Braga/RS,-27.617348,-53.740514,9,271.82120
1,Braganey/PR,-24.8179919,-53.118506,435,8082.49721
D1,Braganey/PR,-24.8179919,-53.118506,7,130.06317
1,Bragança Paulista/SP,-22.9520235,-46.5418586,16285,9549.47136
D1,Bragança Paulista/SP,-22.9520235,-46.5418586,432,253.32340
1,Bragança/PA,-1.0573967,-46.7635406,3991,3095.86236
D1,Bragança/PA,-1.0573967,-46.7635406,141,109.37524
1,Branquinha/AL,-9.2478057,-36.0152009,510,4875.71702
D1,Branquinha/AL,-9.2478057,-36.0152009,9,86.04207
1,Brasil Novo/PA,-3.3055853,-52.539198,1857,12394.04659
D1,Brasil Novo/PA,-3.3055853,-52.539198,42,280.31769
1,Brasileira/PI,-4.131182,-41.7824969,577,6912.66323
D1,Brasileira/PI,-4.131182,-41.7824969,14,167.72493
1,Brasilândia de Minas/MG,-17.0096469,-46.0087183,1189,7099.35515
D1,Brasilândia de Minas/MG,-17.0096469,-46.0087183,17,101.50466
1,Brasilândia do Sul/PR,-24.1975793,-53.527551,376,14545.45455
D1,Brasilândia do Sul/PR,-24.1975793,-53.527551,9,348.16248
1,Brasilândia do Tocantins/TO,-8.3886619,-48.4842729,241,10900.04523
D1,Brasilândia do Tocantins/TO,-8.3886619,-48.4842729,5,226.14202
1,Brasilândia/MS,-21.255575,-52.0365617,1107,9339.40774
D1,Brasilândia/MS,-21.255575,-52.0365617,18,151.86029
1,Brasiléia/AC,-11.0010413,-68.7487894,2837,10624.67231
D1,Brasiléia/AC,-11.0010413,-68.7487894,38,142.31144
1,Brasnorte/MT,-12.1227151,-58.0050109,1931,9587.88481
D1,Brasnorte/MT,-12.1227151,-58.0050109,33,163.85303
1,Brasília de Minas/MG,-16.2075114,-44.430559,1005,3101.37324
D1,Brasília de Minas/MG,-16.2075114,-44.430559,8,24.68755
1,Brasília/DF,-15.7934036,-47.8823172,421119,13783.91038
D1,Brasília/DF,-15.7934036,-47.8823172,9051,296.25396
1,Brazabrantes/GO,-16.4291635,-49.3858216,454,12119.59423
D1,Brazabrantes/GO,-16.4291635,-49.3858216,3,80.08542
1,Brazópolis/MG,-22.4742842,-45.6165577,778,5399.02845
D1,Brazópolis/MG,-22.4742842,-45.6165577,29,201.24913
1,Braço do Norte/SC,-28.2728633,-49.1622712,8014,23656.86622
D1,Braço do Norte/SC,-28.2728633,-49.1622712,93,274.53064
1,Braço do Trombudo/SC,-27.358578,-49.882145,608,16131.59989
D1,Braço do Trombudo/SC,-27.358578,-49.882145,4,106.12895
1,Braúna/SP,-21.5015319,-50.3175246,499,8691.86553
D1,Braúna/SP,-21.5015319,-50.3175246,20,348.37136
1,Braúnas/MG,-19.055556,-42.716111,218,4571.18893
D1,Braúnas/MG,-19.055556,-42.716111,7,146.78130
1,Brejetuba/ES,-20.1465817,-41.2902303,1602,12891.28511
D1,Brejetuba/ES,-20.1465817,-41.2902303,14,112.65792
1,Brejinho de Nazaré/TO,-11.0205883,-48.5722906,514,9313.28139
D1,Brejinho de Nazaré/TO,-11.0205883,-48.5722906,13,235.54992
1,Brejinho/PE,-7.3482153,-37.28538,645,8613.78205
D1,Brejinho/PE,-7.3482153,-37.28538,20,267.09402
1,Brejinho/RN,-6.1957907,-35.3583019,1242,9712.98976
D1,Brejinho/RN,-6.1957907,-35.3583019,15,117.30664
1,Brejo Alegre/SP,-21.1671191,-50.1850393,346,11976.46244
D1,Brejo Alegre/SP,-21.1671191,-50.1850393,13,449.98269
1,Brejo Grande do Araguaia/PA,-5.7011449,-48.4037308,804,10912.05212
D1,Brejo Grande do Araguaia/PA,-5.7011449,-48.4037308,4,54.28882
1,Brejo Grande/SE,-10.4287358,-36.4667918,434,5195.73806
D1,Brejo Grande/SE,-10.4287358,-36.4667918,12,143.66096
1,Brejo Santo/CE,-7.4909841,-38.9859152,8103,16257.37330
D1,Brejo Santo/CE,-7.4909841,-38.9859152,152,304.96369
1,Brejo da Madre de Deus/PE,-8.1409718,-36.3712527,2023,3949.24353
D1,Brejo da Madre de Deus/PE,-8.1409718,-36.3712527,49,95.65642
1,Brejo de Areia/MA,-4.3316785,-45.5833334,305,3383.62547
D1,Brejo de Areia/MA,-4.3316785,-45.5833334,9,99.84469
1,Brejo do Cruz/PB,-6.32926065,-37.48746163303929,1566,11023.51119
D1,Brejo do Cruz/PB,-6.32926065,-37.48746163303929,21,147.82486
1,Brejo do Piauí/PI,-8.207583,-42.8359849,115,2988.56549
D1,Brejo do Piauí/PI,-8.207583,-42.8359849,4,103.95010
1,Brejo dos Santos/PB,-6.3769367,-37.8243125,655,10133.04455
D1,Brejo dos Santos/PB,-6.3769367,-37.8243125,7,108.29208
1,Brejo/MA,-3.6804397,-42.7529313,886,2417.39652
D1,Brejo/MA,-3.6804397,-42.7529313,20,54.56877
1,Brejolândia/BA,-12.4843845,-43.9611861,142,1337.35167
D1,Brejolândia/BA,-12.4843845,-43.9611861,11,103.59766
1,Brejão/PE,-9.029146,-36.566034,455,5062.86859
D1,Brejão/PE,-9.029146,-36.566034,7,77.89029
1,Brejões/BA,-13.1033754,-39.7909837,709,4985.23414
D1,Brejões/BA,-13.1033754,-39.7909837,10,70.31360
1,Breu Branco/PA,-3.7785073,-49.5684795,761,1130.22040
D1,Breu Branco/PA,-3.7785073,-49.5684795,44,65.34783
1,Breves/PA,-1.68036,-50.479085,4017,3881.27192
D1,Breves/PA,-1.68036,-50.479085,116,112.08054
1,Britânia/GO,-15.2427599,-51.1602061,533,9194.41090
D1,Britânia/GO,-15.2427599,-51.1602061,5,86.25151
1,Brochier/RS,-29.556766,-51.5963047,405,7934.95298
D1,Brochier/RS,-29.556766,-51.5963047,5,97.96238
1,Brodowski/SP,-20.984532,-47.657217,2572,10175.25814
D1,Brodowski/SP,-20.984532,-47.657217,58,229.45761
1,Brotas de Macaúbas/BA,-12.0019007,-42.6257506,136,1342.54689
D1,Brotas de Macaúbas/BA,-12.0019007,-42.6257506,3,29.61500
1,Brotas/SP,-22.2840884,-48.1267265,789,3202.63030
D1,Brotas/SP,-22.2840884,-48.1267265,44,178.60042
1,Brumadinho/MG,-20.143611,-44.2,3441,8461.61412
D1,Brumadinho/MG,-20.143611,-44.2,75,184.42925
1,Brumado/BA,-14.29507325,-41.659307508575985,8890,13202.64350
D1,Brumado/BA,-14.29507325,-41.659307508575985,180,267.32012
1,Brunópolis/SC,-27.310953,-50.837585,262,11064.18919
D1,Brunópolis/SC,-27.310953,-50.837585,8,337.83784
1,Brusque/SC,-27.0964628,-48.9136323,26120,18970.28811
D1,Brusque/SC,-27.0964628,-48.9136323,272,197.54664
1,Brás Pires/MG,-20.8483109,-43.2430524,203,4728.62800
D1,Brás Pires/MG,-20.8483109,-43.2430524,7,163.05614
1,Bueno Brandão/MG,-22.441976,-46.3517971,774,7042.12538
D1,Bueno Brandão/MG,-22.441976,-46.3517971,24,218.36048
1,Buenos Aires/PE,-7.7218931,-35.326587,335,2539.80288
D1,Buenos Aires/PE,-7.7218931,-35.326587,21,159.21152
1,Buenópolis/MG,-17.8756607,-44.1749365,305,2946.00599
D1,Buenópolis/MG,-17.8756607,-44.1749365,11,106.24940
1,Buerarema/BA,-14.9571177,-39.3008035,1303,7117.88485
D1,Buerarema/BA,-14.9571177,-39.3008035,39,213.04490
1,Bugre/MG,-19.4257687,-42.2556,363,9113.73337
D1,Bugre/MG,-19.4257687,-42.2556,12,301.28044
1,Bujari/AC,-9.8309656,-67.9520886,1132,10863.72361
D1,Bujari/AC,-9.8309656,-67.9520886,17,163.14779
1,Bujaru/PA,-1.5169239,-48.0410699,1406,4777.92503
D1,Bujaru/PA,-1.5169239,-48.0410699,38,129.13311
1,Buri/SP,-23.79849,-48.598924,2322,11630.35312
D1,Buri/SP,-23.79849,-48.598924,73,365.63987
1,Buritama/SP,-21.0664017,-50.1448077,2200,12730.74475
D1,Buritama/SP,-21.0664017,-50.1448077,60,347.20213
1,Buriti Alegre/GO,-18.1377879,-49.0404411,942,9932.51792
D1,Buriti Alegre/GO,-18.1377879,-49.0404411,30,316.32223
1,Buriti Bravo/MA,-5.8391884,-43.8367876,1395,5827.31108
D1,Buriti Bravo/MA,-5.8391884,-43.8367876,14,58.48198
1,Buriti de Goiás/GO,-16.180644,-50.4287479,211,8521.80937
D1,Buriti de Goiás/GO,-16.180644,-50.4287479,8,323.10178
1,Buriti do Tocantins/TO,-5.3187439,-48.2256609,877,7628.07689
D1,Buriti do Tocantins/TO,-5.3187439,-48.2256609,16,139.16674
1,Buriti dos Lopes/PI,-3.1776723,-41.8707444,1277,6447.21563
D1,Buriti dos Lopes/PI,-3.1776723,-41.8707444,32,161.55904
1,Buriti dos Montes/PI,-5.3136171,-41.0971256,618,7478.21878
D1,Buriti dos Montes/PI,-5.3136171,-41.0971256,8,96.80542
1,Buriti/MA,-3.9430944,-42.9244281,752,2611.29245
D1,Buriti/MA,-3.9430944,-42.9244281,8,27.77971
1,Buriticupu/MA,-4.3227472,-46.4516989,3308,4532.56238
D1,Buriticupu/MA,-4.3227472,-46.4516989,48,65.76874
1,Buritinópolis/GO,-14.4589282,-46.4293104,166,5056.35090
D1,Buritinópolis/GO,-14.4589282,-46.4293104,3,91.37984
1,Buritirama/BA,-10.7148421,-43.6362327,844,3966.91107
D1,Buritirama/BA,-10.7148421,-43.6362327,22,103.40290
1,Buritirana/MA,-5.5897455,-47.0148915,441,2851.23165
D1,Buritirana/MA,-5.5897455,-47.0148915,24,155.16907
1,Buritis/MG,-15.621389,-46.423889,1656,6620.55731
D1,Buritis/MG,-15.621389,-46.423889,34,135.92932
1,Buritis/RO,-10.2054937,-63.8281954,4581,11351.47190
D1,Buritis/RO,-10.2054937,-63.8281954,72,178.41213
1,Buritizal/SP,-20.1933264,-47.7097165,265,5870.62472
D1,Buritizal/SP,-20.1933264,-47.7097165,10,221.53301
1,Buritizeiro/MG,-17.3667765,-44.9647781,1269,4512.64180
D1,Buritizeiro/MG,-17.3667765,-44.9647781,31,110.23790
1,Butiá/RS,-30.1256795,-51.9692224,1980,9450.17182
D1,Butiá/RS,-30.1256795,-51.9692224,54,257.73196
1,Buíque/PE,-8.6239732,-37.157296,2241,3803.52688
D1,Buíque/PE,-8.6239732,-37.157296,41,69.58706
1,Bálsamo/SP,-20.7343722,-49.5807484,1505,16467.88489
D1,Bálsamo/SP,-20.7343722,-49.5807484,59,645.58486
0,CASO SEM LOCALIZAÇÃO DEFINIDA/BA,-13.415069300066518,-38.14174656569957,10668,71.72698
D0,CASO SEM LOCALIZAÇÃO DEFINIDA/BA,-13.415069300066518,-38.14174656569957,233,1.56659
0,CASO SEM LOCALIZAÇÃO DEFINIDA/CE,-3.3445126297392798,-38.624961942434304,10471,114.66175
0,CASO SEM LOCALIZAÇÃO DEFINIDA/ES,-20.30989267097039,-39.81745156645774,4079,101.50175
D0,CASO SEM LOCALIZAÇÃO DEFINIDA/ES,-20.30989267097039,-39.81745156645774,207,5.15098
0,CASO SEM LOCALIZAÇÃO DEFINIDA/GO,-16.701590966270153,-49.164524059025034,2050,29.20913
D0,CASO SEM LOCALIZAÇÃO DEFINIDA/GO,-16.701590966270153,-49.164524059025034,72,1.02588
0,CASO SEM LOCALIZAÇÃO DEFINIDA/MG,-19.97049116501593,-43.8852149072783,4266,20.15231
D0,CASO SEM LOCALIZAÇÃO DEFINIDA/MG,-19.97049116501593,-43.8852149072783,303,1.43135
0,CASO SEM LOCALIZAÇÃO DEFINIDA/MT,-15.54791153961863,-56.17143998972475,2570,73.75592
D0,CASO SEM LOCALIZAÇÃO DEFINIDA/MT,-15.54791153961863,-56.17143998972475,200,5.73976
0,CASO SEM LOCALIZAÇÃO DEFINIDA/PR,-25.69415946385943,-48.10141676336737,6407,56.03484
D0,CASO SEM LOCALIZAÇÃO DEFINIDA/PR,-25.69415946385943,-48.10141676336737,166,1.45182
0,CASO SEM LOCALIZAÇÃO DEFINIDA/RR,2.813328208465927,-60.663338675861986,2597,428.71694
D0,CASO SEM LOCALIZAÇÃO DEFINIDA/RR,2.813328208465927,-60.663338675861986,15,2.47622
0,CASO SEM LOCALIZAÇÃO DEFINIDA/SP,-24.30968974555485,-46.21366504207253,893,1.94473
1,Caapiranga/AM,-3.3188884,-61.2096404,645,4855.83076
D1,Caapiranga/AM,-3.3188884,-61.2096404,22,165.62524
1,Caaporã/PB,-7.510234,-34.9154114,1843,8394.44318
D1,Caaporã/PB,-7.510234,-34.9154114,31,141.19790
1,Caarapó/MS,-22.6349267,-54.8240903,3927,12836.26973
D1,Caarapó/MS,-22.6349267,-54.8240903,46,150.36119
1,Caatiba/BA,-14.9782759,-40.4092325,861,13270.65351
D1,Caatiba/BA,-14.9782759,-40.4092325,11,169.54377
1,Cabaceiras do Paraguaçu/BA,-12.5377868,-39.1901339,556,2940.08778
D1,Cabaceiras do Paraguaçu/BA,-12.5377868,-39.1901339,4,21.15171
1,Cabaceiras/PB,-7.4899156,-36.2860501,359,6341.63575
D1,Cabaceiras/PB,-7.4899156,-36.2860501,3,52.99417
1,Cabeceira Grande/MG,-16.0297,-47.0906,388,5552.37550
D1,Cabeceira Grande/MG,-16.0297,-47.0906,5,71.55123
1,Cabeceiras do Piauí/PI,-4.4733665,-42.3098716,540,5079.96237
D1,Cabeceiras do Piauí/PI,-4.4733665,-42.3098716,10,94.07338
1,Cabeceiras/GO,-15.7995459,-46.9264991,352,4374.84464
D1,Cabeceiras/GO,-15.7995459,-46.9264991,16,198.85657
1,Cabedelo/PB,-6.97324,-34.8351609,8570,12462.37294
D1,Cabedelo/PB,-6.97324,-34.8351609,189,274.84113
1,Cabixi/RO,-13.4956065,-60.5424442,793,15285.27371
D1,Cabixi/RO,-13.4956065,-60.5424442,20,385.50501
1,Cabo Frio/RJ,-22.8804369,-42.0189227,12646,5489.23942
D1,Cabo Frio/RJ,-22.8804369,-42.0189227,668,289.95824
1,Cabo Verde/MG,-21.4743338,-46.3964995,628,4461.81172
D1,Cabo Verde/MG,-21.4743338,-46.3964995,9,63.94316
1,Cabo de Santo Agostinho/PE,-8.2838945,-35.0320984,7538,3607.66521
D1,Cabo de Santo Agostinho/PE,-8.2838945,-35.0320984,468,223.98346
1,Cabreúva/SP,-23.3075813,-47.1324417,3454,6849.23358
D1,Cabreúva/SP,-23.3075813,-47.1324417,86,170.53679
1,Cabrobó/PE,-8.5083701,-39.3106961,2184,6329.88436
D1,Cabrobó/PE,-8.5083701,-39.3106961,26,75.35577
1,Cabrália Paulista/SP,-22.4562909,-49.3385645,383,9026.63210
D1,Cabrália Paulista/SP,-22.4562909,-49.3385645,6,141.40938
1,Cacaulândia/RO,-10.3380043,-62.9007231,808,12888.81799
D1,Cacaulândia/RO,-10.3380043,-62.9007231,10,159.51507
1,Cacequi/RS,-29.8838059,-54.8273443,459,3694.75972
D1,Cacequi/RS,-29.8838059,-54.8273443,7,56.34710
1,Cachoeira Alta/GO,-18.7618269,-50.9432431,1443,11392.70488
D1,Cachoeira Alta/GO,-18.7618269,-50.9432431,20,157.90305
1,Cachoeira Dourada/GO,-18.4934204,-49.481062,407,5067.86203
D1,Cachoeira Dourada/GO,-18.4934204,-49.481062,25,311.29374
1,Cachoeira Dourada/MG,-18.517136,-49.5002062,144,5321.50776
D1,Cachoeira Dourada/MG,-18.517136,-49.5002062,2,73.90983
1,Cachoeira Grande/MA,-2.9290492,-44.0573223,287,3028.06499
D1,Cachoeira Grande/MA,-2.9290492,-44.0573223,7,73.85524
1,Cachoeira Paulista/SP,-22.666498,-45.015384,2331,6941.42521
D1,Cachoeira Paulista/SP,-22.666498,-45.015384,35,104.22560
1,Cachoeira da Prata/MG,-19.524723,-44.453056,226,6293.51156
D1,Cachoeira da Prata/MG,-19.524723,-44.453056,11,306.32136
1,Cachoeira de Goiás/GO,-16.6688414,-50.6435997,77,5737.70492
D1,Cachoeira de Goiás/GO,-16.6688414,-50.6435997,2,149.03130
1,Cachoeira de Minas/MG,-22.3554043,-45.7796324,653,5639.51982
D1,Cachoeira de Minas/MG,-22.3554043,-45.7796324,9,77.72692
1,Cachoeira de Pajeú/MG,-15.965833,-41.496666,490,5189.57848
D1,Cachoeira de Pajeú/MG,-15.965833,-41.496666,10,105.90976
1,Cachoeira do Arari/PA,-1.0143572,-48.9621089,492,2044.54787
D1,Cachoeira do Arari/PA,-1.0143572,-48.9621089,22,91.42287
1,Cachoeira do Piriá/PA,-1.7599443,-46.5446954,876,2531.13352
D1,Cachoeira do Piriá/PA,-1.7599443,-46.5446954,5,14.44711
1,Cachoeira do Sul/RS,-30.0474778,-52.8905413,9587,11710.17113
D1,Cachoeira do Sul/RS,-30.0474778,-52.8905413,149,181.99807
1,Cachoeira dos Índios/PB,-6.9259193,-38.6742159,778,7549.73314
D1,Cachoeira dos Índios/PB,-6.9259193,-38.6742159,14,135.85638
1,Cachoeira/BA,-12.5998256,-38.9665918,1530,4558.04808
D1,Cachoeira/BA,-12.5998256,-38.9665918,26,77.45703
1,Cachoeiras de Macacu/RJ,-22.4626861,-42.6534414,2777,4682.73106
D1,Cachoeiras de Macacu/RJ,-22.4626861,-42.6534414,91,153.44924
1,Cachoeirinha/PE,-8.4906364,-36.2338963,569,2775.47437
D1,Cachoeirinha/PE,-8.4906364,-36.2338963,29,141.45651
1,Cachoeirinha/RS,-29.9493353,-51.0898927,13809,10521.94453
D1,Cachoeirinha/RS,-29.9493353,-51.0898927,403,307.07101
1,Cachoeirinha/TO,-6.118647,-47.9208885,117,5122.59194
D1,Cachoeirinha/TO,-6.118647,-47.9208885,2,87.56567
1,Cachoeiro de Itapemirim/ES,-20.848084,-41.11129,25818,12259.89961
D1,Cachoeiro de Itapemirim/ES,-20.848084,-41.11129,548,260.22252
1,Cacimba de Areia/PB,-7.1288513,-37.1575194,51,1380.24357
D1,Cacimba de Areia/PB,-7.1288513,-37.1575194,4,108.25440
1,Cacimba de Dentro/PB,-6.6425101,-35.7929304,1126,6554.89580
D1,Cacimba de Dentro/PB,-6.6425101,-35.7929304,33,192.10618
1,Cacimbas/PB,-7.2125451,-37.0593398,224,3111.54327
D1,Cacimbas/PB,-7.2125451,-37.0593398,7,97.23573
1,Cacimbinhas/AL,-9.401212,-36.991082,698,6410.13867
D1,Cacimbinhas/AL,-9.401212,-36.991082,9,82.65222
1,Cacique Doble/RS,-27.7700117,-51.6616409,529,10425.69965
D1,Cacique Doble/RS,-27.7700117,-51.6616409,10,197.08317
1,Cacoal/RO,-11.4333,-61.4420502,13236,15409.87042
D1,Cacoal/RO,-11.4333,-61.4420502,269,313.18035
1,Caconde/SP,-21.527995,-46.643659,1232,6481.14051
D1,Caconde/SP,-21.527995,-46.643659,30,157.81998
1,Caculé/BA,-14.4990734,-42.2233006,1670,7170.15156
D1,Caculé/BA,-14.4990734,-42.2233006,12,51.52205
1,Caetanos/BA,-14.3387456,-40.9085971,644,4408.54326
D1,Caetanos/BA,-14.3387456,-40.9085971,10,68.45564
1,Caetanópolis/MG,-19.2947496,-44.4138386,890,7575.11278
D1,Caetanópolis/MG,-19.2947496,-44.4138386,15,127.67044
1,Caetité/BA,-14.0691776,-42.4852428,2473,4841.33044
D1,Caetité/BA,-14.0691776,-42.4852428,25,48.94188
1,Caeté/MG,-19.897777,-43.670278,1896,4208.93733
D1,Caeté/MG,-19.897777,-43.670278,54,119.87480
1,Caetés/PE,-8.7728788,-36.6255835,1537,5317.60310
D1,Caetés/PE,-8.7728788,-36.6255835,19,65.73485
1,Cafarnaum/BA,-11.691399,-41.468823,858,4634.58111
D1,Cafarnaum/BA,-11.691399,-41.468823,21,113.43380
1,Cafeara/PR,-22.78905,-51.714195,319,10798.91672
D1,Cafeara/PR,-22.78905,-51.714195,10,338.52404
1,Cafelândia/PR,-24.6176963,-53.3218057,2058,11150.84525
D1,Cafelândia/PR,-24.6176963,-53.3218057,17,92.11097
1,Cafelândia/SP,-21.8054355,-49.6030627,704,3945.52486
D1,Cafelândia/SP,-21.8054355,-49.6030627,32,179.34204
1,Cafezal do Sul/PR,-23.900508,-53.512418,380,9478.67299
D1,Cafezal do Sul/PR,-23.900508,-53.512418,4,99.77551
1,Caiabu/SP,-22.0143038,-51.2356597,201,4793.70379
D1,Caiabu/SP,-22.0143038,-51.2356597,7,166.94491
1,Caiana/MG,-20.695555,-41.924723,136,2454.43061
D1,Caiana/MG,-20.695555,-41.924723,7,126.33099
1,Caiapônia/GO,-16.9538779,-51.8090761,1134,5934.99764
D1,Caiapônia/GO,-16.9538779,-51.8090761,34,177.94526
1,Caibaté/RS,-28.290475,-54.645407,228,4727.34812
D1,Caibaté/RS,-28.290475,-54.645407,7,145.13788
1,Caibi/SC,-27.0751925,-53.2502133,603,9836.86786
D1,Caibi/SC,-27.0751925,-53.2502133,11,179.44535
1,Caicó/RN,-6.4594544,-37.0971911,10538,15419.28215
D1,Caicó/RN,-6.4594544,-37.0971911,127,185.82737
1,Caieiras/SP,-23.3644621,-46.7484765,7721,7512.52737
D1,Caieiras/SP,-23.3644621,-46.7484765,279,271.46680
1,Cairu/BA,-13.4860505,-39.0455744,1256,6816.08509
D1,Cairu/BA,-13.4860505,-39.0455744,14,75.97547
1,Caiuá/SP,-21.8319357,-51.9887179,321,5398.58729
D1,Caiuá/SP,-21.8319357,-51.9887179,6,100.90817
1,Caiçara do Norte/RN,-5.0645017,-36.0561226,404,6157.59793
D1,Caiçara do Norte/RN,-5.0645017,-36.0561226,10,152.41579
1,Caiçara do Rio do Vento/RN,-5.757968,-36.00089,267,7187.07941
D1,Caiçara do Rio do Vento/RN,-5.757968,-36.00089,8,215.34320
1,Caiçara/PB,-6.6146866,-35.4681434,735,10221.10972
D1,Caiçara/PB,-6.6146866,-35.4681434,14,194.68780
1,Caiçara/RS,-27.2750478,-53.4310053,565,12021.27660
D1,Caiçara/RS,-27.2750478,-53.4310053,8,170.21277
1,Cajamar/SP,-23.3561111,-46.8769444,4293,5508.50720
D1,Cajamar/SP,-23.3561111,-46.8769444,209,268.17564
1,Cajapió/MA,-2.8778715,-44.6746871,103,918.33096
D1,Cajapió/MA,-2.8778715,-44.6746871,5,44.57917
1,Cajari/MA,-3.3213076,-45.0118757,232,1192.74073
D1,Cajari/MA,-3.3213076,-45.0118757,8,41.12899
1,Cajati/SP,-24.7272376,-48.1077914,3120,10949.67362
D1,Cajati/SP,-24.7272376,-48.1077914,90,315.85597
1,Cajazeiras do Piauí/PI,-6.794271,-42.3935024,60,1679.26113
D1,Cajazeiras do Piauí/PI,-6.794271,-42.3935024,1,27.98769
1,Cajazeiras/PB,-6.8897849,-38.5570389,8585,13782.52982
D1,Cajazeiras/PB,-6.8897849,-38.5570389,138,221.54795
1,Cajazeirinhas/PB,-6.961442,-37.7993733,165,5148.20593
D1,Cajazeirinhas/PB,-6.961442,-37.7993733,1,31.20125
1,Cajobi/SP,-20.8776238,-48.8106972,901,8503.20876
D1,Cajobi/SP,-20.8776238,-48.8106972,27,254.81314
1,Cajueiro da Praia/PI,-2.931114,-41.340801,475,6189.73156
D1,Cajueiro da Praia/PI,-2.931114,-41.340801,20,260.62028
1,Cajueiro/AL,-9.399589,-36.1524309,563,2639.35118
D1,Cajueiro/AL,-9.399589,-36.1524309,21,98.44827
1,Cajuri/MG,-20.7901414,-42.7954489,375,9436.33619
D1,Cajuri/MG,-20.7901414,-42.7954489,2,50.32713
1,Cajuru/SP,-21.2759978,-47.3046035,1037,3929.07210
D1,Cajuru/SP,-21.2759978,-47.3046035,36,136.39980
1,Caldas Brandão/PB,-7.1027959,-35.3254676,533,8815.74595
D1,Caldas Brandão/PB,-7.1027959,-35.3254676,8,132.31889
1,Caldas Novas/GO,-17.745,-48.625,8360,8970.34207
D1,Caldas Novas/GO,-17.745,-48.625,204,218.89351
1,Caldas/MG,-21.923611,-46.386111,820,5639.22701
D1,Caldas/MG,-21.923611,-46.386111,28,192.55897
1,Caldazinha/GO,-16.7116649,-49.0012601,297,7718.29522
D1,Caldazinha/GO,-16.7116649,-49.0012601,6,155.92516
1,Caldeirão Grande do Piauí/PI,-7.3310393,-40.6374433,399,6901.92008
D1,Caldeirão Grande do Piauí/PI,-7.3310393,-40.6374433,2,34.59609
1,Caldeirão Grande/BA,-11.0208483,-40.3041387,562,4196.84863
D1,Caldeirão Grande/BA,-11.0208483,-40.3041387,6,44.80621
1,Califórnia/PR,-23.6672543,-51.3554556,1114,12944.45736
D1,Califórnia/PR,-23.6672543,-51.3554556,27,313.73460
1,Calmon/SC,-26.6023644,-51.0992893,35,1049.47526
D1,Calmon/SC,-26.6023644,-51.0992893,4,119.94003
1,Calumbi/PE,-7.9389746,-38.1516871,642,11171.04576
D1,Calumbi/PE,-7.9389746,-38.1516871,4,69.60153
1,Calçado/PE,-8.7413446,-36.3351787,456,4138.68216
D1,Calçado/PE,-8.7413446,-36.3351787,5,45.38029
1,Calçoene/AP,2.4981757,-50.9539503,1633,14443.65823
D1,Calçoene/AP,2.4981757,-50.9539503,10,88.44861
1,Camacan/BA,-15.4166631,-39.4930088,2861,8938.94895
D1,Camacan/BA,-15.4166631,-39.4930088,76,237.45548
1,Camacho/MG,-20.625556,-45.156667,91,3171.83688
D1,Camacho/MG,-20.625556,-45.156667,2,69.71070
1,Camalaú/PB,-7.885031,-36.824191,420,6964.01923
D1,Camalaú/PB,-7.885031,-36.824191,6,99.48599
1,Camamu/BA,-13.9438142,-39.1060917,2237,6322.42383
D1,Camamu/BA,-13.9438142,-39.1060917,51,144.14109
1,Camanducaia/MG,-22.755278,-46.144444,2960,13577.35884
D1,Camanducaia/MG,-22.755278,-46.144444,58,266.04284
1,Camapuã/MS,-19.5291747,-54.0434641,790,5769.37121
D1,Camapuã/MS,-19.5291747,-54.0434641,29,211.78704
1,Camaquã/RS,-30.8524752,-51.8075619,6707,10089.05202
D1,Camaquã/RS,-30.8524752,-51.8075619,133,200.06619
1,Camaragibe/PE,-8.0213832,-34.9810768,6627,4170.57376
D1,Camaragibe/PE,-8.0213832,-34.9810768,380,239.14562
1,Camargo/RS,-28.5865661,-52.2031474,412,15025.52881
D1,Camargo/RS,-28.5865661,-52.2031474,6,218.81838
1,Camaçari/BA,-12.6998188,-38.3260762,22960,7545.13608
D1,Camaçari/BA,-12.6998188,-38.3260762,586,192.57185
1,Cambará do Sul/RS,-29.0489517,-50.145412,294,4589.44739
D1,Cambará do Sul/RS,-29.0489517,-50.145412,10,156.10365
1,Cambará/PR,-23.042273,-50.075281,2433,9553.91502
D1,Cambará/PR,-23.042273,-50.075281,47,184.55981
1,Cambira/PR,-23.600265,-51.581045,790,9978.52722
D1,Cambira/PR,-23.600265,-51.581045,22,277.88304
1,Camboriú/SC,-27.0273601,-48.6535657,12093,14209.50590
D1,Camboriú/SC,-27.0273601,-48.6535657,153,179.77792
1,Cambuci/RJ,-21.5749919,-41.9107833,945,6091.27240
D1,Cambuci/RJ,-21.5749919,-41.9107833,32,206.26531
1,Cambuquira/MG,-21.853056,-45.2953619,664,5182.64127
D1,Cambuquira/MG,-21.853056,-45.2953619,19,148.29847
1,Cambuí/MG,-22.6122501,-46.0572137,3514,11786.40907
D1,Cambuí/MG,-22.6122501,-46.0572137,53,177.76883
1,Cambé/PR,-23.2782035,-51.2779583,10236,9535.96482
D1,Cambé/PR,-23.2782035,-51.2779583,227,211.47558
1,Cametá/PA,-2.242949,-49.497885,8690,6235.46971
D1,Cametá/PA,-2.242949,-49.497885,239,171.49336
1,Camocim de São Félix/PE,-8.3616757,-35.7638903,518,2740.74074
D1,Camocim de São Félix/PE,-8.3616757,-35.7638903,17,89.94709
1,Camocim/CE,-2.9009918,-40.8427389,5980,9357.34740
D1,Camocim/CE,-2.9009918,-40.8427389,157,245.66949
1,Campanha/MG,-21.8361108,-45.401986,1602,9557.33206
D1,Campanha/MG,-21.8361108,-45.401986,30,178.97626
1,Campanário/MG,-18.2398144,-41.7271768,216,5790.88472
D1,Campanário/MG,-18.2398144,-41.7271768,4,107.23861
1,Campestre da Serra/RS,-28.7966535,-51.0958149,220,6480.11782
D1,Campestre da Serra/RS,-28.7966535,-51.0958149,2,58.91016
1,Campestre de Goiás/GO,-16.7624179,-49.69497,501,13729.78898
D1,Campestre de Goiás/GO,-16.7624179,-49.69497,14,383.66676
1,Campestre do Maranhão/MA,-6.1729113,-47.3640512,1044,7223.41382
D1,Campestre do Maranhão/MA,-6.1729113,-47.3640512,44,304.43507
1,Campestre/AL,-8.8481634,-35.5660033,249,3580.67299
D1,Campestre/AL,-8.8481634,-35.5660033,6,86.28128
1,Campestre/MG,-19.6142116,-43.219378,1591,7556.75881
D1,Campestre/MG,-19.6142116,-43.219378,36,170.98889
1,Campina Grande do Sul/PR,-25.3046032,-49.0545355,4944,11317.38583
D1,Campina Grande do Sul/PR,-25.3046032,-49.0545355,116,265.53737
1,Campina Grande/PB,-7.2246743,-35.8771292,33893,8230.31177
D1,Campina Grande/PB,-7.2246743,-35.8771292,976,237.00423
1,Campina Verde/MG,-19.535277,-49.486389,1120,5670.31187
D1,Campina Verde/MG,-19.535277,-49.486389,29,146.82058
1,Campina da Lagoa/PR,-24.5937926,-52.8038965,1350,9613.33048
