type,name,lat,lon,total,total_per_100k_inhabitants
1,Abadia de Goiás/GO,-16.7572644,-49.4412205,494,5630.91303
D1,Abadia de Goiás/GO,-16.7572644,-49.4412205,7,79.79027
1,Abadia dos Dourados/MG,-18.4911191,-47.4063589,63,901.41651
D1,Abadia dos Dourados/MG,-18.4911191,-47.4063589,1,14.30820
1,Abadiânia/GO,-16.1940946,-48.7067767,116,578.78455
D1,Abadiânia/GO,-16.1940946,-48.7067767,8,39.91618
1,Abaetetuba/PA,-1.721828,-48.878843,3164,2006.36660
D1,Abaetetuba/PA,-1.721828,-48.878843,115,72.92420
1,Abaeté/MG,-19.1566833,-45.4481213,47,202.26363
D1,Abaeté/MG,-19.1566833,-45.4481213,1,4.30348
1,Abaiara/CE,-7.3607808,-39.0487878,72,613.44466
D1,Abaiara/CE,-7.3607808,-39.0487878,2,17.04013
1,Abaré/BA,-8.7239913,-39.1139689,85,423.18032
1,Abatiá/PR,-23.3052967,-50.3102532,65,871.66421
1,Abaíra/BA,-13.2503296,-41.6640342,12,137.31548
1,Abdon Batista/SC,-27.612419,-51.022992,120,4682.01327
1,Abel Figueiredo/PA,-4.953001,-48.3958485,347,4667.74280
D1,Abel Figueiredo/PA,-4.953001,-48.3958485,1,13.45171
1,Abelardo Luz/SC,-26.5705893,-52.3280339,321,1792.89544
D1,Abelardo Luz/SC,-26.5705893,-52.3280339,5,27.92672
1,Abre Campo/MG,-20.2976097,-42.4764741,56,416.23309
1,Abreu e Lima/PE,-7.900719,-34.898389,827,827.08271
D1,Abreu e Lima/PE,-7.900719,-34.898389,95,95.00950
1,Abreulândia/TO,-9.6221526,-49.1558343,67,2597.90617
D1,Abreulândia/TO,-9.6221526,-49.1558343,3,116.32416
1,Acaiaca/MG,-20.3621646,-43.1444162,25,625.93891
D1,Acaiaca/MG,-20.3621646,-43.1444162,1,25.03756
1,Acajutiba/BA,-11.6609659,-38.0186381,120,791.60895
D1,Acajutiba/BA,-11.6609659,-38.0186381,3,19.79022
1,Acarape/CE,-4.2237866,-38.7071663,1618,10837.96637
D1,Acarape/CE,-4.2237866,-38.7071663,14,93.77721
1,Acaraú/CE,-2.8869514,-40.1194713,2652,4233.64889
D1,Acaraú/CE,-2.8869514,-40.1194713,57,90.99472
1,Acari/RN,-6.4364689,-36.6394777,94,844.10920
D1,Acari/RN,-6.4364689,-36.6394777,6,53.87931
1,Acará/PA,-1.961388,-48.1987043,751,1350.93810
D1,Acará/PA,-1.961388,-48.1987043,14,25.18393
1,Acauã/PI,-8.219542,-41.083059,38,536.42010
1,Acopiara/CE,-6.0936464,-39.4543204,766,1411.46121
D1,Acopiara/CE,-6.0936464,-39.4543204,33,60.80708
1,Acorizal/MT,-15.2001544,-56.3668953,174,3222.81904
D1,Acorizal/MT,-15.2001544,-56.3668953,5,92.60974
1,Acrelândia/AC,-10.0759167,-67.0526898,448,2936.54955
D1,Acrelândia/AC,-10.0759167,-67.0526898,9,58.99318
1,Acreúna/GO,-17.3959899,-50.3749031,452,2020.92462
D1,Acreúna/GO,-17.3959899,-50.3749031,12,53.65287
1,Adamantina/SP,-21.6866517,-51.0762975,329,938.17726
D1,Adamantina/SP,-21.6866517,-51.0762975,9,25.66442
1,Adelândia/GO,-16.4155077,-50.1665834,65,2583.46582
1,Adolfo/SP,-21.2356597,-49.6441918,106,2975.85626
D1,Adolfo/SP,-21.2356597,-49.6441918,3,84.22235
1,Adrianópolis/PR,-24.6557863,-48.9912769,173,2922.79101
D1,Adrianópolis/PR,-24.6557863,-48.9912769,4,67.57898
1,Adustina/BA,-10.5358875,-38.114479,86,504.69484
D1,Adustina/BA,-10.5358875,-38.114479,1,5.86854
1,Afogados da Ingazeira/PE,-7.750429,-37.6356375,568,1524.46389
D1,Afogados da Ingazeira/PE,-7.750429,-37.6356375,9,24.15524
1,Afonso Bezerra/RN,-5.4745,-36.57625071327935,133,1205.25600
D1,Afonso Bezerra/RN,-5.4745,-36.57625071327935,8,72.49660
1,Afonso Cláudio/ES,-20.077841,-41.12606,835,2730.00719
D1,Afonso Cláudio/ES,-20.077841,-41.12606,18,58.85045
1,Afonso Cunha/MA,-4.1326105,-43.3230026,151,2314.53096
D1,Afonso Cunha/MA,-4.1326105,-43.3230026,2,30.65604
1,Afrânio/PE,-8.5198919,-41.0070197,186,947.28801
D1,Afrânio/PE,-8.5198919,-41.0070197,2,10.18589
1,Afuá/PA,-0.1535664,-50.3879223,2142,5461.77776
D1,Afuá/PA,-0.1535664,-50.3879223,11,28.04835
1,Agrestina/PE,-8.4558021,-35.9442663,557,2238.29616
D1,Agrestina/PE,-8.4558021,-35.9442663,32,128.59152
1,Agricolândia/PI,-5.7967843,-42.6605131,57,1109.16521
1,Agrolândia/SC,-27.4122212,-49.8295774,172,1583.21060
D1,Agrolândia/SC,-27.4122212,-49.8295774,5,46.02356
1,Agronômica/SC,-27.2660744,-49.7104753,83,1523.49486
D1,Agronômica/SC,-27.2660744,-49.7104753,3,55.06608
1,Aguanil/MG,-20.9424533,-45.3927152,34,757.91351
D1,Aguanil/MG,-20.9424533,-45.3927152,3,66.87472
1,Aguaí/SP,-22.0592036,-46.979384,280,771.24363
D1,Aguaí/SP,-22.0592036,-46.979384,6,16.52665
1,Agudo/RS,-29.6423259,-53.2494005,20,121.49930
1,Agudos do Sul/PR,-25.9890808,-49.3328175,76,811.01270
1,Agudos/SP,-22.471162,-48.987822,563,1512.87150
D1,Agudos/SP,-22.471162,-48.987822,11,29.55877
1,Aguiar/PB,-7.0928404,-38.1727215,23,407.80142
1,Aguiarnópolis/TO,-6.5600452,-47.4721189,408,6059.70593
D1,Aguiarnópolis/TO,-6.5600452,-47.4721189,8,118.81776
1,Aimorés/MG,-19.4917754,-41.0615603,296,1176.14336
D1,Aimorés/MG,-19.4917754,-41.0615603,7,27.81420
1,Aiquara/BA,-14.126918,-39.8887574,155,3486.27980
D1,Aiquara/BA,-14.126918,-39.8887574,3,67.47638
1,Aiuaba/CE,-6.5710836,-40.1212278,29,166.67625
D1,Aiuaba/CE,-6.5710836,-40.1212278,1,5.74746
1,Aiuruoca/MG,-21.9759554,-44.6036637,3,49.97501
D1,Aiuruoca/MG,-21.9759554,-44.6036637,1,16.65834
1,Ajuricaba/RS,-28.239654,-53.7693013,56,797.26651
1,Alagoa Grande/PB,-7.0415212,-35.6285322,1233,4326.92308
D1,Alagoa Grande/PB,-7.0415212,-35.6285322,27,94.75014
1,Alagoa Nova/PB,-7.0653703,-35.76695977336711,341,1635.57005
D1,Alagoa Nova/PB,-7.0653703,-35.76695977336711,9,43.16754
1,Alagoa/MG,-22.1697202,-44.6400042,19,710.54600
1,Alagoinha do Piauí/PI,-7.0090952,-40.939675,95,1241.66776
D1,Alagoinha do Piauí/PI,-7.0090952,-40.939675,1,13.07019
1,Alagoinha/PB,-6.97063215,-35.51490901897793,981,6770.65360
D1,Alagoinha/PB,-6.97063215,-35.51490901897793,12,82.82145
1,Alagoinha/PE,-8.50355635,-36.77701174370496,190,1298.16890
D1,Alagoinha/PE,-8.50355635,-36.77701174370496,6,40.99481
1,Alagoinhas/BA,-12.133526,-38.420772,5098,3362.88556
D1,Alagoinhas/BA,-12.133526,-38.420772,61,40.23853
1,Alambari/SP,-23.550338,-47.897971,66,1095.43568
D1,Alambari/SP,-23.550338,-47.897971,1,16.59751
1,Albertina/MG,-20.66164,-43.784039,19,631.85900
D1,Albertina/MG,-20.66164,-43.784039,1,33.25574
1,Alcantil/PB,-7.7425491,-36.0609604,67,1219.95630
1,Alcinópolis/MS,-18.3264121,-53.7094463,12,224.59293
D1,Alcinópolis/MS,-18.3264121,-53.7094463,2,37.43215
1,Alcobaça/BA,-17.5215875,-39.1965474,463,2060.52514
D1,Alcobaça/BA,-17.5215875,-39.1965474,5,22.25189
1,Alcântara/MA,-2.4038956,-44.4154241,141,638.09567
D1,Alcântara/MA,-2.4038956,-44.4154241,7,31.67851
1,Alcântaras/CE,-3.586247,-40.5457641,464,3961.07222
D1,Alcântaras/CE,-3.586247,-40.5457641,4,34.14717
1,Aldeias Altas/MA,-4.6291957,-43.4708622,881,3320.51862
D1,Aldeias Altas/MA,-4.6291957,-43.4708622,4,15.07613
1,Alecrim/RS,-27.6566142,-54.7653195,17,285.71429
1,Alegre/ES,-20.7625787,-41.5318886,336,1116.87276
D1,Alegre/ES,-20.7625787,-41.5318886,17,56.50844
1,Alegrete do Piauí/PI,-7.2440138,-40.8602296,137,2787.38555
1,Alegrete/RS,-29.790166,-55.794862,539,732.44643
D1,Alegrete/RS,-29.790166,-55.794862,15,20.38348
1,Alegria/RS,-27.8332103,-54.0574959,46,1327.94457
1,Alenquer/PA,-1.946229,-54.738355,1336,2352.56828
D1,Alenquer/PA,-1.946229,-54.738355,30,52.82713
1,Alexandria/RN,-6.414779,-38.0135516,140,1031.15563
D1,Alexandria/RN,-6.414779,-38.0135516,4,29.46159
1,Alexânia/GO,-16.0834049,-48.5077803,915,3308.86341
D1,Alexânia/GO,-16.0834049,-48.5077803,12,43.39493
1,Alfenas/MG,-21.4297405,-45.9479419,725,906.29531
D1,Alfenas/MG,-21.4297405,-45.9479419,27,33.75169
1,Alfredo Chaves/ES,-20.624970400000002,-40.75006690147988,456,3123.07376
D1,Alfredo Chaves/ES,-20.624970400000002,-40.75006690147988,7,47.94192
1,Alfredo Marcondes/SP,-21.9527,-51.413956,48,1152.18435
D1,Alfredo Marcondes/SP,-21.9527,-51.413956,2,48.00768
1,Alfredo Vasconcelos/MG,-21.145833,-43.776389,17,246.12712
D1,Alfredo Vasconcelos/MG,-21.145833,-43.776389,1,14.47807
1,Alfredo Wagner/SC,-27.6961513,-49.3326734,189,1883.22041
D1,Alfredo Wagner/SC,-27.6961513,-49.3326734,1,9.96413
1,Algodão de Jandaíra/PB,-6.9040175,-36.0089879,27,1051.81145
1,Alhandra/PB,-7.4304246,-34.9106103,652,3328.56851
D1,Alhandra/PB,-7.4304246,-34.9106103,17,86.78783
1,Aliança do Tocantins/TO,-11.3055927,-48.9409096,111,2059.36920
D1,Aliança do Tocantins/TO,-11.3055927,-48.9409096,2,37.10575
1,Aliança/PE,-7.60398,-35.222696,362,943.05215
D1,Aliança/PE,-7.60398,-35.222696,27,70.33814
1,Almadina/BA,-14.70466,-39.6381994,329,6021.22987
D1,Almadina/BA,-14.70466,-39.6381994,6,109.80966
1,Almas/TO,-11.5681309,-47.1702803,79,1119.77321
D1,Almas/TO,-11.5681309,-47.1702803,2,28.34869
1,Almeirim/PA,-1.5290377,-52.5788111,256,750.53505
D1,Almeirim/PA,-1.5290377,-52.5788111,18,52.77200
1,Almenara/MG,-16.1740678,-40.6904907,706,1685.12507
D1,Almenara/MG,-16.1740678,-40.6904907,10,23.86863
1,Almino Afonso/RN,-6.1544208,-37.7649018,37,781.41499
1,Almirante Tamandaré do Sul/RS,-28.1141129,-52.9134874,10,509.16497
1,Almirante Tamandaré/PR,-25.3133048,-49.2997838,1494,1259.45221
D1,Almirante Tamandaré/PR,-25.3133048,-49.2997838,46,38.77831
1,Aloândia/GO,-17.7277983,-49.4809338,59,2957.39348
D1,Aloândia/GO,-17.7277983,-49.4809338,3,150.37594
1,Alpercata/MG,-18.9803616,-41.9827637,172,2316.81034
D1,Alpercata/MG,-18.9803616,-41.9827637,5,67.34914
1,Alpestre/RS,-27.2512339,-53.0349646,41,655.16139
1,Alpinópolis/MG,-20.863611,-46.387777,76,382.81368
D1,Alpinópolis/MG,-20.863611,-46.387777,4,20.14809
1,Alta Floresta D'Oeste/RO,-11.9296917,-61.9961284,691,3011.54936
D1,Alta Floresta D'Oeste/RO,-11.9296917,-61.9961284,10,43.58248
1,Alta Floresta/MT,-9.8715018,-56.0839881,1160,2240.16067
D1,Alta Floresta/MT,-9.8715018,-56.0839881,21,40.55463
1,Altair/SP,-20.5238955,-49.0606135,37,889.42308
D1,Altair/SP,-20.5238955,-49.0606135,2,48.07692
1,Altamira do Maranhão/MA,-4.1643006,-45.4674574,270,3321.85039
D1,Altamira do Maranhão/MA,-4.1643006,-45.4674574,5,61.51575
1,Altamira do Paraná/PR,-24.799114,-52.7128633,11,566.42636
1,Altamira/PA,-3.204065,-52.209961,4078,3558.65054
D1,Altamira/PA,-3.204065,-52.209961,116,101.22694
1,Altaneira/CE,-6.9980933,-39.7385742,21,276.82573
D1,Altaneira/CE,-6.9980933,-39.7385742,1,13.18218
1,Alterosa/MG,-21.249166,-46.143055,13,89.86589
D1,Alterosa/MG,-21.249166,-46.143055,1,6.91276
1,Altinho/PE,-8.4904095,-36.0607494,476,2072.08776
D1,Altinho/PE,-8.4904095,-36.0607494,9,39.17813
1,Altinópolis/SP,-21.021364,-47.3712,207,1279.04103
D1,Altinópolis/SP,-21.021364,-47.3712,7,43.25260
1,Alto Alegre do Maranhão/MA,-4.2055693,-44.4525287,354,1308.54249
D1,Alto Alegre do Maranhão/MA,-4.2055693,-44.4525287,12,44.35737
1,Alto Alegre do Pindaré/MA,-3.6698186,-45.8462153,1393,4364.17181
D1,Alto Alegre do Pindaré/MA,-3.6698186,-45.8462153,19,59.52567
1,Alto Alegre dos Parecis/RO,-12.1314515,-61.856265,187,1412.28004
D1,Alto Alegre dos Parecis/RO,-12.1314515,-61.856265,8,60.41840
1,Alto Alegre/RR,2.98858,-61.307167,592,3816.89233
D1,Alto Alegre/RR,2.98858,-61.307167,14,90.26435
1,Alto Alegre/RS,-31.780844700000003,-52.81311114489171,11,671.55067
1,Alto Alegre/SP,-21.5820592,-50.1661976,62,1512.56404
D1,Alto Alegre/SP,-21.5820592,-50.1661976,2,48.79239
1,Alto Araguaia/MT,-17.3156528,-53.2169365,319,1675.06826
D1,Alto Araguaia/MT,-17.3156528,-53.2169365,5,26.25499
1,Alto Bela Vista/SC,-27.4320737,-51.905771,20,1032.52452
1,Alto Boa Vista/MT,-11.6723985,-51.3744431,81,1187.33509
D1,Alto Boa Vista/MT,-11.6723985,-51.3744431,3,43.97537
1,Alto Caparaó/MG,-20.4405661,-41.8683799,13,222.33624
1,Alto Feliz/RS,-29.3785943,-51.3123751,31,1023.77807
1,Alto Garças/MT,-16.9469683,-53.529427,236,1961.76226
D1,Alto Garças/MT,-16.9469683,-53.529427,10,83.12552
1,Alto Horizonte/GO,-14.1954948,-49.3366993,144,2245.08887
D1,Alto Horizonte/GO,-14.1954948,-49.3366993,1,15.59089
1,Alto Jequitibá/MG,-20.423611,-41.966111,63,757.48467
D1,Alto Jequitibá/MG,-20.423611,-41.966111,3,36.07070
1,Alto Longá/PI,-5.2549051,-42.2072388,146,1020.69351
D1,Alto Longá/PI,-5.2549051,-42.2072388,5,34.95526
1,Alto Paraguai/MT,-14.513712,-56.4936374,199,1752.37760
D1,Alto Paraguai/MT,-14.513712,-56.4936374,5,44.02959
1,Alto Paraná/PR,-23.131247,-52.318893,75,507.78605
1,Alto Paraíso de Goiás/GO,-14.1304779,-47.5100161,147,1928.12172
1,Alto Paraíso/PR,-23.508137,-53.728537,5,182.41518
1,Alto Paraíso/RO,-9.7240103,-63.3188123,352,1642.71047
D1,Alto Paraíso/RO,-9.7240103,-63.3188123,8,37.33433
1,Alto Parnaíba/MA,-9.112506,-45.9310154,270,2412.86863
D1,Alto Parnaíba/MA,-9.112506,-45.9310154,2,17.87310
1,Alto Piquiri/PR,-24.0239021,-53.4417448,112,1138.67426
D1,Alto Piquiri/PR,-24.0239021,-53.4417448,4,40.66694
1,Alto Rio Doce/MG,-21.0239537,-43.4133507,62,563.63636
D1,Alto Rio Doce/MG,-21.0239537,-43.4133507,1,9.09091
1,Alto Rio Novo/ES,-19.0577208,-41.0171518,177,2258.80551
D1,Alto Rio Novo/ES,-19.0577208,-41.0171518,10,127.61613
1,Alto Santo/CE,-5.5190371,-38.2719351,405,2362.06695
D1,Alto Santo/CE,-5.5190371,-38.2719351,7,40.82585
1,Alto Taquari/MT,-17.8269099,-53.2831736,240,2212.59334
D1,Alto Taquari/MT,-17.8269099,-53.2831736,6,55.31483
1,Alto do Rodrigues/RN,-5.290868,-36.7616726,364,2505.33416
D1,Alto do Rodrigues/RN,-5.290868,-36.7616726,17,117.00736
1,Altos/PI,-5.0393915,-42.4611694,1349,3328.89152
D1,Altos/PI,-5.0393915,-42.4611694,19,46.88580
1,Altônia/PR,-23.8722004,-53.894037,176,797.96881
D1,Altônia/PR,-23.8722004,-53.894037,2,9.06783
1,Alumínio/SP,-23.5203479,-47.2575256,197,1057.54778
D1,Alumínio/SP,-23.5203479,-47.2575256,6,32.20958
1,Alvarenga/MG,-19.4175,-41.728334,130,3327.36115
D1,Alvarenga/MG,-19.4175,-41.728334,1,25.59509
1,Alvarães/AM,-3.214786,-64.8143124,1209,7536.93660
D1,Alvarães/AM,-3.214786,-64.8143124,13,81.04233
1,Alvinlândia/SP,-22.4431852,-49.7643596,25,775.91558
1,Alvinópolis/MG,-20.1105199,-43.0601805,65,427.54719
D1,Alvinópolis/MG,-20.1105199,-43.0601805,1,6.57765
1,Alvorada D'Oeste/RO,-11.346271,-62.284697,121,839.63639
D1,Alvorada D'Oeste/RO,-11.346271,-62.284697,7,48.57401
1,Alvorada de Minas/MG,-18.7318587,-43.3641479,55,1525.23572
D1,Alvorada de Minas/MG,-18.7318587,-43.3641479,1,27.73156
1,Alvorada do Gurguéia/PI,-8.4465288,-43.8655915,43,793.50434
D1,Alvorada do Gurguéia/PI,-8.4465288,-43.8655915,2,36.90718
1,Alvorada do Norte/GO,-14.483911,-46.4959897,171,1974.59584
D1,Alvorada do Norte/GO,-14.483911,-46.4959897,1,11.54734
1,Alvorada do Sul/PR,-22.7807269,-51.2307721,55,482.20235
D1,Alvorada do Sul/PR,-22.7807269,-51.2307721,4,35.06926
1,Alvorada/RS,-29.9981184,-51.0772509,3215,1528.73208
D1,Alvorada/RS,-29.9981184,-51.0772509,116,55.15798
1,Alvorada/TO,-12.478465,-49.124926,495,5884.45078
D1,Alvorada/TO,-12.478465,-49.124926,7,83.21446
1,Além Paraíba/MG,-21.8760576,-42.6810473,392,1108.53459
D1,Além Paraíba/MG,-21.8760576,-42.6810473,12,33.93473
1,Amajari/RR,3.6523869,-61.4194315,336,2625.82057
D1,Amajari/RR,3.6523869,-61.4194315,8,62.51954
1,Amambai/MS,-23.1082701,-55.2284854,180,456.89918
D1,Amambai/MS,-23.1082701,-55.2284854,4,10.15332
1,Amaporã/PR,-23.094272,-52.786597,25,399.55250
1,Amapá do Maranhão/MA,-1.6762114,-46.0109669,3,43.09107
1,Amapá/AP,2.0529997,-50.7930003,532,5840.37765
D1,Amapá/AP,2.0529997,-50.7930003,4,43.91261
1,Amaraji/PE,-8.373925,-35.4536527,164,718.38451
D1,Amaraji/PE,-8.373925,-35.4536527,24,105.12944
1,Amaral Ferrador/RS,-30.8750633,-52.2542051,31,440.90457
D1,Amaral Ferrador/RS,-30.8750633,-52.2542051,1,14.22273
1,Amaralina/GO,-13.9236199,-49.2962411,5,131.16474
1,Amarante do Maranhão/MA,-5.56913,-46.747284,930,2244.47930
D1,Amarante do Maranhão/MA,-5.56913,-46.747284,18,43.44153
1,Amarante/PI,-6.2459374,-42.8476238,336,1909.30788
D1,Amarante/PI,-6.2459374,-42.8476238,6,34.09478
1,Amargosa/BA,-13.03793715,-39.60796443875596,341,915.65747
D1,Amargosa/BA,-13.03793715,-39.60796443875596,9,24.16691
1,Amaturá/AM,-3.3640509,-68.1994689,681,5903.25936
D1,Amaturá/AM,-3.3640509,-68.1994689,9,78.01664
1,Americana/SP,-22.7392463,-47.3306032,4633,1933.66361
D1,Americana/SP,-22.7392463,-47.3306032,142,59.26618
1,Americano do Brasil/GO,-16.2515808,-49.9806104,134,2192.76714
D1,Americano do Brasil/GO,-16.2515808,-49.9806104,3,49.09180
1,Ametista do Sul/RS,-27.3617341,-53.1826575,74,998.78526
1,Amontada/CE,-3.3634586,-39.8284791,806,1854.92037
D1,Amontada/CE,-3.3634586,-39.8284791,20,46.02780
1,Amorinópolis/GO,-16.6211308,-51.0949921,37,1183.62124
1,Amparo de São Francisco/SE,-10.1299754,-36.9269099,72,3032.85594
1,Amparo do Serra/MG,-20.5070255,-42.8028462,11,233.39699
1,Amparo/PB,-7.56394725,-37.04652873235175,18,804.28954
1,Amparo/SP,-22.70111,-46.76444,847,1173.21144
D1,Amparo/SP,-22.70111,-46.76444,23,31.85816
1,Ampére/PR,-25.9168712,-53.4742414,93,485.58897
D1,Ampére/PR,-25.9168712,-53.4742414,2,10.44277
1,Amélia Rodrigues/BA,-12.4015388,-38.7516971,365,1454.06740
D1,Amélia Rodrigues/BA,-12.4015388,-38.7516971,4,15.93499
1,América Dourada/BA,-11.4515262,-41.4357517,95,590.28209
1,Américo Brasiliense/SP,-21.7297099,-48.1052092,510,1259.13490
D1,Américo Brasiliense/SP,-21.7297099,-48.1052092,10,24.68892
1,Américo de Campos/SP,-20.298476,-49.735904,282,4724.40945
D1,Américo de Campos/SP,-20.298476,-49.735904,8,134.02580
1,Anadia/AL,-9.6830208,-36.3052699,462,2633.22884
D1,Anadia/AL,-9.6830208,-36.3052699,7,39.89741
1,Anagé/BA,-14.6134669,-41.1376308,92,418.08680
D1,Anagé/BA,-14.6134669,-41.1376308,3,13.63327
1,Anahy/PR,-24.6450861,-53.1337957,28,999.64298
1,Anajatuba/MA,-3.26441,-44.6179916,332,1238.66731
D1,Anajatuba/MA,-3.26441,-44.6179916,8,29.84741
1,Anajás/PA,-0.9878802,-49.9390114,560,1912.76429
D1,Anajás/PA,-0.9878802,-49.9390114,12,40.98781
1,Analândia/SP,-22.128917,-47.661939,35,700.70070
D1,Analândia/SP,-22.128917,-47.661939,1,20.02002
1,Anamã/AM,-3.5797356,-61.4049996,738,5420.89026
1,Ananindeua/PA,-1.374035,-48.4016623,7141,1345.83998
D1,Ananindeua/PA,-1.374035,-48.4016623,359,67.65951
1,Ananás/TO,-6.3663053,-48.080238,235,2460.99068
D1,Ananás/TO,-6.3663053,-48.080238,6,62.83380
1,Anapu/PA,-3.4668292,-51.2057035,924,3313.01542
D1,Anapu/PA,-3.4668292,-51.2057035,21,75.29580
1,Anapurus/MA,-3.6751298,-43.1046001,710,4513.09433
D1,Anapurus/MA,-3.6751298,-43.1046001,6,38.13883
1,Anastácio/MS,-20.4832458,-55.8048448,530,2108.61349
D1,Anastácio/MS,-20.4832458,-55.8048448,17,67.63477
1,Anaurilândia/MS,-22.185169,-52.719056,30,332.04206
1,Anchieta/ES,-20.8057672,-40.6454564,854,2918.36107
D1,Anchieta/ES,-20.8057672,-40.6454564,20,68.34569
1,Anchieta/SC,-26.5350527,-53.3293938,31,549.84037
D1,Anchieta/SC,-26.5350527,-53.3293938,1,17.73679
1,Andaraí/BA,-12.8059674,-41.3322919,36,273.91007
1,Andirá/PR,-23.0494761,-50.2310027,231,1153.21252
D1,Andirá/PR,-23.0494761,-50.2310027,3,14.97679
1,Andorinha/BA,-10.3445708,-39.8334411,64,438.50634
D1,Andorinha/BA,-10.3445708,-39.8334411,2,13.70332
1,Andradas/MG,-22.0680484,-46.5688976,262,637.82652
D1,Andradas/MG,-22.0680484,-46.5688976,8,19.47562
1,Andradina/SP,-20.896505,-51.3742765,788,1378.65878
D1,Andradina/SP,-20.896505,-51.3742765,14,24.49394
1,Andrelândia/MG,-21.739722,-44.308889,67,548.10209
1,André da Rocha/RS,-28.6309124,-51.5733328,19,1425.35634
1,Angatuba/SP,-23.4938938,-48.4110675,280,1109.87791
D1,Angatuba/SP,-23.4938938,-48.4110675,7,27.74695
1,Angelim/PE,-8.8902038,-36.2872987,68,609.86547
D1,Angelim/PE,-8.8902038,-36.2872987,2,17.93722
1,Angelina/SC,-27.5805287,-48.9838759,92,1916.26744
1,Angelândia/MG,-17.7253,-42.2728,14,164.31925
1,Angical do Piauí/PI,-6.0872666,-42.7366138,94,1384.79670
D1,Angical do Piauí/PI,-6.0872666,-42.7366138,3,44.19564
1,Angical/BA,-12.005623,-44.7000236,126,901.48100
D1,Angical/BA,-12.005623,-44.7000236,2,14.30922
1,Angico/TO,-6.3893733,-47.8656722,59,1718.61346
1,Angicos/RN,-5.6666344,-36.6009064,96,819.53218
D1,Angicos/RN,-5.6666344,-36.6009064,4,34.14717
1,Angra dos Reis/RJ,-23.0063966,-44.316326,5235,2568.88387
D1,Angra dos Reis/RJ,-23.0063966,-44.316326,168,82.43983
1,Anguera/BA,-12.1509425,-39.2452469,60,534.71170
1,Angélica/MS,-22.1588196,-53.7728504,73,677.17996
D1,Angélica/MS,-22.1588196,-53.7728504,3,27.82931
1,Anhanguera/GO,-18.3338749,-48.220363,12,1044.38642
D1,Anhanguera/GO,-18.3338749,-48.220363,2,174.06440
1,Anhembi/SP,-22.7891096,-48.1316776,16,237.95360
1,Anhumas/SP,-22.2956478,-51.3873401,50,1215.06683
1,Anicuns/GO,-16.4606451,-49.9572265,605,2768.87872
D1,Anicuns/GO,-16.4606451,-49.9572265,8,36.61327
1,Anita Garibaldi/SC,-27.6855032,-51.1293873,239,3350.62386
D1,Anita Garibaldi/SC,-27.6855032,-51.1293873,1,14.01935
1,Anitápolis/SC,-27.9041185,-49.1287395,55,1701.73267
1,Anori/AM,-3.7435254,-61.6605203,760,3617.32508
D1,Anori/AM,-3.7435254,-61.6605203,11,52.35602
1,Anta Gorda/RS,-28.9718745,-52.0069187,74,1237.25130
1,Antas/BA,-10.4114649,-38.3308815,224,1161.16324
1,Antonina do Norte/CE,-6.7754187,-39.9879345,39,530.39576
1,Antonina/PR,-25.4298854,-48.7125431,343,1807.16544
D1,Antonina/PR,-25.4298854,-48.7125431,6,31.61222
1,Antônio Almeida/PI,-7.2186016,-44.1950248,211,6668.77370
D1,Antônio Almeida/PI,-7.2186016,-44.1950248,1,31.60556
1,Antônio Cardoso/BA,-12.4363122,-39.1200307,46,393.73449
1,Antônio Carlos/MG,-21.318334,-43.746666,51,445.60944
1,Antônio Carlos/SC,-27.5168462,-48.7684715,275,3230.35358
D1,Antônio Carlos/SC,-27.5168462,-48.7684715,11,129.21414
1,Antônio Dias/MG,-19.6525,-42.872778,89,955.14059
D1,Antônio Dias/MG,-19.6525,-42.872778,2,21.46383
1,Antônio Gonçalves/BA,-10.5715409,-40.2748824,161,1364.63807
D1,Antônio Gonçalves/BA,-10.5715409,-40.2748824,1,8.47601
1,Antônio João/MS,-22.1892837,-55.9508227,54,602.94774
1,Antônio Martins/RN,-6.2155812,-37.8890129,8,111.96641
D1,Antônio Martins/RN,-6.2155812,-37.8890129,2,27.99160
1,Antônio Olinto/PR,-25.9849006,-50.1974516,69,928.16788
1,Antônio Prado de Minas/MG,-21.0171988,-42.1101106,9,563.20401
1,Antônio Prado/RS,-28.8567806,-51.2801355,435,3333.33333
D1,Antônio Prado/RS,-28.8567806,-51.2801355,7,53.63985
1,Anápolis/GO,-16.3332828,-48.9525756,7959,2056.99842
D1,Anápolis/GO,-16.3332828,-48.9525756,212,54.79126
1,Anísio de Abreu/PI,-9.185643,-43.04941,96,971.65992
1,Aparecida d'Oeste/SP,-20.4498109,-50.8808706,76,1811.24881
D1,Aparecida d'Oeste/SP,-20.4498109,-50.8808706,1,23.83222
1,Aparecida de Goiânia/GO,-16.8226769,-49.2452546,25485,4407.80450
D1,Aparecida de Goiânia/GO,-16.8226769,-49.2452546,408,70.56638
1,Aparecida do Rio Doce/GO,-18.2980167,-51.1491312,76,3071.94826
D1,Aparecida do Rio Doce/GO,-18.2980167,-51.1491312,2,80.84074
1,Aparecida do Rio Negro/TO,-9.9513491,-47.9773786,41,855.05735
1,Aparecida do Taboado/MS,-20.0840304,-51.1013943,729,2831.61779
D1,Aparecida do Taboado/MS,-20.0840304,-51.1013943,17,66.03224
1,Aparecida/PB,-6.7859598, -38.0831353,116,1389.72086
D1,Aparecida/PB,-6.7859598, -38.0831353,3,35.94106
1,Aparecida/SP,-22.851552,-45.2340924,342,945.87493
D1,Aparecida/SP,-22.851552,-45.2340924,10,27.65716
1,Aperibé/RJ,-21.6211928,-42.1028167,187,1590.27128
D1,Aperibé/RJ,-21.6211928,-42.1028167,7,59.52887
1,Apiacá/ES,-21.152272,-41.569297,162,2140.87485
D1,Apiacá/ES,-21.152272,-41.569297,4,52.86111
1,Apiacás/MT,-9.5678422,-57.394852,42,414.48732
D1,Apiacás/MT,-9.5678422,-57.394852,1,9.86875
1,Apiaí/SP,-24.5076527,-48.8461582,137,562.07434
D1,Apiaí/SP,-24.5076527,-48.8461582,5,20.51366
1,Apicum-Açu/MA,-1.5279295,-45.082278,197,1142.75770
D1,Apicum-Açu/MA,-1.5279295,-45.082278,3,17.40240
1,Apiúna/SC,-27.0374658,-49.3885037,81,753.97934
D1,Apiúna/SC,-27.0374658,-49.3885037,3,27.92516
1,Apodi/RN,-5.6631109,-37.796927,1915,5342.44665
D1,Apodi/RN,-5.6631109,-37.796927,29,80.90389
1,Aporá/BA,-11.6599747,-38.0794757,183,1032.09069
D1,Aporá/BA,-11.6599747,-38.0794757,4,22.55936
1,Aporé/GO,-18.9642193,-51.92804,28,666.98428
D1,Aporé/GO,-18.9642193,-51.92804,2,47.64173
1,Apuarema/BA,-13.8517897,-39.7457126,285,3888.13097
D1,Apuarema/BA,-13.8517897,-39.7457126,5,68.21282
1,Apucarana/PR,-23.5525327,-51.4610764,738,546.68286
D1,Apucarana/PR,-23.5525327,-51.4610764,32,23.70441
1,Apuiarés/CE,-3.9460303,-39.4313298,211,1445.20548
D1,Apuiarés/CE,-3.9460303,-39.4313298,11,75.34247
1,Apuí/AM,-7.1940195,-59.8830192,208,946.61630
1,Aquidabã/SE,-10.2837579,-37.0188687,548,2541.39034
D1,Aquidabã/SE,-10.2837579,-37.0188687,14,64.92603
1,Aquidauana/MS,-20.473969,-55.7821375,1754,3664.01370
D1,Aquidauana/MS,-20.473969,-55.7821375,49,102.35842
1,Aquiraz/CE,-3.9063117,-38.387504,987,1229.58478
D1,Aquiraz/CE,-3.9063117,-38.387504,33,41.11074
1,Arabutã/SC,-27.1587028,-52.1438142,74,1734.23951
D1,Arabutã/SC,-27.1587028,-52.1438142,1,23.43567
1,Aracaju/SE,-10.9162061,-37.0774655,34158,5198.98389
D1,Aracaju/SE,-10.9162061,-37.0774655,711,108.21704
1,Aracati/CE,-4.558259,-37.767894,1636,2194.58865
D1,Aracati/CE,-4.558259,-37.767894,52,69.75465
1,Aracatu/BA,-14.4274236,-41.4604105,31,236.01066
1,Araci/BA,-11.3356065,-38.9573261,1065,1958.47662
D1,Araci/BA,-11.3356065,-38.9573261,11,20.22840
1,Aracoiaba/CE,-4.3702577,-38.8084313,762,2878.83940
D1,Aracoiaba/CE,-4.3702577,-38.8084313,14,52.89206
1,Aracruz/ES,-19.8245218,-40.2735025,3461,3419.28473
D1,Aracruz/ES,-19.8245218,-40.2735025,72,71.13219
1,Aragarças/GO,-15.8957166,-52.2514538,642,3191.17208
D1,Aragarças/GO,-15.8957166,-52.2514538,14,69.58942
1,Aragoiânia/GO,-16.9146388,-49.4499148,266,2580.51998
D1,Aragoiânia/GO,-16.9146388,-49.4499148,3,29.10361
1,Aragominas/TO,-7.1654101,-48.525488,180,3126.08545
D1,Aragominas/TO,-7.1654101,-48.525488,2,34.73428
1,Araguacema/TO,-8.8067391,-49.5560969,51,719.72904
1,Araguaiana/MT,-15.729144,-51.834112,39,1258.06452
1,Araguainha/MT,-16.857016,-53.031778,2,213.90374
1,Araguanã/MA,-2.9508403,-45.6651986,529,3429.27525
D1,Araguanã/MA,-2.9508403,-45.6651986,2,12.96512
1,Araguanã/TO,-6.5799107,-48.6428482,168,2932.44894
D1,Araguanã/TO,-6.5799107,-48.6428482,7,122.18537
1,Araguapaz/GO,-15.0937927,-50.626417,119,1531.53153
D1,Araguapaz/GO,-15.0937927,-50.626417,4,51.48005
1,Araguari/MG,-18.6511256,-48.1933764,2650,2259.80028
D1,Araguari/MG,-18.6511256,-48.1933764,66,56.28182
1,Araguatins/TO,-5.6522925,-48.1158973,822,2298.59344
D1,Araguatins/TO,-5.6522925,-48.1158973,23,64.31587
1,Araguaçu/TO,-12.928934,-49.823134,446,5236.58565
D1,Araguaçu/TO,-12.928934,-49.823134,7,82.18856
1,Araguaína/TO,-7.193241,-48.2018597,14136,7832.88081
D1,Araguaína/TO,-7.193241,-48.2018597,184,101.95600
1,Araioses/MA,-2.890914,-41.904993,574,1236.00345
D1,Araioses/MA,-2.890914,-41.904993,10,21.53316
1,Aral Moreira/MS,-22.951141,-55.6268421,55,452.71216
D1,Aral Moreira/MS,-22.951141,-55.6268421,1,8.23113
1,Aramari/BA,-12.0907897,-38.4985065,117,1026.58594
1,Arambaré/RS,-30.9132252,-51.4994625,17,474.72773
D1,Arambaré/RS,-30.9132252,-51.4994625,1,27.92516
1,Arame/MA,-4.8858769,-46.0102484,907,2773.61549
D1,Arame/MA,-4.8858769,-46.0102484,9,27.52209
1,Aramina/SP,-20.0876144,-47.789201,92,1637.01068
D1,Aramina/SP,-20.0876144,-47.789201,5,88.96797
1,Arandu/SP,-23.1345103,-49.0545651,33,519.11279
D1,Arandu/SP,-23.1345103,-49.0545651,2,31.46138
1,Arantina/MG,-21.911667,-44.255833,14,500.89445
D1,Arantina/MG,-21.911667,-44.255833,1,35.77818
1,Arapeí/SP,-22.6738889,-44.4477778,5,202.51114
D1,Arapeí/SP,-22.6738889,-44.4477778,1,40.50223
1,Arapiraca/AL,-9.754866,-36.661471,11110,4794.02107
D1,Arapiraca/AL,-9.754866,-36.661471,136,58.68469
1,Arapoema/TO,-7.6575001,-49.0641484,98,1475.23709
D1,Arapoema/TO,-7.6575001,-49.0641484,3,45.16032
1,Araponga/MG,-20.666667,-42.520556,1,11.84975
1,Arapongas/PR,-23.415296,-51.42592,2464,2002.81239
D1,Arapongas/PR,-23.415296,-51.42592,85,69.09052
1,Araporã/MG,-18.4318188,-49.188313,456,6638.52089
D1,Araporã/MG,-18.4318188,-49.188313,6,87.34896
1,Arapoti/PR,-24.1457957,-49.8224605,211,750.48906
D1,Arapoti/PR,-24.1457957,-49.8224605,1,3.55682
1,Araputanga/MT,-15.4710868,-58.346796,524,3114.96849
D1,Araputanga/MT,-15.4710868,-58.346796,7,41.61217
1,Arapuá/MG,-19.034444,-46.155556,27,952.71701
1,Arapuã/PR,-24.3079525,-51.7901941,33,1075.61930
D1,Arapuã/PR,-24.3079525,-51.7901941,1,32.59452
1,Araquari/SC,-26.3703324,-48.7210994,803,2106.00855
D1,Araquari/SC,-26.3703324,-48.7210994,11,28.84943
1,Arara/PB,-6.8271895,-35.7605703,225,1670.37862
D1,Arara/PB,-6.8271895,-35.7605703,6,44.54343
1,Araranguá/SC,-28.9348832,-49.4858389,2022,2963.59266
D1,Araranguá/SC,-28.9348832,-49.4858389,40,58.62696
1,Araraquara/SP,-21.7886713,-48.1773096,3986,1688.46793
D1,Araraquara/SP,-21.7886713,-48.1773096,39,16.52038
1,Araras/SP,-22.3569477,-47.3838889,2952,2199.11201
D1,Araras/SP,-22.3569477,-47.3838889,60,44.69740
1,Ararendá/CE,-4.7504395,-40.8303611,85,777.32053
D1,Ararendá/CE,-4.7504395,-40.8303611,2,18.28989
1,Arari/MA,-3.4547602,-44.7772723,197,660.01072
D1,Arari/MA,-3.4547602,-44.7772723,9,30.15277
1,Araricá/RS,-29.6168543,-50.929121,76,1333.80133
D1,Araricá/RS,-29.6168543,-50.929121,5,87.75009
1,Araripe/CE,-7.212861,-40.1359222,197,912.03704
D1,Araripe/CE,-7.212861,-40.1359222,2,9.25926
1,Araripina/PE,-7.5768582,-40.5038509,1773,2100.26298
D1,Araripina/PE,-7.5768582,-40.5038509,35,41.46035
1,Araruama/RJ,-22.8733203,-42.3428897,1230,929.00302
D1,Araruama/RJ,-22.8733203,-42.3428897,61,46.07251
1,Araruna/PB,-6.5321155,-35.7397595,250,1230.79953
D1,Araruna/PB,-6.5321155,-35.7397595,8,39.38558
1,Araruna/PR,-23.9320308,-52.4976047,171,1224.05154
D1,Araruna/PR,-23.9320308,-52.4976047,7,50.10737
1,Arataca/BA,-15.2617424,-39.4122943,183,1660.76776
D1,Arataca/BA,-15.2617424,-39.4122943,3,27.22570
1,Aratiba/RS,-27.3955734,-52.3024325,40,641.53970
D1,Aratiba/RS,-27.3955734,-52.3024325,2,32.07698
1,Aratuba/CE,-4.4195958,-39.0463737,237,2000.50646
D1,Aratuba/CE,-4.4195958,-39.0463737,2,16.88191
1,Aratuípe/BA,-13.077137,-39.0010786,111,1257.79037
D1,Aratuípe/BA,-13.077137,-39.0010786,5,56.65722
1,Araucária/PR,-25.5861107,-49.4051209,3512,2441.55086
D1,Araucária/PR,-25.5861107,-49.4051209,50,34.76012
1,Arauá/SE,-11.2644014,-37.6181058,312,3102.62530
D1,Arauá/SE,-11.2644014,-37.6181058,8,79.55449
1,Araxá/MG,-19.5928536,-46.940241,1113,1047.73649
D1,Araxá/MG,-19.5928536,-46.940241,21,19.76861
1,Araçagi/PB,-6.8519969,-35.3835602,504,2966.97475
D1,Araçagi/PB,-6.8519969,-35.3835602,5,29.43427
1,Araçariguama/SP,-23.438611,-47.061389,329,1471.11429
D1,Araçariguama/SP,-23.438611,-47.061389,8,35.77178
1,Araças/BA,-12.2139176,-38.2026159,149,1223.61830
D1,Araças/BA,-12.2139176,-38.2026159,1,8.21220
1,Araçatuba/SP,-21.207992,-50.4390225,5825,2956.61266
D1,Araçatuba/SP,-21.207992,-50.4390225,132,66.99963
1,Araçaí/MG,-19.200833,-44.2475,4,170.43034
1,Araçoiaba da Serra/SP,-23.5045367,-47.6168158,574,1681.01681
D1,Araçoiaba da Serra/SP,-23.5045367,-47.6168158,10,29.28601
1,Araçoiaba/PE,-7.7856903,-35.0898881,152,740.59637
D1,Araçoiaba/PE,-7.7856903,-35.0898881,16,77.95751
1,Araçu/GO,-16.3561579,-49.6815269,60,1703.57751
D1,Araçu/GO,-16.3561579,-49.6815269,2,56.78592
1,Araçuaí/MG,-16.8484451,-42.0661868,54,147.10690
1,Araújos/MG,-19.948055,-45.165556,47,506.84784
D1,Araújos/MG,-19.948055,-45.165556,1,10.78400
1,Arceburgo/MG,-21.364444,-46.939722,37,343.48310
D1,Arceburgo/MG,-21.364444,-46.939722,1,9.28333
1,Arco-Íris/SP,-21.7741308,-50.4668814,11,614.18202
1,Arcos/MG,-20.282223,-45.539444,314,783.19864
D1,Arcos/MG,-20.282223,-45.539444,6,14.96558
1,Arcoverde/PE,-8.415192,-37.057748,1414,1902.12274
D1,Arcoverde/PE,-8.415192,-37.057748,49,65.91514
1,Areado/MG,-21.3582771,-46.1476688,5,33.17850
1,Areal/RJ,-22.2314922,-43.1056264,182,1447.66147
D1,Areal/RJ,-22.2314922,-43.1056264,8,63.63347
1,Arealva/SP,-22.0301906,-48.9111936,98,1144.85981
D1,Arealva/SP,-22.0301906,-48.9111936,1,11.68224
1,Areia Branca/RN,-4.9506652,-37.1263312,791,2847.98733
D1,Areia Branca/RN,-4.9506652,-37.1263312,50,180.02448
1,Areia Branca/SE,-10.7591455,-37.3148072,695,3748.24722
D1,Areia Branca/SE,-10.7591455,-37.3148072,17,91.68375
1,Areia de Baraúnas/PB,-7.1233949,-36.9446216,11,516.91729
1,Areia/PB,-6.9680243,-35.6994783,488,2138.56874
D1,Areia/PB,-6.9680243,-35.6994783,5,21.91156
1,Areial/PB,-7.0501306,-35.9245244,56,800.22864
D1,Areial/PB,-7.0501306,-35.9245244,2,28.57959
1,Areias/SP,-22.5800929,-44.6975127,55,1415.33711
1,Areiópolis/SP,-22.6758064,-48.6673653,91,817.68353
D1,Areiópolis/SP,-22.6758064,-48.6673653,3,26.95660
1,Arenápolis/MT,-14.4610369,-56.8432806,346,3601.54054
D1,Arenápolis/MT,-14.4610369,-56.8432806,4,41.63631
1,Arenópolis/GO,-16.3859286,-51.55937,28,1071.97550
1,Argirita/MG,-21.612761,-42.8371922,12,440.04400
D1,Argirita/MG,-21.612761,-42.8371922,1,36.67033
1,Aricanduva/MG,-17.8678,-42.5569,1,19.11680
1,Arinos/MG,-15.917223,-46.106111,64,358.04196
D1,Arinos/MG,-15.917223,-46.106111,1,5.59441
1,Aripuanã/MT,-10.175806,-59.4439663,500,2236.73615
D1,Aripuanã/MT,-10.175806,-59.4439663,14,62.62861
1,Ariquemes/RO,-9.9076522,-63.033069,5044,4676.30235
D1,Ariquemes/RO,-9.9076522,-63.033069,84,77.87657
1,Ariranha do Ivaí/PR,-24.3834527,-51.5876772,18,853.88994
D1,Ariranha do Ivaí/PR,-24.3834527,-51.5876772,1,47.43833
1,Ariranha/SP,-21.18716,-48.790418,128,1323.95532
D1,Ariranha/SP,-21.18716,-48.790418,4,41.37360
1,Armazém/SC,-28.2624996,-49.0190126,250,2882.17662
D1,Armazém/SC,-28.2624996,-49.0190126,5,57.64353
1,Armação dos Búzios/RJ,-22.7597805,-41.8875267,422,1245.94036
D1,Armação dos Búzios/RJ,-22.7597805,-41.8875267,13,38.38205
1,Arneiroz/CE,-6.3235099,-40.1603859,43,548.46939
D1,Arneiroz/CE,-6.3235099,-40.1603859,3,38.26531
1,Aroazes/PI,-6.1108814,-41.7886137,53,908.31191
D1,Aroazes/PI,-6.1108814,-41.7886137,3,51.41388
1,Aroeiras do Itaim/PI,-7.2797031,-41.5629681,69,2704.82164
D1,Aroeiras do Itaim/PI,-7.2797031,-41.5629681,1,39.20031
1,Aroeiras/PB,-7.5462904,-35.7080002,218,1138.20289
D1,Aroeiras/PB,-7.5462904,-35.7080002,1,5.22111
1,Arraial do Cabo/RJ,-22.9662839,-42.024427,175,576.62526
D1,Arraial do Cabo/RJ,-22.9662839,-42.024427,6,19.77001
1,Arraial/PI,-6.6541632,-42.5335332,15,317.32600
1,Arraias/TO,-12.9287788,-46.9437231,95,899.02527
1,Arroio Grande/RS,-32.2384246,-53.0866661,78,426.39261
D1,Arroio Grande/RS,-32.2384246,-53.0866661,1,5.46657
1,Arroio Trinta/SC,-26.9301976,-51.334928,63,1774.64789
1,Arroio do Meio/RS,-29.4020392,-51.9444993,385,1850.51670
D1,Arroio do Meio/RS,-29.4020392,-51.9444993,1,4.80654
1,Arroio do Padre/RS,-31.4428773,-52.4228985,6,204.29009
1,Arroio do Sal/RS,-29.549852,-49.8874395,77,765.02732
D1,Arroio do Sal/RS,-29.549852,-49.8874395,3,29.80626
1,Arroio do Tigre/RS,-29.334158,-53.0888935,26,194.42160
1,Arroio dos Ratos/RS,-30.0894524,-51.7265541,115,812.66342
D1,Arroio dos Ratos/RS,-30.0894524,-51.7265541,9,63.59975
1,Artur Nogueira/SP,-22.572737,-47.172679,792,1455.66828
D1,Artur Nogueira/SP,-22.572737,-47.172679,17,31.24541
1,Aruanã/GO,-14.9162439,-51.0715692,100,1012.65823
1,Arujá/SP,-23.396266,-46.3175449,1731,1927.10189
D1,Arujá/SP,-23.396266,-46.3175449,75,83.49662
1,Arvoredo/SC,-27.0752908,-52.4571847,47,2098.21429
D1,Arvoredo/SC,-27.0752908,-52.4571847,1,44.64286
1,Arvorezinha/RS,-28.87369,-52.17808,74,709.90023
D1,Arvorezinha/RS,-28.87369,-52.17808,4,38.37299
1,Arês/RN,-6.1969216,-35.1642968,216,1509.85600
D1,Arês/RN,-6.1969216,-35.1642968,9,62.91067
1,Ascurra/SC,-26.9569975,-49.3767752,140,1764.55760
D1,Ascurra/SC,-26.9569975,-49.3767752,2,25.20797
1,Aspásia/SP,-20.160028,-50.728046,36,1975.85071
1,Assaré/CE,-6.8746791,-39.8741385,315,1345.17658
D1,Assaré/CE,-6.8746791,-39.8741385,8,34.16321
1,Assaí/PR,-23.3736041,-50.8454929,254,1680.00529
D1,Assaí/PR,-23.3736041,-50.8454929,11,72.75613
1,Assis Brasil/AC,-10.9409203,-69.5672108,562,7577.18754
D1,Assis Brasil/AC,-10.9409203,-69.5672108,9,121.34286
1,Assis Chateaubriand/PR,-24.4054826,-53.5120468,443,1327.85804
D1,Assis Chateaubriand/PR,-24.4054826,-53.5120468,6,17.98453
1,Assis/SP,-22.6620892,-50.420623,1120,1072.94082
D1,Assis/SP,-22.6620892,-50.420623,22,21.07562
1,Assunção do Piauí/PI,-5.8610212,-41.0485091,127,1618.65919
D1,Assunção do Piauí/PI,-5.8610212,-41.0485091,1,12.74535
1,Assunção/PB,-7.073396,-36.7274003,46,1152.88221
1,Astolfo Dutra/MG,-21.3132636,-42.8624102,123,867.48008
D1,Astolfo Dutra/MG,-21.3132636,-42.8624102,3,21.15805
1,Astorga/PR,-23.2350184,-51.6647074,365,1397.87829
D1,Astorga/PR,-23.2350184,-51.6647074,6,22.97882
1,Atalaia do Norte/AM,-4.3658547,-70.1908742,944,4738.71794
D1,Atalaia do Norte/AM,-4.3658547,-70.1908742,4,20.07931
1,Atalaia/AL,-9.5029595,-36.0219316,576,1220.72693
D1,Atalaia/AL,-9.5029595,-36.0219316,18,38.14772
1,Atalaia/PR,-23.1513833,-52.0529697,80,2055.49846
D1,Atalaia/PR,-23.1513833,-52.0529697,1,25.69373
1,Atalanta/SC,-27.421916,-49.778863,35,1090.34268
1,Ataléia/MG,-18.04432,-41.1110524,107,831.52005
D1,Ataléia/MG,-18.04432,-41.1110524,4,31.08486
1,Atibaia/SP,-23.1177393,-46.5547861,1617,1132.66228
D1,Atibaia/SP,-23.1177393,-46.5547861,52,36.42451
1,Atilio Vivacqua/ES,-20.9139369,-41.1947519,327,2739.61126
D1,Atilio Vivacqua/ES,-20.9139369,-41.1947519,5,41.89008
1,Augustinópolis/TO,-5.4662267,-47.8897519,607,3296.76298
D1,Augustinópolis/TO,-5.4662267,-47.8897519,8,43.44992
1,Augusto Corrêa/PA,-1.0229335,-46.6404029,1280,2782.72968
D1,Augusto Corrêa/PA,-1.0229335,-46.6404029,20,43.48015
1,Augusto Pestana/RS,-28.5148413,-53.9906433,7,105.08933
1,Augusto de Lima/MG,-18.1092963,-44.2651945,35,718.83344
1,Aurelino Leal/BA,-14.3167137,-39.3256107,393,3408.20397
D1,Aurelino Leal/BA,-14.3167137,-39.3256107,6,52.03365
1,Auriflama/SP,-20.6840418,-50.5554616,319,2100.20410
D1,Auriflama/SP,-20.6840418,-50.5554616,9,59.25341
1,Aurilândia/GO,-16.6772599,-50.4641231,55,1762.82051
1,Aurora do Pará/PA,-2.1323199,-47.558436,627,2000.76584
D1,Aurora do Pará/PA,-2.1323199,-47.558436,7,22.33710
1,Aurora do Tocantins/TO,-12.71045,-46.407604,30,798.50945
1,Aurora/CE,-6.9426019,-38.9693765,290,1176.27971
D1,Aurora/CE,-6.9426019,-38.9693765,15,60.84205
1,Aurora/SC,-27.3166417,-49.6368502,69,1215.00264
1,Autazes/AM,-3.5833283,-59.1301518,1282,3240.23758
D1,Autazes/AM,-3.5833283,-59.1301518,36,90.98951
1,Avanhandava/SP,-21.4603331,-49.9465156,146,1069.67543
D1,Avanhandava/SP,-21.4603331,-49.9465156,3,21.97963
1,Avaré/SP,-23.1045215,-48.9259103,585,645.30362
D1,Avaré/SP,-23.1045215,-48.9259103,16,17.64933
1,Avaí/SP,-22.1564662,-49.3316395,74,1369.60948
D1,Avaí/SP,-22.1564662,-49.3316395,1,18.50824
1,Aveiro/PA,-3.6049239,-55.3310742,424,2587.25897
D1,Aveiro/PA,-3.6049239,-55.3310742,5,30.51013
1,Avelino Lopes/PI,-10.1346855,-43.9489525,29,256.88724
D1,Avelino Lopes/PI,-10.1346855,-43.9489525,3,26.57454
1,Avelinópolis/GO,-16.4672409,-49.7578661,92,3806.37153
D1,Avelinópolis/GO,-16.4672409,-49.7578661,1,41.37360
1,Axixá do Tocantins/TO,-5.612747,-47.77007,306,3136.53137
D1,Axixá do Tocantins/TO,-5.612747,-47.77007,3,30.75031
1,Axixá/MA,-2.8379465,-44.0561053,133,1096.45507
D1,Axixá/MA,-2.8379465,-44.0561053,3,24.73207
1,Açailândia/MA,-4.9514278,-47.4844564,3225,2868.06883
D1,Açailândia/MA,-4.9514278,-47.4844564,84,74.70319
1,Açu/RN,-5.5836157,-36.9139541,1490,2568.21277
D1,Açu/RN,-5.5836157,-36.9139541,53,91.35253
1,Açucena/MG,-19.073056,-42.546666,66,696.93770
D1,Açucena/MG,-19.073056,-42.546666,2,21.11932
1,Babaçulândia/TO,-7.2034355,-47.761613,203,1903.60090
D1,Babaçulândia/TO,-7.2034355,-47.761613,2,18.75469
1,Bacabal/MA,-4.2318132,-44.781167,3232,3079.59104
D1,Bacabal/MA,-4.2318132,-44.781167,51,48.59503
1,Bacabeira/MA,-2.9775747,-44.3155943,148,867.78071
D1,Bacabeira/MA,-2.9775747,-44.3155943,2,11.72677
1,Bacuri/MA,-1.728894,-45.1417148,415,2233.34410
D1,Bacuri/MA,-1.728894,-45.1417148,3,16.14466
1,Bacurituba/MA,-2.7082587,-44.7381309,45,797.30687
1,Bady Bassitt/SP,-20.9178969,-49.4517911,733,4188.09279
D1,Bady Bassitt/SP,-20.9178969,-49.4517911,18,102.84539
1,Baependi/MG,-21.959162,-44.8899249,67,349.90600
D1,Baependi/MG,-21.959162,-44.8899249,1,5.22248
1,Bagre/PA,-1.8994498,-50.2103844,373,1216.05321
D1,Bagre/PA,-1.8994498,-50.2103844,10,32.60196
1,Bagé/RS,-31.3314264,-54.1062808,867,715.68312
D1,Bagé/RS,-31.3314264,-54.1062808,11,9.08018
1,Baianópolis/BA,-12.3067564,-44.5383591,74,533.25647
1,Baixa Grande do Ribeiro/PI,-7.862861,-45.2113289,1120,9666.83929
D1,Baixa Grande do Ribeiro/PI,-7.862861,-45.2113289,9,77.67996
1,Baixa Grande/BA,-11.9630941,-40.1657537,33,161.22728
D1,Baixa Grande/BA,-11.9630941,-40.1657537,2,9.77135
1,Baixio/CE,-6.7303544,-38.7170095,91,1447.20102
D1,Baixio/CE,-6.7303544,-38.7170095,1,15.90331
1,Baixo Guandu/ES,-19.5138322,-41.0182089,721,2325.95651
D1,Baixo Guandu/ES,-19.5138322,-41.0182089,18,58.06826
1,Baião/PA,-2.7903479,-49.6702845,365,769.29562
D1,Baião/PA,-2.7903479,-49.6702845,14,29.50723
1,Balbinos/SP,-21.9006253,-49.3583966,85,1482.12729
D1,Balbinos/SP,-21.9006253,-49.3583966,2,34.87358
1,Baldim/MG,-19.2913568,-43.9558262,33,421.67135
D1,Baldim/MG,-19.2913568,-43.9558262,5,63.88960
1,Baliza/GO,-16.1978119,-52.542789,15,291.94239
1,Balneário Arroio do Silva/SC,-28.9815269,-49.4189932,391,2991.35491
D1,Balneário Arroio do Silva/SC,-28.9815269,-49.4189932,6,45.90314
1,Balneário Barra do Sul/SC,-26.459842,-48.6061471,472,4372.39463
D1,Balneário Barra do Sul/SC,-26.459842,-48.6061471,4,37.05419
1,Balneário Camboriú/SC,-26.9924395,-48.6339782,6988,4910.92449
D1,Balneário Camboriú/SC,-26.9924395,-48.6339782,86,60.43782
1,Balneário Gaivota/SC,-29.1553098,-49.5808712,154,1402.67784
D1,Balneário Gaivota/SC,-29.1553098,-49.5808712,6,54.64979
1,Balneário Pinhal/RS,-30.2482978,-50.234585,88,625.53312
D1,Balneário Pinhal/RS,-30.2482978,-50.234585,2,14.21666
1,Balneário Piçarras/SC,-26.7638889,-48.6716667,761,3287.68307
D1,Balneário Piçarras/SC,-26.7638889,-48.6716667,9,38.88193
1,Balneário Rincão/SC,-28.8235718,-49.2241642,361,2829.15361
D1,Balneário Rincão/SC,-28.8235718,-49.2241642,9,70.53292
1,Balsa Nova/PR,-25.5842234,-49.6312741,209,1615.02202
D1,Balsa Nova/PR,-25.5842234,-49.6312741,5,38.63689
1,Balsas/MA,-7.53214,-46.037163,6053,6379.16680
D1,Balsas/MA,-7.53214,-46.037163,49,51.64037
1,Bambuí/MG,-20.0131996,-45.9777034,46,193.04209
1,Banabuiú/CE,-5.3046404,-38.919766,541,2973.01753
D1,Banabuiú/CE,-5.3046404,-38.919766,4,21.98165
1,Bananal/SP,-22.6828195,-44.3221095,134,1224.30333
D1,Bananal/SP,-22.6828195,-44.3221095,1,9.13659
1,Bananeiras/PB,-6.7537682,-35.6338343,406,1904.49385
D1,Bananeiras/PB,-6.7537682,-35.6338343,2,9.38174
1,Bandeira do Sul/MG,-21.728056,-46.385555,25,435.08528
1,Bandeira/MG,-15.884444,-40.559167,198,4129.30136
D1,Bandeira/MG,-15.884444,-40.559167,1,20.85506
1,Bandeirante/SC,-26.7677402,-53.6397596,10,373.41299
1,Bandeirantes do Tocantins/TO,-7.7635698,-48.579148,36,1013.22826
D1,Bandeirantes do Tocantins/TO,-7.7635698,-48.579148,1,28.14523
1,Bandeirantes/MS,-19.9179623,-54.3646768,65,957.57219
1,Bandeirantes/PR,-23.107788,-50.370407,651,2075.42959
D1,Bandeirantes/PR,-23.107788,-50.370407,17,54.19709
1,Bannach/PA,-7.3508505,-50.4064531,111,3377.96713
D1,Bannach/PA,-7.3508505,-50.4064531,2,60.86427
1,Banzaê/BA,-10.5827616,-38.6122305,221,1670.57223
1,Baraúna/PB,-6.643394,-36.2531932,140,2861.81521
1,Baraúna/RN,-5.0775002,-37.61752,499,1758.65229
D1,Baraúna/RN,-5.0775002,-37.61752,13,45.81659
1,Barbacena/MG,-21.2254524,-43.7735087,766,557.84958
D1,Barbacena/MG,-21.2254524,-43.7735087,14,10.19568
1,Barbalha/CE,-7.3121067,-39.3036427,1916,3152.30088
D1,Barbalha/CE,-7.3121067,-39.3036427,52,85.55305
1,Barbosa Ferraz/PR,-24.0287182,-52.00811,150,1296.68050
D1,Barbosa Ferraz/PR,-24.0287182,-52.00811,4,34.57815
1,Barbosa/SP,-21.265661,-49.951816,107,1445.55526
D1,Barbosa/SP,-21.265661,-49.951816,1,13.50986
1,Barcarena/PA,-1.5107945,-48.6190679,4393,3523.41996
D1,Barcarena/PA,-1.5107945,-48.6190679,109,87.42380
1,Barcelona/RN,-5.9514918,-35.9260284,33,825.41271
D1,Barcelona/RN,-5.9514918,-35.9260284,2,50.02501
1,Barcelos/AM,-0.9729214,-62.925635,2560,9308.41393
D1,Barcelos/AM,-0.9729214,-62.925635,25,90.90248
1,Bariri/SP,-22.0746355,-48.7394852,598,1695.78040
D1,Bariri/SP,-22.0746355,-48.7394852,15,42.53630
1,Barra Bonita/SC,-26.6526364,-53.4419581,3,178.89088
1,Barra Bonita/SP,-22.490859,-48.558349,680,1882.30084
D1,Barra Bonita/SP,-22.490859,-48.558349,18,49.82561
1,Barra D'Alcântara/PI,-6.5209258,-42.1071089,11,278.41053
D1,Barra D'Alcântara/PI,-6.5209258,-42.1071089,1,25.31005
1,Barra Funda/RS,-27.9230048,-53.0401045,86,3387.16030
D1,Barra Funda/RS,-27.9230048,-53.0401045,3,118.15675
1,Barra Longa/MG,-20.2833541,-43.0423516,60,1169.36270
1,Barra Mansa/RJ,-22.5394843,-44.1735129,2220,1203.82622
D1,Barra Mansa/RJ,-22.5394843,-44.1735129,141,76.45923
1,Barra Velha/SC,-26.6338203,-48.6835001,717,2458.17334
D1,Barra Velha/SC,-26.6338203,-48.6835001,14,47.99781
1,Barra da Estiva/BA,-13.6269662,-41.3278287,9,43.69356
1,Barra de Guabiraba/PE,-8.4173522,-35.6626669,184,1279.11018
D1,Barra de Guabiraba/PE,-8.4173522,-35.6626669,11,76.46854
1,Barra de Santa Rosa/PB,-6.7218007,-36.0564638,97,630.52522
D1,Barra de Santa Rosa/PB,-6.7218007,-36.0564638,1,6.50026
1,Barra de Santana/PB,-7.5230865,-35.9988518,96,1148.46273
D1,Barra de Santana/PB,-7.5230865,-35.9988518,3,35.88946
1,Barra de Santo Antônio/AL,-9.4038098,-35.5117693,130,815.96786
D1,Barra de Santo Antônio/AL,-9.4038098,-35.5117693,10,62.76676
1,Barra de São Francisco/ES,-18.7570902,-40.8916119,767,1717.80515
D1,Barra de São Francisco/ES,-18.7570902,-40.8916119,27,60.47032
1,Barra de São Miguel/AL,-9.8261357,-35.8837777,143,1718.33694
D1,Barra de São Miguel/AL,-9.8261357,-35.8837777,5,60.08171
1,Barra de São Miguel/PB,-7.7528088,-36.3170996,64,1060.30484
D1,Barra de São Miguel/PB,-7.7528088,-36.3170996,1,16.56726
1,Barra do Bugres/MT,-15.0683712,-57.1853688,859,2456.67220
D1,Barra do Bugres/MT,-15.0683712,-57.1853688,20,57.19842
1,Barra do Chapéu/SP,-24.472203,-49.023784,47,821.10412
1,Barra do Choça/BA,-14.8638173,-40.5761637,393,1243.55283
D1,Barra do Choça/BA,-14.8638173,-40.5761637,5,15.82128
1,Barra do Corda/MA,-5.496823,-45.248496,3639,4125.28908
D1,Barra do Corda/MA,-5.496823,-45.248496,30,34.00898
1,Barra do Garças/MT,-15.8916033,-52.2615413,2005,3286.23877
D1,Barra do Garças/MT,-15.8916033,-52.2615413,92,150.79001
1,Barra do Guarita/RS,-27.1888016,-53.7147086,57,1754.92611
1,Barra do Jacaré/PR,-23.1151788,-50.1813945,15,539.37433
1,Barra do Mendes/BA,-11.8053298,-42.057037,18,129.82330
1,Barra do Ouro/TO,-7.7113784,-47.6743925,39,849.48813
D1,Barra do Ouro/TO,-7.7113784,-47.6743925,4,87.12699
1,Barra do Piraí/RJ,-22.4703403,-43.8263256,1040,1036.12489
D1,Barra do Piraí/RJ,-22.4703403,-43.8263256,51,50.80997
1,Barra do Quaraí/RS,-30.208947,-57.5505128,64,1518.38671
D1,Barra do Quaraí/RS,-30.208947,-57.5505128,1,23.72479
1,Barra do Ribeiro/RS,-30.2930206,-51.301437,109,807.94604
D1,Barra do Ribeiro/RS,-30.2930206,-51.301437,11,81.53584
1,Barra do Rio Azul/RS,-27.4101581,-52.4117471,7,414.20118
1,Barra do Rocha/BA,-14.2090974,-39.6004395,91,1592.57963
1,Barra do Turvo/SP,-24.756421,-48.5056942,98,1279.54041
D1,Barra do Turvo/SP,-24.756421,-48.5056942,3,39.16960
1,Barra dos Coqueiros/SE,-10.9075694,-37.0386249,1140,3749.13671
D1,Barra dos Coqueiros/SE,-10.9075694,-37.0386249,21,69.06304
1,Barra/BA,-11.0892702,-43.1420453,185,345.29098
D1,Barra/BA,-11.0892702,-43.1420453,4,7.46575
1,Barracão/PR,-26.252395,-53.6349576,77,749.39173
D1,Barracão/PR,-26.252395,-53.6349576,2,19.46472
1,Barracão/RS,-27.6728964,-51.4582928,69,1308.05687
D1,Barracão/RS,-27.6728964,-51.4582928,2,37.91469
1,Barras/PI,-4.2446153,-42.2920241,2520,5354.18349
D1,Barras/PI,-4.2446153,-42.2920241,54,114.73250
1,Barreira/CE,-4.2883361,-38.641094,322,1435.89744
D1,Barreira/CE,-4.2883361,-38.641094,19,84.72687
1,Barreiras do Piauí/PI,-9.9224524,-45.4763776,27,806.45161
1,Barreiras/BA,-12.1440031,-44.9967406,4208,2707.17130
D1,Barreiras/BA,-12.1440031,-44.9967406,69,44.39040
1,Barreirinha/AM,-2.798863,-57.067897,942,2939.98315
D1,Barreirinha/AM,-2.798863,-57.067897,12,37.45201
1,Barreirinhas/MA,-2.7541271,-42.8259693,869,1389.77738
D1,Barreirinhas/MA,-2.7541271,-42.8259693,23,36.78352
1,Barreiros/PE,-8.8159644,-35.1831905,324,759.51147
D1,Barreiros/PE,-8.8159644,-35.1831905,41,96.11102
1,Barretos/SP,-20.5531437,-48.5697509,3871,3170.40410
D1,Barretos/SP,-20.5531437,-48.5697509,113,92.54861
1,Barrinha/SP,-21.1898849,-48.1550642,586,1785.93198
D1,Barrinha/SP,-21.1898849,-48.1550642,23,70.09631
1,Barro Alto/BA,-11.7618025,-41.9094904,48,321.47880
D1,Barro Alto/BA,-11.7618025,-41.9094904,1,6.69748
1,Barro Alto/GO,-14.9696025,-48.9190985,268,2399.92836
D1,Barro Alto/GO,-14.9696025,-48.9190985,2,17.90991
1,Barro Duro/PI,-5.8180139,-42.5106589,403,5730.94425
D1,Barro Duro/PI,-5.8180139,-42.5106589,6,85.32423
1,Barro Preto/BA,-14.8068289,-39.4727588,230,4113.75425
D1,Barro Preto/BA,-14.8068289,-39.4727588,4,71.54355
1,Barro/CE,-7.1713587,-38.7742136,203,895.06173
D1,Barro/CE,-7.1713587,-38.7742136,9,39.68254
1,Barrocas/BA,-11.5165,-39.099282894736845,124,776.06709
1,Barrolândia/TO,-9.837246,-48.7264346,102,1811.07955
D1,Barrolândia/TO,-9.837246,-48.7264346,1,17.75568
1,Barroquinha/CE,-3.0200371,-41.1339229,759,5054.27183
D1,Barroquinha/CE,-3.0200371,-41.1339229,17,113.20503
1,Barros Cassal/RS,-29.094938,-52.5832366,18,160.72864
D1,Barros Cassal/RS,-29.094938,-52.5832366,1,8.92937
1,Barroso/MG,-21.187222,-43.976111,134,643.92119
D1,Barroso/MG,-21.187222,-43.976111,1,4.80538
1,Barueri/SP,-23.5112184,-46.8764612,5987,2183.58609
D1,Barueri/SP,-23.5112184,-46.8764612,341,124.36994
1,Barão de Antonina/SP,-23.6295651,-49.5632104,20,576.53502
1,Barão de Cocais/MG,-19.9452437,-43.4870298,427,1314.45282
D1,Barão de Cocais/MG,-19.9452437,-43.4870298,3,9.23503
1,Barão de Cotegipe/RS,-27.6214694,-52.3765316,108,1630.68096
D1,Barão de Cotegipe/RS,-27.6214694,-52.3765316,3,45.29669
1,Barão de Grajaú/MA,-6.7542591,-43.0263477,16,85.01594
D1,Barão de Grajaú/MA,-6.7542591,-43.0263477,1,5.31350
1,Barão de Melgaço/MT,-16.195776,-55.9668049,99,1156.00187
D1,Barão de Melgaço/MT,-16.195776,-55.9668049,4,46.70715
1,Barão de Monte Alto/MG,-21.244722,-42.2375,54,1000.55586
D1,Barão de Monte Alto/MG,-21.244722,-42.2375,2,37.05762
1,Barão do Triunfo/RS,-30.3909877,-51.7375349,87,1162.01416
D1,Barão do Triunfo/RS,-30.3909877,-51.7375349,1,13.35648
1,Barão/RS,-29.372474,-51.494908,63,1020.90423
D1,Barão/RS,-29.372474,-51.494908,2,32.40966
1,Bastos/SP,-21.9222474,-50.7317727,61,291.12776
D1,Bastos/SP,-21.9222474,-50.7317727,2,9.54517
1,Bataguassu/MS,-21.715899,-52.422058,760,3300.90341
D1,Bataguassu/MS,-21.715899,-52.422058,6,26.05976
1,Batalha/AL,-9.6733809,-37.1265481,553,3033.12857
D1,Batalha/AL,-9.6733809,-37.1265481,7,38.39403
1,Batalha/PI,-4.022391,-42.0780926,405,1507.98674
D1,Batalha/PI,-4.022391,-42.0780926,9,33.51082
1,Batatais/SP,-20.892867,-47.592149,592,947.07877
D1,Batatais/SP,-20.892867,-47.592149,20,31.99590
1,Batayporã/MS,-22.2976466,-53.2685608,132,1165.15138
D1,Batayporã/MS,-22.2976466,-53.2685608,3,26.48071
1,Baturité/CE,-4.3290203,-38.8821055,567,1586.01399
D1,Baturité/CE,-4.3290203,-38.8821055,30,83.91608
1,Bauru/SP,-22.3218102,-49.0705863,8561,2271.91907
D1,Bauru/SP,-22.3218102,-49.0705863,165,43.78772
1,Bayeux/PB,-7.1301631,-34.936532,1821,1879.64492
D1,Bayeux/PB,-7.1301631,-34.936532,102,105.28489
1,Baía Formosa/RN,-6.3691885,-35.0063741,88,949.19642
D1,Baía Formosa/RN,-6.3691885,-35.0063741,5,53.93161
1,Baía da Traição/PB,-6.691258,-34.9371244,669,7439.11932
D1,Baía da Traição/PB,-6.691258,-34.9371244,6,66.71856
1,Bebedouro/SP,-20.949077,-48.479083,948,1223.28894
D1,Bebedouro/SP,-20.949077,-48.479083,22,28.38856
1,Beberibe/CE,-4.1810469,-38.1298101,764,1426.09150
D1,Beberibe/CE,-4.1810469,-38.1298101,29,54.13175
1,Bela Cruz/CE,-3.0529129,-40.167582,1175,3605.28980
D1,Bela Cruz/CE,-3.0529129,-40.167582,22,67.50330
1,Bela Vista da Caroba/PR,-25.8792818,-53.6672545,18,512.67445
1,Bela Vista de Goiás/GO,-16.9692949,-48.9513071,699,2331.94329
D1,Bela Vista de Goiás/GO,-16.9692949,-48.9513071,11,36.69725
1,Bela Vista de Minas/MG,-19.8289721,-43.0973688,47,458.31302
D1,Bela Vista de Minas/MG,-19.8289721,-43.0973688,1,9.75134
1,Bela Vista do Maranhão/MA,-3.7416367,-45.2514192,127,1133.01811
D1,Bela Vista do Maranhão/MA,-3.7416367,-45.2514192,3,26.76421
1,Bela Vista do Paraíso/PR,-22.9948493,-51.1907996,146,948.23667
D1,Bela Vista do Paraíso/PR,-22.9948493,-51.1907996,4,25.97909
1,Bela Vista do Piauí/PI,-7.9716353,-41.8715061,32,797.01121
1,Bela Vista do Toldo/SC,-26.274625,-50.466354,6,94.68203
1,Bela Vista/MS,-22.107327,-56.5317344,28,113.68712
D1,Bela Vista/MS,-22.107327,-56.5317344,2,8.12051
1,Belford Roxo/RJ,-22.7667284,-43.4033603,8575,1678.39094
D1,Belford Roxo/RJ,-22.7667284,-43.4033603,272,53.23876
1,Belmiro Braga/MG,-21.9486291,-43.413564,14,408.28230
D1,Belmiro Braga/MG,-21.9486291,-43.413564,2,58.32604
1,Belmonte/BA,-15.8630837,-38.8792845,446,1911.86557
D1,Belmonte/BA,-15.8630837,-38.8792845,3,12.86008
1,Belmonte/SC,-26.8448262,-53.578916,5,184.77458
1,Belo Campo/BA,-15.0338286,-41.2585109,45,261.46069
D1,Belo Campo/BA,-15.0338286,-41.2585109,1,5.81024
1,Belo Horizonte/MG,-19.9227318,-43.9450948,36848,1466.83811
D1,Belo Horizonte/MG,-19.9227318,-43.9450948,1097,43.66917
1,Belo Jardim/PE,-8.3338293,-36.4176419,1080,1412.89133
D1,Belo Jardim/PE,-8.3338293,-36.4176419,35,45.78814
1,Belo Monte/AL,-9.8269944,-37.2787165,142,2118.13842
D1,Belo Monte/AL,-9.8269944,-37.2787165,3,44.74940
1,Belo Oriente/MG,-19.2232523,-42.4807033,519,1943.82022
D1,Belo Oriente/MG,-19.2232523,-42.4807033,9,33.70787
1,Belo Vale/MG,-20.407778,-44.024167,72,933.24692
D1,Belo Vale/MG,-20.407778,-44.024167,2,25.92353
1,Belterra/PA,-2.636091,-54.937392,298,1680.57749
D1,Belterra/PA,-2.636091,-54.937392,12,67.67426
1,Belágua/MA,-3.1604031,-43.5085052,247,3307.00228
D1,Belágua/MA,-3.1604031,-43.5085052,1,13.38867
1,Belém de Maria/PE,-8.6242497,-35.8388934,94,778.59687
D1,Belém de Maria/PE,-8.6242497,-35.8388934,2,16.56589
1,Belém do Brejo do Cruz/PB,-6.1880727,-37.5332267,85,1157.72269
D1,Belém do Brejo do Cruz/PB,-6.1880727,-37.5332267,2,27.24053
1,Belém do Piauí/PI,-7.3767305,-40.9712156,96,2692.09198
D1,Belém do Piauí/PI,-7.3767305,-40.9712156,3,84.12787
1,Belém do São Francisco/PE,-8.7517707,-38.9625715,124,598.19576
1,Belém/AL,-9.5715351,-36.492841,52,1197.05341
D1,Belém/AL,-9.5715351,-36.492841,1,23.02026
1,Belém/PA,-1.45056,-48.4682453,35113,2352.24369
D1,Belém/PA,-1.45056,-48.4682453,2151,144.09695
1,Belém/PB,-6.6967586,-35.5369626,1081,6115.63702
D1,Belém/PB,-6.6967586,-35.5369626,15,84.86083
1,Beneditinos/PI,-5.4565671,-42.3605061,244,2331.13595
D1,Beneditinos/PI,-5.4565671,-42.3605061,8,76.43069
1,Benedito Leite/MA,-7.2173453,-44.5523331,176,3125.00000
1,Benedito Novo/SC,-26.7840657,-49.3629511,146,1253.00378
D1,Benedito Novo/SC,-26.7840657,-49.3629511,2,17.16444
1,Benevides/PA,-1.3555577,-48.252235,1438,2292.10833
D1,Benevides/PA,-1.3555577,-48.252235,51,81.29174
1,Benjamin Constant do Sul/RS,-27.5105555,-52.6007689,90,4513.54062
1,Benjamin Constant/AM,-4.3782748,-70.0290603,1545,3594.36069
D1,Benjamin Constant/AM,-4.3782748,-70.0290603,38,88.40499
1,Bento Fernandes/RN,-5.6926846,-35.8207423,27,491.17701
D1,Bento Fernandes/RN,-5.6926846,-35.8207423,2,36.38348
1,Bento Gonçalves/RS,-29.1654014,-51.5197627,3248,2696.46504
D1,Bento Gonçalves/RS,-29.1654014,-51.5197627,109,90.49098
1,Bento de Abreu/SP,-21.2707225,-50.8120444,39,1308.72483
1,Bequimão/MA,-2.4495376,-44.7884889,232,1090.22556
D1,Bequimão/MA,-2.4495376,-44.7884889,11,51.69173
1,Berilo/MG,-16.9515764,-42.4643732,5,41.90412
1,Berizal/MG,-15.6118785,-41.7417382,5,105.59662
1,Bernardino Batista/PB,-6.4532173,-38.5495418,37,1056.84090
1,Bernardino de Campos/SP,-23.0140216,-49.4760724,96,861.14101
D1,Bernardino de Campos/SP,-23.0140216,-49.4760724,3,26.91066
1,Bernardo Sayão/TO,-7.8794244,-48.8968905,36,807.35591
D1,Bernardo Sayão/TO,-7.8794244,-48.8968905,3,67.27966
1,Bernardo do Mearim/MA,-4.6315929,-44.7617508,49,810.85554
D1,Bernardo do Mearim/MA,-4.6315929,-44.7617508,3,49.64422
1,Bertioga/SP,-23.848568,-46.139586,1742,2754.19374
D1,Bertioga/SP,-23.848568,-46.139586,40,63.24211
1,Bertolínia/PI,-7.6372159,-43.9540611,315,5726.23159
D1,Bertolínia/PI,-7.6372159,-43.9540611,4,72.71405
1,Bertópolis/MG,-17.063333,-40.573889,19,412.68462
1,Beruri/AM,-3.9007135,-61.3717319,733,3724.78276
D1,Beruri/AM,-3.9007135,-61.3717319,10,50.81559
1,Betim/MG,-19.968056,-44.198333,5395,1227.97833
D1,Betim/MG,-19.968056,-44.198333,178,40.51532
1,Betânia do Piauí/PI,-8.1460635,-40.7961387,28,451.24899
D1,Betânia do Piauí/PI,-8.1460635,-40.7961387,1,16.11604
1,Betânia/PE,-8.2742779,-38.0351767,60,471.73520
D1,Betânia/PE,-8.2742779,-38.0351767,2,15.72451
1,Bezerros/PE,-8.2372132,-35.7558262,1002,1648.08053
D1,Bezerros/PE,-8.2372132,-35.7558262,47,77.30517
1,Bias Fortes/MG,-21.605833,-43.756944,14,414.32376
1,Bicas/MG,-21.7213723,-43.0604327,57,393.26618
D1,Bicas/MG,-21.7213723,-43.0604327,1,6.89941
1,Biguaçu/SC,-27.4961277,-48.6542432,1958,2859.18722
D1,Biguaçu/SC,-27.4961277,-48.6542432,33,48.18855
1,Bilac/SP,-21.403962,-50.47464,83,1033.10929
D1,Bilac/SP,-21.403962,-50.47464,2,24.89420
1,Biquinhas/MG,-18.783611,-45.502222,28,1113.32008
1,Birigui/SP,-21.2908491,-50.34144,1881,1521.37692
D1,Birigui/SP,-21.2908491,-50.34144,66,53.38165
1,Biritiba-Mirim/SP,-23.5697765,-46.0407456,372,1141.17431
D1,Biritiba-Mirim/SP,-23.5697765,-46.0407456,21,64.42113
1,Biritinga/BA,-11.6227908,-38.8066738,74,463.10783
1,Bituruna/PR,-26.161281,-51.5533319,41,250.16780
D1,Bituruna/PR,-26.161281,-51.5533319,1,6.10165
1,Blumenau/SC,-26.9195567,-49.0658025,11205,3136.90688
D1,Blumenau/SC,-26.9195567,-49.0658025,148,41.43349
1,Boa Esperança do Iguaçu/PR,-25.6362851,-53.2139114,37,1478.22613
1,Boa Esperança do Sul/SP,-21.9930206,-48.3917372,153,1025.26302
D1,Boa Esperança do Sul/SP,-21.9930206,-48.3917372,5,33.50533
1,Boa Esperança/ES,-18.5395472,-40.2904088,352,2340.89247
D1,Boa Esperança/ES,-18.5395472,-40.2904088,15,99.75394
1,Boa Esperança/MG,-21.0901253,-45.5660195,121,301.54260
D1,Boa Esperança/MG,-21.0901253,-45.5660195,9,22.42879
1,Boa Esperança/PR,-24.2411024,-52.7860277,32,779.53715
1,Boa Hora/PI,-4.4094627,-42.1255341,93,1371.47913
1,Boa Nova/BA,-14.365907,-40.2063056,111,878.65115
D1,Boa Nova/BA,-14.365907,-40.2063056,3,23.74733
1,Boa Ventura de São Roque/PR,-24.88177,-51.5441292,3,46.97041
1,Boa Ventura/PB,-7.4202462,-38.2156782,28,521.80395
1,Boa Viagem/CE,-5.1261877,-39.7300055,884,1622.91169
D1,Boa Viagem/CE,-5.1261877,-39.7300055,24,44.06095
1,Boa Vista da Aparecida/PR,-25.4357216,-53.4067721,124,1633.51337
D1,Boa Vista da Aparecida/PR,-25.4357216,-53.4067721,3,39.52048
1,Boa Vista das Missões/RS,-27.6677983,-53.3127622,3,142.99333
1,Boa Vista do Buricá/RS,-27.6687782,-54.1111913,80,1191.89511
1,Boa Vista do Cadeado/RS,-28.5783827,-53.8123759,5,202.42915
1,Boa Vista do Gurupi/MA,-1.7981168,-46.3071882,13,139.98062
D1,Boa Vista do Gurupi/MA,-1.7981168,-46.3071882,3,32.30322
1,Boa Vista do Incra/RS,-28.8195551,-53.3866624,10,384.17211
1,Boa Vista do Ramos/AM,-2.9716927,-57.5869819,333,1733.74291
D1,Boa Vista do Ramos/AM,-2.9716927,-57.5869819,2,10.41287
1,Boa Vista do Sul/RS,-29.3510488,-51.6779679,54,1940.35214
D1,Boa Vista do Sul/RS,-29.3510488,-51.6779679,1,35.93245
1,Boa Vista do Tupim/BA,-12.6605988,-40.6083594,98,527.56245
D1,Boa Vista do Tupim/BA,-12.6605988,-40.6083594,1,5.38329
1,Boa Vista/PB,-7.2620711,-36.2415161,132,1872.07488
D1,Boa Vista/PB,-7.2620711,-36.2415161,1,14.18239
1,Boa Vista/RR,2.8208478,-60.6719582,34748,8704.12537
D1,Boa Vista/RR,2.8208478,-60.6719582,475,118.98410
1,Boca da Mata/AL,-9.6452054,-36.2116658,1231,4512.29794
D1,Boca da Mata/AL,-9.6452054,-36.2116658,21,76.97665
1,Boca do Acre/AM,-8.7553487,-67.3930873,1237,3605.57304
D1,Boca do Acre/AM,-8.7553487,-67.3930873,12,34.97726
1,Bocaina de Minas/MG,-22.167778,-44.394722,12,235.75639
1,Bocaina do Sul/SC,-27.745494,-49.942279,27,777.20207
D1,Bocaina do Sul/SC,-27.745494,-49.942279,2,57.57052
1,Bocaina/PI,-6.9445939,-41.3224599,103,2288.88889
D1,Bocaina/PI,-6.9445939,-41.3224599,1,22.22222
1,Bocaina/SP,-22.1421831,-48.522276,111,900.31633
D1,Bocaina/SP,-22.1421831,-48.522276,3,24.33287
1,Bocaiúva do Sul/PR,-25.206591,-49.114131,197,1521.94067
D1,Bocaiúva do Sul/PR,-25.206591,-49.114131,2,15.45117
1,Bocaiúva/MG,-17.1160208,-43.8122678,259,518.21765
D1,Bocaiúva/MG,-17.1160208,-43.8122678,2,4.00168
1,Bodocó/PE,-7.777592,-39.933797,242,634.40466
D1,Bodocó/PE,-7.777592,-39.933797,8,20.97205
1,Bodoquena/MS,-20.5508775,-56.6769653,22,279.36508
D1,Bodoquena/MS,-20.5508775,-56.6769653,1,12.69841
1,Bodó/RN,-5.9866104,-36.4134824,9,404.85830
1,Bofete/SP,-23.1019554,-48.2610535,130,1108.26939
D1,Bofete/SP,-23.1019554,-48.2610535,3,25.57545
1,Boituva/SP,-23.2838893,-47.6738231,837,1372.19863
D1,Boituva/SP,-23.2838893,-47.6738231,16,26.23080
1,Bom Conselho/PE,-9.169191,-36.685683,664,1367.54953
D1,Bom Conselho/PE,-9.169191,-36.685683,23,47.36994
1,Bom Despacho/MG,-19.7375242,-45.2517288,470,928.76198
D1,Bom Despacho/MG,-19.7375242,-45.2517288,10,19.76089
1,Bom Jardim da Serra/SC,-28.3380324,-49.625588,102,2150.53763
D1,Bom Jardim da Serra/SC,-28.3380324,-49.625588,1,21.08370
1,Bom Jardim de Goiás/GO,-16.2062659,-52.172793,129,1459.11096
D1,Bom Jardim de Goiás/GO,-16.2062659,-52.172793,2,22.62188
1,Bom Jardim de Minas/MG,-21.9476466,-44.1906033,6,92.67841
1,Bom Jardim/MA,-3.54129,-45.606004,875,2101.84963
D1,Bom Jardim/MA,-3.54129,-45.606004,23,55.24862
1,Bom Jardim/PE,-7.7961572,-35.5871696,681,1737.95427
D1,Bom Jardim/PE,-7.7961572,-35.5871696,31,79.11392
1,Bom Jardim/RJ,-22.1515328,-42.4186683,155,564.74532
D1,Bom Jardim/RJ,-22.1515328,-42.4186683,4,14.57407
1,Bom Jesus da Lapa/BA,-13.250571,-43.410754,329,475.79106
D1,Bom Jesus da Lapa/BA,-13.250571,-43.410754,2,2.89235
1,Bom Jesus da Penha/MG,-21.0165299,-46.5226644,68,1612.52075
1,Bom Jesus da Serra/BA,-14.3724084,-40.5047119,98,991.90283
1,Bom Jesus das Selvas/MA,-4.4878075,-46.8526639,1581,4646.17374
D1,Bom Jesus das Selvas/MA,-4.4878075,-46.8526639,10,29.38756
1,Bom Jesus de Goiás/GO,-18.2174587,-49.739721,293,1161.96066
D1,Bom Jesus de Goiás/GO,-18.2174587,-49.739721,13,51.55457
1,Bom Jesus do Amparo/MG,-19.7045132,-43.4752911,21,345.22440
1,Bom Jesus do Araguaia/MT,-12.1725897,-51.5074425,91,1382.97872
1,Bom Jesus do Galho/MG,-19.8283191,-42.3162256,111,743.22062
D1,Bom Jesus do Galho/MG,-19.8283191,-42.3162256,6,40.17409
1,Bom Jesus do Itabapoana/RJ,-21.1341025,-41.680095,740,1994.82424
D1,Bom Jesus do Itabapoana/RJ,-21.1341025,-41.680095,21,56.60988
1,Bom Jesus do Norte/ES,-21.1254776,-41.6711646,303,3049.51691
D1,Bom Jesus do Norte/ES,-21.1254776,-41.6711646,7,70.45089
1,Bom Jesus do Oeste/SC,-26.6929713,-53.0967453,23,1073.76284
D1,Bom Jesus do Oeste/SC,-26.6929713,-53.0967453,1,46.68534
1,Bom Jesus do Sul/PR,-26.1922507,-53.6002033,14,395.36854
D1,Bom Jesus do Sul/PR,-26.1922507,-53.6002033,1,28.24061
1,Bom Jesus do Tocantins/PA,-5.0471796,-48.5978362,369,2173.01690
D1,Bom Jesus do Tocantins/PA,-5.0471796,-48.5978362,3,17.66680
1,Bom Jesus do Tocantins/TO,-8.96306,-48.165043,78,1593.78831
1,Bom Jesus dos Perdões/SP,-23.1353864,-46.4648052,287,1127.79000
D1,Bom Jesus dos Perdões/SP,-23.1353864,-46.4648052,1,3.92958
1,Bom Jesus/PB,-6.8156725,-38.6551841,34,1327.60640
D1,Bom Jesus/PB,-6.8156725,-38.6551841,1,39.04725
1,Bom Jesus/PI,-9.0711644,-44.3583926,1171,4650.70098
D1,Bom Jesus/PI,-9.0711644,-44.3583926,12,47.65876
1,Bom Jesus/RN,-5.9887544,-35.5821149,116,1136.14104
D1,Bom Jesus/RN,-5.9887544,-35.5821149,4,39.17728
1,Bom Jesus/RS,-28.6692723,-50.4346894,116,1022.11649
1,Bom Jesus/SC,-26.7350604,-52.3916519,89,2956.81063
1,Bom Lugar/MA,-4.3728019,-45.0366054,257,1577.26771
D1,Bom Lugar/MA,-4.3728019,-45.0366054,1,6.13723
1,Bom Princípio do Piauí/PI,-3.1912777,-41.6430185,41,728.24156
D1,Bom Princípio do Piauí/PI,-3.1912777,-41.6430185,3,53.28597
1,Bom Princípio/RS,-29.489788,-51.3566782,324,2305.22946
D1,Bom Princípio/RS,-29.489788,-51.3566782,1,7.11491
1,Bom Progresso/RS,-27.5490948,-53.8655601,14,720.90628
1,Bom Repouso/MG,-22.4657069,-46.1485376,65,616.28899
D1,Bom Repouso/MG,-22.4657069,-46.1485376,4,37.92548
1,Bom Retiro do Sul/RS,-29.6000007,-51.9359243,194,1573.65347
D1,Bom Retiro do Sul/RS,-29.6000007,-51.9359243,3,24.33485
1,Bom Retiro/SC,-27.798993,-49.486994,91,913.10456
D1,Bom Retiro/SC,-27.798993,-49.486994,4,40.13646
1,Bom Sucesso de Itararé/SP,-24.3190016,-49.1446207,4,101.16338
1,Bom Sucesso do Sul/PR,-26.0749256,-52.8348629,8,245.09804
1,Bom Sucesso/MG,-21.0323516,-44.7598082,34,193.14890
D1,Bom Sucesso/MG,-21.0323516,-44.7598082,1,5.68085
1,Bom Sucesso/PB,-6.4458948,-37.9297662,24,482.41206
1,Bom Sucesso/PR,-23.7088019,-51.7651297,100,1422.07053
D1,Bom Sucesso/PR,-23.7088019,-51.7651297,1,14.22071
1,Bombinhas/SC,-27.1519159,-48.4875691,1150,5817.18853
D1,Bombinhas/SC,-27.1519159,-48.4875691,8,40.46740
1,Bonfim do Piauí/PI,-9.1648678,-42.8734415,68,1199.29453
D1,Bonfim do Piauí/PI,-9.1648678,-42.8734415,1,17.63668
1,Bonfim/MG,-20.3266626, -44.2386157,62,902.73733
D1,Bonfim/MG,-20.3266626, -44.2386157,2,29.12056
1,Bonfim/RR,3.3613818,-59.8427241,755,6084.29366
D1,Bonfim/RR,3.3613818,-59.8427241,12,96.70401
1,Bonfinópolis de Minas/MG,-16.5660011,-45.98645,81,1474.60404
D1,Bonfinópolis de Minas/MG,-16.5660011,-45.98645,3,54.61496
1,Bonfinópolis/GO,-16.6172709,-48.9615701,197,2029.67237
D1,Bonfinópolis/GO,-16.6172709,-48.9615701,6,61.81743
1,Boninal/BA,-12.7095183,-41.8299984,9,62.63920
D1,Boninal/BA,-12.7095183,-41.8299984,1,6.95991
1,Bonito de Minas/MG,-15.3191266,-44.7544,5,44.52360
1,Bonito de Santa Fé/PB,-7.3143332,-38.5146677,80,671.30989
D1,Bonito de Santa Fé/PB,-7.3143332,-38.5146677,1,8.39137
1,Bonito/BA,-11.9665473,-41.2649896,44,262.46719
D1,Bonito/BA,-11.9665473,-41.2649896,2,11.93033
1,Bonito/MS,-21.1264766,-56.4902208,452,2056.78922
D1,Bonito/MS,-21.1264766,-56.4902208,6,27.30251
1,Bonito/PA,-1.3605722,-47.3049907,253,1553.48152
D1,Bonito/PA,-1.3605722,-47.3049907,8,49.12195
1,Bonito/PE,-8.4721161,-35.7314591,321,841.76850
D1,Bonito/PE,-8.4721161,-35.7314591,25,65.55829
1,Bonópolis/GO,-13.649331,-49.8329113,27,612.93984
D1,Bonópolis/GO,-13.649331,-49.8329113,1,22.70148
1,Boqueirão do Leão/RS,-29.30332,-52.4296817,69,894.47757
D1,Boqueirão do Leão/RS,-29.30332,-52.4296817,2,25.92689
1,Boqueirão do Piauí/PI,-4.4850148,-42.1095161,138,2153.89418
D1,Boqueirão do Piauí/PI,-4.4850148,-42.1095161,1,15.60793
1,Boqueirão/PB,-7.487004,-36.130887,400,2246.68614
D1,Boqueirão/PB,-7.487004,-36.130887,7,39.31701
1,Boquim/SE,-11.1450175,-37.6204228,579,2159.15871
D1,Boquim/SE,-11.1450175,-37.6204228,15,55.93675
1,Boquira/BA,-12.8184859,-42.7270883,35,162.73015
1,Boracéia/SP,-22.195355,-48.7801925,80,1658.71864
D1,Boracéia/SP,-22.195355,-48.7801925,1,20.73398
1,Borba/AM,-4.3934778,-59.5947721,708,1720.07483
D1,Borba/AM,-4.3934778,-59.5947721,22,53.44865
1,Borborema/PB,-6.8066718,-35.5990191,45,855.02565
1,Borborema/SP,-21.6212706,-49.074135,186,1159.16739
D1,Borborema/SP,-21.6212706,-49.074135,2,12.46417
1,Borda da Mata/MG,-22.274167,-46.165278,243,1251.80301
D1,Borda da Mata/MG,-22.274167,-46.165278,13,66.96889
1,Borebi/SP,-22.5700178,-48.9714871,42,1583.11346
D1,Borebi/SP,-22.5700178,-48.9714871,1,37.69318
1,Borrazópolis/PR,-23.9393362,-51.5850786,54,819.17476
1,Borá/SP,-22.2701088,-50.544407,3,358.42294
1,Bossoroca/RS,-28.7278885,-54.9120278,66,1051.12279
D1,Bossoroca/RS,-28.7278885,-54.9120278,1,15.92610
1,Botelhos/MG,-21.65,-46.394722,49,327.29945
D1,Botelhos/MG,-21.65,-46.394722,1,6.67958
1,Botucatu/SP,-22.8879628,-48.4410712,2138,1459.41555
D1,Botucatu/SP,-22.8879628,-48.4410712,39,26.62171
1,Botuporã/BA,-13.3744752,-42.5198469,5,48.96680
D1,Botuporã/BA,-13.3744752,-42.5198469,1,9.79336
1,Botuverá/SC,-27.200749,-49.068892,153,2916.50782
1,Bozano/RS,-28.3669953,-53.7705165,7,329.72209
1,Braga/RS,-27.617348,-53.740514,17,507.00865
1,Braganey/PR,-24.8179919,-53.118506,52,958.17210
D1,Braganey/PR,-24.8179919,-53.118506,2,36.85277
1,Bragança Paulista/SP,-22.9520235,-46.5418586,2635,1562.24061
D1,Bragança Paulista/SP,-22.9520235,-46.5418586,66,39.13013
1,Bragança/PA,-1.0573967,-46.7635406,2305,1805.20965
D1,Bragança/PA,-1.0573967,-46.7635406,93,72.83492
1,Branquinha/AL,-9.2478057,-36.0152009,260,2477.60625
D1,Branquinha/AL,-9.2478057,-36.0152009,6,57.17553
1,Brasil Novo/PA,-3.3055853,-52.539198,716,4746.12223
D1,Brasil Novo/PA,-3.3055853,-52.539198,16,106.05860
1,Brasileira/PI,-4.131182,-41.7824969,108,1296.67427
D1,Brasileira/PI,-4.131182,-41.7824969,1,12.00624
1,Brasilândia de Minas/MG,-17.0096469,-46.0087183,230,1390.73649
D1,Brasilândia de Minas/MG,-17.0096469,-46.0087183,1,6.04668
1,Brasilândia do Sul/PR,-24.1975793,-53.527551,32,1207.09166
1,Brasilândia do Tocantins/TO,-8.3886619,-48.4842729,49,2226.26079
D1,Brasilândia do Tocantins/TO,-8.3886619,-48.4842729,1,45.43389
1,Brasilândia/MS,-21.255575,-52.0365617,98,825.47170
D1,Brasilândia/MS,-21.255575,-52.0365617,2,16.84636
1,Brasiléia/AC,-11.0010413,-68.7487894,1153,4387.70074
D1,Brasiléia/AC,-11.0010413,-68.7487894,20,76.10929
1,Brasnorte/MT,-12.1227151,-58.0050109,268,1360.75146
D1,Brasnorte/MT,-12.1227151,-58.0050109,1,5.07743
1,Brasília de Minas/MG,-16.2075114,-44.430559,66,204.03747
D1,Brasília de Minas/MG,-16.2075114,-44.430559,2,6.18295
1,Brasília/DF,-15.7934036,-47.8823172,179823,5963.74850
D1,Brasília/DF,-15.7934036,-47.8823172,3000,99.49364
1,Brazabrantes/GO,-16.4291635,-49.3858216,68,1836.34891
D1,Brazabrantes/GO,-16.4291635,-49.3858216,2,54.01026
1,Brazópolis/MG,-22.4742842,-45.6165577,250,1729.02690
D1,Brazópolis/MG,-22.4742842,-45.6165577,3,20.74832
1,Braço do Norte/SC,-28.2728633,-49.1622712,2181,6520.17937
D1,Braço do Norte/SC,-28.2728633,-49.1622712,16,47.83259
1,Braço do Trombudo/SC,-27.358578,-49.882145,46,1228.96073
D1,Braço do Trombudo/SC,-27.358578,-49.882145,1,26.71654
1,Braúna/SP,-21.5015319,-50.3175246,80,1406.96447
D1,Braúna/SP,-21.5015319,-50.3175246,7,123.10939
1,Braúnas/MG,-19.055556,-42.716111,16,333.26390
D1,Braúnas/MG,-19.055556,-42.716111,2,41.65799
1,Brejetuba/ES,-20.1465817,-41.2902303,452,3643.98581
1,Brejinho de Nazaré/TO,-11.0205883,-48.5722906,68,1237.03838
D1,Brejinho de Nazaré/TO,-11.0205883,-48.5722906,4,72.76696
1,Brejinho/PE,-7.3482153,-37.28538,72,961.66689
D1,Brejinho/PE,-7.3482153,-37.28538,1,13.35648
1,Brejinho/RN,-6.1957907,-35.3583019,152,1196.94464
D1,Brejinho/RN,-6.1957907,-35.3583019,3,23.62391
1,Brejo Alegre/SP,-21.1671191,-50.1850393,48,1675.39267
D1,Brejo Alegre/SP,-21.1671191,-50.1850393,2,69.80803
1,Brejo Grande do Araguaia/PA,-5.7011449,-48.4037308,425,5758.80759
D1,Brejo Grande do Araguaia/PA,-5.7011449,-48.4037308,2,27.10027
1,Brejo Grande/SE,-10.4287358,-36.4667918,170,2045.97424
D1,Brejo Grande/SE,-10.4287358,-36.4667918,7,84.24600
1,Brejo Santo/CE,-7.4909841,-38.9859152,1464,2958.95062
D1,Brejo Santo/CE,-7.4909841,-38.9859152,22,44.46510
1,Brejo da Madre de Deus/PE,-8.1409718,-36.3712527,927,1826.88897
D1,Brejo da Madre de Deus/PE,-8.1409718,-36.3712527,23,45.32734
1,Brejo de Areia/MA,-4.3316785,-45.5833334,201,2187.63605
D1,Brejo de Areia/MA,-4.3316785,-45.5833334,1,10.88376
1,Brejo do Cruz/PB,-6.32926065,-37.48746163303929,502,3554.73729
D1,Brejo do Cruz/PB,-6.32926065,-37.48746163303929,8,56.64920
1,Brejo do Piauí/PI,-8.207583,-42.8359849,13,335.48387
1,Brejo dos Santos/PB,-6.3769367,-37.8243125,60,930.37680
1,Brejo/MA,-3.6804397,-42.7529313,671,1843.55854
D1,Brejo/MA,-3.6804397,-42.7529313,18,49.45463
1,Brejolândia/BA,-12.4843845,-43.9611861,5,47.36194
D1,Brejolândia/BA,-12.4843845,-43.9611861,1,9.47239
1,Brejão/PE,-9.029146,-36.566034,30,333.59279
D1,Brejão/PE,-9.029146,-36.566034,2,22.23952
1,Brejões/BA,-13.1033754,-39.7909837,53,370.75901
D1,Brejões/BA,-13.1033754,-39.7909837,1,6.99545
1,Breu Branco/PA,-3.7785073,-49.5684795,301,455.74297
D1,Breu Branco/PA,-3.7785073,-49.5684795,20,30.28192
1,Breves/PA,-1.68036,-50.479085,2398,2334.93345
D1,Breves/PA,-1.68036,-50.479085,87,84.71193
1,Britânia/GO,-15.2427599,-51.1602061,134,2318.74027
D1,Britânia/GO,-15.2427599,-51.1602061,1,17.30403
1,Brochier/RS,-29.556766,-51.5963047,31,610.95782
1,Brodowski/SP,-20.984532,-47.657217,464,1860.53972
D1,Brodowski/SP,-20.984532,-47.657217,17,68.16633
1,Brotas de Macaúbas/BA,-12.0019007,-42.6257506,2,19.54843
1,Brotas/SP,-22.2840884,-48.1267265,117,479.44925
D1,Brotas/SP,-22.2840884,-48.1267265,2,8.19571
1,Brumadinho/MG,-20.143611,-44.2,900,2244.22113
D1,Brumadinho/MG,-20.143611,-44.2,10,24.93579
1,Brumado/BA,-14.29507325,-41.659307508575985,1098,1634.05015
D1,Brumado/BA,-14.29507325,-41.659307508575985,15,22.32309
1,Brunópolis/SC,-27.310953,-50.837585,28,1157.02479
D1,Brunópolis/SC,-27.310953,-50.837585,1,41.32231
1,Brusque/SC,-27.0964628,-48.9136323,5367,3983.72958
D1,Brusque/SC,-27.0964628,-48.9136323,54,40.08224
1,Brás Pires/MG,-20.8483109,-43.2430524,8,184.62959
1,Bueno Brandão/MG,-22.441976,-46.3517971,52,472.68430
D1,Bueno Brandão/MG,-22.441976,-46.3517971,4,36.36033
1,Buenos Aires/PE,-7.7218931,-35.326587,51,387.68529
D1,Buenos Aires/PE,-7.7218931,-35.326587,8,60.81338
1,Buenópolis/MG,-17.8756607,-44.1749365,87,839.36324
D1,Buenópolis/MG,-17.8756607,-44.1749365,1,9.64785
1,Buerarema/BA,-14.9571177,-39.3008035,470,2561.44749
D1,Buerarema/BA,-14.9571177,-39.3008035,15,81.74832
1,Bugre/MG,-19.4257687,-42.2556,41,1029.63335
D1,Bugre/MG,-19.4257687,-42.2556,2,50.22602
1,Bujari/AC,-9.8309656,-67.9520886,371,3613.87103
D1,Bujari/AC,-9.8309656,-67.9520886,7,68.18625
1,Bujaru/PA,-1.5169239,-48.0410699,621,2131.67651
D1,Bujaru/PA,-1.5169239,-48.0410699,22,75.51833
1,Buri/SP,-23.79849,-48.598924,261,1313.00936
D1,Buri/SP,-23.79849,-48.598924,5,25.15344
1,Buritama/SP,-21.0664017,-50.1448077,272,1586.56090
D1,Buritama/SP,-21.0664017,-50.1448077,10,58.32944
1,Buriti Alegre/GO,-18.1377879,-49.0404411,217,2294.11143
D1,Buriti Alegre/GO,-18.1377879,-49.0404411,5,52.85971
1,Buriti Bravo/MA,-5.8391884,-43.8367876,413,1729.19109
D1,Buriti Bravo/MA,-5.8391884,-43.8367876,1,4.18690
1,Buriti de Goiás/GO,-16.180644,-50.4287479,80,3215.43408
D1,Buriti de Goiás/GO,-16.180644,-50.4287479,1,40.19293
1,Buriti do Tocantins/TO,-5.3187439,-48.2256609,215,1894.60698
1,Buriti dos Lopes/PI,-3.1776723,-41.8707444,723,3655.02250
D1,Buriti dos Lopes/PI,-3.1776723,-41.8707444,12,60.66427
1,Buriti dos Montes/PI,-5.3136171,-41.0971256,31,376.03105
D1,Buriti dos Montes/PI,-5.3136171,-41.0971256,1,12.13003
1,Buriti/MA,-3.9430944,-42.9244281,594,2071.27415
D1,Buriti/MA,-3.9430944,-42.9244281,1,3.48699
1,Buriticupu/MA,-4.3227472,-46.4516989,2195,3033.52774
D1,Buriticupu/MA,-4.3227472,-46.4516989,4,5.52807
1,Buritinópolis/GO,-14.4589282,-46.4293104,38,1154.31349
1,Buritirama/BA,-10.7148421,-43.6362327,219,1034.28733
D1,Buritirama/BA,-10.7148421,-43.6362327,5,23.61387
1,Buritirana/MA,-5.5897455,-47.0148915,236,1529.48801
D1,Buritirana/MA,-5.5897455,-47.0148915,6,38.88529
1,Buritis/MG,-15.621389,-46.423889,300,1207.68085
D1,Buritis/MG,-15.621389,-46.423889,2,8.05121
1,Buritis/RO,-10.2054937,-63.8281954,659,1661.87522
D1,Buritis/RO,-10.2054937,-63.8281954,8,20.17451
1,Buritizal/SP,-20.1933264,-47.7097165,54,1205.08815
D1,Buritizal/SP,-20.1933264,-47.7097165,3,66.94934
1,Buritizeiro/MG,-17.3667765,-44.9647781,217,773.45309
D1,Buritizeiro/MG,-17.3667765,-44.9647781,5,17.82150
1,Butiá/RS,-30.1256795,-51.9692224,188,897.76037
D1,Butiá/RS,-30.1256795,-51.9692224,11,52.52853
1,Buíque/PE,-8.6239732,-37.157296,399,683.47665
D1,Buíque/PE,-8.6239732,-37.157296,6,10.27784
1,Bálsamo/SP,-20.7343722,-49.5807484,419,4620.64402
D1,Bálsamo/SP,-20.7343722,-49.5807484,15,165.41685
0,CASO SEM LOCALIZAÇÃO DEFINIDA/AC,-9.884083190922777,-67.85119819780795,176,19.95612
D0,CASO SEM LOCALIZAÇÃO DEFINIDA/AC,-9.884083190922777,-67.85119819780795,1,0.11339
0,CASO SEM LOCALIZAÇÃO DEFINIDA/AL,-9.931093434363673,-35.609611600637464,8,0.23971
D0,CASO SEM LOCALIZAÇÃO DEFINIDA/AL,-9.931093434363673,-35.609611600637464,8,0.23971
0,CASO SEM LOCALIZAÇÃO DEFINIDA/AM,-3.07518492149711,-60.16169212873594,1719,41.47569
D0,CASO SEM LOCALIZAÇÃO DEFINIDA/AM,-3.07518492149711,-60.16169212873594,28,0.67558
0,CASO SEM LOCALIZAÇÃO DEFINIDA/AP,2.677150600275196,-50.477785111870624,311,36.77292
D0,CASO SEM LOCALIZAÇÃO DEFINIDA/AP,2.677150600275196,-50.477785111870624,5,0.59120
0,CASO SEM LOCALIZAÇÃO DEFINIDA/BA,-13.415069300066518,-38.14174656569957,9056,60.88860
D0,CASO SEM LOCALIZAÇÃO DEFINIDA/BA,-13.415069300066518,-38.14174656569957,125,0.84045
0,CASO SEM LOCALIZAÇÃO DEFINIDA/CE,-3.3445126297392798,-38.624961942434304,4667,51.10556
D0,CASO SEM LOCALIZAÇÃO DEFINIDA/CE,-3.3445126297392798,-38.624961942434304,66,0.72273
0,CASO SEM LOCALIZAÇÃO DEFINIDA/ES,-20.30989267097039,-39.81745156645774,1116,27.77052
D0,CASO SEM LOCALIZAÇÃO DEFINIDA/ES,-20.30989267097039,-39.81745156645774,20,0.49768
0,CASO SEM LOCALIZAÇÃO DEFINIDA/GO,-16.701590966270153,-49.164524059025034,3715,52.93264
D0,CASO SEM LOCALIZAÇÃO DEFINIDA/GO,-16.701590966270153,-49.164524059025034,44,0.62693
0,CASO SEM LOCALIZAÇÃO DEFINIDA/MA,-2.171256551718846,-43.98946796681719,1772,25.04530
D0,CASO SEM LOCALIZAÇÃO DEFINIDA/MA,-2.171256551718846,-43.98946796681719,21,0.29681
0,CASO SEM LOCALIZAÇÃO DEFINIDA/MG,-19.97049116501593,-43.8852149072783,13108,61.92134
D0,CASO SEM LOCALIZAÇÃO DEFINIDA/MG,-19.97049116501593,-43.8852149072783,359,1.69589
0,CASO SEM LOCALIZAÇÃO DEFINIDA/MS,-20.391549234908513,-54.645156949758444,1886,67.86648
D0,CASO SEM LOCALIZAÇÃO DEFINIDA/MS,-20.391549234908513,-54.645156949758444,57,2.05111
0,CASO SEM LOCALIZAÇÃO DEFINIDA/MT,-15.54791153961863,-56.17143998972475,552,15.84174
D0,CASO SEM LOCALIZAÇÃO DEFINIDA/MT,-15.54791153961863,-56.17143998972475,48,1.37754
0,CASO SEM LOCALIZAÇÃO DEFINIDA/PA,-0.09317078214359542,-48.0050231510481,958,11.13583
D0,CASO SEM LOCALIZAÇÃO DEFINIDA/PA,-0.09317078214359542,-48.0050231510481,16,0.18598
0,CASO SEM LOCALIZAÇÃO DEFINIDA/PB,-7.1049355696146606,-34.68696690234351,1419,35.31496
D0,CASO SEM LOCALIZAÇÃO DEFINIDA/PB,-7.1049355696146606,-34.68696690234351,20,0.49774
0,CASO SEM LOCALIZAÇÃO DEFINIDA/PE,-8.121628543819208,-34.57313921302556,699,7.31396
D0,CASO SEM LOCALIZAÇÃO DEFINIDA/PE,-8.121628543819208,-34.57313921302556,19,0.19881
0,CASO SEM LOCALIZAÇÃO DEFINIDA/PI,-2.683810218391744,-41.470898009352254,712,21.75223
D0,CASO SEM LOCALIZAÇÃO DEFINIDA/PI,-2.683810218391744,-41.470898009352254,11,0.33606
0,CASO SEM LOCALIZAÇÃO DEFINIDA/PR,-25.69415946385943,-48.10141676336737,4154,36.33038
D0,CASO SEM LOCALIZAÇÃO DEFINIDA/PR,-25.69415946385943,-48.10141676336737,158,1.38185
0,CASO SEM LOCALIZAÇÃO DEFINIDA/RJ,-23.210238986465157,-43.12864305824042,3691,21.37858
D0,CASO SEM LOCALIZAÇÃO DEFINIDA/RJ,-23.210238986465157,-43.12864305824042,352,2.03881
0,CASO SEM LOCALIZAÇÃO DEFINIDA/RN,-5.749310788669161,-34.95302586257457,1180,33.64840
D0,CASO SEM LOCALIZAÇÃO DEFINIDA/RN,-5.749310788669161,-34.95302586257457,27,0.76992
0,CASO SEM LOCALIZAÇÃO DEFINIDA/RO,-8.681174926655274,-63.9216949899276,359,20.20003
D0,CASO SEM LOCALIZAÇÃO DEFINIDA/RO,-8.681174926655274,-63.9216949899276,8,0.45014
0,CASO SEM LOCALIZAÇÃO DEFINIDA/RR,2.813328208465927,-60.663338675861986,1441,237.88260
0,CASO SEM LOCALIZAÇÃO DEFINIDA/RS,-30.50647488532064,-49.906261466443524,3433,30.17428
D0,CASO SEM LOCALIZAÇÃO DEFINIDA/RS,-30.50647488532064,-49.906261466443524,42,0.36916
0,CASO SEM LOCALIZAÇÃO DEFINIDA/SC,-27.675643660562308,-48.18313219398259,8082,112.80166
D0,CASO SEM LOCALIZAÇÃO DEFINIDA/SC,-27.675643660562308,-48.18313219398259,24,0.33497
0,CASO SEM LOCALIZAÇÃO DEFINIDA/SE,-11.03002091978736,-36.89283180376513,139,6.04691
D0,CASO SEM LOCALIZAÇÃO DEFINIDA/SE,-11.03002091978736,-36.89283180376513,3,0.13051
0,CASO SEM LOCALIZAÇÃO DEFINIDA/SP,-24.30968974555485,-46.21366504207253,169,0.36804
0,CASO SEM LOCALIZAÇÃO DEFINIDA/TO,-10.213012114749148,-48.40023803990334,546,34.71370
D0,CASO SEM LOCALIZAÇÃO DEFINIDA/TO,-10.213012114749148,-48.40023803990334,9,0.57220
1,Caapiranga/AM,-3.3188884,-61.2096404,297,2270.46862
D1,Caapiranga/AM,-3.3188884,-61.2096404,7,53.51273
1,Caaporã/PB,-7.510234,-34.9154114,970,4443.83361
D1,Caaporã/PB,-7.510234,-34.9154114,15,68.71908
1,Caarapó/MS,-22.6349267,-54.8240903,398,1319.01637
D1,Caarapó/MS,-22.6349267,-54.8240903,2,6.62822
1,Caatiba/BA,-14.9782759,-40.4092325,245,3625.33294
1,Cabaceiras do Paraguaçu/BA,-12.5377868,-39.1901339,64,340.29882
D1,Cabaceiras do Paraguaçu/BA,-12.5377868,-39.1901339,1,5.31717
1,Cabaceiras/PB,-7.4899156,-36.2860501,102,1817.85778
1,Cabeceira Grande/MG,-16.0297,-47.0906,41,590.01295
1,Cabeceiras do Piauí/PI,-4.4733665,-42.3098716,209,1974.30569
D1,Cabeceiras do Piauí/PI,-4.4733665,-42.3098716,5,47.23219
1,Cabeceiras/GO,-15.7995459,-46.9264991,60,750.65682
D1,Cabeceiras/GO,-15.7995459,-46.9264991,3,37.53284
1,Cabedelo/PB,-6.97324,-34.8351609,2884,4257.70639
D1,Cabedelo/PB,-6.97324,-34.8351609,65,95.96079
1,Cabixi/RO,-13.4956065,-60.5424442,93,1750.75301
D1,Cabixi/RO,-13.4956065,-60.5424442,5,94.12651
1,Cabo Frio/RJ,-22.8804369,-42.0189227,2281,1006.95287
D1,Cabo Frio/RJ,-22.8804369,-42.0189227,129,56.94736
1,Cabo Verde/MG,-21.4743338,-46.3964995,33,234.45826
1,Cabo de Santo Agostinho/PE,-8.2838945,-35.0320984,1792,865.49979
D1,Cabo de Santo Agostinho/PE,-8.2838945,-35.0320984,238,114.94919
1,Cabreúva/SP,-23.3075813,-47.1324417,1121,2255.21556
D1,Cabreúva/SP,-23.3075813,-47.1324417,39,78.45977
1,Cabrobó/PE,-8.5083701,-39.3106961,380,1110.42927
D1,Cabrobó/PE,-8.5083701,-39.3106961,4,11.68873
1,Cabrália Paulista/SP,-22.4562909,-49.3385645,89,2087.24203
1,Cacaulândia/RO,-10.3380043,-62.9007231,79,1268.05778
1,Cacequi/RS,-29.8838059,-54.8273443,30,238.83449
1,Cachoeira Alta/GO,-18.7618269,-50.9432431,565,4525.79302
D1,Cachoeira Alta/GO,-18.7618269,-50.9432431,8,64.08202
1,Cachoeira Dourada/GO,-18.4934204,-49.481062,71,880.12892
D1,Cachoeira Dourada/GO,-18.4934204,-49.481062,1,12.39618
1,Cachoeira Dourada/MG,-18.517136,-49.5002062,9,334.32392
1,Cachoeira Grande/MA,-2.9290492,-44.0573223,171,1813.16934
D1,Cachoeira Grande/MA,-2.9290492,-44.0573223,4,42.41332
1,Cachoeira Paulista/SP,-22.666498,-45.015384,320,960.18243
D1,Cachoeira Paulista/SP,-22.666498,-45.015384,11,33.00627
1,Cachoeira da Prata/MG,-19.524723,-44.453056,37,1026.92201
D1,Cachoeira da Prata/MG,-19.524723,-44.453056,1,27.75465
1,Cachoeira de Goiás/GO,-16.6688414,-50.6435997,15,1110.28868
1,Cachoeira de Minas/MG,-22.3554043,-45.7796324,97,840.04503
1,Cachoeira de Pajeú/MG,-15.965833,-41.496666,193,2050.57374
D1,Cachoeira de Pajeú/MG,-15.965833,-41.496666,2,21.24947
1,Cachoeira do Arari/PA,-1.0143572,-48.9621089,281,1182.31161
D1,Cachoeira do Arari/PA,-1.0143572,-48.9621089,12,50.49018
1,Cachoeira do Piriá/PA,-1.7599443,-46.5446954,499,1471.97640
D1,Cachoeira do Piriá/PA,-1.7599443,-46.5446954,3,8.84956
1,Cachoeira do Sul/RS,-30.0474778,-52.8905413,513,624.08000
D1,Cachoeira do Sul/RS,-30.0474778,-52.8905413,5,6.08265
1,Cachoeira dos Índios/PB,-6.9259193,-38.6742159,103,1005.46661
D1,Cachoeira dos Índios/PB,-6.9259193,-38.6742159,6,58.57087
1,Cachoeira/BA,-12.5998256,-38.9665918,426,1272.78160
D1,Cachoeira/BA,-12.5998256,-38.9665918,9,26.88975
1,Cachoeiras de Macacu/RJ,-22.4626861,-42.6534414,573,972.22458
D1,Cachoeiras de Macacu/RJ,-22.4626861,-42.6534414,27,45.81163
1,Cachoeirinha/PE,-8.4906364,-36.2338963,268,1315.01472
D1,Cachoeirinha/PE,-8.4906364,-36.2338963,19,93.22866
1,Cachoeirinha/RS,-29.9493353,-51.0898927,2353,1805.92971
D1,Cachoeirinha/RS,-29.9493353,-51.0898927,54,41.44505
1,Cachoeirinha/TO,-6.118647,-47.9208885,24,1054.94505
1,Cachoeiro de Itapemirim/ES,-20.848084,-41.11129,5481,2622.83942
D1,Cachoeiro de Itapemirim/ES,-20.848084,-41.11129,166,79.43648
1,Cacimba de Areia/PB,-7.1288513,-37.1575194,10,271.59153
1,Cacimba de Dentro/PB,-6.6425101,-35.7929304,337,1960.78431
D1,Cacimba de Dentro/PB,-6.6425101,-35.7929304,7,40.72846
1,Cacimbas/PB,-7.2125451,-37.0593398,47,655.23491
D1,Cacimbas/PB,-7.2125451,-37.0593398,1,13.94117
1,Cacimbinhas/AL,-9.401212,-36.991082,255,2348.49880
D1,Cacimbinhas/AL,-9.401212,-36.991082,3,27.62940
1,Cacique Doble/RS,-27.7700117,-51.6616409,86,1697.92695
1,Cacoal/RO,-11.4333,-61.4420502,2052,2403.96443
D1,Cacoal/RO,-11.4333,-61.4420502,30,35.14568
1,Caconde/SP,-21.527995,-46.643659,89,468.79115
1,Caculé/BA,-14.4990734,-42.2233006,77,332.32628
D1,Caculé/BA,-14.4990734,-42.2233006,2,8.63185
1,Caetanos/BA,-14.3387456,-40.9085971,59,405.72136
1,Caetanópolis/MG,-19.2947496,-44.4138386,71,610.80523
D1,Caetanópolis/MG,-19.2947496,-44.4138386,1,8.60289
1,Caetité/BA,-14.0691776,-42.4852428,152,298.18538
D1,Caetité/BA,-14.0691776,-42.4852428,4,7.84698
1,Caeté/MG,-19.897777,-43.670278,356,796.10000
D1,Caeté/MG,-19.897777,-43.670278,8,17.88989
1,Caetés/PE,-8.7728788,-36.6255835,484,1684.12262
D1,Caetés/PE,-8.7728788,-36.6255835,5,17.39796
1,Cafarnaum/BA,-11.691399,-41.468823,184,997.99317
D1,Cafarnaum/BA,-11.691399,-41.468823,2,10.84775
1,Cafeara/PR,-22.78905,-51.714195,51,1738.24131
1,Cafelândia/PR,-24.6176963,-53.3218057,196,1081.67770
D1,Cafelândia/PR,-24.6176963,-53.3218057,1,5.51876
1,Cafelândia/SP,-21.8054355,-49.6030627,248,1395.84623
D1,Cafelândia/SP,-21.8054355,-49.6030627,2,11.25682
1,Cafezal do Sul/PR,-23.900508,-53.512418,22,544.01583
1,Caiabu/SP,-22.0143038,-51.2356597,35,835.12288
D1,Caiabu/SP,-22.0143038,-51.2356597,2,47.72131
1,Caiana/MG,-20.695555,-41.924723,16,291.12082
D1,Caiana/MG,-20.695555,-41.924723,2,36.39010
1,Caiapônia/GO,-16.9538779,-51.8090761,131,692.64527
D1,Caiapônia/GO,-16.9538779,-51.8090761,1,5.28737
1,Caibaté/RS,-28.290475,-54.645407,2,41.27115
1,Caibi/SC,-27.0751925,-53.2502133,41,666.88354
D1,Caibi/SC,-27.0751925,-53.2502133,2,32.53090
1,Caicó/RN,-6.4594544,-37.0971911,2323,3418.58959
D1,Caicó/RN,-6.4594544,-37.0971911,30,44.14881
1,Caieiras/SP,-23.3644621,-46.7484765,1983,1954.27220
D1,Caieiras/SP,-23.3644621,-46.7484765,93,91.65271
1,Cairu/BA,-13.4860505,-39.0455744,204,1122.35915
D1,Cairu/BA,-13.4860505,-39.0455744,5,27.50880
1,Caiuá/SP,-21.8319357,-51.9887179,54,919.30541
1,Caiçara do Norte/RN,-5.0645017,-36.0561226,87,1328.44709
D1,Caiçara do Norte/RN,-5.0645017,-36.0561226,3,45.80852
1,Caiçara do Rio do Vento/RN,-5.757968,-36.00089,61,1655.80890
D1,Caiçara do Rio do Vento/RN,-5.757968,-36.00089,1,27.14441
1,Caiçara/PB,-6.6146866,-35.4681434,449,6235.24510
D1,Caiçara/PB,-6.6146866,-35.4681434,8,111.09568
1,Caiçara/RS,-27.2750478,-53.4310053,43,906.59920
D1,Caiçara/RS,-27.2750478,-53.4310053,2,42.16740
1,Cajamar/SP,-23.3561111,-46.8769444,1497,1949.19337
D1,Cajamar/SP,-23.3561111,-46.8769444,75,97.65498
1,Cajapió/MA,-2.8778715,-44.6746871,5,44.73472
D1,Cajapió/MA,-2.8778715,-44.6746871,2,17.89389
1,Cajari/MA,-3.3213076,-45.0118757,131,675.98947
D1,Cajari/MA,-3.3213076,-45.0118757,4,20.64090
1,Cajati/SP,-24.7272376,-48.1077914,1492,5226.10249
D1,Cajati/SP,-24.7272376,-48.1077914,24,84.06599
1,Cajazeiras do Piauí/PI,-6.794271,-42.3935024,7,196.68446
1,Cajazeiras/PB,-6.8897849,-38.5570389,1792,2890.64894
D1,Cajazeiras/PB,-6.8897849,-38.5570389,43,69.36267
1,Cajazeirinhas/PB,-6.961442,-37.7993733,34,1064.82931
1,Cajobi/SP,-20.8776238,-48.8106972,174,1650.54069
D1,Cajobi/SP,-20.8776238,-48.8106972,6,56.91520
1,Cajueiro da Praia/PI,-2.931114,-41.340801,297,3886.41717
D1,Cajueiro da Praia/PI,-2.931114,-41.340801,8,104.68464
1,Cajueiro/AL,-9.399589,-36.1524309,290,1363.80737
D1,Cajueiro/AL,-9.399589,-36.1524309,12,56.43341
1,Cajuri/MG,-20.7901414,-42.7954489,45,1128.66817
1,Cajuru/SP,-21.2759978,-47.3046035,440,1681.50724
D1,Cajuru/SP,-21.2759978,-47.3046035,9,34.39447
1,Caldas Brandão/PB,-7.1027959,-35.3254676,317,5271.03425
D1,Caldas Brandão/PB,-7.1027959,-35.3254676,2,33.25574
1,Caldas Novas/GO,-17.745,-48.625,1286,1410.67550
D1,Caldas Novas/GO,-17.745,-48.625,31,34.00540
1,Caldas/MG,-21.923611,-46.386111,86,593.92265
D1,Caldas/MG,-21.923611,-46.386111,2,13.81215
1,Caldazinha/GO,-16.7116649,-49.0012601,67,1761.30389
D1,Caldazinha/GO,-16.7116649,-49.0012601,1,26.28812
1,Caldeirão Grande do Piauí/PI,-7.3310393,-40.6374433,126,2181.44044
1,Caldeirão Grande/BA,-11.0208483,-40.3041387,122,915.43483
D1,Caldeirão Grande/BA,-11.0208483,-40.3041387,1,7.50356
1,Califórnia/PR,-23.6672543,-51.3554556,78,910.15169
D1,Califórnia/PR,-23.6672543,-51.3554556,2,23.33722
1,Calmon/SC,-26.6023644,-51.0992893,8,239.09145
1,Calumbi/PE,-7.9389746,-38.1516871,166,2886.95652
D1,Calumbi/PE,-7.9389746,-38.1516871,1,17.39130
1,Calçado/PE,-8.7413446,-36.3351787,58,524.74441
D1,Calçado/PE,-8.7413446,-36.3351787,1,9.04732
1,Calçoene/AP,2.4981757,-50.9539503,1154,10380.49834
D1,Calçoene/AP,2.4981757,-50.9539503,5,44.97616
1,Camacan/BA,-15.4166631,-39.4930088,1349,4217.20645
D1,Camacan/BA,-15.4166631,-39.4930088,26,81.28048
1,Camalaú/PB,-7.885031,-36.824191,30,498.91901
1,Camamu/BA,-13.9438142,-39.1060917,800,2265.26220
D1,Camamu/BA,-13.9438142,-39.1060917,14,39.64209
1,Camanducaia/MG,-22.755278,-46.144444,455,2090.03215
D1,Camanducaia/MG,-22.755278,-46.144444,9,41.34130
1,Camapuã/MS,-19.5291747,-54.0434641,40,291.73656
D1,Camapuã/MS,-19.5291747,-54.0434641,1,7.29341
1,Camaquã/RS,-30.8524752,-51.8075619,863,1302.42526
D1,Camaquã/RS,-30.8524752,-51.8075619,19,28.67448
1,Camaragibe/PE,-8.0213832,-34.9810768,2018,1278.60709
D1,Camaragibe/PE,-8.0213832,-34.9810768,173,109.61300
1,Camargo/RS,-28.5865661,-52.2031474,33,1207.46432
1,Camaçari/BA,-12.6998188,-38.3260762,5841,1952.64967
D1,Camaçari/BA,-12.6998188,-38.3260762,103,34.43296
1,Cambará do Sul/RS,-29.0489517,-50.145412,63,979.62992
1,Cambará/PR,-23.042273,-50.075281,161,634.85804
D1,Cambará/PR,-23.042273,-50.075281,4,15.77287
1,Cambira/PR,-23.600265,-51.581045,70,890.01907
D1,Cambira/PR,-23.600265,-51.581045,2,25.42912
1,Camboriú/SC,-27.0273601,-48.6535657,2604,3137.76525
D1,Camboriú/SC,-27.0273601,-48.6535657,42,50.60912
1,Cambuci/RJ,-21.5749919,-41.9107833,182,1173.81490
D1,Cambuci/RJ,-21.5749919,-41.9107833,5,32.24766
1,Cambuquira/MG,-21.853056,-45.2953619,22,171.68722
1,Cambuí/MG,-22.6122501,-46.0572137,323,1093.02562
D1,Cambuí/MG,-22.6122501,-46.0572137,6,20.30388
1,Cambé/PR,-23.2782035,-51.2779583,1511,1418.33986
D1,Cambé/PR,-23.2782035,-51.2779583,25,23.46691
1,Cametá/PA,-2.242949,-49.497885,4734,3433.17137
D1,Cametá/PA,-2.242949,-49.497885,96,69.62071
1,Camocim de São Félix/PE,-8.3616757,-35.7638903,203,1081.80123
D1,Camocim de São Félix/PE,-8.3616757,-35.7638903,7,37.30349
1,Camocim/CE,-2.9009918,-40.8427389,2321,3645.87424
D1,Camocim/CE,-2.9009918,-40.8427389,80,125.66564
1,Campanha/MG,-21.8361108,-45.401986,106,636.06361
D1,Campanha/MG,-21.8361108,-45.401986,4,24.00240
1,Campanário/MG,-18.2398144,-41.7271768,15,403.11744
1,Campestre da Serra/RS,-28.7966535,-51.0958149,33,974.02597
1,Campestre de Goiás/GO,-16.7624179,-49.69497,134,3691.46006
D1,Campestre de Goiás/GO,-16.7624179,-49.69497,2,55.09642
1,Campestre do Maranhão/MA,-6.1729113,-47.3640512,440,3061.08251
D1,Campestre do Maranhão/MA,-6.1729113,-47.3640512,6,41.74203
1,Campestre/AL,-8.8481634,-35.5660033,94,1355.24798
D1,Campestre/AL,-8.8481634,-35.5660033,3,43.25260
1,Campestre/MG,-19.6142116,-43.219378,115,546.18855
D1,Campestre/MG,-19.6142116,-43.219378,4,18.99786
1,Campina Grande do Sul/PR,-25.3046032,-49.0545355,878,2028.27573
D1,Campina Grande do Sul/PR,-25.3046032,-49.0545355,21,48.51229
1,Campina Grande/PB,-7.2246743,-35.8771292,12585,3071.52742
D1,Campina Grande/PB,-7.2246743,-35.8771292,356,86.88627
1,Campina Verde/MG,-19.535277,-49.486389,106,536.84477
D1,Campina Verde/MG,-19.535277,-49.486389,4,20.25829
1,Campina da Lagoa/PR,-24.5937926,-52.8038965,27,190.11407
D1,Campina da Lagoa/PR,-24.5937926,-52.8038965,2,14.08252
1,Campina das Missões/RS,-27.9883295,-54.8411665,28,511.50895
D1,Campina das Missões/RS,-27.9883295,-54.8411665,3,54.80453
1,Campina do Monte Alegre/SP,-23.5935653,-48.4801876,73,1211.81939
1,Campina do Simão/PR,-25.1086375,-51.8076658,5,128.63391
D1,Campina do Simão/PR,-25.1086375,-51.8076658,1,25.72678
1,Campinas do Piauí/PI,-7.6593687,-41.8814875,34,605.73668
D1,Campinas do Piauí/PI,-7.6593687,-41.8814875,1,17.81578
1,Campinas do Sul/RS,-27.7167968,-52.6257885,81,1485.14851
D1,Campinas do Sul/RS,-27.7167968,-52.6257885,2,36.67033
1,Campinas/SP,-22.90556,-47.06083,29792,2474.26859
D1,Campinas/SP,-22.90556,-47.06083,1150,95.50916
1,Campinaçu/GO,-13.7869969,-48.5703841,117,3214.28571
1,Campinorte/GO,-14.3136699,-49.1510931,303,2399.80992
D1,Campinorte/GO,-14.3136699,-49.1510931,7,55.44115
1,Campinápolis/MT,-14.5403731,-52.7970626,395,2471.83980
D1,Campinápolis/MT,-14.5403731,-52.7970626,15,93.86733
1,Campo Alegre de Goiás/GO,-17.6337896,-47.779291,10,131.76967
1,Campo Alegre de Lourdes/BA,-9.5160326,-43.0101338,111,385.44343
D1,Campo Alegre de Lourdes/BA,-9.5160326,-43.0101338,2,6.94493
1,Campo Alegre do Fidalgo/PI,-8.3753852,-41.8364191,13,257.68087
D1,Campo Alegre do Fidalgo/PI,-8.3753852,-41.8364191,1,19.82161
1,Campo Alegre/AL,-9.7798607,-36.3575793,1330,2330.75723
D1,Campo Alegre/AL,-9.7798607,-36.3575793,28,49.06857
1,Campo Alegre/SC,-26.1941684,-49.2657484,163,1360.82819
D1,Campo Alegre/SC,-26.1941684,-49.2657484,5,41.74320
1,Campo Azul/MG,-16.5078525,-44.8133524,3,78.59576
1,Campo Belo do Sul/SC,-27.8987563,-50.7586887,81,1154.50399
D1,Campo Belo do Sul/SC,-27.8987563,-50.7586887,1,14.25314
1,Campo Belo/MG,-20.8975,-45.277223,754,1395.54684
D1,Campo Belo/MG,-20.8975,-45.277223,14,25.91201
1,Campo Bom/RS,-29.674694,-51.060601,2041,3059.41959
D1,Campo Bom/RS,-29.674694,-51.060601,40,59.95923
1,Campo Bonito/PR,-25.0328004,-52.992976,45,1174.01513
1,Campo Erê/SC,-26.3947432,-53.0790495,84,985.22167
1,Campo Florido/MG,-19.760833,-48.572223,115,1410.86983
1,Campo Formoso/BA,-10.51055,-40.320031,988,1387.52352
D1,Campo Formoso/BA,-10.51055,-40.320031,11,15.44814
1,Campo Grande do Piauí/PI,-7.1327559,-41.0381164,107,1800.43749
D1,Campo Grande do Piauí/PI,-7.1327559,-41.0381164,1,16.82652
1,Campo Grande/AL,-9.9725,-36.74791447368421,193,2019.25089
D1,Campo Grande/AL,-9.9725,-36.74791447368421,5,52.31220
1,Campo Grande/MS,-20.4640173,-54.6162947,26103,2913.33978
D1,Campo Grande/MS,-20.4640173,-54.6162947,447,49.88940
1,Campo Largo do Piauí/PI,-3.8104731,-42.6288333,194,2665.20126
D1,Campo Largo do Piauí/PI,-3.8104731,-42.6288333,4,54.95260
1,Campo Largo/PR,-25.4597726,-49.5270851,2735,2071.93830
D1,Campo Largo/PR,-25.4597726,-49.5270851,63,47.72655
1,Campo Limpo Paulista/SP,-23.207791,-46.788919,1158,1367.98582
D1,Campo Limpo Paulista/SP,-23.207791,-46.788919,65,76.78677
1,Campo Limpo de Goiás/GO,-16.297101,-49.0894994,21,269.61099
D1,Campo Limpo de Goiás/GO,-16.297101,-49.0894994,2,25.67724
1,Campo Magro/PR,-25.3691533,-49.4496921,475,1620.16509
D1,Campo Magro/PR,-25.3691533,-49.4496921,9,30.69786
1,Campo Maior/PI,-4.8339574,-42.1739786,2234,4770.14071
D1,Campo Maior/PI,-4.8339574,-42.1739786,43,91.81560
1,Campo Mourão/PR,-24.046329,-52.37802,940,990.94445
D1,Campo Mourão/PR,-24.046329,-52.37802,36,37.95106
1,Campo Novo de Rondônia/RO,-10.5704235,-63.6199511,147,1039.67749
D1,Campo Novo de Rondônia/RO,-10.5704235,-63.6199511,5,35.36318
1,Campo Novo do Parecis/MT,-13.658735,-57.890723,2495,7055.99548
D1,Campo Novo do Parecis/MT,-13.658735,-57.890723,25,70.70136
1,Campo Novo/RS,-28.91500235,-52.331375687737626,16,356.82426
1,Campo Redondo/RN,-6.2420373,-36.1830606,232,2068.28920
D1,Campo Redondo/RN,-6.2420373,-36.1830606,3,26.74512
1,Campo Verde/MT,-15.5430787,-55.1590511,1962,4454.93972
D1,Campo Verde/MT,-15.5430787,-55.1590511,36,81.74201
1,Campo do Brito/SE,-10.7496246,-37.4942276,643,3550.72064
D1,Campo do Brito/SE,-10.7496246,-37.4942276,12,66.26539
1,Campo do Meio/MG,-21.1072006,-45.8301735,46,394.68039
1,Campo do Tenente/PR,-25.9814143,-49.684518,68,853.09246
D1,Campo do Tenente/PR,-25.9814143,-49.684518,3,37.63643
1,Campos Altos/MG,-19.696389,-46.171389,130,840.82530
D1,Campos Altos/MG,-19.696389,-46.171389,6,38.80732
1,Campos Belos/GO,-13.0349839,-46.768112,221,1111.27872
D1,Campos Belos/GO,-13.0349839,-46.768112,4,20.11364
1,Campos Borges/RS,-28.8852198,-52.999098,11,331.32530
1,Campos Gerais/MG,-21.2333342,-45.7584127,90,312.78237
D1,Campos Gerais/MG,-21.2333342,-45.7584127,3,10.42608
1,Campos Lindos/TO,-7.9740597,-46.8023881,242,2392.24990
D1,Campos Lindos/TO,-7.9740597,-46.8023881,2,19.77066
1,Campos Novos Paulista/SP,-22.601952,-49.998726,61,1228.60020
D1,Campos Novos Paulista/SP,-22.601952,-49.998726,1,20.14099
1,Campos Novos/SC,-27.3962904,-51.2224397,1318,3636.46397
D1,Campos Novos/SC,-27.3962904,-51.2224397,15,41.38616
1,Campos Sales/CE,-7.0742675,-40.3740367,348,1268.86896
D1,Campos Sales/CE,-7.0742675,-40.3740367,7,25.52323
1,Campos Verdes/GO,-14.2709062,-49.65746,34,1588.04297
D1,Campos Verdes/GO,-14.2709062,-49.65746,1,46.70715
1,Campos de Júlio/MT,-13.7223646,-59.2645296,371,5383.83399
D1,Campos de Júlio/MT,-13.7223646,-59.2645296,5,72.55841
1,Campos do Jordão/SP,-22.7395263,-45.5912829,681,1307.40286
D1,Campos do Jordão/SP,-22.7395263,-45.5912829,15,28.79742
1,Campos dos Goytacazes/RJ,-21.7558619,-41.3326895,5116,1007.98348
D1,Campos dos Goytacazes/RJ,-21.7558619,-41.3326895,337,66.39766
1,Camutanga/PE,-7.4092965,-35.2738166,153,1789.26441
D1,Camutanga/PE,-7.4092965,-35.2738166,7,81.86177
1,Cana Verde/MG,-21.021308,-45.1817881,80,1427.80653
D1,Cana Verde/MG,-21.021308,-45.1817881,2,35.69516
1,Canabrava do Norte/MT,-11.0516481,-51.8301897,54,1138.51992
D1,Canabrava do Norte/MT,-11.0516481,-51.8301897,1,21.08370
1,Cananéia/SP,-25.0104609,-47.9315628,178,1419.45774
D1,Cananéia/SP,-25.0104609,-47.9315628,7,55.82137
1,Canapi/AL,-9.1173572,-37.6011704,64,361.13305
D1,Canapi/AL,-9.1173572,-37.6011704,3,16.92811
1,Canarana/BA,-11.6870151,-41.7683675,100,382.02934
D1,Canarana/BA,-11.6870151,-41.7683675,1,3.82029
1,Canarana/MT,-13.5564602,-52.2691167,626,2900.96853
D1,Canarana/MT,-13.5564602,-52.2691167,12,55.60962
1,Canas/SP,-22.7029347,-45.0526508,47,914.75282
D1,Canas/SP,-22.7029347,-45.0526508,2,38.92565
1,Canavieira/PI,-7.6924041,-43.7190063,7,177.21519
D1,Canavieira/PI,-7.6924041,-43.7190063,1,25.31646
1,Canavieiras/BA,-15.61621745,-39.08485321304444,199,639.89196
D1,Canavieiras/BA,-15.61621745,-39.08485321304444,11,35.37091
1,Canaã dos Carajás/PA,-6.5296837,-49.8516592,3665,9882.70190
D1,Canaã dos Carajás/PA,-6.5296837,-49.8516592,43,115.94984
1,Canaã/MG,-20.685555,-42.62,1,21.91541
1,Candeal/BA,-11.8053441,-39.1206515,81,980.86704
1,Candeias do Jamari/RO,-8.7949939,-63.7018851,1377,5158.65583
D1,Candeias do Jamari/RO,-8.7949939,-63.7018851,25,93.65751
1,Candeias/BA,-12.6693806,-38.5406462,2143,2461.06849
D1,Candeias/BA,-12.6693806,-38.5406462,53,60.86637
1,Candeias/MG,-20.7676161,-45.2763777,78,523.98227
D1,Candeias/MG,-20.7676161,-45.2763777,3,20.15316
1,Candelária/RS,-29.668391,-52.789495,149,475.05181
D1,Candelária/RS,-29.668391,-52.789495,2,6.37653
1,Candiba/BA,-14.4125032,-42.8714102,28,195.54438
1,Candiota/RS,-31.5451894,-53.719538,79,824.29048
D1,Candiota/RS,-31.5451894,-53.719538,1,10.43406
1,Candói/PR,-25.5711951,-52.051107,72,450.59140
1,Canela/RS,-29.3624657,-50.8134204,583,1295.61314
D1,Canela/RS,-29.3624657,-50.8134204,20,44.44642
1,Canelinha/SC,-27.2660341,-48.7666708,502,4101.30719
D1,Canelinha/SC,-27.2660341,-48.7666708,8,65.35948
1,Canguaretama/RN,-6.3751942,-35.137463,299,872.33049
D1,Canguaretama/RN,-6.3751942,-35.137463,17,49.59739
1,Canguçu/RS,-31.398276,-52.6773522,166,296.19056
D1,Canguçu/RS,-31.398276,-52.6773522,5,8.92140
1,Canhoba/SE,-10.1373681,-36.9710796,90,2245.50898
1,Canhotinho/PE,-8.876519,-36.197935,395,1592.48508
D1,Canhotinho/PE,-8.876519,-36.197935,14,56.44251
1,Canindé de São Francisco/SE,-9.6597475,-37.7904456,362,1210.70234
D1,Canindé de São Francisco/SE,-9.6597475,-37.7904456,8,26.75585
1,Canindé/CE,-4.3547946,-39.3108516,1910,2480.61613
D1,Canindé/CE,-4.3547946,-39.3108516,72,93.51014
1,Canitar/SP,-23.0066616,-49.7840632,39,747.69939
D1,Canitar/SP,-23.0066616,-49.7840632,1,19.17178
1,Canoas/RS,-29.9216045,-51.1799525,5693,1642.45159
D1,Canoas/RS,-29.9216045,-51.1799525,238,68.66388
1,Canoinhas/SC,-26.176591,-50.395001,517,950.35018
D1,Canoinhas/SC,-26.176591,-50.395001,9,16.54381
1,Cansanção/BA,-10.6671448,-39.498199,157,450.70908
D1,Cansanção/BA,-10.6671448,-39.498199,3,8.61228
1,Cantagalo/PR,-25.3735238,-52.1238114,64,480.58872
D1,Cantagalo/PR,-25.3735238,-52.1238114,1,7.50920
1,Cantagalo/RJ,-21.9811325,-42.3682522,148,733.69026
D1,Cantagalo/RJ,-21.9811325,-42.3682522,2,9.91473
1,Cantanhede/MA,-3.6355005,-44.3778738,381,1732.21187
D1,Cantanhede/MA,-3.6355005,-44.3778738,3,13.63946
1,Canto do Buriti/PI,-8.1112473,-42.944844,297,1401.80299
D1,Canto do Buriti/PI,-8.1112473,-42.944844,6,28.31925
1,Cantá/RR,2.60994,-60.605827,978,5334.06054
D1,Cantá/RR,2.60994,-60.605827,9,49.08645
1,Canudos do Vale/RS,-29.3240418,-52.2348494,6,349.65035
1,Canudos/BA,-9.8948692,-39.0266244,122,731.94144
D1,Canudos/BA,-9.8948692,-39.0266244,4,23.99808
1,Canutama/AM,-6.5330019,-64.3834966,382,2444.17429
1,Canápolis/BA,-13.072454,-44.200949,29,298.63042
1,Canápolis/MG,-18.7228793,-49.2016329,320,2633.74486
D1,Canápolis/MG,-18.7228793,-49.2016329,9,74.07407
1,Capanema/PA,-1.1933054,-47.1828679,1245,1803.64205
D1,Capanema/PA,-1.1933054,-47.1828679,63,91.26863
1,Capanema/PR,-25.6704878,-53.8083036,509,2661.57708
D1,Capanema/PR,-25.6704878,-53.8083036,3,15.68709
1,Caparaó/MG,-20.5232726,-41.9049984,32,588.45164
D1,Caparaó/MG,-20.5232726,-41.9049984,3,55.16734
1,Capela Nova/MG,-20.9236773,-43.6179487,2,42.98302
1,Capela de Santana/RS,-29.6926603,-51.3206659,49,410.38526
D1,Capela de Santana/RS,-29.6926603,-51.3206659,1,8.37521
1,Capela do Alto Alegre/BA,-11.6703944,-39.8362745,165,1417.89121
