type,name,lat,lon,total,total_per_100k_inhabitants
1,Abadia dos Dourados/MG,-18.4911191,-47.4063589,5,71.54099
1,Abaetetuba/PA,-1.721828,-48.878843,299,189.60291
D1,Abaetetuba/PA,-1.721828,-48.878843,10,6.34123
1,Abaeté/MG,-19.1566833,-45.4481213,1,4.30348
1,Abaiara/CE,-7.3607808,-39.0487878,1,8.52006
1,Abatiá/PR,-23.3052967,-50.3102532,1,13.41022
1,Abaíra/BA,-13.2503296,-41.6640342,4,45.77183
1,Abel Figueiredo/PA,-4.953001,-48.3958485,3,40.35513
D1,Abel Figueiredo/PA,-4.953001,-48.3958485,1,13.45171
1,Abelardo Luz/SC,-26.5705893,-52.3280339,2,11.17069
1,Abreu e Lima/PE,-7.900719,-34.898389,192,192.01920
D1,Abreu e Lima/PE,-7.900719,-34.898389,15,15.00150
1,Abreulândia/TO,-9.6221526,-49.1558343,2,77.54944
1,Acajutiba/BA,-11.6609659,-38.0186381,1,6.59674
1,Acarape/CE,-4.2237866,-38.7071663,12,80.38047
D1,Acarape/CE,-4.2237866,-38.7071663,2,13.39674
1,Acaraú/CE,-2.8869514,-40.1194713,181,288.94813
D1,Acaraú/CE,-2.8869514,-40.1194713,3,4.78920
1,Acari/RN,-6.4364689,-36.6394777,1,8.97989
1,Acará/PA,-1.961388,-48.1987043,18,32.37934
D1,Acará/PA,-1.961388,-48.1987043,3,5.39656
1,Acopiara/CE,-6.0936464,-39.4543204,20,36.85277
D1,Acopiara/CE,-6.0936464,-39.4543204,1,1.84264
1,Acorizal/MT,-15.2001544,-56.3668953,1,18.52195
1,Acrelândia/AC,-10.0759167,-67.0526898,67,439.17147
D1,Acrelândia/AC,-10.0759167,-67.0526898,1,6.55480
1,Adamantina/SP,-21.6866517,-51.0762975,26,74.14167
D1,Adamantina/SP,-21.6866517,-51.0762975,1,2.85160
1,Adolfo/SP,-21.2356597,-49.6441918,2,56.14823
1,Adustina/BA,-10.5358875,-38.114479,1,5.86854
1,Afogados da Ingazeira/PE,-7.750429,-37.6356375,5,13.41958
1,Afonso Bezerra/RN,-5.4745,-36.57625071327935,3,27.18623
1,Afonso Cláudio/ES,-20.077841,-41.12606,38,124.23985
D1,Afonso Cláudio/ES,-20.077841,-41.12606,5,16.34735
1,Afrânio/PE,-8.5198919,-41.0070197,1,5.09295
1,Afuá/PA,-0.1535664,-50.3879223,4,10.19940
1,Agrestina/PE,-8.4558021,-35.9442663,5,20.09243
D1,Agrestina/PE,-8.4558021,-35.9442663,3,12.05546
1,Aguaí/SP,-22.0592036,-46.979384,14,38.56218
D1,Aguaí/SP,-22.0592036,-46.979384,3,8.26332
1,Agudos do Sul/PR,-25.9890808,-49.3328175,10,106.71220
1,Agudos/SP,-22.471162,-48.987822,21,56.43038
D1,Agudos/SP,-22.471162,-48.987822,1,2.68716
1,Aguiarnópolis/TO,-6.5600452,-47.4721189,5,74.26110
D1,Aguiarnópolis/TO,-6.5600452,-47.4721189,1,14.85222
1,Aimorés/MG,-19.4917754,-41.0615603,10,39.73457
1,Aiquara/BA,-14.126918,-39.8887574,3,67.47638
1,Aiuaba/CE,-6.5710836,-40.1212278,2,11.49491
1,Ajuricaba/RS,-28.239654,-53.7693013,1,14.23690
1,Alagoa Grande/PB,-7.0415212,-35.6285322,21,73.69455
1,Alagoa Nova/PB,-7.0653703,-35.76695977336711,3,14.38918
D1,Alagoa Nova/PB,-7.0653703,-35.76695977336711,1,4.79639
1,Alagoinha/PB,-6.97063215,-35.51490901897793,14,96.62503
1,Alagoinha/PE,-8.50355635,-36.77701174370496,3,20.49740
1,Alagoinhas/BA,-12.133526,-38.420772,16,10.55437
1,Alambari/SP,-23.550338,-47.897971,3,49.79253
1,Alcinópolis/MS,-18.3264121,-53.7094463,1,18.71608
1,Alcântara/MA,-2.4038956,-44.4154241,6,27.15301
1,Alcântaras/CE,-3.586247,-40.5457641,32,273.17739
D1,Alcântaras/CE,-3.586247,-40.5457641,1,8.53679
1,Aldeias Altas/MA,-4.6291957,-43.4708622,2,7.53807
1,Alegre/ES,-20.7625787,-41.5318886,6,19.94416
1,Alegrete/RS,-29.790166,-55.794862,4,5.43559
1,Alenquer/PA,-1.946229,-54.738355,13,22.89176
1,Alexandria/RN,-6.414779,-38.0135516,5,36.82699
D1,Alexandria/RN,-6.414779,-38.0135516,1,7.36540
1,Alexânia/GO,-16.0834049,-48.5077803,1,3.61624
1,Alfenas/MG,-21.4297405,-45.9479419,7,8.75044
1,Alfredo Chaves/ES,-20.624970400000002,-40.75006690147988,36,246.55845
D1,Alfredo Chaves/ES,-20.624970400000002,-40.75006690147988,2,13.69769
1,Alfredo Vasconcelos/MG,-21.145833,-43.776389,1,14.47807
D1,Alfredo Vasconcelos/MG,-21.145833,-43.776389,1,14.47807
1,Alhandra/PB,-7.4304246,-34.9106103,56,285.88932
D1,Alhandra/PB,-7.4304246,-34.9106103,3,15.31550
1,Aliança do Tocantins/TO,-11.3055927,-48.9409096,2,37.10575
1,Aliança/PE,-7.60398,-35.222696,31,80.75861
D1,Aliança/PE,-7.60398,-35.222696,10,26.05116
1,Almadina/BA,-14.70466,-39.6381994,2,36.60322
1,Almeirim/PA,-1.5290377,-52.5788111,16,46.90844
D1,Almeirim/PA,-1.5290377,-52.5788111,1,2.93178
1,Almenara/MG,-16.1740678,-40.6904907,6,14.32118
1,Almino Afonso/RN,-6.1544208,-37.7649018,1,21.11932
1,Almirante Tamandaré/PR,-25.3133048,-49.2997838,15,12.64510
1,Aloândia/GO,-17.7277983,-49.4809338,1,50.12531
1,Alpercata/MG,-18.9803616,-41.9827637,2,26.93966
1,Alpestre/RS,-27.2512339,-53.0349646,7,111.85682
1,Alpinópolis/MG,-20.863611,-46.387777,1,5.03702
1,Alta Floresta D'Oeste/RO,-11.9296917,-61.9961284,1,4.35825
1,Alta Floresta/MT,-9.8715018,-56.0839881,7,13.51821
1,Altair/SP,-20.5238955,-49.0606135,1,24.03846
1,Altamira do Maranhão/MA,-4.1643006,-45.4674574,1,12.30315
D1,Altamira do Maranhão/MA,-4.1643006,-45.4674574,1,12.30315
1,Altamira/PA,-3.204065,-52.209961,165,143.98660
D1,Altamira/PA,-3.204065,-52.209961,2,1.74529
1,Alterosa/MG,-21.249166,-46.143055,1,6.91276
1,Altinho/PE,-8.4904095,-36.0607494,6,26.11875
1,Altinópolis/SP,-21.021364,-47.3712,1,6.17894
1,Alto Alegre do Maranhão/MA,-4.2055693,-44.4525287,35,129.37567
D1,Alto Alegre do Maranhão/MA,-4.2055693,-44.4525287,1,3.69645
1,Alto Alegre do Pindaré/MA,-3.6698186,-45.8462153,63,197.37460
1,Alto Alegre dos Parecis/RO,-12.1314515,-61.856265,4,30.20920
1,Alto Alegre/RR,2.98858,-61.307167,17,109.60671
D1,Alto Alegre/RR,2.98858,-61.307167,2,12.89491
1,Alto Alegre/SP,-21.5820592,-50.1661976,1,24.39619
D1,Alto Alegre/SP,-21.5820592,-50.1661976,1,24.39619
1,Alto Araguaia/MT,-17.3156528,-53.2169365,2,10.50200
1,Alto Bela Vista/SC,-27.4320737,-51.905771,2,103.25245
1,Alto Jequitibá/MG,-20.423611,-41.966111,4,48.09426
D1,Alto Jequitibá/MG,-20.423611,-41.966111,1,12.02357
1,Alto Longá/PI,-5.2549051,-42.2072388,1,6.99105
1,Alto Paraguai/MT,-14.513712,-56.4936374,1,8.80592
1,Alto Paraná/PR,-23.131247,-52.318893,7,47.39336
1,Alto Paraíso/RO,-9.7240103,-63.3188123,5,23.33396
D1,Alto Paraíso/RO,-9.7240103,-63.3188123,1,4.66679
1,Alto Parnaíba/MA,-9.112506,-45.9310154,5,44.68275
1,Alto Rio Doce/MG,-21.0239537,-43.4133507,1,9.09091
1,Alto Santo/CE,-5.5190371,-38.2719351,14,81.65170
D1,Alto Santo/CE,-5.5190371,-38.2719351,1,5.83226
1,Alto do Rodrigues/RN,-5.290868,-36.7616726,12,82.59343
D1,Alto do Rodrigues/RN,-5.290868,-36.7616726,1,6.88279
1,Altos/PI,-5.0393915,-42.4611694,20,49.35347
1,Alumínio/SP,-23.5203479,-47.2575256,5,26.84131
D1,Alumínio/SP,-23.5203479,-47.2575256,1,5.36826
1,Alvarães/AM,-3.214786,-64.8143124,10,62.34025
D1,Alvarães/AM,-3.214786,-64.8143124,3,18.70208
1,Alvorada D'Oeste/RO,-11.346271,-62.284697,2,13.87829
1,Alvorada do Gurguéia/PI,-8.4465288,-43.8655915,1,18.45359
1,Alvorada do Sul/PR,-22.7807269,-51.2307721,3,26.30195
1,Alvorada/RS,-29.9981184,-51.0772509,23,10.93650
D1,Alvorada/RS,-29.9981184,-51.0772509,2,0.95100
1,Alvorada/TO,-12.478465,-49.124926,5,59.43890
1,Além Paraíba/MG,-21.8760576,-42.6810473,20,56.55789
1,Amajari/RR,3.6523869,-61.4194315,13,101.59425
1,Amambai/MS,-23.1082701,-55.2284854,4,10.15332
1,Amaporã/PR,-23.094272,-52.786597,16,255.71360
1,Amapá do Maranhão/MA,-1.6762114,-46.0109669,2,28.72738
1,Amapá/AP,2.0529997,-50.7930003,10,109.78153
D1,Amapá/AP,2.0529997,-50.7930003,1,10.97815
1,Amaraji/PE,-8.373925,-35.4536527,18,78.84708
D1,Amaraji/PE,-8.373925,-35.4536527,5,21.90197
1,Amarante do Maranhão/MA,-5.56913,-46.747284,28,67.57572
1,Amarante/PI,-6.2459374,-42.8476238,4,22.72986
1,Amargosa/BA,-13.03793715,-39.60796443875596,3,8.05564
1,Amaturá/AM,-3.3640509,-68.1994689,170,1473.64771
D1,Amaturá/AM,-3.3640509,-68.1994689,4,34.67406
1,Americana/SP,-22.7392463,-47.3306032,66,27.54625
D1,Americana/SP,-22.7392463,-47.3306032,4,1.66947
1,Ametista do Sul/RS,-27.3617341,-53.1826575,1,13.49710
1,Amontada/CE,-3.3634586,-39.8284791,34,78.24726
D1,Amontada/CE,-3.3634586,-39.8284791,2,4.60278
1,Amparo de São Francisco/SE,-10.1299754,-36.9269099,2,84.24600
1,Amparo/PB,-7.56394725,-37.04652873235175,5,223.41376
1,Amparo/SP,-22.70111,-46.76444,18,24.93247
D1,Amparo/SP,-22.70111,-46.76444,1,1.38514
1,Ampére/PR,-25.9168712,-53.4742414,5,26.10693
D1,Ampére/PR,-25.9168712,-53.4742414,1,5.22139
1,Amélia Rodrigues/BA,-12.4015388,-38.7516971,6,23.90248
1,Américo Brasiliense/SP,-21.7297099,-48.1052092,19,46.90895
1,Américo de Campos/SP,-20.298476,-49.735904,3,50.25967
1,Anadia/AL,-9.6830208,-36.3052699,3,17.09889
D1,Anadia/AL,-9.6830208,-36.3052699,1,5.69963
1,Anagé/BA,-14.6134669,-41.1376308,1,4.54442
D1,Anagé/BA,-14.6134669,-41.1376308,1,4.54442
1,Anajatuba/MA,-3.26441,-44.6179916,35,130.58240
D1,Anajatuba/MA,-3.26441,-44.6179916,2,7.46185
1,Anajás/PA,-0.9878802,-49.9390114,12,40.98781
D1,Anajás/PA,-0.9878802,-49.9390114,1,3.41565
1,Anamã/AM,-3.5797356,-61.4049996,50,367.26899
1,Ananindeua/PA,-1.374035,-48.4016623,1258,237.09098
D1,Ananindeua/PA,-1.374035,-48.4016623,110,20.73133
1,Ananás/TO,-6.3663053,-48.080238,1,10.47230
1,Anapu/PA,-3.4668292,-51.2057035,33,118.32198
1,Anapurus/MA,-3.6751298,-43.1046001,19,120.77295
1,Anchieta/ES,-20.8057672,-40.6454564,36,123.02225
1,Anchieta/SC,-26.5350527,-53.3293938,3,53.21036
1,Andirá/PR,-23.0494761,-50.2310027,2,9.98452
1,Andradas/MG,-22.0680484,-46.5688976,1,2.43445
1,Andradina/SP,-20.896505,-51.3742765,24,41.98961
D1,Andradina/SP,-20.896505,-51.3742765,4,6.99827
1,Andrelândia/MG,-21.739722,-44.308889,1,8.18063
1,Angatuba/SP,-23.4938938,-48.4110675,3,11.89155
D1,Angatuba/SP,-23.4938938,-48.4110675,1,3.96385
1,Angical do Piauí/PI,-6.0872666,-42.7366138,3,44.19564
1,Angicos/RN,-5.6666344,-36.6009064,1,8.53679
1,Angra dos Reis/RJ,-23.0063966,-44.316326,365,179.11034
D1,Angra dos Reis/RJ,-23.0063966,-44.316326,15,7.36070
1,Anguera/BA,-12.1509425,-39.2452469,1,8.91186
1,Anhanguera/GO,-18.3338749,-48.220363,1,87.03220
1,Anhembi/SP,-22.7891096,-48.1316776,2,29.74420
1,Anhumas/SP,-22.2956478,-51.3873401,1,24.30134
1,Anita Garibaldi/SC,-27.6855032,-51.1293873,1,14.01935
1,Anori/AM,-3.7435254,-61.6605203,140,666.34936
D1,Anori/AM,-3.7435254,-61.6605203,2,9.51928
1,Anta Gorda/RS,-28.9718745,-52.0069187,3,50.15884
1,Antonina do Norte/CE,-6.7754187,-39.9879345,1,13.59989
1,Antônio Carlos/SC,-27.5168462,-48.7684715,18,211.44133
D1,Antônio Carlos/SC,-27.5168462,-48.7684715,4,46.98696
1,Antônio Martins/RN,-6.2155812,-37.8890129,1,13.99580
1,Antônio Prado/RS,-28.8567806,-51.2801355,1,7.66284
1,Anápolis/GO,-16.3332828,-48.9525756,52,13.43937
D1,Anápolis/GO,-16.3332828,-48.9525756,2,0.51690
1,Anísio de Abreu/PI,-9.185643,-43.04941,10,101.21457
1,Aparecida de Goiânia/GO,-16.8226769,-49.2452546,153,26.46239
D1,Aparecida de Goiânia/GO,-16.8226769,-49.2452546,7,1.21070
1,Aparecida do Rio Doce/GO,-18.2980167,-51.1491312,1,40.42037
D1,Aparecida do Rio Doce/GO,-18.2980167,-51.1491312,1,40.42037
1,Aparecida/SP,-22.851552,-45.2340924,2,5.53143
1,Aperibé/RJ,-21.6211928,-42.1028167,9,76.53712
1,Apiacá/ES,-21.152272,-41.569297,8,105.72221
1,Apiaí/SP,-24.5076527,-48.8461582,1,4.10273
1,Apicum-Açu/MA,-1.5279295,-45.082278,16,92.81281
1,Apodi/RN,-5.6631109,-37.796927,92,256.66062
D1,Apodi/RN,-5.6631109,-37.796927,2,5.57958
1,Apucarana/PR,-23.5525327,-51.4610764,28,20.74136
D1,Apucarana/PR,-23.5525327,-51.4610764,2,1.48153
1,Apuiarés/CE,-3.9460303,-39.4313298,14,95.89041
D1,Apuiarés/CE,-3.9460303,-39.4313298,3,20.54795
1,Apuí/AM,-7.1940195,-59.8830192,19,86.46976
1,Aquidabã/SE,-10.2837579,-37.0188687,9,41.73816
1,Aquiraz/CE,-3.9063117,-38.387504,127,158.21405
D1,Aquiraz/CE,-3.9063117,-38.387504,3,3.73734
1,Arabutã/SC,-27.1587028,-52.1438142,18,421.84204
1,Aracaju/SE,-10.9162061,-37.0774655,2108,320.84601
D1,Aracaju/SE,-10.9162061,-37.0774655,23,3.50069
1,Aracati/CE,-4.558259,-37.767894,49,65.73034
D1,Aracati/CE,-4.558259,-37.767894,4,5.36574
1,Aracatu/BA,-14.4274236,-41.4604105,4,30.45299
1,Araci/BA,-11.3356065,-38.9573261,1,1.83895
D1,Araci/BA,-11.3356065,-38.9573261,1,1.83895
1,Aracoiaba/CE,-4.3702577,-38.8084313,45,170.01020
1,Aracruz/ES,-19.8245218,-40.2735025,56,55.32503
D1,Aracruz/ES,-19.8245218,-40.2735025,5,4.93974
1,Aragarças/GO,-15.8957166,-52.2514538,1,4.97067
1,Aragoiânia/GO,-16.9146388,-49.4499148,2,19.40241
1,Aragominas/TO,-7.1654101,-48.525488,1,17.36714
1,Araguanã/MA,-2.9508403,-45.6651986,27,175.02917
1,Araguari/MG,-18.6511256,-48.1933764,17,14.49683
D1,Araguari/MG,-18.6511256,-48.1933764,1,0.85275
1,Araguatins/TO,-5.6522925,-48.1158973,29,81.09393
D1,Araguatins/TO,-5.6522925,-48.1158973,3,8.38903
1,Araguaçu/TO,-12.928934,-49.823134,1,11.74122
1,Araguaína/TO,-7.193241,-48.2018597,576,319.16662
D1,Araguaína/TO,-7.193241,-48.2018597,7,3.87876
1,Araioses/MA,-2.890914,-41.904993,16,34.45306
1,Arame/MA,-4.8858769,-46.0102484,11,33.63812
1,Arandu/SP,-23.1345103,-49.0545651,10,157.30691
D1,Arandu/SP,-23.1345103,-49.0545651,2,31.46138
1,Arapiraca/AL,-9.754866,-36.661471,113,48.76007
D1,Arapiraca/AL,-9.754866,-36.661471,6,2.58903
1,Arapongas/PR,-23.415296,-51.42592,19,15.44376
D1,Arapongas/PR,-23.415296,-51.42592,1,0.81283
1,Araquari/SC,-26.3703324,-48.7210994,14,36.71746
1,Arara/PB,-6.8271895,-35.7605703,1,7.42390
1,Araranguá/SC,-28.9348832,-49.4858389,23,33.71050
D1,Araranguá/SC,-28.9348832,-49.4858389,1,1.46567
1,Araraquara/SP,-21.7886713,-48.1773096,132,55.91514
D1,Araraquara/SP,-21.7886713,-48.1773096,4,1.69440
1,Araras/SP,-22.3569477,-47.3838889,61,45.44236
D1,Araras/SP,-22.3569477,-47.3838889,2,1.48991
1,Ararendá/CE,-4.7504395,-40.8303611,1,9.14495
D1,Ararendá/CE,-4.7504395,-40.8303611,1,9.14495
1,Arari/MA,-3.4547602,-44.7772723,36,120.61110
D1,Arari/MA,-3.4547602,-44.7772723,1,3.35031
1,Araripe/CE,-7.212861,-40.1359222,2,9.25926
1,Araripina/PE,-7.5768582,-40.5038509,17,20.13789
D1,Araripina/PE,-7.5768582,-40.5038509,1,1.18458
1,Araruama/RJ,-22.8733203,-42.3428897,71,53.62538
D1,Araruama/RJ,-22.8733203,-42.3428897,3,2.26586
1,Araruna/PR,-23.9320308,-52.4976047,16,114.53114
D1,Araruna/PR,-23.9320308,-52.4976047,1,7.15820
1,Arataca/BA,-15.2617424,-39.4122943,3,27.22570
1,Aratuba/CE,-4.4195958,-39.0463737,6,50.64573
1,Araucária/PR,-25.5861107,-49.4051209,14,9.73283
1,Arauá/SE,-11.2644014,-37.6181058,1,9.94431
1,Araxá/MG,-19.5928536,-46.940241,21,19.76861
D1,Araxá/MG,-19.5928536,-46.940241,1,0.94136
1,Araçagi/PB,-6.8519969,-35.3835602,13,76.52911
1,Araçariguama/SP,-23.438611,-47.061389,6,26.82883
D1,Araçariguama/SP,-23.438611,-47.061389,1,4.47147
1,Araças/BA,-12.2139176,-38.2026159,1,8.21220
1,Araçatuba/SP,-21.207992,-50.4390225,112,56.84817
D1,Araçatuba/SP,-21.207992,-50.4390225,4,2.03029
1,Araçoiaba da Serra/SP,-23.5045367,-47.6168158,22,64.42922
1,Araçoiaba/PE,-7.7856903,-35.0898881,13,63.34048
D1,Araçoiaba/PE,-7.7856903,-35.0898881,2,9.74469
1,Araçuaí/MG,-16.8484451,-42.0661868,1,2.72420
1,Arceburgo/MG,-21.364444,-46.939722,4,37.13331
1,Arcos/MG,-20.282223,-45.539444,9,22.44837
1,Arcoverde/PE,-8.415192,-37.057748,43,57.84390
D1,Arcoverde/PE,-8.415192,-37.057748,7,9.41645
1,Areal/RJ,-22.2314922,-43.1056264,7,55.67929
1,Arealva/SP,-22.0301906,-48.9111936,1,11.68224
1,Areia Branca/RN,-4.9506652,-37.1263312,66,237.63232
D1,Areia Branca/RN,-4.9506652,-37.1263312,7,25.20343
1,Areia Branca/SE,-10.7591455,-37.3148072,20,107.86323
1,Areia/PB,-6.9680243,-35.6994783,13,56.97007
1,Areial/PB,-7.0501306,-35.9245244,1,14.28980
1,Areiópolis/SP,-22.6758064,-48.6673653,7,62.89873
1,Aripuanã/MT,-10.175806,-59.4439663,3,13.42042
D1,Aripuanã/MT,-10.175806,-59.4439663,1,4.47347
1,Ariquemes/RO,-9.9076522,-63.033069,152,140.91950
D1,Ariquemes/RO,-9.9076522,-63.033069,1,0.92710
1,Armazém/SC,-28.2624996,-49.0190126,22,253.63154
1,Armação dos Búzios/RJ,-22.7597805,-41.8875267,31,91.52642
1,Arneiroz/CE,-6.3235099,-40.1603859,17,216.83673
1,Aroazes/PI,-6.1108814,-41.7886137,1,17.13796
1,Aroeiras/PB,-7.5462904,-35.7080002,5,26.10557
1,Arraial do Cabo/RJ,-22.9662839,-42.024427,21,69.19503
D1,Arraial do Cabo/RJ,-22.9662839,-42.024427,2,6.59000
1,Arroio do Meio/RS,-29.4020392,-51.9444993,51,245.13338
1,Arroio do Sal/RS,-29.549852,-49.8874395,6,59.61252
D1,Arroio do Sal/RS,-29.549852,-49.8874395,1,9.93542
1,Arroio dos Ratos/RS,-30.0894524,-51.7265541,5,35.33319
D1,Arroio dos Ratos/RS,-30.0894524,-51.7265541,1,7.06664
1,Artur Nogueira/SP,-22.572737,-47.172679,8,14.70372
1,Arujá/SP,-23.396266,-46.3175449,147,163.65337
D1,Arujá/SP,-23.396266,-46.3175449,12,13.35946
1,Arvoredo/SC,-27.0752908,-52.4571847,5,223.21429
1,Arvorezinha/RS,-28.87369,-52.17808,1,9.59325
1,Arês/RN,-6.1969216,-35.1642968,3,20.97022
1,Assaré/CE,-6.8746791,-39.8741385,1,4.27040
1,Assaí/PR,-23.3736041,-50.8454929,1,6.61419
1,Assis Brasil/AC,-10.9409203,-69.5672108,1,13.48254
1,Assis Chateaubriand/PR,-24.4054826,-53.5120468,22,65.94329
1,Assis/SP,-22.6620892,-50.420623,33,31.61343
D1,Assis/SP,-22.6620892,-50.420623,4,3.83193
1,Astolfo Dutra/MG,-21.3132636,-42.8624102,2,14.10537
1,Atalaia do Norte/AM,-4.3658547,-70.1908742,3,15.05948
1,Atalaia/AL,-9.5029595,-36.0219316,25,52.98294
D1,Atalaia/AL,-9.5029595,-36.0219316,1,2.11932
1,Atibaia/SP,-23.1177393,-46.5547861,63,44.12970
D1,Atibaia/SP,-23.1177393,-46.5547861,4,2.80189
1,Atilio Vivacqua/ES,-20.9139369,-41.1947519,1,8.37802
1,Augustinópolis/TO,-5.4662267,-47.8897519,10,54.31240
D1,Augustinópolis/TO,-5.4662267,-47.8897519,2,10.86248
1,Augusto Corrêa/PA,-1.0229335,-46.6404029,39,84.78630
D1,Augusto Corrêa/PA,-1.0229335,-46.6404029,2,4.34802
1,Aurelino Leal/BA,-14.3167137,-39.3256107,4,34.68910
1,Aurora do Pará/PA,-2.1323199,-47.558436,26,82.96637
1,Aurora do Tocantins/TO,-12.71045,-46.407604,2,53.23396
1,Aurora/CE,-6.9426019,-38.9693765,2,8.11227
D1,Aurora/CE,-6.9426019,-38.9693765,1,4.05614
1,Aurora/SC,-27.3166417,-49.6368502,1,17.60873
1,Autazes/AM,-3.5833283,-59.1301518,268,677.36636
D1,Autazes/AM,-3.5833283,-59.1301518,21,53.07721
1,Avanhandava/SP,-21.4603331,-49.9465156,1,7.32654
1,Avaré/SP,-23.1045215,-48.9259103,41,45.22641
D1,Avaré/SP,-23.1045215,-48.9259103,3,3.30925
1,Avaí/SP,-22.1564662,-49.3316395,2,37.01647
1,Axixá do Tocantins/TO,-5.612747,-47.77007,25,256.25256
D1,Axixá do Tocantins/TO,-5.612747,-47.77007,2,20.50021
1,Axixá/MA,-2.8379465,-44.0561053,8,65.95218
1,Açailândia/MA,-4.9514278,-47.4844564,136,120.94802
D1,Açailândia/MA,-4.9514278,-47.4844564,2,1.77865
1,Açu/RN,-5.5836157,-36.9139541,65,112.03613
D1,Açu/RN,-5.5836157,-36.9139541,4,6.89453
1,Babaçulândia/TO,-7.2034355,-47.761613,1,9.37734
1,Bacabal/MA,-4.2318132,-44.781167,111,105.76566
D1,Bacabal/MA,-4.2318132,-44.781167,1,0.95284
1,Bacabeira/MA,-2.9775747,-44.3155943,54,316.62269
D1,Bacabeira/MA,-2.9775747,-44.3155943,1,5.86338
1,Bacuri/MA,-1.728894,-45.1417148,6,32.28931
1,Bacurituba/MA,-2.7082587,-44.7381309,1,17.71793
1,Bady Bassitt/SP,-20.9178969,-49.4517911,16,91.41812
D1,Bady Bassitt/SP,-20.9178969,-49.4517911,2,11.42727
1,Bagre/PA,-1.8994498,-50.2103844,14,45.64275
D1,Bagre/PA,-1.8994498,-50.2103844,2,6.52039
1,Bagé/RS,-31.3314264,-54.1062808,33,27.24053
1,Baixa Grande do Ribeiro/PI,-7.862861,-45.2113289,7,60.41775
D1,Baixa Grande do Ribeiro/PI,-7.862861,-45.2113289,1,8.63111
1,Baixo Guandu/ES,-19.5138322,-41.0182089,33,106.45848
D1,Baixo Guandu/ES,-19.5138322,-41.0182089,1,3.22601
1,Baião/PA,-2.7903479,-49.6702845,35,73.76807
D1,Baião/PA,-2.7903479,-49.6702845,2,4.21532
1,Balneário Arroio do Silva/SC,-28.9815269,-49.4189932,9,68.85472
D1,Balneário Arroio do Silva/SC,-28.9815269,-49.4189932,1,7.65052
1,Balneário Barra do Sul/SC,-26.459842,-48.6061471,4,37.05419
1,Balneário Camboriú/SC,-26.9924395,-48.6339782,176,123.68671
D1,Balneário Camboriú/SC,-26.9924395,-48.6339782,2,1.40553
1,Balneário Gaivota/SC,-29.1553098,-49.5808712,8,72.86638
D1,Balneário Gaivota/SC,-29.1553098,-49.5808712,1,9.10830
1,Balneário Piçarras/SC,-26.7638889,-48.6716667,10,43.20214
1,Balneário Rincão/SC,-28.8235718,-49.2241642,4,31.34796
1,Balsa Nova/PR,-25.5842234,-49.6312741,5,38.63689
1,Balsas/MA,-7.53214,-46.037163,123,129.62787
1,Banabuiú/CE,-5.3046404,-38.919766,30,164.86234
D1,Banabuiú/CE,-5.3046404,-38.919766,1,5.49541
1,Bananal/SP,-22.6828195,-44.3221095,2,18.27318
1,Bananeiras/PB,-6.7537682,-35.6338343,8,37.52697
1,Bandeirantes do Tocantins/TO,-7.7635698,-48.579148,2,56.29046
1,Bandeirantes/PR,-23.107788,-50.370407,3,9.56419
D1,Bandeirantes/PR,-23.107788,-50.370407,1,3.18806
1,Bannach/PA,-7.3508505,-50.4064531,8,243.45709
D1,Bannach/PA,-7.3508505,-50.4064531,1,30.43214
1,Banzaê/BA,-10.5827616,-38.6122305,1,7.55915
1,Baraúna/RN,-5.0775002,-37.61752,31,109.25495
D1,Baraúna/RN,-5.0775002,-37.61752,1,3.52435
1,Barbacena/MG,-21.2254524,-43.7735087,32,23.30442
D1,Barbacena/MG,-21.2254524,-43.7735087,2,1.45653
1,Barbalha/CE,-7.3121067,-39.3036427,14,23.03351
1,Barcarena/PA,-1.5107945,-48.6190679,128,102.66282
D1,Barcarena/PA,-1.5107945,-48.6190679,8,6.41643
1,Barcelona/RN,-5.9514918,-35.9260284,1,25.01251
1,Barcelos/AM,-0.9729214,-62.925635,111,403.60701
D1,Barcelos/AM,-0.9729214,-62.925635,6,21.81660
1,Bariri/SP,-22.0746355,-48.7394852,4,11.34301
D1,Bariri/SP,-22.0746355,-48.7394852,1,2.83575
1,Barra Bonita/SP,-22.490859,-48.558349,16,44.28943
D1,Barra Bonita/SP,-22.490859,-48.558349,1,2.76809
1,Barra Mansa/RJ,-22.5394843,-44.1735129,88,47.71924
D1,Barra Mansa/RJ,-22.5394843,-44.1735129,7,3.79585
1,Barra Velha/SC,-26.6338203,-48.6835001,7,23.99890
1,Barra de Guabiraba/PE,-8.4173522,-35.6626669,4,27.80674
D1,Barra de Guabiraba/PE,-8.4173522,-35.6626669,1,6.95169
1,Barra de Santana/PB,-7.5230865,-35.9988518,4,47.85261
1,Barra de Santo Antônio/AL,-9.4038098,-35.5117693,2,12.55335
1,Barra de São Francisco/ES,-18.7570902,-40.8916119,36,80.62710
D1,Barra de São Francisco/ES,-18.7570902,-40.8916119,1,2.23964
1,Barra de São Miguel/AL,-9.8261357,-35.8837777,7,84.11440
1,Barra de São Miguel/PB,-7.7528088,-36.3170996,1,16.56726
1,Barra do Choça/BA,-14.8638173,-40.5761637,5,15.82128
1,Barra do Corda/MA,-5.496823,-45.248496,139,157.57493
D1,Barra do Corda/MA,-5.496823,-45.248496,1,1.13363
1,Barra do Garças/MT,-15.8916033,-52.2615413,52,85.22914
D1,Barra do Garças/MT,-15.8916033,-52.2615413,3,4.91707
1,Barra do Piraí/RJ,-22.4703403,-43.8263256,60,59.77644
D1,Barra do Piraí/RJ,-22.4703403,-43.8263256,6,5.97764
1,Barra do Ribeiro/RS,-30.2930206,-51.301437,1,7.41235
1,Barra do Rocha/BA,-14.2090974,-39.6004395,3,52.50263
1,Barra do Turvo/SP,-24.756421,-48.5056942,5,65.28267
1,Barra dos Coqueiros/SE,-10.9075694,-37.0386249,85,279.54090
1,Barra/BA,-11.0892702,-43.1420453,3,5.59931
1,Barracão/PR,-26.252395,-53.6349576,2,19.46472
1,Barras/PI,-4.2446153,-42.2920241,22,46.74287
1,Barreira/CE,-4.2883361,-38.641094,11,49.05240
D1,Barreira/CE,-4.2883361,-38.641094,2,8.91862
1,Barreiras/BA,-12.1440031,-44.9967406,8,5.14671
1,Barreirinha/AM,-2.798863,-57.067897,95,296.49512
D1,Barreirinha/AM,-2.798863,-57.067897,1,3.12100
1,Barreirinhas/MA,-2.7541271,-42.8259693,61,97.55629
1,Barreiros/PE,-8.8159644,-35.1831905,31,72.66931
D1,Barreiros/PE,-8.8159644,-35.1831905,3,7.03251
1,Barretos/SP,-20.5531437,-48.5697509,106,86.81551
D1,Barretos/SP,-20.5531437,-48.5697509,6,4.91409
1,Barrinha/SP,-21.1898849,-48.1550642,9,27.42899
D1,Barrinha/SP,-21.1898849,-48.1550642,1,3.04767
1,Barro Alto/GO,-14.9696025,-48.9190985,1,8.95496
1,Barro Preto/BA,-14.8068289,-39.4727588,3,53.65766
1,Barro/CE,-7.1713587,-38.7742136,3,13.22751
1,Barrocas/BA,-11.5165,-39.099282894736845,3,18.77582
1,Barrolândia/TO,-9.837246,-48.7264346,4,71.02273
1,Barroquinha/CE,-3.0200371,-41.1339229,15,99.88679
1,Barros Cassal/RS,-29.094938,-52.5832366,2,17.85874
D1,Barros Cassal/RS,-29.094938,-52.5832366,1,8.92937
1,Barroso/MG,-21.187222,-43.976111,1,4.80538
1,Barueri/SP,-23.5112184,-46.8764612,695,253.48126
D1,Barueri/SP,-23.5112184,-46.8764612,82,29.90714
1,Barão de Cotegipe/RS,-27.6214694,-52.3765316,4,60.39559
1,Barão de Grajaú/MA,-6.7542591,-43.0263477,1,5.31350
1,Bataguassu/MS,-21.715899,-52.422058,3,13.02988
1,Batalha/AL,-9.6733809,-37.1265481,6,32.90917
D1,Batalha/AL,-9.6733809,-37.1265481,1,5.48486
1,Batalha/PI,-4.022391,-42.0780926,22,81.91533
D1,Batalha/PI,-4.022391,-42.0780926,1,3.72342
1,Batatais/SP,-20.892867,-47.592149,2,3.19959
D1,Batatais/SP,-20.892867,-47.592149,1,1.59980
1,Batayporã/MS,-22.2976466,-53.2685608,6,52.96143
D1,Batayporã/MS,-22.2976466,-53.2685608,2,17.65381
1,Baturité/CE,-4.3290203,-38.8821055,34,95.10490
D1,Baturité/CE,-4.3290203,-38.8821055,4,11.18881
1,Bauru/SP,-22.3218102,-49.0705863,219,58.11824
D1,Bauru/SP,-22.3218102,-49.0705863,13,3.44994
1,Bayeux/PB,-7.1301631,-34.936532,94,97.02725
D1,Bayeux/PB,-7.1301631,-34.936532,8,8.25764
1,Baía Formosa/RN,-6.3691885,-35.0063741,3,32.35897
1,Baía da Traição/PB,-6.691258,-34.9371244,18,200.15568
1,Bebedouro/SP,-20.949077,-48.479083,14,18.06545
D1,Bebedouro/SP,-20.949077,-48.479083,1,1.29039
1,Beberibe/CE,-4.1810469,-38.1298101,44,82.13092
D1,Beberibe/CE,-4.1810469,-38.1298101,5,9.33306
1,Bela Cruz/CE,-3.0529129,-40.167582,92,282.28652
D1,Bela Cruz/CE,-3.0529129,-40.167582,3,9.20500
1,Bela Vista de Goiás/GO,-16.9692949,-48.9513071,12,40.03336
D1,Bela Vista de Goiás/GO,-16.9692949,-48.9513071,1,3.33611
1,Bela Vista de Minas/MG,-19.8289721,-43.0973688,2,19.50268
1,Bela Vista do Maranhão/MA,-3.7416367,-45.2514192,27,240.87787
1,Bela Vista do Piauí/PI,-7.9716353,-41.8715061,1,24.90660
1,Bela Vista/MS,-22.107327,-56.5317344,2,8.12051
1,Belford Roxo/RJ,-22.7667284,-43.4033603,373,73.00756
D1,Belford Roxo/RJ,-22.7667284,-43.4033603,51,9.98227
1,Belmiro Braga/MG,-21.9486291,-43.413564,3,87.48906
D1,Belmiro Braga/MG,-21.9486291,-43.413564,1,29.16302
1,Belmonte/BA,-15.8630837,-38.8792845,2,8.57339
1,Belo Horizonte/MG,-19.9227318,-43.9450948,1160,46.17706
D1,Belo Horizonte/MG,-19.9227318,-43.9450948,31,1.23404
1,Belo Jardim/PE,-8.3338293,-36.4176419,17,22.23996
D1,Belo Jardim/PE,-8.3338293,-36.4176419,1,1.30823
1,Belo Oriente/MG,-19.2232523,-42.4807033,1,3.74532
1,Belo Vale/MG,-20.407778,-44.024167,1,12.96176
D1,Belo Vale/MG,-20.407778,-44.024167,1,12.96176
1,Belterra/PA,-2.636091,-54.937392,8,45.11617
D1,Belterra/PA,-2.636091,-54.937392,2,11.27904
1,Belágua/MA,-3.1604031,-43.5085052,9,120.49806
1,Belém do São Francisco/PE,-8.7517707,-38.9625715,1,4.82416
1,Belém/PA,-1.45056,-48.4682453,6015,402.94893
D1,Belém/PA,-1.45056,-48.4682453,659,44.14686
1,Belém/PB,-6.6967586,-35.5369626,7,39.60172
1,Beneditinos/PI,-5.4565671,-42.3605061,1,9.55384
1,Benedito Novo/SC,-26.7840657,-49.3629511,5,42.91109
1,Benevides/PA,-1.3555577,-48.252235,70,111.57690
D1,Benevides/PA,-1.3555577,-48.252235,10,15.93956
1,Benjamin Constant/AM,-4.3782748,-70.0290603,173,402.47534
D1,Benjamin Constant/AM,-4.3782748,-70.0290603,10,23.26447
1,Bento Fernandes/RN,-5.6926846,-35.8207423,2,36.38348
1,Bento Gonçalves/RS,-29.1654014,-51.5197627,166,137.81194
D1,Bento Gonçalves/RS,-29.1654014,-51.5197627,6,4.98115
1,Bequimão/MA,-2.4495376,-44.7884889,23,108.08271
D1,Bequimão/MA,-2.4495376,-44.7884889,1,4.69925
1,Bernardo do Mearim/MA,-4.6315929,-44.7617508,7,115.83651
1,Bertioga/SP,-23.848568,-46.139586,37,58.49895
D1,Bertioga/SP,-23.848568,-46.139586,2,3.16211
1,Bertolínia/PI,-7.6372159,-43.9540611,1,18.17851
1,Beruri/AM,-3.9007135,-61.3717319,81,411.60628
D1,Beruri/AM,-3.9007135,-61.3717319,5,25.40780
1,Betim/MG,-19.968056,-44.198333,38,8.64934
D1,Betim/MG,-19.968056,-44.198333,3,0.68284
1,Betânia do Piauí/PI,-8.1460635,-40.7961387,1,16.11604
1,Betânia/PE,-8.2742779,-38.0351767,4,31.44901
D1,Betânia/PE,-8.2742779,-38.0351767,1,7.86225
1,Bezerros/PE,-8.2372132,-35.7558262,21,34.54061
D1,Bezerros/PE,-8.2372132,-35.7558262,1,1.64479
1,Bicas/MG,-21.7213723,-43.0604327,1,6.89941
1,Biguaçu/SC,-27.4961277,-48.6542432,12,17.52311
1,Bilac/SP,-21.403962,-50.47464,1,12.44710
1,Birigui/SP,-21.2908491,-50.34144,49,39.63183
1,Biritiba-Mirim/SP,-23.5697765,-46.0407456,24,73.62415
D1,Biritiba-Mirim/SP,-23.5697765,-46.0407456,1,3.06767
1,Blumenau/SC,-26.9195567,-49.0658025,418,117.02160
D1,Blumenau/SC,-26.9195567,-49.0658025,3,0.83987
1,Boa Esperança/ES,-18.5395472,-40.2904088,12,79.80315
1,Boa Esperança/MG,-21.0901253,-45.5660195,15,37.38131
D1,Boa Esperança/MG,-21.0901253,-45.5660195,2,4.98418
1,Boa Hora/PI,-4.4094627,-42.1255341,1,14.74709
1,Boa Viagem/CE,-5.1261877,-39.7300055,28,51.40444
D1,Boa Viagem/CE,-5.1261877,-39.7300055,3,5.50762
1,Boa Vista da Aparecida/PR,-25.4357216,-53.4067721,1,13.17349
1,Boa Vista do Gurupi/MA,-1.7981168,-46.3071882,9,96.90966
D1,Boa Vista do Gurupi/MA,-1.7981168,-46.3071882,1,10.76774
1,Boa Vista do Ramos/AM,-2.9716927,-57.5869819,38,197.84454
D1,Boa Vista do Ramos/AM,-2.9716927,-57.5869819,1,5.20644
1,Boa Vista do Sul/RS,-29.3510488,-51.6779679,9,323.39202
D1,Boa Vista do Sul/RS,-29.3510488,-51.6779679,1,35.93245
1,Boa Vista do Tupim/BA,-12.6605988,-40.6083594,1,5.38329
1,Boa Vista/PB,-7.2620711,-36.2415161,1,14.18239
1,Boa Vista/RR,2.8208478,-60.6719582,1364,341.67224
D1,Boa Vista/RR,2.8208478,-60.6719582,41,10.27021
1,Boca da Mata/AL,-9.6452054,-36.2116658,9,32.98999
1,Boca do Acre/AM,-8.7553487,-67.3930873,198,577.12487
D1,Boca do Acre/AM,-8.7553487,-67.3930873,1,2.91477
1,Bocaina/SP,-22.1421831,-48.522276,9,72.99862
1,Bocaiúva/MG,-17.1160208,-43.8122678,1,2.00084
1,Bodocó/PE,-7.777592,-39.933797,1,2.62151
1,Boituva/SP,-23.2838893,-47.6738231,28,45.90390
D1,Boituva/SP,-23.2838893,-47.6738231,1,1.63942
1,Bom Conselho/PE,-9.169191,-36.685683,22,45.31038
D1,Bom Conselho/PE,-9.169191,-36.685683,1,2.05956
1,Bom Despacho/MG,-19.7375242,-45.2517288,3,5.92827
1,Bom Jardim/MA,-3.54129,-45.606004,20,48.04228
1,Bom Jardim/PE,-7.7961572,-35.5871696,22,56.14537
D1,Bom Jardim/PE,-7.7961572,-35.5871696,7,17.86443
1,Bom Jardim/RJ,-22.1515328,-42.4186683,11,40.07870
D1,Bom Jardim/RJ,-22.1515328,-42.4186683,2,7.28704
1,Bom Jesus das Selvas/MA,-4.4878075,-46.8526639,17,49.95886
1,Bom Jesus de Goiás/GO,-18.2174587,-49.739721,3,11.89721
1,Bom Jesus do Itabapoana/RJ,-21.1341025,-41.680095,32,86.26267
D1,Bom Jesus do Itabapoana/RJ,-21.1341025,-41.680095,2,5.39142
1,Bom Jesus do Norte/ES,-21.1254776,-41.6711646,16,161.03060
1,Bom Jesus do Tocantins/PA,-5.0471796,-48.5978362,5,29.44467
1,Bom Jesus dos Perdões/SP,-23.1353864,-46.4648052,5,19.64791
1,Bom Jesus/PB,-6.8156725,-38.6551841,1,39.04725
1,Bom Jesus/PI,-9.0711644,-44.3583926,22,87.37440
1,Bom Jesus/RN,-5.9887544,-35.5821149,2,19.58864
1,Bom Jesus/RS,-28.6692723,-50.4346894,1,8.81135
1,Bom Lugar/MA,-4.3728019,-45.0366054,3,18.41169
1,Bom Princípio do Piauí/PI,-3.1912777,-41.6430185,1,17.76199
D1,Bom Princípio do Piauí/PI,-3.1912777,-41.6430185,1,17.76199
1,Bom Princípio/RS,-29.489788,-51.3566782,8,56.91925
1,Bom Repouso/MG,-22.4657069,-46.1485376,3,28.44411
1,Bom Retiro do Sul/RS,-29.6000007,-51.9359243,18,146.00909
1,Bombinhas/SC,-27.1519159,-48.4875691,1,5.05842
1,Bonfim do Piauí/PI,-9.1648678,-42.8734415,1,17.63668
1,Bonfim/MG,-20.3266626, -44.2386157,1,14.56028
D1,Bonfim/MG,-20.3266626, -44.2386157,1,14.56028
1,Bonfim/RR,3.3613818,-59.8427241,30,241.76001
1,Bonito/MS,-21.1264766,-56.4902208,14,63.70586
1,Bonito/PA,-1.3605722,-47.3049907,27,165.78657
1,Bonito/PE,-8.4721161,-35.7314591,11,28.84565
D1,Bonito/PE,-8.4721161,-35.7314591,3,7.86700
1,Boqueirão/PB,-7.487004,-36.130887,2,11.23343
D1,Boqueirão/PB,-7.487004,-36.130887,1,5.61672
1,Boquim/SE,-11.1450175,-37.6204228,9,33.56205
1,Boquira/BA,-12.8184859,-42.7270883,1,4.64943
1,Boracéia/SP,-22.195355,-48.7801925,1,20.73398
1,Borba/AM,-4.3934778,-59.5947721,95,230.80100
D1,Borba/AM,-4.3934778,-59.5947721,9,21.86536
1,Borborema/PB,-6.8066718,-35.5990191,1,19.00057
1,Borborema/SP,-21.6212706,-49.074135,2,12.46417
1,Borda da Mata/MG,-22.274167,-46.165278,3,15.45436
1,Borebi/SP,-22.5700178,-48.9714871,2,75.38636
1,Botelhos/MG,-21.65,-46.394722,4,26.71832
1,Botucatu/SP,-22.8879628,-48.4410712,143,97.61292
D1,Botucatu/SP,-22.8879628,-48.4410712,6,4.09565
1,Botuverá/SC,-27.200749,-49.068892,5,95.31071
1,Bragança Paulista/SP,-22.9520235,-46.5418586,125,74.11009
D1,Bragança Paulista/SP,-22.9520235,-46.5418586,10,5.92881
1,Bragança/PA,-1.0573967,-46.7635406,198,155.06790
D1,Bragança/PA,-1.0573967,-46.7635406,16,12.53074
1,Branquinha/AL,-9.2478057,-36.0152009,3,28.58776
1,Brasil Novo/PA,-3.3055853,-52.539198,5,33.14331
1,Brasilândia/MS,-21.255575,-52.0365617,15,126.34771
D1,Brasilândia/MS,-21.255575,-52.0365617,1,8.42318
1,Brasiléia/AC,-11.0010413,-68.7487894,13,49.47104
1,Brasília de Minas/MG,-16.2075114,-44.430559,6,18.54886
1,Brasília/DF,-15.7934036,-47.8823172,4427,146.81945
D1,Brasília/DF,-15.7934036,-47.8823172,59,1.95671
1,Brazópolis/MG,-22.4742842,-45.6165577,7,48.41275
1,Braço do Norte/SC,-28.2728633,-49.1622712,109,325.85949
D1,Braço do Norte/SC,-28.2728633,-49.1622712,2,5.97907
1,Brejetuba/ES,-20.1465817,-41.2902303,3,24.18575
1,Brejinho/RN,-6.1957907,-35.3583019,1,7.87464
1,Brejo Alegre/SP,-21.1671191,-50.1850393,1,34.90401
1,Brejo Santo/CE,-7.4909841,-38.9859152,11,22.23255
D1,Brejo Santo/CE,-7.4909841,-38.9859152,1,2.02114
1,Brejo da Madre de Deus/PE,-8.1409718,-36.3712527,14,27.59056
1,Brejo do Cruz/PB,-6.32926065,-37.48746163303929,1,7.08115
D1,Brejo do Cruz/PB,-6.32926065,-37.48746163303929,1,7.08115
1,Brejo/MA,-3.6804397,-42.7529313,17,46.70715
D1,Brejo/MA,-3.6804397,-42.7529313,2,5.49496
1,Breu Branco/PA,-3.7785073,-49.5684795,4,6.05638
1,Breves/PA,-1.68036,-50.479085,365,355.40063
D1,Breves/PA,-1.68036,-50.479085,43,41.86912
1,Britânia/GO,-15.2427599,-51.1602061,2,34.60806
1,Brochier/RS,-29.556766,-51.5963047,1,19.70832
1,Brodowski/SP,-20.984532,-47.657217,12,48.11741
1,Brotas/SP,-22.2840884,-48.1267265,3,12.29357
1,Brumadinho/MG,-20.143611,-44.2,14,34.91011
1,Brumado/BA,-14.29507325,-41.659307508575985,10,14.88206
1,Brusque/SC,-27.0964628,-48.9136323,73,54.18525
1,Bueno Brandão/MG,-22.441976,-46.3517971,2,18.18017
D1,Bueno Brandão/MG,-22.441976,-46.3517971,1,9.09008
1,Buenos Aires/PE,-7.7218931,-35.326587,6,45.61003
D1,Buenos Aires/PE,-7.7218931,-35.326587,1,7.60167
1,Buerarema/BA,-14.9571177,-39.3008035,29,158.04676
1,Bujari/AC,-9.8309656,-67.9520886,17,165.59517
1,Bujaru/PA,-1.5169239,-48.0410699,66,226.55499
D1,Bujaru/PA,-1.5169239,-48.0410699,6,20.59591
1,Buri/SP,-23.79849,-48.598924,1,5.03069
1,Buritama/SP,-21.0664017,-50.1448077,10,58.32944
1,Buriti Bravo/MA,-5.8391884,-43.8367876,2,8.37381
1,Buriti do Tocantins/TO,-5.3187439,-48.2256609,1,8.81213
1,Buriti dos Lopes/PI,-3.1776723,-41.8707444,3,15.16607
D1,Buriti dos Lopes/PI,-3.1776723,-41.8707444,1,5.05536
1,Buriti/MA,-3.9430944,-42.9244281,12,41.84392
1,Buriticupu/MA,-4.3227472,-46.4516989,84,116.08944
1,Buritirana/MA,-5.5897455,-47.0148915,39,252.75437
D1,Buritirana/MA,-5.5897455,-47.0148915,1,6.48088
1,Buritis/RO,-10.2054937,-63.8281954,5,12.60907
D1,Buritis/RO,-10.2054937,-63.8281954,1,2.52181
1,Butiá/RS,-30.1256795,-51.9692224,2,9.55064
1,Buíque/PE,-8.6239732,-37.157296,4,6.85190
0,CASO SEM LOCALIZAÇÃO DEFINIDA/AL,-9.931093434363673,-35.609611600637464,158,4.73429
D0,CASO SEM LOCALIZAÇÃO DEFINIDA/AL,-9.931093434363673,-35.609611600637464,13,0.38953
0,CASO SEM LOCALIZAÇÃO DEFINIDA/BA,-13.415069300066518,-38.14174656569957,179,1.20352
D0,CASO SEM LOCALIZAÇÃO DEFINIDA/BA,-13.415069300066518,-38.14174656569957,11,0.07396
0,CASO SEM LOCALIZAÇÃO DEFINIDA/CE,-3.3445126297392798,-38.624961942434304,894,9.78967
0,CASO SEM LOCALIZAÇÃO DEFINIDA/ES,-20.30989267097039,-39.81745156645774,205,5.10122
D0,CASO SEM LOCALIZAÇÃO DEFINIDA/ES,-20.30989267097039,-39.81745156645774,1,0.02488
0,CASO SEM LOCALIZAÇÃO DEFINIDA/GO,-16.701590966270153,-49.164524059025034,13,0.18523
0,CASO SEM LOCALIZAÇÃO DEFINIDA/MG,-19.97049116501593,-43.8852149072783,103,0.48657
0,CASO SEM LOCALIZAÇÃO DEFINIDA/MT,-15.54791153961863,-56.17143998972475,64,1.83672
D0,CASO SEM LOCALIZAÇÃO DEFINIDA/MT,-15.54791153961863,-56.17143998972475,2,0.05740
0,CASO SEM LOCALIZAÇÃO DEFINIDA/PA,-0.09317078214359542,-48.0050231510481,337,3.91730
D0,CASO SEM LOCALIZAÇÃO DEFINIDA/PA,-0.09317078214359542,-48.0050231510481,41,0.47659
0,CASO SEM LOCALIZAÇÃO DEFINIDA/PE,-8.121628543819208,-34.57313921302556,469,4.90736
D0,CASO SEM LOCALIZAÇÃO DEFINIDA/PE,-8.121628543819208,-34.57313921302556,36,0.37668
0,CASO SEM LOCALIZAÇÃO DEFINIDA/PI,-2.683810218391744,-41.470898009352254,35,1.06928
0,CASO SEM LOCALIZAÇÃO DEFINIDA/PR,-25.69415946385943,-48.10141676336737,30,0.26238
D0,CASO SEM LOCALIZAÇÃO DEFINIDA/PR,-25.69415946385943,-48.10141676336737,3,0.02624
0,CASO SEM LOCALIZAÇÃO DEFINIDA/RJ,-23.210238986465157,-43.12864305824042,8,0.04634
0,CASO SEM LOCALIZAÇÃO DEFINIDA/RN,-5.749310788669161,-34.95302586257457,167,4.76210
D0,CASO SEM LOCALIZAÇÃO DEFINIDA/RN,-5.749310788669161,-34.95302586257457,19,0.54180
0,CASO SEM LOCALIZAÇÃO DEFINIDA/RR,2.813328208465927,-60.663338675861986,112,18.48914
D0,CASO SEM LOCALIZAÇÃO DEFINIDA/RR,2.813328208465927,-60.663338675861986,4,0.66033
D0,CASO SEM LOCALIZAÇÃO DEFINIDA/RS,-30.50647488532064,-49.906261466443524,2,0.01758
0,CASO SEM LOCALIZAÇÃO DEFINIDA/SC,-27.675643660562308,-48.18313219398259,132,1.84234
0,CASO SEM LOCALIZAÇÃO DEFINIDA/SP,-24.30968974555485,-46.21366504207253,751,1.63549
1,Caapiranga/AM,-3.3188884,-61.2096404,17,129.95948
D1,Caapiranga/AM,-3.3188884,-61.2096404,1,7.64468
1,Caaporã/PB,-7.510234,-34.9154114,129,590.98406
D1,Caaporã/PB,-7.510234,-34.9154114,2,9.16254
1,Cabedelo/PB,-6.97324,-34.8351609,193,284.92973
D1,Cabedelo/PB,-6.97324,-34.8351609,6,8.85792
1,Cabo Frio/RJ,-22.8804369,-42.0189227,134,59.15462
D1,Cabo Frio/RJ,-22.8804369,-42.0189227,6,2.64871
1,Cabo de Santo Agostinho/PE,-8.2838945,-35.0320984,332,160.34929
D1,Cabo de Santo Agostinho/PE,-8.2838945,-35.0320984,51,24.63197
1,Cabreúva/SP,-23.3075813,-47.1324417,29,58.34188
1,Cabrobó/PE,-8.5083701,-39.3106961,2,5.84436
D1,Cabrobó/PE,-8.5083701,-39.3106961,1,2.92218
1,Cacaulândia/RO,-10.3380043,-62.9007231,1,16.05136
1,Cachoeira Dourada/MG,-18.517136,-49.5002062,1,37.14710
1,Cachoeira Grande/MA,-2.9290492,-44.0573223,6,63.61998
D1,Cachoeira Grande/MA,-2.9290492,-44.0573223,2,21.20666
1,Cachoeira Paulista/SP,-22.666498,-45.015384,6,18.00342
1,Cachoeira de Minas/MG,-22.3554043,-45.7796324,1,8.66026
1,Cachoeira do Arari/PA,-1.0143572,-48.9621089,27,113.60289
D1,Cachoeira do Arari/PA,-1.0143572,-48.9621089,6,25.24509
1,Cachoeira do Piriá/PA,-1.7599443,-46.5446954,1,2.94985
1,Cachoeira do Sul/RS,-30.0474778,-52.8905413,8,9.73224
1,Cachoeira/BA,-12.5998256,-38.9665918,3,8.96325
1,Cachoeiras de Macacu/RJ,-22.4626861,-42.6534414,44,74.65599
D1,Cachoeiras de Macacu/RJ,-22.4626861,-42.6534414,6,10.18036
1,Cachoeirinha/PE,-8.4906364,-36.2338963,17,83.41511
1,Cachoeirinha/RS,-29.9493353,-51.0898927,41,31.46754
1,Cachoeiro de Itapemirim/ES,-20.848084,-41.11129,80,38.28264
D1,Cachoeiro de Itapemirim/ES,-20.848084,-41.11129,3,1.43560
1,Cacimba de Dentro/PB,-6.6425101,-35.7929304,2,11.63670
1,Cacimbinhas/AL,-9.401212,-36.991082,4,36.83920
D1,Cacimbinhas/AL,-9.401212,-36.991082,1,9.20980
1,Cacoal/RO,-11.4333,-61.4420502,29,33.97416
1,Caconde/SP,-21.527995,-46.643659,1,5.26732
1,Caetanos/BA,-14.3387456,-40.9085971,2,13.75327
1,Caetanópolis/MG,-19.2947496,-44.4138386,3,25.80867
1,Caeté/MG,-19.897777,-43.670278,4,8.94494
1,Caetés/PE,-8.7728788,-36.6255835,9,31.31633
1,Cafeara/PR,-22.78905,-51.714195,1,34.08316
1,Caiabu/SP,-22.0143038,-51.2356597,1,23.86065
D1,Caiabu/SP,-22.0143038,-51.2356597,1,23.86065
1,Caibaté/RS,-28.290475,-54.645407,1,20.63558
1,Caicó/RN,-6.4594544,-37.0971911,8,11.77302
1,Caieiras/SP,-23.3644621,-46.7484765,187,184.29092
D1,Caieiras/SP,-23.3644621,-46.7484765,19,18.72475
1,Cairu/BA,-13.4860505,-39.0455744,10,55.01761
1,Caiçara do Norte/RN,-5.0645017,-36.0561226,2,30.53901
1,Caiçara/PB,-6.6146866,-35.4681434,10,138.86960
1,Cajamar/SP,-23.3561111,-46.8769444,132,171.87276
D1,Cajamar/SP,-23.3561111,-46.8769444,18,23.43719
1,Cajapió/MA,-2.8778715,-44.6746871,1,8.94694
1,Cajari/MA,-3.3213076,-45.0118757,26,134.16585
1,Cajati/SP,-24.7272376,-48.1077914,10,35.02750
1,Cajazeiras/PB,-6.8897849,-38.5570389,29,46.77948
D1,Cajazeiras/PB,-6.8897849,-38.5570389,1,1.61309
1,Cajazeirinhas/PB,-6.961442,-37.7993733,1,31.31851
1,Cajobi/SP,-20.8776238,-48.8106972,3,28.45760
1,Cajueiro/AL,-9.399589,-36.1524309,2,9.40557
1,Cajuri/MG,-20.7901414,-42.7954489,1,25.08151
1,Cajuru/SP,-21.2759978,-47.3046035,4,15.28643
D1,Cajuru/SP,-21.2759978,-47.3046035,1,3.82161
1,Caldas Novas/GO,-17.745,-48.625,3,3.29084
1,Caldas/MG,-21.923611,-46.386111,3,20.71823
1,Caldeirão Grande/BA,-11.0208483,-40.3041387,2,15.00713
1,Calçado/PE,-8.7413446,-36.3351787,1,9.04732
1,Calçoene/AP,2.4981757,-50.9539503,7,62.96663
1,Camacan/BA,-15.4166631,-39.4930088,22,68.77579
1,Camamu/BA,-13.9438142,-39.1060917,4,11.32631
1,Camanducaia/MG,-22.755278,-46.144444,14,64.30868
1,Camapuã/MS,-19.5291747,-54.0434641,1,7.29341
1,Camaquã/RS,-30.8524752,-51.8075619,4,6.03673
1,Camaragibe/PE,-8.0213832,-34.9810768,569,360.51905
D1,Camaragibe/PE,-8.0213832,-34.9810768,37,23.44324
1,Camargo/RS,-28.5865661,-52.2031474,1,36.58983
1,Camaçari/BA,-12.6998188,-38.3260762,95,31.75855
D1,Camaçari/BA,-12.6998188,-38.3260762,2,0.66860
1,Cambará/PR,-23.042273,-50.075281,1,3.94322
1,Camboriú/SC,-27.0273601,-48.6535657,92,110.85807
D1,Camboriú/SC,-27.0273601,-48.6535657,3,3.61494
1,Cambuci/RJ,-21.5749919,-41.9107833,2,12.89906
1,Cambuquira/MG,-21.853056,-45.2953619,2,15.60793
1,Cambuí/MG,-22.6122501,-46.0572137,27,91.36747
1,Cambé/PR,-23.2782035,-51.2779583,16,15.01882
D1,Cambé/PR,-23.2782035,-51.2779583,1,0.93868
1,Cametá/PA,-2.242949,-49.497885,418,303.14018
D1,Cametá/PA,-2.242949,-49.497885,21,15.22953
1,Camocim de São Félix/PE,-8.3616757,-35.7638903,9,47.96163
1,Camocim/CE,-2.9009918,-40.8427389,49,76.97020
D1,Camocim/CE,-2.9009918,-40.8427389,5,7.85410
1,Campanha/MG,-21.8361108,-45.401986,1,6.00060
1,Campestre da Serra/RS,-28.7966535,-51.0958149,1,29.51594
1,Campestre do Maranhão/MA,-6.1729113,-47.3640512,8,55.65605
1,Campestre/AL,-8.8481634,-35.5660033,10,144.17532
D1,Campestre/AL,-8.8481634,-35.5660033,1,14.41753
1,Campestre/MG,-19.6142116,-43.219378,1,4.74947
1,Campina Grande do Sul/PR,-25.3046032,-49.0545355,14,32.34153
D1,Campina Grande do Sul/PR,-25.3046032,-49.0545355,3,6.93033
1,Campina Grande/PB,-7.2246743,-35.8771292,290,70.77814
D1,Campina Grande/PB,-7.2246743,-35.8771292,5,1.22031
1,Campina Verde/MG,-19.535277,-49.486389,1,5.06457
1,Campina da Lagoa/PR,-24.5937926,-52.8038965,1,7.04126
D1,Campina da Lagoa/PR,-24.5937926,-52.8038965,1,7.04126
1,Campina do Monte Alegre/SP,-23.5935653,-48.4801876,1,16.60027
1,Campinas do Sul/RS,-27.7167968,-52.6257885,3,55.00550
1,Campinas/SP,-22.90556,-47.06083,946,78.56666
D1,Campinas/SP,-22.90556,-47.06083,37,3.07290
1,Campinorte/GO,-14.3136699,-49.1510931,2,15.84033
1,Campo Alegre de Goiás/GO,-17.6337896,-47.779291,1,13.17697
1,Campo Alegre de Lourdes/BA,-9.5160326,-43.0101338,7,24.30724
1,Campo Alegre/AL,-9.7798607,-36.3575793,4,7.00980
D1,Campo Alegre/AL,-9.7798607,-36.3575793,1,1.75245
1,Campo Belo/MG,-20.8975,-45.277223,5,9.25429
1,Campo Bom/RS,-29.674694,-51.060601,4,5.99592
1,Campo Bonito/PR,-25.0328004,-52.992976,2,52.17845
1,Campo Erê/SC,-26.3947432,-53.0790495,1,11.72883
1,Campo Formoso/BA,-10.51055,-40.320031,1,1.40438
1,Campo Grande do Piauí/PI,-7.1327559,-41.0381164,2,33.65304
1,Campo Grande/AL,-9.9725,-36.74791447368421,6,62.77464
D1,Campo Grande/AL,-9.9725,-36.74791447368421,1,10.46244
1,Campo Grande/MS,-20.4640173,-54.6162947,174,19.42003
D1,Campo Grande/MS,-20.4640173,-54.6162947,5,0.55805
1,Campo Largo/PR,-25.4597726,-49.5270851,29,21.96936
D1,Campo Largo/PR,-25.4597726,-49.5270851,2,1.51513
1,Campo Limpo Paulista/SP,-23.207791,-46.788919,38,44.89073
D1,Campo Limpo Paulista/SP,-23.207791,-46.788919,3,3.54400
1,Campo Magro/PR,-25.3691533,-49.4496921,1,3.41087
1,Campo Maior/PI,-4.8339574,-42.1739786,70,149.46726
1,Campo Mourão/PR,-24.046329,-52.37802,48,50.60142
D1,Campo Mourão/PR,-24.046329,-52.37802,4,4.21678
1,Campo Novo de Rondônia/RO,-10.5704235,-63.6199511,1,7.07264
D1,Campo Novo de Rondônia/RO,-10.5704235,-63.6199511,1,7.07264
1,Campo Novo do Parecis/MT,-13.658735,-57.890723,3,8.48416
1,Campo Redondo/RN,-6.2420373,-36.1830606,3,26.74512
1,Campo Verde/MT,-15.5430787,-55.1590511,1,2.27061
1,Campo do Brito/SE,-10.7496246,-37.4942276,5,27.61058
1,Campo do Tenente/PR,-25.9814143,-49.684518,1,12.54548
1,Campos Altos/MG,-19.696389,-46.171389,4,25.87155
1,Campos Belos/GO,-13.0349839,-46.768112,14,70.39775
D1,Campos Belos/GO,-13.0349839,-46.768112,1,5.02841
1,Campos Gerais/MG,-21.2333342,-45.7584127,3,10.42608
1,Campos Sales/CE,-7.0742675,-40.3740367,12,43.75410
1,Campos do Jordão/SP,-22.7395263,-45.5912829,11,21.11811
1,Campos dos Goytacazes/RJ,-21.7558619,-41.3326895,187,36.84381
D1,Campos dos Goytacazes/RJ,-21.7558619,-41.3326895,10,1.97026
1,Camutanga/PE,-7.4092965,-35.2738166,7,81.86177
D1,Camutanga/PE,-7.4092965,-35.2738166,1,11.69454
1,Cana Verde/MG,-21.021308,-45.1817881,6,107.08549
1,Cananéia/SP,-25.0104609,-47.9315628,11,87.71930
D1,Cananéia/SP,-25.0104609,-47.9315628,2,15.94896
1,Canapi/AL,-9.1173572,-37.6011704,1,5.64270
1,Canarana/BA,-11.6870151,-41.7683675,5,19.10147
1,Canarana/MT,-13.5564602,-52.2691167,2,9.26827
1,Canas/SP,-22.7029347,-45.0526508,1,19.46283
1,Canavieiras/BA,-15.61621745,-39.08485321304444,17,54.66414
1,Canaã dos Carajás/PA,-6.5296837,-49.8516592,101,272.34731
D1,Canaã dos Carajás/PA,-6.5296837,-49.8516592,2,5.39302
1,Candeias do Jamari/RO,-8.7949939,-63.7018851,20,74.92601
1,Candeias/BA,-12.6693806,-38.5406462,68,78.09270
1,Candelária/RS,-29.668391,-52.789495,5,15.94134
1,Candiota/RS,-31.5451894,-53.719538,1,10.43406
1,Canelinha/SC,-27.2660341,-48.7666708,1,8.16993
1,Canguaretama/RN,-6.3751942,-35.137463,38,110.86475
D1,Canguaretama/RN,-6.3751942,-35.137463,7,20.42245
1,Canguçu/RS,-31.398276,-52.6773522,5,8.92140
1,Canhotinho/PE,-8.876519,-36.197935,2,8.06322
1,Canindé de São Francisco/SE,-9.6597475,-37.7904456,6,20.06689
D1,Canindé de São Francisco/SE,-9.6597475,-37.7904456,1,3.34448
1,Canindé/CE,-4.3547946,-39.3108516,166,215.59282
D1,Canindé/CE,-4.3547946,-39.3108516,3,3.89626
1,Canoas/RS,-29.9216045,-51.1799525,48,13.84818
D1,Canoas/RS,-29.9216045,-51.1799525,3,0.86551
1,Canoinhas/SC,-26.176591,-50.395001,7,12.86741
1,Cansanção/BA,-10.6671448,-39.498199,1,2.87076
1,Cantagalo/RJ,-21.9811325,-42.3682522,4,19.82947
1,Cantanhede/MA,-3.6355005,-44.3778738,27,122.75517
1,Canto do Buriti/PI,-8.1112473,-42.944844,3,14.15963
D1,Canto do Buriti/PI,-8.1112473,-42.944844,1,4.71988
1,Cantá/RR,2.60994,-60.605827,22,119.98909
1,Canudos do Vale/RS,-29.3240418,-52.2348494,3,174.82517
1,Canutama/AM,-6.5330019,-64.3834966,22,140.76396
1,Capanema/PA,-1.1933054,-47.1828679,138,199.92177
D1,Capanema/PA,-1.1933054,-47.1828679,7,10.14096
1,Capela do Alto Alegre/BA,-11.6703944,-39.8362745,1,8.59328
1,Capela do Alto/SP,-23.4704798,-47.7352309,16,77.27229
1,Capela/AL,-9.415041,-36.082583,9,52.77664
1,Capela/SE,-10.50494,-37.0552566,10,29.22866
1,Capelinha/MG,-17.693889,-42.518611,1,2.64662
1,Capim Grosso/BA,-11.3793228,-40.0112095,12,39.13639
D1,Capim Grosso/BA,-11.3793228,-40.0112095,2,6.52273
1,Capim/PB,-6.9174091,-35.1720326,7,107.31259
1,Capinzal do Norte/MA,-4.7304006,-44.3249063,9,82.31205
1,Capinópolis/MG,-18.682778,-49.569723,1,6.18314
1,Capistrano/CE,-4.4644692,-38.8956734,34,191.67888
D1,Capistrano/CE,-4.4644692,-38.8956734,2,11.27523
1,Capitão Poço/PA,-1.7447162,-47.0638495,57,104.96658
D1,Capitão Poço/PA,-1.7447162,-47.0638495,3,5.52456
1,Capitão/RS,-29.2718294,-51.9869716,1,36.27131
1,Capitólio/MG,-20.6142437,-46.0487652,2,23.16960
D1,Capitólio/MG,-20.6142437,-46.0487652,1,11.58480
1,Capivari de Baixo/SC,-28.449773,-48.963144,18,72.37345
1,Capixaba/AC,-10.5741345,-67.6759719,2,17.04594
1,Capoeiras/PE,-8.7386788,-36.6268109,3,14.96409
D1,Capoeiras/PE,-8.7386788,-36.6268109,1,4.98803
1,Capão Bonito/SP,-24.0048759,-48.3489848,10,21.21431
D1,Capão Bonito/SP,-24.0048759,-48.3489848,4,8.48572
1,Capão da Canoa/RS,-29.7542937,-50.0215684,7,13.19535
1,Capão do Leão/RS,-31.766133,-52.5013148,1,3.94415
1,Caracaraí/RR,1.827598,-61.125389,11,50.16875
1,Caracol/PI,-9.2804898,-43.3284924,1,9.16086
1,Caraguatatuba/SP,-23.62028,-45.41306,95,78.16871
D1,Caraguatatuba/SP,-23.62028,-45.41306,4,3.29131
1,Carandaí/MG,-20.9523934,-43.8043903,1,3.92141
1,Carangola/MG,-20.733056,-42.029445,24,72.72727
1,Carapebus/RJ,-22.1869969,-41.6633764,8,49.07674
D1,Carapebus/RJ,-22.1869969,-41.6633764,1,6.13459
1,Carapicuíba/SP,-23.5234673,-46.8406808,569,141.92110
D1,Carapicuíba/SP,-23.5234673,-46.8406808,39,9.72746
1,Caratinga/MG,-19.7900887,-42.140533,7,7.60357
1,Carauari/AM,-4.8766426,-66.8961433,147,519.54478
D1,Carauari/AM,-4.8766426,-66.8961433,2,7.06864
1,Carazinho/RS,-28.2981634,-52.7942363,22,35.42103
1,Caraúbas/RN,-5.7889323,-37.5548751,5,24.39858
1,Cardoso Moreira/RJ,-21.4894916,-41.6152776,1,7.79849
1,Careaçu/MG,-22.0440585,-45.6949091,1,14.79947
1,Careiro da Várzea/AM,-3.197024,-59.8259104,39,129.03226
D1,Careiro da Várzea/AM,-3.197024,-59.8259104,1,3.30852
1,Careiro/AM,-3.8185277,-60.3616505,375,990.25588
D1,Careiro/AM,-3.8185277,-60.3616505,6,15.84409
1,Cariacica/ES,-20.263202,-40.416549,904,237.09299
D1,Cariacica/ES,-20.263202,-40.416549,36,9.44176
1,Caridade/CE,-4.2316487,-39.1946515,10,44.35180
D1,Caridade/CE,-4.2316487,-39.1946515,2,8.87036
1,Carira/SE,-10.358303,-37.701473,2,9.05715
1,Cariri do Tocantins/TO,-11.8882727,-49.1604216,46,1049.74897
1,Caririaçu/CE,-7.0417053,-39.2835527,8,29.66809
D1,Caririaçu/CE,-7.0417053,-39.2835527,1,3.70851
1,Cariré/CE,-3.948584,-40.476028,15,81.30963
1,Cariús/CE,-6.5348688,-39.4966658,2,10.69576
D1,Cariús/CE,-6.5348688,-39.4966658,1,5.34788
1,Carlos Barbosa/RS,-29.2978372,-51.5005613,53,177.65562
D1,Carlos Barbosa/RS,-29.2978372,-51.5005613,1,3.35199
1,Carlos Chagas/MG,-21.744351,-43.3908675,1,5.30870
1,Carmo da Cachoeira/MG,-21.460556,-45.223334,1,8.21693
1,Carmo da Mata/MG,-20.558334,-44.8703774,1,8.71384
1,Carmo do Cajuru/MG,-20.184444,-44.770834,10,44.48794
D1,Carmo do Cajuru/MG,-20.184444,-44.770834,2,8.89759
1,Carmo do Rio Verde/GO,-15.3549139,-49.707975,3,29.75600
1,Carmo/RJ,-21.9341749,-42.6091737,4,21.16962
1,Carmópolis de Minas/MG,-20.541224,-44.6350611,5,25.83312
1,Carmópolis/SE,-10.64835,-36.98493,6,36.07070
D1,Carmópolis/SE,-10.64835,-36.98493,1,6.01178
1,Carnaubais/RN,-5.3383681,-36.8335566,2,18.58909
1,Carnaubal/CE,-4.1611842,-40.9412317,8,45.43905
1,Carnaubeira da Penha/PE,-8.3192809,-38.7435891,2,15.46551
D1,Carnaubeira da Penha/PE,-8.3192809,-38.7435891,1,7.73276
1,Carnaíba/PE,-7.805964,-37.7947314,5,25.57414
D1,Carnaíba/PE,-7.805964,-37.7947314,4,20.45931
1,Carnaúba dos Dantas/RN,-6.5560588,-36.5930811,1,12.22494
D1,Carnaúba dos Dantas/RN,-6.5560588,-36.5930811,1,12.22494
1,Carneiros/AL,-9.4832948,-37.3757121,4,44.04801
1,Caroebe/RR,0.8812315,-59.6932274,20,196.67617
D1,Caroebe/RR,0.8812315,-59.6932274,1,9.83381
1,Carolina/MA,-7.3313437,-47.4738762,6,24.66902
1,Carpina/PE,-7.8459151,-35.2538861,45,53.80137
D1,Carpina/PE,-7.8459151,-35.2538861,9,10.76027
1,Caruaru/PE,-8.2829702,-35.9722852,128,35.44548
D1,Caruaru/PE,-8.2829702,-35.9722852,12,3.32301
1,Carutapera/MA,-1.2016638,-46.0205618,15,63.00668
D1,Carutapera/MA,-1.2016638,-46.0205618,4,16.80178
1,Casa Branca/SP,-21.7743137,-47.0852175,3,9.87492
1,Casca/RS,-28.5634054,-51.9741902,1,11.07297
1,Cascalho Rico/MG,-18.579344,-47.875774,1,32.52033
1,Cascavel/CE,-4.129666,-38.241178,101,140.78029
D1,Cascavel/CE,-4.129666,-38.241178,5,6.96932
1,Cascavel/PR,-24.9554996,-53.4560544,138,42.01502
D1,Cascavel/PR,-24.9554996,-53.4560544,5,1.52228
1,Caseara/TO,-9.273159,-49.9576837,1,18.62544
1,Caseiros/RS,-28.2721149,-51.6873536,1,31.23048
1,Casimiro de Abreu/RJ,-22.4809932,-42.2039976,39,88.26725
D1,Casimiro de Abreu/RJ,-22.4809932,-42.2039976,2,4.52653
1,Casinhas/PE,-7.744698,-35.7250923,1,6.97301
1,Casserengue/PB,-6.779538,-35.817875,1,13.39047
1,Castanhal/PA,-1.2927031,-47.9223903,330,164.34836
D1,Castanhal/PA,-1.2927031,-47.9223903,45,22.41114
1,Castelo do Piauí/PI,-5.3230426,-41.5546185,4,20.28809
1,Castelo/ES,-20.6034476,-41.2033505,13,34.63526
D1,Castelo/ES,-20.6034476,-41.2033505,1,2.66425
1,Castilho/SP,-20.8695636,-51.4877792,3,14.28163
1,Castro Alves/BA,-12.7616941,-39.4281088,11,41.88242
1,Castro/PR,-24.794072,-49.9972914,3,4.19674
1,Cataguases/MG,-21.387426,-42.6957219,15,19.96725
D1,Cataguases/MG,-21.387426,-42.6957219,2,2.66230
1,Catalão/GO,-18.1702546,-47.9447082,5,4.59462
1,Catanduva/SP,-21.1331035,-48.9712817,70,57.44202
D1,Catanduva/SP,-21.1331035,-48.9712817,7,5.74420
1,Catanduvas/SC,-27.0689719,-51.660158,10,92.07255
1,Catarina/CE,-6.1341578,-39.8795321,5,24.15692
1,Catas Altas/MG,-20.0744,-43.4075,1,18.60119
1,Catende/PE,-8.6900588,-35.748470825,16,37.30299
D1,Catende/PE,-8.6900588,-35.748470825,6,13.98862
1,Catiguá/SP,-21.0491485,-49.0578923,1,12.81394
1,Catingueira/PB,-7.120081,-37.60638,1,20.27575
1,Catolé do Rocha/PB,-6.340625,-37.746967,2,6.54750
1,Catu/BA,-12.351274,-38.379108,12,21.93624
1,Catuji/MG,-17.3024568,-41.5168387,4,63.38140
1,Catunda/CE,-4.6494224,-40.2002603,4,38.67724
1,Caturaí/GO,-16.4473559,-49.4919149,1,19.72387
1,Caturité/PB,-7.4199652,-36.0207132,1,20.61006
1,Caucaia/CE,-3.7300563,-38.6593082,872,241.28390
D1,Caucaia/CE,-3.7300563,-38.6593082,38,10.51467
1,Caxambu do Sul/SC,-27.1615046,-52.8796675,3,82.37232
1,Caxambu/MG,-21.9770359,-44.9318289,5,23.08829
D1,Caxambu/MG,-21.9770359,-44.9318289,1,4.61766
1,Caxias do Sul/RS,-29.1684796,-51.1793861,75,14.67980
D1,Caxias do Sul/RS,-29.1684796,-51.1793861,2,0.39146
1,Caxias/MA,-4.8654201,-43.353664,62,37.60311
D1,Caxias/MA,-4.8654201,-43.353664,1,0.60650
1,Caçador/SC,-26.77567,-51.0120041,16,20.35753
D1,Caçador/SC,-26.77567,-51.0120041,1,1.27235
1,Caçapava do Sul/RS,-30.5113286,-53.4916761,1,2.97407
1,Caçapava/SP,-23.099204,-45.707645,20,21.21723
D1,Caçapava/SP,-23.099204,-45.707645,2,2.12172
1,Caçu/GO,-18.5637222,-51.1369685,6,37.47892
1,Ceará-Mirim/RN,-5.633588,-35.4248407,19,25.85140
D1,Ceará-Mirim/RN,-5.633588,-35.4248407,2,2.72120
1,Cedral/MA,-2.000269,-44.528114,2,18.73536
1,Cedral/SP,-20.9028433,-49.2699665,1,10.82603
1,Cedro de São João/SE,-10.2506778,-36.8816067,9,152.61998
1,Cedro/CE,-6.6065382,-39.0599487,5,19.56411
1,Cedro/PE,-7.7186318,-39.2363385,1,8.46955
1,Centenário do Sul/PR,-22.821497,-51.5951456,2,18.47234
1,Central do Maranhão/MA,-2.1967253,-44.8290757,2,23.06007
1,Centralina/MG,-18.5843349,-49.1954739,2,19.32367
D1,Centralina/MG,-18.5843349,-49.1954739,1,9.66184
1,Centro Novo do Maranhão/MA,-2.1361032,-46.1248528,5,23.12460
D1,Centro Novo do Maranhão/MA,-2.1361032,-46.1248528,1,4.62492
1,Centro do Guilherme/MA,-2.4511749,-46.039127,9,66.87472
1,Ceres/GO,-15.3103568,-49.6032054,3,13.51899
1,Cerqueira César/SP,-23.0353135,-49.1650519,1,5.00375
1,Cerquilho/SP,-23.1626556,-47.7433878,4,8.17177
D1,Cerquilho/SP,-23.1626556,-47.7433878,2,4.08589
1,Cerro Corá/RN,-6.0412685,-36.3464694,1,8.94534
D1,Cerro Corá/RN,-6.0412685,-36.3464694,1,8.94534
1,Cerro Grande do Sul/RS,-30.5962963,-51.7517196,1,8.17060
D1,Cerro Grande do Sul/RS,-30.5962963,-51.7517196,1,8.17060
1,Chapada dos Guimarães/MT,-15.464343,-55.749857,7,35.43945
D1,Chapada dos Guimarães/MT,-15.464343,-55.749857,1,5.06278
1,Chapada/RS,-28.0587829,-53.0657459,2,21.57730
1,Chapadinha/MA,-3.7416803,-43.3548006,258,323.81550
1,Chapadão do Céu/GO,-18.3951972,-52.6670783,3,29.50723
1,Chapadão do Sul/MS,-18.7949051,-52.6199512,9,35.68879
1,Chapecó/SC,-27.0922364,-52.6166878,480,217.81846
1,Charqueada/SP,-22.50958,-47.775468,18,104.71204
D1,Charqueada/SP,-22.50958,-47.775468,1,5.81734
1,Charqueadas/RS,-29.955012,-51.6249195,7,17.16149
1,Chaval/CE,-3.0339874,-41.2438452,3,22.95508
D1,Chaval/CE,-3.0339874,-41.2438452,2,15.30339
1,Chavantes/SP,-23.0406405,-49.7071698,1,8.05283
1,Chaves/PA,-0.164154,-49.987006,3,12.64915
D1,Chaves/PA,-0.164154,-49.987006,1,4.21638
1,Chiador/MG,-22.002778,-43.057222,6,223.29736
1,Chopinzinho/PR,-25.8566167,-52.5294107,1,5.19373
1,Chorozinho/CE,-4.3010895,-38.4976923,45,222.06869
D1,Chorozinho/CE,-4.3010895,-38.4976923,1,4.93486
1,Choró/CE,-4.8435726,-39.1393071,23,170.10576
1,Chácara/MG,-21.6727567,-43.2206851,1,31.70577
1,Chã Grande/PE,-8.238271,-35.457148,44,202.78367
D1,Chã Grande/PE,-8.238271,-35.457148,3,13.82616
1,Chã de Alegria/PE,-7.9959409,-35.2134636,26,192.33614
D1,Chã de Alegria/PE,-7.9959409,-35.2134636,2,14.79509
1,Cianorte/PR,-23.662036,-52.6103989,25,30.25902
D1,Cianorte/PR,-23.662036,-52.6103989,1,1.21036
1,Cidade Gaúcha/PR,-23.3816558,-52.9444098,2,15.80778
1,Cidade Ocidental/GO,-16.1000758,-47.9445014,7,9.80722
1,Cidelândia/MA,-5.174655,-47.7833531,19,129.27808
1,Cidreira/RS,-30.1657063,-50.218331,2,12.30466
D1,Cidreira/RS,-30.1657063,-50.218331,1,6.15233
1,Ciríaco/RS,-28.3429139,-51.8763682,1,21.06594
1,Cláudio/MG,-20.4448485,-44.7655217,3,10.48328
1,Coaraci/BA,-14.6407979,-39.5496765,25,147.11940
1,Coari/AM,-4.0885957,-63.1431166,618,726.23007
D1,Coari/AM,-4.0885957,-63.1431166,35,41.12953
1,Cocal de Telha/PI,-4.5553648,-41.9722429,16,327.13147
1,Cocal do Sul/SC,-28.6007346,-49.3248697,8,47.95013
D1,Cocal do Sul/SC,-28.6007346,-49.3248697,1,5.99377
1,Cocal dos Alves/PI,-3.59964,-41.444741,2,32.50447
1,Cocal/PI,-3.4691882,-41.555851,4,14.39522
D1,Cocal/PI,-3.4691882,-41.555851,1,3.59881
1,Codajás/AM,-3.8413202,-62.0603444,17,59.36376
D1,Codajás/AM,-3.8413202,-62.0603444,1,3.49199
1,Codó/MA,-4.455623,-43.892354,202,164.41612
D1,Codó/MA,-4.455623,-43.892354,1,0.81394
1,Coelho Neto/MA,-4.2535154,-43.0149321,72,145.64580
1,Coité do Nóia/AL,-9.633484,-36.584493,3,28.05574
1,Coivaras/PI,-5.0927005,-42.2052489,2,49.75124
1,Colares/PA,-0.936423,-48.280254,10,82.74721
D1,Colares/PA,-0.936423,-48.280254,2,16.54944
1,Colatina/ES,-19.5346732,-40.6287836,105,85.71499
D1,Colatina/ES,-19.5346732,-40.6287836,3,2.44900
1,Colina/SP,-20.711443,-48.53867,6,32.48863
D1,Colina/SP,-20.711443,-48.53867,1,5.41477
1,Colinas do Tocantins/TO,-8.0612688,-48.4716768,21,59.28184
1,Colinas/MA,-6.0332631,-44.2528542,30,72.85444
1,Colinas/RS,-29.3866023,-51.8697911,10,410.17227
1,Colombo/PR,-25.2925439,-49.2243472,29,11.89861
1,Colorado/PR,-22.8385097,-51.9730135,3,12.49375
1,Colônia Leopoldina/AL,-8.918058,-35.721414,6,27.65232
1,Colônia do Gurguéia/PI,-8.183697,-43.793999,4,61.69031
D1,Colônia do Gurguéia/PI,-8.183697,-43.793999,1,15.42258
1,Colônia do Piauí/PI,-7.2320268,-42.1777122,1,13.06165
1,Comercinho/MG,-16.2965093,-41.7930954,1,14.43210
1,Conceição da Barra/ES,-18.5841421,-39.7371844,2,6.43853
1,Conceição da Feira/BA,-12.5013001,-39.0002166,2,8.85700
1,Conceição das Alagoas/MG,-19.9194009,-48.3803414,2,7.17026
1,Conceição de Macabu/RJ,-22.0849986,-41.8679947,5,21.52574
1,Conceição do Almeida/BA,-12.7772763,-39.1692214,1,5.79811
1,Conceição do Araguaia/PA,-8.2696905,-49.2676864,25,52.23132
1,Conceição do Castelo/ES,-20.3601311,-41.2470343,12,94.31738
1,Conceição do Coité/BA,-11.5629384,-39.2839543,6,9.00739
1,Conceição do Jacuípe/BA,-12.326831,-38.768433,5,15.08159
1,Conceição do Lago-Açu/MA,-3.8410056,-44.8930565,21,129.33424
D1,Conceição do Lago-Açu/MA,-3.8410056,-44.8930565,1,6.15877
1,Conceição do Rio Verde/MG,-21.881078,-45.0868526,2,14.66491
1,Conceição/PB,-7.5565059,-38.5053706,2,10.53630
1,Conchal/SP,-22.337512,-47.172927,2,7.13012
1,Conchas/SP,-23.0133538,-48.0077595,4,22.35136
D1,Conchas/SP,-23.0133538,-48.0077595,1,5.58784
1,Concórdia do Pará/PA,-1.9924056,-47.9450474,57,171.07870
1,Concórdia/SC,-27.2312011,-52.0231024,240,321.53910
D1,Concórdia/SC,-27.2312011,-52.0231024,5,6.69873
1,Condado/PB,-6.9092101,-37.5966375,20,300.57109
1,Condado/PE,-7.587868,-35.09994,29,109.76117
D1,Condado/PE,-7.587868,-35.09994,3,11.35460
1,Conde/BA,-11.8129758,-37.6138705,1,3.87042
1,Conde/PB,-7.2600359,-34.9053524,41,166.19376
D1,Conde/PB,-7.2600359,-34.9053524,1,4.05351
1,Condor/RS,-28.2058277,-53.4844696,1,14.80823
1,Confresa/MT,-10.643695,-51.569873,17,54.95749
1,Congo/PB,-7.80963435,-36.641233278035656,10,208.94275
D1,Congo/PB,-7.80963435,-36.641233278035656,1,20.89427
1,Congonhal/MG,-22.1532505,-46.0404698,1,8.36820
1,Congonhas/MG,-20.5015168,-43.8564586,2,3.65217
1,Conquista D'Oeste/MT,-14.5381171,-59.5443775,1,24.76474
1,Conselheiro Lafaiete/MG,-20.6596107,-43.785743,21,16.33110
1,Contagem/MG,-19.9132749,-44.0840953,112,16.87115
D1,Contagem/MG,-19.9132749,-44.0840953,3,0.45191
1,Contenda/PR,-25.678811,-49.535044,3,16.14292
1,Coqueiro Seco/AL,-9.637147,-35.799377,8,136.86912
1,Coração de Maria/BA,-12.2484345,-38.7499274,2,8.84760
1,Cordeiro/RJ,-22.0287681,-42.3607442,5,22.80398
1,Cordeirópolis/SP,-22.4768324,-47.4550551,29,118.23222
1,Cordilheira Alta/SC,-26.9853947,-52.603549,1,22.45677
1,Coreaú/CE,-3.5519794,-40.6528409,84,363.07054
1,Coremas/PB,-7.0175897,-37.9465062,11,71.22046
1,Cornélio Procópio/PR,-23.1825218,-50.6499263,3,6.27025
1,Coroados/SP,-21.3554634,-50.2853589,9,148.56388
1,Coroatá/MA,-4.1282283,-44.1360269,62,94.95222
1,Coromandel/MG,-18.473889,-47.200278,7,25.02324
1,Coronel Bicaco/RS,-27.7174002,-53.705821,1,13.65188
1,Coronel Fabriciano/MG,-19.5200067,-42.6282686,10,9.10291
1,Coronel Freitas/SC,-26.9058932,-52.7028055,1,10.01904
1,Coronel João Pessoa/RN,-6.2607103,-38.4424915,1,20.35831
1,Coronel Vivida/PR,-25.9803771,-52.5654277,1,4.82300
1,Corrente/PI,-10.4401356,-45.1627472,14,52.54466
1,Correntes/PE,-9.1295585,-36.3287438,3,16.47718
D1,Correntes/PE,-9.1295585,-36.3287438,1,5.49239
1,Cortês/PE,-8.4724921,-35.5431197,14,111.30545
D1,Cortês/PE,-8.4724921,-35.5431197,1,7.95039
1,Corumbaíba/GO,-18.1348982,-48.564223,1,10.28489
1,Corumbá/MS,-19.0016365,-57.6534316,8,7.17907
1,Coruripe/AL,-10.1249963,-36.1760623,40,70.25802
D1,Coruripe/AL,-10.1249963,-36.1760623,2,3.51290
1,Cosmorama/SP,-20.475472,-49.782747,2,27.37101
1,Cosmópolis/SP,-22.6437398,-47.1972086,11,15.22449
1,Cotia/SP,-23.603889,-46.918889,344,138.03619
D1,Cotia/SP,-23.603889,-46.918889,34,13.64311
1,Cotriguaçu/MT,-9.9034364,-58.5658915,1,5.06329
1,Couto Magalhães/TO,-8.360583,-49.1773955,8,143.16392
1,Coxilha/RS,-28.1254442,-52.2979903,2,72.56894
1,Coxim/MS,-18.504915,-54.7450251,6,17.88749
1,Coxixola/PB,-7.6272915,-36.606013,3,156.16866
1,Crateús/CE,-5.1782451,-40.6696545,56,74.59307
D1,Crateús/CE,-5.1782451,-40.6696545,2,2.66404
1,Crato/CE,-7.2369112,-39.4149236,22,16.65115
1,Cravinhos/SP,-21.340278,-47.729444,14,39.66905
D1,Cravinhos/SP,-21.340278,-47.729444,1,2.83350
1,Cravolândia/BA,-13.3576247,-39.8153954,2,37.39017
1,Craíbas/AL,-9.6168038,-36.7684669,7,28.90293
1,Criciúma/SC,-28.6789941,-49.3695627,279,129.65527
D1,Criciúma/SC,-28.6789941,-49.3695627,6,2.78829
1,Crissiumal/RS,-27.4982242,-54.1024643,1,7.43605
1,Cristalina/GO,-16.7676079,-47.6131281,3,5.08500
D1,Cristalina/GO,-16.7676079,-47.6131281,1,1.69500
1,Cristina/MG,-22.212222,-45.264167,2,19.52744
1,Cristinápolis/SE,-11.4757019,-37.7555212,6,33.56831
1,Cristópolis/BA,-12.2349301,-44.4160811,2,14.37815
1,Croatá/CE,-4.4156199,-40.9048081,1,5.53618
1,Cruz Alta/RS,-28.645056,-53.6058047,2,3.31680
1,Cruz das Almas/BA,-12.6722649,-39.1053665,7,11.06912
1,Cruz do Espírito Santo/PB,-7.139022,-35.085721,58,334.89231
D1,Cruz do Espírito Santo/PB,-7.139022,-35.085721,3,17.32202
1,Cruz/CE,-2.918128,-40.175981,42,169.17066
1,Cruzeiro do Sul/AC,-7.6307956,-72.6703869,211,238.75260
D1,Cruzeiro do Sul/AC,-7.6307956,-72.6703869,1,1.13153
1,Cruzeiro do Sul/PR,-22.9623678,-52.1625688,6,134.25822
1,Cruzeiro do Sul/RS,-29.5139742,-51.9917068,26,210.56041
D1,Cruzeiro do Sul/RS,-29.5139742,-51.9917068,2,16.19695
1,Cruzeiro/SP,-22.5783685,-44.9642044,13,15.80778
D1,Cruzeiro/SP,-22.5783685,-44.9642044,2,2.43197
1,Cruzília/MG,-21.838333,-44.808056,1,6.48635
1,Cubatão/SP,-23.8857982,-46.4241869,131,100.22570
D1,Cubatão/SP,-23.8857982,-46.4241869,7,5.35557
1,Cuiabá/MT,-15.5986686,-56.0991301,265,43.26199
D1,Cuiabá/MT,-15.5986686,-56.0991301,2,0.32651
1,Cuitegi/PB,-6.8962776,-35.5228851,5,73.49699
D1,Cuitegi/PB,-6.8962776,-35.5228851,1,14.69940
1,Cuité de Mamanguape/PB,-6.912922,-35.250219,1,15.74059
1,Cuité/PB,-6.4855072,-36.1478606,1,4.91690
1,Cujubim/RO,-9.3687919,-62.5832107,7,27.76125
D1,Cujubim/RO,-9.3687919,-62.5832107,1,3.96589
1,Cumaru/PE,-8.0065285,-35.6991651,12,110.03118
1,Cunha Porã/SC,-26.8927163,-53.1716516,1,9.02039
1,Cunha/SP,-23.07753,-44.9567436,1,4.64102
1,Cupira/PE,-8.6053148,-35.9530366,10,41.48173
D1,Cupira/PE,-8.6053148,-35.9530366,1,4.14817
1,Curaçá/BA,-8.9925655,-39.9053169,13,37.46398
1,Curionópolis/PA,-6.0990443,-49.6059039,17,94.81845
D1,Curionópolis/PA,-6.0990443,-49.6059039,2,11.15511
1,Curitiba/PR,-25.4295963,-49.2712724,639,33.05563
D1,Curitiba/PR,-25.4295963,-49.2712724,33,1.70710
1,Currais Novos/RN,-6.2626676,-36.5173039,9,20.09557
1,Curral de Cima/PB,-6.7174163,-35.266704,1,19.13143
1,Curralinho/PA,-1.8137876,-49.7980165,36,104.50534
D1,Curralinho/PA,-1.8137876,-49.7980165,2,5.80585
1,Cururupu/MA,-1.824255,-44.872996,15,45.87857
D1,Cururupu/MA,-1.824255,-44.872996,1,3.05857
1,Curuá/PA,-1.887754,-55.116842,5,34.73911
1,Curuçá/PA,-0.7276792,-47.856568,57,142.26526
D1,Curuçá/PA,-0.7276792,-47.856568,11,27.45470
1,Curvelo/MG,-18.7571926,-44.4305993,33,41.18359
1,Curvelândia/MT,-15.6108629,-57.9188924,4,76.64304
1,Custódia/PE,-8.0861426,-37.6401873,23,61.97623
D1,Custódia/PE,-8.0861426,-37.6401873,2,5.38924
1,Cutias/AP,0.9708625,-50.8000608,30,501.42069
D1,Cutias/AP,0.9708625,-50.8000608,1,16.71402
1,Cáceres/MT,-16.0658939,-57.6852775,18,19.07265
D1,Cáceres/MT,-16.0658939,-57.6852775,2,2.11918
1,Cândido Mendes/MA,-1.4531117,-45.7273136,18,89.20607
1,Cândido Mota/SP,-22.7434964,-50.38924,2,6.39386
1,Céu Azul/PR,-25.1484973,-53.8494214,5,42.49894
1,Córrego do Bom Jesus/MG,-22.630556,-46.019723,3,80.99352
1,Darcinópolis/TO,-6.7085964,-47.7524283,14,229.62113
1,Davinópolis/MA,-5.5265775,-47.3942217,17,131.70127
D1,Davinópolis/MA,-5.5265775,-47.3942217,2,15.49427
1,Delfim Moreira/MG,-22.5086783,-45.2792398,5,62.30530
1,Delmiro Gouveia/AL,-9.3841161,-37.997756,2,3.84497
D1,Delmiro Gouveia/AL,-9.3841161,-37.997756,1,1.92249
1,Demerval Lobão/PI,-5.3640643,-42.673993,8,57.89969
1,Deodápolis/MS,-22.276272,-54.168163,1,7.73754
1,Deputado Irapuan Pinheiro/CE,-5.9173532,-39.2672104,4,41.55844
1,Derrubadas/RS,-27.2657279,-53.8618488,1,35.65062
1,Diadema/SP,-23.681347,-46.62052,634,149.56922
D1,Diadema/SP,-23.681347,-46.62052,51,12.03159
1,Diamantina/MG,-18.2440862,-43.6006487,5,10.47713
1,Dianópolis/TO,-11.624008,-46.819787,1,4.51692
1,Dias d'Ávila/BA,-12.6107233,-38.3028518,16,19.73141
1,Dionísio/MG,-19.841944,-42.776945,5,64.69142
1,Dirceu Arcoverde/PI,-9.3413101,-42.4362055,1,14.26330
1,Divina Pastora/SE,-10.6783231,-37.1482727,2,38.92565
1,Divino de São Lourenço/ES,-20.6201409,-41.6834749,2,46.46840
1,Divino/MG,-20.6151497,-42.1474733,2,10.03462
1,Divinolândia/SP,-21.6604584,-46.7371151,1,8.97183
1,Divinésia/MG,-20.990277,-43.003889,1,29.26544
1,Divinópolis/MG,-20.1434559,-44.89125,127,53.30983
D1,Divinópolis/MG,-20.1434559,-44.89125,1,0.41976
1,Divisa Nova/MG,-21.5126801,-46.1926626,1,16.63617
1,Dobrada/SP,-21.5180904,-48.3938897,3,33.59839
1,Dois Córregos/SP,-22.3697554,-48.3845315,2,7.32198
D1,Dois Córregos/SP,-22.3697554,-48.3845315,1,3.66099
1,Dois Irmãos/RS,-29.58356,-51.089776,3,9.18246
1,Dois Riachos/AL,-9.384645,-37.096502,1,9.02935
1,Dois Vizinhos/PR,-25.7464681,-53.0554369,1,2.46057
1,Dom Basílio/BA,-13.7589818,-41.7715676,2,16.39479
1,Dom Eliseu/PA,-4.2928111,-47.5559083,40,66.98036
D1,Dom Eliseu/PA,-4.2928111,-47.5559083,1,1.67451
1,Dom Expedito Lopes/PI,-6.9644926,-41.648155,1,14.48436
1,Dom Feliciano/RS,-30.70214,-52.1080845,1,6.48761
1,Dom Pedrito/RS,-30.983755,-54.6746483,11,28.60040
D1,Dom Pedrito/RS,-30.983755,-54.6746483,1,2.60004
1,Dom Pedro/MA,-5.0389999,-44.4377854,27,115.63169
1,Domingos Martins/ES,-20.3646483,-40.6585797,47,138.84786
1,Douradina/MS,-22.0402812,-54.6118292,2,33.76097
1,Dourado/SP,-22.1124638,-48.3151079,1,11.27015
1,Dourados/MS,-22.2206145,-54.812208,42,18.83839
D1,Dourados/MS,-22.2206145,-54.812208,1,0.44853
1,Doutor Maurício Cardoso/RS,-27.5067264,-54.3626756,1,21.98285
D1,Doutor Maurício Cardoso/RS,-27.5067264,-54.3626756,1,21.98285
1,Doutor Ricardo/RS,-29.0901549,-51.9894847,2,100.85729
1,Dracena/SP,-21.4835523,-51.5334408,21,44.87851
D1,Dracena/SP,-21.4835523,-51.5334408,2,4.27414
1,Duartina/SP,-22.414562,-49.408355,1,8.03536
1,Duas Estradas/PB,-6.6883382,-35.4175255,1,27.80868
1,Dueré/TO,-11.341631,-49.271566,4,85.36065
1,Dumont/SP,-21.2391417,-47.9747665,3,30.40130
1,Duque Bacelar/MA,-4.1542795,-42.946096,1,8.81135
1,Duque de Caxias/RJ,-22.7896225,-43.309929,919,99.93519
D1,Duque de Caxias/RJ,-22.7896225,-43.309929,145,15.76779
1,Dário Meira/BA,-14.4332181,-39.9028712,3,28.01120
1,Ecoporanga/ES,-18.3720918,-40.8321351,13,56.71160
D1,Ecoporanga/ES,-18.3720918,-40.8321351,1,4.36243
1,Edéia/GO,-17.3407253,-49.9292351,1,8.08277
1,Eirunepé/AM,-6.6567654,-69.866161,34,96.39101
1,Eldorado do Carajás/PA,-6.1029246,-49.3572487,3,8.87364
1,Eldorado do Sul/RS,-29.9984639,-51.3091977,3,7.26656
D1,Eldorado do Sul/RS,-29.9984639,-51.3091977,1,2.42219
1,Eldorado/SP,-24.522583,-48.1093489,3,19.36233
D1,Eldorado/SP,-24.522583,-48.1093489,1,6.45411
1,Elesbão Veloso/PI,-6.2032654,-42.1376937,12,82.18052
D1,Elesbão Veloso/PI,-6.2032654,-42.1376937,1,6.84838
1,Elias Fausto/SP,-23.0416538,-47.3718002,4,22.50731
D1,Elias Fausto/SP,-23.0416538,-47.3718002,1,5.62683
1,Elisiário/SP,-21.1673392,-49.1111015,1,27.38976
1,Elói Mendes/MG,-21.6094466,-45.5660211,4,14.24704
1,Embu das Artes/SP,-23.6495294,-46.8528497,315,115.07858
D1,Embu das Artes/SP,-23.6495294,-46.8528497,27,9.86388
1,Embu-Guaçu/SP,-23.8317997,-46.8156204,67,96.56266
D1,Embu-Guaçu/SP,-23.8317997,-46.8156204,6,8.64740
1,Emilianópolis/SP,-21.831436,-51.483168,4,124.45551
1,Encantado/RS,-29.2392716,-51.8744817,26,114.50718
D1,Encantado/RS,-29.2392716,-51.8744817,1,4.40412
1,Encanto/RN,-6.1107477,-38.3050953,11,195.10465
D1,Encanto/RN,-6.1107477,-38.3050953,2,35.47357
1,Encruzilhada do Sul/RS,-30.53619325,-52.51564721101029,4,15.45774
D1,Encruzilhada do Sul/RS,-30.53619325,-52.51564721101029,1,3.86444
1,Encruzilhada/BA,-15.5322113,-40.9072488,1,5.88028
1,Engenheiro Coelho/SP,-22.4896659,-47.2119005,9,43.32547
1,Engenheiro Paulo de Frontin/RJ,-22.5504556,-43.6783403,7,49.99286
D1,Engenheiro Paulo de Frontin/RJ,-22.5504556,-43.6783403,1,7.14184
1,Entre Rios/BA,-11.9423743,-38.0836985,1,2.39349
1,Entre Rios/SC,-26.7236463,-52.5638445,1,31.22073
1,Epitaciolândia/AC,-11.0289439,-68.7411519,4,21.72614
1,Erebango/RS,-27.8542708,-52.3029274,3,100.30090
1,Erechim/RS,-27.6350143,-52.2737288,18,17.00327
D1,Erechim/RS,-27.6350143,-52.2737288,1,0.94463
1,Ererê/CE,-6.0311304,-38.3482173,11,152.82023
D1,Ererê/CE,-6.0311304,-38.3482173,1,13.89275
1,Ernestina/RS,-28.498434,-52.5702451,2,63.13131
1,Escada/PE,-8.3594071,-35.2232683,60,87.11434
D1,Escada/PE,-8.3594071,-35.2232683,7,10.16334
1,Esmeraldas/MG,-19.7613111,-44.3145945,4,5.66958
1,Espera Feliz/MG,-20.6494192,-41.9080693,11,44.08641
1,Esperantina/PI,-3.8950963,-42.2370595,42,105.69494
1,Esperantina/TO,-5.3658232,-48.5368181,2,18.18843
1,Esperantinópolis/MA,-4.8751875,-44.8801032,22,127.60281
D1,Esperantinópolis/MA,-4.8751875,-44.8801032,1,5.80013
1,Esperança do Sul/RS,-27.3617442,-53.9909736,3,102.52905
D1,Esperança do Sul/RS,-27.3617442,-53.9909736,1,34.17635
1,Esperança/PB,-7.018517,-35.852193,11,33.32626
1,Espigão D'Oeste/RO,-11.532175,-61.0130935,3,9.26670
1,Espinosa/MG,-14.9232007,-42.8093337,2,6.32571
D1,Espinosa/MG,-14.9232007,-42.8093337,1,3.16286
1,Espumoso/RS,-28.7256962,-52.8453751,9,57.73672
D1,Espumoso/RS,-28.7256962,-52.8453751,1,6.41519
1,Espírito Santo do Dourado/MG,-22.046666,-45.950833,2,42.62575
1,Espírito Santo do Pinhal/SP,-22.190871,-46.74767,2,4.51162
1,Estação/RS,-27.9128965,-52.2606058,3,50.35247
1,Esteio/RS,-29.8511627,-51.1778852,17,20.43220
1,Estiva Gerbi/SP,-22.2754831,-46.9525448,1,8.84643
1,Estiva/MG,-22.4638686,-46.0182101,4,35.22987
1,Estreito/MA,-6.5583016,-47.4432212,64,152.57712
1,Estrela Dalva/MG,-21.741666,-42.460833,3,128.04097
1,Estrela d'Oeste/SP,-20.2860692,-50.3986216,1,11.87790
1,Estrela do Sul/MG,-18.7420499,-47.6900736,1,12.53447
1,Estrela/RS,-29.5010545,-51.962226,52,152.42115
D1,Estrela/RS,-29.5010545,-51.962226,1,2.93118
1,Estância Velha/RS,-29.6529666,-51.1719687,10,19.99120
1,Estância/SE,-11.2682255,-37.4378341,82,118.52451
D1,Estância/SE,-11.2682255,-37.4378341,1,1.44542
1,Euclides da Cunha/BA,-10.5060835,-39.0129875,2,3.30115
1,Eugenópolis/MG,-21.0968165,-42.1850985,1,8.86918
1,Eugênio de Castro/RS,-28.5286033,-54.1475172,1,41.73623
1,Eunápolis/BA,-16.3722412,-39.575704,44,38.80755
1,Eusébio/CE,-3.8889838,-38.4546585,394,734.82786
D1,Eusébio/CE,-3.8889838,-38.4546585,10,18.65045
1,Extrema/MG,-22.8549109,-46.3190079,57,157.34990
D1,Extrema/MG,-22.8549109,-46.3190079,3,8.28157
1,Extremoz/RN,-5.7092903,-35.3058914,40,139.94332
1,Faina/GO,-15.4458005,-50.3633826,1,15.08978
1,Faria Lemos/MG,-20.8051202,-42.0127393,2,61.70935
1,Farias Brito/CE,-6.9272823,-39.5714222,13,66.83805
D1,Farias Brito/CE,-6.9272823,-39.5714222,3,15.42416
1,Faro/PA,-1.1091625500000002,-57.800250715708856,1,13.90047
1,Farroupilha/RS,-29.22647,-51.3468188,37,51.15372
D1,Farroupilha/RS,-29.22647,-51.3468188,4,5.53013
1,Fartura do Piauí/PI,-9.4839171,-42.7906894,1,18.84304
1,Fartura/SP,-23.390039,-49.5109023,6,37.41581
D1,Fartura/SP,-23.390039,-49.5109023,1,6.23597
1,Faxinal dos Guedes/SC,-26.8476897,-52.2604154,8,74.99766
1,Faxinal/PR,-24.001065,-51.3223237,2,11.59353
1,Fazenda Rio Grande/PR,-25.645841,-49.3126653,34,33.92909
D1,Fazenda Rio Grande/PR,-25.645841,-49.3126653,3,2.99374
1,Fazenda Vilanova/RS,-29.588511,-51.821714,1,22.06045
1,Feijó/AC,-8.1648652,-70.3539579,2,5.75043
1,Feira Grande/AL,-9.8944239,-36.6793255,2,9.02283
1,Feira Nova do Maranhão/MA,-6.965082,-46.678577,3,35.27752
1,Feira Nova/PE,-7.9481471,-35.3871681,35,158.14920
D1,Feira Nova/PE,-7.9481471,-35.3871681,5,22.59274
1,Feira Nova/SE,-10.2629878,-37.3131265,2,35.81662
1,Feira de Santana/BA,-12.2578934,-38.9598047,195,31.71392
D1,Feira de Santana/BA,-12.2578934,-38.9598047,1,0.16264
1,Felipe Guerra/RN,-5.5979694,-37.6961704,11,183.79282
1,Feliz/RS,-29.4508908,-51.307713,3,22.14512
1,Fernando Falcão/MA,-6.1512461,-44.9022436,14,135.13514
1,Fernando Pedroza/RN,-5.6972558,-36.5316864,1,32.74394
1,Fernando Prestes/SP,-21.266061,-48.687384,1,17.29206
1,Fernando de Noronha/PE,-3.8561012,-32.4248189,28,914.73375
1,Fernandópolis/SP,-20.2825647,-50.2500762,18,26.04317
1,Ferraz de Vasconcelos/SP,-23.541056,-46.37097,210,108.09364
D1,Ferraz de Vasconcelos/SP,-23.541056,-46.37097,24,12.35356
1,Ferreira Gomes/AP,0.8580838,-51.1814,18,231.36247
D1,Ferreira Gomes/AP,0.8580838,-51.1814,1,12.85347
1,Ferreiros/PE,-7.449667,-35.2426004,18,148.47810
D1,Ferreiros/PE,-7.449667,-35.2426004,4,32.99513
1,Ferros/MG,-19.234984,-43.019542,6,61.09980
1,Fervedouro/MG,-20.7292242,-42.2785942,3,27.25786
1,Figueira/PR,-23.8481018,-50.4059875,1,12.87001
1,Figueirópolis/TO,-12.1347916,-49.1737141,2,38.00114
1,Flexeiras/AL,-9.2788679,-35.7235246,2,15.63722
D1,Flexeiras/AL,-9.2788679,-35.7235246,1,7.81861
1,Flores da Cunha/RS,-29.030129,-51.1833349,6,19.51537
1,Floresta Azul/BA,-14.8602238,-39.6561384,3,28.22467
1,Floresta do Araguaia/PA,-7.5597065,-49.7032829,2,9.85028
1,Floresta/PE,-8.5998918,-38.5706775,4,12.16804
D1,Floresta/PE,-8.5998918,-38.5706775,2,6.08402
1,Floresta/PR,-23.6144046,-52.0819003,2,29.52465
1,Floriano Peixoto/RS,-27.8603248,-52.0856015,6,339.75085
1,Floriano/PI,-6.7726534,-43.0070616,35,58.39660
1,Florianópolis/SC,-27.5973002,-48.5496098,473,94.41627
D1,Florianópolis/SC,-27.5973002,-48.5496098,6,1.19767
1,Flórida Paulista/SP,-21.614061,-51.1729548,1,6.83060
1,Fonte Boa/AM,-2.55,-66.91321428571428,100,567.89142
D1,Fonte Boa/AM,-2.55,-66.91321428571428,5,28.39457
1,Fontoura Xavier/RS,-28.981655,-52.344455,2,19.40994
1,Formiga/MG,-20.4648425,-45.4266753,9,13.29728
1,Formosa da Serra Negra/MA,-6.4437601,-46.1905789,2,10.47724
1,Formosa/GO,-15.5492443,-47.3301212,11,9.04479
1,Formoso do Araguaia/TO,-11.8059989,-49.5257153,5,27.11497
1,Forquilha/CE,-3.799447,-40.263405,6,24.77496
1,Forquilhinha/SC,-28.7487602,-49.4737661,10,37.32318
1,Fortaleza dos Nogueiras/MA,-6.9643779,-46.1703933,11,87.08732
1,Fortaleza/CE,-3.7304512,-38.5217989,15162,568.00515
D1,Fortaleza/CE,-3.7304512,-38.5217989,1174,43.98088
1,Fortim/CE,-4.451256,-37.798056,13,78.88350
1,Fortuna/MA,-5.7331469,-44.154276,3,19.29012
1,Foz do Iguaçu/PR,-25.5401479,-54.5858139,75,29.00995
D1,Foz do Iguaçu/PR,-25.5401479,-54.5858139,2,0.77360
1,Fraiburgo/SC,-27.023288,-50.919978,11,30.18412
1,Franca/SP,-20.5381768,-47.4009795,36,10.19290
D1,Franca/SP,-20.5381768,-47.4009795,2,0.56627
1,Francinópolis/PI,-6.3962771,-42.2635654,5,93.49289
1,Francisco Ayres/PI,-6.6217571,-42.6941944,1,22.99908
1,Francisco Beltrão/PR,-26.0790979,-53.0533527,9,9.88001
1,Francisco Morato/SP,-23.2817308,-46.7448996,187,106.34426
D1,Francisco Morato/SP,-23.2817308,-46.7448996,17,9.66766
1,Francisco Santos/PI,-6.9944754,-41.1345548,2,21.46153
1,Franco da Rocha/SP,-23.3328038,-46.724446,263,170.23866
D1,Franco da Rocha/SP,-23.3328038,-46.724446,24,15.53509
1,Frecheirinha/CE,-3.755572,-40.818019,15,106.59466
1,Frederico Westphalen/RS,-27.35711,-53.3964117,10,31.93562
D1,Frederico Westphalen/RS,-27.35711,-53.3964117,1,3.19356
1,Frei Miguelinho/PE,-7.9433019,-35.920939,35,226.43463
D1,Frei Miguelinho/PE,-7.9433019,-35.920939,3,19.40868
1,Frei Paulo/SE,-10.549956,-37.5356071,8,51.87731
D1,Frei Paulo/SE,-10.549956,-37.5356071,1,6.48466
1,Fronteira/MG,-20.286111,-49.202778,1,5.52395
1,Fronteiras/PI,-7.088607,-40.6147253,3,25.80645
1,Frutal/MG,-20.0220064,-48.9280076,9,15.12707
1,Fundão/ES,-19.9332174,-40.4049674,64,297.54986
D1,Fundão/ES,-19.9332174,-40.4049674,7,32.54452
1,Fátima do Sul/MS,-22.3750499,-54.516698,5,26.05659
1,Fátima/TO,-10.7575656,-48.9031328,2,52.15124
1,Gado Bravo/PB,-7.5830516,-35.7914371,5,60.12506
D1,Gado Bravo/PB,-7.5830516,-35.7914371,1,12.02501
1,Gameleira/PE,-8.579803,-35.384573,9,28.98364
D1,Gameleira/PE,-8.579803,-35.384573,3,9.66121
1,Gandu/BA,-13.7448138,-39.4844732,3,9.25840
1,Garanhuns/PE,-8.8905889,-36.4930896,65,46.49898
D1,Garanhuns/PE,-8.8905889,-36.4930896,4,2.86148
1,Gararu/SE,-9.9688996,-37.0827962,2,17.23544
D1,Gararu/SE,-9.9688996,-37.0827962,1,8.61772
1,Garibaldi/RS,-29.2562253,-51.5269167,120,342.17280
D1,Garibaldi/RS,-29.2562253,-51.5269167,3,8.55432
1,Garopaba/SC,-28.0274798,-48.6240197,2,8.66626
1,Garrafão do Norte/PA,-1.9282256,-47.0513157,40,153.45661
D1,Garrafão do Norte/PA,-1.9282256,-47.0513157,1,3.83642
1,Garuva/SC,-26.0294904,-48.8545202,2,11.02232
1,Garça/SP,-22.2125766,-49.6547994,7,15.76932
1,Gaspar/SC,-26.9307306,-48.9566824,33,47.38724
D1,Gaspar/SC,-26.9307306,-48.9566824,1,1.43598
1,Gastão Vidigal/SP,-20.7952902,-50.1905016,2,41.59734
D1,Gastão Vidigal/SP,-20.7952902,-50.1905016,1,20.79867
1,General Carneiro/PR,-26.422982,-51.3146691,2,14.58789
1,General Câmara/RS,-29.9058172,-51.7626264,2,23.85212
1,General Maynard/SE,-10.6855125,-36.98492,1,29.88643
1,General Salgado/SP,-20.6488139,-50.3608101,2,18.40096
1,General Sampaio/CE,-4.0503563,-39.4484058,7,91.88763
D1,General Sampaio/CE,-4.0503563,-39.4484058,3,39.38041
1,Getulina/SP,-21.7988557,-49.9288096,1,8.76501
1,Getúlio Vargas/RS,-27.8871493,-52.2257967,4,24.67308
1,Glorinha/RS,-29.8790534,-50.7869437,1,12.34873
1,Glória de Dourados/MS,-22.4173731,-54.2313391,1,10.03512
1,Glória do Goitá/PE,-7.999959,-35.2866116,41,133.96942
D1,Glória do Goitá/PE,-7.999959,-35.2866116,10,32.67547
1,Godofredo Viana/MA,-1.4147105,-45.7713182,5,42.30476
1,Goiana/PE,-7.560603,-34.99591,130,162.99305
D1,Goiana/PE,-7.560603,-34.99591,11,13.79172
1,Goiandira/GO,-18.1357087,-48.0866307,3,53.57143
D1,Goiandira/GO,-18.1357087,-48.0866307,1,17.85714
1,Goianinha/RN,-6.2663538,-35.2092447,4,15.19295
1,Goianira/GO,-16.5001973,-49.4254788,3,6.77369
1,Goianá/MG,-21.5375,-43.2014,2,50.42864
1,Goianésia do Pará/PA,-3.8380998,-49.0977992,19,46.94256
1,Goianésia/GO,-15.3118269,-49.1162001,32,45.65949
D1,Goianésia/GO,-15.3118269,-49.1162001,3,4.28058
1,Goiatins/TO,-7.7132054,-47.3154841,7,53.76757
1,Goiatuba/GO,-18.0154577,-49.3640591,8,23.46385
D1,Goiatuba/GO,-18.0154577,-49.3640591,1,2.93298
1,Goioerê/PR,-24.1851885,-53.0250623,5,17.31062
1,Goiânia/GO,-16.680882,-49.2532691,918,60.54958
D1,Goiânia/GO,-16.680882,-49.2532691,30,1.97874
1,Gongogi/BA,-14.3240248,-39.4665106,6,84.17508
1,Gonçalves Dias/MA,-5.1532875,-44.2997071,7,39.03201
1,Governador Archer/MA,-5.023562,-44.2709924,1,9.22509
1,Governador Celso Ramos/SC,-27.317161,-48.557608,21,145.11782
1,Governador Dix-Sept Rosado/RN,-5.4576782,-37.5209263,1,7.67048
1,Governador Edison Lobão/MA,-5.7456705,-47.363091,36,196.76432
1,Governador Eugênio Barros/MA,-5.3200262,-44.2440583,1,5.94248
1,Governador Jorge Teixeira/RO,-10.6140224,-62.7326412,4,51.49994
1,Governador Mangabeira/BA,-12.6038648,-39.0372154,1,4.82579
1,Governador Newton Bello/MA,-3.4285914,-45.6714297,6,58.93910
1,Governador Nunes Freire/MA,-2.1303959,-45.8900498,2,7.81953
1,Governador Valadares/MG,-18.8539497,-41.9458753,72,25.72485
D1,Governador Valadares/MG,-18.8539497,-41.9458753,5,1.78645
1,Graccho Cardoso/SE,-10.238671100000001,-37.20556291018945,6,103.12822
1,Grajaú/MA,-5.8154034,-46.1361454,5,7.19145
1,Gramado dos Loureiros/RS,-27.4439526,-52.9183699,4,192.12296
1,Gramado/RS,-29.3787488,-50.8724941,1,2.75999
1,Granito/PE,-7.7145682,-39.6164505,1,13.35827
1,Granja/CE,-3.1212057,-40.8284124,22,40.18412
D1,Granja/CE,-3.1212057,-40.8284124,2,3.65310
1,Gravatal/SC,-28.3300703,-49.0362296,24,208.67751
D1,Gravatal/SC,-28.3300703,-49.0362296,1,8.69490
1,Gravataí/RS,-29.9440222,-50.9930938,30,10.65647
D1,Gravataí/RS,-29.9440222,-50.9930938,1,0.35522
1,Gravatá/PE,-8.1993049,-35.5631137,39,46.38771
D1,Gravatá/PE,-8.1993049,-35.5631137,4,4.75771
1,Graça Aranha/MA,-5.405468,-44.335816,2,31.93868
1,Graça/CE,-4.0453849,-40.7527195,14,97.22897
1,Groaíras/CE,-3.9157768,-40.3855093,23,207.80629
D1,Groaíras/CE,-3.9157768,-40.3855093,1,9.03506
1,Grossos/RN,-4.9843455,-37.1511253,5,48.15564
D1,Grossos/RN,-4.9843455,-37.1511253,1,9.63113
1,Grão Pará/SC,-28.1856937,-49.2163956,1,15.22302
1,Guabiruba/SC,-27.0864326,-48.9781319,7,29.37227
D1,Guabiruba/SC,-27.0864326,-48.9781319,1,4.19604
1,Guaimbê/SP,-21.909072,-49.89861,2,34.69211
1,Guairaçá/PR,-22.9352304,-52.6865101,7,106.36681
D1,Guairaçá/PR,-22.9352304,-52.6865101,1,15.19526
1,Guaiçara/SP,-21.619537,-49.801287,2,16.43655
1,Guaiúba/CE,-4.0412656,-38.6369079,45,172.65193
D1,Guaiúba/CE,-4.0412656,-38.6369079,2,7.67342
1,Guajará-Mirim/RO,-10.7804239,-65.3327825,36,77.96595
D1,Guajará-Mirim/RO,-10.7804239,-65.3327825,12,25.98865
1,Guajará/AM,-7.5455927,-72.5832769,7,41.97146
1,Guamaré/RN,-5.1075294,-36.3196635,11,70.24714
1,Guanhães/MG,-18.7753627,-42.9340634,1,2.91384
1,Guapiara/SP,-24.18921,-48.529549,2,11.65705
1,Guapiaçu/SP,-20.79663,-49.2253917,5,23.30568
1,Guapimirim/RJ,-22.5266308,-42.9790687,25,41.31071
D1,Guapimirim/RJ,-22.5266308,-42.9790687,5,8.26214
1,Guaporé/RS,-28.8471928,-51.8907881,1,3.88697
1,Guapé/MG,-20.7619447,-45.9174969,2,14.04001
1,Guapó/GO,-16.8308602,-49.5343721,1,7.03779
1,Guarabira/PB,-6.8513982,-35.4915582,166,282.15457
D1,Guarabira/PB,-6.8513982,-35.4915582,1,1.69973
1,Guaraci/PR,-22.970394,-51.6479769,5,90.87605
1,Guaraci/SP,-20.4976771,-48.9452074,1,8.93815
1,Guaraciaba do Norte/CE,-4.1632924,-40.7495985,13,31.98661
D1,Guaraciaba do Norte/CE,-4.1632924,-40.7495985,1,2.46051
1,Guaramiranga/CE,-4.2615431,-38.9339337,9,173.31023
1,Guaramirim/SC,-26.468753,-49.002628,16,35.69915
1,Guarani d'Oeste/SP,-20.0737613,-50.3379634,1,50.00000
1,Guaraniaçu/PR,-25.10035,-52.867811,9,72.16164
1,Guaranésia/MG,-21.3024827,-46.7956962,1,5.25735
1,Guarapari/ES,-20.6718755,-40.4984617,107,85.69667
D1,Guarapari/ES,-20.6718755,-40.4984617,5,4.00452
1,Guarapuava/PR,-25.3950986,-51.4622016,16,8.81523
1,Guaraqueçaba/PR,-25.2983566,-48.3290185,1,13.09586
D1,Guaraqueçaba/PR,-25.2983566,-48.3290185,1,13.09586
1,Guararapes/SP,-21.2537115,-50.6441746,11,33.39506
D1,Guararapes/SP,-21.2537115,-50.6441746,1,3.03591
1,Guararema/SP,-23.4133724,-46.0379249,21,70.47453
D1,Guararema/SP,-23.4133724,-46.0379249,2,6.71186
1,Guarará/MG,-21.731945,-43.037777,1,26.34352
1,Guaratinga/BA,-16.5802498,-39.7808088,1,4.79777
1,Guaratinguetá/SP,-22.8057839,-45.1908926,15,12.31547
D1,Guaratinguetá/SP,-22.8057839,-45.1908926,1,0.82103
1,Guaratuba/PR,-25.8806192,-48.5750905,5,13.48909
1,Guaraçaí/SP,-21.031027,-51.2064201,2,24.02980
1,Guaraí/TO,-8.835429,-48.511432,14,54.00609
D1,Guaraí/TO,-8.835429,-48.511432,1,3.85758
1,Guareí/SP,-23.3718195,-48.184685,3,16.19870
1,Guariba/SP,-21.35938,-48.23158,3,7.48036
1,Guarujá/SP,-23.9927768,-46.2558332,360,112.33886
D1,Guarujá/SP,-23.9927768,-46.2558332,15,4.68079
1,Guarulhos/SP,-23.4430602,-46.524459,1507,109.26767
D1,Guarulhos/SP,-23.4430602,-46.524459,165,11.96361
1,Guará/SP,-20.4290496,-47.8250067,1,4.71254
D1,Guará/SP,-20.4290496,-47.8250067,1,4.71254
1,Guatambú/SC,-27.1333139,-52.7852104,9,191.32653
1,Guaxupé/MG,-21.3087615,-46.7190609,5,9.63076
1,Guaçuí/ES,-20.7726679,-41.6750657,18,58.31471
1,Guaíba/RS,-30.1130731,-51.329442,13,13.24598
D1,Guaíba/RS,-30.1130731,-51.329442,1,1.01892
1,Guaíra/PR,-24.0851924,-54.2567519,14,42.27181
D1,Guaíra/PR,-24.0851924,-54.2567519,3,9.05824
1,Guaíra/SP,-20.3245873,-48.3148818,3,7.35474
1,Guia Lopes da Laguna/MS,-21.5375346,-55.96134153440401,98,990.39919
1,Guimarânia/MG,-18.8442251,-46.7925141,2,24.87872
1,Guimarães/MA,-2.127551,-44.60199,3,24.93766
D1,Guimarães/MA,-2.127551,-44.60199,1,8.31255
1,Gurinhém/PB,-7.1244757,-35.424854,7,49.54349
1,Gurupi/TO,-11.72794,-49.068046,52,60.01362
D1,Gurupi/TO,-11.72794,-49.068046,1,1.15411
1,Gurupá/PA,-1.406325,-51.6427456,6,17.97699
D1,Gurupá/PA,-1.406325,-51.6427456,2,5.99233
1,Guzolândia/SP,-20.6491637,-50.6622974,1,18.98614
1,Harmonia/RS,-29.549989,-51.422308,5,102.75380
1,Herculândia/SP,-22.004508,-50.3862746,3,31.49276
1,Herval d'Oeste/SC,-27.17361,-51.4903659,6,26.54163
1,Hidrolândia/CE,-4.4084745,-40.4065472,7,35.03854
1,Hidrolândia/GO,-16.9671342,-49.22826,10,46.07021
D1,Hidrolândia/GO,-16.9671342,-49.22826,1,4.60702
1,Holambra/SP,-22.6332028,-47.0545305,9,60.28131
1,Horizonte/CE,-4.0964618,-38.4965574,154,228.70042
D1,Horizonte/CE,-4.0964618,-38.4965574,4,5.94027
1,Horizontina/RS,-27.627931,-54.3090256,5,25.86787
1,Hortolândia/SP,-22.85833,-47.22,105,45.48388
D1,Hortolândia/SP,-22.85833,-47.22,13,5.63134
1,Humaitá/AM,-7.5099404,-63.0248674,14,25.41757
1,Humaitá/RS,-27.5660564,-53.9719817,4,83.99832
1,Humberto de Campos/MA,-2.598282,-43.464877,14,48.75161
1,Iacanga/SP,-21.8928341,-49.0226082,2,17.07942
1,Iaçu/BA,-12.7672074,-40.2106427,4,16.45752
1,Ibaiti/PR,-23.8452962,-50.1905666,2,6.37674
1,Ibaretama/CE,-4.8194345,-38.8208476,4,29.95582
D1,Ibaretama/CE,-4.8194345,-38.8208476,1,7.48895
1,Ibateguara/AL,-8.9737196,-35.9279963,1,6.40369
D1,Ibateguara/AL,-8.9737196,-35.9279963,1,6.40369
1,Ibatiba/ES,-20.2342792,-41.5082981,2,7.66812
1,Ibaté/SP,-21.9554092,-47.9989614,5,14.24339
1,Ibema/PR,-25.1192916,-53.0071928,11,173.17380
1,Ibiapina/CE,-3.9228792,-40.8890296,16,64.00768
1,Ibiaí/MG,-16.861111,-44.913889,1,11.91185
1,Ibicaraí/BA,-14.8625311,-39.5890865,9,41.49569
1,Ibicuitinga/CE,-4.9751759,-38.6368754,47,375.24950
D1,Ibicuitinga/CE,-4.9751759,-38.6368754,1,7.98403
1,Ibimirim/PE,-8.5379259,-37.6941375,16,54.72892
D1,Ibimirim/PE,-8.5379259,-37.6941375,4,13.68223
1,Ibiporã/PR,-23.265941,-51.052243,2,3.66582
1,Ibirajuba/PE,-8.5795521,-36.178045,1,12.88328
1,Ibirapitanga/BA,-14.1615686,-39.369522,3,12.83422
1,Ibirapuitã/RS,-28.6226503,-52.5170577,16,398.70421
D1,Ibirapuitã/RS,-28.6226503,-52.5170577,1,24.91901
1,Ibirarema/SP,-22.8138003,-50.0737669,5,64.49116
1,Ibirataia/BA,-14.0689024,-39.6394008,10,65.30825
D1,Ibirataia/BA,-14.0689024,-39.6394008,1,6.53083
1,Ibiraçu/ES,-19.8309496,-40.3686594,12,96.16155
1,Ibirité/MG,-20.0214251,-44.0621506,19,10.54361
1,Ibirubá/RS,-28.630161,-53.096124,5,24.57002
1,Ibirá/SP,-21.0815104,-49.2424619,4,32.27628
1,Ibitinga/SP,-21.75623,-48.831903,5,8.32875
D1,Ibitinga/SP,-21.75623,-48.831903,2,3.33150
1,Ibitirama/ES,-20.539374,-41.664695,1,11.24986
1,Ibiúna/SP,-23.6548363,-47.2210116,58,73.53128
D1,Ibiúna/SP,-23.6548363,-47.2210116,2,2.53556
1,Ibotirama/BA,-12.1829519,-43.2181138,1,3.71374
1,Icapuí/CE,-4.7158474,-37.3535365,24,120.39731
D1,Icapuí/CE,-4.7158474,-37.3535365,2,10.03311
1,Icaraí de Minas/MG,-16.2176592,-44.9023441,1,8.34028
1,Icatu/MA,-2.772065,-44.050061,2,7.37654
D1,Icatu/MA,-2.772065,-44.050061,1,3.68827
1,Iconha/ES,-20.7935003,-40.8108852,9,64.93506
1,Icó/CE,-6.4003992,-38.8575946,23,33.81458
D1,Icó/CE,-6.4003992,-38.8575946,1,1.47020
1,Ielmo Marinho/RN,-5.8227944,-35.551993,1,7.26427
1,Iepê/SP,-22.660165,-51.077881,1,12.25640
D1,Iepê/SP,-22.660165,-51.077881,1,12.25640
1,Igaci/AL,-9.537678,-36.637191,1,3.90153
1,Igaracy/PB,-7.1819802,-38.1487395,2,32.69577
1,Igarapava/SP,-20.0411471,-47.7477444,3,9.85804
1,Igarapé do Meio/MA,-3.6397814,-45.1872837,21,148.12725
1,Igarapé-Açu/PA,-1.128244,-47.6199021,56,144.30386
D1,Igarapé-Açu/PA,-1.128244,-47.6199021,5,12.88427
1,Igarapé-Miri/PA,-1.9785213,-48.9634826,134,213.72293
D1,Igarapé-Miri/PA,-1.9785213,-48.9634826,5,7.97474
1,Igarapé/MG,-20.0687726,-44.3016306,6,13.93890
1,Igarassu/PE,-7.8354423,-34.9061125,179,152.96661
D1,Igarassu/PE,-7.8354423,-34.9061125,27,23.07318
1,Igaratinga/MG,-19.955278,-44.7089254,1,9.20810
1,Igaratá/SP,-23.2063475,-46.156934,21,220.26432
1,Igaraçu do Tietê/SP,-22.509044,-48.559672,11,44.58134
1,Iguaba Grande/RJ,-22.8388498,-42.2286746,36,127.16355
D1,Iguaba Grande/RJ,-22.8388498,-42.2286746,6,21.19392
1,Iguape/SP,-24.7042692,-47.5563733,23,74.53738
1,Iguaracy/PE,-7.8363415,-37.5140407,5,40.88976
1,Iguatu/CE,-6.361934,-39.2972233,78,76.09905
D1,Iguatu/CE,-6.361934,-39.2972233,9,8.78066
1,Ijuí/RS,-28.388048,-53.91996,8,9.58371
1,Ilha Comprida/SP,-24.7445292,-47.5525529,22,197.02669
D1,Ilha Comprida/SP,-24.7445292,-47.5525529,1,8.95576
1,Ilha Grande/PI,-2.8520082,-41.8166904,1,10.60895
D1,Ilha Grande/PI,-2.8520082,-41.8166904,1,10.60895
1,Ilha Solteira/SP,-20.4281001,-51.3410871,6,22.48370
1,Ilha de Itamaracá/PE,-7.747664,-34.830319,28,106.63417
1,Ilhabela/SP,-23.816628,-45.368685,30,85.78782
1,Ilhota/SC,-26.9022824,-48.8284968,9,63.45178
1,Ilhéus/BA,-14.792599,-39.0453843,373,229.78309
D1,Ilhéus/BA,-14.792599,-39.0453843,25,15.40101
1,Ilicínea/MG,-20.9390196,-45.8263558,1,8.08081
1,Imaculada/PB,-7.3871724,-37.5116814,4,33.84381
1,Imbaú/PR,-24.447597,-50.7557188,2,15.25437
1,Imbituba/SC,-28.241827,-48.6643444,29,64.65565
1,Imbituva/PR,-25.2293338,-50.6051002,12,36.85051
1,Imbé de Minas/MG,-19.5989453,-41.9694294,1,14.48646
1,Imbé/RS,-29.975269,-50.128068,1,4.38596
1,Imigrante/RS,-29.354229,-51.7773242,8,256.41026
1,Imperatriz/MA,-5.5269279,-47.478115,852,329.36192
D1,Imperatriz/MA,-5.5269279,-47.478115,36,13.91670
1,Inajá/PE,-8.9011209,-37.8244194,1,4.30163
1,Inconfidentes/MG,-22.3168866,-46.3279182,1,13.64629
1,Indaial/SC,-26.900011,-49.2370602,37,53.29492
D1,Indaial/SC,-26.900011,-49.2370602,2,2.88081
1,Indaiatuba/SP,-23.09028,-47.21806,57,22.65258
D1,Indaiatuba/SP,-23.09028,-47.21806,10,3.97414
1,Independência/CE,-5.3958538,-40.3108896,11,42.02002
D1,Independência/CE,-5.3958538,-40.3108896,1,3.82000
1,Indiana/SP,-22.1748508,-51.2534615,5,102.35415
1,Indiaroba/SE,-11.5250972,-37.5075262,5,27.84429
1,Ingá/PB,-7.2904513,-35.6109945,2,11.04789
1,Inhangapi/PA,-1.4283738,-47.9108608,17,145.16267
D1,Inhangapi/PA,-1.4283738,-47.9108608,1,8.53898
1,Inhapi/AL,-9.222095,-37.7480654,1,5.43922
1,Inhapim/MG,-19.5501834,-42.1209879,1,4.14250
1,Inhuma/PI,-6.6694502,-41.7096008,6,39.19519
1,Inhumas/GO,-16.3610569,-49.500111,7,13.24102
1,Inácio Martins/PR,-25.570395,-51.076925,1,8.98876
1,Inúbia Paulista/SP,-21.7705076,-50.9614046,1,25.05638
1,Ipaba/MG,-19.411389,-42.42,4,21.49729
1,Ipameri/GO,-17.7215439,-48.158118,1,3.70576
1,Ipanguaçu/RN,-5.5090713,-36.8594421,17,109.74114
D1,Ipanguaçu/RN,-5.5090713,-36.8594421,3,19.36608
1,Ipaporanga/CE,-4.903227,-40.760079,13,112.13663
1,Ipatinga/MG,-19.4777807,-42.5270802,36,13.66691
1,Ipaumirim/CE,-6.7883197,-38.7172034,3,24.07125
1,Ipecaetá/BA,-12.3158261,-39.306421,1,6.90274
1,Iperó/SP,-23.3508977,-47.687611,4,10.77209
1,Ipiaçu/MG,-18.6934499,-49.9439567,1,23.69107
D1,Ipiaçu/MG,-18.6934499,-49.9439567,1,23.69107
1,Ipiaú/BA,-14.1318211,-39.7373177,128,279.03124
1,Ipiguá/SP,-20.657282,-49.3881146,1,18.54599
D1,Ipiguá/SP,-20.657282,-49.3881146,1,18.54599
1,Ipira/SC,-27.4053188,-51.7734648,5,112.46064
1,Ipiranga do Norte/MT,-12.2408004,-56.1531011,3,39.12873
1,Ipiranga do Piauí/PI,-6.8240832,-41.7377279,1,10.19264
1,Ipirá/BA,-12.1578337,-39.7416605,4,6.71197
1,Ipixuna do Pará/PA,-2.5592139,-47.4965462,24,37.46897
1,Ipojuca/PE,-8.3980773,-35.0611068,117,121.61656
D1,Ipojuca/PE,-8.3980773,-35.0611068,11,11.43404
1,Iporá/GO,-16.4407981,-51.1181188,1,3.17148
D1,Iporá/GO,-16.4407981,-51.1181188,1,3.17148
1,Ipu/CE,-4.3239824,-40.7097463,10,23.82995
1,Ipubi/PE,-7.6535334,-40.1494078,11,35.65178
D1,Ipubi/PE,-7.6535334,-40.1494078,1,3.24107
1,Ipueiras/CE,-4.5427141,-40.7168461,7,18.34093
D1,Ipueiras/CE,-4.5427141,-40.7168461,1,2.62013
1,Ipuiúna/MG,-22.0993203,-46.1896557,1,9.92162
1,Ipumirim/SC,-27.0762287,-52.135736,30,395.10075
1,Ipuã/SP,-20.4441839,-48.012504,12,73.13060
1,Iracema/CE,-5.8106219,-38.3028294,9,62.95027
D1,Iracema/CE,-5.8106219,-38.3028294,1,6.99447
1,Iracema/RR,2.1664742,-61.0513048,2,16.73640
D1,Iracema/RR,2.1664742,-61.0513048,1,8.36820
1,Iracemápolis/SP,-22.583234,-47.522963,20,82.52527
1,Iranduba/AM,-3.2758203,-60.1867429,333,689.49810
D1,Iranduba/AM,-3.2758203,-60.1867429,23,47.62299
1,Irani/SC,-27.0230476,-51.9010675,43,412.70755
1,Irapuru/SP,-21.5691828,-51.3494606,8,96.45527
D1,Irapuru/SP,-21.5691828,-51.3494606,1,12.05691
1,Irará/BA,-12.0420271,-38.7635638,1,3.44424
1,Irati/PR,-25.469663,-50.649287,1,1.64671
1,Irati/SC,-26.6577742,-52.8929851,1,51.81347
1,Irauçuba/CE,-3.7466828,-39.7840904,32,132.47226
1,Irecê/BA,-11.3034853,-41.8557902,5,6.85241
1,Iretama/PR,-24.4212538,-52.1023538,3,29.50143
D1,Iretama/PR,-24.4212538,-52.1023538,1,9.83381
1,Irituia/PA,-1.7709543,-47.4399687,21,64.51613
D1,Irituia/PA,-1.7709543,-47.4399687,1,3.07220
1,Irupi/ES,-20.3469751,-41.639688,4,29.90207
1,Itabaiana/PB,-7.331674,-35.331723,22,89.88030
1,Itabaiana/SE,-10.6856197,-37.4270517,175,183.38625
D1,Itabaiana/SE,-10.6856197,-37.4270517,1,1.04792
1,Itabaianinha/SE,-11.2760142,-37.78666,95,226.57890
D1,Itabaianinha/SE,-11.2760142,-37.78666,1,2.38504
1,Itabela/BA,-16.5743392,-39.561961,1,3.26968
1,Itaberaba/BA,-12.524182,-40.305897,7,10.85456
D1,Itaberaba/BA,-12.524182,-40.305897,1,1.55065
1,Itaberá/SP,-23.8621345,-49.1398926,1,5.69606
1,Itabira/MG,-19.6186264,-43.2267011,14,11.66084
D1,Itabira/MG,-19.6186264,-43.2267011,1,0.83292
1,Itabirito/MG,-20.2519724,-43.8029171,1,1.92771
D1,Itabirito/MG,-20.2519724,-43.8029171,1,1.92771
1,Itaboraí/RJ,-22.7496231,-42.8557428,367,152.54040
D1,Itaboraí/RJ,-22.7496231,-42.8557428,32,13.30053
1,Itabuna/BA,-14.7869879,-39.2788778,608,285.14747
D1,Itabuna/BA,-14.7869879,-39.2788778,16,7.50388
1,Itacarambi/MG,-15.1,-44.092222,1,5.50873
1,Itacaré/BA,-14.2781298,-38.9951418,8,28.27255
1,Itacoatiara/AM,-3.1477898,-58.4461041,368,363.14475
D1,Itacoatiara/AM,-3.1477898,-58.4461041,33,32.56461
1,Itagi/BA,-14.1627902,-40.0069366,2,16.19302
1,Itagibá/BA,-14.2891521,-39.8452592,14,96.02853
1,Itaguara/MG,-20.391389,-44.488055,4,29.94460
1,Itaguaru/GO,-15.7613695,-49.6337242,1,19.09490
1,Itaguatins/TO,-5.7696766,-47.4815382,14,238.74488
1,Itaguaí/RJ,-22.8629597,-43.775322,104,78.18432
D1,Itaguaí/RJ,-22.8629597,-43.775322,22,16.53899
1,Itaipava do Grajaú/MA,-5.1421474,-45.7878573,2,12.45563
1,Itaipulândia/PR,-25.1417007,-54.2980691,1,8.94775
1,Itaipé/MG,-17.401944,-41.670278,1,7.83699
1,Itaitinga/CE,-3.965768,-38.529763,147,387.04581
D1,Itaitinga/CE,-3.965768,-38.529763,16,42.12744
1,Itaituba/PA,-4.2625218,-55.9878139,37,36.54429
D1,Itaituba/PA,-4.2625218,-55.9878139,1,0.98768
1,Itaiçaba/CE,-4.68054,-37.8239968,14,178.86802
D1,Itaiçaba/CE,-4.68054,-37.8239968,1,12.77629
1,Itaiópolis/SC,-26.3391899,-49.9071983,1,4.61489
1,Itajaí/SC,-26.9117879,-48.6669852,172,78.34706
D1,Itajaí/SC,-26.9117879,-48.6669852,3,1.36652
1,Itajobi/SP,-21.312294,-49.0596336,11,72.07443
D1,Itajobi/SP,-21.312294,-49.0596336,1,6.55222
1,Itajubá/MG,-22.4238234,-45.4524156,15,15.48483
D1,Itajubá/MG,-22.4238234,-45.4524156,1,1.03232
1,Itajuípe/BA,-14.6744381,-39.3759427,27,131.76517
1,Itajá/RN,-5.6374673,-36.8713272,4,52.99417
1,Italva/RJ,-21.4214056,-41.6907956,3,19.72776
1,Itamaraju/BA,-17.0363103,-39.527994,14,21.71014
1,Itamarati/AM,-6.4385189,-68.2437385,2,25.47446
1,Itambacuri/MG,-18.0391974,-41.6751876,2,8.61660
D1,Itambacuri/MG,-18.0391974,-41.6751876,1,4.30830
1,Itambé/PE,-7.4108509,-35.10967,22,60.36162
D1,Itambé/PE,-7.4108509,-35.10967,1,2.74371
1,Itamonte/MG,-22.2830726,-44.8695785,3,19.25669
1,Itanhandu/MG,-22.2957913,-44.9366732,9,58.70459
1,Itanhaém/SP,-24.1848847,-46.7921572,48,47.14387
D1,Itanhaém/SP,-24.1848847,-46.7921572,10,9.82164
1,Itaobim/MG,-16.5614934,-41.502275,2,9.49577
1,Itaocara/RJ,-21.6725236,-42.0798658,13,55.95248
D1,Itaocara/RJ,-21.6725236,-42.0798658,3,12.91211
1,Itapajé/CE,-3.6841324,-39.5851265,57,108.21073
D1,Itapajé/CE,-3.6841324,-39.5851265,3,5.69530
1,Itaparica/BA,-12.8936023,-38.6798141,3,13.49649
1,Itapebi/BA,-15.9691891,-39.5320541,5,48.73769
1,Itapecerica da Serra/SP,-23.7176303,-46.8492435,287,163.35312
D1,Itapecerica da Serra/SP,-23.7176303,-46.8492435,22,12.52184
1,Itapecerica/MG,-20.472778,-45.125556,13,59.73716
1,Itapecuru Mirim/MA,-3.3973569,-44.3560724,38,55.71602
D1,Itapecuru Mirim/MA,-3.3973569,-44.3560724,1,1.46621
1,Itapema/SC,-27.09472,-48.6137778,31,47.46448
D1,Itapema/SC,-27.09472,-48.6137778,1,1.53111
1,Itapemirim/ES,-21.0105534,-40.8351239,23,66.96169
D1,Itapemirim/ES,-21.0105534,-40.8351239,1,2.91138
1,Itaperuna/RJ,-21.2048,-41.88801,23,22.28164
1,Itaperuçu/PR,-25.21926,-49.345427,6,20.95411
1,Itapetim/PE,-7.377514,-37.1887321,4,29.37720
D1,Itapetim/PE,-7.377514,-37.1887321,1,7.34430
1,Itapetinga/BA,-15.2454478,-40.2460053,9,11.81924
D1,Itapetinga/BA,-15.2454478,-40.2460053,2,2.62650
1,Itapetininga/SP,-23.588607,-48.048326,52,31.72647
D1,Itapetininga/SP,-23.588607,-48.048326,2,1.22025
1,Itapeva/MG,-22.7071665,-46.23015850595238,6,61.33088
D1,Itapeva/MG,-22.7071665,-46.23015850595238,1,10.22181
1,Itapeva/SP,-23.9849105,-48.8803886,22,23.31645
1,Itapevi/SP,-23.54888,-46.933889,311,130.83719
D1,Itapevi/SP,-23.54888,-46.933889,35,14.72444
1,Itapicuru/BA,-11.3094471,-38.2184391,2,5.62177
1,Itapipoca/CE,-3.499329,-39.583571,442,341.68741
D1,Itapipoca/CE,-3.499329,-39.583571,30,23.19145
1,Itapira/SP,-22.436111,-46.821667,24,32.09715
D1,Itapira/SP,-22.436111,-46.821667,3,4.01214
1,Itapiranga/AM,-2.7461205,-58.025377,145,1585.04591
D1,Itapiranga/AM,-2.7461205,-58.025377,3,32.79405
1,Itapiranga/SC,-27.1719977,-53.7118734,3,17.78094
1,Itapissuma/PE,-7.767983,-34.897136,56,210.12345
D1,Itapissuma/PE,-7.767983,-34.897136,7,26.26543
1,Itapitanga/BA,-14.4213865,-39.5664662,1,9.69650
1,Itapiúna/CE,-4.5654191,-38.9211537,29,142.28241
D1,Itapiúna/CE,-4.5654191,-38.9211537,1,4.90629
1,Itaporanga d'Ajuda/SE,-10.9961671,-37.3045841,16,46.57120
D1,Itaporanga d'Ajuda/SE,-10.9961671,-37.3045841,1,2.91070
1,Itaporanga/PB,-7.3040747,-38.1505782,4,16.19958
D1,Itaporanga/PB,-7.3040747,-38.1505782,1,4.04989
1,Itapororoca/PB,-6.8283007,-35.244782,18,96.44235
D1,Itapororoca/PB,-6.8283007,-35.244782,1,5.35791
1,Itapura/SP,-20.6435211,-51.5084479,2,40.76641
1,Itapuranga/GO,-15.5605889,-49.9489571,3,11.64235
1,Itapuã do Oeste/RO,-9.189646,-63.1910097,2,19.12412
1,Itapuí/SP,-22.2346755,-48.7189744,4,28.58776
1,Itapé/BA,-14.8970856,-39.4246637,2,22.82844
1,Itaquaquecetuba/SP,-23.4754492,-46.3514033,336,90.60976
D1,Itaquaquecetuba/SP,-23.4754492,-46.3514033,34,9.16884
1,Itaqui/RS,-29.1222037,-56.5551258,2,5.31632
1,Itaquitinga/PE,-7.6642569,-35.1023615,16,94.36744
D1,Itaquitinga/PE,-7.6642569,-35.1023615,4,23.59186
1,Itarana/ES,-19.8707305,-40.8749826,3,28.42255
1,Itarantim/BA,-15.6520917,-40.0599067,1,5.06406
1,Itararé/SP,-24.1145368,-49.3352464,2,3.96016
1,Itarema/CE,-2.9224558,-39.9129042,93,222.34973
D1,Itarema/CE,-2.9224558,-39.9129042,5,11.95429
1,Itariri/SP,-24.2900711,-47.176151,17,97.49943
1,Itatiaia/RJ,-22.4955278,-44.5633108,11,34.58576
1,Itatiaiuçu/MG,-20.1975724,-44.4224889,5,44.85914
1,Itatiba/SP,-22.9965861,-46.8412042,19,15.72093
D1,Itatiba/SP,-22.9965861,-46.8412042,2,1.65483
1,Itatim/BA,-12.7073174,-39.6974476,6,41.41644
1,Itatinga/SP,-23.1042417,-48.6134874,4,19.32647
1,Itatira/CE,-4.5305423,-39.621054,30,138.58733
D1,Itatira/CE,-4.5305423,-39.621054,2,9.23916
1,Itatuba/PB,-7.3758509,-35.626495,12,109.46907
D1,Itatuba/PB,-7.3758509,-35.626495,1,9.12242
1,Itaubal/AP,0.6027524,-50.6998737,10,181.71906
1,Itaueira/PI,-7.5991089,-43.0278778,1,9.07523
D1,Itaueira/PI,-7.5991089,-43.0278778,1,9.07523
1,Itaí/SP,-23.4172598,-49.0935788,1,3.68664
1,Itaíba/PE,-8.94675,-37.421188,4,15.18084
1,Itaóca/SP,-24.6409691,-48.8410159,1,30.04808
1,Itaú de Minas/MG,-20.739722,-46.752222,3,18.62429
1,Itaú/RN,-5.8413626,-37.9913221,12,204.15107
