type,name,lat,lon,total,total_per_100k_inhabitants
1,Abadia de Goiás/GO,-16.7572644,-49.4412205,804,8975.21768
D1,Abadia de Goiás/GO,-16.7572644,-49.4412205,10,111.63206
1,Abadia dos Dourados/MG,-18.4911191,-47.4063589,111,1584.35627
D1,Abadia dos Dourados/MG,-18.4911191,-47.4063589,1,14.27348
1,Abadiânia/GO,-16.1940946,-48.7067767,206,1006.79341
D1,Abadiânia/GO,-16.1940946,-48.7067767,15,73.31020
1,Abaetetuba/PA,-1.721828,-48.878843,5575,3504.52602
D1,Abaetetuba/PA,-1.721828,-48.878843,124,77.94820
1,Abaeté/MG,-19.1566833,-45.4481213,432,1858.06452
D1,Abaeté/MG,-19.1566833,-45.4481213,5,21.50538
1,Abaiara/CE,-7.3607808,-39.0487878,176,1484.85615
D1,Abaiara/CE,-7.3607808,-39.0487878,4,33.74673
1,Abaré/BA,-8.7239913,-39.1139689,197,968.20170
D1,Abaré/BA,-8.7239913,-39.1139689,1,4.91473
1,Abatiá/PR,-23.3052967,-50.3102532,223,3010.25918
D1,Abatiá/PR,-23.3052967,-50.3102532,3,40.49676
1,Abaíra/BA,-13.2503296,-41.6640342,167,1917.33639
D1,Abaíra/BA,-13.2503296,-41.6640342,4,45.92423
1,Abdon Batista/SC,-27.612419,-51.022992,165,6475.66719
D1,Abdon Batista/SC,-27.612419,-51.022992,1,39.24647
1,Abel Figueiredo/PA,-4.953001,-48.3958485,478,6385.25247
D1,Abel Figueiredo/PA,-4.953001,-48.3958485,2,26.71654
1,Abelardo Luz/SC,-26.5705893,-52.3280339,761,4237.19376
D1,Abelardo Luz/SC,-26.5705893,-52.3280339,19,105.79065
1,Abre Campo/MG,-20.2976097,-42.4764741,261,1941.38649
D1,Abre Campo/MG,-20.2976097,-42.4764741,4,29.75305
1,Abreu e Lima/PE,-7.900719,-34.898389,1413,1408.12788
D1,Abreu e Lima/PE,-7.900719,-34.898389,147,146.49313
1,Abreulândia/TO,-9.6221526,-49.1558343,111,4279.10563
D1,Abreulândia/TO,-9.6221526,-49.1558343,4,154.20200
1,Acaiaca/MG,-20.3621646,-43.1444162,101,2528.79319
D1,Acaiaca/MG,-20.3621646,-43.1444162,3,75.11267
1,Acajutiba/BA,-11.6609659,-38.0186381,281,1850.26668
D1,Acajutiba/BA,-11.6609659,-38.0186381,7,46.09205
1,Acarape/CE,-4.2237866,-38.7071663,1974,13128.49162
D1,Acarape/CE,-4.2237866,-38.7071663,14,93.10987
1,Acaraú/CE,-2.8869514,-40.1194713,2852,4519.52333
D1,Acaraú/CE,-2.8869514,-40.1194713,58,91.91176
1,Acari/RN,-6.4364689,-36.6394777,375,3371.99892
D1,Acari/RN,-6.4364689,-36.6394777,7,62.94398
1,Acará/PA,-1.961388,-48.1987043,883,1586.16106
D1,Acará/PA,-1.961388,-48.1987043,16,28.74131
1,Acauã/PI,-8.219542,-41.083059,130,1830.47029
D1,Acauã/PI,-8.219542,-41.083059,1,14.08054
1,Aceguá/RS,-31.8695131,-54.1615593,61,1234.31809
1,Acopiara/CE,-6.0936464,-39.4543204,1436,2635.78128
D1,Acopiara/CE,-6.0936464,-39.4543204,62,113.80114
1,Acorizal/MT,-15.2001544,-56.3668953,249,4668.16648
D1,Acorizal/MT,-15.2001544,-56.3668953,7,131.23360
1,Acrelândia/AC,-10.0759167,-67.0526898,638,4118.78631
D1,Acrelândia/AC,-10.0759167,-67.0526898,14,90.38089
1,Acreúna/GO,-17.3959899,-50.3749031,1099,4874.47884
D1,Acreúna/GO,-17.3959899,-50.3749031,27,119.75517
1,Adamantina/SP,-21.6866517,-51.0762975,1020,2905.07248
D1,Adamantina/SP,-21.6866517,-51.0762975,20,56.96221
1,Adelândia/GO,-16.4155077,-50.1665834,92,3656.59777
D1,Adelândia/GO,-16.4155077,-50.1665834,2,79.49126
1,Adolfo/SP,-21.2356597,-49.6441918,194,5458.63815
D1,Adolfo/SP,-21.2356597,-49.6441918,5,140.68655
1,Adrianópolis/PR,-24.6557863,-48.9912769,568,9697.79751
D1,Adrianópolis/PR,-24.6557863,-48.9912769,9,153.66228
1,Adustina/BA,-10.5358875,-38.114479,186,1086.06797
D1,Adustina/BA,-10.5358875,-38.114479,4,23.35630
1,Afogados da Ingazeira/PE,-7.750429,-37.6356375,2002,5352.36873
D1,Afogados da Ingazeira/PE,-7.750429,-37.6356375,27,72.18479
1,Afonso Bezerra/RN,-5.4745,-36.57625071327935,219,1985.67413
D1,Afonso Bezerra/RN,-5.4745,-36.57625071327935,11,99.73706
1,Afonso Cláudio/ES,-20.077841,-41.12606,1983,6511.24610
D1,Afonso Cláudio/ES,-20.077841,-41.12606,34,111.64012
1,Afonso Cunha/MA,-4.1326105,-43.3230026,152,2310.73275
D1,Afonso Cunha/MA,-4.1326105,-43.3230026,2,30.40438
1,Afrânio/PE,-8.5198919,-41.0070197,529,2670.36850
D1,Afrânio/PE,-8.5198919,-41.0070197,8,40.38364
1,Afuá/PA,-0.1535664,-50.3879223,2634,6657.06270
D1,Afuá/PA,-0.1535664,-50.3879223,11,27.80095
1,Agrestina/PE,-8.4558021,-35.9442663,735,2932.37582
D1,Agrestina/PE,-8.4558021,-35.9442663,33,131.65769
1,Agricolândia/PI,-5.7967843,-42.6605131,75,1461.70337
1,Agrolândia/SC,-27.4122212,-49.8295774,476,4322.16471
D1,Agrolândia/SC,-27.4122212,-49.8295774,6,54.48107
1,Agronômica/SC,-27.2660744,-49.7104753,262,4755.85406
D1,Agronômica/SC,-27.2660744,-49.7104753,6,108.91269
1,Aguanil/MG,-20.9424533,-45.3927152,186,4113.22424
D1,Aguanil/MG,-20.9424533,-45.3927152,4,88.45644
1,Aguaí/SP,-22.0592036,-46.979384,823,2245.68871
D1,Aguaí/SP,-22.0592036,-46.979384,17,46.38725
1,Agudo/RS,-29.6423259,-53.2494005,377,2298.64033
D1,Agudo/RS,-29.6423259,-53.2494005,3,18.29157
1,Agudos do Sul/PR,-25.9890808,-49.3328175,255,2692.71383
D1,Agudos do Sul/PR,-25.9890808,-49.3328175,1,10.55966
1,Agudos/SP,-22.471162,-48.987822,1229,3286.00840
D1,Agudos/SP,-22.471162,-48.987822,20,53.47451
1,Aguiar/PB,-7.0928404,-38.1727215,65,1154.52931
D1,Aguiar/PB,-7.0928404,-38.1727215,1,17.76199
1,Aguiarnópolis/TO,-6.5600452,-47.4721189,477,6921.06790
D1,Aguiarnópolis/TO,-6.5600452,-47.4721189,9,130.58619
1,Aimorés/MG,-19.4917754,-41.0615603,1032,4104.84865
D1,Aimorés/MG,-19.4917754,-41.0615603,22,87.50646
1,Aiquara/BA,-14.126918,-39.8887574,353,7993.65942
D1,Aiquara/BA,-14.126918,-39.8887574,6,135.86957
1,Aiuaba/CE,-6.5710836,-40.1212278,95,543.07437
D1,Aiuaba/CE,-6.5710836,-40.1212278,1,5.71657
1,Aiuruoca/MG,-21.9759554,-44.6036637,57,953.81526
D1,Aiuruoca/MG,-21.9759554,-44.6036637,4,66.93440
1,Ajuricaba/RS,-28.239654,-53.7693013,460,6583.65536
D1,Ajuricaba/RS,-28.239654,-53.7693013,4,57.24918
1,Alagoa Grande/PB,-7.0415212,-35.6285322,1813,6375.04835
D1,Alagoa Grande/PB,-7.0415212,-35.6285322,30,105.48894
1,Alagoa Nova/PB,-7.0653703,-35.76695977336711,491,2346.92414
D1,Alagoa Nova/PB,-7.0653703,-35.76695977336711,11,52.57875
1,Alagoa/MG,-22.1697202,-44.6400042,149,5590.99437
1,Alagoinha do Piauí/PI,-7.0090952,-40.939675,179,2335.29028
D1,Alagoinha do Piauí/PI,-7.0090952,-40.939675,6,78.27789
1,Alagoinha/PB,-6.97063215,-35.51490901897793,1148,7884.61538
D1,Alagoinha/PB,-6.97063215,-35.51490901897793,16,109.89011
1,Alagoinha/PE,-8.50355635,-36.77701174370496,416,2826.47099
D1,Alagoinha/PE,-8.50355635,-36.77701174370496,12,81.53282
1,Alagoinhas/BA,-12.133526,-38.420772,7643,5017.49526
D1,Alagoinhas/BA,-12.133526,-38.420772,104,68.27417
1,Alambari/SP,-23.550338,-47.897971,165,2692.11943
D1,Alambari/SP,-23.550338,-47.897971,5,81.57938
1,Albertina/MG,-20.66164,-43.784039,88,2922.61707
D1,Albertina/MG,-20.66164,-43.784039,5,166.05779
1,Alcantil/PB,-7.7425491,-36.0609604,111,2014.88473
D1,Alcantil/PB,-7.7425491,-36.0609604,1,18.15211
1,Alcinópolis/MS,-18.3264121,-53.7094463,71,1310.68857
D1,Alcinópolis/MS,-18.3264121,-53.7094463,2,36.92080
1,Alcobaça/BA,-17.5215875,-39.1965474,929,4130.72477
D1,Alcobaça/BA,-17.5215875,-39.1965474,16,71.14273
1,Alcântara/MA,-2.4038956,-44.4154241,202,913.53111
D1,Alcântara/MA,-2.4038956,-44.4154241,8,36.17945
1,Alcântaras/CE,-3.586247,-40.5457641,633,5373.05831
D1,Alcântaras/CE,-3.586247,-40.5457641,4,33.95298
1,Aldeias Altas/MA,-4.6291957,-43.4708622,947,3539.26075
D1,Aldeias Altas/MA,-4.6291957,-43.4708622,11,41.11074
1,Alecrim/RS,-27.6566142,-54.7653195,80,1372.91917
D1,Alecrim/RS,-27.6566142,-54.7653195,2,34.32298
1,Alegre/ES,-20.7625787,-41.5318886,1100,3669.72477
D1,Alegre/ES,-20.7625787,-41.5318886,26,86.73895
1,Alegrete do Piauí/PI,-7.2440138,-40.8602296,359,7299.71533
D1,Alegrete do Piauí/PI,-7.2440138,-40.8602296,4,81.33388
1,Alegrete/RS,-29.790166,-55.794862,2471,3383.63367
D1,Alegrete/RS,-29.790166,-55.794862,51,69.83623
1,Alegria/RS,-27.8332103,-54.0574959,190,5631.29816
D1,Alegria/RS,-27.8332103,-54.0574959,1,29.63841
1,Alenquer/PA,-1.946229,-54.738355,1687,2954.87984
D1,Alenquer/PA,-1.946229,-54.738355,30,52.54677
1,Alexandria/RN,-6.414779,-38.0135516,556,4102.41275
D1,Alexandria/RN,-6.414779,-38.0135516,9,66.40596
1,Alexânia/GO,-16.0834049,-48.5077803,1549,5530.16780
D1,Alexânia/GO,-16.0834049,-48.5077803,27,96.39414
1,Alfenas/MG,-21.4297405,-45.9479419,3567,4431.38619
D1,Alfenas/MG,-21.4297405,-45.9479419,78,96.90163
1,Alfredo Chaves/ES,-20.624970400000002,-40.75006690147988,1525,10419.51353
D1,Alfredo Chaves/ES,-20.624970400000002,-40.75006690147988,20,136.64936
1,Alfredo Marcondes/SP,-21.9527,-51.413956,119,2844.16826
D1,Alfredo Marcondes/SP,-21.9527,-51.413956,4,95.60229
1,Alfredo Vasconcelos/MG,-21.145833,-43.776389,122,1747.60063
D1,Alfredo Vasconcelos/MG,-21.145833,-43.776389,4,57.29838
1,Alfredo Wagner/SC,-27.6961513,-49.3326734,539,5344.04125
D1,Alfredo Wagner/SC,-27.6961513,-49.3326734,1,9.91473
1,Algodão de Jandaíra/PB,-6.9040175,-36.0089879,48,1862.63097
1,Alhandra/PB,-7.4304246,-34.9106103,809,4100.97835
D1,Alhandra/PB,-7.4304246,-34.9106103,19,96.31470
1,Aliança do Tocantins/TO,-11.3055927,-48.9409096,244,4564.16012
D1,Aliança do Tocantins/TO,-11.3055927,-48.9409096,4,74.82230
1,Aliança/PE,-7.60398,-35.222696,417,1086.02235
D1,Aliança/PE,-7.60398,-35.222696,30,78.13110
1,Almadina/BA,-14.70466,-39.6381994,416,7752.51584
D1,Almadina/BA,-14.70466,-39.6381994,6,111.81513
1,Almas/TO,-11.5681309,-47.1702803,139,1991.68935
D1,Almas/TO,-11.5681309,-47.1702803,3,42.98610
1,Almeirim/PA,-1.5290377,-52.5788111,1334,3914.77873
D1,Almeirim/PA,-1.5290377,-52.5788111,18,52.82310
1,Almenara/MG,-16.1740678,-40.6904907,1935,4591.50986
D1,Almenara/MG,-16.1740678,-40.6904907,19,45.08459
1,Almino Afonso/RN,-6.1544208,-37.7649018,131,2781.31635
D1,Almino Afonso/RN,-6.1544208,-37.7649018,4,84.92569
1,Almirante Tamandaré do Sul/RS,-28.1141129,-52.9134874,80,4104.66906
1,Almirante Tamandaré/PR,-25.3133048,-49.2997838,4447,3704.56761
D1,Almirante Tamandaré/PR,-25.3133048,-49.2997838,112,93.30146
1,Aloândia/GO,-17.7277983,-49.4809338,160,8056.39476
D1,Aloândia/GO,-17.7277983,-49.4809338,5,251.76234
1,Alpercata/MG,-18.9803616,-41.9827637,308,4142.01183
D1,Alpercata/MG,-18.9803616,-41.9827637,12,161.37708
1,Alpestre/RS,-27.2512339,-53.0349646,130,2142.73941
D1,Alpestre/RS,-27.2512339,-53.0349646,3,49.44783
1,Alpinópolis/MG,-20.863611,-46.387777,195,977.05181
D1,Alpinópolis/MG,-20.863611,-46.387777,5,25.05261
1,Alta Floresta D'Oeste/RO,-11.9296917,-61.9961284,2021,8892.11545
D1,Alta Floresta D'Oeste/RO,-11.9296917,-61.9961284,23,101.19676
1,Alta Floresta/MT,-9.8715018,-56.0839881,3214,6185.64638
D1,Alta Floresta/MT,-9.8715018,-56.0839881,32,61.58702
1,Altair/SP,-20.5238955,-49.0606135,57,1361.68180
D1,Altair/SP,-20.5238955,-49.0606135,4,95.55662
1,Altamira do Maranhão/MA,-4.1643006,-45.4674574,275,3358.16339
D1,Altamira do Maranhão/MA,-4.1643006,-45.4674574,7,85.48052
1,Altamira do Paraná/PR,-24.799114,-52.7128633,30,1783.59096
D1,Altamira do Paraná/PR,-24.799114,-52.7128633,2,118.90606
1,Altamira/PA,-3.204065,-52.209961,7010,6044.71885
D1,Altamira/PA,-3.204065,-52.209961,141,121.58422
1,Altaneira/CE,-6.9980933,-39.7385742,247,3228.75817
D1,Altaneira/CE,-6.9980933,-39.7385742,6,78.43137
1,Alterosa/MG,-21.249166,-46.143055,361,2486.73968
D1,Alterosa/MG,-21.249166,-46.143055,8,55.10780
1,Altinho/PE,-8.4904095,-36.0607494,660,2871.56283
D1,Altinho/PE,-8.4904095,-36.0607494,12,52.21023
1,Altinópolis/SP,-21.021364,-47.3712,348,2147.75042
D1,Altinópolis/SP,-21.021364,-47.3712,9,55.54527
1,Alto Alegre do Maranhão/MA,-4.2055693,-44.4525287,397,1425.08436
D1,Alto Alegre do Maranhão/MA,-4.2055693,-44.4525287,18,64.61340
1,Alto Alegre do Pindaré/MA,-3.6698186,-45.8462153,1609,5037.09733
D1,Alto Alegre do Pindaré/MA,-3.6698186,-45.8462153,25,78.26441
1,Alto Alegre dos Parecis/RO,-12.1314515,-61.856265,494,3726.89551
D1,Alto Alegre dos Parecis/RO,-12.1314515,-61.856265,12,90.53187
1,Alto Alegre/RR,2.98858,-61.307167,885,5754.22627
D1,Alto Alegre/RR,2.98858,-61.307167,21,136.54096
1,Alto Alegre/RS,-31.780844700000003,-52.81311114489171,32,1983.88097
1,Alto Alegre/SP,-21.5820592,-50.1661976,133,3253.42466
D1,Alto Alegre/SP,-21.5820592,-50.1661976,4,97.84736
1,Alto Araguaia/MT,-17.3156528,-53.2169365,533,2749.54862
D1,Alto Araguaia/MT,-17.3156528,-53.2169365,9,46.42765
1,Alto Bela Vista/SC,-27.4320737,-51.905771,53,2751.81724
D1,Alto Bela Vista/SC,-27.4320737,-51.905771,1,51.92108
1,Alto Boa Vista/MT,-11.6723985,-51.3744431,106,1528.25836
D1,Alto Boa Vista/MT,-11.6723985,-51.3744431,3,43.25260
1,Alto Caparaó/MG,-20.4405661,-41.8683799,237,4021.03834
D1,Alto Caparaó/MG,-20.4405661,-41.8683799,5,84.83203
1,Alto Feliz/RS,-29.3785943,-51.3123751,91,2997.36495
1,Alto Garças/MT,-16.9469683,-53.529427,338,2781.66406
D1,Alto Garças/MT,-16.9469683,-53.529427,15,123.44663
1,Alto Horizonte/GO,-14.1954948,-49.3366993,231,3497.35049
D1,Alto Horizonte/GO,-14.1954948,-49.3366993,3,45.42014
1,Alto Jequitibá/MG,-20.423611,-41.966111,360,4336.82689
D1,Alto Jequitibá/MG,-20.423611,-41.966111,7,84.32719
1,Alto Longá/PI,-5.2549051,-42.2072388,308,2147.98800
D1,Alto Longá/PI,-5.2549051,-42.2072388,6,41.84392
1,Alto Paraguai/MT,-14.513712,-56.4936374,359,3129.08568
D1,Alto Paraguai/MT,-14.513712,-56.4936374,11,95.87728
1,Alto Paraná/PR,-23.131247,-52.318893,371,2496.80328
D1,Alto Paraná/PR,-23.131247,-52.318893,3,20.18978
1,Alto Paraíso de Goiás/GO,-14.1304779,-47.5100161,405,5267.95005
1,Alto Paraíso/PR,-23.508137,-53.728537,55,2048.41713
1,Alto Paraíso/RO,-9.7240103,-63.3188123,652,2984.39145
D1,Alto Paraíso/RO,-9.7240103,-63.3188123,10,45.77287
1,Alto Parnaíba/MA,-9.112506,-45.9310154,545,4860.86336
D1,Alto Parnaíba/MA,-9.112506,-45.9310154,5,44.59508
1,Alto Piquiri/PR,-24.0239021,-53.4417448,290,2965.84169
D1,Alto Piquiri/PR,-24.0239021,-53.4417448,6,61.36224
1,Alto Rio Doce/MG,-21.0239537,-43.4133507,172,1583.93959
D1,Alto Rio Doce/MG,-21.0239537,-43.4133507,12,110.50741
1,Alto Rio Novo/ES,-19.0577208,-41.0171518,447,5676.91135
D1,Alto Rio Novo/ES,-19.0577208,-41.0171518,15,190.50038
1,Alto Santo/CE,-5.5190371,-38.2719351,577,3355.43150
D1,Alto Santo/CE,-5.5190371,-38.2719351,14,81.41428
1,Alto Taquari/MT,-17.8269099,-53.2831736,628,5640.88745
D1,Alto Taquari/MT,-17.8269099,-53.2831736,9,80.84074
1,Alto do Rodrigues/RN,-5.290868,-36.7616726,785,5329.98370
D1,Alto do Rodrigues/RN,-5.290868,-36.7616726,19,129.00598
1,Altos/PI,-5.0393915,-42.4611694,2364,5821.94311
D1,Altos/PI,-5.0393915,-42.4611694,34,83.73353
1,Altônia/PR,-23.8722004,-53.894037,482,2173.52092
D1,Altônia/PR,-23.8722004,-53.894037,5,22.54690
1,Alumínio/SP,-23.5203479,-47.2575256,551,2936.00469
D1,Alumínio/SP,-23.5203479,-47.2575256,17,90.58454
1,Alvarenga/MG,-19.4175,-41.728334,243,6321.54006
D1,Alvarenga/MG,-19.4175,-41.728334,3,78.04370
1,Alvarães/AM,-3.214786,-64.8143124,1943,11979.03822
D1,Alvarães/AM,-3.214786,-64.8143124,30,184.95684
1,Alvinlândia/SP,-22.4431852,-49.7643596,54,1668.21131
1,Alvinópolis/MG,-20.1105199,-43.0601805,272,1793.13073
D1,Alvinópolis/MG,-20.1105199,-43.0601805,3,19.77718
1,Alvorada D'Oeste/RO,-11.346271,-62.284697,388,2750.60258
D1,Alvorada D'Oeste/RO,-11.346271,-62.284697,8,56.71346
1,Alvorada de Minas/MG,-18.7318587,-43.3641479,98,2718.44660
D1,Alvorada de Minas/MG,-18.7318587,-43.3641479,1,27.73925
1,Alvorada do Gurguéia/PI,-8.4465288,-43.8655915,122,2240.58770
D1,Alvorada do Gurguéia/PI,-8.4465288,-43.8655915,5,91.82736
1,Alvorada do Norte/GO,-14.483911,-46.4959897,385,4422.74555
D1,Alvorada do Norte/GO,-14.483911,-46.4959897,1,11.48765
1,Alvorada do Sul/PR,-22.7807269,-51.2307721,288,2503.69469
D1,Alvorada do Sul/PR,-22.7807269,-51.2307721,7,60.85369
1,Alvorada/RS,-29.9981184,-51.0772509,9930,4698.32318
D1,Alvorada/RS,-29.9981184,-51.0772509,266,125.85639
1,Alvorada/TO,-12.478465,-49.124926,624,7432.11053
D1,Alvorada/TO,-12.478465,-49.124926,11,131.01477
1,Além Paraíba/MG,-21.8760576,-42.6810473,1290,3643.96486
D1,Além Paraíba/MG,-21.8760576,-42.6810473,37,104.51682
1,Amajari/RR,3.6523869,-61.4194315,619,4694.72886
D1,Amajari/RR,3.6523869,-61.4194315,16,121.35002
1,Amambai/MS,-23.1082701,-55.2284854,1580,3967.25757
D1,Amambai/MS,-23.1082701,-55.2284854,29,72.81675
1,Amaporã/PR,-23.094272,-52.786597,66,1042.32470
1,Amapá do Maranhão/MA,-1.6762114,-46.0109669,6,85.65310
1,Amapá/AP,2.0529997,-50.7930003,1055,11483.61816
D1,Amapá/AP,2.0529997,-50.7930003,7,76.19462
1,Amaraji/PE,-8.373925,-35.4536527,380,1661.56537
D1,Amaraji/PE,-8.373925,-35.4536527,24,104.94097
1,Amaral Ferrador/RS,-30.8750633,-52.2542051,125,1764.29076
D1,Amaral Ferrador/RS,-30.8750633,-52.2542051,2,28.22865
1,Amaralina/GO,-13.9236199,-49.2962411,18,468.14044
1,Amarante do Maranhão/MA,-5.56913,-46.747284,1162,2784.63419
D1,Amarante do Maranhão/MA,-5.56913,-46.747284,31,74.28886
1,Amarante/PI,-6.2459374,-42.8476238,852,4839.80913
D1,Amarante/PI,-6.2459374,-42.8476238,16,90.88843
1,Amargosa/BA,-13.03793715,-39.60796443875596,1012,2702.91926
D1,Amargosa/BA,-13.03793715,-39.60796443875596,18,48.07564
1,Amaturá/AM,-3.3640509,-68.1994689,1355,11545.67144
D1,Amaturá/AM,-3.3640509,-68.1994689,10,85.20791
1,Americana/SP,-22.7392463,-47.3306032,9443,3901.77590
D1,Americana/SP,-22.7392463,-47.3306032,246,101.64533
1,Americano do Brasil/GO,-16.2515808,-49.9806104,178,2887.73524
D1,Americano do Brasil/GO,-16.2515808,-49.9806104,4,64.89293
1,Ametista do Sul/RS,-27.3617341,-53.1826575,211,2850.19587
D1,Ametista do Sul/RS,-27.3617341,-53.1826575,1,13.50804
1,Amontada/CE,-3.3634586,-39.8284791,1092,2491.50106
D1,Amontada/CE,-3.3634586,-39.8284791,21,47.91348
1,Amorinópolis/GO,-16.6211308,-51.0949921,97,3160.63864
D1,Amorinópolis/GO,-16.6211308,-51.0949921,1,32.58390
1,Amparo de São Francisco/SE,-10.1299754,-36.9269099,76,3193.27731
D1,Amparo de São Francisco/SE,-10.1299754,-36.9269099,2,84.03361
1,Amparo do Serra/MG,-20.5070255,-42.8028462,72,1539.11928
D1,Amparo do Serra/MG,-20.5070255,-42.8028462,3,64.12997
1,Amparo/PB,-7.56394725,-37.04652873235175,47,2087.96091
D1,Amparo/PB,-7.56394725,-37.04652873235175,1,44.42470
1,Amparo/SP,-22.70111,-46.76444,2335,3212.84588
D1,Amparo/SP,-22.70111,-46.76444,38,52.28614
1,Ampére/PR,-25.9168712,-53.4742414,495,2563.30589
D1,Ampére/PR,-25.9168712,-53.4742414,10,51.78396
1,Amélia Rodrigues/BA,-12.4015388,-38.7516971,946,3776.74864
D1,Amélia Rodrigues/BA,-12.4015388,-38.7516971,18,71.86202
1,América Dourada/BA,-11.4515262,-41.4357517,399,2479.80112
D1,América Dourada/BA,-11.4515262,-41.4357517,2,12.43008
1,Américo Brasiliense/SP,-21.7297099,-48.1052092,1385,3375.41431
D1,Américo Brasiliense/SP,-21.7297099,-48.1052092,22,53.61669
1,Américo de Campos/SP,-20.298476,-49.735904,401,6704.56445
D1,Américo de Campos/SP,-20.298476,-49.735904,13,217.35496
1,Anadia/AL,-9.6830208,-36.3052699,617,3520.48385
D1,Anadia/AL,-9.6830208,-36.3052699,10,57.05809
1,Anagé/BA,-14.6134669,-41.1376308,387,1791.08622
D1,Anagé/BA,-14.6134669,-41.1376308,7,32.39691
1,Anahy/PR,-24.6450861,-53.1337957,79,2833.57245
D1,Anahy/PR,-24.6450861,-53.1337957,2,71.73601
1,Anajatuba/MA,-3.26441,-44.6179916,366,1356.15829
D1,Anajatuba/MA,-3.26441,-44.6179916,11,40.75886
1,Anajás/PA,-0.9878802,-49.9390114,1021,3439.09997
D1,Anajás/PA,-0.9878802,-49.9390114,11,37.05201
1,Analândia/SP,-22.128917,-47.661939,138,2729.43038
D1,Analândia/SP,-22.128917,-47.661939,3,59.33544
1,Anamã/AM,-3.5797356,-61.4049996,1397,10010.03153
D1,Anamã/AM,-3.5797356,-61.4049996,3,21.49613
1,Ananindeua/PA,-1.374035,-48.4016623,12594,2351.61433
D1,Ananindeua/PA,-1.374035,-48.4016623,402,75.06344
1,Ananás/TO,-6.3663053,-48.080238,807,8501.89633
D1,Ananás/TO,-6.3663053,-48.080238,17,179.09819
1,Anapu/PA,-3.4668292,-51.2057035,1130,3950.08215
D1,Anapu/PA,-3.4668292,-51.2057035,23,80.39990
1,Anapurus/MA,-3.6751298,-43.1046001,821,5165.47125
D1,Anapurus/MA,-3.6751298,-43.1046001,6,37.75009
1,Anastácio/MS,-20.4832458,-55.8048448,1348,5341.36387
D1,Anastácio/MS,-20.4832458,-55.8048448,38,150.57257
1,Anaurilândia/MS,-22.185169,-52.719056,132,1454.38519
D1,Anaurilândia/MS,-22.185169,-52.719056,5,55.09035
1,Anchieta/ES,-20.8057672,-40.6454564,2329,7820.94765
D1,Anchieta/ES,-20.8057672,-40.6454564,42,141.03899
1,Anchieta/SC,-26.5350527,-53.3293938,179,3221.16250
D1,Anchieta/SC,-26.5350527,-53.3293938,4,71.98128
1,Andaraí/BA,-12.8059674,-41.3322919,494,3761.80323
D1,Andaraí/BA,-12.8059674,-41.3322919,2,15.22997
1,Andirá/PR,-23.0494761,-50.2310027,850,4265.78340
D1,Andirá/PR,-23.0494761,-50.2310027,8,40.14855
1,Andorinha/BA,-10.3445708,-39.8334411,438,3020.06481
D1,Andorinha/BA,-10.3445708,-39.8334411,7,48.26588
1,Andradas/MG,-22.0680484,-46.5688976,890,2149.96618
D1,Andradas/MG,-22.0680484,-46.5688976,22,53.14523
1,Andradina/SP,-20.896505,-51.3742765,2659,4648.43887
D1,Andradina/SP,-20.896505,-51.3742765,97,169.57449
1,Andrelândia/MG,-21.739722,-44.308889,167,1368.17958
D1,Andrelândia/MG,-21.739722,-44.308889,2,16.38538
1,André da Rocha/RS,-28.6309124,-51.5733328,53,3946.38868
1,Angatuba/SP,-23.4938938,-48.4110675,518,2033.04682
D1,Angatuba/SP,-23.4938938,-48.4110675,17,66.72161
1,Angelim/PE,-8.8902038,-36.2872987,96,855.15767
D1,Angelim/PE,-8.8902038,-36.2872987,4,35.63157
1,Angelina/SC,-27.5805287,-48.9838759,258,5439.59519
1,Angelândia/MG,-17.7253,-42.2728,42,490.82622
1,Angical do Piauí/PI,-6.0872666,-42.7366138,239,3523.51467
D1,Angical do Piauí/PI,-6.0872666,-42.7366138,5,73.71370
1,Angical/BA,-12.005623,-44.7000236,302,2166.73841
D1,Angical/BA,-12.005623,-44.7000236,5,35.87315
1,Angico/TO,-6.3893733,-47.8656722,173,5008.68558
D1,Angico/TO,-6.3893733,-47.8656722,3,86.85582
1,Angicos/RN,-5.6666344,-36.6009064,206,1759.93165
D1,Angicos/RN,-5.6666344,-36.6009064,6,51.26015
1,Angra dos Reis/RJ,-23.0063966,-44.316326,10083,4869.97933
D1,Angra dos Reis/RJ,-23.0063966,-44.316326,318,153.59054
1,Anguera/BA,-12.1509425,-39.2452469,174,1540.23192
1,Angélica/MS,-22.1588196,-53.7728504,328,3000.36590
D1,Angélica/MS,-22.1588196,-53.7728504,6,54.88474
1,Anhanguera/GO,-18.3338749,-48.220363,23,1982.75862
D1,Anhanguera/GO,-18.3338749,-48.220363,3,258.62069
1,Anhembi/SP,-22.7891096,-48.1316776,53,777.24006
D1,Anhembi/SP,-22.7891096,-48.1316776,2,29.32981
1,Anhumas/SP,-22.2956478,-51.3873401,138,3330.11583
D1,Anhumas/SP,-22.2956478,-51.3873401,1,24.13127
1,Anicuns/GO,-16.4606451,-49.9572265,1087,4945.17993
D1,Anicuns/GO,-16.4606451,-49.9572265,18,81.88890
1,Anita Garibaldi/SC,-27.6855032,-51.1293873,591,8495.04097
D1,Anita Garibaldi/SC,-27.6855032,-51.1293873,3,43.12204
1,Anitápolis/SC,-27.9041185,-49.1287395,188,5824.03965
1,Anori/AM,-3.7435254,-61.6605203,1544,7189.08600
D1,Anori/AM,-3.7435254,-61.6605203,22,102.43516
1,Anta Gorda/RS,-28.9718745,-52.0069187,357,5988.92803
D1,Anta Gorda/RS,-28.9718745,-52.0069187,1,16.77571
1,Antas/BA,-10.4114649,-38.3308815,680,3490.93896
1,Antonina do Norte/CE,-6.7754187,-39.9879345,90,1219.84278
D1,Antonina do Norte/CE,-6.7754187,-39.9879345,3,40.66143
1,Antonina/PR,-25.4298854,-48.7125431,1400,7388.25268
D1,Antonina/PR,-25.4298854,-48.7125431,34,179.42899
1,Antônio Almeida/PI,-7.2186016,-44.1950248,269,8485.80442
D1,Antônio Almeida/PI,-7.2186016,-44.1950248,5,157.72871
1,Antônio Cardoso/BA,-12.4363122,-39.1200307,173,1481.54492
D1,Antônio Cardoso/BA,-12.4363122,-39.1200307,4,34.25537
1,Antônio Carlos/MG,-21.318334,-43.746666,261,2277.68566
D1,Antônio Carlos/MG,-21.318334,-43.746666,4,34.90706
1,Antônio Carlos/SC,-27.5168462,-48.7684715,856,9938.46511
D1,Antônio Carlos/SC,-27.5168462,-48.7684715,14,162.54499
1,Antônio Dias/MG,-19.6525,-42.872778,189,2037.73585
D1,Antônio Dias/MG,-19.6525,-42.872778,6,64.69003
1,Antônio Gonçalves/BA,-10.5715409,-40.2748824,400,3367.57030
D1,Antônio Gonçalves/BA,-10.5715409,-40.2748824,2,16.83785
1,Antônio João/MS,-22.1892837,-55.9508227,176,1951.21951
D1,Antônio João/MS,-22.1892837,-55.9508227,4,44.34590
1,Antônio Martins/RN,-6.2155812,-37.8890129,136,1901.03439
D1,Antônio Martins/RN,-6.2155812,-37.8890129,2,27.95639
1,Antônio Olinto/PR,-25.9849006,-50.1974516,147,1979.26484
D1,Antônio Olinto/PR,-25.9849006,-50.1974516,1,13.46439
1,Antônio Prado de Minas/MG,-21.0171988,-42.1101106,134,8443.60428
D1,Antônio Prado de Minas/MG,-21.0171988,-42.1101106,3,189.03592
1,Antônio Prado/RS,-28.8567806,-51.2801355,1092,8371.02338
D1,Antônio Prado/RS,-28.8567806,-51.2801355,11,84.32350
1,Anápolis/GO,-16.3332828,-48.9525756,18420,4701.71426
D1,Anápolis/GO,-16.3332828,-48.9525756,441,112.56547
1,Anísio de Abreu/PI,-9.185643,-43.04941,215,2163.41316
D1,Anísio de Abreu/PI,-9.185643,-43.04941,2,20.12477
1,Aparecida d'Oeste/SP,-20.4498109,-50.8808706,396,9523.80952
D1,Aparecida d'Oeste/SP,-20.4498109,-50.8808706,9,216.45022
1,Aparecida de Goiânia/GO,-16.8226769,-49.2452546,42323,7171.61516
D1,Aparecida de Goiânia/GO,-16.8226769,-49.2452546,616,104.38095
1,Aparecida do Rio Doce/GO,-18.2980167,-51.1491312,111,4486.66128
D1,Aparecida do Rio Doce/GO,-18.2980167,-51.1491312,3,121.26112
1,Aparecida do Rio Negro/TO,-9.9513491,-47.9773786,135,2784.65347
D1,Aparecida do Rio Negro/TO,-9.9513491,-47.9773786,3,61.88119
1,Aparecida do Taboado/MS,-20.0840304,-51.1013943,1270,4871.68668
D1,Aparecida do Taboado/MS,-20.0840304,-51.1013943,20,76.71948
1,Aparecida/PB,-6.7859598, -38.0831353,574,6820.34221
D1,Aparecida/PB,-6.7859598, -38.0831353,8,95.05703
1,Aparecida/SP,-22.851552,-45.2340924,1049,2898.99129
D1,Aparecida/SP,-22.851552,-45.2340924,24,66.32583
1,Aperibé/RJ,-21.6211928,-42.1028167,275,2310.73019
D1,Aperibé/RJ,-21.6211928,-42.1028167,10,84.02655
1,Apiacá/ES,-21.152272,-41.569297,418,5533.49219
D1,Apiacá/ES,-21.152272,-41.569297,10,132.38020
1,Apiacás/MT,-9.5678422,-57.394852,300,2917.43655
D1,Apiacás/MT,-9.5678422,-57.394852,1,9.72479
1,Apiaí/SP,-24.5076527,-48.8461582,436,1799.71931
D1,Apiaí/SP,-24.5076527,-48.8461582,14,57.78915
1,Apicum-Açu/MA,-1.5279295,-45.082278,199,1142.82433
D1,Apicum-Açu/MA,-1.5279295,-45.082278,3,17.22851
1,Apiúna/SC,-27.0374658,-49.3885037,473,4360.25074
D1,Apiúna/SC,-27.0374658,-49.3885037,10,92.18289
1,Apodi/RN,-5.6631109,-37.796927,3634,10129.89909
D1,Apodi/RN,-5.6631109,-37.796927,48,133.80164
1,Aporá/BA,-11.6599747,-38.0794757,316,1776.47852
D1,Aporá/BA,-11.6599747,-38.0794757,8,44.97414
1,Aporé/GO,-18.9642193,-51.92804,179,4229.67864
D1,Aporé/GO,-18.9642193,-51.92804,4,94.51796
1,Apuarema/BA,-13.8517897,-39.7457126,496,6792.65955
D1,Apuarema/BA,-13.8517897,-39.7457126,7,95.86415
1,Apucarana/PR,-23.5525327,-51.4610764,3522,2585.25772
D1,Apucarana/PR,-23.5525327,-51.4610764,113,82.94552
1,Apuiarés/CE,-3.9460303,-39.4313298,273,1860.68702
D1,Apuiarés/CE,-3.9460303,-39.4313298,12,81.78844
1,Apuí/AM,-7.1940195,-59.8830192,724,3238.06968
D1,Apuí/AM,-7.1940195,-59.8830192,11,49.19719
1,Aquidabã/SE,-10.2837579,-37.0188687,1195,5511.73839
D1,Aquidabã/SE,-10.2837579,-37.0188687,20,92.24667
1,Aquidauana/MS,-20.473969,-55.7821375,3106,6466.92623
D1,Aquidauana/MS,-20.473969,-55.7821375,83,172.81226
1,Aquiraz/CE,-3.9063117,-38.387504,1530,1890.40588
D1,Aquiraz/CE,-3.9063117,-38.387504,40,49.42238
1,Arabutã/SC,-27.1587028,-52.1438142,177,4148.11343
D1,Arabutã/SC,-27.1587028,-52.1438142,2,46.87134
1,Aracaju/SE,-10.9162061,-37.0774655,67646,10173.73832
D1,Aracaju/SE,-10.9162061,-37.0774655,998,150.09595
1,Aracati/CE,-4.558259,-37.767894,2664,3553.18439
D1,Aracati/CE,-4.558259,-37.767894,64,85.36179
1,Aracatu/BA,-14.4274236,-41.4604105,472,3618.24454
D1,Aracatu/BA,-14.4274236,-41.4604105,7,53.66041
1,Araci/BA,-11.3356065,-38.9573261,1747,3196.82331
D1,Araci/BA,-11.3356065,-38.9573261,20,36.59786
1,Aracitaba/MG,-21.3425,-43.378611,67,3254.00680
D1,Aracitaba/MG,-21.3425,-43.378611,5,242.83633
1,Aracoiaba/CE,-4.3702577,-38.8084313,947,3568.87130
D1,Aracoiaba/CE,-4.3702577,-38.8084313,17,64.06633
1,Aracruz/ES,-19.8245218,-40.2735025,9357,9075.56668
D1,Aracruz/ES,-19.8245218,-40.2735025,123,119.30049
1,Aragarças/GO,-15.8957166,-52.2514538,1233,6081.98096
D1,Aragarças/GO,-15.8957166,-52.2514538,22,108.51872
1,Aragoiânia/GO,-16.9146388,-49.4499148,472,4496.95122
D1,Aragoiânia/GO,-16.9146388,-49.4499148,6,57.16463
1,Aragominas/TO,-7.1654101,-48.525488,361,6299.07521
D1,Aragominas/TO,-7.1654101,-48.525488,7,122.14273
1,Araguacema/TO,-8.8067391,-49.5560969,109,1523.41020
D1,Araguacema/TO,-8.8067391,-49.5560969,1,13.97624
1,Araguaiana/MT,-15.729144,-51.834112,74,2380.18656
D1,Araguaiana/MT,-15.729144,-51.834112,1,32.16468
1,Araguainha/MT,-16.857016,-53.031778,8,845.66596
1,Araguanã/MA,-2.9508403,-45.6651986,570,3665.35914
D1,Araguanã/MA,-2.9508403,-45.6651986,4,25.72182
1,Araguanã/TO,-6.5799107,-48.6428482,185,3193.50941
D1,Araguanã/TO,-6.5799107,-48.6428482,11,189.88434
1,Araguapaz/GO,-15.0937927,-50.626417,206,2646.79430
D1,Araguapaz/GO,-15.0937927,-50.626417,7,89.93961
1,Araguari/MG,-18.6511256,-48.1933764,6617,5615.95587
D1,Araguari/MG,-18.6511256,-48.1933764,140,118.82028
1,Araguatins/TO,-5.6522925,-48.1158973,1190,3290.01935
D1,Araguatins/TO,-5.6522925,-48.1158973,31,85.70639
1,Araguaçu/TO,-12.928934,-49.823134,612,7228.06189
D1,Araguaçu/TO,-12.928934,-49.823134,10,118.10559
1,Araguaína/TO,-7.193241,-48.2018597,19465,10614.51295
D1,Araguaína/TO,-7.193241,-48.2018597,253,137.96413
1,Araioses/MA,-2.890914,-41.904993,589,1259.32736
D1,Araioses/MA,-2.890914,-41.904993,10,21.38077
1,Aral Moreira/MS,-22.951141,-55.6268421,269,2181.31690
D1,Aral Moreira/MS,-22.951141,-55.6268421,6,48.65391
1,Aramari/BA,-12.0907897,-38.4985065,281,2451.79304
D1,Aramari/BA,-12.0907897,-38.4985065,7,61.07669
1,Arambaré/RS,-30.9132252,-51.4994625,59,1656.37282
D1,Arambaré/RS,-30.9132252,-51.4994625,2,56.14823
1,Arame/MA,-4.8858769,-46.0102484,958,2923.94091
D1,Arame/MA,-4.8858769,-46.0102484,22,67.14687
1,Aramina/SP,-20.0876144,-47.789201,148,2617.15296
D1,Aramina/SP,-20.0876144,-47.789201,5,88.41733
1,Arandu/SP,-23.1345103,-49.0545651,111,1743.91202
D1,Arandu/SP,-23.1345103,-49.0545651,7,109.97643
1,Arantina/MG,-21.911667,-44.255833,35,1255.83064
D1,Arantina/MG,-21.911667,-44.255833,2,71.76175
1,Arapeí/SP,-22.6738889,-44.4477778,83,3373.98374
D1,Arapeí/SP,-22.6738889,-44.4477778,1,40.65041
1,Arapiraca/AL,-9.754866,-36.661471,15137,6495.25632
D1,Arapiraca/AL,-9.754866,-36.661471,199,85.39050
1,Arapoema/TO,-7.6575001,-49.0641484,194,2932.28537
D1,Arapoema/TO,-7.6575001,-49.0641484,4,60.45949
1,Araponga/MG,-20.666667,-42.520556,210,2484.32509
D1,Araponga/MG,-20.666667,-42.520556,1,11.83012
1,Arapongas/PR,-23.415296,-51.42592,6018,4821.72903
D1,Arapongas/PR,-23.415296,-51.42592,177,141.81556
1,Araporã/MG,-18.4318188,-49.188313,1074,15495.59948
D1,Araporã/MG,-18.4318188,-49.188313,10,144.27932
1,Arapoti/PR,-24.1457957,-49.8224605,1165,4116.60777
D1,Arapoti/PR,-24.1457957,-49.8224605,8,28.26855
1,Araputanga/MT,-15.4710868,-58.346796,816,4813.87529
D1,Araputanga/MT,-15.4710868,-58.346796,14,82.59100
1,Arapuá/MG,-19.034444,-46.155556,62,2186.94885
1,Arapuã/PR,-24.3079525,-51.7901941,105,3489.53141
D1,Arapuã/PR,-24.3079525,-51.7901941,2,66.46726
1,Araquari/SC,-26.3703324,-48.7210994,1716,4341.66582
D1,Araquari/SC,-26.3703324,-48.7210994,24,60.72260
1,Arara/PB,-6.8271895,-35.7605703,311,2296.55885
D1,Arara/PB,-6.8271895,-35.7605703,9,66.45990
1,Araranguá/SC,-28.9348832,-49.4858389,5997,8708.08951
D1,Araranguá/SC,-28.9348832,-49.4858389,96,139.39913
1,Araraquara/SP,-21.7886713,-48.1773096,8821,3701.03088
D1,Araraquara/SP,-21.7886713,-48.1773096,102,42.79619
1,Araras/SP,-22.3569477,-47.3838889,7074,5220.43304
D1,Araras/SP,-22.3569477,-47.3838889,115,84.86709
1,Ararendá/CE,-4.7504395,-40.8303611,451,4115.33899
D1,Ararendá/CE,-4.7504395,-40.8303611,9,82.12428
1,Arari/MA,-3.4547602,-44.7772723,373,1246.15796
D1,Arari/MA,-3.4547602,-44.7772723,10,33.40906
1,Araricá/RS,-29.6168543,-50.929121,454,7866.92081
D1,Araricá/RS,-29.6168543,-50.929121,9,155.95217
1,Araripe/CE,-7.212861,-40.1359222,387,1787.19867
D1,Araripe/CE,-7.212861,-40.1359222,5,23.09042
1,Araripina/PE,-7.5768582,-40.5038509,3611,4255.04336
D1,Araripina/PE,-7.5768582,-40.5038509,60,70.70136
1,Araruama/RJ,-22.8733203,-42.3428897,2794,2080.52542
D1,Araruama/RJ,-22.8733203,-42.3428897,100,74.46405
1,Araruna/PB,-6.5321155,-35.7397595,494,2414.11328
D1,Araruna/PB,-6.5321155,-35.7397595,15,73.30303
1,Araruna/PR,-23.9320308,-52.4976047,599,4278.57143
D1,Araruna/PR,-23.9320308,-52.4976047,11,78.57143
1,Arataca/BA,-15.2617424,-39.4122943,310,2828.20911
D1,Arataca/BA,-15.2617424,-39.4122943,10,91.23255
1,Aratiba/RS,-27.3955734,-52.3024325,230,3716.27080
D1,Aratiba/RS,-27.3955734,-52.3024325,4,64.63080
1,Aratuba/CE,-4.4195958,-39.0463737,277,2347.05982
D1,Aratuba/CE,-4.4195958,-39.0463737,2,16.94628
1,Aratuípe/BA,-13.077137,-39.0010786,213,2410.32024
D1,Aratuípe/BA,-13.077137,-39.0010786,6,67.89634
1,Araucária/PR,-25.5861107,-49.4051209,11969,8185.94663
D1,Araucária/PR,-25.5861107,-49.4051209,150,102.58936
1,Arauá/SE,-11.2644014,-37.6181058,525,5277.97326
D1,Arauá/SE,-11.2644014,-37.6181058,12,120.63939
1,Araxá/MG,-19.5928536,-46.940241,4212,3924.08955
D1,Araxá/MG,-19.5928536,-46.940241,47,43.78732
1,Araçagi/PB,-6.8519969,-35.3835602,648,3829.56090
D1,Araçagi/PB,-6.8519969,-35.3835602,7,41.36871
1,Araçariguama/SP,-23.438611,-47.061389,636,2782.15223
D1,Araçariguama/SP,-23.438611,-47.061389,16,69.99125
1,Araçatuba/SP,-21.207992,-50.4390225,12631,6375.13943
D1,Araçatuba/SP,-21.207992,-50.4390225,242,122.14264
1,Araçaí/MG,-19.200833,-44.2475,19,807.13679
1,Araçoiaba da Serra/SP,-23.5045367,-47.6168158,1173,3373.01587
D1,Araçoiaba da Serra/SP,-23.5045367,-47.6168158,24,69.01311
1,Araçoiaba/PE,-7.7856903,-35.0898881,227,1094.87291
D1,Araçoiaba/PE,-7.7856903,-35.0898881,20,96.46457
1,Araçu/GO,-16.3561579,-49.6815269,164,4704.53242
D1,Araçu/GO,-16.3561579,-49.6815269,4,114.74469
1,Araçuaí/MG,-16.8484451,-42.0661868,470,1280.23535
D1,Araçuaí/MG,-16.8484451,-42.0661868,13,35.41076
1,Araçás/BA,-12.2139176,-38.2026159,458,3751.63827
D1,Araçás/BA,-12.2139176,-38.2026159,7,57.33945
1,Araújos/MG,-19.948055,-45.165556,290,3084.77822
D1,Araújos/MG,-19.948055,-45.165556,1,10.63717
1,Arceburgo/MG,-21.364444,-46.939722,308,2830.10199
D1,Arceburgo/MG,-21.364444,-46.939722,3,27.56593
1,Arco-Íris/SP,-21.7741308,-50.4668814,43,2425.26791
D1,Arco-Íris/SP,-21.7741308,-50.4668814,4,225.60632
1,Arcos/MG,-20.282223,-45.539444,1596,3952.45171
D1,Arcos/MG,-20.282223,-45.539444,18,44.57652
1,Arcoverde/PE,-8.415192,-37.057748,3545,4737.91131
D1,Arcoverde/PE,-8.415192,-37.057748,77,102.91091
1,Areado/MG,-21.3582771,-46.1476688,314,2068.37494
D1,Areado/MG,-21.3582771,-46.1476688,5,32.93591
1,Areal/RJ,-22.2314922,-43.1056264,361,2849.47510
D1,Areal/RJ,-22.2314922,-43.1056264,9,71.03955
1,Arealva/SP,-22.0301906,-48.9111936,308,3575.98978
D1,Arealva/SP,-22.0301906,-48.9111936,2,23.22071
1,Areia Branca/RN,-4.9506652,-37.1263312,1109,3965.38778
D1,Areia Branca/RN,-4.9506652,-37.1263312,57,203.81164
1,Areia Branca/SE,-10.7591455,-37.3148072,999,5346.24853
D1,Areia Branca/SE,-10.7591455,-37.3148072,23,123.08680
1,Areia de Baraúnas/PB,-7.1233949,-36.9446216,16,756.14367
1,Areia/PB,-6.9680243,-35.6994783,637,2811.61723
D1,Areia/PB,-6.9680243,-35.6994783,6,26.48305
1,Areial/PB,-7.0501306,-35.9245244,115,1636.54476
D1,Areial/PB,-7.0501306,-35.9245244,5,71.15412
1,Areias/SP,-22.5800929,-44.6975127,115,2951.74538
D1,Areias/SP,-22.5800929,-44.6975127,1,25.66735
1,Areiópolis/SP,-22.6758064,-48.6673653,260,2330.16670
D1,Areiópolis/SP,-22.6758064,-48.6673653,4,35.84872
1,Arenápolis/MT,-14.4610369,-56.8432806,659,6935.38202
D1,Arenápolis/MT,-14.4610369,-56.8432806,9,94.71690
1,Arenópolis/GO,-16.3859286,-51.55937,32,1261.82965
1,Argirita/MG,-21.612761,-42.8371922,138,5103.55030
D1,Argirita/MG,-21.612761,-42.8371922,5,184.91124
1,Aricanduva/MG,-17.8678,-42.5569,19,360.59973
1,Arinos/MG,-15.917223,-46.106111,173,968.53656
D1,Arinos/MG,-15.917223,-46.106111,4,22.39391
1,Aripuanã/MT,-10.175806,-59.4439663,1217,5357.92903
D1,Aripuanã/MT,-10.175806,-59.4439663,17,74.84371
1,Ariquemes/RO,-9.9076522,-63.033069,9855,8998.10999
D1,Ariquemes/RO,-9.9076522,-63.033069,172,157.04464
1,Ariranha do Ivaí/PR,-24.3834527,-51.5876772,79,3823.81413
D1,Ariranha do Ivaí/PR,-24.3834527,-51.5876772,1,48.40271
1,Ariranha/SP,-21.18716,-48.790418,226,2315.33654
D1,Ariranha/SP,-21.18716,-48.790418,11,112.69337
1,Armazém/SC,-28.2624996,-49.0190126,778,8882.29250
D1,Armazém/SC,-28.2624996,-49.0190126,6,68.50097
1,Armação dos Búzios/RJ,-22.7597805,-41.8875267,2405,6975.66494
D1,Armação dos Búzios/RJ,-22.7597805,-41.8875267,22,63.81066
1,Arneiroz/CE,-6.3235099,-40.1603859,75,956.14482
D1,Arneiroz/CE,-6.3235099,-40.1603859,6,76.49159
1,Aroazes/PI,-6.1108814,-41.7886137,159,2728.67685
D1,Aroazes/PI,-6.1108814,-41.7886137,5,85.80745
1,Aroeiras do Itaim/PI,-7.2797031,-41.5629681,93,3645.62917
D1,Aroeiras do Itaim/PI,-7.2797031,-41.5629681,1,39.20031
1,Aroeiras/PB,-7.5462904,-35.7080002,350,1830.92697
D1,Aroeiras/PB,-7.5462904,-35.7080002,3,15.69366
1,Arraial do Cabo/RJ,-22.9662839,-42.024427,452,1477.46216
D1,Arraial do Cabo/RJ,-22.9662839,-42.024427,9,29.41849
1,Arraial/PI,-6.6541632,-42.5335332,93,1970.33898
D1,Arraial/PI,-6.6541632,-42.5335332,1,21.18644
1,Arraias/TO,-12.9287788,-46.9437231,189,1794.19024
1,Arroio Grande/RS,-32.2384246,-53.0866661,602,3300.80053
D1,Arroio Grande/RS,-32.2384246,-53.0866661,8,43.86446
1,Arroio Trinta/SC,-26.9301976,-51.334928,254,7156.94562
D1,Arroio Trinta/SC,-26.9301976,-51.334928,3,84.53085
1,Arroio do Meio/RS,-29.4020392,-51.9444993,1102,5255.87828
D1,Arroio do Meio/RS,-29.4020392,-51.9444993,9,42.92460
1,Arroio do Padre/RS,-31.4428773,-52.4228985,79,2677.05862
D1,Arroio do Padre/RS,-31.4428773,-52.4228985,1,33.88682
1,Arroio do Sal/RS,-29.549852,-49.8874395,464,4514.05779
D1,Arroio do Sal/RS,-29.549852,-49.8874395,10,97.28573
1,Arroio do Tigre/RS,-29.334158,-53.0888935,346,2579.58697
D1,Arroio do Tigre/RS,-29.334158,-53.0888935,4,29.82181
1,Arroio dos Ratos/RS,-30.0894524,-51.7265541,372,2623.96840
D1,Arroio dos Ratos/RS,-30.0894524,-51.7265541,17,119.91253
1,Artur Nogueira/SP,-22.572737,-47.172679,1718,3104.44525
D1,Artur Nogueira/SP,-22.572737,-47.172679,44,79.50849
1,Aruanã/GO,-14.9162439,-51.0715692,223,2205.73689
D1,Aruanã/GO,-14.9162439,-51.0715692,2,19.78239
1,Arujá/SP,-23.396266,-46.3175449,3406,3736.41081
D1,Arujá/SP,-23.396266,-46.3175449,120,131.64101
1,Arvoredo/SC,-27.0752908,-52.4571847,97,4341.98747
D1,Arvoredo/SC,-27.0752908,-52.4571847,1,44.76276
1,Arvorezinha/RS,-28.87369,-52.17808,377,3617.00086
D1,Arvorezinha/RS,-28.87369,-52.17808,10,95.94167
1,Arês/RN,-6.1969216,-35.1642968,420,2913.22744
D1,Arês/RN,-6.1969216,-35.1642968,11,76.29881
1,Ascurra/SC,-26.9569975,-49.3767752,619,7758.83680
D1,Ascurra/SC,-26.9569975,-49.3767752,3,37.60341
1,Aspásia/SP,-20.160028,-50.728046,61,3355.33553
D1,Aspásia/SP,-20.160028,-50.728046,2,110.01100
1,Assaré/CE,-6.8746791,-39.8741385,962,4097.45293
D1,Assaré/CE,-6.8746791,-39.8741385,21,89.44544
1,Assaí/PR,-23.3736041,-50.8454929,525,3510.76635
D1,Assaí/PR,-23.3736041,-50.8454929,17,113.68196
1,Assis Brasil/AC,-10.9409203,-69.5672108,862,11441.46536
D1,Assis Brasil/AC,-10.9409203,-69.5672108,9,119.45846
1,Assis Chateaubriand/PR,-24.4054826,-53.5120468,1701,5101.97960
D1,Assis Chateaubriand/PR,-24.4054826,-53.5120468,24,71.98560
1,Assis/SP,-22.6620892,-50.420623,2959,2815.76218
D1,Assis/SP,-22.6620892,-50.420623,51,48.53122
1,Assunção do Piauí/PI,-5.8610212,-41.0485091,191,2429.09831
D1,Assunção do Piauí/PI,-5.8610212,-41.0485091,4,50.87117
1,Assunção/PB,-7.073396,-36.7274003,92,2283.44502
1,Astolfo Dutra/MG,-21.3132636,-42.8624102,736,5157.67344
D1,Astolfo Dutra/MG,-21.3132636,-42.8624102,12,84.09250
1,Astorga/PR,-23.2350184,-51.6647074,1194,4555.68698
D1,Astorga/PR,-23.2350184,-51.6647074,20,76.30966
1,Atalaia do Norte/AM,-4.3658547,-70.1908742,1987,9741.15109
D1,Atalaia do Norte/AM,-4.3658547,-70.1908742,5,24.51221
1,Atalaia/AL,-9.5029595,-36.0219316,675,1425.10292
D1,Atalaia/AL,-9.5029595,-36.0219316,27,57.00412
1,Atalaia/PR,-23.1513833,-52.0529697,149,3839.21670
D1,Atalaia/PR,-23.1513833,-52.0529697,3,77.29967
1,Atalanta/SC,-27.421916,-49.778863,98,3067.29264
1,Ataléia/MG,-18.04432,-41.1110524,497,3920.17668
D1,Ataléia/MG,-18.04432,-41.1110524,4,31.55072
1,Atibaia/SP,-23.1177393,-46.5547861,4528,3142.52401
D1,Atibaia/SP,-23.1177393,-46.5547861,97,67.31997
1,Atilio Vivacqua/ES,-20.9139369,-41.1947519,870,7187.11276
D1,Atilio Vivacqua/ES,-20.9139369,-41.1947519,14,115.65469
1,Augustinópolis/TO,-5.4662267,-47.8897519,893,4790.00161
D1,Augustinópolis/TO,-5.4662267,-47.8897519,11,59.00338
1,Augusto Corrêa/PA,-1.0229335,-46.6404029,1511,3251.49018
D1,Augusto Corrêa/PA,-1.0229335,-46.6404029,22,47.34135
1,Augusto Pestana/RS,-28.5148413,-53.9906433,116,1757.04332
D1,Augusto Pestana/RS,-28.5148413,-53.9906433,2,30.29385
1,Augusto de Lima/MG,-18.1092963,-44.2651945,107,2205.73078
D1,Augusto de Lima/MG,-18.1092963,-44.2651945,4,82.45723
1,Aurelino Leal/BA,-14.3167137,-39.3256107,710,6283.74192
D1,Aurelino Leal/BA,-14.3167137,-39.3256107,16,141.60545
1,Auriflama/SP,-20.6840418,-50.5554616,804,5271.09421
D1,Auriflama/SP,-20.6840418,-50.5554616,18,118.00957
1,Aurilândia/GO,-16.6772599,-50.4641231,67,2190.97449
D1,Aurilândia/GO,-16.6772599,-50.4641231,2,65.40222
1,Aurora do Pará/PA,-2.1323199,-47.558436,723,2275.51695
D1,Aurora do Pará/PA,-2.1323199,-47.558436,8,25.17861
1,Aurora do Tocantins/TO,-12.71045,-46.407604,122,3224.95374
D1,Aurora do Tocantins/TO,-12.71045,-46.407604,1,26.43405
1,Aurora/CE,-6.9426019,-38.9693765,941,3823.64892
D1,Aurora/CE,-6.9426019,-38.9693765,24,97.52133
1,Aurora/SC,-27.3166417,-49.6368502,257,4522.25937
D1,Aurora/SC,-27.3166417,-49.6368502,5,87.98170
1,Autazes/AM,-3.5833283,-59.1301518,2022,5018.61504
D1,Autazes/AM,-3.5833283,-59.1301518,54,134.02829
1,Avanhandava/SP,-21.4603331,-49.9465156,316,2280.10679
D1,Avanhandava/SP,-21.4603331,-49.9465156,11,79.37081
1,Avaré/SP,-23.1045215,-48.9259103,1877,2057.39214
D1,Avaré/SP,-23.1045215,-48.9259103,27,29.59488
1,Avaí/SP,-22.1564662,-49.3316395,142,2612.21486
D1,Avaí/SP,-22.1564662,-49.3316395,3,55.18764
1,Aveiro/PA,-3.6049239,-55.3310742,455,2773.71373
D1,Aveiro/PA,-3.6049239,-55.3310742,5,30.48037
1,Avelino Lopes/PI,-10.1346855,-43.9489525,186,1642.23910
D1,Avelino Lopes/PI,-10.1346855,-43.9489525,15,132.43864
1,Avelinópolis/GO,-16.4672409,-49.7578661,152,6309.67206
D1,Avelinópolis/GO,-16.4672409,-49.7578661,4,166.04400
1,Axixá do Tocantins/TO,-5.612747,-47.77007,601,6140.79902
D1,Axixá do Tocantins/TO,-5.612747,-47.77007,5,51.08818
1,Axixá/MA,-2.8379465,-44.0561053,149,1223.01568
D1,Axixá/MA,-2.8379465,-44.0561053,3,24.62448
1,Açailândia/MA,-4.9514278,-47.4844564,3791,3351.27872
D1,Açailândia/MA,-4.9514278,-47.4844564,104,91.93695
1,Açu/RN,-5.5836157,-36.9139541,2659,4554.32995
D1,Açu/RN,-5.5836157,-36.9139541,84,143.87503
1,Açucena/MG,-19.073056,-42.546666,199,2124.25278
D1,Açucena/MG,-19.073056,-42.546666,6,64.04782
1,Babaçulândia/TO,-7.2034355,-47.761613,440,4125.25783
D1,Babaçulândia/TO,-7.2034355,-47.761613,4,37.50234
1,Bacabal/MA,-4.2318132,-44.781167,3728,3557.59137
D1,Bacabal/MA,-4.2318132,-44.781167,74,70.61743
1,Bacabeira/MA,-2.9775747,-44.3155943,174,1008.57872
D1,Bacabeira/MA,-2.9775747,-44.3155943,3,17.38929
1,Bacuri/MA,-1.728894,-45.1417148,429,2299.77485
D1,Bacuri/MA,-1.728894,-45.1417148,4,21.44312
1,Bacurituba/MA,-2.7082587,-44.7381309,93,1640.21164
1,Bady Bassitt/SP,-20.9178969,-49.4517911,1385,7797.98435
D1,Bady Bassitt/SP,-20.9178969,-49.4517911,24,135.12753
1,Baependi/MG,-21.959162,-44.8899249,589,3067.86812
D1,Baependi/MG,-21.959162,-44.8899249,10,52.08605
1,Bagre/PA,-1.8994498,-50.2103844,574,1832.40223
D1,Bagre/PA,-1.8994498,-50.2103844,11,35.11572
1,Bagé/RS,-31.3314264,-54.1062808,3255,2682.65546
D1,Bagé/RS,-31.3314264,-54.1062808,72,59.33984
1,Baianópolis/BA,-12.3067564,-44.5383591,187,1342.52279
D1,Baianópolis/BA,-12.3067564,-44.5383591,2,14.35853
1,Baixa Grande do Ribeiro/PI,-7.862861,-45.2113289,1604,13743.46671
D1,Baixa Grande do Ribeiro/PI,-7.862861,-45.2113289,15,128.52369
1,Baixa Grande/BA,-11.9630941,-40.1657537,392,1916.96415
D1,Baixa Grande/BA,-11.9630941,-40.1657537,3,14.67064
1,Baixio/CE,-6.7303544,-38.7170095,139,2205.29906
D1,Baixio/CE,-6.7303544,-38.7170095,4,63.46184
1,Baixo Guandu/ES,-19.5138322,-41.0182089,2187,7024.92612
D1,Baixo Guandu/ES,-19.5138322,-41.0182089,37,118.84877
1,Baião/PA,-2.7903479,-49.6702845,464,957.51047
D1,Baião/PA,-2.7903479,-49.6702845,15,30.95400
1,Balbinos/SP,-21.9006253,-49.3583966,270,4550.05056
D1,Balbinos/SP,-21.9006253,-49.3583966,3,50.55612
1,Baldim/MG,-19.2913568,-43.9558262,248,3178.26477
D1,Baldim/MG,-19.2913568,-43.9558262,5,64.07792
1,Baliza/GO,-16.1978119,-52.542789,90,1704.54545
1,Balneário Arroio do Silva/SC,-28.9815269,-49.4189932,1123,8361.87640
D1,Balneário Arroio do Silva/SC,-28.9815269,-49.4189932,19,141.47431
1,Balneário Barra do Sul/SC,-26.459842,-48.6061471,893,8092.43317
D1,Balneário Barra do Sul/SC,-26.459842,-48.6061471,18,163.11735
1,Balneário Camboriú/SC,-26.9924395,-48.6339782,16653,11422.12406
D1,Balneário Camboriú/SC,-26.9924395,-48.6339782,175,120.03073
1,Balneário Gaivota/SC,-29.1553098,-49.5808712,766,6802.84192
D1,Balneário Gaivota/SC,-29.1553098,-49.5808712,11,97.69094
1,Balneário Pinhal/RS,-30.2482978,-50.234585,577,4017.26659
D1,Balneário Pinhal/RS,-30.2482978,-50.234585,15,104.43501
1,Balneário Piçarras/SC,-26.7638889,-48.6716667,2617,11008.74979
D1,Balneário Piçarras/SC,-26.7638889,-48.6716667,21,88.33922
1,Balneário Rincão/SC,-28.8235718,-49.2241642,891,6882.43473
D1,Balneário Rincão/SC,-28.8235718,-49.2241642,23,177.66105
1,Balsa Nova/PR,-25.5842234,-49.6312741,587,4483.65414
D1,Balsa Nova/PR,-25.5842234,-49.6312741,11,84.02078
1,Balsas/MA,-7.53214,-46.037163,7211,7517.01779
D1,Balsas/MA,-7.53214,-46.037163,87,90.69207
1,Bambuí/MG,-20.0131996,-45.9777034,335,1401.79094
D1,Bambuí/MG,-20.0131996,-45.9777034,1,4.18445
1,Banabuiú/CE,-5.3046404,-38.919766,671,3675.50394
D1,Banabuiú/CE,-5.3046404,-38.919766,4,21.91060
1,Bananal/SP,-22.6828195,-44.3221095,296,2692.62258
D1,Bananal/SP,-22.6828195,-44.3221095,1,9.09670
1,Bananeiras/PB,-6.7537682,-35.6338343,613,2882.12892
D1,Bananeiras/PB,-6.7537682,-35.6338343,3,14.10504
1,Bandeira do Sul/MG,-21.728056,-46.385555,81,1401.86916
D1,Bandeira do Sul/MG,-21.728056,-46.385555,3,51.92108
1,Bandeira/MG,-15.884444,-40.559167,397,8329.83634
D1,Bandeira/MG,-15.884444,-40.559167,5,104.90978
1,Bandeirante/SC,-26.7677402,-53.6397596,49,1850.45317
1,Bandeirantes do Tocantins/TO,-7.7635698,-48.579148,200,5567.92873
D1,Bandeirantes do Tocantins/TO,-7.7635698,-48.579148,2,55.67929
1,Bandeirantes/MS,-19.9179623,-54.3646768,235,3234.24167
D1,Bandeirantes/MS,-19.9179623,-54.3646768,4,55.05092
1,Bandeirantes/PR,-23.107788,-50.370407,1693,5424.36961
D1,Bandeirantes/PR,-23.107788,-50.370407,47,150.58793
1,Bannach/PA,-7.3508505,-50.4064531,121,3709.38075
D1,Bannach/PA,-7.3508505,-50.4064531,2,61.31208
1,Banzaê/BA,-10.5827616,-38.6122305,694,5241.69184
D1,Banzaê/BA,-10.5827616,-38.6122305,4,30.21148
1,Baraúna/PB,-6.643394,-36.2531932,156,3142.62691
1,Baraúna/RN,-5.0775002,-37.61752,663,2306.32762
D1,Baraúna/RN,-5.0775002,-37.61752,17,59.13661
1,Barbacena/MG,-21.2254524,-43.7735087,3007,2175.76915
D1,Barbacena/MG,-21.2254524,-43.7735087,62,44.86122
1,Barbalha/CE,-7.3121067,-39.3036427,2631,4297.05364
D1,Barbalha/CE,-7.3121067,-39.3036427,58,94.72790
1,Barbosa Ferraz/PR,-24.0287182,-52.00811,426,3728.33888
D1,Barbosa Ferraz/PR,-24.0287182,-52.00811,6,52.51182
1,Barbosa/SP,-21.265661,-49.951816,230,3079.80718
D1,Barbosa/SP,-21.265661,-49.951816,3,40.17140
1,Barcarena/PA,-1.5107945,-48.6190679,5073,3993.63915
D1,Barcarena/PA,-1.5107945,-48.6190679,129,101.55321
1,Barcelona/RN,-5.9514918,-35.9260284,40,1001.50225
D1,Barcelona/RN,-5.9514918,-35.9260284,3,75.11267
1,Barcelos/AM,-0.9729214,-62.925635,3580,12953.18040
D1,Barcelos/AM,-0.9729214,-62.925635,41,148.34648
1,Bariri/SP,-22.0746355,-48.7394852,1483,4170.65077
D1,Bariri/SP,-22.0746355,-48.7394852,35,98.43073
1,Barra Bonita/SC,-26.6526364,-53.4419581,51,3089.03695
1,Barra Bonita/SP,-22.490859,-48.558349,1540,4262.85778
D1,Barra Bonita/SP,-22.490859,-48.558349,31,85.81077
1,Barra D'Alcântara/PI,-6.5209258,-42.1071089,65,1644.73684
D1,Barra D'Alcântara/PI,-6.5209258,-42.1071089,1,25.30364
1,Barra Funda/RS,-27.9230048,-53.0401045,245,9604.07683
D1,Barra Funda/RS,-27.9230048,-53.0401045,3,117.60094
1,Barra Longa/MG,-20.2833541,-43.0423516,129,2572.28315
1,Barra Mansa/RJ,-22.5394843,-44.1735129,7980,4317.41085
D1,Barra Mansa/RJ,-22.5394843,-44.1735129,256,138.50341
1,Barra Velha/SC,-26.6338203,-48.6835001,2108,7059.61152
D1,Barra Velha/SC,-26.6338203,-48.6835001,35,117.21366
1,Barra da Estiva/BA,-13.6269662,-41.3278287,1026,5031.38486
D1,Barra da Estiva/BA,-13.6269662,-41.3278287,5,24.51942
1,Barra de Guabiraba/PE,-8.4173522,-35.6626669,232,1598.89731
D1,Barra de Guabiraba/PE,-8.4173522,-35.6626669,11,75.80979
1,Barra de Santa Rosa/PB,-6.7218007,-36.0564638,445,2871.52352
D1,Barra de Santa Rosa/PB,-6.7218007,-36.0564638,2,12.90572
1,Barra de Santana/PB,-7.5230865,-35.9988518,247,2958.43814
D1,Barra de Santana/PB,-7.5230865,-35.9988518,3,35.93245
1,Barra de Santo Antônio/AL,-9.4038098,-35.5117693,148,921.08539
D1,Barra de Santo Antônio/AL,-9.4038098,-35.5117693,15,93.35325
1,Barra de São Francisco/ES,-18.7570902,-40.8916119,1977,4395.38451
D1,Barra de São Francisco/ES,-18.7570902,-40.8916119,62,137.84210
1,Barra de São Miguel/AL,-9.8261357,-35.8837777,213,2542.37288
D1,Barra de São Miguel/AL,-9.8261357,-35.8837777,5,59.68011
1,Barra de São Miguel/PB,-7.7528088,-36.3170996,167,2753.50371
D1,Barra de São Miguel/PB,-7.7528088,-36.3170996,1,16.48805
1,Barra do Bugres/MT,-15.0683712,-57.1853688,1415,4007.70385
D1,Barra do Bugres/MT,-15.0683712,-57.1853688,29,82.13669
1,Barra do Chapéu/SP,-24.472203,-49.023784,107,1857.63889
1,Barra do Choça/BA,-14.8638173,-40.5761637,965,3092.05678
D1,Barra do Choça/BA,-14.8638173,-40.5761637,9,28.83784
1,Barra do Corda/MA,-5.496823,-45.248496,4085,4616.23650
D1,Barra do Corda/MA,-5.496823,-45.248496,48,54.24219
1,Barra do Garças/MT,-15.8916033,-52.2615413,4202,6873.31316
D1,Barra do Garças/MT,-15.8916033,-52.2615413,145,237.18001
1,Barra do Guarita/RS,-27.1888016,-53.7147086,66,2026.40467
1,Barra do Jacaré/PR,-23.1151788,-50.1813945,91,3272.20424
1,Barra do Mendes/BA,-11.8053298,-42.057037,540,3903.70852
D1,Barra do Mendes/BA,-11.8053298,-42.057037,6,43.37454
1,Barra do Ouro/TO,-7.7113784,-47.6743925,89,1921.41623
D1,Barra do Ouro/TO,-7.7113784,-47.6743925,5,107.94473
1,Barra do Piraí/RJ,-22.4703403,-43.8263256,2834,2812.51241
D1,Barra do Piraí/RJ,-22.4703403,-43.8263256,125,124.05224
1,Barra do Quaraí/RS,-30.208947,-57.5505128,156,3690.56068
D1,Barra do Quaraí/RS,-30.208947,-57.5505128,1,23.65744
1,Barra do Ribeiro/RS,-30.2930206,-51.301437,444,3275.30245
D1,Barra do Ribeiro/RS,-30.2930206,-51.301437,28,206.55060
1,Barra do Rio Azul/RS,-27.4101581,-52.4117471,36,2175.22659
D1,Barra do Rio Azul/RS,-27.4101581,-52.4117471,1,60.42296
1,Barra do Rocha/BA,-14.2090974,-39.6004395,186,3314.32644
D1,Barra do Rocha/BA,-14.2090974,-39.6004395,3,53.45688
1,Barra do Turvo/SP,-24.756421,-48.5056942,282,3694.96855
D1,Barra do Turvo/SP,-24.756421,-48.5056942,7,91.71908
1,Barra dos Coqueiros/SE,-10.9075694,-37.0386249,2983,9644.35823
D1,Barra dos Coqueiros/SE,-10.9075694,-37.0386249,35,113.15875
1,Barra/BA,-11.0892702,-43.1420453,738,1368.94825
D1,Barra/BA,-11.0892702,-43.1420453,13,24.11426
1,Barracão/PR,-26.252395,-53.6349576,398,3859.58107
D1,Barracão/PR,-26.252395,-53.6349576,7,67.88208
1,Barracão/RS,-27.6728964,-51.4582928,181,3443.68341
D1,Barracão/RS,-27.6728964,-51.4582928,4,76.10350
1,Barras/PI,-4.2446153,-42.2920241,3280,6951.36166
D1,Barras/PI,-4.2446153,-42.2920241,61,129.27837
1,Barreira/CE,-4.2883361,-38.641094,379,1678.99703
D1,Barreira/CE,-4.2883361,-38.641094,21,93.03150
1,Barreiras do Piauí/PI,-9.9224524,-45.4763776,41,1223.15036
D1,Barreiras do Piauí/PI,-9.9224524,-45.4763776,1,29.83294
1,Barreiras/BA,-12.1440031,-44.9967406,8479,5401.49705
D1,Barreiras/BA,-12.1440031,-44.9967406,108,68.80076
1,Barreirinha/AM,-2.798863,-57.067897,1758,5412.06169
D1,Barreirinha/AM,-2.798863,-57.067897,33,101.59160
1,Barreirinhas/MA,-2.7541271,-42.8259693,1378,2179.79341
D1,Barreirinhas/MA,-2.7541271,-42.8259693,28,44.29188
1,Barreiros/PE,-8.8159644,-35.1831905,380,888.59789
D1,Barreiros/PE,-8.8159644,-35.1831905,42,98.21345
1,Barretos/SP,-20.5531437,-48.5697509,7075,5759.85281
D1,Barretos/SP,-20.5531437,-48.5697509,170,138.39929
1,Barrinha/SP,-21.1898849,-48.1550642,880,2652.20012
D1,Barrinha/SP,-21.1898849,-48.1550642,36,108.49910
1,Barro Alto/BA,-11.7618025,-41.9094904,556,3693.37053
D1,Barro Alto/BA,-11.7618025,-41.9094904,4,26.57101
1,Barro Alto/GO,-14.9696025,-48.9190985,690,6048.38710
D1,Barro Alto/GO,-14.9696025,-48.9190985,8,70.12623
1,Barro Duro/PI,-5.8180139,-42.5106589,468,6660.02562
D1,Barro Duro/PI,-5.8180139,-42.5106589,7,99.61577
1,Barro Preto/BA,-14.8068289,-39.4727588,387,7103.52423
D1,Barro Preto/BA,-14.8068289,-39.4727588,6,110.13216
1,Barro/CE,-7.1713587,-38.7742136,509,2236.57615
D1,Barro/CE,-7.1713587,-38.7742136,11,48.33465
1,Barrocas/BA,-11.5165,-39.099282894736845,273,1695.12574
D1,Barrocas/BA,-11.5165,-39.099282894736845,4,24.83701
1,Barrolândia/TO,-9.837246,-48.7264346,272,4813.30738
D1,Barrolândia/TO,-9.837246,-48.7264346,4,70.78393
1,Barroquinha/CE,-3.0200371,-41.1339229,831,5523.79686
D1,Barroquinha/CE,-3.0200371,-41.1339229,20,132.94337
1,Barros Cassal/RS,-29.094938,-52.5832366,261,2334.10839
D1,Barros Cassal/RS,-29.094938,-52.5832366,2,17.88589
1,Barroso/MG,-21.187222,-43.976111,425,2033.78475
D1,Barroso/MG,-21.187222,-43.976111,4,19.14150
1,Barueri/SP,-23.5112184,-46.8764612,13268,4790.20297
D1,Barueri/SP,-23.5112184,-46.8764612,479,172.93543
1,Barão de Antonina/SP,-23.6295651,-49.5632104,39,1114.92281
D1,Barão de Antonina/SP,-23.6295651,-49.5632104,1,28.58776
1,Barão de Cocais/MG,-19.9452437,-43.4870298,1278,3888.51701
D1,Barão de Cocais/MG,-19.9452437,-43.4870298,12,36.51190
1,Barão de Cotegipe/RS,-27.6214694,-52.3765316,322,4864.04834
D1,Barão de Cotegipe/RS,-27.6214694,-52.3765316,4,60.42296
1,Barão de Grajaú/MA,-6.7542591,-43.0263477,27,142.67597
D1,Barão de Grajaú/MA,-6.7542591,-43.0263477,1,5.28430
1,Barão de Melgaço/MT,-16.195776,-55.9668049,172,2106.81039
D1,Barão de Melgaço/MT,-16.195776,-55.9668049,6,73.49339
1,Barão de Monte Alto/MG,-21.244722,-42.2375,133,2484.12402
D1,Barão de Monte Alto/MG,-21.244722,-42.2375,6,112.06575
1,Barão do Triunfo/RS,-30.3909877,-51.7375349,192,2553.53105
D1,Barão do Triunfo/RS,-30.3909877,-51.7375349,1,13.29964
1,Barão/RS,-29.372474,-51.494908,250,4030.95776
D1,Barão/RS,-29.372474,-51.494908,4,64.49532
1,Bastos/SP,-21.9222474,-50.7317727,296,1412.68553
D1,Bastos/SP,-21.9222474,-50.7317727,10,47.72586
1,Bataguassu/MS,-21.715899,-52.422058,1538,6593.78349
D1,Bataguassu/MS,-21.715899,-52.422058,16,68.59593
1,Batalha/AL,-9.6733809,-37.1265481,681,3713.60017
D1,Batalha/AL,-9.6733809,-37.1265481,13,70.89105
1,Batalha/PI,-4.022391,-42.0780926,511,1899.27523
D1,Batalha/PI,-4.022391,-42.0780926,12,44.60138
1,Batatais/SP,-20.892867,-47.592149,1093,1735.47158
D1,Batatais/SP,-20.892867,-47.592149,42,66.68784
1,Batayporã/MS,-22.2976466,-53.2685608,408,3595.03040
D1,Batayporã/MS,-22.2976466,-53.2685608,7,61.67944
1,Baturité/CE,-4.3290203,-38.8821055,917,2551.40369
D1,Baturité/CE,-4.3290203,-38.8821055,33,91.81714
1,Bauru/SP,-22.3218102,-49.0705863,22144,5838.16903
D1,Bauru/SP,-22.3218102,-49.0705863,350,92.27597
1,Bayeux/PB,-7.1301631,-34.936532,2956,3041.05840
D1,Bayeux/PB,-7.1301631,-34.936532,133,136.82705
1,Baía Formosa/RN,-6.3691885,-35.0063741,201,2156.18966
D1,Baía Formosa/RN,-6.3691885,-35.0063741,6,64.36387
1,Baía da Traição/PB,-6.691258,-34.9371244,957,10521.10818
D1,Baía da Traição/PB,-6.691258,-34.9371244,8,87.95075
1,Bebedouro/SP,-20.949077,-48.479083,1968,2537.55399
D1,Bebedouro/SP,-20.949077,-48.479083,41,52.86571
1,Beberibe/CE,-4.1810469,-38.1298101,1415,2622.84750
D1,Beberibe/CE,-4.1810469,-38.1298101,32,59.31528
1,Bela Cruz/CE,-3.0529129,-40.167582,1468,4486.27834
D1,Bela Cruz/CE,-3.0529129,-40.167582,24,73.34515
1,Bela Vista da Caroba/PR,-25.8792818,-53.6672545,70,2024.87706
D1,Bela Vista da Caroba/PR,-25.8792818,-53.6672545,1,28.92682
1,Bela Vista de Goiás/GO,-16.9692949,-48.9513071,1292,4237.17696
D1,Bela Vista de Goiás/GO,-16.9692949,-48.9513071,22,72.15007
1,Bela Vista de Minas/MG,-19.8289721,-43.0973688,291,2835.70454
D1,Bela Vista de Minas/MG,-19.8289721,-43.0973688,7,68.21282
1,Bela Vista do Maranhão/MA,-3.7416367,-45.2514192,155,1374.23530
D1,Bela Vista do Maranhão/MA,-3.7416367,-45.2514192,8,70.92827
1,Bela Vista do Paraíso/PR,-22.9948493,-51.1907996,608,3948.30833
D1,Bela Vista do Paraíso/PR,-22.9948493,-51.1907996,13,84.42107
1,Bela Vista do Piauí/PI,-7.9716353,-41.8715061,199,4937.96526
D1,Bela Vista do Piauí/PI,-7.9716353,-41.8715061,4,99.25558
1,Bela Vista do Toldo/SC,-26.274625,-50.466354,35,550.14146
D1,Bela Vista do Toldo/SC,-26.274625,-50.466354,1,15.71833
1,Bela Vista/MS,-22.107327,-56.5317344,229,925.81362
D1,Bela Vista/MS,-22.107327,-56.5317344,9,36.38569
1,Belford Roxo/RJ,-22.7667284,-43.4033603,16012,3120.52978
D1,Belford Roxo/RJ,-22.7667284,-43.4033603,407,79.31899
1,Belmiro Braga/MG,-21.9486291,-43.413564,75,2189.78102
D1,Belmiro Braga/MG,-21.9486291,-43.413564,3,87.59124
1,Belmonte/BA,-15.8630837,-38.8792845,744,3174.46772
D1,Belmonte/BA,-15.8630837,-38.8792845,7,29.86730
1,Belmonte/SC,-26.8448262,-53.578916,74,2731.63529
D1,Belmonte/SC,-26.8448262,-53.578916,1,36.91399
1,Belo Campo/BA,-15.0338286,-41.2585109,279,1630.72067
D1,Belo Campo/BA,-15.0338286,-41.2585109,3,17.53463
1,Belo Horizonte/MG,-19.9227318,-43.9450948,86469,3429.18125
D1,Belo Horizonte/MG,-19.9227318,-43.9450948,2215,87.84231
1,Belo Jardim/PE,-8.3338293,-36.4176419,1519,1980.77901
D1,Belo Jardim/PE,-8.3338293,-36.4176419,41,53.46408
1,Belo Monte/AL,-9.8269944,-37.2787165,205,3055.14158
D1,Belo Monte/AL,-9.8269944,-37.2787165,6,89.41878
1,Belo Oriente/MG,-19.2232523,-42.4807033,1300,4815.88501
D1,Belo Oriente/MG,-19.2232523,-42.4807033,25,92.61317
1,Belo Vale/MG,-20.407778,-44.024167,241,3122.16608
D1,Belo Vale/MG,-20.407778,-44.024167,6,77.73028
1,Belterra/PA,-2.636091,-54.937392,564,3161.61220
D1,Belterra/PA,-2.636091,-54.937392,14,78.47974
1,Belágua/MA,-3.1604031,-43.5085052,279,3706.16366
D1,Belágua/MA,-3.1604031,-43.5085052,2,26.56748
1,Belém de Maria/PE,-8.6242497,-35.8388934,119,981.68619
D1,Belém de Maria/PE,-8.6242497,-35.8388934,3,24.74839
1,Belém do Brejo do Cruz/PB,-6.1880727,-37.5332267,418,5687.84869
D1,Belém do Brejo do Cruz/PB,-6.1880727,-37.5332267,5,68.03647
1,Belém do Piauí/PI,-7.3767305,-40.9712156,315,8781.71174
D1,Belém do Piauí/PI,-7.3767305,-40.9712156,4,111.51380
1,Belém do São Francisco/PE,-8.7517707,-38.9625715,217,1046.79209
1,Belém/AL,-9.5715351,-36.492841,73,1704.01494
D1,Belém/AL,-9.5715351,-36.492841,3,70.02801
1,Belém/PA,-1.45056,-48.4682453,65652,4377.84776
D1,Belém/PA,-1.45056,-48.4682453,2567,171.17430
1,Belém/PB,-6.6967586,-35.5369626,1218,6879.41260
D1,Belém/PB,-6.6967586,-35.5369626,19,107.31432
1,Beneditinos/PI,-5.4565671,-42.3605061,419,4000.76387
D1,Beneditinos/PI,-5.4565671,-42.3605061,15,143.22544
1,Benedito Leite/MA,-7.2173453,-44.5523331,238,4221.35509
D1,Benedito Leite/MA,-7.2173453,-44.5523331,2,35.47357
1,Benedito Novo/SC,-26.7840657,-49.3629511,521,4424.62845
D1,Benedito Novo/SC,-26.7840657,-49.3629511,5,42.46285
1,Benevides/PA,-1.3555577,-48.252235,2319,3636.62025
D1,Benevides/PA,-1.3555577,-48.252235,52,81.54560
1,Benjamin Constant do Sul/RS,-27.5105555,-52.6007689,127,6486.21042
1,Benjamin Constant/AM,-4.3782748,-70.0290603,2102,4784.34050
D1,Benjamin Constant/AM,-4.3782748,-70.0290603,51,116.08057
1,Bento Fernandes/RN,-5.6926846,-35.8207423,42,760.18100
D1,Bento Fernandes/RN,-5.6926846,-35.8207423,2,36.19910
1,Bento Gonçalves/RS,-29.1654014,-51.5197627,8053,6611.49561
D1,Bento Gonçalves/RS,-29.1654014,-51.5197627,158,129.71766
1,Bento de Abreu/SP,-21.2707225,-50.8120444,89,2961.73045
1,Bequimão/MA,-2.4495376,-44.7884889,247,1159.67886
D1,Bequimão/MA,-2.4495376,-44.7884889,12,56.34067
1,Berilo/MG,-16.9515764,-42.4643732,10,84.23181
1,Berizal/MG,-15.6118785,-41.7417382,34,713.68598
1,Bernardino Batista/PB,-6.4532173,-38.5495418,172,4864.25339
1,Bernardino de Campos/SP,-23.0140216,-49.4760724,218,1953.75515
D1,Bernardino de Campos/SP,-23.0140216,-49.4760724,6,53.77308
1,Bernardo Sayão/TO,-7.8794244,-48.8968905,129,2900.17986
D1,Bernardo Sayão/TO,-7.8794244,-48.8968905,4,89.92806
1,Bernardo do Mearim/MA,-4.6315929,-44.7617508,162,2667.54487
D1,Bernardo do Mearim/MA,-4.6315929,-44.7617508,3,49.39898
1,Bertioga/SP,-23.848568,-46.139586,2753,4253.51112
D1,Bertioga/SP,-23.848568,-46.139586,57,88.06761
1,Bertolínia/PI,-7.6372159,-43.9540611,572,10386.78046
D1,Bertolínia/PI,-7.6372159,-43.9540611,6,108.95224
1,Bertópolis/MG,-17.063333,-40.573889,207,4493.16258
1,Beruri/AM,-3.9007135,-61.3717319,1607,7997.81018
D1,Beruri/AM,-3.9007135,-61.3717319,21,104.51401
1,Betim/MG,-19.968056,-44.198333,13365,3004.82931
D1,Betim/MG,-19.968056,-44.198333,378,84.98507
1,Betânia do Piauí/PI,-8.1460635,-40.7961387,94,1513.68760
D1,Betânia do Piauí/PI,-8.1460635,-40.7961387,2,32.20612
1,Betânia/PE,-8.2742779,-38.0351767,174,1363.10223
D1,Betânia/PE,-8.2742779,-38.0351767,2,15.66784
1,Bezerros/PE,-8.2372132,-35.7558262,1994,3275.29566
D1,Bezerros/PE,-8.2372132,-35.7558262,75,123.19317
1,Bias Fortes/MG,-21.605833,-43.756944,61,1832.38210
D1,Bias Fortes/MG,-21.605833,-43.756944,2,60.07810
1,Bicas/MG,-21.7213723,-43.0604327,437,3002.61097
D1,Bicas/MG,-21.7213723,-43.0604327,14,96.19349
1,Biguaçu/SC,-27.4961277,-48.6542432,6609,9511.26846
D1,Biguaçu/SC,-27.4961277,-48.6542432,70,100.73972
1,Bilac/SP,-21.403962,-50.47464,298,3671.30713
D1,Bilac/SP,-21.403962,-50.47464,6,73.91894
1,Biquinhas/MG,-18.783611,-45.502222,28,1120.89672
1,Birigui/SP,-21.2908491,-50.34144,5887,4714.01232
D1,Birigui/SP,-21.2908491,-50.34144,156,124.91692
1,Biritiba Mirim/SP,-23.5697765,-46.0407456,603,1830.82342
D1,Biritiba Mirim/SP,-23.5697765,-46.0407456,37,112.33908
1,Biritinga/BA,-11.6227908,-38.8066738,141,882.13213
D1,Biritinga/BA,-11.6227908,-38.8066738,2,12.51251
1,Bituruna/PR,-26.161281,-51.5533319,161,981.70732
D1,Bituruna/PR,-26.161281,-51.5533319,1,6.09756
1,Blumenau/SC,-26.9195567,-49.0658025,30162,8335.38296
D1,Blumenau/SC,-26.9195567,-49.0658025,292,80.69531
1,Boa Esperança do Iguaçu/PR,-25.6362851,-53.2139114,96,3886.63968
1,Boa Esperança do Sul/SP,-21.9930206,-48.3917372,366,2437.07551
D1,Boa Esperança do Sul/SP,-21.9930206,-48.3917372,8,53.26941
1,Boa Esperança/ES,-18.5395472,-40.2904088,635,4207.52717
D1,Boa Esperança/ES,-18.5395472,-40.2904088,23,152.39862
1,Boa Esperança/MG,-21.0901253,-45.5660195,937,2329.74465
D1,Boa Esperança/MG,-21.0901253,-45.5660195,26,64.64606
1,Boa Esperança/PR,-24.2411024,-52.7860277,142,3508.77193
D1,Boa Esperança/PR,-24.2411024,-52.7860277,2,49.41932
1,Boa Hora/PI,-4.4094627,-42.1255341,214,3140.13206
1,Boa Nova/BA,-14.365907,-40.2063056,275,2230.51342
D1,Boa Nova/BA,-14.365907,-40.2063056,5,40.55479
1,Boa Ventura de São Roque/PR,-24.88177,-51.5441292,173,2717.98900
D1,Boa Ventura de São Roque/PR,-24.88177,-51.5441292,2,31.42184
1,Boa Ventura/PB,-7.4202462,-38.2156782,155,2920.67081
D1,Boa Ventura/PB,-7.4202462,-38.2156782,3,56.52911
1,Boa Viagem/CE,-5.1261877,-39.7300055,1664,3048.90338
D1,Boa Viagem/CE,-5.1261877,-39.7300055,42,76.95549
1,Boa Vista da Aparecida/PR,-25.4357216,-53.4067721,345,4575.59682
D1,Boa Vista da Aparecida/PR,-25.4357216,-53.4067721,9,119.36340
1,Boa Vista das Missões/RS,-27.6677983,-53.3127622,33,1577.43786
1,Boa Vista do Buricá/RS,-27.6687782,-54.1111913,301,4484.50536
D1,Boa Vista do Buricá/RS,-27.6687782,-54.1111913,4,59.59476
1,Boa Vista do Cadeado/RS,-28.5783827,-53.8123759,76,3079.41653
1,Boa Vista do Gurupi/MA,-1.7981168,-46.3071882,14,167.02458
D1,Boa Vista do Gurupi/MA,-1.7981168,-46.3071882,3,35.79098
1,Boa Vista do Incra/RS,-28.8195551,-53.3866624,70,2675.84098
D1,Boa Vista do Incra/RS,-28.8195551,-53.3866624,1,38.22630
1,Boa Vista do Ramos/AM,-2.9716927,-57.5869819,686,3495.36329
D1,Boa Vista do Ramos/AM,-2.9716927,-57.5869819,10,50.95282
1,Boa Vista do Sul/RS,-29.3510488,-51.6779679,121,4355.65155
D1,Boa Vista do Sul/RS,-29.3510488,-51.6779679,2,71.99424
1,Boa Vista do Tupim/BA,-12.6605988,-40.6083594,146,787.86898
D1,Boa Vista do Tupim/BA,-12.6605988,-40.6083594,2,10.79273
1,Boa Vista/PB,-7.2620711,-36.2415161,183,2564.46188
D1,Boa Vista/PB,-7.2620711,-36.2415161,2,28.02691
1,Boa Vista/RR,2.8208478,-60.6719582,55230,13160.90475
D1,Boa Vista/RR,2.8208478,-60.6719582,613,146.07341
1,Boca da Mata/AL,-9.6452054,-36.2116658,1307,4777.74528
D1,Boca da Mata/AL,-9.6452054,-36.2116658,26,95.04313
1,Boca do Acre/AM,-8.7553487,-67.3930873,2165,6250.90227
D1,Boca do Acre/AM,-8.7553487,-67.3930873,18,51.97055
1,Bocaina de Minas/MG,-22.167778,-44.394722,60,1179.01356
D1,Bocaina de Minas/MG,-22.167778,-44.394722,2,39.30045
1,Bocaina do Sul/SC,-27.745494,-49.942279,285,8170.87156
D1,Bocaina do Sul/SC,-27.745494,-49.942279,3,86.00917
1,Bocaina/PI,-6.9445939,-41.3224599,183,4062.15316
D1,Bocaina/PI,-6.9445939,-41.3224599,3,66.59267
1,Bocaina/SP,-22.1421831,-48.522276,445,3573.72310
D1,Bocaina/SP,-22.1421831,-48.522276,6,48.18503
1,Bocaiúva do Sul/PR,-25.206591,-49.114131,638,4859.47140
D1,Bocaiúva do Sul/PR,-25.206591,-49.114131,3,22.85018
1,Bocaiúva/MG,-17.1160208,-43.8122678,724,1440.62401
D1,Bocaiúva/MG,-17.1160208,-43.8122678,12,23.87775
1,Bodocó/PE,-7.777592,-39.933797,1225,3191.93288
D1,Bodocó/PE,-7.777592,-39.933797,15,39.08489
1,Bodoquena/MS,-20.5508775,-56.6769653,96,1224.80225
D1,Bodoquena/MS,-20.5508775,-56.6769653,2,25.51671
1,Bodó/RN,-5.9866104,-36.4134824,57,2594.44697
1,Bofete/SP,-23.1019554,-48.2610535,294,2466.23605
D1,Bofete/SP,-23.1019554,-48.2610535,4,33.55423
1,Boituva/SP,-23.2838893,-47.6738231,2417,3887.72720
D1,Boituva/SP,-23.2838893,-47.6738231,38,61.12273
1,Bom Conselho/PE,-9.169191,-36.685683,964,1976.74657
D1,Bom Conselho/PE,-9.169191,-36.685683,29,59.46644
1,Bom Despacho/MG,-19.7375242,-45.2517288,1799,3525.51540
D1,Bom Despacho/MG,-19.7375242,-45.2517288,32,62.71067
1,Bom Jardim da Serra/SC,-28.3380324,-49.625588,481,10079.63118
D1,Bom Jardim da Serra/SC,-28.3380324,-49.625588,2,41.91115
1,Bom Jardim de Goiás/GO,-16.2062659,-52.172793,228,2570.75206
D1,Bom Jardim de Goiás/GO,-16.2062659,-52.172793,4,45.10091
1,Bom Jardim de Minas/MG,-21.9476466,-44.1906033,107,1656.60319
1,Bom Jardim/MA,-3.54129,-45.606004,1001,2393.47712
D1,Bom Jardim/MA,-3.54129,-45.606004,29,69.34149
1,Bom Jardim/PE,-7.7961572,-35.5871696,805,2013.35568
D1,Bom Jardim/PE,-7.7961572,-35.5871696,34,85.03614
1,Bom Jardim/RJ,-22.1515328,-42.4186683,564,2042.29432
D1,Bom Jardim/RJ,-22.1515328,-42.4186683,5,18.10545
1,Bom Jesus da Lapa/BA,-13.250571,-43.410754,1478,2121.67322
D1,Bom Jesus da Lapa/BA,-13.250571,-43.410754,18,25.83905
1,Bom Jesus da Penha/MG,-21.0165299,-46.5226644,147,3463.71348
D1,Bom Jesus da Penha/MG,-21.0165299,-46.5226644,1,23.56268
1,Bom Jesus da Serra/BA,-14.3724084,-40.5047119,267,2718.11056
1,Bom Jesus das Selvas/MA,-4.4878075,-46.8526639,1984,5739.57821
D1,Bom Jesus das Selvas/MA,-4.4878075,-46.8526639,18,52.07279
1,Bom Jesus de Goiás/GO,-18.2174587,-49.739721,1146,4468.18465
D1,Bom Jesus de Goiás/GO,-18.2174587,-49.739721,32,124.76606
1,Bom Jesus do Amparo/MG,-19.7045132,-43.4752911,72,1173.97685
D1,Bom Jesus do Amparo/MG,-19.7045132,-43.4752911,2,32.61047
1,Bom Jesus do Araguaia/MT,-12.1725897,-51.5074425,272,4056.06919
D1,Bom Jesus do Araguaia/MT,-12.1725897,-51.5074425,1,14.91202
1,Bom Jesus do Galho/MG,-19.8283191,-42.3162256,275,1850.35661
D1,Bom Jesus do Galho/MG,-19.8283191,-42.3162256,8,53.82856
1,Bom Jesus do Itabapoana/RJ,-21.1341025,-41.680095,1580,4246.96933
D1,Bom Jesus do Itabapoana/RJ,-21.1341025,-41.680095,34,91.39048
1,Bom Jesus do Norte/ES,-21.1254776,-41.6711646,685,6876.12929
D1,Bom Jesus do Norte/ES,-21.1254776,-41.6711646,16,160.61032
1,Bom Jesus do Oeste/SC,-26.6929713,-53.0967453,72,3366.05891
D1,Bom Jesus do Oeste/SC,-26.6929713,-53.0967453,1,46.75082
1,Bom Jesus do Sul/PR,-26.1922507,-53.6002033,124,3536.79407
D1,Bom Jesus do Sul/PR,-26.1922507,-53.6002033,3,85.56760
1,Bom Jesus do Tocantins/PA,-5.0471796,-48.5978362,444,2593.76095
D1,Bom Jesus do Tocantins/PA,-5.0471796,-48.5978362,5,29.20902
1,Bom Jesus do Tocantins/TO,-8.96306,-48.165043,102,2036.74121
1,Bom Jesus dos Perdões/SP,-23.1353864,-46.4648052,742,2855.49355
D1,Bom Jesus dos Perdões/SP,-23.1353864,-46.4648052,6,23.09024
1,Bom Jesus/PB,-6.8156725,-38.6551841,76,2951.45631
D1,Bom Jesus/PB,-6.8156725,-38.6551841,3,116.50485
1,Bom Jesus/PI,-9.0711644,-44.3583926,2130,8390.12093
D1,Bom Jesus/PI,-9.0711644,-44.3583926,24,94.53657
1,Bom Jesus/RN,-5.9887544,-35.5821149,364,3545.33944
D1,Bom Jesus/RN,-5.9887544,-35.5821149,6,58.43966
1,Bom Jesus/RS,-28.6692723,-50.4346894,405,3581.21850
D1,Bom Jesus/RS,-28.6692723,-50.4346894,10,88.42515
1,Bom Jesus/SC,-26.7350604,-52.3916519,159,5201.17763
D1,Bom Jesus/SC,-26.7350604,-52.3916519,3,98.13543
1,Bom Lugar/MA,-4.3728019,-45.0366054,306,1861.54033
D1,Bom Lugar/MA,-4.3728019,-45.0366054,5,30.41733
1,Bom Princípio do Piauí/PI,-3.1912777,-41.6430185,45,796.31924
D1,Bom Princípio do Piauí/PI,-3.1912777,-41.6430185,3,53.08795
1,Bom Princípio/RS,-29.489788,-51.3566782,798,5598.03578
D1,Bom Princípio/RS,-29.489788,-51.3566782,10,70.15082
1,Bom Progresso/RS,-27.5490948,-53.8655601,34,1790.41601
1,Bom Repouso/MG,-22.4657069,-46.1485376,246,2334.63035
D1,Bom Repouso/MG,-22.4657069,-46.1485376,8,75.92294
1,Bom Retiro do Sul/RS,-29.6000007,-51.9359243,506,4083.93866
D1,Bom Retiro do Sul/RS,-29.6000007,-51.9359243,8,64.56820
1,Bom Retiro/SC,-27.798993,-49.486994,329,3270.37773
D1,Bom Retiro/SC,-27.798993,-49.486994,7,69.58250
1,Bom Sucesso de Itararé/SP,-24.3190016,-49.1446207,47,1179.71888
D1,Bom Sucesso de Itararé/SP,-24.3190016,-49.1446207,4,100.40161
1,Bom Sucesso do Sul/PR,-26.0749256,-52.8348629,128,3933.62016
D1,Bom Sucesso do Sul/PR,-26.0749256,-52.8348629,2,61.46281
1,Bom Sucesso/MG,-21.0323516,-44.7598082,164,931.44772
D1,Bom Sucesso/MG,-21.0323516,-44.7598082,1,5.67956
1,Bom Sucesso/PB,-6.4458948,-37.9297662,72,1452.78450
1,Bom Sucesso/PR,-23.7088019,-51.7651297,265,3749.29259
D1,Bom Sucesso/PR,-23.7088019,-51.7651297,4,56.59310
1,Bombinhas/SC,-27.1519159,-48.4875691,2491,12249.81559
D1,Bombinhas/SC,-27.1519159,-48.4875691,24,118.02311
1,Bonfim do Piauí/PI,-9.1648678,-42.8734415,160,2814.42392
D1,Bonfim do Piauí/PI,-9.1648678,-42.8734415,2,35.18030
1,Bonfim/MG,-20.3266626, -44.2386157,164,2390.67055
D1,Bonfim/MG,-20.3266626, -44.2386157,3,43.73178
1,Bonfim/RR,3.3613818,-59.8427241,1356,10798.75767
D1,Bonfim/RR,3.3613818,-59.8427241,15,119.45528
1,Bonfinópolis de Minas/MG,-16.5660011,-45.98645,205,3765.61352
D1,Bonfinópolis de Minas/MG,-16.5660011,-45.98645,9,165.31962
1,Bonfinópolis/GO,-16.6172709,-48.9615701,394,3972.17461
D1,Bonfinópolis/GO,-16.6172709,-48.9615701,11,110.89828
1,Boninal/BA,-12.7095183,-41.8299984,366,2533.57331
D1,Boninal/BA,-12.7095183,-41.8299984,4,27.68933
1,Bonito de Minas/MG,-15.3191266,-44.7544,7,61.57094
1,Bonito de Santa Fé/PB,-7.3143332,-38.5146677,322,2678.42289
D1,Bonito de Santa Fé/PB,-7.3143332,-38.5146677,11,91.49892
1,Bonito/BA,-11.9665473,-41.2649896,442,2617.86307
D1,Bonito/BA,-11.9665473,-41.2649896,3,17.76830
1,Bonito/MS,-21.1264766,-56.4902208,1313,5917.07977
D1,Bonito/MS,-21.1264766,-56.4902208,21,94.63722
1,Bonito/PA,-1.3605722,-47.3049907,318,1923.77495
D1,Bonito/PA,-1.3605722,-47.3049907,10,60.49607
1,Bonito/PE,-8.4721161,-35.7314591,470,1233.04562
D1,Bonito/PE,-8.4721161,-35.7314591,28,73.45804
1,Bonópolis/GO,-13.649331,-49.8329113,91,2025.37280
D1,Bonópolis/GO,-13.649331,-49.8329113,1,22.25684
1,Boqueirão do Leão/RS,-29.30332,-52.4296817,185,2401.97351
D1,Boqueirão do Leão/RS,-29.30332,-52.4296817,6,77.90184
1,Boqueirão do Piauí/PI,-4.4850148,-42.1095161,280,4357.29847
D1,Boqueirão do Piauí/PI,-4.4850148,-42.1095161,2,31.12356
1,Boqueirão/PB,-7.487004,-36.130887,936,5237.82876
D1,Boqueirão/PB,-7.487004,-36.130887,13,72.74762
1,Boquim/SE,-11.1450175,-37.6204228,1053,3914.64367
D1,Boquim/SE,-11.1450175,-37.6204228,25,92.94026
1,Boquira/BA,-12.8184859,-42.7270883,313,1456.01712
D1,Boquira/BA,-12.8184859,-42.7270883,5,23.25906
1,Boracéia/SP,-22.195355,-48.7801925,214,4396.05588
D1,Boracéia/SP,-22.195355,-48.7801925,3,61.62695
1,Borba/AM,-4.3934778,-59.5947721,1154,2764.20427
D1,Borba/AM,-4.3934778,-59.5947721,36,86.23168
1,Borborema/PB,-6.8066718,-35.5990191,96,1815.77454
D1,Borborema/PB,-6.8066718,-35.5990191,1,18.91432
1,Borborema/SP,-21.6212706,-49.074135,444,2746.84484
D1,Borborema/SP,-21.6212706,-49.074135,11,68.05246
1,Borda da Mata/MG,-22.274167,-46.165278,644,3283.36902
D1,Borda da Mata/MG,-22.274167,-46.165278,18,91.77118
1,Borebi/SP,-22.5700178,-48.9714871,81,3019.00857
D1,Borebi/SP,-22.5700178,-48.9714871,2,74.54342
1,Borrazópolis/PR,-23.9393362,-51.5850786,359,5575.39991
D1,Borrazópolis/PR,-23.9393362,-51.5850786,9,139.77326
1,Borá/SP,-22.2701088,-50.544407,10,1193.31742
1,Bossoroca/RS,-28.7278885,-54.9120278,116,1869.46011
D1,Bossoroca/RS,-28.7278885,-54.9120278,3,48.34811
1,Botelhos/MG,-21.65,-46.394722,313,2093.78554
D1,Botelhos/MG,-21.65,-46.394722,4,26.75764
1,Botucatu/SP,-22.8879628,-48.4410712,5717,3859.44778
D1,Botucatu/SP,-22.8879628,-48.4410712,73,49.28104
1,Botumirim/MG,-16.862778,-43.011111,69,1097.32824
1,Botuporã/BA,-13.3744752,-42.5198469,63,621.97650
D1,Botuporã/BA,-13.3744752,-42.5198469,1,9.87264
1,Botuverá/SC,-27.200749,-49.068892,562,10559.93987
D1,Botuverá/SC,-27.200749,-49.068892,3,56.36979
1,Bozano/RS,-28.3669953,-53.7705165,59,2794.88394
1,Braga/RS,-27.617348,-53.740514,80,2416.18846
D1,Braga/RS,-27.617348,-53.740514,2,60.40471
1,Braganey/PR,-24.8179919,-53.118506,139,2582.68302
D1,Braganey/PR,-24.8179919,-53.118506,3,55.74136
1,Bragança Paulista/SP,-22.9520235,-46.5418586,6039,3541.25008
D1,Bragança Paulista/SP,-22.9520235,-46.5418586,105,61.57166
1,Bragança/PA,-1.0573967,-46.7635406,3091,2397.72251
D1,Bragança/PA,-1.0573967,-46.7635406,101,78.34680
1,Branquinha/AL,-9.2478057,-36.0152009,279,2667.30402
D1,Branquinha/AL,-9.2478057,-36.0152009,6,57.36138
1,Brasil Novo/PA,-3.3055853,-52.539198,832,5552.96002
D1,Brasil Novo/PA,-3.3055853,-52.539198,17,113.46192
1,Brasileira/PI,-4.131182,-41.7824969,282,3378.45933
D1,Brasileira/PI,-4.131182,-41.7824969,5,59.90176
1,Brasilândia de Minas/MG,-17.0096469,-46.0087183,580,3463.10007
D1,Brasilândia de Minas/MG,-17.0096469,-46.0087183,4,23.88345
1,Brasilândia do Sul/PR,-24.1975793,-53.527551,122,4719.53578
D1,Brasilândia do Sul/PR,-24.1975793,-53.527551,1,38.68472
1,Brasilândia do Tocantins/TO,-8.3886619,-48.4842729,70,3165.98824
D1,Brasilândia do Tocantins/TO,-8.3886619,-48.4842729,1,45.22840
1,Brasilândia/MS,-21.255575,-52.0365617,239,2016.36716
D1,Brasilândia/MS,-21.255575,-52.0365617,5,42.18341
1,Brasiléia/AC,-11.0010413,-68.7487894,1591,5958.35518
D1,Brasiléia/AC,-11.0010413,-68.7487894,24,89.88091
1,Brasnorte/MT,-12.1227151,-58.0050109,634,3147.96425
D1,Brasnorte/MT,-12.1227151,-58.0050109,6,29.79146
1,Brasília de Minas/MG,-16.2075114,-44.430559,449,1385.58864
D1,Brasília de Minas/MG,-16.2075114,-44.430559,5,15.42972
1,Brasília/DF,-15.7934036,-47.8823172,274601,8988.13773
D1,Brasília/DF,-15.7934036,-47.8823172,4519,147.91423
1,Brazabrantes/GO,-16.4291635,-49.3858216,209,5579.28457
D1,Brazabrantes/GO,-16.4291635,-49.3858216,2,53.39028
1,Brazópolis/MG,-22.4742842,-45.6165577,406,2817.48786
D1,Brazópolis/MG,-22.4742842,-45.6165577,7,48.57738
1,Braço do Norte/SC,-28.2728633,-49.1622712,4794,14151.61176
D1,Braço do Norte/SC,-28.2728633,-49.1622712,40,118.07770
1,Braço do Trombudo/SC,-27.358578,-49.882145,312,8278.05784
D1,Braço do Trombudo/SC,-27.358578,-49.882145,3,79.59671
1,Braúna/SP,-21.5015319,-50.3175246,171,2978.57516
D1,Braúna/SP,-21.5015319,-50.3175246,7,121.92998
1,Braúnas/MG,-19.055556,-42.716111,62,1300.06291
D1,Braúnas/MG,-19.055556,-42.716111,3,62.90627
1,Brejetuba/ES,-20.1465817,-41.2902303,914,7354.95293
D1,Brejetuba/ES,-20.1465817,-41.2902303,2,16.09399
1,Brejinho de Nazaré/TO,-11.0205883,-48.5722906,122,2210.54539
D1,Brejinho de Nazaré/TO,-11.0205883,-48.5722906,5,90.59612
1,Brejinho/PE,-7.3482153,-37.28538,317,4233.44017
D1,Brejinho/PE,-7.3482153,-37.28538,4,53.41880
1,Brejinho/RN,-6.1957907,-35.3583019,511,3996.24619
D1,Brejinho/RN,-6.1957907,-35.3583019,5,39.10221
1,Brejo Alegre/SP,-21.1671191,-50.1850393,160,5538.24853
D1,Brejo Alegre/SP,-21.1671191,-50.1850393,7,242.29837
1,Brejo Grande do Araguaia/PA,-5.7011449,-48.4037308,652,8849.07709
D1,Brejo Grande do Araguaia/PA,-5.7011449,-48.4037308,2,27.14441
1,Brejo Grande/SE,-10.4287358,-36.4667918,231,2765.47348
D1,Brejo Grande/SE,-10.4287358,-36.4667918,9,107.74572
1,Brejo Santo/CE,-7.4909841,-38.9859152,3162,6344.04719
D1,Brejo Santo/CE,-7.4909841,-38.9859152,27,54.17118
1,Brejo da Madre de Deus/PE,-8.1409718,-36.3712527,1199,2340.65398
D1,Brejo da Madre de Deus/PE,-8.1409718,-36.3712527,34,66.37384
1,Brejo de Areia/MA,-4.3316785,-45.5833334,263,2917.68360
D1,Brejo de Areia/MA,-4.3316785,-45.5833334,2,22.18771
1,Brejo do Cruz/PB,-6.32926065,-37.48746163303929,1033,7271.57539
D1,Brejo do Cruz/PB,-6.32926065,-37.48746163303929,12,84.47135
1,Brejo do Piauí/PI,-8.207583,-42.8359849,39,1013.51351
D1,Brejo do Piauí/PI,-8.207583,-42.8359849,3,77.96258
1,Brejo dos Santos/PB,-6.3769367,-37.8243125,131,2026.60891
D1,Brejo dos Santos/PB,-6.3769367,-37.8243125,2,30.94059
1,Brejo/MA,-3.6804397,-42.7529313,708,1931.73447
D1,Brejo/MA,-3.6804397,-42.7529313,18,49.11189
1,Brejolândia/BA,-12.4843845,-43.9611861,126,1186.66416
D1,Brejolândia/BA,-12.4843845,-43.9611861,7,65.92579
1,Brejão/PE,-9.029146,-36.566034,119,1324.13486
D1,Brejão/PE,-9.029146,-36.566034,3,33.38155
1,Brejões/BA,-13.1033754,-39.7909837,400,2812.54395
D1,Brejões/BA,-13.1033754,-39.7909837,4,28.12544
1,Breu Branco/PA,-3.7785073,-49.5684795,423,628.23026
D1,Breu Branco/PA,-3.7785073,-49.5684795,27,40.09980
1,Breves/PA,-1.68036,-50.479085,3538,3418.45657
D1,Breves/PA,-1.68036,-50.479085,98,94.68873
1,Britânia/GO,-15.2427599,-51.1602061,284,4899.08573
D1,Britânia/GO,-15.2427599,-51.1602061,1,17.25030
1,Brochier/RS,-29.556766,-51.5963047,118,2311.91223
1,Brodowski/SP,-20.984532,-47.657217,1052,4161.88630
D1,Brodowski/SP,-20.984532,-47.657217,26,102.86031
1,Brotas de Macaúbas/BA,-12.0019007,-42.6257506,51,503.45508
1,Brotas/SP,-22.2840884,-48.1267265,272,1104.07534
D1,Brotas/SP,-22.2840884,-48.1267265,9,36.53190
1,Brumadinho/MG,-20.143611,-44.2,1905,4684.50302
D1,Brumadinho/MG,-20.143611,-44.2,24,59.01736
1,Brumado/BA,-14.29507325,-41.659307508575985,4383,6509.24482
D1,Brumado/BA,-14.29507325,-41.659307508575985,39,57.91936
1,Brunópolis/SC,-27.310953,-50.837585,68,2871.62162
1,Brusque/SC,-27.0964628,-48.9136323,15303,11114.17760
D1,Brusque/SC,-27.0964628,-48.9136323,121,87.87921
1,Brás Pires/MG,-20.8483109,-43.2430524,94,2189.61099
D1,Brás Pires/MG,-20.8483109,-43.2430524,4,93.17494
1,Bueno Brandão/MG,-22.441976,-46.3517971,247,2247.29324
D1,Bueno Brandão/MG,-22.441976,-46.3517971,6,54.59012
1,Buenos Aires/PE,-7.7218931,-35.326587,77,583.77559
D1,Buenos Aires/PE,-7.7218931,-35.326587,10,75.81501
1,Buenópolis/MG,-17.8756607,-44.1749365,135,1303.96986
D1,Buenópolis/MG,-17.8756607,-44.1749365,5,48.29518
1,Buerarema/BA,-14.9571177,-39.3008035,852,4654.21173
D1,Buerarema/BA,-14.9571177,-39.3008035,26,142.02994
1,Bugre/MG,-19.4257687,-42.2556,286,7180.51720
D1,Bugre/MG,-19.4257687,-42.2556,8,200.85363
1,Bujari/AC,-9.8309656,-67.9520886,513,4923.22457
D1,Bujari/AC,-9.8309656,-67.9520886,8,76.77543
1,Bujaru/PA,-1.5169239,-48.0410699,819,2783.15832
D1,Bujaru/PA,-1.5169239,-48.0410699,24,81.55775
1,Buri/SP,-23.79849,-48.598924,487,2439.26872
D1,Buri/SP,-23.79849,-48.598924,12,60.10518
1,Buritama/SP,-21.0664017,-50.1448077,1107,6405.87929
D1,Buritama/SP,-21.0664017,-50.1448077,28,162.02766
1,Buriti Alegre/GO,-18.1377879,-49.0404411,444,4681.56896
D1,Buriti Alegre/GO,-18.1377879,-49.0404411,12,126.52889
1,Buriti Bravo/MA,-5.8391884,-43.8367876,1019,4256.65232
D1,Buriti Bravo/MA,-5.8391884,-43.8367876,10,41.77284
1,Buriti de Goiás/GO,-16.180644,-50.4287479,120,4846.52666
D1,Buriti de Goiás/GO,-16.180644,-50.4287479,1,40.38772
1,Buriti do Tocantins/TO,-5.3187439,-48.2256609,346,3009.48073
D1,Buriti do Tocantins/TO,-5.3187439,-48.2256609,1,8.69792
1,Buriti dos Lopes/PI,-3.1776723,-41.8707444,823,4155.09668
D1,Buriti dos Lopes/PI,-3.1776723,-41.8707444,12,60.58464
1,Buriti dos Montes/PI,-5.3136171,-41.0971256,316,3823.81413
D1,Buriti dos Montes/PI,-5.3136171,-41.0971256,2,24.20136
1,Buriti/MA,-3.9430944,-42.9244281,706,2451.55914
D1,Buriti/MA,-3.9430944,-42.9244281,5,17.36232
1,Buriticupu/MA,-4.3227472,-46.4516989,2643,3621.39128
D1,Buriticupu/MA,-4.3227472,-46.4516989,19,26.03346
1,Buritinópolis/GO,-14.4589282,-46.4293104,64,1949.43649
1,Buritirama/BA,-10.7148421,-43.6362327,570,2679.07501
D1,Buritirama/BA,-10.7148421,-43.6362327,13,61.10171
1,Buritirana/MA,-5.5897455,-47.0148915,243,1571.08683
D1,Buritirana/MA,-5.5897455,-47.0148915,9,58.18840
1,Buritis/MG,-15.621389,-46.423889,575,2298.80462
D1,Buritis/MG,-15.621389,-46.423889,6,23.98753
1,Buritis/RO,-10.2054937,-63.8281954,2235,5538.20993
D1,Buritis/RO,-10.2054937,-63.8281954,21,52.03687
1,Buritizal/SP,-20.1933264,-47.7097165,87,1927.33717
D1,Buritizal/SP,-20.1933264,-47.7097165,3,66.45990
1,Buritizeiro/MG,-17.3667765,-44.9647781,490,1742.47004
D1,Buritizeiro/MG,-17.3667765,-44.9647781,13,46.22880
1,Butiá/RS,-30.1256795,-51.9692224,727,3469.83582
D1,Butiá/RS,-30.1256795,-51.9692224,26,124.09317
1,Buíque/PE,-8.6239732,-37.157296,986,1673.48394
D1,Buíque/PE,-8.6239732,-37.157296,13,22.06419
1,Bálsamo/SP,-20.7343722,-49.5807484,730,7987.74483
D1,Bálsamo/SP,-20.7343722,-49.5807484,30,328.26349
0,CASO SEM LOCALIZAÇÃO DEFINIDA/AL,-9.931093434363673,-35.609611600637464,8,0.23971
D0,CASO SEM LOCALIZAÇÃO DEFINIDA/AL,-9.931093434363673,-35.609611600637464,8,0.23971
0,CASO SEM LOCALIZAÇÃO DEFINIDA/BA,-13.415069300066518,-38.14174656569957,8102,54.47432
D0,CASO SEM LOCALIZAÇÃO DEFINIDA/BA,-13.415069300066518,-38.14174656569957,71,0.47737
0,CASO SEM LOCALIZAÇÃO DEFINIDA/CE,-3.3445126297392798,-38.624961942434304,7862,86.09212
D0,CASO SEM LOCALIZAÇÃO DEFINIDA/CE,-3.3445126297392798,-38.624961942434304,17,0.18616
0,CASO SEM LOCALIZAÇÃO DEFINIDA/ES,-20.30989267097039,-39.81745156645774,2275,56.61105
D0,CASO SEM LOCALIZAÇÃO DEFINIDA/ES,-20.30989267097039,-39.81745156645774,78,1.94095
0,CASO SEM LOCALIZAÇÃO DEFINIDA/GO,-16.701590966270153,-49.164524059025034,1618,23.05384
D0,CASO SEM LOCALIZAÇÃO DEFINIDA/GO,-16.701590966270153,-49.164524059025034,83,1.18261
0,CASO SEM LOCALIZAÇÃO DEFINIDA/MG,-19.97049116501593,-43.8852149072783,3768,17.79979
D0,CASO SEM LOCALIZAÇÃO DEFINIDA/MG,-19.97049116501593,-43.8852149072783,122,0.57632
0,CASO SEM LOCALIZAÇÃO DEFINIDA/MT,-15.54791153961863,-56.17143998972475,1190,34.15157
D0,CASO SEM LOCALIZAÇÃO DEFINIDA/MT,-15.54791153961863,-56.17143998972475,76,2.18111
0,CASO SEM LOCALIZAÇÃO DEFINIDA/PA,-0.09317078214359542,-48.0050231510481,1719,19.98172
D0,CASO SEM LOCALIZAÇÃO DEFINIDA/PA,-0.09317078214359542,-48.0050231510481,14,0.16274
0,CASO SEM LOCALIZAÇÃO DEFINIDA/PI,-2.683810218391744,-41.470898009352254,306,9.34857
D0,CASO SEM LOCALIZAÇÃO DEFINIDA/PI,-2.683810218391744,-41.470898009352254,6,0.18331
0,CASO SEM LOCALIZAÇÃO DEFINIDA/PR,-25.69415946385943,-48.10141676336737,4101,35.86685
D0,CASO SEM LOCALIZAÇÃO DEFINIDA/PR,-25.69415946385943,-48.10141676336737,75,0.65594
0,CASO SEM LOCALIZAÇÃO DEFINIDA/RN,-5.749310788669161,-34.95302586257457,458,13.06014
D0,CASO SEM LOCALIZAÇÃO DEFINIDA/RN,-5.749310788669161,-34.95302586257457,13,0.37070
0,CASO SEM LOCALIZAÇÃO DEFINIDA/RR,2.813328208465927,-60.663338675861986,1946,321.24881
D0,CASO SEM LOCALIZAÇÃO DEFINIDA/RR,2.813328208465927,-60.663338675861986,8,1.32065
0,CASO SEM LOCALIZAÇÃO DEFINIDA/SC,-27.675643660562308,-48.18313219398259,12239,170.82152
0,CASO SEM LOCALIZAÇÃO DEFINIDA/SP,-24.30968974555485,-46.21366504207253,290,0.63155
1,Caapiranga/AM,-3.3188884,-61.2096404,489,3681.39727
D1,Caapiranga/AM,-3.3188884,-61.2096404,13,97.86946
1,Caaporã/PB,-7.510234,-34.9154114,1209,5506.71829
D1,Caaporã/PB,-7.510234,-34.9154114,19,86.54065
1,Caarapó/MS,-22.6349267,-54.8240903,1643,5370.50959
D1,Caarapó/MS,-22.6349267,-54.8240903,17,55.56827
1,Caatiba/BA,-14.9782759,-40.4092325,475,7321.20838
D1,Caatiba/BA,-14.9782759,-40.4092325,4,61.65228
1,Cabaceiras do Paraguaçu/BA,-12.5377868,-39.1901339,224,1184.49580
D1,Cabaceiras do Paraguaçu/BA,-12.5377868,-39.1901339,1,5.28793
1,Cabaceiras/PB,-7.4899156,-36.2860501,219,3868.57446
1,Cabeceira Grande/MG,-16.0297,-47.0906,108,1545.50658
D1,Cabeceira Grande/MG,-16.0297,-47.0906,2,28.62049
1,Cabeceiras do Piauí/PI,-4.4733665,-42.3098716,277,2605.83255
D1,Cabeceiras do Piauí/PI,-4.4733665,-42.3098716,7,65.85136
1,Cabeceiras/GO,-15.7995459,-46.9264991,116,1441.71017
D1,Cabeceiras/GO,-15.7995459,-46.9264991,3,37.28561
1,Cabedelo/PB,-6.97324,-34.8351609,4674,6796.86478
D1,Cabedelo/PB,-6.97324,-34.8351609,96,139.60184
1,Cabixi/RO,-13.4956065,-60.5424442,359,6919.81496
D1,Cabixi/RO,-13.4956065,-60.5424442,9,173.47726
1,Cabo Frio/RJ,-22.8804369,-42.0189227,6426,2789.32884
D1,Cabo Frio/RJ,-22.8804369,-42.0189227,263,114.16021
1,Cabo Verde/MG,-21.4743338,-46.3964995,193,1371.22558
D1,Cabo Verde/MG,-21.4743338,-46.3964995,3,21.31439
1,Cabo de Santo Agostinho/PE,-8.2838945,-35.0320984,2725,1304.17720
D1,Cabo de Santo Agostinho/PE,-8.2838945,-35.0320984,308,147.40792
1,Cabreúva/SP,-23.3075813,-47.1324417,2151,4265.40284
D1,Cabreúva/SP,-23.3075813,-47.1324417,50,99.14930
1,Cabrobó/PE,-8.5083701,-39.3106961,908,2631.65522
D1,Cabrobó/PE,-8.5083701,-39.3106961,9,26.08469
1,Cabrália Paulista/SP,-22.4562909,-49.3385645,137,3228.84751
D1,Cabrália Paulista/SP,-22.4562909,-49.3385645,1,23.56823
1,Cacaulândia/RO,-10.3380043,-62.9007231,208,3317.91354
D1,Cacaulândia/RO,-10.3380043,-62.9007231,1,15.95151
1,Cacequi/RS,-29.8838059,-54.8273443,116,933.75191
D1,Cacequi/RS,-29.8838059,-54.8273443,2,16.09917
1,Cachoeira Alta/GO,-18.7618269,-50.9432431,837,6608.24254
D1,Cachoeira Alta/GO,-18.7618269,-50.9432431,12,94.74183
1,Cachoeira Dourada/GO,-18.4934204,-49.481062,193,2403.18765
D1,Cachoeira Dourada/GO,-18.4934204,-49.481062,4,49.80700
1,Cachoeira Dourada/MG,-18.517136,-49.5002062,88,3252.03252
1,Cachoeira Grande/MA,-2.9290492,-44.0573223,187,1972.99008
D1,Cachoeira Grande/MA,-2.9290492,-44.0573223,4,42.20300
1,Cachoeira Paulista/SP,-22.666498,-45.015384,700,2084.51208
D1,Cachoeira Paulista/SP,-22.666498,-45.015384,20,59.55749
1,Cachoeira da Prata/MG,-19.524723,-44.453056,168,4678.36257
D1,Cachoeira da Prata/MG,-19.524723,-44.453056,2,55.69479
1,Cachoeira de Goiás/GO,-16.6688414,-50.6435997,26,1937.40686
1,Cachoeira de Minas/MG,-22.3554043,-45.7796324,332,2867.25969
D1,Cachoeira de Minas/MG,-22.3554043,-45.7796324,3,25.90897
1,Cachoeira de Pajeú/MG,-15.965833,-41.496666,293,3103.15611
D1,Cachoeira de Pajeú/MG,-15.965833,-41.496666,3,31.77293
1,Cachoeira do Arari/PA,-1.0143572,-48.9621089,339,1408.74335
D1,Cachoeira do Arari/PA,-1.0143572,-48.9621089,13,54.02261
1,Cachoeira do Piriá/PA,-1.7599443,-46.5446954,542,1566.06663
D1,Cachoeira do Piriá/PA,-1.7599443,-46.5446954,3,8.66827
1,Cachoeira do Sul/RS,-30.0474778,-52.8905413,2390,2919.29790
D1,Cachoeira do Sul/RS,-30.0474778,-52.8905413,32,39.08683
1,Cachoeira dos Índios/PB,-6.9259193,-38.6742159,330,3202.32897
D1,Cachoeira dos Índios/PB,-6.9259193,-38.6742159,10,97.04027
1,Cachoeira/BA,-12.5998256,-38.9665918,681,2028.77826
D1,Cachoeira/BA,-12.5998256,-38.9665918,12,35.74940
1,Cachoeiras de Macacu/RJ,-22.4626861,-42.6534414,1425,2402.91385
D1,Cachoeiras de Macacu/RJ,-22.4626861,-42.6534414,48,80.94026
1,Cachoeirinha/PE,-8.4906364,-36.2338963,325,1585.28852
D1,Cachoeirinha/PE,-8.4906364,-36.2338963,22,107.31184
1,Cachoeirinha/RS,-29.9493353,-51.0898927,6113,4657.87870
D1,Cachoeirinha/RS,-29.9493353,-51.0898927,158,120.39012
1,Cachoeirinha/TO,-6.118647,-47.9208885,113,4947.46060
D1,Cachoeirinha/TO,-6.118647,-47.9208885,2,87.56567
1,Cachoeiro de Itapemirim/ES,-20.848084,-41.11129,15005,7125.25346
D1,Cachoeiro de Itapemirim/ES,-20.848084,-41.11129,294,139.60843
1,Cacimba de Areia/PB,-7.1288513,-37.1575194,20,541.27199
1,Cacimba de Dentro/PB,-6.6425101,-35.7929304,709,4127.37222
D1,Cacimba de Dentro/PB,-6.6425101,-35.7929304,17,98.96379
1,Cacimbas/PB,-7.2125451,-37.0593398,100,1389.08182
D1,Cacimbas/PB,-7.2125451,-37.0593398,5,69.45409
1,Cacimbinhas/AL,-9.401212,-36.991082,367,3370.37377
D1,Cacimbinhas/AL,-9.401212,-36.991082,3,27.55074
1,Cacique Doble/RS,-27.7700117,-51.6616409,180,3547.49704
D1,Cacique Doble/RS,-27.7700117,-51.6616409,1,19.70832
1,Cacoal/RO,-11.4333,-61.4420502,6807,7924.97642
D1,Cacoal/RO,-11.4333,-61.4420502,87,101.28881
1,Caconde/SP,-21.527995,-46.643659,451,2372.56037
D1,Caconde/SP,-21.527995,-46.643659,3,15.78200
1,Caculé/BA,-14.4990734,-42.2233006,392,1683.05354
D1,Caculé/BA,-14.4990734,-42.2233006,4,17.17402
1,Caetanos/BA,-14.3387456,-40.9085971,286,1957.83133
D1,Caetanos/BA,-14.3387456,-40.9085971,2,13.69113
1,Caetanópolis/MG,-19.2947496,-44.4138386,440,3744.99957
D1,Caetanópolis/MG,-19.2947496,-44.4138386,3,25.53409
1,Caetité/BA,-14.0691776,-42.4852428,997,1951.80204
D1,Caetité/BA,-14.0691776,-42.4852428,5,9.78838
1,Caeté/MG,-19.897777,-43.670278,907,2013.45262
D1,Caeté/MG,-19.897777,-43.670278,26,57.71750
1,Caetés/PE,-8.7728788,-36.6255835,882,3051.48076
D1,Caetés/PE,-8.7728788,-36.6255835,10,34.59729
1,Cafarnaum/BA,-11.691399,-41.468823,592,3197.75293
D1,Cafarnaum/BA,-11.691399,-41.468823,10,54.01610
1,Cafeara/PR,-22.78905,-51.714195,131,4434.66486
D1,Cafeara/PR,-22.78905,-51.714195,2,67.70481
1,Cafelândia/PR,-24.6176963,-53.3218057,961,5206.97876
D1,Cafelândia/PR,-24.6176963,-53.3218057,6,32.50975
1,Cafelândia/SP,-21.8054355,-49.6030627,481,2695.73502
D1,Cafelândia/SP,-21.8054355,-49.6030627,14,78.46214
1,Cafezal do Sul/PR,-23.900508,-53.512418,103,2569.21926
D1,Cafezal do Sul/PR,-23.900508,-53.512418,1,24.94388
1,Caiabu/SP,-22.0143038,-51.2356597,46,1097.06654
D1,Caiabu/SP,-22.0143038,-51.2356597,2,47.69855
1,Caiana/MG,-20.695555,-41.924723,65,1173.07345
D1,Caiana/MG,-20.695555,-41.924723,2,36.09457
1,Caiapônia/GO,-16.9538779,-51.8090761,403,2109.17465
D1,Caiapônia/GO,-16.9538779,-51.8090761,5,26.16842
1,Caibaté/RS,-28.290475,-54.645407,29,601.28551
D1,Caibaté/RS,-28.290475,-54.645407,3,62.20195
1,Caibi/SC,-27.0751925,-53.2502133,207,3376.83524
D1,Caibi/SC,-27.0751925,-53.2502133,2,32.62643
1,Caicó/RN,-6.4594544,-37.0971911,6503,9515.23931
D1,Caicó/RN,-6.4594544,-37.0971911,74,108.27737
1,Caieiras/SP,-23.3644621,-46.7484765,4041,3931.89005
D1,Caieiras/SP,-23.3644621,-46.7484765,127,123.57091
1,Cairu/BA,-13.4860505,-39.0455744,784,4254.62636
D1,Cairu/BA,-13.4860505,-39.0455744,8,43.41455
1,Caiuá/SP,-21.8319357,-51.9887179,149,2505.88631
D1,Caiuá/SP,-21.8319357,-51.9887179,2,33.63606
1,Caiçara do Norte/RN,-5.0645017,-36.0561226,139,2118.57948
D1,Caiçara do Norte/RN,-5.0645017,-36.0561226,3,45.72474
1,Caiçara do Rio do Vento/RN,-5.757968,-36.00089,110,2960.96904
D1,Caiçara do Rio do Vento/RN,-5.757968,-36.00089,3,80.75370
1,Caiçara/PB,-6.6146866,-35.4681434,488,6786.26060
D1,Caiçara/PB,-6.6146866,-35.4681434,10,139.06272
1,Caiçara/RS,-27.2750478,-53.4310053,272,5787.23404
D1,Caiçara/RS,-27.2750478,-53.4310053,3,63.82979
1,Cajamar/SP,-23.3561111,-46.8769444,2025,2598.35245
D1,Cajamar/SP,-23.3561111,-46.8769444,87,111.63292
1,Cajapió/MA,-2.8778715,-44.6746871,54,481.45506
D1,Cajapió/MA,-2.8778715,-44.6746871,2,17.83167
1,Cajari/MA,-3.3213076,-45.0118757,132,678.62835
D1,Cajari/MA,-3.3213076,-45.0118757,4,20.56450
1,Cajati/SP,-24.7272376,-48.1077914,2377,8342.10711
D1,Cajati/SP,-24.7272376,-48.1077914,49,171.96603
1,Cajazeiras do Piauí/PI,-6.794271,-42.3935024,24,671.70445
D1,Cajazeiras do Piauí/PI,-6.794271,-42.3935024,1,27.98769
1,Cajazeiras/PB,-6.8897849,-38.5570389,3872,6216.18584
D1,Cajazeiras/PB,-6.8897849,-38.5570389,71,113.98481
1,Cajazeirinhas/PB,-6.961442,-37.7993733,68,2121.68487
1,Cajobi/SP,-20.8776238,-48.8106972,362,3416.38354
D1,Cajobi/SP,-20.8776238,-48.8106972,7,66.06267
1,Cajueiro da Praia/PI,-2.931114,-41.340801,445,5798.80115
D1,Cajueiro da Praia/PI,-2.931114,-41.340801,10,130.31014
1,Cajueiro/AL,-9.399589,-36.1524309,392,1837.70100
D1,Cajueiro/AL,-9.399589,-36.1524309,17,79.69622
1,Cajuri/MG,-20.7901414,-42.7954489,121,3044.79114
1,Cajuru/SP,-21.2759978,-47.3046035,526,1992.95268
D1,Cajuru/SP,-21.2759978,-47.3046035,17,64.41102
1,Caldas Brandão/PB,-7.1027959,-35.3254676,367,6070.12901
D1,Caldas Brandão/PB,-7.1027959,-35.3254676,5,82.69931
1,Caldas Novas/GO,-17.745,-48.625,4033,4327.43895
D1,Caldas Novas/GO,-17.745,-48.625,70,75.11052
1,Caldas/MG,-21.923611,-46.386111,313,2152.53421
D1,Caldas/MG,-21.923611,-46.386111,10,68.77106
1,Caldazinha/GO,-16.7116649,-49.0012601,131,3404.36590
D1,Caldazinha/GO,-16.7116649,-49.0012601,2,51.97505
1,Caldeirão Grande do Piauí/PI,-7.3310393,-40.6374433,188,3252.03252
D1,Caldeirão Grande do Piauí/PI,-7.3310393,-40.6374433,1,17.29805
1,Caldeirão Grande/BA,-11.0208483,-40.3041387,505,3771.18960
D1,Caldeirão Grande/BA,-11.0208483,-40.3041387,4,29.87081
1,Califórnia/PR,-23.6672543,-51.3554556,415,4822.21706
D1,Califórnia/PR,-23.6672543,-51.3554556,8,92.95840
1,Calmon/SC,-26.6023644,-51.0992893,16,479.76012
D1,Calmon/SC,-26.6023644,-51.0992893,2,59.97001
1,Calumbi/PE,-7.9389746,-38.1516871,304,5289.71637
D1,Calumbi/PE,-7.9389746,-38.1516871,2,34.80077
1,Calçado/PE,-8.7413446,-36.3351787,199,1806.13541
D1,Calçado/PE,-8.7413446,-36.3351787,2,18.15211
1,Calçoene/AP,2.4981757,-50.9539503,1515,13399.96462
D1,Calçoene/AP,2.4981757,-50.9539503,9,79.60375
1,Camacan/BA,-15.4166631,-39.4930088,1852,5786.41505
D1,Camacan/BA,-15.4166631,-39.4930088,37,115.60332
1,Camacho/MG,-20.625556,-45.156667,46,1603.34611
1,Camalaú/PB,-7.885031,-36.824191,199,3299.61864
D1,Camalaú/PB,-7.885031,-36.824191,2,33.16200
1,Camamu/BA,-13.9438142,-39.1060917,1156,3267.19801
D1,Camamu/BA,-13.9438142,-39.1060917,26,73.48369
1,Camanducaia/MG,-22.755278,-46.144444,1371,6288.70235
D1,Camanducaia/MG,-22.755278,-46.144444,12,55.04335
1,Camapuã/MS,-19.5291747,-54.0434641,298,2176.29446
D1,Camapuã/MS,-19.5291747,-54.0434641,6,43.81801
1,Camaquã/RS,-30.8524752,-51.8075619,3226,4852.73324
D1,Camaquã/RS,-30.8524752,-51.8075619,40,60.17028
1,Camaragibe/PE,-8.0213832,-34.9810768,2966,1866.59450
D1,Camaragibe/PE,-8.0213832,-34.9810768,228,143.48737
1,Camargo/RS,-28.5865661,-52.2031474,169,6163.38439
D1,Camargo/RS,-28.5865661,-52.2031474,1,36.46973
1,Camaçari/BA,-12.6998188,-38.3260762,8919,2930.96989
D1,Camaçari/BA,-12.6998188,-38.3260762,155,50.93624
1,Cambará do Sul/RS,-29.0489517,-50.145412,260,4058.69497
D1,Cambará do Sul/RS,-29.0489517,-50.145412,2,31.22073
1,Cambará/PR,-23.042273,-50.075281,727,2854.78677
D1,Cambará/PR,-23.042273,-50.075281,9,35.34124
1,Cambira/PR,-23.600265,-51.581045,312,3940.88670
D1,Cambira/PR,-23.600265,-51.581045,6,75.78628
1,Camboriú/SC,-27.0273601,-48.6535657,7598,8927.79508
D1,Camboriú/SC,-27.0273601,-48.6535657,86,101.05164
1,Cambuci/RJ,-21.5749919,-41.9107833,409,2636.32848
D1,Cambuci/RJ,-21.5749919,-41.9107833,7,45.12054
1,Cambuquira/MG,-21.853056,-45.2953619,159,1241.02404
D1,Cambuquira/MG,-21.853056,-45.2953619,7,54.63628
1,Cambuí/MG,-22.6122501,-46.0572137,1220,4092.03730
D1,Cambuí/MG,-22.6122501,-46.0572137,12,40.24955
1,Cambé/PR,-23.2782035,-51.2779583,5757,5363.28150
D1,Cambé/PR,-23.2782035,-51.2779583,72,67.07595
1,Cametá/PA,-2.242949,-49.497885,5756,4130.19144
D1,Cametá/PA,-2.242949,-49.497885,123,88.25809
1,Camocim de São Félix/PE,-8.3616757,-35.7638903,320,1693.12169
D1,Camocim de São Félix/PE,-8.3616757,-35.7638903,11,58.20106
1,Camocim/CE,-2.9009918,-40.8427389,2673,4182.64040
D1,Camocim/CE,-2.9009918,-40.8427389,82,128.31145
1,Campanha/MG,-21.8361108,-45.401986,568,3388.61711
D1,Campanha/MG,-21.8361108,-45.401986,11,65.62463
1,Campanário/MG,-18.2398144,-41.7271768,76,2037.53351
1,Campestre da Serra/RS,-28.7966535,-51.0958149,87,2562.59205
1,Campestre de Goiás/GO,-16.7624179,-49.69497,229,6275.69197
D1,Campestre de Goiás/GO,-16.7624179,-49.69497,4,109.61907
1,Campestre do Maranhão/MA,-6.1729113,-47.3640512,570,3943.81789
D1,Campestre do Maranhão/MA,-6.1729113,-47.3640512,17,117.62264
1,Campestre/AL,-8.8481634,-35.5660033,110,1581.82341
D1,Campestre/AL,-8.8481634,-35.5660033,3,43.14064
1,Campestre/MG,-19.6142116,-43.219378,500,2374.84564
D1,Campestre/MG,-19.6142116,-43.219378,6,28.49815
1,Campina Grande do Sul/PR,-25.3046032,-49.0545355,3100,7096.25730
D1,Campina Grande do Sul/PR,-25.3046032,-49.0545355,56,128.19045
1,Campina Grande/PB,-7.2246743,-35.8771292,17098,4151.94496
D1,Campina Grande/PB,-7.2246743,-35.8771292,505,122.63026
1,Campina Verde/MG,-19.535277,-49.486389,231,1169.50182
D1,Campina Verde/MG,-19.535277,-49.486389,11,55.69056
1,Campina da Lagoa/PR,-24.5937926,-52.8038965,296,2107.81172
D1,Campina da Lagoa/PR,-24.5937926,-52.8038965,7,49.84690
1,Campina das Missões/RS,-27.9883295,-54.8411665,174,3223.41608
D1,Campina das Missões/RS,-27.9883295,-54.8411665,4,74.10152
1,Campina do Monte Alegre/SP,-23.5935653,-48.4801876,164,2707.61103
1,Campina do Simão/PR,-25.1086375,-51.8076658,35,906.97072
D1,Campina do Simão/PR,-25.1086375,-51.8076658,1,25.91345
1,Campinas do Piauí/PI,-7.6593687,-41.8814875,101,1797.15302
D1,Campinas do Piauí/PI,-7.6593687,-41.8814875,1,17.79359
1,Campinas do Sul/RS,-27.7167968,-52.6257885,272,5001.83891
D1,Campinas do Sul/RS,-27.7167968,-52.6257885,2,36.77823
1,Campinas/SP,-22.90556,-47.06083,51177,4216.29076
D1,Campinas/SP,-22.90556,-47.06083,1633,134.53705
1,Campinaçu/GO,-13.7869969,-48.5703841,132,3634.36123
1,Campinorte/GO,-14.3136699,-49.1510931,581,4551.86462
D1,Campinorte/GO,-14.3136699,-49.1510931,9,70.51081
1,Campinápolis/MT,-14.5403731,-52.7970626,528,3120.75182
D1,Campinápolis/MT,-14.5403731,-52.7970626,16,94.56824
1,Campo Alegre de Goiás/GO,-17.6337896,-47.779291,59,762.47092
D1,Campo Alegre de Goiás/GO,-17.6337896,-47.779291,2,25.84647
1,Campo Alegre de Lourdes/BA,-9.5160326,-43.0101338,228,791.11728
D1,Campo Alegre de Lourdes/BA,-9.5160326,-43.0101338,5,17.34906
1,Campo Alegre do Fidalgo/PI,-8.3753852,-41.8364191,54,1065.29888
D1,Campo Alegre do Fidalgo/PI,-8.3753852,-41.8364191,1,19.72776
1,Campo Alegre/AL,-9.7798607,-36.3575793,1715,2980.69069
D1,Campo Alegre/AL,-9.7798607,-36.3575793,34,59.09241
1,Campo Alegre/SC,-26.1941684,-49.2657484,561,4682.41382
D1,Campo Alegre/SC,-26.1941684,-49.2657484,20,166.93097
1,Campo Azul/MG,-16.5078525,-44.8133524,52,1359.83264
1,Campo Belo do Sul/SC,-27.8987563,-50.7586887,387,5566.74338
D1,Campo Belo do Sul/SC,-27.8987563,-50.7586887,8,115.07480
1,Campo Belo/MG,-20.8975,-45.277223,1935,3571.03311
D1,Campo Belo/MG,-20.8975,-45.277223,40,73.81981
1,Campo Bom/RS,-29.674694,-51.060601,5789,8334.53310
D1,Campo Bom/RS,-29.674694,-51.060601,92,132.45414
1,Campo Bonito/PR,-25.0328004,-52.992976,106,2816.90141
D1,Campo Bonito/PR,-25.0328004,-52.992976,2,53.14908
1,Campo Erê/SC,-26.3947432,-53.0790495,523,6212.87717
D1,Campo Erê/SC,-26.3947432,-53.0790495,4,47.51722
1,Campo Florido/MG,-19.760833,-48.572223,263,3180.55388
1,Campo Formoso/BA,-10.51055,-40.320031,2171,3036.91580
D1,Campo Formoso/BA,-10.51055,-40.320031,21,29.37597
1,Campo Grande do Piauí/PI,-7.1327559,-41.0381164,365,6119.02766
D1,Campo Grande do Piauí/PI,-7.1327559,-41.0381164,4,67.05784
1,Campo Grande/AL,-9.9725,-36.74791447368421,252,2634.05456
D1,Campo Grande/AL,-9.9725,-36.74791447368421,7,73.16818
1,Campo Grande/MS,-20.4640173,-54.6162947,68404,7549.34378
D1,Campo Grande/MS,-20.4640173,-54.6162947,1280,141.26601
1,Campo Grande/RN,-5.862063,-37.3134908,184,1902.79214
D1,Campo Grande/RN,-5.862063,-37.3134908,3,31.02378
1,Campo Largo do Piauí/PI,-3.8104731,-42.6288333,235,3214.33456
D1,Campo Largo do Piauí/PI,-3.8104731,-42.6288333,5,68.39010
1,Campo Largo/PR,-25.4597726,-49.5270851,8280,6185.33597
D1,Campo Largo/PR,-25.4597726,-49.5270851,149,111.30617
1,Campo Limpo Paulista/SP,-23.207791,-46.788919,2005,2343.90526
D1,Campo Limpo Paulista/SP,-23.207791,-46.788919,90,105.21271
1,Campo Limpo de Goiás/GO,-16.297101,-49.0894994,140,1763.22418
D1,Campo Limpo de Goiás/GO,-16.297101,-49.0894994,2,25.18892
1,Campo Magro/PR,-25.3691533,-49.4496921,1541,5181.57364
D1,Campo Magro/PR,-25.3691533,-49.4496921,37,124.41157
1,Campo Maior/PI,-4.8339574,-42.1739786,3027,6455.12123
D1,Campo Maior/PI,-4.8339574,-42.1739786,58,123.68584
1,Campo Mourão/PR,-24.046329,-52.37802,4533,4747.19336
D1,Campo Mourão/PR,-24.046329,-52.37802,78,81.68566
1,Campo Novo de Rondônia/RO,-10.5704235,-63.6199511,510,3574.93341
D1,Campo Novo de Rondônia/RO,-10.5704235,-63.6199511,8,56.07739
