type,name,lat,lon,total,total_per_100k_inhabitants
1,Abadia de Goiás/GO,-16.7572644,-49.4412205,812,9064.52333
D1,Abadia de Goiás/GO,-16.7572644,-49.4412205,11,122.79527
1,Abadia dos Dourados/MG,-18.4911191,-47.4063589,121,1727.09106
D1,Abadia dos Dourados/MG,-18.4911191,-47.4063589,1,14.27348
1,Abadiânia/GO,-16.1940946,-48.7067767,219,1070.32892
D1,Abadiânia/GO,-16.1940946,-48.7067767,17,83.08489
1,Abaetetuba/PA,-1.721828,-48.878843,5654,3554.18657
D1,Abaetetuba/PA,-1.721828,-48.878843,124,77.94820
1,Abaeté/MG,-19.1566833,-45.4481213,451,1939.78495
D1,Abaeté/MG,-19.1566833,-45.4481213,6,25.80645
1,Abaiara/CE,-7.3607808,-39.0487878,183,1543.91293
D1,Abaiara/CE,-7.3607808,-39.0487878,4,33.74673
1,Abaré/BA,-8.7239913,-39.1139689,224,1100.89940
D1,Abaré/BA,-8.7239913,-39.1139689,1,4.91473
1,Abatiá/PR,-23.3052967,-50.3102532,243,3280.23758
D1,Abatiá/PR,-23.3052967,-50.3102532,3,40.49676
1,Abaíra/BA,-13.2503296,-41.6640342,179,2055.10907
D1,Abaíra/BA,-13.2503296,-41.6640342,5,57.40528
1,Abdon Batista/SC,-27.612419,-51.022992,181,7103.61068
D1,Abdon Batista/SC,-27.612419,-51.022992,1,39.24647
1,Abel Figueiredo/PA,-4.953001,-48.3958485,513,6852.79188
D1,Abel Figueiredo/PA,-4.953001,-48.3958485,3,40.07481
1,Abelardo Luz/SC,-26.5705893,-52.3280339,784,4365.25612
D1,Abelardo Luz/SC,-26.5705893,-52.3280339,19,105.79065
1,Abre Campo/MG,-20.2976097,-42.4764741,301,2238.91699
D1,Abre Campo/MG,-20.2976097,-42.4764741,4,29.75305
1,Abreu e Lima/PE,-7.900719,-34.898389,1438,1433.04168
D1,Abreu e Lima/PE,-7.900719,-34.898389,150,149.48279
1,Abreulândia/TO,-9.6221526,-49.1558343,128,4934.46415
D1,Abreulândia/TO,-9.6221526,-49.1558343,4,154.20200
1,Acaiaca/MG,-20.3621646,-43.1444162,105,2628.94342
D1,Acaiaca/MG,-20.3621646,-43.1444162,4,100.15023
1,Acajutiba/BA,-11.6609659,-38.0186381,292,1922.69704
D1,Acajutiba/BA,-11.6609659,-38.0186381,7,46.09205
1,Acarape/CE,-4.2237866,-38.7071663,1981,13175.04655
D1,Acarape/CE,-4.2237866,-38.7071663,14,93.10987
1,Acaraú/CE,-2.8869514,-40.1194713,2871,4549.63235
D1,Acaraú/CE,-2.8869514,-40.1194713,58,91.91176
1,Acari/RN,-6.4364689,-36.6394777,396,3560.83086
D1,Acari/RN,-6.4364689,-36.6394777,7,62.94398
1,Acará/PA,-1.961388,-48.1987043,889,1596.93905
D1,Acará/PA,-1.961388,-48.1987043,16,28.74131
1,Acauã/PI,-8.219542,-41.083059,132,1858.63137
D1,Acauã/PI,-8.219542,-41.083059,1,14.08054
1,Aceguá/RS,-31.8695131,-54.1615593,61,1234.31809
1,Acopiara/CE,-6.0936464,-39.4543204,1451,2663.31382
D1,Acopiara/CE,-6.0936464,-39.4543204,65,119.30765
1,Acorizal/MT,-15.2001544,-56.3668953,263,4930.63367
D1,Acorizal/MT,-15.2001544,-56.3668953,7,131.23360
1,Acrelândia/AC,-10.0759167,-67.0526898,687,4435.11943
D1,Acrelândia/AC,-10.0759167,-67.0526898,14,90.38089
1,Acreúna/GO,-17.3959899,-50.3749031,1139,5051.89391
D1,Acreúna/GO,-17.3959899,-50.3749031,28,124.19054
1,Adamantina/SP,-21.6866517,-51.0762975,1100,3132.92131
D1,Adamantina/SP,-21.6866517,-51.0762975,24,68.35465
1,Adelândia/GO,-16.4155077,-50.1665834,92,3656.59777
D1,Adelândia/GO,-16.4155077,-50.1665834,2,79.49126
1,Adolfo/SP,-21.2356597,-49.6441918,216,6077.65898
D1,Adolfo/SP,-21.2356597,-49.6441918,6,168.82386
1,Adrianópolis/PR,-24.6557863,-48.9912769,582,9936.82773
D1,Adrianópolis/PR,-24.6557863,-48.9912769,9,153.66228
1,Adustina/BA,-10.5358875,-38.114479,226,1319.63097
D1,Adustina/BA,-10.5358875,-38.114479,4,23.35630
1,Afogados da Ingazeira/PE,-7.750429,-37.6356375,2030,5427.22703
D1,Afogados da Ingazeira/PE,-7.750429,-37.6356375,27,72.18479
1,Afonso Bezerra/RN,-5.4745,-36.57625071327935,225,2040.07616
D1,Afonso Bezerra/RN,-5.4745,-36.57625071327935,11,99.73706
1,Afonso Cláudio/ES,-20.077841,-41.12606,2132,7000.49253
D1,Afonso Cláudio/ES,-20.077841,-41.12606,34,111.64012
1,Afonso Cunha/MA,-4.1326105,-43.3230026,152,2310.73275
D1,Afonso Cunha/MA,-4.1326105,-43.3230026,2,30.40438
1,Afrânio/PE,-8.5198919,-41.0070197,549,2771.32761
D1,Afrânio/PE,-8.5198919,-41.0070197,9,45.43160
1,Afuá/PA,-0.1535664,-50.3879223,2667,6740.46554
D1,Afuá/PA,-0.1535664,-50.3879223,11,27.80095
1,Agrestina/PE,-8.4558021,-35.9442663,757,3020.14762
D1,Agrestina/PE,-8.4558021,-35.9442663,34,135.64732
1,Agricolândia/PI,-5.7967843,-42.6605131,76,1481.19275
1,Agrolândia/SC,-27.4122212,-49.8295774,511,4639.97094
D1,Agrolândia/SC,-27.4122212,-49.8295774,6,54.48107
1,Agronômica/SC,-27.2660744,-49.7104753,267,4846.61463
D1,Agronômica/SC,-27.2660744,-49.7104753,7,127.06480
1,Aguanil/MG,-20.9424533,-45.3927152,211,4666.07696
D1,Aguanil/MG,-20.9424533,-45.3927152,7,154.79876
1,Aguaí/SP,-22.0592036,-46.979384,922,2515.82624
D1,Aguaí/SP,-22.0592036,-46.979384,21,57.30190
1,Agudo/RS,-29.6423259,-53.2494005,435,2652.27730
D1,Agudo/RS,-29.6423259,-53.2494005,3,18.29157
1,Agudos do Sul/PR,-25.9890808,-49.3328175,264,2787.75079
D1,Agudos do Sul/PR,-25.9890808,-49.3328175,2,21.11932
1,Agudos/SP,-22.471162,-48.987822,1273,3403.65231
D1,Agudos/SP,-22.471162,-48.987822,20,53.47451
1,Aguiar/PB,-7.0928404,-38.1727215,74,1314.38721
D1,Aguiar/PB,-7.0928404,-38.1727215,1,17.76199
1,Aguiarnópolis/TO,-6.5600452,-47.4721189,481,6979.10621
D1,Aguiarnópolis/TO,-6.5600452,-47.4721189,10,145.09576
1,Aimorés/MG,-19.4917754,-41.0615603,1065,4236.10835
D1,Aimorés/MG,-19.4917754,-41.0615603,24,95.46160
1,Aiquara/BA,-14.126918,-39.8887574,354,8016.30435
D1,Aiquara/BA,-14.126918,-39.8887574,6,135.86957
1,Aiuaba/CE,-6.5710836,-40.1212278,112,640.25610
D1,Aiuaba/CE,-6.5710836,-40.1212278,2,11.43314
1,Aiuruoca/MG,-21.9759554,-44.6036637,63,1054.21687
D1,Aiuruoca/MG,-21.9759554,-44.6036637,5,83.66801
1,Ajuricaba/RS,-28.239654,-53.7693013,510,7299.27007
D1,Ajuricaba/RS,-28.239654,-53.7693013,4,57.24918
1,Alagoa Grande/PB,-7.0415212,-35.6285322,1852,6512.18397
D1,Alagoa Grande/PB,-7.0415212,-35.6285322,31,109.00524
1,Alagoa Nova/PB,-7.0653703,-35.76695977336711,511,2442.52187
D1,Alagoa Nova/PB,-7.0653703,-35.76695977336711,11,52.57875
1,Alagoa/MG,-22.1697202,-44.6400042,156,5853.65854
1,Alagoinha do Piauí/PI,-7.0090952,-40.939675,217,2831.05023
D1,Alagoinha do Piauí/PI,-7.0090952,-40.939675,8,104.37052
1,Alagoinha/PB,-6.97063215,-35.51490901897793,1171,8042.58242
D1,Alagoinha/PB,-6.97063215,-35.51490901897793,16,109.89011
1,Alagoinha/PE,-8.50355635,-36.77701174370496,403,2738.14377
D1,Alagoinha/PE,-8.50355635,-36.77701174370496,12,81.53282
1,Alagoinhas/BA,-12.133526,-38.420772,7917,5197.37144
D1,Alagoinhas/BA,-12.133526,-38.420772,111,72.86955
1,Alambari/SP,-23.550338,-47.897971,171,2790.01468
D1,Alambari/SP,-23.550338,-47.897971,5,81.57938
1,Albertina/MG,-20.66164,-43.784039,90,2989.04019
D1,Albertina/MG,-20.66164,-43.784039,5,166.05779
1,Alcantil/PB,-7.7425491,-36.0609604,121,2196.40588
D1,Alcantil/PB,-7.7425491,-36.0609604,1,18.15211
1,Alcinópolis/MS,-18.3264121,-53.7094463,73,1347.60938
D1,Alcinópolis/MS,-18.3264121,-53.7094463,2,36.92080
1,Alcobaça/BA,-17.5215875,-39.1965474,964,4286.34949
D1,Alcobaça/BA,-17.5215875,-39.1965474,16,71.14273
1,Alcântara/MA,-2.4038956,-44.4154241,202,913.53111
D1,Alcântara/MA,-2.4038956,-44.4154241,8,36.17945
1,Alcântaras/CE,-3.586247,-40.5457641,675,5729.56455
D1,Alcântaras/CE,-3.586247,-40.5457641,4,33.95298
1,Aldeias Altas/MA,-4.6291957,-43.4708622,947,3539.26075
D1,Aldeias Altas/MA,-4.6291957,-43.4708622,11,41.11074
1,Alecrim/RS,-27.6566142,-54.7653195,86,1475.88811
D1,Alecrim/RS,-27.6566142,-54.7653195,2,34.32298
1,Alegre/ES,-20.7625787,-41.5318886,1158,3863.21935
D1,Alegre/ES,-20.7625787,-41.5318886,26,86.73895
1,Alegrete do Piauí/PI,-7.2440138,-40.8602296,360,7320.04880
D1,Alegrete do Piauí/PI,-7.2440138,-40.8602296,4,81.33388
1,Alegrete/RS,-29.790166,-55.794862,2737,3747.87753
D1,Alegrete/RS,-29.790166,-55.794862,55,75.31358
1,Alegria/RS,-27.8332103,-54.0574959,196,5809.12863
D1,Alegria/RS,-27.8332103,-54.0574959,1,29.63841
1,Alenquer/PA,-1.946229,-54.738355,1779,3116.02326
D1,Alenquer/PA,-1.946229,-54.738355,30,52.54677
1,Alexandria/RN,-6.414779,-38.0135516,605,4463.95632
D1,Alexandria/RN,-6.414779,-38.0135516,9,66.40596
1,Alexânia/GO,-16.0834049,-48.5077803,1598,5705.10532
D1,Alexânia/GO,-16.0834049,-48.5077803,27,96.39414
1,Alfenas/MG,-21.4297405,-45.9479419,3717,4617.73548
D1,Alfenas/MG,-21.4297405,-45.9479419,79,98.14396
1,Alfredo Chaves/ES,-20.624970400000002,-40.75006690147988,1565,10692.81224
D1,Alfredo Chaves/ES,-20.624970400000002,-40.75006690147988,20,136.64936
1,Alfredo Marcondes/SP,-21.9527,-51.413956,121,2891.96941
D1,Alfredo Marcondes/SP,-21.9527,-51.413956,4,95.60229
1,Alfredo Vasconcelos/MG,-21.145833,-43.776389,130,1862.19739
D1,Alfredo Vasconcelos/MG,-21.145833,-43.776389,4,57.29838
1,Alfredo Wagner/SC,-27.6961513,-49.3326734,539,5344.04125
D1,Alfredo Wagner/SC,-27.6961513,-49.3326734,1,9.91473
1,Algodão de Jandaíra/PB,-6.9040175,-36.0089879,49,1901.43578
1,Alhandra/PB,-7.4304246,-34.9106103,831,4212.50063
D1,Alhandra/PB,-7.4304246,-34.9106103,19,96.31470
1,Aliança do Tocantins/TO,-11.3055927,-48.9409096,262,4900.86046
D1,Aliança do Tocantins/TO,-11.3055927,-48.9409096,5,93.52787
1,Aliança/PE,-7.60398,-35.222696,420,1093.83546
D1,Aliança/PE,-7.60398,-35.222696,30,78.13110
1,Almadina/BA,-14.70466,-39.6381994,435,8106.59709
D1,Almadina/BA,-14.70466,-39.6381994,6,111.81513
1,Almas/TO,-11.5681309,-47.1702803,140,2006.01805
D1,Almas/TO,-11.5681309,-47.1702803,3,42.98610
1,Almeirim/PA,-1.5290377,-52.5788111,2155,6324.09907
D1,Almeirim/PA,-1.5290377,-52.5788111,18,52.82310
1,Almenara/MG,-16.1740678,-40.6904907,1982,4703.03490
D1,Almenara/MG,-16.1740678,-40.6904907,20,47.45747
1,Almino Afonso/RN,-6.1544208,-37.7649018,198,4203.82166
D1,Almino Afonso/RN,-6.1544208,-37.7649018,4,84.92569
1,Almirante Tamandaré do Sul/RS,-28.1141129,-52.9134874,85,4361.21088
1,Almirante Tamandaré/PR,-25.3133048,-49.2997838,4540,3782.04114
D1,Almirante Tamandaré/PR,-25.3133048,-49.2997838,122,101.63194
1,Aloândia/GO,-17.7277983,-49.4809338,160,8056.39476
D1,Aloândia/GO,-17.7277983,-49.4809338,5,251.76234
1,Alpercata/MG,-18.9803616,-41.9827637,315,4236.14847
D1,Alpercata/MG,-18.9803616,-41.9827637,12,161.37708
1,Alpestre/RS,-27.2512339,-53.0349646,144,2373.49596
D1,Alpestre/RS,-27.2512339,-53.0349646,3,49.44783
1,Alpinópolis/MG,-20.863611,-46.387777,195,977.05181
D1,Alpinópolis/MG,-20.863611,-46.387777,5,25.05261
1,Alta Floresta D'Oeste/RO,-11.9296917,-61.9961284,2208,9714.88912
D1,Alta Floresta D'Oeste/RO,-11.9296917,-61.9961284,26,114.39634
1,Alta Floresta/MT,-9.8715018,-56.0839881,3673,7069.03520
D1,Alta Floresta/MT,-9.8715018,-56.0839881,39,75.05918
1,Altair/SP,-20.5238955,-49.0606135,57,1361.68180
D1,Altair/SP,-20.5238955,-49.0606135,4,95.55662
1,Altamira do Maranhão/MA,-4.1643006,-45.4674574,275,3358.16339
D1,Altamira do Maranhão/MA,-4.1643006,-45.4674574,7,85.48052
1,Altamira do Paraná/PR,-24.799114,-52.7128633,40,2378.12128
D1,Altamira do Paraná/PR,-24.799114,-52.7128633,2,118.90606
1,Altamira/PA,-3.204065,-52.209961,7288,6284.43808
D1,Altamira/PA,-3.204065,-52.209961,145,125.03341
1,Altaneira/CE,-6.9980933,-39.7385742,243,3176.47059
D1,Altaneira/CE,-6.9980933,-39.7385742,6,78.43137
1,Alterosa/MG,-21.249166,-46.143055,424,2920.71365
D1,Alterosa/MG,-21.249166,-46.143055,13,89.55018
1,Altinho/PE,-8.4904095,-36.0607494,665,2893.31709
D1,Altinho/PE,-8.4904095,-36.0607494,12,52.21023
1,Altinópolis/SP,-21.021364,-47.3712,410,2530.39561
D1,Altinópolis/SP,-21.021364,-47.3712,10,61.71697
1,Alto Alegre do Maranhão/MA,-4.2055693,-44.4525287,411,1475.33922
D1,Alto Alegre do Maranhão/MA,-4.2055693,-44.4525287,18,64.61340
1,Alto Alegre do Pindaré/MA,-3.6698186,-45.8462153,1621,5074.66425
D1,Alto Alegre do Pindaré/MA,-3.6698186,-45.8462153,25,78.26441
1,Alto Alegre dos Parecis/RO,-12.1314515,-61.856265,535,4036.21275
D1,Alto Alegre dos Parecis/RO,-12.1314515,-61.856265,14,105.62052
1,Alto Alegre/RR,2.98858,-61.307167,919,5975.29259
D1,Alto Alegre/RR,2.98858,-61.307167,21,136.54096
1,Alto Alegre/RS,-31.780844700000003,-52.81311114489171,32,1983.88097
1,Alto Alegre/SP,-21.5820592,-50.1661976,142,3473.58121
D1,Alto Alegre/SP,-21.5820592,-50.1661976,4,97.84736
1,Alto Araguaia/MT,-17.3156528,-53.2169365,558,2878.51432
D1,Alto Araguaia/MT,-17.3156528,-53.2169365,9,46.42765
1,Alto Bela Vista/SC,-27.4320737,-51.905771,58,3011.42264
D1,Alto Bela Vista/SC,-27.4320737,-51.905771,1,51.92108
1,Alto Boa Vista/MT,-11.6723985,-51.3744431,141,2032.87197
D1,Alto Boa Vista/MT,-11.6723985,-51.3744431,3,43.25260
1,Alto Caparaó/MG,-20.4405661,-41.8683799,245,4156.76960
D1,Alto Caparaó/MG,-20.4405661,-41.8683799,5,84.83203
1,Alto Feliz/RS,-29.3785943,-51.3123751,93,3063.24111
1,Alto Garças/MT,-16.9469683,-53.529427,344,2831.04271
D1,Alto Garças/MT,-16.9469683,-53.529427,16,131.67641
1,Alto Horizonte/GO,-14.1954948,-49.3366993,250,3785.01136
D1,Alto Horizonte/GO,-14.1954948,-49.3366993,3,45.42014
1,Alto Jequitibá/MG,-20.423611,-41.966111,380,4577.76172
D1,Alto Jequitibá/MG,-20.423611,-41.966111,8,96.37393
1,Alto Longá/PI,-5.2549051,-42.2072388,312,2175.88395
D1,Alto Longá/PI,-5.2549051,-42.2072388,6,41.84392
1,Alto Paraguai/MT,-14.513712,-56.4936374,365,3181.38238
D1,Alto Paraguai/MT,-14.513712,-56.4936374,11,95.87728
1,Alto Paraná/PR,-23.131247,-52.318893,395,2658.32156
D1,Alto Paraná/PR,-23.131247,-52.318893,4,26.91971
1,Alto Paraíso de Goiás/GO,-14.1304779,-47.5100161,414,5385.01561
1,Alto Paraíso/PR,-23.508137,-53.728537,58,2160.14898
1,Alto Paraíso/RO,-9.7240103,-63.3188123,674,3085.09177
D1,Alto Paraíso/RO,-9.7240103,-63.3188123,10,45.77287
1,Alto Parnaíba/MA,-9.112506,-45.9310154,578,5155.19087
D1,Alto Parnaíba/MA,-9.112506,-45.9310154,5,44.59508
1,Alto Piquiri/PR,-24.0239021,-53.4417448,313,3201.06361
D1,Alto Piquiri/PR,-24.0239021,-53.4417448,6,61.36224
1,Alto Rio Doce/MG,-21.0239537,-43.4133507,175,1611.56644
D1,Alto Rio Doce/MG,-21.0239537,-43.4133507,13,119.71636
1,Alto Rio Novo/ES,-19.0577208,-41.0171518,455,5778.51156
D1,Alto Rio Novo/ES,-19.0577208,-41.0171518,15,190.50038
1,Alto Santo/CE,-5.5190371,-38.2719351,584,3396.13864
D1,Alto Santo/CE,-5.5190371,-38.2719351,14,81.41428
1,Alto Taquari/MT,-17.8269099,-53.2831736,651,5847.48046
D1,Alto Taquari/MT,-17.8269099,-53.2831736,10,89.82305
1,Alto do Rodrigues/RN,-5.290868,-36.7616726,814,5526.88756
D1,Alto do Rodrigues/RN,-5.290868,-36.7616726,19,129.00598
1,Altos/PI,-5.0393915,-42.4611694,2403,5917.99040
D1,Altos/PI,-5.0393915,-42.4611694,34,83.73353
1,Altônia/PR,-23.8722004,-53.894037,526,2371.93362
D1,Altônia/PR,-23.8722004,-53.894037,5,22.54690
1,Alumínio/SP,-23.5203479,-47.2575256,573,3053.23174
D1,Alumínio/SP,-23.5203479,-47.2575256,19,101.24154
1,Alvarenga/MG,-19.4175,-41.728334,274,7127.99168
D1,Alvarenga/MG,-19.4175,-41.728334,3,78.04370
1,Alvarães/AM,-3.214786,-64.8143124,2061,12706.53514
D1,Alvarães/AM,-3.214786,-64.8143124,30,184.95684
1,Alvinlândia/SP,-22.4431852,-49.7643596,55,1699.10411
1,Alvinópolis/MG,-20.1105199,-43.0601805,278,1832.68508
D1,Alvinópolis/MG,-20.1105199,-43.0601805,3,19.77718
1,Alvorada D'Oeste/RO,-11.346271,-62.284697,433,3069.61577
D1,Alvorada D'Oeste/RO,-11.346271,-62.284697,8,56.71346
1,Alvorada de Minas/MG,-18.7318587,-43.3641479,118,3273.23162
D1,Alvorada de Minas/MG,-18.7318587,-43.3641479,1,27.73925
1,Alvorada do Gurguéia/PI,-8.4465288,-43.8655915,141,2589.53168
D1,Alvorada do Gurguéia/PI,-8.4465288,-43.8655915,5,91.82736
1,Alvorada do Norte/GO,-14.483911,-46.4959897,387,4445.72085
D1,Alvorada do Norte/GO,-14.483911,-46.4959897,1,11.48765
1,Alvorada do Sul/PR,-22.7807269,-51.2307721,306,2660.17561
D1,Alvorada do Sul/PR,-22.7807269,-51.2307721,8,69.54707
1,Alvorada/RS,-29.9981184,-51.0772509,10402,4921.64730
D1,Alvorada/RS,-29.9981184,-51.0772509,279,132.00727
1,Alvorada/TO,-12.478465,-49.124926,650,7741.78180
D1,Alvorada/TO,-12.478465,-49.124926,11,131.01477
1,Além Paraíba/MG,-21.8760576,-42.6810473,1389,3923.61798
D1,Além Paraíba/MG,-21.8760576,-42.6810473,42,118.64072
1,Amajari/RR,3.6523869,-61.4194315,649,4922.26014
D1,Amajari/RR,3.6523869,-61.4194315,16,121.35002
1,Amambai/MS,-23.1082701,-55.2284854,1646,4132.97846
D1,Amambai/MS,-23.1082701,-55.2284854,32,80.34952
1,Amaporã/PR,-23.094272,-52.786597,70,1105.49589
1,Amapá do Maranhão/MA,-1.6762114,-46.0109669,39,556.74518
1,Amapá/AP,2.0529997,-50.7930003,1067,11614.23751
D1,Amapá/AP,2.0529997,-50.7930003,7,76.19462
1,Amaraji/PE,-8.373925,-35.4536527,384,1679.05553
D1,Amaraji/PE,-8.373925,-35.4536527,24,104.94097
1,Amaral Ferrador/RS,-30.8750633,-52.2542051,152,2145.37756
D1,Amaral Ferrador/RS,-30.8750633,-52.2542051,2,28.22865
1,Amaralina/GO,-13.9236199,-49.2962411,18,468.14044
1,Amarante do Maranhão/MA,-5.56913,-46.747284,1174,2813.39117
D1,Amarante do Maranhão/MA,-5.56913,-46.747284,31,74.28886
1,Amarante/PI,-6.2459374,-42.8476238,866,4919.33651
D1,Amarante/PI,-6.2459374,-42.8476238,16,90.88843
1,Amargosa/BA,-13.03793715,-39.60796443875596,1130,3018.08178
D1,Amargosa/BA,-13.03793715,-39.60796443875596,19,50.74651
1,Amaturá/AM,-3.3640509,-68.1994689,1435,12227.33470
D1,Amaturá/AM,-3.3640509,-68.1994689,12,102.24949
1,Americana/SP,-22.7392463,-47.3306032,9655,3989.37269
D1,Americana/SP,-22.7392463,-47.3306032,252,104.12449
1,Americano do Brasil/GO,-16.2515808,-49.9806104,182,2952.62816
D1,Americano do Brasil/GO,-16.2515808,-49.9806104,4,64.89293
1,Ametista do Sul/RS,-27.3617341,-53.1826575,212,2863.70390
D1,Ametista do Sul/RS,-27.3617341,-53.1826575,2,27.01607
1,Amontada/CE,-3.3634586,-39.8284791,1118,2550.82251
D1,Amontada/CE,-3.3634586,-39.8284791,21,47.91348
1,Amorinópolis/GO,-16.6211308,-51.0949921,98,3193.22255
D1,Amorinópolis/GO,-16.6211308,-51.0949921,1,32.58390
1,Amparo de São Francisco/SE,-10.1299754,-36.9269099,76,3193.27731
D1,Amparo de São Francisco/SE,-10.1299754,-36.9269099,2,84.03361
1,Amparo do Serra/MG,-20.5070255,-42.8028462,72,1539.11928
D1,Amparo do Serra/MG,-20.5070255,-42.8028462,3,64.12997
1,Amparo/PB,-7.56394725,-37.04652873235175,50,2221.23501
D1,Amparo/PB,-7.56394725,-37.04652873235175,1,44.42470
1,Amparo/SP,-22.70111,-46.76444,2560,3522.43488
D1,Amparo/SP,-22.70111,-46.76444,41,56.41400
1,Ampére/PR,-25.9168712,-53.4742414,529,2739.37134
D1,Ampére/PR,-25.9168712,-53.4742414,12,62.14075
1,Amélia Rodrigues/BA,-12.4015388,-38.7516971,1024,4088.15075
D1,Amélia Rodrigues/BA,-12.4015388,-38.7516971,18,71.86202
1,América Dourada/BA,-11.4515262,-41.4357517,405,2517.09136
D1,América Dourada/BA,-11.4515262,-41.4357517,2,12.43008
1,Américo Brasiliense/SP,-21.7297099,-48.1052092,1565,3814.09632
D1,Américo Brasiliense/SP,-21.7297099,-48.1052092,27,65.80230
1,Américo de Campos/SP,-20.298476,-49.735904,411,6871.76058
D1,Américo de Campos/SP,-20.298476,-49.735904,13,217.35496
1,Anadia/AL,-9.6830208,-36.3052699,648,3697.36392
D1,Anadia/AL,-9.6830208,-36.3052699,11,62.76389
1,Anagé/BA,-14.6134669,-41.1376308,410,1897.53321
D1,Anagé/BA,-14.6134669,-41.1376308,8,37.02504
1,Anahy/PR,-24.6450861,-53.1337957,79,2833.57245
D1,Anahy/PR,-24.6450861,-53.1337957,2,71.73601
1,Anajatuba/MA,-3.26441,-44.6179916,384,1422.85460
D1,Anajatuba/MA,-3.26441,-44.6179916,13,48.16956
1,Anajás/PA,-0.9878802,-49.9390114,1028,3462.67852
D1,Anajás/PA,-0.9878802,-49.9390114,11,37.05201
1,Analândia/SP,-22.128917,-47.661939,172,3401.89873
D1,Analândia/SP,-22.128917,-47.661939,3,59.33544
1,Anamã/AM,-3.5797356,-61.4049996,1441,10325.30811
D1,Anamã/AM,-3.5797356,-61.4049996,3,21.49613
1,Ananindeua/PA,-1.374035,-48.4016623,12851,2399.60265
D1,Ananindeua/PA,-1.374035,-48.4016623,407,75.99706
1,Ananás/TO,-6.3663053,-48.080238,859,9049.72609
D1,Ananás/TO,-6.3663053,-48.080238,17,179.09819
1,Anapu/PA,-3.4668292,-51.2057035,1139,3981.54298
D1,Anapu/PA,-3.4668292,-51.2057035,23,80.39990
1,Anapurus/MA,-3.6751298,-43.1046001,824,5184.34629
D1,Anapurus/MA,-3.6751298,-43.1046001,7,44.04178
1,Anastácio/MS,-20.4832458,-55.8048448,1410,5587.03491
D1,Anastácio/MS,-20.4832458,-55.8048448,42,166.42232
1,Anaurilândia/MS,-22.185169,-52.719056,136,1498.45747
D1,Anaurilândia/MS,-22.185169,-52.719056,5,55.09035
1,Anchieta/ES,-20.8057672,-40.6454564,2419,8123.17405
D1,Anchieta/ES,-20.8057672,-40.6454564,41,137.68092
1,Anchieta/SC,-26.5350527,-53.3293938,204,3671.04553
D1,Anchieta/SC,-26.5350527,-53.3293938,4,71.98128
1,Andaraí/BA,-12.8059674,-41.3322919,510,3883.64301
D1,Andaraí/BA,-12.8059674,-41.3322919,3,22.84496
1,Andirá/PR,-23.0494761,-50.2310027,908,4556.86038
D1,Andirá/PR,-23.0494761,-50.2310027,10,50.18569
1,Andorinha/BA,-10.3445708,-39.8334411,466,3213.12832
D1,Andorinha/BA,-10.3445708,-39.8334411,7,48.26588
1,Andradas/MG,-22.0680484,-46.5688976,1046,2526.81418
D1,Andradas/MG,-22.0680484,-46.5688976,24,57.97662
1,Andradina/SP,-20.896505,-51.3742765,2740,4790.04231
D1,Andradina/SP,-20.896505,-51.3742765,101,176.56725
1,Andrelândia/MG,-21.739722,-44.308889,176,1441.91381
D1,Andrelândia/MG,-21.739722,-44.308889,2,16.38538
1,André da Rocha/RS,-28.6309124,-51.5733328,55,4095.30901
1,Angatuba/SP,-23.4938938,-48.4110675,547,2146.86605
D1,Angatuba/SP,-23.4938938,-48.4110675,18,70.64641
1,Angelim/PE,-8.8902038,-36.2872987,104,926.42081
D1,Angelim/PE,-8.8902038,-36.2872987,4,35.63157
1,Angelina/SC,-27.5805287,-48.9838759,258,5439.59519
1,Angelândia/MG,-17.7253,-42.2728,44,514.19890
1,Angical do Piauí/PI,-6.0872666,-42.7366138,249,3670.94206
D1,Angical do Piauí/PI,-6.0872666,-42.7366138,6,88.45644
1,Angical/BA,-12.005623,-44.7000236,310,2224.13546
D1,Angical/BA,-12.005623,-44.7000236,5,35.87315
1,Angico/TO,-6.3893733,-47.8656722,174,5037.63752
D1,Angico/TO,-6.3893733,-47.8656722,3,86.85582
1,Angicos/RN,-5.6666344,-36.6009064,209,1785.56173
D1,Angicos/RN,-5.6666344,-36.6009064,6,51.26015
1,Angra dos Reis/RJ,-23.0063966,-44.316326,10479,5061.24302
D1,Angra dos Reis/RJ,-23.0063966,-44.316326,328,158.42043
1,Anguera/BA,-12.1509425,-39.2452469,186,1646.45481
1,Angélica/MS,-22.1588196,-53.7728504,354,3238.19978
D1,Angélica/MS,-22.1588196,-53.7728504,7,64.03220
1,Anhanguera/GO,-18.3338749,-48.220363,41,3534.48276
D1,Anhanguera/GO,-18.3338749,-48.220363,4,344.82759
1,Anhembi/SP,-22.7891096,-48.1316776,61,894.55932
D1,Anhembi/SP,-22.7891096,-48.1316776,2,29.32981
1,Anhumas/SP,-22.2956478,-51.3873401,145,3499.03475
D1,Anhumas/SP,-22.2956478,-51.3873401,1,24.13127
1,Anicuns/GO,-16.4606451,-49.9572265,1191,5418.31582
D1,Anicuns/GO,-16.4606451,-49.9572265,21,95.53705
1,Anita Garibaldi/SC,-27.6855032,-51.1293873,612,8796.89521
D1,Anita Garibaldi/SC,-27.6855032,-51.1293873,3,43.12204
1,Anitápolis/SC,-27.9041185,-49.1287395,191,5916.97646
1,Anori/AM,-3.7435254,-61.6605203,1599,7445.17391
D1,Anori/AM,-3.7435254,-61.6605203,23,107.09131
1,Anta Gorda/RS,-28.9718745,-52.0069187,367,6156.68512
D1,Anta Gorda/RS,-28.9718745,-52.0069187,1,16.77571
1,Antas/BA,-10.4114649,-38.3308815,689,3537.14256
1,Antonina do Norte/CE,-6.7754187,-39.9879345,98,1328.27324
D1,Antonina do Norte/CE,-6.7754187,-39.9879345,5,67.76904
1,Antonina/PR,-25.4298854,-48.7125431,1444,7620.45491
D1,Antonina/PR,-25.4298854,-48.7125431,36,189.98364
1,Antônio Almeida/PI,-7.2186016,-44.1950248,271,8548.89590
D1,Antônio Almeida/PI,-7.2186016,-44.1950248,5,157.72871
1,Antônio Cardoso/BA,-12.4363122,-39.1200307,182,1558.61951
D1,Antônio Cardoso/BA,-12.4363122,-39.1200307,4,34.25537
1,Antônio Carlos/MG,-21.318334,-43.746666,298,2600.57597
D1,Antônio Carlos/MG,-21.318334,-43.746666,4,34.90706
1,Antônio Carlos/SC,-27.5168462,-48.7684715,880,10217.11367
D1,Antônio Carlos/SC,-27.5168462,-48.7684715,14,162.54499
1,Antônio Dias/MG,-19.6525,-42.872778,203,2188.67925
D1,Antônio Dias/MG,-19.6525,-42.872778,6,64.69003
1,Antônio Gonçalves/BA,-10.5715409,-40.2748824,446,3754.84088
D1,Antônio Gonçalves/BA,-10.5715409,-40.2748824,3,25.25678
1,Antônio João/MS,-22.1892837,-55.9508227,186,2062.08426
D1,Antônio João/MS,-22.1892837,-55.9508227,4,44.34590
1,Antônio Martins/RN,-6.2155812,-37.8890129,145,2026.83813
D1,Antônio Martins/RN,-6.2155812,-37.8890129,2,27.95639
1,Antônio Olinto/PR,-25.9849006,-50.1974516,150,2019.65800
D1,Antônio Olinto/PR,-25.9849006,-50.1974516,1,13.46439
1,Antônio Prado de Minas/MG,-21.0171988,-42.1101106,134,8443.60428
D1,Antônio Prado de Minas/MG,-21.0171988,-42.1101106,3,189.03592
1,Antônio Prado/RS,-28.8567806,-51.2801355,1113,8532.00460
D1,Antônio Prado/RS,-28.8567806,-51.2801355,12,91.98927
1,Anápolis/GO,-16.3332828,-48.9525756,19031,4857.67232
D1,Anápolis/GO,-16.3332828,-48.9525756,455,116.13898
1,Anísio de Abreu/PI,-9.185643,-43.04941,217,2183.53794
D1,Anísio de Abreu/PI,-9.185643,-43.04941,2,20.12477
1,Aparecida d'Oeste/SP,-20.4498109,-50.8808706,412,9908.60991
D1,Aparecida d'Oeste/SP,-20.4498109,-50.8808706,10,240.50024
1,Aparecida de Goiânia/GO,-16.8226769,-49.2452546,43183,7317.34181
D1,Aparecida de Goiânia/GO,-16.8226769,-49.2452546,642,108.78664
1,Aparecida do Rio Doce/GO,-18.2980167,-51.1491312,121,4890.86500
D1,Aparecida do Rio Doce/GO,-18.2980167,-51.1491312,2,80.84074
1,Aparecida do Rio Negro/TO,-9.9513491,-47.9773786,139,2867.16172
D1,Aparecida do Rio Negro/TO,-9.9513491,-47.9773786,3,61.88119
1,Aparecida do Taboado/MS,-20.0840304,-51.1013943,1341,5144.04081
D1,Aparecida do Taboado/MS,-20.0840304,-51.1013943,23,88.22740
1,Aparecida/PB,-6.7859598, -38.0831353,582,6915.39924
D1,Aparecida/PB,-6.7859598, -38.0831353,8,95.05703
1,Aparecida/SP,-22.851552,-45.2340924,1114,3078.62374
D1,Aparecida/SP,-22.851552,-45.2340924,27,74.61655
1,Aperibé/RJ,-21.6211928,-42.1028167,283,2377.95143
D1,Aperibé/RJ,-21.6211928,-42.1028167,10,84.02655
1,Apiacá/ES,-21.152272,-41.569297,433,5732.06248
D1,Apiacá/ES,-21.152272,-41.569297,11,145.61822
1,Apiacás/MT,-9.5678422,-57.394852,372,3617.62132
D1,Apiacás/MT,-9.5678422,-57.394852,1,9.72479
1,Apiaí/SP,-24.5076527,-48.8461582,474,1956.57558
D1,Apiaí/SP,-24.5076527,-48.8461582,16,66.04475
1,Apicum-Açu/MA,-1.5279295,-45.082278,203,1165.79567
D1,Apicum-Açu/MA,-1.5279295,-45.082278,3,17.22851
1,Apiúna/SC,-27.0374658,-49.3885037,481,4433.99705
D1,Apiúna/SC,-27.0374658,-49.3885037,11,101.40118
1,Apodi/RN,-5.6631109,-37.796927,3792,10570.32949
D1,Apodi/RN,-5.6631109,-37.796927,49,136.58917
1,Aporá/BA,-11.6599747,-38.0794757,323,1815.83090
D1,Aporá/BA,-11.6599747,-38.0794757,8,44.97414
1,Aporé/GO,-18.9642193,-51.92804,181,4276.93762
D1,Aporé/GO,-18.9642193,-51.92804,4,94.51796
1,Apuarema/BA,-13.8517897,-39.7457126,505,6915.91345
D1,Apuarema/BA,-13.8517897,-39.7457126,7,95.86415
1,Apucarana/PR,-23.5525327,-51.4610764,3694,2711.51108
D1,Apucarana/PR,-23.5525327,-51.4610764,121,88.81777
1,Apuiarés/CE,-3.9460303,-39.4313298,283,1928.84406
D1,Apuiarés/CE,-3.9460303,-39.4313298,12,81.78844
1,Apuí/AM,-7.1940195,-59.8830192,780,3488.52811
D1,Apuí/AM,-7.1940195,-59.8830192,15,67.08708
1,Aquidabã/SE,-10.2837579,-37.0188687,1232,5682.39472
D1,Aquidabã/SE,-10.2837579,-37.0188687,20,92.24667
1,Aquidauana/MS,-20.473969,-55.7821375,3171,6602.26113
D1,Aquidauana/MS,-20.473969,-55.7821375,83,172.81226
1,Aquiraz/CE,-3.9063117,-38.387504,1593,1968.24612
D1,Aquiraz/CE,-3.9063117,-38.387504,40,49.42238
1,Arabutã/SC,-27.1587028,-52.1438142,183,4288.72744
D1,Arabutã/SC,-27.1587028,-52.1438142,2,46.87134
1,Aracaju/SE,-10.9162061,-37.0774655,70271,10568.52978
D1,Aracaju/SE,-10.9162061,-37.0774655,1019,153.25428
1,Aracati/CE,-4.558259,-37.767894,2771,3695.89863
D1,Aracati/CE,-4.558259,-37.767894,66,88.02934
1,Aracatu/BA,-14.4274236,-41.4604105,475,3641.24186
D1,Aracatu/BA,-14.4274236,-41.4604105,7,53.66041
1,Araci/BA,-11.3356065,-38.9573261,2011,3679.91509
D1,Araci/BA,-11.3356065,-38.9573261,20,36.59786
1,Aracitaba/MG,-21.3425,-43.378611,68,3302.57407
D1,Aracitaba/MG,-21.3425,-43.378611,5,242.83633
1,Aracoiaba/CE,-4.3702577,-38.8084313,960,3617.86320
D1,Aracoiaba/CE,-4.3702577,-38.8084313,17,64.06633
1,Aracruz/ES,-19.8245218,-40.2735025,9786,9491.66351
D1,Aracruz/ES,-19.8245218,-40.2735025,126,122.21026
1,Aragarças/GO,-15.8957166,-52.2514538,1291,6368.07577
D1,Aragarças/GO,-15.8957166,-52.2514538,25,123.31673
1,Aragoiânia/GO,-16.9146388,-49.4499148,496,4725.60976
D1,Aragoiânia/GO,-16.9146388,-49.4499148,6,57.16463
1,Aragominas/TO,-7.1654101,-48.525488,376,6560.80963
D1,Aragominas/TO,-7.1654101,-48.525488,7,122.14273
1,Araguacema/TO,-8.8067391,-49.5560969,123,1719.07757
D1,Araguacema/TO,-8.8067391,-49.5560969,1,13.97624
1,Araguaiana/MT,-15.729144,-51.834112,75,2412.35124
D1,Araguaiana/MT,-15.729144,-51.834112,1,32.16468
1,Araguainha/MT,-16.857016,-53.031778,15,1585.62368
1,Araguanã/MA,-2.9508403,-45.6651986,573,3684.65050
D1,Araguanã/MA,-2.9508403,-45.6651986,4,25.72182
1,Araguanã/TO,-6.5799107,-48.6428482,188,3245.29605
D1,Araguanã/TO,-6.5799107,-48.6428482,11,189.88434
1,Araguapaz/GO,-15.0937927,-50.626417,207,2659.64281
D1,Araguapaz/GO,-15.0937927,-50.626417,7,89.93961
1,Araguari/MG,-18.6511256,-48.1933764,7031,5967.32442
D1,Araguari/MG,-18.6511256,-48.1933764,151,128.15616
1,Araguatins/TO,-5.6522925,-48.1158973,1227,3392.31407
D1,Araguatins/TO,-5.6522925,-48.1158973,32,88.47111
1,Araguaçu/TO,-12.928934,-49.823134,630,7440.65194
D1,Araguaçu/TO,-12.928934,-49.823134,12,141.72670
1,Araguaína/TO,-7.193241,-48.2018597,19904,10853.90526
D1,Araguaína/TO,-7.193241,-48.2018597,256,139.60007
1,Araioses/MA,-2.890914,-41.904993,589,1259.32736
D1,Araioses/MA,-2.890914,-41.904993,10,21.38077
1,Aral Moreira/MS,-22.951141,-55.6268421,277,2246.18878
D1,Aral Moreira/MS,-22.951141,-55.6268421,7,56.76289
1,Aramari/BA,-12.0907897,-38.4985065,304,2652.47361
D1,Aramari/BA,-12.0907897,-38.4985065,7,61.07669
1,Arambaré/RS,-30.9132252,-51.4994625,59,1656.37282
D1,Arambaré/RS,-30.9132252,-51.4994625,2,56.14823
1,Arame/MA,-4.8858769,-46.0102484,958,2923.94091
D1,Arame/MA,-4.8858769,-46.0102484,22,67.14687
1,Aramina/SP,-20.0876144,-47.789201,150,2652.51989
D1,Aramina/SP,-20.0876144,-47.789201,6,106.10080
1,Arandu/SP,-23.1345103,-49.0545651,113,1775.33386
D1,Arandu/SP,-23.1345103,-49.0545651,7,109.97643
1,Arantina/MG,-21.911667,-44.255833,47,1686.40115
D1,Arantina/MG,-21.911667,-44.255833,2,71.76175
1,Arapeí/SP,-22.6738889,-44.4477778,99,4024.39024
D1,Arapeí/SP,-22.6738889,-44.4477778,1,40.65041
1,Arapiraca/AL,-9.754866,-36.661471,15382,6600.38533
D1,Arapiraca/AL,-9.754866,-36.661471,203,87.10689
1,Arapoema/TO,-7.6575001,-49.0641484,216,3264.81258
D1,Arapoema/TO,-7.6575001,-49.0641484,4,60.45949
1,Araponga/MG,-20.666667,-42.520556,227,2685.43712
D1,Araponga/MG,-20.666667,-42.520556,1,11.83012
1,Arapongas/PR,-23.415296,-51.42592,6196,4964.34581
D1,Arapongas/PR,-23.415296,-51.42592,180,144.21921
1,Araporã/MG,-18.4318188,-49.188313,1097,15827.44193
D1,Araporã/MG,-18.4318188,-49.188313,10,144.27932
1,Arapoti/PR,-24.1457957,-49.8224605,1301,4597.17314
D1,Arapoti/PR,-24.1457957,-49.8224605,10,35.33569
1,Araputanga/MT,-15.4710868,-58.346796,985,5810.86662
D1,Araputanga/MT,-15.4710868,-58.346796,18,106.18843
1,Arapuá/MG,-19.034444,-46.155556,69,2433.86243
1,Arapuã/PR,-24.3079525,-51.7901941,105,3489.53141
D1,Arapuã/PR,-24.3079525,-51.7901941,2,66.46726
1,Araquari/SC,-26.3703324,-48.7210994,1771,4480.82178
D1,Araquari/SC,-26.3703324,-48.7210994,26,65.78282
1,Arara/PB,-6.8271895,-35.7605703,314,2318.71215
D1,Arara/PB,-6.8271895,-35.7605703,9,66.45990
1,Araranguá/SC,-28.9348832,-49.4858389,6113,8876.53012
D1,Araranguá/SC,-28.9348832,-49.4858389,98,142.30328
1,Araraquara/SP,-21.7886713,-48.1773096,9175,3849.55882
D1,Araraquara/SP,-21.7886713,-48.1773096,118,49.50931
1,Araras/SP,-22.3569477,-47.3838889,7388,5452.15710
D1,Araras/SP,-22.3569477,-47.3838889,122,90.03291
1,Ararendá/CE,-4.7504395,-40.8303611,453,4133.58883
D1,Ararendá/CE,-4.7504395,-40.8303611,9,82.12428
1,Arari/MA,-3.4547602,-44.7772723,374,1249.49886
D1,Arari/MA,-3.4547602,-44.7772723,11,36.74997
1,Araricá/RS,-29.6168543,-50.929121,455,7884.24883
D1,Araricá/RS,-29.6168543,-50.929121,10,173.28019
1,Araripe/CE,-7.212861,-40.1359222,433,1999.63055
D1,Araripe/CE,-7.212861,-40.1359222,5,23.09042
1,Araripina/PE,-7.5768582,-40.5038509,3841,4526.06523
D1,Araripina/PE,-7.5768582,-40.5038509,61,71.87971
1,Araruama/RJ,-22.8733203,-42.3428897,2947,2194.45541
D1,Araruama/RJ,-22.8733203,-42.3428897,103,76.69797
1,Araruna/PB,-6.5321155,-35.7397595,519,2536.28500
D1,Araruna/PB,-6.5321155,-35.7397595,15,73.30303
1,Araruna/PR,-23.9320308,-52.4976047,628,4485.71429
D1,Araruna/PR,-23.9320308,-52.4976047,12,85.71429
1,Arataca/BA,-15.2617424,-39.4122943,322,2937.68817
D1,Arataca/BA,-15.2617424,-39.4122943,10,91.23255
1,Aratiba/RS,-27.3955734,-52.3024325,232,3748.58620
D1,Aratiba/RS,-27.3955734,-52.3024325,4,64.63080
1,Aratuba/CE,-4.4195958,-39.0463737,286,2423.31808
D1,Aratuba/CE,-4.4195958,-39.0463737,2,16.94628
1,Aratuípe/BA,-13.077137,-39.0010786,214,2421.63630
D1,Aratuípe/BA,-13.077137,-39.0010786,6,67.89634
1,Araucária/PR,-25.5861107,-49.4051209,12381,8467.72539
D1,Araucária/PR,-25.5861107,-49.4051209,152,103.95721
1,Arauá/SE,-11.2644014,-37.6181058,541,5438.82578
D1,Arauá/SE,-11.2644014,-37.6181058,12,120.63939
1,Araxá/MG,-19.5928536,-46.940241,4547,4236.19069
D1,Araxá/MG,-19.5928536,-46.940241,51,47.51390
1,Araçagi/PB,-6.8519969,-35.3835602,674,3983.21612
D1,Araçagi/PB,-6.8519969,-35.3835602,7,41.36871
1,Araçariguama/SP,-23.438611,-47.061389,680,2974.62817
D1,Araçariguama/SP,-23.438611,-47.061389,17,74.36570
1,Araçatuba/SP,-21.207992,-50.4390225,13060,6591.66503
D1,Araçatuba/SP,-21.207992,-50.4390225,256,129.20875
1,Araçaí/MG,-19.200833,-44.2475,22,934.57944
1,Araçoiaba da Serra/SP,-23.5045367,-47.6168158,1234,3548.42420
D1,Araçoiaba da Serra/SP,-23.5045367,-47.6168158,24,69.01311
1,Araçoiaba/PE,-7.7856903,-35.0898881,230,1109.34259
D1,Araçoiaba/PE,-7.7856903,-35.0898881,20,96.46457
1,Araçu/GO,-16.3561579,-49.6815269,164,4704.53242
D1,Araçu/GO,-16.3561579,-49.6815269,4,114.74469
1,Araçuaí/MG,-16.8484451,-42.0661868,506,1378.29593
D1,Araçuaí/MG,-16.8484451,-42.0661868,14,38.13467
1,Araçás/BA,-12.2139176,-38.2026159,459,3759.82962
D1,Araçás/BA,-12.2139176,-38.2026159,7,57.33945
1,Araújos/MG,-19.948055,-45.165556,318,3382.61887
D1,Araújos/MG,-19.948055,-45.165556,1,10.63717
1,Arceburgo/MG,-21.364444,-46.939722,337,3096.57264
D1,Arceburgo/MG,-21.364444,-46.939722,5,45.94321
1,Arco-Íris/SP,-21.7741308,-50.4668814,49,2763.67738
D1,Arco-Íris/SP,-21.7741308,-50.4668814,4,225.60632
1,Arcos/MG,-20.282223,-45.539444,1699,4207.52848
D1,Arcos/MG,-20.282223,-45.539444,18,44.57652
1,Arcoverde/PE,-8.415192,-37.057748,3706,4953.08866
D1,Arcoverde/PE,-8.415192,-37.057748,80,106.92042
1,Areado/MG,-21.3582771,-46.1476688,347,2285.75193
D1,Areado/MG,-21.3582771,-46.1476688,7,46.11027
1,Areal/RJ,-22.2314922,-43.1056264,375,2959.98106
D1,Areal/RJ,-22.2314922,-43.1056264,14,110.50596
1,Arealva/SP,-22.0301906,-48.9111936,332,3854.63834
D1,Arealva/SP,-22.0301906,-48.9111936,2,23.22071
1,Areia Branca/RN,-4.9506652,-37.1263312,1145,4094.11092
D1,Areia Branca/RN,-4.9506652,-37.1263312,57,203.81164
1,Areia Branca/SE,-10.7591455,-37.3148072,1036,5544.25773
D1,Areia Branca/SE,-10.7591455,-37.3148072,23,123.08680
1,Areia de Baraúnas/PB,-7.1233949,-36.9446216,16,756.14367
1,Areia/PB,-6.9680243,-35.6994783,674,2974.92938
D1,Areia/PB,-6.9680243,-35.6994783,6,26.48305
1,Areial/PB,-7.0501306,-35.9245244,141,2006.54618
D1,Areial/PB,-7.0501306,-35.9245244,5,71.15412
1,Areias/SP,-22.5800929,-44.6975127,149,3824.43532
D1,Areias/SP,-22.5800929,-44.6975127,1,25.66735
1,Areiópolis/SP,-22.6758064,-48.6673653,268,2401.86413
D1,Areiópolis/SP,-22.6758064,-48.6673653,5,44.81090
1,Arenápolis/MT,-14.4610369,-56.8432806,725,7629.97264
D1,Arenápolis/MT,-14.4610369,-56.8432806,9,94.71690
1,Arenópolis/GO,-16.3859286,-51.55937,32,1261.82965
1,Argirita/MG,-21.612761,-42.8371922,162,5991.12426
D1,Argirita/MG,-21.612761,-42.8371922,5,184.91124
1,Aricanduva/MG,-17.8678,-42.5569,19,360.59973
1,Arinos/MG,-15.917223,-46.106111,175,979.73351
D1,Arinos/MG,-15.917223,-46.106111,4,22.39391
1,Aripuanã/MT,-10.175806,-59.4439663,1309,5762.96557
D1,Aripuanã/MT,-10.175806,-59.4439663,18,79.24628
1,Ariquemes/RO,-9.9076522,-63.033069,10580,9660.07140
D1,Ariquemes/RO,-9.9076522,-63.033069,189,172.56649
1,Ariranha do Ivaí/PR,-24.3834527,-51.5876772,80,3872.21684
D1,Ariranha do Ivaí/PR,-24.3834527,-51.5876772,1,48.40271
1,Ariranha/SP,-21.18716,-48.790418,233,2387.05051
D1,Ariranha/SP,-21.18716,-48.790418,11,112.69337
1,Armazém/SC,-28.2624996,-49.0190126,822,9384.63295
D1,Armazém/SC,-28.2624996,-49.0190126,7,79.91780
1,Armação dos Búzios/RJ,-22.7597805,-41.8875267,2519,7306.32016
D1,Armação dos Búzios/RJ,-22.7597805,-41.8875267,22,63.81066
1,Arneiroz/CE,-6.3235099,-40.1603859,78,994.39062
D1,Arneiroz/CE,-6.3235099,-40.1603859,6,76.49159
1,Aroazes/PI,-6.1108814,-41.7886137,162,2780.16132
D1,Aroazes/PI,-6.1108814,-41.7886137,5,85.80745
1,Aroeiras do Itaim/PI,-7.2797031,-41.5629681,93,3645.62917
D1,Aroeiras do Itaim/PI,-7.2797031,-41.5629681,1,39.20031
1,Aroeiras/PB,-7.5462904,-35.7080002,385,2014.01967
D1,Aroeiras/PB,-7.5462904,-35.7080002,3,15.69366
1,Arraial do Cabo/RJ,-22.9662839,-42.024427,466,1523.22427
D1,Arraial do Cabo/RJ,-22.9662839,-42.024427,9,29.41849
1,Arraial/PI,-6.6541632,-42.5335332,97,2055.08475
D1,Arraial/PI,-6.6541632,-42.5335332,1,21.18644
1,Arraias/TO,-12.9287788,-46.9437231,198,1879.62787
1,Arroio Grande/RS,-32.2384246,-53.0866661,628,3443.36002
D1,Arroio Grande/RS,-32.2384246,-53.0866661,8,43.86446
1,Arroio Trinta/SC,-26.9301976,-51.334928,268,7551.42294
D1,Arroio Trinta/SC,-26.9301976,-51.334928,3,84.53085
1,Arroio do Meio/RS,-29.4020392,-51.9444993,1128,5379.88267
D1,Arroio do Meio/RS,-29.4020392,-51.9444993,9,42.92460
1,Arroio do Padre/RS,-31.4428773,-52.4228985,81,2744.83226
D1,Arroio do Padre/RS,-31.4428773,-52.4228985,1,33.88682
1,Arroio do Sal/RS,-29.549852,-49.8874395,468,4552.97208
D1,Arroio do Sal/RS,-29.549852,-49.8874395,10,97.28573
1,Arroio do Tigre/RS,-29.334158,-53.0888935,378,2818.16149
D1,Arroio do Tigre/RS,-29.334158,-53.0888935,4,29.82181
1,Arroio dos Ratos/RS,-30.0894524,-51.7265541,385,2715.66622
D1,Arroio dos Ratos/RS,-30.0894524,-51.7265541,17,119.91253
1,Artur Nogueira/SP,-22.572737,-47.172679,1796,3245.39212
D1,Artur Nogueira/SP,-22.572737,-47.172679,46,83.12252
1,Aruanã/GO,-14.9162439,-51.0715692,229,2265.08408
D1,Aruanã/GO,-14.9162439,-51.0715692,3,29.67359
1,Arujá/SP,-23.396266,-46.3175449,3541,3884.50695
D1,Arujá/SP,-23.396266,-46.3175449,121,132.73802
1,Arvoredo/SC,-27.0752908,-52.4571847,114,5102.95434
D1,Arvoredo/SC,-27.0752908,-52.4571847,1,44.76276
1,Arvorezinha/RS,-28.87369,-52.17808,393,3770.50753
D1,Arvorezinha/RS,-28.87369,-52.17808,10,95.94167
1,Arês/RN,-6.1969216,-35.1642968,442,3065.82507
D1,Arês/RN,-6.1969216,-35.1642968,11,76.29881
1,Ascurra/SC,-26.9569975,-49.3767752,631,7909.25044
D1,Ascurra/SC,-26.9569975,-49.3767752,3,37.60341
1,Aspásia/SP,-20.160028,-50.728046,65,3575.35754
D1,Aspásia/SP,-20.160028,-50.728046,2,110.01100
1,Assaré/CE,-6.8746791,-39.8741385,961,4093.19363
D1,Assaré/CE,-6.8746791,-39.8741385,20,85.18613
1,Assaí/PR,-23.3736041,-50.8454929,543,3631.13548
D1,Assaí/PR,-23.3736041,-50.8454929,18,120.36913
1,Assis Brasil/AC,-10.9409203,-69.5672108,920,12211.30873
D1,Assis Brasil/AC,-10.9409203,-69.5672108,9,119.45846
1,Assis Chateaubriand/PR,-24.4054826,-53.5120468,1767,5299.94001
D1,Assis Chateaubriand/PR,-24.4054826,-53.5120468,27,80.98380
1,Assis/SP,-22.6620892,-50.420623,3156,3003.22590
D1,Assis/SP,-22.6620892,-50.420623,57,54.24077
1,Assunção do Piauí/PI,-5.8610212,-41.0485091,195,2479.96948
D1,Assunção do Piauí/PI,-5.8610212,-41.0485091,4,50.87117
1,Assunção/PB,-7.073396,-36.7274003,111,2755.02606
D1,Assunção/PB,-7.073396,-36.7274003,1,24.82005
1,Astolfo Dutra/MG,-21.3132636,-42.8624102,749,5248.77365
D1,Astolfo Dutra/MG,-21.3132636,-42.8624102,13,91.10021
1,Astorga/PR,-23.2350184,-51.6647074,1232,4700.67534
D1,Astorga/PR,-23.2350184,-51.6647074,20,76.30966
1,Atalaia do Norte/AM,-4.3658547,-70.1908742,2161,10594.17590
D1,Atalaia do Norte/AM,-4.3658547,-70.1908742,5,24.51221
1,Atalaia/AL,-9.5029595,-36.0219316,684,1444.10430
D1,Atalaia/AL,-9.5029595,-36.0219316,27,57.00412
1,Atalaia/PR,-23.1513833,-52.0529697,155,3993.81603
D1,Atalaia/PR,-23.1513833,-52.0529697,3,77.29967
1,Atalanta/SC,-27.421916,-49.778863,105,3286.38498
1,Ataléia/MG,-18.04432,-41.1110524,561,4424.98817
D1,Ataléia/MG,-18.04432,-41.1110524,4,31.55072
1,Atibaia/SP,-23.1177393,-46.5547861,4736,3286.88024
D1,Atibaia/SP,-23.1177393,-46.5547861,100,69.40203
1,Atilio Vivacqua/ES,-20.9139369,-41.1947519,904,7467.98843
D1,Atilio Vivacqua/ES,-20.9139369,-41.1947519,14,115.65469
1,Augustinópolis/TO,-5.4662267,-47.8897519,919,4929.46414
D1,Augustinópolis/TO,-5.4662267,-47.8897519,11,59.00338
1,Augusto Corrêa/PA,-1.0229335,-46.6404029,1525,3281.61649
D1,Augusto Corrêa/PA,-1.0229335,-46.6404029,22,47.34135
1,Augusto Pestana/RS,-28.5148413,-53.9906433,133,2014.54105
D1,Augusto Pestana/RS,-28.5148413,-53.9906433,2,30.29385
1,Augusto de Lima/MG,-18.1092963,-44.2651945,119,2453.10245
D1,Augusto de Lima/MG,-18.1092963,-44.2651945,4,82.45723
1,Aurelino Leal/BA,-14.3167137,-39.3256107,717,6345.69431
D1,Aurelino Leal/BA,-14.3167137,-39.3256107,16,141.60545
1,Auriflama/SP,-20.6840418,-50.5554616,826,5415.32813
D1,Auriflama/SP,-20.6840418,-50.5554616,19,124.56566
1,Aurilândia/GO,-16.6772599,-50.4641231,69,2256.37672
D1,Aurilândia/GO,-16.6772599,-50.4641231,3,98.10334
1,Aurora do Pará/PA,-2.1323199,-47.558436,737,2319.57952
D1,Aurora do Pará/PA,-2.1323199,-47.558436,8,25.17861
1,Aurora do Tocantins/TO,-12.71045,-46.407604,124,3277.82183
D1,Aurora do Tocantins/TO,-12.71045,-46.407604,2,52.86809
1,Aurora/CE,-6.9426019,-38.9693765,947,3848.02926
D1,Aurora/CE,-6.9426019,-38.9693765,24,97.52133
1,Aurora/SC,-27.3166417,-49.6368502,283,4979.76421
D1,Aurora/SC,-27.3166417,-49.6368502,6,105.57804
1,Autazes/AM,-3.5833283,-59.1301518,2165,5373.54182
D1,Autazes/AM,-3.5833283,-59.1301518,58,143.95632
1,Avanhandava/SP,-21.4603331,-49.9465156,323,2330.61548
D1,Avanhandava/SP,-21.4603331,-49.9465156,13,93.80186
1,Avaré/SP,-23.1045215,-48.9259103,2070,2268.94072
D1,Avaré/SP,-23.1045215,-48.9259103,30,32.88320
1,Avaí/SP,-22.1564662,-49.3316395,145,2667.40250
D1,Avaí/SP,-22.1564662,-49.3316395,3,55.18764
1,Aveiro/PA,-3.6049239,-55.3310742,457,2785.90588
D1,Aveiro/PA,-3.6049239,-55.3310742,5,30.48037
1,Avelino Lopes/PI,-10.1346855,-43.9489525,194,1712.87304
D1,Avelino Lopes/PI,-10.1346855,-43.9489525,15,132.43864
1,Avelinópolis/GO,-16.4672409,-49.7578661,154,6392.69406
D1,Avelinópolis/GO,-16.4672409,-49.7578661,4,166.04400
1,Axixá do Tocantins/TO,-5.612747,-47.77007,619,6324.71646
D1,Axixá do Tocantins/TO,-5.612747,-47.77007,5,51.08818
1,Axixá/MA,-2.8379465,-44.0561053,151,1239.43200
D1,Axixá/MA,-2.8379465,-44.0561053,3,24.62448
1,Açailândia/MA,-4.9514278,-47.4844564,3838,3392.82715
D1,Açailândia/MA,-4.9514278,-47.4844564,105,92.82096
1,Açu/RN,-5.5836157,-36.9139541,2730,4675.93861
D1,Açu/RN,-5.5836157,-36.9139541,84,143.87503
1,Açucena/MG,-19.073056,-42.546666,216,2305.72161
D1,Açucena/MG,-19.073056,-42.546666,7,74.72246
1,Babaçulândia/TO,-7.2034355,-47.761613,442,4144.00900
D1,Babaçulândia/TO,-7.2034355,-47.761613,4,37.50234
1,Bacabal/MA,-4.2318132,-44.781167,3739,3568.08856
D1,Bacabal/MA,-4.2318132,-44.781167,75,71.57171
1,Bacabeira/MA,-2.9775747,-44.3155943,184,1066.54301
D1,Bacabeira/MA,-2.9775747,-44.3155943,3,17.38929
1,Bacuri/MA,-1.728894,-45.1417148,429,2299.77485
D1,Bacuri/MA,-1.728894,-45.1417148,4,21.44312
1,Bacurituba/MA,-2.7082587,-44.7381309,97,1710.75838
1,Bady Bassitt/SP,-20.9178969,-49.4517911,1479,8327.23383
D1,Bady Bassitt/SP,-20.9178969,-49.4517911,24,135.12753
1,Baependi/MG,-21.959162,-44.8899249,675,3515.80812
D1,Baependi/MG,-21.959162,-44.8899249,10,52.08605
1,Bagre/PA,-1.8994498,-50.2103844,585,1867.51796
D1,Bagre/PA,-1.8994498,-50.2103844,11,35.11572
1,Bagé/RS,-31.3314264,-54.1062808,3394,2797.21432
D1,Bagé/RS,-31.3314264,-54.1062808,78,64.28483
1,Baianópolis/BA,-12.3067564,-44.5383591,188,1349.70206
D1,Baianópolis/BA,-12.3067564,-44.5383591,2,14.35853
1,Baixa Grande do Ribeiro/PI,-7.862861,-45.2113289,1667,14283.26622
D1,Baixa Grande do Ribeiro/PI,-7.862861,-45.2113289,15,128.52369
1,Baixa Grande/BA,-11.9630941,-40.1657537,397,1941.41523
D1,Baixa Grande/BA,-11.9630941,-40.1657537,3,14.67064
1,Baixio/CE,-6.7303544,-38.7170095,148,2348.08821
D1,Baixio/CE,-6.7303544,-38.7170095,4,63.46184
1,Baixo Guandu/ES,-19.5138322,-41.0182089,2246,7214.44173
D1,Baixo Guandu/ES,-19.5138322,-41.0182089,38,122.06090
1,Baião/PA,-2.7903479,-49.6702845,474,978.14647
D1,Baião/PA,-2.7903479,-49.6702845,20,41.27200
1,Balbinos/SP,-21.9006253,-49.3583966,272,4583.75463
D1,Balbinos/SP,-21.9006253,-49.3583966,3,50.55612
1,Baldim/MG,-19.2913568,-43.9558262,256,3280.78944
D1,Baldim/MG,-19.2913568,-43.9558262,6,76.89350
1,Baliza/GO,-16.1978119,-52.542789,94,1780.30303
1,Balneário Arroio do Silva/SC,-28.9815269,-49.4189932,1166,8682.05510
D1,Balneário Arroio do Silva/SC,-28.9815269,-49.4189932,19,141.47431
1,Balneário Barra do Sul/SC,-26.459842,-48.6061471,923,8364.29542
D1,Balneário Barra do Sul/SC,-26.459842,-48.6061471,17,154.05528
1,Balneário Camboriú/SC,-26.9924395,-48.6339782,17177,11781.53036
D1,Balneário Camboriú/SC,-26.9924395,-48.6339782,184,126.20374
1,Balneário Gaivota/SC,-29.1553098,-49.5808712,776,6891.65187
D1,Balneário Gaivota/SC,-29.1553098,-49.5808712,11,97.69094
1,Balneário Pinhal/RS,-30.2482978,-50.234585,584,4066.00292
D1,Balneário Pinhal/RS,-30.2482978,-50.234585,15,104.43501
1,Balneário Piçarras/SC,-26.7638889,-48.6716667,2676,11256.94094
D1,Balneário Piçarras/SC,-26.7638889,-48.6716667,21,88.33922
1,Balneário Rincão/SC,-28.8235718,-49.2241642,907,7006.02503
D1,Balneário Rincão/SC,-28.8235718,-49.2241642,22,169.93666
1,Balsa Nova/PR,-25.5842234,-49.6312741,601,4590.58967
D1,Balsa Nova/PR,-25.5842234,-49.6312741,11,84.02078
1,Balsas/MA,-7.53214,-46.037163,7233,7539.95142
D1,Balsas/MA,-7.53214,-46.037163,87,90.69207
1,Bambuí/MG,-20.0131996,-45.9777034,377,1577.53787
D1,Bambuí/MG,-20.0131996,-45.9777034,1,4.18445
1,Banabuiú/CE,-5.3046404,-38.919766,692,3790.53462
D1,Banabuiú/CE,-5.3046404,-38.919766,4,21.91060
1,Bananal/SP,-22.6828195,-44.3221095,357,3247.52115
D1,Bananal/SP,-22.6828195,-44.3221095,1,9.09670
1,Bananeiras/PB,-6.7537682,-35.6338343,620,2915.04067
D1,Bananeiras/PB,-6.7537682,-35.6338343,4,18.80671
1,Bandeira do Sul/MG,-21.728056,-46.385555,82,1419.17619
D1,Bandeira do Sul/MG,-21.728056,-46.385555,4,69.22811
1,Bandeira/MG,-15.884444,-40.559167,402,8434.74612
D1,Bandeira/MG,-15.884444,-40.559167,6,125.89173
1,Bandeirante/SC,-26.7677402,-53.6397596,78,2945.61934
D1,Bandeirante/SC,-26.7677402,-53.6397596,1,37.76435
1,Bandeirantes do Tocantins/TO,-7.7635698,-48.579148,213,5929.84410
D1,Bandeirantes do Tocantins/TO,-7.7635698,-48.579148,2,55.67929
1,Bandeirantes/MS,-19.9179623,-54.3646768,239,3289.29260
D1,Bandeirantes/MS,-19.9179623,-54.3646768,4,55.05092
1,Bandeirantes/PR,-23.107788,-50.370407,1794,5747.97347
D1,Bandeirantes/PR,-23.107788,-50.370407,49,156.99593
1,Bannach/PA,-7.3508505,-50.4064531,124,3801.34887
D1,Bannach/PA,-7.3508505,-50.4064531,2,61.31208
1,Banzaê/BA,-10.5827616,-38.6122305,711,5370.09063
D1,Banzaê/BA,-10.5827616,-38.6122305,4,30.21148
1,Baraúna/PB,-6.643394,-36.2531932,156,3142.62691
1,Baraúna/RN,-5.0775002,-37.61752,665,2313.28486
D1,Baraúna/RN,-5.0775002,-37.61752,17,59.13661
1,Barbacena/MG,-21.2254524,-43.7735087,3190,2308.18211
D1,Barbacena/MG,-21.2254524,-43.7735087,72,52.09690
1,Barbalha/CE,-7.3121067,-39.3036427,2674,4367.28294
D1,Barbalha/CE,-7.3121067,-39.3036427,58,94.72790
1,Barbosa Ferraz/PR,-24.0287182,-52.00811,461,4034.65780
D1,Barbosa Ferraz/PR,-24.0287182,-52.00811,6,52.51182
1,Barbosa/SP,-21.265661,-49.951816,232,3106.58811
D1,Barbosa/SP,-21.265661,-49.951816,3,40.17140
1,Barcarena/PA,-1.5107945,-48.6190679,5611,4417.17115
D1,Barcarena/PA,-1.5107945,-48.6190679,131,103.12768
1,Barcelona/RN,-5.9514918,-35.9260284,41,1026.53981
D1,Barcelona/RN,-5.9514918,-35.9260284,3,75.11267
1,Barcelos/AM,-0.9729214,-62.925635,3705,13405.45626
D1,Barcelos/AM,-0.9729214,-62.925635,44,159.20110
1,Bariri/SP,-22.0746355,-48.7394852,1572,4420.94606
D1,Bariri/SP,-22.0746355,-48.7394852,38,106.86765
1,Barra Bonita/SC,-26.6526364,-53.4419581,51,3089.03695
1,Barra Bonita/SP,-22.490859,-48.558349,1789,4952.11205
D1,Barra Bonita/SP,-22.490859,-48.558349,31,85.81077
1,Barra D'Alcântara/PI,-6.5209258,-42.1071089,70,1771.25506
D1,Barra D'Alcântara/PI,-6.5209258,-42.1071089,1,25.30364
1,Barra Funda/RS,-27.9230048,-53.0401045,266,10427.28342
D1,Barra Funda/RS,-27.9230048,-53.0401045,5,196.00157
1,Barra Longa/MG,-20.2833541,-43.0423516,132,2632.10369
1,Barra Mansa/RJ,-22.5394843,-44.1735129,8861,4794.05734
D1,Barra Mansa/RJ,-22.5394843,-44.1735129,273,147.70090
1,Barra Velha/SC,-26.6338203,-48.6835001,2291,7672.47153
D1,Barra Velha/SC,-26.6338203,-48.6835001,40,133.95847
1,Barra da Estiva/BA,-13.6269662,-41.3278287,1056,5178.50137
D1,Barra da Estiva/BA,-13.6269662,-41.3278287,6,29.42330
1,Barra de Guabiraba/PE,-8.4173522,-35.6626669,267,1840.11027
D1,Barra de Guabiraba/PE,-8.4173522,-35.6626669,11,75.80979
1,Barra de Santa Rosa/PB,-6.7218007,-36.0564638,484,3123.18513
D1,Barra de Santa Rosa/PB,-6.7218007,-36.0564638,2,12.90572
1,Barra de Santana/PB,-7.5230865,-35.9988518,253,3030.30303
D1,Barra de Santana/PB,-7.5230865,-35.9988518,3,35.93245
1,Barra de Santo Antônio/AL,-9.4038098,-35.5117693,150,933.53249
D1,Barra de Santo Antônio/AL,-9.4038098,-35.5117693,15,93.35325
1,Barra de São Francisco/ES,-18.7570902,-40.8916119,2038,4531.00336
D1,Barra de São Francisco/ES,-18.7570902,-40.8916119,63,140.06536
1,Barra de São Miguel/AL,-9.8261357,-35.8837777,215,2566.24493
D1,Barra de São Miguel/AL,-9.8261357,-35.8837777,5,59.68011
1,Barra de São Miguel/PB,-7.7528088,-36.3170996,190,3132.72877
D1,Barra de São Miguel/PB,-7.7528088,-36.3170996,1,16.48805
1,Barra do Bugres/MT,-15.0683712,-57.1853688,1522,4310.75991
D1,Barra do Bugres/MT,-15.0683712,-57.1853688,32,90.63359
1,Barra do Chapéu/SP,-24.472203,-49.023784,120,2083.33333
1,Barra do Choça/BA,-14.8638173,-40.5761637,979,3136.91563
D1,Barra do Choça/BA,-14.8638173,-40.5761637,11,35.24624
1,Barra do Corda/MA,-5.496823,-45.248496,4097,4629.79704
D1,Barra do Corda/MA,-5.496823,-45.248496,48,54.24219
1,Barra do Garças/MT,-15.8916033,-52.2615413,4394,7187.37221
D1,Barra do Garças/MT,-15.8916033,-52.2615413,152,248.63008
1,Barra do Guarita/RS,-27.1888016,-53.7147086,66,2026.40467
1,Barra do Jacaré/PR,-23.1151788,-50.1813945,99,3559.87055
1,Barra do Mendes/BA,-11.8053298,-42.057037,546,3947.08306
D1,Barra do Mendes/BA,-11.8053298,-42.057037,6,43.37454
1,Barra do Ouro/TO,-7.7113784,-47.6743925,90,1943.00518
D1,Barra do Ouro/TO,-7.7113784,-47.6743925,5,107.94473
1,Barra do Piraí/RJ,-22.4703403,-43.8263256,3104,3080.46525
D1,Barra do Piraí/RJ,-22.4703403,-43.8263256,127,126.03708
1,Barra do Quaraí/RS,-30.208947,-57.5505128,164,3879.82020
D1,Barra do Quaraí/RS,-30.208947,-57.5505128,2,47.31488
1,Barra do Ribeiro/RS,-30.2930206,-51.301437,459,3385.95456
D1,Barra do Ribeiro/RS,-30.2930206,-51.301437,29,213.92741
1,Barra do Rio Azul/RS,-27.4101581,-52.4117471,39,2356.49547
D1,Barra do Rio Azul/RS,-27.4101581,-52.4117471,1,60.42296
1,Barra do Rocha/BA,-14.2090974,-39.6004395,192,3421.24020
D1,Barra do Rocha/BA,-14.2090974,-39.6004395,3,53.45688
1,Barra do Turvo/SP,-24.756421,-48.5056942,285,3734.27673
D1,Barra do Turvo/SP,-24.756421,-48.5056942,8,104.82180
1,Barra dos Coqueiros/SE,-10.9075694,-37.0386249,3111,10058.19593
D1,Barra dos Coqueiros/SE,-10.9075694,-37.0386249,37,119.62496
1,Barra/BA,-11.0892702,-43.1420453,919,1704.69301
D1,Barra/BA,-11.0892702,-43.1420453,14,25.96921
1,Barracão/PR,-26.252395,-53.6349576,446,4325.05818
D1,Barracão/PR,-26.252395,-53.6349576,7,67.88208
1,Barracão/RS,-27.6728964,-51.4582928,181,3443.68341
D1,Barracão/RS,-27.6728964,-51.4582928,4,76.10350
1,Barras/PI,-4.2446153,-42.2920241,3315,7025.53778
D1,Barras/PI,-4.2446153,-42.2920241,61,129.27837
1,Barreira/CE,-4.2883361,-38.641094,395,1749.87817
D1,Barreira/CE,-4.2883361,-38.641094,21,93.03150
1,Barreiras do Piauí/PI,-9.9224524,-45.4763776,41,1223.15036
D1,Barreiras do Piauí/PI,-9.9224524,-45.4763776,1,29.83294
1,Barreiras/BA,-12.1440031,-44.9967406,8877,5655.04061
D1,Barreiras/BA,-12.1440031,-44.9967406,109,69.43781
1,Barreirinha/AM,-2.798863,-57.067897,1805,5556.75276
D1,Barreirinha/AM,-2.798863,-57.067897,37,113.90574
1,Barreirinhas/MA,-2.7541271,-42.8259693,1383,2187.70267
D1,Barreirinhas/MA,-2.7541271,-42.8259693,28,44.29188
1,Barreiros/PE,-8.8159644,-35.1831905,383,895.61313
D1,Barreiros/PE,-8.8159644,-35.1831905,42,98.21345
1,Barretos/SP,-20.5531437,-48.5697509,7351,5984.54813
D1,Barretos/SP,-20.5531437,-48.5697509,173,140.84163
1,Barrinha/SP,-21.1898849,-48.1550642,889,2679.32489
D1,Barrinha/SP,-21.1898849,-48.1550642,36,108.49910
1,Barro Alto/BA,-11.7618025,-41.9094904,556,3693.37053
D1,Barro Alto/BA,-11.7618025,-41.9094904,4,26.57101
1,Barro Alto/GO,-14.9696025,-48.9190985,710,6223.70266
D1,Barro Alto/GO,-14.9696025,-48.9190985,8,70.12623
1,Barro Duro/PI,-5.8180139,-42.5106589,471,6702.71809
D1,Barro Duro/PI,-5.8180139,-42.5106589,7,99.61577
1,Barro Preto/BA,-14.8068289,-39.4727588,393,7213.65639
D1,Barro Preto/BA,-14.8068289,-39.4727588,6,110.13216
1,Barro/CE,-7.1713587,-38.7742136,515,2262.94050
D1,Barro/CE,-7.1713587,-38.7742136,11,48.33465
1,Barrocas/BA,-11.5165,-39.099282894736845,286,1775.84601
D1,Barrocas/BA,-11.5165,-39.099282894736845,4,24.83701
1,Barrolândia/TO,-9.837246,-48.7264346,286,5061.05114
D1,Barrolândia/TO,-9.837246,-48.7264346,4,70.78393
1,Barroquinha/CE,-3.0200371,-41.1339229,835,5550.38554
D1,Barroquinha/CE,-3.0200371,-41.1339229,20,132.94337
1,Barros Cassal/RS,-29.094938,-52.5832366,263,2351.99428
D1,Barros Cassal/RS,-29.094938,-52.5832366,2,17.88589
1,Barroso/MG,-21.187222,-43.976111,444,2124.70690
D1,Barroso/MG,-21.187222,-43.976111,7,33.49763
1,Barueri/SP,-23.5112184,-46.8764612,13812,4986.60563
D1,Barueri/SP,-23.5112184,-46.8764612,499,180.15611
1,Barão de Antonina/SP,-23.6295651,-49.5632104,40,1143.51058
D1,Barão de Antonina/SP,-23.6295651,-49.5632104,1,28.58776
1,Barão de Cocais/MG,-19.9452437,-43.4870298,1357,4128.88700
D1,Barão de Cocais/MG,-19.9452437,-43.4870298,12,36.51190
1,Barão de Cotegipe/RS,-27.6214694,-52.3765316,332,5015.10574
D1,Barão de Cotegipe/RS,-27.6214694,-52.3765316,4,60.42296
1,Barão de Grajaú/MA,-6.7542591,-43.0263477,27,142.67597
D1,Barão de Grajaú/MA,-6.7542591,-43.0263477,1,5.28430
1,Barão de Melgaço/MT,-16.195776,-55.9668049,172,2106.81039
D1,Barão de Melgaço/MT,-16.195776,-55.9668049,6,73.49339
1,Barão de Monte Alto/MG,-21.244722,-42.2375,138,2577.51214
D1,Barão de Monte Alto/MG,-21.244722,-42.2375,6,112.06575
1,Barão do Triunfo/RS,-30.3909877,-51.7375349,208,2766.32531
D1,Barão do Triunfo/RS,-30.3909877,-51.7375349,3,39.89892
1,Barão/RS,-29.372474,-51.494908,257,4143.82457
D1,Barão/RS,-29.372474,-51.494908,4,64.49532
1,Bastos/SP,-21.9222474,-50.7317727,303,1446.09364
D1,Bastos/SP,-21.9222474,-50.7317727,10,47.72586
1,Bataguassu/MS,-21.715899,-52.422058,1564,6705.25188
D1,Bataguassu/MS,-21.715899,-52.422058,16,68.59593
1,Batalha/AL,-9.6733809,-37.1265481,685,3735.41280
D1,Batalha/AL,-9.6733809,-37.1265481,13,70.89105
1,Batalha/PI,-4.022391,-42.0780926,530,1969.89407
D1,Batalha/PI,-4.022391,-42.0780926,14,52.03494
1,Batatais/SP,-20.892867,-47.592149,1154,1832.32772
D1,Batatais/SP,-20.892867,-47.592149,45,71.45125
1,Batayporã/MS,-22.2976466,-53.2685608,419,3691.95524
D1,Batayporã/MS,-22.2976466,-53.2685608,7,61.67944
1,Baturité/CE,-4.3290203,-38.8821055,957,2662.69720
D1,Baturité/CE,-4.3290203,-38.8821055,34,94.59948
1,Bauru/SP,-22.3218102,-49.0705863,23141,6101.02374
D1,Bauru/SP,-22.3218102,-49.0705863,366,96.49430
1,Bayeux/PB,-7.1301631,-34.936532,3244,3337.34556
D1,Bayeux/PB,-7.1301631,-34.936532,137,140.94215
1,Baía Formosa/RN,-6.3691885,-35.0063741,201,2156.18966
D1,Baía Formosa/RN,-6.3691885,-35.0063741,6,64.36387
1,Baía da Traição/PB,-6.691258,-34.9371244,985,10828.93580
D1,Baía da Traição/PB,-6.691258,-34.9371244,8,87.95075
1,Bebedouro/SP,-20.949077,-48.479083,1989,2564.63155
D1,Bebedouro/SP,-20.949077,-48.479083,47,60.60215
1,Beberibe/CE,-4.1810469,-38.1298101,1467,2719.23483
D1,Beberibe/CE,-4.1810469,-38.1298101,33,61.16888
1,Bela Cruz/CE,-3.0529129,-40.167582,1552,4742.98637
D1,Bela Cruz/CE,-3.0529129,-40.167582,24,73.34515
1,Bela Vista da Caroba/PR,-25.8792818,-53.6672545,77,2227.36477
D1,Bela Vista da Caroba/PR,-25.8792818,-53.6672545,1,28.92682
1,Bela Vista de Goiás/GO,-16.9692949,-48.9513071,1324,4342.12252
D1,Bela Vista de Goiás/GO,-16.9692949,-48.9513071,23,75.42962
1,Bela Vista de Minas/MG,-19.8289721,-43.0973688,330,3215.74742
D1,Bela Vista de Minas/MG,-19.8289721,-43.0973688,8,77.95751
1,Bela Vista do Maranhão/MA,-3.7416367,-45.2514192,156,1383.10134
D1,Bela Vista do Maranhão/MA,-3.7416367,-45.2514192,8,70.92827
1,Bela Vista do Paraíso/PR,-22.9948493,-51.1907996,639,4149.62011
D1,Bela Vista do Paraíso/PR,-22.9948493,-51.1907996,15,97.40892
1,Bela Vista do Piauí/PI,-7.9716353,-41.8715061,202,5012.40695
D1,Bela Vista do Piauí/PI,-7.9716353,-41.8715061,5,124.06948
1,Bela Vista do Toldo/SC,-26.274625,-50.466354,36,565.85979
D1,Bela Vista do Toldo/SC,-26.274625,-50.466354,1,15.71833
1,Bela Vista/MS,-22.107327,-56.5317344,269,1087.52779
D1,Bela Vista/MS,-22.107327,-56.5317344,9,36.38569
1,Belford Roxo/RJ,-22.7667284,-43.4033603,16373,3190.88397
D1,Belford Roxo/RJ,-22.7667284,-43.4033603,416,81.07297
1,Belmiro Braga/MG,-21.9486291,-43.413564,76,2218.97810
D1,Belmiro Braga/MG,-21.9486291,-43.413564,3,87.59124
1,Belmonte/BA,-15.8630837,-38.8792845,774,3302.47045
D1,Belmonte/BA,-15.8630837,-38.8792845,8,34.13406
1,Belmonte/SC,-26.8448262,-53.578916,79,2916.20524
D1,Belmonte/SC,-26.8448262,-53.578916,2,73.82798
1,Belo Campo/BA,-15.0338286,-41.2585109,291,1700.85920
D1,Belo Campo/BA,-15.0338286,-41.2585109,3,17.53463
1,Belo Horizonte/MG,-19.9227318,-43.9450948,92067,3651.18633
D1,Belo Horizonte/MG,-19.9227318,-43.9450948,2353,93.31510
1,Belo Jardim/PE,-8.3338293,-36.4176419,1584,2065.53914
D1,Belo Jardim/PE,-8.3338293,-36.4176419,43,56.07209
1,Belo Monte/AL,-9.8269944,-37.2787165,207,3084.94784
D1,Belo Monte/AL,-9.8269944,-37.2787165,6,89.41878
1,Belo Oriente/MG,-19.2232523,-42.4807033,1336,4949.24798
D1,Belo Oriente/MG,-19.2232523,-42.4807033,25,92.61317
1,Belo Vale/MG,-20.407778,-44.024167,255,3303.53673
D1,Belo Vale/MG,-20.407778,-44.024167,6,77.73028
1,Belterra/PA,-2.636091,-54.937392,565,3167.21789
D1,Belterra/PA,-2.636091,-54.937392,14,78.47974
1,Belágua/MA,-3.1604031,-43.5085052,279,3706.16366
D1,Belágua/MA,-3.1604031,-43.5085052,2,26.56748
1,Belém de Maria/PE,-8.6242497,-35.8388934,124,1022.93351
D1,Belém de Maria/PE,-8.6242497,-35.8388934,3,24.74839
1,Belém do Brejo do Cruz/PB,-6.1880727,-37.5332267,452,6150.49667
D1,Belém do Brejo do Cruz/PB,-6.1880727,-37.5332267,5,68.03647
1,Belém do Piauí/PI,-7.3767305,-40.9712156,339,9450.79454
D1,Belém do Piauí/PI,-7.3767305,-40.9712156,5,139.39225
1,Belém do São Francisco/PE,-8.7517707,-38.9625715,266,1283.16450
1,Belém/AL,-9.5715351,-36.492841,75,1750.70028
D1,Belém/AL,-9.5715351,-36.492841,3,70.02801
1,Belém/PA,-1.45056,-48.4682453,67344,4490.67477
D1,Belém/PA,-1.45056,-48.4682453,2623,174.90853
1,Belém/PB,-6.6967586,-35.5369626,1261,7122.28184
D1,Belém/PB,-6.6967586,-35.5369626,19,107.31432
1,Beneditinos/PI,-5.4565671,-42.3605061,427,4077.15077
D1,Beneditinos/PI,-5.4565671,-42.3605061,15,143.22544
1,Benedito Leite/MA,-7.2173453,-44.5523331,249,4416.45974
D1,Benedito Leite/MA,-7.2173453,-44.5523331,2,35.47357
1,Benedito Novo/SC,-26.7840657,-49.3629511,553,4696.39066
D1,Benedito Novo/SC,-26.7840657,-49.3629511,5,42.46285
1,Benevides/PA,-1.3555577,-48.252235,2342,3672.68850
D1,Benevides/PA,-1.3555577,-48.252235,52,81.54560
1,Benjamin Constant do Sul/RS,-27.5105555,-52.6007689,128,6537.28294
1,Benjamin Constant/AM,-4.3782748,-70.0290603,2189,4982.36030
D1,Benjamin Constant/AM,-4.3782748,-70.0290603,53,120.63275
1,Bento Fernandes/RN,-5.6926846,-35.8207423,42,760.18100
D1,Bento Fernandes/RN,-5.6926846,-35.8207423,2,36.19910
1,Bento Gonçalves/RS,-29.1654014,-51.5197627,8456,6942.35774
D1,Bento Gonçalves/RS,-29.1654014,-51.5197627,159,130.53866
1,Bento de Abreu/SP,-21.2707225,-50.8120444,90,2995.00832
1,Bequimão/MA,-2.4495376,-44.7884889,251,1178.45908
D1,Bequimão/MA,-2.4495376,-44.7884889,12,56.34067
1,Berilo/MG,-16.9515764,-42.4643732,10,84.23181
1,Berizal/MG,-15.6118785,-41.7417382,53,1112.51050
1,Bernardino Batista/PB,-6.4532173,-38.5495418,175,4949.09502
1,Bernardino de Campos/SP,-23.0140216,-49.4760724,226,2025.45259
D1,Bernardino de Campos/SP,-23.0140216,-49.4760724,6,53.77308
1,Bernardo Sayão/TO,-7.8794244,-48.8968905,130,2922.66187
D1,Bernardo Sayão/TO,-7.8794244,-48.8968905,4,89.92806
1,Bernardo do Mearim/MA,-4.6315929,-44.7617508,162,2667.54487
D1,Bernardo do Mearim/MA,-4.6315929,-44.7617508,3,49.39898
1,Bertioga/SP,-23.848568,-46.139586,2888,4462.09230
D1,Bertioga/SP,-23.848568,-46.139586,58,89.61266
1,Bertolínia/PI,-7.6372159,-43.9540611,575,10441.25658
D1,Bertolínia/PI,-7.6372159,-43.9540611,6,108.95224
1,Bertópolis/MG,-17.063333,-40.573889,213,4623.39918
1,Beruri/AM,-3.9007135,-61.3717319,1725,8585.07938
D1,Beruri/AM,-3.9007135,-61.3717319,23,114.46773
1,Betim/MG,-19.968056,-44.198333,16752,3766.32253
D1,Betim/MG,-19.968056,-44.198333,403,90.60578
1,Betânia do Piauí/PI,-8.1460635,-40.7961387,108,1739.13043
D1,Betânia do Piauí/PI,-8.1460635,-40.7961387,2,32.20612
1,Betânia/PE,-8.2742779,-38.0351767,199,1558.95025
D1,Betânia/PE,-8.2742779,-38.0351767,3,23.50176
1,Bezerros/PE,-8.2372132,-35.7558262,2044,3357.42444
D1,Bezerros/PE,-8.2372132,-35.7558262,75,123.19317
1,Bias Fortes/MG,-21.605833,-43.756944,66,1982.57735
D1,Bias Fortes/MG,-21.605833,-43.756944,2,60.07810
1,Bicas/MG,-21.7213723,-43.0604327,472,3243.09468
D1,Bicas/MG,-21.7213723,-43.0604327,15,103.06445
1,Biguaçu/SC,-27.4961277,-48.6542432,6789,9770.31344
D1,Biguaçu/SC,-27.4961277,-48.6542432,72,103.61799
1,Bilac/SP,-21.403962,-50.47464,309,3806.82518
D1,Bilac/SP,-21.403962,-50.47464,6,73.91894
1,Biquinhas/MG,-18.783611,-45.502222,28,1120.89672
1,Birigui/SP,-21.2908491,-50.34144,6154,4927.81243
D1,Birigui/SP,-21.2908491,-50.34144,165,132.12367
1,Biritiba Mirim/SP,-23.5697765,-46.0407456,619,1879.40248
D1,Biritiba Mirim/SP,-23.5697765,-46.0407456,43,130.55623
1,Biritinga/BA,-11.6227908,-38.8066738,157,982.23223
D1,Biritinga/BA,-11.6227908,-38.8066738,2,12.51251
1,Bituruna/PR,-26.161281,-51.5533319,180,1097.56098
D1,Bituruna/PR,-26.161281,-51.5533319,1,6.09756
1,Blumenau/SC,-26.9195567,-49.0658025,31233,8631.35786
D1,Blumenau/SC,-26.9195567,-49.0658025,302,83.45884
1,Boa Esperança do Iguaçu/PR,-25.6362851,-53.2139114,97,3927.12551
1,Boa Esperança do Sul/SP,-21.9930206,-48.3917372,405,2696.76388
D1,Boa Esperança do Sul/SP,-21.9930206,-48.3917372,8,53.26941
1,Boa Esperança/ES,-18.5395472,-40.2904088,656,4346.67373
D1,Boa Esperança/ES,-18.5395472,-40.2904088,23,152.39862
1,Boa Esperança/MG,-21.0901253,-45.5660195,990,2461.52316
D1,Boa Esperança/MG,-21.0901253,-45.5660195,30,74.59161
1,Boa Esperança/PR,-24.2411024,-52.7860277,154,3805.28787
D1,Boa Esperança/PR,-24.2411024,-52.7860277,3,74.12898
1,Boa Hora/PI,-4.4094627,-42.1255341,243,3565.66398
D1,Boa Hora/PI,-4.4094627,-42.1255341,2,29.34703
1,Boa Nova/BA,-14.365907,-40.2063056,288,2335.95588
D1,Boa Nova/BA,-14.365907,-40.2063056,5,40.55479
1,Boa Ventura de São Roque/PR,-24.88177,-51.5441292,183,2875.09819
D1,Boa Ventura de São Roque/PR,-24.88177,-51.5441292,2,31.42184
1,Boa Ventura/PB,-7.4202462,-38.2156782,155,2920.67081
D1,Boa Ventura/PB,-7.4202462,-38.2156782,3,56.52911
1,Boa Viagem/CE,-5.1261877,-39.7300055,1703,3120.36206
D1,Boa Viagem/CE,-5.1261877,-39.7300055,44,80.62004
1,Boa Vista da Aparecida/PR,-25.4357216,-53.4067721,357,4734.74801
D1,Boa Vista da Aparecida/PR,-25.4357216,-53.4067721,9,119.36340
1,Boa Vista das Missões/RS,-27.6677983,-53.3127622,35,1673.04015
1,Boa Vista do Buricá/RS,-27.6687782,-54.1111913,308,4588.79619
D1,Boa Vista do Buricá/RS,-27.6687782,-54.1111913,4,59.59476
1,Boa Vista do Cadeado/RS,-28.5783827,-53.8123759,78,3160.45381
1,Boa Vista do Gurupi/MA,-1.7981168,-46.3071882,14,167.02458
D1,Boa Vista do Gurupi/MA,-1.7981168,-46.3071882,3,35.79098
1,Boa Vista do Incra/RS,-28.8195551,-53.3866624,93,3555.04587
D1,Boa Vista do Incra/RS,-28.8195551,-53.3866624,1,38.22630
1,Boa Vista do Ramos/AM,-2.9716927,-57.5869819,738,3760.31795
D1,Boa Vista do Ramos/AM,-2.9716927,-57.5869819,11,56.04810
1,Boa Vista do Sul/RS,-29.3510488,-51.6779679,122,4391.64867
D1,Boa Vista do Sul/RS,-29.3510488,-51.6779679,2,71.99424
1,Boa Vista do Tupim/BA,-12.6605988,-40.6083594,146,787.86898
D1,Boa Vista do Tupim/BA,-12.6605988,-40.6083594,2,10.79273
1,Boa Vista/PB,-7.2620711,-36.2415161,232,3251.12108
D1,Boa Vista/PB,-7.2620711,-36.2415161,2,28.02691
1,Boa Vista/RR,2.8208478,-60.6719582,56820,13539.79011
D1,Boa Vista/RR,2.8208478,-60.6719582,643,153.22219
1,Boca da Mata/AL,-9.6452054,-36.2116658,1315,4806.98933
D1,Boca da Mata/AL,-9.6452054,-36.2116658,26,95.04313
1,Boca do Acre/AM,-8.7553487,-67.3930873,2201,6354.84337
D1,Boca do Acre/AM,-8.7553487,-67.3930873,19,54.85780
1,Bocaina de Minas/MG,-22.167778,-44.394722,63,1237.96424
D1,Bocaina de Minas/MG,-22.167778,-44.394722,2,39.30045
1,Bocaina do Sul/SC,-27.745494,-49.942279,287,8228.21101
D1,Bocaina do Sul/SC,-27.745494,-49.942279,3,86.00917
1,Bocaina/PI,-6.9445939,-41.3224599,184,4084.35072
D1,Bocaina/PI,-6.9445939,-41.3224599,3,66.59267
1,Bocaina/SP,-22.1421831,-48.522276,608,4882.74976
D1,Bocaina/SP,-22.1421831,-48.522276,8,64.24671
1,Bocaiúva do Sul/PR,-25.206591,-49.114131,652,4966.10557
D1,Bocaiúva do Sul/PR,-25.206591,-49.114131,3,22.85018
1,Bocaiúva/MG,-17.1160208,-43.8122678,773,1538.12480
D1,Bocaiúva/MG,-17.1160208,-43.8122678,14,27.85737
1,Bodocó/PE,-7.777592,-39.933797,1221,3181.51024
D1,Bodocó/PE,-7.777592,-39.933797,15,39.08489
1,Bodoquena/MS,-20.5508775,-56.6769653,103,1314.11074
D1,Bodoquena/MS,-20.5508775,-56.6769653,2,25.51671
1,Bodó/RN,-5.9866104,-36.4134824,58,2639.96359
1,Bofete/SP,-23.1019554,-48.2610535,325,2726.28135
D1,Bofete/SP,-23.1019554,-48.2610535,4,33.55423
1,Boituva/SP,-23.2838893,-47.6738231,2571,4135.43510
D1,Boituva/SP,-23.2838893,-47.6738231,41,65.94821
1,Bom Conselho/PE,-9.169191,-36.685683,971,1991.10054
D1,Bom Conselho/PE,-9.169191,-36.685683,31,63.56758
1,Bom Despacho/MG,-19.7375242,-45.2517288,1870,3664.65470
D1,Bom Despacho/MG,-19.7375242,-45.2517288,34,66.63009
1,Bom Jardim da Serra/SC,-28.3380324,-49.625588,483,10121.54233
D1,Bom Jardim da Serra/SC,-28.3380324,-49.625588,2,41.91115
1,Bom Jardim de Goiás/GO,-16.2062659,-52.172793,236,2660.95388
D1,Bom Jardim de Goiás/GO,-16.2062659,-52.172793,4,45.10091
1,Bom Jardim de Minas/MG,-21.9476466,-44.1906033,112,1734.01455
1,Bom Jardim/MA,-3.54129,-45.606004,1009,2412.60581
D1,Bom Jardim/MA,-3.54129,-45.606004,29,69.34149
1,Bom Jardim/PE,-7.7961572,-35.5871696,808,2020.85887
D1,Bom Jardim/PE,-7.7961572,-35.5871696,34,85.03614
1,Bom Jardim/RJ,-22.1515328,-42.4186683,617,2234.21205
D1,Bom Jardim/RJ,-22.1515328,-42.4186683,5,18.10545
1,Bom Jesus da Lapa/BA,-13.250571,-43.410754,1573,2258.04599
D1,Bom Jesus da Lapa/BA,-13.250571,-43.410754,19,27.27455
1,Bom Jesus da Penha/MG,-21.0165299,-46.5226644,158,3722.90292
D1,Bom Jesus da Penha/MG,-21.0165299,-46.5226644,2,47.12535
1,Bom Jesus da Serra/BA,-14.3724084,-40.5047119,284,2891.17378
1,Bom Jesus das Selvas/MA,-4.4878075,-46.8526639,2003,5794.54393
D1,Bom Jesus das Selvas/MA,-4.4878075,-46.8526639,19,54.96572
1,Bom Jesus de Goiás/GO,-18.2174587,-49.739721,1178,4592.95072
D1,Bom Jesus de Goiás/GO,-18.2174587,-49.739721,32,124.76606
1,Bom Jesus do Amparo/MG,-19.7045132,-43.4752911,72,1173.97685
D1,Bom Jesus do Amparo/MG,-19.7045132,-43.4752911,2,32.61047
1,Bom Jesus do Araguaia/MT,-12.1725897,-51.5074425,312,4652.54996
D1,Bom Jesus do Araguaia/MT,-12.1725897,-51.5074425,1,14.91202
1,Bom Jesus do Galho/MG,-19.8283191,-42.3162256,281,1890.72803
D1,Bom Jesus do Galho/MG,-19.8283191,-42.3162256,8,53.82856
1,Bom Jesus do Itabapoana/RJ,-21.1341025,-41.680095,1743,4685.10604
D1,Bom Jesus do Itabapoana/RJ,-21.1341025,-41.680095,35,94.07843
1,Bom Jesus do Norte/ES,-21.1254776,-41.6711646,697,6996.58703
D1,Bom Jesus do Norte/ES,-21.1254776,-41.6711646,16,160.61032
1,Bom Jesus do Oeste/SC,-26.6929713,-53.0967453,79,3693.31463
D1,Bom Jesus do Oeste/SC,-26.6929713,-53.0967453,1,46.75082
1,Bom Jesus do Sul/PR,-26.1922507,-53.6002033,134,3822.01940
D1,Bom Jesus do Sul/PR,-26.1922507,-53.6002033,3,85.56760
1,Bom Jesus do Tocantins/PA,-5.0471796,-48.5978362,446,2605.44456
D1,Bom Jesus do Tocantins/PA,-5.0471796,-48.5978362,5,29.20902
1,Bom Jesus do Tocantins/TO,-8.96306,-48.165043,102,2036.74121
1,Bom Jesus dos Perdões/SP,-23.1353864,-46.4648052,772,2970.94478
D1,Bom Jesus dos Perdões/SP,-23.1353864,-46.4648052,6,23.09024
1,Bom Jesus/PB,-6.8156725,-38.6551841,78,3029.12621
D1,Bom Jesus/PB,-6.8156725,-38.6551841,3,116.50485
1,Bom Jesus/PI,-9.0711644,-44.3583926,2178,8579.19408
D1,Bom Jesus/PI,-9.0711644,-44.3583926,24,94.53657
1,Bom Jesus/RN,-5.9887544,-35.5821149,393,3827.79780
D1,Bom Jesus/RN,-5.9887544,-35.5821149,7,68.17960
1,Bom Jesus/RS,-28.6692723,-50.4346894,414,3660.80113
D1,Bom Jesus/RS,-28.6692723,-50.4346894,11,97.26766
1,Bom Jesus/SC,-26.7350604,-52.3916519,176,5757.27838
D1,Bom Jesus/SC,-26.7350604,-52.3916519,3,98.13543
1,Bom Lugar/MA,-4.3728019,-45.0366054,306,1861.54033
D1,Bom Lugar/MA,-4.3728019,-45.0366054,5,30.41733
1,Bom Princípio do Piauí/PI,-3.1912777,-41.6430185,45,796.31924
D1,Bom Princípio do Piauí/PI,-3.1912777,-41.6430185,3,53.08795
1,Bom Princípio/RS,-29.489788,-51.3566782,805,5647.14135
D1,Bom Princípio/RS,-29.489788,-51.3566782,11,77.16591
1,Bom Progresso/RS,-27.5490948,-53.8655601,34,1790.41601
1,Bom Repouso/MG,-22.4657069,-46.1485376,255,2420.04366
D1,Bom Repouso/MG,-22.4657069,-46.1485376,9,85.41331
1,Bom Retiro do Sul/RS,-29.6000007,-51.9359243,519,4188.86199
D1,Bom Retiro do Sul/RS,-29.6000007,-51.9359243,8,64.56820
1,Bom Retiro/SC,-27.798993,-49.486994,337,3349.90060
D1,Bom Retiro/SC,-27.798993,-49.486994,8,79.52286
1,Bom Sucesso de Itararé/SP,-24.3190016,-49.1446207,63,1581.32530
D1,Bom Sucesso de Itararé/SP,-24.3190016,-49.1446207,4,100.40161
1,Bom Sucesso do Sul/PR,-26.0749256,-52.8348629,143,4394.59127
D1,Bom Sucesso do Sul/PR,-26.0749256,-52.8348629,2,61.46281
1,Bom Sucesso/MG,-21.0323516,-44.7598082,185,1050.71846
D1,Bom Sucesso/MG,-21.0323516,-44.7598082,3,17.03868
1,Bom Sucesso/PB,-6.4458948,-37.9297662,76,1533.49475
1,Bom Sucesso/PR,-23.7088019,-51.7651297,331,4683.07866
D1,Bom Sucesso/PR,-23.7088019,-51.7651297,6,84.88964
1,Bombinhas/SC,-27.1519159,-48.4875691,2586,12716.99041
D1,Bombinhas/SC,-27.1519159,-48.4875691,25,122.94074
1,Bonfim do Piauí/PI,-9.1648678,-42.8734415,163,2867.19437
D1,Bonfim do Piauí/PI,-9.1648678,-42.8734415,2,35.18030
1,Bonfim/MG,-20.3266626, -44.2386157,167,2434.40233
D1,Bonfim/MG,-20.3266626, -44.2386157,3,43.73178
1,Bonfim/RR,3.3613818,-59.8427241,1392,11085.45035
D1,Bonfim/RR,3.3613818,-59.8427241,16,127.41897
1,Bonfinópolis de Minas/MG,-16.5660011,-45.98645,215,3949.30198
D1,Bonfinópolis de Minas/MG,-16.5660011,-45.98645,9,165.31962
1,Bonfinópolis/GO,-16.6172709,-48.9615701,401,4042.74624
D1,Bonfinópolis/GO,-16.6172709,-48.9615701,11,110.89828
1,Boninal/BA,-12.7095183,-41.8299984,369,2554.34030
D1,Boninal/BA,-12.7095183,-41.8299984,4,27.68933
1,Bonito de Minas/MG,-15.3191266,-44.7544,14,123.14188
1,Bonito de Santa Fé/PB,-7.3143332,-38.5146677,331,2753.28564
D1,Bonito de Santa Fé/PB,-7.3143332,-38.5146677,11,91.49892
1,Bonito/BA,-11.9665473,-41.2649896,453,2683.01350
D1,Bonito/BA,-11.9665473,-41.2649896,3,17.76830
1,Bonito/MS,-21.1264766,-56.4902208,1345,6061.28887
D1,Bonito/MS,-21.1264766,-56.4902208,22,99.14376
1,Bonito/PA,-1.3605722,-47.3049907,318,1923.77495
D1,Bonito/PA,-1.3605722,-47.3049907,10,60.49607
1,Bonito/PE,-8.4721161,-35.7314591,494,1296.00965
D1,Bonito/PE,-8.4721161,-35.7314591,28,73.45804
1,Bonópolis/GO,-13.649331,-49.8329113,94,2092.14333
D1,Bonópolis/GO,-13.649331,-49.8329113,1,22.25684
1,Boqueirão do Leão/RS,-29.30332,-52.4296817,203,2635.67904
D1,Boqueirão do Leão/RS,-29.30332,-52.4296817,6,77.90184
1,Boqueirão do Piauí/PI,-4.4850148,-42.1095161,299,4652.97230
D1,Boqueirão do Piauí/PI,-4.4850148,-42.1095161,2,31.12356
1,Boqueirão/PB,-7.487004,-36.130887,961,5377.72804
D1,Boqueirão/PB,-7.487004,-36.130887,14,78.34359
1,Boquim/SE,-11.1450175,-37.6204228,1139,4234.35815
D1,Boquim/SE,-11.1450175,-37.6204228,25,92.94026
1,Boquira/BA,-12.8184859,-42.7270883,315,1465.32074
D1,Boquira/BA,-12.8184859,-42.7270883,5,23.25906
1,Boracéia/SP,-22.195355,-48.7801925,253,5197.20624
D1,Boracéia/SP,-22.195355,-48.7801925,3,61.62695
1,Borba/AM,-4.3934778,-59.5947721,1217,2915.10971
D1,Borba/AM,-4.3934778,-59.5947721,37,88.62700
1,Borborema/PB,-6.8066718,-35.5990191,98,1853.60318
D1,Borborema/PB,-6.8066718,-35.5990191,1,18.91432
1,Borborema/SP,-21.6212706,-49.074135,495,3062.36080
D1,Borborema/SP,-21.6212706,-49.074135,12,74.23905
1,Borda da Mata/MG,-22.274167,-46.165278,701,3573.97777
D1,Borda da Mata/MG,-22.274167,-46.165278,20,101.96798
1,Borebi/SP,-22.5700178,-48.9714871,83,3093.55199
D1,Borebi/SP,-22.5700178,-48.9714871,2,74.54342
1,Borrazópolis/PR,-23.9393362,-51.5850786,375,5823.88570
D1,Borrazópolis/PR,-23.9393362,-51.5850786,9,139.77326
1,Borá/SP,-22.2701088,-50.544407,12,1431.98091
1,Bossoroca/RS,-28.7278885,-54.9120278,119,1917.80822
D1,Bossoroca/RS,-28.7278885,-54.9120278,4,64.46414
1,Botelhos/MG,-21.65,-46.394722,345,2307.84668
D1,Botelhos/MG,-21.65,-46.394722,4,26.75764
1,Botucatu/SP,-22.8879628,-48.4410712,6546,4419.09134
D1,Botucatu/SP,-22.8879628,-48.4410712,82,55.35678
1,Botumirim/MG,-16.862778,-43.011111,82,1304.07125
D1,Botumirim/MG,-16.862778,-43.011111,1,15.90331
1,Botuporã/BA,-13.3744752,-42.5198469,92,908.28315
D1,Botuporã/BA,-13.3744752,-42.5198469,2,19.74529
1,Botuverá/SC,-27.200749,-49.068892,582,10935.73844
D1,Botuverá/SC,-27.200749,-49.068892,3,56.36979
1,Bozano/RS,-28.3669953,-53.7705165,66,3126.48034
1,Braga/RS,-27.617348,-53.740514,80,2416.18846
D1,Braga/RS,-27.617348,-53.740514,2,60.40471
1,Braganey/PR,-24.8179919,-53.118506,157,2917.13118
D1,Braganey/PR,-24.8179919,-53.118506,3,55.74136
1,Bragança Paulista/SP,-22.9520235,-46.5418586,6604,3872.56425
D1,Bragança Paulista/SP,-22.9520235,-46.5418586,126,73.88599
1,Bragança/PA,-1.0573967,-46.7635406,3173,2461.33081
D1,Bragança/PA,-1.0573967,-46.7635406,101,78.34680
1,Branquinha/AL,-9.2478057,-36.0152009,284,2715.10516
D1,Branquinha/AL,-9.2478057,-36.0152009,8,76.48184
1,Brasil Novo/PA,-3.3055853,-52.539198,853,5693.11887
D1,Brasil Novo/PA,-3.3055853,-52.539198,17,113.46192
1,Brasileira/PI,-4.131182,-41.7824969,295,3534.20391
D1,Brasileira/PI,-4.131182,-41.7824969,5,59.90176
1,Brasilândia de Minas/MG,-17.0096469,-46.0087183,597,3564.60473
D1,Brasilândia de Minas/MG,-17.0096469,-46.0087183,4,23.88345
1,Brasilândia do Sul/PR,-24.1975793,-53.527551,129,4990.32882
D1,Brasilândia do Sul/PR,-24.1975793,-53.527551,1,38.68472
1,Brasilândia do Tocantins/TO,-8.3886619,-48.4842729,72,3256.44505
D1,Brasilândia do Tocantins/TO,-8.3886619,-48.4842729,1,45.22840
1,Brasilândia/MS,-21.255575,-52.0365617,250,2109.17067
D1,Brasilândia/MS,-21.255575,-52.0365617,5,42.18341
1,Brasiléia/AC,-11.0010413,-68.7487894,1694,6344.09408
D1,Brasiléia/AC,-11.0010413,-68.7487894,25,93.62595
1,Brasnorte/MT,-12.1227151,-58.0050109,736,3654.41907
D1,Brasnorte/MT,-12.1227151,-58.0050109,7,34.75670
1,Brasília de Minas/MG,-16.2075114,-44.430559,469,1447.30751
D1,Brasília de Minas/MG,-16.2075114,-44.430559,5,15.42972
1,Brasília/DF,-15.7934036,-47.8823172,280026,9165.70681
D1,Brasília/DF,-15.7934036,-47.8823172,4600,150.56549
1,Brazabrantes/GO,-16.4291635,-49.3858216,218,5819.54084
D1,Brazabrantes/GO,-16.4291635,-49.3858216,2,53.39028
1,Brazópolis/MG,-22.4742842,-45.6165577,424,2942.40111
D1,Brazópolis/MG,-22.4742842,-45.6165577,9,62.45663
1,Braço do Norte/SC,-28.2728633,-49.1622712,4894,14446.80600
D1,Braço do Norte/SC,-28.2728633,-49.1622712,40,118.07770
1,Braço do Trombudo/SC,-27.358578,-49.882145,314,8331.12231
D1,Braço do Trombudo/SC,-27.358578,-49.882145,3,79.59671
1,Braúna/SP,-21.5015319,-50.3175246,177,3083.08657
D1,Braúna/SP,-21.5015319,-50.3175246,7,121.92998
1,Braúnas/MG,-19.055556,-42.716111,76,1593.62550
D1,Braúnas/MG,-19.055556,-42.716111,3,62.90627
1,Brejetuba/ES,-20.1465817,-41.2902303,951,7652.69172
D1,Brejetuba/ES,-20.1465817,-41.2902303,3,24.14098
1,Brejinho de Nazaré/TO,-11.0205883,-48.5722906,128,2319.26074
D1,Brejinho de Nazaré/TO,-11.0205883,-48.5722906,6,108.71535
1,Brejinho/PE,-7.3482153,-37.28538,320,4273.50427
D1,Brejinho/PE,-7.3482153,-37.28538,4,53.41880
1,Brejinho/RN,-6.1957907,-35.3583019,532,4160.47548
D1,Brejinho/RN,-6.1957907,-35.3583019,5,39.10221
1,Brejo Alegre/SP,-21.1671191,-50.1850393,166,5745.93285
D1,Brejo Alegre/SP,-21.1671191,-50.1850393,8,276.91243
1,Brejo Grande do Araguaia/PA,-5.7011449,-48.4037308,683,9269.81542
D1,Brejo Grande do Araguaia/PA,-5.7011449,-48.4037308,4,54.28882
1,Brejo Grande/SE,-10.4287358,-36.4667918,236,2825.33222
D1,Brejo Grande/SE,-10.4287358,-36.4667918,9,107.74572
1,Brejo Santo/CE,-7.4909841,-38.9859152,3209,6438.34517
D1,Brejo Santo/CE,-7.4909841,-38.9859152,28,56.17752
1,Brejo da Madre de Deus/PE,-8.1409718,-36.3712527,1211,2364.08004
D1,Brejo da Madre de Deus/PE,-8.1409718,-36.3712527,37,72.23036
1,Brejo de Areia/MA,-4.3316785,-45.5833334,267,2962.05902
D1,Brejo de Areia/MA,-4.3316785,-45.5833334,2,22.18771
1,Brejo do Cruz/PB,-6.32926065,-37.48746163303929,1071,7539.06800
D1,Brejo do Cruz/PB,-6.32926065,-37.48746163303929,12,84.47135
1,Brejo do Piauí/PI,-8.207583,-42.8359849,40,1039.50104
D1,Brejo do Piauí/PI,-8.207583,-42.8359849,3,77.96258
1,Brejo dos Santos/PB,-6.3769367,-37.8243125,145,2243.19307
D1,Brejo dos Santos/PB,-6.3769367,-37.8243125,3,46.41089
1,Brejo/MA,-3.6804397,-42.7529313,708,1931.73447
D1,Brejo/MA,-3.6804397,-42.7529313,18,49.11189
1,Brejolândia/BA,-12.4843845,-43.9611861,126,1186.66416
D1,Brejolândia/BA,-12.4843845,-43.9611861,7,65.92579
1,Brejão/PE,-9.029146,-36.566034,122,1357.51641
D1,Brejão/PE,-9.029146,-36.566034,3,33.38155
1,Brejões/BA,-13.1033754,-39.7909837,410,2882.85754
D1,Brejões/BA,-13.1033754,-39.7909837,5,35.15680
1,Breu Branco/PA,-3.7785073,-49.5684795,437,649.02275
D1,Breu Branco/PA,-3.7785073,-49.5684795,29,43.07016
1,Breves/PA,-1.68036,-50.479085,3560,3439.71323
D1,Breves/PA,-1.68036,-50.479085,99,95.65495
1,Britânia/GO,-15.2427599,-51.1602061,304,5244.09177
D1,Britânia/GO,-15.2427599,-51.1602061,1,17.25030
1,Brochier/RS,-29.556766,-51.5963047,131,2566.61442
1,Brodowski/SP,-20.984532,-47.657217,1096,4335.95759
D1,Brodowski/SP,-20.984532,-47.657217,26,102.86031
1,Brotas de Macaúbas/BA,-12.0019007,-42.6257506,51,503.45508
1,Brotas/SP,-22.2840884,-48.1267265,278,1128.42994
D1,Brotas/SP,-22.2840884,-48.1267265,10,40.59101
1,Brumadinho/MG,-20.143611,-44.2,1973,4851.71888
D1,Brumadinho/MG,-20.143611,-44.2,25,61.47642
1,Brumado/BA,-14.29507325,-41.659307508575985,4527,6723.10091
D1,Brumado/BA,-14.29507325,-41.659307508575985,42,62.37469
1,Brunópolis/SC,-27.310953,-50.837585,73,3082.77027
1,Brusque/SC,-27.0964628,-48.9136323,16183,11753.29910
D1,Brusque/SC,-27.0964628,-48.9136323,123,89.33175
1,Brás Pires/MG,-20.8483109,-43.2430524,94,2189.61099
D1,Brás Pires/MG,-20.8483109,-43.2430524,4,93.17494
1,Bueno Brandão/MG,-22.441976,-46.3517971,258,2347.37513
D1,Bueno Brandão/MG,-22.441976,-46.3517971,6,54.59012
1,Buenos Aires/PE,-7.7218931,-35.326587,81,614.10159
D1,Buenos Aires/PE,-7.7218931,-35.326587,10,75.81501
1,Buenópolis/MG,-17.8756607,-44.1749365,141,1361.92408
D1,Buenópolis/MG,-17.8756607,-44.1749365,5,48.29518
1,Buerarema/BA,-14.9571177,-39.3008035,888,4850.86857
D1,Buerarema/BA,-14.9571177,-39.3008035,26,142.02994
1,Bugre/MG,-19.4257687,-42.2556,286,7180.51720
D1,Bugre/MG,-19.4257687,-42.2556,8,200.85363
1,Bujari/AC,-9.8309656,-67.9520886,525,5038.38772
D1,Bujari/AC,-9.8309656,-67.9520886,8,76.77543
1,Bujaru/PA,-1.5169239,-48.0410699,860,2922.48615
D1,Bujaru/PA,-1.5169239,-48.0410699,25,84.95599
1,Buri/SP,-23.79849,-48.598924,627,3140.49587
D1,Buri/SP,-23.79849,-48.598924,12,60.10518
1,Buritama/SP,-21.0664017,-50.1448077,1152,6666.28089
D1,Buritama/SP,-21.0664017,-50.1448077,32,185.17447
1,Buriti Alegre/GO,-18.1377879,-49.0404411,479,5050.61156
D1,Buriti Alegre/GO,-18.1377879,-49.0404411,12,126.52889
1,Buriti Bravo/MA,-5.8391884,-43.8367876,1019,4256.65232
D1,Buriti Bravo/MA,-5.8391884,-43.8367876,10,41.77284
1,Buriti de Goiás/GO,-16.180644,-50.4287479,120,4846.52666
D1,Buriti de Goiás/GO,-16.180644,-50.4287479,1,40.38772
1,Buriti do Tocantins/TO,-5.3187439,-48.2256609,359,3122.55371
D1,Buriti do Tocantins/TO,-5.3187439,-48.2256609,1,8.69792
1,Buriti dos Lopes/PI,-3.1776723,-41.8707444,836,4220.73004
D1,Buriti dos Lopes/PI,-3.1776723,-41.8707444,12,60.58464
1,Buriti dos Montes/PI,-5.3136171,-41.0971256,317,3835.91481
D1,Buriti dos Montes/PI,-5.3136171,-41.0971256,2,24.20136
1,Buriti/MA,-3.9430944,-42.9244281,706,2451.55914
D1,Buriti/MA,-3.9430944,-42.9244281,5,17.36232
1,Buriticupu/MA,-4.3227472,-46.4516989,2651,3632.35274
D1,Buriticupu/MA,-4.3227472,-46.4516989,19,26.03346
1,Buritinópolis/GO,-14.4589282,-46.4293104,64,1949.43649
1,Buritirama/BA,-10.7148421,-43.6362327,585,2749.57699
D1,Buritirama/BA,-10.7148421,-43.6362327,14,65.80184
1,Buritirana/MA,-5.5897455,-47.0148915,244,1577.55221
D1,Buritirana/MA,-5.5897455,-47.0148915,10,64.65378
1,Buritis/MG,-15.621389,-46.423889,607,2426.73810
D1,Buritis/MG,-15.621389,-46.423889,8,31.98337
1,Buritis/RO,-10.2054937,-63.8281954,2703,6697.88879
D1,Buritis/RO,-10.2054937,-63.8281954,21,52.03687
1,Buritizal/SP,-20.1933264,-47.7097165,101,2237.48339
D1,Buritizal/SP,-20.1933264,-47.7097165,3,66.45990
1,Buritizeiro/MG,-17.3667765,-44.9647781,526,1870.48825
D1,Buritizeiro/MG,-17.3667765,-44.9647781,14,49.78486
1,Butiá/RS,-30.1256795,-51.9692224,753,3593.92898
D1,Butiá/RS,-30.1256795,-51.9692224,26,124.09317
1,Buíque/PE,-8.6239732,-37.157296,1073,1821.14428
D1,Buíque/PE,-8.6239732,-37.157296,13,22.06419
1,Bálsamo/SP,-20.7343722,-49.5807484,759,8305.06620
D1,Bálsamo/SP,-20.7343722,-49.5807484,30,328.26349
0,CASO SEM LOCALIZAÇÃO DEFINIDA/AL,-9.931093434363673,-35.609611600637464,8,0.23971
D0,CASO SEM LOCALIZAÇÃO DEFINIDA/AL,-9.931093434363673,-35.609611600637464,8,0.23971
0,CASO SEM LOCALIZAÇÃO DEFINIDA/BA,-13.415069300066518,-38.14174656569957,8501,57.15702
D0,CASO SEM LOCALIZAÇÃO DEFINIDA/BA,-13.415069300066518,-38.14174656569957,77,0.51771
0,CASO SEM LOCALIZAÇÃO DEFINIDA/CE,-3.3445126297392798,-38.624961942434304,7397,81.00018
D0,CASO SEM LOCALIZAÇÃO DEFINIDA/CE,-3.3445126297392798,-38.624961942434304,18,0.19711
0,CASO SEM LOCALIZAÇÃO DEFINIDA/ES,-20.30989267097039,-39.81745156645774,2455,61.09017
D0,CASO SEM LOCALIZAÇÃO DEFINIDA/ES,-20.30989267097039,-39.81745156645774,90,2.23956
0,CASO SEM LOCALIZAÇÃO DEFINIDA/GO,-16.701590966270153,-49.164524059025034,1470,20.94508
D0,CASO SEM LOCALIZAÇÃO DEFINIDA/GO,-16.701590966270153,-49.164524059025034,13,0.18523
0,CASO SEM LOCALIZAÇÃO DEFINIDA/MG,-19.97049116501593,-43.8852149072783,3974,18.77292
D0,CASO SEM LOCALIZAÇÃO DEFINIDA/MG,-19.97049116501593,-43.8852149072783,130,0.61411
0,CASO SEM LOCALIZAÇÃO DEFINIDA/MT,-15.54791153961863,-56.17143998972475,1474,42.30203
D0,CASO SEM LOCALIZAÇÃO DEFINIDA/MT,-15.54791153961863,-56.17143998972475,86,2.46810
0,CASO SEM LOCALIZAÇÃO DEFINIDA/PA,-0.09317078214359542,-48.0050231510481,1594,18.52871
D0,CASO SEM LOCALIZAÇÃO DEFINIDA/PA,-0.09317078214359542,-48.0050231510481,45,0.52308
0,CASO SEM LOCALIZAÇÃO DEFINIDA/PR,-25.69415946385943,-48.10141676336737,4227,36.96883
D0,CASO SEM LOCALIZAÇÃO DEFINIDA/PR,-25.69415946385943,-48.10141676336737,79,0.69092
0,CASO SEM LOCALIZAÇÃO DEFINIDA/RN,-5.749310788669161,-34.95302586257457,1001,28.54411
D0,CASO SEM LOCALIZAÇÃO DEFINIDA/RN,-5.749310788669161,-34.95302586257457,19,0.54180
0,CASO SEM LOCALIZAÇÃO DEFINIDA/RR,2.813328208465927,-60.663338675861986,2018,333.13469
D0,CASO SEM LOCALIZAÇÃO DEFINIDA/RR,2.813328208465927,-60.663338675861986,9,1.48573
0,CASO SEM LOCALIZAÇÃO DEFINIDA/SC,-27.675643660562308,-48.18313219398259,12521,174.75744
0,CASO SEM LOCALIZAÇÃO DEFINIDA/SP,-24.30968974555485,-46.21366504207253,313,0.68163
1,Caapiranga/AM,-3.3188884,-61.2096404,505,3801.85199
D1,Caapiranga/AM,-3.3188884,-61.2096404,17,127.98314
1,Caaporã/PB,-7.510234,-34.9154114,1241,5652.47096
D1,Caaporã/PB,-7.510234,-34.9154114,19,86.54065
1,Caarapó/MS,-22.6349267,-54.8240903,1723,5632.00732
D1,Caarapó/MS,-22.6349267,-54.8240903,17,55.56827
1,Caatiba/BA,-14.9782759,-40.4092325,493,7598.64365
D1,Caatiba/BA,-14.9782759,-40.4092325,4,61.65228
1,Cabaceiras do Paraguaçu/BA,-12.5377868,-39.1901339,241,1274.39057
D1,Cabaceiras do Paraguaçu/BA,-12.5377868,-39.1901339,1,5.28793
1,Cabaceiras/PB,-7.4899156,-36.2860501,231,4080.55114
1,Cabeceira Grande/MG,-16.0297,-47.0906,110,1574.12707
D1,Cabeceira Grande/MG,-16.0297,-47.0906,3,42.93074
1,Cabeceiras do Piauí/PI,-4.4733665,-42.3098716,288,2709.31326
D1,Cabeceiras do Piauí/PI,-4.4733665,-42.3098716,7,65.85136
1,Cabeceiras/GO,-15.7995459,-46.9264991,119,1478.99577
D1,Cabeceiras/GO,-15.7995459,-46.9264991,3,37.28561
1,Cabedelo/PB,-6.97324,-34.8351609,4841,7039.71382
D1,Cabedelo/PB,-6.97324,-34.8351609,99,143.96440
1,Cabixi/RO,-13.4956065,-60.5424442,388,7478.79722
D1,Cabixi/RO,-13.4956065,-60.5424442,9,173.47726
1,Cabo Frio/RJ,-22.8804369,-42.0189227,6782,2943.85749
D1,Cabo Frio/RJ,-22.8804369,-42.0189227,282,122.40752
1,Cabo Verde/MG,-21.4743338,-46.3964995,215,1527.53108
D1,Cabo Verde/MG,-21.4743338,-46.3964995,3,21.31439
1,Cabo de Santo Agostinho/PE,-8.2838945,-35.0320984,2759,1320.44950
D1,Cabo de Santo Agostinho/PE,-8.2838945,-35.0320984,312,149.32231
1,Cabreúva/SP,-23.3075813,-47.1324417,2170,4303.07958
D1,Cabreúva/SP,-23.3075813,-47.1324417,51,101.13228
1,Cabrobó/PE,-8.5083701,-39.3106961,998,2892.50210
D1,Cabrobó/PE,-8.5083701,-39.3106961,9,26.08469
1,Cabrália Paulista/SP,-22.4562909,-49.3385645,143,3370.25689
D1,Cabrália Paulista/SP,-22.4562909,-49.3385645,1,23.56823
1,Cacaulândia/RO,-10.3380043,-62.9007231,239,3812.41027
D1,Cacaulândia/RO,-10.3380043,-62.9007231,3,47.85452
1,Cacequi/RS,-29.8838059,-54.8273443,124,998.14860
D1,Cacequi/RS,-29.8838059,-54.8273443,2,16.09917
1,Cachoeira Alta/GO,-18.7618269,-50.9432431,854,6742.46013
D1,Cachoeira Alta/GO,-18.7618269,-50.9432431,13,102.63698
1,Cachoeira Dourada/GO,-18.4934204,-49.481062,199,2477.89814
D1,Cachoeira Dourada/GO,-18.4934204,-49.481062,4,49.80700
1,Cachoeira Dourada/MG,-18.517136,-49.5002062,91,3362.89727
1,Cachoeira Grande/MA,-2.9290492,-44.0573223,187,1972.99008
D1,Cachoeira Grande/MA,-2.9290492,-44.0573223,4,42.20300
1,Cachoeira Paulista/SP,-22.666498,-45.015384,823,2450.79063
D1,Cachoeira Paulista/SP,-22.666498,-45.015384,22,65.51324
1,Cachoeira da Prata/MG,-19.524723,-44.453056,170,4734.05737
D1,Cachoeira da Prata/MG,-19.524723,-44.453056,2,55.69479
1,Cachoeira de Goiás/GO,-16.6688414,-50.6435997,29,2160.95380
1,Cachoeira de Minas/MG,-22.3554043,-45.7796324,347,2996.80456
D1,Cachoeira de Minas/MG,-22.3554043,-45.7796324,3,25.90897
1,Cachoeira de Pajeú/MG,-15.965833,-41.496666,293,3103.15611
D1,Cachoeira de Pajeú/MG,-15.965833,-41.496666,4,42.36391
1,Cachoeira do Arari/PA,-1.0143572,-48.9621089,339,1408.74335
D1,Cachoeira do Arari/PA,-1.0143572,-48.9621089,13,54.02261
1,Cachoeira do Piriá/PA,-1.7599443,-46.5446954,542,1566.06663
D1,Cachoeira do Piriá/PA,-1.7599443,-46.5446954,3,8.66827
1,Cachoeira do Sul/RS,-30.0474778,-52.8905413,2500,3053.65889
D1,Cachoeira do Sul/RS,-30.0474778,-52.8905413,32,39.08683
1,Cachoeira dos Índios/PB,-6.9259193,-38.6742159,343,3328.48132
D1,Cachoeira dos Índios/PB,-6.9259193,-38.6742159,11,106.74430
1,Cachoeira/BA,-12.5998256,-38.9665918,713,2124.10999
D1,Cachoeira/BA,-12.5998256,-38.9665918,12,35.74940
1,Cachoeiras de Macacu/RJ,-22.4626861,-42.6534414,1627,2743.53743
D1,Cachoeiras de Macacu/RJ,-22.4626861,-42.6534414,54,91.05779
1,Cachoeirinha/PE,-8.4906364,-36.2338963,330,1609.67758
D1,Cachoeirinha/PE,-8.4906364,-36.2338963,22,107.31184
1,Cachoeirinha/RS,-29.9493353,-51.0898927,6334,4826.27248
D1,Cachoeirinha/RS,-29.9493353,-51.0898927,162,123.43798
1,Cachoeirinha/TO,-6.118647,-47.9208885,113,4947.46060
D1,Cachoeirinha/TO,-6.118647,-47.9208885,2,87.56567
1,Cachoeiro de Itapemirim/ES,-20.848084,-41.11129,15659,7435.81099
D1,Cachoeiro de Itapemirim/ES,-20.848084,-41.11129,309,146.73131
1,Cacimba de Areia/PB,-7.1288513,-37.1575194,22,595.39919
1,Cacimba de Dentro/PB,-6.6425101,-35.7929304,728,4237.97881
D1,Cacimba de Dentro/PB,-6.6425101,-35.7929304,17,98.96379
1,Cacimbas/PB,-7.2125451,-37.0593398,108,1500.20836
D1,Cacimbas/PB,-7.2125451,-37.0593398,5,69.45409
1,Cacimbinhas/AL,-9.401212,-36.991082,370,3397.92451
D1,Cacimbinhas/AL,-9.401212,-36.991082,3,27.55074
1,Cacique Doble/RS,-27.7700117,-51.6616409,190,3744.58021
D1,Cacique Doble/RS,-27.7700117,-51.6616409,1,19.70832
1,Cacoal/RO,-11.4333,-61.4420502,7181,8360.40190
D1,Cacoal/RO,-11.4333,-61.4420502,93,108.27425
1,Caconde/SP,-21.527995,-46.643659,564,2967.01562
D1,Caconde/SP,-21.527995,-46.643659,3,15.78200
1,Caculé/BA,-14.4990734,-42.2233006,458,1966.42480
D1,Caculé/BA,-14.4990734,-42.2233006,5,21.46752
1,Caetanos/BA,-14.3387456,-40.9085971,331,2265.88171
D1,Caetanos/BA,-14.3387456,-40.9085971,2,13.69113
1,Caetanópolis/MG,-19.2947496,-44.4138386,484,4119.49953
D1,Caetanópolis/MG,-19.2947496,-44.4138386,3,25.53409
1,Caetité/BA,-14.0691776,-42.4852428,1100,2153.44257
D1,Caetité/BA,-14.0691776,-42.4852428,6,11.74605
1,Caeté/MG,-19.897777,-43.670278,936,2077.82982
D1,Caeté/MG,-19.897777,-43.670278,26,57.71750
1,Caetés/PE,-8.7728788,-36.6255835,888,3072.23914
D1,Caetés/PE,-8.7728788,-36.6255835,10,34.59729
1,Cafarnaum/BA,-11.691399,-41.468823,631,3408.41571
D1,Cafarnaum/BA,-11.691399,-41.468823,10,54.01610
1,Cafeara/PR,-22.78905,-51.714195,141,4773.18890
D1,Cafeara/PR,-22.78905,-51.714195,2,67.70481
1,Cafelândia/PR,-24.6176963,-53.3218057,979,5304.50802
D1,Cafelândia/PR,-24.6176963,-53.3218057,6,32.50975
1,Cafelândia/SP,-21.8054355,-49.6030627,507,2841.45043
D1,Cafelândia/SP,-21.8054355,-49.6030627,14,78.46214
1,Cafezal do Sul/PR,-23.900508,-53.512418,108,2693.93864
D1,Cafezal do Sul/PR,-23.900508,-53.512418,1,24.94388
1,Caiabu/SP,-22.0143038,-51.2356597,47,1120.91581
D1,Caiabu/SP,-22.0143038,-51.2356597,2,47.69855
1,Caiana/MG,-20.695555,-41.924723,72,1299.40444
D1,Caiana/MG,-20.695555,-41.924723,2,36.09457
1,Caiapônia/GO,-16.9538779,-51.8090761,447,2339.45674
D1,Caiapônia/GO,-16.9538779,-51.8090761,8,41.86947
1,Caibaté/RS,-28.290475,-54.645407,31,642.75347
D1,Caibaté/RS,-28.290475,-54.645407,3,62.20195
1,Caibi/SC,-27.0751925,-53.2502133,215,3507.34095
D1,Caibi/SC,-27.0751925,-53.2502133,2,32.62643
1,Caicó/RN,-6.4594544,-37.0971911,6673,9763.98461
D1,Caicó/RN,-6.4594544,-37.0971911,74,108.27737
1,Caieiras/SP,-23.3644621,-46.7484765,4280,4164.43688
D1,Caieiras/SP,-23.3644621,-46.7484765,127,123.57091
1,Cairu/BA,-13.4860505,-39.0455744,798,4330.60183
D1,Cairu/BA,-13.4860505,-39.0455744,8,43.41455
1,Caiuá/SP,-21.8319357,-51.9887179,156,2623.61251
D1,Caiuá/SP,-21.8319357,-51.9887179,2,33.63606
1,Caiçara do Norte/RN,-5.0645017,-36.0561226,143,2179.54580
D1,Caiçara do Norte/RN,-5.0645017,-36.0561226,3,45.72474
1,Caiçara do Rio do Vento/RN,-5.757968,-36.00089,110,2960.96904
D1,Caiçara do Rio do Vento/RN,-5.757968,-36.00089,3,80.75370
1,Caiçara/PB,-6.6146866,-35.4681434,497,6911.41705
D1,Caiçara/PB,-6.6146866,-35.4681434,10,139.06272
1,Caiçara/RS,-27.2750478,-53.4310053,274,5829.78723
D1,Caiçara/RS,-27.2750478,-53.4310053,3,63.82979
1,Cajamar/SP,-23.3561111,-46.8769444,2075,2662.50930
D1,Cajamar/SP,-23.3561111,-46.8769444,88,112.91606
1,Cajapió/MA,-2.8778715,-44.6746871,54,481.45506
D1,Cajapió/MA,-2.8778715,-44.6746871,2,17.83167
1,Cajari/MA,-3.3213076,-45.0118757,132,678.62835
D1,Cajari/MA,-3.3213076,-45.0118757,4,20.56450
1,Cajati/SP,-24.7272376,-48.1077914,2401,8426.33537
D1,Cajati/SP,-24.7272376,-48.1077914,49,171.96603
1,Cajazeiras do Piauí/PI,-6.794271,-42.3935024,24,671.70445
D1,Cajazeiras do Piauí/PI,-6.794271,-42.3935024,1,27.98769
1,Cajazeiras/PB,-6.8897849,-38.5570389,3954,6347.83028
D1,Cajazeiras/PB,-6.8897849,-38.5570389,73,117.19565
1,Cajazeirinhas/PB,-6.961442,-37.7993733,75,2340.09360
1,Cajobi/SP,-20.8776238,-48.8106972,381,3595.69649
D1,Cajobi/SP,-20.8776238,-48.8106972,7,66.06267
1,Cajueiro da Praia/PI,-2.931114,-41.340801,445,5798.80115
D1,Cajueiro da Praia/PI,-2.931114,-41.340801,10,130.31014
1,Cajueiro/AL,-9.399589,-36.1524309,400,1875.20510
D1,Cajueiro/AL,-9.399589,-36.1524309,18,84.38423
1,Cajuri/MG,-20.7901414,-42.7954489,143,3598.38953
D1,Cajuri/MG,-20.7901414,-42.7954489,1,25.16356
1,Cajuru/SP,-21.2759978,-47.3046035,533,2019.47486
D1,Cajuru/SP,-21.2759978,-47.3046035,17,64.41102
1,Caldas Brandão/PB,-7.1027959,-35.3254676,370,6119.74859
D1,Caldas Brandão/PB,-7.1027959,-35.3254676,5,82.69931
1,Caldas Novas/GO,-17.745,-48.625,4398,4719.08666
D1,Caldas Novas/GO,-17.745,-48.625,79,84.76759
1,Caldas/MG,-21.923611,-46.386111,333,2290.07634
D1,Caldas/MG,-21.923611,-46.386111,10,68.77106
1,Caldazinha/GO,-16.7116649,-49.0012601,132,3430.35343
D1,Caldazinha/GO,-16.7116649,-49.0012601,2,51.97505
1,Caldeirão Grande do Piauí/PI,-7.3310393,-40.6374433,190,3286.62861
D1,Caldeirão Grande do Piauí/PI,-7.3310393,-40.6374433,1,17.29805
1,Caldeirão Grande/BA,-11.0208483,-40.3041387,513,3830.93122
D1,Caldeirão Grande/BA,-11.0208483,-40.3041387,4,29.87081
1,Califórnia/PR,-23.6672543,-51.3554556,432,5019.75366
D1,Califórnia/PR,-23.6672543,-51.3554556,8,92.95840
1,Calmon/SC,-26.6023644,-51.0992893,16,479.76012
D1,Calmon/SC,-26.6023644,-51.0992893,2,59.97001
1,Calumbi/PE,-7.9389746,-38.1516871,309,5376.71829
D1,Calumbi/PE,-7.9389746,-38.1516871,2,34.80077
1,Calçado/PE,-8.7413446,-36.3351787,210,1905.97205
D1,Calçado/PE,-8.7413446,-36.3351787,2,18.15211
1,Calçoene/AP,2.4981757,-50.9539503,1526,13497.25809
D1,Calçoene/AP,2.4981757,-50.9539503,9,79.60375
1,Camacan/BA,-15.4166631,-39.4930088,1885,5889.52071
D1,Camacan/BA,-15.4166631,-39.4930088,42,131.22540
1,Camacho/MG,-20.625556,-45.156667,46,1603.34611
1,Camalaú/PB,-7.885031,-36.824191,202,3349.36163
D1,Camalaú/PB,-7.885031,-36.824191,2,33.16200
1,Camamu/BA,-13.9438142,-39.1060917,1252,3538.52241
D1,Camamu/BA,-13.9438142,-39.1060917,26,73.48369
1,Camanducaia/MG,-22.755278,-46.144444,1523,6985.91808
D1,Camanducaia/MG,-22.755278,-46.144444,13,59.63029
1,Camapuã/MS,-19.5291747,-54.0434641,308,2249.32447
D1,Camapuã/MS,-19.5291747,-54.0434641,7,51.12101
1,Camaquã/RS,-30.8524752,-51.8075619,3254,4894.85243
D1,Camaquã/RS,-30.8524752,-51.8075619,41,61.67454
1,Camaragibe/PE,-8.0213832,-34.9810768,3047,1917.57028
D1,Camaragibe/PE,-8.0213832,-34.9810768,230,144.74603
1,Camargo/RS,-28.5865661,-52.2031474,184,6710.43034
D1,Camargo/RS,-28.5865661,-52.2031474,2,72.93946
1,Camaçari/BA,-12.6998188,-38.3260762,9437,3101.19552
D1,Camaçari/BA,-12.6998188,-38.3260762,157,51.59348
1,Cambará do Sul/RS,-29.0489517,-50.145412,263,4105.52607
D1,Cambará do Sul/RS,-29.0489517,-50.145412,2,31.22073
1,Cambará/PR,-23.042273,-50.075281,766,3007.93214
D1,Cambará/PR,-23.042273,-50.075281,11,43.19485
1,Cambira/PR,-23.600265,-51.581045,315,3978.77984
D1,Cambira/PR,-23.600265,-51.581045,6,75.78628
1,Camboriú/SC,-27.0273601,-48.6535657,7888,9268.55061
D1,Camboriú/SC,-27.0273601,-48.6535657,89,104.57670
1,Cambuci/RJ,-21.5749919,-41.9107833,422,2720.12376
D1,Cambuci/RJ,-21.5749919,-41.9107833,7,45.12054
1,Cambuquira/MG,-21.853056,-45.2953619,169,1319.07587
D1,Cambuquira/MG,-21.853056,-45.2953619,7,54.63628
1,Cambuí/MG,-22.6122501,-46.0572137,1295,4343.59697
D1,Cambuí/MG,-22.6122501,-46.0572137,12,40.24955
1,Cambé/PR,-23.2782035,-51.2779583,6070,5654.87558
D1,Cambé/PR,-23.2782035,-51.2779583,77,71.73401
1,Cametá/PA,-2.242949,-49.497885,5831,4184.00735
D1,Cametá/PA,-2.242949,-49.497885,125,89.69318
1,Camocim de São Félix/PE,-8.3616757,-35.7638903,321,1698.41270
D1,Camocim de São Félix/PE,-8.3616757,-35.7638903,11,58.20106
1,Camocim/CE,-2.9009918,-40.8427389,2727,4267.13819
D1,Camocim/CE,-2.9009918,-40.8427389,83,129.87623
1,Campanha/MG,-21.8361108,-45.401986,647,3859.92125
D1,Campanha/MG,-21.8361108,-45.401986,12,71.59050
1,Campanário/MG,-18.2398144,-41.7271768,81,2171.58177
1,Campestre da Serra/RS,-28.7966535,-51.0958149,96,2827.68778
1,Campestre de Goiás/GO,-16.7624179,-49.69497,235,6440.12058
D1,Campestre de Goiás/GO,-16.7624179,-49.69497,4,109.61907
1,Campestre do Maranhão/MA,-6.1729113,-47.3640512,577,3992.25074
D1,Campestre do Maranhão/MA,-6.1729113,-47.3640512,17,117.62264
1,Campestre/AL,-8.8481634,-35.5660033,111,1596.20362
D1,Campestre/AL,-8.8481634,-35.5660033,4,57.52085
1,Campestre/MG,-19.6142116,-43.219378,520,2469.83946
D1,Campestre/MG,-19.6142116,-43.219378,6,28.49815
1,Campina Grande do Sul/PR,-25.3046032,-49.0545355,3207,7341.19263
D1,Campina Grande do Sul/PR,-25.3046032,-49.0545355,56,128.19045
1,Campina Grande/PB,-7.2246743,-35.8771292,17572,4267.04743
D1,Campina Grande/PB,-7.2246743,-35.8771292,524,127.24407
1,Campina Verde/MG,-19.535277,-49.486389,275,1392.26407
D1,Campina Verde/MG,-19.535277,-49.486389,12,60.75334
1,Campina da Lagoa/PR,-24.5937926,-52.8038965,306,2179.02158
D1,Campina da Lagoa/PR,-24.5937926,-52.8038965,8,56.96788
1,Campina das Missões/RS,-27.9883295,-54.8411665,211,3908.85513
D1,Campina das Missões/RS,-27.9883295,-54.8411665,4,74.10152
1,Campina do Monte Alegre/SP,-23.5935653,-48.4801876,164,2707.61103
1,Campina do Simão/PR,-25.1086375,-51.8076658,36,932.88417
D1,Campina do Simão/PR,-25.1086375,-51.8076658,1,25.91345
1,Campinas do Piauí/PI,-7.6593687,-41.8814875,103,1832.74021
D1,Campinas do Piauí/PI,-7.6593687,-41.8814875,1,17.79359
1,Campinas do Sul/RS,-27.7167968,-52.6257885,274,5038.61714
D1,Campinas do Sul/RS,-27.7167968,-52.6257885,2,36.77823
1,Campinas/SP,-22.90556,-47.06083,53055,4371.01250
D1,Campinas/SP,-22.90556,-47.06083,1692,139.39785
1,Campinaçu/GO,-13.7869969,-48.5703841,134,3689.42731
1,Campinorte/GO,-14.3136699,-49.1510931,624,4888.74961
D1,Campinorte/GO,-14.3136699,-49.1510931,9,70.51081
1,Campinápolis/MT,-14.5403731,-52.7970626,535,3162.12542
D1,Campinápolis/MT,-14.5403731,-52.7970626,17,100.47875
1,Campo Alegre de Goiás/GO,-17.6337896,-47.779291,72,930.47299
D1,Campo Alegre de Goiás/GO,-17.6337896,-47.779291,2,25.84647
1,Campo Alegre de Lourdes/BA,-9.5160326,-43.0101338,246,853.57391
D1,Campo Alegre de Lourdes/BA,-9.5160326,-43.0101338,5,17.34906
1,Campo Alegre do Fidalgo/PI,-8.3753852,-41.8364191,54,1065.29888
D1,Campo Alegre do Fidalgo/PI,-8.3753852,-41.8364191,1,19.72776
1,Campo Alegre/AL,-9.7798607,-36.3575793,1766,3069.32930
D1,Campo Alegre/AL,-9.7798607,-36.3575793,36,62.56843
1,Campo Alegre/SC,-26.1941684,-49.2657484,578,4824.30515
D1,Campo Alegre/SC,-26.1941684,-49.2657484,21,175.27752
1,Campo Azul/MG,-16.5078525,-44.8133524,52,1359.83264
1,Campo Belo do Sul/SC,-27.8987563,-50.7586887,389,5595.51208
D1,Campo Belo do Sul/SC,-27.8987563,-50.7586887,8,115.07480
1,Campo Belo/MG,-20.8975,-45.277223,2110,3893.99476
D1,Campo Belo/MG,-20.8975,-45.277223,46,84.89278
1,Campo Bom/RS,-29.674694,-51.060601,5924,8528.89516
D1,Campo Bom/RS,-29.674694,-51.060601,93,133.89386
1,Campo Bonito/PR,-25.0328004,-52.992976,110,2923.19957
D1,Campo Bonito/PR,-25.0328004,-52.992976,2,53.14908
1,Campo Erê/SC,-26.3947432,-53.0790495,537,6379.18746
D1,Campo Erê/SC,-26.3947432,-53.0790495,4,47.51722
1,Campo Florido/MG,-19.760833,-48.572223,276,3337.76757
D1,Campo Florido/MG,-19.760833,-48.572223,1,12.09336
1,Campo Formoso/BA,-10.51055,-40.320031,2215,3098.46546
D1,Campo Formoso/BA,-10.51055,-40.320031,22,30.77483
1,Campo Grande do Piauí/PI,-7.1327559,-41.0381164,376,6303.43671
D1,Campo Grande do Piauí/PI,-7.1327559,-41.0381164,4,67.05784
1,Campo Grande/AL,-9.9725,-36.74791447368421,252,2634.05456
D1,Campo Grande/AL,-9.9725,-36.74791447368421,7,73.16818
1,Campo Grande/MS,-20.4640173,-54.6162947,69823,7705.95039
D1,Campo Grande/MS,-20.4640173,-54.6162947,1316,145.23911
1,Campo Grande/RN,-5.862063,-37.3134908,185,1913.13340
D1,Campo Grande/RN,-5.862063,-37.3134908,3,31.02378
1,Campo Largo do Piauí/PI,-3.8104731,-42.6288333,237,3241.69060
D1,Campo Largo do Piauí/PI,-3.8104731,-42.6288333,5,68.39010
1,Campo Largo/PR,-25.4597726,-49.5270851,8574,6404.96022
D1,Campo Largo/PR,-25.4597726,-49.5270851,155,115.78829
1,Campo Limpo Paulista/SP,-23.207791,-46.788919,2058,2405.86385
D1,Campo Limpo Paulista/SP,-23.207791,-46.788919,92,107.55077
1,Campo Limpo de Goiás/GO,-16.297101,-49.0894994,140,1763.22418
D1,Campo Limpo de Goiás/GO,-16.297101,-49.0894994,2,25.18892
1,Campo Magro/PR,-25.3691533,-49.4496921,1623,5457.29657
D1,Campo Magro/PR,-25.3691533,-49.4496921,38,127.77404
1,Campo Maior/PI,-4.8339574,-42.1739786,3089,6587.33713
D1,Campo Maior/PI,-4.8339574,-42.1739786,58,123.68584
1,Campo Mourão/PR,-24.046329,-52.37802,4703,4925.22621
