type,name,lat,lon,total,total_per_100k_inhabitants
1,Abadia dos Dourados/MG,-18.4911191,-47.4063589,49,701.10173
D1,Abadia dos Dourados/MG,-18.4911191,-47.4063589,1,14.30820
1,Abaetetuba/PA,-1.721828,-48.878843,2918,1850.37223
D1,Abaetetuba/PA,-1.721828,-48.878843,112,71.02183
1,Abaeté/MG,-19.1566833,-45.4481213,33,142.01489
D1,Abaeté/MG,-19.1566833,-45.4481213,2,8.60696
1,Abdon Batista/SC,-27.612419,-51.022992,83,3238.39251
1,Abel Figueiredo/PA,-4.953001,-48.3958485,266,3578.15443
D1,Abel Figueiredo/PA,-4.953001,-48.3958485,1,13.45171
1,Abelardo Luz/SC,-26.5705893,-52.3280339,167,932.75246
D1,Abelardo Luz/SC,-26.5705893,-52.3280339,3,16.75603
1,Abre Campo/MG,-20.2976097,-42.4764741,29,215.54928
1,Acaiaca/MG,-20.3621646,-43.1444162,13,325.48823
D1,Acaiaca/MG,-20.3621646,-43.1444162,1,25.03756
1,Acará/PA,-1.961388,-48.1987043,674,1212.42647
D1,Acará/PA,-1.961388,-48.1987043,12,21.58623
1,Acrelândia/AC,-10.0759167,-67.0526898,6,39.32879
1,Afuá/PA,-0.1535664,-50.3879223,1809,4612.67785
D1,Afuá/PA,-0.1535664,-50.3879223,10,25.49850
1,Agrolândia/SC,-27.4122212,-49.8295774,96,883.65243
D1,Agrolândia/SC,-27.4122212,-49.8295774,2,18.40943
1,Agronômica/SC,-27.2660744,-49.7104753,64,1174.74302
D1,Agronômica/SC,-27.2660744,-49.7104753,3,55.06608
1,Aguanil/MG,-20.9424533,-45.3927152,24,534.99777
D1,Aguanil/MG,-20.9424533,-45.3927152,3,66.87472
1,Aimorés/MG,-19.4917754,-41.0615603,242,961.57667
D1,Aimorés/MG,-19.4917754,-41.0615603,1,3.97346
1,Aiuruoca/MG,-21.9759554,-44.6036637,1,16.65834
1,Alagoinhas/BA,-12.133526,-38.420772,1,0.65965
1,Albertina/MG,-20.66164,-43.784039,8,266.04589
1,Alenquer/PA,-1.946229,-54.738355,1141,2009.19192
D1,Alenquer/PA,-1.946229,-54.738355,26,45.78351
1,Alfenas/MG,-21.4297405,-45.9479419,379,473.77369
D1,Alfenas/MG,-21.4297405,-45.9479419,22,27.50138
1,Alfredo Vasconcelos/MG,-21.145833,-43.776389,13,188.21485
D1,Alfredo Vasconcelos/MG,-21.145833,-43.776389,1,14.47807
1,Alfredo Wagner/SC,-27.6961513,-49.3326734,100,996.41291
1,Almeirim/PA,-1.5290377,-52.5788111,225,659.64995
D1,Almeirim/PA,-1.5290377,-52.5788111,18,52.77200
1,Almenara/MG,-16.1740678,-40.6904907,539,1286.51900
D1,Almenara/MG,-16.1740678,-40.6904907,9,21.48176
1,Almirante Tamandaré/PR,-25.3133048,-49.2997838,2,1.68601
1,Alpercata/MG,-18.9803616,-41.9827637,155,2087.82328
D1,Alpercata/MG,-18.9803616,-41.9827637,5,67.34914
1,Alpinópolis/MG,-20.863611,-46.387777,61,307.25835
D1,Alpinópolis/MG,-20.863611,-46.387777,3,15.11107
1,Altamira/PA,-3.204065,-52.209961,3512,3064.73288
D1,Altamira/PA,-3.204065,-52.209961,102,89.00990
1,Alterosa/MG,-21.249166,-46.143055,13,89.86589
D1,Alterosa/MG,-21.249166,-46.143055,1,6.91276
1,Alto Bela Vista/SC,-27.4320737,-51.905771,10,516.26226
1,Alto Caparaó/MG,-20.4405661,-41.8683799,12,205.23345
1,Alto Jequitibá/MG,-20.423611,-41.966111,46,553.08404
D1,Alto Jequitibá/MG,-20.423611,-41.966111,3,36.07070
1,Alto Rio Doce/MG,-21.0239537,-43.4133507,59,536.36364
D1,Alto Rio Doce/MG,-21.0239537,-43.4133507,1,9.09091
1,Alvarenga/MG,-19.4175,-41.728334,116,2969.02995
D1,Alvarenga/MG,-19.4175,-41.728334,1,25.59509
1,Alvinópolis/MG,-20.1105199,-43.0601805,27,177.59653
1,Alvorada de Minas/MG,-18.7318587,-43.3641479,47,1303.38325
D1,Alvorada de Minas/MG,-18.7318587,-43.3641479,1,27.73156
1,Alvorada/RS,-29.9981184,-51.0772509,2,0.95100
1,Além Paraíba/MG,-21.8760576,-42.6810473,311,879.47514
D1,Além Paraíba/MG,-21.8760576,-42.6810473,11,31.10684
1,Amparo do Serra/MG,-20.5070255,-42.8028462,10,212.17908
1,Anajás/PA,-0.9878802,-49.9390114,543,1854.69823
D1,Anajás/PA,-0.9878802,-49.9390114,12,40.98781
1,Ananindeua/PA,-1.374035,-48.4016623,6256,1179.04704
D1,Ananindeua/PA,-1.374035,-48.4016623,348,65.58638
1,Anapu/PA,-3.4668292,-51.2057035,667,2391.53819
D1,Anapu/PA,-3.4668292,-51.2057035,16,57.36823
1,Anchieta/SC,-26.5350527,-53.3293938,24,425.68287
D1,Anchieta/SC,-26.5350527,-53.3293938,1,17.73679
1,Andradas/MG,-22.0680484,-46.5688976,139,338.38888
D1,Andradas/MG,-22.0680484,-46.5688976,5,12.17226
1,Andrelândia/MG,-21.739722,-44.308889,49,400.85079
1,Angelina/SC,-27.5805287,-48.9838759,61,1270.56863
1,Angelândia/MG,-17.7253,-42.2728,12,140.84507
1,Angra dos Reis/RJ,-23.0063966,-44.316326,1,0.49071
1,Anita Garibaldi/SC,-27.6855032,-51.1293873,134,1878.59246
D1,Anita Garibaldi/SC,-27.6855032,-51.1293873,1,14.01935
1,Anitápolis/SC,-27.9041185,-49.1287395,36,1113.86139
1,Anori/AM,-3.7435254,-61.6605203,1,4.75964
1,Anta Gorda/RS,-28.9718745,-52.0069187,2,33.43922
1,Antônio Carlos/MG,-21.318334,-43.746666,23,200.96112
1,Antônio Carlos/SC,-27.5168462,-48.7684715,220,2584.28286
D1,Antônio Carlos/SC,-27.5168462,-48.7684715,11,129.21414
1,Antônio Dias/MG,-19.6525,-42.872778,59,633.18309
D1,Antônio Dias/MG,-19.6525,-42.872778,1,10.73192
1,Anápolis/GO,-16.3332828,-48.9525756,4,1.03380
1,Aparecida de Goiânia/GO,-16.8226769,-49.2452546,3,0.51887
1,Apiúna/SC,-27.0374658,-49.3885037,46,428.18580
D1,Apiúna/SC,-27.0374658,-49.3885037,1,9.30839
1,Apodi/RN,-5.6631109,-37.796927,1,2.78979
1,Aquiraz/CE,-3.9063117,-38.387504,14,17.44092
1,Arabutã/SC,-27.1587028,-52.1438142,56,1312.39747
1,Aracaju/SE,-10.9162061,-37.0774655,13,1.97865
1,Aracitaba/MG,-21.3425,-43.378611,2,96.94619
1,Araguari/MG,-18.6511256,-48.1933764,1840,1569.06888
D1,Araguari/MG,-18.6511256,-48.1933764,50,42.63774
1,Araguaína/TO,-7.193241,-48.2018597,1,0.55411
1,Arantina/MG,-21.911667,-44.255833,7,250.44723
D1,Arantina/MG,-21.911667,-44.255833,1,35.77818
1,Araponga/MG,-20.666667,-42.520556,1,11.84975
1,Araporã/MG,-18.4318188,-49.188313,230,3348.37677
D1,Araporã/MG,-18.4318188,-49.188313,3,43.67448
1,Arapuá/MG,-19.034444,-46.155556,17,599.85886
1,Araquari/SC,-26.3703324,-48.7210994,560,1468.69837
D1,Araquari/SC,-26.3703324,-48.7210994,6,15.73605
1,Araranguá/SC,-28.9348832,-49.4858389,1213,1777.86246
D1,Araranguá/SC,-28.9348832,-49.4858389,23,33.71050
1,Araxá/MG,-19.5928536,-46.940241,656,617.53382
D1,Araxá/MG,-19.5928536,-46.940241,13,12.23771
1,Araçaí/MG,-19.200833,-44.2475,4,170.43034
1,Araçuaí/MG,-16.8484451,-42.0661868,32,87.17446
1,Araújos/MG,-19.948055,-45.165556,21,226.46393
1,Arceburgo/MG,-21.364444,-46.939722,28,259.93316
1,Arcos/MG,-20.282223,-45.539444,202,503.84117
D1,Arcos/MG,-20.282223,-45.539444,3,7.48279
1,Areado/MG,-21.3582771,-46.1476688,2,13.27140
1,Argirita/MG,-21.612761,-42.8371922,5,183.35167
D1,Argirita/MG,-21.612761,-42.8371922,1,36.67033
1,Aricanduva/MG,-17.8678,-42.5569,1,19.11680
1,Arinos/MG,-15.917223,-46.106111,51,285.31469
1,Armazém/SC,-28.2624996,-49.0190126,165,1902.23657
D1,Armazém/SC,-28.2624996,-49.0190126,2,23.05741
1,Arroio Trinta/SC,-26.9301976,-51.334928,45,1267.60563
1,Arujá/SP,-23.396266,-46.3175449,1,1.11329
1,Arvoredo/SC,-27.0752908,-52.4571847,35,1562.50000
D1,Arvoredo/SC,-27.0752908,-52.4571847,1,44.64286
1,Ascurra/SC,-26.9569975,-49.3767752,87,1096.54651
D1,Ascurra/SC,-26.9569975,-49.3767752,1,12.60398
1,Astolfo Dutra/MG,-21.3132636,-42.8624102,85,599.47810
D1,Astolfo Dutra/MG,-21.3132636,-42.8624102,2,14.10537
1,Atalanta/SC,-27.421916,-49.778863,13,404.98442
1,Ataléia/MG,-18.04432,-41.1110524,81,629.46845
D1,Ataléia/MG,-18.04432,-41.1110524,2,15.54243
1,Augusto Corrêa/PA,-1.0229335,-46.6404029,1164,2530.54481
D1,Augusto Corrêa/PA,-1.0229335,-46.6404029,20,43.48015
1,Augusto de Lima/MG,-18.1092963,-44.2651945,31,636.68104
1,Aurora do Pará/PA,-2.1323199,-47.558436,601,1917.79948
D1,Aurora do Pará/PA,-2.1323199,-47.558436,7,22.33710
1,Aurora/SC,-27.3166417,-49.6368502,52,915.65416
1,Aveiro/PA,-3.6049239,-55.3310742,376,2294.36173
D1,Aveiro/PA,-3.6049239,-55.3310742,4,24.40810
1,Açu/RN,-5.5836157,-36.9139541,1,1.72363
1,Açucena/MG,-19.073056,-42.546666,47,496.30412
D1,Açucena/MG,-19.073056,-42.546666,2,21.11932
1,Baependi/MG,-21.959162,-44.8899249,57,297.68122
D1,Baependi/MG,-21.959162,-44.8899249,1,5.22248
1,Bagre/PA,-1.8994498,-50.2103844,307,1000.88025
D1,Bagre/PA,-1.8994498,-50.2103844,9,29.34177
1,Bagé/RS,-31.3314264,-54.1062808,11,9.08018
1,Baião/PA,-2.7903479,-49.6702845,301,634.40543
D1,Baião/PA,-2.7903479,-49.6702845,14,29.50723
1,Baldim/MG,-19.2913568,-43.9558262,19,242.78048
D1,Baldim/MG,-19.2913568,-43.9558262,1,12.77792
1,Balneário Arroio do Silva/SC,-28.9815269,-49.4189932,258,1973.83521
D1,Balneário Arroio do Silva/SC,-28.9815269,-49.4189932,5,38.25262
1,Balneário Barra do Sul/SC,-26.459842,-48.6061471,352,3260.76887
D1,Balneário Barra do Sul/SC,-26.459842,-48.6061471,2,18.52710
1,Balneário Camboriú/SC,-26.9924395,-48.6339782,5202,3655.78552
D1,Balneário Camboriú/SC,-26.9924395,-48.6339782,62,43.57145
1,Balneário Gaivota/SC,-29.1553098,-49.5808712,107,974.58785
D1,Balneário Gaivota/SC,-29.1553098,-49.5808712,4,36.43319
1,Balneário Piçarras/SC,-26.7638889,-48.6716667,444,1918.17514
D1,Balneário Piçarras/SC,-26.7638889,-48.6716667,6,25.92129
1,Balneário Rincão/SC,-28.8235718,-49.2241642,159,1246.08150
D1,Balneário Rincão/SC,-28.8235718,-49.2241642,7,54.85893
1,Bambuí/MG,-20.0131996,-45.9777034,25,104.91418
1,Bandeira do Sul/MG,-21.728056,-46.385555,11,191.43752
1,Bandeira/MG,-15.884444,-40.559167,198,4129.30136
D1,Bandeira/MG,-15.884444,-40.559167,1,20.85506
1,Bandeirante/SC,-26.7677402,-53.6397596,6,224.04780
1,Bannach/PA,-7.3508505,-50.4064531,106,3225.80645
D1,Bannach/PA,-7.3508505,-50.4064531,2,60.86427
1,Barbacena/MG,-21.2254524,-43.7735087,565,411.46869
D1,Barbacena/MG,-21.2254524,-43.7735087,9,6.55437
1,Barcarena/PA,-1.5107945,-48.6190679,3556,2852.10138
D1,Barcarena/PA,-1.5107945,-48.6190679,104,83.41354
1,Barra Bonita/SC,-26.6526364,-53.4419581,1,59.63029
1,Barra Longa/MG,-20.2833541,-43.0423516,59,1149.87332
1,Barra Mansa/RJ,-22.5394843,-44.1735129,1,0.54226
1,Barra Velha/SC,-26.6338203,-48.6835001,438,1501.64564
D1,Barra Velha/SC,-26.6338203,-48.6835001,5,17.14207
1,Barreiras/BA,-12.1440031,-44.9967406,1,0.64334
1,Barroso/MG,-21.187222,-43.976111,110,528.59202
1,Barueri/SP,-23.5112184,-46.8764612,6,2.18833
1,Barão de Cocais/MG,-19.9452437,-43.4870298,309,951.20825
D1,Barão de Cocais/MG,-19.9452437,-43.4870298,2,6.15669
1,Barão de Monte Alto/MG,-21.244722,-42.2375,46,852.32537
D1,Barão de Monte Alto/MG,-21.244722,-42.2375,1,18.52881
1,Batayporã/MS,-22.2976466,-53.2685608,3,26.48071
1,Beberibe/CE,-4.1810469,-38.1298101,1,1.86661
1,Bela Vista de Minas/MG,-19.8289721,-43.0973688,27,263.28620
D1,Bela Vista de Minas/MG,-19.8289721,-43.0973688,1,9.75134
1,Bela Vista do Toldo/SC,-26.274625,-50.466354,5,78.90169
1,Belford Roxo/RJ,-22.7667284,-43.4033603,2,0.39146
1,Belmiro Braga/MG,-21.9486291,-43.413564,11,320.79323
D1,Belmiro Braga/MG,-21.9486291,-43.413564,2,58.32604
1,Belmonte/SC,-26.8448262,-53.578916,2,73.90983
1,Belo Horizonte/MG,-19.9227318,-43.9450948,27485,1094.11760
D1,Belo Horizonte/MG,-19.9227318,-43.9450948,758,30.17432
1,Belo Jardim/PE,-8.3338293,-36.4176419,1,1.30823
1,Belo Oriente/MG,-19.2232523,-42.4807033,349,1307.11610
D1,Belo Oriente/MG,-19.2232523,-42.4807033,7,26.21723
1,Belo Vale/MG,-20.407778,-44.024167,59,764.74401
D1,Belo Vale/MG,-20.407778,-44.024167,1,12.96176
1,Belterra/PA,-2.636091,-54.937392,211,1189.93909
D1,Belterra/PA,-2.636091,-54.937392,7,39.47665
1,Belém/PA,-1.45056,-48.4682453,28887,1935.15972
D1,Belém/PA,-1.45056,-48.4682453,2068,138.53672
1,Benedito Novo/SC,-26.7840657,-49.3629511,81,695.15963
D1,Benedito Novo/SC,-26.7840657,-49.3629511,2,17.16444
1,Benevides/PA,-1.3555577,-48.252235,1325,2111.99133
D1,Benevides/PA,-1.3555577,-48.252235,49,78.10383
1,Bento Gonçalves/RS,-29.1654014,-51.5197627,2,1.66038
1,Berilo/MG,-16.9515764,-42.4643732,5,41.90412
1,Bertópolis/MG,-17.063333,-40.573889,6,130.32146
1,Betim/MG,-19.968056,-44.198333,3516,800.29135
D1,Betim/MG,-19.968056,-44.198333,132,30.04507
1,Bias Fortes/MG,-21.605833,-43.756944,13,384.72921
1,Bicas/MG,-21.7213723,-43.0604327,37,255.27805
1,Biguaçu/SC,-27.4961277,-48.6542432,1423,2077.94863
D1,Biguaçu/SC,-27.4961277,-48.6542432,24,35.04622
1,Biquinhas/MG,-18.783611,-45.502222,27,1073.55865
1,Blumenau/SC,-26.9195567,-49.0658025,7094,1986.00780
D1,Blumenau/SC,-26.9195567,-49.0658025,92,25.75595
1,Boa Esperança/MG,-21.0901253,-45.5660195,77,191.89075
D1,Boa Esperança/MG,-21.0901253,-45.5660195,6,14.95253
1,Boa Vista/RR,2.8208478,-60.6719582,13,3.25641
1,Boca do Acre/AM,-8.7553487,-67.3930873,1,2.91477
1,Bocaina de Minas/MG,-22.167778,-44.394722,7,137.52456
1,Bocaina do Sul/SC,-27.745494,-49.942279,9,259.06736
1,Bocaiúva/MG,-17.1160208,-43.8122678,124,248.10420
D1,Bocaiúva/MG,-17.1160208,-43.8122678,1,2.00084
1,Bom Despacho/MG,-19.7375242,-45.2517288,288,569.11372
D1,Bom Despacho/MG,-19.7375242,-45.2517288,3,5.92827
1,Bom Jardim da Serra/SC,-28.3380324,-49.625588,25,527.09256
1,Bom Jardim de Minas/MG,-21.9476466,-44.1906033,4,61.78560
1,Bom Jesus da Penha/MG,-21.0165299,-46.5226644,17,403.13019
1,Bom Jesus do Amparo/MG,-19.7045132,-43.4752911,20,328.78514
1,Bom Jesus do Galho/MG,-19.8283191,-42.3162256,63,421.82792
D1,Bom Jesus do Galho/MG,-19.8283191,-42.3162256,3,20.08704
1,Bom Jesus do Oeste/SC,-26.6929713,-53.0967453,11,513.53875
1,Bom Jesus do Tocantins/PA,-5.0471796,-48.5978362,294,1731.34680
D1,Bom Jesus do Tocantins/PA,-5.0471796,-48.5978362,1,5.88893
1,Bom Jesus/SC,-26.7350604,-52.3916519,73,2425.24917
1,Bom Repouso/MG,-22.4657069,-46.1485376,26,246.51560
D1,Bom Repouso/MG,-22.4657069,-46.1485376,1,9.48137
1,Bom Retiro/SC,-27.798993,-49.486994,51,511.73992
D1,Bom Retiro/SC,-27.798993,-49.486994,1,10.03412
1,Bom Sucesso/MG,-21.0323516,-44.7598082,22,124.97870
D1,Bom Sucesso/MG,-21.0323516,-44.7598082,1,5.68085
1,Bombinhas/SC,-27.1519159,-48.4875691,882,4461.53068
D1,Bombinhas/SC,-27.1519159,-48.4875691,7,35.40897
1,Bonfim/MG,-20.3266626, -44.2386157,23,334.88643
D1,Bonfim/MG,-20.3266626, -44.2386157,1,14.56028
1,Bonfim/RR,3.3613818,-59.8427241,3,24.17600
1,Bonfinópolis de Minas/MG,-16.5660011,-45.98645,56,1019.47934
1,Bonito de Minas/MG,-15.3191266,-44.7544,4,35.61888
1,Bonito/PA,-1.3605722,-47.3049907,236,1449.09738
D1,Bonito/PA,-1.3605722,-47.3049907,7,42.98170
1,Borda da Mata/MG,-22.274167,-46.165278,155,798.47517
D1,Borda da Mata/MG,-22.274167,-46.165278,9,46.36307
1,Botelhos/MG,-21.65,-46.394722,41,273.86280
D1,Botelhos/MG,-21.65,-46.394722,1,6.67958
1,Botuverá/SC,-27.200749,-49.068892,103,1963.40069
1,Bragança/PA,-1.0573967,-46.7635406,2149,1683.03495
D1,Bragança/PA,-1.0573967,-46.7635406,91,71.26858
1,Brasil Novo/PA,-3.3055853,-52.539198,577,3824.73817
D1,Brasil Novo/PA,-3.3055853,-52.539198,9,59.65796
1,Brasilândia de Minas/MG,-17.0096469,-46.0087183,82,495.82779
D1,Brasilândia de Minas/MG,-17.0096469,-46.0087183,1,6.04668
1,Brasília de Minas/MG,-16.2075114,-44.430559,34,105.11021
D1,Brasília de Minas/MG,-16.2075114,-44.430559,3,9.27443
1,Brasília/DF,-15.7934036,-47.8823172,133166,4416.39018
D1,Brasília/DF,-15.7934036,-47.8823172,1935,64.17340
1,Brazópolis/MG,-22.4742842,-45.6165577,186,1286.39602
D1,Brazópolis/MG,-22.4742842,-45.6165577,1,6.91611
1,Braço do Norte/SC,-28.2728633,-49.1622712,1298,3880.41854
D1,Braço do Norte/SC,-28.2728633,-49.1622712,12,35.87444
1,Braço do Trombudo/SC,-27.358578,-49.882145,25,667.91344
D1,Braço do Trombudo/SC,-27.358578,-49.882145,1,26.71654
1,Braúnas/MG,-19.055556,-42.716111,13,270.77692
D1,Braúnas/MG,-19.055556,-42.716111,1,20.82899
1,Brejo Grande do Araguaia/PA,-5.7011449,-48.4037308,146,1978.31978
D1,Brejo Grande do Araguaia/PA,-5.7011449,-48.4037308,1,13.55014
1,Breu Branco/PA,-3.7785073,-49.5684795,275,416.37646
D1,Breu Branco/PA,-3.7785073,-49.5684795,19,28.76783
1,Breves/PA,-1.68036,-50.479085,1830,1781.87165
D1,Breves/PA,-1.68036,-50.479085,82,79.84343
1,Brodowski/SP,-20.984532,-47.657217,1,4.00978
1,Brumadinho/MG,-20.143611,-44.2,603,1503.62816
D1,Brumadinho/MG,-20.143611,-44.2,5,12.46790
1,Brumado/BA,-14.29507325,-41.659307508575985,1,1.48821
1,Brunópolis/SC,-27.310953,-50.837585,26,1074.38017
1,Brusque/SC,-27.0964628,-48.9136323,3566,2646.91255
D1,Brusque/SC,-27.0964628,-48.9136323,44,32.65961
1,Brás Pires/MG,-20.8483109,-43.2430524,5,115.39349
1,Bueno Brandão/MG,-22.441976,-46.3517971,33,299.97273
D1,Bueno Brandão/MG,-22.441976,-46.3517971,3,27.27025
1,Buenópolis/MG,-17.8756607,-44.1749365,87,839.36324
D1,Buenópolis/MG,-17.8756607,-44.1749365,1,9.64785
1,Bugre/MG,-19.4257687,-42.2556,41,1029.63335
D1,Bugre/MG,-19.4257687,-42.2556,1,25.11301
1,Bujaru/PA,-1.5169239,-48.0410699,367,1259.78306
D1,Bujaru/PA,-1.5169239,-48.0410699,21,72.08568
1,Buritis/MG,-15.621389,-46.423889,168,676.30128
D1,Buritis/MG,-15.621389,-46.423889,1,4.02560
1,Buritizeiro/MG,-17.3667765,-44.9647781,121,431.28030
D1,Buritizeiro/MG,-17.3667765,-44.9647781,4,14.25720
0,CASO SEM LOCALIZAÇÃO DEFINIDA/AC,-9.884083190922777,-67.85119819780795,22393,2539.07601
D0,CASO SEM LOCALIZAÇÃO DEFINIDA/AC,-9.884083190922777,-67.85119819780795,576,65.31094
0,CASO SEM LOCALIZAÇÃO DEFINIDA/AL,-9.931093434363673,-35.609611600637464,71219,2133.99406
D0,CASO SEM LOCALIZAÇÃO DEFINIDA/AL,-9.931093434363673,-35.609611600637464,1732,51.89735
0,CASO SEM LOCALIZAÇÃO DEFINIDA/AM,-3.07518492149711,-60.16169212873594,110626,2669.16180
D0,CASO SEM LOCALIZAÇÃO DEFINIDA/AM,-3.07518492149711,-60.16169212873594,3454,83.33741
0,CASO SEM LOCALIZAÇÃO DEFINIDA/AP,2.677150600275196,-50.477785111870624,39236,4639.30020
D0,CASO SEM LOCALIZAÇÃO DEFINIDA/AP,2.677150600275196,-50.477785111870624,612,72.36343
0,CASO SEM LOCALIZAÇÃO DEFINIDA/BA,-13.415069300066518,-38.14174656569957,210818,1417.44835
D0,CASO SEM LOCALIZAÇÃO DEFINIDA/BA,-13.415069300066518,-38.14174656569957,4270,28.70962
0,CASO SEM LOCALIZAÇÃO DEFINIDA/CE,-3.3445126297392798,-38.624961942434304,196285,2149.40126
D0,CASO SEM LOCALIZAÇÃO DEFINIDA/CE,-3.3445126297392798,-38.624961942434304,8122,88.93923
0,CASO SEM LOCALIZAÇÃO DEFINIDA/ES,-20.30989267097039,-39.81745156645774,98035,2439.50083
D0,CASO SEM LOCALIZAÇÃO DEFINIDA/ES,-20.30989267097039,-39.81745156645774,2849,70.89445
0,CASO SEM LOCALIZAÇÃO DEFINIDA/GO,-16.701590966270153,-49.164524059025034,100663,1434.28217
D0,CASO SEM LOCALIZAÇÃO DEFINIDA/GO,-16.701590966270153,-49.164524059025034,2285,32.55749
0,CASO SEM LOCALIZAÇÃO DEFINIDA/MA,-2.171256551718846,-43.98946796681719,135301,1912.33270
D0,CASO SEM LOCALIZAÇÃO DEFINIDA/MA,-2.171256551718846,-43.98946796681719,3239,45.77975
0,CASO SEM LOCALIZAÇÃO DEFINIDA/MG,-19.97049116501593,-43.8852149072783,512,2.41865
D0,CASO SEM LOCALIZAÇÃO DEFINIDA/MG,-19.97049116501593,-43.8852149072783,41,0.19368
0,CASO SEM LOCALIZAÇÃO DEFINIDA/MS,-20.391549234908513,-54.645156949758444,35390,1273.48608
D0,CASO SEM LOCALIZAÇÃO DEFINIDA/MS,-20.391549234908513,-54.645156949758444,591,21.26675
0,CASO SEM LOCALIZAÇÃO DEFINIDA/MT,-15.54791153961863,-56.17143998972475,72251,2073.51715
D0,CASO SEM LOCALIZAÇÃO DEFINIDA/MT,-15.54791153961863,-56.17143998972475,2336,67.04040
0,CASO SEM LOCALIZAÇÃO DEFINIDA/PB,-7.1049355696146606,-34.68696690234351,94645,2355.45069
D0,CASO SEM LOCALIZAÇÃO DEFINIDA/PB,-7.1049355696146606,-34.68696690234351,2113,52.58669
0,CASO SEM LOCALIZAÇÃO DEFINIDA/PE,-8.121628543819208,-34.57313921302556,110336,1154.49597
D0,CASO SEM LOCALIZAÇÃO DEFINIDA/PE,-8.121628543819208,-34.57313921302556,7106,74.35332
0,CASO SEM LOCALIZAÇÃO DEFINIDA/PI,-2.683810218391744,-41.470898009352254,65622,2004.81054
D0,CASO SEM LOCALIZAÇÃO DEFINIDA/PI,-2.683810218391744,-41.470898009352254,1591,48.60647
0,CASO SEM LOCALIZAÇÃO DEFINIDA/PR,-25.69415946385943,-48.10141676336737,101689,889.35965
D0,CASO SEM LOCALIZAÇÃO DEFINIDA/PR,-25.69415946385943,-48.10141676336737,2609,22.81800
0,CASO SEM LOCALIZAÇÃO DEFINIDA/RJ,-23.210238986465157,-43.12864305824042,189234,1096.05922
D0,CASO SEM LOCALIZAÇÃO DEFINIDA/RJ,-23.210238986465157,-43.12864305824042,14489,83.92150
0,CASO SEM LOCALIZAÇÃO DEFINIDA/RN,-5.749310788669161,-34.95302586257457,57589,1642.18460
D0,CASO SEM LOCALIZAÇÃO DEFINIDA/RN,-5.749310788669161,-34.95302586257457,2046,58.34291
0,CASO SEM LOCALIZAÇÃO DEFINIDA/RO,-8.681174926655274,-63.9216949899276,47282,2660.43973
D0,CASO SEM LOCALIZAÇÃO DEFINIDA/RO,-8.681174926655274,-63.9216949899276,1001,56.32376
0,CASO SEM LOCALIZAÇÃO DEFINIDA/RR,2.813328208465927,-60.663338675861986,38881,6418.53800
D0,CASO SEM LOCALIZAÇÃO DEFINIDA/RR,2.813328208465927,-60.663338675861986,565,93.27111
0,CASO SEM LOCALIZAÇÃO DEFINIDA/RS,-30.50647488532064,-49.906261466443524,94901,834.13032
D0,CASO SEM LOCALIZAÇÃO DEFINIDA/RS,-30.50647488532064,-49.906261466443524,2628,23.09875
0,CASO SEM LOCALIZAÇÃO DEFINIDA/SC,-27.675643660562308,-48.18313219398259,3420,47.73344
0,CASO SEM LOCALIZAÇÃO DEFINIDA/SE,-11.03002091978736,-36.89283180376513,67209,2923.78810
D0,CASO SEM LOCALIZAÇÃO DEFINIDA/SE,-11.03002091978736,-36.89283180376513,1684,73.25893
0,CASO SEM LOCALIZAÇÃO DEFINIDA/SP,-24.30968974555485,-46.21366504207253,684653,1490.99996
D0,CASO SEM LOCALIZAÇÃO DEFINIDA/SP,-24.30968974555485,-46.21366504207253,26501,57.71243
0,CASO SEM LOCALIZAÇÃO DEFINIDA/TO,-10.213012114749148,-48.40023803990334,35393,2250.22348
D0,CASO SEM LOCALIZAÇÃO DEFINIDA/TO,-10.213012114749148,-48.40023803990334,500,31.78910
1,Cabeceira Grande/MG,-16.0297,-47.0906,15,215.85840
1,Cabo Verde/MG,-21.4743338,-46.3964995,8,56.83837
1,Cachoeira Dourada/MG,-18.517136,-49.5002062,4,148.58841
1,Cachoeira da Prata/MG,-19.524723,-44.453056,24,666.11157
1,Cachoeira de Minas/MG,-22.3554043,-45.7796324,45,389.71161
1,Cachoeira de Pajeú/MG,-15.965833,-41.496666,83,881.85295
1,Cachoeira do Arari/PA,-1.0143572,-48.9621089,259,1089.74629
D1,Cachoeira do Arari/PA,-1.0143572,-48.9621089,11,46.28266
1,Cachoeira do Piriá/PA,-1.7599443,-46.5446954,444,1309.73451
D1,Cachoeira do Piriá/PA,-1.7599443,-46.5446954,2,5.89971
1,Cachoeira do Sul/RS,-30.0474778,-52.8905413,1,1.21653
1,Cachoeiro de Itapemirim/ES,-20.848084,-41.11129,1,0.47853
1,Caetanópolis/MG,-19.2947496,-44.4138386,45,387.13008
1,Caeté/MG,-19.897777,-43.670278,202,451.71967
D1,Caeté/MG,-19.897777,-43.670278,2,4.47247
1,Caiana/MG,-20.695555,-41.924723,13,236.53566
D1,Caiana/MG,-20.695555,-41.924723,1,18.19505
1,Caibi/SC,-27.0751925,-53.2502133,29,471.69811
D1,Caibi/SC,-27.0751925,-53.2502133,2,32.53090
1,Caicó/RN,-6.4594544,-37.0971911,2,2.94325
1,Caieiras/SP,-23.3644621,-46.7484765,3,2.95654
1,Cajamar/SP,-23.3561111,-46.8769444,1,1.30207
1,Cajuri/MG,-20.7901414,-42.7954489,41,1028.34211
1,Caldas/MG,-21.923611,-46.386111,55,379.83425
1,Calmon/SC,-26.6023644,-51.0992893,5,149.43216
1,Camanducaia/MG,-22.755278,-46.144444,318,1460.72577
D1,Camanducaia/MG,-22.755278,-46.144444,4,18.37391
1,Camaragibe/PE,-8.0213832,-34.9810768,1,0.63360
1,Camaçari/BA,-12.6998188,-38.3260762,1,0.33430
1,Camboriú/SC,-27.0273601,-48.6535657,1859,2240.05591
D1,Camboriú/SC,-27.0273601,-48.6535657,31,37.35435
1,Cambuquira/MG,-21.853056,-45.2953619,8,62.43172
1,Cambuí/MG,-22.6122501,-46.0572137,209,707.25187
D1,Cambuí/MG,-22.6122501,-46.0572137,5,16.91990
1,Cametá/PA,-2.242949,-49.497885,4529,3284.50214
D1,Cametá/PA,-2.242949,-49.497885,91,65.99463
1,Campanha/MG,-21.8361108,-45.401986,46,276.02760
D1,Campanha/MG,-21.8361108,-45.401986,2,12.00120
1,Campanário/MG,-18.2398144,-41.7271768,9,241.87046
1,Campestre/MG,-19.6142116,-43.219378,90,427.45191
D1,Campestre/MG,-19.6142116,-43.219378,3,14.24840
1,Campina Grande/PB,-7.2246743,-35.8771292,2,0.48813
1,Campina Verde/MG,-19.535277,-49.486389,72,364.64928
D1,Campina Verde/MG,-19.535277,-49.486389,2,10.12915
1,Campinas/SP,-22.90556,-47.06083,11,0.91357
1,Campo Alegre/SC,-26.1941684,-49.2657484,87,726.33161
D1,Campo Alegre/SC,-26.1941684,-49.2657484,2,16.69728
1,Campo Azul/MG,-16.5078525,-44.8133524,1,26.19859
1,Campo Belo do Sul/SC,-27.8987563,-50.7586887,25,356.32839
1,Campo Belo/MG,-20.8975,-45.277223,408,755.15001
D1,Campo Belo/MG,-20.8975,-45.277223,9,16.65772
1,Campo Bom/RS,-29.674694,-51.060601,2,2.99796
1,Campo Erê/SC,-26.3947432,-53.0790495,63,738.91626
1,Campo Florido/MG,-19.760833,-48.572223,55,674.76383
1,Campo Grande/MS,-20.4640173,-54.6162947,36,4.01794
1,Campo Largo/PR,-25.4597726,-49.5270851,3,2.27269
1,Campo Mourão/PR,-24.046329,-52.37802,2,2.10839
1,Campo do Meio/MG,-21.1072006,-45.8301735,17,145.86015
1,Campos Altos/MG,-19.696389,-46.171389,90,582.10982
D1,Campos Altos/MG,-19.696389,-46.171389,2,12.93577
1,Campos Gerais/MG,-21.2333342,-45.7584127,64,222.42302
D1,Campos Gerais/MG,-21.2333342,-45.7584127,2,6.95072
1,Campos Novos/SC,-27.3962904,-51.2224397,615,1696.83258
D1,Campos Novos/SC,-27.3962904,-51.2224397,12,33.10893
1,Campos dos Goytacazes/RJ,-21.7558619,-41.3326895,1,0.19703
1,Cana Verde/MG,-21.021308,-45.1817881,65,1160.09281
D1,Cana Verde/MG,-21.021308,-45.1817881,1,17.84758
1,Canarana/BA,-11.6870151,-41.7683675,1,3.82029
1,Canaã dos Carajás/PA,-6.5296837,-49.8516592,2980,8035.59391
D1,Canaã dos Carajás/PA,-6.5296837,-49.8516592,38,102.46730
1,Candeias/MG,-20.7676161,-45.2763777,64,429.93417
D1,Candeias/MG,-20.7676161,-45.2763777,2,13.43544
1,Canelinha/SC,-27.2660341,-48.7666708,350,2859.47712
D1,Canelinha/SC,-27.2660341,-48.7666708,4,32.67974
1,Canguçu/RS,-31.398276,-52.6773522,1,1.78428
1,Canoas/RS,-29.9216045,-51.1799525,8,2.30803
1,Canoinhas/SC,-26.176591,-50.395001,306,562.48966
D1,Canoinhas/SC,-26.176591,-50.395001,8,14.70561
1,Canápolis/MG,-18.7228793,-49.2016329,173,1423.86831
D1,Canápolis/MG,-18.7228793,-49.2016329,3,24.69136
1,Capanema/PA,-1.1933054,-47.1828679,1131,1638.48929
D1,Capanema/PA,-1.1933054,-47.1828679,61,88.37122
1,Caparaó/MG,-20.5232726,-41.9049984,16,294.22582
D1,Caparaó/MG,-20.5232726,-41.9049984,2,36.77823
1,Capela Nova/MG,-20.9236773,-43.6179487,2,42.98302
1,Capelinha/MG,-17.693889,-42.518611,25,66.16557
1,Capetinga/MG,-20.6193382,-47.0577418,16,231.21387
1,Capim Branco/MG,-19.548333,-44.133056,28,287.06172
D1,Capim Branco/MG,-19.548333,-44.133056,1,10.25220
1,Capinzal/SC,-27.3440651,-51.6110403,907,3969.71289
D1,Capinzal/SC,-27.3440651,-51.6110403,5,21.88375
1,Capinópolis/MG,-18.682778,-49.569723,160,989.30316
1,Capitão Andrade/MG,-19.0675,-41.859722,16,292.61156
D1,Capitão Andrade/MG,-19.0675,-41.859722,1,18.28822
1,Capitão Enéas/MG,-16.3236018,-43.7154584,76,498.88408
D1,Capitão Enéas/MG,-16.3236018,-43.7154584,2,13.12853
1,Capitão Poço/PA,-1.7447162,-47.0638495,761,1401.39587
D1,Capitão Poço/PA,-1.7447162,-47.0638495,33,60.77012
1,Capitólio/MG,-20.6142437,-46.0487652,24,278.03522
D1,Capitólio/MG,-20.6142437,-46.0487652,2,23.16960
1,Capivari de Baixo/SC,-28.449773,-48.963144,616,2476.78019
D1,Capivari de Baixo/SC,-28.449773,-48.963144,6,24.12448
1,Caputira/MG,-20.171945,-42.270278,24,258.12003
1,Capão Alto/SC,-27.9382827,-50.511491,6,237.62376
D1,Capão Alto/SC,-27.9382827,-50.511491,1,39.60396
1,Capão da Canoa/RS,-29.7542937,-50.0215684,2,3.77010
1,Caranaíba/MG,-20.8736914,-43.7379458,6,188.50141
D1,Caranaíba/MG,-20.8736914,-43.7379458,1,31.41690
1,Carandaí/MG,-20.9523934,-43.8043903,106,415.66997
D1,Carandaí/MG,-20.9523934,-43.8043903,3,11.76424
1,Carangola/MG,-20.733056,-42.029445,339,1027.27273
D1,Carangola/MG,-20.733056,-42.029445,9,27.27273
1,Carapicuíba/SP,-23.5234673,-46.8406808,3,0.74827
1,Caratinga/MG,-19.7900887,-42.140533,986,1071.01736
D1,Caratinga/MG,-19.7900887,-42.140533,25,27.15561
1,Caraí/MG,-17.1884104,-41.6976554,95,401.09774
D1,Caraí/MG,-17.1884104,-41.6976554,3,12.66624
1,Carbonita/MG,-17.5308667,-43.0136207,6,63.79585
1,Careaçu/MG,-22.0440585,-45.6949091,92,1361.55098
D1,Careaçu/MG,-22.0440585,-45.6949091,2,29.59893
1,Cariacica/ES,-20.263202,-40.416549,2,0.52454
1,Carlos Barbosa/RS,-29.2978372,-51.5005613,1,3.35199
1,Carlos Chagas/MG,-21.744351,-43.3908675,200,1061.74019
D1,Carlos Chagas/MG,-21.744351,-43.3908675,3,15.92610
1,Carmo da Cachoeira/MG,-21.460556,-45.223334,9,73.95234
1,Carmo da Mata/MG,-20.558334,-44.8703774,13,113.27989
1,Carmo de Minas/MG,-22.1216655,-45.1323836,23,154.78834
1,Carmo do Cajuru/MG,-20.184444,-44.770834,92,409.28908
D1,Carmo do Cajuru/MG,-20.184444,-44.770834,4,17.79518
1,Carmo do Paranaíba/MG,-18.9992327,-46.306916,170,560.51963
D1,Carmo do Paranaíba/MG,-18.9992327,-46.306916,2,6.59435
1,Carmo do Rio Claro/MG,-20.973315,-46.1186754,41,193.16843
D1,Carmo do Rio Claro/MG,-20.973315,-46.1186754,2,9.42285
1,Carmésia/MG,-19.0854535,-43.1392003,8,303.95137
1,Carmópolis de Minas/MG,-20.541224,-44.6350611,186,960.99199
D1,Carmópolis de Minas/MG,-20.541224,-44.6350611,6,30.99974
1,Carnaubais/RN,-5.3383681,-36.8335566,1,9.29454
1,Carneirinho/MG,-19.6975,-50.688055,33,329.11140
1,Carrancas/MG,-21.4910462,-44.6436151,24,593.03188
1,Caruaru/PE,-8.2829702,-35.9722852,1,0.27692
1,Carvalhos/MG,-22.001667,-44.461667,1,22.33140
1,Carvalhópolis/MG,-21.7773461,-45.8412117,9,251.46689
1,Cascalho Rico/MG,-18.579344,-47.875774,15,487.80488
D1,Cascalho Rico/MG,-18.579344,-47.875774,1,32.52033
1,Cascavel/PR,-24.9554996,-53.4560544,8,2.43565
D1,Cascavel/PR,-24.9554996,-53.4560544,1,0.30446
1,Castanhal/PA,-1.2927031,-47.9223903,1906,949.23628
D1,Castanhal/PA,-1.2927031,-47.9223903,180,89.64456
1,Castelo/ES,-20.6034476,-41.2033505,1,2.66425
1,Castro/PR,-24.794072,-49.9972914,1,1.39891
1,Cataguases/MG,-21.387426,-42.6957219,407,541.77815
D1,Cataguases/MG,-21.387426,-42.6957219,19,25.29185
1,Catalão/GO,-18.1702546,-47.9447082,1,0.91892
1,Catanduvas/SC,-27.0689719,-51.660158,147,1353.46653
1,Catas Altas da Noruega/MG,-20.690277,-43.4975,17,466.90470
1,Catas Altas/MG,-20.0744,-43.4075,41,762.64881
1,Catuji/MG,-17.3024568,-41.5168387,25,396.13373
1,Catuti/MG,-15.3597,-42.9628,2,40.11231
1,Caucaia/CE,-3.7300563,-38.6593082,1,0.27670
1,Caxambu do Sul/SC,-27.1615046,-52.8796675,56,1537.61669
D1,Caxambu do Sul/SC,-27.1615046,-52.8796675,1,27.45744
1,Caxambu/MG,-21.9770359,-44.9318289,52,240.11821
D1,Caxambu/MG,-21.9770359,-44.9318289,2,9.23532
1,Caxias do Sul/RS,-29.1684796,-51.1793861,6,1.17438
1,Caçador/SC,-26.77567,-51.0120041,258,328.26516
D1,Caçador/SC,-26.77567,-51.0120041,12,15.26815
1,Celso Ramos/SC,-27.6335797,-51.3368111,38,1392.96188
D1,Celso Ramos/SC,-27.6335797,-51.3368111,1,36.65689
1,Central de Minas/MG,-18.7612885,-41.3071204,35,497.72469
D1,Central de Minas/MG,-18.7612885,-41.3071204,2,28.44141
1,Centralina/MG,-18.5843349,-49.1954739,76,734.29952
D1,Centralina/MG,-18.5843349,-49.1954739,2,19.32367
1,Cerro Grande do Sul/RS,-30.5962963,-51.7517196,1,8.17060
1,Cerro Negro/SC,-27.7966668,-50.8746472,7,224.07170
1,Chalé/MG,-20.0419748,-41.6914563,41,718.79383
D1,Chalé/MG,-20.0419748,-41.6914563,2,35.06311
1,Chapada Gaúcha/MG,-15.2946253,-45.6284904,21,153.50877
1,Chapada do Norte/MG,-17.0880036,-42.5380774,1,6.51211
1,Chapadão do Lageado/SC,-27.590507,-49.553879,21,702.81124
D1,Chapadão do Lageado/SC,-27.590507,-49.553879,1,33.46720
1,Chapecó/SC,-27.0922364,-52.6166878,4674,2121.00723
D1,Chapecó/SC,-27.0922364,-52.6166878,28,12.70608
1,Charqueadas/RS,-29.955012,-51.6249195,1,2.45164
1,Chaves/PA,-0.164154,-49.987006,166,699.91989
D1,Chaves/PA,-0.164154,-49.987006,1,4.21638
1,Chiador/MG,-22.002778,-43.057222,89,3312.24414
D1,Chiador/MG,-22.002778,-43.057222,1,37.21623
1,Chácara/MG,-21.6727567,-43.2206851,10,317.05770
1,Cianorte/PR,-23.662036,-52.6103989,7,8.47252
1,Cipotânea/MG,-20.905278,-43.365556,20,294.68101
1,Claraval/MG,-20.398889,-47.283056,9,185.83523
1,Claro dos Poções/MG,-17.0758235,-44.2117357,10,132.43279
1,Cláudio/MG,-20.4448485,-44.7655217,145,506.69183
D1,Cláudio/MG,-20.4448485,-44.7655217,2,6.98885
1,Cocal do Sul/SC,-28.6007346,-49.3248697,207,1240.70966
D1,Cocal do Sul/SC,-28.6007346,-49.3248697,8,47.95013
1,Coimbra/MG,-21.5733599,-45.1979819,32,423.50450
1,Colares/PA,-0.936423,-48.280254,85,703.35126
D1,Colares/PA,-0.936423,-48.280254,9,74.47249
1,Coluna/MG,-18.2326274,-42.8400811,4,45.08058
1,Comendador Gomes/MG,-19.6991718,-49.0814065,74,2378.65638
D1,Comendador Gomes/MG,-19.6991718,-49.0814065,1,32.14401
1,Comercinho/MG,-16.2965093,-41.7930954,35,505.12339
1,Conceição da Aparecida/MG,-21.094166,-46.204444,6,58.29771
D1,Conceição da Aparecida/MG,-21.094166,-46.204444,1,9.71628
1,Conceição da Barra de Minas/MG,-21.128889,-44.472223,13,328.78098
1,Conceição das Alagoas/MG,-19.9194009,-48.3803414,717,2570.53741
D1,Conceição das Alagoas/MG,-19.9194009,-48.3803414,10,35.85129
1,Conceição das Pedras/MG,-22.1596572,-45.4550521,8,284.49502
1,Conceição de Ipanema/MG,-19.928334,-41.693889,23,502.84215
1,Conceição do Araguaia/PA,-8.2696905,-49.2676864,725,1514.70834
D1,Conceição do Araguaia/PA,-8.2696905,-49.2676864,9,18.80328
1,Conceição do Jacuípe/BA,-12.326831,-38.768433,1,3.01632
1,Conceição do Mato Dentro/MG,-19.037222,-43.425278,588,3295.59466
D1,Conceição do Mato Dentro/MG,-19.037222,-43.425278,1,5.60475
1,Conceição do Pará/MG,-19.752222,-44.896944,10,181.58707
D1,Conceição do Pará/MG,-19.752222,-44.896944,1,18.15871
1,Conceição do Rio Verde/MG,-21.881078,-45.0868526,9,65.99208
D1,Conceição do Rio Verde/MG,-21.881078,-45.0868526,1,7.33245
1,Conceição dos Ouros/MG,-22.413056,-45.797777,23,197.62846
D1,Conceição dos Ouros/MG,-22.413056,-45.797777,2,17.18508
1,Concórdia do Pará/PA,-1.9924056,-47.9450474,1106,3319.52698
D1,Concórdia do Pará/PA,-1.9924056,-47.9450474,14,42.01933
1,Concórdia/SC,-27.2312011,-52.0231024,2172,2909.92886
D1,Concórdia/SC,-27.2312011,-52.0231024,18,24.11543
1,Conde/BA,-11.8129758,-37.6138705,1,3.87042
1,Confins/MG,-19.6278749,-43.9912311,31,460.62407
1,Congonhal/MG,-22.1532505,-46.0404698,58,485.35565
D1,Congonhal/MG,-22.1532505,-46.0404698,1,8.36820
1,Congonhas do Norte/MG,-18.8100392,-43.6783242,13,257.68087
1,Congonhas/MG,-20.5015168,-43.8564586,356,650.08583
D1,Congonhas/MG,-20.5015168,-43.8564586,5,9.13042
1,Conquista/MG,-19.936944,-47.543055,85,1224.96037
D1,Conquista/MG,-19.936944,-47.543055,1,14.41130
1,Conselheiro Lafaiete/MG,-20.6596107,-43.785743,415,322.73367
D1,Conselheiro Lafaiete/MG,-20.6596107,-43.785743,2,1.55534
1,Conselheiro Pena/MG,-19.1720883,-41.471995,105,458.09520
1,Consolação/MG,-22.551389,-45.921111,2,112.17050
1,Contagem/MG,-19.9132749,-44.0840953,5237,788.87709
D1,Contagem/MG,-19.9132749,-44.0840953,221,33.29040
1,Contenda/PR,-25.678811,-49.535044,1,5.38097
1,Coqueiral/MG,-21.1898365,-45.4409829,8,87.34578
1,Coração de Jesus/MG,-16.6888187,-44.3577401,44,165.40110
1,Cordilheira Alta/SC,-26.9853947,-52.603549,46,1033.01145
1,Cordisburgo/MG,-19.125834,-44.320278,48,539.93251
D1,Cordisburgo/MG,-19.125834,-44.320278,2,22.49719
1,Cordislândia/MG,-21.792843,-45.7029983,19,537.02657
1,Corinto/MG,-18.363056,-44.456111,131,552.02056
D1,Corinto/MG,-18.363056,-44.456111,2,8.42779
1,Coroaci/MG,-18.6194369,-42.2830239,6,60.05405
1,Coromandel/MG,-18.473889,-47.200278,115,411.09602
D1,Coromandel/MG,-18.473889,-47.200278,2,7.14950
1,Coronel Fabriciano/MG,-19.5200067,-42.6282686,2398,2182.87743
D1,Coronel Fabriciano/MG,-19.5200067,-42.6282686,32,29.12931
1,Coronel Freitas/SC,-26.9058932,-52.7028055,145,1452.76024
1,Coronel Martins/SC,-26.5124719,-52.6681763,7,274.61750
1,Coronel Pacheco/MG,-21.5878865,-43.2615975,31,1004.53662
D1,Coronel Pacheco/MG,-21.5878865,-43.2615975,1,32.40441
1,Coronel Xavier Chaves/MG,-21.0234482,-44.2233108,11,320.32615
1,Correia Pinto/SC,-27.587688,-50.361448,139,1086.36186
D1,Correia Pinto/SC,-27.587688,-50.361448,2,15.63111
1,Corupá/SC,-26.42464,-49.245968,258,1621.72355
D1,Corupá/SC,-26.42464,-49.245968,1,6.28575
1,Cotia/SP,-23.603889,-46.918889,6,2.40761
1,Couto de Magalhães de Minas/MG,-18.073016,-43.4718628,5,113.37868
1,Criciúma/SC,-28.6789941,-49.3695627,3793,1762.66114
D1,Criciúma/SC,-28.6789941,-49.3695627,46,21.37686
1,Cristais/MG,-20.875834,-45.518611,13,101.57837
1,Cristiano Otoni/MG,-20.8324096,-43.8053057,5,97.08738
1,Cristina/MG,-22.212222,-45.264167,14,136.69205
1,Cristália/MG,-16.7179933,-42.8648107,3,50.24284
1,Crisólita/MG,-17.2391664,-40.9132444,32,477.32697
1,Crucilândia/MG,-20.3985647,-44.3429275,75,1489.86889
D1,Crucilândia/MG,-20.3985647,-44.3429275,1,19.86492
1,Cruzeiro da Fortaleza/MG,-18.9461873,-46.6738005,2,55.15720
1,Cruzeiro do Sul/RS,-29.5139742,-51.9917068,1,8.09848
1,Cruzília/MG,-21.838333,-44.808056,41,265.94020
D1,Cruzília/MG,-21.838333,-44.808056,1,6.48635
1,Cuiabá/MT,-15.5986686,-56.0991301,12,1.95903
1,Cumaru do Norte/PA,-7.8122669,-50.7677675,306,2271.20908
D1,Cumaru do Norte/PA,-7.8122669,-50.7677675,4,29.68901
1,Cunha Porã/SC,-26.8927163,-53.1716516,81,730.65127
1,Cunhataí/SC,-26.9735014,-53.0914014,7,356.77880
1,Cuparaque/MG,-18.9697,-41.0986,18,361.30068
D1,Cuparaque/MG,-18.9697,-41.0986,1,20.07226
1,Curionópolis/PA,-6.0990443,-49.6059039,1063,5928.94194
D1,Curionópolis/PA,-6.0990443,-49.6059039,13,72.50823
1,Curitiba/PR,-25.4295963,-49.2712724,77,3.98323
1,Curitibanos/SC,-27.2917869,-50.5768954,361,908.29035
D1,Curitibanos/SC,-27.2917869,-50.5768954,7,17.61228
1,Curral de Dentro/MG,-15.9332656,-41.8568896,20,258.76569
D1,Curral de Dentro/MG,-15.9332656,-41.8568896,1,12.93828
1,Curralinho/PA,-1.8137876,-49.7980165,251,728.63446
D1,Curralinho/PA,-1.8137876,-49.7980165,8,23.22341
1,Curuá/PA,-1.887754,-55.116842,297,2063.50309
D1,Curuá/PA,-1.887754,-55.116842,2,13.89564
1,Curuçá/PA,-0.7276792,-47.856568,1565,3906.05501
D1,Curuçá/PA,-0.7276792,-47.856568,52,129.78585
1,Curvelo/MG,-18.7571926,-44.4305993,467,582.81022
D1,Curvelo/MG,-18.7571926,-44.4305993,8,9.98390
1,Cássia/MG,-20.5796525,-46.9262786,106,597.51973
1,Córrego Danta/MG,-19.823889,-45.904167,4,124.41680
1,Córrego Fundo/MG,-20.4490405,-45.5558238,26,410.28878
1,Córrego Novo/MG,-19.832223,-42.395833,13,469.14471
1,Córrego do Bom Jesus/MG,-22.630556,-46.019723,39,1052.91577
D1,Córrego do Bom Jesus/MG,-22.630556,-46.019723,1,26.99784
1,Cônego Marinho/MG,-15.2974056,-44.4140513,4,52.34232
1,Datas/MG,-18.4459187,-43.6584287,32,591.49723
D1,Datas/MG,-18.4459187,-43.6584287,1,18.48429
1,Delfim Moreira/MG,-22.5086783,-45.2792398,18,224.29907
1,Delfinópolis/MG,-20.344749,-46.8546425,17,238.96542
D1,Delfinópolis/MG,-20.344749,-46.8546425,1,14.05679
1,Delta/MG,-19.9769,-47.7711,232,2202.60135
D1,Delta/MG,-19.9769,-47.7711,3,28.48191
1,Descanso/SC,-26.8246854,-53.5017586,50,606.06061
1,Descoberto/MG,-21.459444,-42.967223,12,239.37762
1,Desterro de Entre Rios/MG,-20.66,-44.332223,37,510.83805
1,Desterro do Melo/MG,-21.136000000000003,-43.535538011695905,6,206.82523
1,Diadema/SP,-23.681347,-46.62052,2,0.47183
1,Diamantina/MG,-18.2440862,-43.6006487,107,224.21055
D1,Diamantina/MG,-18.2440862,-43.6006487,3,6.28628
1,Dias d'Ávila/BA,-12.6107233,-38.3028518,1,1.23321
1,Diogo de Vasconcelos/MG,-20.4868723,-43.1984645,17,447.13309
1,Dionísio Cerqueira/SC,-26.2604681,-53.6346379,50,322.62227
D1,Dionísio Cerqueira/SC,-26.2604681,-53.6346379,3,19.35734
1,Dionísio/MG,-19.841944,-42.776945,35,452.83995
1,Divino das Laranjeiras/MG,-18.7775,-41.479167,68,1365.73609
D1,Divino das Laranjeiras/MG,-18.7775,-41.479167,1,20.08435
1,Divino/MG,-20.6151497,-42.1474733,61,306.05589
D1,Divino/MG,-20.6151497,-42.1474733,2,10.03462
1,Divinolândia de Minas/MG,-18.8021453,-42.6153788,3,39.62488
1,Divinésia/MG,-20.990277,-43.003889,12,351.18525
D1,Divinésia/MG,-20.990277,-43.003889,1,29.26544
1,Divinópolis/MG,-20.1434559,-44.89125,800,335.80993
D1,Divinópolis/MG,-20.1434559,-44.89125,23,9.65454
1,Divisa Alegre/MG,-15.7207751,-41.3442809,17,250.51577
1,Divisa Nova/MG,-21.5126801,-46.1926626,4,66.54467
1,Divisópolis/MG,-15.7216545,-41.0032019,21,190.57991
D1,Divisópolis/MG,-15.7216545,-41.0032019,1,9.07523
1,Dois Irmãos/RS,-29.58356,-51.089776,1,3.06082
1,Dom Bosco/MG,-16.6516044,-46.2677917,45,1223.82377
1,Dom Cavati/MG,-19.3744152,-42.1067301,37,729.49527
D1,Dom Cavati/MG,-19.3744152,-42.1067301,5,98.58044
1,Dom Eliseu/PA,-4.2928111,-47.5559083,782,1309.46600
D1,Dom Eliseu/PA,-4.2928111,-47.5559083,6,10.04705
1,Dom Joaquim/MG,-18.967137,-43.2552141,98,2336.11442
1,Dom Pedrito/RS,-30.983755,-54.6746483,1,2.60004
1,Dom Silvério/MG,-20.1631352,-42.9666824,12,229.13882
1,Dona Emma/SC,-26.9849398,-49.7265136,63,1519.53690
1,Dona Euzébia/MG,-21.316667,-42.810556,21,319.53743
1,Dores de Campos/MG,-21.107222,-44.0225,10,98.49306
1,Dores de Guanhães/MG,-19.0578968,-42.9292569,35,677.11356
1,Dores do Indaiá/MG,-19.4636451,-45.60166,112,830.67567
1,Doresópolis/MG,-20.287222,-45.903056,36,2357.56385
1,Douradoquara/MG,-18.431062,-47.608269,13,681.34172
1,Dourados/MS,-22.2206145,-54.812208,2,0.89707
1,Doutor Pedrinho/SC,-26.716408,-49.482726,47,1156.49606
1,Duque de Caxias/RJ,-22.7896225,-43.309929,5,0.54372
1,Durandé/MG,-20.203611,-41.798055,11,140.28823
D1,Durandé/MG,-20.203611,-41.798055,1,12.75348
1,Eldorado do Carajás/PA,-6.1029246,-49.3572487,244,721.72267
D1,Eldorado do Carajás/PA,-6.1029246,-49.3572487,7,20.70516
1,Eldorado do Sul/RS,-29.9984639,-51.3091977,1,2.42219
1,Elói Mendes/MG,-21.6094466,-45.5660211,52,185.21157
1,Embu das Artes/SP,-23.6495294,-46.8528497,3,1.09599
D1,Embu das Artes/SP,-23.6495294,-46.8528497,1,0.36533
1,Engenheiro Caldas/MG,-19.201389,-42.046944,29,260.46345
D1,Engenheiro Caldas/MG,-19.201389,-42.046944,1,8.98150
1,Engenheiro Navarro/MG,-17.286622,-43.9515719,9,124.27506
1,Entre Folhas/MG,-19.6259301,-42.2321332,37,689.01304
D1,Entre Folhas/MG,-19.6259301,-42.2321332,2,37.24395
1,Entre Rios de Minas/MG,-20.670834,-44.065556,21,137.27285
1,Entre Rios/SC,-26.7236463,-52.5638445,253,7898.84483
D1,Entre Rios/SC,-26.7236463,-52.5638445,3,93.66219
1,Erechim/RS,-27.6350143,-52.2737288,3,2.83388
1,Ermo/SC,-28.9860835,-49.6428985,34,1648.08531
D1,Ermo/SC,-28.9860835,-49.6428985,1,48.47310
1,Erval Velho/SC,-27.2747859,-51.4429712,115,2606.52765
1,Ervália/MG,-20.8400156,-42.653352,42,222.28103
D1,Ervália/MG,-20.8400156,-42.653352,1,5.29241
1,Esmeraldas/MG,-19.7613111,-44.3145945,274,388.36603
D1,Esmeraldas/MG,-19.7613111,-44.3145945,10,14.17394
1,Espera Feliz/MG,-20.6494192,-41.9080693,150,601.17831
D1,Espera Feliz/MG,-20.6494192,-41.9080693,10,40.07855
1,Espinosa/MG,-14.9232007,-42.8093337,168,531.35971
D1,Espinosa/MG,-14.9232007,-42.8093337,7,22.13999
1,Espírito Santo do Dourado/MG,-22.046666,-45.950833,8,170.50298
D1,Espírito Santo do Dourado/MG,-22.046666,-45.950833,1,21.31287
1,Estiva/MG,-22.4638686,-46.0182101,64,563.67800
D1,Estiva/MG,-22.4638686,-46.0182101,1,8.80747
1,Estrela Dalva/MG,-21.741666,-42.460833,14,597.52454
D1,Estrela Dalva/MG,-21.741666,-42.460833,2,85.36065
1,Estrela do Indaiá/MG,-19.5225,-45.7875,3,85.71429
1,Estrela do Sul/MG,-18.7420499,-47.6900736,32,401.10303
1,Estrela/RS,-29.5010545,-51.962226,1,2.93118
1,Estância Velha/RS,-29.6529666,-51.1719687,2,3.99824
1,Eugenópolis/MG,-21.0968165,-42.1850985,154,1365.85366
D1,Eugenópolis/MG,-21.0968165,-42.1850985,3,26.60754
1,Ewbank da Câmara/MG,-21.551389,-43.509722,7,178.89088
1,Extrema/MG,-22.8549109,-46.3190079,1198,3307.10835
D1,Extrema/MG,-22.8549109,-46.3190079,12,33.12629
1,Faria Lemos/MG,-20.8051202,-42.0127393,25,771.36686
D1,Faria Lemos/MG,-20.8051202,-42.0127393,1,30.85467
1,Faro/PA,-1.1091625500000002,-57.800250715708856,110,1529.05199
1,Farroupilha/RS,-29.22647,-51.3468188,1,1.38253
1,Faxinal dos Guedes/SC,-26.8476897,-52.2604154,238,2231.18028
D1,Faxinal dos Guedes/SC,-26.8476897,-52.2604154,2,18.74941
1,Faxinal/PR,-24.001065,-51.3223237,1,5.79677
1,Feira de Santana/BA,-12.2578934,-38.9598047,12,1.95163
1,Felisburgo/MG,-16.638889,-40.760556,36,482.76787
D1,Felisburgo/MG,-16.638889,-40.760556,2,26.82044
1,Felixlândia/MG,-18.7573983,-44.8991465,19,123.89150
1,Felício dos Santos/MG,-18.076111,-43.246666,1,21.03934
1,Fernandes Tourinho/MG,-19.152778,-42.083056,6,174.87613
D1,Fernandes Tourinho/MG,-19.152778,-42.083056,1,29.14602
1,Fernando de Noronha/PE,-3.8561012,-32.4248189,1,32.66906
1,Ferraz de Vasconcelos/SP,-23.541056,-46.37097,3,1.54419
1,Ferros/MG,-19.234984,-43.019542,92,936.86354
1,Fervedouro/MG,-20.7292242,-42.2785942,36,327.09431
D1,Fervedouro/MG,-20.7292242,-42.2785942,1,9.08595
1,Flor do Sertão/SC,-26.7784693,-53.3478823,5,316.05563
1,Floresta do Araguaia/PA,-7.5597065,-49.7032829,187,921.00079
1,Florestal/MG,-19.8878705,-44.4314766,44,589.73328
1,Florianópolis/SC,-27.5973002,-48.5496098,4908,979.69352
D1,Florianópolis/SC,-27.5973002,-48.5496098,89,17.76543
1,Formiga/MG,-20.4648425,-45.4266753,520,768.28746
D1,Formiga/MG,-20.4648425,-45.4266753,9,13.29728
1,Formosa do Sul/SC,-26.6478829,-52.7934366,54,2151.39442
D1,Formosa do Sul/SC,-26.6478829,-52.7934366,1,39.84064
1,Formoso/MG,-14.9513078,-46.234247,36,376.49027
D1,Formoso/MG,-14.9513078,-46.234247,1,10.45806
1,Forquilhinha/SC,-28.7487602,-49.4737661,539,2011.71948
D1,Forquilhinha/SC,-28.7487602,-49.4737661,6,22.39391
1,Fortaleza de Minas/MG,-20.849166,-46.712222,3,67.99637
1,Fortaleza/CE,-3.7304512,-38.5217989,353,13.22423
D1,Fortaleza/CE,-3.7304512,-38.5217989,5,0.18731
1,Fortim/CE,-4.451256,-37.798056,1,6.06796
1,Fortuna de Minas/MG,-19.561662,-44.4451854,17,576.85782
1,Foz do Iguaçu/PR,-25.5401479,-54.5858139,10,3.86799
1,Fraiburgo/SC,-27.023288,-50.919978,176,482.94597
D1,Fraiburgo/SC,-27.023288,-50.919978,6,16.46407
1,Francisco Badaró/MG,-16.9917524,-42.350899,1,9.67867
1,Francisco Dumont/MG,-17.3117541,-44.2322232,5,95.87728
1,Francisco Sá/MG,-16.4777211,-43.4942587,86,327.28241
D1,Francisco Sá/MG,-16.4777211,-43.4942587,1,3.80561
1,Frei Gaspar/MG,-18.0633426,-41.4300673,52,884.35374
1,Frei Inocêncio/MG,-18.563076,-41.9064881,128,1331.80730
D1,Frei Inocêncio/MG,-18.563076,-41.9064881,3,31.21423
1,Frei Lagonegro/MG,-18.1671176,-42.7656893,20,575.04313
1,Frei Rogério/SC,-27.175021,-50.807621,27,1334.65151
D1,Frei Rogério/SC,-27.175021,-50.807621,1,49.43154
1,Fronteira dos Vales/MG,-16.891997,-40.9255782,14,305.61013
D1,Fronteira dos Vales/MG,-16.891997,-40.9255782,1,21.82929
1,Fronteira/MG,-20.286111,-49.202778,65,359.05651
D1,Fronteira/MG,-20.286111,-49.202778,1,5.52395
1,Fruta de Leite/MG,-16.1169,-42.5278,15,279.38164
1,Frutal/MG,-20.0220064,-48.9280076,532,894.17776
D1,Frutal/MG,-20.0220064,-48.9280076,19,31.93492
1,Funilândia/MG,-19.3711961,-44.0599481,6,137.96275
1,Galiléia/MG,-19.0008674,-41.5383935,24,352.06102
D1,Galiléia/MG,-19.0008674,-41.5383935,2,29.33842
1,Galvão/SC,-26.4553595,-52.6869755,12,417.68187
1,Gameleiras/MG,-15.0828,-43.1236,10,195.73302
1,Garibaldi/RS,-29.2562253,-51.5269167,1,2.85144
1,Garopaba/SC,-28.0274798,-48.6240197,182,788.62986
D1,Garopaba/SC,-28.0274798,-48.6240197,2,8.66626
1,Garrafão do Norte/PA,-1.9282256,-47.0513157,646,2478.32425
D1,Garrafão do Norte/PA,-1.9282256,-47.0513157,6,23.01849
1,Garuva/SC,-26.0294904,-48.8545202,369,2033.61808
D1,Garuva/SC,-26.0294904,-48.8545202,3,16.53348
1,Gaspar/SC,-26.9307306,-48.9566824,1785,2563.21889
D1,Gaspar/SC,-26.9307306,-48.9566824,28,40.20736
1,Glaucilândia/MG,-16.8497,-43.6972,3,95.23810
1,Goiabeira/MG,-18.9804026,-41.224571,14,417.53653
1,Goiana/PE,-7.560603,-34.99591,1,1.25379
D1,Goiana/PE,-7.560603,-34.99591,1,1.25379
1,Goianá/MG,-21.5375,-43.2014,15,378.21483
1,Goianésia do Pará/PA,-3.8380998,-49.0977992,156,385.42310
D1,Goianésia do Pará/PA,-3.8380998,-49.0977992,11,27.17727
1,Goianésia/GO,-15.3118269,-49.1162001,1,1.42686
1,Goiânia/GO,-16.680882,-49.2532691,35,2.30854
1,Gonzaga/MG,-18.8207197,-42.4784009,4,64.95615
1,Gonçalves/MG,-22.658883,-45.8558405,1,22.98851
1,Gouveia/MG,-18.4545728,-43.7415904,45,380.54968
D1,Gouveia/MG,-18.4545728,-43.7415904,1,8.45666
1,Governador Celso Ramos/SC,-27.317161,-48.557608,509,3517.37959
D1,Governador Celso Ramos/SC,-27.317161,-48.557608,6,41.46223
1,Governador Valadares/MG,-18.8539497,-41.9458753,5110,1825.74986
D1,Governador Valadares/MG,-18.8539497,-41.9458753,173,61.81110
1,Gravatal/SC,-28.3300703,-49.0362296,163,1417.26806
D1,Gravatal/SC,-28.3300703,-49.0362296,6,52.16938
1,Gravataí/RS,-29.9440222,-50.9930938,1,0.35522
1,Grão Mogol/MG,-16.5634623,-42.8932112,46,290.47739
D1,Grão Mogol/MG,-16.5634623,-42.8932112,1,6.31473
1,Grão Pará/SC,-28.1856937,-49.2163956,133,2024.66129
D1,Grão Pará/SC,-28.1856937,-49.2163956,1,15.22302
1,Guabiruba/SC,-27.0864326,-48.9781319,473,1984.72642
D1,Guabiruba/SC,-27.0864326,-48.9781319,5,20.98019
1,Guanhães/MG,-18.7753627,-42.9340634,191,556.54302
1,Guapimirim/RJ,-22.5266308,-42.9790687,1,1.65243
1,Guapé/MG,-20.7619447,-45.9174969,54,379.08038
D1,Guapé/MG,-20.7619447,-45.9174969,2,14.04001
1,Guaraciaba/MG,-20.5718037,-43.0057078,22,213.09570
1,Guaraciaba/SC,-26.598866,-53.5204392,65,644.20218
D1,Guaraciaba/SC,-26.598866,-53.5204392,1,9.91080
1,Guaraciama/MG,-17.0129899,-43.6696448,5,100.56315
D1,Guaraciama/MG,-17.0129899,-43.6696448,1,20.11263
1,Guaramirim/SC,-26.468753,-49.002628,617,1376.64830
D1,Guaramirim/SC,-26.468753,-49.002628,14,31.23675
1,Guarani/MG,-21.35876,-43.0481021,16,179.55336
1,Guaranésia/MG,-21.3024827,-46.7956962,239,1256.50597
D1,Guaranésia/MG,-21.3024827,-46.7956962,5,26.28674
1,Guarapari/ES,-20.6718755,-40.4984617,1,0.80090
1,Guarapuava/PR,-25.3950986,-51.4622016,1,0.55095
1,Guarará/MG,-21.731945,-43.037777,3,79.03056
1,Guarda-Mor/MG,-17.7698054,-47.0991762,54,820.66869
1,Guarujá do Sul/SC,-26.3850268,-53.527794,7,135.65891
1,Guarulhos/SP,-23.4430602,-46.524459,14,1.01509
D1,Guarulhos/SP,-23.4430602,-46.524459,2,0.14501
1,Guatambú/SC,-27.1333139,-52.7852104,92,1955.78231
1,Guaxupé/MG,-21.3087615,-46.7190609,525,1011.22946
D1,Guaxupé/MG,-21.3087615,-46.7190609,4,7.70461
1,Guaíra/PR,-24.0851924,-54.2567519,2,6.03883
1,Guidoval/MG,-21.1514477,-42.7997151,6,84.76971
1,Guimarânia/MG,-18.8442251,-46.7925141,43,534.89240
1,Guiricema/MG,-21.0165457,-42.6961825375,63,750.71497
D1,Guiricema/MG,-21.0165457,-42.6961825375,2,23.83222
1,Gurinhatã/MG,-19.2114486,-49.7840077,7,124.13549
1,Gurupá/PA,-1.406325,-51.6427456,1238,3709.25216
D1,Gurupá/PA,-1.406325,-51.6427456,10,29.96165
1,Heliodora/MG,-22.0675,-45.542222,47,716.68192
1,Herval d'Oeste/SC,-27.17361,-51.4903659,421,1862.33743
D1,Herval d'Oeste/SC,-27.17361,-51.4903659,10,44.23604
1,Hidrolândia/GO,-16.9671342,-49.22826,1,4.60702
1,Hortolândia/SP,-22.85833,-47.22,1,0.43318
1,Iapu/MG,-19.436389,-42.217223,74,672.48273
D1,Iapu/MG,-19.436389,-42.217223,4,36.35042
1,Ibiam/SC,-27.184658,-51.235154,11,562.08482
1,Ibiaí/MG,-16.861111,-44.913889,2,23.82370
1,Ibicaré/SC,-27.088141,-51.368101,46,1436.60212
1,Ibiracatu/MG,-15.6666425,-44.1651165,5,92.59259
1,Ibiraci/MG,-20.461944,-47.122223,34,245.87793
1,Ibirama/SC,-27.0536613,-49.5191153,127,670.18470
D1,Ibirama/SC,-27.0536613,-49.5191153,3,15.83113
1,Ibirité/MG,-20.0214251,-44.0621506,1115,618.74320
D1,Ibirité/MG,-20.0214251,-44.0621506,40,22.19707
1,Ibitiúra de Minas/MG,-22.060833,-46.439722,9,258.02752
1,Ibituruna/MG,-21.1515725,-44.7474347,2,66.91201
1,Ibiá/MG,-19.4771843,-46.5386956,111,440.49367
D1,Ibiá/MG,-19.4771843,-46.5386956,2,7.93682
1,Icaraí de Minas/MG,-16.2176592,-44.9023441,8,66.72227
1,Igaracy/PB,-7.1819802,-38.1487395,1,16.34788
1,Igarapé-Açu/PA,-1.128244,-47.6199021,685,1765.14546
D1,Igarapé-Açu/PA,-1.128244,-47.6199021,24,61.84451
1,Igarapé-Miri/PA,-1.9785213,-48.9634826,1151,1835.78424
D1,Igarapé-Miri/PA,-1.9785213,-48.9634826,36,57.41810
1,Igarapé/MG,-20.0687726,-44.3016306,320,743.40806
D1,Igarapé/MG,-20.0687726,-44.3016306,7,16.26205
1,Igaratinga/MG,-19.955278,-44.7089254,9,82.87293
D1,Igaratinga/MG,-19.955278,-44.7089254,1,9.20810
1,Iguatama/MG,-20.174445,-45.711111,18,226.50057
D1,Iguatama/MG,-20.174445,-45.711111,1,12.58336
1,Ijaci/MG,-21.1700929,-44.9280621,14,213.74046
D1,Ijaci/MG,-21.1700929,-44.9280621,1,15.26718
1,Ilhota/SC,-26.9022824,-48.8284968,369,2601.52284
D1,Ilhota/SC,-26.9022824,-48.8284968,2,14.10039
1,Ilhéus/BA,-14.792599,-39.0453843,2,1.23208
1,Ilicínea/MG,-20.9390196,-45.8263558,15,121.21212
D1,Ilicínea/MG,-20.9390196,-45.8263558,3,24.24242
1,Imaruí/SC,-28.3440491,-48.8151737,73,720.27627
D1,Imaruí/SC,-28.3440491,-48.8151737,1,9.86680
1,Imbituba/SC,-28.241827,-48.6643444,615,1371.14574
D1,Imbituba/SC,-28.241827,-48.6643444,3,6.68852
1,Imbuia/SC,-27.49082,-49.421766,29,467.96837
1,Imbé de Minas/MG,-19.5989453,-41.9694294,29,420.10720
D1,Imbé de Minas/MG,-19.5989453,-41.9694294,1,14.48646
1,Imperatriz/MA,-5.5269279,-47.478115,1,0.38658
1,Inconfidentes/MG,-22.3168866,-46.3279182,54,736.89956
D1,Inconfidentes/MG,-22.3168866,-46.3279182,4,54.58515
1,Indaiabira/MG,-15.4914,-42.1981,17,231.26105
1,Indaial/SC,-26.900011,-49.2370602,1176,1693.91430
D1,Indaial/SC,-26.900011,-49.2370602,10,14.40403
1,Indianópolis/MG,-19.0395886,-47.917564,54,783.63082
1,Ingaí/MG,-21.400833,-44.917223,15,542.10336
D1,Ingaí/MG,-21.400833,-44.917223,3,108.42067
1,Inhangapi/PA,-1.4283738,-47.9108608,67,572.11169
D1,Inhangapi/PA,-1.4283738,-47.9108608,5,42.69490
1,Inhapim/MG,-19.5501834,-42.1209879,98,405.96520
D1,Inhapim/MG,-19.5501834,-42.1209879,4,16.57001
1,Inhaúma/MG,-19.490277,-44.389166,20,318.92840
D1,Inhaúma/MG,-19.490277,-44.389166,1,15.94642
1,Inimutaba/MG,-18.7301732,-44.3623971,37,492.34864
D1,Inimutaba/MG,-18.7301732,-44.3623971,1,13.30672
1,Iomerê/SC,-27.0019673,-51.2405514,10,339.55857
1,Ipaba/MG,-19.411389,-42.42,214,1150.10480
D1,Ipaba/MG,-19.411389,-42.42,7,37.62025
1,Ipanema/MG,-19.7999954,-41.7138807,172,866.01883
D1,Ipanema/MG,-19.7999954,-41.7138807,4,20.13997
1,Ipatinga/MG,-19.4777807,-42.5270802,6493,2464.97855
D1,Ipatinga/MG,-19.4777807,-42.5270802,117,44.41745
1,Ipiaçu/MG,-18.6934499,-49.9439567,24,568.58564
D1,Ipiaçu/MG,-18.6934499,-49.9439567,1,23.69107
1,Ipira/SC,-27.4053188,-51.7734648,62,1394.51192
D1,Ipira/SC,-27.4053188,-51.7734648,1,22.49213
1,Ipixuna do Pará/PA,-2.5592139,-47.4965462,521,813.38891
D1,Ipixuna do Pará/PA,-2.5592139,-47.4965462,18,28.10173
1,Iporã do Oeste/SC,-26.9881311,-53.5346366,67,744.77546
D1,Iporã do Oeste/SC,-26.9881311,-53.5346366,2,22.23210
1,Ipuaçu/SC,-26.6349873,-52.4555915,376,5003.99255
D1,Ipuaçu/SC,-26.6349873,-52.4555915,3,39.92547
1,Ipuiúna/MG,-22.0993203,-46.1896557,26,257.96210
1,Ipumirim/SC,-27.0762287,-52.135736,133,1751.61333
1,Iraceminha/SC,-26.8237077,-53.272834,49,1232.39437
1,Iracemápolis/SP,-22.583234,-47.522963,1,4.12626
1,Irani/SC,-27.0230476,-51.9010675,80,767.82801
D1,Irani/SC,-27.0230476,-51.9010675,1,9.59785
1,Irati/SC,-26.6577742,-52.8929851,28,1450.77720
D1,Irati/SC,-26.6577742,-52.8929851,1,51.81347
1,Iraí de Minas/MG,-18.9865339,-47.4642202,79,1130.67125
D1,Iraí de Minas/MG,-18.9865339,-47.4642202,2,28.62459
1,Iretama/PR,-24.4212538,-52.1023538,1,9.83381
1,Irineópolis/SC,-26.242006,-50.795687,11,98.02174
1,Irituia/PA,-1.7709543,-47.4399687,558,1714.28571
D1,Irituia/PA,-1.7709543,-47.4399687,10,30.72197
1,Itabira/MG,-19.6186264,-43.2267011,1605,1336.83158
D1,Itabira/MG,-19.6186264,-43.2267011,6,4.99750
1,Itabirinha/MG,-18.5711894,-41.2339862,72,625.43433
D1,Itabirinha/MG,-18.5711894,-41.2339862,1,8.68659
1,Itabirito/MG,-20.2519724,-43.8029171,1325,2554.21687
D1,Itabirito/MG,-20.2519724,-43.8029171,1,1.92771
1,Itaboraí/RJ,-22.7496231,-42.8557428,3,1.24692
1,Itabuna/BA,-14.7869879,-39.2788778,2,0.93799
1,Itacambira/MG,-17.0671616,-43.3130919,3,55.71031
1,Itacarambi/MG,-15.1,-44.092222,28,154.24448
1,Itacoatiara/AM,-3.1477898,-58.4461041,2,1.97361
1,Itagibá/BA,-14.2891521,-39.8452592,1,6.85918
1,Itaguara/MG,-20.391389,-44.488055,256,1916.45456
1,Itaipé/MG,-17.401944,-41.670278,22,172.41379
1,Itaitinga/CE,-3.965768,-38.529763,1,2.63296
1,Itaituba/PA,-4.2625218,-55.9878139,4629,4571.98732
D1,Itaituba/PA,-4.2625218,-55.9878139,97,95.80531
1,Itaiópolis/SC,-26.3391899,-49.9071983,50,230.74438
D1,Itaiópolis/SC,-26.3391899,-49.9071983,2,9.22978
1,Itajaí/SC,-26.9117879,-48.6669852,4249,1935.44567
D1,Itajaí/SC,-26.9117879,-48.6669852,132,60.12681
1,Itajubá/MG,-22.4238234,-45.4524156,642,662.75073
D1,Itajubá/MG,-22.4238234,-45.4524156,9,9.29090
1,Itamaraju/BA,-17.0363103,-39.527994,1,1.55072
1,Itamarandiba/MG,-17.8575,-42.859722,20,57.57881
1,Itamarati de Minas/MG,-21.415833,-42.817778,10,229.62113
1,Itambacuri/MG,-18.0391974,-41.6751876,97,417.90530
D1,Itambacuri/MG,-18.0391974,-41.6751876,5,21.54151
1,Itambé do Mato Dentro/MG,-19.4144399,-43.3223059,1,48.05382
1,Itamogi/MG,-21.078334,-47.048333,8,78.49294
1,Itamonte/MG,-22.2830726,-44.8695785,92,590.53855
1,Itanhandu/MG,-22.2957913,-44.9366732,89,580.52312
D1,Itanhandu/MG,-22.2957913,-44.9366732,1,6.52273
1,Itanhomi/MG,-19.171111,-41.864167,34,278.05038
D1,Itanhomi/MG,-19.171111,-41.864167,2,16.35590
1,Itaobim/MG,-16.5614934,-41.502275,199,944.82955
D1,Itaobim/MG,-16.5614934,-41.502275,2,9.49577
1,Itapagipe/MG,-19.9033884,-49.3666934,67,439.54602
D1,Itapagipe/MG,-19.9033884,-49.3666934,5,32.80194
1,Itapecerica/MG,-20.472778,-45.125556,31,142.45014
D1,Itapecerica/MG,-20.472778,-45.125556,1,4.59517
1,Itapema/SC,-27.09472,-48.6137778,1944,2976.48212
D1,Itapema/SC,-27.09472,-48.6137778,46,70.43116
1,Itapemirim/ES,-21.0105534,-40.8351239,1,2.91138
1,Itapeva/MG,-22.7071665,-46.23015850595238,276,2821.22048
D1,Itapeva/MG,-22.7071665,-46.23015850595238,6,61.33088
1,Itapevi/SP,-23.54888,-46.933889,1,0.42070
1,Itapiranga/SC,-27.1719977,-53.7118734,298,1766.23992
D1,Itapiranga/SC,-27.1719977,-53.7118734,2,11.85396
1,Itapoá/SC,-26.1162431,-48.6180177,276,1341.36858
D1,Itapoá/SC,-26.1162431,-48.6180177,7,34.02022
1,Itatiaiuçu/MG,-20.1975724,-44.4224889,234,2099.40786
D1,Itatiaiuçu/MG,-20.1975724,-44.4224889,4,35.88731
1,Itaverava/MG,-20.6763122,-43.6098991,7,129.17512
1,Itaú de Minas/MG,-20.739722,-46.752222,69,428.35858
D1,Itaú de Minas/MG,-20.739722,-46.752222,2,12.41619
1,Itaúna/MG,-20.075556,-44.576389,317,340.07767
D1,Itaúna/MG,-20.075556,-44.576389,4,4.29120
1,Itinga/MG,-16.6066757,-41.7702077,41,273.51568
D1,Itinga/MG,-16.6066757,-41.7702077,1,6.67111
1,Itororó/BA,-15.1155552,-40.0638651,1,4.90629
1,Itueta/MG,-19.3962456,-41.2263075,113,1867.45992
D1,Itueta/MG,-19.3962456,-41.2263075,1,16.52619
1,Ituiutaba/MG,-18.9691887,-49.4639335,787,751.87970
D1,Ituiutaba/MG,-18.9691887,-49.4639335,10,9.55374
1,Itumbiara/GO,-18.4135862,-49.2172596,2,1.90945
1,Itumirim/MG,-21.317223,-44.870556,10,166.03022
1,Itupeva/SP,-23.1531055,-47.0580347,1,1.63260
1,Itupiranga/PA,-5.1337224,-49.3321988,380,713.36049
D1,Itupiranga/PA,-5.1337224,-49.3321988,18,33.79076
1,Ituporanga/SC,-27.4096219,-49.6014812,225,896.91461
D1,Ituporanga/SC,-27.4096219,-49.6014812,4,15.94515
1,Iturama/MG,-19.7272733,-50.193488,612,1558.71941
D1,Iturama/MG,-19.7272733,-50.193488,15,38.20391
1,Itutinga/MG,-21.297383,-44.6575084,2,52.79831
1,Itá/SC,-27.275006,-52.3381725,68,1102.28562
D1,Itá/SC,-27.275006,-52.3381725,1,16.21008
1,Ivoti/RS,-29.5934057,-51.1599403,3,12.34924
D1,Ivoti/RS,-29.5934057,-51.1599403,1,4.11641
1,Içara/SC,-28.7116553,-49.2971441,577,1022.66886
D1,Içara/SC,-28.7116553,-49.2971441,5,8.86195
1,Jaboatão dos Guararapes/PE,-8.1752476,-34.9468716,6,0.85434
1,Jaborá/SC,-27.1743246,-51.7348631,57,1448.17073
1,Jaboticatubas/MG,-19.521667,-43.745277,277,1375.16755
D1,Jaboticatubas/MG,-19.521667,-43.745277,7,34.75153
1,Jacareacanga/PA,-6.2196518,-57.758625,1296,15730.06433
D1,Jacareacanga/PA,-6.2196518,-57.758625,14,169.92353
1,Jacinto Machado/SC,-28.999338,-49.7603204,138,1324.88479
D1,Jacinto Machado/SC,-28.999338,-49.7603204,2,19.20123
1,Jacinto/MG,-16.1460987,-40.2948032,105,851.85786
D1,Jacinto/MG,-16.1460987,-40.2948032,1,8.11293
1,Jacundá/PA,-4.446173,-49.115272,739,1249.26042
D1,Jacundá/PA,-4.446173,-49.115272,17,28.73806
1,Jacutinga/MG,-22.285833,-46.612222,228,877.63193
D1,Jacutinga/MG,-22.285833,-46.612222,7,26.94484
1,Jacuí/MG,-21.0169567,-46.7458301,4,52.04267
1,Jaguaraçu/MG,-19.6471951,-42.7513291,62,1978.93393
1,Jaguariúna/SP,-22.70374,-46.985062,1,1.73949
1,Jaguaruna/SC,-28.6237365,-49.0288664,399,1992.60887
D1,Jaguaruna/SC,-28.6237365,-49.0288664,3,14.98202
1,Jampruca/MG,-18.4613981,-41.8092299,14,259.06736
D1,Jampruca/MG,-18.4613981,-41.8092299,1,18.50481
1,Janaúba/MG,-15.8019291,-43.309246,624,870.92452
D1,Janaúba/MG,-15.8019291,-43.309246,12,16.74855
1,Jandira/SP,-23.5282044,-46.9019554,1,0.80040
1,Januária/MG,-15.4875,-44.361111,49,72.33326
D1,Januária/MG,-15.4875,-44.361111,1,1.47619
1,Japaraíba/MG,-20.1416346,-45.5032099,20,459.77011
1,Japonvar/MG,-15.9980389,-44.2755057,5,62.74313
D1,Japonvar/MG,-15.9980389,-44.2755057,1,12.54863
1,Jaraguá do Sul/SC,-26.4897432,-49.0778063,1613,907.72495
D1,Jaraguá do Sul/SC,-26.4897432,-49.0778063,23,12.94338
1,Jardinópolis/SC,-26.721575,-52.8591464,28,1783.43949
1,Jataí/GO,-17.8783829,-51.7204241,2,1.98251
1,Jaíba/MG,-15.3373744,-43.6734439,94,241.58935
1,Jeceaba/MG,-20.5353816,-43.983346,17,346.09121
D1,Jeceaba/MG,-20.5353816,-43.983346,2,40.71661
1,Jenipapo de Minas/MG,-17.08493,-42.259576,1,13.00052
1,Jequeri/MG,-20.453056,-42.666111,6,48.44179
1,Jequitaí/MG,-17.2328217,-44.4383463,32,424.91037
1,Jequitibá/MG,-19.2361583,-44.03063,19,364.61332
D1,Jequitibá/MG,-19.2361583,-44.03063,1,19.19017
1,Jequitinhonha/MG,-16.433333,-41.003056,56,220.55059
D1,Jequitinhonha/MG,-16.433333,-41.003056,1,3.93840
1,Jequié/BA,-13.8604033,-40.0719627,1,0.64117
1,Jesuânia/MG,-21.997777,-45.290833,21,438.68811
D1,Jesuânia/MG,-21.997777,-45.290833,3,62.66973
1,Ji-Paraná/RO,-10.8778148,-61.9277854,1,0.77538
1,Joanésia/MG,-19.1756282,-42.6815534,35,765.36191
D1,Joanésia/MG,-19.1756282,-42.6815534,1,21.86748
1,Joaquim Felício/MG,-17.7602437,-44.1701635,25,532.48136
1,Joaçaba/SC,-27.1737204,-51.5065214,554,1839.43157
D1,Joaçaba/SC,-27.1737204,-51.5065214,5,16.60137
1,Joaíma/MG,-16.6563139,-41.0234956,135,874.80560
D1,Joaíma/MG,-16.6563139,-41.0234956,1,6.48004
1,Joinville/SC,-26.3044898,-48.8486726,9945,1684.26294
D1,Joinville/SC,-26.3044898,-48.8486726,200,33.87155
1,Jordânia/MG,-15.899444,-40.178889,67,619.68183
D1,Jordânia/MG,-15.899444,-40.178889,2,18.49797
1,Josenópolis/MG,-16.5460934,-42.5140963,3,61.63961
1,José Boiteux/SC,-26.962072,-49.6262509,191,3822.29338
D1,José Boiteux/SC,-26.962072,-49.6262509,2,40.02401
1,José Gonçalves de Minas/MG,-16.9066539,-42.6074998,1,22.21729
1,José Raydan/MG,-18.2217847,-42.4988893,6,120.12012
1,João Monlevade/MG,-19.809444,-43.173334,807,1009.88612
D1,João Monlevade/MG,-19.809444,-43.173334,1,1.25141
1,João Pessoa/PB,-7.1215981,-34.882028,11,1.35968
1,João Pinheiro/MG,-17.742777,-46.175278,448,944.11194
D1,João Pinheiro/MG,-17.742777,-46.175278,1,2.10739
1,Juatuba/MG,-19.954001,-44.3407921,206,764.49195
D1,Juatuba/MG,-19.954001,-44.3407921,4,14.84450
1,Juazeiro do Norte/CE,-7.2153453,-39.3153336,1,0.36469
1,Juazeiro/BA,-9.4336959,-40.5068201,2,0.92291
1,Juiz de Fora/MG,-21.7609533,-43.3501129,4065,714.57074
D1,Juiz de Fora/MG,-21.7609533,-43.3501129,134,23.55535
1,Jundiaí/SP,-23.1887866,-46.8845122,3,0.71606
1,Jupiá/SC,-26.3985774,-52.7262856,15,713.94574
1,Juramento/MG,-16.8458291,-43.5867351,11,253.98291
1,Juruaia/MG,-21.252778,-46.577223,170,1609.39127
D1,Juruaia/MG,-21.252778,-46.577223,2,18.93401
1,Juruti/PA,-2.1571381,-56.0900977,1425,2459.31346
D1,Juruti/PA,-2.1571381,-56.0900977,72,124.26005
1,Juvenília/MG,-14.2660795,-44.1618528,12,209.64361
1,Lacerdópolis/SC,-27.2614296,-51.5564429,26,1157.61354
1,Ladainha/MG,-17.6265078,-41.7385789,21,115.95163
1,Lagamar/MG,-18.178611,-46.8075,60,788.12557
1,Lages/SC,-27.8165664,-50.325883,1701,1079.69837
D1,Lages/SC,-27.8165664,-50.325883,33,20.94653
1,Lagoa Dourada/MG,-20.914444,-44.077778,25,192.17465
D1,Lagoa Dourada/MG,-20.914444,-44.077778,2,15.37397
1,Lagoa Formosa/MG,-18.7741896,-46.4082511,83,459.78285
D1,Lagoa Formosa/MG,-18.7741896,-46.4082511,1,5.53955
1,Lagoa Grande/MG,-17.4134691,-42.5319222,17,178.34662
1,Lagoa Santa/MG,-19.6357376,-43.8966132,389,602.84842
D1,Lagoa Santa/MG,-19.6357376,-43.8966132,6,9.29843
1,Lagoa da Prata/MG,-20.022778,-45.5440462,506,969.99904
D1,Lagoa da Prata/MG,-20.022778,-45.5440462,10,19.16994
1,Lagoa dos Patos/MG,-16.9813367,-44.5783125,18,438.81034
1,Laguna/SC,-28.483118,-48.7811993,330,720.30384
D1,Laguna/SC,-28.483118,-48.7811993,8,17.46191
1,Lajeado Grande/SC,-26.8583425,-52.5666619,29,2032.23546
D1,Lajeado Grande/SC,-26.8583425,-52.5666619,1,70.07708
1,Lajeado/RS,-29.4671522,-51.9624046,5,5.95139
1,Lajinha/MG,-20.1520595,-41.6240623,198,993.82623
D1,Lajinha/MG,-20.1520595,-41.6240623,1,5.01932
1,Lambari/MG,-21.9754009,-45.3505415,119,571.73057
D1,Lambari/MG,-21.9754009,-45.3505415,3,14.41338
1,Lamim/MG,-20.7905386,-43.4733218,2,58.97965
1,Laranjal/MG,-21.365278,-42.477778,19,279.00147
D1,Laranjal/MG,-21.365278,-42.477778,1,14.68429
1,Lassance/MG,-17.886944,-44.576667,8,122.85012
1,Laurentino/SC,-27.2193231,-49.7322856,53,760.40172
1,Lauro Muller/SC,-28.3942244,-49.3975402,296,1941.74757
D1,Lauro Muller/SC,-28.3942244,-49.3975402,2,13.11992
1,Lauro de Freitas/BA,-12.89242,-38.3127691,11,5.54324
1,Lavras/MG,-21.2425512,-44.9991978,229,220.67397
D1,Lavras/MG,-21.2425512,-44.9991978,19,18.30919
1,Leandro Ferreira/MG,-19.7169632,-45.0245003,22,681.32549
1,Lebon Régis/SC,-26.927987,-50.692109,6,49.55811
D1,Lebon Régis/SC,-26.927987,-50.692109,1,8.25968
1,Leoberto Leal/SC,-27.5071209,-49.2872077,19,624.79448
1,Leopoldina/MG,-21.5314282,-42.6403534,665,1264.57109
D1,Leopoldina/MG,-21.5314282,-42.6403534,20,38.03221
1,Lima Duarte/MG,-21.842777,-43.792777,135,808.48006
D1,Lima Duarte/MG,-21.842777,-43.792777,8,47.90993
1,Limeira do Oeste/MG,-19.5521959,-50.5772673,55,729.83015
1,Limoeiro do Ajuru/PA,-1.8866440500000001,-49.495701348909165,791,2733.71350
D1,Limoeiro do Ajuru/PA,-1.8866440500000001,-49.495701348909165,26,89.85658
1,Lindóia do Sul/SC,-27.0524132,-52.0831626,171,3747.53452
1,Linhares/ES,-19.3816944,-40.0612213,4,2.30474
1,Londrina/PR,-23.3112878,-51.1595023,7,1.22865
1,Lontra/MG,-15.9034782,-44.3030383,6,62.10537
D1,Lontra/MG,-15.9034782,-44.3030383,1,10.35090
1,Lontras/SC,-27.1679891,-49.5424602,78,643.03380
1,Louveira/SP,-23.08639,-46.95056,1,2.04562
1,Luisburgo/MG,-20.4394,-42.1025,15,239.38717
D1,Luisburgo/MG,-20.4394,-42.1025,1,15.95914
1,Luislândia/MG,-16.1150169,-44.5849349,9,134.34841
1,Luiz Alves/SC,-26.7118577,-48.9126756,142,1104.28494
1,Luminárias/MG,-21.5108145,-44.9035047,8,146.89680
1,Luz/MG,-19.7871171,-45.6846736,99,543.50810
D1,Luz/MG,-19.7871171,-45.6846736,1,5.48998
1,Luzerna/SC,-27.1294338,-51.4686169,99,1741.42480
1,Luziânia/GO,-16.2535456,-47.9500276,1,0.48008
D1,Luziânia/GO,-16.2535456,-47.9500276,1,0.48008
1,Luís Gomes/RN,-6.4141793,-38.3872939,1,9.88533
1,Macapá/AP,0.0401529,-51.0569588,8,1.58942
1,Macaíba/RN,-5.8561372,-35.3523774,1,1.23775
1,Maceió/AL,-9.6476843,-35.7339264,12,1.17769
1,Machacalis/MG,-17.0770336,-40.7187273,19,267.19167
1,Machado/MG,-21.6762861,-45.9211696,38,90.19059
D1,Machado/MG,-21.6762861,-45.9211696,1,2.37344
1,Macieira/SC,-26.8541639,-51.3763845,2,112.67606
1,Madre de Deus de Minas/MG,-21.482223,-44.329723,44,863.08356
1,Mafra/SC,-26.1150943,-49.8035982,252,447.66574
D1,Mafra/SC,-26.1150943,-49.8035982,3,5.32935
1,Magalhães Barata/PA,-0.8346168,-47.62963129677816,169,1977.07066
D1,Magalhães Barata/PA,-0.8346168,-47.62963129677816,11,128.68507
1,Mairiporã/SP,-23.3186111,-46.5866667,2,1.99643
1,Major Gercino/SC,-27.419236,-48.94878,94,2730.97037
D1,Major Gercino/SC,-27.419236,-48.94878,1,29.05288
1,Major Vieira/SC,-26.3654856,-50.3272634,24,296.18660
D1,Major Vieira/SC,-26.3654856,-50.3272634,2,24.68222
1,Malacacheta/MG,-17.843055,-42.077778,57,305.63003
1,Mamonas/MG,-15.0477099,-42.9499586,7,106.98456
1,Manacapuru/AM,-3.2996768,-60.6213528,2,2.05387
1,Manaus/AM,-3.1316333,-59.9825041,140,6.41389
1,Manga/MG,-14.7528035,-43.9417044,85,461.78084
1,Mangaratiba/RJ,-22.9600193,-44.04111,1,2.24881
1,Manhuaçu/MG,-20.2574434,-42.0340769,814,902.14898
D1,Manhuaçu/MG,-20.2574434,-42.0340769,16,17.73266
1,Manhumirim/MG,-20.3599141,-41.9554606,489,2153.52094
D1,Manhumirim/MG,-20.3599141,-41.9554606,7,30.82750
1,Mantena/MG,-18.7809937,-40.9808279,413,1493.99508
D1,Mantena/MG,-18.7809937,-40.9808279,6,21.70453
1,Mar de Espanha/MG,-21.866945,-43.01,75,585.29733
D1,Mar de Espanha/MG,-21.866945,-43.01,7,54.62775
1,Marabá/PA,-5.3462821,-49.1007401,5926,2121.36074
D1,Marabá/PA,-5.3462821,-49.1007401,167,59.78185
1,Maracajá/SC,-28.8628566,-49.449388,74,1014.67160
D1,Maracajá/SC,-28.8628566,-49.449388,2,27.42356
1,Maracanaú/CE,-3.8779438,-38.6247697,1,0.43882
1,Maracanã/PA,-0.7666582,-47.4537818,143,485.18983
D1,Maracanã/PA,-0.7666582,-47.4537818,15,50.89404
1,Maranguape/CE,-3.8922967,-38.6835427,1,0.77533
1,Marapanim/PA,-0.7134493,-47.6985381,577,2036.27894
D1,Marapanim/PA,-0.7134493,-47.6985381,18,63.52343
1,Marau/RS,-28.4493053,-52.2002156,1,2.26444
1,Maravilha/SC,-26.7623898,-53.1747387,341,1323.65500
D1,Maravilha/SC,-26.7623898,-53.1747387,4,15.52674
1,Maravilhas/MG,-19.515278,-44.676389,19,238.21464
1,Marechal Cândido Rondon/PR,-24.5570477,-54.0571457,1,1.88879
1,Marema/SC,-26.802361,-52.626445,51,2838.06344
D1,Marema/SC,-26.802361,-52.626445,1,55.64830
1,Maria da Fé/MG,-22.3081652,-45.3752771,61,432.77758
D1,Maria da Fé/MG,-22.3081652,-45.3752771,2,14.18943
1,Mariana/MG,-20.3781468,-43.4174862,1176,1936.63132
D1,Mariana/MG,-20.3781468,-43.4174862,12,19.76154
1,Maricá/RJ,-22.9196772,-42.8184375,1,0.62032
1,Marilac/MG,-18.5075,-42.080278,3,72.90401
1,Maringá/PR,-23.425269,-51.9382078,8,1.88828
D1,Maringá/PR,-23.425269,-51.9382078,2,0.47207
1,Maripá de Minas/MG,-21.6975,-42.959167,19,639.08510
1,Marituba/PA,-1.3595306,-48.3361504,850,646.28462
D1,Marituba/PA,-1.3595306,-48.3361504,64,48.66143
1,Mariópolis/PR,-26.3517858,-52.5491536,1,15.12859
1,Marliéria/MG,-19.711867,-42.7343059,25,618.96509
D1,Marliéria/MG,-19.711867,-42.7343059,1,24.75860
1,Marmelópolis/MG,-22.448889,-45.165278,2,72.59528
1,Martinho Campos/MG,-19.331945,-45.236666,34,253.95877
D1,Martinho Campos/MG,-19.331945,-45.236666,3,22.40813
1,Martins Soares/MG,-20.2583778,-41.8761462,31,368.30225
D1,Martins Soares/MG,-20.2583778,-41.8761462,4,47.52287
1,Massaranduba/SC,-26.610868,-49.005351,461,2725.23055
D1,Massaranduba/SC,-26.610868,-49.005351,2,11.82313
1,Mata Verde/MG,-15.6882799,-40.7401058,20,232.93734
1,Materlândia/MG,-18.473889,-43.06,3,67.27966
D1,Materlândia/MG,-18.473889,-43.06,1,22.42655
1,Mateus Leme/MG,-19.986666,-44.428056,177,569.38815
D1,Mateus Leme/MG,-19.986666,-44.428056,3,9.65065
1,Mathias Lobato/MG,-18.5760459,-41.9155448,31,967.84265
1,Matias Barbosa/MG,-21.8691643,-43.3180624,136,940.00553
D1,Matias Barbosa/MG,-21.8691643,-43.3180624,6,41.47083
1,Matias Cardoso/MG,-14.8603469,-43.9210644,14,125.48176
1,Matinhos/PR,-25.8187344,-48.5342813,1,2.88018
1,Matipó/MG,-20.2896695,-42.3426599,110,581.76433
D1,Matipó/MG,-20.2896695,-42.3426599,3,15.86630
1,Mato Verde/MG,-16.499274,-44.2279588,12,96.31592
1,Matos Costa/SC,-26.4739837,-51.1509787,2,79.36508
1,Matozinhos/MG,-19.5576547,-44.0816035,204,539.39714
D1,Matozinhos/MG,-19.5576547,-44.0816035,2,5.28821
1,Matutina/MG,-19.221956,-45.9701654,27,720.19205
1,Mauriti/CE,-7.3870095,-38.7737751,1,2.08498
1,Mauá/SP,-23.6669527,-46.4616922,2,0.42291
1,Medeiros/MG,-19.9945831,-46.2223569,20,526.03893
1,Medianeira/PR,-25.2954233,-54.0940666,1,2.16460
1,Medicilândia/PA,-3.4438388,-52.8889236,1424,4506.75697
D1,Medicilândia/PA,-3.4438388,-52.8889236,11,34.81343
1,Medina/MG,-16.2270466,-41.4763373,126,605.18732
D1,Medina/MG,-16.2270466,-41.4763373,2,9.60615
1,Meleiro/SC,-28.8303183,-49.6349851,103,1468.28225
D1,Meleiro/SC,-28.8303183,-49.6349851,1,14.25517
1,Melgaço/PA,-1.803202,-50.714927,288,1041.44066
D1,Melgaço/PA,-1.803202,-50.714927,10,36.16113
1,Mendes Pimentel/MG,-18.6611641,-41.4020716,24,372.32392
1,Mercês/MG,-21.1947265,-43.3407272,22,204.86079
1,Mesquita/MG,-19.221667,-42.607222,32,570.91882
D1,Mesquita/MG,-19.221667,-42.607222,1,17.84121
1,Miguel Pereira/RJ,-22.4539417,-43.4691978,1,3.91573
D1,Miguel Pereira/RJ,-22.4539417,-43.4691978,1,3.91573
1,Minas Novas/MG,-17.2175833,-42.5943681,19,60.34811
D1,Minas Novas/MG,-17.2175833,-42.5943681,1,3.17622
1,Minduri/MG,-21.6817218,-44.6036995,2,51.36107
1,Mirabela/MG,-16.2547215,-44.1639075,30,220.76680
D1,Mirabela/MG,-16.2547215,-44.1639075,1,7.35889
1,Miradouro/MG,-20.890277,-42.3425,61,567.23080
D1,Miradouro/MG,-20.890277,-42.3425,2,18.59773
1,Miravânia/MG,-14.7492867,-44.4108445,1,20.45827
D1,Miravânia/MG,-14.7492867,-44.4108445,1,20.45827
1,Miraí/MG,-21.1957417,-42.6125153,96,639.40322
1,Mirim Doce/SC,-27.2003527,-50.0697185,37,1602.42529
1,Mocajuba/PA,-2.583098,-49.504224,1218,3911.87050
D1,Mocajuba/PA,-2.583098,-49.504224,24,77.08119
1,Modelo/SC,-26.7752383,-53.0525513,83,1971.96484
D1,Modelo/SC,-26.7752383,-53.0525513,1,23.75861
1,Moeda/MG,-20.333056,-44.0525,74,1504.37081
1,Moema/MG,-19.8435409,-45.4106241,111,1476.65292
D1,Moema/MG,-19.8435409,-45.4106241,1,13.30318
1,Mogi das Cruzes/SP,-23.5234284,-46.1926671,9,2.01865
1,Moju/PA,-1.889926,-48.766765,1245,1516.55419
D1,Moju/PA,-1.889926,-48.766765,31,37.76159
1,Mojuí dos Campos/PA,-2.682167,-54.642717,384,2387.46580
D1,Mojuí dos Campos/PA,-2.682167,-54.642717,13,80.82567
1,Mondaí/SC,-27.1020777,-53.399242,42,357.69034
1,Monjolos/MG,-18.3242667,-44.1187729,1,45.04505
1,Monsenhor Paulo/MG,-21.757778,-45.541111,19,218.69245
1,Montalvânia/MG,-14.4230168,-44.3701782,46,309.20212
1,Monte Alegre de Minas/MG,-18.870278,-48.880556,233,1103.21970
D1,Monte Alegre de Minas/MG,-18.870278,-48.880556,7,33.14394
1,Monte Alegre/PA,-1.9989108,-54.0727694,1223,2107.45795
D1,Monte Alegre/PA,-1.9989108,-54.0727694,21,36.18693
1,Monte Alegre/RN,-6.069901,-35.333635,1,4.45414
1,Monte Azul/MG,-15.1531999,-42.8711742,122,585.01966
D1,Monte Azul/MG,-15.1531999,-42.8711742,3,14.38573
1,Monte Belo/MG,-21.3225052,-46.3649768,3,22.78596
1,Monte Carlo/SC,-27.223916,-50.980785,175,1773.76850
D1,Monte Carlo/SC,-27.223916,-50.980785,4,40.54328
1,Monte Carmelo/MG,-18.7260939,-47.4958859,156,326.29840
D1,Monte Carmelo/MG,-18.7260939,-47.4958859,4,8.36663
1,Monte Castelo/SC,-26.460989,-50.232724,14,169.18429
1,Monte Formoso/MG,-16.8669394,-41.2543539,7,142.68243
1,Monte Santo de Minas/MG,-21.189722,-46.98,36,167.25516
D1,Monte Santo de Minas/MG,-21.189722,-46.98,1,4.64598
1,Monte Sião/MG,-22.432778,-46.572778,107,449.52317
D1,Monte Sião/MG,-22.432778,-46.572778,3,12.60345
1,Montes Claros/MG,-16.7273538,-43.8717676,3198,781.25573
D1,Montes Claros/MG,-16.7273538,-43.8717676,46,11.23757
1,Montezuma/MG,-15.1715121,-42.4987703,1,12.12268
1,Morada Nova de Minas/MG,-18.6024892,-45.3513867,30,338.48584
1,Morro Grande/SC,-28.80057,-49.721362,79,2730.72935
1,Morro da Fumaça/SC,-28.6522275,-49.2133979,315,1770.06069
D1,Morro da Fumaça/SC,-28.6522275,-49.2133979,5,28.09620
1,Morro da Garça/MG,-18.5435188,-44.6030199,6,243.70431
D1,Morro da Garça/MG,-18.5435188,-44.6030199,2,81.23477
1,Morro do Pilar/MG,-19.216389,-43.376667,5,157.13388
1,Mossoró/RN,-5.1904332,-37.3443872,16,5.38036
D1,Mossoró/RN,-5.1904332,-37.3443872,1,0.33627
1,Muaná/PA,-1.5317443,-49.2223565,309,765.81824
D1,Muaná/PA,-1.5317443,-49.2223565,18,44.61077
1,Munhoz/MG,-22.613056,-46.360556,43,713.21944
D1,Munhoz/MG,-22.613056,-46.360556,2,33.17300
1,Muriaé/MG,-21.130556,-42.366389,1950,1792.88913
D1,Muriaé/MG,-21.130556,-42.366389,54,49.64924
1,Mutum/MG,-19.817223,-41.438333,262,971.12569
D1,Mutum/MG,-19.817223,-41.438333,2,7.41317
1,Muzambinho/MG,-21.3727087,-46.51927,28,136.12718
D1,Muzambinho/MG,-21.3727087,-46.51927,1,4.86169
1,Mário Campos/MG,-20.0511,-44.1858,119,771.92527
D1,Mário Campos/MG,-20.0511,-44.1858,4,25.94707
1,Mãe do Rio/PA,-2.0458692,-47.5522076,505,1679.02384
D1,Mãe do Rio/PA,-2.0458692,-47.5522076,26,86.44479
1,Nacip Raydan/MG,-18.4575634,-42.2496073,11,341.61491
D1,Nacip Raydan/MG,-18.4575634,-42.2496073,1,31.05590
1,Nanuque/MG,-17.8391113,-40.3537221,621,1523.92638
D1,Nanuque/MG,-17.8391113,-40.3537221,14,34.35583
1,Naque/MG,-19.2271271,-42.3280185,50,714.69411
1,Natal/RN,-5.805398,-35.2080905,36,4.07184
1,Natalândia/MG,-16.5042,-46.4933,5,151.01178
1,Natércia/MG,-22.12,-45.511389,38,803.38266
1,Navegantes/SC,-26.8898813,-48.6495828,1749,2146.67076
D1,Navegantes/SC,-26.8898813,-48.6495828,38,46.64007
1,Nazareno/MG,-21.2134896,-44.649049590000004,10,116.17100
1,Nepomuceno/MG,-21.232744,-45.2352276,65,242.81819
1,Ninheira/MG,-15.3190697,-41.7535543,17,165.12870
1,Niterói/RJ,-22.8832371,-43.1154552,47,9.15138
D1,Niterói/RJ,-22.8832371,-43.1154552,1,0.19471
1,Nossa Senhora da Glória/SE,-10.2188811,-37.4199759,1,2.70827
1,Nova Belém/MG,-18.4914334,-41.1050052,14,438.87147
1,Nova Era/MG,-19.766111,-43.036944,87,494.93685
D1,Nova Era/MG,-19.766111,-43.036944,1,5.68893
1,Nova Erechim/SC,-26.9027688,-52.9071258,73,1454.47300
1,Nova Esperança do Piriá/PA,-2.2663093,-46.9661622,726,3397.60389
D1,Nova Esperança do Piriá/PA,-2.2663093,-46.9661622,6,28.07937
1,Nova Iguaçu/RJ,-22.7592175,-43.4508728,7,0.85249
1,Nova Ipixuna/PA,-4.916221,-49.082194,266,1594.91546
D1,Nova Ipixuna/PA,-4.916221,-49.082194,9,53.96330
1,Nova Itaberaba/SC,-26.9406956,-52.8132923,46,1062.11037
1,Nova Lima/MG,-19.9854089,-43.8470691,1905,2007.60889
D1,Nova Lima/MG,-19.9854089,-43.8470691,13,13.70022
1,Nova Monte Verde/MT,-9.9796694,-57.467331,1,10.89562
1,Nova Módica/MG,-18.4389859,-41.4973651,32,888.88889
D1,Nova Módica/MG,-18.4389859,-41.4973651,2,55.55556
1,Nova Palma/RS,-29.4711081,-53.4693751,1,15.35627
1,Nova Ponte/MG,-19.1692213,-47.6717642,164,1055.00161
D1,Nova Ponte/MG,-19.1692213,-47.6717642,7,45.03056
1,Nova Porteirinha/MG,-15.8030559,-43.3011842,49,653.33333
1,Nova Resende/MG,-21.1263862,-46.424537,66,394.66603
D1,Nova Resende/MG,-21.1263862,-46.424537,1,5.97979
1,Nova Serrana/MG,-19.875834,-44.984166,275,267.78846
D1,Nova Serrana/MG,-19.875834,-44.984166,9,8.76399
1,Nova Soure/BA,-11.2409332,-38.4774123,1,3.71099
1,Nova Timboteua/PA,-1.2052428,-47.3935775,379,2466.96609
D1,Nova Timboteua/PA,-1.2052428,-47.3935775,2,13.01829
1,Nova Trento/SC,-27.2862616,-48.9302652,319,2192.59056
D1,Nova Trento/SC,-27.2862616,-48.9302652,2,13.74665
1,Nova União/MG,-19.6901893,-43.580107,27,471.61572
1,Nova Veneza/SC,-28.637371,-49.4997634,390,2571.54161
D1,Nova Veneza/SC,-28.637371,-49.4997634,3,19.78109
1,Novo Airão/AM,-2.6260236,-60.9434406,1,5.14033
1,Novo Cruzeiro/MG,-19.4730937,-42.537897,71,226.61262
D1,Novo Cruzeiro/MG,-19.4730937,-42.537897,1,3.19173
1,Novo Hamburgo/RS,-29.6905705,-51.1429035,1,0.40527
1,Novo Horizonte/SC,-26.4465656,-52.8319931,25,1023.75102
1,Novo Oriente de Minas/MG,-17.4153913,-41.2190225,88,818.22408
D1,Novo Oriente de Minas/MG,-17.4153913,-41.2190225,2,18.59600
1,Novo Progresso/PA,-7.0374884,-55.4185904,767,2977.25332
D1,Novo Progresso/PA,-7.0374884,-55.4185904,11,42.69855
1,Novo Repartimento/PA,-4.2519172,-49.9524257,311,409.64712
D1,Novo Repartimento/PA,-4.2519172,-49.9524257,25,32.92983
1,Novorizonte/MG,-16.0178,-42.4072,1,18.87149
1,Oeiras do Pará/PA,-2.0040813,-49.8596065,479,1473.30217
D1,Oeiras do Pará/PA,-2.0040813,-49.8596065,21,64.59154
1,Olaria/MG,-21.8607194,-43.9370942,4,228.96394
1,Olhos-d'Água/MG,-17.3988426,-43.5715884,2,32.80840
1,Olinda/PE,-7.9986401,-34.8459552,5,1.27394
1,Oliveira/MG,-20.6971953,-44.8273969,153,367.02089
D1,Oliveira/MG,-20.6971953,-44.8273969,1,2.39883
1,Olímpio Noronha/MG,-22.067778,-45.263889,12,430.57051
1,Onça de Pitangui/MG,-19.73,-44.807222,10,317.66201
1,Oratórios/MG,-20.4303,-42.8056,11,236.30505
1,Oriximiná/PA,-1.7669992,-55.868285,3048,4169.85882
D1,Oriximiná/PA,-1.7669992,-55.868285,34,46.51417
1,Orizânia/MG,-20.5061,-42.21,8,99.77551
D1,Orizânia/MG,-20.5061,-42.21,2,24.94388
1,Orleans/SC,-28.3572698,-49.2872434,324,1414.10615
D1,Orleans/SC,-28.3572698,-49.2872434,2,8.72905
1,Osasco/SP,-23.5324859,-46.7916801,14,2.00453
D1,Osasco/SP,-23.5324859,-46.7916801,1,0.14318
1,Osório/RS,-29.8890328,-50.2730224,1,2.17420
1,Otacílio Costa/SC,-27.4818979,-50.1205396,221,1179.04396
D1,Otacílio Costa/SC,-27.4818979,-50.1205396,3,16.00512
1,Ourilândia do Norte/PA,-6.748975,-51.0788476,2429,7398.26998
D1,Ourilândia do Norte/PA,-6.748975,-51.0788476,9,27.41228
1,Ouro Branco/MG,-20.5230256,-43.6917329,240,607.59494
D1,Ouro Branco/MG,-20.5230256,-43.6917329,4,10.12658
1,Ouro Fino/MG,-22.283056,-46.369167,104,309.16496
D1,Ouro Fino/MG,-22.283056,-46.369167,2,5.94548
1,Ouro Preto/MG,-20.3851692,-43.5036344,488,656.96477
D1,Ouro Preto/MG,-20.3851692,-43.5036344,15,20.19359
1,Ouro Verde de Minas/MG,-18.0687218,-41.2710619,11,185.37243
D1,Ouro Verde de Minas/MG,-18.0687218,-41.2710619,2,33.70408
1,Ouro Verde/SC,-26.6941871,-52.3103928,33,1488.49797
D1,Ouro Verde/SC,-26.6941871,-52.3103928,2,90.21200
1,Ouro/SC,-27.3389051,-51.6137785,218,2988.34818
D1,Ouro/SC,-27.3389051,-51.6137785,1,13.70802
1,Ourém/PA,-1.5489964,-47.1174572,347,1944.84923
D1,Ourém/PA,-1.5489964,-47.1174572,3,16.81426
1,Pacajá/PA,-3.8354195,-50.6399248,687,1440.07043
D1,Pacajá/PA,-3.8354195,-50.6399248,8,16.76938
1,Padre Carvalho/MG,-16.3647,-42.515,19,297.89903
1,Padre Paraíso/MG,-17.073889,-41.484444,183,908.00834
1,Pai Pedro/MG,-15.5311251,-43.0667102,10,164.23058
D1,Pai Pedro/MG,-15.5311251,-43.0667102,1,16.42306
1,Paial/SC,-27.2564715,-52.4998045,18,1196.01329
1,Paineiras/MG,-18.904167,-45.534722,5,111.45787
1,Painel/SC,-27.9214849,-50.0994933,3,127.17253
1,Pains/MG,-20.3672648,-45.6633353,27,325.96885
D1,Pains/MG,-20.3672648,-45.6633353,1,12.07292
1,Paiva/MG,-21.289441,-43.4175347,2,130.80445
1,Palestina do Pará/PA,-5.7423938,-48.3185533,155,2042.42983
D1,Palestina do Pará/PA,-5.7423938,-48.3185533,2,26.35393
1,Palhoça/SC,-27.6447774,-48.6646323,3284,1911.55841
D1,Palhoça/SC,-27.6447774,-48.6646323,44,25.61162
1,Palma Sola/SC,-26.3482487,-53.2775974,31,417.62091
1,Palma/MG,-19.4364967,-43.9331557,31,468.56106
D1,Palma/MG,-19.4364967,-43.9331557,1,15.11487
1,Palmares/PE,-8.684226,-35.589032,1,1.58103
1,Palmas/TO,-10.1835604,-48.3337793,9,3.00876
1,Palmeira/SC,-27.5797981,-50.1589086,12,456.79482
1,Palmitos/SC,-27.0711023,-53.1596594,183,1131.79541
D1,Palmitos/SC,-27.0711023,-53.1596594,4,24.73870
1,Palmópolis/MG,-16.7383864,-40.4216514,4,72.63483
D1,Palmópolis/MG,-16.7383864,-40.4216514,1,18.15871
1,Papagaios/MG,-19.4487105,-44.7479493,120,765.59908
1,Papanduva/SC,-26.4065885,-50.1457369,26,134.57557
D1,Papanduva/SC,-26.4065885,-50.1457369,4,20.70393
1,Paracatu/MG,-17.2174056,-46.8707514,822,882.37188
D1,Paracatu/MG,-17.2174056,-46.8707514,10,10.73445
1,Paragominas/PA,-2.99564,-47.3548942,2733,2415.48456
D1,Paragominas/PA,-2.99564,-47.3548942,93,82.19541
1,Paraguaçu/MG,-21.547222,-45.7375,37,171.98903
1,Paraisópolis/MG,-22.5541683,-45.7800024,64,303.56211
D1,Paraisópolis/MG,-22.5541683,-45.7800024,7,33.20211
1,Paranavaí/PR,-23.08165,-52.461724,2,2.26311
1,Paraopeba/MG,-19.2756823,-44.4034123,159,647.92176
D1,Paraopeba/MG,-19.2756823,-44.4034123,1,4.07498
1,Parauapebas/PA,-6.0696846,-49.8903283,17523,8413.47654
D1,Parauapebas/PA,-6.0696846,-49.8903283,151,72.50100
1,Paraí/RS,-28.5966772,-51.7851426,1,13.05995
1,Paraíso/SC,-26.6180705,-53.6743943,8,232.76113
1,Parintins/AM,-2.6344567,-56.7319324,3,2.62529
D1,Parintins/AM,-2.6344567,-56.7319324,1,0.87510
1,Parnamirim/RN,-5.9153334,-35.2679913,10,3.82455
1,Parnaíba/PI,-2.9147515,-41.7661953,1,0.65326
1,Pará de Minas/MG,-19.8599637,-44.6075313,260,276.68699
D1,Pará de Minas/MG,-19.8599637,-44.6075313,6,6.38508
1,Passa Quatro/MG,-22.3893803,-44.9666039,109,666.91140
D1,Passa Quatro/MG,-22.3893803,-44.9666039,3,18.35536
1,Passa Tempo/MG,-20.650556,-44.495833,27,333.99307
D1,Passa Tempo/MG,-20.650556,-44.495833,1,12.37011
1,Passa e Fica/RN,-6.4356697,-35.6434459,1,7.53182
1,Passa-Vinte/MG,-22.209722,-44.234444,9,441.39284
1,Passabém/MG,-19.3521707,-43.1374619,3,181.92844
1,Passo Fundo/RS,-28.2616138,-52.4089048,1,0.49194
1,Passo de Torres/SC,-29.325393,-49.7218979,114,1292.07752
1,Passos Maia/SC,-26.7806434,-52.0611058,39,940.43887
D1,Passos Maia/SC,-26.7806434,-52.0611058,1,24.11382
1,Passos/MG,-20.719162,-46.6094507,468,408.09564
D1,Passos/MG,-20.719162,-46.6094507,14,12.20799
1,Pato Branco/PR,-26.2295984,-52.6712474,2,2.41310
1,Patos de Minas/MG,-18.6041453,-46.5096698,1536,1007.29238
D1,Patos de Minas/MG,-18.6041453,-46.5096698,33,21.64105
1,Patrocínio do Muriaé/MG,-21.153333,-42.214444,21,369.45813
D1,Patrocínio do Muriaé/MG,-21.153333,-42.214444,2,35.18649
1,Patrocínio/MG,-18.9408294,-46.9926624,731,805.44751
D1,Patrocínio/MG,-18.9408294,-46.9926624,17,18.73134
1,Pau D'Arco/PA,-7.8331153,-50.0404438,165,3009.30148
D1,Pau D'Arco/PA,-7.8331153,-50.0404438,4,72.95276
1,Paula Cândido/MG,-20.8737735,-42.9862733,19,198.51635
1,Paulistas/MG,-18.4268235,-42.8689535,1,20.70393
1,Paulo Lopes/SC,-27.964968,-48.6830299,200,2668.80171
D1,Paulo Lopes/SC,-27.964968,-48.6830299,2,26.68802
1,Paulínia/SP,-22.7630391,-47.1532213,1,0.91388
1,Pavão/MG,-17.427778,-41,23,272.18935
1,Peabiru/PR,-23.9142123,-52.3455598,1,7.14490
1,Pedra Azul/MG,-16.005556,-41.28,98,402.89426
D1,Pedra Azul/MG,-16.005556,-41.28,8,32.88933
1,Pedra Bonita/MG,-20.5203,-42.33,6,84.54276
1,Pedra Dourada/MG,-20.8317801,-42.1554636,8,319.48882
1,Pedra do Anta/MG,-20.5962822,-42.7179792,2,65.53080
1,Pedra do Indaiá/MG,-20.258333,-45.208611,25,629.40584
1,Pedralva/MG,-22.2430775,-45.4659842,10,89.32559
1,Pedras Grandes/SC,-28.4357866,-49.1864128,26,653.92354
D1,Pedras Grandes/SC,-28.4357866,-49.1864128,3,75.45272
1,Pedrinópolis/MG,-19.2275,-47.461944,21,577.71664
D1,Pedrinópolis/MG,-19.2275,-47.461944,1,27.51032
1,Pedro Leopoldo/MG,-19.617778,-44.043055,343,533.78568
D1,Pedro Leopoldo/MG,-19.617778,-44.043055,9,14.00604
1,Peixe-Boi/PA,-1.193824,-47.324031,143,1770.45933
D1,Peixe-Boi/PA,-1.193824,-47.324031,2,24.76167
1,Pelotas/RS,-31.7699736,-52.3410161,2,0.58410
1,Penha/SC,-26.775418,-48.6465251,612,1881.28247
D1,Penha/SC,-26.775418,-48.6465251,15,46.10986
1,Penápolis/SP,-21.4192406,-50.0765588,1,1.57711
1,Pequeri/MG,-21.8369971,-43.1207799,1,30.12048
1,Pequi/MG,-19.6315163,-44.6597262,7,158.87426
1,Perdigão/MG,-19.953056,-45.084166,60,521.46706
D1,Perdigão/MG,-19.953056,-45.084166,2,17.38224
1,Perdizes/MG,-19.3503361,-47.2938235,161,995.79416
D1,Perdizes/MG,-19.3503361,-47.2938235,3,18.55517
1,Perdões/MG,-21.0919737,-45.0903543,89,416.08228
1,Periquito/MG,-19.1559319,-42.2412259,74,1086.63730
D1,Periquito/MG,-19.1559319,-42.2412259,4,58.73715
1,Peritiba/SC,-27.3736365,-51.9050311,41,1471.11590
D1,Peritiba/SC,-27.3736365,-51.9050311,1,35.88088
1,Pescador/MG,-18.3563609,-41.5981451,15,352.77516
1,Pescaria Brava/SC,-28.3845591,-48.8658054,199,1972.05431
D1,Pescaria Brava/SC,-28.3845591,-48.8658054,3,29.72946
1,Petrolina/PE,-9.3817334,-40.4968875,2,0.57283
1,Petrolândia/SC,-27.5328952,-49.6989571,12,202.12228
1,Petrópolis/RJ,-22.519963,-43.192613,4,1.30637
D1,Petrópolis/RJ,-22.519963,-43.192613,1,0.32659
1,Peçanha/MG,-18.5478786,-42.5608947,15,85.51394
1,Piau/MG,-21.5074738,-43.320587,3,109.17031
1,Piedade de Caratinga/MG,-19.7601211,-42.0767321,30,350.22181
1,Piedade de Ponte Nova/MG,-20.2452955,-42.7343995,28,676.32850
1,Piedade do Rio Grande/MG,-21.4679371,-44.1939394,28,622.63731
D1,Piedade do Rio Grande/MG,-21.4679371,-44.1939394,2,44.47409
1,Piedade dos Gerais/MG,-20.471111,-44.226945,56,1124.04657
D1,Piedade dos Gerais/MG,-20.471111,-44.226945,3,60.21678
1,Pimenta/MG,-20.4827995,-45.7985894,14,161.66282
1,Pingo-d'Água/MG,-19.7284768,-42.4098217,22,445.25400
D1,Pingo-d'Água/MG,-19.7284768,-42.4098217,2,40.47764
1,Pinhais/PR,-25.4443488,-49.1900307,3,2.27003
1,Pinhalzinho/SC,-26.852586,-52.9872478,246,1211.04711
D1,Pinhalzinho/SC,-26.852586,-52.9872478,1,4.92296
1,Pinheiro Preto/SC,-27.0457296,-51.2296306,11,309.42335
D1,Pinheiro Preto/SC,-27.0457296,-51.2296306,1,28.12940
1,Pintópolis/MG,-16.0572809,-45.1466972,2,26.64180
D1,Pintópolis/MG,-16.0572809,-45.1466972,1,13.32090
1,Piracema/MG,-20.5091579,-44.4754464,33,514.90092
D1,Piracema/MG,-20.5091579,-44.4754464,1,15.60306
1,Piracicaba/SP,-22.72528,-47.64917,3,0.74231
1,Pirajuba/MG,-19.9090891,-48.701683,118,1903.53283
D1,Pirajuba/MG,-19.9090891,-48.701683,1,16.13163
1,Piranga/MG,-20.685,-43.3,46,260.97810
D1,Piranga/MG,-20.685,-43.3,6,34.04062
1,Piranguinho/MG,-22.4029372,-45.5338952,47,546.76594
1,Piranguçu/MG,-22.5280226,-45.4961066,20,365.49708
D1,Piranguçu/MG,-22.5280226,-45.4961066,1,18.27485
1,Pirapetinga/MG,-21.656903,-42.345955,225,2092.63393
D1,Pirapetinga/MG,-21.656903,-42.345955,4,37.20238
1,Pirapora/MG,-17.3493765,-44.9507904,365,646.84199
D1,Pirapora/MG,-17.3493765,-44.9507904,3,5.31651
1,Piratini/RS,-31.448451,-53.1039931,1,4.83957
1,Piratuba/SC,-27.4215816,-51.7822762,130,3373.11884
1,Piraúba/MG,-21.276945,-43.025834,32,296.65338
1,Pitangui/MG,-19.682223,-44.890555,117,418.02137
D1,Pitangui/MG,-19.682223,-44.890555,1,3.57283
1,Piumhi/MG,-20.4675258,-45.9576125,254,732.17837
D1,Piumhi/MG,-20.4675258,-45.9576125,4,11.53037
1,Piçarra/PA,-6.4475822,-48.8633795,166,1278.79208
D1,Piçarra/PA,-6.4475822,-48.8633795,1,7.70357
1,Placas/PA,-3.8689529,-54.2154346,345,1113.54980
D1,Placas/PA,-3.8689529,-54.2154346,4,12.91072
1,Planalto Alegre/SC,-27.0721133,-52.8667023,33,1149.82578
1,Planura/MG,-20.1368583,-48.7066819,129,1063.21602
D1,Planura/MG,-20.1368583,-48.7066819,3,24.72595
1,Pocrane/MG,-19.6192747,-41.6365314,57,675.99620
1,Pojuca/BA,-12.4260268,-38.3266573,1,2.53043
1,Pomerode/SC,-26.7356218,-49.1770095,547,1635.42321
D1,Pomerode/SC,-26.7356218,-49.1770095,4,11.95922
1,Pompéu/MG,-19.218611,-45.002778,240,754.43229
D1,Pompéu/MG,-19.218611,-45.002778,2,6.28694
1,Ponta Grossa/PR,-25.0891685,-50.1601812,3,0.85291
1,Ponta Porã/MS,-22.5286917,-55.723426,1,1.08078
1,Ponta de Pedras/PA,-1.395873,-48.866073,758,2438.71051
D1,Ponta de Pedras/PA,-1.395873,-48.866073,6,19.30378
1,Ponte Alta do Norte/SC,-27.1626096,-50.4684028,40,1171.64616
D1,Ponte Alta do Norte/SC,-27.1626096,-50.4684028,1,29.29115
1,Ponte Alta/SC,-27.483497,-50.376404,42,897.05254
D1,Ponte Alta/SC,-27.483497,-50.376404,1,21.35839
1,Ponte Nova/MG,-20.4164353,-42.90878,261,436.87858
D1,Ponte Nova/MG,-20.4164353,-42.90878,3,5.02159
1,Ponte Serrada/SC,-26.8708566,-52.0164089,66,569.30907
D1,Ponte Serrada/SC,-26.8708566,-52.0164089,2,17.25179
1,Ponto Chique/MG,-16.6328913,-45.0637456,1,23.46867
1,Ponto dos Volantes/MG,-16.7527503,-41.5039586,63,519.75910
D1,Ponto dos Volantes/MG,-16.7527503,-41.5039586,2,16.50029
1,Porteirinha/MG,-15.7420889,-43.0286046,190,501.23991
D1,Porteirinha/MG,-15.7420889,-43.0286046,1,2.63810
1,Portel/PA,-1.9387118,-50.8240402,1413,2277.45273
D1,Portel/PA,-1.9387118,-50.8240402,46,74.14213
1,Porto Acre/AC,-9.5879722,-67.53307,1,5.40424
1,Porto Alegre/RS,-30.0324999,-51.2303767,143,9.63761
D1,Porto Alegre/RS,-30.0324999,-51.2303767,2,0.13479
1,Porto Belo/SC,-27.1542415,-48.5424395,528,2468.67402
D1,Porto Belo/SC,-27.1542415,-48.5424395,6,28.05311
1,Porto Feliz/SP,-23.2137274,-47.5190176,1,1.88331
1,Porto Firme/MG,-20.672778,-43.084444,83,735.88084
D1,Porto Firme/MG,-20.672778,-43.084444,4,35.46414
1,Porto Real do Colégio/AL,-10.186833,-36.8357056,1,4.98355
1,Porto Seguro/BA,-16.443473,-39.064251,10,6.72558
1,Porto União/SC,-26.2336416,-51.082771,85,240.12656
D1,Porto União/SC,-26.2336416,-51.082771,3,8.47506
1,Porto Velho/RO,-8.7494525,-63.8735438,5,0.94421
1,Porto de Moz/PA,-1.7502089,-52.235556,851,2068.79786
D1,Porto de Moz/PA,-1.7502089,-52.235556,25,60.77550
1,Poté/MG,-17.8074949,-41.7892455,99,598.00664
D1,Poté/MG,-17.8074949,-41.7892455,3,18.12141
1,Pouso Alegre/MG,-22.2343858,-45.9327241,1279,848.49771
D1,Pouso Alegre/MG,-22.2343858,-45.9327241,19,12.60474
1,Pouso Alto/MG,-22.193889,-44.972778,11,185.18519
1,Pouso Redondo/SC,-27.2567443,-49.9331593,73,418.26620
D1,Pouso Redondo/SC,-27.2567443,-49.9331593,1,5.72967
1,Poá/SP,-23.5249082,-46.3445663,1,0.85141
1,Poço Fundo/MG,-21.780834,-45.965,61,363.28986
1,Poços de Caldas/MG,-21.7900318,-46.5647928,543,324.37857
D1,Poços de Caldas/MG,-21.7900318,-46.5647928,17,10.15550
1,Prado/BA,-17.336357,-39.222721,3,10.64812
1,Prados/MG,-21.0572943,-44.0788784,12,132.87565
D1,Prados/MG,-21.0572943,-44.0788784,1,11.07297
1,Praia Grande/SC,-29.1966831,-49.9491971,74,1011.06709
1,Prainha/PA,-1.8072874,-53.4797942,388,1299.13614
D1,Prainha/PA,-1.8072874,-53.4797942,12,40.17947
1,Prata/MG,-19.307222,-48.923889,151,542.07352
D1,Prata/MG,-19.307222,-48.923889,2,7.17978
1,Pratinha/MG,-19.7530422,-46.3824103,14,388.56508
1,Pratápolis/MG,-20.744722,-46.861111,80,929.90817
D1,Pratápolis/MG,-20.744722,-46.861111,3,34.87156
1,Presidente Bernardes/MG,-20.7685467,-43.1877237,4,74.50177
1,Presidente Castello Branco/SC,-27.2217868,-51.8089482,46,2933.67347
1,Presidente Getúlio/SC,-27.0426247,-49.6210429,228,1305.01975
D1,Presidente Getúlio/SC,-27.0426247,-49.6210429,3,17.17131
1,Presidente Juscelino/MG,-18.6388028,-44.0604419,38,1043.66932
D1,Presidente Juscelino/MG,-18.6388028,-44.0604419,1,27.46498
1,Presidente Kubitschek/MG,-18.614167,-43.561667,12,399.73351
1,Presidente Nereu/SC,-27.278277,-49.3890424,15,655.88107
1,Presidente Olegário/MG,-18.415,-46.419723,103,526.23512
D1,Presidente Olegário/MG,-18.415,-46.419723,3,15.32724
1,Primavera/PA,-0.9406522,-47.116728,347,3205.54273
D1,Primavera/PA,-0.9406522,-47.116728,8,73.90300
1,Princesa/SC,-26.4452737,-53.599913,11,376.19699
1,Propriá/SE,-10.212427,-36.8372254,2,6.75083
1,Prudente de Morais/MG,-19.4825,-44.155556,32,298.14591
1,Quartel Geral/MG,-19.2730674,-45.5570007,4,112.26495
1,Quatiguá/PR,-23.5669626,-49.9160315,1,13.42462
1,Quatipuru/PA,-0.8948725,-47.0049317,365,2682.24574
D1,Quatipuru/PA,-0.8948725,-47.0049317,10,73.48618
1,Queimados/RJ,-22.7156978,-43.555754,1,0.66525
1,Quilombo/SC,-26.7253683,-52.7193084,230,2326.28704
D1,Quilombo/SC,-26.7253683,-52.7193084,7,70.80004
1,Quixadá/CE,-4.9706021,-39.0158403,2,2.27977
1,Rancho Queimado/SC,-27.6731108,-49.0126867,30,1042.39055
D1,Rancho Queimado/SC,-27.6731108,-49.0126867,2,69.49270
1,Raposos/MG,-19.967223,-43.804167,185,1131.22172
D1,Raposos/MG,-19.967223,-43.804167,2,12.22942
1,Raul Soares/MG,-20.102222,-42.451944,53,223.04520
D1,Raul Soares/MG,-20.102222,-42.451944,1,4.20840
1,Recife/PE,-8.0641931,-34.8781517,53,3.22046
D1,Recife/PE,-8.0641931,-34.8781517,4,0.24305
1,Recreio/MG,-21.5248205,-42.4689256,38,361.31977
D1,Recreio/MG,-21.5248205,-42.4689256,2,19.01683
1,Redenção/PA,-8.025294,-50.031687,2629,3100.71119
D1,Redenção/PA,-8.025294,-50.031687,37,43.63877
1,Reduto/MG,-20.2453,-41.9833,45,629.01873
1,Resende Costa/MG,-20.921945,-44.237777,17,147.82609
1,Resende/RJ,-22.4683626,-44.4463494,2,1.52275
1,Resplendor/MG,-19.3254413,-41.2554622,140,804.73645
D1,Resplendor/MG,-19.3254413,-41.2554622,1,5.74812
1,Ressaquinha/MG,-21.063056,-43.762778,4,83.19468
1,Riachinho/MG,-16.2212448,-45.9997305,17,208.94789
1,Riacho dos Machados/MG,-16.006667,-43.049166,10,105.47411
D1,Riacho dos Machados/MG,-16.006667,-43.049166,1,10.54741
1,Ribeirão Pires/SP,-23.7129388,-46.4150871,1,0.81042
1,Ribeirão Preto/SP,-21.178333,-47.8066671,5,0.71094
D1,Ribeirão Preto/SP,-21.178333,-47.8066671,1,0.14219
1,Ribeirão Vermelho/MG,-21.1881942,-45.0627632,16,396.72700
1,Ribeirão das Neves/MG,-19.7672898,-44.0875436,2657,793.47067
D1,Ribeirão das Neves/MG,-19.7672898,-44.0875436,87,25.98116
1,Rio Acima/MG,-20.0875,-43.789166,136,1318.85182
1,Rio Bonito/RJ,-22.7108378,-42.6271864,2,3.32220
D1,Rio Bonito/RJ,-22.7108378,-42.6271864,1,1.66110
1,Rio Branco do Sul/PR,-25.1885374,-49.3119082,1,3.08671
1,Rio Branco/AC,-9.9765362,-67.8220778,35,8.59277
1,Rio Casca/MG,-20.225834,-42.651389,136,1002.65408
D1,Rio Casca/MG,-20.225834,-42.651389,1,7.37246
1,Rio Claro/SP,-22.4100108,-47.5603933,1,0.48444
1,Rio Doce/MG,-20.2447972,-42.8970432,4,153.25670
1,Rio Espera/MG,-20.8571756,-43.4729342,10,182.68177
D1,Rio Espera/MG,-20.8571756,-43.4729342,1,18.26818
1,Rio Fortuna/SC,-28.1335539,-49.1048223,62,1344.61071
D1,Rio Fortuna/SC,-28.1335539,-49.1048223,3,65.06181
1,Rio Grande/RS,-32.0334252,-52.0991297,2,0.94784
1,Rio Manso/MG,-20.256,-44.32858330184966,45,771.60494
D1,Rio Manso/MG,-20.256,-44.32858330184966,2,34.29355
1,Rio Maria/PA,-7.3137312,-50.0465372,769,4226.90046
D1,Rio Maria/PA,-7.3137312,-50.0465372,3,16.48986
1,Rio Negrinho/SC,-26.3147216,-49.4674965,319,754.10146
D1,Rio Negrinho/SC,-26.3147216,-49.4674965,2,4.72791
1,Rio Negro/PR,-26.1047668,-49.7982766,1,2.92654
1,Rio Novo/MG,-21.4753189,-43.1250813,17,189.96536
D1,Rio Novo/MG,-21.4753189,-43.1250813,2,22.34887
1,Rio Paranaíba/MG,-19.196447,-46.2410263,271,2200.92585
D1,Rio Paranaíba/MG,-19.196447,-46.2410263,4,32.48599
1,Rio Pardo de Minas/MG,-15.6155637,-42.5461866,43,139.09556
D1,Rio Pardo de Minas/MG,-15.6155637,-42.5461866,1,3.23478
1,Rio Piracicaba/MG,-19.928889,-43.173889,173,1206.49976
D1,Rio Piracicaba/MG,-19.928889,-43.173889,1,6.97399
1,Rio Pomba/MG,-21.275,-43.178889,35,195.42155
D1,Rio Pomba/MG,-21.275,-43.178889,1,5.58347
1,Rio Preto/MG,-22.089444,-43.8275,3,54.78451
1,Rio Rufino/SC,-27.861691,-49.7806323,8,322.19090
D1,Rio Rufino/SC,-27.861691,-49.7806323,1,40.27386
1,Rio Verde de Mato Grosso/MS,-18.9169208,-54.8410727,1,5.06432
1,Rio Verde/GO,-17.7921255,-50.9191219,7,2.97054
1,Rio Vermelho/MG,-22.5801717,-45.7725705,4,31.13810
1,Rio das Antas/SC,-26.8998189,-51.0748324,9,145.04432
D1,Rio das Antas/SC,-26.8998189,-51.0748324,1,16.11604
1,Rio das Ostras/RJ,-22.5269448,-41.944972,2,1.32737
1,Rio de Janeiro/RJ,-22.9110137,-43.2093727,553,8.23051
D1,Rio de Janeiro/RJ,-22.9110137,-43.2093727,13,0.19348
1,Rio do Campo/SC,-26.946807,-50.1412936,37,622.89562
1,Rio do Oeste/SC,-27.193267,-49.7984595,42,560.82254
1,Rio do Prado/MG,-16.608385,-40.5715827,18,349.51456
D1,Rio do Prado/MG,-16.608385,-40.5715827,1,19.41748
1,Rio do Sul/SC,-27.2162607,-49.643654,538,757.09602
D1,Rio do Sul/SC,-27.2162607,-49.643654,8,11.25793
1,Rio dos Cedros/SC,-26.739777,-49.271828,63,539.56835
D1,Rio dos Cedros/SC,-26.739777,-49.271828,1,8.56458
1,Riqueza/SC,-27.0697574,-53.3225281,48,1043.93214
1,Ritápolis/MG,-21.0250052,-44.3186566,7,152.04170
1,Rochedo de Minas/MG,-21.6295358,-43.0195125,2,86.76790
D1,Rochedo de Minas/MG,-21.6295358,-43.0195125,1,43.38395
1,Rodeio/SC,-26.9233304,-49.3685354,173,1497.70583
D1,Rodeio/SC,-26.9233304,-49.3685354,1,8.65726
1,Rodeiro/MG,-21.200278,-42.865,69,850.90640
D1,Rodeiro/MG,-21.200278,-42.865,1,12.33198
1,Rolante/RS,-29.6527945,-50.5769391,1,4.68406
1,Romaria/MG,-18.8823522,-47.5854354,6,169.82734
1,Romelândia/SC,-26.6783317,-53.3189986,43,898.45382
1,Rondon do Pará/PA,-4.7804416,-48.06983,390,744.88607
D1,Rondon do Pará/PA,-4.7804416,-48.06983,25,47.74911
1,Rondonópolis/MT,-16.4603533,-54.6397099,3,1.29037
1,Rosário da Limeira/MG,-20.9786,-42.5119,18,391.81541
1,Rubelita/MG,-16.4067495,-42.2623615,3,50.04170
1,Rubim/MG,-16.441499999999998,-40.51737500000001,5,48.82336
D1,Rubim/MG,-16.441499999999998,-40.51737500000001,1,9.76467
1,Rurópolis/PA,-4.1014311,-54.9086853,834,1651.15819
D1,Rurópolis/PA,-4.1014311,-54.9086853,7,13.85864
1,Sabará/MG,-19.8900372,-43.8107916,888,651.29379
D1,Sabará/MG,-19.8900372,-43.8107916,30,22.00317
1,Sabinópolis/MG,-18.6656839,-43.0830439,17,109.89011
1,Sacramento/MG,-19.8652854,-47.4402746,183,698.87340
1,Salete/SC,-26.9841895,-50.0076168,106,1387.07145
D1,Salete/SC,-26.9841895,-50.0076168,1,13.08558
1,Salinas/MG,-16.1699073,-42.2910368,381,917.47538
D1,Salinas/MG,-16.1699073,-42.2910368,5,12.04036
1,Salinópolis/PA,-0.6259282,-47.3442819,509,1251.38291
D1,Salinópolis/PA,-0.6259282,-47.3442819,33,81.13092
1,Saltinho/SC,-26.604932,-53.057763,16,423.16847
1,Salto Veloso/SC,-26.9071647,-51.406771,12,254.34506
D1,Salto Veloso/SC,-26.9071647,-51.406771,1,21.19542
1,Salto da Divisa/MG,-15.9984236,-39.9487981,18,256.81267
1,Salvador/BA,-12.9822499,-38.4812772,117,4.07332
D1,Salvador/BA,-12.9822499,-38.4812772,1,0.03481
1,Salvaterra/PA,-0.758444,-48.513921,459,1932.46884
D1,Salvaterra/PA,-0.758444,-48.513921,15,63.15258
1,Sangão/SC,-28.6397512,-49.1266106,176,1388.23158
D1,Sangão/SC,-28.6397512,-49.1266106,1,7.88768
1,Sant'Ana do Livramento/RS,-30.8894097,-55.5317694,4,5.19298
1,Santa Bárbara do Leste/MG,-19.978334,-42.140555,29,355.95925
1,Santa Bárbara do Monte Verde/MG,-21.9578146,-43.7024953,1,31.74603
1,Santa Bárbara do Pará/PA,-1.226144,-48.295101,292,1385.26496
D1,Santa Bárbara do Pará/PA,-1.226144,-48.295101,12,56.92870
1,Santa Bárbara do Tugúrio/MG,-21.245833,-43.559444,5,112.86682
1,Santa Bárbara/MG,-19.959444,-43.415278,296,944.96233
D1,Santa Bárbara/MG,-19.959444,-43.415278,4,12.76976
1,Santa Cecília/SC,-26.9658952,-50.4182571,126,748.66310
D1,Santa Cecília/SC,-26.9658952,-50.4182571,2,11.88354
1,Santa Cruz de Minas/MG,-21.1205363,-44.227261,46,534.63505
D1,Santa Cruz de Minas/MG,-21.1205363,-44.227261,4,46.49000
1,Santa Cruz de Salinas/MG,-16.0972405,-41.7474332,18,434.57267
1,Santa Cruz do Arari/PA,-0.661019,-49.177139,126,1244.07583
D1,Santa Cruz do Arari/PA,-0.661019,-49.177139,7,69.11532
1,Santa Cruz do Escalvado/MG,-20.2355745,-42.8142315,8,168.13787
1,Santa Efigênia de Minas/MG,-18.8291073,-42.4442288,14,317.53232
D1,Santa Efigênia de Minas/MG,-18.8291073,-42.4442288,2,45.36176
1,Santa Fé de Minas/MG,-16.689174,-45.4139828,5,130.00520
1,Santa Helena de Minas/MG,-16.938913,-40.6825061,25,392.71128
D1,Santa Helena de Minas/MG,-16.938913,-40.6825061,1,15.70845
1,Santa Helena/SC,-26.9389432,-53.6176263,14,629.77958
1,Santa Izabel do Pará/PA,-1.36673365,-48.12907400561336,522,737.27772
D1,Santa Izabel do Pará/PA,-1.36673365,-48.12907400561336,34,48.02192
1,Santa Juliana/MG,-19.308611,-47.525,380,2713.70421
D1,Santa Juliana/MG,-19.308611,-47.525,8,57.13061
1,Santa Luzia do Pará/PA,-1.5220049,-46.9020697,277,1395.60661
D1,Santa Luzia do Pará/PA,-1.5220049,-46.9020697,9,45.34462
1,Santa Luzia/MG,-19.7702097,-43.8505291,1349,615.60506
D1,Santa Luzia/MG,-19.7702097,-43.8505291,47,21.44806
