type,name,lat,lon,total,total_per_100k_inhabitants
1,Abadia de Goiás/GO,-16.7572644,-49.4412205,1333,14880.55370
D1,Abadia de Goiás/GO,-16.7572644,-49.4412205,27,301.40656
1,Abadia dos Dourados/MG,-18.4911191,-47.4063589,363,5181.27319
D1,Abadia dos Dourados/MG,-18.4911191,-47.4063589,13,185.55524
1,Abadiânia/GO,-16.1940946,-48.7067767,352,1720.34602
D1,Abadiânia/GO,-16.1940946,-48.7067767,27,131.95836
1,Abaetetuba/PA,-1.721828,-48.878843,7407,4656.14785
D1,Abaetetuba/PA,-1.721828,-48.878843,203,127.60875
1,Abaeté/MG,-19.1566833,-45.4481213,996,4283.87097
D1,Abaeté/MG,-19.1566833,-45.4481213,25,107.52688
1,Abaiara/CE,-7.3607808,-39.0487878,456,3847.12731
D1,Abaiara/CE,-7.3607808,-39.0487878,10,84.36683
1,Abaré/BA,-8.7239913,-39.1139689,780,3833.48897
D1,Abaré/BA,-8.7239913,-39.1139689,8,39.31784
1,Abatiá/PR,-23.3052967,-50.3102532,737,9948.70410
D1,Abatiá/PR,-23.3052967,-50.3102532,10,134.98920
1,Abaíra/BA,-13.2503296,-41.6640342,252,2893.22618
D1,Abaíra/BA,-13.2503296,-41.6640342,10,114.81056
1,Abdon Batista/SC,-27.612419,-51.022992,335,13147.56672
D1,Abdon Batista/SC,-27.612419,-51.022992,3,117.73940
1,Abel Figueiredo/PA,-4.953001,-48.3958485,868,11594.97729
D1,Abel Figueiredo/PA,-4.953001,-48.3958485,10,133.58269
1,Abelardo Luz/SC,-26.5705893,-52.3280339,1311,7299.55457
D1,Abelardo Luz/SC,-26.5705893,-52.3280339,41,228.28508
1,Abre Campo/MG,-20.2976097,-42.4764741,901,6701.87444
D1,Abre Campo/MG,-20.2976097,-42.4764741,14,104.13567
1,Abreu e Lima/PE,-7.900719,-34.898389,2559,2550.17639
D1,Abreu e Lima/PE,-7.900719,-34.898389,193,192.33452
1,Abreulândia/TO,-9.6221526,-49.1558343,258,9946.02930
D1,Abreulândia/TO,-9.6221526,-49.1558343,6,231.30301
1,Acaiaca/MG,-20.3621646,-43.1444162,219,5483.22484
D1,Acaiaca/MG,-20.3621646,-43.1444162,10,250.37556
1,Acajutiba/BA,-11.6609659,-38.0186381,480,3160.59788
D1,Acajutiba/BA,-11.6609659,-38.0186381,14,92.18410
1,Acarape/CE,-4.2237866,-38.7071663,2604,17318.43575
D1,Acarape/CE,-4.2237866,-38.7071663,24,159.61692
1,Acaraú/CE,-2.8869514,-40.1194713,4508,7143.76268
D1,Acaraú/CE,-2.8869514,-40.1194713,93,147.37576
1,Acari/RN,-6.4364689,-36.6394777,870,7823.03750
D1,Acari/RN,-6.4364689,-36.6394777,13,116.89596
1,Acará/PA,-1.961388,-48.1987043,1202,2159.19093
D1,Acará/PA,-1.961388,-48.1987043,28,50.29729
1,Acauã/PI,-8.219542,-41.083059,179,2520.41678
D1,Acauã/PI,-8.219542,-41.083059,1,14.08054
1,Aceguá/RS,-31.8695131,-54.1615593,296,5989.47794
D1,Aceguá/RS,-31.8695131,-54.1615593,4,80.93889
1,Acopiara/CE,-6.0936464,-39.4543204,2832,5198.14247
D1,Acopiara/CE,-6.0936464,-39.4543204,112,205.57626
1,Acorizal/MT,-15.2001544,-56.3668953,466,8736.40795
D1,Acorizal/MT,-15.2001544,-56.3668953,18,337.45782
1,Acrelândia/AC,-10.0759167,-67.0526898,1538,9928.98644
D1,Acrelândia/AC,-10.0759167,-67.0526898,32,206.58489
1,Acreúna/GO,-17.3959899,-50.3749031,1715,7606.67081
D1,Acreúna/GO,-17.3959899,-50.3749031,43,190.72119
1,Adamantina/SP,-21.6866517,-51.0762975,2567,7311.09909
D1,Adamantina/SP,-21.6866517,-51.0762975,72,205.06394
1,Adelândia/GO,-16.4155077,-50.1665834,151,6001.58983
D1,Adelândia/GO,-16.4155077,-50.1665834,4,158.98251
1,Adolfo/SP,-21.2356597,-49.6441918,408,11480.02251
D1,Adolfo/SP,-21.2356597,-49.6441918,10,281.37310
1,Adrianópolis/PR,-24.6557863,-48.9912769,1108,18917.53457
D1,Adrianópolis/PR,-24.6557863,-48.9912769,22,375.61892
1,Adustina/BA,-10.5358875,-38.114479,666,3888.82401
D1,Adustina/BA,-10.5358875,-38.114479,11,64.22983
1,Afogados da Ingazeira/PE,-7.750429,-37.6356375,3873,10354.50754
D1,Afogados da Ingazeira/PE,-7.750429,-37.6356375,58,155.06363
1,Afonso Bezerra/RN,-5.4745,-36.57625071327935,607,5503.67214
D1,Afonso Bezerra/RN,-5.4745,-36.57625071327935,13,117.87107
1,Afonso Cláudio/ES,-20.077841,-41.12606,3146,10329.99507
D1,Afonso Cláudio/ES,-20.077841,-41.12606,55,180.59432
1,Afonso Cunha/MA,-4.1326105,-43.3230026,162,2462.75464
D1,Afonso Cunha/MA,-4.1326105,-43.3230026,2,30.40438
1,Afrânio/PE,-8.5198919,-41.0070197,767,3871.78193
D1,Afrânio/PE,-8.5198919,-41.0070197,13,65.62342
1,Afuá/PA,-0.1535664,-50.3879223,2888,7299.01180
D1,Afuá/PA,-0.1535664,-50.3879223,14,35.38302
1,Agrestina/PE,-8.4558021,-35.9442663,1326,5290.24536
D1,Agrestina/PE,-8.4558021,-35.9442663,49,195.49172
1,Agricolândia/PI,-5.7967843,-42.6605131,398,7756.77256
D1,Agricolândia/PI,-5.7967843,-42.6605131,4,77.95751
1,Agrolândia/SC,-27.4122212,-49.8295774,1147,10414.96413
D1,Agrolândia/SC,-27.4122212,-49.8295774,17,154.36303
1,Agronômica/SC,-27.2660744,-49.7104753,545,9892.90252
D1,Agronômica/SC,-27.2660744,-49.7104753,10,181.52115
1,Aguanil/MG,-20.9424533,-45.3927152,461,10194.60416
D1,Aguanil/MG,-20.9424533,-45.3927152,8,176.91287
1,Aguaí/SP,-22.0592036,-46.979384,2207,6022.15673
D1,Aguaí/SP,-22.0592036,-46.979384,67,182.82034
1,Agudo/RS,-29.6423259,-53.2494005,1213,7395.89049
D1,Agudo/RS,-29.6423259,-53.2494005,20,121.94378
1,Agudos do Sul/PR,-25.9890808,-49.3328175,486,5131.99578
D1,Agudos do Sul/PR,-25.9890808,-49.3328175,19,200.63358
1,Agudos/SP,-22.471162,-48.987822,2945,7874.12101
D1,Agudos/SP,-22.471162,-48.987822,64,171.11842
1,Aguiar/PB,-7.0928404,-38.1727215,291,5168.73890
D1,Aguiar/PB,-7.0928404,-38.1727215,3,53.28597
1,Aguiarnópolis/TO,-6.5600452,-47.4721189,539,7820.66164
D1,Aguiarnópolis/TO,-6.5600452,-47.4721189,12,174.11492
1,Aimorés/MG,-19.4917754,-41.0615603,1782,7088.02355
D1,Aimorés/MG,-19.4917754,-41.0615603,57,226.72129
1,Aiquara/BA,-14.126918,-39.8887574,444,10054.34783
D1,Aiquara/BA,-14.126918,-39.8887574,11,249.09420
1,Aiuaba/CE,-6.5710836,-40.1212278,441,2521.00840
D1,Aiuaba/CE,-6.5710836,-40.1212278,9,51.44915
1,Aiuruoca/MG,-21.9759554,-44.6036637,79,1321.95448
D1,Aiuruoca/MG,-21.9759554,-44.6036637,6,100.40161
1,Ajuricaba/RS,-28.239654,-53.7693013,869,12437.38371
D1,Ajuricaba/RS,-28.239654,-53.7693013,23,329.18277
1,Alagoa Grande/PB,-7.0415212,-35.6285322,2877,10116.38947
D1,Alagoa Grande/PB,-7.0415212,-35.6285322,52,182.84750
1,Alagoa Nova/PB,-7.0653703,-35.76695977336711,778,3718.75149
D1,Alagoa Nova/PB,-7.0653703,-35.76695977336711,16,76.47818
1,Alagoa/MG,-22.1697202,-44.6400042,402,15084.42777
D1,Alagoa/MG,-22.1697202,-44.6400042,4,150.09381
1,Alagoinha do Piauí/PI,-7.0090952,-40.939675,288,3757.33855
D1,Alagoinha do Piauí/PI,-7.0090952,-40.939675,10,130.46314
1,Alagoinha/PB,-6.97063215,-35.51490901897793,1572,10796.70330
D1,Alagoinha/PB,-6.97063215,-35.51490901897793,23,157.96703
1,Alagoinha/PE,-8.50355635,-36.77701174370496,666,4525.07134
D1,Alagoinha/PE,-8.50355635,-36.77701174370496,18,122.29923
1,Alagoinhas/BA,-12.133526,-38.420772,11164,7328.96991
D1,Alagoinhas/BA,-12.133526,-38.420772,220,144.42614
1,Alambari/SP,-23.550338,-47.897971,468,7635.82966
D1,Alambari/SP,-23.550338,-47.897971,9,146.84288
1,Albertina/MG,-20.66164,-43.784039,194,6443.04218
D1,Albertina/MG,-20.66164,-43.784039,7,232.48090
1,Alcantil/PB,-7.7425491,-36.0609604,343,6226.17535
D1,Alcantil/PB,-7.7425491,-36.0609604,6,108.91269
1,Alcinópolis/MS,-18.3264121,-53.7094463,191,3525.93687
D1,Alcinópolis/MS,-18.3264121,-53.7094463,6,110.76241
1,Alcobaça/BA,-17.5215875,-39.1965474,1283,5704.75767
D1,Alcobaça/BA,-17.5215875,-39.1965474,22,97.82125
1,Alcântara/MA,-2.4038956,-44.4154241,263,1189.39942
D1,Alcântara/MA,-2.4038956,-44.4154241,14,63.31404
1,Alcântaras/CE,-3.586247,-40.5457641,1353,11484.59384
D1,Alcântaras/CE,-3.586247,-40.5457641,17,144.30014
1,Aldeias Altas/MA,-4.6291957,-43.4708622,975,3643.90627
D1,Aldeias Altas/MA,-4.6291957,-43.4708622,13,48.58542
1,Alecrim/RS,-27.6566142,-54.7653195,242,4153.08049
D1,Alecrim/RS,-27.6566142,-54.7653195,11,188.77639
1,Alegre/ES,-20.7625787,-41.5318886,1982,6612.17681
D1,Alegre/ES,-20.7625787,-41.5318886,48,160.13344
1,Alegrete do Piauí/PI,-7.2440138,-40.8602296,474,9638.06425
D1,Alegrete do Piauí/PI,-7.2440138,-40.8602296,5,101.66734
1,Alegrete/RS,-29.790166,-55.794862,7774,10645.23197
D1,Alegrete/RS,-29.790166,-55.794862,217,297.14630
1,Alegria/RS,-27.8332103,-54.0574959,312,9247.18435
D1,Alegria/RS,-27.8332103,-54.0574959,2,59.27682
1,Alenquer/PA,-1.946229,-54.738355,2752,4820.29006
D1,Alenquer/PA,-1.946229,-54.738355,115,201.42927
1,Alexandria/RN,-6.414779,-38.0135516,1187,8758.20851
D1,Alexandria/RN,-6.414779,-38.0135516,15,110.67660
1,Alexânia/GO,-16.0834049,-48.5077803,2790,9960.72831
D1,Alexânia/GO,-16.0834049,-48.5077803,69,246.34059
1,Alfenas/MG,-21.4297405,-45.9479419,6498,8072.65138
D1,Alfenas/MG,-21.4297405,-45.9479419,149,185.10696
1,Alfredo Chaves/ES,-20.624970400000002,-40.75006690147988,2118,14471.16699
D1,Alfredo Chaves/ES,-20.624970400000002,-40.75006690147988,30,204.97404
1,Alfredo Marcondes/SP,-21.9527,-51.413956,211,5043.02103
D1,Alfredo Marcondes/SP,-21.9527,-51.413956,9,215.10516
1,Alfredo Vasconcelos/MG,-21.145833,-43.776389,317,4540.89672
D1,Alfredo Vasconcelos/MG,-21.145833,-43.776389,10,143.24595
1,Alfredo Wagner/SC,-27.6961513,-49.3326734,638,6325.59984
D1,Alfredo Wagner/SC,-27.6961513,-49.3326734,7,69.40313
1,Algodão de Jandaíra/PB,-6.9040175,-36.0089879,123,4772.99185
D1,Algodão de Jandaíra/PB,-6.9040175,-36.0089879,1,38.80481
1,Alhandra/PB,-7.4304246,-34.9106103,1711,8673.39180
D1,Alhandra/PB,-7.4304246,-34.9106103,29,147.00664
1,Aliança do Tocantins/TO,-11.3055927,-48.9409096,554,10362.88814
D1,Aliança do Tocantins/TO,-11.3055927,-48.9409096,20,374.11149
1,Aliança/PE,-7.60398,-35.222696,563,1466.26038
D1,Aliança/PE,-7.60398,-35.222696,47,122.40540
1,Almadina/BA,-14.70466,-39.6381994,587,10939.24711
D1,Almadina/BA,-14.70466,-39.6381994,9,167.72270
1,Almas/TO,-11.5681309,-47.1702803,194,2779.76788
D1,Almas/TO,-11.5681309,-47.1702803,4,57.31480
1,Almeirim/PA,-1.5290377,-52.5788111,3314,9725.31987
D1,Almeirim/PA,-1.5290377,-52.5788111,41,120.31929
1,Almenara/MG,-16.1740678,-40.6904907,3476,8248.10763
D1,Almenara/MG,-16.1740678,-40.6904907,42,99.66068
1,Almino Afonso/RN,-6.1544208,-37.7649018,385,8174.09766
D1,Almino Afonso/RN,-6.1544208,-37.7649018,10,212.31423
1,Almirante Tamandaré do Sul/RS,-28.1141129,-52.9134874,219,11236.53155
D1,Almirante Tamandaré do Sul/RS,-28.1141129,-52.9134874,2,102.61673
1,Almirante Tamandaré/PR,-25.3133048,-49.2997838,8181,6815.17148
D1,Almirante Tamandaré/PR,-25.3133048,-49.2997838,310,258.24510
1,Aloândia/GO,-17.7277983,-49.4809338,218,10976.83787
D1,Aloândia/GO,-17.7277983,-49.4809338,6,302.11480
1,Alpercata/MG,-18.9803616,-41.9827637,447,6011.29640
D1,Alpercata/MG,-18.9803616,-41.9827637,15,201.72136
1,Alpestre/RS,-27.2512339,-53.0349646,278,4582.16582
D1,Alpestre/RS,-27.2512339,-53.0349646,7,115.37828
1,Alpinópolis/MG,-20.863611,-46.387777,885,4434.31206
D1,Alpinópolis/MG,-20.863611,-46.387777,19,95.19992
1,Alta Floresta D'Oeste/RO,-11.9296917,-61.9961284,3582,15760.29567
D1,Alta Floresta D'Oeste/RO,-11.9296917,-61.9961284,59,259.59169
1,Alta Floresta/MT,-9.8715018,-56.0839881,7363,14170.78851
D1,Alta Floresta/MT,-9.8715018,-56.0839881,110,211.70538
1,Altair/SP,-20.5238955,-49.0606135,144,3440.03822
D1,Altair/SP,-20.5238955,-49.0606135,10,238.89154
1,Altamira do Maranhão/MA,-4.1643006,-45.4674574,299,3651.23947
D1,Altamira do Maranhão/MA,-4.1643006,-45.4674574,8,97.69203
1,Altamira do Paraná/PR,-24.799114,-52.7128633,160,9512.48514
D1,Altamira do Paraná/PR,-24.799114,-52.7128633,4,237.81213
1,Altamira/PA,-3.204065,-52.209961,12432,10720.10624
D1,Altamira/PA,-3.204065,-52.209961,272,234.54544
1,Altaneira/CE,-6.9980933,-39.7385742,407,5320.26144
D1,Altaneira/CE,-6.9980933,-39.7385742,12,156.86275
1,Alterosa/MG,-21.249166,-46.143055,554,3816.21547
D1,Alterosa/MG,-21.249166,-46.143055,29,199.76579
1,Altinho/PE,-8.4904095,-36.0607494,927,4033.24052
D1,Altinho/PE,-8.4904095,-36.0607494,19,82.66620
1,Altinópolis/SP,-21.021364,-47.3712,713,4400.41968
D1,Altinópolis/SP,-21.021364,-47.3712,25,154.29241
1,Alto Alegre do Maranhão/MA,-4.2055693,-44.4525287,1050,3769.11480
D1,Alto Alegre do Maranhão/MA,-4.2055693,-44.4525287,24,86.15120
1,Alto Alegre do Pindaré/MA,-3.6698186,-45.8462153,1773,5550.51185
D1,Alto Alegre do Pindaré/MA,-3.6698186,-45.8462153,43,134.61478
1,Alto Alegre dos Parecis/RO,-12.1314515,-61.856265,1341,10116.93700
D1,Alto Alegre dos Parecis/RO,-12.1314515,-61.856265,35,264.05130
1,Alto Alegre/RR,2.98858,-61.307167,1244,8088.42653
D1,Alto Alegre/RR,2.98858,-61.307167,29,188.55657
1,Alto Alegre/RS,-31.780844700000003,-52.81311114489171,160,9919.40484
D1,Alto Alegre/RS,-31.780844700000003,-52.81311114489171,1,61.99628
1,Alto Alegre/SP,-21.5820592,-50.1661976,277,6775.92955
D1,Alto Alegre/SP,-21.5820592,-50.1661976,14,342.46575
1,Alto Araguaia/MT,-17.3156528,-53.2169365,1042,5375.29017
D1,Alto Araguaia/MT,-17.3156528,-53.2169365,22,113.48981
1,Alto Bela Vista/SC,-27.4320737,-51.905771,152,7892.00415
D1,Alto Bela Vista/SC,-27.4320737,-51.905771,2,103.84216
1,Alto Boa Vista/MT,-11.6723985,-51.3744431,639,9212.80277
D1,Alto Boa Vista/MT,-11.6723985,-51.3744431,12,173.01038
1,Alto Caparaó/MG,-20.4405661,-41.8683799,355,6023.07431
D1,Alto Caparaó/MG,-20.4405661,-41.8683799,8,135.73125
1,Alto Feliz/RS,-29.3785943,-51.3123751,212,6982.87220
D1,Alto Feliz/RS,-29.3785943,-51.3123751,2,65.87615
1,Alto Garças/MT,-16.9469683,-53.529427,694,5711.46408
D1,Alto Garças/MT,-16.9469683,-53.529427,25,205.74438
1,Alto Horizonte/GO,-14.1954948,-49.3366993,687,10401.21120
D1,Alto Horizonte/GO,-14.1954948,-49.3366993,8,121.12036
1,Alto Jequitibá/MG,-20.423611,-41.966111,603,7264.18504
D1,Alto Jequitibá/MG,-20.423611,-41.966111,9,108.42067
1,Alto Longá/PI,-5.2549051,-42.2072388,574,4003.06855
D1,Alto Longá/PI,-5.2549051,-42.2072388,13,90.66183
1,Alto Paraguai/MT,-14.513712,-56.4936374,765,6667.82882
D1,Alto Paraguai/MT,-14.513712,-56.4936374,25,217.90290
1,Alto Paraná/PR,-23.131247,-52.318893,786,5289.72340
D1,Alto Paraná/PR,-23.131247,-52.318893,18,121.13870
1,Alto Paraíso de Goiás/GO,-14.1304779,-47.5100161,567,7375.13007
D1,Alto Paraíso de Goiás/GO,-14.1304779,-47.5100161,7,91.05099
1,Alto Paraíso/PR,-23.508137,-53.728537,159,5921.78771
D1,Alto Paraíso/PR,-23.508137,-53.728537,2,74.48790
1,Alto Paraíso/RO,-9.7240103,-63.3188123,1653,7566.25624
D1,Alto Paraíso/RO,-9.7240103,-63.3188123,39,178.51421
1,Alto Parnaíba/MA,-9.112506,-45.9310154,717,6394.93400
D1,Alto Parnaíba/MA,-9.112506,-45.9310154,5,44.59508
1,Alto Piquiri/PR,-24.0239021,-53.4417448,602,6156.67826
D1,Alto Piquiri/PR,-24.0239021,-53.4417448,17,173.85969
1,Alto Rio Doce/MG,-21.0239537,-43.4133507,307,2827.14799
D1,Alto Rio Doce/MG,-21.0239537,-43.4133507,23,211.80588
1,Alto Rio Novo/ES,-19.0577208,-41.0171518,657,8343.91669
D1,Alto Rio Novo/ES,-19.0577208,-41.0171518,21,266.70053
1,Alto Santo/CE,-5.5190371,-38.2719351,1145,6658.52524
D1,Alto Santo/CE,-5.5190371,-38.2719351,21,122.12142
1,Alto Taquari/MT,-17.8269099,-53.2831736,1338,12018.32390
D1,Alto Taquari/MT,-17.8269099,-53.2831736,26,233.53993
1,Alto do Rodrigues/RN,-5.290868,-36.7616726,1711,11617.32754
D1,Alto do Rodrigues/RN,-5.290868,-36.7616726,30,203.69364
1,Altos/PI,-5.0393915,-42.4611694,3932,9683.53651
D1,Altos/PI,-5.0393915,-42.4611694,80,197.02007
1,Altônia/PR,-23.8722004,-53.894037,892,4022.36652
D1,Altônia/PR,-23.8722004,-53.894037,17,76.65945
1,Alumínio/SP,-23.5203479,-47.2575256,1182,6298.28955
D1,Alumínio/SP,-23.5203479,-47.2575256,38,202.48308
1,Alvarenga/MG,-19.4175,-41.728334,377,9807.49220
D1,Alvarenga/MG,-19.4175,-41.728334,4,104.05827
1,Alvarães/AM,-3.214786,-64.8143124,2738,16880.39457
D1,Alvarães/AM,-3.214786,-64.8143124,44,271.27004
1,Alvinlândia/SP,-22.4431852,-49.7643596,123,3799.81464
D1,Alvinlândia/SP,-22.4431852,-49.7643596,7,216.24961
1,Alvinópolis/MG,-20.1105199,-43.0601805,554,3652.18538
D1,Alvinópolis/MG,-20.1105199,-43.0601805,17,112.07067
1,Alvorada D'Oeste/RO,-11.346271,-62.284697,894,6337.72863
D1,Alvorada D'Oeste/RO,-11.346271,-62.284697,25,177.22955
1,Alvorada de Minas/MG,-18.7318587,-43.3641479,238,6601.94175
D1,Alvorada de Minas/MG,-18.7318587,-43.3641479,1,27.73925
1,Alvorada do Gurguéia/PI,-8.4465288,-43.8655915,293,5381.08356
D1,Alvorada do Gurguéia/PI,-8.4465288,-43.8655915,9,165.28926
1,Alvorada do Norte/GO,-14.483911,-46.4959897,631,7248.70764
D1,Alvorada do Norte/GO,-14.483911,-46.4959897,3,34.46295
1,Alvorada do Sul/PR,-22.7807269,-51.2307721,650,5650.69982
D1,Alvorada do Sul/PR,-22.7807269,-51.2307721,21,182.56107
1,Alvorada/RS,-29.9981184,-51.0772509,18563,8782.97816
D1,Alvorada/RS,-29.9981184,-51.0772509,666,315.11412
1,Alvorada/TO,-12.478465,-49.124926,1030,12267.74655
D1,Alvorada/TO,-12.478465,-49.124926,18,214.38780
1,Além Paraíba/MG,-21.8760576,-42.6810473,2768,7818.98816
D1,Além Paraíba/MG,-21.8760576,-42.6810473,134,378.52038
1,Amajari/RR,3.6523869,-61.4194315,918,6962.45734
D1,Amajari/RR,3.6523869,-61.4194315,19,144.10315
1,Amambai/MS,-23.1082701,-55.2284854,2210,5549.13875
D1,Amambai/MS,-23.1082701,-55.2284854,40,100.43690
1,Amaporã/PR,-23.094272,-52.786597,269,4248.26279
D1,Amaporã/PR,-23.094272,-52.786597,5,78.96399
1,Amapá do Maranhão/MA,-1.6762114,-46.0109669,172,2455.38901
D1,Amapá do Maranhão/MA,-1.6762114,-46.0109669,4,57.10207
1,Amapá/AP,2.0529997,-50.7930003,1263,13747.68695
D1,Amapá/AP,2.0529997,-50.7930003,10,108.84946
1,Amaraji/PE,-8.373925,-35.4536527,445,1945.78050
D1,Amaraji/PE,-8.373925,-35.4536527,28,122.43113
1,Amaral Ferrador/RS,-30.8750633,-52.2542051,209,2949.89414
D1,Amaral Ferrador/RS,-30.8750633,-52.2542051,6,84.68596
1,Amaralina/GO,-13.9236199,-49.2962411,59,1534.46034
1,Amarante do Maranhão/MA,-5.56913,-46.747284,1526,3656.92923
D1,Amarante do Maranhão/MA,-5.56913,-46.747284,54,129.40641
1,Amarante/PI,-6.2459374,-42.8476238,1366,7759.60009
D1,Amarante/PI,-6.2459374,-42.8476238,31,176.09634
1,Amargosa/BA,-13.03793715,-39.60796443875596,2344,6260.51655
D1,Amargosa/BA,-13.03793715,-39.60796443875596,47,125.53084
1,Amaturá/AM,-3.3640509,-68.1994689,2350,20023.85821
D1,Amaturá/AM,-3.3640509,-68.1994689,17,144.85344
1,Americana/SP,-22.7392463,-47.3306032,17009,7027.98965
D1,Americana/SP,-22.7392463,-47.3306032,519,214.44686
1,Americano do Brasil/GO,-16.2515808,-49.9806104,415,6732.64114
D1,Americano do Brasil/GO,-16.2515808,-49.9806104,15,243.34848
1,Ametista do Sul/RS,-27.3617341,-53.1826575,541,7307.84817
D1,Ametista do Sul/RS,-27.3617341,-53.1826575,12,162.09645
1,Amontada/CE,-3.3634586,-39.8284791,2440,5567.09028
D1,Amontada/CE,-3.3634586,-39.8284791,43,98.10856
1,Amorinópolis/GO,-16.6211308,-51.0949921,170,5539.26360
D1,Amorinópolis/GO,-16.6211308,-51.0949921,4,130.33561
1,Amparo de São Francisco/SE,-10.1299754,-36.9269099,175,7352.94118
D1,Amparo de São Francisco/SE,-10.1299754,-36.9269099,3,126.05042
1,Amparo do Serra/MG,-20.5070255,-42.8028462,124,2650.70543
D1,Amparo do Serra/MG,-20.5070255,-42.8028462,4,85.50663
1,Amparo/PB,-7.56394725,-37.04652873235175,158,7019.10262
D1,Amparo/PB,-7.56394725,-37.04652873235175,4,177.69880
1,Amparo/SP,-22.70111,-46.76444,4660,6411.93225
D1,Amparo/SP,-22.70111,-46.76444,108,148.60272
1,Ampére/PR,-25.9168712,-53.4742414,1108,5737.66247
D1,Ampére/PR,-25.9168712,-53.4742414,27,139.81668
1,Amélia Rodrigues/BA,-12.4015388,-38.7516971,1850,7385.81923
D1,Amélia Rodrigues/BA,-12.4015388,-38.7516971,37,147.71638
1,América Dourada/BA,-11.4515262,-41.4357517,754,4686.14046
D1,América Dourada/BA,-11.4515262,-41.4357517,7,43.50528
1,Américo Brasiliense/SP,-21.7297099,-48.1052092,3252,7925.52154
D1,Américo Brasiliense/SP,-21.7297099,-48.1052092,76,185.22129
1,Américo de Campos/SP,-20.298476,-49.735904,646,10800.86942
D1,Américo de Campos/SP,-20.298476,-49.735904,22,367.83147
1,Anadia/AL,-9.6830208,-36.3052699,1120,6390.50553
D1,Anadia/AL,-9.6830208,-36.3052699,25,142.64521
1,Anagé/BA,-14.6134669,-41.1376308,794,3674.73504
D1,Anagé/BA,-14.6134669,-41.1376308,16,74.05008
1,Anahy/PR,-24.6450861,-53.1337957,325,11657.10187
D1,Anahy/PR,-24.6450861,-53.1337957,6,215.20803
1,Anajatuba/MA,-3.26441,-44.6179916,794,2942.04832
D1,Anajatuba/MA,-3.26441,-44.6179916,20,74.10701
1,Anajás/PA,-0.9878802,-49.9390114,1315,4429.39908
D1,Anajás/PA,-0.9878802,-49.9390114,20,67.36729
1,Analândia/SP,-22.128917,-47.661939,263,5201.74051
D1,Analândia/SP,-22.128917,-47.661939,3,59.33544
1,Anamã/AM,-3.5797356,-61.4049996,1726,12367.44053
D1,Anamã/AM,-3.5797356,-61.4049996,9,64.48839
1,Ananindeua/PA,-1.374035,-48.4016623,20815,3886.68035
D1,Ananindeua/PA,-1.374035,-48.4016623,744,138.92338
1,Ananás/TO,-6.3663053,-48.080238,1424,15002.10704
D1,Ananás/TO,-6.3663053,-48.080238,20,210.70375
1,Anapu/PA,-3.4668292,-51.2057035,1298,4537.35100
D1,Anapu/PA,-3.4668292,-51.2057035,34,118.85203
1,Anapurus/MA,-3.6751298,-43.1046001,828,5209.51302
D1,Anapurus/MA,-3.6751298,-43.1046001,11,69.20851
1,Anastácio/MS,-20.4832458,-55.8048448,1779,7049.17383
D1,Anastácio/MS,-20.4832458,-55.8048448,56,221.89642
1,Anaurilândia/MS,-22.185169,-52.719056,338,3724.10754
D1,Anaurilândia/MS,-22.185169,-52.719056,13,143.23491
1,Anchieta/ES,-20.8057672,-40.6454564,4306,14459.85426
D1,Anchieta/ES,-20.8057672,-40.6454564,74,248.49726
1,Anchieta/SC,-26.5350527,-53.3293938,414,7450.06298
D1,Anchieta/SC,-26.5350527,-53.3293938,6,107.97193
1,Andaraí/BA,-12.8059674,-41.3322919,661,5033.50594
D1,Andaraí/BA,-12.8059674,-41.3322919,6,45.68992
1,Andirá/PR,-23.0494761,-50.2310027,1682,8441.23256
D1,Andirá/PR,-23.0494761,-50.2310027,61,306.13269
1,Andorinha/BA,-10.3445708,-39.8334411,725,4998.96573
D1,Andorinha/BA,-10.3445708,-39.8334411,12,82.74150
1,Andradas/MG,-22.0680484,-46.5688976,2759,6664.89516
D1,Andradas/MG,-22.0680484,-46.5688976,81,195.67108
1,Andradina/SP,-20.896505,-51.3742765,4796,8384.32223
D1,Andradina/SP,-20.896505,-51.3742765,206,360.12727
1,Andrelândia/MG,-21.739722,-44.308889,206,1687.69458
D1,Andrelândia/MG,-21.739722,-44.308889,7,57.34884
1,André da Rocha/RS,-28.6309124,-51.5733328,98,7297.09605
1,Angatuba/SP,-23.4938938,-48.4110675,2262,8877.89945
D1,Angatuba/SP,-23.4938938,-48.4110675,58,227.63845
1,Angelim/PE,-8.8902038,-36.2872987,166,1478.71014
D1,Angelim/PE,-8.8902038,-36.2872987,6,53.44735
1,Angelina/SC,-27.5805287,-48.9838759,471,9930.42378
D1,Angelina/SC,-27.5805287,-48.9838759,1,21.08370
1,Angelândia/MG,-17.7253,-42.2728,90,1051.77048
D1,Angelândia/MG,-17.7253,-42.2728,1,11.68634
1,Angical do Piauí/PI,-6.0872666,-42.7366138,596,8786.67256
D1,Angical do Piauí/PI,-6.0872666,-42.7366138,8,117.94191
1,Angical/BA,-12.005623,-44.7000236,503,3608.83914
D1,Angical/BA,-12.005623,-44.7000236,10,71.74631
1,Angico/TO,-6.3893733,-47.8656722,208,6022.00347
D1,Angico/TO,-6.3893733,-47.8656722,3,86.85582
1,Angicos/RN,-5.6666344,-36.6009064,671,5732.59291
D1,Angicos/RN,-5.6666344,-36.6009064,15,128.15036
1,Angra dos Reis/RJ,-23.0063966,-44.316326,12649,6109.32942
D1,Angra dos Reis/RJ,-23.0063966,-44.316326,419,202.37244
1,Anguera/BA,-12.1509425,-39.2452469,352,3115.87147
D1,Anguera/BA,-12.1509425,-39.2452469,1,8.85191
1,Angélica/MS,-22.1588196,-53.7728504,761,6961.21478
D1,Angélica/MS,-22.1588196,-53.7728504,15,137.21186
1,Anhanguera/GO,-18.3338749,-48.220363,88,7586.20690
D1,Anhanguera/GO,-18.3338749,-48.220363,6,517.24138
1,Anhembi/SP,-22.7891096,-48.1316776,186,2727.67268
D1,Anhembi/SP,-22.7891096,-48.1316776,5,73.32453
1,Anhumas/SP,-22.2956478,-51.3873401,195,4705.59846
D1,Anhumas/SP,-22.2956478,-51.3873401,4,96.52510
1,Anicuns/GO,-16.4606451,-49.9572265,2261,10286.15623
D1,Anicuns/GO,-16.4606451,-49.9572265,56,254.76548
1,Anita Garibaldi/SC,-27.6855032,-51.1293873,1034,14862.72819
D1,Anita Garibaldi/SC,-27.6855032,-51.1293873,8,114.99209
1,Anitápolis/SC,-27.9041185,-49.1287395,307,9510.53284
D1,Anitápolis/SC,-27.9041185,-49.1287395,4,123.91574
1,Anori/AM,-3.7435254,-61.6605203,1850,8613.86600
D1,Anori/AM,-3.7435254,-61.6605203,31,144.34046
1,Anta Gorda/RS,-28.9718745,-52.0069187,560,9394.39691
D1,Anta Gorda/RS,-28.9718745,-52.0069187,4,67.10284
1,Antas/BA,-10.4114649,-38.3308815,1070,5493.09513
D1,Antas/BA,-10.4114649,-38.3308815,7,35.93614
1,Antonina do Norte/CE,-6.7754187,-39.9879345,563,7630.79425
D1,Antonina do Norte/CE,-6.7754187,-39.9879345,19,257.52236
1,Antonina/PR,-25.4298854,-48.7125431,2175,11478.17827
D1,Antonina/PR,-25.4298854,-48.7125431,56,295.53011
1,Antônio Almeida/PI,-7.2186016,-44.1950248,403,12712.93375
D1,Antônio Almeida/PI,-7.2186016,-44.1950248,10,315.45741
1,Antônio Cardoso/BA,-12.4363122,-39.1200307,350,2997.34521
D1,Antônio Cardoso/BA,-12.4363122,-39.1200307,7,59.94690
1,Antônio Carlos/MG,-21.318334,-43.746666,480,4188.84719
D1,Antônio Carlos/MG,-21.318334,-43.746666,8,69.81412
1,Antônio Carlos/SC,-27.5168462,-48.7684715,1442,16742.13398
D1,Antônio Carlos/SC,-27.5168462,-48.7684715,21,243.81749
1,Antônio Dias/MG,-19.6525,-42.872778,498,5369.27224
D1,Antônio Dias/MG,-19.6525,-42.872778,22,237.19677
1,Antônio Gonçalves/BA,-10.5715409,-40.2748824,678,5708.03166
D1,Antônio Gonçalves/BA,-10.5715409,-40.2748824,8,67.35141
1,Antônio João/MS,-22.1892837,-55.9508227,339,3758.31486
D1,Antônio João/MS,-22.1892837,-55.9508227,7,77.60532
1,Antônio Martins/RN,-6.2155812,-37.8890129,505,7058.98798
D1,Antônio Martins/RN,-6.2155812,-37.8890129,4,55.91278
1,Antônio Olinto/PR,-25.9849006,-50.1974516,356,4793.32166
D1,Antônio Olinto/PR,-25.9849006,-50.1974516,8,107.71509
1,Antônio Prado de Minas/MG,-21.0171988,-42.1101106,154,9703.84373
D1,Antônio Prado de Minas/MG,-21.0171988,-42.1101106,5,315.05986
1,Antônio Prado/RS,-28.8567806,-51.2801355,1983,15201.22652
D1,Antônio Prado/RS,-28.8567806,-51.2801355,19,145.64967
1,Anápolis/GO,-16.3332828,-48.9525756,34189,8726.75944
D1,Anápolis/GO,-16.3332828,-48.9525756,1175,299.91934
1,Anísio de Abreu/PI,-9.185643,-43.04941,284,2857.71785
D1,Anísio de Abreu/PI,-9.185643,-43.04941,9,90.56148
1,Aparecida d'Oeste/SP,-20.4498109,-50.8808706,615,14790.76479
D1,Aparecida d'Oeste/SP,-20.4498109,-50.8808706,12,288.60029
1,Aparecida de Goiânia/GO,-16.8226769,-49.2452546,62830,10646.51798
D1,Aparecida de Goiânia/GO,-16.8226769,-49.2452546,1197,202.83116
1,Aparecida do Rio Doce/GO,-18.2980167,-51.1491312,184,7437.34842
D1,Aparecida do Rio Doce/GO,-18.2980167,-51.1491312,3,121.26112
1,Aparecida do Rio Negro/TO,-9.9513491,-47.9773786,307,6332.50825
D1,Aparecida do Rio Negro/TO,-9.9513491,-47.9773786,5,103.13531
1,Aparecida do Taboado/MS,-20.0840304,-51.1013943,2580,9896.81231
D1,Aparecida do Taboado/MS,-20.0840304,-51.1013943,41,157.27492
1,Aparecida/PB,-6.7859598, -38.0831353,696,8269.96198
D1,Aparecida/PB,-6.7859598, -38.0831353,11,130.70342
1,Aparecida/SP,-22.851552,-45.2340924,2106,5820.09120
D1,Aparecida/SP,-22.851552,-45.2340924,72,198.97748
1,Aperibé/RJ,-21.6211928,-42.1028167,504,4234.93824
D1,Aperibé/RJ,-21.6211928,-42.1028167,19,159.65045
1,Apiacá/ES,-21.152272,-41.569297,686,9081.28144
D1,Apiacá/ES,-21.152272,-41.569297,28,370.66455
1,Apiacás/MT,-9.5678422,-57.394852,1469,14285.71429
D1,Apiacás/MT,-9.5678422,-57.394852,14,136.14704
1,Apiaí/SP,-24.5076527,-48.8461582,1065,4396.10336
D1,Apiaí/SP,-24.5076527,-48.8461582,62,255.92339
1,Apicum-Açu/MA,-1.5279295,-45.082278,453,2601.50462
D1,Apicum-Açu/MA,-1.5279295,-45.082278,4,22.97134
1,Apiúna/SC,-27.0374658,-49.3885037,753,6941.37168
D1,Apiúna/SC,-27.0374658,-49.3885037,15,138.27434
1,Apodi/RN,-5.6631109,-37.796927,4986,13898.64526
D1,Apodi/RN,-5.6631109,-37.796927,75,209.06506
1,Aporá/BA,-11.6599747,-38.0794757,462,2597.25658
D1,Aporá/BA,-11.6599747,-38.0794757,18,101.19181
1,Aporé/GO,-18.9642193,-51.92804,328,7750.47259
D1,Aporé/GO,-18.9642193,-51.92804,9,212.66541
1,Apuarema/BA,-13.8517897,-39.7457126,643,8805.80663
D1,Apuarema/BA,-13.8517897,-39.7457126,9,123.25390
1,Apucarana/PR,-23.5525327,-51.4610764,7602,5580.10482
D1,Apucarana/PR,-23.5525327,-51.4610764,261,191.58213
1,Apuiarés/CE,-3.9460303,-39.4313298,938,6393.12977
D1,Apuiarés/CE,-3.9460303,-39.4313298,16,109.05125
1,Apuí/AM,-7.1940195,-59.8830192,1262,5644.25958
D1,Apuí/AM,-7.1940195,-59.8830192,27,120.75674
1,Aquidabã/SE,-10.2837579,-37.0188687,1845,8509.75509
D1,Aquidabã/SE,-10.2837579,-37.0188687,32,147.59467
1,Aquidauana/MS,-20.473969,-55.7821375,4129,8596.88938
D1,Aquidauana/MS,-20.473969,-55.7821375,120,249.84905
1,Aquiraz/CE,-3.9063117,-38.387504,5652,6983.38173
D1,Aquiraz/CE,-3.9063117,-38.387504,77,95.13807
1,Arabutã/SC,-27.1587028,-52.1438142,388,9093.03961
D1,Arabutã/SC,-27.1587028,-52.1438142,7,164.04968
1,Aracaju/SE,-10.9162061,-37.0774655,104311,15688.03504
D1,Aracaju/SE,-10.9162061,-37.0774655,1923,289.21294
1,Aracati/CE,-4.558259,-37.767894,5895,7862.62087
D1,Aracati/CE,-4.558259,-37.767894,120,160.05335
1,Aracatu/BA,-14.4274236,-41.4604105,731,5603.67957
D1,Aracatu/BA,-14.4274236,-41.4604105,14,107.32081
1,Araci/BA,-11.3356065,-38.9573261,3228,5906.89504
D1,Araci/BA,-11.3356065,-38.9573261,42,76.85551
1,Aracitaba/MG,-21.3425,-43.378611,77,3739.67946
D1,Aracitaba/MG,-21.3425,-43.378611,8,388.53813
1,Aracoiaba/CE,-4.3702577,-38.8084313,3040,11456.56680
D1,Aracoiaba/CE,-4.3702577,-38.8084313,27,101.75240
1,Aracruz/ES,-19.8245218,-40.2735025,14010,13588.61699
D1,Aracruz/ES,-19.8245218,-40.2735025,198,192.04469
1,Aragarças/GO,-15.8957166,-52.2514538,1918,9460.85927
D1,Aragarças/GO,-15.8957166,-52.2514538,47,231.83545
1,Aragoiânia/GO,-16.9146388,-49.4499148,917,8736.66159
D1,Aragoiânia/GO,-16.9146388,-49.4499148,17,161.96646
1,Aragominas/TO,-7.1654101,-48.525488,465,8113.76723
D1,Aragominas/TO,-7.1654101,-48.525488,8,139.59169
1,Araguacema/TO,-8.8067391,-49.5560969,479,6694.61915
D1,Araguacema/TO,-8.8067391,-49.5560969,11,153.73864
1,Araguaiana/MT,-15.729144,-51.834112,176,5660.98424
D1,Araguaiana/MT,-15.729144,-51.834112,4,128.65873
1,Araguainha/MT,-16.857016,-53.031778,22,2325.58140
1,Araguanã/MA,-2.9508403,-45.6651986,754,4848.56279
D1,Araguanã/MA,-2.9508403,-45.6651986,5,32.15227
1,Araguanã/TO,-6.5799107,-48.6428482,416,7181.08061
D1,Araguanã/TO,-6.5799107,-48.6428482,12,207.14656
1,Araguapaz/GO,-15.0937927,-50.626417,464,5961.71142
D1,Araguapaz/GO,-15.0937927,-50.626417,19,244.12180
1,Araguari/MG,-18.6511256,-48.1933764,12500,10608.95396
D1,Araguari/MG,-18.6511256,-48.1933764,348,295.35328
1,Araguatins/TO,-5.6522925,-48.1158973,1981,5476.91457
D1,Araguatins/TO,-5.6522925,-48.1158973,50,138.23611
1,Araguaçu/TO,-12.928934,-49.823134,780,9212.23574
D1,Araguaçu/TO,-12.928934,-49.823134,17,200.77950
1,Araguaína/TO,-7.193241,-48.2018597,28648,15622.12007
D1,Araguaína/TO,-7.193241,-48.2018597,378,206.12822
1,Araioses/MA,-2.890914,-41.904993,636,1359.81698
D1,Araioses/MA,-2.890914,-41.904993,12,25.65692
1,Aral Moreira/MS,-22.951141,-55.6268421,388,3146.28608
D1,Aral Moreira/MS,-22.951141,-55.6268421,9,72.98086
1,Aramari/BA,-12.0907897,-38.4985065,523,4563.30163
D1,Aramari/BA,-12.0907897,-38.4985065,11,95.97766
1,Arambaré/RS,-30.9132252,-51.4994625,160,4491.85851
D1,Arambaré/RS,-30.9132252,-51.4994625,5,140.37058
1,Arame/MA,-4.8858769,-46.0102484,1137,3470.27225
D1,Arame/MA,-4.8858769,-46.0102484,35,106.82456
1,Aramina/SP,-20.0876144,-47.789201,262,4633.06808
D1,Aramina/SP,-20.0876144,-47.789201,10,176.83466
1,Arandu/SP,-23.1345103,-49.0545651,305,4791.83032
D1,Arandu/SP,-23.1345103,-49.0545651,7,109.97643
1,Arantina/MG,-21.911667,-44.255833,139,4987.44169
D1,Arantina/MG,-21.911667,-44.255833,3,107.64263
1,Arapeí/SP,-22.6738889,-44.4477778,184,7479.67480
D1,Arapeí/SP,-22.6738889,-44.4477778,2,81.30081
1,Arapiraca/AL,-9.754866,-36.661471,23088,9907.01446
D1,Arapiraca/AL,-9.754866,-36.661471,365,156.62077
1,Arapoema/TO,-7.6575001,-49.0641484,412,6227.32769
D1,Arapoema/TO,-7.6575001,-49.0641484,6,90.68924
1,Araponga/MG,-20.666667,-42.520556,368,4353.48397
D1,Araponga/MG,-20.666667,-42.520556,6,70.98072
1,Arapongas/PR,-23.415296,-51.42592,10501,8413.58865
D1,Arapongas/PR,-23.415296,-51.42592,398,318.88470
1,Araporã/MG,-18.4318188,-49.188313,1648,23777.23272
D1,Araporã/MG,-18.4318188,-49.188313,22,317.41451
1,Arapoti/PR,-24.1457957,-49.8224605,2388,8438.16254
D1,Arapoti/PR,-24.1457957,-49.8224605,44,155.47703
1,Araputanga/MT,-15.4710868,-58.346796,1676,9887.32228
D1,Araputanga/MT,-15.4710868,-58.346796,46,271.37042
1,Arapuá/MG,-19.034444,-46.155556,184,6490.29982
D1,Arapuá/MG,-19.034444,-46.155556,2,70.54674
1,Arapuã/PR,-24.3079525,-51.7901941,181,6015.28747
D1,Arapuã/PR,-24.3079525,-51.7901941,5,166.16816
1,Araquari/SC,-26.3703324,-48.7210994,3184,8055.86479
D1,Araquari/SC,-26.3703324,-48.7210994,66,166.98715
1,Arara/PB,-6.8271895,-35.7605703,744,5494.01861
D1,Arara/PB,-6.8271895,-35.7605703,21,155.07311
1,Araranguá/SC,-28.9348832,-49.4858389,9037,13122.39534
D1,Araranguá/SC,-28.9348832,-49.4858389,204,296.22315
1,Araraquara/SP,-21.7886713,-48.1773096,17181,7208.63979
D1,Araraquara/SP,-21.7886713,-48.1773096,388,162.79333
1,Araras/SP,-22.3569477,-47.3838889,13694,10105.82557
D1,Araras/SP,-22.3569477,-47.3838889,304,224.34431
1,Ararendá/CE,-4.7504395,-40.8303611,778,7099.18788
D1,Ararendá/CE,-4.7504395,-40.8303611,16,145.99872
1,Arari/MA,-3.4547602,-44.7772723,677,2261.79340
D1,Arari/MA,-3.4547602,-44.7772723,26,86.86356
1,Araricá/RS,-29.6168543,-50.929121,952,16496.27448
D1,Araricá/RS,-29.6168543,-50.929121,24,415.87247
1,Araripe/CE,-7.212861,-40.1359222,874,4036.20578
D1,Araripe/CE,-7.212861,-40.1359222,13,60.03510
1,Araripina/PE,-7.5768582,-40.5038509,5715,6734.30430
D1,Araripina/PE,-7.5768582,-40.5038509,120,141.40271
1,Araruama/RJ,-22.8733203,-42.3428897,5101,3798.41094
D1,Araruama/RJ,-22.8733203,-42.3428897,319,237.54030
1,Araruna/PB,-6.5321155,-35.7397595,597,2917.46078
D1,Araruna/PB,-6.5321155,-35.7397595,16,78.18990
1,Araruna/PR,-23.9320308,-52.4976047,1169,8350.00000
D1,Araruna/PR,-23.9320308,-52.4976047,19,135.71429
1,Arataca/BA,-15.2617424,-39.4122943,528,4817.07873
D1,Arataca/BA,-15.2617424,-39.4122943,14,127.72557
1,Aratiba/RS,-27.3955734,-52.3024325,346,5590.56390
D1,Aratiba/RS,-27.3955734,-52.3024325,6,96.94619
1,Aratuba/CE,-4.4195958,-39.0463737,1153,9769.53059
D1,Aratuba/CE,-4.4195958,-39.0463737,8,67.78512
1,Aratuípe/BA,-13.077137,-39.0010786,325,3677.71868
D1,Aratuípe/BA,-13.077137,-39.0010786,9,101.84452
1,Araucária/PR,-25.5861107,-49.4051209,20700,14157.33104
D1,Araucária/PR,-25.5861107,-49.4051209,319,218.17336
1,Arauá/SE,-11.2644014,-37.6181058,991,9962.80286
D1,Arauá/SE,-11.2644014,-37.6181058,18,180.95908
1,Araxá/MG,-19.5928536,-46.940241,9565,8911.18626
D1,Araxá/MG,-19.5928536,-46.940241,147,136.95184
1,Araçagi/PB,-6.8519969,-35.3835602,1021,6033.92235
D1,Araçagi/PB,-6.8519969,-35.3835602,13,76.82761
1,Araçariguama/SP,-23.438611,-47.061389,1317,5761.15486
D1,Araçariguama/SP,-23.438611,-47.061389,45,196.85039
1,Araçatuba/SP,-21.207992,-50.4390225,22174,11191.69834
D1,Araçatuba/SP,-21.207992,-50.4390225,658,332.10686
1,Araçaí/MG,-19.200833,-44.2475,49,2081.56330
1,Araçoiaba da Serra/SP,-23.5045367,-47.6168158,2133,6133.54037
D1,Araçoiaba da Serra/SP,-23.5045367,-47.6168158,49,140.90177
1,Araçoiaba/PE,-7.7856903,-35.0898881,500,2411.61433
D1,Araçoiaba/PE,-7.7856903,-35.0898881,27,130.22717
1,Araçu/GO,-16.3561579,-49.6815269,379,10872.05967
D1,Araçu/GO,-16.3561579,-49.6815269,15,430.29260
1,Araçuaí/MG,-16.8484451,-42.0661868,1285,3500.21791
D1,Araçuaí/MG,-16.8484451,-42.0661868,26,70.82153
1,Araçás/BA,-12.2139176,-38.2026159,555,4546.19921
D1,Araçás/BA,-12.2139176,-38.2026159,7,57.33945
1,Araújos/MG,-19.948055,-45.165556,581,6180.19360
D1,Araújos/MG,-19.948055,-45.165556,9,95.73450
1,Arceburgo/MG,-21.364444,-46.939722,806,7406.04613
D1,Arceburgo/MG,-21.364444,-46.939722,19,174.58421
1,Arco-Íris/SP,-21.7741308,-50.4668814,104,5865.76424
D1,Arco-Íris/SP,-21.7741308,-50.4668814,6,338.40948
1,Arcos/MG,-20.282223,-45.539444,4349,10770.18326
D1,Arcos/MG,-20.282223,-45.539444,106,262.50619
1,Arcoverde/PE,-8.415192,-37.057748,5024,6714.60266
D1,Arcoverde/PE,-8.415192,-37.057748,105,140.33306
1,Areado/MG,-21.3582771,-46.1476688,557,3669.06001
D1,Areado/MG,-21.3582771,-46.1476688,15,98.80772
1,Areal/RJ,-22.2314922,-43.1056264,922,7277.60676
D1,Areal/RJ,-22.2314922,-43.1056264,37,292.05146
1,Arealva/SP,-22.0301906,-48.9111936,625,7256.47277
D1,Arealva/SP,-22.0301906,-48.9111936,9,104.49321
1,Areia Branca/RN,-4.9506652,-37.1263312,2100,7508.84972
D1,Areia Branca/RN,-4.9506652,-37.1263312,84,300.35399
1,Areia Branca/SE,-10.7591455,-37.3148072,1534,8209.35460
D1,Areia Branca/SE,-10.7591455,-37.3148072,38,203.36080
1,Areia de Baraúnas/PB,-7.1233949,-36.9446216,98,4631.37996
D1,Areia de Baraúnas/PB,-7.1233949,-36.9446216,3,141.77694
1,Areia/PB,-6.9680243,-35.6994783,1092,4819.91525
D1,Areia/PB,-6.9680243,-35.6994783,22,97.10452
1,Areial/PB,-7.0501306,-35.9245244,263,3742.70670
D1,Areial/PB,-7.0501306,-35.9245244,7,99.61577
1,Areias/SP,-22.5800929,-44.6975127,233,5980.49281
D1,Areias/SP,-22.5800929,-44.6975127,1,25.66735
1,Areiópolis/SP,-22.6758064,-48.6673653,978,8765.01165
D1,Areiópolis/SP,-22.6758064,-48.6673653,13,116.50833
1,Arenápolis/MT,-14.4610369,-56.8432806,1317,13860.23995
D1,Arenápolis/MT,-14.4610369,-56.8432806,22,231.53020
1,Arenópolis/GO,-16.3859286,-51.55937,163,6427.44479
D1,Arenópolis/GO,-16.3859286,-51.55937,8,315.45741
1,Argirita/MG,-21.612761,-42.8371922,247,9134.61538
D1,Argirita/MG,-21.612761,-42.8371922,5,184.91124
1,Aricanduva/MG,-17.8678,-42.5569,82,1556.27254
1,Arinos/MG,-15.917223,-46.106111,501,2804.83708
D1,Arinos/MG,-15.917223,-46.106111,12,67.18173
1,Aripuanã/MT,-10.175806,-59.4439663,2232,9826.53870
D1,Aripuanã/MT,-10.175806,-59.4439663,40,176.10284
1,Ariquemes/RO,-9.9076522,-63.033069,19109,17447.47679
D1,Ariquemes/RO,-9.9076522,-63.033069,414,378.00279
1,Ariranha do Ivaí/PR,-24.3834527,-51.5876772,129,6243.94966
D1,Ariranha do Ivaí/PR,-24.3834527,-51.5876772,2,96.80542
1,Ariranha/SP,-21.18716,-48.790418,421,4313.08268
D1,Ariranha/SP,-21.18716,-48.790418,14,143.42793
1,Armazém/SC,-28.2624996,-49.0190126,1334,15230.04909
D1,Armazém/SC,-28.2624996,-49.0190126,28,319.67120
1,Armação dos Búzios/RJ,-22.7597805,-41.8875267,4071,11807.87191
D1,Armação dos Búzios/RJ,-22.7597805,-41.8875267,45,130.52180
1,Arneiroz/CE,-6.3235099,-40.1603859,506,6450.79041
D1,Arneiroz/CE,-6.3235099,-40.1603859,13,165.73177
1,Aroazes/PI,-6.1108814,-41.7886137,538,9232.88141
D1,Aroazes/PI,-6.1108814,-41.7886137,12,205.93788
1,Aroeiras do Itaim/PI,-7.2797031,-41.5629681,101,3959.23167
D1,Aroeiras do Itaim/PI,-7.2797031,-41.5629681,2,78.40063
1,Aroeiras/PB,-7.5462904,-35.7080002,885,4629.62963
D1,Aroeiras/PB,-7.5462904,-35.7080002,7,36.61854
1,Arraial do Cabo/RJ,-22.9662839,-42.024427,623,2036.41356
D1,Arraial do Cabo/RJ,-22.9662839,-42.024427,27,88.25548
1,Arraial/PI,-6.6541632,-42.5335332,140,2966.10169
D1,Arraial/PI,-6.6541632,-42.5335332,2,42.37288
1,Arraias/TO,-12.9287788,-46.9437231,496,4708.56275
D1,Arraias/TO,-12.9287788,-46.9437231,4,37.97228
1,Arroio Grande/RS,-32.2384246,-53.0866661,1596,8750.95954
D1,Arroio Grande/RS,-32.2384246,-53.0866661,48,263.18675
1,Arroio Trinta/SC,-26.9301976,-51.334928,484,13637.64441
D1,Arroio Trinta/SC,-26.9301976,-51.334928,11,309.94646
1,Arroio do Meio/RS,-29.4020392,-51.9444993,2742,13077.69352
D1,Arroio do Meio/RS,-29.4020392,-51.9444993,34,162.15958
1,Arroio do Padre/RS,-31.4428773,-52.4228985,155,5252.45679
D1,Arroio do Padre/RS,-31.4428773,-52.4228985,2,67.77364
1,Arroio do Sal/RS,-29.549852,-49.8874395,934,9086.48701
D1,Arroio do Sal/RS,-29.549852,-49.8874395,32,311.31433
1,Arroio do Tigre/RS,-29.334158,-53.0888935,977,7283.97823
D1,Arroio do Tigre/RS,-29.334158,-53.0888935,19,141.65362
1,Arroio dos Ratos/RS,-30.0894524,-51.7265541,832,5868.66051
D1,Arroio dos Ratos/RS,-30.0894524,-51.7265541,29,204.55668
1,Artur Nogueira/SP,-22.572737,-47.172679,3440,6216.11854
D1,Artur Nogueira/SP,-22.572737,-47.172679,99,178.89411
1,Aruanã/GO,-14.9162439,-51.0715692,457,4520.27695
D1,Aruanã/GO,-14.9162439,-51.0715692,10,98.91197
1,Arujá/SP,-23.396266,-46.3175449,6274,6882.63107
D1,Arujá/SP,-23.396266,-46.3175449,239,262.18502
1,Arvoredo/SC,-27.0752908,-52.4571847,275,12309.75828
D1,Arvoredo/SC,-27.0752908,-52.4571847,4,179.05103
1,Arvorezinha/RS,-28.87369,-52.17808,718,6888.61172
D1,Arvorezinha/RS,-28.87369,-52.17808,24,230.26000
1,Arês/RN,-6.1969216,-35.1642968,874,6062.28758
D1,Arês/RN,-6.1969216,-35.1642968,20,138.72512
1,Ascurra/SC,-26.9569975,-49.3767752,1055,13223.86563
D1,Ascurra/SC,-26.9569975,-49.3767752,9,112.81023
1,Aspásia/SP,-20.160028,-50.728046,92,5060.50605
D1,Aspásia/SP,-20.160028,-50.728046,4,220.02200
1,Assaré/CE,-6.8746791,-39.8741385,1551,6606.18451
D1,Assaré/CE,-6.8746791,-39.8741385,31,132.03850
1,Assaí/PR,-23.3736041,-50.8454929,1184,7917.61402
D1,Assaí/PR,-23.3736041,-50.8454929,39,260.79979
1,Assis Brasil/AC,-10.9409203,-69.5672108,1556,20653.03955
D1,Assis Brasil/AC,-10.9409203,-69.5672108,21,278.73640
1,Assis Chateaubriand/PR,-24.4054826,-53.5120468,3231,9691.06179
D1,Assis Chateaubriand/PR,-24.4054826,-53.5120468,77,230.95381
1,Assis/SP,-22.6620892,-50.420623,7885,7503.30678
D1,Assis/SP,-22.6620892,-50.420623,258,245.51086
1,Assunção do Piauí/PI,-5.8610212,-41.0485091,301,3828.05545
D1,Assunção do Piauí/PI,-5.8610212,-41.0485091,6,76.30675
1,Assunção/PB,-7.073396,-36.7274003,283,7024.07545
D1,Assunção/PB,-7.073396,-36.7274003,2,49.64011
1,Astolfo Dutra/MG,-21.3132636,-42.8624102,1171,8206.02663
D1,Astolfo Dutra/MG,-21.3132636,-42.8624102,15,105.11563
1,Astorga/PR,-23.2350184,-51.6647074,2602,9927.88737
D1,Astorga/PR,-23.2350184,-51.6647074,60,228.92899
1,Atalaia do Norte/AM,-4.3658547,-70.1908742,2711,13290.51868
D1,Atalaia do Norte/AM,-4.3658547,-70.1908742,8,39.21953
1,Atalaia/AL,-9.5029595,-36.0219316,1076,2271.71962
D1,Atalaia/AL,-9.5029595,-36.0219316,43,90.78433
1,Atalaia/PR,-23.1513833,-52.0529697,335,8631.79593
D1,Atalaia/PR,-23.1513833,-52.0529697,15,386.49833
1,Atalanta/SC,-27.421916,-49.778863,320,10015.64945
D1,Atalanta/SC,-27.421916,-49.778863,8,250.39124
1,Ataléia/MG,-18.04432,-41.1110524,1031,8132.19751
D1,Ataléia/MG,-18.04432,-41.1110524,8,63.10144
1,Atibaia/SP,-23.1177393,-46.5547861,9089,6307.95070
D1,Atibaia/SP,-23.1177393,-46.5547861,216,149.90839
1,Atilio Vivacqua/ES,-20.9139369,-41.1947519,1345,11111.11111
D1,Atilio Vivacqua/ES,-20.9139369,-41.1947519,24,198.26518
1,Augustinópolis/TO,-5.4662267,-47.8897519,1352,7252.05171
D1,Augustinópolis/TO,-5.4662267,-47.8897519,25,134.09859
1,Augusto Corrêa/PA,-1.0229335,-46.6404029,1941,4176.79843
D1,Augusto Corrêa/PA,-1.0229335,-46.6404029,39,83.92331
1,Augusto Pestana/RS,-28.5148413,-53.9906433,573,8679.18812
D1,Augusto Pestana/RS,-28.5148413,-53.9906433,7,106.02848
1,Augusto de Lima/MG,-18.1092963,-44.2651945,223,4596.99031
D1,Augusto de Lima/MG,-18.1092963,-44.2651945,8,164.91445
1,Aurelino Leal/BA,-14.3167137,-39.3256107,843,7460.83724
D1,Aurelino Leal/BA,-14.3167137,-39.3256107,25,221.25852
1,Auriflama/SP,-20.6840418,-50.5554616,1681,11020.78280
D1,Auriflama/SP,-20.6840418,-50.5554616,58,380.25306
1,Aurilândia/GO,-16.6772599,-50.4641231,171,5591.89012
D1,Aurilândia/GO,-16.6772599,-50.4641231,6,196.20667
1,Aurora do Pará/PA,-2.1323199,-47.558436,1330,4185.94404
D1,Aurora do Pará/PA,-2.1323199,-47.558436,13,40.91524
1,Aurora do Tocantins/TO,-12.71045,-46.407604,170,4493.78800
D1,Aurora do Tocantins/TO,-12.71045,-46.407604,3,79.30214
1,Aurora/CE,-6.9426019,-38.9693765,1371,5570.90614
D1,Aurora/CE,-6.9426019,-38.9693765,30,121.90167
1,Aurora/SC,-27.3166417,-49.6368502,692,12176.66725
D1,Aurora/SC,-27.3166417,-49.6368502,14,246.34876
1,Autazes/AM,-3.5833283,-59.1301518,2799,6947.13328
D1,Autazes/AM,-3.5833283,-59.1301518,89,220.89849
1,Avanhandava/SP,-21.4603331,-49.9465156,598,4314.88563
D1,Avanhandava/SP,-21.4603331,-49.9465156,25,180.38820
1,Avaré/SP,-23.1045215,-48.9259103,7040,7716.59067
D1,Avaré/SP,-23.1045215,-48.9259103,154,168.80042
1,Avaí/SP,-22.1564662,-49.3316395,287,5279.61737
D1,Avaí/SP,-22.1564662,-49.3316395,7,128.77116
1,Aveiro/PA,-3.6049239,-55.3310742,610,3718.60522
D1,Aveiro/PA,-3.6049239,-55.3310742,9,54.86467
1,Avelino Lopes/PI,-10.1346855,-43.9489525,329,2904.82077
D1,Avelino Lopes/PI,-10.1346855,-43.9489525,19,167.75561
1,Avelinópolis/GO,-16.4672409,-49.7578661,264,10958.90411
D1,Avelinópolis/GO,-16.4672409,-49.7578661,11,456.62100
1,Axixá do Tocantins/TO,-5.612747,-47.77007,1003,10248.28855
D1,Axixá do Tocantins/TO,-5.612747,-47.77007,16,163.48217
1,Axixá/MA,-2.8379465,-44.0561053,190,1559.55019
D1,Axixá/MA,-2.8379465,-44.0561053,5,41.04079
1,Açailândia/MA,-4.9514278,-47.4844564,4847,4284.79239
D1,Açailândia/MA,-4.9514278,-47.4844564,177,156.46962
1,Açu/RN,-5.5836157,-36.9139541,5020,8598.24609
D1,Açu/RN,-5.5836157,-36.9139541,125,214.09975
1,Açucena/MG,-19.073056,-42.546666,694,7408.19812
D1,Açucena/MG,-19.073056,-42.546666,23,245.51665
1,Babaçulândia/TO,-7.2034355,-47.761613,578,5419.08869
D1,Babaçulândia/TO,-7.2034355,-47.761613,5,46.87793
1,Bacabal/MA,-4.2318132,-44.781167,4469,4264.71992
D1,Bacabal/MA,-4.2318132,-44.781167,162,154.59490
1,Bacabeira/MA,-2.9775747,-44.3155943,319,1849.06098
D1,Bacabeira/MA,-2.9775747,-44.3155943,6,34.77858
1,Bacuri/MA,-1.728894,-45.1417148,432,2315.85719
D1,Bacuri/MA,-1.728894,-45.1417148,4,21.44312
1,Bacurituba/MA,-2.7082587,-44.7381309,112,1975.30864
D1,Bacurituba/MA,-2.7082587,-44.7381309,1,17.63668
1,Bady Bassitt/SP,-20.9178969,-49.4517911,2496,14053.26277
D1,Bady Bassitt/SP,-20.9178969,-49.4517911,57,320.92788
1,Baependi/MG,-21.959162,-44.8899249,1170,6094.06740
D1,Baependi/MG,-21.959162,-44.8899249,12,62.50326
1,Bagre/PA,-1.8994498,-50.2103844,858,2739.02634
D1,Bagre/PA,-1.8994498,-50.2103844,11,35.11572
1,Bagé/RS,-31.3314264,-54.1062808,7940,6543.86616
D1,Bagé/RS,-31.3314264,-54.1062808,214,176.37120
1,Baianópolis/BA,-12.3067564,-44.5383591,580,4163.97444
D1,Baianópolis/BA,-12.3067564,-44.5383591,7,50.25486
1,Baixa Grande do Ribeiro/PI,-7.862861,-45.2113289,1988,17033.67321
D1,Baixa Grande do Ribeiro/PI,-7.862861,-45.2113289,20,171.36492
1,Baixa Grande/BA,-11.9630941,-40.1657537,626,3061.27439
D1,Baixa Grande/BA,-11.9630941,-40.1657537,7,34.23150
1,Baixio/CE,-6.7303544,-38.7170095,394,6250.99159
D1,Baixio/CE,-6.7303544,-38.7170095,9,142.78915
1,Baixo Guandu/ES,-19.5138322,-41.0182089,3130,10053.96377
D1,Baixo Guandu/ES,-19.5138322,-41.0182089,69,221.63690
1,Baião/PA,-2.7903479,-49.6702845,706,1456.90171
D1,Baião/PA,-2.7903479,-49.6702845,29,59.84440
1,Balbinos/SP,-21.9006253,-49.3583966,313,5274.68824
D1,Balbinos/SP,-21.9006253,-49.3583966,4,67.40816
1,Baldim/MG,-19.2913568,-43.9558262,480,6151.48020
D1,Baldim/MG,-19.2913568,-43.9558262,14,179.41817
1,Baliza/GO,-16.1978119,-52.542789,222,4204.54545
D1,Baliza/GO,-16.1978119,-52.542789,6,113.63636
1,Balneário Arroio do Silva/SC,-28.9815269,-49.4189932,1828,13611.31794
D1,Balneário Arroio do Silva/SC,-28.9815269,-49.4189932,39,290.39464
1,Balneário Barra do Sul/SC,-26.459842,-48.6061471,1306,11835.07023
D1,Balneário Barra do Sul/SC,-26.459842,-48.6061471,30,271.86226
1,Balneário Camboriú/SC,-26.9924395,-48.6339782,22418,15376.27918
D1,Balneário Camboriú/SC,-26.9924395,-48.6339782,329,225.65777
1,Balneário Gaivota/SC,-29.1553098,-49.5808712,1124,9982.23801
D1,Balneário Gaivota/SC,-29.1553098,-49.5808712,30,266.42984
1,Balneário Pinhal/RS,-30.2482978,-50.234585,657,4574.25329
D1,Balneário Pinhal/RS,-30.2482978,-50.234585,38,264.56868
1,Balneário Piçarras/SC,-26.7638889,-48.6716667,4140,17415.44674
D1,Balneário Piçarras/SC,-26.7638889,-48.6716667,42,176.67845
1,Balneário Rincão/SC,-28.8235718,-49.2241642,1247,9632.31886
D1,Balneário Rincão/SC,-28.8235718,-49.2241642,38,293.52696
1,Balsa Nova/PR,-25.5842234,-49.6312741,1251,9555.45371
D1,Balsa Nova/PR,-25.5842234,-49.6312741,24,183.31806
1,Balsas/MA,-7.53214,-46.037163,8668,9035.84943
D1,Balsas/MA,-7.53214,-46.037163,144,150.11102
1,Bambuí/MG,-20.0131996,-45.9777034,1203,5033.89405
D1,Bambuí/MG,-20.0131996,-45.9777034,17,71.13566
1,Banabuiú/CE,-5.3046404,-38.919766,1355,7422.21735
D1,Banabuiú/CE,-5.3046404,-38.919766,12,65.73181
1,Bananal/SP,-22.6828195,-44.3221095,879,7995.99745
D1,Bananal/SP,-22.6828195,-44.3221095,2,18.19340
1,Bananeiras/PB,-6.7537682,-35.6338343,973,4574.73318
D1,Bananeiras/PB,-6.7537682,-35.6338343,18,84.63021
1,Bandeira do Sul/MG,-21.728056,-46.385555,262,4534.44098
D1,Bandeira do Sul/MG,-21.728056,-46.385555,9,155.76324
1,Bandeira/MG,-15.884444,-40.559167,452,9483.84389
D1,Bandeira/MG,-15.884444,-40.559167,9,188.83760
1,Bandeirante/SC,-26.7677402,-53.6397596,241,9101.20846
D1,Bandeirante/SC,-26.7677402,-53.6397596,2,75.52870
1,Bandeirantes do Tocantins/TO,-7.7635698,-48.579148,351,9771.71492
D1,Bandeirantes do Tocantins/TO,-7.7635698,-48.579148,6,167.03786
1,Bandeirantes/MS,-19.9179623,-54.3646768,452,6220.75420
D1,Bandeirantes/MS,-19.9179623,-54.3646768,9,123.86457
1,Bandeirantes/PR,-23.107788,-50.370407,3141,10063.75957
D1,Bandeirantes/PR,-23.107788,-50.370407,93,297.97187
1,Bannach/PA,-7.3508505,-50.4064531,636,19497.24096
D1,Bannach/PA,-7.3508505,-50.4064531,2,61.31208
1,Banzaê/BA,-10.5827616,-38.6122305,850,6419.93958
D1,Banzaê/BA,-10.5827616,-38.6122305,7,52.87009
1,Baraúna/PB,-6.643394,-36.2531932,290,5842.06285
D1,Baraúna/PB,-6.643394,-36.2531932,4,80.58018
1,Baraúna/RN,-5.0775002,-37.61752,905,3148.15459
D1,Baraúna/RN,-5.0775002,-37.61752,22,76.52972
1,Barbacena/MG,-21.2254524,-43.7735087,6248,4520.85323
D1,Barbacena/MG,-21.2254524,-43.7735087,202,146.16075
1,Barbalha/CE,-7.3121067,-39.3036427,4656,7604.36402
D1,Barbalha/CE,-7.3121067,-39.3036427,93,151.89129
1,Barbosa Ferraz/PR,-24.0287182,-52.00811,907,7938.03606
D1,Barbosa Ferraz/PR,-24.0287182,-52.00811,25,218.79923
1,Barbosa/SP,-21.265661,-49.951816,366,4900.91055
D1,Barbosa/SP,-21.265661,-49.951816,10,133.90466
1,Barcarena/PA,-1.5107945,-48.6190679,10274,8088.04427
D1,Barcarena/PA,-1.5107945,-48.6190679,200,157.44684
1,Barcelona/RN,-5.9514918,-35.9260284,76,1902.85428
D1,Barcelona/RN,-5.9514918,-35.9260284,3,75.11267
1,Barcelos/AM,-0.9729214,-62.925635,4148,15008.32188
D1,Barcelos/AM,-0.9729214,-62.925635,57,206.23779
1,Bariri/SP,-22.0746355,-48.7394852,2306,6485.17914
D1,Bariri/SP,-22.0746355,-48.7394852,94,264.35683
1,Barra Bonita/SC,-26.6526364,-53.4419581,152,9206.54149
D1,Barra Bonita/SC,-26.6526364,-53.4419581,1,60.56935
1,Barra Bonita/SP,-22.490859,-48.558349,2684,7429.55212
D1,Barra Bonita/SP,-22.490859,-48.558349,74,204.83862
1,Barra D'Alcântara/PI,-6.5209258,-42.1071089,105,2656.88259
D1,Barra D'Alcântara/PI,-6.5209258,-42.1071089,3,75.91093
1,Barra Funda/RS,-27.9230048,-53.0401045,411,16111.32889
D1,Barra Funda/RS,-27.9230048,-53.0401045,8,313.60251
1,Barra Longa/MG,-20.2833541,-43.0423516,261,5204.38684
D1,Barra Longa/MG,-20.2833541,-43.0423516,8,159.52144
1,Barra Mansa/RJ,-22.5394843,-44.1735129,13750,7439.14777
D1,Barra Mansa/RJ,-22.5394843,-44.1735129,481,260.23491
1,Barra Velha/SC,-26.6338203,-48.6835001,3718,12451.44005
D1,Barra Velha/SC,-26.6338203,-48.6835001,81,271.26591
1,Barra da Estiva/BA,-13.6269662,-41.3278287,1654,8111.02393
D1,Barra da Estiva/BA,-13.6269662,-41.3278287,16,78.46214
1,Barra de Guabiraba/PE,-8.4173522,-35.6626669,345,2377.67057
D1,Barra de Guabiraba/PE,-8.4173522,-35.6626669,14,96.48518
1,Barra de Santa Rosa/PB,-6.7218007,-36.0564638,876,5652.70698
D1,Barra de Santa Rosa/PB,-6.7218007,-36.0564638,5,32.26431
1,Barra de Santana/PB,-7.5230865,-35.9988518,349,4180.14133
D1,Barra de Santana/PB,-7.5230865,-35.9988518,5,59.88741
1,Barra de Santo Antônio/AL,-9.4038098,-35.5117693,334,2078.66567
D1,Barra de Santo Antônio/AL,-9.4038098,-35.5117693,19,118.24745
1,Barra de São Francisco/ES,-18.7570902,-40.8916119,4390,9760.11027
D1,Barra de São Francisco/ES,-18.7570902,-40.8916119,180,400.18675
1,Barra de São Miguel/AL,-9.8261357,-35.8837777,441,5263.78611
D1,Barra de São Miguel/AL,-9.8261357,-35.8837777,7,83.55216
1,Barra de São Miguel/PB,-7.7528088,-36.3170996,399,6578.73042
D1,Barra de São Miguel/PB,-7.7528088,-36.3170996,6,98.92828
1,Barra do Bugres/MT,-15.0683712,-57.1853688,2340,6627.58093
D1,Barra do Bugres/MT,-15.0683712,-57.1853688,55,155.77647
1,Barra do Chapéu/SP,-24.472203,-49.023784,226,3923.61111
D1,Barra do Chapéu/SP,-24.472203,-49.023784,1,17.36111
1,Barra do Choça/BA,-14.8638173,-40.5761637,1827,5854.08055
D1,Barra do Choça/BA,-14.8638173,-40.5761637,27,86.51351
1,Barra do Corda/MA,-5.496823,-45.248496,5215,5893.18808
D1,Barra do Corda/MA,-5.496823,-45.248496,53,59.89242
1,Barra do Garças/MT,-15.8916033,-52.2615413,6535,10689.45776
D1,Barra do Garças/MT,-15.8916033,-52.2615413,228,372.94512
1,Barra do Guarita/RS,-27.1888016,-53.7147086,108,3315.93491
D1,Barra do Guarita/RS,-27.1888016,-53.7147086,6,184.21861
1,Barra do Jacaré/PR,-23.1151788,-50.1813945,160,5753.32614
D1,Barra do Jacaré/PR,-23.1151788,-50.1813945,1,35.95829
1,Barra do Mendes/BA,-11.8053298,-42.057037,656,4742.28295
D1,Barra do Mendes/BA,-11.8053298,-42.057037,11,79.51999
1,Barra do Ouro/TO,-7.7113784,-47.6743925,114,2461.13990
D1,Barra do Ouro/TO,-7.7113784,-47.6743925,5,107.94473
1,Barra do Piraí/RJ,-22.4703403,-43.8263256,5266,5226.07280
D1,Barra do Piraí/RJ,-22.4703403,-43.8263256,292,289.78603
1,Barra do Quaraí/RS,-30.208947,-57.5505128,347,8209.13177
D1,Barra do Quaraí/RS,-30.208947,-57.5505128,4,94.62976
1,Barra do Ribeiro/RS,-30.2930206,-51.301437,996,7347.30009
D1,Barra do Ribeiro/RS,-30.2930206,-51.301437,46,339.33314
1,Barra do Rio Azul/RS,-27.4101581,-52.4117471,67,4048.33837
D1,Barra do Rio Azul/RS,-27.4101581,-52.4117471,1,60.42296
1,Barra do Rocha/BA,-14.2090974,-39.6004395,382,6806.84248
D1,Barra do Rocha/BA,-14.2090974,-39.6004395,5,89.09480
1,Barra do Turvo/SP,-24.756421,-48.5056942,504,6603.77358
D1,Barra do Turvo/SP,-24.756421,-48.5056942,13,170.33543
1,Barra dos Coqueiros/SE,-10.9075694,-37.0386249,5849,18910.44294
D1,Barra dos Coqueiros/SE,-10.9075694,-37.0386249,77,248.94924
1,Barra/BA,-11.0892702,-43.1420453,1793,3325.91356
D1,Barra/BA,-11.0892702,-43.1420453,31,57.50325
1,Barracão/PR,-26.252395,-53.6349576,1043,10114.42979
D1,Barracão/PR,-26.252395,-53.6349576,27,261.83088
1,Barracão/RS,-27.6728964,-51.4582928,339,6449.77169
D1,Barracão/RS,-27.6728964,-51.4582928,12,228.31050
1,Barras/PI,-4.2446153,-42.2920241,4291,9093.99173
D1,Barras/PI,-4.2446153,-42.2920241,84,178.02268
1,Barreira/CE,-4.2883361,-38.641094,1174,5200.90373
D1,Barreira/CE,-4.2883361,-38.641094,32,141.76228
1,Barreiras do Piauí/PI,-9.9224524,-45.4763776,64,1909.30788
D1,Barreiras do Piauí/PI,-9.9224524,-45.4763776,1,29.83294
1,Barreiras/BA,-12.1440031,-44.9967406,14326,9126.29400
D1,Barreiras/BA,-12.1440031,-44.9967406,229,145.88310
1,Barreirinha/AM,-2.798863,-57.067897,2323,7151.43306
D1,Barreirinha/AM,-2.798863,-57.067897,61,187.79054
1,Barreirinhas/MA,-2.7541271,-42.8259693,1872,2961.22878
D1,Barreirinhas/MA,-2.7541271,-42.8259693,34,53.78300
1,Barreiros/PE,-8.8159644,-35.1831905,729,1704.70489
D1,Barreiros/PE,-8.8159644,-35.1831905,51,119.25919
1,Barretos/SP,-20.5531437,-48.5697509,11241,9151.44953
D1,Barretos/SP,-20.5531437,-48.5697509,345,280.86915
1,Barrinha/SP,-21.1898849,-48.1550642,1312,3954.18927
D1,Barrinha/SP,-21.1898849,-48.1550642,53,159.73478
1,Barro Alto/BA,-11.7618025,-41.9094904,750,4982.06457
D1,Barro Alto/BA,-11.7618025,-41.9094904,8,53.14202
1,Barro Alto/GO,-14.9696025,-48.9190985,1227,10755.61010
D1,Barro Alto/GO,-14.9696025,-48.9190985,14,122.72090
1,Barro Duro/PI,-5.8180139,-42.5106589,660,9392.34382
D1,Barro Duro/PI,-5.8180139,-42.5106589,9,128.07742
1,Barro Preto/BA,-14.8068289,-39.4727588,561,10297.35683
D1,Barro Preto/BA,-14.8068289,-39.4727588,10,183.55360
1,Barro/CE,-7.1713587,-38.7742136,947,4161.17409
D1,Barro/CE,-7.1713587,-38.7742136,18,79.09307
1,Barrocas/BA,-11.5165,-39.099282894736845,696,4321.63924
D1,Barrocas/BA,-11.5165,-39.099282894736845,19,117.97578
1,Barrolândia/TO,-9.837246,-48.7264346,702,12422.58007
D1,Barrolândia/TO,-9.837246,-48.7264346,19,336.22368
1,Barroquinha/CE,-3.0200371,-41.1339229,938,6235.04387
D1,Barroquinha/CE,-3.0200371,-41.1339229,24,159.53204
1,Barros Cassal/RS,-29.094938,-52.5832366,540,4829.18977
D1,Barros Cassal/RS,-29.094938,-52.5832366,7,62.60061
1,Barroso/MG,-21.187222,-43.976111,1317,6302.34005
D1,Barroso/MG,-21.187222,-43.976111,29,138.77590
1,Barueri/SP,-23.5112184,-46.8764612,23941,8643.52196
D1,Barueri/SP,-23.5112184,-46.8764612,906,327.09707
1,Barão de Antonina/SP,-23.6295651,-49.5632104,248,7089.76558
D1,Barão de Antonina/SP,-23.6295651,-49.5632104,7,200.11435
1,Barão de Cocais/MG,-19.9452437,-43.4870298,3262,9925.15061
D1,Barão de Cocais/MG,-19.9452437,-43.4870298,52,158.21822
1,Barão de Cotegipe/RS,-27.6214694,-52.3765316,576,8700.90634
D1,Barão de Cotegipe/RS,-27.6214694,-52.3765316,6,90.63444
1,Barão de Grajaú/MA,-6.7542591,-43.0263477,338,1786.09174
D1,Barão de Grajaú/MA,-6.7542591,-43.0263477,2,10.56859
1,Barão de Melgaço/MT,-16.195776,-55.9668049,320,3919.64723
D1,Barão de Melgaço/MT,-16.195776,-55.9668049,13,159.23567
1,Barão de Monte Alto/MG,-21.244722,-42.2375,190,3548.74860
D1,Barão de Monte Alto/MG,-21.244722,-42.2375,8,149.42099
1,Barão do Triunfo/RS,-30.3909877,-51.7375349,395,5253.35816
D1,Barão do Triunfo/RS,-30.3909877,-51.7375349,6,79.79785
1,Barão/RS,-29.372474,-51.494908,501,8078.03934
D1,Barão/RS,-29.372474,-51.494908,8,128.99065
1,Bastos/SP,-21.9222474,-50.7317727,842,4018.51763
D1,Bastos/SP,-21.9222474,-50.7317727,28,133.63242
1,Bataguassu/MS,-21.715899,-52.422058,2330,9989.28189
D1,Bataguassu/MS,-21.715899,-52.422058,27,115.75563
1,Batalha/AL,-9.6733809,-37.1265481,948,5169.59319
D1,Batalha/AL,-9.6733809,-37.1265481,15,81.79736
1,Batalha/PI,-4.022391,-42.0780926,907,3371.12061
D1,Batalha/PI,-4.022391,-42.0780926,30,111.50344
1,Batatais/SP,-20.892867,-47.592149,2309,3666.24325
D1,Batatais/SP,-20.892867,-47.592149,105,166.71959
1,Batayporã/MS,-22.2976466,-53.2685608,698,6150.32161
D1,Batayporã/MS,-22.2976466,-53.2685608,12,105.73619
1,Baturité/CE,-4.3290203,-38.8821055,3115,8666.98200
D1,Baturité/CE,-4.3290203,-38.8821055,67,186.41663
1,Bauru/SP,-22.3218102,-49.0705863,37338,9844.00088
D1,Bauru/SP,-22.3218102,-49.0705863,820,216.18942
1,Bayeux/PB,-7.1301631,-34.936532,6112,6287.87177
D1,Bayeux/PB,-7.1301631,-34.936532,218,224.27291
1,Baía Formosa/RN,-6.3691885,-35.0063741,314,3368.37589
D1,Baía Formosa/RN,-6.3691885,-35.0063741,8,85.81849
1,Baía da Traição/PB,-6.691258,-34.9371244,1213,13335.53210
D1,Baía da Traição/PB,-6.691258,-34.9371244,11,120.93228
1,Bebedouro/SP,-20.949077,-48.479083,3431,4423.95719
D1,Bebedouro/SP,-20.949077,-48.479083,102,131.51957
1,Beberibe/CE,-4.1810469,-38.1298101,3802,7047.39662
D1,Beberibe/CE,-4.1810469,-38.1298101,95,176.09224
1,Bela Cruz/CE,-3.0529129,-40.167582,3063,9360.67478
D1,Bela Cruz/CE,-3.0529129,-40.167582,60,183.36288
1,Bela Vista da Caroba/PR,-25.8792818,-53.6672545,159,4599.36361
D1,Bela Vista da Caroba/PR,-25.8792818,-53.6672545,5,144.63408
1,Bela Vista de Goiás/GO,-16.9692949,-48.9513071,2169,7113.34120
D1,Bela Vista de Goiás/GO,-16.9692949,-48.9513071,56,183.65473
1,Bela Vista de Minas/MG,-19.8289721,-43.0973688,693,6753.06958
D1,Bela Vista de Minas/MG,-19.8289721,-43.0973688,20,194.89378
1,Bela Vista do Maranhão/MA,-3.7416367,-45.2514192,199,1764.34081
D1,Bela Vista do Maranhão/MA,-3.7416367,-45.2514192,15,132.99051
1,Bela Vista do Paraíso/PR,-22.9948493,-51.1907996,1659,10773.42685
D1,Bela Vista do Paraíso/PR,-22.9948493,-51.1907996,58,376.64783
1,Bela Vista do Piauí/PI,-7.9716353,-41.8715061,233,5781.63772
D1,Bela Vista do Piauí/PI,-7.9716353,-41.8715061,6,148.88337
1,Bela Vista do Toldo/SC,-26.274625,-50.466354,68,1068.84627
D1,Bela Vista do Toldo/SC,-26.274625,-50.466354,2,31.43666
1,Bela Vista/MS,-22.107327,-56.5317344,731,2955.32646
D1,Bela Vista/MS,-22.107327,-56.5317344,20,80.85709
1,Belford Roxo/RJ,-22.7667284,-43.4033603,19475,3795.42327
D1,Belford Roxo/RJ,-22.7667284,-43.4033603,585,114.00886
1,Belmiro Braga/MG,-21.9486291,-43.413564,153,4467.15328
D1,Belmiro Braga/MG,-21.9486291,-43.413564,3,87.59124
1,Belmonte/BA,-15.8630837,-38.8792845,933,3980.88493
D1,Belmonte/BA,-15.8630837,-38.8792845,18,76.80164
1,Belmonte/SC,-26.8448262,-53.578916,213,7862.67996
D1,Belmonte/SC,-26.8448262,-53.578916,4,147.65596
1,Belo Campo/BA,-15.0338286,-41.2585109,706,4126.48314
D1,Belo Campo/BA,-15.0338286,-41.2585109,9,52.60389
1,Belo Horizonte/MG,-19.9227318,-43.9450948,192227,7623.32425
D1,Belo Horizonte/MG,-19.9227318,-43.9450948,4702,186.47157
1,Belo Jardim/PE,-8.3338293,-36.4176419,2850,3716.40565
D1,Belo Jardim/PE,-8.3338293,-36.4176419,87,113.44817
1,Belo Monte/AL,-9.8269944,-37.2787165,269,4008.94188
D1,Belo Monte/AL,-9.8269944,-37.2787165,7,104.32191
1,Belo Oriente/MG,-19.2232523,-42.4807033,2395,8872.34200
D1,Belo Oriente/MG,-19.2232523,-42.4807033,58,214.86256
1,Belo Vale/MG,-20.407778,-44.024167,611,7915.53310
D1,Belo Vale/MG,-20.407778,-44.024167,10,129.55046
1,Belterra/PA,-2.636091,-54.937392,1268,7108.02175
D1,Belterra/PA,-2.636091,-54.937392,24,134.53669
1,Belágua/MA,-3.1604031,-43.5085052,325,4317.21573
D1,Belágua/MA,-3.1604031,-43.5085052,3,39.85122
1,Belém de Maria/PE,-8.6242497,-35.8388934,199,1641.64329
D1,Belém de Maria/PE,-8.6242497,-35.8388934,6,49.49678
1,Belém do Brejo do Cruz/PB,-6.1880727,-37.5332267,487,6626.75194
D1,Belém do Brejo do Cruz/PB,-6.1880727,-37.5332267,5,68.03647
1,Belém do Piauí/PI,-7.3767305,-40.9712156,436,12155.00418
D1,Belém do Piauí/PI,-7.3767305,-40.9712156,7,195.14915
1,Belém do São Francisco/PE,-8.7517707,-38.9625715,579,2793.05355
D1,Belém do São Francisco/PE,-8.7517707,-38.9625715,9,43.41534
1,Belém/AL,-9.5715351,-36.492841,105,2450.98039
D1,Belém/AL,-9.5715351,-36.492841,3,70.02801
1,Belém/PA,-1.45056,-48.4682453,98222,6549.70090
D1,Belém/PA,-1.45056,-48.4682453,4645,309.74080
1,Belém/PB,-6.6967586,-35.5369626,1865,10533.74753
D1,Belém/PB,-6.6967586,-35.5369626,31,175.09178
1,Beneditinos/PI,-5.4565671,-42.3605061,993,9481.52392
D1,Beneditinos/PI,-5.4565671,-42.3605061,34,324.64432
1,Benedito Leite/MA,-7.2173453,-44.5523331,295,5232.35190
D1,Benedito Leite/MA,-7.2173453,-44.5523331,2,35.47357
1,Benedito Novo/SC,-26.7840657,-49.3629511,919,7804.67091
D1,Benedito Novo/SC,-26.7840657,-49.3629511,16,135.88110
1,Benevides/PA,-1.3555577,-48.252235,3666,5748.96500
D1,Benevides/PA,-1.3555577,-48.252235,92,144.27299
1,Benjamin Constant do Sul/RS,-27.5105555,-52.6007689,152,7763.02349
1,Benjamin Constant/AM,-4.3782748,-70.0290603,2680,6099.92034
D1,Benjamin Constant/AM,-4.3782748,-70.0290603,85,193.46762
1,Bento Fernandes/RN,-5.6926846,-35.8207423,125,2262.44344
D1,Bento Fernandes/RN,-5.6926846,-35.8207423,3,54.29864
1,Bento Gonçalves/RS,-29.1654014,-51.5197627,15113,12407.74037
D1,Bento Gonçalves/RS,-29.1654014,-51.5197627,267,219.20642
1,Bento de Abreu/SP,-21.2707225,-50.8120444,259,8618.96839
1,Bequimão/MA,-2.4495376,-44.7884889,275,1291.14043
D1,Bequimão/MA,-2.4495376,-44.7884889,17,79.81595
1,Berilo/MG,-16.9515764,-42.4643732,131,1103.43666
D1,Berilo/MG,-16.9515764,-42.4643732,1,8.42318
1,Berizal/MG,-15.6118785,-41.7417382,110,2308.98405
D1,Berizal/MG,-15.6118785,-41.7417382,1,20.99076
1,Bernardino Batista/PB,-6.4532173,-38.5495418,232,6561.08597
1,Bernardino de Campos/SP,-23.0140216,-49.4760724,435,3898.54813
D1,Bernardino de Campos/SP,-23.0140216,-49.4760724,8,71.69744
1,Bernardo Sayão/TO,-7.8794244,-48.8968905,440,9892.08633
D1,Bernardo Sayão/TO,-7.8794244,-48.8968905,6,134.89209
1,Bernardo do Mearim/MA,-4.6315929,-44.7617508,268,4412.97547
D1,Bernardo do Mearim/MA,-4.6315929,-44.7617508,6,98.79796
1,Bertioga/SP,-23.848568,-46.139586,4942,7635.61640
D1,Bertioga/SP,-23.848568,-46.139586,123,190.04063
1,Bertolínia/PI,-7.6372159,-43.9540611,802,14563.28309
D1,Bertolínia/PI,-7.6372159,-43.9540611,10,181.58707
1,Bertópolis/MG,-17.063333,-40.573889,270,5860.64684
1,Beruri/AM,-3.9007135,-61.3717319,2127,10585.77614
D1,Beruri/AM,-3.9007135,-61.3717319,31,154.28259
1,Betim/MG,-19.968056,-44.198333,25735,5785.95453
D1,Betim/MG,-19.968056,-44.198333,947,212.91233
1,Betânia do Piauí/PI,-8.1460635,-40.7961387,157,2528.18035
D1,Betânia do Piauí/PI,-8.1460635,-40.7961387,2,32.20612
1,Betânia/PE,-8.2742779,-38.0351767,403,3157.07011
D1,Betânia/PE,-8.2742779,-38.0351767,10,78.33921
1,Bezerros/PE,-8.2372132,-35.7558262,3327,5464.84888
D1,Bezerros/PE,-8.2372132,-35.7558262,98,160.97240
1,Bias Fortes/MG,-21.605833,-43.756944,99,2973.86603
D1,Bias Fortes/MG,-21.605833,-43.756944,2,60.07810
1,Bicas/MG,-21.7213723,-43.0604327,1138,7819.15625
D1,Bicas/MG,-21.7213723,-43.0604327,35,240.48372
1,Biguaçu/SC,-27.4961277,-48.6542432,10286,14802.98190
D1,Biguaçu/SC,-27.4961277,-48.6542432,151,217.30996
1,Bilac/SP,-21.403962,-50.47464,730,8993.47049
D1,Bilac/SP,-21.403962,-50.47464,13,160.15769
1,Biquinhas/MG,-18.783611,-45.502222,104,4163.33066
D1,Biquinhas/MG,-18.783611,-45.502222,1,40.03203
1,Birigui/SP,-21.2908491,-50.34144,11689,9359.96092
D1,Birigui/SP,-21.2908491,-50.34144,415,332.31104
1,Biritiba Mirim/SP,-23.5697765,-46.0407456,1087,3300.34005
D1,Biritiba Mirim/SP,-23.5697765,-46.0407456,70,212.53340
1,Biritinga/BA,-11.6227908,-38.8066738,331,2070.82082
D1,Biritinga/BA,-11.6227908,-38.8066738,6,37.53754
1,Bituruna/PR,-26.161281,-51.5533319,664,4048.78049
D1,Bituruna/PR,-26.161281,-51.5533319,10,60.97561
1,Blumenau/SC,-26.9195567,-49.0658025,45294,12517.16848
D1,Blumenau/SC,-26.9195567,-49.0658025,515,142.32220
1,Boa Esperança do Iguaçu/PR,-25.6362851,-53.2139114,139,5627.53036
1,Boa Esperança do Sul/SP,-21.9930206,-48.3917372,787,5240.37821
D1,Boa Esperança do Sul/SP,-21.9930206,-48.3917372,11,73.24544
1,Boa Esperança/ES,-18.5395472,-40.2904088,1223,8103.63106
D1,Boa Esperança/ES,-18.5395472,-40.2904088,36,238.53697
1,Boa Esperança/MG,-21.0901253,-45.5660195,3046,7573.53490
D1,Boa Esperança/MG,-21.0901253,-45.5660195,87,216.31567
1,Boa Esperança/PR,-24.2411024,-52.7860277,263,6498.64097
D1,Boa Esperança/PR,-24.2411024,-52.7860277,7,172.96763
1,Boa Hora/PI,-4.4094627,-42.1255341,488,7160.67498
D1,Boa Hora/PI,-4.4094627,-42.1255341,5,73.36757
1,Boa Nova/BA,-14.365907,-40.2063056,766,6212.99375
D1,Boa Nova/BA,-14.365907,-40.2063056,11,89.22054
1,Boa Ventura de São Roque/PR,-24.88177,-51.5441292,370,5813.04006
D1,Boa Ventura de São Roque/PR,-24.88177,-51.5441292,5,78.55460
1,Boa Ventura/PB,-7.4202462,-38.2156782,291,5483.32391
D1,Boa Ventura/PB,-7.4202462,-38.2156782,5,94.21519
1,Boa Viagem/CE,-5.1261877,-39.7300055,3119,5714.86157
D1,Boa Viagem/CE,-5.1261877,-39.7300055,81,148.41417
1,Boa Vista da Aparecida/PR,-25.4357216,-53.4067721,731,9694.96021
D1,Boa Vista da Aparecida/PR,-25.4357216,-53.4067721,20,265.25199
1,Boa Vista das Missões/RS,-27.6677983,-53.3127622,129,6166.34799
D1,Boa Vista das Missões/RS,-27.6677983,-53.3127622,4,191.20459
1,Boa Vista do Buricá/RS,-27.6687782,-54.1111913,618,9207.38975
D1,Boa Vista do Buricá/RS,-27.6687782,-54.1111913,8,119.18951
1,Boa Vista do Cadeado/RS,-28.5783827,-53.8123759,145,5875.20259
D1,Boa Vista do Cadeado/RS,-28.5783827,-53.8123759,2,81.03728
1,Boa Vista do Gurupi/MA,-1.7981168,-46.3071882,15,178.95490
D1,Boa Vista do Gurupi/MA,-1.7981168,-46.3071882,4,47.72131
1,Boa Vista do Incra/RS,-28.8195551,-53.3866624,225,8600.91743
D1,Boa Vista do Incra/RS,-28.8195551,-53.3866624,3,114.67890
1,Boa Vista do Ramos/AM,-2.9716927,-57.5869819,878,4473.65739
D1,Boa Vista do Ramos/AM,-2.9716927,-57.5869819,11,56.04810
1,Boa Vista do Sul/RS,-29.3510488,-51.6779679,253,9107.27142
D1,Boa Vista do Sul/RS,-29.3510488,-51.6779679,3,107.99136
1,Boa Vista do Tupim/BA,-12.6605988,-40.6083594,201,1084.66893
D1,Boa Vista do Tupim/BA,-12.6605988,-40.6083594,4,21.58545
1,Boa Vista/PB,-7.2620711,-36.2415161,549,7693.38565
D1,Boa Vista/PB,-7.2620711,-36.2415161,9,126.12108
1,Boa Vista/RR,2.8208478,-60.6719582,76212,18160.76177
D1,Boa Vista/RR,2.8208478,-60.6719582,1208,287.85756
1,Boca da Mata/AL,-9.6452054,-36.2116658,1649,6027.92806
D1,Boca da Mata/AL,-9.6452054,-36.2116658,41,149.87571
1,Boca do Acre/AM,-8.7553487,-67.3930873,2499,7215.24469
D1,Boca do Acre/AM,-8.7553487,-67.3930873,22,63.51956
1,Bocaina de Minas/MG,-22.167778,-44.394722,159,3124.38593
D1,Bocaina de Minas/MG,-22.167778,-44.394722,5,98.25113
1,Bocaina do Sul/SC,-27.745494,-49.942279,361,10349.77064
D1,Bocaina do Sul/SC,-27.745494,-49.942279,3,86.00917
1,Bocaina/PI,-6.9445939,-41.3224599,235,5216.42619
D1,Bocaina/PI,-6.9445939,-41.3224599,3,66.59267
1,Bocaina/SP,-22.1421831,-48.522276,1097,8809.82975
D1,Bocaina/SP,-22.1421831,-48.522276,26,208.80180
1,Bocaiúva do Sul/PR,-25.206591,-49.114131,1538,11714.52510
D1,Bocaiúva do Sul/PR,-25.206591,-49.114131,13,99.01744
1,Bocaiúva/MG,-17.1160208,-43.8122678,1841,3663.24419
D1,Bocaiúva/MG,-17.1160208,-43.8122678,47,93.52117
1,Bodocó/PE,-7.777592,-39.933797,1650,4299.33816
D1,Bodocó/PE,-7.777592,-39.933797,25,65.14149
1,Bodoquena/MS,-20.5508775,-56.6769653,289,3687.16509
D1,Bodoquena/MS,-20.5508775,-56.6769653,11,140.34192
1,Bodó/RN,-5.9866104,-36.4134824,109,4961.31088
1,Bofete/SP,-23.1019554,-48.2610535,593,4974.41490
D1,Bofete/SP,-23.1019554,-48.2610535,13,109.05125
1,Boituva/SP,-23.2838893,-47.6738231,4430,7125.62329
D1,Boituva/SP,-23.2838893,-47.6738231,110,176.93421
1,Bom Conselho/PE,-9.169191,-36.685683,1393,2856.43981
D1,Bom Conselho/PE,-9.169191,-36.685683,46,94.32608
1,Bom Despacho/MG,-19.7375242,-45.2517288,2989,5857.56839
D1,Bom Despacho/MG,-19.7375242,-45.2517288,65,127.38105
1,Bom Jardim da Serra/SC,-28.3380324,-49.625588,558,11693.21039
D1,Bom Jardim da Serra/SC,-28.3380324,-49.625588,4,83.82230
1,Bom Jardim de Goiás/GO,-16.2062659,-52.172793,623,7024.46725
D1,Bom Jardim de Goiás/GO,-16.2062659,-52.172793,14,157.85320
1,Bom Jardim de Minas/MG,-21.9476466,-44.1906033,378,5852.29912
D1,Bom Jardim de Minas/MG,-21.9476466,-44.1906033,1,15.48227
1,Bom Jardim/MA,-3.54129,-45.606004,1260,3012.76840
D1,Bom Jardim/MA,-3.54129,-45.606004,42,100.42561
1,Bom Jardim/PE,-7.7961572,-35.5871696,1132,2831.20326
D1,Bom Jardim/PE,-7.7961572,-35.5871696,53,132.55634
1,Bom Jardim/RJ,-22.1515328,-42.4186683,1340,4852.25956
D1,Bom Jardim/RJ,-22.1515328,-42.4186683,34,123.11703
1,Bom Jesus da Lapa/BA,-13.250571,-43.410754,3866,5549.65404
D1,Bom Jesus da Lapa/BA,-13.250571,-43.410754,55,78.95266
1,Bom Jesus da Penha/MG,-21.0165299,-46.5226644,367,8647.50236
D1,Bom Jesus da Penha/MG,-21.0165299,-46.5226644,8,188.50141
1,Bom Jesus da Serra/BA,-14.3724084,-40.5047119,415,4224.77858
D1,Bom Jesus da Serra/BA,-14.3724084,-40.5047119,8,81.44151
1,Bom Jesus das Selvas/MA,-4.4878075,-46.8526639,2798,8094.42532
D1,Bom Jesus das Selvas/MA,-4.4878075,-46.8526639,23,66.53745
1,Bom Jesus de Goiás/GO,-18.2174587,-49.739721,2451,9556.30069
D1,Bom Jesus de Goiás/GO,-18.2174587,-49.739721,97,378.19713
1,Bom Jesus do Amparo/MG,-19.7045132,-43.4752911,183,2983.85782
D1,Bom Jesus do Amparo/MG,-19.7045132,-43.4752911,6,97.83140
1,Bom Jesus do Araguaia/MT,-12.1725897,-51.5074425,880,13122.57680
D1,Bom Jesus do Araguaia/MT,-12.1725897,-51.5074425,14,208.76827
1,Bom Jesus do Galho/MG,-19.8283191,-42.3162256,543,3653.61324
D1,Bom Jesus do Galho/MG,-19.8283191,-42.3162256,24,161.48567
1,Bom Jesus do Itabapoana/RJ,-21.1341025,-41.680095,2768,7440.26019
D1,Bom Jesus do Itabapoana/RJ,-21.1341025,-41.680095,73,196.22073
1,Bom Jesus do Norte/ES,-21.1254776,-41.6711646,878,8813.49127
D1,Bom Jesus do Norte/ES,-21.1254776,-41.6711646,21,210.80104
1,Bom Jesus do Oeste/SC,-26.6929713,-53.0967453,155,7246.37681
D1,Bom Jesus do Oeste/SC,-26.6929713,-53.0967453,5,233.75409
1,Bom Jesus do Sul/PR,-26.1922507,-53.6002033,301,8585.28237
D1,Bom Jesus do Sul/PR,-26.1922507,-53.6002033,3,85.56760
1,Bom Jesus do Tocantins/PA,-5.0471796,-48.5978362,729,4258.67508
D1,Bom Jesus do Tocantins/PA,-5.0471796,-48.5978362,24,140.20329
1,Bom Jesus do Tocantins/TO,-8.96306,-48.165043,124,2476.03834
D1,Bom Jesus do Tocantins/TO,-8.96306,-48.165043,3,59.90415
1,Bom Jesus dos Perdões/SP,-23.1353864,-46.4648052,1789,6884.74120
D1,Bom Jesus dos Perdões/SP,-23.1353864,-46.4648052,23,88.51260
1,Bom Jesus/PB,-6.8156725,-38.6551841,121,4699.02913
D1,Bom Jesus/PB,-6.8156725,-38.6551841,3,116.50485
1,Bom Jesus/PI,-9.0711644,-44.3583926,2934,11557.09615
D1,Bom Jesus/PI,-9.0711644,-44.3583926,29,114.23169
1,Bom Jesus/RN,-5.9887544,-35.5821149,654,6369.92305
D1,Bom Jesus/RN,-5.9887544,-35.5821149,13,126.61927
1,Bom Jesus/RS,-28.6692723,-50.4346894,656,5800.68972
D1,Bom Jesus/RS,-28.6692723,-50.4346894,15,132.63772
1,Bom Jesus/SC,-26.7350604,-52.3916519,329,10762.18515
D1,Bom Jesus/SC,-26.7350604,-52.3916519,6,196.27085
1,Bom Lugar/MA,-4.3728019,-45.0366054,444,2701.05852
D1,Bom Lugar/MA,-4.3728019,-45.0366054,7,42.58426
1,Bom Princípio do Piauí/PI,-3.1912777,-41.6430185,118,2088.12600
D1,Bom Princípio do Piauí/PI,-3.1912777,-41.6430185,11,194.65581
1,Bom Princípio/RS,-29.489788,-51.3566782,1440,10101.71870
D1,Bom Princípio/RS,-29.489788,-51.3566782,25,175.37706
1,Bom Progresso/RS,-27.5490948,-53.8655601,117,6161.13744
D1,Bom Progresso/RS,-27.5490948,-53.8655601,3,157.97788
1,Bom Repouso/MG,-22.4657069,-46.1485376,743,7051.34289
D1,Bom Repouso/MG,-22.4657069,-46.1485376,18,170.82661
1,Bom Retiro do Sul/RS,-29.6000007,-51.9359243,912,7360.77482
D1,Bom Retiro do Sul/RS,-29.6000007,-51.9359243,24,193.70460
1,Bom Retiro/SC,-27.798993,-49.486994,638,6341.94831
D1,Bom Retiro/SC,-27.798993,-49.486994,14,139.16501
1,Bom Sucesso de Itararé/SP,-24.3190016,-49.1446207,121,3037.14859
D1,Bom Sucesso de Itararé/SP,-24.3190016,-49.1446207,5,125.50201
1,Bom Sucesso do Sul/PR,-26.0749256,-52.8348629,335,10295.02151
D1,Bom Sucesso do Sul/PR,-26.0749256,-52.8348629,6,184.38844
1,Bom Sucesso/MG,-21.0323516,-44.7598082,586,3328.22173
D1,Bom Sucesso/MG,-21.0323516,-44.7598082,4,22.71824
1,Bom Sucesso/PB,-6.4458948,-37.9297662,203,4096.04520
D1,Bom Sucesso/PB,-6.4458948,-37.9297662,2,40.35513
1,Bom Sucesso/PR,-23.7088019,-51.7651297,664,9394.45388
D1,Bom Sucesso/PR,-23.7088019,-51.7651297,12,169.77929
1,Bombinhas/SC,-27.1519159,-48.4875691,3308,16267.51906
D1,Bombinhas/SC,-27.1519159,-48.4875691,51,250.79911
1,Bonfim do Piauí/PI,-9.1648678,-42.8734415,295,5189.09411
D1,Bonfim do Piauí/PI,-9.1648678,-42.8734415,6,105.54090
1,Bonfim/MG,-20.3266626, -44.2386157,346,5043.73178
D1,Bonfim/MG,-20.3266626, -44.2386157,14,204.08163
1,Bonfim/RR,3.3613818,-59.8427241,2192,17456.39882
D1,Bonfim/RR,3.3613818,-59.8427241,24,191.12845
1,Bonfinópolis de Minas/MG,-16.5660011,-45.98645,379,6961.79280
D1,Bonfinópolis de Minas/MG,-16.5660011,-45.98645,11,202.05731
1,Bonfinópolis/GO,-16.6172709,-48.9615701,444,4476.25769
D1,Bonfinópolis/GO,-16.6172709,-48.9615701,16,161.30658
1,Boninal/BA,-12.7095183,-41.8299984,570,3945.72892
D1,Boninal/BA,-12.7095183,-41.8299984,7,48.45632
1,Bonito de Minas/MG,-15.3191266,-44.7544,43,378.22148
1,Bonito de Santa Fé/PB,-7.3143332,-38.5146677,414,3443.68657
D1,Bonito de Santa Fé/PB,-7.3143332,-38.5146677,11,91.49892
1,Bonito/BA,-11.9665473,-41.2649896,685,4057.09548
D1,Bonito/BA,-11.9665473,-41.2649896,10,59.22767
1,Bonito/MS,-21.1264766,-56.4902208,2324,10473.18612
D1,Bonito/MS,-21.1264766,-56.4902208,48,216.31365
1,Bonito/PA,-1.3605722,-47.3049907,358,2165.75923
D1,Bonito/PA,-1.3605722,-47.3049907,12,72.59528
1,Bonito/PE,-8.4721161,-35.7314591,661,1734.13438
D1,Bonito/PE,-8.4721161,-35.7314591,34,89.19905
1,Bonópolis/GO,-13.649331,-49.8329113,143,3182.72869
D1,Bonópolis/GO,-13.649331,-49.8329113,1,22.25684
1,Boqueirão do Leão/RS,-29.30332,-52.4296817,554,7192.93690
D1,Boqueirão do Leão/RS,-29.30332,-52.4296817,28,363.54194
1,Boqueirão do Piauí/PI,-4.4850148,-42.1095161,514,7998.75506
D1,Boqueirão do Piauí/PI,-4.4850148,-42.1095161,9,140.05602
1,Boqueirão/PB,-7.487004,-36.130887,1320,7386.68159
D1,Boqueirão/PB,-7.487004,-36.130887,23,128.70733
1,Boquim/SE,-11.1450175,-37.6204228,1986,7383.17410
D1,Boquim/SE,-11.1450175,-37.6204228,48,178.44530
1,Boquira/BA,-12.8184859,-42.7270883,473,2200.30702
D1,Boquira/BA,-12.8184859,-42.7270883,10,46.51812
1,Boracéia/SP,-22.195355,-48.7801925,798,16392.76910
D1,Boracéia/SP,-22.195355,-48.7801925,20,410.84634
1,Borba/AM,-4.3934778,-59.5947721,1931,4625.37128
D1,Borba/AM,-4.3934778,-59.5947721,54,129.34751
1,Borborema/PB,-6.8066718,-35.5990191,346,6544.35408
D1,Borborema/PB,-6.8066718,-35.5990191,11,208.05750
1,Borborema/SP,-21.6212706,-49.074135,1110,6867.11210
D1,Borborema/SP,-21.6212706,-49.074135,36,222.71715
1,Borda da Mata/MG,-22.274167,-46.165278,1144,5832.56857
D1,Borda da Mata/MG,-22.274167,-46.165278,37,188.64077
1,Borebi/SP,-22.5700178,-48.9714871,142,5292.58293
D1,Borebi/SP,-22.5700178,-48.9714871,2,74.54342
1,Borrazópolis/PR,-23.9393362,-51.5850786,547,8495.10794
D1,Borrazópolis/PR,-23.9393362,-51.5850786,19,295.07688
1,Borá/SP,-22.2701088,-50.544407,88,10501.19332
D1,Borá/SP,-22.2701088,-50.544407,1,119.33174
1,Bossoroca/RS,-28.7278885,-54.9120278,368,5930.70105
D1,Bossoroca/RS,-28.7278885,-54.9120278,19,306.20467
1,Botelhos/MG,-21.65,-46.394722,1251,8368.45274
D1,Botelhos/MG,-21.65,-46.394722,16,107.03057
1,Botucatu/SP,-22.8879628,-48.4410712,11570,7810.70681
D1,Botucatu/SP,-22.8879628,-48.4410712,211,142.44245
1,Botumirim/MG,-16.862778,-43.011111,190,3021.62850
D1,Botumirim/MG,-16.862778,-43.011111,3,47.70992
1,Botuporã/BA,-13.3744752,-42.5198469,188,1856.05687
D1,Botuporã/BA,-13.3744752,-42.5198469,3,29.61793
1,Botuverá/SC,-27.200749,-49.068892,845,15877.48967
D1,Botuverá/SC,-27.200749,-49.068892,8,150.31943
1,Bozano/RS,-28.3669953,-53.7705165,211,9995.26291
D1,Bozano/RS,-28.3669953,-53.7705165,7,331.59640
1,Braga/RS,-27.617348,-53.740514,192,5798.85231
D1,Braga/RS,-27.617348,-53.740514,5,151.01178
1,Braganey/PR,-24.8179919,-53.118506,317,5890.00372
D1,Braganey/PR,-24.8179919,-53.118506,7,130.06317
1,Bragança Paulista/SP,-22.9520235,-46.5418586,13651,8004.90228
D1,Bragança Paulista/SP,-22.9520235,-46.5418586,391,229.28114
1,Bragança/PA,-1.0573967,-46.7635406,3865,2998.12278
D1,Bragança/PA,-1.0573967,-46.7635406,123,95.41245
1,Branquinha/AL,-9.2478057,-36.0152009,469,4483.74761
D1,Branquinha/AL,-9.2478057,-36.0152009,9,86.04207
1,Brasil Novo/PA,-3.3055853,-52.539198,1598,10665.42081
D1,Brasil Novo/PA,-3.3055853,-52.539198,37,246.94654
1,Brasileira/PI,-4.131182,-41.7824969,486,5822.45118
D1,Brasileira/PI,-4.131182,-41.7824969,9,107.82317
1,Brasilândia de Minas/MG,-17.0096469,-46.0087183,972,5803.67805
D1,Brasilândia de Minas/MG,-17.0096469,-46.0087183,13,77.62121
1,Brasilândia do Sul/PR,-24.1975793,-53.527551,339,13114.11992
D1,Brasilândia do Sul/PR,-24.1975793,-53.527551,8,309.47776
1,Brasilândia do Tocantins/TO,-8.3886619,-48.4842729,148,6693.80371
D1,Brasilândia do Tocantins/TO,-8.3886619,-48.4842729,4,180.91361
1,Brasilândia/MS,-21.255575,-52.0365617,813,6859.02303
D1,Brasilândia/MS,-21.255575,-52.0365617,14,118.11356
1,Brasiléia/AC,-11.0010413,-68.7487894,2633,9860.68459
D1,Brasiléia/AC,-11.0010413,-68.7487894,36,134.82136
1,Brasnorte/MT,-12.1227151,-58.0050109,1758,8728.89772
D1,Brasnorte/MT,-12.1227151,-58.0050109,30,148.95730
1,Brasília de Minas/MG,-16.2075114,-44.430559,843,2601.45039
D1,Brasília de Minas/MG,-16.2075114,-44.430559,7,21.60160
1,Brasília/DF,-15.7934036,-47.8823172,393631,12884.18339
D1,Brasília/DF,-15.7934036,-47.8823172,8345,273.14543
1,Brazabrantes/GO,-16.4291635,-49.3858216,382,10197.54405
D1,Brazabrantes/GO,-16.4291635,-49.3858216,3,80.08542
1,Brazópolis/MG,-22.4742842,-45.6165577,726,5038.16794
D1,Brazópolis/MG,-22.4742842,-45.6165577,28,194.30951
1,Braço do Norte/SC,-28.2728633,-49.1622712,7199,21251.03318
D1,Braço do Norte/SC,-28.2728633,-49.1622712,78,230.25151
1,Braço do Trombudo/SC,-27.358578,-49.882145,571,15149.90714
D1,Braço do Trombudo/SC,-27.358578,-49.882145,4,106.12895
1,Braúna/SP,-21.5015319,-50.3175246,373,6497.12594
D1,Braúna/SP,-21.5015319,-50.3175246,19,330.95280
1,Braúnas/MG,-19.055556,-42.716111,194,4067.93877
D1,Braúnas/MG,-19.055556,-42.716111,7,146.78130
1,Brejetuba/ES,-20.1465817,-41.2902303,1479,11901.50479
D1,Brejetuba/ES,-20.1465817,-41.2902303,13,104.61093
1,Brejinho de Nazaré/TO,-11.0205883,-48.5722906,409,7410.76282
D1,Brejinho de Nazaré/TO,-11.0205883,-48.5722906,11,199.31147
1,Brejinho/PE,-7.3482153,-37.28538,600,8012.82051
D1,Brejinho/PE,-7.3482153,-37.28538,17,227.02991
1,Brejinho/RN,-6.1957907,-35.3583019,1028,8039.41503
D1,Brejinho/RN,-6.1957907,-35.3583019,9,70.38398
1,Brejo Alegre/SP,-21.1671191,-50.1850393,273,9449.63655
D1,Brejo Alegre/SP,-21.1671191,-50.1850393,11,380.75459
1,Brejo Grande do Araguaia/PA,-5.7011449,-48.4037308,757,10274.15852
D1,Brejo Grande do Araguaia/PA,-5.7011449,-48.4037308,4,54.28882
1,Brejo Grande/SE,-10.4287358,-36.4667918,352,4214.05483
D1,Brejo Grande/SE,-10.4287358,-36.4667918,12,143.66096
1,Brejo Santo/CE,-7.4909841,-38.9859152,7290,14626.21885
D1,Brejo Santo/CE,-7.4909841,-38.9859152,129,258.81786
1,Brejo da Madre de Deus/PE,-8.1409718,-36.3712527,1805,3523.67008
D1,Brejo da Madre de Deus/PE,-8.1409718,-36.3712527,47,91.75207
1,Brejo de Areia/MA,-4.3316785,-45.5833334,281,3117.37298
D1,Brejo de Areia/MA,-4.3316785,-45.5833334,8,88.75083
1,Brejo do Cruz/PB,-6.32926065,-37.48746163303929,1239,8721.66690
D1,Brejo do Cruz/PB,-6.32926065,-37.48746163303929,20,140.78558
1,Brejo do Piauí/PI,-8.207583,-42.8359849,62,1611.22661
D1,Brejo do Piauí/PI,-8.207583,-42.8359849,3,77.96258
1,Brejo dos Santos/PB,-6.3769367,-37.8243125,375,5801.36139
D1,Brejo dos Santos/PB,-6.3769367,-37.8243125,4,61.88119
1,Brejo/MA,-3.6804397,-42.7529313,836,2280.97460
D1,Brejo/MA,-3.6804397,-42.7529313,19,51.84033
1,Brejolândia/BA,-12.4843845,-43.9611861,129,1214.91806
D1,Brejolândia/BA,-12.4843845,-43.9611861,8,75.34376
1,Brejão/PE,-9.029146,-36.566034,193,2147.54646
D1,Brejão/PE,-9.029146,-36.566034,5,55.63592
1,Brejões/BA,-13.1033754,-39.7909837,566,3979.74968
D1,Brejões/BA,-13.1033754,-39.7909837,9,63.28224
1,Breu Branco/PA,-3.7785073,-49.5684795,616,914.86960
D1,Breu Branco/PA,-3.7785073,-49.5684795,43,63.86265
1,Breves/PA,-1.68036,-50.479085,3838,3708.32005
D1,Breves/PA,-1.68036,-50.479085,109,105.31706
1,Britânia/GO,-15.2427599,-51.1602061,474,8176.64309
D1,Britânia/GO,-15.2427599,-51.1602061,4,69.00121
1,Brochier/RS,-29.556766,-51.5963047,365,7151.25392
D1,Brochier/RS,-29.556766,-51.5963047,1,19.59248
1,Brodowski/SP,-20.984532,-47.657217,1912,7564.18879
D1,Brodowski/SP,-20.984532,-47.657217,48,189.89595
1,Brotas de Macaúbas/BA,-12.0019007,-42.6257506,72,710.76012
D1,Brotas de Macaúbas/BA,-12.0019007,-42.6257506,1,9.87167
1,Brotas/SP,-22.2840884,-48.1267265,463,1879.36353
D1,Brotas/SP,-22.2840884,-48.1267265,32,129.89122
1,Brumadinho/MG,-20.143611,-44.2,2958,7273.88974
D1,Brumadinho/MG,-20.143611,-44.2,69,169.67491
1,Brumado/BA,-14.29507325,-41.659307508575985,8327,12366.52558
D1,Brumado/BA,-14.29507325,-41.659307508575985,169,250.98389
1,Brunópolis/SC,-27.310953,-50.837585,244,10304.05405
D1,Brunópolis/SC,-27.310953,-50.837585,6,253.37838
1,Brusque/SC,-27.0964628,-48.9136323,23834,17310.02477
D1,Brusque/SC,-27.0964628,-48.9136323,240,174.30586
1,Brás Pires/MG,-20.8483109,-43.2430524,179,4169.57838
D1,Brás Pires/MG,-20.8483109,-43.2430524,6,139.76240
1,Bueno Brandão/MG,-22.441976,-46.3517971,575,5231.55309
D1,Bueno Brandão/MG,-22.441976,-46.3517971,21,191.06542
1,Buenos Aires/PE,-7.7218931,-35.326587,227,1721.00076
D1,Buenos Aires/PE,-7.7218931,-35.326587,19,144.04852
1,Buenópolis/MG,-17.8756607,-44.1749365,305,2946.00599
D1,Buenópolis/MG,-17.8756607,-44.1749365,10,96.59036
1,Buerarema/BA,-14.9571177,-39.3008035,1244,6795.58615
D1,Buerarema/BA,-14.9571177,-39.3008035,37,202.11952
1,Bugre/MG,-19.4257687,-42.2556,352,8837.55963
D1,Bugre/MG,-19.4257687,-42.2556,12,301.28044
1,Bujari/AC,-9.8309656,-67.9520886,1105,10604.60653
D1,Bujari/AC,-9.8309656,-67.9520886,14,134.35701
1,Bujaru/PA,-1.5169239,-48.0410699,1312,4458.49050
D1,Bujaru/PA,-1.5169239,-48.0410699,37,125.73487
1,Buri/SP,-23.79849,-48.598924,2167,10853.99449
D1,Buri/SP,-23.79849,-48.598924,59,295.51716
1,Buritama/SP,-21.0664017,-50.1448077,1919,11104.68144
D1,Buritama/SP,-21.0664017,-50.1448077,55,318.26862
1,Buriti Alegre/GO,-18.1377879,-49.0404411,823,8677.77309
D1,Buriti Alegre/GO,-18.1377879,-49.0404411,28,295.23408
1,Buriti Bravo/MA,-5.8391884,-43.8367876,1245,5200.71849
D1,Buriti Bravo/MA,-5.8391884,-43.8367876,12,50.12741
1,Buriti de Goiás/GO,-16.180644,-50.4287479,176,7108.23910
D1,Buriti de Goiás/GO,-16.180644,-50.4287479,8,323.10178
1,Buriti do Tocantins/TO,-5.3187439,-48.2256609,731,6358.18039
D1,Buriti do Tocantins/TO,-5.3187439,-48.2256609,8,69.58337
1,Buriti dos Lopes/PI,-3.1776723,-41.8707444,1198,6048.36674
D1,Buriti dos Lopes/PI,-3.1776723,-41.8707444,26,131.26672
1,Buriti dos Montes/PI,-5.3136171,-41.0971256,552,6679.57406
D1,Buriti dos Montes/PI,-5.3136171,-41.0971256,7,84.70474
1,Buriti/MA,-3.9430944,-42.9244281,751,2607.81999
D1,Buriti/MA,-3.9430944,-42.9244281,7,24.30724
1,Buriticupu/MA,-4.3227472,-46.4516989,2993,4100.95502
D1,Buriticupu/MA,-4.3227472,-46.4516989,39,53.43710
1,Buritinópolis/GO,-14.4589282,-46.4293104,158,4812.67134
D1,Buritinópolis/GO,-14.4589282,-46.4293104,2,60.91989
1,Buritirama/BA,-10.7148421,-43.6362327,805,3783.60594
D1,Buritirama/BA,-10.7148421,-43.6362327,19,89.30250
1,Buritirana/MA,-5.5897455,-47.0148915,361,2334.00142
D1,Buritirana/MA,-5.5897455,-47.0148915,23,148.70369
1,Buritis/MG,-15.621389,-46.423889,1410,5637.06872
D1,Buritis/MG,-15.621389,-46.423889,29,115.93971
1,Buritis/RO,-10.2054937,-63.8281954,4267,10573.39677
D1,Buritis/RO,-10.2054937,-63.8281954,62,153.63267
1,Buritizal/SP,-20.1933264,-47.7097165,242,5361.09880
D1,Buritizal/SP,-20.1933264,-47.7097165,10,221.53301
1,Buritizeiro/MG,-17.3667765,-44.9647781,990,3520.50069
D1,Buritizeiro/MG,-17.3667765,-44.9647781,28,99.56972
1,Butiá/RS,-30.1256795,-51.9692224,1730,8256.96831
D1,Butiá/RS,-30.1256795,-51.9692224,48,229.09507
1,Buíque/PE,-8.6239732,-37.157296,1848,3136.50945
D1,Buíque/PE,-8.6239732,-37.157296,38,64.49532
1,Bálsamo/SP,-20.7343722,-49.5807484,1320,14443.59339
D1,Bálsamo/SP,-20.7343722,-49.5807484,51,558.04793
0,CASO SEM LOCALIZAÇÃO DEFINIDA/BA,-13.415069300066518,-38.14174656569957,14123,94.95690
D0,CASO SEM LOCALIZAÇÃO DEFINIDA/BA,-13.415069300066518,-38.14174656569957,251,1.68761
0,CASO SEM LOCALIZAÇÃO DEFINIDA/CE,-3.3445126297392798,-38.624961942434304,9936,108.80328
D0,CASO SEM LOCALIZAÇÃO DEFINIDA/CE,-3.3445126297392798,-38.624961942434304,123,1.34690
0,CASO SEM LOCALIZAÇÃO DEFINIDA/ES,-20.30989267097039,-39.81745156645774,3839,95.52959
D0,CASO SEM LOCALIZAÇÃO DEFINIDA/ES,-20.30989267097039,-39.81745156645774,189,4.70307
0,CASO SEM LOCALIZAÇÃO DEFINIDA/GO,-16.701590966270153,-49.164524059025034,3252,46.33565
D0,CASO SEM LOCALIZAÇÃO DEFINIDA/GO,-16.701590966270153,-49.164524059025034,132,1.88078
0,CASO SEM LOCALIZAÇÃO DEFINIDA/MG,-19.97049116501593,-43.8852149072783,11399,53.84814
D0,CASO SEM LOCALIZAÇÃO DEFINIDA/MG,-19.97049116501593,-43.8852149072783,334,1.57779
0,CASO SEM LOCALIZAÇÃO DEFINIDA/MT,-15.54791153961863,-56.17143998972475,2892,82.99694
D0,CASO SEM LOCALIZAÇÃO DEFINIDA/MT,-15.54791153961863,-56.17143998972475,175,5.02229
0,CASO SEM LOCALIZAÇÃO DEFINIDA/PA,-0.09317078214359542,-48.0050231510481,2231,25.93322
D0,CASO SEM LOCALIZAÇÃO DEFINIDA/PA,-0.09317078214359542,-48.0050231510481,55,0.63932
0,CASO SEM LOCALIZAÇÃO DEFINIDA/PI,-2.683810218391744,-41.470898009352254,1505,45.97909
D0,CASO SEM LOCALIZAÇÃO DEFINIDA/PI,-2.683810218391744,-41.470898009352254,19,0.58047
0,CASO SEM LOCALIZAÇÃO DEFINIDA/PR,-25.69415946385943,-48.10141676336737,5749,50.28006
D0,CASO SEM LOCALIZAÇÃO DEFINIDA/PR,-25.69415946385943,-48.10141676336737,143,1.25066
0,CASO SEM LOCALIZAÇÃO DEFINIDA/RN,-5.749310788669161,-34.95302586257457,2287,65.21517
D0,CASO SEM LOCALIZAÇÃO DEFINIDA/RN,-5.749310788669161,-34.95302586257457,47,1.34023
0,CASO SEM LOCALIZAÇÃO DEFINIDA/RR,2.813328208465927,-60.663338675861986,2716,448.36165
D0,CASO SEM LOCALIZAÇÃO DEFINIDA/RR,2.813328208465927,-60.663338675861986,22,3.63180
0,CASO SEM LOCALIZAÇÃO DEFINIDA/SP,-24.30968974555485,-46.21366504207253,730,1.58975
1,Caapiranga/AM,-3.3188884,-61.2096404,572,4306.25612
D1,Caapiranga/AM,-3.3188884,-61.2096404,20,150.56840
1,Caaporã/PB,-7.510234,-34.9154114,1679,7647.46072
D1,Caaporã/PB,-7.510234,-34.9154114,29,132.08836
1,Caarapó/MS,-22.6349267,-54.8240903,2724,8903.99765
D1,Caarapó/MS,-22.6349267,-54.8240903,27,88.25548
1,Caatiba/BA,-14.9782759,-40.4092325,748,11528.97657
D1,Caatiba/BA,-14.9782759,-40.4092325,9,138.71763
1,Cabaceiras do Paraguaçu/BA,-12.5377868,-39.1901339,470,2485.32600
D1,Cabaceiras do Paraguaçu/BA,-12.5377868,-39.1901339,4,21.15171
1,Cabaceiras/PB,-7.4899156,-36.2860501,313,5529.05847
D1,Cabaceiras/PB,-7.4899156,-36.2860501,2,35.32945
1,Cabeceira Grande/MG,-16.0297,-47.0906,293,4192.90212
D1,Cabeceira Grande/MG,-16.0297,-47.0906,4,57.24098
1,Cabeceiras do Piauí/PI,-4.4733665,-42.3098716,468,4402.63405
D1,Cabeceiras do Piauí/PI,-4.4733665,-42.3098716,10,94.07338
1,Cabeceiras/GO,-15.7995459,-46.9264991,311,3865.27467
D1,Cabeceiras/GO,-15.7995459,-46.9264991,13,161.57097
1,Cabedelo/PB,-6.97324,-34.8351609,7739,11253.94448
D1,Cabedelo/PB,-6.97324,-34.8351609,173,251.57416
1,Cabixi/RO,-13.4956065,-60.5424442,664,12798.76638
D1,Cabixi/RO,-13.4956065,-60.5424442,18,346.95451
1,Cabo Frio/RJ,-22.8804369,-42.0189227,11077,4808.18481
D1,Cabo Frio/RJ,-22.8804369,-42.0189227,579,251.32608
1,Cabo Verde/MG,-21.4743338,-46.3964995,392,2785.07993
D1,Cabo Verde/MG,-21.4743338,-46.3964995,5,35.52398
1,Cabo de Santo Agostinho/PE,-8.2838945,-35.0320984,5175,2476.74018
D1,Cabo de Santo Agostinho/PE,-8.2838945,-35.0320984,417,199.57501
1,Cabreúva/SP,-23.3075813,-47.1324417,3107,6161.13744
D1,Cabreúva/SP,-23.3075813,-47.1324417,76,150.70693
1,Cabrobó/PE,-8.5083701,-39.3106961,1761,5103.90401
D1,Cabrobó/PE,-8.5083701,-39.3106961,22,63.76257
1,Cabrália Paulista/SP,-22.4562909,-49.3385645,264,6222.01273
D1,Cabrália Paulista/SP,-22.4562909,-49.3385645,3,70.70469
1,Cacaulândia/RO,-10.3380043,-62.9007231,768,12250.75770
D1,Cacaulândia/RO,-10.3380043,-62.9007231,10,159.51507
1,Cacequi/RS,-29.8838059,-54.8273443,442,3557.91677
D1,Cacequi/RS,-29.8838059,-54.8273443,6,48.29751
1,Cachoeira Alta/GO,-18.7618269,-50.9432431,1227,9687.35197
D1,Cachoeira Alta/GO,-18.7618269,-50.9432431,17,134.21759
1,Cachoeira Dourada/GO,-18.4934204,-49.481062,384,4781.47180
D1,Cachoeira Dourada/GO,-18.4934204,-49.481062,17,211.67974
1,Cachoeira Dourada/MG,-18.517136,-49.5002062,135,4988.91353
D1,Cachoeira Dourada/MG,-18.517136,-49.5002062,2,73.90983
1,Cachoeira Grande/MA,-2.9290492,-44.0573223,221,2331.71555
D1,Cachoeira Grande/MA,-2.9290492,-44.0573223,6,63.30449
1,Cachoeira Paulista/SP,-22.666498,-45.015384,2019,6012.32840
D1,Cachoeira Paulista/SP,-22.666498,-45.015384,32,95.29198
1,Cachoeira da Prata/MG,-19.524723,-44.453056,226,6293.51156
D1,Cachoeira da Prata/MG,-19.524723,-44.453056,8,222.77917
1,Cachoeira de Goiás/GO,-16.6688414,-50.6435997,56,4172.87630
D1,Cachoeira de Goiás/GO,-16.6688414,-50.6435997,2,149.03130
1,Cachoeira de Minas/MG,-22.3554043,-45.7796324,540,4663.61517
D1,Cachoeira de Minas/MG,-22.3554043,-45.7796324,8,69.09060
1,Cachoeira de Pajeú/MG,-15.965833,-41.496666,293,3103.15611
D1,Cachoeira de Pajeú/MG,-15.965833,-41.496666,8,84.72781
1,Cachoeira do Arari/PA,-1.0143572,-48.9621089,450,1870.01330
D1,Cachoeira do Arari/PA,-1.0143572,-48.9621089,20,83.11170
1,Cachoeira do Piriá/PA,-1.7599443,-46.5446954,723,2089.05198
D1,Cachoeira do Piriá/PA,-1.7599443,-46.5446954,4,11.55769
1,Cachoeira do Sul/RS,-30.0474778,-52.8905413,6913,8443.97757
D1,Cachoeira do Sul/RS,-30.0474778,-52.8905413,110,134.36099
1,Cachoeira dos Índios/PB,-6.9259193,-38.6742159,626,6074.72101
D1,Cachoeira dos Índios/PB,-6.9259193,-38.6742159,14,135.85638
1,Cachoeira/BA,-12.5998256,-38.9665918,1315,3917.53806
D1,Cachoeira/BA,-12.5998256,-38.9665918,19,56.60321
1,Cachoeiras de Macacu/RJ,-22.4626861,-42.6534414,2523,4254.42220
D1,Cachoeiras de Macacu/RJ,-22.4626861,-42.6534414,85,143.33170
1,Cachoeirinha/PE,-8.4906364,-36.2338963,429,2092.58085
D1,Cachoeirinha/PE,-8.4906364,-36.2338963,23,112.18965
1,Cachoeirinha/RS,-29.9493353,-51.0898927,12516,9536.72661
D1,Cachoeirinha/RS,-29.9493353,-51.0898927,374,284.97409
1,Cachoeirinha/TO,-6.118647,-47.9208885,117,5122.59194
D1,Cachoeirinha/TO,-6.118647,-47.9208885,2,87.56567
1,Cachoeiro de Itapemirim/ES,-20.848084,-41.11129,23344,11085.09941
D1,Cachoeiro de Itapemirim/ES,-20.848084,-41.11129,490,232.68072
1,Cacimba de Areia/PB,-7.1288513,-37.1575194,31,838.97158
D1,Cacimba de Areia/PB,-7.1288513,-37.1575194,3,81.19080
1,Cacimba de Dentro/PB,-6.6425101,-35.7929304,906,5274.18791
D1,Cacimba de Dentro/PB,-6.6425101,-35.7929304,24,139.71359
1,Cacimbas/PB,-7.2125451,-37.0593398,196,2722.60036
D1,Cacimbas/PB,-7.2125451,-37.0593398,6,83.34491
1,Cacimbinhas/AL,-9.401212,-36.991082,612,5620.35081
D1,Cacimbinhas/AL,-9.401212,-36.991082,7,64.28506
1,Cacique Doble/RS,-27.7700117,-51.6616409,403,7942.45171
D1,Cacique Doble/RS,-27.7700117,-51.6616409,9,177.37485
1,Cacoal/RO,-11.4333,-61.4420502,11702,13623.92744
D1,Cacoal/RO,-11.4333,-61.4420502,224,260.78959
1,Caconde/SP,-21.527995,-46.643659,1029,5413.22531
D1,Caconde/SP,-21.527995,-46.643659,19,99.95265
1,Caculé/BA,-14.4990734,-42.2233006,1352,5804.81731
D1,Caculé/BA,-14.4990734,-42.2233006,11,47.22854
1,Caetanos/BA,-14.3387456,-40.9085971,593,4059.41950
D1,Caetanos/BA,-14.3387456,-40.9085971,9,61.61008
1,Caetanópolis/MG,-19.2947496,-44.4138386,783,6664.39697
D1,Caetanópolis/MG,-19.2947496,-44.4138386,9,76.60226
1,Caetité/BA,-14.0691776,-42.4852428,2066,4044.55668
D1,Caetité/BA,-14.0691776,-42.4852428,21,41.11118
1,Caeté/MG,-19.897777,-43.670278,1601,3554.06575
D1,Caeté/MG,-19.897777,-43.670278,42,93.23595
1,Caetés/PE,-8.7728788,-36.6255835,1185,4099.77858
D1,Caetés/PE,-8.7728788,-36.6255835,17,58.81539
1,Cafarnaum/BA,-11.691399,-41.468823,778,4202.45233
D1,Cafarnaum/BA,-11.691399,-41.468823,16,86.42575
1,Cafeara/PR,-22.78905,-51.714195,225,7616.79079
D1,Cafeara/PR,-22.78905,-51.714195,9,304.67163
1,Cafelândia/PR,-24.6176963,-53.3218057,1579,8555.48331
D1,Cafelândia/PR,-24.6176963,-53.3218057,12,65.01951
1,Cafelândia/SP,-21.8054355,-49.6030627,656,3676.51180
D1,Cafelândia/SP,-21.8054355,-49.6030627,30,168.13316
1,Cafezal do Sul/PR,-23.900508,-53.512418,264,6585.18334
D1,Cafezal do Sul/PR,-23.900508,-53.512418,4,99.77551
1,Caiabu/SP,-22.0143038,-51.2356597,76,1812.54472
D1,Caiabu/SP,-22.0143038,-51.2356597,5,119.24636
1,Caiana/MG,-20.695555,-41.924723,123,2219.81592
D1,Caiana/MG,-20.695555,-41.924723,7,126.33099
1,Caiapônia/GO,-16.9538779,-51.8090761,1000,5233.68399
D1,Caiapônia/GO,-16.9538779,-51.8090761,33,172.71157
1,Caibaté/RS,-28.290475,-54.645407,216,4478.54033
D1,Caibaté/RS,-28.290475,-54.645407,7,145.13788
1,Caibi/SC,-27.0751925,-53.2502133,554,9037.52039
D1,Caibi/SC,-27.0751925,-53.2502133,11,179.44535
1,Caicó/RN,-6.4594544,-37.0971911,9572,14005.82357
D1,Caicó/RN,-6.4594544,-37.0971911,113,165.34246
1,Caieiras/SP,-23.3644621,-46.7484765,6738,6556.06908
D1,Caieiras/SP,-23.3644621,-46.7484765,244,237.41182
1,Cairu/BA,-13.4860505,-39.0455744,1077,5844.68443
D1,Cairu/BA,-13.4860505,-39.0455744,12,65.12183
1,Caiuá/SP,-21.8319357,-51.9887179,256,4305.41541
D1,Caiuá/SP,-21.8319357,-51.9887179,5,84.09014
1,Caiçara do Norte/RN,-5.0645017,-36.0561226,357,5441.24371
D1,Caiçara do Norte/RN,-5.0645017,-36.0561226,9,137.17421
1,Caiçara do Rio do Vento/RN,-5.757968,-36.00089,252,6783.31090
D1,Caiçara do Rio do Vento/RN,-5.757968,-36.00089,7,188.42530
1,Caiçara/PB,-6.6146866,-35.4681434,639,8886.10763
D1,Caiçara/PB,-6.6146866,-35.4681434,14,194.68780
1,Caiçara/RS,-27.2750478,-53.4310053,423,9000.00000
D1,Caiçara/RS,-27.2750478,-53.4310053,8,170.21277
1,Cajamar/SP,-23.3561111,-46.8769444,3599,4618.01011
D1,Cajamar/SP,-23.3561111,-46.8769444,179,229.68153
1,Cajapió/MA,-2.8778715,-44.6746871,75,668.68759
D1,Cajapió/MA,-2.8778715,-44.6746871,4,35.66334
1,Cajari/MA,-3.3213076,-45.0118757,187,961.39016
D1,Cajari/MA,-3.3213076,-45.0118757,6,30.84674
1,Cajati/SP,-24.7272376,-48.1077914,2932,10289.88559
D1,Cajati/SP,-24.7272376,-48.1077914,75,263.21331
1,Cajazeiras do Piauí/PI,-6.794271,-42.3935024,47,1315.42121
D1,Cajazeiras do Piauí/PI,-6.794271,-42.3935024,1,27.98769
1,Cajazeiras/PB,-6.8897849,-38.5570389,6990,11221.88508
D1,Cajazeiras/PB,-6.8897849,-38.5570389,119,191.04497
1,Cajazeirinhas/PB,-6.961442,-37.7993733,116,3619.34477
1,Cajobi/SP,-20.8776238,-48.8106972,756,7134.76784
D1,Cajobi/SP,-20.8776238,-48.8106972,26,245.37561
1,Cajueiro da Praia/PI,-2.931114,-41.340801,471,6137.60751
D1,Cajueiro da Praia/PI,-2.931114,-41.340801,18,234.55825
1,Cajueiro/AL,-9.399589,-36.1524309,515,2414.32657
D1,Cajueiro/AL,-9.399589,-36.1524309,20,93.76026
1,Cajuri/MG,-20.7901414,-42.7954489,324,8152.99446
D1,Cajuri/MG,-20.7901414,-42.7954489,2,50.32713
1,Cajuru/SP,-21.2759978,-47.3046035,829,3140.98435
D1,Cajuru/SP,-21.2759978,-47.3046035,35,132.61092
1,Caldas Brandão/PB,-7.1027959,-35.3254676,467,7724.11512
D1,Caldas Brandão/PB,-7.1027959,-35.3254676,7,115.77903
1,Caldas Novas/GO,-17.745,-48.625,7384,7923.08683
D1,Caldas Novas/GO,-17.745,-48.625,186,199.57938
1,Caldas/MG,-21.923611,-46.386111,636,4373.83949
D1,Caldas/MG,-21.923611,-46.386111,22,151.29633
1,Caldazinha/GO,-16.7116649,-49.0012601,233,6055.09356
D1,Caldazinha/GO,-16.7116649,-49.0012601,4,103.95010
1,Caldeirão Grande do Piauí/PI,-7.3310393,-40.6374433,289,4999.13510
D1,Caldeirão Grande do Piauí/PI,-7.3310393,-40.6374433,2,34.59609
1,Caldeirão Grande/BA,-11.0208483,-40.3041387,540,4032.55918
D1,Caldeirão Grande/BA,-11.0208483,-40.3041387,6,44.80621
1,Califórnia/PR,-23.6672543,-51.3554556,850,9876.83012
D1,Califórnia/PR,-23.6672543,-51.3554556,15,174.29700
1,Calmon/SC,-26.6023644,-51.0992893,28,839.58021
D1,Calmon/SC,-26.6023644,-51.0992893,4,119.94003
1,Calumbi/PE,-7.9389746,-38.1516871,452,7864.97303
D1,Calumbi/PE,-7.9389746,-38.1516871,3,52.20115
1,Calçado/PE,-8.7413446,-36.3351787,387,3512.43420
D1,Calçado/PE,-8.7413446,-36.3351787,2,18.15211
1,Calçoene/AP,2.4981757,-50.9539503,1602,14169.46754
D1,Calçoene/AP,2.4981757,-50.9539503,10,88.44861
1,Camacan/BA,-15.4166631,-39.4930088,2505,7826.65750
D1,Camacan/BA,-15.4166631,-39.4930088,67,209.33575
1,Camacho/MG,-20.625556,-45.156667,49,1707.91216
D1,Camacho/MG,-20.625556,-45.156667,1,34.85535
1,Camalaú/PB,-7.885031,-36.824191,379,6284.19831
D1,Camalaú/PB,-7.885031,-36.824191,5,82.90499
1,Camamu/BA,-13.9438142,-39.1060917,2014,5692.15986
D1,Camamu/BA,-13.9438142,-39.1060917,43,121.53072
1,Camanducaia/MG,-22.755278,-46.144444,2556,11724.23283
D1,Camanducaia/MG,-22.755278,-46.144444,52,238.52117
1,Camapuã/MS,-19.5291747,-54.0434641,642,4688.52698
D1,Camapuã/MS,-19.5291747,-54.0434641,21,153.36303
1,Camaquã/RS,-30.8524752,-51.8075619,6118,9203.04462
D1,Camaquã/RS,-30.8524752,-51.8075619,120,180.51085
1,Camaragibe/PE,-8.0213832,-34.9810768,4702,2959.11239
D1,Camaragibe/PE,-8.0213832,-34.9810768,337,212.08441
1,Camargo/RS,-28.5865661,-52.2031474,302,11013.85850
D1,Camargo/RS,-28.5865661,-52.2031474,5,182.34865
1,Camaçari/BA,-12.6998188,-38.3260762,21058,6920.09911
D1,Camaçari/BA,-12.6998188,-38.3260762,534,175.48357
1,Cambará do Sul/RS,-29.0489517,-50.145412,293,4573.83703
D1,Cambará do Sul/RS,-29.0489517,-50.145412,10,156.10365
1,Cambará/PR,-23.042273,-50.075281,1936,7602.29325
D1,Cambará/PR,-23.042273,-50.075281,40,157.07217
1,Cambira/PR,-23.600265,-51.581045,702,8866.99507
D1,Cambira/PR,-23.600265,-51.581045,16,202.09675
1,Camboriú/SC,-27.0273601,-48.6535657,11238,13204.86458
D1,Camboriú/SC,-27.0273601,-48.6535657,149,175.07785
1,Cambuci/RJ,-21.5749919,-41.9107833,746,4808.56001
D1,Cambuci/RJ,-21.5749919,-41.9107833,29,186.92794
1,Cambuquira/MG,-21.853056,-45.2953619,463,3613.79956
D1,Cambuquira/MG,-21.853056,-45.2953619,15,117.07774
1,Cambuí/MG,-22.6122501,-46.0572137,2696,9042.73160
D1,Cambuí/MG,-22.6122501,-46.0572137,42,140.87342
1,Cambé/PR,-23.2782035,-51.2779583,9273,8638.82393
D1,Cambé/PR,-23.2782035,-51.2779583,196,182.59565
1,Cametá/PA,-2.242949,-49.497885,7702,5526.53483
D1,Cametá/PA,-2.242949,-49.497885,207,148.53190
1,Camocim de São Félix/PE,-8.3616757,-35.7638903,437,2312.16931
D1,Camocim de São Félix/PE,-8.3616757,-35.7638903,13,68.78307
1,Camocim/CE,-2.9009918,-40.8427389,5276,8255.74663
D1,Camocim/CE,-2.9009918,-40.8427389,142,222.19788
1,Campanha/MG,-21.8361108,-45.401986,1197,7141.15261
D1,Campanha/MG,-21.8361108,-45.401986,26,155.11276
1,Campanário/MG,-18.2398144,-41.7271768,189,5067.02413
D1,Campanário/MG,-18.2398144,-41.7271768,3,80.42895
1,Campestre da Serra/RS,-28.7966535,-51.0958149,140,4123.71134
1,Campestre de Goiás/GO,-16.7624179,-49.69497,448,12277.33626
D1,Campestre de Goiás/GO,-16.7624179,-49.69497,11,301.45245
1,Campestre do Maranhão/MA,-6.1729113,-47.3640512,937,6483.08310
D1,Campestre do Maranhão/MA,-6.1729113,-47.3640512,40,276.75915
1,Campestre/AL,-8.8481634,-35.5660033,241,3465.63129
D1,Campestre/AL,-8.8481634,-35.5660033,6,86.28128
1,Campestre/MG,-19.6142116,-43.219378,969,4602.45084
D1,Campestre/MG,-19.6142116,-43.219378,24,113.99259
1,Campina Grande do Sul/PR,-25.3046032,-49.0545355,4514,10333.06627
D1,Campina Grande do Sul/PR,-25.3046032,-49.0545355,95,217.46595
1,Campina Grande/PB,-7.2246743,-35.8771292,27827,6757.29164
D1,Campina Grande/PB,-7.2246743,-35.8771292,844,204.95038
1,Campina Verde/MG,-19.535277,-49.486389,913,4622.31673
