type,name,lat,lon,total,total_per_100k_inhabitants
1,Abadia de Goiás/GO,-16.7572644,-49.4412205,1291,14411.69904
D1,Abadia de Goiás/GO,-16.7572644,-49.4412205,26,290.24336
1,Abadia dos Dourados/MG,-18.4911191,-47.4063589,361,5152.72623
D1,Abadia dos Dourados/MG,-18.4911191,-47.4063589,12,171.28176
1,Abadiânia/GO,-16.1940946,-48.7067767,321,1568.83828
D1,Abadiânia/GO,-16.1940946,-48.7067767,27,131.95836
1,Abaetetuba/PA,-1.721828,-48.878843,7024,4415.38848
D1,Abaetetuba/PA,-1.721828,-48.878843,187,117.55092
1,Abaeté/MG,-19.1566833,-45.4481213,962,4137.63441
D1,Abaeté/MG,-19.1566833,-45.4481213,22,94.62366
1,Abaiara/CE,-7.3607808,-39.0487878,409,3450.60322
D1,Abaiara/CE,-7.3607808,-39.0487878,9,75.93014
1,Abaré/BA,-8.7239913,-39.1139689,744,3656.55871
D1,Abaré/BA,-8.7239913,-39.1139689,8,39.31784
1,Abatiá/PR,-23.3052967,-50.3102532,661,8922.78618
D1,Abatiá/PR,-23.3052967,-50.3102532,10,134.98920
1,Abaíra/BA,-13.2503296,-41.6640342,251,2881.74512
D1,Abaíra/BA,-13.2503296,-41.6640342,10,114.81056
1,Abdon Batista/SC,-27.612419,-51.022992,320,12558.86970
D1,Abdon Batista/SC,-27.612419,-51.022992,2,78.49294
1,Abel Figueiredo/PA,-4.953001,-48.3958485,841,11234.30403
D1,Abel Figueiredo/PA,-4.953001,-48.3958485,9,120.22442
1,Abelardo Luz/SC,-26.5705893,-52.3280339,1283,7143.65256
D1,Abelardo Luz/SC,-26.5705893,-52.3280339,41,228.28508
1,Abre Campo/MG,-20.2976097,-42.4764741,865,6434.09699
D1,Abre Campo/MG,-20.2976097,-42.4764741,13,96.69741
1,Abreu e Lima/PE,-7.900719,-34.898389,2457,2448.52809
D1,Abreu e Lima/PE,-7.900719,-34.898389,186,185.35866
1,Abreulândia/TO,-9.6221526,-49.1558343,255,9830.37779
D1,Abreulândia/TO,-9.6221526,-49.1558343,6,231.30301
1,Acaiaca/MG,-20.3621646,-43.1444162,217,5433.14972
D1,Acaiaca/MG,-20.3621646,-43.1444162,8,200.30045
1,Acajutiba/BA,-11.6609659,-38.0186381,477,3140.84414
D1,Acajutiba/BA,-11.6609659,-38.0186381,14,92.18410
1,Acarape/CE,-4.2237866,-38.7071663,2581,17165.46954
D1,Acarape/CE,-4.2237866,-38.7071663,23,152.96621
1,Acaraú/CE,-2.8869514,-40.1194713,4368,6921.90669
D1,Acaraú/CE,-2.8869514,-40.1194713,93,147.37576
1,Acari/RN,-6.4364689,-36.6394777,810,7283.51767
D1,Acari/RN,-6.4364689,-36.6394777,12,107.90397
1,Acará/PA,-1.961388,-48.1987043,1148,2062.18901
D1,Acará/PA,-1.961388,-48.1987043,26,46.70463
1,Acauã/PI,-8.219542,-41.083059,175,2464.09462
D1,Acauã/PI,-8.219542,-41.083059,1,14.08054
1,Aceguá/RS,-31.8695131,-54.1615593,294,5949.00850
D1,Aceguá/RS,-31.8695131,-54.1615593,4,80.93889
1,Acopiara/CE,-6.0936464,-39.4543204,2717,4987.05971
D1,Acopiara/CE,-6.0936464,-39.4543204,107,196.39874
1,Acorizal/MT,-15.2001544,-56.3668953,457,8567.67904
D1,Acorizal/MT,-15.2001544,-56.3668953,18,337.45782
1,Acrelândia/AC,-10.0759167,-67.0526898,1521,9819.23822
D1,Acrelândia/AC,-10.0759167,-67.0526898,29,187.21756
1,Acreúna/GO,-17.3959899,-50.3749031,1699,7535.70478
D1,Acreúna/GO,-17.3959899,-50.3749031,40,177.41506
1,Adamantina/SP,-21.6866517,-51.0762975,2477,7054.76916
D1,Adamantina/SP,-21.6866517,-51.0762975,72,205.06394
1,Adelândia/GO,-16.4155077,-50.1665834,148,5882.35294
D1,Adelândia/GO,-16.4155077,-50.1665834,4,158.98251
1,Adolfo/SP,-21.2356597,-49.6441918,401,11283.06134
D1,Adolfo/SP,-21.2356597,-49.6441918,9,253.23579
1,Adrianópolis/PR,-24.6557863,-48.9912769,1085,18524.84207
D1,Adrianópolis/PR,-24.6557863,-48.9912769,21,358.54533
1,Adustina/BA,-10.5358875,-38.114479,646,3772.04251
D1,Adustina/BA,-10.5358875,-38.114479,11,64.22983
1,Afogados da Ingazeira/PE,-7.750429,-37.6356375,3715,9932.09282
D1,Afogados da Ingazeira/PE,-7.750429,-37.6356375,53,141.69608
1,Afonso Bezerra/RN,-5.4745,-36.57625071327935,507,4596.97162
D1,Afonso Bezerra/RN,-5.4745,-36.57625071327935,13,117.87107
1,Afonso Cláudio/ES,-20.077841,-41.12606,3117,10234.77262
D1,Afonso Cláudio/ES,-20.077841,-41.12606,55,180.59432
1,Afonso Cunha/MA,-4.1326105,-43.3230026,158,2401.94588
D1,Afonso Cunha/MA,-4.1326105,-43.3230026,2,30.40438
1,Afrânio/PE,-8.5198919,-41.0070197,740,3735.48713
D1,Afrânio/PE,-8.5198919,-41.0070197,13,65.62342
1,Afuá/PA,-0.1535664,-50.3879223,2864,7238.35519
D1,Afuá/PA,-0.1535664,-50.3879223,14,35.38302
1,Agrestina/PE,-8.4558021,-35.9442663,1256,5010.97147
D1,Agrestina/PE,-8.4558021,-35.9442663,46,183.52284
1,Agricolândia/PI,-5.7967843,-42.6605131,385,7503.41064
D1,Agricolândia/PI,-5.7967843,-42.6605131,3,58.46813
1,Agrolândia/SC,-27.4122212,-49.8295774,1064,9661.30936
D1,Agrolândia/SC,-27.4122212,-49.8295774,15,136.20267
1,Agronômica/SC,-27.2660744,-49.7104753,495,8985.29679
D1,Agronômica/SC,-27.2660744,-49.7104753,9,163.36903
1,Aguanil/MG,-20.9424533,-45.3927152,438,9685.97966
D1,Aguanil/MG,-20.9424533,-45.3927152,8,176.91287
1,Aguaí/SP,-22.0592036,-46.979384,2059,5618.31478
D1,Aguaí/SP,-22.0592036,-46.979384,54,147.34774
1,Agudo/RS,-29.6423259,-53.2494005,1178,7182.48887
D1,Agudo/RS,-29.6423259,-53.2494005,18,109.74941
1,Agudos do Sul/PR,-25.9890808,-49.3328175,477,5036.95882
D1,Agudos do Sul/PR,-25.9890808,-49.3328175,17,179.51426
1,Agudos/SP,-22.471162,-48.987822,2864,7657.54926
D1,Agudos/SP,-22.471162,-48.987822,62,165.77097
1,Aguiar/PB,-7.0928404,-38.1727215,289,5133.21492
D1,Aguiar/PB,-7.0928404,-38.1727215,3,53.28597
1,Aguiarnópolis/TO,-6.5600452,-47.4721189,526,7632.03714
D1,Aguiarnópolis/TO,-6.5600452,-47.4721189,12,174.11492
1,Aimorés/MG,-19.4917754,-41.0615603,1706,6785.72849
D1,Aimorés/MG,-19.4917754,-41.0615603,50,198.87833
1,Aiquara/BA,-14.126918,-39.8887574,442,10009.05797
D1,Aiquara/BA,-14.126918,-39.8887574,9,203.80435
1,Aiuaba/CE,-6.5710836,-40.1212278,408,2332.36152
D1,Aiuaba/CE,-6.5710836,-40.1212278,9,51.44915
1,Aiuruoca/MG,-21.9759554,-44.6036637,79,1321.95448
D1,Aiuruoca/MG,-21.9759554,-44.6036637,6,100.40161
1,Ajuricaba/RS,-28.239654,-53.7693013,757,10834.40676
D1,Ajuricaba/RS,-28.239654,-53.7693013,23,329.18277
1,Alagoa Grande/PB,-7.0415212,-35.6285322,2741,9638.17293
D1,Alagoa Grande/PB,-7.0415212,-35.6285322,51,179.33120
1,Alagoa Nova/PB,-7.0653703,-35.76695977336711,741,3541.89570
D1,Alagoa Nova/PB,-7.0653703,-35.76695977336711,15,71.69829
1,Alagoa/MG,-22.1697202,-44.6400042,373,13996.24765
D1,Alagoa/MG,-22.1697202,-44.6400042,4,150.09381
1,Alagoinha do Piauí/PI,-7.0090952,-40.939675,275,3587.73646
D1,Alagoinha do Piauí/PI,-7.0090952,-40.939675,9,117.41683
1,Alagoinha/PB,-6.97063215,-35.51490901897793,1494,10260.98901
D1,Alagoinha/PB,-6.97063215,-35.51490901897793,23,157.96703
1,Alagoinha/PE,-8.50355635,-36.77701174370496,580,3940.75282
D1,Alagoinha/PE,-8.50355635,-36.77701174370496,18,122.29923
1,Alagoinhas/BA,-12.133526,-38.420772,10929,7174.69654
D1,Alagoinhas/BA,-12.133526,-38.420772,213,139.83076
1,Alambari/SP,-23.550338,-47.897971,447,7293.19628
D1,Alambari/SP,-23.550338,-47.897971,9,146.84288
1,Albertina/MG,-20.66164,-43.784039,187,6210.56128
D1,Albertina/MG,-20.66164,-43.784039,6,199.26935
1,Alcantil/PB,-7.7425491,-36.0609604,322,5844.98094
D1,Alcantil/PB,-7.7425491,-36.0609604,6,108.91269
1,Alcinópolis/MS,-18.3264121,-53.7094463,177,3267.49123
D1,Alcinópolis/MS,-18.3264121,-53.7094463,6,110.76241
1,Alcobaça/BA,-17.5215875,-39.1965474,1251,5562.47221
D1,Alcobaça/BA,-17.5215875,-39.1965474,20,88.92841
1,Alcântara/MA,-2.4038956,-44.4154241,263,1189.39942
D1,Alcântara/MA,-2.4038956,-44.4154241,14,63.31404
1,Alcântaras/CE,-3.586247,-40.5457641,1249,10601.81648
D1,Alcântaras/CE,-3.586247,-40.5457641,17,144.30014
1,Aldeias Altas/MA,-4.6291957,-43.4708622,975,3643.90627
D1,Aldeias Altas/MA,-4.6291957,-43.4708622,13,48.58542
1,Alecrim/RS,-27.6566142,-54.7653195,239,4101.59602
D1,Alecrim/RS,-27.6566142,-54.7653195,10,171.61490
1,Alegre/ES,-20.7625787,-41.5318886,1922,6412.01001
D1,Alegre/ES,-20.7625787,-41.5318886,46,153.46122
1,Alegrete do Piauí/PI,-7.2440138,-40.8602296,472,9597.39732
D1,Alegrete do Piauí/PI,-7.2440138,-40.8602296,5,101.66734
1,Alegrete/RS,-29.790166,-55.794862,7471,10230.32262
D1,Alegrete/RS,-29.790166,-55.794862,213,291.66895
1,Alegria/RS,-27.8332103,-54.0574959,307,9098.99229
D1,Alegria/RS,-27.8332103,-54.0574959,2,59.27682
1,Alenquer/PA,-1.946229,-54.738355,2699,4727.45744
D1,Alenquer/PA,-1.946229,-54.738355,98,171.65277
1,Alexandria/RN,-6.414779,-38.0135516,1040,7673.57781
D1,Alexandria/RN,-6.414779,-38.0135516,15,110.67660
1,Alexânia/GO,-16.0834049,-48.5077803,2700,9639.41449
D1,Alexânia/GO,-16.0834049,-48.5077803,68,242.77044
1,Alfenas/MG,-21.4297405,-45.9479419,6331,7865.18250
D1,Alfenas/MG,-21.4297405,-45.9479419,145,180.13765
1,Alfredo Chaves/ES,-20.624970400000002,-40.75006690147988,2092,14293.52282
D1,Alfredo Chaves/ES,-20.624970400000002,-40.75006690147988,30,204.97404
1,Alfredo Marcondes/SP,-21.9527,-51.413956,209,4995.21989
D1,Alfredo Marcondes/SP,-21.9527,-51.413956,9,215.10516
1,Alfredo Vasconcelos/MG,-21.145833,-43.776389,296,4240.08022
D1,Alfredo Vasconcelos/MG,-21.145833,-43.776389,10,143.24595
1,Alfredo Wagner/SC,-27.6961513,-49.3326734,638,6325.59984
D1,Alfredo Wagner/SC,-27.6961513,-49.3326734,7,69.40313
1,Algodão de Jandaíra/PB,-6.9040175,-36.0089879,108,4190.91967
1,Alhandra/PB,-7.4304246,-34.9106103,1595,8085.36524
D1,Alhandra/PB,-7.4304246,-34.9106103,29,147.00664
1,Aliança do Tocantins/TO,-11.3055927,-48.9409096,554,10362.88814
D1,Aliança do Tocantins/TO,-11.3055927,-48.9409096,20,374.11149
1,Aliança/PE,-7.60398,-35.222696,548,1427.19483
D1,Aliança/PE,-7.60398,-35.222696,44,114.59229
1,Almadina/BA,-14.70466,-39.6381994,587,10939.24711
D1,Almadina/BA,-14.70466,-39.6381994,9,167.72270
1,Almas/TO,-11.5681309,-47.1702803,192,2751.11047
D1,Almas/TO,-11.5681309,-47.1702803,4,57.31480
1,Almeirim/PA,-1.5290377,-52.5788111,3290,9654.88907
D1,Almeirim/PA,-1.5290377,-52.5788111,33,96.84235
1,Almenara/MG,-16.1740678,-40.6904907,3413,8098.61661
D1,Almenara/MG,-16.1740678,-40.6904907,39,92.54206
1,Almino Afonso/RN,-6.1544208,-37.7649018,365,7749.46921
D1,Almino Afonso/RN,-6.1544208,-37.7649018,10,212.31423
1,Almirante Tamandaré do Sul/RS,-28.1141129,-52.9134874,193,9902.51411
D1,Almirante Tamandaré do Sul/RS,-28.1141129,-52.9134874,2,102.61673
1,Almirante Tamandaré/PR,-25.3133048,-49.2997838,7907,6586.91614
D1,Almirante Tamandaré/PR,-25.3133048,-49.2997838,299,249.08156
1,Aloândia/GO,-17.7277983,-49.4809338,216,10876.13293
D1,Aloândia/GO,-17.7277983,-49.4809338,6,302.11480
1,Alpercata/MG,-18.9803616,-41.9827637,442,5944.05594
D1,Alpercata/MG,-18.9803616,-41.9827637,15,201.72136
1,Alpestre/RS,-27.2512339,-53.0349646,278,4582.16582
D1,Alpestre/RS,-27.2512339,-53.0349646,7,115.37828
1,Alpinópolis/MG,-20.863611,-46.387777,825,4133.68073
D1,Alpinópolis/MG,-20.863611,-46.387777,19,95.19992
1,Alta Floresta D'Oeste/RO,-11.9296917,-61.9961284,3501,15403.90707
D1,Alta Floresta D'Oeste/RO,-11.9296917,-61.9961284,55,241.99226
1,Alta Floresta/MT,-9.8715018,-56.0839881,7138,13737.75477
D1,Alta Floresta/MT,-9.8715018,-56.0839881,106,204.00701
1,Altair/SP,-20.5238955,-49.0606135,140,3344.48161
D1,Altair/SP,-20.5238955,-49.0606135,9,215.00239
1,Altamira do Maranhão/MA,-4.1643006,-45.4674574,291,3553.54744
D1,Altamira do Maranhão/MA,-4.1643006,-45.4674574,8,97.69203
1,Altamira do Paraná/PR,-24.799114,-52.7128633,148,8799.04875
D1,Altamira do Paraná/PR,-24.799114,-52.7128633,4,237.81213
1,Altamira/PA,-3.204065,-52.209961,12242,10556.26935
D1,Altamira/PA,-3.204065,-52.209961,268,231.09624
1,Altaneira/CE,-6.9980933,-39.7385742,384,5019.60784
D1,Altaneira/CE,-6.9980933,-39.7385742,14,183.00654
1,Alterosa/MG,-21.249166,-46.143055,534,3678.44596
D1,Alterosa/MG,-21.249166,-46.143055,29,199.76579
1,Altinho/PE,-8.4904095,-36.0607494,889,3867.90811
D1,Altinho/PE,-8.4904095,-36.0607494,19,82.66620
1,Altinópolis/SP,-21.021364,-47.3712,700,4320.18762
D1,Altinópolis/SP,-21.021364,-47.3712,23,141.94902
1,Alto Alegre do Maranhão/MA,-4.2055693,-44.4525287,928,3331.17955
D1,Alto Alegre do Maranhão/MA,-4.2055693,-44.4525287,22,78.97193
1,Alto Alegre do Pindaré/MA,-3.6698186,-45.8462153,1772,5547.38127
D1,Alto Alegre do Pindaré/MA,-3.6698186,-45.8462153,42,131.48421
1,Alto Alegre dos Parecis/RO,-12.1314515,-61.856265,1306,9852.88570
D1,Alto Alegre dos Parecis/RO,-12.1314515,-61.856265,32,241.41833
1,Alto Alegre/RR,2.98858,-61.307167,1233,8016.90507
D1,Alto Alegre/RR,2.98858,-61.307167,28,182.05462
1,Alto Alegre/RS,-31.780844700000003,-52.81311114489171,157,9733.41600
D1,Alto Alegre/RS,-31.780844700000003,-52.81311114489171,1,61.99628
1,Alto Alegre/SP,-21.5820592,-50.1661976,265,6482.38748
D1,Alto Alegre/SP,-21.5820592,-50.1661976,12,293.54207
1,Alto Araguaia/MT,-17.3156528,-53.2169365,1019,5256.64173
D1,Alto Araguaia/MT,-17.3156528,-53.2169365,22,113.48981
1,Alto Bela Vista/SC,-27.4320737,-51.905771,151,7840.08307
D1,Alto Bela Vista/SC,-27.4320737,-51.905771,2,103.84216
1,Alto Boa Vista/MT,-11.6723985,-51.3744431,600,8650.51903
D1,Alto Boa Vista/MT,-11.6723985,-51.3744431,10,144.17532
1,Alto Caparaó/MG,-20.4405661,-41.8683799,348,5904.30947
D1,Alto Caparaó/MG,-20.4405661,-41.8683799,8,135.73125
1,Alto Feliz/RS,-29.3785943,-51.3123751,205,6752.30567
D1,Alto Feliz/RS,-29.3785943,-51.3123751,1,32.93808
1,Alto Garças/MT,-16.9469683,-53.529427,640,5267.05621
D1,Alto Garças/MT,-16.9469683,-53.529427,24,197.51461
1,Alto Horizonte/GO,-14.1954948,-49.3366993,663,10037.85011
D1,Alto Horizonte/GO,-14.1954948,-49.3366993,7,105.98032
1,Alto Jequitibá/MG,-20.423611,-41.966111,597,7191.90459
D1,Alto Jequitibá/MG,-20.423611,-41.966111,9,108.42067
1,Alto Longá/PI,-5.2549051,-42.2072388,565,3940.30267
D1,Alto Longá/PI,-5.2549051,-42.2072388,13,90.66183
1,Alto Paraguai/MT,-14.513712,-56.4936374,742,6467.35815
D1,Alto Paraguai/MT,-14.513712,-56.4936374,24,209.18679
1,Alto Paraná/PR,-23.131247,-52.318893,737,4959.95693
D1,Alto Paraná/PR,-23.131247,-52.318893,17,114.40878
1,Alto Paraíso de Goiás/GO,-14.1304779,-47.5100161,543,7062.95525
D1,Alto Paraíso de Goiás/GO,-14.1304779,-47.5100161,7,91.05099
1,Alto Paraíso/PR,-23.508137,-53.728537,158,5884.54376
D1,Alto Paraíso/PR,-23.508137,-53.728537,2,74.48790
1,Alto Paraíso/RO,-9.7240103,-63.3188123,1632,7470.13320
D1,Alto Paraíso/RO,-9.7240103,-63.3188123,37,169.35964
1,Alto Parnaíba/MA,-9.112506,-45.9310154,688,6136.28255
D1,Alto Parnaíba/MA,-9.112506,-45.9310154,5,44.59508
1,Alto Piquiri/PR,-24.0239021,-53.4417448,557,5696.46144
D1,Alto Piquiri/PR,-24.0239021,-53.4417448,15,153.40560
1,Alto Rio Doce/MG,-21.0239537,-43.4133507,305,2808.73009
D1,Alto Rio Doce/MG,-21.0239537,-43.4133507,23,211.80588
1,Alto Rio Novo/ES,-19.0577208,-41.0171518,657,8343.91669
D1,Alto Rio Novo/ES,-19.0577208,-41.0171518,21,266.70053
1,Alto Santo/CE,-5.5190371,-38.2719351,959,5576.87834
D1,Alto Santo/CE,-5.5190371,-38.2719351,19,110.49081
1,Alto Taquari/MT,-17.8269099,-53.2831736,1318,11838.67780
D1,Alto Taquari/MT,-17.8269099,-53.2831736,26,233.53993
1,Alto do Rodrigues/RN,-5.290868,-36.7616726,1487,10096.41499
D1,Alto do Rodrigues/RN,-5.290868,-36.7616726,27,183.32428
1,Altos/PI,-5.0393915,-42.4611694,3868,9525.92045
D1,Altos/PI,-5.0393915,-42.4611694,78,192.09457
1,Altônia/PR,-23.8722004,-53.894037,860,3878.06638
D1,Altônia/PR,-23.8722004,-53.894037,14,63.13131
1,Alumínio/SP,-23.5203479,-47.2575256,1140,6074.49246
D1,Alumínio/SP,-23.5203479,-47.2575256,37,197.15458
1,Alvarenga/MG,-19.4175,-41.728334,366,9521.33195
D1,Alvarenga/MG,-19.4175,-41.728334,4,104.05827
1,Alvarães/AM,-3.214786,-64.8143124,2724,16794.08138
D1,Alvarães/AM,-3.214786,-64.8143124,42,258.93958
1,Alvinlândia/SP,-22.4431852,-49.7643596,117,3614.45783
D1,Alvinlândia/SP,-22.4431852,-49.7643596,7,216.24961
1,Alvinópolis/MG,-20.1105199,-43.0601805,534,3520.33753
D1,Alvinópolis/MG,-20.1105199,-43.0601805,17,112.07067
1,Alvorada D'Oeste/RO,-11.346271,-62.284697,868,6153.40990
D1,Alvorada D'Oeste/RO,-11.346271,-62.284697,24,170.14037
1,Alvorada de Minas/MG,-18.7318587,-43.3641479,237,6574.20250
D1,Alvorada de Minas/MG,-18.7318587,-43.3641479,1,27.73925
1,Alvorada do Gurguéia/PI,-8.4465288,-43.8655915,284,5215.79431
D1,Alvorada do Gurguéia/PI,-8.4465288,-43.8655915,8,146.92378
1,Alvorada do Norte/GO,-14.483911,-46.4959897,610,7007.46697
D1,Alvorada do Norte/GO,-14.483911,-46.4959897,2,22.97530
1,Alvorada do Sul/PR,-22.7807269,-51.2307721,632,5494.21890
D1,Alvorada do Sul/PR,-22.7807269,-51.2307721,21,182.56107
1,Alvorada/RS,-29.9981184,-51.0772509,18190,8606.49533
D1,Alvorada/RS,-29.9981184,-51.0772509,650,307.54381
1,Alvorada/TO,-12.478465,-49.124926,1020,12148.64221
D1,Alvorada/TO,-12.478465,-49.124926,17,202.47737
1,Além Paraíba/MG,-21.8760576,-42.6810473,2654,7496.96336
D1,Além Paraíba/MG,-21.8760576,-42.6810473,126,355.92215
1,Amajari/RR,3.6523869,-61.4194315,873,6621.16041
D1,Amajari/RR,3.6523869,-61.4194315,19,144.10315
1,Amambai/MS,-23.1082701,-55.2284854,2172,5453.72370
D1,Amambai/MS,-23.1082701,-55.2284854,40,100.43690
1,Amaporã/PR,-23.094272,-52.786597,250,3948.19962
D1,Amaporã/PR,-23.094272,-52.786597,5,78.96399
1,Amapá do Maranhão/MA,-1.6762114,-46.0109669,138,1970.02141
D1,Amapá do Maranhão/MA,-1.6762114,-46.0109669,2,28.55103
1,Amapá/AP,2.0529997,-50.7930003,1242,13519.10308
D1,Amapá/AP,2.0529997,-50.7930003,10,108.84946
1,Amaraji/PE,-8.373925,-35.4536527,439,1919.54526
D1,Amaraji/PE,-8.373925,-35.4536527,28,122.43113
1,Amaral Ferrador/RS,-30.8750633,-52.2542051,199,2808.75088
D1,Amaral Ferrador/RS,-30.8750633,-52.2542051,4,56.45730
1,Amaralina/GO,-13.9236199,-49.2962411,51,1326.39792
1,Amarante do Maranhão/MA,-5.56913,-46.747284,1518,3637.75791
D1,Amarante do Maranhão/MA,-5.56913,-46.747284,54,129.40641
1,Amarante/PI,-6.2459374,-42.8476238,1325,7526.69848
D1,Amarante/PI,-6.2459374,-42.8476238,30,170.41581
1,Amargosa/BA,-13.03793715,-39.60796443875596,2284,6100.26442
D1,Amargosa/BA,-13.03793715,-39.60796443875596,46,122.85997
1,Amaturá/AM,-3.3640509,-68.1994689,2330,19853.44240
D1,Amaturá/AM,-3.3640509,-68.1994689,17,144.85344
1,Americana/SP,-22.7392463,-47.3306032,16252,6715.20300
D1,Americana/SP,-22.7392463,-47.3306032,506,209.07536
1,Americano do Brasil/GO,-16.2515808,-49.9806104,390,6327.06035
D1,Americano do Brasil/GO,-16.2515808,-49.9806104,15,243.34848
1,Ametista do Sul/RS,-27.3617341,-53.1826575,524,7078.21154
D1,Ametista do Sul/RS,-27.3617341,-53.1826575,12,162.09645
1,Amontada/CE,-3.3634586,-39.8284791,2332,5320.67809
D1,Amontada/CE,-3.3634586,-39.8284791,41,93.54537
1,Amorinópolis/GO,-16.6211308,-51.0949921,166,5408.92799
D1,Amorinópolis/GO,-16.6211308,-51.0949921,2,65.16781
1,Amparo de São Francisco/SE,-10.1299754,-36.9269099,159,6680.67227
D1,Amparo de São Francisco/SE,-10.1299754,-36.9269099,3,126.05042
1,Amparo do Serra/MG,-20.5070255,-42.8028462,116,2479.69218
D1,Amparo do Serra/MG,-20.5070255,-42.8028462,4,85.50663
1,Amparo/PB,-7.56394725,-37.04652873235175,158,7019.10262
D1,Amparo/PB,-7.56394725,-37.04652873235175,4,177.69880
1,Amparo/SP,-22.70111,-46.76444,4362,6001.89881
D1,Amparo/SP,-22.70111,-46.76444,107,147.22677
1,Ampére/PR,-25.9168712,-53.4742414,1018,5271.60686
D1,Ampére/PR,-25.9168712,-53.4742414,28,144.99508
1,Amélia Rodrigues/BA,-12.4015388,-38.7516971,1815,7246.08751
D1,Amélia Rodrigues/BA,-12.4015388,-38.7516971,37,147.71638
1,América Dourada/BA,-11.4515262,-41.4357517,731,4543.19453
D1,América Dourada/BA,-11.4515262,-41.4357517,7,43.50528
1,Américo Brasiliense/SP,-21.7297099,-48.1052092,3159,7698.86918
D1,Américo Brasiliense/SP,-21.7297099,-48.1052092,72,175.47280
1,Américo de Campos/SP,-20.298476,-49.735904,628,10499.91640
D1,Américo de Campos/SP,-20.298476,-49.735904,22,367.83147
1,Anadia/AL,-9.6830208,-36.3052699,1101,6282.09517
D1,Anadia/AL,-9.6830208,-36.3052699,24,136.93940
1,Anagé/BA,-14.6134669,-41.1376308,772,3572.91618
D1,Anagé/BA,-14.6134669,-41.1376308,16,74.05008
1,Anahy/PR,-24.6450861,-53.1337957,317,11370.15782
D1,Anahy/PR,-24.6450861,-53.1337957,6,215.20803
1,Anajatuba/MA,-3.26441,-44.6179916,766,2838.29850
D1,Anajatuba/MA,-3.26441,-44.6179916,18,66.69631
1,Anajás/PA,-0.9878802,-49.9390114,1307,4402.45217
D1,Anajás/PA,-0.9878802,-49.9390114,19,63.99892
1,Analândia/SP,-22.128917,-47.661939,259,5122.62658
D1,Analândia/SP,-22.128917,-47.661939,3,59.33544
1,Anamã/AM,-3.5797356,-61.4049996,1722,12338.77902
D1,Anamã/AM,-3.5797356,-61.4049996,9,64.48839
1,Ananindeua/PA,-1.374035,-48.4016623,20054,3744.58264
D1,Ananindeua/PA,-1.374035,-48.4016623,727,135.74906
1,Ananás/TO,-6.3663053,-48.080238,1395,14696.58660
D1,Ananás/TO,-6.3663053,-48.080238,20,210.70375
1,Anapu/PA,-3.4668292,-51.2057035,1298,4537.35100
D1,Anapu/PA,-3.4668292,-51.2057035,33,115.35638
1,Anapurus/MA,-3.6751298,-43.1046001,828,5209.51302
D1,Anapurus/MA,-3.6751298,-43.1046001,11,69.20851
1,Anastácio/MS,-20.4832458,-55.8048448,1730,6855.01446
D1,Anastácio/MS,-20.4832458,-55.8048448,55,217.93399
1,Anaurilândia/MS,-22.185169,-52.719056,307,3382.54738
D1,Anaurilândia/MS,-22.185169,-52.719056,11,121.19877
1,Anchieta/ES,-20.8057672,-40.6454564,4205,14120.68908
D1,Anchieta/ES,-20.8057672,-40.6454564,70,235.06498
1,Anchieta/SC,-26.5350527,-53.3293938,411,7396.07702
D1,Anchieta/SC,-26.5350527,-53.3293938,6,107.97193
1,Andaraí/BA,-12.8059674,-41.3322919,649,4942.12610
D1,Andaraí/BA,-12.8059674,-41.3322919,6,45.68992
1,Andirá/PR,-23.0494761,-50.2310027,1585,7954.43140
D1,Andirá/PR,-23.0494761,-50.2310027,57,286.05842
1,Andorinha/BA,-10.3445708,-39.8334411,711,4902.43398
D1,Andorinha/BA,-10.3445708,-39.8334411,10,68.95125
1,Andradas/MG,-22.0680484,-46.5688976,2662,6430.57300
D1,Andradas/MG,-22.0680484,-46.5688976,78,188.42400
1,Andradina/SP,-20.896505,-51.3742765,4666,8157.05745
D1,Andradina/SP,-20.896505,-51.3742765,200,349.63812
1,Andrelândia/MG,-21.739722,-44.308889,206,1687.69458
D1,Andrelândia/MG,-21.739722,-44.308889,7,57.34884
1,André da Rocha/RS,-28.6309124,-51.5733328,97,7222.63589
1,Angatuba/SP,-23.4938938,-48.4110675,2209,8669.88500
D1,Angatuba/SP,-23.4938938,-48.4110675,58,227.63845
1,Angelim/PE,-8.8902038,-36.2872987,155,1380.72332
D1,Angelim/PE,-8.8902038,-36.2872987,5,44.53946
1,Angelina/SC,-27.5805287,-48.9838759,448,9445.49863
D1,Angelina/SC,-27.5805287,-48.9838759,1,21.08370
1,Angelândia/MG,-17.7253,-42.2728,90,1051.77048
D1,Angelândia/MG,-17.7253,-42.2728,1,11.68634
1,Angical do Piauí/PI,-6.0872666,-42.7366138,560,8255.93395
D1,Angical do Piauí/PI,-6.0872666,-42.7366138,8,117.94191
1,Angical/BA,-12.005623,-44.7000236,483,3465.34653
D1,Angical/BA,-12.005623,-44.7000236,10,71.74631
1,Angico/TO,-6.3893733,-47.8656722,207,5993.05153
D1,Angico/TO,-6.3893733,-47.8656722,3,86.85582
1,Angicos/RN,-5.6666344,-36.6009064,621,5305.42503
D1,Angicos/RN,-5.6666344,-36.6009064,14,119.60701
1,Angra dos Reis/RJ,-23.0063966,-44.316326,12439,6007.90170
D1,Angra dos Reis/RJ,-23.0063966,-44.316326,409,197.54255
1,Anguera/BA,-12.1509425,-39.2452469,332,2938.83332
D1,Anguera/BA,-12.1509425,-39.2452469,1,8.85191
1,Angélica/MS,-22.1588196,-53.7728504,668,6110.50128
D1,Angélica/MS,-22.1588196,-53.7728504,14,128.06440
1,Anhanguera/GO,-18.3338749,-48.220363,87,7500.00000
D1,Anhanguera/GO,-18.3338749,-48.220363,6,517.24138
1,Anhembi/SP,-22.7891096,-48.1316776,139,2038.42206
D1,Anhembi/SP,-22.7891096,-48.1316776,5,73.32453
1,Anhumas/SP,-22.2956478,-51.3873401,191,4609.07336
D1,Anhumas/SP,-22.2956478,-51.3873401,4,96.52510
1,Anicuns/GO,-16.4606451,-49.9572265,2241,10195.16855
D1,Anicuns/GO,-16.4606451,-49.9572265,55,250.21610
1,Anita Garibaldi/SC,-27.6855032,-51.1293873,988,14201.52365
D1,Anita Garibaldi/SC,-27.6855032,-51.1293873,8,114.99209
1,Anitápolis/SC,-27.9041185,-49.1287395,306,9479.55390
D1,Anitápolis/SC,-27.9041185,-49.1287395,1,30.97893
1,Anori/AM,-3.7435254,-61.6605203,1843,8581.27299
D1,Anori/AM,-3.7435254,-61.6605203,31,144.34046
1,Anta Gorda/RS,-28.9718745,-52.0069187,546,9159.53699
D1,Anta Gorda/RS,-28.9718745,-52.0069187,4,67.10284
1,Antas/BA,-10.4114649,-38.3308815,1053,5405.82165
D1,Antas/BA,-10.4114649,-38.3308815,6,30.80240
1,Antonina do Norte/CE,-6.7754187,-39.9879345,504,6831.11954
D1,Antonina do Norte/CE,-6.7754187,-39.9879345,19,257.52236
1,Antonina/PR,-25.4298854,-48.7125431,2135,11267.08533
D1,Antonina/PR,-25.4298854,-48.7125431,55,290.25278
1,Antônio Almeida/PI,-7.2186016,-44.1950248,401,12649.84227
D1,Antônio Almeida/PI,-7.2186016,-44.1950248,10,315.45741
1,Antônio Cardoso/BA,-12.4363122,-39.1200307,328,2808.94065
D1,Antônio Cardoso/BA,-12.4363122,-39.1200307,7,59.94690
1,Antônio Carlos/MG,-21.318334,-43.746666,456,3979.40483
D1,Antônio Carlos/MG,-21.318334,-43.746666,8,69.81412
1,Antônio Carlos/SC,-27.5168462,-48.7684715,1431,16614.42006
D1,Antônio Carlos/SC,-27.5168462,-48.7684715,20,232.20713
1,Antônio Dias/MG,-19.6525,-42.872778,482,5196.76550
D1,Antônio Dias/MG,-19.6525,-42.872778,21,226.41509
1,Antônio Gonçalves/BA,-10.5715409,-40.2748824,662,5573.32884
D1,Antônio Gonçalves/BA,-10.5715409,-40.2748824,8,67.35141
1,Antônio João/MS,-22.1892837,-55.9508227,316,3503.32594
D1,Antônio João/MS,-22.1892837,-55.9508227,6,66.51885
1,Antônio Martins/RN,-6.2155812,-37.8890129,419,5856.86329
D1,Antônio Martins/RN,-6.2155812,-37.8890129,4,55.91278
1,Antônio Olinto/PR,-25.9849006,-50.1974516,323,4348.99690
D1,Antônio Olinto/PR,-25.9849006,-50.1974516,8,107.71509
1,Antônio Prado de Minas/MG,-21.0171988,-42.1101106,153,9640.83176
D1,Antônio Prado de Minas/MG,-21.0171988,-42.1101106,5,315.05986
1,Antônio Prado/RS,-28.8567806,-51.2801355,1902,14580.29897
D1,Antônio Prado/RS,-28.8567806,-51.2801355,17,130.31813
1,Anápolis/GO,-16.3332828,-48.9525756,32520,8300.74635
D1,Anápolis/GO,-16.3332828,-48.9525756,1112,283.83856
1,Anísio de Abreu/PI,-9.185643,-43.04941,284,2857.71785
D1,Anísio de Abreu/PI,-9.185643,-43.04941,8,80.49909
1,Aparecida d'Oeste/SP,-20.4498109,-50.8808706,604,14526.21453
D1,Aparecida d'Oeste/SP,-20.4498109,-50.8808706,12,288.60029
1,Aparecida de Goiânia/GO,-16.8226769,-49.2452546,62046,10513.66950
D1,Aparecida de Goiânia/GO,-16.8226769,-49.2452546,1186,200.96722
1,Aparecida do Rio Doce/GO,-18.2980167,-51.1491312,183,7396.92805
D1,Aparecida do Rio Doce/GO,-18.2980167,-51.1491312,3,121.26112
1,Aparecida do Rio Negro/TO,-9.9513491,-47.9773786,298,6146.86469
D1,Aparecida do Rio Negro/TO,-9.9513491,-47.9773786,5,103.13531
1,Aparecida do Taboado/MS,-20.0840304,-51.1013943,2426,9306.07235
D1,Aparecida do Taboado/MS,-20.0840304,-51.1013943,37,141.93103
1,Aparecida/PB,-6.7859598, -38.0831353,680,8079.84791
D1,Aparecida/PB,-6.7859598, -38.0831353,11,130.70342
1,Aparecida/SP,-22.851552,-45.2340924,2081,5751.00180
D1,Aparecida/SP,-22.851552,-45.2340924,71,196.21390
1,Aperibé/RJ,-21.6211928,-42.1028167,488,4100.49576
D1,Aperibé/RJ,-21.6211928,-42.1028167,19,159.65045
1,Apiacá/ES,-21.152272,-41.569297,646,8551.76066
D1,Apiacá/ES,-21.152272,-41.569297,26,344.18851
1,Apiacás/MT,-9.5678422,-57.394852,1311,12749.19770
D1,Apiacás/MT,-9.5678422,-57.394852,13,126.42225
1,Apiaí/SP,-24.5076527,-48.8461582,973,4016.34607
D1,Apiaí/SP,-24.5076527,-48.8461582,59,243.54000
1,Apicum-Açu/MA,-1.5279295,-45.082278,436,2503.87641
D1,Apicum-Açu/MA,-1.5279295,-45.082278,3,17.22851
1,Apiúna/SC,-27.0374658,-49.3885037,737,6793.87906
D1,Apiúna/SC,-27.0374658,-49.3885037,15,138.27434
1,Apodi/RN,-5.6631109,-37.796927,4741,13215.69939
D1,Apodi/RN,-5.6631109,-37.796927,70,195.12739
1,Aporá/BA,-11.6599747,-38.0794757,452,2541.03890
D1,Aporá/BA,-11.6599747,-38.0794757,18,101.19181
1,Aporé/GO,-18.9642193,-51.92804,320,7561.43667
D1,Aporé/GO,-18.9642193,-51.92804,9,212.66541
1,Apuarema/BA,-13.8517897,-39.7457126,630,8627.77321
D1,Apuarema/BA,-13.8517897,-39.7457126,9,123.25390
1,Apucarana/PR,-23.5525327,-51.4610764,7213,5294.56670
D1,Apucarana/PR,-23.5525327,-51.4610764,251,184.24182
1,Apuiarés/CE,-3.9460303,-39.4313298,886,6038.71320
D1,Apuiarés/CE,-3.9460303,-39.4313298,16,109.05125
1,Apuí/AM,-7.1940195,-59.8830192,1229,5496.66801
D1,Apuí/AM,-7.1940195,-59.8830192,27,120.75674
1,Aquidabã/SE,-10.2837579,-37.0188687,1786,8237.62742
D1,Aquidabã/SE,-10.2837579,-37.0188687,30,138.37000
1,Aquidauana/MS,-20.473969,-55.7821375,4044,8419.91297
D1,Aquidauana/MS,-20.473969,-55.7821375,119,247.76697
1,Aquiraz/CE,-3.9063117,-38.387504,5198,6422.43776
D1,Aquiraz/CE,-3.9063117,-38.387504,74,91.43140
1,Arabutã/SC,-27.1587028,-52.1438142,383,8975.86126
D1,Arabutã/SC,-27.1587028,-52.1438142,6,140.61401
1,Aracaju/SE,-10.9162061,-37.0774655,101562,15274.59438
D1,Aracaju/SE,-10.9162061,-37.0774655,1809,272.06771
1,Aracati/CE,-4.558259,-37.767894,5369,7161.05368
D1,Aracati/CE,-4.558259,-37.767894,117,156.05202
1,Aracatu/BA,-14.4274236,-41.4604105,718,5504.02453
D1,Aracatu/BA,-14.4274236,-41.4604105,14,107.32081
1,Araci/BA,-11.3356065,-38.9573261,3200,5855.65803
D1,Araci/BA,-11.3356065,-38.9573261,41,75.02562
1,Aracitaba/MG,-21.3425,-43.378611,77,3739.67946
D1,Aracitaba/MG,-21.3425,-43.378611,8,388.53813
1,Aracoiaba/CE,-4.3702577,-38.8084313,2850,10740.53137
D1,Aracoiaba/CE,-4.3702577,-38.8084313,26,97.98379
1,Aracruz/ES,-19.8245218,-40.2735025,13584,13175.42992
D1,Aracruz/ES,-19.8245218,-40.2735025,193,187.19508
1,Aragarças/GO,-15.8957166,-52.2514538,1875,9248.75450
D1,Aragarças/GO,-15.8957166,-52.2514538,43,212.10477
1,Aragoiânia/GO,-16.9146388,-49.4499148,897,8546.11280
D1,Aragoiânia/GO,-16.9146388,-49.4499148,16,152.43902
1,Aragominas/TO,-7.1654101,-48.525488,459,8009.07346
D1,Aragominas/TO,-7.1654101,-48.525488,8,139.59169
1,Araguacema/TO,-8.8067391,-49.5560969,461,6443.04682
D1,Araguacema/TO,-8.8067391,-49.5560969,11,153.73864
1,Araguaiana/MT,-15.729144,-51.834112,176,5660.98424
D1,Araguaiana/MT,-15.729144,-51.834112,4,128.65873
1,Araguainha/MT,-16.857016,-53.031778,21,2219.87315
1,Araguanã/MA,-2.9508403,-45.6651986,750,4822.84097
D1,Araguanã/MA,-2.9508403,-45.6651986,5,32.15227
1,Araguanã/TO,-6.5799107,-48.6428482,385,6645.95201
D1,Araguanã/TO,-6.5799107,-48.6428482,12,207.14656
1,Araguapaz/GO,-15.0937927,-50.626417,451,5794.68071
D1,Araguapaz/GO,-15.0937927,-50.626417,19,244.12180
1,Araguari/MG,-18.6511256,-48.1933764,12065,10239.76236
D1,Araguari/MG,-18.6511256,-48.1933764,332,281.77382
1,Araguatins/TO,-5.6522925,-48.1158973,1861,5145.14791
D1,Araguatins/TO,-5.6522925,-48.1158973,50,138.23611
1,Araguaçu/TO,-12.928934,-49.823134,773,9129.56183
D1,Araguaçu/TO,-12.928934,-49.823134,17,200.77950
1,Araguaína/TO,-7.193241,-48.2018597,27923,15226.76831
D1,Araguaína/TO,-7.193241,-48.2018597,368,200.67510
1,Araioses/MA,-2.890914,-41.904993,631,1349.12660
D1,Araioses/MA,-2.890914,-41.904993,12,25.65692
1,Aral Moreira/MS,-22.951141,-55.6268421,365,2959.77944
D1,Aral Moreira/MS,-22.951141,-55.6268421,9,72.98086
1,Aramari/BA,-12.0907897,-38.4985065,511,4458.59873
D1,Aramari/BA,-12.0907897,-38.4985065,11,95.97766
1,Arambaré/RS,-30.9132252,-51.4994625,159,4463.78439
D1,Arambaré/RS,-30.9132252,-51.4994625,5,140.37058
1,Arame/MA,-4.8858769,-46.0102484,1064,3247.46673
D1,Arame/MA,-4.8858769,-46.0102484,31,94.61604
1,Aramina/SP,-20.0876144,-47.789201,252,4456.23342
D1,Aramina/SP,-20.0876144,-47.789201,10,176.83466
1,Arandu/SP,-23.1345103,-49.0545651,282,4430.47918
D1,Arandu/SP,-23.1345103,-49.0545651,7,109.97643
1,Arantina/MG,-21.911667,-44.255833,123,4413.34769
D1,Arantina/MG,-21.911667,-44.255833,3,107.64263
1,Arapeí/SP,-22.6738889,-44.4477778,180,7317.07317
D1,Arapeí/SP,-22.6738889,-44.4477778,2,81.30081
1,Arapiraca/AL,-9.754866,-36.661471,22211,9530.69552
D1,Arapiraca/AL,-9.754866,-36.661471,354,151.90069
1,Arapoema/TO,-7.6575001,-49.0641484,412,6227.32769
D1,Arapoema/TO,-7.6575001,-49.0641484,6,90.68924
1,Araponga/MG,-20.666667,-42.520556,343,4057.73098
D1,Araponga/MG,-20.666667,-42.520556,6,70.98072
1,Arapongas/PR,-23.415296,-51.42592,10010,8020.19069
D1,Arapongas/PR,-23.415296,-51.42592,386,309.27009
1,Araporã/MG,-18.4318188,-49.188313,1626,23459.81821
D1,Araporã/MG,-18.4318188,-49.188313,22,317.41451
1,Arapoti/PR,-24.1457957,-49.8224605,2277,8045.93640
D1,Arapoti/PR,-24.1457957,-49.8224605,39,137.80919
1,Araputanga/MT,-15.4710868,-58.346796,1628,9604.15315
D1,Araputanga/MT,-15.4710868,-58.346796,40,235.97428
1,Arapuá/MG,-19.034444,-46.155556,173,6102.29277
D1,Arapuá/MG,-19.034444,-46.155556,2,70.54674
1,Arapuã/PR,-24.3079525,-51.7901941,179,5948.82021
D1,Arapuã/PR,-24.3079525,-51.7901941,5,166.16816
1,Araquari/SC,-26.3703324,-48.7210994,3086,7807.91418
D1,Araquari/SC,-26.3703324,-48.7210994,63,159.39682
1,Arara/PB,-6.8271895,-35.7605703,690,5095.25919
D1,Arara/PB,-6.8271895,-35.7605703,19,140.30424
1,Araranguá/SC,-28.9348832,-49.4858389,8823,12811.65144
D1,Araranguá/SC,-28.9348832,-49.4858389,191,277.34619
1,Araraquara/SP,-21.7886713,-48.1773096,16644,6983.33047
D1,Araraquara/SP,-21.7886713,-48.1773096,382,160.27591
1,Araras/SP,-22.3569477,-47.3838889,13410,9896.24076
D1,Araras/SP,-22.3569477,-47.3838889,301,222.13039
1,Ararendá/CE,-4.7504395,-40.8303611,745,6798.06552
D1,Ararendá/CE,-4.7504395,-40.8303611,16,145.99872
1,Arari/MA,-3.4547602,-44.7772723,644,2151.54350
D1,Arari/MA,-3.4547602,-44.7772723,21,70.15903
1,Araricá/RS,-29.6168543,-50.929121,952,16496.27448
D1,Araricá/RS,-29.6168543,-50.929121,24,415.87247
1,Araripe/CE,-7.212861,-40.1359222,824,3805.30156
D1,Araripe/CE,-7.212861,-40.1359222,11,50.79893
1,Araripina/PE,-7.5768582,-40.5038509,5597,6595.25830
D1,Araripina/PE,-7.5768582,-40.5038509,117,137.86765
1,Araruama/RJ,-22.8733203,-42.3428897,4871,3627.14363
D1,Araruama/RJ,-22.8733203,-42.3428897,293,218.17965
1,Araruna/PB,-6.5321155,-35.7397595,593,2897.91331
D1,Araruna/PB,-6.5321155,-35.7397595,16,78.18990
1,Araruna/PR,-23.9320308,-52.4976047,1057,7550.00000
D1,Araruna/PR,-23.9320308,-52.4976047,19,135.71429
1,Arataca/BA,-15.2617424,-39.4122943,495,4516.01131
D1,Arataca/BA,-15.2617424,-39.4122943,13,118.60232
1,Aratiba/RS,-27.3955734,-52.3024325,347,5606.72160
D1,Aratiba/RS,-27.3955734,-52.3024325,6,96.94619
1,Aratuba/CE,-4.4195958,-39.0463737,1145,9701.74547
D1,Aratuba/CE,-4.4195958,-39.0463737,7,59.31198
1,Aratuípe/BA,-13.077137,-39.0010786,310,3507.97782
D1,Aratuípe/BA,-13.077137,-39.0010786,8,90.52846
1,Araucária/PR,-25.5861107,-49.4051209,19807,13546.58241
D1,Araucária/PR,-25.5861107,-49.4051209,314,214.75372
1,Arauá/SE,-11.2644014,-37.6181058,947,9520.45843
D1,Arauá/SE,-11.2644014,-37.6181058,18,180.95908
1,Araxá/MG,-19.5928536,-46.940241,9114,8491.01428
D1,Araxá/MG,-19.5928536,-46.940241,141,131.36197
1,Araçagi/PB,-6.8519969,-35.3835602,1002,5921.63584
D1,Araçagi/PB,-6.8519969,-35.3835602,12,70.91779
1,Araçariguama/SP,-23.438611,-47.061389,1229,5376.20297
D1,Araçariguama/SP,-23.438611,-47.061389,42,183.72703
1,Araçatuba/SP,-21.207992,-50.4390225,21694,10949.43194
D1,Araçatuba/SP,-21.207992,-50.4390225,638,322.01243
1,Araçaí/MG,-19.200833,-44.2475,49,2081.56330
1,Araçoiaba da Serra/SP,-23.5045367,-47.6168158,2064,5935.12767
D1,Araçoiaba da Serra/SP,-23.5045367,-47.6168158,48,138.02622
1,Araçoiaba/PE,-7.7856903,-35.0898881,437,2107.75093
D1,Araçoiaba/PE,-7.7856903,-35.0898881,24,115.75749
1,Araçu/GO,-16.3561579,-49.6815269,376,10786.00115
D1,Araçu/GO,-16.3561579,-49.6815269,15,430.29260
1,Araçuaí/MG,-16.8484451,-42.0661868,1238,3372.19438
D1,Araçuaí/MG,-16.8484451,-42.0661868,25,68.09762
1,Araçás/BA,-12.2139176,-38.2026159,546,4472.47706
D1,Araçás/BA,-12.2139176,-38.2026159,7,57.33945
1,Araújos/MG,-19.948055,-45.165556,570,6063.18477
D1,Araújos/MG,-19.948055,-45.165556,6,63.82300
1,Arceburgo/MG,-21.364444,-46.939722,761,6992.55720
D1,Arceburgo/MG,-21.364444,-46.939722,18,165.39557
1,Arco-Íris/SP,-21.7741308,-50.4668814,97,5470.95319
D1,Arco-Íris/SP,-21.7741308,-50.4668814,6,338.40948
1,Arcos/MG,-20.282223,-45.539444,4295,10636.45369
D1,Arcos/MG,-20.282223,-45.539444,97,240.21793
1,Arcoverde/PE,-8.415192,-37.057748,4931,6590.30766
D1,Arcoverde/PE,-8.415192,-37.057748,101,134.98704
1,Areado/MG,-21.3582771,-46.1476688,538,3543.90356
D1,Areado/MG,-21.3582771,-46.1476688,15,98.80772
1,Areal/RJ,-22.2314922,-43.1056264,884,6977.66201
D1,Areal/RJ,-22.2314922,-43.1056264,36,284.15818
1,Arealva/SP,-22.0301906,-48.9111936,606,7035.87600
D1,Arealva/SP,-22.0301906,-48.9111936,8,92.88285
1,Areia Branca/RN,-4.9506652,-37.1263312,1928,6893.83917
D1,Areia Branca/RN,-4.9506652,-37.1263312,82,293.20270
1,Areia Branca/SE,-10.7591455,-37.3148072,1468,7856.14899
D1,Areia Branca/SE,-10.7591455,-37.3148072,35,187.30600
1,Areia de Baraúnas/PB,-7.1233949,-36.9446216,92,4347.82609
D1,Areia de Baraúnas/PB,-7.1233949,-36.9446216,3,141.77694
1,Areia/PB,-6.9680243,-35.6994783,1066,4705.15537
D1,Areia/PB,-6.9680243,-35.6994783,22,97.10452
1,Areial/PB,-7.0501306,-35.9245244,256,3643.09093
D1,Areial/PB,-7.0501306,-35.9245244,6,85.38494
1,Areias/SP,-22.5800929,-44.6975127,233,5980.49281
D1,Areias/SP,-22.5800929,-44.6975127,1,25.66735
1,Areiópolis/SP,-22.6758064,-48.6673653,939,8415.48665
D1,Areiópolis/SP,-22.6758064,-48.6673653,13,116.50833
1,Arenápolis/MT,-14.4610369,-56.8432806,1249,13144.60114
D1,Arenápolis/MT,-14.4610369,-56.8432806,19,199.95790
1,Arenópolis/GO,-16.3859286,-51.55937,165,6506.30915
D1,Arenópolis/GO,-16.3859286,-51.55937,8,315.45741
1,Argirita/MG,-21.612761,-42.8371922,246,9097.63314
D1,Argirita/MG,-21.612761,-42.8371922,5,184.91124
1,Aricanduva/MG,-17.8678,-42.5569,82,1556.27254
1,Arinos/MG,-15.917223,-46.106111,478,2676.07211
D1,Arinos/MG,-15.917223,-46.106111,11,61.58325
1,Aripuanã/MT,-10.175806,-59.4439663,2144,9439.11244
D1,Aripuanã/MT,-10.175806,-59.4439663,40,176.10284
1,Ariquemes/RO,-9.9076522,-63.033069,18718,17090.47415
D1,Ariquemes/RO,-9.9076522,-63.033069,403,367.95924
1,Ariranha do Ivaí/PR,-24.3834527,-51.5876772,129,6243.94966
D1,Ariranha do Ivaí/PR,-24.3834527,-51.5876772,2,96.80542
1,Ariranha/SP,-21.18716,-48.790418,414,4241.36871
D1,Ariranha/SP,-21.18716,-48.790418,14,143.42793
1,Armazém/SC,-28.2624996,-49.0190126,1327,15150.13129
D1,Armazém/SC,-28.2624996,-49.0190126,27,308.25437
1,Armação dos Búzios/RJ,-22.7597805,-41.8875267,3948,11451.11234
D1,Armação dos Búzios/RJ,-22.7597805,-41.8875267,41,118.91986
1,Arneiroz/CE,-6.3235099,-40.1603859,464,5915.34931
D1,Arneiroz/CE,-6.3235099,-40.1603859,13,165.73177
1,Aroazes/PI,-6.1108814,-41.7886137,525,9009.78205
D1,Aroazes/PI,-6.1108814,-41.7886137,12,205.93788
1,Aroeiras do Itaim/PI,-7.2797031,-41.5629681,98,3841.63073
D1,Aroeiras do Itaim/PI,-7.2797031,-41.5629681,2,78.40063
1,Aroeiras/PB,-7.5462904,-35.7080002,854,4467.46181
D1,Aroeiras/PB,-7.5462904,-35.7080002,6,31.38732
1,Arraial do Cabo/RJ,-22.9662839,-42.024427,604,1974.30785
D1,Arraial do Cabo/RJ,-22.9662839,-42.024427,23,75.18060
1,Arraial/PI,-6.6541632,-42.5335332,138,2923.72881
D1,Arraial/PI,-6.6541632,-42.5335332,2,42.37288
1,Arraias/TO,-12.9287788,-46.9437231,460,4366.81223
D1,Arraias/TO,-12.9287788,-46.9437231,4,37.97228
1,Arroio Grande/RS,-32.2384246,-53.0866661,1435,7868.18730
D1,Arroio Grande/RS,-32.2384246,-53.0866661,48,263.18675
1,Arroio Trinta/SC,-26.9301976,-51.334928,466,13130.45928
D1,Arroio Trinta/SC,-26.9301976,-51.334928,9,253.59256
1,Arroio do Meio/RS,-29.4020392,-51.9444993,2674,12753.37435
D1,Arroio do Meio/RS,-29.4020392,-51.9444993,34,162.15958
1,Arroio do Padre/RS,-31.4428773,-52.4228985,135,4574.72043
D1,Arroio do Padre/RS,-31.4428773,-52.4228985,2,67.77364
1,Arroio do Sal/RS,-29.549852,-49.8874395,899,8745.98696
D1,Arroio do Sal/RS,-29.549852,-49.8874395,31,301.58576
1,Arroio do Tigre/RS,-29.334158,-53.0888935,961,7164.69097
D1,Arroio do Tigre/RS,-29.334158,-53.0888935,18,134.19817
1,Arroio dos Ratos/RS,-30.0894524,-51.7265541,805,5678.21119
D1,Arroio dos Ratos/RS,-30.0894524,-51.7265541,29,204.55668
1,Artur Nogueira/SP,-22.572737,-47.172679,3306,5973.97904
D1,Artur Nogueira/SP,-22.572737,-47.172679,94,169.85905
1,Aruanã/GO,-14.9162439,-51.0715692,420,4154.30267
D1,Aruanã/GO,-14.9162439,-51.0715692,10,98.91197
1,Arujá/SP,-23.396266,-46.3175449,6030,6614.96100
D1,Arujá/SP,-23.396266,-46.3175449,232,254.50596
1,Arvoredo/SC,-27.0752908,-52.4571847,272,12175.47001
D1,Arvoredo/SC,-27.0752908,-52.4571847,4,179.05103
1,Arvorezinha/RS,-28.87369,-52.17808,707,6783.07589
D1,Arvorezinha/RS,-28.87369,-52.17808,24,230.26000
1,Arês/RN,-6.1969216,-35.1642968,730,5063.46674
D1,Arês/RN,-6.1969216,-35.1642968,20,138.72512
1,Ascurra/SC,-26.9569975,-49.3767752,1019,12772.62472
D1,Ascurra/SC,-26.9569975,-49.3767752,9,112.81023
1,Aspásia/SP,-20.160028,-50.728046,93,5115.51155
D1,Aspásia/SP,-20.160028,-50.728046,4,220.02200
1,Assaré/CE,-6.8746791,-39.8741385,1451,6180.25385
D1,Assaré/CE,-6.8746791,-39.8741385,28,119.26058
1,Assaí/PR,-23.3736041,-50.8454929,1144,7650.12706
D1,Assaí/PR,-23.3736041,-50.8454929,39,260.79979
1,Assis Brasil/AC,-10.9409203,-69.5672108,1541,20453.94213
D1,Assis Brasil/AC,-10.9409203,-69.5672108,21,278.73640
1,Assis Chateaubriand/PR,-24.4054826,-53.5120468,3049,9145.17097
D1,Assis Chateaubriand/PR,-24.4054826,-53.5120468,76,227.95441
1,Assis/SP,-22.6620892,-50.420623,7382,7024.65576
D1,Assis/SP,-22.6620892,-50.420623,243,231.23698
1,Assunção do Piauí/PI,-5.8610212,-41.0485091,295,3751.74870
D1,Assunção do Piauí/PI,-5.8610212,-41.0485091,6,76.30675
1,Assunção/PB,-7.073396,-36.7274003,280,6949.61529
D1,Assunção/PB,-7.073396,-36.7274003,2,49.64011
1,Astolfo Dutra/MG,-21.3132636,-42.8624102,1129,7911.70287
D1,Astolfo Dutra/MG,-21.3132636,-42.8624102,15,105.11563
1,Astorga/PR,-23.2350184,-51.6647074,2511,9580.67839
D1,Astorga/PR,-23.2350184,-51.6647074,57,217.48254
1,Atalaia do Norte/AM,-4.3658547,-70.1908742,2700,13236.59182
D1,Atalaia do Norte/AM,-4.3658547,-70.1908742,8,39.21953
1,Atalaia/AL,-9.5029595,-36.0219316,1047,2210.49298
D1,Atalaia/AL,-9.5029595,-36.0219316,41,86.56181
1,Atalaia/PR,-23.1513833,-52.0529697,330,8502.96315
D1,Atalaia/PR,-23.1513833,-52.0529697,15,386.49833
1,Atalanta/SC,-27.421916,-49.778863,289,9045.38341
D1,Atalanta/SC,-27.421916,-49.778863,6,187.79343
1,Ataléia/MG,-18.04432,-41.1110524,1031,8132.19751
D1,Ataléia/MG,-18.04432,-41.1110524,8,63.10144
1,Atibaia/SP,-23.1177393,-46.5547861,8802,6108.76686
D1,Atibaia/SP,-23.1177393,-46.5547861,212,147.13231
1,Atilio Vivacqua/ES,-20.9139369,-41.1947519,1326,10954.15118
D1,Atilio Vivacqua/ES,-20.9139369,-41.1947519,23,190.00413
1,Augustinópolis/TO,-5.4662267,-47.8897519,1344,7209.14016
D1,Augustinópolis/TO,-5.4662267,-47.8897519,24,128.73465
1,Augusto Corrêa/PA,-1.0229335,-46.6404029,1909,4107.93828
D1,Augusto Corrêa/PA,-1.0229335,-46.6404029,33,71.01203
1,Augusto Pestana/RS,-28.5148413,-53.9906433,486,7361.40563
D1,Augusto Pestana/RS,-28.5148413,-53.9906433,6,90.88155
1,Augusto de Lima/MG,-18.1092963,-44.2651945,215,4432.07586
D1,Augusto de Lima/MG,-18.1092963,-44.2651945,7,144.30014
1,Aurelino Leal/BA,-14.3167137,-39.3256107,824,7292.68077
D1,Aurelino Leal/BA,-14.3167137,-39.3256107,22,194.70750
1,Auriflama/SP,-20.6840418,-50.5554616,1640,10751.98322
D1,Auriflama/SP,-20.6840418,-50.5554616,56,367.14089
1,Aurilândia/GO,-16.6772599,-50.4641231,171,5591.89012
D1,Aurilândia/GO,-16.6772599,-50.4641231,6,196.20667
1,Aurora do Pará/PA,-2.1323199,-47.558436,1225,3855.47477
D1,Aurora do Pará/PA,-2.1323199,-47.558436,13,40.91524
1,Aurora do Tocantins/TO,-12.71045,-46.407604,169,4467.35395
D1,Aurora do Tocantins/TO,-12.71045,-46.407604,2,52.86809
1,Aurora/CE,-6.9426019,-38.9693765,1317,5351.48314
D1,Aurora/CE,-6.9426019,-38.9693765,29,117.83828
1,Aurora/SC,-27.3166417,-49.6368502,679,11947.91483
D1,Aurora/SC,-27.3166417,-49.6368502,14,246.34876
1,Autazes/AM,-3.5833283,-59.1301518,2768,6870.19111
D1,Autazes/AM,-3.5833283,-59.1301518,87,215.93448
1,Avanhandava/SP,-21.4603331,-49.9465156,569,4105.63533
D1,Avanhandava/SP,-21.4603331,-49.9465156,24,173.17267
1,Avaré/SP,-23.1045215,-48.9259103,6564,7194.84391
D1,Avaré/SP,-23.1045215,-48.9259103,145,158.93546
1,Avaí/SP,-22.1564662,-49.3316395,272,5003.67918
D1,Avaí/SP,-22.1564662,-49.3316395,6,110.37528
1,Aveiro/PA,-3.6049239,-55.3310742,581,3541.81907
D1,Aveiro/PA,-3.6049239,-55.3310742,9,54.86467
1,Avelino Lopes/PI,-10.1346855,-43.9489525,310,2737.06516
D1,Avelino Lopes/PI,-10.1346855,-43.9489525,19,167.75561
1,Avelinópolis/GO,-16.4672409,-49.7578661,264,10958.90411
D1,Avelinópolis/GO,-16.4672409,-49.7578661,11,456.62100
1,Axixá do Tocantins/TO,-5.612747,-47.77007,998,10197.20037
D1,Axixá do Tocantins/TO,-5.612747,-47.77007,16,163.48217
1,Axixá/MA,-2.8379465,-44.0561053,189,1551.34203
D1,Axixá/MA,-2.8379465,-44.0561053,4,32.83264
1,Açailândia/MA,-4.9514278,-47.4844564,4840,4278.60433
D1,Açailândia/MA,-4.9514278,-47.4844564,171,151.16557
1,Açu/RN,-5.5836157,-36.9139541,4619,7911.41409
D1,Açu/RN,-5.5836157,-36.9139541,125,214.09975
1,Açucena/MG,-19.073056,-42.546666,688,7344.15030
D1,Açucena/MG,-19.073056,-42.546666,23,245.51665
1,Babaçulândia/TO,-7.2034355,-47.761613,566,5306.58166
D1,Babaçulândia/TO,-7.2034355,-47.761613,4,37.50234
1,Bacabal/MA,-4.2318132,-44.781167,4427,4224.63976
D1,Bacabal/MA,-4.2318132,-44.781167,156,148.86917
1,Bacabeira/MA,-2.9775747,-44.3155943,317,1837.46812
D1,Bacabeira/MA,-2.9775747,-44.3155943,6,34.77858
1,Bacuri/MA,-1.728894,-45.1417148,429,2299.77485
D1,Bacuri/MA,-1.728894,-45.1417148,4,21.44312
1,Bacurituba/MA,-2.7082587,-44.7381309,112,1975.30864
D1,Bacurituba/MA,-2.7082587,-44.7381309,1,17.63668
1,Bady Bassitt/SP,-20.9178969,-49.4517911,2408,13557.79517
D1,Bady Bassitt/SP,-20.9178969,-49.4517911,52,292.77631
1,Baependi/MG,-21.959162,-44.8899249,1081,5630.50159
D1,Baependi/MG,-21.959162,-44.8899249,12,62.50326
1,Bagre/PA,-1.8994498,-50.2103844,846,2700.71828
D1,Bagre/PA,-1.8994498,-50.2103844,11,35.11572
1,Bagé/RS,-31.3314264,-54.1062808,7489,6172.16796
D1,Bagé/RS,-31.3314264,-54.1062808,209,172.25038
1,Baianópolis/BA,-12.3067564,-44.5383591,530,3805.01113
D1,Baianópolis/BA,-12.3067564,-44.5383591,5,35.89633
1,Baixa Grande do Ribeiro/PI,-7.862861,-45.2113289,1933,16562.41967
D1,Baixa Grande do Ribeiro/PI,-7.862861,-45.2113289,19,162.79668
1,Baixa Grande/BA,-11.9630941,-40.1657537,617,3017.26246
D1,Baixa Grande/BA,-11.9630941,-40.1657537,7,34.23150
1,Baixio/CE,-6.7303544,-38.7170095,372,5901.95145
D1,Baixio/CE,-6.7303544,-38.7170095,8,126.92369
1,Baixo Guandu/ES,-19.5138322,-41.0182089,3103,9967.23628
D1,Baixo Guandu/ES,-19.5138322,-41.0182089,69,221.63690
1,Baião/PA,-2.7903479,-49.6702845,696,1436.26571
D1,Baião/PA,-2.7903479,-49.6702845,28,57.78080
1,Balbinos/SP,-21.9006253,-49.3583966,309,5207.28008
D1,Balbinos/SP,-21.9006253,-49.3583966,4,67.40816
1,Baldim/MG,-19.2913568,-43.9558262,465,5959.24644
D1,Baldim/MG,-19.2913568,-43.9558262,9,115.34025
1,Baliza/GO,-16.1978119,-52.542789,208,3939.39394
D1,Baliza/GO,-16.1978119,-52.542789,6,113.63636
1,Balneário Arroio do Silva/SC,-28.9815269,-49.4189932,1768,13164.55696
D1,Balneário Arroio do Silva/SC,-28.9815269,-49.4189932,38,282.94862
1,Balneário Barra do Sul/SC,-26.459842,-48.6061471,1276,11563.20797
D1,Balneário Barra do Sul/SC,-26.459842,-48.6061471,29,262.80018
1,Balneário Camboriú/SC,-26.9924395,-48.6339782,22189,15219.21040
D1,Balneário Camboriú/SC,-26.9924395,-48.6339782,326,223.60010
1,Balneário Gaivota/SC,-29.1553098,-49.5808712,1108,9840.14210
D1,Balneário Gaivota/SC,-29.1553098,-49.5808712,29,257.54885
1,Balneário Pinhal/RS,-30.2482978,-50.234585,656,4567.29096
D1,Balneário Pinhal/RS,-30.2482978,-50.234585,37,257.60635
1,Balneário Piçarras/SC,-26.7638889,-48.6716667,4012,16876.99815
D1,Balneário Piçarras/SC,-26.7638889,-48.6716667,42,176.67845
1,Balneário Rincão/SC,-28.8235718,-49.2241642,1236,9547.35053
D1,Balneário Rincão/SC,-28.8235718,-49.2241642,35,270.35378
1,Balsa Nova/PR,-25.5842234,-49.6312741,1186,9058.96731
D1,Balsa Nova/PR,-25.5842234,-49.6312741,23,175.67980
1,Balsas/MA,-7.53214,-46.037163,8538,8900.33254
D1,Balsas/MA,-7.53214,-46.037163,139,144.89883
1,Bambuí/MG,-20.0131996,-45.9777034,1105,4623.81789
D1,Bambuí/MG,-20.0131996,-45.9777034,16,66.95121
1,Banabuiú/CE,-5.3046404,-38.919766,1208,6617.00263
D1,Banabuiú/CE,-5.3046404,-38.919766,10,54.77651
1,Bananal/SP,-22.6828195,-44.3221095,853,7759.48331
D1,Bananal/SP,-22.6828195,-44.3221095,2,18.19340
1,Bananeiras/PB,-6.7537682,-35.6338343,927,4358.45597
D1,Bananeiras/PB,-6.7537682,-35.6338343,18,84.63021
1,Bandeira do Sul/MG,-21.728056,-46.385555,236,4084.45829
D1,Bandeira do Sul/MG,-21.728056,-46.385555,7,121.14919
1,Bandeira/MG,-15.884444,-40.559167,452,9483.84389
D1,Bandeira/MG,-15.884444,-40.559167,9,188.83760
1,Bandeirante/SC,-26.7677402,-53.6397596,231,8723.56495
D1,Bandeirante/SC,-26.7677402,-53.6397596,2,75.52870
1,Bandeirantes do Tocantins/TO,-7.7635698,-48.579148,331,9214.92205
D1,Bandeirantes do Tocantins/TO,-7.7635698,-48.579148,4,111.35857
1,Bandeirantes/MS,-19.9179623,-54.3646768,446,6138.17781
D1,Bandeirantes/MS,-19.9179623,-54.3646768,8,110.10184
1,Bandeirantes/PR,-23.107788,-50.370407,2837,9089.74400
D1,Bandeirantes/PR,-23.107788,-50.370407,86,275.54388
1,Bannach/PA,-7.3508505,-50.4064531,531,16278.35684
D1,Bannach/PA,-7.3508505,-50.4064531,2,61.31208
1,Banzaê/BA,-10.5827616,-38.6122305,820,6193.35347
D1,Banzaê/BA,-10.5827616,-38.6122305,7,52.87009
1,Baraúna/PB,-6.643394,-36.2531932,259,5217.56648
D1,Baraúna/PB,-6.643394,-36.2531932,3,60.43513
1,Baraúna/RN,-5.0775002,-37.61752,828,2880.30055
D1,Baraúna/RN,-5.0775002,-37.61752,21,73.05110
1,Barbacena/MG,-21.2254524,-43.7735087,5722,4140.25643
D1,Barbacena/MG,-21.2254524,-43.7735087,184,133.13652
1,Barbalha/CE,-7.3121067,-39.3036427,4206,6869.40615
D1,Barbalha/CE,-7.3121067,-39.3036427,85,138.82537
1,Barbosa Ferraz/PR,-24.0287182,-52.00811,795,6957.81551
D1,Barbosa Ferraz/PR,-24.0287182,-52.00811,15,131.27954
1,Barbosa/SP,-21.265661,-49.951816,356,4767.00589
D1,Barbosa/SP,-21.265661,-49.951816,10,133.90466
1,Barcarena/PA,-1.5107945,-48.6190679,10027,7893.59742
D1,Barcarena/PA,-1.5107945,-48.6190679,195,153.51067
1,Barcelona/RN,-5.9514918,-35.9260284,62,1552.32849
D1,Barcelona/RN,-5.9514918,-35.9260284,3,75.11267
1,Barcelos/AM,-0.9729214,-62.925635,4089,14794.84767
D1,Barcelos/AM,-0.9729214,-62.925635,57,206.23779
1,Bariri/SP,-22.0746355,-48.7394852,2280,6412.05917
D1,Bariri/SP,-22.0746355,-48.7394852,91,255.91991
1,Barra Bonita/SC,-26.6526364,-53.4419581,140,8479.70927
D1,Barra Bonita/SC,-26.6526364,-53.4419581,1,60.56935
1,Barra Bonita/SP,-22.490859,-48.558349,2624,7263.46676
D1,Barra Bonita/SP,-22.490859,-48.558349,71,196.53435
1,Barra D'Alcântara/PI,-6.5209258,-42.1071089,105,2656.88259
D1,Barra D'Alcântara/PI,-6.5209258,-42.1071089,3,75.91093
1,Barra Funda/RS,-27.9230048,-53.0401045,409,16032.92826
D1,Barra Funda/RS,-27.9230048,-53.0401045,7,274.40220
1,Barra Longa/MG,-20.2833541,-43.0423516,239,4765.70289
D1,Barra Longa/MG,-20.2833541,-43.0423516,7,139.58126
1,Barra Mansa/RJ,-22.5394843,-44.1735129,13395,7247.08250
D1,Barra Mansa/RJ,-22.5394843,-44.1735129,455,246.16816
1,Barra Velha/SC,-26.6338203,-48.6835001,3616,12109.84595
D1,Barra Velha/SC,-26.6338203,-48.6835001,80,267.91695
1,Barra da Estiva/BA,-13.6269662,-41.3278287,1501,7360.72970
D1,Barra da Estiva/BA,-13.6269662,-41.3278287,13,63.75049
1,Barra de Guabiraba/PE,-8.4173522,-35.6626669,344,2370.77877
D1,Barra de Guabiraba/PE,-8.4173522,-35.6626669,14,96.48518
1,Barra de Santa Rosa/PB,-6.7218007,-36.0564638,767,4949.34503
D1,Barra de Santa Rosa/PB,-6.7218007,-36.0564638,4,25.81145
1,Barra de Santana/PB,-7.5230865,-35.9988518,337,4036.41155
D1,Barra de Santana/PB,-7.5230865,-35.9988518,4,47.90993
1,Barra de Santo Antônio/AL,-9.4038098,-35.5117693,295,1835.94722
D1,Barra de Santo Antônio/AL,-9.4038098,-35.5117693,19,118.24745
1,Barra de São Francisco/ES,-18.7570902,-40.8916119,4339,9646.72403
D1,Barra de São Francisco/ES,-18.7570902,-40.8916119,177,393.51697
1,Barra de São Miguel/AL,-9.8261357,-35.8837777,405,4834.08928
D1,Barra de São Miguel/AL,-9.8261357,-35.8837777,6,71.61614
1,Barra de São Miguel/PB,-7.7528088,-36.3170996,364,6001.64880
D1,Barra de São Miguel/PB,-7.7528088,-36.3170996,5,82.44023
1,Barra do Bugres/MT,-15.0683712,-57.1853688,2277,6449.14606
D1,Barra do Bugres/MT,-15.0683712,-57.1853688,54,152.94418
1,Barra do Chapéu/SP,-24.472203,-49.023784,225,3906.25000
D1,Barra do Chapéu/SP,-24.472203,-49.023784,1,17.36111
1,Barra do Choça/BA,-14.8638173,-40.5761637,1769,5668.23673
D1,Barra do Choça/BA,-14.8638173,-40.5761637,27,86.51351
1,Barra do Corda/MA,-5.496823,-45.248496,5123,5789.22388
D1,Barra do Corda/MA,-5.496823,-45.248496,50,56.50228
1,Barra do Garças/MT,-15.8916033,-52.2615413,6375,10427.74188
D1,Barra do Garças/MT,-15.8916033,-52.2615413,227,371.30940
1,Barra do Guarita/RS,-27.1888016,-53.7147086,107,3285.23181
D1,Barra do Guarita/RS,-27.1888016,-53.7147086,4,122.81240
1,Barra do Jacaré/PR,-23.1151788,-50.1813945,157,5645.45128
D1,Barra do Jacaré/PR,-23.1151788,-50.1813945,1,35.95829
1,Barra do Mendes/BA,-11.8053298,-42.057037,648,4684.45023
D1,Barra do Mendes/BA,-11.8053298,-42.057037,11,79.51999
1,Barra do Ouro/TO,-7.7113784,-47.6743925,114,2461.13990
D1,Barra do Ouro/TO,-7.7113784,-47.6743925,5,107.94473
1,Barra do Piraí/RJ,-22.4703403,-43.8263256,5079,5040.49065
D1,Barra do Piraí/RJ,-22.4703403,-43.8263256,269,266.96042
1,Barra do Quaraí/RS,-30.208947,-57.5505128,339,8019.87225
D1,Barra do Quaraí/RS,-30.208947,-57.5505128,3,70.97232
1,Barra do Ribeiro/RS,-30.2930206,-51.301437,968,7140.74948
D1,Barra do Ribeiro/RS,-30.2930206,-51.301437,46,339.33314
1,Barra do Rio Azul/RS,-27.4101581,-52.4117471,66,3987.91541
D1,Barra do Rio Azul/RS,-27.4101581,-52.4117471,1,60.42296
1,Barra do Rocha/BA,-14.2090974,-39.6004395,365,6503.92017
D1,Barra do Rocha/BA,-14.2090974,-39.6004395,4,71.27584
1,Barra do Turvo/SP,-24.756421,-48.5056942,464,6079.66457
D1,Barra do Turvo/SP,-24.756421,-48.5056942,11,144.12998
1,Barra dos Coqueiros/SE,-10.9075694,-37.0386249,5594,18086.00065
D1,Barra dos Coqueiros/SE,-10.9075694,-37.0386249,74,239.24992
1,Barra/BA,-11.0892702,-43.1420453,1646,3053.23688
D1,Barra/BA,-11.0892702,-43.1420453,31,57.50325
1,Barracão/PR,-26.252395,-53.6349576,995,9648.95268
D1,Barracão/PR,-26.252395,-53.6349576,26,252.13344
1,Barracão/RS,-27.6728964,-51.4582928,328,6240.48706
D1,Barracão/RS,-27.6728964,-51.4582928,11,209.28463
1,Barras/PI,-4.2446153,-42.2920241,4145,8784.57137
D1,Barras/PI,-4.2446153,-42.2920241,82,173.78404
1,Barreira/CE,-4.2883361,-38.641094,1113,4930.66938
D1,Barreira/CE,-4.2883361,-38.641094,31,137.33221
1,Barreiras do Piauí/PI,-9.9224524,-45.4763776,62,1849.64200
D1,Barreiras do Piauí/PI,-9.9224524,-45.4763776,1,29.83294
1,Barreiras/BA,-12.1440031,-44.9967406,13415,8545.94681
D1,Barreiras/BA,-12.1440031,-44.9967406,194,123.58656
1,Barreirinha/AM,-2.798863,-57.067897,2311,7114.49066
D1,Barreirinha/AM,-2.798863,-57.067897,61,187.79054
1,Barreirinhas/MA,-2.7541271,-42.8259693,1808,2859.99019
D1,Barreirinhas/MA,-2.7541271,-42.8259693,33,52.20115
1,Barreiros/PE,-8.8159644,-35.1831905,692,1618.18352
D1,Barreiros/PE,-8.8159644,-35.1831905,50,116.92077
1,Barretos/SP,-20.5531437,-48.5697509,10763,8762.30329
D1,Barretos/SP,-20.5531437,-48.5697509,332,270.28567
1,Barrinha/SP,-21.1898849,-48.1550642,1256,3785.41290
D1,Barrinha/SP,-21.1898849,-48.1550642,51,153.70705
1,Barro Alto/BA,-11.7618025,-41.9094904,738,4902.35153
D1,Barro Alto/BA,-11.7618025,-41.9094904,8,53.14202
1,Barro Alto/GO,-14.9696025,-48.9190985,1208,10589.06031
D1,Barro Alto/GO,-14.9696025,-48.9190985,13,113.95512
1,Barro Duro/PI,-5.8180139,-42.5106589,643,9150.41981
D1,Barro Duro/PI,-5.8180139,-42.5106589,9,128.07742
1,Barro Preto/BA,-14.8068289,-39.4727588,553,10150.51395
D1,Barro Preto/BA,-14.8068289,-39.4727588,10,183.55360
1,Barro/CE,-7.1713587,-38.7742136,846,3717.37411
D1,Barro/CE,-7.1713587,-38.7742136,18,79.09307
1,Barrocas/BA,-11.5165,-39.099282894736845,683,4240.91897
D1,Barrocas/BA,-11.5165,-39.099282894736845,18,111.76653
1,Barrolândia/TO,-9.837246,-48.7264346,691,12227.92426
D1,Barrolândia/TO,-9.837246,-48.7264346,19,336.22368
1,Barroquinha/CE,-3.0200371,-41.1339229,938,6235.04387
D1,Barroquinha/CE,-3.0200371,-41.1339229,23,152.88487
1,Barros Cassal/RS,-29.094938,-52.5832366,519,4641.38794
D1,Barros Cassal/RS,-29.094938,-52.5832366,6,53.65766
1,Barroso/MG,-21.187222,-43.976111,1150,5503.18227
D1,Barroso/MG,-21.187222,-43.976111,20,95.70752
1,Barueri/SP,-23.5112184,-46.8764612,23224,8384.66038
D1,Barueri/SP,-23.5112184,-46.8764612,881,318.07121
1,Barão de Antonina/SP,-23.6295651,-49.5632104,224,6403.65923
D1,Barão de Antonina/SP,-23.6295651,-49.5632104,6,171.52659
1,Barão de Cocais/MG,-19.9452437,-43.4870298,3174,9657.39670
D1,Barão de Cocais/MG,-19.9452437,-43.4870298,52,158.21822
1,Barão de Cotegipe/RS,-27.6214694,-52.3765316,559,8444.10876
D1,Barão de Cotegipe/RS,-27.6214694,-52.3765316,6,90.63444
1,Barão de Grajaú/MA,-6.7542591,-43.0263477,320,1690.97442
D1,Barão de Grajaú/MA,-6.7542591,-43.0263477,2,10.56859
1,Barão de Melgaço/MT,-16.195776,-55.9668049,295,3613.42479
D1,Barão de Melgaço/MT,-16.195776,-55.9668049,13,159.23567
1,Barão de Monte Alto/MG,-21.244722,-42.2375,190,3548.74860
D1,Barão de Monte Alto/MG,-21.244722,-42.2375,8,149.42099
1,Barão do Triunfo/RS,-30.3909877,-51.7375349,377,5013.96462
D1,Barão do Triunfo/RS,-30.3909877,-51.7375349,6,79.79785
1,Barão/RS,-29.372474,-51.494908,495,7981.29636
D1,Barão/RS,-29.372474,-51.494908,8,128.99065
1,Bastos/SP,-21.9222474,-50.7317727,730,3483.98797
D1,Bastos/SP,-21.9222474,-50.7317727,25,119.31466
1,Bataguassu/MS,-21.715899,-52.422058,2188,9380.49303
D1,Bataguassu/MS,-21.715899,-52.422058,26,111.46838
1,Batalha/AL,-9.6733809,-37.1265481,930,5071.43636
D1,Batalha/AL,-9.6733809,-37.1265481,15,81.79736
1,Batalha/PI,-4.022391,-42.0780926,887,3296.78498
D1,Batalha/PI,-4.022391,-42.0780926,30,111.50344
1,Batatais/SP,-20.892867,-47.592149,2188,3474.11877
D1,Batatais/SP,-20.892867,-47.592149,96,152.42934
1,Batayporã/MS,-22.2976466,-53.2685608,662,5833.11305
D1,Batayporã/MS,-22.2976466,-53.2685608,11,96.92484
1,Baturité/CE,-4.3290203,-38.8821055,2716,7556.82925
D1,Baturité/CE,-4.3290203,-38.8821055,66,183.63429
1,Bauru/SP,-22.3218102,-49.0705863,36151,9531.05350
D1,Bauru/SP,-22.3218102,-49.0705863,791,208.54370
1,Bayeux/PB,-7.1301631,-34.936532,6046,6219.97263
D1,Bayeux/PB,-7.1301631,-34.936532,214,220.15781
1,Baía Formosa/RN,-6.3691885,-35.0063741,308,3304.01201
D1,Baía Formosa/RN,-6.3691885,-35.0063741,8,85.81849
1,Baía da Traição/PB,-6.691258,-34.9371244,1199,13181.61829
D1,Baía da Traição/PB,-6.691258,-34.9371244,11,120.93228
1,Bebedouro/SP,-20.949077,-48.479083,3317,4276.96473
D1,Bebedouro/SP,-20.949077,-48.479083,91,117.33608
1,Beberibe/CE,-4.1810469,-38.1298101,3649,6763.79544
D1,Beberibe/CE,-4.1810469,-38.1298101,93,172.38503
1,Bela Cruz/CE,-3.0529129,-40.167582,3016,9217.04052
D1,Bela Cruz/CE,-3.0529129,-40.167582,60,183.36288
1,Bela Vista da Caroba/PR,-25.8792818,-53.6672545,159,4599.36361
D1,Bela Vista da Caroba/PR,-25.8792818,-53.6672545,5,144.63408
1,Bela Vista de Goiás/GO,-16.9692949,-48.9513071,2108,6913.28873
D1,Bela Vista de Goiás/GO,-16.9692949,-48.9513071,54,177.09563
1,Bela Vista de Minas/MG,-19.8289721,-43.0973688,685,6675.11206
D1,Bela Vista de Minas/MG,-19.8289721,-43.0973688,16,155.91503
1,Bela Vista do Maranhão/MA,-3.7416367,-45.2514192,302,2677.54234
D1,Bela Vista do Maranhão/MA,-3.7416367,-45.2514192,3,26.59810
1,Bela Vista do Paraíso/PR,-22.9948493,-51.1907996,1620,10520.16365
D1,Bela Vista do Paraíso/PR,-22.9948493,-51.1907996,58,376.64783
1,Bela Vista do Piauí/PI,-7.9716353,-41.8715061,229,5682.38213
D1,Bela Vista do Piauí/PI,-7.9716353,-41.8715061,6,148.88337
1,Bela Vista do Toldo/SC,-26.274625,-50.466354,61,958.81798
D1,Bela Vista do Toldo/SC,-26.274625,-50.466354,2,31.43666
1,Bela Vista/MS,-22.107327,-56.5317344,716,2894.68365
D1,Bela Vista/MS,-22.107327,-56.5317344,20,80.85709
1,Belford Roxo/RJ,-22.7667284,-43.4033603,19103,3722.92533
D1,Belford Roxo/RJ,-22.7667284,-43.4033603,560,109.13669
1,Belmiro Braga/MG,-21.9486291,-43.413564,152,4437.95620
D1,Belmiro Braga/MG,-21.9486291,-43.413564,3,87.59124
1,Belmonte/BA,-15.8630837,-38.8792845,896,3823.01489
D1,Belmonte/BA,-15.8630837,-38.8792845,17,72.53488
1,Belmonte/SC,-26.8448262,-53.578916,209,7715.02399
D1,Belmonte/SC,-26.8448262,-53.578916,4,147.65596
1,Belo Campo/BA,-15.0338286,-41.2585109,677,3956.98171
D1,Belo Campo/BA,-15.0338286,-41.2585109,9,52.60389
1,Belo Horizonte/MG,-19.9227318,-43.9450948,184979,7335.88360
D1,Belo Horizonte/MG,-19.9227318,-43.9450948,4497,178.34170
1,Belo Jardim/PE,-8.3338293,-36.4176419,2657,3464.73327
D1,Belo Jardim/PE,-8.3338293,-36.4176419,82,106.92816
1,Belo Monte/AL,-9.8269944,-37.2787165,253,3770.49180
D1,Belo Monte/AL,-9.8269944,-37.2787165,6,89.41878
1,Belo Oriente/MG,-19.2232523,-42.4807033,2356,8727.86545
D1,Belo Oriente/MG,-19.2232523,-42.4807033,56,207.45351
1,Belo Vale/MG,-20.407778,-44.024167,569,7371.42117
D1,Belo Vale/MG,-20.407778,-44.024167,10,129.55046
1,Belterra/PA,-2.636091,-54.937392,1251,7012.72493
D1,Belterra/PA,-2.636091,-54.937392,24,134.53669
1,Belágua/MA,-3.1604031,-43.5085052,197,2616.89692
D1,Belágua/MA,-3.1604031,-43.5085052,14,185.97237
1,Belém de Maria/PE,-8.6242497,-35.8388934,179,1476.65402
D1,Belém de Maria/PE,-8.6242497,-35.8388934,6,49.49678
1,Belém do Brejo do Cruz/PB,-6.1880727,-37.5332267,487,6626.75194
D1,Belém do Brejo do Cruz/PB,-6.1880727,-37.5332267,5,68.03647
1,Belém do Piauí/PI,-7.3767305,-40.9712156,425,11848.34123
D1,Belém do Piauí/PI,-7.3767305,-40.9712156,7,195.14915
1,Belém do São Francisco/PE,-8.7517707,-38.9625715,566,2730.34250
D1,Belém do São Francisco/PE,-8.7517707,-38.9625715,8,38.59141
1,Belém/AL,-9.5715351,-36.492841,102,2380.95238
D1,Belém/AL,-9.5715351,-36.492841,3,70.02801
1,Belém/PA,-1.45056,-48.4682453,97089,6474.14948
D1,Belém/PA,-1.45056,-48.4682453,4574,305.00633
1,Belém/PB,-6.6967586,-35.5369626,1853,10465.97006
D1,Belém/PB,-6.6967586,-35.5369626,31,175.09178
1,Beneditinos/PI,-5.4565671,-42.3605061,935,8927.71890
D1,Beneditinos/PI,-5.4565671,-42.3605061,30,286.45087
1,Benedito Leite/MA,-7.2173453,-44.5523331,295,5232.35190
D1,Benedito Leite/MA,-7.2173453,-44.5523331,2,35.47357
1,Benedito Novo/SC,-26.7840657,-49.3629511,918,7796.17834
D1,Benedito Novo/SC,-26.7840657,-49.3629511,16,135.88110
1,Benevides/PA,-1.3555577,-48.252235,3630,5692.51035
D1,Benevides/PA,-1.3555577,-48.252235,87,136.43207
1,Benjamin Constant do Sul/RS,-27.5105555,-52.6007689,152,7763.02349
1,Benjamin Constant/AM,-4.3782748,-70.0290603,2673,6083.98771
D1,Benjamin Constant/AM,-4.3782748,-70.0290603,84,191.19153
1,Bento Fernandes/RN,-5.6926846,-35.8207423,111,2009.04977
D1,Bento Fernandes/RN,-5.6926846,-35.8207423,3,54.29864
1,Bento Gonçalves/RS,-29.1654014,-51.5197627,14778,12132.70609
D1,Bento Gonçalves/RS,-29.1654014,-51.5197627,260,213.45944
1,Bento de Abreu/SP,-21.2707225,-50.8120444,247,8219.63394
1,Bequimão/MA,-2.4495376,-44.7884889,275,1291.14043
D1,Bequimão/MA,-2.4495376,-44.7884889,17,79.81595
1,Berilo/MG,-16.9515764,-42.4643732,128,1078.16712
D1,Berilo/MG,-16.9515764,-42.4643732,1,8.42318
1,Berizal/MG,-15.6118785,-41.7417382,104,2183.03946
D1,Berizal/MG,-15.6118785,-41.7417382,1,20.99076
1,Bernardino Batista/PB,-6.4532173,-38.5495418,232,6561.08597
1,Bernardino de Campos/SP,-23.0140216,-49.4760724,395,3540.06094
D1,Bernardino de Campos/SP,-23.0140216,-49.4760724,8,71.69744
1,Bernardo Sayão/TO,-7.8794244,-48.8968905,428,9622.30216
D1,Bernardo Sayão/TO,-7.8794244,-48.8968905,6,134.89209
1,Bernardo do Mearim/MA,-4.6315929,-44.7617508,268,4412.97547
D1,Bernardo do Mearim/MA,-4.6315929,-44.7617508,6,98.79796
1,Bertioga/SP,-23.848568,-46.139586,4706,7270.98558
D1,Bertioga/SP,-23.848568,-46.139586,120,185.40550
1,Bertolínia/PI,-7.6372159,-43.9540611,787,14290.90249
D1,Bertolínia/PI,-7.6372159,-43.9540611,10,181.58707
1,Bertópolis/MG,-17.063333,-40.573889,267,5795.52854
1,Beruri/AM,-3.9007135,-61.3717319,2095,10426.51670
D1,Beruri/AM,-3.9007135,-61.3717319,31,154.28259
1,Betim/MG,-19.968056,-44.198333,25231,5672.64110
D1,Betim/MG,-19.968056,-44.198333,901,202.57024
1,Betânia do Piauí/PI,-8.1460635,-40.7961387,157,2528.18035
D1,Betânia do Piauí/PI,-8.1460635,-40.7961387,2,32.20612
1,Betânia/PE,-8.2742779,-38.0351767,387,3031.72738
D1,Betânia/PE,-8.2742779,-38.0351767,10,78.33921
1,Bezerros/PE,-8.2372132,-35.7558262,3232,5308.80420
D1,Bezerros/PE,-8.2372132,-35.7558262,96,157.68725
1,Bias Fortes/MG,-21.605833,-43.756944,99,2973.86603
D1,Bias Fortes/MG,-21.605833,-43.756944,2,60.07810
1,Bicas/MG,-21.7213723,-43.0604327,1058,7269.47918
D1,Bicas/MG,-21.7213723,-43.0604327,32,219.87083
1,Biguaçu/SC,-27.4961277,-48.6542432,10187,14660.50715
D1,Biguaçu/SC,-27.4961277,-48.6542432,149,214.43168
1,Bilac/SP,-21.403962,-50.47464,722,8894.91191
D1,Bilac/SP,-21.403962,-50.47464,12,147.83787
1,Biquinhas/MG,-18.783611,-45.502222,103,4123.29864
D1,Biquinhas/MG,-18.783611,-45.502222,1,40.03203
1,Birigui/SP,-21.2908491,-50.34144,11318,9062.88286
D1,Birigui/SP,-21.2908491,-50.34144,398,318.69830
1,Biritiba Mirim/SP,-23.5697765,-46.0407456,1031,3130.31333
D1,Biritiba Mirim/SP,-23.5697765,-46.0407456,66,200.38863
1,Biritinga/BA,-11.6227908,-38.8066738,306,1914.41441
D1,Biritinga/BA,-11.6227908,-38.8066738,6,37.53754
1,Bituruna/PR,-26.161281,-51.5533319,589,3591.46341
D1,Bituruna/PR,-26.161281,-51.5533319,10,60.97561
1,Blumenau/SC,-26.9195567,-49.0658025,44713,12356.60693
D1,Blumenau/SC,-26.9195567,-49.0658025,506,139.83502
1,Boa Esperança do Iguaçu/PR,-25.6362851,-53.2139114,139,5627.53036
1,Boa Esperança do Sul/SP,-21.9930206,-48.3917372,699,4654.41470
D1,Boa Esperança do Sul/SP,-21.9930206,-48.3917372,11,73.24544
1,Boa Esperança/ES,-18.5395472,-40.2904088,1154,7646.43520
D1,Boa Esperança/ES,-18.5395472,-40.2904088,35,231.91095
1,Boa Esperança/MG,-21.0901253,-45.5660195,2903,7217.98155
D1,Boa Esperança/MG,-21.0901253,-45.5660195,78,193.93819
1,Boa Esperança/PR,-24.2411024,-52.7860277,247,6103.28638
D1,Boa Esperança/PR,-24.2411024,-52.7860277,7,172.96763
1,Boa Hora/PI,-4.4094627,-42.1255341,486,7131.32795
D1,Boa Hora/PI,-4.4094627,-42.1255341,5,73.36757
1,Boa Nova/BA,-14.365907,-40.2063056,740,6002.10885
D1,Boa Nova/BA,-14.365907,-40.2063056,11,89.22054
1,Boa Ventura de São Roque/PR,-24.88177,-51.5441292,359,5640.21995
D1,Boa Ventura de São Roque/PR,-24.88177,-51.5441292,5,78.55460
1,Boa Ventura/PB,-7.4202462,-38.2156782,281,5294.89354
D1,Boa Ventura/PB,-7.4202462,-38.2156782,4,75.37215
1,Boa Viagem/CE,-5.1261877,-39.7300055,2972,5445.51734
D1,Boa Viagem/CE,-5.1261877,-39.7300055,79,144.74962
1,Boa Vista da Aparecida/PR,-25.4357216,-53.4067721,703,9323.60743
D1,Boa Vista da Aparecida/PR,-25.4357216,-53.4067721,19,251.98939
1,Boa Vista das Missões/RS,-27.6677983,-53.3127622,118,5640.53537
D1,Boa Vista das Missões/RS,-27.6677983,-53.3127622,4,191.20459
1,Boa Vista do Buricá/RS,-27.6687782,-54.1111913,577,8596.54350
D1,Boa Vista do Buricá/RS,-27.6687782,-54.1111913,8,119.18951
1,Boa Vista do Cadeado/RS,-28.5783827,-53.8123759,145,5875.20259
D1,Boa Vista do Cadeado/RS,-28.5783827,-53.8123759,2,81.03728
1,Boa Vista do Gurupi/MA,-1.7981168,-46.3071882,15,178.95490
D1,Boa Vista do Gurupi/MA,-1.7981168,-46.3071882,4,47.72131
1,Boa Vista do Incra/RS,-28.8195551,-53.3866624,157,6001.52905
D1,Boa Vista do Incra/RS,-28.8195551,-53.3866624,3,114.67890
1,Boa Vista do Ramos/AM,-2.9716927,-57.5869819,860,4381.94232
D1,Boa Vista do Ramos/AM,-2.9716927,-57.5869819,11,56.04810
1,Boa Vista do Sul/RS,-29.3510488,-51.6779679,252,9071.27430
D1,Boa Vista do Sul/RS,-29.3510488,-51.6779679,3,107.99136
1,Boa Vista do Tupim/BA,-12.6605988,-40.6083594,189,1019.91258
D1,Boa Vista do Tupim/BA,-12.6605988,-40.6083594,4,21.58545
1,Boa Vista/PB,-7.2620711,-36.2415161,547,7665.35874
D1,Boa Vista/PB,-7.2620711,-36.2415161,9,126.12108
1,Boa Vista/RR,2.8208478,-60.6719582,74681,17795.93568
D1,Boa Vista/RR,2.8208478,-60.6719582,1189,283.33000
1,Boca da Mata/AL,-9.6452054,-36.2116658,1614,5899.98538
D1,Boca da Mata/AL,-9.6452054,-36.2116658,41,149.87571
1,Boca do Acre/AM,-8.7553487,-67.3930873,2487,7180.59766
D1,Boca do Acre/AM,-8.7553487,-67.3930873,22,63.51956
1,Bocaina de Minas/MG,-22.167778,-44.394722,139,2731.38141
D1,Bocaina de Minas/MG,-22.167778,-44.394722,5,98.25113
1,Bocaina do Sul/SC,-27.745494,-49.942279,359,10292.43119
D1,Bocaina do Sul/SC,-27.745494,-49.942279,3,86.00917
1,Bocaina/PI,-6.9445939,-41.3224599,235,5216.42619
D1,Bocaina/PI,-6.9445939,-41.3224599,3,66.59267
1,Bocaina/SP,-22.1421831,-48.522276,1091,8761.64472
D1,Bocaina/SP,-22.1421831,-48.522276,26,208.80180
1,Bocaiúva do Sul/PR,-25.206591,-49.114131,1423,10838.60157
D1,Bocaiúva do Sul/PR,-25.206591,-49.114131,13,99.01744
1,Bocaiúva/MG,-17.1160208,-43.8122678,1794,3569.72302
D1,Bocaiúva/MG,-17.1160208,-43.8122678,43,85.56192
1,Bodocó/PE,-7.777592,-39.933797,1579,4114.33634
D1,Bodocó/PE,-7.777592,-39.933797,24,62.53583
1,Bodoquena/MS,-20.5508775,-56.6769653,269,3431.99796
D1,Bodoquena/MS,-20.5508775,-56.6769653,11,140.34192
1,Bodó/RN,-5.9866104,-36.4134824,101,4597.17797
1,Bofete/SP,-23.1019554,-48.2610535,567,4756.31239
D1,Bofete/SP,-23.1019554,-48.2610535,13,109.05125
1,Boituva/SP,-23.2838893,-47.6738231,4339,6979.25044
D1,Boituva/SP,-23.2838893,-47.6738231,105,168.89175
1,Bom Conselho/PE,-9.169191,-36.685683,1354,2776.46769
D1,Bom Conselho/PE,-9.169191,-36.685683,44,90.22495
1,Bom Despacho/MG,-19.7375242,-45.2517288,2854,5593.00776
D1,Bom Despacho/MG,-19.7375242,-45.2517288,63,123.46163
1,Bom Jardim da Serra/SC,-28.3380324,-49.625588,543,11378.87678
D1,Bom Jardim da Serra/SC,-28.3380324,-49.625588,4,83.82230
1,Bom Jardim de Goiás/GO,-16.2062659,-52.172793,597,6731.31131
D1,Bom Jardim de Goiás/GO,-16.2062659,-52.172793,13,146.57797
1,Bom Jardim de Minas/MG,-21.9476466,-44.1906033,366,5666.51184
D1,Bom Jardim de Minas/MG,-21.9476466,-44.1906033,1,15.48227
1,Bom Jardim/MA,-3.54129,-45.606004,1201,2871.69432
D1,Bom Jardim/MA,-3.54129,-45.606004,40,95.64344
1,Bom Jardim/PE,-7.7961572,-35.5871696,1083,2708.65118
D1,Bom Jardim/PE,-7.7961572,-35.5871696,48,120.05102
1,Bom Jardim/RJ,-22.1515328,-42.4186683,1250,4526.36153
D1,Bom Jardim/RJ,-22.1515328,-42.4186683,30,108.63268
1,Bom Jesus da Lapa/BA,-13.250571,-43.410754,3541,5083.11562
D1,Bom Jesus da Lapa/BA,-13.250571,-43.410754,54,77.51715
1,Bom Jesus da Penha/MG,-21.0165299,-46.5226644,297,6998.11499
D1,Bom Jesus da Penha/MG,-21.0165299,-46.5226644,8,188.50141
1,Bom Jesus da Serra/BA,-14.3724084,-40.5047119,414,4214.59839
D1,Bom Jesus da Serra/BA,-14.3724084,-40.5047119,8,81.44151
1,Bom Jesus das Selvas/MA,-4.4878075,-46.8526639,2748,7949.77869
D1,Bom Jesus das Selvas/MA,-4.4878075,-46.8526639,22,63.64452
1,Bom Jesus de Goiás/GO,-18.2174587,-49.739721,2432,9482.22084
D1,Bom Jesus de Goiás/GO,-18.2174587,-49.739721,94,366.50031
1,Bom Jesus do Amparo/MG,-19.7045132,-43.4752911,180,2934.94212
D1,Bom Jesus do Amparo/MG,-19.7045132,-43.4752911,6,97.83140
1,Bom Jesus do Araguaia/MT,-12.1725897,-51.5074425,857,12779.60036
D1,Bom Jesus do Araguaia/MT,-12.1725897,-51.5074425,14,208.76827
1,Bom Jesus do Galho/MG,-19.8283191,-42.3162256,537,3613.24182
D1,Bom Jesus do Galho/MG,-19.8283191,-42.3162256,24,161.48567
1,Bom Jesus do Itabapoana/RJ,-21.1341025,-41.680095,2682,7209.09604
D1,Bom Jesus do Itabapoana/RJ,-21.1341025,-41.680095,73,196.22073
1,Bom Jesus do Norte/ES,-21.1254776,-41.6711646,863,8662.91909
D1,Bom Jesus do Norte/ES,-21.1254776,-41.6711646,21,210.80104
1,Bom Jesus do Oeste/SC,-26.6929713,-53.0967453,151,7059.37354
D1,Bom Jesus do Oeste/SC,-26.6929713,-53.0967453,5,233.75409
1,Bom Jesus do Sul/PR,-26.1922507,-53.6002033,246,7016.54307
D1,Bom Jesus do Sul/PR,-26.1922507,-53.6002033,3,85.56760
1,Bom Jesus do Tocantins/PA,-5.0471796,-48.5978362,698,4077.57916
D1,Bom Jesus do Tocantins/PA,-5.0471796,-48.5978362,23,134.36149
1,Bom Jesus do Tocantins/TO,-8.96306,-48.165043,123,2456.07029
D1,Bom Jesus do Tocantins/TO,-8.96306,-48.165043,2,39.93610
1,Bom Jesus dos Perdões/SP,-23.1353864,-46.4648052,1712,6588.41639
D1,Bom Jesus dos Perdões/SP,-23.1353864,-46.4648052,23,88.51260
1,Bom Jesus/PB,-6.8156725,-38.6551841,119,4621.35922
D1,Bom Jesus/PB,-6.8156725,-38.6551841,3,116.50485
1,Bom Jesus/PI,-9.0711644,-44.3583926,2853,11238.03521
D1,Bom Jesus/PI,-9.0711644,-44.3583926,29,114.23169
1,Bom Jesus/RN,-5.9887544,-35.5821149,616,5999.80520
D1,Bom Jesus/RN,-5.9887544,-35.5821149,12,116.87932
1,Bom Jesus/RS,-28.6692723,-50.4346894,624,5517.72924
D1,Bom Jesus/RS,-28.6692723,-50.4346894,14,123.79521
1,Bom Jesus/SC,-26.7350604,-52.3916519,321,10500.49068
D1,Bom Jesus/SC,-26.7350604,-52.3916519,6,196.27085
1,Bom Lugar/MA,-4.3728019,-45.0366054,435,2646.30734
D1,Bom Lugar/MA,-4.3728019,-45.0366054,7,42.58426
1,Bom Princípio do Piauí/PI,-3.1912777,-41.6430185,117,2070.43001
D1,Bom Princípio do Piauí/PI,-3.1912777,-41.6430185,10,176.95983
1,Bom Princípio/RS,-29.489788,-51.3566782,1385,9715.88916
D1,Bom Princípio/RS,-29.489788,-51.3566782,25,175.37706
1,Bom Progresso/RS,-27.5490948,-53.8655601,117,6161.13744
D1,Bom Progresso/RS,-27.5490948,-53.8655601,3,157.97788
1,Bom Repouso/MG,-22.4657069,-46.1485376,661,6273.13277
D1,Bom Repouso/MG,-22.4657069,-46.1485376,14,132.86514
1,Bom Retiro do Sul/RS,-29.6000007,-51.9359243,904,7296.20662
D1,Bom Retiro do Sul/RS,-29.6000007,-51.9359243,24,193.70460
1,Bom Retiro/SC,-27.798993,-49.486994,606,6023.85686
D1,Bom Retiro/SC,-27.798993,-49.486994,14,139.16501
1,Bom Sucesso de Itararé/SP,-24.3190016,-49.1446207,120,3012.04819
D1,Bom Sucesso de Itararé/SP,-24.3190016,-49.1446207,5,125.50201
1,Bom Sucesso do Sul/PR,-26.0749256,-52.8348629,310,9526.73632
D1,Bom Sucesso do Sul/PR,-26.0749256,-52.8348629,6,184.38844
1,Bom Sucesso/MG,-21.0323516,-44.7598082,540,3066.96200
D1,Bom Sucesso/MG,-21.0323516,-44.7598082,5,28.39780
1,Bom Sucesso/PB,-6.4458948,-37.9297662,197,3974.97982
D1,Bom Sucesso/PB,-6.4458948,-37.9297662,2,40.35513
1,Bom Sucesso/PR,-23.7088019,-51.7651297,629,8899.26429
D1,Bom Sucesso/PR,-23.7088019,-51.7651297,12,169.77929
1,Bombinhas/SC,-27.1519159,-48.4875691,3269,16075.73150
D1,Bombinhas/SC,-27.1519159,-48.4875691,51,250.79911
1,Bonfim do Piauí/PI,-9.1648678,-42.8734415,287,5048.37291
D1,Bonfim do Piauí/PI,-9.1648678,-42.8734415,6,105.54090
1,Bonfim/MG,-20.3266626, -44.2386157,342,4985.42274
D1,Bonfim/MG,-20.3266626, -44.2386157,14,204.08163
1,Bonfim/RR,3.3613818,-59.8427241,2170,17281.19774
D1,Bonfim/RR,3.3613818,-59.8427241,24,191.12845
1,Bonfinópolis de Minas/MG,-16.5660011,-45.98645,375,6888.31741
D1,Bonfinópolis de Minas/MG,-16.5660011,-45.98645,10,183.68846
1,Bonfinópolis/GO,-16.6172709,-48.9615701,440,4435.93104
D1,Bonfinópolis/GO,-16.6172709,-48.9615701,16,161.30658
1,Boninal/BA,-12.7095183,-41.8299984,569,3938.80659
D1,Boninal/BA,-12.7095183,-41.8299984,7,48.45632
1,Bonito de Minas/MG,-15.3191266,-44.7544,43,378.22148
1,Bonito de Santa Fé/PB,-7.3143332,-38.5146677,407,3385.45999
D1,Bonito de Santa Fé/PB,-7.3143332,-38.5146677,11,91.49892
1,Bonito/BA,-11.9665473,-41.2649896,649,3843.87586
D1,Bonito/BA,-11.9665473,-41.2649896,10,59.22767
1,Bonito/MS,-21.1264766,-56.4902208,2198,9905.36278
D1,Bonito/MS,-21.1264766,-56.4902208,46,207.30059
1,Bonito/PA,-1.3605722,-47.3049907,350,2117.36237
D1,Bonito/PA,-1.3605722,-47.3049907,12,72.59528
1,Bonito/PE,-8.4721161,-35.7314591,614,1610.82981
D1,Bonito/PE,-8.4721161,-35.7314591,34,89.19905
1,Bonópolis/GO,-13.649331,-49.8329113,140,3115.95816
D1,Bonópolis/GO,-13.649331,-49.8329113,1,22.25684
1,Boqueirão do Leão/RS,-29.30332,-52.4296817,553,7179.95326
D1,Boqueirão do Leão/RS,-29.30332,-52.4296817,28,363.54194
1,Boqueirão do Piauí/PI,-4.4850148,-42.1095161,492,7656.39589
D1,Boqueirão do Piauí/PI,-4.4850148,-42.1095161,8,124.49424
1,Boqueirão/PB,-7.487004,-36.130887,1296,7252.37829
D1,Boqueirão/PB,-7.487004,-36.130887,22,123.11136
1,Boquim/SE,-11.1450175,-37.6204228,1824,6780.92122
D1,Boquim/SE,-11.1450175,-37.6204228,43,159.85724
1,Boquira/BA,-12.8184859,-42.7270883,462,2149.13709
D1,Boquira/BA,-12.8184859,-42.7270883,10,46.51812
1,Boracéia/SP,-22.195355,-48.7801925,772,15858.66886
D1,Boracéia/SP,-22.195355,-48.7801925,19,390.30403
1,Borba/AM,-4.3934778,-59.5947721,1853,4438.53598
D1,Borba/AM,-4.3934778,-59.5947721,53,126.95219
1,Borborema/PB,-6.8066718,-35.5990191,339,6411.95385
D1,Borborema/PB,-6.8066718,-35.5990191,8,151.31455
1,Borborema/SP,-21.6212706,-49.074135,1022,6322.69240
D1,Borborema/SP,-21.6212706,-49.074135,34,210.34397
1,Borda da Mata/MG,-22.274167,-46.165278,1097,5592.94382
D1,Borda da Mata/MG,-22.274167,-46.165278,34,173.34557
1,Borebi/SP,-22.5700178,-48.9714871,131,4882.59411
D1,Borebi/SP,-22.5700178,-48.9714871,2,74.54342
1,Borrazópolis/PR,-23.9393362,-51.5850786,510,7920.48455
D1,Borrazópolis/PR,-23.9393362,-51.5850786,16,248.48579
1,Borá/SP,-22.2701088,-50.544407,66,7875.89499
1,Bossoroca/RS,-28.7278885,-54.9120278,364,5866.23691
D1,Bossoroca/RS,-28.7278885,-54.9120278,19,306.20467
1,Botelhos/MG,-21.65,-46.394722,1199,8020.60338
D1,Botelhos/MG,-21.65,-46.394722,16,107.03057
1,Botucatu/SP,-22.8879628,-48.4410712,11204,7563.62654
D1,Botucatu/SP,-22.8879628,-48.4410712,211,142.44245
1,Botumirim/MG,-16.862778,-43.011111,179,2846.69211
D1,Botumirim/MG,-16.862778,-43.011111,3,47.70992
1,Botuporã/BA,-13.3744752,-42.5198469,188,1856.05687
D1,Botuporã/BA,-13.3744752,-42.5198469,3,29.61793
1,Botuverá/SC,-27.200749,-49.068892,825,15501.69109
D1,Botuverá/SC,-27.200749,-49.068892,8,150.31943
1,Bozano/RS,-28.3669953,-53.7705165,209,9900.52108
D1,Bozano/RS,-28.3669953,-53.7705165,7,331.59640
1,Braga/RS,-27.617348,-53.740514,168,5073.99577
D1,Braga/RS,-27.617348,-53.740514,4,120.80942
1,Braganey/PR,-24.8179919,-53.118506,305,5667.03828
D1,Braganey/PR,-24.8179919,-53.118506,7,130.06317
1,Bragança Paulista/SP,-22.9520235,-46.5418586,13148,7709.94470
D1,Bragança Paulista/SP,-22.9520235,-46.5418586,370,216.96680
1,Bragança/PA,-1.0573967,-46.7635406,3524,2733.60535
D1,Bragança/PA,-1.0573967,-46.7635406,120,93.08531
1,Branquinha/AL,-9.2478057,-36.0152009,449,4292.54302
D1,Branquinha/AL,-9.2478057,-36.0152009,9,86.04207
1,Brasil Novo/PA,-3.3055853,-52.539198,1549,10338.38350
D1,Brasil Novo/PA,-3.3055853,-52.539198,34,226.92385
1,Brasileira/PI,-4.131182,-41.7824969,472,5654.72625
D1,Brasileira/PI,-4.131182,-41.7824969,9,107.82317
1,Brasilândia de Minas/MG,-17.0096469,-46.0087183,935,5582.75615
D1,Brasilândia de Minas/MG,-17.0096469,-46.0087183,11,65.67948
1,Brasilândia do Sul/PR,-24.1975793,-53.527551,326,12611.21857
D1,Brasilândia do Sul/PR,-24.1975793,-53.527551,8,309.47776
1,Brasilândia do Tocantins/TO,-8.3886619,-48.4842729,136,6151.06287
D1,Brasilândia do Tocantins/TO,-8.3886619,-48.4842729,4,180.91361
1,Brasilândia/MS,-21.255575,-52.0365617,747,6302.20197
D1,Brasilândia/MS,-21.255575,-52.0365617,14,118.11356
1,Brasiléia/AC,-11.0010413,-68.7487894,2537,9501.16096
D1,Brasiléia/AC,-11.0010413,-68.7487894,36,134.82136
1,Brasnorte/MT,-12.1227151,-58.0050109,1724,8560.07944
D1,Brasnorte/MT,-12.1227151,-58.0050109,28,139.02681
1,Brasília de Minas/MG,-16.2075114,-44.430559,832,2567.50501
D1,Brasília de Minas/MG,-16.2075114,-44.430559,7,21.60160
1,Brasília/DF,-15.7934036,-47.8823172,385763,12626.65094
D1,Brasília/DF,-15.7934036,-47.8823172,8087,264.70067
1,Brazabrantes/GO,-16.4291635,-49.3858216,369,9850.50721
D1,Brazabrantes/GO,-16.4291635,-49.3858216,3,80.08542
1,Brazópolis/MG,-22.4742842,-45.6165577,671,4656.48855
D1,Brazópolis/MG,-22.4742842,-45.6165577,27,187.36988
1,Braço do Norte/SC,-28.2728633,-49.1622712,7086,20917.46369
D1,Braço do Norte/SC,-28.2728633,-49.1622712,74,218.44374
1,Braço do Trombudo/SC,-27.358578,-49.882145,566,15017.24595
D1,Braço do Trombudo/SC,-27.358578,-49.882145,4,106.12895
1,Braúna/SP,-21.5015319,-50.3175246,363,6322.94025
D1,Braúna/SP,-21.5015319,-50.3175246,19,330.95280
1,Braúnas/MG,-19.055556,-42.716111,191,4005.03250
D1,Braúnas/MG,-19.055556,-42.716111,7,146.78130
1,Brejetuba/ES,-20.1465817,-41.2902303,1438,11571.57802
D1,Brejetuba/ES,-20.1465817,-41.2902303,13,104.61093
1,Brejinho de Nazaré/TO,-11.0205883,-48.5722906,396,7175.21290
D1,Brejinho de Nazaré/TO,-11.0205883,-48.5722906,9,163.07302
1,Brejinho/PE,-7.3482153,-37.28538,577,7705.66239
D1,Brejinho/PE,-7.3482153,-37.28538,11,146.90171
1,Brejinho/RN,-6.1957907,-35.3583019,942,7366.85696
D1,Brejinho/RN,-6.1957907,-35.3583019,8,62.56354
1,Brejo Alegre/SP,-21.1671191,-50.1850393,262,9068.88197
D1,Brejo Alegre/SP,-21.1671191,-50.1850393,11,380.75459
1,Brejo Grande do Araguaia/PA,-5.7011449,-48.4037308,751,10192.72530
D1,Brejo Grande do Araguaia/PA,-5.7011449,-48.4037308,4,54.28882
1,Brejo Grande/SE,-10.4287358,-36.4667918,322,3854.90243
D1,Brejo Grande/SE,-10.4287358,-36.4667918,12,143.66096
1,Brejo Santo/CE,-7.4909841,-38.9859152,7165,14375.42635
D1,Brejo Santo/CE,-7.4909841,-38.9859152,122,244.77348
1,Brejo da Madre de Deus/PE,-8.1409718,-36.3712527,1752,3420.20498
D1,Brejo da Madre de Deus/PE,-8.1409718,-36.3712527,46,89.79990
1,Brejo de Areia/MA,-4.3316785,-45.5833334,281,3117.37298
D1,Brejo de Areia/MA,-4.3316785,-45.5833334,8,88.75083
1,Brejo do Cruz/PB,-6.32926065,-37.48746163303929,1232,8672.39195
D1,Brejo do Cruz/PB,-6.32926065,-37.48746163303929,19,133.74630
1,Brejo do Piauí/PI,-8.207583,-42.8359849,62,1611.22661
D1,Brejo do Piauí/PI,-8.207583,-42.8359849,3,77.96258
1,Brejo dos Santos/PB,-6.3769367,-37.8243125,362,5600.24752
D1,Brejo dos Santos/PB,-6.3769367,-37.8243125,4,61.88119
1,Brejo/MA,-3.6804397,-42.7529313,829,2261.87553
D1,Brejo/MA,-3.6804397,-42.7529313,19,51.84033
1,Brejolândia/BA,-12.4843845,-43.9611861,129,1214.91806
D1,Brejolândia/BA,-12.4843845,-43.9611861,8,75.34376
1,Brejão/PE,-9.029146,-36.566034,179,1991.76588
D1,Brejão/PE,-9.029146,-36.566034,5,55.63592
1,Brejões/BA,-13.1033754,-39.7909837,549,3860.21657
D1,Brejões/BA,-13.1033754,-39.7909837,8,56.25088
1,Breu Branco/PA,-3.7785073,-49.5684795,580,861.40320
D1,Breu Branco/PA,-3.7785073,-49.5684795,42,62.37747
1,Breves/PA,-1.68036,-50.479085,3819,3689.96203
D1,Breves/PA,-1.68036,-50.479085,109,105.31706
1,Britânia/GO,-15.2427599,-51.1602061,455,7848.88736
D1,Britânia/GO,-15.2427599,-51.1602061,3,51.75091
1,Brochier/RS,-29.556766,-51.5963047,354,6935.73668
D1,Brochier/RS,-29.556766,-51.5963047,1,19.59248
1,Brodowski/SP,-20.984532,-47.657217,1818,7192.30921
D1,Brodowski/SP,-20.984532,-47.657217,47,185.93979
1,Brotas de Macaúbas/BA,-12.0019007,-42.6257506,66,651.53011
D1,Brotas de Macaúbas/BA,-12.0019007,-42.6257506,1,9.87167
1,Brotas/SP,-22.2840884,-48.1267265,443,1798.18152
D1,Brotas/SP,-22.2840884,-48.1267265,30,121.77302
1,Brumadinho/MG,-20.143611,-44.2,2920,7180.44558
D1,Brumadinho/MG,-20.143611,-44.2,70,172.13397
1,Brumado/BA,-14.29507325,-41.659307508575985,8237,12232.86552
D1,Brumado/BA,-14.29507325,-41.659307508575985,164,243.55833
1,Brunópolis/SC,-27.310953,-50.837585,229,9670.60811
D1,Brunópolis/SC,-27.310953,-50.837585,6,253.37838
1,Brusque/SC,-27.0964628,-48.9136323,23141,16806.71659
D1,Brusque/SC,-27.0964628,-48.9136323,234,169.94822
1,Brás Pires/MG,-20.8483109,-43.2430524,172,4006.52225
D1,Brás Pires/MG,-20.8483109,-43.2430524,6,139.76240
1,Bueno Brandão/MG,-22.441976,-46.3517971,550,5004.09426
D1,Bueno Brandão/MG,-22.441976,-46.3517971,18,163.77036
1,Buenos Aires/PE,-7.7218931,-35.326587,214,1622.44124
D1,Buenos Aires/PE,-7.7218931,-35.326587,19,144.04852
1,Buenópolis/MG,-17.8756607,-44.1749365,305,2946.00599
D1,Buenópolis/MG,-17.8756607,-44.1749365,9,86.93132
1,Buerarema/BA,-14.9571177,-39.3008035,1239,6768.27270
D1,Buerarema/BA,-14.9571177,-39.3008035,37,202.11952
1,Bugre/MG,-19.4257687,-42.2556,350,8787.34622
D1,Bugre/MG,-19.4257687,-42.2556,10,251.06703
1,Bujari/AC,-9.8309656,-67.9520886,1092,10479.84645
D1,Bujari/AC,-9.8309656,-67.9520886,14,134.35701
1,Bujaru/PA,-1.5169239,-48.0410699,1270,4315.76443
D1,Bujaru/PA,-1.5169239,-48.0410699,36,122.33663
1,Buri/SP,-23.79849,-48.598924,2134,10688.70523
D1,Buri/SP,-23.79849,-48.598924,56,280.49086
1,Buritama/SP,-21.0664017,-50.1448077,1854,10728.54580
D1,Buritama/SP,-21.0664017,-50.1448077,54,312.48192
1,Buriti Alegre/GO,-18.1377879,-49.0404411,803,8466.89161
D1,Buriti Alegre/GO,-18.1377879,-49.0404411,28,295.23408
1,Buriti Bravo/MA,-5.8391884,-43.8367876,1241,5184.00936
D1,Buriti Bravo/MA,-5.8391884,-43.8367876,12,50.12741
1,Buriti de Goiás/GO,-16.180644,-50.4287479,175,7067.85137
D1,Buriti de Goiás/GO,-16.180644,-50.4287479,7,282.71405
1,Buriti do Tocantins/TO,-5.3187439,-48.2256609,682,5931.98226
D1,Buriti do Tocantins/TO,-5.3187439,-48.2256609,8,69.58337
1,Buriti dos Lopes/PI,-3.1776723,-41.8707444,1184,5977.68466
D1,Buriti dos Lopes/PI,-3.1776723,-41.8707444,23,116.12056
1,Buriti dos Montes/PI,-5.3136171,-41.0971256,547,6619.07067
D1,Buriti dos Montes/PI,-5.3136171,-41.0971256,7,84.70474
1,Buriti/MA,-3.9430944,-42.9244281,751,2607.81999
D1,Buriti/MA,-3.9430944,-42.9244281,7,24.30724
1,Buriticupu/MA,-4.3227472,-46.4516989,2965,4062.58992
D1,Buriticupu/MA,-4.3227472,-46.4516989,38,52.06692
1,Buritinópolis/GO,-14.4589282,-46.4293104,157,4782.21139
D1,Buritinópolis/GO,-14.4589282,-46.4293104,1,30.45995
1,Buritirama/BA,-10.7148421,-43.6362327,782,3675.50291
D1,Buritirama/BA,-10.7148421,-43.6362327,18,84.60237
1,Buritirana/MA,-5.5897455,-47.0148915,343,2217.62462
D1,Buritirana/MA,-5.5897455,-47.0148915,23,148.70369
1,Buritis/MG,-15.621389,-46.423889,1372,5485.14772
D1,Buritis/MG,-15.621389,-46.423889,26,103.94595
1,Buritis/RO,-10.2054937,-63.8281954,4209,10429.67588
D1,Buritis/RO,-10.2054937,-63.8281954,61,151.15472
1,Buritizal/SP,-20.1933264,-47.7097165,230,5095.25919
D1,Buritizal/SP,-20.1933264,-47.7097165,9,199.37971
1,Buritizeiro/MG,-17.3667765,-44.9647781,947,3367.59006
D1,Buritizeiro/MG,-17.3667765,-44.9647781,28,99.56972
1,Butiá/RS,-30.1256795,-51.9692224,1708,8151.96640
D1,Butiá/RS,-30.1256795,-51.9692224,46,219.54945
1,Buíque/PE,-8.6239732,-37.157296,1781,3022.79401
D1,Buíque/PE,-8.6239732,-37.157296,37,62.79808
1,Bálsamo/SP,-20.7343722,-49.5807484,1282,14027.79298
D1,Bálsamo/SP,-20.7343722,-49.5807484,49,536.16369
0,CASO SEM LOCALIZAÇÃO DEFINIDA/BA,-13.415069300066518,-38.14174656569957,10128,68.09626
D0,CASO SEM LOCALIZAÇÃO DEFINIDA/BA,-13.415069300066518,-38.14174656569957,182,1.22369
0,CASO SEM LOCALIZAÇÃO DEFINIDA/CE,-3.3445126297392798,-38.624961942434304,8565,93.79026
0,CASO SEM LOCALIZAÇÃO DEFINIDA/ES,-20.30989267097039,-39.81745156645774,3405,84.72995
D0,CASO SEM LOCALIZAÇÃO DEFINIDA/ES,-20.30989267097039,-39.81745156645774,172,4.28004
0,CASO SEM LOCALIZAÇÃO DEFINIDA/GO,-16.701590966270153,-49.164524059025034,81,1.15412
0,CASO SEM LOCALIZAÇÃO DEFINIDA/MG,-19.97049116501593,-43.8852149072783,4266,20.15231
D0,CASO SEM LOCALIZAÇÃO DEFINIDA/MG,-19.97049116501593,-43.8852149072783,262,1.23767
0,CASO SEM LOCALIZAÇÃO DEFINIDA/MT,-15.54791153961863,-56.17143998972475,1116,32.02786
D0,CASO SEM LOCALIZAÇÃO DEFINIDA/MT,-15.54791153961863,-56.17143998972475,126,3.61605
0,CASO SEM LOCALIZAÇÃO DEFINIDA/PR,-25.69415946385943,-48.10141676336737,5749,50.28006
D0,CASO SEM LOCALIZAÇÃO DEFINIDA/PR,-25.69415946385943,-48.10141676336737,146,1.27690
0,CASO SEM LOCALIZAÇÃO DEFINIDA/RN,-5.749310788669161,-34.95302586257457,673,19.19100
D0,CASO SEM LOCALIZAÇÃO DEFINIDA/RN,-5.749310788669161,-34.95302586257457,32,0.91250
0,CASO SEM LOCALIZAÇÃO DEFINIDA/RR,2.813328208465927,-60.663338675861986,2538,418.97712
D0,CASO SEM LOCALIZAÇÃO DEFINIDA/RR,2.813328208465927,-60.663338675861986,14,2.31114
0,CASO SEM LOCALIZAÇÃO DEFINIDA/SP,-24.30968974555485,-46.21366504207253,690,1.50264
1,Caapiranga/AM,-3.3188884,-61.2096404,562,4230.97192
D1,Caapiranga/AM,-3.3188884,-61.2096404,20,150.56840
1,Caaporã/PB,-7.510234,-34.9154114,1661,7565.47483
D1,Caaporã/PB,-7.510234,-34.9154114,28,127.53359
1,Caarapó/MS,-22.6349267,-54.8240903,2612,8537.90083
D1,Caarapó/MS,-22.6349267,-54.8240903,25,81.71804
1,Caatiba/BA,-14.9782759,-40.4092325,722,11128.23674
D1,Caatiba/BA,-14.9782759,-40.4092325,8,123.30456
1,Cabaceiras do Paraguaçu/BA,-12.5377868,-39.1901339,452,2390.14330
D1,Cabaceiras do Paraguaçu/BA,-12.5377868,-39.1901339,4,21.15171
1,Cabaceiras/PB,-7.4899156,-36.2860501,308,5440.73485
D1,Cabaceiras/PB,-7.4899156,-36.2860501,2,35.32945
1,Cabeceira Grande/MG,-16.0297,-47.0906,276,3949.62793
D1,Cabeceira Grande/MG,-16.0297,-47.0906,4,57.24098
1,Cabeceiras do Piauí/PI,-4.4733665,-42.3098716,458,4308.56068
D1,Cabeceiras do Piauí/PI,-4.4733665,-42.3098716,10,94.07338
1,Cabeceiras/GO,-15.7995459,-46.9264991,290,3604.27542
D1,Cabeceiras/GO,-15.7995459,-46.9264991,11,136.71390
1,Cabedelo/PB,-6.97324,-34.8351609,7542,10967.46986
D1,Cabedelo/PB,-6.97324,-34.8351609,168,244.30323
1,Cabixi/RO,-13.4956065,-60.5424442,647,12471.08712
D1,Cabixi/RO,-13.4956065,-60.5424442,15,289.12876
1,Cabo Frio/RJ,-22.8804369,-42.0189227,10531,4571.18301
D1,Cabo Frio/RJ,-22.8804369,-42.0189227,550,238.73807
1,Cabo Verde/MG,-21.4743338,-46.3964995,361,2564.83126
D1,Cabo Verde/MG,-21.4743338,-46.3964995,5,35.52398
1,Cabo de Santo Agostinho/PE,-8.2838945,-35.0320984,4869,2330.28946
D1,Cabo de Santo Agostinho/PE,-8.2838945,-35.0320984,401,191.91745
1,Cabreúva/SP,-23.3075813,-47.1324417,3042,6032.24335
D1,Cabreúva/SP,-23.3075813,-47.1324417,71,140.79200
1,Cabrobó/PE,-8.5083701,-39.3106961,1606,4654.66771
D1,Cabrobó/PE,-8.5083701,-39.3106961,20,57.96597
1,Cabrália Paulista/SP,-22.4562909,-49.3385645,249,5868.48928
D1,Cabrália Paulista/SP,-22.4562909,-49.3385645,2,47.13646
1,Cacaulândia/RO,-10.3380043,-62.9007231,759,12107.19413
D1,Cacaulândia/RO,-10.3380043,-62.9007231,9,143.56357
1,Cacequi/RS,-29.8838059,-54.8273443,410,3300.33003
D1,Cacequi/RS,-29.8838059,-54.8273443,6,48.29751
1,Cachoeira Alta/GO,-18.7618269,-50.9432431,1185,9355.75557
D1,Cachoeira Alta/GO,-18.7618269,-50.9432431,17,134.21759
1,Cachoeira Dourada/GO,-18.4934204,-49.481062,378,4706.76130
D1,Cachoeira Dourada/GO,-18.4934204,-49.481062,15,186.77624
1,Cachoeira Dourada/MG,-18.517136,-49.5002062,135,4988.91353
D1,Cachoeira Dourada/MG,-18.517136,-49.5002062,2,73.90983
1,Cachoeira Grande/MA,-2.9290492,-44.0573223,221,2331.71555
D1,Cachoeira Grande/MA,-2.9290492,-44.0573223,5,52.75375
1,Cachoeira Paulista/SP,-22.666498,-45.015384,1966,5854.50106
D1,Cachoeira Paulista/SP,-22.666498,-45.015384,30,89.33623
1,Cachoeira da Prata/MG,-19.524723,-44.453056,226,6293.51156
D1,Cachoeira da Prata/MG,-19.524723,-44.453056,4,111.38959
1,Cachoeira de Goiás/GO,-16.6688414,-50.6435997,56,4172.87630
D1,Cachoeira de Goiás/GO,-16.6688414,-50.6435997,2,149.03130
1,Cachoeira de Minas/MG,-22.3554043,-45.7796324,528,4559.97927
D1,Cachoeira de Minas/MG,-22.3554043,-45.7796324,7,60.45427
1,Cachoeira de Pajeú/MG,-15.965833,-41.496666,293,3103.15611
D1,Cachoeira de Pajeú/MG,-15.965833,-41.496666,8,84.72781
1,Cachoeira do Arari/PA,-1.0143572,-48.9621089,449,1865.85771
D1,Cachoeira do Arari/PA,-1.0143572,-48.9621089,19,78.95612
1,Cachoeira do Piriá/PA,-1.7599443,-46.5446954,717,2071.71545
D1,Cachoeira do Piriá/PA,-1.7599443,-46.5446954,4,11.55769
1,Cachoeira do Sul/RS,-30.0474778,-52.8905413,6646,8117.84680
D1,Cachoeira do Sul/RS,-30.0474778,-52.8905413,106,129.47514
1,Cachoeira dos Índios/PB,-6.9259193,-38.6742159,592,5744.78409
D1,Cachoeira dos Índios/PB,-6.9259193,-38.6742159,14,135.85638
1,Cachoeira/BA,-12.5998256,-38.9665918,1264,3765.60312
D1,Cachoeira/BA,-12.5998256,-38.9665918,18,53.62410
1,Cachoeiras de Macacu/RJ,-22.4626861,-42.6534414,2434,4104.34548
D1,Cachoeiras de Macacu/RJ,-22.4626861,-42.6534414,84,141.64545
1,Cachoeirinha/PE,-8.4906364,-36.2338963,408,1990.14682
D1,Cachoeirinha/PE,-8.4906364,-36.2338963,23,112.18965
1,Cachoeirinha/RS,-29.9493353,-51.0898927,12345,9406.43097
D1,Cachoeirinha/RS,-29.9493353,-51.0898927,360,274.30661
1,Cachoeirinha/TO,-6.118647,-47.9208885,117,5122.59194
D1,Cachoeirinha/TO,-6.118647,-47.9208885,2,87.56567
1,Cachoeiro de Itapemirim/ES,-20.848084,-41.11129,22677,10768.36872
D1,Cachoeiro de Itapemirim/ES,-20.848084,-41.11129,473,224.60812
1,Cacimba de Areia/PB,-7.1288513,-37.1575194,30,811.90798
D1,Cacimba de Areia/PB,-7.1288513,-37.1575194,2,54.12720
1,Cacimba de Dentro/PB,-6.6425101,-35.7929304,876,5099.54593
D1,Cacimba de Dentro/PB,-6.6425101,-35.7929304,24,139.71359
1,Cacimbas/PB,-7.2125451,-37.0593398,196,2722.60036
D1,Cacimbas/PB,-7.2125451,-37.0593398,6,83.34491
1,Cacimbinhas/AL,-9.401212,-36.991082,579,5317.29268
D1,Cacimbinhas/AL,-9.401212,-36.991082,7,64.28506
1,Cacique Doble/RS,-27.7700117,-51.6616409,386,7607.41033
D1,Cacique Doble/RS,-27.7700117,-51.6616409,6,118.24990
1,Cacoal/RO,-11.4333,-61.4420502,11380,13249.04241
D1,Cacoal/RO,-11.4333,-61.4420502,219,254.96839
1,Caconde/SP,-21.527995,-46.643659,1002,5271.18733
D1,Caconde/SP,-21.527995,-46.643659,18,94.69199
1,Caculé/BA,-14.4990734,-42.2233006,1321,5671.71869
D1,Caculé/BA,-14.4990734,-42.2233006,11,47.22854
1,Caetanos/BA,-14.3387456,-40.9085971,577,3949.89047
D1,Caetanos/BA,-14.3387456,-40.9085971,9,61.61008
1,Caetanópolis/MG,-19.2947496,-44.4138386,767,6528.21517
D1,Caetanópolis/MG,-19.2947496,-44.4138386,7,59.57954
1,Caetité/BA,-14.0691776,-42.4852428,1948,3813.55103
D1,Caetité/BA,-14.0691776,-42.4852428,21,41.11118
1,Caeté/MG,-19.897777,-43.670278,1548,3436.41086
D1,Caeté/MG,-19.897777,-43.670278,41,91.01605
1,Caetés/PE,-8.7728788,-36.6255835,1153,3989.06726
D1,Caetés/PE,-8.7728788,-36.6255835,17,58.81539
1,Cafarnaum/BA,-11.691399,-41.468823,764,4126.82980
D1,Cafarnaum/BA,-11.691399,-41.468823,16,86.42575
1,Cafeara/PR,-22.78905,-51.714195,224,7582.93839
D1,Cafeara/PR,-22.78905,-51.714195,9,304.67163
1,Cafelândia/PR,-24.6176963,-53.3218057,1487,8057.00043
D1,Cafelândia/PR,-24.6176963,-53.3218057,11,59.60121
1,Cafelândia/SP,-21.8054355,-49.6030627,643,3603.65409
D1,Cafelândia/SP,-21.8054355,-49.6030627,30,168.13316
1,Cafezal do Sul/PR,-23.900508,-53.512418,241,6011.47418
D1,Cafezal do Sul/PR,-23.900508,-53.512418,4,99.77551
1,Caiabu/SP,-22.0143038,-51.2356597,76,1812.54472
D1,Caiabu/SP,-22.0143038,-51.2356597,5,119.24636
1,Caiana/MG,-20.695555,-41.924723,122,2201.76863
D1,Caiana/MG,-20.695555,-41.924723,7,126.33099
1,Caiapônia/GO,-16.9538779,-51.8090761,967,5060.97242
D1,Caiapônia/GO,-16.9538779,-51.8090761,32,167.47789
1,Caibaté/RS,-28.290475,-54.645407,214,4437.07236
D1,Caibaté/RS,-28.290475,-54.645407,7,145.13788
1,Caibi/SC,-27.0751925,-53.2502133,549,8955.95432
D1,Caibi/SC,-27.0751925,-53.2502133,10,163.13214
1,Caicó/RN,-6.4594544,-37.0971911,8965,13117.65653
D1,Caicó/RN,-6.4594544,-37.0971911,110,160.95284
1,Caieiras/SP,-23.3644621,-46.7484765,6517,6341.03624
D1,Caieiras/SP,-23.3644621,-46.7484765,232,225.73583
1,Cairu/BA,-13.4860505,-39.0455744,1040,5643.89211
D1,Cairu/BA,-13.4860505,-39.0455744,11,59.69501
1,Caiuá/SP,-21.8319357,-51.9887179,251,4221.32526
D1,Caiuá/SP,-21.8319357,-51.9887179,5,84.09014
1,Caiçara do Norte/RN,-5.0645017,-36.0561226,306,4663.92318
D1,Caiçara do Norte/RN,-5.0645017,-36.0561226,9,137.17421
1,Caiçara do Rio do Vento/RN,-5.757968,-36.00089,212,5706.59489
D1,Caiçara do Rio do Vento/RN,-5.757968,-36.00089,7,188.42530
1,Caiçara/PB,-6.6146866,-35.4681434,623,8663.60729
D1,Caiçara/PB,-6.6146866,-35.4681434,13,180.78153
1,Caiçara/RS,-27.2750478,-53.4310053,412,8765.95745
D1,Caiçara/RS,-27.2750478,-53.4310053,8,170.21277
1,Cajamar/SP,-23.3561111,-46.8769444,3485,4471.73249
D1,Cajamar/SP,-23.3561111,-46.8769444,173,221.98270
1,Cajapió/MA,-2.8778715,-44.6746871,72,641.94009
D1,Cajapió/MA,-2.8778715,-44.6746871,4,35.66334
1,Cajari/MA,-3.3213076,-45.0118757,178,915.12005
D1,Cajari/MA,-3.3213076,-45.0118757,6,30.84674
1,Cajati/SP,-24.7272376,-48.1077914,2831,9935.42500
D1,Cajati/SP,-24.7272376,-48.1077914,71,249.17526
1,Cajazeiras do Piauí/PI,-6.794271,-42.3935024,39,1091.51973
D1,Cajazeiras do Piauí/PI,-6.794271,-42.3935024,1,27.98769
1,Cajazeiras/PB,-6.8897849,-38.5570389,6684,10730.62660
D1,Cajazeiras/PB,-6.8897849,-38.5570389,117,187.83413
1,Cajazeirinhas/PB,-6.961442,-37.7993733,115,3588.14353
1,Cajobi/SP,-20.8776238,-48.8106972,726,6851.64213
D1,Cajobi/SP,-20.8776238,-48.8106972,24,226.50057
1,Cajueiro da Praia/PI,-2.931114,-41.340801,469,6111.54548
D1,Cajueiro da Praia/PI,-2.931114,-41.340801,16,208.49622
1,Cajueiro/AL,-9.399589,-36.1524309,506,2372.13445
D1,Cajueiro/AL,-9.399589,-36.1524309,20,93.76026
1,Cajuri/MG,-20.7901414,-42.7954489,312,7851.03171
D1,Cajuri/MG,-20.7901414,-42.7954489,1,25.16356
1,Cajuru/SP,-21.2759978,-47.3046035,796,3015.95120
D1,Cajuru/SP,-21.2759978,-47.3046035,34,128.82204
1,Caldas Brandão/PB,-7.1027959,-35.3254676,460,7608.33609
D1,Caldas Brandão/PB,-7.1027959,-35.3254676,7,115.77903
1,Caldas Novas/GO,-17.745,-48.625,7193,7718.14241
D1,Caldas Novas/GO,-17.745,-48.625,183,196.36036
1,Caldas/MG,-21.923611,-46.386111,613,4215.66605
D1,Caldas/MG,-21.923611,-46.386111,22,151.29633
1,Caldazinha/GO,-16.7116649,-49.0012601,219,5691.26819
D1,Caldazinha/GO,-16.7116649,-49.0012601,4,103.95010
1,Caldeirão Grande do Piauí/PI,-7.3310393,-40.6374433,275,4756.96246
D1,Caldeirão Grande do Piauí/PI,-7.3310393,-40.6374433,2,34.59609
1,Caldeirão Grande/BA,-11.0208483,-40.3041387,539,4025.09148
D1,Caldeirão Grande/BA,-11.0208483,-40.3041387,6,44.80621
1,Califórnia/PR,-23.6672543,-51.3554556,812,9435.27771
D1,Califórnia/PR,-23.6672543,-51.3554556,15,174.29700
1,Calmon/SC,-26.6023644,-51.0992893,27,809.59520
D1,Calmon/SC,-26.6023644,-51.0992893,3,89.95502
1,Calumbi/PE,-7.9389746,-38.1516871,437,7603.96729
D1,Calumbi/PE,-7.9389746,-38.1516871,3,52.20115
1,Calçado/PE,-8.7413446,-36.3351787,357,3240.15248
D1,Calçado/PE,-8.7413446,-36.3351787,2,18.15211
1,Calçoene/AP,2.4981757,-50.9539503,1594,14098.70865
D1,Calçoene/AP,2.4981757,-50.9539503,10,88.44861
1,Camacan/BA,-15.4166631,-39.4930088,2439,7620.44617
D1,Camacan/BA,-15.4166631,-39.4930088,62,193.71368
1,Camacho/MG,-20.625556,-45.156667,49,1707.91216
D1,Camacho/MG,-20.625556,-45.156667,1,34.85535
1,Camalaú/PB,-7.885031,-36.824191,367,6085.22633
D1,Camalaú/PB,-7.885031,-36.824191,5,82.90499
1,Camamu/BA,-13.9438142,-39.1060917,1964,5550.84506
D1,Camamu/BA,-13.9438142,-39.1060917,39,110.22554
1,Camanducaia/MG,-22.755278,-46.144444,2495,11444.42915
D1,Camanducaia/MG,-22.755278,-46.144444,51,233.93422
1,Camapuã/MS,-19.5291747,-54.0434641,613,4476.73994
D1,Camapuã/MS,-19.5291747,-54.0434641,21,153.36303
1,Camaquã/RS,-30.8524752,-51.8075619,5997,9021.02951
D1,Camaquã/RS,-30.8524752,-51.8075619,114,171.48530
1,Camaragibe/PE,-8.0213832,-34.9810768,4577,2880.44607
D1,Camaragibe/PE,-8.0213832,-34.9810768,322,202.64445
1,Camargo/RS,-28.5865661,-52.2031474,281,10247.99416
D1,Camargo/RS,-28.5865661,-52.2031474,5,182.34865
1,Camaçari/BA,-12.6998188,-38.3260762,20682,6796.53765
D1,Camaçari/BA,-12.6998188,-38.3260762,525,172.52598
1,Cambará do Sul/RS,-29.0489517,-50.145412,293,4573.83703
D1,Cambará do Sul/RS,-29.0489517,-50.145412,10,156.10365
1,Cambará/PR,-23.042273,-50.075281,1856,7288.14890
D1,Cambará/PR,-23.042273,-50.075281,37,145.29176
1,Cambira/PR,-23.600265,-51.581045,676,8538.58785
D1,Cambira/PR,-23.600265,-51.581045,14,176.83466
1,Camboriú/SC,-27.0273601,-48.6535657,11039,12971.03578
D1,Camboriú/SC,-27.0273601,-48.6535657,146,171.55279
1,Cambuci/RJ,-21.5749919,-41.9107833,725,4673.19840
D1,Cambuci/RJ,-21.5749919,-41.9107833,25,161.14477
1,Cambuquira/MG,-21.853056,-45.2953619,432,3371.83890
D1,Cambuquira/MG,-21.853056,-45.2953619,16,124.88292
1,Cambuí/MG,-22.6122501,-46.0572137,2595,8703.96458
D1,Cambuí/MG,-22.6122501,-46.0572137,37,124.10277
1,Cambé/PR,-23.2782035,-51.2779583,9137,8512.12491
D1,Cambé/PR,-23.2782035,-51.2779583,191,177.93760
1,Cametá/PA,-2.242949,-49.497885,7036,5048.64958
D1,Cametá/PA,-2.242949,-49.497885,201,144.22663
1,Camocim de São Félix/PE,-8.3616757,-35.7638903,431,2280.42328
D1,Camocim de São Félix/PE,-8.3616757,-35.7638903,12,63.49206
1,Camocim/CE,-2.9009918,-40.8427389,5166,8083.62151
D1,Camocim/CE,-2.9009918,-40.8427389,140,219.06833
1,Campanha/MG,-21.8361108,-45.401986,1129,6735.47309
D1,Campanha/MG,-21.8361108,-45.401986,23,137.21513
1,Campanário/MG,-18.2398144,-41.7271768,181,4852.54692
D1,Campanário/MG,-18.2398144,-41.7271768,3,80.42895
1,Campestre da Serra/RS,-28.7966535,-51.0958149,141,4153.16642
1,Campestre de Goiás/GO,-16.7624179,-49.69497,432,11838.85996
D1,Campestre de Goiás/GO,-16.7624179,-49.69497,10,274.04768
1,Campestre do Maranhão/MA,-6.1729113,-47.3640512,915,6330.86556
D1,Campestre do Maranhão/MA,-6.1729113,-47.3640512,40,276.75915
1,Campestre/AL,-8.8481634,-35.5660033,237,3408.11044
D1,Campestre/AL,-8.8481634,-35.5660033,6,86.28128
1,Campestre/MG,-19.6142116,-43.219378,911,4326.96875
D1,Campestre/MG,-19.6142116,-43.219378,21,99.74352
1,Campina Grande do Sul/PR,-25.3046032,-49.0545355,4389,10046.92686
D1,Campina Grande do Sul/PR,-25.3046032,-49.0545355,91,208.30949
1,Campina Grande/PB,-7.2246743,-35.8771292,27221,6610.13533
D1,Campina Grande/PB,-7.2246743,-35.8771292,787,191.10894
1,Campina Verde/MG,-19.535277,-49.486389,869,4399.55448
D1,Campina Verde/MG,-19.535277,-49.486389,24,121.50668
1,Campina da Lagoa/PR,-24.5937926,-52.8038965,1015,7227.80033
D1,Campina da Lagoa/PR,-24.5937926,-52.8038965,20,142.41971
1,Campina das Missões/RS,-27.9883295,-54.8411665,397,7354.57577
D1,Campina das Missões/RS,-27.9883295,-54.8411665,8,148.20304
1,Campina do Monte Alegre/SP,-23.5935653,-48.4801876,409,6752.51775
D1,Campina do Monte Alegre/SP,-23.5935653,-48.4801876,12,198.11788
1,Campina do Simão/PR,-25.1086375,-51.8076658,245,6348.79502
D1,Campina do Simão/PR,-25.1086375,-51.8076658,11,285.04794
1,Campinas do Piauí/PI,-7.6593687,-41.8814875,166,2953.73665
D1,Campinas do Piauí/PI,-7.6593687,-41.8814875,1,17.79359
