type,name,lat,lon,total,total_per_100k_inhabitants
1,Abadia de Goiás/GO,-16.7572644,-49.4412205,3952,43153.52697
D1,Abadia de Goiás/GO,-16.7572644,-49.4412205,49,535.05132
1,Abadia dos Dourados/MG,-18.4911191,-47.4063589,1929,27470.80604
D1,Abadia dos Dourados/MG,-18.4911191,-47.4063589,20,284.81914
1,Abadiânia/GO,-16.1940946,-48.7067767,2154,10319.55157
D1,Abadiânia/GO,-16.1940946,-48.7067767,55,263.49830
1,Abaetetuba/PA,-1.721828,-48.878843,11776,7339.86126
D1,Abaetetuba/PA,-1.721828,-48.878843,243,151.45943
1,Abaeté/MG,-19.1566833,-45.4481213,4130,17753.51416
D1,Abaeté/MG,-19.1566833,-45.4481213,48,206.33624
1,Abaiara/CE,-7.3607808,-39.0487878,1357,11341.41245
D1,Abaiara/CE,-7.3607808,-39.0487878,20,167.15420
1,Abaré/BA,-8.7239913,-39.1139689,2979,14465.37827
D1,Abaré/BA,-8.7239913,-39.1139689,18,87.40410
1,Abatiá/PR,-23.3052967,-50.3102532,1768,24021.73913
D1,Abatiá/PR,-23.3052967,-50.3102532,24,326.08696
1,Abaíra/BA,-13.2503296,-41.6640342,359,4135.46826
D1,Abaíra/BA,-13.2503296,-41.6640342,17,195.82997
1,Abdon Batista/SC,-27.612419,-51.022992,538,21231.25493
D1,Abdon Batista/SC,-27.612419,-51.022992,4,157.85320
1,Abel Figueiredo/PA,-4.953001,-48.3958485,1452,19267.51592
D1,Abel Figueiredo/PA,-4.953001,-48.3958485,12,159.23567
1,Abelardo Luz/SC,-26.5705893,-52.3280339,2631,14604.49625
D1,Abelardo Luz/SC,-26.5705893,-52.3280339,70,388.56508
1,Abre Campo/MG,-20.2976097,-42.4764741,2138,15914.84294
D1,Abre Campo/MG,-20.2976097,-42.4764741,19,141.43219
1,Abreu e Lima/PE,-7.900719,-34.898389,5772,5731.99070
D1,Abreu e Lima/PE,-7.900719,-34.898389,261,259.19085
1,Abreulândia/TO,-9.6221526,-49.1558343,523,20045.99463
D1,Abreulândia/TO,-9.6221526,-49.1558343,8,306.63089
1,Acaiaca/MG,-20.3621646,-43.1444162,292,7309.13642
D1,Acaiaca/MG,-20.3621646,-43.1444162,12,300.37547
1,Acajutiba/BA,-11.6609659,-38.0186381,753,4949.38872
D1,Acajutiba/BA,-11.6609659,-38.0186381,28,184.04101
1,Acarape/CE,-4.2237866,-38.7071663,3410,22523.11757
D1,Acarape/CE,-4.2237866,-38.7071663,36,237.78071
1,Acaraú/CE,-2.8869514,-40.1194713,7936,12486.62597
D1,Acaraú/CE,-2.8869514,-40.1194713,121,190.38328
1,Acari/RN,-6.4364689,-36.6394777,1494,13452.18801
D1,Acari/RN,-6.4364689,-36.6394777,26,234.10769
1,Acará/PA,-1.961388,-48.1987043,2546,4567.30769
D1,Acará/PA,-1.961388,-48.1987043,45,80.72618
1,Acauã/PI,-8.219542,-41.083059,255,3581.96376
D1,Acauã/PI,-8.219542,-41.083059,2,28.09383
1,Aceguá/RS,-31.8695131,-54.1615593,1105,22184.30034
D1,Aceguá/RS,-31.8695131,-54.1615593,8,160.61032
1,Acopiara/CE,-6.0936464,-39.4543204,6407,11715.76426
D1,Acopiara/CE,-6.0936464,-39.4543204,179,327.31728
1,Acorizal/MT,-15.2001544,-56.3668953,1667,31399.51027
D1,Acorizal/MT,-15.2001544,-56.3668953,24,452.06254
1,Acrelândia/AC,-10.0759167,-67.0526898,3461,22015.13899
D1,Acrelândia/AC,-10.0759167,-67.0526898,40,254.43674
1,Acreúna/GO,-17.3959899,-50.3749031,6275,27630.99956
D1,Acreúna/GO,-17.3959899,-50.3749031,84,369.88111
1,Adamantina/SP,-21.6866517,-51.0762975,11092,31553.49472
D1,Adamantina/SP,-21.6866517,-51.0762975,187,531.96029
1,Adelândia/GO,-16.4155077,-50.1665834,700,27833.00199
D1,Adelândia/GO,-16.4155077,-50.1665834,6,238.56859
1,Adolfo/SP,-21.2356597,-49.6441918,1086,30634.69676
D1,Adolfo/SP,-21.2356597,-49.6441918,28,789.84485
1,Adrianópolis/PR,-24.6557863,-48.9912769,2014,34742.10799
D1,Adrianópolis/PR,-24.6557863,-48.9912769,31,534.75936
1,Adustina/BA,-10.5358875,-38.114479,1766,10262.07217
D1,Adustina/BA,-10.5358875,-38.114479,29,168.51647
1,Afogados da Ingazeira/PE,-7.750429,-37.6356375,9899,26364.99228
D1,Afogados da Ingazeira/PE,-7.750429,-37.6356375,81,215.73536
1,Afonso Bezerra/RN,-5.4745,-36.57625071327935,1338,12137.15530
D1,Afonso Bezerra/RN,-5.4745,-36.57625071327935,19,172.35123
1,Afonso Cláudio/ES,-20.077841,-41.12606,8559,28223.30673
D1,Afonso Cláudio/ES,-20.077841,-41.12606,86,283.58504
1,Afonso Cunha/MA,-4.1326105,-43.3230026,461,6952.19424
D1,Afonso Cunha/MA,-4.1326105,-43.3230026,2,30.16136
1,Afrânio/PE,-8.5198919,-41.0070197,1651,8262.84971
D1,Afrânio/PE,-8.5198919,-41.0070197,16,80.07607
1,Afuá/PA,-0.1535664,-50.3879223,3580,8970.18291
D1,Afuá/PA,-0.1535664,-50.3879223,20,50.11275
1,Agrestina/PE,-8.4558021,-35.9442663,3147,12468.30428
D1,Agrestina/PE,-8.4558021,-35.9442663,74,293.18542
1,Agricolândia/PI,-5.7967843,-42.6605131,1042,20339.64474
D1,Agricolândia/PI,-5.7967843,-42.6605131,11,214.71794
1,Agrolândia/SC,-27.4122212,-49.8295774,2367,21209.67742
D1,Agrolândia/SC,-27.4122212,-49.8295774,35,313.62007
1,Agronômica/SC,-27.2660744,-49.7104753,1321,23716.33752
D1,Agronômica/SC,-27.2660744,-49.7104753,15,269.29982
1,Aguanil/MG,-20.9424533,-45.3927152,1297,28461.70726
D1,Aguanil/MG,-20.9424533,-45.3927152,8,175.55409
1,Aguaí/SP,-22.0592036,-46.979384,6891,18633.89308
D1,Aguaí/SP,-22.0592036,-46.979384,137,370.46051
1,Agudo/RS,-29.6423259,-53.2494005,3514,21500.24474
D1,Agudo/RS,-29.6423259,-53.2494005,39,238.61968
1,Agudos do Sul/PR,-25.9890808,-49.3328175,1794,18751.95986
D1,Agudos do Sul/PR,-25.9890808,-49.3328175,38,397.19870
1,Agudos/SP,-22.471162,-48.987822,8256,21967.96339
D1,Agudos/SP,-22.471162,-48.987822,123,327.28434
1,Aguiar/PB,-7.0928404,-38.1727215,934,16613.30487
D1,Aguiar/PB,-7.0928404,-38.1727215,7,124.51085
1,Aguiarnópolis/TO,-6.5600452,-47.4721189,1109,15732.72805
D1,Aguiarnópolis/TO,-6.5600452,-47.4721189,15,212.79614
1,Aimorés/MG,-19.4917754,-41.0615603,3979,15842.49084
D1,Aimorés/MG,-19.4917754,-41.0615603,91,362.31884
1,Aiquara/BA,-14.126918,-39.8887574,674,15363.57420
D1,Aiquara/BA,-14.126918,-39.8887574,12,273.53545
1,Aiuaba/CE,-6.5710836,-40.1212278,1229,6989.30846
D1,Aiuaba/CE,-6.5710836,-40.1212278,16,90.99181
1,Aiuruoca/MG,-21.9759554,-44.6036637,1167,19616.74231
D1,Aiuruoca/MG,-21.9759554,-44.6036637,15,252.14322
1,Ajuricaba/RS,-28.239654,-53.7693013,2711,39001.58251
D1,Ajuricaba/RS,-28.239654,-53.7693013,39,561.07035
1,Alagoa Grande/PB,-7.0415212,-35.6285322,6276,22111.04848
D1,Alagoa Grande/PB,-7.0415212,-35.6285322,85,299.46449
1,Alagoa Nova/PB,-7.0653703,-35.76695977336711,3309,15763.14787
D1,Alagoa Nova/PB,-7.0653703,-35.76695977336711,39,185.78506
1,Alagoa/MG,-22.1697202,-44.6400042,701,26383.13888
D1,Alagoa/MG,-22.1697202,-44.6400042,9,338.72789
1,Alagoinha do Piauí/PI,-7.0090952,-40.939675,411,5352.95650
D1,Alagoinha do Piauí/PI,-7.0090952,-40.939675,13,169.31493
1,Alagoinha/PB,-6.97063215,-35.51490901897793,2554,17458.47290
D1,Alagoinha/PB,-6.97063215,-35.51490901897793,26,177.72917
1,Alagoinha/PE,-8.50355635,-36.77701174370496,3501,23658.60251
D1,Alagoinha/PE,-8.50355635,-36.77701174370496,31,209.48777
1,Alagoinhas/BA,-12.133526,-38.420772,20287,13257.48417
D1,Alagoinhas/BA,-12.133526,-38.420772,369,241.14022
1,Alambari/SP,-23.550338,-47.897971,1591,25533.62221
D1,Alambari/SP,-23.550338,-47.897971,14,224.68304
1,Albertina/MG,-20.66164,-43.784039,849,28159.20398
D1,Albertina/MG,-20.66164,-43.784039,12,398.00995
1,Alcantil/PB,-7.7425491,-36.0609604,1339,24226.52434
D1,Alcantil/PB,-7.7425491,-36.0609604,9,162.83698
1,Alcinópolis/MS,-18.3264121,-53.7094463,980,17853.88960
D1,Alcinópolis/MS,-18.3264121,-53.7094463,15,273.27382
1,Alcobaça/BA,-17.5215875,-39.1965474,2769,12301.74597
D1,Alcobaça/BA,-17.5215875,-39.1965474,32,142.16536
1,Alcântara/MA,-2.4038956,-44.4154241,337,1523.09500
D1,Alcântara/MA,-2.4038956,-44.4154241,21,94.91096
1,Alcântaras/CE,-3.586247,-40.5457641,2524,21306.77022
D1,Alcântaras/CE,-3.586247,-40.5457641,23,194.15837
1,Aldeias Altas/MA,-4.6291957,-43.4708622,1175,4355.23926
D1,Aldeias Altas/MA,-4.6291957,-43.4708622,14,51.89221
1,Alecrim/RS,-27.6566142,-54.7653195,670,11733.80035
D1,Alecrim/RS,-27.6566142,-54.7653195,13,227.67075
1,Alegre/ES,-20.7625787,-41.5318886,9259,30998.69430
D1,Alegre/ES,-20.7625787,-41.5318886,94,314.70756
1,Alegrete do Piauí/PI,-7.2440138,-40.8602296,658,13371.26600
D1,Alegrete do Piauí/PI,-7.2440138,-40.8602296,9,182.88966
1,Alegrete/RS,-29.790166,-55.794862,20165,27816.47883
D1,Alegrete/RS,-29.790166,-55.794862,331,456.59581
1,Alegria/RS,-27.8332103,-54.0574959,646,19653.17919
D1,Alegria/RS,-27.8332103,-54.0574959,5,152.11439
1,Alenquer/PA,-1.946229,-54.738355,6056,10552.36104
D1,Alenquer/PA,-1.946229,-54.738355,176,306.67364
1,Alexandria/RN,-6.414779,-38.0135516,2574,19025.79644
D1,Alexandria/RN,-6.414779,-38.0135516,34,251.31200
1,Alexânia/GO,-16.0834049,-48.5077803,8032,28321.57969
D1,Alexânia/GO,-16.0834049,-48.5077803,117,412.55289
1,Alfenas/MG,-21.4297405,-45.9479419,24532,30296.51859
D1,Alfenas/MG,-21.4297405,-45.9479419,260,321.09469
1,Alfredo Chaves/ES,-20.624970400000002,-40.75006690147988,5562,37914.11043
D1,Alfredo Chaves/ES,-20.624970400000002,-40.75006690147988,47,320.38173
1,Alfredo Marcondes/SP,-21.9527,-51.413956,313,7450.60700
D1,Alfredo Marcondes/SP,-21.9527,-51.413956,22,523.68484
1,Alfredo Vasconcelos/MG,-21.145833,-43.776389,1637,23213.27283
D1,Alfredo Vasconcelos/MG,-21.145833,-43.776389,16,226.88599
1,Alfredo Wagner/SC,-27.6961513,-49.3326734,1455,14354.77506
D1,Alfredo Wagner/SC,-27.6961513,-49.3326734,12,118.38990
1,Algodão de Jandaíra/PB,-6.9040175,-36.0089879,545,21058.73261
D1,Algodão de Jandaíra/PB,-6.9040175,-36.0089879,2,77.27975
1,Alhandra/PB,-7.4304246,-34.9106103,3529,17764.91316
D1,Alhandra/PB,-7.4304246,-34.9106103,49,246.66499
1,Aliança do Tocantins/TO,-11.3055927,-48.9409096,1337,25212.14407
D1,Aliança do Tocantins/TO,-11.3055927,-48.9409096,25,471.43127
1,Aliança/PE,-7.60398,-35.222696,2596,6759.00854
D1,Aliança/PE,-7.60398,-35.222696,87,226.51531
1,Almadina/BA,-14.70466,-39.6381994,892,16916.36639
D1,Almadina/BA,-14.70466,-39.6381994,13,246.53897
1,Almas/TO,-11.5681309,-47.1702803,334,4837.07458
D1,Almas/TO,-11.5681309,-47.1702803,5,72.41130
1,Almeirim/PA,-1.5290377,-52.5788111,4829,14184.58466
D1,Almeirim/PA,-1.5290377,-52.5788111,57,167.43038
1,Almenara/MG,-16.1740678,-40.6904907,7377,17406.79566
D1,Almenara/MG,-16.1740678,-40.6904907,71,167.53185
1,Almino Afonso/RN,-6.1544208,-37.7649018,778,16606.18997
D1,Almino Afonso/RN,-6.1544208,-37.7649018,16,341.51547
1,Almirante Tamandaré do Sul/RS,-28.1141129,-52.9134874,696,35968.99225
D1,Almirante Tamandaré do Sul/RS,-28.1141129,-52.9134874,7,361.75711
1,Almirante Tamandaré/PR,-25.3133048,-49.2997838,18047,14863.28447
D1,Almirante Tamandaré/PR,-25.3133048,-49.2997838,497,409.32301
1,Aloândia/GO,-17.7277983,-49.4809338,684,34615.38462
D1,Aloândia/GO,-17.7277983,-49.4809338,12,607.28745
1,Alpercata/MG,-18.9803616,-41.9827637,589,7908.16327
D1,Alpercata/MG,-18.9803616,-41.9827637,26,349.08700
1,Alpestre/RS,-27.2512339,-53.0349646,1519,25811.38488
D1,Alpestre/RS,-27.2512339,-53.0349646,17,288.87001
1,Alpinópolis/MG,-20.863611,-46.387777,4736,23610.34947
D1,Alpinópolis/MG,-20.863611,-46.387777,52,259.23526
1,Alta Floresta D'Oeste/RO,-11.9296917,-61.9961284,9066,40264.70066
D1,Alta Floresta D'Oeste/RO,-11.9296917,-61.9961284,84,373.06804
1,Alta Floresta/MT,-9.8715018,-56.0839881,18540,35581.99789
D1,Alta Floresta/MT,-9.8715018,-56.0839881,189,362.72910
1,Altair/SP,-20.5238955,-49.0606135,324,7694.13441
D1,Altair/SP,-20.5238955,-49.0606135,18,427.45191
1,Altamira do Maranhão/MA,-4.1643006,-45.4674574,555,6727.27273
D1,Altamira do Maranhão/MA,-4.1643006,-45.4674574,14,169.69697
1,Altamira do Paraná/PR,-24.799114,-52.7128633,608,42547.23583
D1,Altamira do Paraná/PR,-24.799114,-52.7128633,15,1049.68509
1,Altamira/PA,-3.204065,-52.209961,24901,21224.85510
D1,Altamira/PA,-3.204065,-52.209961,360,306.85305
1,Altaneira/CE,-6.9980933,-39.7385742,1156,14989.62656
D1,Altaneira/CE,-6.9980933,-39.7385742,20,259.33610
1,Alterosa/MG,-21.249166,-46.143055,2262,15529.31484
D1,Alterosa/MG,-21.249166,-46.143055,42,288.34272
1,Altinho/PE,-8.4904095,-36.0607494,1966,8549.31292
D1,Altinho/PE,-8.4904095,-36.0607494,30,130.45747
1,Altinópolis/SP,-21.021364,-47.3712,1245,7675.23581
D1,Altinópolis/SP,-21.021364,-47.3712,68,419.20967
1,Alto Alegre do Maranhão/MA,-4.2055693,-44.4525287,2233,7956.24599
D1,Alto Alegre do Maranhão/MA,-4.2055693,-44.4525287,28,99.76484
1,Alto Alegre do Pindaré/MA,-3.6698186,-45.8462153,2938,9190.72794
D1,Alto Alegre do Pindaré/MA,-3.6698186,-45.8462153,54,168.92420
1,Alto Alegre dos Parecis/RO,-12.1314515,-61.856265,2404,18118.78203
D1,Alto Alegre dos Parecis/RO,-12.1314515,-61.856265,51,384.38348
1,Alto Alegre/RR,2.98858,-61.307167,2665,17476.55584
D1,Alto Alegre/RR,2.98858,-61.307167,39,255.75448
1,Alto Alegre/RS,-31.780844700000003,-52.81311114489171,440,27672.95597
D1,Alto Alegre/RS,-31.780844700000003,-52.81311114489171,3,188.67925
1,Alto Alegre/SP,-21.5820592,-50.1661976,421,10323.68808
D1,Alto Alegre/SP,-21.5820592,-50.1661976,28,686.61108
1,Alto Araguaia/MT,-17.3156528,-53.2169365,3551,18012.57989
D1,Alto Araguaia/MT,-17.3156528,-53.2169365,35,177.53880
1,Alto Bela Vista/SC,-27.4320737,-51.905771,510,26631.85379
D1,Alto Bela Vista/SC,-27.4320737,-51.905771,3,156.65796
1,Alto Boa Vista/MT,-11.6723985,-51.3744431,1642,23152.84828
D1,Alto Boa Vista/MT,-11.6723985,-51.3744431,20,282.00790
1,Alto Caparaó/MG,-20.4405661,-41.8683799,688,11586.39272
D1,Alto Caparaó/MG,-20.4405661,-41.8683799,10,168.40687
1,Alto Feliz/RS,-29.3785943,-51.3123751,783,25731.18633
D1,Alto Feliz/RS,-29.3785943,-51.3123751,4,131.44923
1,Alto Garças/MT,-16.9469683,-53.529427,1456,11815.30471
D1,Alto Garças/MT,-16.9469683,-53.529427,46,373.28573
1,Alto Horizonte/GO,-14.1954948,-49.3366993,3079,45306.06239
D1,Alto Horizonte/GO,-14.1954948,-49.3366993,16,235.43261
1,Alto Jequitibá/MG,-20.423611,-41.966111,1520,18344.19503
D1,Alto Jequitibá/MG,-20.423611,-41.966111,16,193.09679
1,Alto Longá/PI,-5.2549051,-42.2072388,956,6652.28585
D1,Alto Longá/PI,-5.2549051,-42.2072388,17,118.29379
1,Alto Paraguai/MT,-14.513712,-56.4936374,1051,9070.51005
D1,Alto Paraguai/MT,-14.513712,-56.4936374,32,276.17157
1,Alto Paraná/PR,-23.131247,-52.318893,3219,21538.97625
D1,Alto Paraná/PR,-23.131247,-52.318893,28,187.35363
1,Alto Paraíso de Goiás/GO,-14.1304779,-47.5100161,1827,23571.15211
D1,Alto Paraíso de Goiás/GO,-14.1304779,-47.5100161,10,129.01561
1,Alto Paraíso/PR,-23.508137,-53.728537,1362,51787.07224
D1,Alto Paraíso/PR,-23.508137,-53.728537,11,418.25095
1,Alto Paraíso/RO,-9.7240103,-63.3188123,4491,20177.01501
D1,Alto Paraíso/RO,-9.7240103,-63.3188123,65,292.02983
1,Alto Parnaíba/MA,-9.112506,-45.9310154,1021,9089.29048
D1,Alto Parnaíba/MA,-9.112506,-45.9310154,11,97.92575
1,Alto Piquiri/PR,-24.0239021,-53.4417448,2625,27000.61716
D1,Alto Piquiri/PR,-24.0239021,-53.4417448,32,329.15038
1,Alto Rio Doce/MG,-21.0239537,-43.4133507,1289,12020.88968
D1,Alto Rio Doce/MG,-21.0239537,-43.4133507,33,307.74970
1,Alto Rio Novo/ES,-19.0577208,-41.0171518,1632,20629.50322
D1,Alto Rio Novo/ES,-19.0577208,-41.0171518,29,366.57818
1,Alto Santo/CE,-5.5190371,-38.2719351,3331,20719.03962
D1,Alto Santo/CE,-5.5190371,-38.2719351,44,273.68290
1,Alto Taquari/MT,-17.8269099,-53.2831736,1695,14851.48515
D1,Alto Taquari/MT,-17.8269099,-53.2831736,30,262.85814
1,Alto do Rodrigues/RN,-5.290868,-36.7616726,4168,27930.04088
D1,Alto do Rodrigues/RN,-5.290868,-36.7616726,50,335.05327
1,Altos/PI,-5.0393915,-42.4611694,6479,15926.35383
D1,Altos/PI,-5.0393915,-42.4611694,117,287.60355
1,Altônia/PR,-23.8722004,-53.894037,4851,21760.19378
D1,Altônia/PR,-23.8722004,-53.894037,55,246.71422
1,Alumínio/SP,-23.5203479,-47.2575256,1743,9220.75861
D1,Alumínio/SP,-23.5203479,-47.2575256,56,296.24927
1,Alvarenga/MG,-19.4175,-41.728334,786,20777.16098
D1,Alvarenga/MG,-19.4175,-41.728334,7,185.03833
1,Alvarães/AM,-3.214786,-64.8143124,3896,23761.89314
D1,Alvarães/AM,-3.214786,-64.8143124,46,280.55623
1,Alvinlândia/SP,-22.4431852,-49.7643596,156,4798.52353
D1,Alvinlândia/SP,-22.4431852,-49.7643596,10,307.59766
1,Alvinópolis/MG,-20.1105199,-43.0601805,2570,16980.50875
D1,Alvinópolis/MG,-20.1105199,-43.0601805,25,165.18005
1,Alvorada D'Oeste/RO,-11.346271,-62.284697,4381,31730.28174
D1,Alvorada D'Oeste/RO,-11.346271,-62.284697,44,318.67893
1,Alvorada de Minas/MG,-18.7318587,-43.3641479,552,15312.06657
D1,Alvorada de Minas/MG,-18.7318587,-43.3641479,4,110.95700
1,Alvorada do Gurguéia/PI,-8.4465288,-43.8655915,991,18120.31450
D1,Alvorada do Gurguéia/PI,-8.4465288,-43.8655915,14,255.98830
1,Alvorada do Norte/GO,-14.483911,-46.4959897,1604,18333.52383
D1,Alvorada do Norte/GO,-14.483911,-46.4959897,21,240.02743
1,Alvorada do Sul/PR,-22.7807269,-51.2307721,1717,14804.27660
D1,Alvorada do Sul/PR,-22.7807269,-51.2307721,41,353.50923
1,Alvorada/RS,-29.9981184,-51.0772509,39585,18641.21835
D1,Alvorada/RS,-29.9981184,-51.0772509,921,433.71383
1,Alvorada/TO,-12.478465,-49.124926,3648,43527.02541
D1,Alvorada/TO,-12.478465,-49.124926,32,381.81601
1,Além Paraíba/MG,-21.8760576,-42.6810473,7811,22041.31159
D1,Além Paraíba/MG,-21.8760576,-42.6810473,173,488.17653
1,Amajari/RR,3.6523869,-61.4194315,1536,11326.59833
D1,Amajari/RR,3.6523869,-61.4194315,26,191.72627
1,Amambai/MS,-23.1082701,-55.2284854,6303,15660.79459
D1,Amambai/MS,-23.1082701,-55.2284854,102,253.43504
1,Amaporã/PR,-23.094272,-52.786597,988,15425.44887
D1,Amaporã/PR,-23.094272,-52.786597,8,124.90242
1,Amapá do Maranhão/MA,-1.6762114,-46.0109669,172,2440.75493
D1,Amapá do Maranhão/MA,-1.6762114,-46.0109669,4,56.76174
1,Amapá/AP,2.0529997,-50.7930003,2115,22827.84674
D1,Amapá/AP,2.0529997,-50.7930003,13,140.31301
1,Amaraji/PE,-8.373925,-35.4536527,1427,6228.72108
D1,Amaraji/PE,-8.373925,-35.4536527,50,218.24531
1,Amaral Ferrador/RS,-30.8750633,-52.2542051,599,8394.05830
D1,Amaral Ferrador/RS,-30.8750633,-52.2542051,15,210.20179
1,Amaralina/GO,-13.9236199,-49.2962411,432,11148.38710
D1,Amaralina/GO,-13.9236199,-49.2962411,2,51.61290
1,Amarante do Maranhão/MA,-5.56913,-46.747284,2471,5880.95295
D1,Amarante do Maranhão/MA,-5.56913,-46.747284,64,152.31930
1,Amarante/PI,-6.2459374,-42.8476238,1883,10693.39542
D1,Amarante/PI,-6.2459374,-42.8476238,37,210.11983
1,Amargosa/BA,-13.03793715,-39.60796443875596,5294,14068.18846
D1,Amargosa/BA,-13.03793715,-39.60796443875596,66,175.38731
1,Amaturá/AM,-3.3640509,-68.1994689,2638,22104.91034
D1,Amaturá/AM,-3.3640509,-68.1994689,19,159.20898
1,Americana/SP,-22.7392463,-47.3306032,28246,11558.70197
D1,Americana/SP,-22.7392463,-47.3306032,999,408.80632
1,Americano do Brasil/GO,-16.2515808,-49.9806104,2520,40514.46945
D1,Americano do Brasil/GO,-16.2515808,-49.9806104,28,450.16077
1,Ametista do Sul/RS,-27.3617341,-53.1826575,1903,25730.12439
D1,Ametista do Sul/RS,-27.3617341,-53.1826575,30,405.62466
1,Amontada/CE,-3.3634586,-39.8284791,3792,8580.15613
D1,Amontada/CE,-3.3634586,-39.8284791,64,144.81276
1,Amorinópolis/GO,-16.6211308,-51.0949921,732,24310.86018
D1,Amorinópolis/GO,-16.6211308,-51.0949921,14,464.96181
1,Amparo de São Francisco/SE,-10.1299754,-36.9269099,266,11148.36547
D1,Amparo de São Francisco/SE,-10.1299754,-36.9269099,6,251.46689
1,Amparo do Serra/MG,-20.5070255,-42.8028462,446,9605.85828
D1,Amparo do Serra/MG,-20.5070255,-42.8028462,13,279.99138
1,Amparo/PB,-7.56394725,-37.04652873235175,319,14090.10601
D1,Amparo/PB,-7.56394725,-37.04652873235175,4,176.67845
1,Amparo/SP,-22.70111,-46.76444,10636,14540.98024
D1,Amparo/SP,-22.70111,-46.76444,261,356.82548
1,Ampére/PR,-25.9168712,-53.4742414,6124,31459.98151
D1,Ampére/PR,-25.9168712,-53.4742414,70,359.60136
1,Amélia Rodrigues/BA,-12.4015388,-38.7516971,3089,12357.48290
D1,Amélia Rodrigues/BA,-12.4015388,-38.7516971,56,224.02688
1,América Dourada/BA,-11.4515262,-41.4357517,1302,8093.99478
D1,América Dourada/BA,-11.4515262,-41.4357517,14,87.03220
1,Américo Brasiliense/SP,-21.7297099,-48.1052092,7415,17848.11650
D1,Américo Brasiliense/SP,-21.7297099,-48.1052092,111,267.18017
1,Américo de Campos/SP,-20.298476,-49.735904,1293,21575.17103
D1,Américo de Campos/SP,-20.298476,-49.735904,38,634.07309
1,Anadia/AL,-9.6830208,-36.3052699,1907,10892.78574
D1,Anadia/AL,-9.6830208,-36.3052699,39,222.76804
1,Anagé/BA,-14.6134669,-41.1376308,1312,6180.22516
D1,Anagé/BA,-14.6134669,-41.1376308,32,150.73720
1,Anahy/PR,-24.6450861,-53.1337957,852,30713.77073
D1,Anahy/PR,-24.6450861,-53.1337957,16,576.78443
1,Anajatuba/MA,-3.26441,-44.6179916,1615,5944.05594
D1,Anajatuba/MA,-3.26441,-44.6179916,29,106.73537
1,Anajás/PA,-0.9878802,-49.9390114,1391,4622.64464
D1,Anajás/PA,-0.9878802,-49.9390114,24,79.75807
1,Analândia/SP,-22.128917,-47.661939,626,12238.51417
D1,Analândia/SP,-22.128917,-47.661939,6,117.30205
1,Anamã/AM,-3.5797356,-61.4049996,2529,17695.21411
D1,Anamã/AM,-3.5797356,-61.4049996,11,76.96613
1,Ananindeua/PA,-1.374035,-48.4016623,33665,6229.52943
D1,Ananindeua/PA,-1.374035,-48.4016623,872,161.35897
1,Ananás/TO,-6.3663053,-48.080238,2437,25829.35877
D1,Ananás/TO,-6.3663053,-48.080238,27,286.16852
1,Anapu/PA,-3.4668292,-51.2057035,2906,9914.02838
D1,Anapu/PA,-3.4668292,-51.2057035,71,242.22162
1,Anapurus/MA,-3.6751298,-43.1046001,832,5182.50903
D1,Anapurus/MA,-3.6751298,-43.1046001,15,93.43466
1,Anastácio/MS,-20.4832458,-55.8048448,3518,13885.38049
D1,Anastácio/MS,-20.4832458,-55.8048448,95,374.96053
1,Anaurilândia/MS,-22.185169,-52.719056,1374,15072.40018
D1,Anaurilândia/MS,-22.185169,-52.719056,17,186.48530
1,Anchieta/ES,-20.8057672,-40.6454564,11978,39550.93281
D1,Anchieta/ES,-20.8057672,-40.6454564,116,383.02790
1,Anchieta/SC,-26.5350527,-53.3293938,1341,24484.20668
D1,Anchieta/SC,-26.5350527,-53.3293938,13,237.35622
1,Andaraí/BA,-12.8059674,-41.3322919,1426,10867.24585
D1,Andaraí/BA,-12.8059674,-41.3322919,15,114.31184
1,Andirá/PR,-23.0494761,-50.2310027,5925,29889.52227
D1,Andirá/PR,-23.0494761,-50.2310027,102,514.55380
1,Andorinha/BA,-10.3445708,-39.8334411,1589,11022.47503
D1,Andorinha/BA,-10.3445708,-39.8334411,21,145.67148
1,Andradas/MG,-22.0680484,-46.5688976,8042,19283.52196
D1,Andradas/MG,-22.0680484,-46.5688976,144,345.29062
1,Andradina/SP,-20.896505,-51.3742765,15308,26741.20010
D1,Andradina/SP,-20.896505,-51.3742765,319,557.25391
1,Andrelândia/MG,-21.739722,-44.308889,206,1690.04840
D1,Andrelândia/MG,-21.739722,-44.308889,19,155.87825
1,André da Rocha/RS,-28.6309124,-51.5733328,294,21761.65803
D1,André da Rocha/RS,-28.6309124,-51.5733328,1,74.01925
1,Angatuba/SP,-23.4938938,-48.4110675,5651,21967.81216
D1,Angatuba/SP,-23.4938938,-48.4110675,93,361.53009
1,Angelim/PE,-8.8902038,-36.2872987,328,2902.39802
D1,Angelim/PE,-8.8902038,-36.2872987,16,141.58039
1,Angelina/SC,-27.5805287,-48.9838759,987,21062.74008
D1,Angelina/SC,-27.5805287,-48.9838759,6,128.04097
1,Angelândia/MG,-17.7253,-42.2728,600,6981.61508
D1,Angelândia/MG,-17.7253,-42.2728,4,46.54410
1,Angical do Piauí/PI,-6.0872666,-42.7366138,904,13335.30019
D1,Angical do Piauí/PI,-6.0872666,-42.7366138,13,191.76870
1,Angical/BA,-12.005623,-44.7000236,1319,9487.84348
D1,Angical/BA,-12.005623,-44.7000236,22,158.25061
1,Angico/TO,-6.3893733,-47.8656722,254,7309.35252
D1,Angico/TO,-6.3893733,-47.8656722,4,115.10791
1,Angicos/RN,-5.6666344,-36.6009064,1368,11697.30654
D1,Angicos/RN,-5.6666344,-36.6009064,32,273.62121
1,Angra dos Reis/RJ,-23.0063966,-44.316326,27285,12982.28585
D1,Angra dos Reis/RJ,-23.0063966,-44.316326,619,294.52208
1,Anguera/BA,-12.1509425,-39.2452469,764,6720.02815
D1,Anguera/BA,-12.1509425,-39.2452469,5,43.97924
1,Angélica/MS,-22.1588196,-53.7728504,2339,21108.20323
D1,Angélica/MS,-22.1588196,-53.7728504,24,216.58695
1,Anhanguera/GO,-18.3338749,-48.220363,244,20836.89155
D1,Anhanguera/GO,-18.3338749,-48.220363,7,597.77968
1,Anhembi/SP,-22.7891096,-48.1316776,455,6583.70713
D1,Anhembi/SP,-22.7891096,-48.1316776,15,217.04529
1,Anhumas/SP,-22.2956478,-51.3873401,409,9803.45158
D1,Anhumas/SP,-22.2956478,-51.3873401,10,239.69319
1,Anicuns/GO,-16.4606451,-49.9572265,8884,40175.46240
D1,Anicuns/GO,-16.4606451,-49.9572265,84,379.86705
1,Anita Garibaldi/SC,-27.6855032,-51.1293873,2144,31608.43285
D1,Anita Garibaldi/SC,-27.6855032,-51.1293873,12,176.91287
1,Anitápolis/SC,-27.9041185,-49.1287395,767,23797.70400
D1,Anitápolis/SC,-27.9041185,-49.1287395,6,186.16196
1,Anori/AM,-3.7435254,-61.6605203,2670,12171.21758
D1,Anori/AM,-3.7435254,-61.6605203,33,150.43078
1,Anta Gorda/RS,-28.9718745,-52.0069187,1110,18683.72328
D1,Anta Gorda/RS,-28.9718745,-52.0069187,8,134.65747
1,Antas/BA,-10.4114649,-38.3308815,1491,7584.31253
D1,Antas/BA,-10.4114649,-38.3308815,15,76.30093
1,Antonina do Norte/CE,-6.7754187,-39.9879345,1115,15063.49635
D1,Antonina do Norte/CE,-6.7754187,-39.9879345,28,378.27614
1,Antonina/PR,-25.4298854,-48.7125431,5181,27385.16835
D1,Antonina/PR,-25.4298854,-48.7125431,76,401.71256
1,Antônio Almeida/PI,-7.2186016,-44.1950248,412,12976.37795
D1,Antônio Almeida/PI,-7.2186016,-44.1950248,11,346.45669
1,Antônio Cardoso/BA,-12.4363122,-39.1200307,1200,10282.77635
D1,Antônio Cardoso/BA,-12.4363122,-39.1200307,12,102.82776
1,Antônio Carlos/MG,-21.318334,-43.746666,2320,20224.91500
D1,Antônio Carlos/MG,-21.318334,-43.746666,22,191.78799
1,Antônio Carlos/SC,-27.5168462,-48.7684715,3219,36949.03581
D1,Antônio Carlos/SC,-27.5168462,-48.7684715,29,332.87420
1,Antônio Dias/MG,-19.6525,-42.872778,967,10473.30229
D1,Antônio Dias/MG,-19.6525,-42.872778,29,314.09076
1,Antônio Gonçalves/BA,-10.5715409,-40.2748824,1263,10564.61731
D1,Antônio Gonçalves/BA,-10.5715409,-40.2748824,11,92.01171
1,Antônio João/MS,-22.1892837,-55.9508227,1298,14292.00617
D1,Antônio João/MS,-22.1892837,-55.9508227,21,231.22660
1,Antônio Martins/RN,-6.2155812,-37.8890129,1074,14995.81123
D1,Antônio Martins/RN,-6.2155812,-37.8890129,7,97.73806
1,Antônio Olinto/PR,-25.9849006,-50.1974516,1380,18595.87657
D1,Antônio Olinto/PR,-25.9849006,-50.1974516,18,242.55491
1,Antônio Prado de Minas/MG,-21.0171988,-42.1101106,402,25491.43944
D1,Antônio Prado de Minas/MG,-21.0171988,-42.1101106,6,380.46925
1,Antônio Prado/RS,-28.8567806,-51.2801355,5309,40710.06825
D1,Antônio Prado/RS,-28.8567806,-51.2801355,35,268.38433
1,Anápolis/GO,-16.3332828,-48.9525756,89753,22634.83353
D1,Anápolis/GO,-16.3332828,-48.9525756,2005,505.64150
1,Anísio de Abreu/PI,-9.185643,-43.04941,314,3141.88513
D1,Anísio de Abreu/PI,-9.185643,-43.04941,16,160.09606
1,Aparecida d'Oeste/SP,-20.4498109,-50.8808706,1744,42309.55847
D1,Aparecida d'Oeste/SP,-20.4498109,-50.8808706,27,655.02183
1,Aparecida de Goiânia/GO,-16.8226769,-49.2452546,173956,28903.83555
D1,Aparecida de Goiânia/GO,-16.8226769,-49.2452546,2023,336.13362
1,Aparecida do Rio Doce/GO,-18.2980167,-51.1491312,853,34478.57720
D1,Aparecida do Rio Doce/GO,-18.2980167,-51.1491312,5,202.10186
1,Aparecida do Rio Negro/TO,-9.9513491,-47.9773786,416,8488.06366
D1,Aparecida do Rio Negro/TO,-9.9513491,-47.9773786,13,265.25199
1,Aparecida do Taboado/MS,-20.0840304,-51.1013943,6617,25077.69272
D1,Aparecida do Taboado/MS,-20.0840304,-51.1013943,73,276.66187
1,Aparecida/PB,-6.7859598, -38.0831353,1911,22530.06366
D1,Aparecida/PB,-6.7859598, -38.0831353,16,188.63476
1,Aparecida/SP,-22.851552,-45.2340924,2988,8251.63624
D1,Aparecida/SP,-22.851552,-45.2340924,129,356.24534
1,Aperibé/RJ,-21.6211928,-42.1028167,2141,17788.30176
D1,Aperibé/RJ,-21.6211928,-42.1028167,35,290.79428
1,Apiacá/ES,-21.152272,-41.569297,2686,35613.89552
D1,Apiacá/ES,-21.152272,-41.569297,42,556.88146
1,Apiacás/MT,-9.5678422,-57.394852,3401,32604.73588
D1,Apiacás/MT,-9.5678422,-57.394852,20,191.73617
1,Apiaí/SP,-24.5076527,-48.8461582,1805,7495.53590
D1,Apiaí/SP,-24.5076527,-48.8461582,110,456.79166
1,Apicum-Açu/MA,-1.5279295,-45.082278,786,4470.48117
D1,Apicum-Açu/MA,-1.5279295,-45.082278,12,68.25162
1,Apiúna/SC,-27.0374658,-49.3885037,1773,16190.30226
D1,Apiúna/SC,-27.0374658,-49.3885037,20,182.63172
1,Apodi/RN,-5.6631109,-37.796927,10982,30587.12121
D1,Apodi/RN,-5.6631109,-37.796927,109,303.58734
1,Aporá/BA,-11.6599747,-38.0794757,727,4075.11211
D1,Aporá/BA,-11.6599747,-38.0794757,25,140.13453
1,Aporé/GO,-18.9642193,-51.92804,1005,23558.36850
D1,Aporé/GO,-18.9642193,-51.92804,11,257.85279
1,Apuarema/BA,-13.8517897,-39.7457126,932,12812.75777
D1,Apuarema/BA,-13.8517897,-39.7457126,13,178.71872
1,Apucarana/PR,-23.5525327,-51.4610764,23073,16787.93347
D1,Apucarana/PR,-23.5525327,-51.4610764,580,422.00847
1,Apuiarés/CE,-3.9460303,-39.4313298,1871,12691.62936
D1,Apuiarés/CE,-3.9460303,-39.4313298,27,183.15018
1,Apuí/AM,-7.1940195,-59.8830192,2446,10756.84947
D1,Apuí/AM,-7.1940195,-59.8830192,36,158.31831
1,Aquidabã/SE,-10.2837579,-37.0188687,2680,12295.83410
D1,Aquidabã/SE,-10.2837579,-37.0188687,46,211.04790
1,Aquidauana/MS,-20.473969,-55.7821375,8353,17335.63008
D1,Aquidauana/MS,-20.473969,-55.7821375,177,367.34186
1,Aquiraz/CE,-3.9063117,-38.387504,11801,14465.37797
D1,Aquiraz/CE,-3.9063117,-38.387504,106,129.93221
1,Arabutã/SC,-27.1587028,-52.1438142,723,16940.01874
D1,Arabutã/SC,-27.1587028,-52.1438142,10,234.30178
1,Aracaju/SE,-10.9162061,-37.0774655,168774,25092.25202
D1,Aracaju/SE,-10.9162061,-37.0774655,2606,387.44362
1,Aracati/CE,-4.558259,-37.767894,14348,19031.19694
D1,Aracati/CE,-4.558259,-37.767894,181,240.07852
1,Aracatu/BA,-14.4274236,-41.4604105,1453,11211.41975
D1,Aracatu/BA,-14.4274236,-41.4604105,23,177.46914
1,Araci/BA,-11.3356065,-38.9573261,4765,8678.94286
D1,Araci/BA,-11.3356065,-38.9573261,63,114.74783
1,Aracitaba/MG,-21.3425,-43.378611,109,5301.55642
D1,Aracitaba/MG,-21.3425,-43.378611,11,535.01946
1,Aracoiaba/CE,-4.3702577,-38.8084313,5645,21221.80451
D1,Aracoiaba/CE,-4.3702577,-38.8084313,39,146.61654
1,Aracruz/ES,-19.8245218,-40.2735025,40754,38834.78493
D1,Aracruz/ES,-19.8245218,-40.2735025,286,272.53149
1,Aragarças/GO,-15.8957166,-52.2514538,5233,25639.39245
D1,Aragarças/GO,-15.8957166,-52.2514538,86,421.36208
1,Aragoiânia/GO,-16.9146388,-49.4499148,3465,32443.82022
D1,Aragoiânia/GO,-16.9146388,-49.4499148,34,318.35206
1,Aragominas/TO,-7.1654101,-48.525488,1157,20280.45574
D1,Aragominas/TO,-7.1654101,-48.525488,10,175.28484
1,Araguacema/TO,-8.8067391,-49.5560969,1445,20005.53787
D1,Araguacema/TO,-8.8067391,-49.5560969,20,276.89326
1,Araguaiana/MT,-15.729144,-51.834112,677,22095.30026
D1,Araguaiana/MT,-15.729144,-51.834112,8,261.09661
1,Araguainha/MT,-16.857016,-53.031778,73,8030.80308
D1,Araguainha/MT,-16.857016,-53.031778,2,220.02200
1,Araguanã/MA,-2.9508403,-45.6651986,878,5601.27592
D1,Araguanã/MA,-2.9508403,-45.6651986,5,31.89793
1,Araguanã/TO,-6.5799107,-48.6428482,625,10672.81421
D1,Araguanã/TO,-6.5799107,-48.6428482,16,273.22404
1,Araguapaz/GO,-15.0937927,-50.626417,1279,16407.95382
D1,Araguapaz/GO,-15.0937927,-50.626417,32,410.51956
1,Araguari/MG,-18.6511256,-48.1933764,33751,28515.30487
D1,Araguari/MG,-18.6511256,-48.1933764,526,444.40314
1,Araguatins/TO,-5.6522925,-48.1158973,3668,10029.25656
D1,Araguatins/TO,-5.6522925,-48.1158973,75,205.06931
1,Araguaçu/TO,-12.928934,-49.823134,2048,24328.81920
D1,Araguaçu/TO,-12.928934,-49.823134,25,296.98266
1,Araguaína/TO,-7.193241,-48.2018597,52780,28339.01581
D1,Araguaína/TO,-7.193241,-48.2018597,628,337.19026
1,Araioses/MA,-2.890914,-41.904993,687,1458.75358
D1,Araioses/MA,-2.890914,-41.904993,15,31.85051
1,Aral Moreira/MS,-22.951141,-55.6268421,585,4675.88522
D1,Aral Moreira/MS,-22.951141,-55.6268421,21,167.85229
1,Aramari/BA,-12.0907897,-38.4985065,1074,9323.72602
D1,Aramari/BA,-12.0907897,-38.4985065,15,130.21964
1,Arambaré/RS,-30.9132252,-51.4994625,394,11117.38149
D1,Arambaré/RS,-30.9132252,-51.4994625,10,282.16704
1,Arame/MA,-4.8858769,-46.0102484,1708,5203.35110
D1,Arame/MA,-4.8858769,-46.0102484,42,127.95126
1,Aramina/SP,-20.0876144,-47.789201,394,6925.64598
D1,Aramina/SP,-20.0876144,-47.789201,20,351.55563
1,Arandu/SP,-23.1345103,-49.0545651,668,10481.71976
D1,Arandu/SP,-23.1345103,-49.0545651,22,345.20634
1,Arantina/MG,-21.911667,-44.255833,687,24721.12271
D1,Arantina/MG,-21.911667,-44.255833,7,251.88917
1,Arapeí/SP,-22.6738889,-44.4477778,276,11256.11746
D1,Arapeí/SP,-22.6738889,-44.4477778,7,285.48124
1,Arapiraca/AL,-9.754866,-36.661471,41593,17751.34545
D1,Arapiraca/AL,-9.754866,-36.661471,589,251.37745
1,Arapoema/TO,-7.6575001,-49.0641484,718,10895.29590
D1,Arapoema/TO,-7.6575001,-49.0641484,12,182.09408
1,Araponga/MG,-20.666667,-42.520556,989,11680.64249
D1,Araponga/MG,-20.666667,-42.520556,16,188.96894
1,Arapongas/PR,-23.415296,-51.42592,30087,23775.73195
D1,Arapongas/PR,-23.415296,-51.42592,662,523.13406
1,Araporã/MG,-18.4318188,-49.188313,2877,41147.02517
D1,Araporã/MG,-18.4318188,-49.188313,44,629.29062
1,Arapoti/PR,-24.1457957,-49.8224605,5805,20382.72472
D1,Arapoti/PR,-24.1457957,-49.8224605,74,259.83146
1,Araputanga/MT,-15.4710868,-58.346796,4887,28615.76297
D1,Araputanga/MT,-15.4710868,-58.346796,58,339.61822
1,Arapuá/MG,-19.034444,-46.155556,463,16325.81100
D1,Arapuá/MG,-19.034444,-46.155556,3,105.78279
1,Arapuã/PR,-24.3079525,-51.7901941,921,31209.75940
D1,Arapuã/PR,-24.3079525,-51.7901941,9,304.98136
1,Araquari/SC,-26.3703324,-48.7210994,7843,19180.72878
D1,Araquari/SC,-26.3703324,-48.7210994,97,237.22181
1,Arara/PB,-6.8271895,-35.7605703,1243,9130.97774
D1,Arara/PB,-6.8271895,-35.7605703,32,235.06942
1,Araranguá/SC,-28.9348832,-49.4858389,18866,27148.05808
D1,Araranguá/SC,-28.9348832,-49.4858389,282,405.79627
1,Araraquara/SP,-21.7886713,-48.1773096,64098,26647.32147
D1,Araraquara/SP,-21.7886713,-48.1773096,654,271.88599
1,Araras/SP,-22.3569477,-47.3838889,20468,14968.66293
D1,Araras/SP,-22.3569477,-47.3838889,463,338.60128
1,Ararendá/CE,-4.7504395,-40.8303611,2217,20185.74160
D1,Ararendá/CE,-4.7504395,-40.8303611,22,200.30957
1,Arari/MA,-3.4547602,-44.7772723,1441,4801.09282
D1,Arari/MA,-3.4547602,-44.7772723,35,116.61225
1,Araricá/RS,-29.6168543,-50.929121,1822,31198.63014
D1,Araricá/RS,-29.6168543,-50.929121,30,513.69863
1,Araripe/CE,-7.212861,-40.1359222,2257,10397.56760
D1,Araripe/CE,-7.212861,-40.1359222,29,133.59746
1,Araripina/PE,-7.5768582,-40.5038509,11911,13963.49398
D1,Araripina/PE,-7.5768582,-40.5038509,182,213.36209
1,Araruama/RJ,-22.8733203,-42.3428897,11247,8263.23021
D1,Araruama/RJ,-22.8733203,-42.3428897,521,382.78145
1,Araruna/PB,-6.5321155,-35.7397595,1109,5380.88307
D1,Araruna/PB,-6.5321155,-35.7397595,18,87.33624
1,Araruna/PR,-23.9320308,-52.4976047,3546,25276.21356
D1,Araruna/PR,-23.9320308,-52.4976047,44,313.63604
1,Arataca/BA,-15.2617424,-39.4122943,962,8822.45048
D1,Arataca/BA,-15.2617424,-39.4122943,16,146.73514
1,Aratiba/RS,-27.3955734,-52.3024325,1113,18112.28641
D1,Aratiba/RS,-27.3955734,-52.3024325,8,130.18714
1,Aratuba/CE,-4.4195958,-39.0463737,2268,19287.35437
D1,Aratuba/CE,-4.4195958,-39.0463737,14,119.05774
1,Aratuípe/BA,-13.077137,-39.0010786,1212,13698.01085
D1,Aratuípe/BA,-13.077137,-39.0010786,14,158.22785
1,Araucária/PR,-25.5861107,-49.4051209,46803,31512.50320
D1,Araucária/PR,-25.5861107,-49.4051209,591,397.92085
1,Arauá/SE,-11.2644014,-37.6181058,1456,14796.74797
D1,Arauá/SE,-11.2644014,-37.6181058,23,233.73984
1,Araxá/MG,-19.5928536,-46.940241,41023,37843.04862
D1,Araxá/MG,-19.5928536,-46.940241,309,285.04746
1,Araçagi/PB,-6.8519969,-35.3835602,3019,17909.47381
D1,Araçagi/PB,-6.8519969,-35.3835602,29,172.03536
1,Araçariguama/SP,-23.438611,-47.061389,3205,13730.02613
D1,Araçariguama/SP,-23.438611,-47.061389,78,334.14728
1,Araçatuba/SP,-21.207992,-50.4390225,47960,24075.09663
D1,Araçatuba/SP,-21.207992,-50.4390225,1012,508.00663
1,Araçaí/MG,-19.200833,-44.2475,309,13093.22034
D1,Araçaí/MG,-19.200833,-44.2475,2,84.74576
1,Araçoiaba da Serra/SP,-23.5045367,-47.6168158,3308,9347.53737
D1,Araçoiaba da Serra/SP,-23.5045367,-47.6168158,103,291.05089
1,Araçoiaba/PE,-7.7856903,-35.0898881,1226,5855.94192
D1,Araçoiaba/PE,-7.7856903,-35.0898881,33,157.62323
1,Araçu/GO,-16.3561579,-49.6815269,1968,57043.47826
D1,Araçu/GO,-16.3561579,-49.6815269,23,666.66667
1,Araçuaí/MG,-16.8484451,-42.0661868,4289,11681.87389
D1,Araçuaí/MG,-16.8484451,-42.0661868,63,171.59199
1,Araçás/BA,-12.2139176,-38.2026159,1079,8817.52063
D1,Araçás/BA,-12.2139176,-38.2026159,16,130.75100
1,Araújos/MG,-19.948055,-45.165556,947,9944.34527
D1,Araújos/MG,-19.948055,-45.165556,15,157.51339
1,Arceburgo/MG,-21.364444,-46.939722,2592,23585.07734
D1,Arceburgo/MG,-21.364444,-46.939722,37,336.66970
1,Arco-Íris/SP,-21.7741308,-50.4668814,609,34700.85470
D1,Arco-Íris/SP,-21.7741308,-50.4668814,10,569.80057
1,Arcos/MG,-20.282223,-45.539444,10137,24932.36263
D1,Arcos/MG,-20.282223,-45.539444,160,393.52649
1,Arcoverde/PE,-8.415192,-37.057748,11905,15811.14284
D1,Arcoverde/PE,-8.415192,-37.057748,146,193.90398
1,Areado/MG,-21.3582771,-46.1476688,3695,24169.28310
D1,Areado/MG,-21.3582771,-46.1476688,35,228.93773
1,Areal/RJ,-22.2314922,-43.1056264,2445,19156.93802
D1,Areal/RJ,-22.2314922,-43.1056264,56,438.76831
1,Arealva/SP,-22.0301906,-48.9111936,2126,24535.48759
D1,Arealva/SP,-22.0301906,-48.9111936,31,357.76111
1,Areia Branca/RN,-4.9506652,-37.1263312,4621,16412.13241
D1,Areia Branca/RN,-4.9506652,-37.1263312,123,436.85183
1,Areia Branca/SE,-10.7591455,-37.3148072,2486,13205.84329
D1,Areia Branca/SE,-10.7591455,-37.3148072,50,265.60425
1,Areia de Baraúnas/PB,-7.1233949,-36.9446216,386,18337.29216
D1,Areia de Baraúnas/PB,-7.1233949,-36.9446216,7,332.54157
1,Areia/PB,-6.9680243,-35.6994783,2969,13199.66212
D1,Areia/PB,-6.9680243,-35.6994783,36,160.04979
1,Areial/PB,-7.0501306,-35.9245244,622,8817.69209
D1,Areial/PB,-7.0501306,-35.9245244,13,184.29260
1,Areias/SP,-22.5800929,-44.6975127,366,9370.19969
D1,Areias/SP,-22.5800929,-44.6975127,6,153.60983
1,Areiópolis/SP,-22.6758064,-48.6673653,2260,20203.82621
D1,Areiópolis/SP,-22.6758064,-48.6673653,33,295.01162
1,Arenápolis/MT,-14.4610369,-56.8432806,3215,34205.76657
D1,Arenápolis/MT,-14.4610369,-56.8432806,44,468.13491
1,Arenópolis/GO,-16.3859286,-51.55937,864,35093.41998
D1,Arenópolis/GO,-16.3859286,-51.55937,10,406.17384
1,Argirita/MG,-21.612761,-42.8371922,766,28571.42857
D1,Argirita/MG,-21.612761,-42.8371922,15,559.49273
1,Aricanduva/MG,-17.8678,-42.5569,453,8539.11404
1,Arinos/MG,-15.917223,-46.106111,3141,17596.63866
D1,Arinos/MG,-15.917223,-46.106111,31,173.66947
1,Aripuanã/MT,-10.175806,-59.4439663,6454,27979.36446
D1,Aripuanã/MT,-10.175806,-59.4439663,59,255.77665
1,Ariquemes/RO,-9.9076522,-63.033069,36107,32485.51481
D1,Ariquemes/RO,-9.9076522,-63.033069,564,507.43153
1,Ariranha do Ivaí/PR,-24.3834527,-51.5876772,700,34550.83909
D1,Ariranha do Ivaí/PR,-24.3834527,-51.5876772,5,246.79171
1,Ariranha/SP,-21.18716,-48.790418,1039,10547.15257
D1,Ariranha/SP,-21.18716,-48.790418,38,385.74764
1,Armazém/SC,-28.2624996,-49.0190126,1766,19970.59821
D1,Armazém/SC,-28.2624996,-49.0190126,36,407.10166
1,Armação dos Búzios/RJ,-22.7597805,-41.8875267,9234,26337.70679
D1,Armação dos Búzios/RJ,-22.7597805,-41.8875267,83,236.73702
1,Arneiroz/CE,-6.3235099,-40.1603859,966,12308.86850
D1,Arneiroz/CE,-6.3235099,-40.1603859,21,267.58410
1,Aroazes/PI,-6.1108814,-41.7886137,786,13507.47551
D1,Aroazes/PI,-6.1108814,-41.7886137,15,257.77625
1,Aroeiras do Itaim/PI,-7.2797031,-41.5629681,190,7448.05958
D1,Aroeiras do Itaim/PI,-7.2797031,-41.5629681,2,78.40063
1,Aroeiras/PB,-7.5462904,-35.7080002,3054,16005.45045
D1,Aroeiras/PB,-7.5462904,-35.7080002,21,110.05712
1,Arraial do Cabo/RJ,-22.9662839,-42.024427,3663,11882.44072
D1,Arraial do Cabo/RJ,-22.9662839,-42.024427,54,175.17112
1,Arraial/PI,-6.6541632,-42.5335332,173,3670.69807
D1,Arraial/PI,-6.6541632,-42.5335332,3,63.65372
1,Arraias/TO,-12.9287788,-46.9437231,1770,16853.93258
D1,Arraias/TO,-12.9287788,-46.9437231,13,123.78595
1,Arroio Grande/RS,-32.2384246,-53.0866661,3389,18636.23866
D1,Arroio Grande/RS,-32.2384246,-53.0866661,62,340.94034
1,Arroio Trinta/SC,-26.9301976,-51.334928,1354,38173.10403
D1,Arroio Trinta/SC,-26.9301976,-51.334928,15,422.89259
1,Arroio do Meio/RS,-29.4020392,-51.9444993,5654,26769.56583
D1,Arroio do Meio/RS,-29.4020392,-51.9444993,60,284.07746
1,Arroio do Padre/RS,-31.4428773,-52.4228985,543,18307.48483
D1,Arroio do Padre/RS,-31.4428773,-52.4228985,5,168.57721
1,Arroio do Sal/RS,-29.549852,-49.8874395,4344,41438.51951
D1,Arroio do Sal/RS,-29.549852,-49.8874395,44,419.72718
1,Arroio do Tigre/RS,-29.334158,-53.0888935,2733,20316.68153
D1,Arroio do Tigre/RS,-29.334158,-53.0888935,25,185.84597
1,Arroio dos Ratos/RS,-30.0894524,-51.7265541,3005,21160.48166
D1,Arroio dos Ratos/RS,-30.0894524,-51.7265541,50,352.08788
1,Artur Nogueira/SP,-22.572737,-47.172679,9141,16251.53342
D1,Artur Nogueira/SP,-22.572737,-47.172679,169,300.46047
1,Aruanã/GO,-14.9162439,-51.0715692,2202,21295.93810
D1,Aruanã/GO,-14.9162439,-51.0715692,23,222.43714
1,Arujá/SP,-23.396266,-46.3175449,12502,13522.54659
D1,Arujá/SP,-23.396266,-46.3175449,363,392.63193
1,Arvoredo/SC,-27.0752908,-52.4571847,492,22082.58528
D1,Arvoredo/SC,-27.0752908,-52.4571847,5,224.41652
1,Arvorezinha/RS,-28.87369,-52.17808,1731,16609.09614
D1,Arvorezinha/RS,-28.87369,-52.17808,34,326.23297
1,Arês/RN,-6.1969216,-35.1642968,1774,12212.58433
D1,Arês/RN,-6.1969216,-35.1642968,27,185.87361
1,Ascurra/SC,-26.9569975,-49.3767752,2328,29023.81249
D1,Ascurra/SC,-26.9569975,-49.3767752,14,174.54183
1,Aspásia/SP,-20.160028,-50.728046,592,32617.07989
D1,Aspásia/SP,-20.160028,-50.728046,10,550.96419
1,Assaré/CE,-6.8746791,-39.8741385,3214,13655.09623
D1,Assaré/CE,-6.8746791,-39.8741385,58,246.42053
1,Assaí/PR,-23.3736041,-50.8454929,3544,23958.89670
D1,Assaí/PR,-23.3736041,-50.8454929,72,486.74959
1,Assis Brasil/AC,-10.9409203,-69.5672108,2250,29415.60988
D1,Assis Brasil/AC,-10.9409203,-69.5672108,26,339.91371
1,Assis Chateaubriand/PR,-24.4054826,-53.5120468,9850,29574.25089
D1,Assis Chateaubriand/PR,-24.4054826,-53.5120468,147,441.36192
1,Assis/SP,-22.6620892,-50.420623,25338,23956.20604
D1,Assis/SP,-22.6620892,-50.420623,472,446.25974
1,Assunção do Piauí/PI,-5.8610212,-41.0485091,411,5216.39802
D1,Assunção do Piauí/PI,-5.8610212,-41.0485091,10,126.91966
1,Assunção/PB,-7.073396,-36.7274003,804,19768.87140
D1,Assunção/PB,-7.073396,-36.7274003,6,147.52889
1,Astolfo Dutra/MG,-21.3132636,-42.8624102,2425,16889.53893
D1,Astolfo Dutra/MG,-21.3132636,-42.8624102,34,236.80178
1,Astorga/PR,-23.2350184,-51.6647074,9455,35945.10341
D1,Astorga/PR,-23.2350184,-51.6647074,107,406.78224
1,Atalaia do Norte/AM,-4.3658547,-70.1908742,4189,20073.79720
D1,Atalaia do Norte/AM,-4.3658547,-70.1908742,11,52.71229
1,Atalaia/AL,-9.5029595,-36.0219316,2234,4699.20067
D1,Atalaia/AL,-9.5029595,-36.0219316,61,128.31300
1,Atalaia/PR,-23.1513833,-52.0529697,1306,33738.05218
D1,Atalaia/PR,-23.1513833,-52.0529697,28,723.32731
1,Atalanta/SC,-27.421916,-49.778863,923,29034.28751
D1,Atalanta/SC,-27.421916,-49.778863,12,377.47719
1,Ataléia/MG,-18.04432,-41.1110524,1530,12243.91805
D1,Ataléia/MG,-18.04432,-41.1110524,12,96.03073
1,Atibaia/SP,-23.1177393,-46.5547861,13298,9147.18871
D1,Atibaia/SP,-23.1177393,-46.5547861,487,334.98879
1,Atilio Vivacqua/ES,-20.9139369,-41.1947519,3509,28598.20701
D1,Atilio Vivacqua/ES,-20.9139369,-41.1947519,40,325.99837
1,Augustinópolis/TO,-5.4662267,-47.8897519,2419,12819.28988
D1,Augustinópolis/TO,-5.4662267,-47.8897519,32,169.58135
1,Augusto Corrêa/PA,-1.0229335,-46.6404029,3195,6806.99661
D1,Augusto Corrêa/PA,-1.0229335,-46.6404029,59,125.70041
1,Augusto Pestana/RS,-28.5148413,-53.9906433,2062,31504.96562
D1,Augusto Pestana/RS,-28.5148413,-53.9906433,17,259.74026
1,Augusto de Lima/MG,-18.1092963,-44.2651945,327,6765.98386
D1,Augusto de Lima/MG,-18.1092963,-44.2651945,12,248.29299
1,Aurelino Leal/BA,-14.3167137,-39.3256107,1384,12492.10218
D1,Aurelino Leal/BA,-14.3167137,-39.3256107,41,370.06950
1,Auriflama/SP,-20.6840418,-50.5554616,2421,15806.99922
D1,Auriflama/SP,-20.6840418,-50.5554616,88,574.56255
1,Aurilândia/GO,-16.6772599,-50.4641231,1509,50300.00000
D1,Aurilândia/GO,-16.6772599,-50.4641231,17,566.66667
1,Aurora do Pará/PA,-2.1323199,-47.558436,2344,7279.50311
D1,Aurora do Pará/PA,-2.1323199,-47.558436,20,62.11180
1,Aurora do Tocantins/TO,-12.71045,-46.407604,617,16198.47729
D1,Aurora do Tocantins/TO,-12.71045,-46.407604,8,210.02888
1,Aurora/CE,-6.9426019,-38.9693765,2858,11633.49208
D1,Aurora/CE,-6.9426019,-38.9693765,45,183.17255
1,Aurora/SC,-27.3166417,-49.6368502,1580,27782.66221
D1,Aurora/SC,-27.3166417,-49.6368502,23,404.43116
1,Autazes/AM,-3.5833283,-59.1301518,4208,10262.16315
D1,Autazes/AM,-3.5833283,-59.1301518,102,248.75015
1,Avanhandava/SP,-21.4603331,-49.9465156,1910,13581.73932
D1,Avanhandava/SP,-21.4603331,-49.9465156,49,348.43206
1,Avaré/SP,-23.1045215,-48.9259103,15709,17113.69182
D1,Avaré/SP,-23.1045215,-48.9259103,327,356.24020
1,Avaí/SP,-22.1564662,-49.3316395,833,15236.87580
D1,Avaí/SP,-22.1564662,-49.3316395,14,256.08195
1,Aveiro/PA,-3.6049239,-55.3310742,1261,7679.19128
D1,Aveiro/PA,-3.6049239,-55.3310742,15,91.34645
1,Avelino Lopes/PI,-10.1346855,-43.9489525,864,7604.96435
D1,Avelino Lopes/PI,-10.1346855,-43.9489525,24,211.24901
1,Avelinópolis/GO,-16.4672409,-49.7578661,431,17950.85381
D1,Avelinópolis/GO,-16.4672409,-49.7578661,18,749.68763
1,Axixá do Tocantins/TO,-5.612747,-47.77007,1398,14240.60304
D1,Axixá do Tocantins/TO,-5.612747,-47.77007,24,244.47387
1,Axixá/MA,-2.8379465,-44.0561053,192,1569.39676
D1,Axixá/MA,-2.8379465,-44.0561053,7,57.21759
1,Açailândia/MA,-4.9514278,-47.4844564,6971,6126.57427
D1,Açailândia/MA,-4.9514278,-47.4844564,297,261.02318
1,Açu/RN,-5.5836157,-36.9139541,10815,18410.70425
D1,Açu/RN,-5.5836157,-36.9139541,180,306.41949
1,Açucena/MG,-19.073056,-42.546666,927,10000.00000
D1,Açucena/MG,-19.073056,-42.546666,39,420.71197
1,Babaçulândia/TO,-7.2034355,-47.761613,910,8530.18373
D1,Babaçulândia/TO,-7.2034355,-47.761613,8,74.99063
1,Bacabal/MA,-4.2318132,-44.781167,11070,10533.42722
D1,Bacabal/MA,-4.2318132,-44.781167,238,226.46393
1,Bacabeira/MA,-2.9775747,-44.3155943,702,4023.84501
D1,Bacabeira/MA,-2.9775747,-44.3155943,10,57.31973
1,Bacuri/MA,-1.728894,-45.1417148,1117,5964.96849
D1,Bacuri/MA,-1.728894,-45.1417148,4,21.36067
1,Bacurituba/MA,-2.7082587,-44.7381309,117,2054.07303
D1,Bacurituba/MA,-2.7082587,-44.7381309,1,17.55618
1,Bady Bassitt/SP,-20.9178969,-49.4517911,4551,25265.08633
D1,Bady Bassitt/SP,-20.9178969,-49.4517911,103,571.80925
1,Baependi/MG,-21.959162,-44.8899249,3885,20182.86664
D1,Baependi/MG,-21.959162,-44.8899249,38,197.41285
1,Bagre/PA,-1.8994498,-50.2103844,1350,4223.10508
D1,Bagre/PA,-1.8994498,-50.2103844,13,40.66694
1,Bagé/RS,-31.3314264,-54.1062808,29728,24463.86544
D1,Bagé/RS,-31.3314264,-54.1062808,361,297.07533
1,Baianópolis/BA,-12.3067564,-44.5383591,1384,9900.56513
D1,Baianópolis/BA,-12.3067564,-44.5383591,26,185.99328
1,Baixa Grande do Ribeiro/PI,-7.862861,-45.2113289,2685,22849.11922
D1,Baixa Grande do Ribeiro/PI,-7.862861,-45.2113289,36,306.35691
1,Baixa Grande/BA,-11.9630941,-40.1657537,1469,7190.05433
D1,Baixa Grande/BA,-11.9630941,-40.1657537,28,137.04664
1,Baixio/CE,-6.7303544,-38.7170095,939,14862.29820
D1,Baixio/CE,-6.7303544,-38.7170095,18,284.90028
1,Baixo Guandu/ES,-19.5138322,-41.0182089,10931,34964.65470
D1,Baixo Guandu/ES,-19.5138322,-41.0182089,106,339.05895
1,Baião/PA,-2.7903479,-49.6702845,990,2001.86031
D1,Baião/PA,-2.7903479,-49.6702845,39,78.86116
1,Balbinos/SP,-21.9006253,-49.3583966,781,12746.85817
D1,Balbinos/SP,-21.9006253,-49.3583966,4,65.28480
1,Baldim/MG,-19.2913568,-43.9558262,925,11889.46015
D1,Baldim/MG,-19.2913568,-43.9558262,25,321.33676
1,Baliza/GO,-16.1978119,-52.542789,882,16279.06977
D1,Baliza/GO,-16.1978119,-52.542789,13,239.94094
1,Balneário Arroio do Silva/SC,-28.9815269,-49.4189932,4058,29444.20258
D1,Balneário Arroio do Silva/SC,-28.9815269,-49.4189932,66,478.88550
1,Balneário Barra do Sul/SC,-26.459842,-48.6061471,2587,22952.71050
D1,Balneário Barra do Sul/SC,-26.459842,-48.6061471,57,505.72265
1,Balneário Camboriú/SC,-26.9924395,-48.6339782,38505,25802.97131
D1,Balneário Camboriú/SC,-26.9924395,-48.6339782,507,339.75085
1,Balneário Gaivota/SC,-29.1553098,-49.5808712,3917,33951.63387
D1,Balneário Gaivota/SC,-29.1553098,-49.5808712,41,355.37835
1,Balneário Pinhal/RS,-30.2482978,-50.234585,4083,27879.82247
D1,Balneário Pinhal/RS,-30.2482978,-50.234585,64,437.00922
1,Balneário Piçarras/SC,-26.7638889,-48.6716667,7830,32109.90363
D1,Balneário Piçarras/SC,-26.7638889,-48.6716667,74,303.46525
1,Balneário Rincão/SC,-28.8235718,-49.2241642,2635,20070.07388
D1,Balneário Rincão/SC,-28.8235718,-49.2241642,55,418.91995
1,Balsa Nova/PR,-25.5842234,-49.6312741,3296,24898.02085
D1,Balsa Nova/PR,-25.5842234,-49.6312741,36,271.94440
1,Balsas/MA,-7.53214,-46.037163,17009,17543.91394
D1,Balsas/MA,-7.53214,-46.037163,245,252.70497
1,Bambuí/MG,-20.0131996,-45.9777034,6155,25684.35987
D1,Bambuí/MG,-20.0131996,-45.9777034,42,175.26289
1,Banabuiú/CE,-5.3046404,-38.919766,3211,17533.99225
D1,Banabuiú/CE,-5.3046404,-38.919766,22,120.13324
1,Bananal/SP,-22.6828195,-44.3221095,1168,10580.66854
D1,Bananal/SP,-22.6828195,-44.3221095,11,99.64671
1,Bananeiras/PB,-6.7537682,-35.6338343,2087,9835.06126
D1,Bananeiras/PB,-6.7537682,-35.6338343,29,136.66352
1,Bandeira do Sul/MG,-21.728056,-46.385555,1444,24862.25895
D1,Bandeira do Sul/MG,-21.728056,-46.385555,18,309.91736
1,Bandeira/MG,-15.884444,-40.559167,748,15787.25201
D1,Bandeira/MG,-15.884444,-40.559167,12,253.27142
1,Bandeirante/SC,-26.7677402,-53.6397596,780,29793.73568
D1,Bandeirante/SC,-26.7677402,-53.6397596,7,267.37968
1,Bandeirantes do Tocantins/TO,-7.7635698,-48.579148,868,23905.26026
D1,Bandeirantes do Tocantins/TO,-7.7635698,-48.579148,8,220.32498
1,Bandeirantes/MS,-19.9179623,-54.3646768,826,11344.59552
D1,Bandeirantes/MS,-19.9179623,-54.3646768,12,164.81253
1,Bandeirantes/PR,-23.107788,-50.370407,9997,32185.05521
D1,Bandeirantes/PR,-23.107788,-50.370407,168,540.87119
1,Bannach/PA,-7.3508505,-50.4064531,721,22259.95678
D1,Bannach/PA,-7.3508505,-50.4064531,3,92.62118
1,Banzaê/BA,-10.5827616,-38.6122305,1484,11199.15478
D1,Banzaê/BA,-10.5827616,-38.6122305,14,105.65240
1,Baraúna/PB,-6.643394,-36.2531932,804,15974.56785
D1,Baraúna/PB,-6.643394,-36.2531932,9,178.81979
1,Baraúna/RN,-5.0775002,-37.61752,1845,6337.59275
D1,Baraúna/RN,-5.0775002,-37.61752,34,116.79033
1,Barbacena/MG,-21.2254524,-43.7735087,19993,14377.14384
D1,Barbacena/MG,-21.2254524,-43.7735087,371,266.78939
1,Barbalha/CE,-7.3121067,-39.3036427,12464,20213.42156
D1,Barbalha/CE,-7.3121067,-39.3036427,215,348.67503
1,Barbosa Ferraz/PR,-24.0287182,-52.00811,3671,32524.14282
D1,Barbosa Ferraz/PR,-24.0287182,-52.00811,61,540.44476
1,Barbosa/SP,-21.265661,-49.951816,974,12931.49230
D1,Barbosa/SP,-21.265661,-49.951816,25,331.91715
1,Barcarena/PA,-1.5107945,-48.6190679,14978,11580.95768
D1,Barcarena/PA,-1.5107945,-48.6190679,260,201.03145
1,Barcelona/RN,-5.9514918,-35.9260284,529,13261.46904
D1,Barcelona/RN,-5.9514918,-35.9260284,11,275.75834
1,Barcelos/AM,-0.9729214,-62.925635,5365,19318.01815
D1,Barcelos/AM,-0.9729214,-62.925635,60,216.04494
1,Bariri/SP,-22.0746355,-48.7394852,7315,20407.87858
D1,Bariri/SP,-22.0746355,-48.7394852,156,435.21928
1,Barra Bonita/SC,-26.6526364,-53.4419581,511,31446.15385
D1,Barra Bonita/SC,-26.6526364,-53.4419581,2,123.07692
1,Barra Bonita/SP,-22.490859,-48.558349,5635,15598.61592
D1,Barra Bonita/SP,-22.490859,-48.558349,129,357.09343
1,Barra D'Alcântara/PI,-6.5209258,-42.1071089,164,4148.74779
D1,Barra D'Alcântara/PI,-6.5209258,-42.1071089,6,151.78346
1,Barra Funda/RS,-27.9230048,-53.0401045,1201,46859.14943
D1,Barra Funda/RS,-27.9230048,-53.0401045,16,624.26844
1,Barra Longa/MG,-20.2833541,-43.0423516,702,14311.92661
D1,Barra Longa/MG,-20.2833541,-43.0423516,14,285.42304
1,Barra Mansa/RJ,-22.5394843,-44.1735129,48570,26220.46351
D1,Barra Mansa/RJ,-22.5394843,-44.1735129,761,410.82505
1,Barra Velha/SC,-26.6338203,-48.6835001,7449,24391.76135
D1,Barra Velha/SC,-26.6338203,-48.6835001,148,484.62622
1,Barra da Estiva/BA,-13.6269662,-41.3278287,3978,19695.01931
D1,Barra da Estiva/BA,-13.6269662,-41.3278287,38,188.13744
1,Barra de Guabiraba/PE,-8.4173522,-35.6626669,1036,7080.37179
D1,Barra de Guabiraba/PE,-8.4173522,-35.6626669,21,143.52105
1,Barra de Santa Rosa/PB,-6.7218007,-36.0564638,1813,11616.58230
D1,Barra de Santa Rosa/PB,-6.7218007,-36.0564638,16,102.51810
1,Barra de Santana/PB,-7.5230865,-35.9988518,1281,15363.39650
D1,Barra de Santana/PB,-7.5230865,-35.9988518,8,95.94627
1,Barra de Santo Antônio/AL,-9.4038098,-35.5117693,654,4036.78785
D1,Barra de Santo Antônio/AL,-9.4038098,-35.5117693,33,203.69113
1,Barra de São Francisco/ES,-18.7570902,-40.8916119,12636,27893.42399
D1,Barra de São Francisco/ES,-18.7570902,-40.8916119,264,582.76859
1,Barra de São Miguel/AL,-9.8261357,-35.8837777,1084,12852.73891
D1,Barra de São Miguel/AL,-9.8261357,-35.8837777,10,118.56770
1,Barra de São Miguel/PB,-7.7528088,-36.3170996,1393,22854.79902
D1,Barra de São Miguel/PB,-7.7528088,-36.3170996,10,164.06891
1,Barra do Bugres/MT,-15.0683712,-57.1853688,8574,24055.88912
D1,Barra do Bugres/MT,-15.0683712,-57.1853688,106,297.40194
1,Barra do Chapéu/SP,-24.472203,-49.023784,467,8060.06213
D1,Barra do Chapéu/SP,-24.472203,-49.023784,16,276.14774
1,Barra do Choça/BA,-14.8638173,-40.5761637,3001,9733.70958
D1,Barra do Choça/BA,-14.8638173,-40.5761637,44,142.71350
1,Barra do Corda/MA,-5.496823,-45.248496,5876,6610.04556
D1,Barra do Corda/MA,-5.496823,-45.248496,78,87.74397
1,Barra do Garças/MT,-15.8916033,-52.2615413,17854,28935.85297
D1,Barra do Garças/MT,-15.8916033,-52.2615413,409,662.86344
1,Barra do Guarita/RS,-27.1888016,-53.7147086,145,4439.68157
D1,Barra do Guarita/RS,-27.1888016,-53.7147086,8,244.94795
1,Barra do Jacaré/PR,-23.1151788,-50.1813945,693,24919.09385
D1,Barra do Jacaré/PR,-23.1151788,-50.1813945,7,251.70802
1,Barra do Mendes/BA,-11.8053298,-42.057037,1534,11684.94820
D1,Barra do Mendes/BA,-11.8053298,-42.057037,23,175.19805
1,Barra do Ouro/TO,-7.7113784,-47.6743925,214,4579.49925
D1,Barra do Ouro/TO,-7.7113784,-47.6743925,8,171.19623
1,Barra do Piraí/RJ,-22.4703403,-43.8263256,13085,12937.64028
D1,Barra do Piraí/RJ,-22.4703403,-43.8263256,452,446.90970
1,Barra do Quaraí/RS,-30.208947,-57.5505128,1145,27017.46107
D1,Barra do Quaraí/RS,-30.208947,-57.5505128,9,212.36432
1,Barra do Ribeiro/RS,-30.2930206,-51.301437,2771,20348.06873
D1,Barra do Ribeiro/RS,-30.2930206,-51.301437,63,462.62300
1,Barra do Rio Azul/RS,-27.4101581,-52.4117471,223,13756.94016
D1,Barra do Rio Azul/RS,-27.4101581,-52.4117471,1,61.69031
1,Barra do Rocha/BA,-14.2090974,-39.6004395,817,14814.14325
D1,Barra do Rocha/BA,-14.2090974,-39.6004395,8,145.05893
1,Barra do Turvo/SP,-24.756421,-48.5056942,895,11767.02603
D1,Barra do Turvo/SP,-24.756421,-48.5056942,27,354.98291
1,Barra dos Coqueiros/SE,-10.9075694,-37.0386249,9061,28820.89125
D1,Barra dos Coqueiros/SE,-10.9075694,-37.0386249,110,349.88390
1,Barra/BA,-11.0892702,-43.1420453,3655,6740.43338
D1,Barra/BA,-11.0892702,-43.1420453,72,132.78008
1,Barracão/PR,-26.252395,-53.6349576,2893,27959.79511
D1,Barracão/PR,-26.252395,-53.6349576,39,376.92085
1,Barracão/RS,-27.6728964,-51.4582928,944,18025.58717
D1,Barracão/RS,-27.6728964,-51.4582928,18,343.70823
1,Barras/PI,-4.2446153,-42.2920241,7030,14863.20775
D1,Barras/PI,-4.2446153,-42.2920241,110,232.56797
1,Barreira/CE,-4.2883361,-38.641094,2448,10777.01959
D1,Barreira/CE,-4.2883361,-38.641094,54,237.72837
1,Barreiras do Piauí/PI,-9.9224524,-45.4763776,114,3396.90107
D1,Barreiras do Piauí/PI,-9.9224524,-45.4763776,4,119.18951
1,Barreiras/BA,-12.1440031,-44.9967406,26431,16682.86710
D1,Barreiras/BA,-12.1440031,-44.9967406,356,224.70208
1,Barreirinha/AM,-2.798863,-57.067897,4115,12500.37972
D1,Barreirinha/AM,-2.798863,-57.067897,69,209.60540
1,Barreirinhas/MA,-2.7541271,-42.8259693,2987,4675.14986
D1,Barreirinhas/MA,-2.7541271,-42.8259693,46,71.99762
1,Barreiros/PE,-8.8159644,-35.1831905,1743,4066.15966
D1,Barreiros/PE,-8.8159644,-35.1831905,68,158.63388
1,Barretos/SP,-20.5531437,-48.5697509,30712,24858.75706
D1,Barretos/SP,-20.5531437,-48.5697509,641,518.83509
1,Barrinha/SP,-21.1898849,-48.1550642,1763,5256.88046
D1,Barrinha/SP,-21.1898849,-48.1550642,93,277.30566
1,Barro Alto/BA,-11.7618025,-41.9094904,1354,8924.92255
D1,Barro Alto/BA,-11.7618025,-41.9094904,17,112.05590
1,Barro Alto/GO,-14.9696025,-48.9190985,3039,26101.52023
D1,Barro Alto/GO,-14.9696025,-48.9190985,24,206.13244
1,Barro Duro/PI,-5.8180139,-42.5106589,856,12190.25919
D1,Barro Duro/PI,-5.8180139,-42.5106589,12,170.89148
1,Barro Preto/BA,-14.8068289,-39.4727588,778,14646.08434
D1,Barro Preto/BA,-14.8068289,-39.4727588,15,282.37952
1,Barro/CE,-7.1713587,-38.7742136,3134,13725.14671
D1,Barro/CE,-7.1713587,-38.7742136,52,227.73058
1,Barrocas/BA,-11.5165,-39.099282894736845,1181,7278.89060
D1,Barrocas/BA,-11.5165,-39.099282894736845,30,184.89985
1,Barrolândia/TO,-9.837246,-48.7264346,902,15911.09543
D1,Barrolândia/TO,-9.837246,-48.7264346,21,370.43570
1,Barroquinha/CE,-3.0200371,-41.1339229,1793,11898.59977
D1,Barroquinha/CE,-3.0200371,-41.1339229,28,185.81193
1,Barros Cassal/RS,-29.094938,-52.5832366,1693,15160.74147
D1,Barros Cassal/RS,-29.094938,-52.5832366,16,143.27931
1,Barroso/MG,-21.187222,-43.976111,5951,28363.75769
D1,Barroso/MG,-21.187222,-43.976111,74,352.70006
1,Barueri/SP,-23.5112184,-46.8764612,47585,17012.62763
D1,Barueri/SP,-23.5112184,-46.8764612,1264,451.90630
1,Barão de Antonina/SP,-23.6295651,-49.5632104,1008,28595.74468
D1,Barão de Antonina/SP,-23.6295651,-49.5632104,11,312.05674
1,Barão de Cocais/MG,-19.9452437,-43.4870298,8035,24178.50265
D1,Barão de Cocais/MG,-19.9452437,-43.4870298,85,255.77756
1,Barão de Cotegipe/RS,-27.6214694,-52.3765316,1134,17140.26602
D1,Barão de Cotegipe/RS,-27.6214694,-52.3765316,11,166.26360
1,Barão de Grajaú/MA,-6.7542591,-43.0263477,503,2643.75066
D1,Barão de Grajaú/MA,-6.7542591,-43.0263477,6,31.53579
1,Barão de Melgaço/MT,-16.195776,-55.9668049,1264,15480.71035
D1,Barão de Melgaço/MT,-16.195776,-55.9668049,19,232.70055
1,Barão de Monte Alto/MG,-21.244722,-42.2375,387,7286.76332
D1,Barão de Monte Alto/MG,-21.244722,-42.2375,16,301.26153
1,Barão do Triunfo/RS,-30.3909877,-51.7375349,835,11059.60265
D1,Barão do Triunfo/RS,-30.3909877,-51.7375349,10,132.45033
1,Barão/RS,-29.372474,-51.494908,1447,23218.87035
D1,Barão/RS,-29.372474,-51.494908,15,240.69320
1,Bastos/SP,-21.9222474,-50.7317727,3818,18222.60405
D1,Bastos/SP,-21.9222474,-50.7317727,98,467.73578
1,Bataguassu/MS,-21.715899,-52.422058,4585,19411.51566
D1,Bataguassu/MS,-21.715899,-52.422058,55,232.85351
1,Batalha/AL,-9.6733809,-37.1265481,1303,7066.16052
D1,Batalha/AL,-9.6733809,-37.1265481,24,130.15184
1,Batalha/PI,-4.022391,-42.0780926,1601,5940.41037
D1,Batalha/PI,-4.022391,-42.0780926,40,148.41750
1,Batatais/SP,-20.892867,-47.592149,6915,10900.40670
D1,Batatais/SP,-20.892867,-47.592149,211,332.60822
1,Batayporã/MS,-22.2976466,-53.2685608,1865,16405.70021
D1,Batayporã/MS,-22.2976466,-53.2685608,32,281.49191
1,Baturité/CE,-4.3290203,-38.8821055,5934,16425.38821
D1,Baturité/CE,-4.3290203,-38.8821055,91,251.88917
1,Bauru/SP,-22.3218102,-49.0705863,86422,22640.98547
D1,Bauru/SP,-22.3218102,-49.0705863,1468,384.58919
1,Bayeux/PB,-7.1301631,-34.936532,13475,13817.82012
D1,Bayeux/PB,-7.1301631,-34.936532,273,279.94545
1,Baía Formosa/RN,-6.3691885,-35.0063741,897,9570.04161
D1,Baía Formosa/RN,-6.3691885,-35.0063741,11,117.35837
1,Baía da Traição/PB,-6.691258,-34.9371244,1786,19419.37588
D1,Baía da Traição/PB,-6.691258,-34.9371244,13,141.35044
1,Bebedouro/SP,-20.949077,-48.479083,6032,7771.99402
D1,Bebedouro/SP,-20.949077,-48.479083,353,454.82657
1,Beberibe/CE,-4.1810469,-38.1298101,10899,20066.28003
D1,Beberibe/CE,-4.1810469,-38.1298101,145,266.96124
1,Bela Cruz/CE,-3.0529129,-40.167582,4434,13497.30602
D1,Bela Cruz/CE,-3.0529129,-40.167582,79,240.47974
1,Bela Vista da Caroba/PR,-25.8792818,-53.6672545,834,24500.58754
D1,Bela Vista da Caroba/PR,-25.8792818,-53.6672545,9,264.39483
1,Bela Vista de Goiás/GO,-16.9692949,-48.9513071,6254,20171.59076
D1,Bela Vista de Goiás/GO,-16.9692949,-48.9513071,112,361.24371
1,Bela Vista de Minas/MG,-19.8289721,-43.0973688,1308,12737.36488
D1,Bela Vista de Minas/MG,-19.8289721,-43.0973688,27,262.92726
1,Bela Vista do Maranhão/MA,-3.7416367,-45.2514192,411,3622.10276
D1,Bela Vista do Maranhão/MA,-3.7416367,-45.2514192,19,167.44514
1,Bela Vista do Paraíso/PR,-22.9948493,-51.1907996,4157,26993.50649
D1,Bela Vista do Paraíso/PR,-22.9948493,-51.1907996,89,577.92208
1,Bela Vista do Piauí/PI,-7.9716353,-41.8715061,328,8110.78140
D1,Bela Vista do Piauí/PI,-7.9716353,-41.8715061,7,173.09594
1,Bela Vista do Toldo/SC,-26.274625,-50.466354,113,1769.49577
D1,Bela Vista do Toldo/SC,-26.274625,-50.466354,5,78.29627
1,Bela Vista/MS,-22.107327,-56.5317344,2954,11891.15208
D1,Bela Vista/MS,-22.107327,-56.5317344,45,181.14484
1,Belford Roxo/RJ,-22.7667284,-43.4033603,52386,10167.32041
D1,Belford Roxo/RJ,-22.7667284,-43.4033603,1029,199.71314
1,Belmiro Braga/MG,-21.9486291,-43.413564,1008,29456.45821
D1,Belmiro Braga/MG,-21.9486291,-43.413564,6,175.33606
1,Belmonte/BA,-15.8630837,-38.8792845,1841,7820.73067
D1,Belmonte/BA,-15.8630837,-38.8792845,33,140.18692
1,Belmonte/SC,-26.8448262,-53.578916,666,24557.52212
D1,Belmonte/SC,-26.8448262,-53.578916,5,184.36578
1,Belo Campo/BA,-15.0338286,-41.2585109,1300,7641.21554
D1,Belo Campo/BA,-15.0338286,-41.2585109,22,129.31288
1,Belo Horizonte/MG,-19.9227318,-43.9450948,469547,18554.02910
D1,Belo Horizonte/MG,-19.9227318,-43.9450948,8265,326.58935
1,Belo Jardim/PE,-8.3338293,-36.4176419,10401,13520.08319
D1,Belo Jardim/PE,-8.3338293,-36.4176419,140,181.98362
1,Belo Monte/AL,-9.8269944,-37.2787165,684,10183.11746
D1,Belo Monte/AL,-9.8269944,-37.2787165,11,163.76358
1,Belo Oriente/MG,-19.2232523,-42.4807033,3685,13509.55017
D1,Belo Oriente/MG,-19.2232523,-42.4807033,83,304.28566
1,Belo Vale/MG,-20.407778,-44.024167,1723,22309.98317
D1,Belo Vale/MG,-20.407778,-44.024167,20,258.96672
1,Belterra/PA,-2.636091,-54.937392,3439,19165.18056
D1,Belterra/PA,-2.636091,-54.937392,50,278.64467
1,Belágua/MA,-3.1604031,-43.5085052,451,5945.16214
D1,Belágua/MA,-3.1604031,-43.5085052,4,52.72871
1,Belém de Maria/PE,-8.6242497,-35.8388934,543,4462.15794
D1,Belém de Maria/PE,-8.6242497,-35.8388934,10,82.17602
1,Belém do Brejo do Cruz/PB,-6.1880727,-37.5332267,974,13240.89179
D1,Belém do Brejo do Cruz/PB,-6.1880727,-37.5332267,10,135.94345
1,Belém do Piauí/PI,-7.3767305,-40.9712156,627,17382.86665
D1,Belém do Piauí/PI,-7.3767305,-40.9712156,8,221.79096
1,Belém do São Francisco/PE,-8.7517707,-38.9625715,2150,10371.44235
D1,Belém do São Francisco/PE,-8.7517707,-38.9625715,24,115.77424
1,Belém/AL,-9.5715351,-36.492841,261,6176.05301
D1,Belém/AL,-9.5715351,-36.492841,8,189.30431
1,Belém/PA,-1.45056,-48.4682453,155968,10353.55346
D1,Belém/PA,-1.45056,-48.4682453,5429,360.39086
1,Belém/PB,-6.6967586,-35.5369626,3121,17599.95489
D1,Belém/PB,-6.6967586,-35.5369626,48,270.68178
1,Beneditinos/PI,-5.4565671,-42.3605061,1539,14686.51589
D1,Beneditinos/PI,-5.4565671,-42.3605061,43,410.34450
1,Benedito Leite/MA,-7.2173453,-44.5523331,402,7123.87028
D1,Benedito Leite/MA,-7.2173453,-44.5523331,2,35.44214
1,Benedito Novo/SC,-26.7840657,-49.3629511,1641,13794.55279
D1,Benedito Novo/SC,-26.7840657,-49.3629511,25,210.15467
1,Benevides/PA,-1.3555577,-48.252235,7268,11219.51220
D1,Benevides/PA,-1.3555577,-48.252235,118,182.15499
1,Benjamin Constant do Sul/RS,-27.5105555,-52.6007689,214,11122.66112
D1,Benjamin Constant do Sul/RS,-27.5105555,-52.6007689,3,155.92516
1,Benjamin Constant/AM,-4.3782748,-70.0290603,4128,9199.29579
D1,Benjamin Constant/AM,-4.3782748,-70.0290603,89,198.33753
1,Bento Fernandes/RN,-5.6926846,-35.8207423,316,5691.64265
D1,Bento Fernandes/RN,-5.6926846,-35.8207423,4,72.04611
1,Bento Gonçalves/RS,-29.1654014,-51.5197627,40352,32782.51686
D1,Bento Gonçalves/RS,-29.1654014,-51.5197627,490,398.08270
1,Bento de Abreu/SP,-21.2707225,-50.8120444,666,21994.71598
D1,Bento de Abreu/SP,-21.2707225,-50.8120444,6,198.15059
1,Bequimão/MA,-2.4495376,-44.7884889,1117,5239.94934
D1,Bequimão/MA,-2.4495376,-44.7884889,28,131.35057
1,Berilo/MG,-16.9515764,-42.4643732,584,4943.70609
D1,Berilo/MG,-16.9515764,-42.4643732,3,25.39575
1,Berizal/MG,-15.6118785,-41.7417382,425,8868.94825
D1,Berizal/MG,-15.6118785,-41.7417382,3,62.60434
1,Bernardino Batista/PB,-6.4532173,-38.5495418,477,13357.60291
D1,Bernardino Batista/PB,-6.4532173,-38.5495418,3,84.01008
1,Bernardino de Campos/SP,-23.0140216,-49.4760724,2062,18463.46705
D1,Bernardino de Campos/SP,-23.0140216,-49.4760724,42,376.07450
1,Bernardo Sayão/TO,-7.8794244,-48.8968905,1254,28249.60577
D1,Bernardo Sayão/TO,-7.8794244,-48.8968905,13,292.85875
1,Bernardo do Mearim/MA,-4.6315929,-44.7617508,617,10111.43887
D1,Bernardo do Mearim/MA,-4.6315929,-44.7617508,7,114.71649
1,Bertioga/SP,-23.848568,-46.139586,11328,17123.68111
D1,Bertioga/SP,-23.848568,-46.139586,200,302.32488
1,Bertolínia/PI,-7.6372159,-43.9540611,1281,23240.20319
D1,Bertolínia/PI,-7.6372159,-43.9540611,12,217.70682
1,Bertópolis/MG,-17.063333,-40.573889,901,19548.70905
D1,Bertópolis/MG,-17.063333,-40.573889,6,130.18008
1,Beruri/AM,-3.9007135,-61.3717319,2982,14544.21304
D1,Beruri/AM,-3.9007135,-61.3717319,35,170.70673
1,Betim/MG,-19.968056,-44.198333,55773,12393.33902
D1,Betim/MG,-19.968056,-44.198333,1471,326.87146
1,Betânia do Piauí/PI,-8.1460635,-40.7961387,184,2961.05568
D1,Betânia do Piauí/PI,-8.1460635,-40.7961387,4,64.37078
1,Betânia/PE,-8.2742779,-38.0351767,1163,9078.13598
D1,Betânia/PE,-8.2742779,-38.0351767,19,148.31005
1,Bezerros/PE,-8.2372132,-35.7558262,9798,16072.83465
D1,Bezerros/PE,-8.2372132,-35.7558262,132,216.53543
1,Bias Fortes/MG,-21.605833,-43.756944,664,20231.56612
D1,Bias Fortes/MG,-21.605833,-43.756944,4,121.87690
1,Bicas/MG,-21.7213723,-43.0604327,4044,27675.88284
D1,Bicas/MG,-21.7213723,-43.0604327,56,383.24665
1,Biguaçu/SC,-27.4961277,-48.6542432,17847,25325.31112
D1,Biguaçu/SC,-27.4961277,-48.6542432,191,271.03347
1,Bilac/SP,-21.403962,-50.47464,970,11833.59766
D1,Bilac/SP,-21.403962,-50.47464,26,317.18922
1,Biquinhas/MG,-18.783611,-45.502222,425,17123.28767
D1,Biquinhas/MG,-18.783611,-45.502222,4,161.16035
1,Birigui/SP,-21.2908491,-50.34144,30853,24468.25384
D1,Birigui/SP,-21.2908491,-50.34144,648,513.90233
1,Biritiba Mirim/SP,-23.5697765,-46.0407456,1589,4776.79242
D1,Biritiba Mirim/SP,-23.5697765,-46.0407456,120,360.73952
1,Biritinga/BA,-11.6227908,-38.8066738,1161,7261.24210
D1,Biritinga/BA,-11.6227908,-38.8066738,13,81.30590
1,Bituruna/PR,-26.161281,-51.5533319,2808,17110.47468
D1,Bituruna/PR,-26.161281,-51.5533319,40,243.73896
1,Blumenau/SC,-26.9195567,-49.0658025,111531,30438.18808
D1,Blumenau/SC,-26.9195567,-49.0658025,828,225.97143
1,Boa Esperança do Iguaçu/PR,-25.6362851,-53.2139114,523,21460.81247
D1,Boa Esperança do Iguaçu/PR,-25.6362851,-53.2139114,2,82.06812
1,Boa Esperança do Sul/SP,-21.9930206,-48.3917372,2705,17900.86692
D1,Boa Esperança do Sul/SP,-21.9930206,-48.3917372,28,185.29548
1,Boa Esperança/ES,-18.5395472,-40.2904088,5363,35408.68876
D1,Boa Esperança/ES,-18.5395472,-40.2904088,56,369.73458
1,Boa Esperança/MG,-21.0901253,-45.5660195,9170,22749.82634
D1,Boa Esperança/MG,-21.0901253,-45.5660195,154,382.05815
1,Boa Esperança/PR,-24.2411024,-52.7860277,1471,36857.93034
D1,Boa Esperança/PR,-24.2411024,-52.7860277,20,501.12754
1,Boa Hora/PI,-4.4094627,-42.1255341,608,8878.50467
D1,Boa Hora/PI,-4.4094627,-42.1255341,7,102.21963
1,Boa Nova/BA,-14.365907,-40.2063056,1376,11429.52072
D1,Boa Nova/BA,-14.365907,-40.2063056,23,191.04577
1,Boa Ventura de São Roque/PR,-24.88177,-51.5441292,1143,18019.86442
D1,Boa Ventura de São Roque/PR,-24.88177,-51.5441292,12,189.18493
1,Boa Ventura/PB,-7.4202462,-38.2156782,1095,20865.09146
D1,Boa Ventura/PB,-7.4202462,-38.2156782,12,228.65854
1,Boa Viagem/CE,-5.1261877,-39.7300055,6491,11870.88515
D1,Boa Viagem/CE,-5.1261877,-39.7300055,124,226.77396
1,Boa Vista da Aparecida/PR,-25.4357216,-53.4067721,1873,24893.67358
D1,Boa Vista da Aparecida/PR,-25.4357216,-53.4067721,42,558.21372
1,Boa Vista das Missões/RS,-27.6677983,-53.3127622,729,34930.52228
D1,Boa Vista das Missões/RS,-27.6677983,-53.3127622,7,335.40968
1,Boa Vista do Buricá/RS,-27.6687782,-54.1111913,1827,27219.90465
D1,Boa Vista do Buricá/RS,-27.6687782,-54.1111913,13,193.68296
1,Boa Vista do Cadeado/RS,-28.5783827,-53.8123759,494,20032.44120
D1,Boa Vista do Cadeado/RS,-28.5783827,-53.8123759,5,202.75750
1,Boa Vista do Gurupi/MA,-1.7981168,-46.3071882,16,188.36826
D1,Boa Vista do Gurupi/MA,-1.7981168,-46.3071882,5,58.86508
1,Boa Vista do Incra/RS,-28.8195551,-53.3866624,917,34893.45510
D1,Boa Vista do Incra/RS,-28.8195551,-53.3866624,5,190.25875
1,Boa Vista do Ramos/AM,-2.9716927,-57.5869819,1849,9226.54691
D1,Boa Vista do Ramos/AM,-2.9716927,-57.5869819,14,69.86028
1,Boa Vista do Sul/RS,-29.3510488,-51.6779679,692,24954.92247
D1,Boa Vista do Sul/RS,-29.3510488,-51.6779679,5,180.31013
1,Boa Vista do Tupim/BA,-12.6605988,-40.6083594,321,1735.97967
D1,Boa Vista do Tupim/BA,-12.6605988,-40.6083594,14,75.71251
1,Boa Vista/PB,-7.2620711,-36.2415161,1772,24549.73677
D1,Boa Vista/PB,-7.2620711,-36.2415161,17,235.52231
1,Boa Vista/RR,2.8208478,-60.6719582,138282,31673.12198
D1,Boa Vista/RR,2.8208478,-60.6719582,1640,375.63761
1,Boca da Mata/AL,-9.6452054,-36.2116658,2834,10332.13023
D1,Boca da Mata/AL,-9.6452054,-36.2116658,53,193.22615
1,Boca do Acre/AM,-8.7553487,-67.3930873,4889,13985.35385
D1,Boca do Acre/AM,-8.7553487,-67.3930873,32,91.53842
1,Bocaina de Minas/MG,-22.167778,-44.394722,888,17452.83019
D1,Bocaina de Minas/MG,-22.167778,-44.394722,7,137.57862
1,Bocaina do Sul/SC,-27.745494,-49.942279,909,25964.01028
D1,Bocaina do Sul/SC,-27.745494,-49.942279,5,142.81634
1,Bocaina/PI,-6.9445939,-41.3224599,453,10046.57352
D1,Bocaina/PI,-6.9445939,-41.3224599,11,243.95653
1,Bocaina/SP,-22.1421831,-48.522276,2513,19990.45422
D1,Bocaina/SP,-22.1421831,-48.522276,39,310.23785
1,Bocaiúva do Sul/PR,-25.206591,-49.114131,3490,26224.82717
D1,Bocaiúva do Sul/PR,-25.206591,-49.114131,31,232.94259
1,Bocaiúva/MG,-17.1160208,-43.8122678,5061,10017.61644
D1,Bocaiúva/MG,-17.1160208,-43.8122678,81,160.32937
1,Bodocó/PE,-7.777592,-39.933797,3286,8511.85080
D1,Bodocó/PE,-7.777592,-39.933797,45,116.56521
1,Bodoquena/MS,-20.5508775,-56.6769653,927,11881.56883
D1,Bodoquena/MS,-20.5508775,-56.6769653,25,320.43066
1,Bodó/RN,-5.9866104,-36.4134824,564,25978.81161
D1,Bodó/RN,-5.9866104,-36.4134824,2,92.12345
1,Bofete/SP,-23.1019554,-48.2610535,2501,20657.47088
D1,Bofete/SP,-23.1019554,-48.2610535,30,247.79053
1,Boituva/SP,-23.2838893,-47.6738231,7060,11151.47686
D1,Boituva/SP,-23.2838893,-47.6738231,214,338.01927
1,Bom Conselho/PE,-9.169191,-36.685683,3918,8000.00000
D1,Bom Conselho/PE,-9.169191,-36.685683,92,187.85094
1,Bom Despacho/MG,-19.7375242,-45.2517288,13051,25373.27942
D1,Bom Despacho/MG,-19.7375242,-45.2517288,137,266.35042
1,Bom Jardim da Serra/SC,-28.3380324,-49.625588,1130,23536.76317
D1,Bom Jardim da Serra/SC,-28.3380324,-49.625588,8,166.63195
1,Bom Jardim de Goiás/GO,-16.2062659,-52.172793,2631,29521.99282
D1,Bom Jardim de Goiás/GO,-16.2062659,-52.172793,32,359.06643
1,Bom Jardim de Minas/MG,-21.9476466,-44.1906033,1499,23261.94910
D1,Bom Jardim de Minas/MG,-21.9476466,-44.1906033,8,124.14649
1,Bom Jardim/MA,-3.54129,-45.606004,2210,5260.65223
D1,Bom Jardim/MA,-3.54129,-45.606004,58,138.06237
1,Bom Jardim/PE,-7.7961572,-35.5871696,3083,7700.18482
D1,Bom Jardim/PE,-7.7961572,-35.5871696,74,184.82442
1,Bom Jardim/RJ,-22.1515328,-42.4186683,5064,18229.59790
D1,Bom Jardim/RJ,-22.1515328,-42.4186683,62,223.19018
1,Bom Jesus da Lapa/BA,-13.250571,-43.410754,8651,12331.96961
D1,Bom Jesus da Lapa/BA,-13.250571,-43.410754,111,158.23010
1,Bom Jesus da Penha/MG,-21.0165299,-46.5226644,1364,31943.79391
D1,Bom Jesus da Penha/MG,-21.0165299,-46.5226644,21,491.80328
1,Bom Jesus da Serra/BA,-14.3724084,-40.5047119,693,7094.59459
D1,Bom Jesus da Serra/BA,-14.3724084,-40.5047119,13,133.08763
1,Bom Jesus das Selvas/MA,-4.4878075,-46.8526639,4524,12890.72517
D1,Bom Jesus das Selvas/MA,-4.4878075,-46.8526639,44,125.37398
1,Bom Jesus de Goiás/GO,-18.2174587,-49.739721,6194,23760.02148
D1,Bom Jesus de Goiás/GO,-18.2174587,-49.739721,126,483.33269
1,Bom Jesus do Amparo/MG,-19.7045132,-43.4752911,640,10352.63669
D1,Bom Jesus do Amparo/MG,-19.7045132,-43.4752911,9,145.58395
1,Bom Jesus do Araguaia/MT,-12.1725897,-51.5074425,1142,16720.35139
D1,Bom Jesus do Araguaia/MT,-12.1725897,-51.5074425,17,248.90190
1,Bom Jesus do Galho/MG,-19.8283191,-42.3162256,1026,6936.18172
D1,Bom Jesus do Galho/MG,-19.8283191,-42.3162256,42,283.93726
1,Bom Jesus do Itabapoana/RJ,-21.1341025,-41.680095,8730,23401.06149
D1,Bom Jesus do Itabapoana/RJ,-21.1341025,-41.680095,127,340.42781
1,Bom Jesus do Norte/ES,-21.1254776,-41.6711646,3035,30386.46376
D1,Bom Jesus do Norte/ES,-21.1254776,-41.6711646,34,340.40849
1,Bom Jesus do Oeste/SC,-26.6929713,-53.0967453,387,18117.97753
D1,Bom Jesus do Oeste/SC,-26.6929713,-53.0967453,6,280.89888
1,Bom Jesus do Sul/PR,-26.1922507,-53.6002033,1448,41705.06912
D1,Bom Jesus do Sul/PR,-26.1922507,-53.6002033,11,316.82028
1,Bom Jesus do Tocantins/PA,-5.0471796,-48.5978362,1395,8085.08172
D1,Bom Jesus do Tocantins/PA,-5.0471796,-48.5978362,29,168.07697
1,Bom Jesus do Tocantins/TO,-8.96306,-48.165043,201,3925.78125
D1,Bom Jesus do Tocantins/TO,-8.96306,-48.165043,3,58.59375
1,Bom Jesus dos Perdões/SP,-23.1353864,-46.4648052,2544,9597.82691
D1,Bom Jesus dos Perdões/SP,-23.1353864,-46.4648052,52,196.18200
1,Bom Jesus/PB,-6.8156725,-38.6551841,481,18585.78053
D1,Bom Jesus/PB,-6.8156725,-38.6551841,4,154.55951
1,Bom Jesus/PI,-9.0711644,-44.3583926,3880,15165.72858
D1,Bom Jesus/PI,-9.0711644,-44.3583926,55,214.97811
1,Bom Jesus/RN,-5.9887544,-35.5821149,1573,15237.81846
D1,Bom Jesus/RN,-5.9887544,-35.5821149,20,193.74213
1,Bom Jesus/RS,-28.6692723,-50.4346894,2017,17897.07187
D1,Bom Jesus/RS,-28.6692723,-50.4346894,29,257.32032
1,Bom Jesus/SC,-26.7350604,-52.3916519,788,25386.59794
D1,Bom Jesus/SC,-26.7350604,-52.3916519,12,386.59794
1,Bom Lugar/MA,-4.3728019,-45.0366054,660,3981.17988
D1,Bom Lugar/MA,-4.3728019,-45.0366054,7,42.22464
1,Bom Princípio do Piauí/PI,-3.1912777,-41.6430185,302,5326.27866
D1,Bom Princípio do Piauí/PI,-3.1912777,-41.6430185,14,246.91358
1,Bom Princípio/RS,-29.489788,-51.3566782,3875,26824.03433
D1,Bom Princípio/RS,-29.489788,-51.3566782,36,249.20393
1,Bom Progresso/RS,-27.5490948,-53.8655601,344,18514.53175
D1,Bom Progresso/RS,-27.5490948,-53.8655601,3,161.46394
1,Bom Repouso/MG,-22.4657069,-46.1485376,2645,25125.86682
D1,Bom Repouso/MG,-22.4657069,-46.1485376,35,332.47839
1,Bom Retiro do Sul/RS,-29.6000007,-51.9359243,2435,19561.37532
D1,Bom Retiro do Sul/RS,-29.6000007,-51.9359243,42,337.40360
1,Bom Retiro/SC,-27.798993,-49.486994,1359,13385.20634
D1,Bom Retiro/SC,-27.798993,-49.486994,23,226.53403
1,Bom Sucesso de Itararé/SP,-24.3190016,-49.1446207,662,16496.38674
D1,Bom Sucesso de Itararé/SP,-24.3190016,-49.1446207,7,174.43309
1,Bom Sucesso do Sul/PR,-26.0749256,-52.8348629,1125,34679.40814
D1,Bom Sucesso do Sul/PR,-26.0749256,-52.8348629,10,308.26141
1,Bom Sucesso/MG,-21.0323516,-44.7598082,2553,14495.79832
D1,Bom Sucesso/MG,-21.0323516,-44.7598082,35,198.72814
1,Bom Sucesso/PB,-6.4458948,-37.9297662,850,17216.93336
D1,Bom Sucesso/PB,-6.4458948,-37.9297662,5,101.27608
1,Bom Sucesso/PR,-23.7088019,-51.7651297,2691,37885.40053
D1,Bom Sucesso/PR,-23.7088019,-51.7651297,22,309.72828
1,Bombinhas/SC,-27.1519159,-48.4875691,5093,24381.25329
D1,Bombinhas/SC,-27.1519159,-48.4875691,77,368.61506
1,Bonfim do Piauí/PI,-9.1648678,-42.8734415,519,9105.26316
D1,Bonfim do Piauí/PI,-9.1648678,-42.8734415,9,157.89474
1,Bonfim/MG,-20.3266626, -44.2386157,1004,14652.65616
D1,Bonfim/MG,-20.3266626, -44.2386157,21,306.47986
1,Bonfim/RR,3.3613818,-59.8427241,3397,26745.92552
D1,Bonfim/RR,3.3613818,-59.8427241,37,291.31564
1,Bonfinópolis de Minas/MG,-16.5660011,-45.98645,1270,23531.59162
D1,Bonfinópolis de Minas/MG,-16.5660011,-45.98645,15,277.93218
1,Bonfinópolis/GO,-16.6172709,-48.9615701,701,6926.87747
D1,Bonfinópolis/GO,-16.6172709,-48.9615701,38,375.49407
1,Boninal/BA,-12.7095183,-41.8299984,1212,8348.25734
D1,Boninal/BA,-12.7095183,-41.8299984,11,75.76801
1,Bonito de Minas/MG,-15.3191266,-44.7544,379,3295.07912
D1,Bonito de Minas/MG,-15.3191266,-44.7544,5,43.47070
1,Bonito de Santa Fé/PB,-7.3143332,-38.5146677,976,8048.82072
D1,Bonito de Santa Fé/PB,-7.3143332,-38.5146677,14,115.45440
1,Bonito/BA,-11.9665473,-41.2649896,1732,10188.83464
D1,Bonito/BA,-11.9665473,-41.2649896,17,100.00588
1,Bonito/MS,-21.1264766,-56.4902208,5687,25387.25950
D1,Bonito/MS,-21.1264766,-56.4902208,83,370.51917
1,Bonito/PA,-1.3605722,-47.3049907,539,3214.26442
D1,Bonito/PA,-1.3605722,-47.3049907,18,107.34093
1,Bonito/PE,-8.4721161,-35.7314591,3092,8115.27257
D1,Bonito/PE,-8.4721161,-35.7314591,48,125.98095
1,Bonópolis/GO,-13.649331,-49.8329113,978,21358.37519
D1,Bonópolis/GO,-13.649331,-49.8329113,5,109.19415
1,Boqueirão do Leão/RS,-29.30332,-52.4296817,779,10128.72188
D1,Boqueirão do Leão/RS,-29.30332,-52.4296817,35,455.07736
1,Boqueirão do Piauí/PI,-4.4850148,-42.1095161,894,13875.52382
D1,Boqueirão do Piauí/PI,-4.4850148,-42.1095161,14,217.29008
1,Boqueirão/PB,-7.487004,-36.130887,2647,14759.67436
D1,Boqueirão/PB,-7.487004,-36.130887,53,295.52805
1,Boquim/SE,-11.1450175,-37.6204228,4081,15126.01927
D1,Boquim/SE,-11.1450175,-37.6204228,79,292.80949
1,Boquira/BA,-12.8184859,-42.7270883,1124,5231.31341
D1,Boquira/BA,-12.8184859,-42.7270883,27,125.66322
1,Boracéia/SP,-22.195355,-48.7801925,1061,21595.76633
D1,Boracéia/SP,-22.195355,-48.7801925,26,529.20822
1,Borba/AM,-4.3934778,-59.5947721,3961,9357.87186
D1,Borba/AM,-4.3934778,-59.5947721,71,167.73767
1,Borborema/PB,-6.8066718,-35.5990191,480,9037.84598
D1,Borborema/PB,-6.8066718,-35.5990191,14,263.60384
1,Borborema/SP,-21.6212706,-49.074135,4347,26704.75488
D1,Borborema/SP,-21.6212706,-49.074135,60,368.59565
1,Borda da Mata/MG,-22.274167,-46.165278,6033,30455.85340
D1,Borda da Mata/MG,-22.274167,-46.165278,66,333.18189
1,Borebi/SP,-22.5700178,-48.9714871,305,11242.16734
D1,Borebi/SP,-22.5700178,-48.9714871,4,147.43826
1,Borrazópolis/PR,-23.9393362,-51.5850786,2025,32193.95866
D1,Borrazópolis/PR,-23.9393362,-51.5850786,38,604.13355
1,Borá/SP,-22.2701088,-50.544407,206,24553.03933
D1,Borá/SP,-22.2701088,-50.544407,1,119.18951
1,Bossoroca/RS,-28.7278885,-54.9120278,934,15224.12388
D1,Bossoroca/RS,-28.7278885,-54.9120278,22,358.59821
1,Botelhos/MG,-21.65,-46.394722,4141,27741.67616
D1,Botelhos/MG,-21.65,-46.394722,37,247.87298
1,Botucatu/SP,-22.8879628,-48.4410712,53856,35971.62666
D1,Botucatu/SP,-22.8879628,-48.4410712,395,263.82933
1,Botumirim/MG,-16.862778,-43.011111,1015,16216.64803
D1,Botumirim/MG,-16.862778,-43.011111,5,79.88497
1,Botuporã/BA,-13.3744752,-42.5198469,1118,11124.37811
D1,Botuporã/BA,-13.3744752,-42.5198469,8,79.60199
1,Botuverá/SC,-27.200749,-49.068892,1829,33895.47813
D1,Botuverá/SC,-27.200749,-49.068892,12,222.38695
1,Bozano/RS,-28.3669953,-53.7705165,659,31395.90281
D1,Bozano/RS,-28.3669953,-53.7705165,9,428.77561
1,Braga/RS,-27.617348,-53.740514,757,23142.76980
D1,Braga/RS,-27.617348,-53.740514,12,366.86029
1,Braganey/PR,-24.8179919,-53.118506,1460,27351.06782
D1,Braganey/PR,-24.8179919,-53.118506,15,281.00412
1,Bragança Paulista/SP,-22.9520235,-46.5418586,44475,25805.64678
D1,Bragança Paulista/SP,-22.9520235,-46.5418586,648,375.98784
1,Bragança/PA,-1.0573967,-46.7635406,8265,6351.73145
D1,Bragança/PA,-1.0573967,-46.7635406,201,154.47042
1,Branquinha/AL,-9.2478057,-36.0152009,1198,11490.50451
D1,Branquinha/AL,-9.2478057,-36.0152009,17,163.05390
1,Brasil Novo/PA,-3.3055853,-52.539198,4941,33198.95182
D1,Brasil Novo/PA,-3.3055853,-52.539198,49,329.23470
1,Brasileira/PI,-4.131182,-41.7824969,1094,13079.86609
D1,Brasileira/PI,-4.131182,-41.7824969,21,251.07604
1,Brasilândia de Minas/MG,-17.0096469,-46.0087183,3443,20312.68437
D1,Brasilândia de Minas/MG,-17.0096469,-46.0087183,31,182.89086
1,Brasilândia do Sul/PR,-24.1975793,-53.527551,1027,40737.80246
D1,Brasilândia do Sul/PR,-24.1975793,-53.527551,14,555.33518
1,Brasilândia do Tocantins/TO,-8.3886619,-48.4842729,315,14182.80054
D1,Brasilândia do Tocantins/TO,-8.3886619,-48.4842729,5,225.12382
1,Brasilândia/MS,-21.255575,-52.0365617,2281,19273.34178
D1,Brasilândia/MS,-21.255575,-52.0365617,28,236.58640
1,Brasiléia/AC,-11.0010413,-68.7487894,4057,14957.78491
D1,Brasiléia/AC,-11.0010413,-68.7487894,52,191.71921
1,Brasnorte/MT,-12.1227151,-58.0050109,3837,18652.47193
D1,Brasnorte/MT,-12.1227151,-58.0050109,45,218.75456
1,Brasília de Minas/MG,-16.2075114,-44.430559,2182,6722.11953
D1,Brasília de Minas/MG,-16.2075114,-44.430559,18,55.45287
1,Brasília/DF,-15.7934036,-47.8823172,888063,28699.73257
D1,Brasília/DF,-15.7934036,-47.8823172,11838,382.57132
1,Brazabrantes/GO,-16.4291635,-49.3858216,941,24685.20462
D1,Brazabrantes/GO,-16.4291635,-49.3858216,8,209.86359
1,Brazópolis/MG,-22.4742842,-45.6165577,2092,14564.18825
D1,Brazópolis/MG,-22.4742842,-45.6165577,40,278.47396
1,Braço do Norte/SC,-28.2728633,-49.1622712,13439,39187.61299
D1,Braço do Norte/SC,-28.2728633,-49.1622712,120,349.91544
1,Braço do Trombudo/SC,-27.358578,-49.882145,1255,33078.54507
D1,Braço do Trombudo/SC,-27.358578,-49.882145,8,210.85925
1,Braúna/SP,-21.5015319,-50.3175246,637,10992.23469
D1,Braúna/SP,-21.5015319,-50.3175246,26,448.66264
1,Braúnas/MG,-19.055556,-42.716111,488,10301.87883
D1,Braúnas/MG,-19.055556,-42.716111,12,253.32489
1,Brejetuba/ES,-20.1465817,-41.2902303,3181,25550.20080
D1,Brejetuba/ES,-20.1465817,-41.2902303,22,176.70683
1,Brejinho de Nazaré/TO,-11.0205883,-48.5722906,1479,26696.75090
D1,Brejinho de Nazaré/TO,-11.0205883,-48.5722906,20,361.01083
1,Brejinho/PE,-7.3482153,-37.28538,1277,17051.67579
D1,Brejinho/PE,-7.3482153,-37.28538,22,293.76419
1,Brejinho/RN,-6.1957907,-35.3583019,2130,16546.25961
D1,Brejinho/RN,-6.1957907,-35.3583019,21,163.13214
1,Brejo Alegre/SP,-21.1671191,-50.1850393,841,28890.41566
D1,Brejo Alegre/SP,-21.1671191,-50.1850393,14,480.93439
1,Brejo Grande do Araguaia/PA,-5.7011449,-48.4037308,1312,17833.35599
D1,Brejo Grande do Araguaia/PA,-5.7011449,-48.4037308,6,81.55498
1,Brejo Grande/SE,-10.4287358,-36.4667918,702,8361.12434
D1,Brejo Grande/SE,-10.4287358,-36.4667918,13,154.83564
1,Brejo Santo/CE,-7.4909841,-38.9859152,11932,23771.29196
D1,Brejo Santo/CE,-7.4909841,-38.9859152,159,316.76462
1,Brejo da Madre de Deus/PE,-8.1409718,-36.3712527,4427,8563.52522
D1,Brejo da Madre de Deus/PE,-8.1409718,-36.3712527,64,123.80068
1,Brejo de Areia/MA,-4.3316785,-45.5833334,485,5485.80477
D1,Brejo de Areia/MA,-4.3316785,-45.5833334,11,124.42031
1,Brejo do Cruz/PB,-6.32926065,-37.48746163303929,2125,14873.66137
D1,Brejo do Cruz/PB,-6.32926065,-37.48746163303929,25,174.98425
1,Brejo do Piauí/PI,-8.207583,-42.8359849,249,6511.50628
D1,Brejo do Piauí/PI,-8.207583,-42.8359849,5,130.75314
1,Brejo dos Santos/PB,-6.3769367,-37.8243125,1658,25590.36888
D1,Brejo dos Santos/PB,-6.3769367,-37.8243125,8,123.47585
1,Brejo/MA,-3.6804397,-42.7529313,1087,2945.79946
D1,Brejo/MA,-3.6804397,-42.7529313,20,54.20054
1,Brejolândia/BA,-12.4843845,-43.9611861,415,3887.58782
D1,Brejolândia/BA,-12.4843845,-43.9611861,13,121.77986
1,Brejão/PE,-9.029146,-36.566034,676,7527.00145
D1,Brejão/PE,-9.029146,-36.566034,10,111.34618
1,Brejões/BA,-13.1033754,-39.7909837,1488,10512.18651
D1,Brejões/BA,-13.1033754,-39.7909837,20,141.29283
1,Breu Branco/PA,-3.7785073,-49.5684795,1750,2551.13197
D1,Breu Branco/PA,-3.7785073,-49.5684795,74,107.87644
1,Breves/PA,-1.68036,-50.479085,6648,6375.14384
D1,Breves/PA,-1.68036,-50.479085,127,121.78750
1,Britânia/GO,-15.2427599,-51.1602061,1519,26122.09802
D1,Britânia/GO,-15.2427599,-51.1602061,10,171.96905
1,Brochier/RS,-29.556766,-51.5963047,1314,25604.05300
D1,Brochier/RS,-29.556766,-51.5963047,8,155.88465
1,Brodowski/SP,-20.984532,-47.657217,4679,18273.77465
D1,Brodowski/SP,-20.984532,-47.657217,87,339.77739
1,Brotas de Macaúbas/BA,-12.0019007,-42.6257506,689,6436.24475
D1,Brotas de Macaúbas/BA,-12.0019007,-42.6257506,9,84.07286
1,Brotas/SP,-22.2840884,-48.1267265,7737,31119.78119
D1,Brotas/SP,-22.2840884,-48.1267265,77,309.70960
1,Brumadinho/MG,-20.143611,-44.2,8385,20347.99068
D1,Brumadinho/MG,-20.143611,-44.2,113,274.21860
1,Brumado/BA,-14.29507325,-41.659307508575985,11946,17706.17181
D1,Brumado/BA,-14.29507325,-41.659307508575985,211,312.74085
1,Brunópolis/SC,-27.310953,-50.837585,784,33822.26057
D1,Brunópolis/SC,-27.310953,-50.837585,9,388.26575
1,Brusque/SC,-27.0964628,-48.9136323,45262,32192.72104
D1,Brusque/SC,-27.0964628,-48.9136323,365,259.60725
1,Brás Pires/MG,-20.8483109,-43.2430524,727,17085.78143
D1,Brás Pires/MG,-20.8483109,-43.2430524,12,282.02115
1,Bueno Brandão/MG,-22.441976,-46.3517971,2485,22627.93662
D1,Bueno Brandão/MG,-22.441976,-46.3517971,40,364.23238
1,Buenos Aires/PE,-7.7218931,-35.326587,741,5603.44828
D1,Buenos Aires/PE,-7.7218931,-35.326587,28,211.73624
1,Buenópolis/MG,-17.8756607,-44.1749365,1112,10752.27229
D1,Buenópolis/MG,-17.8756607,-44.1749365,20,193.38619
1,Buerarema/BA,-14.9571177,-39.3008035,1749,9573.59461
D1,Buerarema/BA,-14.9571177,-39.3008035,53,290.10893
1,Bugre/MG,-19.4257687,-42.2556,380,9538.15261
D1,Bugre/MG,-19.4257687,-42.2556,14,351.40562
1,Bujari/AC,-9.8309656,-67.9520886,1653,15635.64132
D1,Bujari/AC,-9.8309656,-67.9520886,18,170.26107
1,Bujaru/PA,-1.5169239,-48.0410699,2062,6938.78925
D1,Bujaru/PA,-1.5169239,-48.0410699,43,144.69832
1,Buri/SP,-23.79849,-48.598924,4438,22134.66334
D1,Buri/SP,-23.79849,-48.598924,106,528.67830
1,Buritama/SP,-21.0664017,-50.1448077,5854,33616.63030
D1,Buritama/SP,-21.0664017,-50.1448077,91,522.56805
1,Buriti Alegre/GO,-18.1377879,-49.0404411,1890,19863.37362
D1,Buriti Alegre/GO,-18.1377879,-49.0404411,40,420.38886
1,Buriti Bravo/MA,-5.8391884,-43.8367876,2388,9952.90293
D1,Buriti Bravo/MA,-5.8391884,-43.8367876,21,87.52553
1,Buriti de Goiás/GO,-16.180644,-50.4287479,823,33400.97403
D1,Buriti de Goiás/GO,-16.180644,-50.4287479,9,365.25974
1,Buriti do Tocantins/TO,-5.3187439,-48.2256609,1792,15389.90038
D1,Buriti do Tocantins/TO,-5.3187439,-48.2256609,27,231.87908
1,Buriti dos Lopes/PI,-3.1776723,-41.8707444,1748,8814.03792
D1,Buriti dos Lopes/PI,-3.1776723,-41.8707444,38,191.60952
1,Buriti dos Montes/PI,-5.3136171,-41.0971256,725,8753.92417
D1,Buriti dos Montes/PI,-5.3136171,-41.0971256,10,120.74378
1,Buriti/MA,-3.9430944,-42.9244281,1169,4042.74450
D1,Buriti/MA,-3.9430944,-42.9244281,9,31.12464
1,Buriticupu/MA,-4.3227472,-46.4516989,4817,6545.28161
D1,Buriticupu/MA,-4.3227472,-46.4516989,83,112.77940
1,Buritinópolis/GO,-14.4589282,-46.4293104,684,20904.64548
D1,Buritinópolis/GO,-14.4589282,-46.4293104,4,122.24939
1,Buritirama/BA,-10.7148421,-43.6362327,1584,7410.87302
D1,Buritirama/BA,-10.7148421,-43.6362327,28,131.00028
1,Buritirana/MA,-5.5897455,-47.0148915,451,2909.11436
D1,Buritirana/MA,-5.5897455,-47.0148915,27,174.15984
1,Buritis/MG,-15.621389,-46.423889,6790,26966.91688
D1,Buritis/MG,-15.621389,-46.423889,58,230.35069
1,Buritis/RO,-10.2054937,-63.8281954,13499,32889.89596
D1,Buritis/RO,-10.2054937,-63.8281954,105,255.82925
1,Buritizal/SP,-20.1933264,-47.7097165,361,7939.30064
D1,Buritizal/SP,-20.1933264,-47.7097165,10,219.92523
1,Buritizeiro/MG,-17.3667765,-44.9647781,3824,13567.98183
D1,Buritizeiro/MG,-17.3667765,-44.9647781,43,152.56883
1,Butiá/RS,-30.1256795,-51.9692224,5292,25244.47837
D1,Butiá/RS,-30.1256795,-51.9692224,70,333.92167
1,Buíque/PE,-8.6239732,-37.157296,3150,5298.74849
D1,Buíque/PE,-8.6239732,-37.157296,60,100.92854
1,Bálsamo/SP,-20.7343722,-49.5807484,3074,33380.38875
D1,Bálsamo/SP,-20.7343722,-49.5807484,78,846.99750
0,CASO SEM LOCALIZAÇÃO DEFINIDA/BA,-13.415069300066518,-38.14174656569957,21878,147.09814
D0,CASO SEM LOCALIZAÇÃO DEFINIDA/BA,-13.415069300066518,-38.14174656569957,360,2.42048
0,CASO SEM LOCALIZAÇÃO DEFINIDA/CE,-3.3445126297392798,-38.624961942434304,18166,198.92515
0,CASO SEM LOCALIZAÇÃO DEFINIDA/ES,-20.30989267097039,-39.81745156645774,9572,238.18944
D0,CASO SEM LOCALIZAÇÃO DEFINIDA/ES,-20.30989267097039,-39.81745156645774,285,7.09193
0,CASO SEM LOCALIZAÇÃO DEFINIDA/MG,-19.97049116501593,-43.8852149072783,4266,20.15231
D0,CASO SEM LOCALIZAÇÃO DEFINIDA/MG,-19.97049116501593,-43.8852149072783,432,2.04074
0,CASO SEM LOCALIZAÇÃO DEFINIDA/PR,-25.69415946385943,-48.10141676336737,12240,107.04955
D0,CASO SEM LOCALIZAÇÃO DEFINIDA/PR,-25.69415946385943,-48.10141676336737,246,2.15149
0,CASO SEM LOCALIZAÇÃO DEFINIDA/RR,2.813328208465927,-60.663338675861986,4197,692.84751
D0,CASO SEM LOCALIZAÇÃO DEFINIDA/RR,2.813328208465927,-60.663338675861986,23,3.79688
0,CASO SEM LOCALIZAÇÃO DEFINIDA/SP,-24.30968974555485,-46.21366504207253,257,0.55968
1,Caapiranga/AM,-3.3188884,-61.2096404,1038,7699.15443
D1,Caapiranga/AM,-3.3188884,-61.2096404,24,178.01513
1,Caaporã/PB,-7.510234,-34.9154114,3078,13940.84877
D1,Caaporã/PB,-7.510234,-34.9154114,41,185.69682
1,Caarapó/MS,-22.6349267,-54.8240903,6882,22196.41993
D1,Caarapó/MS,-22.6349267,-54.8240903,66,212.86889
1,Caatiba/BA,-14.9782759,-40.4092325,1019,16351.09114
D1,Caatiba/BA,-14.9782759,-40.4092325,17,272.78562
1,Cabaceiras do Paraguaçu/BA,-12.5377868,-39.1901339,1701,8947.92215
D1,Cabaceiras do Paraguaçu/BA,-12.5377868,-39.1901339,8,42.08311
1,Cabaceiras/PB,-7.4899156,-36.2860501,673,11786.33975
D1,Cabaceiras/PB,-7.4899156,-36.2860501,6,105.07881
1,Cabeceira Grande/MG,-16.0297,-47.0906,1786,25423.48754
D1,Cabeceira Grande/MG,-16.0297,-47.0906,9,128.11388
1,Cabeceiras do Piauí/PI,-4.4733665,-42.3098716,932,8733.95183
D1,Cabeceiras do Piauí/PI,-4.4733665,-42.3098716,18,168.68147
1,Cabeceiras/GO,-15.7995459,-46.9264991,1426,17609.28624
D1,Cabeceiras/GO,-15.7995459,-46.9264991,20,246.97456
1,Cabedelo/PB,-6.97324,-34.8351609,14721,21098.41916
D1,Cabedelo/PB,-6.97324,-34.8351609,223,319.60787
1,Cabixi/RO,-13.4956065,-60.5424442,1881,37122.55773
D1,Cabixi/RO,-13.4956065,-60.5424442,23,453.91751
1,Cabo Frio/RJ,-22.8804369,-42.0189227,30762,13141.82940
D1,Cabo Frio/RJ,-22.8804369,-42.0189227,1048,447.71592
1,Cabo Verde/MG,-21.4743338,-46.3964995,2605,18509.30794
D1,Cabo Verde/MG,-21.4743338,-46.3964995,23,163.42191
1,Cabo de Santo Agostinho/PE,-8.2838945,-35.0320984,17831,8458.88916
D1,Cabo de Santo Agostinho/PE,-8.2838945,-35.0320984,562,266.60847
1,Cabreúva/SP,-23.3075813,-47.1324417,7897,15444.94426
D1,Cabreúva/SP,-23.3075813,-47.1324417,156,305.10464
1,Cabrobó/PE,-8.5083701,-39.3106961,5533,15909.48301
D1,Cabrobó/PE,-8.5083701,-39.3106961,37,106.38910
1,Cabrália Paulista/SP,-22.4562909,-49.3385645,1135,26882.99384
D1,Cabrália Paulista/SP,-22.4562909,-49.3385645,9,213.16911
1,Cacaulândia/RO,-10.3380043,-62.9007231,2351,37276.04249
D1,Cacaulândia/RO,-10.3380043,-62.9007231,17,269.54178
1,Cacequi/RS,-29.8838059,-54.8273443,1582,12871.20657
D1,Cacequi/RS,-29.8838059,-54.8273443,19,154.58466
1,Cachoeira Alta/GO,-18.7618269,-50.9432431,4102,31939.57798
D1,Cachoeira Alta/GO,-18.7618269,-50.9432431,36,280.30834
1,Cachoeira Dourada/GO,-18.4934204,-49.481062,2286,28585.71964
D1,Cachoeira Dourada/GO,-18.4934204,-49.481062,33,412.65475
1,Cachoeira Dourada/MG,-18.517136,-49.5002062,633,23272.05882
D1,Cachoeira Dourada/MG,-18.517136,-49.5002062,2,73.52941
1,Cachoeira Grande/MA,-2.9290492,-44.0573223,491,5155.39689
D1,Cachoeira Grande/MA,-2.9290492,-44.0573223,8,83.99832
1,Cachoeira Paulista/SP,-22.666498,-45.015384,5633,16652.37828
D1,Cachoeira Paulista/SP,-22.666498,-45.015384,73,215.80394
1,Cachoeira da Prata/MG,-19.524723,-44.453056,226,6312.84916
D1,Cachoeira da Prata/MG,-19.524723,-44.453056,16,446.92737
1,Cachoeira de Goiás/GO,-16.6688414,-50.6435997,559,41841.31737
D1,Cachoeira de Goiás/GO,-16.6688414,-50.6435997,6,449.10180
1,Cachoeira de Minas/MG,-22.3554043,-45.7796324,2597,22370.57455
D1,Cachoeira de Minas/MG,-22.3554043,-45.7796324,21,180.89413
1,Cachoeira de Pajeú/MG,-15.965833,-41.496666,691,7296.72650
D1,Cachoeira de Pajeú/MG,-15.965833,-41.496666,11,116.15628
1,Cachoeira do Arari/PA,-1.0143572,-48.9621089,633,2599.05564
D1,Cachoeira do Arari/PA,-1.0143572,-48.9621089,27,110.86019
1,Cachoeira do Piriá/PA,-1.7599443,-46.5446954,1704,4826.23842
D1,Cachoeira do Piriá/PA,-1.7599443,-46.5446954,12,33.98759
1,Cachoeira do Sul/RS,-30.0474778,-52.8905413,23885,29288.06160
D1,Cachoeira do Sul/RS,-30.0474778,-52.8905413,245,300.42182
1,Cachoeira dos Índios/PB,-6.9259193,-38.6742159,1680,16209.95755
D1,Cachoeira dos Índios/PB,-6.9259193,-38.6742159,25,241.21961
1,Cachoeira/BA,-12.5998256,-38.9665918,3043,9040.67263
D1,Cachoeira/BA,-12.5998256,-38.9665918,34,101.01310
1,Cachoeiras de Macacu/RJ,-22.4626861,-42.6534414,5827,9768.32294
D1,Cachoeiras de Macacu/RJ,-22.4626861,-42.6534414,122,204.51955
1,Cachoeirinha/PE,-8.4906364,-36.2338963,1148,5567.95033
D1,Cachoeirinha/PE,-8.4906364,-36.2338963,37,179.45485
1,Cachoeirinha/RS,-29.9493353,-51.0898927,28324,21434.19300
D1,Cachoeirinha/RS,-29.9493353,-51.0898927,549,415.45587
1,Cachoeirinha/TO,-6.118647,-47.9208885,136,5931.09464
D1,Cachoeirinha/TO,-6.118647,-47.9208885,2,87.22198
1,Cachoeiro de Itapemirim/ES,-20.848084,-41.11129,60542,28534.39662
D1,Cachoeiro de Itapemirim/ES,-20.848084,-41.11129,752,354.42943
1,Cacimba de Areia/PB,-7.1288513,-37.1575194,420,11326.86084
D1,Cacimba de Areia/PB,-7.1288513,-37.1575194,5,134.84358
1,Cacimba de Dentro/PB,-6.6425101,-35.7929304,1606,9354.06838
D1,Cacimba de Dentro/PB,-6.6425101,-35.7929304,40,232.97804
1,Cacimbas/PB,-7.2125451,-37.0593398,502,6948.09689
D1,Cacimbas/PB,-7.2125451,-37.0593398,11,152.24913
1,Cacimbinhas/AL,-9.401212,-36.991082,1145,10485.34799
D1,Cacimbinhas/AL,-9.401212,-36.991082,13,119.04762
1,Cacique Doble/RS,-27.7700117,-51.6616409,1388,27306.70864
D1,Cacique Doble/RS,-27.7700117,-51.6616409,15,295.10132
1,Cacoal/RO,-11.4333,-61.4420502,31019,35894.97315
D1,Cacoal/RO,-11.4333,-61.4420502,353,408.48917
1,Caconde/SP,-21.527995,-46.643659,3526,18527.66539
D1,Caconde/SP,-21.527995,-46.643659,46,241.71089
1,Caculé/BA,-14.4990734,-42.2233006,3534,15098.04759
D1,Caculé/BA,-14.4990734,-42.2233006,33,140.98347
1,Caetanos/BA,-14.3387456,-40.9085971,839,5718.76491
D1,Caetanos/BA,-14.3387456,-40.9085971,13,88.61018
1,Caetanópolis/MG,-19.2947496,-44.4138386,1917,16151.31856
D1,Caetanópolis/MG,-19.2947496,-44.4138386,23,193.78212
1,Caetité/BA,-14.0691776,-42.4852428,7233,14131.36918
D1,Caetité/BA,-14.0691776,-42.4852428,57,111.36293
1,Caeté/MG,-19.897777,-43.670278,3406,7508.15625
D1,Caeté/MG,-19.897777,-43.670278,84,185.16886
1,Caetés/PE,-8.7728788,-36.6255835,3037,10448.99363
D1,Caetés/PE,-8.7728788,-36.6255835,29,99.77636
1,Cafarnaum/BA,-11.691399,-41.468823,1329,7150.92817
D1,Cafarnaum/BA,-11.691399,-41.468823,24,129.13640
1,Cafeara/PR,-22.78905,-51.714195,892,30003.36361
D1,Cafeara/PR,-22.78905,-51.714195,15,504.54087
1,Cafelândia/PR,-24.6176963,-53.3218057,5695,30319.97019
D1,Cafelândia/PR,-24.6176963,-53.3218057,49,260.87419
1,Cafelândia/SP,-21.8054355,-49.6030627,893,4984.09332
D1,Cafelândia/SP,-21.8054355,-49.6030627,61,340.45878
1,Cafezal do Sul/PR,-23.900508,-53.512418,1150,28930.81761
D1,Cafezal do Sul/PR,-23.900508,-53.512418,13,327.04403
1,Caiabu/SP,-22.0143038,-51.2356597,333,7938.02145
D1,Caiabu/SP,-22.0143038,-51.2356597,9,214.54112
1,Caiana/MG,-20.695555,-41.924723,305,5462.03438
D1,Caiana/MG,-20.695555,-41.924723,7,125.35817
1,Caiapônia/GO,-16.9538779,-51.8090761,4357,22570.45172
D1,Caiapônia/GO,-16.9538779,-51.8090761,47,243.47286
1,Caibaté/RS,-28.290475,-54.645407,558,11620.15827
D1,Caibaté/RS,-28.290475,-54.645407,8,166.59725
1,Caibi/SC,-27.0751925,-53.2502133,1338,21891.36126
D1,Caibi/SC,-27.0751925,-53.2502133,20,327.22513
1,Caicó/RN,-6.4594544,-37.0971911,20979,30525.56529
D1,Caicó/RN,-6.4594544,-37.0971911,196,285.19047
1,Caieiras/SP,-23.3644621,-46.7484765,13411,12889.73896
D1,Caieiras/SP,-23.3644621,-46.7484765,362,347.92972
1,Cairu/BA,-13.4860505,-39.0455744,1922,10296.79631
D1,Cairu/BA,-13.4860505,-39.0455744,19,101.78935
1,Caiuá/SP,-21.8319357,-51.9887179,522,8675.41964
D1,Caiuá/SP,-21.8319357,-51.9887179,12,199.43493
1,Caiçara do Norte/RN,-5.0645017,-36.0561226,807,12279.36701
D1,Caiçara do Norte/RN,-5.0645017,-36.0561226,14,213.02495
1,Caiçara do Rio do Vento/RN,-5.757968,-36.00089,937,25020.02670
D1,Caiçara do Rio do Vento/RN,-5.757968,-36.00089,9,240.32043
1,Caiçara/PB,-6.6146866,-35.4681434,1192,16597.04818
D1,Caiçara/PB,-6.6146866,-35.4681434,15,208.85547
1,Caiçara/RS,-27.2750478,-53.4310053,1296,27817.12814
D1,Caiçara/RS,-27.2750478,-53.4310053,12,257.56600
1,Cajamar/SP,-23.3561111,-46.8769444,5669,7172.86231
D1,Cajamar/SP,-23.3561111,-46.8769444,270,341.62512
1,Cajapió/MA,-2.8778715,-44.6746871,484,4300.31097
D1,Cajapió/MA,-2.8778715,-44.6746871,7,62.19458
1,Cajari/MA,-3.3213076,-45.0118757,511,2617.69377
D1,Cajari/MA,-3.3213076,-45.0118757,8,40.98151
1,Cajati/SP,-24.7272376,-48.1077914,6713,23603.24883
D1,Cajati/SP,-24.7272376,-48.1077914,115,404.34584
1,Cajazeiras do Piauí/PI,-6.794271,-42.3935024,90,2509.76018
D1,Cajazeiras do Piauí/PI,-6.794271,-42.3935024,2,55.77245
1,Cajazeiras/PB,-6.8897849,-38.5570389,19134,30577.21810
D1,Cajazeiras/PB,-6.8897849,-38.5570389,192,306.82690
1,Cajazeirinhas/PB,-6.961442,-37.7993733,360,11190.55020
D1,Cajazeirinhas/PB,-6.961442,-37.7993733,1,31.08486
1,Cajobi/SP,-20.8776238,-48.8106972,2333,21908.16039
D1,Cajobi/SP,-20.8776238,-48.8106972,38,356.84102
1,Cajueiro da Praia/PI,-2.931114,-41.340801,501,6503.11526
D1,Cajueiro da Praia/PI,-2.931114,-41.340801,21,272.58567
1,Cajueiro/AL,-9.399589,-36.1524309,929,4341.73015
D1,Cajueiro/AL,-9.399589,-36.1524309,35,163.57433
1,Cajuri/MG,-20.7901414,-42.7954489,734,18530.67407
D1,Cajuri/MG,-20.7901414,-42.7954489,11,277.70765
1,Cajuru/SP,-21.2759978,-47.3046035,2128,7996.09214
D1,Cajuru/SP,-21.2759978,-47.3046035,82,308.12009
1,Caldas Brandão/PB,-7.1027959,-35.3254676,1115,18347.86901
D1,Caldas Brandão/PB,-7.1027959,-35.3254676,13,213.92134
1,Caldas Novas/GO,-17.745,-48.625,23908,25117.93072
D1,Caldas Novas/GO,-17.745,-48.625,357,375.06698
1,Caldas/MG,-21.923611,-46.386111,2307,15801.36986
D1,Caldas/MG,-21.923611,-46.386111,43,294.52055
1,Caldazinha/GO,-16.7116649,-49.0012601,1432,36717.94872
D1,Caldazinha/GO,-16.7116649,-49.0012601,12,307.69231
1,Caldeirão Grande do Piauí/PI,-7.3310393,-40.6374433,551,9522.98652
D1,Caldeirão Grande do Piauí/PI,-7.3310393,-40.6374433,2,34.56619
1,Caldeirão Grande/BA,-11.0208483,-40.3041387,754,5605.11448
D1,Caldeirão Grande/BA,-11.0208483,-40.3041387,7,52.03687
1,Califórnia/PR,-23.6672543,-51.3554556,2332,26987.61717
D1,Califórnia/PR,-23.6672543,-51.3554556,42,486.05485
1,Calmon/SC,-26.6023644,-51.0992893,84,2526.31579
D1,Calmon/SC,-26.6023644,-51.0992893,7,210.52632
1,Calumbi/PE,-7.9389746,-38.1516871,1337,23276.46240
D1,Calumbi/PE,-7.9389746,-38.1516871,6,104.45682
1,Calçado/PE,-8.7413446,-36.3351787,1059,9642.17427
D1,Calçado/PE,-8.7413446,-36.3351787,9,81.94482
1,Calçoene/AP,2.4981757,-50.9539503,3195,27799.53015
D1,Calçoene/AP,2.4981757,-50.9539503,15,130.51423
1,Camacan/BA,-15.4166631,-39.4930088,3962,12372.35737
D1,Camacan/BA,-15.4166631,-39.4930088,101,315.39831
1,Camacho/MG,-20.625556,-45.156667,356,12539.62663
D1,Camacho/MG,-20.625556,-45.156667,2,70.44734
1,Camalaú/PB,-7.885031,-36.824191,1011,16716.26984
D1,Camalaú/PB,-7.885031,-36.824191,8,132.27513
1,Camamu/BA,-13.9438142,-39.1060917,3367,9499.49216
D1,Camamu/BA,-13.9438142,-39.1060917,65,183.38788
1,Camanducaia/MG,-22.755278,-46.144444,5613,25711.14470
D1,Camanducaia/MG,-22.755278,-46.144444,90,412.25780
1,Camapuã/MS,-19.5291747,-54.0434641,2025,14808.04388
D1,Camapuã/MS,-19.5291747,-54.0434641,39,285.19196
1,Camaquã/RS,-30.8524752,-51.8075619,14755,22126.08344
D1,Camaquã/RS,-30.8524752,-51.8075619,193,289.41607
1,Camaragibe/PE,-8.0213832,-34.9810768,13554,8474.16299
D1,Camaragibe/PE,-8.0213832,-34.9810768,472,295.10144
1,Camargo/RS,-28.5865661,-52.2031474,734,26690.90909
D1,Camargo/RS,-28.5865661,-52.2031474,8,290.90909
1,Camaçari/BA,-12.6998188,-38.3260762,35260,11403.32721
D1,Camaçari/BA,-12.6998188,-38.3260762,698,225.73801
1,Cambará do Sul/RS,-29.0489517,-50.145412,430,6736.64421
D1,Cambará do Sul/RS,-29.0489517,-50.145412,12,187.99937
1,Cambará/PR,-23.042273,-50.075281,6754,26414.79917
D1,Cambará/PR,-23.042273,-50.075281,79,308.96789
1,Cambira/PR,-23.600265,-51.581045,2772,34793.52328
D1,Cambira/PR,-23.600265,-51.581045,33,414.20861
1,Camboriú/SC,-27.0273601,-48.6535657,21175,24289.10632
D1,Camboriú/SC,-27.0273601,-48.6535657,217,248.91316
1,Cambuci/RJ,-21.5749919,-41.9107833,3581,23071.96701
D1,Cambuci/RJ,-21.5749919,-41.9107833,52,335.02996
1,Cambuquira/MG,-21.853056,-45.2953619,2179,17010.14832
D1,Cambuquira/MG,-21.853056,-45.2953619,39,304.44965
1,Cambuí/MG,-22.6122501,-46.0572137,9349,31092.85619
D1,Cambuí/MG,-22.6122501,-46.0572137,69,229.47985
1,Cambé/PR,-23.2782035,-51.2779583,24442,22605.10885
D1,Cambé/PR,-23.2782035,-51.2779583,433,400.45872
1,Cametá/PA,-2.242949,-49.497885,12212,8672.43314
D1,Cametá/PA,-2.242949,-49.497885,318,225.82982
1,Camocim de São Félix/PE,-8.3616757,-35.7638903,1278,6715.00631
D1,Camocim de São Félix/PE,-8.3616757,-35.7638903,25,131.35771
1,Camocim/CE,-2.9009918,-40.8427389,8747,13635.86762
D1,Camocim/CE,-2.9009918,-40.8427389,166,258.78061
