type,name,lat,lon,total,total_per_100k_inhabitants
1,Abadia de Goiás/GO,-16.7572644,-49.4412205,1665,18586.73811
D1,Abadia de Goiás/GO,-16.7572644,-49.4412205,37,413.03862
1,Abadia dos Dourados/MG,-18.4911191,-47.4063589,541,7721.95261
D1,Abadia dos Dourados/MG,-18.4911191,-47.4063589,16,228.37568
1,Abadiânia/GO,-16.1940946,-48.7067767,490,2394.79986
D1,Abadiânia/GO,-16.1940946,-48.7067767,39,190.60652
1,Abaetetuba/PA,-1.721828,-48.878843,9124,5735.47900
D1,Abaetetuba/PA,-1.721828,-48.878843,223,140.18104
1,Abaeté/MG,-19.1566833,-45.4481213,1547,6653.76344
D1,Abaeté/MG,-19.1566833,-45.4481213,37,159.13978
1,Abaiara/CE,-7.3607808,-39.0487878,618,5213.86991
D1,Abaiara/CE,-7.3607808,-39.0487878,15,126.55024
1,Abaré/BA,-8.7239913,-39.1139689,1015,4988.45039
D1,Abaré/BA,-8.7239913,-39.1139689,11,54.06202
1,Abatiá/PR,-23.3052967,-50.3102532,1105,14916.30670
D1,Abatiá/PR,-23.3052967,-50.3102532,20,269.97840
1,Abaíra/BA,-13.2503296,-41.6640342,295,3386.91160
D1,Abaíra/BA,-13.2503296,-41.6640342,12,137.77268
1,Abdon Batista/SC,-27.612419,-51.022992,439,17229.19937
D1,Abdon Batista/SC,-27.612419,-51.022992,4,156.98587
1,Abel Figueiredo/PA,-4.953001,-48.3958485,1057,14119.69009
D1,Abel Figueiredo/PA,-4.953001,-48.3958485,11,146.94096
1,Abelardo Luz/SC,-26.5705893,-52.3280339,1659,9237.19376
D1,Abelardo Luz/SC,-26.5705893,-52.3280339,60,334.07572
1,Abre Campo/MG,-20.2976097,-42.4764741,1256,9342.45760
D1,Abre Campo/MG,-20.2976097,-42.4764741,16,119.01220
1,Abreu e Lima/PE,-7.900719,-34.898389,3321,3309.54896
D1,Abreu e Lima/PE,-7.900719,-34.898389,234,233.19315
1,Abreulândia/TO,-9.6221526,-49.1558343,300,11565.15035
D1,Abreulândia/TO,-9.6221526,-49.1558343,6,231.30301
1,Acaiaca/MG,-20.3621646,-43.1444162,231,5783.67551
D1,Acaiaca/MG,-20.3621646,-43.1444162,11,275.41312
1,Acajutiba/BA,-11.6609659,-38.0186381,567,3733.45625
D1,Acajutiba/BA,-11.6609659,-38.0186381,19,125.10700
1,Acarape/CE,-4.2237866,-38.7071663,2818,18741.68662
D1,Acarape/CE,-4.2237866,-38.7071663,31,206.17185
1,Acaraú/CE,-2.8869514,-40.1194713,5103,8086.65061
D1,Acaraú/CE,-2.8869514,-40.1194713,111,175.90010
1,Acari/RN,-6.4364689,-36.6394777,1118,10053.05278
D1,Acari/RN,-6.4364689,-36.6394777,19,170.84795
1,Acará/PA,-1.961388,-48.1987043,1592,2859.76037
D1,Acará/PA,-1.961388,-48.1987043,35,62.87162
1,Acauã/PI,-8.219542,-41.083059,206,2900.59138
D1,Acauã/PI,-8.219542,-41.083059,1,14.08054
1,Aceguá/RS,-31.8695131,-54.1615593,372,7527.31688
D1,Aceguá/RS,-31.8695131,-54.1615593,7,141.64306
1,Acopiara/CE,-6.0936464,-39.4543204,3995,7332.83163
D1,Acopiara/CE,-6.0936464,-39.4543204,148,271.65434
1,Acorizal/MT,-15.2001544,-56.3668953,623,11679.79003
D1,Acorizal/MT,-15.2001544,-56.3668953,20,374.95313
1,Acrelândia/AC,-10.0759167,-67.0526898,1786,11530.01937
D1,Acrelândia/AC,-10.0759167,-67.0526898,37,238.86378
1,Acreúna/GO,-17.3959899,-50.3749031,2477,10986.42775
D1,Acreúna/GO,-17.3959899,-50.3749031,57,252.81646
1,Adamantina/SP,-21.6866517,-51.0762975,3710,10566.48913
D1,Adamantina/SP,-21.6866517,-51.0762975,130,370.25434
1,Adelândia/GO,-16.4155077,-50.1665834,222,8823.52941
D1,Adelândia/GO,-16.4155077,-50.1665834,4,158.98251
1,Adolfo/SP,-21.2356597,-49.6441918,616,17332.58301
D1,Adolfo/SP,-21.2356597,-49.6441918,18,506.47158
1,Adrianópolis/PR,-24.6557863,-48.9912769,1402,23937.16920
D1,Adrianópolis/PR,-24.6557863,-48.9912769,29,495.13403
1,Adustina/BA,-10.5358875,-38.114479,1049,6125.18977
D1,Adustina/BA,-10.5358875,-38.114479,26,151.81595
1,Afogados da Ingazeira/PE,-7.750429,-37.6356375,5183,13856.80676
D1,Afogados da Ingazeira/PE,-7.750429,-37.6356375,73,195.16629
1,Afonso Bezerra/RN,-5.4745,-36.57625071327935,791,7172.00109
D1,Afonso Bezerra/RN,-5.4745,-36.57625071327935,18,163.20609
1,Afonso Cláudio/ES,-20.077841,-41.12606,3512,11531.76818
D1,Afonso Cláudio/ES,-20.077841,-41.12606,62,203.57905
1,Afonso Cunha/MA,-4.1326105,-43.3230026,266,4043.78230
D1,Afonso Cunha/MA,-4.1326105,-43.3230026,3,45.60657
1,Afrânio/PE,-8.5198919,-41.0070197,969,4891.46896
D1,Afrânio/PE,-8.5198919,-41.0070197,15,75.71933
1,Afuá/PA,-0.1535664,-50.3879223,3083,7791.84674
D1,Afuá/PA,-0.1535664,-50.3879223,16,40.43774
1,Agrestina/PE,-8.4558021,-35.9442663,1740,6941.95093
D1,Agrestina/PE,-8.4558021,-35.9442663,66,263.31538
1,Agricolândia/PI,-5.7967843,-42.6605131,534,10407.32801
D1,Agricolândia/PI,-5.7967843,-42.6605131,6,116.93627
1,Agrolândia/SC,-27.4122212,-49.8295774,1673,15191.13775
D1,Agrolândia/SC,-27.4122212,-49.8295774,29,263.32516
1,Agronômica/SC,-27.2660744,-49.7104753,668,12125.61263
D1,Agronômica/SC,-27.2660744,-49.7104753,13,235.97749
1,Aguanil/MG,-20.9424533,-45.3927152,667,14750.11057
D1,Aguanil/MG,-20.9424533,-45.3927152,8,176.91287
1,Aguaí/SP,-22.0592036,-46.979384,3504,9561.23117
D1,Aguaí/SP,-22.0592036,-46.979384,105,286.50950
1,Agudo/RS,-29.6423259,-53.2494005,1783,10871.28834
D1,Agudo/RS,-29.6423259,-53.2494005,29,176.81849
1,Agudos do Sul/PR,-25.9890808,-49.3328175,738,7793.03062
D1,Agudos do Sul/PR,-25.9890808,-49.3328175,28,295.67054
1,Agudos/SP,-22.471162,-48.987822,4586,12261.70423
D1,Agudos/SP,-22.471162,-48.987822,107,286.08861
1,Aguiar/PB,-7.0928404,-38.1727215,527,9360.56838
D1,Aguiar/PB,-7.0928404,-38.1727215,5,88.80995
1,Aguiarnópolis/TO,-6.5600452,-47.4721189,672,9750.43529
D1,Aguiarnópolis/TO,-6.5600452,-47.4721189,13,188.62449
1,Aimorés/MG,-19.4917754,-41.0615603,2063,8205.71974
D1,Aimorés/MG,-19.4917754,-41.0615603,72,286.38479
1,Aiquara/BA,-14.126918,-39.8887574,494,11186.59420
D1,Aiquara/BA,-14.126918,-39.8887574,12,271.73913
1,Aiuaba/CE,-6.5710836,-40.1212278,827,4727.60533
D1,Aiuaba/CE,-6.5710836,-40.1212278,11,62.88230
1,Aiuruoca/MG,-21.9759554,-44.6036637,328,5488.62115
D1,Aiuruoca/MG,-21.9759554,-44.6036637,9,150.60241
1,Ajuricaba/RS,-28.239654,-53.7693013,1218,17432.37441
D1,Ajuricaba/RS,-28.239654,-53.7693013,29,415.05653
1,Alagoa Grande/PB,-7.0415212,-35.6285322,4107,14441.43606
D1,Alagoa Grande/PB,-7.0415212,-35.6285322,71,249.65716
1,Alagoa Nova/PB,-7.0653703,-35.76695977336711,1417,6773.09880
D1,Alagoa Nova/PB,-7.0653703,-35.76695977336711,23,109.93738
1,Alagoa/MG,-22.1697202,-44.6400042,444,16660.41276
D1,Alagoa/MG,-22.1697202,-44.6400042,7,262.66417
1,Alagoinha do Piauí/PI,-7.0090952,-40.939675,384,5009.78474
D1,Alagoinha do Piauí/PI,-7.0090952,-40.939675,10,130.46314
1,Alagoinha/PB,-6.97063215,-35.51490901897793,2066,14189.56044
D1,Alagoinha/PB,-6.97063215,-35.51490901897793,25,171.70330
1,Alagoinha/PE,-8.50355635,-36.77701174370496,1390,9444.21796
D1,Alagoinha/PE,-8.50355635,-36.77701174370496,27,183.44884
1,Alagoinhas/BA,-12.133526,-38.420772,14422,9467.78969
D1,Alagoinhas/BA,-12.133526,-38.420772,318,208.76141
1,Alambari/SP,-23.550338,-47.897971,647,10556.37135
D1,Alambari/SP,-23.550338,-47.897971,11,179.47463
1,Albertina/MG,-20.66164,-43.784039,251,8336.10096
D1,Albertina/MG,-20.66164,-43.784039,9,298.90402
1,Alcantil/PB,-7.7425491,-36.0609604,672,12198.22109
D1,Alcantil/PB,-7.7425491,-36.0609604,7,127.06480
1,Alcinópolis/MS,-18.3264121,-53.7094463,410,7568.76500
D1,Alcinópolis/MS,-18.3264121,-53.7094463,9,166.14362
1,Alcobaça/BA,-17.5215875,-39.1965474,1646,7318.80836
D1,Alcobaça/BA,-17.5215875,-39.1965474,30,133.39262
1,Alcântara/MA,-2.4038956,-44.4154241,326,1474.31259
D1,Alcântara/MA,-2.4038956,-44.4154241,18,81.40376
1,Alcântaras/CE,-3.586247,-40.5457641,1761,14947.79730
D1,Alcântaras/CE,-3.586247,-40.5457641,22,186.74136
1,Aldeias Altas/MA,-4.6291957,-43.4708622,976,3647.64361
D1,Aldeias Altas/MA,-4.6291957,-43.4708622,14,52.32276
1,Alecrim/RS,-27.6566142,-54.7653195,314,5388.70774
D1,Alecrim/RS,-27.6566142,-54.7653195,12,205.93788
1,Alegre/ES,-20.7625787,-41.5318886,2861,9544.62052
D1,Alegre/ES,-20.7625787,-41.5318886,63,210.17515
1,Alegrete do Piauí/PI,-7.2440138,-40.8602296,522,10614.07076
D1,Alegrete do Piauí/PI,-7.2440138,-40.8602296,6,122.00081
1,Alegrete/RS,-29.790166,-55.794862,11039,15116.11984
D1,Alegrete/RS,-29.790166,-55.794862,291,398.47730
1,Alegria/RS,-27.8332103,-54.0574959,395,11707.17250
D1,Alegria/RS,-27.8332103,-54.0574959,4,118.55365
1,Alenquer/PA,-1.946229,-54.738355,3615,6331.88538
D1,Alenquer/PA,-1.946229,-54.738355,141,246.96980
1,Alexandria/RN,-6.414779,-38.0135516,1847,13627.97905
D1,Alexandria/RN,-6.414779,-38.0135516,30,221.35321
1,Alexânia/GO,-16.0834049,-48.5077803,3365,12013.56658
D1,Alexânia/GO,-16.0834049,-48.5077803,84,299.89290
1,Alfenas/MG,-21.4297405,-45.9479419,10399,12918.97533
D1,Alfenas/MG,-21.4297405,-45.9479419,202,250.95038
1,Alfredo Chaves/ES,-20.624970400000002,-40.75006690147988,2525,17251.98142
D1,Alfredo Chaves/ES,-20.624970400000002,-40.75006690147988,35,239.13638
1,Alfredo Marcondes/SP,-21.9527,-51.413956,260,6214.14914
D1,Alfredo Marcondes/SP,-21.9527,-51.413956,13,310.70746
1,Alfredo Vasconcelos/MG,-21.145833,-43.776389,601,8609.08179
D1,Alfredo Vasconcelos/MG,-21.145833,-43.776389,13,186.21974
1,Alfredo Wagner/SC,-27.6961513,-49.3326734,1097,10876.46242
D1,Alfredo Wagner/SC,-27.6961513,-49.3326734,7,69.40313
1,Algodão de Jandaíra/PB,-6.9040175,-36.0089879,251,9740.00776
D1,Algodão de Jandaíra/PB,-6.9040175,-36.0089879,1,38.80481
1,Alhandra/PB,-7.4304246,-34.9106103,2411,12221.82795
D1,Alhandra/PB,-7.4304246,-34.9106103,36,182.49100
1,Aliança do Tocantins/TO,-11.3055927,-48.9409096,708,13243.54658
D1,Aliança do Tocantins/TO,-11.3055927,-48.9409096,21,392.81706
1,Aliança/PE,-7.60398,-35.222696,675,1757.94984
D1,Aliança/PE,-7.60398,-35.222696,62,161.47095
1,Almadina/BA,-14.70466,-39.6381994,634,11815.13231
D1,Almadina/BA,-14.70466,-39.6381994,10,186.35855
1,Almas/TO,-11.5681309,-47.1702803,238,3410.23069
D1,Almas/TO,-11.5681309,-47.1702803,5,71.64350
1,Almeirim/PA,-1.5290377,-52.5788111,3727,10937.31659
D1,Almeirim/PA,-1.5290377,-52.5788111,48,140.86160
1,Almenara/MG,-16.1740678,-40.6904907,4467,10599.62509
D1,Almenara/MG,-16.1740678,-40.6904907,48,113.89792
1,Almino Afonso/RN,-6.1544208,-37.7649018,509,10806.79406
D1,Almino Afonso/RN,-6.1544208,-37.7649018,13,276.00849
1,Almirante Tamandaré do Sul/RS,-28.1141129,-52.9134874,330,16931.75988
D1,Almirante Tamandaré do Sul/RS,-28.1141129,-52.9134874,7,359.15854
1,Almirante Tamandaré/PR,-25.3133048,-49.2997838,10394,8658.70827
D1,Almirante Tamandaré/PR,-25.3133048,-49.2997838,403,335.71863
1,Aloândia/GO,-17.7277983,-49.4809338,321,16163.14199
D1,Aloândia/GO,-17.7277983,-49.4809338,11,553.87714
1,Alpercata/MG,-18.9803616,-41.9827637,500,6724.04519
D1,Alpercata/MG,-18.9803616,-41.9827637,20,268.96181
1,Alpestre/RS,-27.2512339,-53.0349646,510,8406.13153
D1,Alpestre/RS,-27.2512339,-53.0349646,12,197.79133
1,Alpinópolis/MG,-20.863611,-46.387777,1572,7876.54074
D1,Alpinópolis/MG,-20.863611,-46.387777,38,190.39984
1,Alta Floresta D'Oeste/RO,-11.9296917,-61.9961284,4032,17740.23231
D1,Alta Floresta D'Oeste/RO,-11.9296917,-61.9961284,65,285.99085
1,Alta Floresta/MT,-9.8715018,-56.0839881,9819,18897.59233
D1,Alta Floresta/MT,-9.8715018,-56.0839881,140,269.44321
1,Altair/SP,-20.5238955,-49.0606135,328,7835.64262
D1,Altair/SP,-20.5238955,-49.0606135,15,358.33731
1,Altamira do Maranhão/MA,-4.1643006,-45.4674574,320,3907.68104
D1,Altamira do Maranhão/MA,-4.1643006,-45.4674574,13,158.74954
1,Altamira do Paraná/PR,-24.799114,-52.7128633,238,14149.82164
D1,Altamira do Paraná/PR,-24.799114,-52.7128633,12,713.43639
1,Altamira/PA,-3.204065,-52.209961,13976,12051.49652
D1,Altamira/PA,-3.204065,-52.209961,301,259.55212
1,Altaneira/CE,-6.9980933,-39.7385742,675,8823.52941
D1,Altaneira/CE,-6.9980933,-39.7385742,15,196.07843
1,Alterosa/MG,-21.249166,-46.143055,775,5338.56857
D1,Alterosa/MG,-21.249166,-46.143055,33,227.31969
1,Altinho/PE,-8.4904095,-36.0607494,1342,5838.84441
D1,Altinho/PE,-8.4904095,-36.0607494,28,121.82388
1,Altinópolis/SP,-21.021364,-47.3712,907,5597.72882
D1,Altinópolis/SP,-21.021364,-47.3712,45,277.72635
1,Alto Alegre do Maranhão/MA,-4.2055693,-44.4525287,1300,4666.52308
D1,Alto Alegre do Maranhão/MA,-4.2055693,-44.4525287,28,100.50973
1,Alto Alegre do Pindaré/MA,-3.6698186,-45.8462153,2196,6874.74564
D1,Alto Alegre do Pindaré/MA,-3.6698186,-45.8462153,47,147.13709
1,Alto Alegre dos Parecis/RO,-12.1314515,-61.856265,1451,10946.81252
D1,Alto Alegre dos Parecis/RO,-12.1314515,-61.856265,44,331.95021
1,Alto Alegre/RR,2.98858,-61.307167,1552,10091.02731
D1,Alto Alegre/RR,2.98858,-61.307167,35,227.56827
1,Alto Alegre/RS,-31.780844700000003,-52.81311114489171,210,13019.21885
D1,Alto Alegre/RS,-31.780844700000003,-52.81311114489171,1,61.99628
1,Alto Alegre/SP,-21.5820592,-50.1661976,388,9491.19374
D1,Alto Alegre/SP,-21.5820592,-50.1661976,21,513.69863
1,Alto Araguaia/MT,-17.3156528,-53.2169365,1577,8135.15605
D1,Alto Araguaia/MT,-17.3156528,-53.2169365,29,149.60021
1,Alto Bela Vista/SC,-27.4320737,-51.905771,199,10332.29491
D1,Alto Bela Vista/SC,-27.4320737,-51.905771,3,155.76324
1,Alto Boa Vista/MT,-11.6723985,-51.3744431,845,12182.81430
D1,Alto Boa Vista/MT,-11.6723985,-51.3744431,17,245.09804
1,Alto Caparaó/MG,-20.4405661,-41.8683799,413,7007.12589
D1,Alto Caparaó/MG,-20.4405661,-41.8683799,9,152.69766
1,Alto Feliz/RS,-29.3785943,-51.3123751,301,9914.36100
D1,Alto Feliz/RS,-29.3785943,-51.3123751,2,65.87615
1,Alto Garças/MT,-16.9469683,-53.529427,1091,8978.68488
D1,Alto Garças/MT,-16.9469683,-53.529427,41,337.42079
1,Alto Horizonte/GO,-14.1954948,-49.3366993,1009,15276.30583
D1,Alto Horizonte/GO,-14.1954948,-49.3366993,14,211.96064
1,Alto Jequitibá/MG,-20.423611,-41.966111,894,10769.78677
D1,Alto Jequitibá/MG,-20.423611,-41.966111,11,132.51415
1,Alto Longá/PI,-5.2549051,-42.2072388,676,4714.41523
D1,Alto Longá/PI,-5.2549051,-42.2072388,15,104.60981
1,Alto Paraguai/MT,-14.513712,-56.4936374,907,7905.51730
D1,Alto Paraguai/MT,-14.513712,-56.4936374,28,244.05125
1,Alto Paraná/PR,-23.131247,-52.318893,1262,8493.16912
D1,Alto Paraná/PR,-23.131247,-52.318893,26,174.97813
1,Alto Paraíso de Goiás/GO,-14.1304779,-47.5100161,692,9001.04058
D1,Alto Paraíso de Goiás/GO,-14.1304779,-47.5100161,9,117.06556
1,Alto Paraíso/PR,-23.508137,-53.728537,334,12439.47858
D1,Alto Paraíso/PR,-23.508137,-53.728537,7,260.70764
1,Alto Paraíso/RO,-9.7240103,-63.3188123,1866,8541.21847
D1,Alto Paraíso/RO,-9.7240103,-63.3188123,48,219.70980
1,Alto Parnaíba/MA,-9.112506,-45.9310154,995,8874.42026
D1,Alto Parnaíba/MA,-9.112506,-45.9310154,11,98.10917
1,Alto Piquiri/PR,-24.0239021,-53.4417448,1071,10953.16016
D1,Alto Piquiri/PR,-24.0239021,-53.4417448,27,276.13009
1,Alto Rio Doce/MG,-21.0239537,-43.4133507,542,4991.25150
D1,Alto Rio Doce/MG,-21.0239537,-43.4133507,29,267.05958
1,Alto Rio Novo/ES,-19.0577208,-41.0171518,760,9652.01930
D1,Alto Rio Novo/ES,-19.0577208,-41.0171518,22,279.40056
1,Alto Santo/CE,-5.5190371,-38.2719351,1925,11194.46383
D1,Alto Santo/CE,-5.5190371,-38.2719351,35,203.53571
1,Alto Taquari/MT,-17.8269099,-53.2831736,1570,14102.21863
D1,Alto Taquari/MT,-17.8269099,-53.2831736,29,260.48684
1,Alto do Rodrigues/RN,-5.290868,-36.7616726,2532,17191.74362
D1,Alto do Rodrigues/RN,-5.290868,-36.7616726,41,278.38131
1,Altos/PI,-5.0393915,-42.4611694,4505,11094.69277
D1,Altos/PI,-5.0393915,-42.4611694,89,219.18483
1,Altônia/PR,-23.8722004,-53.894037,1468,6619.76912
D1,Altônia/PR,-23.8722004,-53.894037,32,144.30014
1,Alumínio/SP,-23.5203479,-47.2575256,1590,8472.31843
D1,Alumínio/SP,-23.5203479,-47.2575256,51,271.75361
1,Alvarenga/MG,-19.4175,-41.728334,513,13345.47347
D1,Alvarenga/MG,-19.4175,-41.728334,4,104.05827
1,Alvarães/AM,-3.214786,-64.8143124,2902,17891.49199
D1,Alvarães/AM,-3.214786,-64.8143124,46,283.60049
1,Alvinlândia/SP,-22.4431852,-49.7643596,141,4355.88508
D1,Alvinlândia/SP,-22.4431852,-49.7643596,9,278.03522
1,Alvinópolis/MG,-20.1105199,-43.0601805,741,4884.96275
D1,Alvinópolis/MG,-20.1105199,-43.0601805,22,145.03263
1,Alvorada D'Oeste/RO,-11.346271,-62.284697,1156,8195.09429
D1,Alvorada D'Oeste/RO,-11.346271,-62.284697,29,205.58628
1,Alvorada de Minas/MG,-18.7318587,-43.3641479,279,7739.25104
D1,Alvorada de Minas/MG,-18.7318587,-43.3641479,3,83.21775
1,Alvorada do Gurguéia/PI,-8.4465288,-43.8655915,437,8025.71166
D1,Alvorada do Gurguéia/PI,-8.4465288,-43.8655915,11,202.02020
1,Alvorada do Norte/GO,-14.483911,-46.4959897,794,9121.19472
D1,Alvorada do Norte/GO,-14.483911,-46.4959897,10,114.87651
1,Alvorada do Sul/PR,-22.7807269,-51.2307721,787,6841.69347
D1,Alvorada do Sul/PR,-22.7807269,-51.2307721,26,226.02799
1,Alvorada/RS,-29.9981184,-51.0772509,21978,10398.76604
D1,Alvorada/RS,-29.9981184,-51.0772509,782,369.99886
1,Alvorada/TO,-12.478465,-49.124926,1400,16674.60696
D1,Alvorada/TO,-12.478465,-49.124926,21,250.11910
1,Além Paraíba/MG,-21.8760576,-42.6810473,3334,9417.81306
D1,Além Paraíba/MG,-21.8760576,-42.6810473,149,420.89207
1,Amajari/RR,3.6523869,-61.4194315,1153,8744.78574
D1,Amajari/RR,3.6523869,-61.4194315,21,159.27190
1,Amambai/MS,-23.1082701,-55.2284854,3247,8152.96540
D1,Amambai/MS,-23.1082701,-55.2284854,82,205.89565
1,Amaporã/PR,-23.094272,-52.786597,442,6980.41693
D1,Amaporã/PR,-23.094272,-52.786597,7,110.54959
1,Amapá do Maranhão/MA,-1.6762114,-46.0109669,172,2455.38901
D1,Amapá do Maranhão/MA,-1.6762114,-46.0109669,6,85.65310
1,Amapá/AP,2.0529997,-50.7930003,1393,15162.72994
D1,Amapá/AP,2.0529997,-50.7930003,10,108.84946
1,Amaraji/PE,-8.373925,-35.4536527,649,2837.77875
D1,Amaraji/PE,-8.373925,-35.4536527,47,205.50940
1,Amaral Ferrador/RS,-30.8750633,-52.2542051,310,4375.44107
D1,Amaral Ferrador/RS,-30.8750633,-52.2542051,10,141.14326
1,Amaralina/GO,-13.9236199,-49.2962411,114,2964.88947
D1,Amaralina/GO,-13.9236199,-49.2962411,2,52.01560
1,Amarante do Maranhão/MA,-5.56913,-46.747284,1594,3819.88545
D1,Amarante do Maranhão/MA,-5.56913,-46.747284,53,127.00999
1,Amarante/PI,-6.2459374,-42.8476238,1562,8872.98341
D1,Amarante/PI,-6.2459374,-42.8476238,35,198.81845
1,Amargosa/BA,-13.03793715,-39.60796443875596,3133,8367.83206
D1,Amargosa/BA,-13.03793715,-39.60796443875596,55,146.89779
1,Amaturá/AM,-3.3640509,-68.1994689,2380,20279.48194
D1,Amaturá/AM,-3.3640509,-68.1994689,18,153.37423
1,Americana/SP,-22.7392463,-47.3306032,25696,10617.39209
D1,Americana/SP,-22.7392463,-47.3306032,805,332.61989
1,Americano do Brasil/GO,-16.2515808,-49.9806104,824,13367.94289
D1,Americano do Brasil/GO,-16.2515808,-49.9806104,23,373.13433
1,Ametista do Sul/RS,-27.3617341,-53.1826575,886,11968.12103
D1,Ametista do Sul/RS,-27.3617341,-53.1826575,21,283.66878
1,Amontada/CE,-3.3634586,-39.8284791,2935,6696.47950
D1,Amontada/CE,-3.3634586,-39.8284791,56,127.76929
1,Amorinópolis/GO,-16.6211308,-51.0949921,344,11208.86282
D1,Amorinópolis/GO,-16.6211308,-51.0949921,6,195.50342
1,Amparo de São Francisco/SE,-10.1299754,-36.9269099,256,10756.30252
D1,Amparo de São Francisco/SE,-10.1299754,-36.9269099,5,210.08403
1,Amparo do Serra/MG,-20.5070255,-42.8028462,164,3505.77170
D1,Amparo do Serra/MG,-20.5070255,-42.8028462,8,171.01325
1,Amparo/PB,-7.56394725,-37.04652873235175,178,7907.59662
D1,Amparo/PB,-7.56394725,-37.04652873235175,4,177.69880
1,Amparo/SP,-22.70111,-46.76444,7247,9971.51781
D1,Amparo/SP,-22.70111,-46.76444,137,188.50530
1,Ampére/PR,-25.9168712,-53.4742414,2403,12443.68495
D1,Ampére/PR,-25.9168712,-53.4742414,57,295.16856
1,Amélia Rodrigues/BA,-12.4015388,-38.7516971,2335,9322.10156
D1,Amélia Rodrigues/BA,-12.4015388,-38.7516971,47,187.63973
1,América Dourada/BA,-11.4515262,-41.4357517,947,5885.64326
D1,América Dourada/BA,-11.4515262,-41.4357517,13,80.79553
1,Américo Brasiliense/SP,-21.7297099,-48.1052092,4162,10143.30279
D1,Américo Brasiliense/SP,-21.7297099,-48.1052092,93,226.65237
1,Américo de Campos/SP,-20.298476,-49.735904,1131,18909.88129
D1,Américo de Campos/SP,-20.298476,-49.735904,34,568.46681
1,Anadia/AL,-9.6830208,-36.3052699,1447,8256.30492
D1,Anadia/AL,-9.6830208,-36.3052699,30,171.17426
1,Anagé/BA,-14.6134669,-41.1376308,1023,4734.57676
D1,Anagé/BA,-14.6134669,-41.1376308,28,129.58763
1,Anahy/PR,-24.6450861,-53.1337957,360,12912.48207
D1,Anahy/PR,-24.6450861,-53.1337957,9,322.81205
1,Anajatuba/MA,-3.26441,-44.6179916,1052,3898.02875
D1,Anajatuba/MA,-3.26441,-44.6179916,26,96.33911
1,Anajás/PA,-0.9878802,-49.9390114,1362,4587.71221
D1,Anajás/PA,-0.9878802,-49.9390114,22,74.10402
1,Analândia/SP,-22.128917,-47.661939,371,7337.81646
D1,Analândia/SP,-22.128917,-47.661939,5,98.89241
1,Anamã/AM,-3.5797356,-61.4049996,1941,13907.99656
D1,Anamã/AM,-3.5797356,-61.4049996,10,71.65377
1,Ananindeua/PA,-1.374035,-48.4016623,25345,4732.54448
D1,Ananindeua/PA,-1.374035,-48.4016623,815,152.18085
1,Ananás/TO,-6.3663053,-48.080238,1650,17383.05942
D1,Ananás/TO,-6.3663053,-48.080238,27,284.45006
1,Anapu/PA,-3.4668292,-51.2057035,1674,5851.71462
D1,Anapu/PA,-3.4668292,-51.2057035,46,160.79980
1,Anapurus/MA,-3.6751298,-43.1046001,831,5228.38807
D1,Anapurus/MA,-3.6751298,-43.1046001,14,88.08355
1,Anastácio/MS,-20.4832458,-55.8048448,2563,10155.72374
D1,Anastácio/MS,-20.4832458,-55.8048448,78,309.07002
1,Anaurilândia/MS,-22.185169,-52.719056,561,6181.13706
D1,Anaurilândia/MS,-22.185169,-52.719056,15,165.27104
1,Anchieta/ES,-20.8057672,-40.6454564,4902,16461.26465
D1,Anchieta/ES,-20.8057672,-40.6454564,88,295.51026
1,Anchieta/SC,-26.5350527,-53.3293938,692,12452.76228
D1,Anchieta/SC,-26.5350527,-53.3293938,9,161.95789
1,Andaraí/BA,-12.8059674,-41.3322919,938,7142.85714
D1,Andaraí/BA,-12.8059674,-41.3322919,10,76.14986
1,Andirá/PR,-23.0494761,-50.2310027,2514,12616.68172
D1,Andirá/PR,-23.0494761,-50.2310027,83,416.54120
1,Andorinha/BA,-10.3445708,-39.8334411,961,6626.21527
D1,Andorinha/BA,-10.3445708,-39.8334411,17,117.21713
1,Andradas/MG,-22.0680484,-46.5688976,3964,9575.80443
D1,Andradas/MG,-22.0680484,-46.5688976,120,289.88308
1,Andradina/SP,-20.896505,-51.3742765,6631,11592.25202
D1,Andradina/SP,-20.896505,-51.3742765,264,461.52232
1,Andrelândia/MG,-21.739722,-44.308889,206,1687.69458
D1,Andrelândia/MG,-21.739722,-44.308889,14,114.69769
1,André da Rocha/RS,-28.6309124,-51.5733328,123,9158.60015
D1,André da Rocha/RS,-28.6309124,-51.5733328,1,74.46016
1,Angatuba/SP,-23.4938938,-48.4110675,3116,12229.67934
D1,Angatuba/SP,-23.4938938,-48.4110675,72,282.58566
1,Angelim/PE,-8.8902038,-36.2872987,228,2030.99947
D1,Angelim/PE,-8.8902038,-36.2872987,11,97.98682
1,Angelina/SC,-27.5805287,-48.9838759,543,11448.45035
D1,Angelina/SC,-27.5805287,-48.9838759,2,42.16740
1,Angelândia/MG,-17.7253,-42.2728,253,2956.64368
D1,Angelândia/MG,-17.7253,-42.2728,3,35.05902
1,Angical do Piauí/PI,-6.0872666,-42.7366138,880,12973.61050
D1,Angical do Piauí/PI,-6.0872666,-42.7366138,12,176.91287
1,Angical/BA,-12.005623,-44.7000236,724,5194.43249
D1,Angical/BA,-12.005623,-44.7000236,16,114.79409
1,Angico/TO,-6.3893733,-47.8656722,236,6832.65779
D1,Angico/TO,-6.3893733,-47.8656722,4,115.80776
1,Angicos/RN,-5.6666344,-36.6009064,1109,9474.58351
D1,Angicos/RN,-5.6666344,-36.6009064,24,205.04058
1,Angra dos Reis/RJ,-23.0063966,-44.316326,14796,7146.30707
D1,Angra dos Reis/RJ,-23.0063966,-44.316326,512,247.29043
1,Anguera/BA,-12.1509425,-39.2452469,497,4399.39807
D1,Anguera/BA,-12.1509425,-39.2452469,2,17.70382
1,Angélica/MS,-22.1588196,-53.7728504,1387,12687.52287
D1,Angélica/MS,-22.1588196,-53.7728504,20,182.94914
1,Anhanguera/GO,-18.3338749,-48.220363,96,8275.86207
D1,Anhanguera/GO,-18.3338749,-48.220363,7,603.44828
1,Anhembi/SP,-22.7891096,-48.1316776,322,4722.10001
D1,Anhembi/SP,-22.7891096,-48.1316776,8,117.31926
1,Anhumas/SP,-22.2956478,-51.3873401,238,5743.24324
D1,Anhumas/SP,-22.2956478,-51.3873401,7,168.91892
1,Anicuns/GO,-16.4606451,-49.9572265,3160,14376.05204
D1,Anicuns/GO,-16.4606451,-49.9572265,67,304.80870
1,Anita Garibaldi/SC,-27.6855032,-51.1293873,1204,17306.31019
D1,Anita Garibaldi/SC,-27.6855032,-51.1293873,10,143.74012
1,Anitápolis/SC,-27.9041185,-49.1287395,345,10687.73234
D1,Anitápolis/SC,-27.9041185,-49.1287395,5,154.89467
1,Anori/AM,-3.7435254,-61.6605203,1911,8897.89077
D1,Anori/AM,-3.7435254,-61.6605203,33,153.65274
1,Anta Gorda/RS,-28.9718745,-52.0069187,644,10803.55645
D1,Anta Gorda/RS,-28.9718745,-52.0069187,4,67.10284
1,Antas/BA,-10.4114649,-38.3308815,1316,6755.99363
D1,Antas/BA,-10.4114649,-38.3308815,13,66.73854
1,Antonina do Norte/CE,-6.7754187,-39.9879345,797,10802.38547
D1,Antonina do Norte/CE,-6.7754187,-39.9879345,26,352.39902
1,Antonina/PR,-25.4298854,-48.7125431,2541,13409.67861
D1,Antonina/PR,-25.4298854,-48.7125431,72,379.96728
1,Antônio Almeida/PI,-7.2186016,-44.1950248,406,12807.57098
D1,Antônio Almeida/PI,-7.2186016,-44.1950248,10,315.45741
1,Antônio Cardoso/BA,-12.4363122,-39.1200307,620,5309.58294
D1,Antônio Cardoso/BA,-12.4363122,-39.1200307,11,94.20228
1,Antônio Carlos/MG,-21.318334,-43.746666,765,6675.97522
D1,Antônio Carlos/MG,-21.318334,-43.746666,16,139.62824
1,Antônio Carlos/SC,-27.5168462,-48.7684715,1642,19064.20527
D1,Antônio Carlos/SC,-27.5168462,-48.7684715,27,313.47962
1,Antônio Dias/MG,-19.6525,-42.872778,592,6382.74933
D1,Antônio Dias/MG,-19.6525,-42.872778,26,280.32345
1,Antônio Gonçalves/BA,-10.5715409,-40.2748824,916,7711.73598
D1,Antônio Gonçalves/BA,-10.5715409,-40.2748824,9,75.77033
1,Antônio João/MS,-22.1892837,-55.9508227,537,5953.43681
D1,Antônio João/MS,-22.1892837,-55.9508227,16,177.38359
1,Antônio Martins/RN,-6.2155812,-37.8890129,677,9463.23735
D1,Antônio Martins/RN,-6.2155812,-37.8890129,7,97.84736
1,Antônio Olinto/PR,-25.9849006,-50.1974516,525,7068.80302
D1,Antônio Olinto/PR,-25.9849006,-50.1974516,14,188.50141
1,Antônio Prado de Minas/MG,-21.0171988,-42.1101106,166,10459.98740
D1,Antônio Prado de Minas/MG,-21.0171988,-42.1101106,5,315.05986
1,Antônio Prado/RS,-28.8567806,-51.2801355,2709,20766.57723
D1,Antônio Prado/RS,-28.8567806,-51.2801355,31,237.63894
1,Anápolis/GO,-16.3332828,-48.9525756,44982,11481.67812
D1,Anápolis/GO,-16.3332828,-48.9525756,1641,418.86608
1,Anísio de Abreu/PI,-9.185643,-43.04941,290,2918.09217
D1,Anísio de Abreu/PI,-9.185643,-43.04941,14,140.87342
1,Aparecida d'Oeste/SP,-20.4498109,-50.8808706,828,19913.41991
D1,Aparecida d'Oeste/SP,-20.4498109,-50.8808706,16,384.80038
1,Aparecida de Goiânia/GO,-16.8226769,-49.2452546,76410,12947.64346
D1,Aparecida de Goiânia/GO,-16.8226769,-49.2452546,1601,271.28880
1,Aparecida do Rio Doce/GO,-18.2980167,-51.1491312,252,10185.93371
D1,Aparecida do Rio Doce/GO,-18.2980167,-51.1491312,3,121.26112
1,Aparecida do Rio Negro/TO,-9.9513491,-47.9773786,392,8085.80858
D1,Aparecida do Rio Negro/TO,-9.9513491,-47.9773786,13,268.15182
1,Aparecida do Taboado/MS,-20.0840304,-51.1013943,3635,13943.76462
D1,Aparecida do Taboado/MS,-20.0840304,-51.1013943,60,230.15843
1,Aparecida/PB,-6.7859598, -38.0831353,979,11632.60456
D1,Aparecida/PB,-6.7859598, -38.0831353,14,166.34981
1,Aparecida/SP,-22.851552,-45.2340924,2567,7094.09977
D1,Aparecida/SP,-22.851552,-45.2340924,109,301.22979
1,Aperibé/RJ,-21.6211928,-42.1028167,697,5856.65070
D1,Aperibé/RJ,-21.6211928,-42.1028167,29,243.67700
1,Apiacá/ES,-21.152272,-41.569297,883,11689.17130
D1,Apiacá/ES,-21.152272,-41.569297,34,450.09267
1,Apiacás/MT,-9.5678422,-57.394852,1872,18204.80405
D1,Apiacás/MT,-9.5678422,-57.394852,17,165.32140
1,Apiaí/SP,-24.5076527,-48.8461582,1691,6980.10402
D1,Apiaí/SP,-24.5076527,-48.8461582,78,321.96813
1,Apicum-Açu/MA,-1.5279295,-45.082278,533,3060.93149
D1,Apicum-Açu/MA,-1.5279295,-45.082278,5,28.71418
1,Apiúna/SC,-27.0374658,-49.3885037,856,7890.85546
D1,Apiúna/SC,-27.0374658,-49.3885037,18,165.92920
1,Apodi/RN,-5.6631109,-37.796927,6650,18537.10208
D1,Apodi/RN,-5.6631109,-37.796927,97,270.39081
1,Aporá/BA,-11.6599747,-38.0794757,638,3586.68765
D1,Aporá/BA,-11.6599747,-38.0794757,19,106.81358
1,Aporé/GO,-18.9642193,-51.92804,388,9168.24197
D1,Aporé/GO,-18.9642193,-51.92804,10,236.29490
1,Apuarema/BA,-13.8517897,-39.7457126,756,10353.32786
D1,Apuarema/BA,-13.8517897,-39.7457126,9,123.25390
1,Apucarana/PR,-23.5525327,-51.4610764,10474,7688.24229
D1,Apucarana/PR,-23.5525327,-51.4610764,441,323.70774
1,Apuiarés/CE,-3.9460303,-39.4313298,1371,9344.32933
D1,Apuiarés/CE,-3.9460303,-39.4313298,25,170.39258
1,Apuí/AM,-7.1940195,-59.8830192,1467,6561.11633
D1,Apuí/AM,-7.1940195,-59.8830192,31,138.64663
1,Aquidabã/SE,-10.2837579,-37.0188687,2397,11055.76311
D1,Aquidabã/SE,-10.2837579,-37.0188687,39,179.88100
1,Aquidauana/MS,-20.473969,-55.7821375,5587,11632.55533
D1,Aquidauana/MS,-20.473969,-55.7821375,155,322.72169
1,Aquiraz/CE,-3.9063117,-38.387504,6648,8213.99889
D1,Aquiraz/CE,-3.9063117,-38.387504,91,112.43591
1,Arabutã/SC,-27.1587028,-52.1438142,419,9819.54535
D1,Arabutã/SC,-27.1587028,-52.1438142,8,187.48535
1,Aracaju/SE,-10.9162061,-37.0774655,127274,19141.59553
D1,Aracaju/SE,-10.9162061,-37.0774655,2391,359.59862
1,Aracati/CE,-4.558259,-37.767894,8014,10688.89630
D1,Aracati/CE,-4.558259,-37.767894,166,221.40714
1,Aracatu/BA,-14.4274236,-41.4604105,906,6945.18973
D1,Aracatu/BA,-14.4274236,-41.4604105,18,137.98390
1,Araci/BA,-11.3356065,-38.9573261,3682,6737.66652
D1,Araci/BA,-11.3356065,-38.9573261,50,91.49466
1,Aracitaba/MG,-21.3425,-43.378611,91,4419.62118
D1,Aracitaba/MG,-21.3425,-43.378611,9,437.10539
1,Aracoiaba/CE,-4.3702577,-38.8084313,4293,16178.63200
D1,Aracoiaba/CE,-4.3702577,-38.8084313,35,131.90126
1,Aracruz/ES,-19.8245218,-40.2735025,16835,16328.64861
D1,Aracruz/ES,-19.8245218,-40.2735025,233,225.99199
1,Aragarças/GO,-15.8957166,-52.2514538,3150,15537.90756
D1,Aragarças/GO,-15.8957166,-52.2514538,72,355.15217
1,Aragoiânia/GO,-16.9146388,-49.4499148,1299,12376.14329
D1,Aragoiânia/GO,-16.9146388,-49.4499148,25,238.18598
1,Aragominas/TO,-7.1654101,-48.525488,556,9701.62275
D1,Aragominas/TO,-7.1654101,-48.525488,10,174.48962
1,Araguacema/TO,-8.8067391,-49.5560969,738,10314.46541
D1,Araguacema/TO,-8.8067391,-49.5560969,14,195.66737
1,Araguaiana/MT,-15.729144,-51.834112,393,12640.72049
D1,Araguaiana/MT,-15.729144,-51.834112,7,225.15278
1,Araguainha/MT,-16.857016,-53.031778,29,3065.53911
D1,Araguainha/MT,-16.857016,-53.031778,1,105.70825
1,Araguanã/MA,-2.9508403,-45.6651986,808,5195.80734
D1,Araguanã/MA,-2.9508403,-45.6651986,5,32.15227
1,Araguanã/TO,-6.5799107,-48.6428482,581,10029.34576
D1,Araguanã/TO,-6.5799107,-48.6428482,16,276.19541
1,Araguapaz/GO,-15.0937927,-50.626417,676,8685.59681
D1,Araguapaz/GO,-15.0937927,-50.626417,27,346.90993
1,Araguari/MG,-18.6511256,-48.1933764,17543,14889.03034
D1,Araguari/MG,-18.6511256,-48.1933764,434,368.34288
1,Araguatins/TO,-5.6522925,-48.1158973,2483,6864.80509
D1,Araguatins/TO,-5.6522925,-48.1158973,66,182.47166
1,Araguaçu/TO,-12.928934,-49.823134,901,10641.31333
D1,Araguaçu/TO,-12.928934,-49.823134,21,248.02173
1,Araguaína/TO,-7.193241,-48.2018597,36069,19668.88609
D1,Araguaína/TO,-7.193241,-48.2018597,504,274.83763
1,Araioses/MA,-2.890914,-41.904993,680,1453.89237
D1,Araioses/MA,-2.890914,-41.904993,15,32.07116
1,Aral Moreira/MS,-22.951141,-55.6268421,558,4524.81349
D1,Aral Moreira/MS,-22.951141,-55.6268421,15,121.63477
1,Aramari/BA,-12.0907897,-38.4985065,668,5828.46174
D1,Aramari/BA,-12.0907897,-38.4985065,12,104.70291
1,Arambaré/RS,-30.9132252,-51.4994625,225,6316.67602
D1,Arambaré/RS,-30.9132252,-51.4994625,8,224.59293
1,Arame/MA,-4.8858769,-46.0102484,1563,4770.47979
D1,Arame/MA,-4.8858769,-46.0102484,42,128.18948
1,Aramina/SP,-20.0876144,-47.789201,352,6224.58002
D1,Aramina/SP,-20.0876144,-47.789201,17,300.61892
1,Arandu/SP,-23.1345103,-49.0545651,618,9709.34800
D1,Arandu/SP,-23.1345103,-49.0545651,16,251.37471
1,Arantina/MG,-21.911667,-44.255833,211,7570.86473
D1,Arantina/MG,-21.911667,-44.255833,4,143.52350
1,Arapeí/SP,-22.6738889,-44.4477778,250,10162.60163
D1,Arapeí/SP,-22.6738889,-44.4477778,3,121.95122
1,Arapiraca/AL,-9.754866,-36.661471,30756,13197.33788
D1,Arapiraca/AL,-9.754866,-36.661471,512,219.69817
1,Arapoema/TO,-7.6575001,-49.0641484,503,7602.78114
D1,Arapoema/TO,-7.6575001,-49.0641484,11,166.26360
1,Araponga/MG,-20.666667,-42.520556,670,7926.18005
D1,Araponga/MG,-20.666667,-42.520556,9,106.47108
1,Arapongas/PR,-23.415296,-51.42592,13300,10656.19742
D1,Arapongas/PR,-23.415296,-51.42592,562,450.28443
1,Araporã/MG,-18.4318188,-49.188313,2014,29057.85601
D1,Araporã/MG,-18.4318188,-49.188313,35,504.97764
1,Arapoti/PR,-24.1457957,-49.8224605,3184,11250.88339
D1,Arapoti/PR,-24.1457957,-49.8224605,63,222.61484
1,Araputanga/MT,-15.4710868,-58.346796,2085,12300.15928
D1,Araputanga/MT,-15.4710868,-58.346796,55,324.46463
1,Arapuá/MG,-19.034444,-46.155556,284,10017.63668
D1,Arapuá/MG,-19.034444,-46.155556,2,70.54674
1,Arapuã/PR,-24.3079525,-51.7901941,233,7743.43636
D1,Arapuã/PR,-24.3079525,-51.7901941,6,199.40179
1,Araquari/SC,-26.3703324,-48.7210994,3858,9761.15778
D1,Araquari/SC,-26.3703324,-48.7210994,83,209.99899
1,Arara/PB,-6.8271895,-35.7605703,1040,7679.81096
D1,Arara/PB,-6.8271895,-35.7605703,29,214.14857
1,Araranguá/SC,-28.9348832,-49.4858389,10934,15876.98027
D1,Araranguá/SC,-28.9348832,-49.4858389,247,358.66235
1,Araraquara/SP,-21.7886713,-48.1773096,24418,10245.07110
D1,Araraquara/SP,-21.7886713,-48.1773096,495,207.68737
1,Araras/SP,-22.3569477,-47.3838889,17878,13193.51173
D1,Araras/SP,-22.3569477,-47.3838889,390,287.81013
1,Ararendá/CE,-4.7504395,-40.8303611,1404,12811.38790
D1,Ararendá/CE,-4.7504395,-40.8303611,22,200.74824
1,Arari/MA,-3.4547602,-44.7772723,989,3304.15609
D1,Arari/MA,-3.4547602,-44.7772723,34,113.59081
1,Araricá/RS,-29.6168543,-50.929121,1023,17726.56385
D1,Araricá/RS,-29.6168543,-50.929121,26,450.52850
1,Araripe/CE,-7.212861,-40.1359222,1350,6234.41397
D1,Araripe/CE,-7.212861,-40.1359222,23,106.21594
1,Araripina/PE,-7.5768582,-40.5038509,7362,8675.05656
D1,Araripina/PE,-7.5768582,-40.5038509,157,185.00189
1,Araruama/RJ,-22.8733203,-42.3428897,6675,4970.47501
D1,Araruama/RJ,-22.8733203,-42.3428897,451,335.83284
1,Araruna/PB,-6.5321155,-35.7397595,702,3430.58203
D1,Araruna/PB,-6.5321155,-35.7397595,16,78.18990
1,Araruna/PR,-23.9320308,-52.4976047,2138,15271.42857
D1,Araruna/PR,-23.9320308,-52.4976047,36,257.14286
1,Arataca/BA,-15.2617424,-39.4122943,789,7198.24834
D1,Arataca/BA,-15.2617424,-39.4122943,15,136.84883
1,Aratiba/RS,-27.3955734,-52.3024325,448,7238.64922
D1,Aratiba/RS,-27.3955734,-52.3024325,7,113.10389
1,Aratuba/CE,-4.4195958,-39.0463737,1645,13938.31554
D1,Aratuba/CE,-4.4195958,-39.0463737,10,84.73140
1,Aratuípe/BA,-13.077137,-39.0010786,479,5420.39154
D1,Aratuípe/BA,-13.077137,-39.0010786,11,124.47663
1,Araucária/PR,-25.5861107,-49.4051209,27150,18568.67331
D1,Araucária/PR,-25.5861107,-49.4051209,484,331.02165
1,Arauá/SE,-11.2644014,-37.6181058,1281,12878.25475
D1,Arauá/SE,-11.2644014,-37.6181058,22,221.17221
1,Araxá/MG,-19.5928536,-46.940241,14186,13216.31870
D1,Araxá/MG,-19.5928536,-46.940241,234,218.00497
1,Araçagi/PB,-6.8519969,-35.3835602,1663,9828.02435
D1,Araçagi/PB,-6.8519969,-35.3835602,24,141.83559
1,Araçariguama/SP,-23.438611,-47.061389,2009,8788.27647
D1,Araçariguama/SP,-23.438611,-47.061389,65,284.33946
1,Araçatuba/SP,-21.207992,-50.4390225,29241,14758.56639
D1,Araçatuba/SP,-21.207992,-50.4390225,874,441.12674
1,Araçaí/MG,-19.200833,-44.2475,72,3058.62362
D1,Araçaí/MG,-19.200833,-44.2475,1,42.48088
1,Araçoiaba da Serra/SP,-23.5045367,-47.6168158,3014,8666.89671
D1,Araçoiaba da Serra/SP,-23.5045367,-47.6168158,81,232.91925
1,Araçoiaba/PE,-7.7856903,-35.0898881,672,3241.20967
D1,Araçoiaba/PE,-7.7856903,-35.0898881,31,149.52009
1,Araçu/GO,-16.3561579,-49.6815269,482,13826.73551
D1,Araçu/GO,-16.3561579,-49.6815269,17,487.66495
1,Araçuaí/MG,-16.8484451,-42.0661868,1954,5322.51035
D1,Araçuaí/MG,-16.8484451,-42.0661868,51,138.91915
1,Araçás/BA,-12.2139176,-38.2026159,713,5840.43250
D1,Araçás/BA,-12.2139176,-38.2026159,14,114.67890
1,Araújos/MG,-19.948055,-45.165556,947,10073.39645
D1,Araújos/MG,-19.948055,-45.165556,14,148.92033
1,Arceburgo/MG,-21.364444,-46.939722,1265,11623.63319
D1,Arceburgo/MG,-21.364444,-46.939722,33,303.22521
1,Arco-Íris/SP,-21.7741308,-50.4668814,161,9080.65426
D1,Arco-Íris/SP,-21.7741308,-50.4668814,8,451.21263
1,Arcos/MG,-20.282223,-45.539444,5721,14167.90490
D1,Arcos/MG,-20.282223,-45.539444,112,277.36503
1,Arcoverde/PE,-8.415192,-37.057748,6955,9295.39440
D1,Arcoverde/PE,-8.415192,-37.057748,133,177.75521
1,Areado/MG,-21.3582771,-46.1476688,1184,7799.22271
D1,Areado/MG,-21.3582771,-46.1476688,28,184.44108
1,Areal/RJ,-22.2314922,-43.1056264,1594,12581.89281
D1,Areal/RJ,-22.2314922,-43.1056264,51,402.55742
1,Arealva/SP,-22.0301906,-48.9111936,989,11482.64252
D1,Arealva/SP,-22.0301906,-48.9111936,19,220.59677
1,Areia Branca/RN,-4.9506652,-37.1263312,2957,10573.17553
D1,Areia Branca/RN,-4.9506652,-37.1263312,98,350.41299
1,Areia Branca/SE,-10.7591455,-37.3148072,2097,11222.30547
D1,Areia Branca/SE,-10.7591455,-37.3148072,48,256.87681
1,Areia de Baraúnas/PB,-7.1233949,-36.9446216,210,9924.38563
D1,Areia de Baraúnas/PB,-7.1233949,-36.9446216,4,189.03592
1,Areia/PB,-6.9680243,-35.6994783,1913,8443.67938
D1,Areia/PB,-6.9680243,-35.6994783,31,136.82910
1,Areial/PB,-7.0501306,-35.9245244,369,5251.17404
D1,Areial/PB,-7.0501306,-35.9245244,12,170.76989
1,Areias/SP,-22.5800929,-44.6975127,348,8932.23819
D1,Areias/SP,-22.5800929,-44.6975127,2,51.33470
1,Areiópolis/SP,-22.6758064,-48.6673653,1354,12134.79118
D1,Areiópolis/SP,-22.6758064,-48.6673653,20,179.24359
1,Arenápolis/MT,-14.4610369,-56.8432806,1891,19901.07346
D1,Arenápolis/MT,-14.4610369,-56.8432806,38,399.91581
1,Arenópolis/GO,-16.3859286,-51.55937,315,12421.13565
D1,Arenópolis/GO,-16.3859286,-51.55937,8,315.45741
1,Argirita/MG,-21.612761,-42.8371922,280,10355.02959
D1,Argirita/MG,-21.612761,-42.8371922,8,295.85799
1,Aricanduva/MG,-17.8678,-42.5569,141,2676.02961
1,Arinos/MG,-15.917223,-46.106111,856,4792.29650
D1,Arinos/MG,-15.917223,-46.106111,27,151.15888
1,Aripuanã/MT,-10.175806,-59.4439663,3101,13652.37299
D1,Aripuanã/MT,-10.175806,-59.4439663,47,206.92084
1,Ariquemes/RO,-9.9076522,-63.033069,22391,20444.10763
D1,Ariquemes/RO,-9.9076522,-63.033069,491,448.30766
1,Ariranha do Ivaí/PR,-24.3834527,-51.5876772,179,8664.08519
D1,Ariranha do Ivaí/PR,-24.3834527,-51.5876772,4,193.61084
1,Ariranha/SP,-21.18716,-48.790418,1007,10316.56593
D1,Ariranha/SP,-21.18716,-48.790418,24,245.87645
1,Armazém/SC,-28.2624996,-49.0190126,1431,16337.48145
D1,Armazém/SC,-28.2624996,-49.0190126,31,353.92168
1,Armação dos Búzios/RJ,-22.7597805,-41.8875267,4851,14070.24973
D1,Armação dos Búzios/RJ,-22.7597805,-41.8875267,61,176.92955
1,Arneiroz/CE,-6.3235099,-40.1603859,672,8567.05762
D1,Arneiroz/CE,-6.3235099,-40.1603859,17,216.72616
1,Aroazes/PI,-6.1108814,-41.7886137,598,10262.57079
D1,Aroazes/PI,-6.1108814,-41.7886137,12,205.93788
1,Aroeiras do Itaim/PI,-7.2797031,-41.5629681,147,5762.44610
D1,Aroeiras do Itaim/PI,-7.2797031,-41.5629681,2,78.40063
1,Aroeiras/PB,-7.5462904,-35.7080002,1897,9923.62419
D1,Aroeiras/PB,-7.5462904,-35.7080002,16,83.69952
1,Arraial do Cabo/RJ,-22.9662839,-42.024427,771,2520.18436
D1,Arraial do Cabo/RJ,-22.9662839,-42.024427,41,134.01759
1,Arraial/PI,-6.6541632,-42.5335332,159,3368.64407
D1,Arraial/PI,-6.6541632,-42.5335332,3,63.55932
1,Arraias/TO,-12.9287788,-46.9437231,1119,10622.74540
D1,Arraias/TO,-12.9287788,-46.9437231,13,123.40991
1,Arroio Grande/RS,-32.2384246,-53.0866661,2082,11415.72541
D1,Arroio Grande/RS,-32.2384246,-53.0866661,54,296.08510
1,Arroio Trinta/SC,-26.9301976,-51.334928,609,17159.76331
D1,Arroio Trinta/SC,-26.9301976,-51.334928,14,394.47732
1,Arroio do Meio/RS,-29.4020392,-51.9444993,3160,15071.30252
D1,Arroio do Meio/RS,-29.4020392,-51.9444993,45,214.62298
1,Arroio do Padre/RS,-31.4428773,-52.4228985,246,8336.15723
D1,Arroio do Padre/RS,-31.4428773,-52.4228985,4,135.54727
1,Arroio do Sal/RS,-29.549852,-49.8874395,1159,11275.41590
D1,Arroio do Sal/RS,-29.549852,-49.8874395,40,389.14291
1,Arroio do Tigre/RS,-29.334158,-53.0888935,1240,9244.76254
D1,Arroio do Tigre/RS,-29.334158,-53.0888935,22,164.01998
1,Arroio dos Ratos/RS,-30.0894524,-51.7265541,1095,7723.77795
D1,Arroio dos Ratos/RS,-30.0894524,-51.7265541,36,253.93243
1,Artur Nogueira/SP,-22.572737,-47.172679,5330,9631.36971
D1,Artur Nogueira/SP,-22.572737,-47.172679,140,252.98157
1,Aruanã/GO,-14.9162439,-51.0715692,727,7190.90010
D1,Aruanã/GO,-14.9162439,-51.0715692,17,168.15035
1,Arujá/SP,-23.396266,-46.3175449,8007,8783.74672
D1,Arujá/SP,-23.396266,-46.3175449,330,362.01279
1,Arvoredo/SC,-27.0752908,-52.4571847,319,14279.31961
D1,Arvoredo/SC,-27.0752908,-52.4571847,4,179.05103
1,Arvorezinha/RS,-28.87369,-52.17808,880,8442.86674
D1,Arvorezinha/RS,-28.87369,-52.17808,28,268.63667
1,Arês/RN,-6.1969216,-35.1642968,1136,7879.58660
D1,Arês/RN,-6.1969216,-35.1642968,25,173.40640
1,Ascurra/SC,-26.9569975,-49.3767752,1255,15730.75959
D1,Ascurra/SC,-26.9569975,-49.3767752,11,137.87917
1,Aspásia/SP,-20.160028,-50.728046,210,11551.15512
D1,Aspásia/SP,-20.160028,-50.728046,8,440.04400
1,Assaré/CE,-6.8746791,-39.8741385,2324,9898.62850
D1,Assaré/CE,-6.8746791,-39.8741385,44,187.40949
1,Assaí/PR,-23.3736041,-50.8454929,1399,9355.35643
D1,Assaí/PR,-23.3736041,-50.8454929,45,300.92283
1,Assis Brasil/AC,-10.9409203,-69.5672108,1801,23904.96416
D1,Assis Brasil/AC,-10.9409203,-69.5672108,24,318.55588
1,Assis Chateaubriand/PR,-24.4054826,-53.5120468,4932,14793.04139
D1,Assis Chateaubriand/PR,-24.4054826,-53.5120468,117,350.92981
1,Assis/SP,-22.6620892,-50.420623,11359,10809.13909
D1,Assis/SP,-22.6620892,-50.420623,396,376.83063
1,Assunção do Piauí/PI,-5.8610212,-41.0485091,345,4387.63831
D1,Assunção do Piauí/PI,-5.8610212,-41.0485091,8,101.74234
1,Assunção/PB,-7.073396,-36.7274003,406,10076.94217
D1,Assunção/PB,-7.073396,-36.7274003,5,124.10027
1,Astolfo Dutra/MG,-21.3132636,-42.8624102,1352,9474.42186
D1,Astolfo Dutra/MG,-21.3132636,-42.8624102,25,175.19271
1,Astorga/PR,-23.2350184,-51.6647074,3384,12911.59525
D1,Astorga/PR,-23.2350184,-51.6647074,87,331.94704
1,Atalaia do Norte/AM,-4.3658547,-70.1908742,2825,13849.39700
D1,Atalaia do Norte/AM,-4.3658547,-70.1908742,10,49.02441
1,Atalaia/AL,-9.5029595,-36.0219316,1235,2607.41054
D1,Atalaia/AL,-9.5029595,-36.0219316,51,107.67444
1,Atalaia/PR,-23.1513833,-52.0529697,449,11569.18320
D1,Atalaia/PR,-23.1513833,-52.0529697,22,566.86421
1,Atalanta/SC,-27.421916,-49.778863,500,15649.45227
D1,Atalanta/SC,-27.421916,-49.778863,11,344.28795
1,Ataléia/MG,-18.04432,-41.1110524,1175,9268.02335
D1,Ataléia/MG,-18.04432,-41.1110524,11,86.76447
1,Atibaia/SP,-23.1177393,-46.5547861,12108,8403.19805
D1,Atibaia/SP,-23.1177393,-46.5547861,275,190.85559
1,Atilio Vivacqua/ES,-20.9139369,-41.1947519,1570,12969.84717
D1,Atilio Vivacqua/ES,-20.9139369,-41.1947519,29,239.57043
1,Augustinópolis/TO,-5.4662267,-47.8897519,1715,9199.16322
D1,Augustinópolis/TO,-5.4662267,-47.8897519,31,166.28225
1,Augusto Corrêa/PA,-1.0229335,-46.6404029,2022,4351.10069
D1,Augusto Corrêa/PA,-1.0229335,-46.6404029,47,101.13834
1,Augusto Pestana/RS,-28.5148413,-53.9906433,845,12799.15177
D1,Augusto Pestana/RS,-28.5148413,-53.9906433,13,196.91003
1,Augusto de Lima/MG,-18.1092963,-44.2651945,277,5710.16285
D1,Augusto de Lima/MG,-18.1092963,-44.2651945,10,206.14306
1,Aurelino Leal/BA,-14.3167137,-39.3256107,1028,9098.15028
D1,Aurelino Leal/BA,-14.3167137,-39.3256107,33,292.06124
1,Auriflama/SP,-20.6840418,-50.5554616,2044,13400.64250
D1,Auriflama/SP,-20.6840418,-50.5554616,72,472.03829
1,Aurilândia/GO,-16.6772599,-50.4641231,264,8633.09353
D1,Aurilândia/GO,-16.6772599,-50.4641231,9,294.31001
1,Aurora do Pará/PA,-2.1323199,-47.558436,1693,5328.42350
D1,Aurora do Pará/PA,-2.1323199,-47.558436,15,47.20990
1,Aurora do Tocantins/TO,-12.71045,-46.407604,267,7057.89056
D1,Aurora do Tocantins/TO,-12.71045,-46.407604,5,132.17024
1,Aurora/CE,-6.9426019,-38.9693765,1797,7301.90979
D1,Aurora/CE,-6.9426019,-38.9693765,38,154.40878
1,Aurora/SC,-27.3166417,-49.6368502,880,15484.77917
D1,Aurora/SC,-27.3166417,-49.6368502,16,281.54144
1,Autazes/AM,-3.5833283,-59.1301518,2893,7180.44180
D1,Autazes/AM,-3.5833283,-59.1301518,95,235.79052
1,Avanhandava/SP,-21.4603331,-49.9465156,1151,8305.07252
D1,Avanhandava/SP,-21.4603331,-49.9465156,43,310.26770
1,Avaré/SP,-23.1045215,-48.9259103,11475,12577.82357
D1,Avaré/SP,-23.1045215,-48.9259103,262,287.17994
1,Avaí/SP,-22.1564662,-49.3316395,478,8793.23032
D1,Avaí/SP,-22.1564662,-49.3316395,12,220.75055
1,Aveiro/PA,-3.6049239,-55.3310742,849,5175.56693
D1,Aveiro/PA,-3.6049239,-55.3310742,14,85.34504
1,Avelino Lopes/PI,-10.1346855,-43.9489525,448,3955.50062
D1,Avelino Lopes/PI,-10.1346855,-43.9489525,19,167.75561
1,Avelinópolis/GO,-16.4672409,-49.7578661,317,13158.98713
D1,Avelinópolis/GO,-16.4672409,-49.7578661,14,581.15401
1,Axixá do Tocantins/TO,-5.612747,-47.77007,1040,10626.34106
D1,Axixá do Tocantins/TO,-5.612747,-47.77007,21,214.57035
1,Axixá/MA,-2.8379465,-44.0561053,192,1575.96651
D1,Axixá/MA,-2.8379465,-44.0561053,8,65.66527
1,Açailândia/MA,-4.9514278,-47.4844564,5626,4973.43552
D1,Açailândia/MA,-4.9514278,-47.4844564,236,208.62616
1,Açu/RN,-5.5836157,-36.9139541,8170,13993.55988
D1,Açu/RN,-5.5836157,-36.9139541,148,253.49411
1,Açucena/MG,-19.073056,-42.546666,801,8550.38429
D1,Açucena/MG,-19.073056,-42.546666,34,362.93766
1,Babaçulândia/TO,-7.2034355,-47.761613,873,8184.88656
D1,Babaçulândia/TO,-7.2034355,-47.761613,8,75.00469
1,Bacabal/MA,-4.2318132,-44.781167,5476,5225.68947
D1,Bacabal/MA,-4.2318132,-44.781167,197,187.99504
1,Bacabeira/MA,-2.9775747,-44.3155943,390,2260.60747
D1,Bacabeira/MA,-2.9775747,-44.3155943,10,57.96429
1,Bacuri/MA,-1.728894,-45.1417148,602,3227.18988
D1,Bacuri/MA,-1.728894,-45.1417148,4,21.44312
1,Bacurituba/MA,-2.7082587,-44.7381309,117,2063.49206
D1,Bacurituba/MA,-2.7082587,-44.7381309,2,35.27337
1,Bady Bassitt/SP,-20.9178969,-49.4517911,4056,22836.55200
D1,Bady Bassitt/SP,-20.9178969,-49.4517911,82,461.68572
1,Baependi/MG,-21.959162,-44.8899249,1546,8052.50273
D1,Baependi/MG,-21.959162,-44.8899249,32,166.67535
1,Bagre/PA,-1.8994498,-50.2103844,921,2940.14366
D1,Bagre/PA,-1.8994498,-50.2103844,12,38.30806
1,Bagé/RS,-31.3314264,-54.1062808,11385,9383.11287
D1,Bagé/RS,-31.3314264,-54.1062808,290,239.00771
1,Baianópolis/BA,-12.3067564,-44.5383591,916,6576.20791
D1,Baianópolis/BA,-12.3067564,-44.5383591,16,114.86826
1,Baixa Grande do Ribeiro/PI,-7.862861,-45.2113289,2661,22800.10282
D1,Baixa Grande do Ribeiro/PI,-7.862861,-45.2113289,33,282.75212
1,Baixa Grande/BA,-11.9630941,-40.1657537,877,4288.71827
D1,Baixa Grande/BA,-11.9630941,-40.1657537,15,73.35322
1,Baixio/CE,-6.7303544,-38.7170095,705,11185.14993
D1,Baixio/CE,-6.7303544,-38.7170095,13,206.25099
1,Baixo Guandu/ES,-19.5138322,-41.0182089,3793,12183.60529
D1,Baixo Guandu/ES,-19.5138322,-41.0182089,79,253.75819
1,Baião/PA,-2.7903479,-49.6702845,790,1630.24412
D1,Baião/PA,-2.7903479,-49.6702845,37,76.35321
1,Balbinos/SP,-21.9006253,-49.3583966,368,6201.55039
D1,Balbinos/SP,-21.9006253,-49.3583966,4,67.40816
1,Baldim/MG,-19.2913568,-43.9558262,672,8612.07228
D1,Baldim/MG,-19.2913568,-43.9558262,22,281.94284
1,Baliza/GO,-16.1978119,-52.542789,442,8371.21212
D1,Baliza/GO,-16.1978119,-52.542789,9,170.45455
1,Balneário Arroio do Silva/SC,-28.9815269,-49.4189932,2136,15904.69099
D1,Balneário Arroio do Silva/SC,-28.9815269,-49.4189932,58,431.86895
1,Balneário Barra do Sul/SC,-26.459842,-48.6061471,1468,13303.12642
D1,Balneário Barra do Sul/SC,-26.459842,-48.6061471,44,398.73131
1,Balneário Camboriú/SC,-26.9924395,-48.6339782,25761,17669.20903
D1,Balneário Camboriú/SC,-26.9924395,-48.6339782,389,266.81116
1,Balneário Gaivota/SC,-29.1553098,-49.5808712,1343,11927.17584
D1,Balneário Gaivota/SC,-29.1553098,-49.5808712,38,337.47780
1,Balneário Pinhal/RS,-30.2482978,-50.234585,990,6892.71044
D1,Balneário Pinhal/RS,-30.2482978,-50.234585,49,341.15435
1,Balneário Piçarras/SC,-26.7638889,-48.6716667,5245,22063.77251
D1,Balneário Piçarras/SC,-26.7638889,-48.6716667,57,239.77789
1,Balneário Rincão/SC,-28.8235718,-49.2241642,1457,11254.44153
D1,Balneário Rincão/SC,-28.8235718,-49.2241642,52,401.66847
1,Balsa Nova/PR,-25.5842234,-49.6312741,1683,12855.17874
D1,Balsa Nova/PR,-25.5842234,-49.6312741,35,267.33883
1,Balsas/MA,-7.53214,-46.037163,11519,12007.83913
D1,Balsas/MA,-7.53214,-46.037163,200,208.48753
1,Bambuí/MG,-20.0131996,-45.9777034,1844,7716.12687
D1,Bambuí/MG,-20.0131996,-45.9777034,31,129.71797
1,Banabuiú/CE,-5.3046404,-38.919766,2320,12708.15074
D1,Banabuiú/CE,-5.3046404,-38.919766,22,120.50833
1,Bananal/SP,-22.6828195,-44.3221095,974,8860.18375
D1,Bananal/SP,-22.6828195,-44.3221095,3,27.29009
1,Bananeiras/PB,-6.7537682,-35.6338343,1520,7146.55132
D1,Bananeiras/PB,-6.7537682,-35.6338343,26,122.24364
1,Bandeira do Sul/MG,-21.728056,-46.385555,672,11630.32191
D1,Bandeira do Sul/MG,-21.728056,-46.385555,15,259.60540
1,Bandeira/MG,-15.884444,-40.559167,476,9987.41083
D1,Bandeira/MG,-15.884444,-40.559167,9,188.83760
1,Bandeirante/SC,-26.7677402,-53.6397596,422,15936.55589
D1,Bandeirante/SC,-26.7677402,-53.6397596,4,151.05740
1,Bandeirantes do Tocantins/TO,-7.7635698,-48.579148,512,14253.89755
D1,Bandeirantes do Tocantins/TO,-7.7635698,-48.579148,8,222.71715
1,Bandeirantes/MS,-19.9179623,-54.3646768,618,8505.36746
D1,Bandeirantes/MS,-19.9179623,-54.3646768,11,151.39004
1,Bandeirantes/PR,-23.107788,-50.370407,5289,16945.94854
D1,Bandeirantes/PR,-23.107788,-50.370407,140,448.55980
1,Bannach/PA,-7.3508505,-50.4064531,650,19926.42551
D1,Bannach/PA,-7.3508505,-50.4064531,3,91.96812
1,Banzaê/BA,-10.5827616,-38.6122305,1194,9018.12689
D1,Banzaê/BA,-10.5827616,-38.6122305,9,67.97583
1,Baraúna/PB,-6.643394,-36.2531932,695,14000.80580
D1,Baraúna/PB,-6.643394,-36.2531932,9,181.30540
1,Baraúna/RN,-5.0775002,-37.61752,1696,5899.74606
D1,Baraúna/RN,-5.0775002,-37.61752,29,100.88009
1,Barbacena/MG,-21.2254524,-43.7735087,8802,6368.84605
D1,Barbacena/MG,-21.2254524,-43.7735087,290,209.83474
1,Barbalha/CE,-7.3121067,-39.3036427,6947,11346.11616
D1,Barbalha/CE,-7.3121067,-39.3036427,163,266.21807
1,Barbosa Ferraz/PR,-24.0287182,-52.00811,1275,11158.76072
D1,Barbosa Ferraz/PR,-24.0287182,-52.00811,39,341.32680
1,Barbosa/SP,-21.265661,-49.951816,761,10190.14462
D1,Barbosa/SP,-21.265661,-49.951816,20,267.80932
1,Barcarena/PA,-1.5107945,-48.6190679,11668,9185.44876
D1,Barcarena/PA,-1.5107945,-48.6190679,232,182.63834
1,Barcelona/RN,-5.9514918,-35.9260284,159,3980.97146
D1,Barcelona/RN,-5.9514918,-35.9260284,6,150.22534
1,Barcelos/AM,-0.9729214,-62.925635,4470,16173.38447
D1,Barcelos/AM,-0.9729214,-62.925635,60,217.09241
1,Bariri/SP,-22.0746355,-48.7394852,3137,8822.20597
D1,Bariri/SP,-22.0746355,-48.7394852,130,365.59987
1,Barra Bonita/SC,-26.6526364,-53.4419581,194,11750.45427
D1,Barra Bonita/SC,-26.6526364,-53.4419581,2,121.13870
1,Barra Bonita/SP,-22.490859,-48.558349,3599,9962.35398
D1,Barra Bonita/SP,-22.490859,-48.558349,112,310.02602
1,Barra D'Alcântara/PI,-6.5209258,-42.1071089,153,3871.45749
D1,Barra D'Alcântara/PI,-6.5209258,-42.1071089,4,101.21457
1,Barra Funda/RS,-27.9230048,-53.0401045,613,24029.79224
D1,Barra Funda/RS,-27.9230048,-53.0401045,14,548.80439
1,Barra Longa/MG,-20.2833541,-43.0423516,417,8315.05484
D1,Barra Longa/MG,-20.2833541,-43.0423516,10,199.40179
1,Barra Mansa/RJ,-22.5394843,-44.1735129,16067,8692.71180
D1,Barra Mansa/RJ,-22.5394843,-44.1735129,638,345.17646
1,Barra Velha/SC,-26.6338203,-48.6835001,4690,15706.63094
D1,Barra Velha/SC,-26.6338203,-48.6835001,118,395.17749
1,Barra da Estiva/BA,-13.6269662,-41.3278287,2783,13647.50883
D1,Barra da Estiva/BA,-13.6269662,-41.3278287,32,156.92428
1,Barra de Guabiraba/PE,-8.4173522,-35.6626669,442,3046.17505
D1,Barra de Guabiraba/PE,-8.4173522,-35.6626669,16,110.26878
1,Barra de Santa Rosa/PB,-6.7218007,-36.0564638,1710,11034.39375
D1,Barra de Santa Rosa/PB,-6.7218007,-36.0564638,12,77.43434
1,Barra de Santana/PB,-7.5230865,-35.9988518,641,7677.56618
D1,Barra de Santana/PB,-7.5230865,-35.9988518,7,83.84238
1,Barra de Santo Antônio/AL,-9.4038098,-35.5117693,458,2850.38586
D1,Barra de Santo Antônio/AL,-9.4038098,-35.5117693,32,199.15360
1,Barra de São Francisco/ES,-18.7570902,-40.8916119,5019,11158.54065
D1,Barra de São Francisco/ES,-18.7570902,-40.8916119,206,457.99151
1,Barra de São Miguel/AL,-9.8261357,-35.8837777,630,7519.69444
D1,Barra de São Miguel/AL,-9.8261357,-35.8837777,8,95.48818
1,Barra de São Miguel/PB,-7.7528088,-36.3170996,635,10469.90932
D1,Barra de São Miguel/PB,-7.7528088,-36.3170996,7,115.41632
1,Barra do Bugres/MT,-15.0683712,-57.1853688,3582,10145.29697
D1,Barra do Bugres/MT,-15.0683712,-57.1853688,81,229.41626
1,Barra do Chapéu/SP,-24.472203,-49.023784,429,7447.91667
D1,Barra do Chapéu/SP,-24.472203,-49.023784,6,104.16667
1,Barra do Choça/BA,-14.8638173,-40.5761637,2261,7244.70505
D1,Barra do Choça/BA,-14.8638173,-40.5761637,34,108.94293
1,Barra do Corda/MA,-5.496823,-45.248496,5827,6584.77602
D1,Barra do Corda/MA,-5.496823,-45.248496,72,81.36329
1,Barra do Garças/MT,-15.8916033,-52.2615413,10346,16923.20275
D1,Barra do Garças/MT,-15.8916033,-52.2615413,352,575.77492
1,Barra do Guarita/RS,-27.1888016,-53.7147086,116,3561.55972
D1,Barra do Guarita/RS,-27.1888016,-53.7147086,8,245.62481
1,Barra do Jacaré/PR,-23.1151788,-50.1813945,258,9277.23840
D1,Barra do Jacaré/PR,-23.1151788,-50.1813945,7,251.70802
1,Barra do Mendes/BA,-11.8053298,-42.057037,814,5884.47914
D1,Barra do Mendes/BA,-11.8053298,-42.057037,15,108.43635
1,Barra do Ouro/TO,-7.7113784,-47.6743925,167,3605.35406
D1,Barra do Ouro/TO,-7.7113784,-47.6743925,7,151.12263
1,Barra do Piraí/RJ,-22.4703403,-43.8263256,6551,6501.32984
D1,Barra do Piraí/RJ,-22.4703403,-43.8263256,376,373.14914
1,Barra do Quaraí/RS,-30.208947,-57.5505128,507,11994.32221
D1,Barra do Quaraí/RS,-30.208947,-57.5505128,9,212.91696
1,Barra do Ribeiro/RS,-30.2930206,-51.301437,1109,8180.87932
D1,Barra do Ribeiro/RS,-30.2930206,-51.301437,50,368.84037
1,Barra do Rio Azul/RS,-27.4101581,-52.4117471,118,7129.90937
D1,Barra do Rio Azul/RS,-27.4101581,-52.4117471,1,60.42296
1,Barra do Rocha/BA,-14.2090974,-39.6004395,408,7270.13542
D1,Barra do Rocha/BA,-14.2090974,-39.6004395,7,124.73272
1,Barra do Turvo/SP,-24.756421,-48.5056942,626,8202.30608
D1,Barra do Turvo/SP,-24.756421,-48.5056942,18,235.84906
1,Barra dos Coqueiros/SE,-10.9075694,-37.0386249,7035,22744.90786
D1,Barra dos Coqueiros/SE,-10.9075694,-37.0386249,98,316.84449
1,Barra/BA,-11.0892702,-43.1420453,2225,4127.24912
D1,Barra/BA,-11.0892702,-43.1420453,57,105.73178
1,Barracão/PR,-26.252395,-53.6349576,1342,13013.96431
D1,Barracão/PR,-26.252395,-53.6349576,35,339.41040
1,Barracão/RS,-27.6728964,-51.4582928,514,9779.29985
D1,Barracão/RS,-27.6728964,-51.4582928,16,304.41400
1,Barras/PI,-4.2446153,-42.2920241,5164,10944.15598
D1,Barras/PI,-4.2446153,-42.2920241,94,199.21585
1,Barreira/CE,-4.2883361,-38.641094,1579,6995.08262
D1,Barreira/CE,-4.2883361,-38.641094,48,212.64342
1,Barreiras do Piauí/PI,-9.9224524,-45.4763776,106,3162.29117
D1,Barreiras do Piauí/PI,-9.9224524,-45.4763776,3,89.49881
1,Barreiras/BA,-12.1440031,-44.9967406,19595,12482.87944
D1,Barreiras/BA,-12.1440031,-44.9967406,321,204.49116
1,Barreirinha/AM,-2.798863,-57.067897,2437,7502.38586
D1,Barreirinha/AM,-2.798863,-57.067897,63,193.94760
1,Barreirinhas/MA,-2.7541271,-42.8259693,2533,4006.83360
D1,Barreirinhas/MA,-2.7541271,-42.8259693,44,69.60153
1,Barreiros/PE,-8.8159644,-35.1831905,795,1859.04031
D1,Barreiros/PE,-8.8159644,-35.1831905,64,149.65859
1,Barretos/SP,-20.5531437,-48.5697509,17140,13953.90490
D1,Barretos/SP,-20.5531437,-48.5697509,554,451.01886
1,Barrinha/SP,-21.1898849,-48.1550642,1681,5066.30500
D1,Barrinha/SP,-21.1898849,-48.1550642,71,213.98433
1,Barro Alto/BA,-11.7618025,-41.9094904,926,6151.18905
D1,Barro Alto/BA,-11.7618025,-41.9094904,13,86.35579
1,Barro Alto/GO,-14.9696025,-48.9190985,1452,12727.91024
D1,Barro Alto/GO,-14.9696025,-48.9190985,19,166.54979
1,Barro Duro/PI,-5.8180139,-42.5106589,703,10004.26925
D1,Barro Duro/PI,-5.8180139,-42.5106589,12,170.76989
1,Barro Preto/BA,-14.8068289,-39.4727588,621,11398.67841
D1,Barro Preto/BA,-14.8068289,-39.4727588,11,201.90896
1,Barro/CE,-7.1713587,-38.7742136,1749,7685.20960
D1,Barro/CE,-7.1713587,-38.7742136,45,197.73267
1,Barrocas/BA,-11.5165,-39.099282894736845,809,5023.28469
D1,Barrocas/BA,-11.5165,-39.099282894736845,24,149.02204
1,Barrolândia/TO,-9.837246,-48.7264346,785,13891.34666
D1,Barrolândia/TO,-9.837246,-48.7264346,20,353.91966
1,Barroquinha/CE,-3.0200371,-41.1339229,1311,8714.43765
D1,Barroquinha/CE,-3.0200371,-41.1339229,25,166.17921
1,Barros Cassal/RS,-29.094938,-52.5832366,793,7091.75461
D1,Barros Cassal/RS,-29.094938,-52.5832366,14,125.20122
1,Barroso/MG,-21.187222,-43.976111,2055,9833.94746
D1,Barroso/MG,-21.187222,-43.976111,57,272.76643
1,Barueri/SP,-23.5112184,-46.8764612,32137,11602.55901
D1,Barueri/SP,-23.5112184,-46.8764612,1110,400.74806
1,Barão de Antonina/SP,-23.6295651,-49.5632104,488,13950.82905
D1,Barão de Antonina/SP,-23.6295651,-49.5632104,10,285.87764
1,Barão de Cocais/MG,-19.9452437,-43.4870298,4234,12882.61425
D1,Barão de Cocais/MG,-19.9452437,-43.4870298,69,209.94341
1,Barão de Cotegipe/RS,-27.6214694,-52.3765316,795,12009.06344
D1,Barão de Cotegipe/RS,-27.6214694,-52.3765316,10,151.05740
1,Barão de Grajaú/MA,-6.7542591,-43.0263477,477,2520.60875
D1,Barão de Grajaú/MA,-6.7542591,-43.0263477,2,10.56859
1,Barão de Melgaço/MT,-16.195776,-55.9668049,436,5340.51935
D1,Barão de Melgaço/MT,-16.195776,-55.9668049,15,183.73346
1,Barão de Monte Alto/MG,-21.244722,-42.2375,342,6387.74748
D1,Barão de Monte Alto/MG,-21.244722,-42.2375,12,224.13149
1,Barão do Triunfo/RS,-30.3909877,-51.7375349,481,6397.12728
D1,Barão do Triunfo/RS,-30.3909877,-51.7375349,6,79.79785
1,Barão/RS,-29.372474,-51.494908,714,11512.41535
D1,Barão/RS,-29.372474,-51.494908,11,177.36214
1,Bastos/SP,-21.9222474,-50.7317727,2029,9683.57753
D1,Bastos/SP,-21.9222474,-50.7317727,44,209.99380
1,Bataguassu/MS,-21.715899,-52.422058,3491,14966.77385
D1,Bataguassu/MS,-21.715899,-52.422058,48,205.78778
1,Batalha/AL,-9.6733809,-37.1265481,1131,6167.52099
D1,Batalha/AL,-9.6733809,-37.1265481,19,103.60999
1,Batalha/PI,-4.022391,-42.0780926,1262,4690.57796
D1,Batalha/PI,-4.022391,-42.0780926,34,126.37056
1,Batatais/SP,-20.892867,-47.592149,5732,9101.30200
D1,Batatais/SP,-20.892867,-47.592149,167,265.16354
1,Batayporã/MS,-22.2976466,-53.2685608,1084,9551.50234
D1,Batayporã/MS,-22.2976466,-53.2685608,26,229.09507
1,Baturité/CE,-4.3290203,-38.8821055,4184,11641.30102
D1,Baturité/CE,-4.3290203,-38.8821055,84,233.71637
1,Bauru/SP,-22.3218102,-49.0705863,51498,13577.22313
D1,Bauru/SP,-22.3218102,-49.0705863,1208,318.48393
1,Bayeux/PB,-7.1301631,-34.936532,8116,8349.53654
D1,Bayeux/PB,-7.1301631,-34.936532,249,256.16493
1,Baía Formosa/RN,-6.3691885,-35.0063741,514,5513.83823
D1,Baía Formosa/RN,-6.3691885,-35.0063741,9,96.54581
1,Baía da Traição/PB,-6.691258,-34.9371244,1306,14357.95954
D1,Baía da Traição/PB,-6.691258,-34.9371244,12,131.92612
1,Bebedouro/SP,-20.949077,-48.479083,4184,5394.88105
D1,Bebedouro/SP,-20.949077,-48.479083,162,208.88402
1,Beberibe/CE,-4.1810469,-38.1298101,5600,10380.17387
D1,Beberibe/CE,-4.1810469,-38.1298101,120,222.43230
1,Bela Cruz/CE,-3.0529129,-40.167582,3499,10693.11167
D1,Bela Cruz/CE,-3.0529129,-40.167582,70,213.92335
1,Bela Vista da Caroba/PR,-25.8792818,-53.6672545,191,5525.02170
D1,Bela Vista da Caroba/PR,-25.8792818,-53.6672545,7,202.48771
1,Bela Vista de Goiás/GO,-16.9692949,-48.9513071,2932,9615.63689
D1,Bela Vista de Goiás/GO,-16.9692949,-48.9513071,79,259.08435
1,Bela Vista de Minas/MG,-19.8289721,-43.0973688,892,8692.26272
D1,Bela Vista de Minas/MG,-19.8289721,-43.0973688,24,233.87254
1,Bela Vista do Maranhão/MA,-3.7416367,-45.2514192,223,1977.12563
D1,Bela Vista do Maranhão/MA,-3.7416367,-45.2514192,19,168.45465
1,Bela Vista do Paraíso/PR,-22.9948493,-51.1907996,1873,12163.12748
D1,Bela Vista do Paraíso/PR,-22.9948493,-51.1907996,67,435.09319
1,Bela Vista do Piauí/PI,-7.9716353,-41.8715061,266,6600.49628
D1,Bela Vista do Piauí/PI,-7.9716353,-41.8715061,6,148.88337
1,Bela Vista do Toldo/SC,-26.274625,-50.466354,81,1273.18453
D1,Bela Vista do Toldo/SC,-26.274625,-50.466354,3,47.15498
1,Bela Vista/MS,-22.107327,-56.5317344,1070,4325.85405
D1,Bela Vista/MS,-22.107327,-56.5317344,31,125.32848
1,Belford Roxo/RJ,-22.7667284,-43.4033603,21571,4203.90631
D1,Belford Roxo/RJ,-22.7667284,-43.4033603,813,158.44309
1,Belmiro Braga/MG,-21.9486291,-43.413564,210,6131.38686
D1,Belmiro Braga/MG,-21.9486291,-43.413564,3,87.59124
1,Belmonte/BA,-15.8630837,-38.8792845,1188,5068.90814
D1,Belmonte/BA,-15.8630837,-38.8792845,24,102.40218
1,Belmonte/SC,-26.8448262,-53.578916,333,12292.35880
D1,Belmonte/SC,-26.8448262,-53.578916,5,184.56995
1,Belo Campo/BA,-15.0338286,-41.2585109,978,5716.28967
D1,Belo Campo/BA,-15.0338286,-41.2585109,18,105.20779
1,Belo Horizonte/MG,-19.9227318,-43.9450948,264962,10507.84354
D1,Belo Horizonte/MG,-19.9227318,-43.9450948,6363,252.34339
1,Belo Jardim/PE,-8.3338293,-36.4176419,4325,5639.80857
D1,Belo Jardim/PE,-8.3338293,-36.4176419,128,166.91225
1,Belo Monte/AL,-9.8269944,-37.2787165,550,8196.72131
D1,Belo Monte/AL,-9.8269944,-37.2787165,9,134.12817
1,Belo Oriente/MG,-19.2232523,-42.4807033,2707,10028.15440
D1,Belo Oriente/MG,-19.2232523,-42.4807033,68,251.90783
1,Belo Vale/MG,-20.407778,-44.024167,1028,13317.78728
D1,Belo Vale/MG,-20.407778,-44.024167,12,155.46055
1,Belterra/PA,-2.636091,-54.937392,1644,9215.76322
D1,Belterra/PA,-2.636091,-54.937392,28,156.95947
1,Belágua/MA,-3.1604031,-43.5085052,413,5486.18491
D1,Belágua/MA,-3.1604031,-43.5085052,4,53.13496
1,Belém de Maria/PE,-8.6242497,-35.8388934,301,2483.08860
D1,Belém de Maria/PE,-8.6242497,-35.8388934,6,49.49678
1,Belém do Brejo do Cruz/PB,-6.1880727,-37.5332267,533,7252.68744
D1,Belém do Brejo do Cruz/PB,-6.1880727,-37.5332267,5,68.03647
1,Belém do Piauí/PI,-7.3767305,-40.9712156,484,13493.16978
D1,Belém do Piauí/PI,-7.3767305,-40.9712156,7,195.14915
1,Belém do São Francisco/PE,-8.7517707,-38.9625715,997,4809.45490
D1,Belém do São Francisco/PE,-8.7517707,-38.9625715,11,53.06319
1,Belém/AL,-9.5715351,-36.492841,125,2917.83380
D1,Belém/AL,-9.5715351,-36.492841,7,163.39869
1,Belém/PA,-1.45056,-48.4682453,105403,7028.54883
D1,Belém/PA,-1.45056,-48.4682453,5057,337.21404
1,Belém/PB,-6.6967586,-35.5369626,2379,13436.88224
D1,Belém/PB,-6.6967586,-35.5369626,45,254.16549
1,Beneditinos/PI,-5.4565671,-42.3605061,1293,12346.03266
D1,Beneditinos/PI,-5.4565671,-42.3605061,38,362.83777
1,Benedito Leite/MA,-7.2173453,-44.5523331,315,5587.08762
D1,Benedito Leite/MA,-7.2173453,-44.5523331,2,35.47357
1,Benedito Novo/SC,-26.7840657,-49.3629511,1067,9061.57113
D1,Benedito Novo/SC,-26.7840657,-49.3629511,19,161.35881
1,Benevides/PA,-1.3555577,-48.252235,4068,6379.37524
D1,Benevides/PA,-1.3555577,-48.252235,104,163.09121
1,Benjamin Constant do Sul/RS,-27.5105555,-52.6007689,174,8886.61900
1,Benjamin Constant/AM,-4.3782748,-70.0290603,2711,6170.47912
D1,Benjamin Constant/AM,-4.3782748,-70.0290603,87,198.01980
1,Bento Fernandes/RN,-5.6926846,-35.8207423,179,3239.81900
D1,Bento Fernandes/RN,-5.6926846,-35.8207423,3,54.29864
1,Bento Gonçalves/RS,-29.1654014,-51.5197627,20627,16934.72246
D1,Bento Gonçalves/RS,-29.1654014,-51.5197627,371,304.59020
1,Bento de Abreu/SP,-21.2707225,-50.8120444,363,12079.86689
D1,Bento de Abreu/SP,-21.2707225,-50.8120444,5,166.38935
1,Bequimão/MA,-2.4495376,-44.7884889,281,1319.31077
D1,Bequimão/MA,-2.4495376,-44.7884889,22,103.29123
1,Berilo/MG,-16.9515764,-42.4643732,153,1288.74663
D1,Berilo/MG,-16.9515764,-42.4643732,1,8.42318
1,Berizal/MG,-15.6118785,-41.7417382,244,5121.74643
D1,Berizal/MG,-15.6118785,-41.7417382,1,20.99076
1,Bernardino Batista/PB,-6.4532173,-38.5495418,291,8229.63801
D1,Bernardino Batista/PB,-6.4532173,-38.5495418,1,28.28054
1,Bernardino de Campos/SP,-23.0140216,-49.4760724,852,7635.77702
D1,Bernardino de Campos/SP,-23.0140216,-49.4760724,31,277.82757
1,Bernardo Sayão/TO,-7.8794244,-48.8968905,638,14343.52518
D1,Bernardo Sayão/TO,-7.8794244,-48.8968905,13,292.26619
1,Bernardo do Mearim/MA,-4.6315929,-44.7617508,299,4923.43158
D1,Bernardo do Mearim/MA,-4.6315929,-44.7617508,6,98.79796
1,Bertioga/SP,-23.848568,-46.139586,5894,9106.50001
D1,Bertioga/SP,-23.848568,-46.139586,161,248.75238
1,Bertolínia/PI,-7.6372159,-43.9540611,887,16106.77320
D1,Bertolínia/PI,-7.6372159,-43.9540611,11,199.74578
1,Bertópolis/MG,-17.063333,-40.573889,484,10505.75212
D1,Bertópolis/MG,-17.063333,-40.573889,3,65.11830
1,Beruri/AM,-3.9007135,-61.3717319,2294,11416.91136
D1,Beruri/AM,-3.9007135,-61.3717319,34,169.21316
1,Betim/MG,-19.968056,-44.198333,31146,7002.50009
D1,Betim/MG,-19.968056,-44.198333,1311,294.74981
1,Betânia do Piauí/PI,-8.1460635,-40.7961387,173,2785.82931
D1,Betânia do Piauí/PI,-8.1460635,-40.7961387,2,32.20612
1,Betânia/PE,-8.2742779,-38.0351767,510,3995.29965
D1,Betânia/PE,-8.2742779,-38.0351767,17,133.17665
1,Bezerros/PE,-8.2372132,-35.7558262,3875,6364.98029
D1,Bezerros/PE,-8.2372132,-35.7558262,127,208.60710
1,Bias Fortes/MG,-21.605833,-43.756944,114,3424.45179
D1,Bias Fortes/MG,-21.605833,-43.756944,3,90.11715
1,Bicas/MG,-21.7213723,-43.0604327,1450,9962.89680
D1,Bicas/MG,-21.7213723,-43.0604327,44,302.32239
1,Biguaçu/SC,-27.4961277,-48.6542432,11291,16249.31641
D1,Biguaçu/SC,-27.4961277,-48.6542432,167,240.33618
1,Bilac/SP,-21.403962,-50.47464,925,11395.83590
D1,Bilac/SP,-21.403962,-50.47464,18,221.75681
1,Biquinhas/MG,-18.783611,-45.502222,136,5444.35548
D1,Biquinhas/MG,-18.783611,-45.502222,3,120.09608
1,Birigui/SP,-21.2908491,-50.34144,17099,13692.01573
D1,Birigui/SP,-21.2908491,-50.34144,574,459.63021
1,Biritiba Mirim/SP,-23.5697765,-46.0407456,1478,4487.49089
D1,Biritiba Mirim/SP,-23.5697765,-46.0407456,100,303.61914
1,Biritinga/BA,-11.6227908,-38.8066738,596,3728.72873
D1,Biritinga/BA,-11.6227908,-38.8066738,7,43.79379
1,Bituruna/PR,-26.161281,-51.5533319,1370,8353.65854
D1,Bituruna/PR,-26.161281,-51.5533319,19,115.85366
1,Blumenau/SC,-26.9195567,-49.0658025,56346,15571.43055
D1,Blumenau/SC,-26.9195567,-49.0658025,627,173.27383
1,Boa Esperança do Iguaçu/PR,-25.6362851,-53.2139114,187,7570.85020
1,Boa Esperança do Sul/SP,-21.9930206,-48.3917372,1709,11379.67772
D1,Boa Esperança do Sul/SP,-21.9930206,-48.3917372,21,139.83220
1,Boa Esperança/ES,-18.5395472,-40.2904088,1674,11091.96926
D1,Boa Esperança/ES,-18.5395472,-40.2904088,45,298.17122
1,Boa Esperança/MG,-21.0901253,-45.5660195,4838,12029.14046
D1,Boa Esperança/MG,-21.0901253,-45.5660195,141,350.58057
1,Boa Esperança/PR,-24.2411024,-52.7860277,463,11440.57326
D1,Boa Esperança/PR,-24.2411024,-52.7860277,17,420.06425
1,Boa Hora/PI,-4.4094627,-42.1255341,584,8569.33236
D1,Boa Hora/PI,-4.4094627,-42.1255341,7,102.71460
1,Boa Nova/BA,-14.365907,-40.2063056,1021,8281.28802
D1,Boa Nova/BA,-14.365907,-40.2063056,19,154.10820
1,Boa Ventura de São Roque/PR,-24.88177,-51.5441292,548,8609.58366
D1,Boa Ventura de São Roque/PR,-24.88177,-51.5441292,8,125.68735
1,Boa Ventura/PB,-7.4202462,-38.2156782,764,14396.08065
D1,Boa Ventura/PB,-7.4202462,-38.2156782,12,226.11645
1,Boa Viagem/CE,-5.1261877,-39.7300055,4270,7823.80856
D1,Boa Viagem/CE,-5.1261877,-39.7300055,110,201.55010
1,Boa Vista da Aparecida/PR,-25.4357216,-53.4067721,1058,14031.83024
D1,Boa Vista da Aparecida/PR,-25.4357216,-53.4067721,34,450.92838
1,Boa Vista das Missões/RS,-27.6677983,-53.3127622,256,12237.09369
D1,Boa Vista das Missões/RS,-27.6677983,-53.3127622,7,334.60803
1,Boa Vista do Buricá/RS,-27.6687782,-54.1111913,898,13379.02265
D1,Boa Vista do Buricá/RS,-27.6687782,-54.1111913,11,163.88558
1,Boa Vista do Cadeado/RS,-28.5783827,-53.8123759,210,8508.91410
D1,Boa Vista do Cadeado/RS,-28.5783827,-53.8123759,4,162.07455
1,Boa Vista do Gurupi/MA,-1.7981168,-46.3071882,15,178.95490
D1,Boa Vista do Gurupi/MA,-1.7981168,-46.3071882,4,47.72131
1,Boa Vista do Incra/RS,-28.8195551,-53.3866624,310,11850.15291
D1,Boa Vista do Incra/RS,-28.8195551,-53.3866624,4,152.90520
1,Boa Vista do Ramos/AM,-2.9716927,-57.5869819,981,4998.47142
D1,Boa Vista do Ramos/AM,-2.9716927,-57.5869819,12,61.14338
1,Boa Vista do Sul/RS,-29.3510488,-51.6779679,320,11519.07847
D1,Boa Vista do Sul/RS,-29.3510488,-51.6779679,4,143.98848
1,Boa Vista do Tupim/BA,-12.6605988,-40.6083594,289,1559.54886
D1,Boa Vista do Tupim/BA,-12.6605988,-40.6083594,10,53.96363
1,Boa Vista/PB,-7.2620711,-36.2415161,840,11771.30045
D1,Boa Vista/PB,-7.2620711,-36.2415161,15,210.20179
1,Boa Vista/RR,2.8208478,-60.6719582,93942,22385.69100
D1,Boa Vista/RR,2.8208478,-60.6719582,1458,347.43073
1,Boca da Mata/AL,-9.6452054,-36.2116658,1866,6821.17269
D1,Boca da Mata/AL,-9.6452054,-36.2116658,45,164.49773
1,Boca do Acre/AM,-8.7553487,-67.3930873,2669,7706.07767
D1,Boca do Acre/AM,-8.7553487,-67.3930873,27,77.95583
1,Bocaina de Minas/MG,-22.167778,-44.394722,187,3674.59226
D1,Bocaina de Minas/MG,-22.167778,-44.394722,7,137.55158
1,Bocaina do Sul/SC,-27.745494,-49.942279,391,11209.86239
D1,Bocaina do Sul/SC,-27.745494,-49.942279,3,86.00917
1,Bocaina/PI,-6.9445939,-41.3224599,363,8057.71365
D1,Bocaina/PI,-6.9445939,-41.3224599,8,177.58047
1,Bocaina/SP,-22.1421831,-48.522276,1345,10801.47767
D1,Bocaina/SP,-22.1421831,-48.522276,35,281.07934
1,Bocaiúva do Sul/PR,-25.206591,-49.114131,2076,15812.32386
D1,Bocaiúva do Sul/PR,-25.206591,-49.114131,24,182.80143
1,Bocaiúva/MG,-17.1160208,-43.8122678,2590,5153.61350
D1,Bocaiúva/MG,-17.1160208,-43.8122678,67,133.31741
1,Bodocó/PE,-7.777592,-39.933797,2153,5609.98489
D1,Bodocó/PE,-7.777592,-39.933797,41,106.83204
1,Bodoquena/MS,-20.5508775,-56.6769653,576,7348.81347
D1,Bodoquena/MS,-20.5508775,-56.6769653,18,229.65042
1,Bodó/RN,-5.9866104,-36.4134824,192,8739.18980
D1,Bodó/RN,-5.9866104,-36.4134824,1,45.51661
1,Bofete/SP,-23.1019554,-48.2610535,937,7860.07885
D1,Bofete/SP,-23.1019554,-48.2610535,22,184.54828
1,Boituva/SP,-23.2838893,-47.6738231,6433,10347.43445
D1,Boituva/SP,-23.2838893,-47.6738231,183,294.35419
1,Bom Conselho/PE,-9.169191,-36.685683,2274,4662.98932
D1,Bom Conselho/PE,-9.169191,-36.685683,69,141.48912
1,Bom Despacho/MG,-19.7375242,-45.2517288,5324,10433.48750
D1,Bom Despacho/MG,-19.7375242,-45.2517288,92,180.29317
1,Bom Jardim da Serra/SC,-28.3380324,-49.625588,691,14480.30176
D1,Bom Jardim da Serra/SC,-28.3380324,-49.625588,6,125.73345
1,Bom Jardim de Goiás/GO,-16.2062659,-52.172793,1074,12109.59522
D1,Bom Jardim de Goiás/GO,-16.2062659,-52.172793,16,180.40365
1,Bom Jardim de Minas/MG,-21.9476466,-44.1906033,493,7632.76049
D1,Bom Jardim de Minas/MG,-21.9476466,-44.1906033,3,46.44682
1,Bom Jardim/MA,-3.54129,-45.606004,1449,3464.68366
D1,Bom Jardim/MA,-3.54129,-45.606004,54,129.11865
1,Bom Jardim/PE,-7.7961572,-35.5871696,1765,4414.37611
D1,Bom Jardim/PE,-7.7961572,-35.5871696,70,175.07441
1,Bom Jardim/RJ,-22.1515328,-42.4186683,1891,6847.47972
D1,Bom Jardim/RJ,-22.1515328,-42.4186683,46,166.57010
1,Bom Jesus da Lapa/BA,-13.250571,-43.410754,6100,8756.56743
D1,Bom Jesus da Lapa/BA,-13.250571,-43.410754,94,134.93727
1,Bom Jesus da Penha/MG,-21.0165299,-46.5226644,668,15739.86805
D1,Bom Jesus da Penha/MG,-21.0165299,-46.5226644,17,400.56550
1,Bom Jesus da Serra/BA,-14.3724084,-40.5047119,484,4927.21165
D1,Bom Jesus da Serra/BA,-14.3724084,-40.5047119,9,91.62170
1,Bom Jesus das Selvas/MA,-4.4878075,-46.8526639,3504,10136.83571
D1,Bom Jesus das Selvas/MA,-4.4878075,-46.8526639,27,78.10918
1,Bom Jesus de Goiás/GO,-18.2174587,-49.739721,2990,11657.82907
D1,Bom Jesus de Goiás/GO,-18.2174587,-49.739721,113,440.58016
1,Bom Jesus do Amparo/MG,-19.7045132,-43.4752911,269,4386.10794
D1,Bom Jesus do Amparo/MG,-19.7045132,-43.4752911,7,114.13664
1,Bom Jesus do Araguaia/MT,-12.1725897,-51.5074425,1096,16343.57292
D1,Bom Jesus do Araguaia/MT,-12.1725897,-51.5074425,17,253.50432
1,Bom Jesus do Galho/MG,-19.8283191,-42.3162256,796,5355.94133
D1,Bom Jesus do Galho/MG,-19.8283191,-42.3162256,34,228.77136
1,Bom Jesus do Itabapoana/RJ,-21.1341025,-41.680095,3841,10324.43620
D1,Bom Jesus do Itabapoana/RJ,-21.1341025,-41.680095,98,263.41962
1,Bom Jesus do Norte/ES,-21.1254776,-41.6711646,1138,11423.40895
D1,Bom Jesus do Norte/ES,-21.1254776,-41.6711646,29,291.10620
1,Bom Jesus do Oeste/SC,-26.6929713,-53.0967453,182,8508.64890
D1,Bom Jesus do Oeste/SC,-26.6929713,-53.0967453,6,280.50491
1,Bom Jesus do Sul/PR,-26.1922507,-53.6002033,504,14375.35653
D1,Bom Jesus do Sul/PR,-26.1922507,-53.6002033,6,171.13520
1,Bom Jesus do Tocantins/PA,-5.0471796,-48.5978362,772,4509.87265
D1,Bom Jesus do Tocantins/PA,-5.0471796,-48.5978362,25,146.04510
1,Bom Jesus do Tocantins/TO,-8.96306,-48.165043,164,3274.76038
D1,Bom Jesus do Tocantins/TO,-8.96306,-48.165043,3,59.90415
1,Bom Jesus dos Perdões/SP,-23.1353864,-46.4648052,2322,8935.92457
D1,Bom Jesus dos Perdões/SP,-23.1353864,-46.4648052,26,100.05773
1,Bom Jesus/PB,-6.8156725,-38.6551841,191,7417.47573
D1,Bom Jesus/PB,-6.8156725,-38.6551841,3,116.50485
1,Bom Jesus/PI,-9.0711644,-44.3583926,3767,14838.30307
D1,Bom Jesus/PI,-9.0711644,-44.3583926,45,177.25608
1,Bom Jesus/RN,-5.9887544,-35.5821149,983,9574.36447
D1,Bom Jesus/RN,-5.9887544,-35.5821149,18,175.31898
1,Bom Jesus/RS,-28.6692723,-50.4346894,1009,8922.09744
D1,Bom Jesus/RS,-28.6692723,-50.4346894,23,203.37784
1,Bom Jesus/SC,-26.7350604,-52.3916519,461,15080.14393
D1,Bom Jesus/SC,-26.7350604,-52.3916519,9,294.40628
1,Bom Lugar/MA,-4.3728019,-45.0366054,526,3199.90266
D1,Bom Lugar/MA,-4.3728019,-45.0366054,7,42.58426
1,Bom Princípio do Piauí/PI,-3.1912777,-41.6430185,139,2459.74164
D1,Bom Princípio do Piauí/PI,-3.1912777,-41.6430185,13,230.04778
1,Bom Princípio/RS,-29.489788,-51.3566782,2124,14900.03508
D1,Bom Princípio/RS,-29.489788,-51.3566782,30,210.45247
1,Bom Progresso/RS,-27.5490948,-53.8655601,189,9952.60664
D1,Bom Progresso/RS,-27.5490948,-53.8655601,3,157.97788
1,Bom Repouso/MG,-22.4657069,-46.1485376,1131,10733.60539
D1,Bom Repouso/MG,-22.4657069,-46.1485376,24,227.76881
1,Bom Retiro do Sul/RS,-29.6000007,-51.9359243,1060,8555.28652
D1,Bom Retiro do Sul/RS,-29.6000007,-51.9359243,35,282.48588
1,Bom Retiro/SC,-27.798993,-49.486994,892,8866.79920
D1,Bom Retiro/SC,-27.798993,-49.486994,20,198.80716
1,Bom Sucesso de Itararé/SP,-24.3190016,-49.1446207,244,6124.49799
D1,Bom Sucesso de Itararé/SP,-24.3190016,-49.1446207,6,150.60241
1,Bom Sucesso do Sul/PR,-26.0749256,-52.8348629,529,16256.91457
D1,Bom Sucesso do Sul/PR,-26.0749256,-52.8348629,9,276.58267
1,Bom Sucesso/MG,-21.0323516,-44.7598082,1188,6747.31641
D1,Bom Sucesso/MG,-21.0323516,-44.7598082,22,124.95030
1,Bom Sucesso/PB,-6.4458948,-37.9297662,502,10129.13640
D1,Bom Sucesso/PB,-6.4458948,-37.9297662,4,80.71025
1,Bom Sucesso/PR,-23.7088019,-51.7651297,1290,18251.27334
D1,Bom Sucesso/PR,-23.7088019,-51.7651297,20,282.96548
1,Bombinhas/SC,-27.1519159,-48.4875691,3558,17496.92648
D1,Bombinhas/SC,-27.1519159,-48.4875691,61,299.97541
1,Bonfim do Piauí/PI,-9.1648678,-42.8734415,475,8355.32102
D1,Bonfim do Piauí/PI,-9.1648678,-42.8734415,8,140.72120
1,Bonfim/MG,-20.3266626, -44.2386157,474,6909.62099
D1,Bonfim/MG,-20.3266626, -44.2386157,16,233.23615
1,Bonfim/RR,3.3613818,-59.8427241,2444,19463.24759
D1,Bonfim/RR,3.3613818,-59.8427241,33,262.80162
1,Bonfinópolis de Minas/MG,-16.5660011,-45.98645,567,10415.13593
D1,Bonfinópolis de Minas/MG,-16.5660011,-45.98645,14,257.16385
1,Bonfinópolis/GO,-16.6172709,-48.9615701,495,4990.42242
D1,Bonfinópolis/GO,-16.6172709,-48.9615701,30,302.44984
1,Boninal/BA,-12.7095183,-41.8299984,668,4624.11740
D1,Boninal/BA,-12.7095183,-41.8299984,7,48.45632
1,Bonito de Minas/MG,-15.3191266,-44.7544,105,923.56408
1,Bonito de Santa Fé/PB,-7.3143332,-38.5146677,555,4616.53635
D1,Bonito de Santa Fé/PB,-7.3143332,-38.5146677,14,116.45317
1,Bonito/BA,-11.9665473,-41.2649896,875,5182.42123
D1,Bonito/BA,-11.9665473,-41.2649896,14,82.91874
1,Bonito/MS,-21.1264766,-56.4902208,3143,14164.03785
D1,Bonito/MS,-21.1264766,-56.4902208,69,310.95088
1,Bonito/PA,-1.3605722,-47.3049907,402,2431.94192
D1,Bonito/PA,-1.3605722,-47.3049907,15,90.74410
1,Bonito/PE,-8.4721161,-35.7314591,1042,2733.68838
D1,Bonito/PE,-8.4721161,-35.7314591,43,112.81056
1,Bonópolis/GO,-13.649331,-49.8329113,256,5697.75206
D1,Bonópolis/GO,-13.649331,-49.8329113,3,66.77053
1,Boqueirão do Leão/RS,-29.30332,-52.4296817,615,7984.93898
D1,Boqueirão do Leão/RS,-29.30332,-52.4296817,32,415.47650
1,Boqueirão do Piauí/PI,-4.4850148,-42.1095161,779,12122.62683
D1,Boqueirão do Piauí/PI,-4.4850148,-42.1095161,10,155.61780
1,Boqueirão/PB,-7.487004,-36.130887,2266,12680.47006
D1,Boqueirão/PB,-7.487004,-36.130887,40,223.83884
1,Boquim/SE,-11.1450175,-37.6204228,2693,10011.52459
D1,Boquim/SE,-11.1450175,-37.6204228,66,245.36228
1,Boquira/BA,-12.8184859,-42.7270883,861,4005.21003
D1,Boquira/BA,-12.8184859,-42.7270883,19,88.38443
1,Boracéia/SP,-22.195355,-48.7801925,972,19967.13229
D1,Boracéia/SP,-22.195355,-48.7801925,23,472.47329
1,Borba/AM,-4.3934778,-59.5947721,2461,5894.89317
D1,Borba/AM,-4.3934778,-59.5947721,69,165.27738
1,Borborema/PB,-6.8066718,-35.5990191,386,7300.92680
D1,Borborema/PB,-6.8066718,-35.5990191,13,245.88614
1,Borborema/SP,-21.6212706,-49.074135,1701,10523.38530
D1,Borborema/SP,-21.6212706,-49.074135,52,321.70255
1,Borda da Mata/MG,-22.274167,-46.165278,1913,9753.23748
D1,Borda da Mata/MG,-22.274167,-46.165278,55,280.41195
1,Borebi/SP,-22.5700178,-48.9714871,278,10361.53559
D1,Borebi/SP,-22.5700178,-48.9714871,4,149.08684
1,Borrazópolis/PR,-23.9393362,-51.5850786,859,13340.58084
D1,Borrazópolis/PR,-23.9393362,-51.5850786,27,419.31977
1,Borá/SP,-22.2701088,-50.544407,127,15155.13126
D1,Borá/SP,-22.2701088,-50.544407,1,119.33174
1,Bossoroca/RS,-28.7278885,-54.9120278,473,7622.88477
D1,Bossoroca/RS,-28.7278885,-54.9120278,22,354.55278
1,Botelhos/MG,-21.65,-46.394722,1804,12067.69684
D1,Botelhos/MG,-21.65,-46.394722,30,200.68232
1,Botucatu/SP,-22.8879628,-48.4410712,18013,12160.26463
D1,Botucatu/SP,-22.8879628,-48.4410712,297,200.49956
1,Botumirim/MG,-16.862778,-43.011111,237,3769.08397
D1,Botumirim/MG,-16.862778,-43.011111,4,63.61323
1,Botuporã/BA,-13.3744752,-42.5198469,431,4255.10909
D1,Botuporã/BA,-13.3744752,-42.5198469,5,49.36321
1,Botuverá/SC,-27.200749,-49.068892,928,17437.05374
D1,Botuverá/SC,-27.200749,-49.068892,10,187.89929
1,Bozano/RS,-28.3669953,-53.7705165,268,12695.40502
D1,Bozano/RS,-28.3669953,-53.7705165,8,378.96731
1,Braga/RS,-27.617348,-53.740514,429,12956.81063
D1,Braga/RS,-27.617348,-53.740514,9,271.82120
1,Braganey/PR,-24.8179919,-53.118506,552,10256.41026
D1,Braganey/PR,-24.8179919,-53.118506,7,130.06317
1,Bragança Paulista/SP,-22.9520235,-46.5418586,20445,11988.88192
D1,Bragança Paulista/SP,-22.9520235,-46.5418586,546,320.17264
1,Bragança/PA,-1.0573967,-46.7635406,4201,3258.76166
D1,Bragança/PA,-1.0573967,-46.7635406,171,132.64657
1,Branquinha/AL,-9.2478057,-36.0152009,656,6271.51052
D1,Branquinha/AL,-9.2478057,-36.0152009,12,114.72275
1,Brasil Novo/PA,-3.3055853,-52.539198,2007,13395.18121
D1,Brasil Novo/PA,-3.3055853,-52.539198,43,286.99192
1,Brasileira/PI,-4.131182,-41.7824969,636,7619.50401
D1,Brasileira/PI,-4.131182,-41.7824969,16,191.68564
1,Brasilândia de Minas/MG,-17.0096469,-46.0087183,1500,8956.29329
D1,Brasilândia de Minas/MG,-17.0096469,-46.0087183,25,149.27155
1,Brasilândia do Sul/PR,-24.1975793,-53.527551,406,15705.99613
D1,Brasilândia do Sul/PR,-24.1975793,-53.527551,9,348.16248
1,Brasilândia do Tocantins/TO,-8.3886619,-48.4842729,247,11171.41565
D1,Brasilândia do Tocantins/TO,-8.3886619,-48.4842729,6,271.37042
1,Brasilândia/MS,-21.255575,-52.0365617,1268,10697.71366
D1,Brasilândia/MS,-21.255575,-52.0365617,25,210.91707
1,Brasiléia/AC,-11.0010413,-68.7487894,2975,11141.48753
D1,Brasiléia/AC,-11.0010413,-68.7487894,42,157.29159
1,Brasnorte/MT,-12.1227151,-58.0050109,2106,10456.80238
D1,Brasnorte/MT,-12.1227151,-58.0050109,39,193.64449
1,Brasília de Minas/MG,-16.2075114,-44.430559,1380,4258.60207
D1,Brasília de Minas/MG,-16.2075114,-44.430559,9,27.77349
1,Brasília/DF,-15.7934036,-47.8823172,458052,14992.78759
D1,Brasília/DF,-15.7934036,-47.8823172,9792,320.50810
1,Brazabrantes/GO,-16.4291635,-49.3858216,528,14095.03470
D1,Brazabrantes/GO,-16.4291635,-49.3858216,3,80.08542
1,Brazópolis/MG,-22.4742842,-45.6165577,897,6224.84386
D1,Brazópolis/MG,-22.4742842,-45.6165577,33,229.00763
1,Braço do Norte/SC,-28.2728633,-49.1622712,8518,25144.64518
D1,Braço do Norte/SC,-28.2728633,-49.1622712,108,318.80978
1,Braço do Trombudo/SC,-27.358578,-49.882145,723,19182.80711
D1,Braço do Trombudo/SC,-27.358578,-49.882145,7,185.72566
1,Braúna/SP,-21.5015319,-50.3175246,616,10729.83801
D1,Braúna/SP,-21.5015319,-50.3175246,24,418.04564
1,Braúnas/MG,-19.055556,-42.716111,252,5284.12665
D1,Braúnas/MG,-19.055556,-42.716111,10,209.68757
1,Brejetuba/ES,-20.1465817,-41.2902303,1702,13695.98455
D1,Brejetuba/ES,-20.1465817,-41.2902303,14,112.65792
1,Brejinho de Nazaré/TO,-11.0205883,-48.5722906,654,11849.97282
D1,Brejinho de Nazaré/TO,-11.0205883,-48.5722906,17,308.02682
1,Brejinho/PE,-7.3482153,-37.28538,809,10803.95299
D1,Brejinho/PE,-7.3482153,-37.28538,21,280.44872
1,Brejinho/RN,-6.1957907,-35.3583019,1500,11730.66396
D1,Brejinho/RN,-6.1957907,-35.3583019,17,132.94752
1,Brejo Alegre/SP,-21.1671191,-50.1850393,395,13672.55106
D1,Brejo Alegre/SP,-21.1671191,-50.1850393,13,449.98269
1,Brejo Grande do Araguaia/PA,-5.7011449,-48.4037308,877,11902.82302
D1,Brejo Grande do Araguaia/PA,-5.7011449,-48.4037308,4,54.28882
1,Brejo Grande/SE,-10.4287358,-36.4667918,461,5518.97522
D1,Brejo Grande/SE,-10.4287358,-36.4667918,14,167.60445
1,Brejo Santo/CE,-7.4909841,-38.9859152,8425,16903.41479
D1,Brejo Santo/CE,-7.4909841,-38.9859152,155,310.98271
1,Brejo da Madre de Deus/PE,-8.1409718,-36.3712527,2269,4429.47779
D1,Brejo da Madre de Deus/PE,-8.1409718,-36.3712527,51,99.56076
1,Brejo de Areia/MA,-4.3316785,-45.5833334,316,3505.65787
D1,Brejo de Areia/MA,-4.3316785,-45.5833334,11,122.03239
1,Brejo do Cruz/PB,-6.32926065,-37.48746163303929,1935,13621.00521
D1,Brejo do Cruz/PB,-6.32926065,-37.48746163303929,23,161.90342
1,Brejo do Piauí/PI,-8.207583,-42.8359849,154,4002.07900
D1,Brejo do Piauí/PI,-8.207583,-42.8359849,4,103.95010
1,Brejo dos Santos/PB,-6.3769367,-37.8243125,773,11958.53960
D1,Brejo dos Santos/PB,-6.3769367,-37.8243125,8,123.76238
1,Brejo/MA,-3.6804397,-42.7529313,930,2537.44782
D1,Brejo/MA,-3.6804397,-42.7529313,19,51.84033
1,Brejolândia/BA,-12.4843845,-43.9611861,147,1384.44151
D1,Brejolândia/BA,-12.4843845,-43.9611861,11,103.59766
1,Brejão/PE,-9.029146,-36.566034,486,5407.81128
D1,Brejão/PE,-9.029146,-36.566034,9,100.14465
1,Brejões/BA,-13.1033754,-39.7909837,855,6011.81268
D1,Brejões/BA,-13.1033754,-39.7909837,12,84.37632
1,Breu Branco/PA,-3.7785073,-49.5684795,889,1320.32317
D1,Breu Branco/PA,-3.7785073,-49.5684795,46,68.31818
1,Breves/PA,-1.68036,-50.479085,4076,3938.27840
D1,Breves/PA,-1.68036,-50.479085,120,115.94539
1,Britânia/GO,-15.2427599,-51.1602061,671,11574.95256
D1,Britânia/GO,-15.2427599,-51.1602061,8,138.00242
1,Brochier/RS,-29.556766,-51.5963047,593,11618.33856
D1,Brochier/RS,-29.556766,-51.5963047,5,97.96238
1,Brodowski/SP,-20.984532,-47.657217,2754,10895.28029
D1,Brodowski/SP,-20.984532,-47.657217,76,300.66859
1,Brotas de Macaúbas/BA,-12.0019007,-42.6257506,163,1609.08193
D1,Brotas de Macaúbas/BA,-12.0019007,-42.6257506,8,78.97335
1,Brotas/SP,-22.2840884,-48.1267265,1879,7627.04985
D1,Brotas/SP,-22.2840884,-48.1267265,57,231.36873
1,Brumadinho/MG,-20.143611,-44.2,3963,9745.24173
D1,Brumadinho/MG,-20.143611,-44.2,86,211.47888
1,Brumado/BA,-14.29507325,-41.659307508575985,9593,14246.67706
D1,Brumado/BA,-14.29507325,-41.659307508575985,195,289.59679
1,Brunópolis/SC,-27.310953,-50.837585,304,12837.83784
D1,Brunópolis/SC,-27.310953,-50.837585,8,337.83784
1,Brusque/SC,-27.0964628,-48.9136323,28948,21024.19220
D1,Brusque/SC,-27.0964628,-48.9136323,307,222.96625
1,Brás Pires/MG,-20.8483109,-43.2430524,282,6568.83298
D1,Brás Pires/MG,-20.8483109,-43.2430524,8,186.34987
1,Bueno Brandão/MG,-22.441976,-46.3517971,979,8907.28778
D1,Bueno Brandão/MG,-22.441976,-46.3517971,30,272.95060
1,Buenos Aires/PE,-7.7218931,-35.326587,386,2926.45944
D1,Buenos Aires/PE,-7.7218931,-35.326587,25,189.53753
1,Buenópolis/MG,-17.8756607,-44.1749365,305,2946.00599
D1,Buenópolis/MG,-17.8756607,-44.1749365,12,115.90843
1,Buerarema/BA,-14.9571177,-39.3008035,1364,7451.10893
D1,Buerarema/BA,-14.9571177,-39.3008035,44,240.35835
1,Bugre/MG,-19.4257687,-42.2556,371,9314.58699
D1,Bugre/MG,-19.4257687,-42.2556,13,326.38715
1,Bujari/AC,-9.8309656,-67.9520886,1139,10930.90211
D1,Bujari/AC,-9.8309656,-67.9520886,17,163.14779
1,Bujaru/PA,-1.5169239,-48.0410699,1457,4951.23526
D1,Bujaru/PA,-1.5169239,-48.0410699,38,129.13311
1,Buri/SP,-23.79849,-48.598924,2662,13333.33333
D1,Buri/SP,-23.79849,-48.598924,93,465.81518
1,Buritama/SP,-21.0664017,-50.1448077,2595,15016.49210
D1,Buritama/SP,-21.0664017,-50.1448077,70,405.06915
1,Buriti Alegre/GO,-18.1377879,-49.0404411,1039,10955.29313
D1,Buriti Alegre/GO,-18.1377879,-49.0404411,33,347.95445
1,Buriti Bravo/MA,-5.8391884,-43.8367876,1718,7176.57379
D1,Buriti Bravo/MA,-5.8391884,-43.8367876,20,83.54568
1,Buriti de Goiás/GO,-16.180644,-50.4287479,296,11954.76575
D1,Buriti de Goiás/GO,-16.180644,-50.4287479,9,363.48950
1,Buriti do Tocantins/TO,-5.3187439,-48.2256609,1105,9611.20292
D1,Buriti do Tocantins/TO,-5.3187439,-48.2256609,20,173.95842
1,Buriti dos Lopes/PI,-3.1776723,-41.8707444,1329,6709.74908
D1,Buriti dos Lopes/PI,-3.1776723,-41.8707444,34,171.65649
1,Buriti dos Montes/PI,-5.3136171,-41.0971256,717,8676.18587
D1,Buriti dos Montes/PI,-5.3136171,-41.0971256,9,108.90610
1,Buriti/MA,-3.9430944,-42.9244281,871,3024.51559
D1,Buriti/MA,-3.9430944,-42.9244281,8,27.77971
1,Buriticupu/MA,-4.3227472,-46.4516989,3662,5017.60684
D1,Buriticupu/MA,-4.3227472,-46.4516989,67,91.80220
1,Buritinópolis/GO,-14.4589282,-46.4293104,200,6091.98903
D1,Buritinópolis/GO,-14.4589282,-46.4293104,3,91.37984
1,Buritirama/BA,-10.7148421,-43.6362327,850,3995.11186
D1,Buritirama/BA,-10.7148421,-43.6362327,23,108.10303
1,Buritirana/MA,-5.5897455,-47.0148915,448,2896.48930
D1,Buritirana/MA,-5.5897455,-47.0148915,24,155.16907
1,Buritis/MG,-15.621389,-46.423889,2041,8159.75693
D1,Buritis/MG,-15.621389,-46.423889,41,163.91476
1,Buritis/RO,-10.2054937,-63.8281954,4963,12298.04738
D1,Buritis/RO,-10.2054937,-63.8281954,75,185.84597
1,Buritizal/SP,-20.1933264,-47.7097165,338,7487.81568
D1,Buritizal/SP,-20.1933264,-47.7097165,10,221.53301
1,Buritizeiro/MG,-17.3667765,-44.9647781,1496,5319.86771
D1,Buritizeiro/MG,-17.3667765,-44.9647781,33,117.35002
1,Butiá/RS,-30.1256795,-51.9692224,2462,11750.66819
D1,Butiá/RS,-30.1256795,-51.9692224,56,267.27759
1,Buíque/PE,-8.6239732,-37.157296,2519,4275.36109
D1,Buíque/PE,-8.6239732,-37.157296,45,76.37604
1,Bálsamo/SP,-20.7343722,-49.5807484,1749,19137.76124
D1,Bálsamo/SP,-20.7343722,-49.5807484,65,711.23755
0,CASO SEM LOCALIZAÇÃO DEFINIDA/BA,-13.415069300066518,-38.14174656569957,11112,74.71224
D0,CASO SEM LOCALIZAÇÃO DEFINIDA/BA,-13.415069300066518,-38.14174656569957,283,1.90277
0,CASO SEM LOCALIZAÇÃO DEFINIDA/CE,-3.3445126297392798,-38.624961942434304,10813,118.40679
0,CASO SEM LOCALIZAÇÃO DEFINIDA/ES,-20.30989267097039,-39.81745156645774,4544,113.07280
D0,CASO SEM LOCALIZAÇÃO DEFINIDA/ES,-20.30989267097039,-39.81745156645774,225,5.59890
0,CASO SEM LOCALIZAÇÃO DEFINIDA/GO,-16.701590966270153,-49.164524059025034,1222,17.41149
0,CASO SEM LOCALIZAÇÃO DEFINIDA/MG,-19.97049116501593,-43.8852149072783,4266,20.15231
D0,CASO SEM LOCALIZAÇÃO DEFINIDA/MG,-19.97049116501593,-43.8852149072783,348,1.64393
0,CASO SEM LOCALIZAÇÃO DEFINIDA/MT,-15.54791153961863,-56.17143998972475,3051,87.56005
D0,CASO SEM LOCALIZAÇÃO DEFINIDA/MT,-15.54791153961863,-56.17143998972475,229,6.57203
0,CASO SEM LOCALIZAÇÃO DEFINIDA/PA,-0.09317078214359542,-48.0050231510481,433,5.03321
D0,CASO SEM LOCALIZAÇÃO DEFINIDA/PA,-0.09317078214359542,-48.0050231510481,8,0.09299
0,CASO SEM LOCALIZAÇÃO DEFINIDA/PI,-2.683810218391744,-41.470898009352254,281,8.58480
D0,CASO SEM LOCALIZAÇÃO DEFINIDA/PI,-2.683810218391744,-41.470898009352254,7,0.21386
0,CASO SEM LOCALIZAÇÃO DEFINIDA/PR,-25.69415946385943,-48.10141676336737,8903,77.86456
D0,CASO SEM LOCALIZAÇÃO DEFINIDA/PR,-25.69415946385943,-48.10141676336737,353,3.08730
0,CASO SEM LOCALIZAÇÃO DEFINIDA/RR,2.813328208465927,-60.663338675861986,2653,437.96151
D0,CASO SEM LOCALIZAÇÃO DEFINIDA/RR,2.813328208465927,-60.663338675861986,15,2.47622
0,CASO SEM LOCALIZAÇÃO DEFINIDA/SP,-24.30968974555485,-46.21366504207253,985,2.14508
1,Caapiranga/AM,-3.3188884,-61.2096404,685,5156.96755
D1,Caapiranga/AM,-3.3188884,-61.2096404,22,165.62524
1,Caaporã/PB,-7.510234,-34.9154114,2130,9701.66249
D1,Caaporã/PB,-7.510234,-34.9154114,34,154.86222
1,Caarapó/MS,-22.6349267,-54.8240903,4072,13310.23437
D1,Caarapó/MS,-22.6349267,-54.8240903,55,179.77969
1,Caatiba/BA,-14.9782759,-40.4092325,948,14611.59063
D1,Caatiba/BA,-14.9782759,-40.4092325,13,200.36991
1,Cabaceiras do Paraguaçu/BA,-12.5377868,-39.1901339,760,4018.82502
D1,Cabaceiras do Paraguaçu/BA,-12.5377868,-39.1901339,5,26.43964
1,Cabaceiras/PB,-7.4899156,-36.2860501,444,7843.13725
D1,Cabaceiras/PB,-7.4899156,-36.2860501,4,70.65889
1,Cabeceira Grande/MG,-16.0297,-47.0906,470,6725.81568
D1,Cabeceira Grande/MG,-16.0297,-47.0906,6,85.86148
1,Cabeceiras do Piauí/PI,-4.4733665,-42.3098716,672,6321.73095
D1,Cabeceiras do Piauí/PI,-4.4733665,-42.3098716,15,141.11007
1,Cabeceiras/GO,-15.7995459,-46.9264991,394,4896.84315
D1,Cabeceiras/GO,-15.7995459,-46.9264991,16,198.85657
1,Cabedelo/PB,-6.97324,-34.8351609,9540,13872.93324
D1,Cabedelo/PB,-6.97324,-34.8351609,199,289.38299
1,Cabixi/RO,-13.4956065,-60.5424442,882,17000.77101
D1,Cabixi/RO,-13.4956065,-60.5424442,21,404.78026
1,Cabo Frio/RJ,-22.8804369,-42.0189227,14361,6233.66815
D1,Cabo Frio/RJ,-22.8804369,-42.0189227,777,337.27179
1,Cabo Verde/MG,-21.4743338,-46.3964995,739,5250.44405
D1,Cabo Verde/MG,-21.4743338,-46.3964995,9,63.94316
1,Cabo de Santo Agostinho/PE,-8.2838945,-35.0320984,9324,4462.43970
D1,Cabo de Santo Agostinho/PE,-8.2838945,-35.0320984,510,244.08454
1,Cabreúva/SP,-23.3075813,-47.1324417,4581,9084.05878
D1,Cabreúva/SP,-23.3075813,-47.1324417,121,239.94130
1,Cabrobó/PE,-8.5083701,-39.3106961,2424,7025.47605
D1,Cabrobó/PE,-8.5083701,-39.3106961,27,78.25406
1,Cabrália Paulista/SP,-22.4562909,-49.3385645,437,10299.31652
D1,Cabrália Paulista/SP,-22.4562909,-49.3385645,9,212.11407
1,Cacaulândia/RO,-10.3380043,-62.9007231,897,14308.50215
D1,Cacaulândia/RO,-10.3380043,-62.9007231,12,191.41809
1,Cacequi/RS,-29.8838059,-54.8273443,800,6439.66836
D1,Cacequi/RS,-29.8838059,-54.8273443,11,88.54544
1,Cachoeira Alta/GO,-18.7618269,-50.9432431,1678,13248.06569
D1,Cachoeira Alta/GO,-18.7618269,-50.9432431,23,181.58850
1,Cachoeira Dourada/GO,-18.4934204,-49.481062,794,9886.68908
D1,Cachoeira Dourada/GO,-18.4934204,-49.481062,29,361.10073
1,Cachoeira Dourada/MG,-18.517136,-49.5002062,170,6282.33555
D1,Cachoeira Dourada/MG,-18.517136,-49.5002062,2,73.90983
1,Cachoeira Grande/MA,-2.9290492,-44.0573223,327,3450.09496
D1,Cachoeira Grande/MA,-2.9290492,-44.0573223,8,84.40599
1,Cachoeira Paulista/SP,-22.666498,-45.015384,2587,7703.76106
D1,Cachoeira Paulista/SP,-22.666498,-45.015384,44,131.02647
1,Cachoeira da Prata/MG,-19.524723,-44.453056,226,6293.51156
D1,Cachoeira da Prata/MG,-19.524723,-44.453056,13,362.01615
1,Cachoeira de Goiás/GO,-16.6688414,-50.6435997,120,8941.87779
D1,Cachoeira de Goiás/GO,-16.6688414,-50.6435997,2,149.03130
1,Cachoeira de Minas/MG,-22.3554043,-45.7796324,1061,9163.14017
D1,Cachoeira de Minas/MG,-22.3554043,-45.7796324,16,138.18119
1,Cachoeira de Pajeú/MG,-15.965833,-41.496666,526,5570.85363
D1,Cachoeira de Pajeú/MG,-15.965833,-41.496666,11,116.50074
1,Cachoeira do Arari/PA,-1.0143572,-48.9621089,501,2081.94814
D1,Cachoeira do Arari/PA,-1.0143572,-48.9621089,25,103.88963
1,Cachoeira do Piriá/PA,-1.7599443,-46.5446954,949,2742.06131
D1,Cachoeira do Piriá/PA,-1.7599443,-46.5446954,7,20.22595
1,Cachoeira do Sul/RS,-30.0474778,-52.8905413,10780,13167.37715
D1,Cachoeira do Sul/RS,-30.0474778,-52.8905413,195,238.18539
1,Cachoeira dos Índios/PB,-6.9259193,-38.6742159,914,8869.48083
D1,Cachoeira dos Índios/PB,-6.9259193,-38.6742159,15,145.56041
1,Cachoeira/BA,-12.5998256,-38.9665918,1701,5067.47699
D1,Cachoeira/BA,-12.5998256,-38.9665918,30,89.37349
1,Cachoeiras de Macacu/RJ,-22.4626861,-42.6534414,3321,5600.05396
D1,Cachoeiras de Macacu/RJ,-22.4626861,-42.6534414,97,163.56677
1,Cachoeirinha/PE,-8.4906364,-36.2338963,642,3131.55456
D1,Cachoeirinha/PE,-8.4906364,-36.2338963,33,160.96776
1,Cachoeirinha/RS,-29.9493353,-51.0898927,15480,11795.18440
D1,Cachoeirinha/RS,-29.9493353,-51.0898927,446,339.83542
1,Cachoeirinha/TO,-6.118647,-47.9208885,127,5560.42032
D1,Cachoeirinha/TO,-6.118647,-47.9208885,2,87.56567
1,Cachoeiro de Itapemirim/ES,-20.848084,-41.11129,27746,13175.42702
D1,Cachoeiro de Itapemirim/ES,-20.848084,-41.11129,579,274.94314
1,Cacimba de Areia/PB,-7.1288513,-37.1575194,59,1596.75237
D1,Cacimba de Areia/PB,-7.1288513,-37.1575194,4,108.25440
1,Cacimba de Dentro/PB,-6.6425101,-35.7929304,1220,7102.10735
D1,Cacimba de Dentro/PB,-6.6425101,-35.7929304,34,197.92758
1,Cacimbas/PB,-7.2125451,-37.0593398,256,3556.04945
D1,Cacimbas/PB,-7.2125451,-37.0593398,8,111.12655
1,Cacimbinhas/AL,-9.401212,-36.991082,880,8081.55019
D1,Cacimbinhas/AL,-9.401212,-36.991082,11,101.01938
1,Cacique Doble/RS,-27.7700117,-51.6616409,605,11923.53173
D1,Cacique Doble/RS,-27.7700117,-51.6616409,12,236.49980
1,Cacoal/RO,-11.4333,-61.4420502,14351,16707.99716
D1,Cacoal/RO,-11.4333,-61.4420502,300,349.27177
1,Caconde/SP,-21.527995,-46.643659,1418,7459.62439
D1,Caconde/SP,-21.527995,-46.643659,38,199.90531
1,Caculé/BA,-14.4990734,-42.2233006,2455,10540.55214
D1,Caculé/BA,-14.4990734,-42.2233006,20,85.87008
1,Caetanos/BA,-14.3387456,-40.9085971,724,4956.18839
D1,Caetanos/BA,-14.3387456,-40.9085971,10,68.45564
1,Caetanópolis/MG,-19.2947496,-44.4138386,1149,9779.55571
D1,Caetanópolis/MG,-19.2947496,-44.4138386,20,170.22725
1,Caetité/BA,-14.0691776,-42.4852428,3452,6757.89432
D1,Caetité/BA,-14.0691776,-42.4852428,40,78.30700
1,Caeté/MG,-19.897777,-43.670278,2088,4635.15883
D1,Caeté/MG,-19.897777,-43.670278,70,155.39326
1,Caetés/PE,-8.7728788,-36.6255835,1682,5819.26377
D1,Caetés/PE,-8.7728788,-36.6255835,22,76.11403
1,Cafarnaum/BA,-11.691399,-41.468823,915,4942.47286
D1,Cafarnaum/BA,-11.691399,-41.468823,22,118.83541
1,Cafeara/PR,-22.78905,-51.714195,422,14285.71429
D1,Cafeara/PR,-22.78905,-51.714195,11,372.37644
1,Cafelândia/PR,-24.6176963,-53.3218057,2560,13870.82792
D1,Cafelândia/PR,-24.6176963,-53.3218057,28,151.71218
1,Cafelândia/SP,-21.8054355,-49.6030627,813,4556.40868
D1,Cafelândia/SP,-21.8054355,-49.6030627,44,246.59530
1,Cafezal do Sul/PR,-23.900508,-53.512418,449,11199.80045
D1,Cafezal do Sul/PR,-23.900508,-53.512418,6,149.66326
1,Caiabu/SP,-22.0143038,-51.2356597,314,7488.67160
D1,Caiabu/SP,-22.0143038,-51.2356597,7,166.94491
1,Caiana/MG,-20.695555,-41.924723,160,2887.56542
D1,Caiana/MG,-20.695555,-41.924723,7,126.33099
1,Caiapônia/GO,-16.9538779,-51.8090761,1478,7735.38494
D1,Caiapônia/GO,-16.9538779,-51.8090761,40,209.34736
1,Caibaté/RS,-28.290475,-54.645407,421,8729.00684
D1,Caibaté/RS,-28.290475,-54.645407,7,145.13788
1,Caibi/SC,-27.0751925,-53.2502133,679,11076.67210
D1,Caibi/SC,-27.0751925,-53.2502133,15,244.69821
1,Caicó/RN,-6.4594544,-37.0971911,12240,17909.66156
D1,Caicó/RN,-6.4594544,-37.0971911,148,216.55473
1,Caieiras/SP,-23.3644621,-46.7484765,9060,8815.37339
D1,Caieiras/SP,-23.3644621,-46.7484765,315,306.49477
1,Cairu/BA,-13.4860505,-39.0455744,1526,8281.32631
D1,Cairu/BA,-13.4860505,-39.0455744,16,86.82911
1,Caiuá/SP,-21.8319357,-51.9887179,390,6559.03128
D1,Caiuá/SP,-21.8319357,-51.9887179,8,134.54423
1,Caiçara do Norte/RN,-5.0645017,-36.0561226,526,8017.07057
D1,Caiçara do Norte/RN,-5.0645017,-36.0561226,12,182.89895
1,Caiçara do Rio do Vento/RN,-5.757968,-36.00089,367,9878.86945
D1,Caiçara do Rio do Vento/RN,-5.757968,-36.00089,8,215.34320
1,Caiçara/PB,-6.6146866,-35.4681434,820,11403.14282
D1,Caiçara/PB,-6.6146866,-35.4681434,14,194.68780
1,Caiçara/RS,-27.2750478,-53.4310053,647,13765.95745
D1,Caiçara/RS,-27.2750478,-53.4310053,10,212.76596
1,Cajamar/SP,-23.3561111,-46.8769444,5144,6600.45680
D1,Cajamar/SP,-23.3561111,-46.8769444,230,295.12151
1,Cajapió/MA,-2.8778715,-44.6746871,171,1524.60770
D1,Cajapió/MA,-2.8778715,-44.6746871,7,62.41084
1,Cajari/MA,-3.3213076,-45.0118757,261,1341.83332
D1,Cajari/MA,-3.3213076,-45.0118757,9,46.27011
1,Cajati/SP,-24.7272376,-48.1077914,4500,15792.79848
D1,Cajati/SP,-24.7272376,-48.1077914,102,357.97010
1,Cajazeiras do Piauí/PI,-6.794271,-42.3935024,76,2127.06409
D1,Cajazeiras do Piauí/PI,-6.794271,-42.3935024,1,27.98769
1,Cajazeiras/PB,-6.8897849,-38.5570389,9793,15721.87706
D1,Cajazeiras/PB,-6.8897849,-38.5570389,151,242.41840
1,Cajazeirinhas/PB,-6.961442,-37.7993733,212,6614.66459
D1,Cajazeirinhas/PB,-6.961442,-37.7993733,1,31.20125
1,Cajobi/SP,-20.8776238,-48.8106972,1062,10022.65006
D1,Cajobi/SP,-20.8776238,-48.8106972,31,292.56323
1,Cajueiro da Praia/PI,-2.931114,-41.340801,481,6267.91764
D1,Cajueiro da Praia/PI,-2.931114,-41.340801,20,260.62028
1,Cajueiro/AL,-9.399589,-36.1524309,632,2962.82406
D1,Cajueiro/AL,-9.399589,-36.1524309,30,140.64038
1,Cajuri/MG,-20.7901414,-42.7954489,425,10694.51434
D1,Cajuri/MG,-20.7901414,-42.7954489,6,150.98138
1,Cajuru/SP,-21.2759978,-47.3046035,1939,7346.64494
D1,Cajuru/SP,-21.2759978,-47.3046035,57,215.96635
1,Caldas Brandão/PB,-7.1027959,-35.3254676,599,9907.37678
D1,Caldas Brandão/PB,-7.1027959,-35.3254676,10,165.39861
1,Caldas Novas/GO,-17.745,-48.625,10879,11673.24778
D1,Caldas Novas/GO,-17.745,-48.625,261,280.05494
1,Caldas/MG,-21.923611,-46.386111,1016,6987.13981
D1,Caldas/MG,-21.923611,-46.386111,36,247.57582
1,Caldazinha/GO,-16.7116649,-49.0012601,369,9589.39709
D1,Caldazinha/GO,-16.7116649,-49.0012601,11,285.86279
1,Caldeirão Grande do Piauí/PI,-7.3310393,-40.6374433,419,7247.88099
D1,Caldeirão Grande do Piauí/PI,-7.3310393,-40.6374433,2,34.59609
1,Caldeirão Grande/BA,-11.0208483,-40.3041387,569,4249.12254
D1,Caldeirão Grande/BA,-11.0208483,-40.3041387,6,44.80621
1,Califórnia/PR,-23.6672543,-51.3554556,1280,14873.34418
D1,Califórnia/PR,-23.6672543,-51.3554556,37,429.93261
1,Calmon/SC,-26.6023644,-51.0992893,50,1499.25037
D1,Calmon/SC,-26.6023644,-51.0992893,7,209.89505
1,Calumbi/PE,-7.9389746,-38.1516871,770,13398.29476
D1,Calumbi/PE,-7.9389746,-38.1516871,5,87.00191
1,Calçado/PE,-8.7413446,-36.3351787,540,4901.07097
D1,Calçado/PE,-8.7413446,-36.3351787,6,54.45634
1,Calçoene/AP,2.4981757,-50.9539503,1680,14859.36671
D1,Calçoene/AP,2.4981757,-50.9539503,10,88.44861
1,Camacan/BA,-15.4166631,-39.4930088,2975,9295.13216
D1,Camacan/BA,-15.4166631,-39.4930088,86,268.69962
1,Camacho/MG,-20.625556,-45.156667,138,4810.03834
D1,Camacho/MG,-20.625556,-45.156667,2,69.71070
1,Camalaú/PB,-7.885031,-36.824191,452,7494.61118
D1,Camalaú/PB,-7.885031,-36.824191,7,116.06699
1,Camamu/BA,-13.9438142,-39.1060917,2479,7006.38743
D1,Camamu/BA,-13.9438142,-39.1060917,57,161.09886
1,Camanducaia/MG,-22.755278,-46.144444,3412,15650.65823
D1,Camanducaia/MG,-22.755278,-46.144444,69,316.49924
1,Camapuã/MS,-19.5291747,-54.0434641,919,6711.45841
D1,Camapuã/MS,-19.5291747,-54.0434641,32,233.69605
1,Camaquã/RS,-30.8524752,-51.8075619,7306,10990.10199
D1,Camaquã/RS,-30.8524752,-51.8075619,148,222.63004
1,Camaragibe/PE,-8.0213832,-34.9810768,7287,4585.93194
D1,Camaragibe/PE,-8.0213832,-34.9810768,429,269.98282
1,Camargo/RS,-28.5865661,-52.2031474,443,16156.09044
D1,Camargo/RS,-28.5865661,-52.2031474,7,255.28811
1,Camaçari/BA,-12.6998188,-38.3260762,24591,8081.11679
D1,Camaçari/BA,-12.6998188,-38.3260762,614,201.77324
1,Cambará do Sul/RS,-29.0489517,-50.145412,337,5260.69310
D1,Cambará do Sul/RS,-29.0489517,-50.145412,10,156.10365
1,Cambará/PR,-23.042273,-50.075281,3020,11858.94919
D1,Cambará/PR,-23.042273,-50.075281,64,251.31548
1,Cambira/PR,-23.600265,-51.581045,1083,13679.42402
D1,Cambira/PR,-23.600265,-51.581045,26,328.40722
1,Camboriú/SC,-27.0273601,-48.6535657,13400,15745.25586
D1,Camboriú/SC,-27.0273601,-48.6535657,166,195.05317
1,Cambuci/RJ,-21.5749919,-41.9107833,1062,6845.42993
D1,Cambuci/RJ,-21.5749919,-41.9107833,38,244.94005
1,Cambuquira/MG,-21.853056,-45.2953619,846,6603.18451
D1,Cambuquira/MG,-21.853056,-45.2953619,25,195.12957
1,Cambuí/MG,-22.6122501,-46.0572137,4035,13533.91024
D1,Cambuí/MG,-22.6122501,-46.0572137,60,201.24774
1,Cambé/PR,-23.2782035,-51.2779583,11853,11042.37896
D1,Cambé/PR,-23.2782035,-51.2779583,285,265.50899
1,Cametá/PA,-2.242949,-49.497885,9472,6796.59022
D1,Cametá/PA,-2.242949,-49.497885,255,182.97408
1,Camocim de São Félix/PE,-8.3616757,-35.7638903,576,3047.61905
D1,Camocim de São Félix/PE,-8.3616757,-35.7638903,19,100.52910
1,Camocim/CE,-2.9009918,-40.8427389,6252,9782.96587
D1,Camocim/CE,-2.9009918,-40.8427389,163,255.05813
1,Campanha/MG,-21.8361108,-45.401986,2133,12725.21179
D1,Campanha/MG,-21.8361108,-45.401986,41,244.60088
1,Campanário/MG,-18.2398144,-41.7271768,249,6675.60322
D1,Campanário/MG,-18.2398144,-41.7271768,6,160.85791
1,Campestre da Serra/RS,-28.7966535,-51.0958149,295,8689.24890
