type,name,lat,lon,total,total_per_100k_inhabitants
1,Abadia de Goiás/GO,-16.7572644,-49.4412205,1643,18341.14758
D1,Abadia de Goiás/GO,-16.7572644,-49.4412205,37,413.03862
1,Abadia dos Dourados/MG,-18.4911191,-47.4063589,524,7479.30345
D1,Abadia dos Dourados/MG,-18.4911191,-47.4063589,15,214.10220
1,Abadiânia/GO,-16.1940946,-48.7067767,475,2321.48966
D1,Abadiânia/GO,-16.1940946,-48.7067767,39,190.60652
1,Abaetetuba/PA,-1.721828,-48.878843,9043,5684.56123
D1,Abaetetuba/PA,-1.721828,-48.878843,221,138.92381
1,Abaeté/MG,-19.1566833,-45.4481213,1488,6400.00000
D1,Abaeté/MG,-19.1566833,-45.4481213,37,159.13978
1,Abaiara/CE,-7.3607808,-39.0487878,609,5137.93976
D1,Abaiara/CE,-7.3607808,-39.0487878,15,126.55024
1,Abaré/BA,-8.7239913,-39.1139689,1004,4934.38836
D1,Abaré/BA,-8.7239913,-39.1139689,11,54.06202
1,Abatiá/PR,-23.3052967,-50.3102532,1093,14754.31965
D1,Abatiá/PR,-23.3052967,-50.3102532,20,269.97840
1,Abaíra/BA,-13.2503296,-41.6640342,290,3329.50631
D1,Abaíra/BA,-13.2503296,-41.6640342,12,137.77268
1,Abdon Batista/SC,-27.612419,-51.022992,435,17072.21350
D1,Abdon Batista/SC,-27.612419,-51.022992,4,156.98587
1,Abel Figueiredo/PA,-4.953001,-48.3958485,1026,13705.58376
D1,Abel Figueiredo/PA,-4.953001,-48.3958485,11,146.94096
1,Abelardo Luz/SC,-26.5705893,-52.3280339,1640,9131.40312
D1,Abelardo Luz/SC,-26.5705893,-52.3280339,59,328.50780
1,Abre Campo/MG,-20.2976097,-42.4764741,1253,9320.14281
D1,Abre Campo/MG,-20.2976097,-42.4764741,16,119.01220
1,Abreu e Lima/PE,-7.900719,-34.898389,3296,3284.63516
D1,Abreu e Lima/PE,-7.900719,-34.898389,231,230.20350
1,Abreulândia/TO,-9.6221526,-49.1558343,291,11218.19584
D1,Abreulândia/TO,-9.6221526,-49.1558343,6,231.30301
1,Acaiaca/MG,-20.3621646,-43.1444162,231,5783.67551
D1,Acaiaca/MG,-20.3621646,-43.1444162,11,275.41312
1,Acajutiba/BA,-11.6609659,-38.0186381,554,3647.85672
D1,Acajutiba/BA,-11.6609659,-38.0186381,19,125.10700
1,Acarape/CE,-4.2237866,-38.7071663,2795,18588.72040
D1,Acarape/CE,-4.2237866,-38.7071663,30,199.52115
1,Acaraú/CE,-2.8869514,-40.1194713,5098,8078.72718
D1,Acaraú/CE,-2.8869514,-40.1194713,111,175.90010
1,Acari/RN,-6.4364689,-36.6394777,1117,10044.06079
D1,Acari/RN,-6.4364689,-36.6394777,19,170.84795
1,Acará/PA,-1.961388,-48.1987043,1587,2850.77871
D1,Acará/PA,-1.961388,-48.1987043,34,61.07528
1,Acauã/PI,-8.219542,-41.083059,206,2900.59138
D1,Acauã/PI,-8.219542,-41.083059,1,14.08054
1,Aceguá/RS,-31.8695131,-54.1615593,372,7527.31688
D1,Aceguá/RS,-31.8695131,-54.1615593,7,141.64306
1,Acopiara/CE,-6.0936464,-39.4543204,3950,7250.23403
D1,Acopiara/CE,-6.0936464,-39.4543204,147,269.81884
1,Acorizal/MT,-15.2001544,-56.3668953,541,10142.48219
D1,Acorizal/MT,-15.2001544,-56.3668953,20,374.95313
1,Acrelândia/AC,-10.0759167,-67.0526898,1747,11278.24403
D1,Acrelândia/AC,-10.0759167,-67.0526898,37,238.86378
1,Acreúna/GO,-17.3959899,-50.3749031,2388,10591.67923
D1,Acreúna/GO,-17.3959899,-50.3749031,53,235.07496
1,Adamantina/SP,-21.6866517,-51.0762975,3688,10503.83071
D1,Adamantina/SP,-21.6866517,-51.0762975,127,361.71001
1,Adelândia/GO,-16.4155077,-50.1665834,221,8783.78378
D1,Adelândia/GO,-16.4155077,-50.1665834,4,158.98251
1,Adolfo/SP,-21.2356597,-49.6441918,612,17220.03376
D1,Adolfo/SP,-21.2356597,-49.6441918,17,478.33427
1,Adrianópolis/PR,-24.6557863,-48.9912769,1387,23681.06539
D1,Adrianópolis/PR,-24.6557863,-48.9912769,29,495.13403
1,Adustina/BA,-10.5358875,-38.114479,1045,6101.83347
D1,Adustina/BA,-10.5358875,-38.114479,25,145.97688
1,Afogados da Ingazeira/PE,-7.750429,-37.6356375,5180,13848.78623
D1,Afogados da Ingazeira/PE,-7.750429,-37.6356375,73,195.16629
1,Afonso Bezerra/RN,-5.4745,-36.57625071327935,792,7181.06809
D1,Afonso Bezerra/RN,-5.4745,-36.57625071327935,18,163.20609
1,Afonso Cláudio/ES,-20.077841,-41.12606,3488,11452.96339
D1,Afonso Cláudio/ES,-20.077841,-41.12606,60,197.01198
1,Afonso Cunha/MA,-4.1326105,-43.3230026,266,4043.78230
D1,Afonso Cunha/MA,-4.1326105,-43.3230026,3,45.60657
1,Afrânio/PE,-8.5198919,-41.0070197,967,4881.37304
D1,Afrânio/PE,-8.5198919,-41.0070197,15,75.71933
1,Afuá/PA,-0.1535664,-50.3879223,3066,7748.88164
D1,Afuá/PA,-0.1535664,-50.3879223,16,40.43774
1,Agrestina/PE,-8.4558021,-35.9442663,1733,6914.02354
D1,Agrestina/PE,-8.4558021,-35.9442663,66,263.31538
1,Agricolândia/PI,-5.7967843,-42.6605131,523,10192.94485
D1,Agricolândia/PI,-5.7967843,-42.6605131,6,116.93627
1,Agrolândia/SC,-27.4122212,-49.8295774,1657,15045.85490
D1,Agrolândia/SC,-27.4122212,-49.8295774,29,263.32516
1,Agronômica/SC,-27.2660744,-49.7104753,664,12053.00417
D1,Agronômica/SC,-27.2660744,-49.7104753,13,235.97749
1,Aguanil/MG,-20.9424533,-45.3927152,653,14440.51305
D1,Aguanil/MG,-20.9424533,-45.3927152,8,176.91287
1,Aguaí/SP,-22.0592036,-46.979384,3419,9329.29491
D1,Aguaí/SP,-22.0592036,-46.979384,105,286.50950
1,Agudo/RS,-29.6423259,-53.2494005,1767,10773.73331
D1,Agudo/RS,-29.6423259,-53.2494005,29,176.81849
1,Agudos do Sul/PR,-25.9890808,-49.3328175,725,7655.75502
D1,Agudos do Sul/PR,-25.9890808,-49.3328175,26,274.55121
1,Agudos/SP,-22.471162,-48.987822,4433,11852.62426
D1,Agudos/SP,-22.471162,-48.987822,104,278.06743
1,Aguiar/PB,-7.0928404,-38.1727215,524,9307.28242
D1,Aguiar/PB,-7.0928404,-38.1727215,5,88.80995
1,Aguiarnópolis/TO,-6.5600452,-47.4721189,672,9750.43529
D1,Aguiarnópolis/TO,-6.5600452,-47.4721189,13,188.62449
1,Aimorés/MG,-19.4917754,-41.0615603,2054,8169.92164
D1,Aimorés/MG,-19.4917754,-41.0615603,71,282.40722
1,Aiquara/BA,-14.126918,-39.8887574,493,11163.94928
D1,Aiquara/BA,-14.126918,-39.8887574,12,271.73913
1,Aiuaba/CE,-6.5710836,-40.1212278,823,4704.73904
D1,Aiuaba/CE,-6.5710836,-40.1212278,11,62.88230
1,Aiuruoca/MG,-21.9759554,-44.6036637,326,5455.15395
D1,Aiuruoca/MG,-21.9759554,-44.6036637,9,150.60241
1,Ajuricaba/RS,-28.239654,-53.7693013,1142,16344.64005
D1,Ajuricaba/RS,-28.239654,-53.7693013,29,415.05653
1,Alagoa Grande/PB,-7.0415212,-35.6285322,4109,14448.46865
D1,Alagoa Grande/PB,-7.0415212,-35.6285322,71,249.65716
1,Alagoa Nova/PB,-7.0653703,-35.76695977336711,1341,6409.82745
D1,Alagoa Nova/PB,-7.0653703,-35.76695977336711,21,100.37761
1,Alagoa/MG,-22.1697202,-44.6400042,444,16660.41276
D1,Alagoa/MG,-22.1697202,-44.6400042,7,262.66417
1,Alagoinha do Piauí/PI,-7.0090952,-40.939675,379,4944.55316
D1,Alagoinha do Piauí/PI,-7.0090952,-40.939675,10,130.46314
1,Alagoinha/PB,-6.97063215,-35.51490901897793,2060,14148.35165
D1,Alagoinha/PB,-6.97063215,-35.51490901897793,24,164.83516
1,Alagoinha/PE,-8.50355635,-36.77701174370496,1340,9104.49789
D1,Alagoinha/PE,-8.50355635,-36.77701174370496,25,169.86004
1,Alagoinhas/BA,-12.133526,-38.420772,14349,9419.86647
D1,Alagoinhas/BA,-12.133526,-38.420772,311,204.16604
1,Alambari/SP,-23.550338,-47.897971,647,10556.37135
D1,Alambari/SP,-23.550338,-47.897971,11,179.47463
1,Albertina/MG,-20.66164,-43.784039,248,8236.46629
D1,Albertina/MG,-20.66164,-43.784039,9,298.90402
1,Alcantil/PB,-7.7425491,-36.0609604,626,11363.22382
D1,Alcantil/PB,-7.7425491,-36.0609604,7,127.06480
1,Alcinópolis/MS,-18.3264121,-53.7094463,395,7291.85896
D1,Alcinópolis/MS,-18.3264121,-53.7094463,9,166.14362
1,Alcobaça/BA,-17.5215875,-39.1965474,1546,6874.16630
D1,Alcobaça/BA,-17.5215875,-39.1965474,30,133.39262
1,Alcântara/MA,-2.4038956,-44.4154241,325,1469.79016
D1,Alcântara/MA,-2.4038956,-44.4154241,18,81.40376
1,Alcântaras/CE,-3.586247,-40.5457641,1751,14862.91486
D1,Alcântaras/CE,-3.586247,-40.5457641,22,186.74136
1,Aldeias Altas/MA,-4.6291957,-43.4708622,976,3647.64361
D1,Aldeias Altas/MA,-4.6291957,-43.4708622,14,52.32276
1,Alecrim/RS,-27.6566142,-54.7653195,315,5405.86923
D1,Alecrim/RS,-27.6566142,-54.7653195,12,205.93788
1,Alegre/ES,-20.7625787,-41.5318886,2784,9287.73978
D1,Alegre/ES,-20.7625787,-41.5318886,59,196.83069
1,Alegrete do Piauí/PI,-7.2440138,-40.8602296,520,10573.40382
D1,Alegrete do Piauí/PI,-7.2440138,-40.8602296,6,122.00081
1,Alegrete/RS,-29.790166,-55.794862,10948,14991.51011
D1,Alegrete/RS,-29.790166,-55.794862,291,398.47730
1,Alegria/RS,-27.8332103,-54.0574959,394,11677.53408
D1,Alegria/RS,-27.8332103,-54.0574959,4,118.55365
1,Alenquer/PA,-1.946229,-54.738355,3600,6305.61199
D1,Alenquer/PA,-1.946229,-54.738355,141,246.96980
1,Alexandria/RN,-6.414779,-38.0135516,1833,13524.68088
D1,Alexandria/RN,-6.414779,-38.0135516,30,221.35321
1,Alexânia/GO,-16.0834049,-48.5077803,3300,11781.50660
D1,Alexânia/GO,-16.0834049,-48.5077803,81,289.18243
1,Alfenas/MG,-21.4297405,-45.9479419,10141,12598.45454
D1,Alfenas/MG,-21.4297405,-45.9479419,197,244.73874
1,Alfredo Chaves/ES,-20.624970400000002,-40.75006690147988,2485,16978.68270
D1,Alfredo Chaves/ES,-20.624970400000002,-40.75006690147988,35,239.13638
1,Alfredo Marcondes/SP,-21.9527,-51.413956,255,6094.64627
D1,Alfredo Marcondes/SP,-21.9527,-51.413956,12,286.80688
1,Alfredo Vasconcelos/MG,-21.145833,-43.776389,594,8508.80963
D1,Alfredo Vasconcelos/MG,-21.145833,-43.776389,13,186.21974
1,Alfredo Wagner/SC,-27.6961513,-49.3326734,1078,10688.08249
D1,Alfredo Wagner/SC,-27.6961513,-49.3326734,7,69.40313
1,Algodão de Jandaíra/PB,-6.9040175,-36.0089879,243,9429.56927
D1,Algodão de Jandaíra/PB,-6.9040175,-36.0089879,1,38.80481
1,Alhandra/PB,-7.4304246,-34.9106103,2401,12171.13601
D1,Alhandra/PB,-7.4304246,-34.9106103,36,182.49100
1,Aliança do Tocantins/TO,-11.3055927,-48.9409096,682,12757.20165
D1,Aliança do Tocantins/TO,-11.3055927,-48.9409096,21,392.81706
1,Aliança/PE,-7.60398,-35.222696,669,1742.32362
D1,Aliança/PE,-7.60398,-35.222696,61,158.86658
1,Almadina/BA,-14.70466,-39.6381994,632,11777.86060
D1,Almadina/BA,-14.70466,-39.6381994,9,167.72270
1,Almas/TO,-11.5681309,-47.1702803,238,3410.23069
D1,Almas/TO,-11.5681309,-47.1702803,5,71.64350
1,Almeirim/PA,-1.5290377,-52.5788111,3724,10928.51274
D1,Almeirim/PA,-1.5290377,-52.5788111,47,137.92699
1,Almenara/MG,-16.1740678,-40.6904907,4422,10492.84579
D1,Almenara/MG,-16.1740678,-40.6904907,47,111.52505
1,Almino Afonso/RN,-6.1544208,-37.7649018,509,10806.79406
D1,Almino Afonso/RN,-6.1544208,-37.7649018,13,276.00849
1,Almirante Tamandaré do Sul/RS,-28.1141129,-52.9134874,333,17085.68497
D1,Almirante Tamandaré do Sul/RS,-28.1141129,-52.9134874,7,359.15854
1,Almirante Tamandaré/PR,-25.3133048,-49.2997838,10294,8575.40340
D1,Almirante Tamandaré/PR,-25.3133048,-49.2997838,392,326.55509
1,Aloândia/GO,-17.7277983,-49.4809338,314,15810.67472
D1,Aloândia/GO,-17.7277983,-49.4809338,11,553.87714
1,Alpercata/MG,-18.9803616,-41.9827637,482,6481.97956
D1,Alpercata/MG,-18.9803616,-41.9827637,20,268.96181
1,Alpestre/RS,-27.2512339,-53.0349646,501,8257.78803
D1,Alpestre/RS,-27.2512339,-53.0349646,12,197.79133
1,Alpinópolis/MG,-20.863611,-46.387777,1509,7560.87784
D1,Alpinópolis/MG,-20.863611,-46.387777,38,190.39984
1,Alta Floresta D'Oeste/RO,-11.9296917,-61.9961284,4018,17678.63428
D1,Alta Floresta D'Oeste/RO,-11.9296917,-61.9961284,65,285.99085
1,Alta Floresta/MT,-9.8715018,-56.0839881,9600,18476.10616
D1,Alta Floresta/MT,-9.8715018,-56.0839881,134,257.89565
1,Altair/SP,-20.5238955,-49.0606135,322,7692.30769
D1,Altair/SP,-20.5238955,-49.0606135,14,334.44816
1,Altamira do Maranhão/MA,-4.1643006,-45.4674574,319,3895.46953
D1,Altamira do Maranhão/MA,-4.1643006,-45.4674574,12,146.53804
1,Altamira do Paraná/PR,-24.799114,-52.7128633,232,13793.10345
D1,Altamira do Paraná/PR,-24.799114,-52.7128633,10,594.53032
1,Altamira/PA,-3.204065,-52.209961,13908,11992.86016
D1,Altamira/PA,-3.204065,-52.209961,296,255.24062
1,Altaneira/CE,-6.9980933,-39.7385742,675,8823.52941
D1,Altaneira/CE,-6.9980933,-39.7385742,16,209.15033
1,Alterosa/MG,-21.249166,-46.143055,751,5173.24516
D1,Alterosa/MG,-21.249166,-46.143055,33,227.31969
1,Altinho/PE,-8.4904095,-36.0607494,1327,5773.58162
D1,Altinho/PE,-8.4904095,-36.0607494,28,121.82388
1,Altinópolis/SP,-21.021364,-47.3712,904,5579.21373
D1,Altinópolis/SP,-21.021364,-47.3712,45,277.72635
1,Alto Alegre do Maranhão/MA,-4.2055693,-44.4525287,1275,4576.78225
D1,Alto Alegre do Maranhão/MA,-4.2055693,-44.4525287,28,100.50973
1,Alto Alegre do Pindaré/MA,-3.6698186,-45.8462153,2182,6830.91757
D1,Alto Alegre do Pindaré/MA,-3.6698186,-45.8462153,47,147.13709
1,Alto Alegre dos Parecis/RO,-12.1314515,-61.856265,1451,10946.81252
D1,Alto Alegre dos Parecis/RO,-12.1314515,-61.856265,44,331.95021
1,Alto Alegre/RR,2.98858,-61.307167,1533,9967.49025
D1,Alto Alegre/RR,2.98858,-61.307167,35,227.56827
1,Alto Alegre/RS,-31.780844700000003,-52.81311114489171,207,12833.23001
D1,Alto Alegre/RS,-31.780844700000003,-52.81311114489171,1,61.99628
1,Alto Alegre/SP,-21.5820592,-50.1661976,376,9197.65166
D1,Alto Alegre/SP,-21.5820592,-50.1661976,21,513.69863
1,Alto Araguaia/MT,-17.3156528,-53.2169365,1560,8047.45938
D1,Alto Araguaia/MT,-17.3156528,-53.2169365,29,149.60021
1,Alto Bela Vista/SC,-27.4320737,-51.905771,199,10332.29491
D1,Alto Bela Vista/SC,-27.4320737,-51.905771,3,155.76324
1,Alto Boa Vista/MT,-11.6723985,-51.3744431,823,11865.62860
D1,Alto Boa Vista/MT,-11.6723985,-51.3744431,17,245.09804
1,Alto Caparaó/MG,-20.4405661,-41.8683799,409,6939.26026
D1,Alto Caparaó/MG,-20.4405661,-41.8683799,9,152.69766
1,Alto Feliz/RS,-29.3785943,-51.3123751,295,9716.73254
D1,Alto Feliz/RS,-29.3785943,-51.3123751,2,65.87615
1,Alto Garças/MT,-16.9469683,-53.529427,1016,8361.45173
D1,Alto Garças/MT,-16.9469683,-53.529427,41,337.42079
1,Alto Horizonte/GO,-14.1954948,-49.3366993,964,14595.00379
D1,Alto Horizonte/GO,-14.1954948,-49.3366993,13,196.82059
1,Alto Jequitibá/MG,-20.423611,-41.966111,846,10191.54319
D1,Alto Jequitibá/MG,-20.423611,-41.966111,11,132.51415
1,Alto Longá/PI,-5.2549051,-42.2072388,664,4630.72739
D1,Alto Longá/PI,-5.2549051,-42.2072388,15,104.60981
1,Alto Paraguai/MT,-14.513712,-56.4936374,904,7879.36895
D1,Alto Paraguai/MT,-14.513712,-56.4936374,28,244.05125
1,Alto Paraná/PR,-23.131247,-52.318893,1264,8506.62898
D1,Alto Paraná/PR,-23.131247,-52.318893,26,174.97813
1,Alto Paraíso de Goiás/GO,-14.1304779,-47.5100161,683,8883.97503
D1,Alto Paraíso de Goiás/GO,-14.1304779,-47.5100161,8,104.05827
1,Alto Paraíso/PR,-23.508137,-53.728537,314,11694.59963
D1,Alto Paraíso/PR,-23.508137,-53.728537,5,186.21974
1,Alto Paraíso/RO,-9.7240103,-63.3188123,1841,8426.78629
D1,Alto Paraíso/RO,-9.7240103,-63.3188123,48,219.70980
1,Alto Parnaíba/MA,-9.112506,-45.9310154,946,8437.38851
D1,Alto Parnaíba/MA,-9.112506,-45.9310154,11,98.10917
1,Alto Piquiri/PR,-24.0239021,-53.4417448,1044,10677.03007
D1,Alto Piquiri/PR,-24.0239021,-53.4417448,27,276.13009
1,Alto Rio Doce/MG,-21.0239537,-43.4133507,527,4853.11723
D1,Alto Rio Doce/MG,-21.0239537,-43.4133507,28,257.85063
1,Alto Rio Novo/ES,-19.0577208,-41.0171518,746,9474.21895
D1,Alto Rio Novo/ES,-19.0577208,-41.0171518,22,279.40056
1,Alto Santo/CE,-5.5190371,-38.2719351,1926,11200.27913
D1,Alto Santo/CE,-5.5190371,-38.2719351,34,197.72040
1,Alto Taquari/MT,-17.8269099,-53.2831736,1569,14093.23632
D1,Alto Taquari/MT,-17.8269099,-53.2831736,29,260.48684
1,Alto do Rodrigues/RN,-5.290868,-36.7616726,2518,17096.68658
D1,Alto do Rodrigues/RN,-5.290868,-36.7616726,40,271.59153
1,Altos/PI,-5.0393915,-42.4611694,4480,11033.12400
D1,Altos/PI,-5.0393915,-42.4611694,89,219.18483
1,Altônia/PR,-23.8722004,-53.894037,1410,6358.22511
D1,Altônia/PR,-23.8722004,-53.894037,32,144.30014
1,Alumínio/SP,-23.5203479,-47.2575256,1563,8328.44887
D1,Alumínio/SP,-23.5203479,-47.2575256,51,271.75361
1,Alvarenga/MG,-19.4175,-41.728334,513,13345.47347
D1,Alvarenga/MG,-19.4175,-41.728334,4,104.05827
1,Alvarães/AM,-3.214786,-64.8143124,2902,17891.49199
D1,Alvarães/AM,-3.214786,-64.8143124,46,283.60049
1,Alvinlândia/SP,-22.4431852,-49.7643596,140,4324.99228
D1,Alvinlândia/SP,-22.4431852,-49.7643596,9,278.03522
1,Alvinópolis/MG,-20.1105199,-43.0601805,729,4805.85404
D1,Alvinópolis/MG,-20.1105199,-43.0601805,22,145.03263
1,Alvorada D'Oeste/RO,-11.346271,-62.284697,1148,8138.38083
D1,Alvorada D'Oeste/RO,-11.346271,-62.284697,29,205.58628
1,Alvorada de Minas/MG,-18.7318587,-43.3641479,276,7656.03329
D1,Alvorada de Minas/MG,-18.7318587,-43.3641479,3,83.21775
1,Alvorada do Gurguéia/PI,-8.4465288,-43.8655915,436,8007.34619
D1,Alvorada do Gurguéia/PI,-8.4465288,-43.8655915,11,202.02020
1,Alvorada do Norte/GO,-14.483911,-46.4959897,779,8948.87995
D1,Alvorada do Norte/GO,-14.483911,-46.4959897,8,91.90121
1,Alvorada do Sul/PR,-22.7807269,-51.2307721,834,7250.28253
D1,Alvorada do Sul/PR,-22.7807269,-51.2307721,25,217.33461
1,Alvorada/RS,-29.9981184,-51.0772509,21740,10286.15769
D1,Alvorada/RS,-29.9981184,-51.0772509,771,364.79428
1,Alvorada/TO,-12.478465,-49.124926,1331,15852.78704
D1,Alvorada/TO,-12.478465,-49.124926,21,250.11910
1,Além Paraíba/MG,-21.8760576,-42.6810473,3309,9347.19358
D1,Além Paraíba/MG,-21.8760576,-42.6810473,148,418.06729
1,Amajari/RR,3.6523869,-61.4194315,1150,8722.03261
D1,Amajari/RR,3.6523869,-61.4194315,20,151.68752
1,Amambai/MS,-23.1082701,-55.2284854,3214,8070.10496
D1,Amambai/MS,-23.1082701,-55.2284854,82,205.89565
1,Amaporã/PR,-23.094272,-52.786597,424,6696.14656
D1,Amaporã/PR,-23.094272,-52.786597,7,110.54959
1,Amapá do Maranhão/MA,-1.6762114,-46.0109669,172,2455.38901
D1,Amapá do Maranhão/MA,-1.6762114,-46.0109669,6,85.65310
1,Amapá/AP,2.0529997,-50.7930003,1389,15119.19016
D1,Amapá/AP,2.0529997,-50.7930003,10,108.84946
1,Amaraji/PE,-8.373925,-35.4536527,640,2798.42589
D1,Amaraji/PE,-8.373925,-35.4536527,39,170.52908
1,Amaral Ferrador/RS,-30.8750633,-52.2542051,308,4347.21242
D1,Amaral Ferrador/RS,-30.8750633,-52.2542051,9,127.02893
1,Amaralina/GO,-13.9236199,-49.2962411,113,2938.88166
D1,Amaralina/GO,-13.9236199,-49.2962411,2,52.01560
1,Amarante do Maranhão/MA,-5.56913,-46.747284,1594,3819.88545
D1,Amarante do Maranhão/MA,-5.56913,-46.747284,53,127.00999
1,Amarante/PI,-6.2459374,-42.8476238,1555,8833.21972
D1,Amarante/PI,-6.2459374,-42.8476238,35,198.81845
1,Amargosa/BA,-13.03793715,-39.60796443875596,3087,8244.97209
D1,Amargosa/BA,-13.03793715,-39.60796443875596,55,146.89779
1,Amaturá/AM,-3.3640509,-68.1994689,2372,20211.31561
D1,Amaturá/AM,-3.3640509,-68.1994689,18,153.37423
1,Americana/SP,-22.7392463,-47.3306032,25132,10384.35158
D1,Americana/SP,-22.7392463,-47.3306032,785,324.35604
1,Americano do Brasil/GO,-16.2515808,-49.9806104,804,13043.47826
D1,Americano do Brasil/GO,-16.2515808,-49.9806104,22,356.91110
1,Ametista do Sul/RS,-27.3617341,-53.1826575,868,11724.97636
D1,Ametista do Sul/RS,-27.3617341,-53.1826575,21,283.66878
1,Amontada/CE,-3.3634586,-39.8284791,2927,6678.22674
D1,Amontada/CE,-3.3634586,-39.8284791,56,127.76929
1,Amorinópolis/GO,-16.6211308,-51.0949921,323,10524.60085
D1,Amorinópolis/GO,-16.6211308,-51.0949921,6,195.50342
1,Amparo de São Francisco/SE,-10.1299754,-36.9269099,256,10756.30252
D1,Amparo de São Francisco/SE,-10.1299754,-36.9269099,5,210.08403
1,Amparo do Serra/MG,-20.5070255,-42.8028462,164,3505.77170
D1,Amparo do Serra/MG,-20.5070255,-42.8028462,8,171.01325
1,Amparo/PB,-7.56394725,-37.04652873235175,171,7596.62372
D1,Amparo/PB,-7.56394725,-37.04652873235175,4,177.69880
1,Amparo/SP,-22.70111,-46.76444,7056,9708.71115
D1,Amparo/SP,-22.70111,-46.76444,136,187.12935
1,Ampére/PR,-25.9168712,-53.4742414,2326,12044.94847
D1,Ampére/PR,-25.9168712,-53.4742414,57,295.16856
1,Amélia Rodrigues/BA,-12.4015388,-38.7516971,2324,9278.18588
D1,Amélia Rodrigues/BA,-12.4015388,-38.7516971,46,183.64740
1,América Dourada/BA,-11.4515262,-41.4357517,949,5898.07334
D1,América Dourada/BA,-11.4515262,-41.4357517,13,80.79553
1,Américo Brasiliense/SP,-21.7297099,-48.1052092,4116,10031.19516
D1,Américo Brasiliense/SP,-21.7297099,-48.1052092,92,224.21525
1,Américo de Campos/SP,-20.298476,-49.735904,1104,18458.45176
D1,Américo de Campos/SP,-20.298476,-49.735904,34,568.46681
1,Anadia/AL,-9.6830208,-36.3052699,1447,8256.30492
D1,Anadia/AL,-9.6830208,-36.3052699,30,171.17426
1,Anagé/BA,-14.6134669,-41.1376308,979,4530.93905
D1,Anagé/BA,-14.6134669,-41.1376308,26,120.33137
1,Anahy/PR,-24.6450861,-53.1337957,358,12840.74605
D1,Anahy/PR,-24.6450861,-53.1337957,9,322.81205
1,Anajatuba/MA,-3.26441,-44.6179916,1012,3749.81473
D1,Anajatuba/MA,-3.26441,-44.6179916,25,92.63376
1,Anajás/PA,-0.9878802,-49.9390114,1360,4580.97548
D1,Anajás/PA,-0.9878802,-49.9390114,22,74.10402
1,Analândia/SP,-22.128917,-47.661939,332,6566.45570
D1,Analândia/SP,-22.128917,-47.661939,5,98.89241
1,Anamã/AM,-3.5797356,-61.4049996,1895,13578.38922
D1,Anamã/AM,-3.5797356,-61.4049996,10,71.65377
1,Ananindeua/PA,-1.374035,-48.4016623,25113,4689.22429
D1,Ananindeua/PA,-1.374035,-48.4016623,814,151.99413
1,Ananás/TO,-6.3663053,-48.080238,1626,17130.21492
D1,Ananás/TO,-6.3663053,-48.080238,26,273.91488
1,Anapu/PA,-3.4668292,-51.2057035,1662,5809.76684
D1,Anapu/PA,-3.4668292,-51.2057035,40,139.82592
1,Anapurus/MA,-3.6751298,-43.1046001,831,5228.38807
D1,Anapurus/MA,-3.6751298,-43.1046001,14,88.08355
1,Anastácio/MS,-20.4832458,-55.8048448,2527,10013.07604
D1,Anastácio/MS,-20.4832458,-55.8048448,77,305.10758
1,Anaurilândia/MS,-22.185169,-52.719056,557,6137.06479
D1,Anaurilândia/MS,-22.185169,-52.719056,15,165.27104
1,Anchieta/ES,-20.8057672,-40.6454564,4886,16407.53551
D1,Anchieta/ES,-20.8057672,-40.6454564,88,295.51026
1,Anchieta/SC,-26.5350527,-53.3293938,676,12164.83714
D1,Anchieta/SC,-26.5350527,-53.3293938,9,161.95789
1,Andaraí/BA,-12.8059674,-41.3322919,926,7051.47731
D1,Andaraí/BA,-12.8059674,-41.3322919,10,76.14986
1,Andirá/PR,-23.0494761,-50.2310027,2491,12501.25464
D1,Andirá/PR,-23.0494761,-50.2310027,82,411.52263
1,Andorinha/BA,-10.3445708,-39.8334411,947,6529.68351
D1,Andorinha/BA,-10.3445708,-39.8334411,17,117.21713
1,Andradas/MG,-22.0680484,-46.5688976,3938,9512.99642
D1,Andradas/MG,-22.0680484,-46.5688976,117,282.63600
1,Andradina/SP,-20.896505,-51.3742765,6521,11399.95105
D1,Andradina/SP,-20.896505,-51.3742765,264,461.52232
1,Andrelândia/MG,-21.739722,-44.308889,206,1687.69458
D1,Andrelândia/MG,-21.739722,-44.308889,14,114.69769
1,André da Rocha/RS,-28.6309124,-51.5733328,119,8860.75949
D1,André da Rocha/RS,-28.6309124,-51.5733328,1,74.46016
1,Angatuba/SP,-23.4938938,-48.4110675,3048,11962.79289
D1,Angatuba/SP,-23.4938938,-48.4110675,72,282.58566
1,Angelim/PE,-8.8902038,-36.2872987,228,2030.99947
D1,Angelim/PE,-8.8902038,-36.2872987,11,97.98682
1,Angelina/SC,-27.5805287,-48.9838759,542,11427.36665
D1,Angelina/SC,-27.5805287,-48.9838759,2,42.16740
1,Angelândia/MG,-17.7253,-42.2728,253,2956.64368
D1,Angelândia/MG,-17.7253,-42.2728,2,23.37268
1,Angical do Piauí/PI,-6.0872666,-42.7366138,880,12973.61050
D1,Angical do Piauí/PI,-6.0872666,-42.7366138,12,176.91287
1,Angical/BA,-12.005623,-44.7000236,714,5122.68618
D1,Angical/BA,-12.005623,-44.7000236,16,114.79409
1,Angico/TO,-6.3893733,-47.8656722,236,6832.65779
D1,Angico/TO,-6.3893733,-47.8656722,4,115.80776
1,Angicos/RN,-5.6666344,-36.6009064,1108,9466.04015
D1,Angicos/RN,-5.6666344,-36.6009064,23,196.49722
1,Angra dos Reis/RJ,-23.0063966,-44.316326,14520,7013.00207
D1,Angra dos Reis/RJ,-23.0063966,-44.316326,503,242.94353
1,Anguera/BA,-12.1509425,-39.2452469,495,4381.69426
D1,Anguera/BA,-12.1509425,-39.2452469,2,17.70382
1,Angélica/MS,-22.1588196,-53.7728504,1371,12541.16356
D1,Angélica/MS,-22.1588196,-53.7728504,20,182.94914
1,Anhanguera/GO,-18.3338749,-48.220363,92,7931.03448
D1,Anhanguera/GO,-18.3338749,-48.220363,6,517.24138
1,Anhembi/SP,-22.7891096,-48.1316776,293,4296.81772
D1,Anhembi/SP,-22.7891096,-48.1316776,7,102.65435
1,Anhumas/SP,-22.2956478,-51.3873401,227,5477.79923
D1,Anhumas/SP,-22.2956478,-51.3873401,7,168.91892
1,Anicuns/GO,-16.4606451,-49.9572265,3141,14289.61376
D1,Anicuns/GO,-16.4606451,-49.9572265,66,300.25931
1,Anita Garibaldi/SC,-27.6855032,-51.1293873,1201,17263.18816
D1,Anita Garibaldi/SC,-27.6855032,-51.1293873,10,143.74012
1,Anitápolis/SC,-27.9041185,-49.1287395,341,10563.81660
D1,Anitápolis/SC,-27.9041185,-49.1287395,5,154.89467
1,Anori/AM,-3.7435254,-61.6605203,1905,8869.95390
D1,Anori/AM,-3.7435254,-61.6605203,32,148.99660
1,Anta Gorda/RS,-28.9718745,-52.0069187,635,10652.57507
D1,Anta Gorda/RS,-28.9718745,-52.0069187,4,67.10284
1,Antas/BA,-10.4114649,-38.3308815,1308,6714.92376
D1,Antas/BA,-10.4114649,-38.3308815,13,66.73854
1,Antonina do Norte/CE,-6.7754187,-39.9879345,797,10802.38547
D1,Antonina do Norte/CE,-6.7754187,-39.9879345,26,352.39902
1,Antonina/PR,-25.4298854,-48.7125431,2550,13457.17452
D1,Antonina/PR,-25.4298854,-48.7125431,71,374.68996
1,Antônio Almeida/PI,-7.2186016,-44.1950248,406,12807.57098
D1,Antônio Almeida/PI,-7.2186016,-44.1950248,10,315.45741
1,Antônio Cardoso/BA,-12.4363122,-39.1200307,610,5223.94451
D1,Antônio Cardoso/BA,-12.4363122,-39.1200307,11,94.20228
1,Antônio Carlos/MG,-21.318334,-43.746666,753,6571.25404
D1,Antônio Carlos/MG,-21.318334,-43.746666,16,139.62824
1,Antônio Carlos/SC,-27.5168462,-48.7684715,1638,19017.76385
D1,Antônio Carlos/SC,-27.5168462,-48.7684715,27,313.47962
1,Antônio Dias/MG,-19.6525,-42.872778,592,6382.74933
D1,Antônio Dias/MG,-19.6525,-42.872778,26,280.32345
1,Antônio Gonçalves/BA,-10.5715409,-40.2748824,917,7720.15491
D1,Antônio Gonçalves/BA,-10.5715409,-40.2748824,9,75.77033
1,Antônio João/MS,-22.1892837,-55.9508227,534,5920.17738
D1,Antônio João/MS,-22.1892837,-55.9508227,16,177.38359
1,Antônio Martins/RN,-6.2155812,-37.8890129,678,9477.21554
D1,Antônio Martins/RN,-6.2155812,-37.8890129,7,97.84736
1,Antônio Olinto/PR,-25.9849006,-50.1974516,523,7041.87424
D1,Antônio Olinto/PR,-25.9849006,-50.1974516,13,175.03703
1,Antônio Prado de Minas/MG,-21.0171988,-42.1101106,166,10459.98740
D1,Antônio Prado de Minas/MG,-21.0171988,-42.1101106,5,315.05986
1,Antônio Prado/RS,-28.8567806,-51.2801355,2691,20628.59333
D1,Antônio Prado/RS,-28.8567806,-51.2801355,31,237.63894
1,Anápolis/GO,-16.3332828,-48.9525756,43102,11001.80717
D1,Anápolis/GO,-16.3332828,-48.9525756,1590,405.84830
1,Anísio de Abreu/PI,-9.185643,-43.04941,290,2918.09217
D1,Anísio de Abreu/PI,-9.185643,-43.04941,14,140.87342
1,Aparecida d'Oeste/SP,-20.4498109,-50.8808706,772,18566.61857
D1,Aparecida d'Oeste/SP,-20.4498109,-50.8808706,16,384.80038
1,Aparecida de Goiânia/GO,-16.8226769,-49.2452546,74207,12574.34601
D1,Aparecida de Goiânia/GO,-16.8226769,-49.2452546,1560,264.34137
1,Aparecida do Rio Doce/GO,-18.2980167,-51.1491312,248,10024.25222
D1,Aparecida do Rio Doce/GO,-18.2980167,-51.1491312,3,121.26112
1,Aparecida do Rio Negro/TO,-9.9513491,-47.9773786,386,7962.04620
D1,Aparecida do Rio Negro/TO,-9.9513491,-47.9773786,12,247.52475
1,Aparecida do Taboado/MS,-20.0840304,-51.1013943,3625,13905.40489
D1,Aparecida do Taboado/MS,-20.0840304,-51.1013943,60,230.15843
1,Aparecida/PB,-6.7859598, -38.0831353,964,11454.37262
D1,Aparecida/PB,-6.7859598, -38.0831353,13,154.46768
1,Aparecida/SP,-22.851552,-45.2340924,2469,6823.26931
D1,Aparecida/SP,-22.851552,-45.2340924,104,287.41191
1,Aperibé/RJ,-21.6211928,-42.1028167,663,5570.96042
D1,Aperibé/RJ,-21.6211928,-42.1028167,27,226.87169
1,Apiacá/ES,-21.152272,-41.569297,872,11543.55308
D1,Apiacá/ES,-21.152272,-41.569297,34,450.09267
1,Apiacás/MT,-9.5678422,-57.394852,1850,17990.85870
D1,Apiacás/MT,-9.5678422,-57.394852,17,165.32140
1,Apiaí/SP,-24.5076527,-48.8461582,1659,6848.01453
D1,Apiaí/SP,-24.5076527,-48.8461582,78,321.96813
1,Apicum-Açu/MA,-1.5279295,-45.082278,533,3060.93149
D1,Apicum-Açu/MA,-1.5279295,-45.082278,5,28.71418
1,Apiúna/SC,-27.0374658,-49.3885037,845,7789.45428
D1,Apiúna/SC,-27.0374658,-49.3885037,18,165.92920
1,Apodi/RN,-5.6631109,-37.796927,6633,18489.71400
D1,Apodi/RN,-5.6631109,-37.796927,96,267.60328
1,Aporá/BA,-11.6599747,-38.0794757,622,3496.73937
D1,Aporá/BA,-11.6599747,-38.0794757,19,106.81358
1,Aporé/GO,-18.9642193,-51.92804,373,8813.79962
D1,Aporé/GO,-18.9642193,-51.92804,10,236.29490
1,Apuarema/BA,-13.8517897,-39.7457126,750,10271.15859
D1,Apuarema/BA,-13.8517897,-39.7457126,9,123.25390
1,Apucarana/PR,-23.5525327,-51.4610764,10428,7654.47686
D1,Apucarana/PR,-23.5525327,-51.4610764,436,320.03758
1,Apuiarés/CE,-3.9460303,-39.4313298,1366,9310.25082
D1,Apuiarés/CE,-3.9460303,-39.4313298,25,170.39258
1,Apuí/AM,-7.1940195,-59.8830192,1457,6516.39161
D1,Apuí/AM,-7.1940195,-59.8830192,31,138.64663
1,Aquidabã/SE,-10.2837579,-37.0188687,2386,11005.02744
D1,Aquidabã/SE,-10.2837579,-37.0188687,39,179.88100
1,Aquidauana/MS,-20.473969,-55.7821375,5514,11480.56383
D1,Aquidauana/MS,-20.473969,-55.7821375,151,314.39339
1,Aquiraz/CE,-3.9063117,-38.387504,6605,8160.86983
D1,Aquiraz/CE,-3.9063117,-38.387504,91,112.43591
1,Arabutã/SC,-27.1587028,-52.1438142,419,9819.54535
D1,Arabutã/SC,-27.1587028,-52.1438142,8,187.48535
1,Aracaju/SE,-10.9162061,-37.0774655,126145,18971.79760
D1,Aracaju/SE,-10.9162061,-37.0774655,2391,359.59862
1,Aracati/CE,-4.558259,-37.767894,8001,10671.55719
D1,Aracati/CE,-4.558259,-37.767894,166,221.40714
1,Aracatu/BA,-14.4274236,-41.4604105,882,6761.21119
D1,Aracatu/BA,-14.4274236,-41.4604105,17,130.31813
1,Araci/BA,-11.3356065,-38.9573261,3661,6699.23876
D1,Araci/BA,-11.3356065,-38.9573261,48,87.83487
1,Aracitaba/MG,-21.3425,-43.378611,90,4371.05391
D1,Aracitaba/MG,-21.3425,-43.378611,9,437.10539
1,Aracoiaba/CE,-4.3702577,-38.8084313,4276,16114.56567
D1,Aracoiaba/CE,-4.3702577,-38.8084313,35,131.90126
1,Aracruz/ES,-19.8245218,-40.2735025,16720,16217.10750
D1,Aracruz/ES,-19.8245218,-40.2735025,232,225.02207
1,Aragarças/GO,-15.8957166,-52.2514538,3030,14945.98727
D1,Aragarças/GO,-15.8957166,-52.2514538,68,335.42150
1,Aragoiânia/GO,-16.9146388,-49.4499148,1202,11451.98171
D1,Aragoiânia/GO,-16.9146388,-49.4499148,23,219.13110
1,Aragominas/TO,-7.1654101,-48.525488,553,9649.27587
D1,Aragominas/TO,-7.1654101,-48.525488,10,174.48962
1,Araguacema/TO,-8.8067391,-49.5560969,721,10076.86932
D1,Araguacema/TO,-8.8067391,-49.5560969,14,195.66737
1,Araguaiana/MT,-15.729144,-51.834112,392,12608.55581
D1,Araguaiana/MT,-15.729144,-51.834112,6,192.98810
1,Araguainha/MT,-16.857016,-53.031778,29,3065.53911
D1,Araguainha/MT,-16.857016,-53.031778,1,105.70825
1,Araguanã/MA,-2.9508403,-45.6651986,808,5195.80734
D1,Araguanã/MA,-2.9508403,-45.6651986,5,32.15227
1,Araguanã/TO,-6.5799107,-48.6428482,575,9925.77248
D1,Araguanã/TO,-6.5799107,-48.6428482,15,258.93320
1,Araguapaz/GO,-15.0937927,-50.626417,666,8557.11165
D1,Araguapaz/GO,-15.0937927,-50.626417,26,334.06142
1,Araguari/MG,-18.6511256,-48.1933764,17133,14541.05665
D1,Araguari/MG,-18.6511256,-48.1933764,420,356.46085
1,Araguatins/TO,-5.6522925,-48.1158973,2459,6798.45176
D1,Araguatins/TO,-5.6522925,-48.1158973,65,179.70694
1,Araguaçu/TO,-12.928934,-49.823134,881,10405.10216
D1,Araguaçu/TO,-12.928934,-49.823134,21,248.02173
1,Araguaína/TO,-7.193241,-48.2018597,35802,19523.28758
D1,Araguaína/TO,-7.193241,-48.2018597,500,272.65638
1,Araioses/MA,-2.890914,-41.904993,673,1438.92583
D1,Araioses/MA,-2.890914,-41.904993,15,32.07116
1,Aral Moreira/MS,-22.951141,-55.6268421,553,4484.26857
D1,Aral Moreira/MS,-22.951141,-55.6268421,15,121.63477
1,Aramari/BA,-12.0907897,-38.4985065,648,5653.95690
D1,Aramari/BA,-12.0907897,-38.4985065,12,104.70291
1,Arambaré/RS,-30.9132252,-51.4994625,224,6288.60191
D1,Arambaré/RS,-30.9132252,-51.4994625,8,224.59293
1,Arame/MA,-4.8858769,-46.0102484,1563,4770.47979
D1,Arame/MA,-4.8858769,-46.0102484,42,128.18948
1,Aramina/SP,-20.0876144,-47.789201,348,6153.84615
D1,Aramina/SP,-20.0876144,-47.789201,17,300.61892
1,Arandu/SP,-23.1345103,-49.0545651,605,9505.10605
D1,Arandu/SP,-23.1345103,-49.0545651,14,219.95287
1,Arantina/MG,-21.911667,-44.255833,210,7534.98385
D1,Arantina/MG,-21.911667,-44.255833,4,143.52350
1,Arapeí/SP,-22.6738889,-44.4477778,249,10121.95122
D1,Arapeí/SP,-22.6738889,-44.4477778,3,121.95122
1,Arapiraca/AL,-9.754866,-36.661471,30576,13120.10024
D1,Arapiraca/AL,-9.754866,-36.661471,508,217.98178
1,Arapoema/TO,-7.6575001,-49.0641484,500,7557.43652
D1,Arapoema/TO,-7.6575001,-49.0641484,11,166.26360
1,Araponga/MG,-20.666667,-42.520556,654,7736.89814
D1,Araponga/MG,-20.666667,-42.520556,9,106.47108
1,Arapongas/PR,-23.415296,-51.42592,13727,10998.31744
D1,Arapongas/PR,-23.415296,-51.42592,555,444.67591
1,Araporã/MG,-18.4318188,-49.188313,1988,28682.72976
D1,Araporã/MG,-18.4318188,-49.188313,33,476.12177
1,Arapoti/PR,-24.1457957,-49.8224605,3152,11137.80919
D1,Arapoti/PR,-24.1457957,-49.8224605,61,215.54770
1,Araputanga/MT,-15.4710868,-58.346796,2054,12117.27922
D1,Araputanga/MT,-15.4710868,-58.346796,55,324.46463
1,Arapuá/MG,-19.034444,-46.155556,283,9982.36332
D1,Arapuá/MG,-19.034444,-46.155556,2,70.54674
1,Arapuã/PR,-24.3079525,-51.7901941,227,7544.03456
D1,Arapuã/PR,-24.3079525,-51.7901941,6,199.40179
1,Araquari/SC,-26.3703324,-48.7210994,3785,9576.45987
D1,Araquari/SC,-26.3703324,-48.7210994,81,204.93877
1,Arara/PB,-6.8271895,-35.7605703,1037,7657.65766
D1,Arara/PB,-6.8271895,-35.7605703,29,214.14857
1,Araranguá/SC,-28.9348832,-49.4858389,10861,15770.97884
D1,Araranguá/SC,-28.9348832,-49.4858389,246,357.21027
1,Araraquara/SP,-21.7886713,-48.1773096,23797,9984.51785
D1,Araraquara/SP,-21.7886713,-48.1773096,479,200.97424
1,Araras/SP,-22.3569477,-47.3838889,17343,12798.69526
D1,Araras/SP,-22.3569477,-47.3838889,384,283.38229
1,Ararendá/CE,-4.7504395,-40.8303611,1402,12793.13806
D1,Ararendá/CE,-4.7504395,-40.8303611,21,191.62332
1,Arari/MA,-3.4547602,-44.7772723,982,3280.76974
D1,Arari/MA,-3.4547602,-44.7772723,32,106.90899
1,Araricá/RS,-29.6168543,-50.929121,1020,17674.57980
D1,Araricá/RS,-29.6168543,-50.929121,26,450.52850
1,Araripe/CE,-7.212861,-40.1359222,1345,6211.32354
D1,Araripe/CE,-7.212861,-40.1359222,20,92.36169
1,Araripina/PE,-7.5768582,-40.5038509,7286,8585.50151
D1,Araripina/PE,-7.5768582,-40.5038509,156,183.82353
1,Araruama/RJ,-22.8733203,-42.3428897,6556,4881.86279
D1,Araruama/RJ,-22.8733203,-42.3428897,439,326.89716
1,Araruna/PB,-6.5321155,-35.7397595,696,3401.26081
D1,Araruna/PB,-6.5321155,-35.7397595,16,78.18990
1,Araruna/PR,-23.9320308,-52.4976047,2119,15135.71429
D1,Araruna/PR,-23.9320308,-52.4976047,36,257.14286
1,Arataca/BA,-15.2617424,-39.4122943,790,7207.37159
D1,Arataca/BA,-15.2617424,-39.4122943,15,136.84883
1,Aratiba/RS,-27.3955734,-52.3024325,448,7238.64922
D1,Aratiba/RS,-27.3955734,-52.3024325,7,113.10389
1,Aratuba/CE,-4.4195958,-39.0463737,1636,13862.05728
D1,Aratuba/CE,-4.4195958,-39.0463737,9,76.25826
1,Aratuípe/BA,-13.077137,-39.0010786,479,5420.39154
D1,Aratuípe/BA,-13.077137,-39.0010786,11,124.47663
1,Araucária/PR,-25.5861107,-49.4051209,26793,18324.51065
D1,Araucária/PR,-25.5861107,-49.4051209,465,318.02700
1,Arauá/SE,-11.2644014,-37.6181058,1271,12777.72193
D1,Arauá/SE,-11.2644014,-37.6181058,21,211.11893
1,Araxá/MG,-19.5928536,-46.940241,13935,12982.47575
D1,Araxá/MG,-19.5928536,-46.940241,230,214.27839
1,Araçagi/PB,-6.8519969,-35.3835602,1629,9627.09060
D1,Araçagi/PB,-6.8519969,-35.3835602,24,141.83559
1,Araçariguama/SP,-23.438611,-47.061389,1975,8639.54506
D1,Araçariguama/SP,-23.438611,-47.061389,62,271.21610
1,Araçatuba/SP,-21.207992,-50.4390225,28579,14424.44064
D1,Araçatuba/SP,-21.207992,-50.4390225,853,430.52759
1,Araçaí/MG,-19.200833,-44.2475,72,3058.62362
D1,Araçaí/MG,-19.200833,-44.2475,1,42.48088
1,Araçoiaba da Serra/SP,-23.5045367,-47.6168158,2942,8459.85737
D1,Araçoiaba da Serra/SP,-23.5045367,-47.6168158,81,232.91925
1,Araçoiaba/PE,-7.7856903,-35.0898881,670,3231.56321
D1,Araçoiaba/PE,-7.7856903,-35.0898881,31,149.52009
1,Araçu/GO,-16.3561579,-49.6815269,464,13310.38439
D1,Araçu/GO,-16.3561579,-49.6815269,17,487.66495
1,Araçuaí/MG,-16.8484451,-42.0661868,1900,5175.41948
D1,Araçuaí/MG,-16.8484451,-42.0661868,50,136.19525
1,Araçás/BA,-12.2139176,-38.2026159,702,5750.32765
D1,Araçás/BA,-12.2139176,-38.2026159,14,114.67890
1,Araújos/MG,-19.948055,-45.165556,904,9615.99830
D1,Araújos/MG,-19.948055,-45.165556,13,138.28316
1,Arceburgo/MG,-21.364444,-46.939722,1251,11494.99219
D1,Arceburgo/MG,-21.364444,-46.939722,33,303.22521
1,Arco-Íris/SP,-21.7741308,-50.4668814,157,8855.04794
D1,Arco-Íris/SP,-21.7741308,-50.4668814,8,451.21263
1,Arcos/MG,-20.282223,-45.539444,5559,13766.71620
D1,Arcos/MG,-20.282223,-45.539444,112,277.36503
1,Arcoverde/PE,-8.415192,-37.057748,6516,8708.66857
D1,Arcoverde/PE,-8.415192,-37.057748,133,177.75521
1,Areado/MG,-21.3582771,-46.1476688,1172,7720.17654
D1,Areado/MG,-21.3582771,-46.1476688,27,177.85390
1,Areal/RJ,-22.2314922,-43.1056264,1574,12424.02715
D1,Areal/RJ,-22.2314922,-43.1056264,50,394.66414
1,Arealva/SP,-22.0301906,-48.9111936,977,11343.31824
D1,Arealva/SP,-22.0301906,-48.9111936,17,197.37606
1,Areia Branca/RN,-4.9506652,-37.1263312,2931,10480.20882
D1,Areia Branca/RN,-4.9506652,-37.1263312,95,339.68606
1,Areia Branca/SE,-10.7591455,-37.3148072,2087,11168.78947
D1,Areia Branca/SE,-10.7591455,-37.3148072,48,256.87681
1,Areia de Baraúnas/PB,-7.1233949,-36.9446216,209,9877.12665
D1,Areia de Baraúnas/PB,-7.1233949,-36.9446216,4,189.03592
1,Areia/PB,-6.9680243,-35.6994783,1892,8350.98870
D1,Areia/PB,-6.9680243,-35.6994783,30,132.41525
1,Areial/PB,-7.0501306,-35.9245244,365,5194.25075
D1,Areial/PB,-7.0501306,-35.9245244,12,170.76989
1,Areias/SP,-22.5800929,-44.6975127,339,8701.23203
D1,Areias/SP,-22.5800929,-44.6975127,2,51.33470
1,Areiópolis/SP,-22.6758064,-48.6673653,1340,12009.32067
D1,Areiópolis/SP,-22.6758064,-48.6673653,20,179.24359
1,Arenápolis/MT,-14.4610369,-56.8432806,1870,19680.06735
D1,Arenápolis/MT,-14.4610369,-56.8432806,35,368.34351
1,Arenópolis/GO,-16.3859286,-51.55937,300,11829.65300
D1,Arenópolis/GO,-16.3859286,-51.55937,8,315.45741
1,Argirita/MG,-21.612761,-42.8371922,280,10355.02959
D1,Argirita/MG,-21.612761,-42.8371922,7,258.87574
1,Aricanduva/MG,-17.8678,-42.5569,137,2600.11387
1,Arinos/MG,-15.917223,-46.106111,836,4680.32695
D1,Arinos/MG,-15.917223,-46.106111,27,151.15888
1,Aripuanã/MT,-10.175806,-59.4439663,3037,13370.60844
D1,Aripuanã/MT,-10.175806,-59.4439663,45,198.11570
1,Ariquemes/RO,-9.9076522,-63.033069,22297,20358.28091
D1,Ariquemes/RO,-9.9076522,-63.033069,485,442.82936
1,Ariranha do Ivaí/PR,-24.3834527,-51.5876772,178,8615.68248
D1,Ariranha do Ivaí/PR,-24.3834527,-51.5876772,4,193.61084
1,Ariranha/SP,-21.18716,-48.790418,962,9855.54759
D1,Ariranha/SP,-21.18716,-48.790418,24,245.87645
1,Armazém/SC,-28.2624996,-49.0190126,1422,16234.72999
D1,Armazém/SC,-28.2624996,-49.0190126,30,342.50485
1,Armação dos Búzios/RJ,-22.7597805,-41.8875267,4706,13649.67950
D1,Armação dos Búzios/RJ,-22.7597805,-41.8875267,61,176.92955
1,Arneiroz/CE,-6.3235099,-40.1603859,669,8528.81183
D1,Arneiroz/CE,-6.3235099,-40.1603859,17,216.72616
1,Aroazes/PI,-6.1108814,-41.7886137,595,10211.08632
D1,Aroazes/PI,-6.1108814,-41.7886137,12,205.93788
1,Aroeiras do Itaim/PI,-7.2797031,-41.5629681,130,5096.04077
D1,Aroeiras do Itaim/PI,-7.2797031,-41.5629681,2,78.40063
1,Aroeiras/PB,-7.5462904,-35.7080002,1873,9798.07491
D1,Aroeiras/PB,-7.5462904,-35.7080002,14,73.23708
1,Arraial do Cabo/RJ,-22.9662839,-42.024427,759,2480.95970
D1,Arraial do Cabo/RJ,-22.9662839,-42.024427,41,134.01759
1,Arraial/PI,-6.6541632,-42.5335332,159,3368.64407
D1,Arraial/PI,-6.6541632,-42.5335332,3,63.55932
1,Arraias/TO,-12.9287788,-46.9437231,1089,10337.95329
D1,Arraias/TO,-12.9287788,-46.9437231,12,113.91684
1,Arroio Grande/RS,-32.2384246,-53.0866661,2071,11355.41178
D1,Arroio Grande/RS,-32.2384246,-53.0866661,54,296.08510
1,Arroio Trinta/SC,-26.9301976,-51.334928,607,17103.40941
D1,Arroio Trinta/SC,-26.9301976,-51.334928,14,394.47732
1,Arroio do Meio/RS,-29.4020392,-51.9444993,3149,15018.83913
D1,Arroio do Meio/RS,-29.4020392,-51.9444993,45,214.62298
1,Arroio do Padre/RS,-31.4428773,-52.4228985,247,8370.04405
D1,Arroio do Padre/RS,-31.4428773,-52.4228985,4,135.54727
1,Arroio do Sal/RS,-29.549852,-49.8874395,1156,11246.23018
D1,Arroio do Sal/RS,-29.549852,-49.8874395,40,389.14291
1,Arroio do Tigre/RS,-29.334158,-53.0888935,1240,9244.76254
D1,Arroio do Tigre/RS,-29.334158,-53.0888935,21,156.56453
1,Arroio dos Ratos/RS,-30.0894524,-51.7265541,1084,7646.18749
D1,Arroio dos Ratos/RS,-30.0894524,-51.7265541,36,253.93243
1,Artur Nogueira/SP,-22.572737,-47.172679,5221,9434.40549
D1,Artur Nogueira/SP,-22.572737,-47.172679,132,238.52548
1,Aruanã/GO,-14.9162439,-51.0715692,569,5628.09100
D1,Aruanã/GO,-14.9162439,-51.0715692,16,158.25915
1,Arujá/SP,-23.396266,-46.3175449,7903,8669.65784
D1,Arujá/SP,-23.396266,-46.3175449,327,358.72177
1,Arvoredo/SC,-27.0752908,-52.4571847,319,14279.31961
D1,Arvoredo/SC,-27.0752908,-52.4571847,4,179.05103
1,Arvorezinha/RS,-28.87369,-52.17808,877,8414.08424
D1,Arvorezinha/RS,-28.87369,-52.17808,27,259.04250
1,Arês/RN,-6.1969216,-35.1642968,1136,7879.58660
D1,Arês/RN,-6.1969216,-35.1642968,25,173.40640
1,Ascurra/SC,-26.9569975,-49.3767752,1228,15392.32890
D1,Ascurra/SC,-26.9569975,-49.3767752,11,137.87917
1,Aspásia/SP,-20.160028,-50.728046,203,11166.11661
D1,Aspásia/SP,-20.160028,-50.728046,8,440.04400
1,Assaré/CE,-6.8746791,-39.8741385,2302,9804.92376
D1,Assaré/CE,-6.8746791,-39.8741385,43,183.15018
1,Assaí/PR,-23.3736041,-50.8454929,1379,9221.61295
D1,Assaí/PR,-23.3736041,-50.8454929,44,294.23566
1,Assis Brasil/AC,-10.9409203,-69.5672108,1784,23679.32041
D1,Assis Brasil/AC,-10.9409203,-69.5672108,24,318.55588
1,Assis Chateaubriand/PR,-24.4054826,-53.5120468,4770,14307.13857
D1,Assis Chateaubriand/PR,-24.4054826,-53.5120468,110,329.93401
1,Assis/SP,-22.6620892,-50.420623,11237,10693.04481
D1,Assis/SP,-22.6620892,-50.420623,389,370.16948
1,Assunção do Piauí/PI,-5.8610212,-41.0485091,345,4387.63831
D1,Assunção do Piauí/PI,-5.8610212,-41.0485091,8,101.74234
1,Assunção/PB,-7.073396,-36.7274003,402,9977.66195
D1,Assunção/PB,-7.073396,-36.7274003,5,124.10027
1,Astolfo Dutra/MG,-21.3132636,-42.8624102,1343,9411.35249
D1,Astolfo Dutra/MG,-21.3132636,-42.8624102,25,175.19271
1,Astorga/PR,-23.2350184,-51.6647074,3333,12717.00561
D1,Astorga/PR,-23.2350184,-51.6647074,86,328.13156
1,Atalaia do Norte/AM,-4.3658547,-70.1908742,2825,13849.39700
D1,Atalaia do Norte/AM,-4.3658547,-70.1908742,10,49.02441
1,Atalaia/AL,-9.5029595,-36.0219316,1215,2565.18526
D1,Atalaia/AL,-9.5029595,-36.0219316,51,107.67444
1,Atalaia/PR,-23.1513833,-52.0529697,453,11672.24942
D1,Atalaia/PR,-23.1513833,-52.0529697,21,541.09766
1,Atalanta/SC,-27.421916,-49.778863,490,15336.46322
D1,Atalanta/SC,-27.421916,-49.778863,11,344.28795
1,Ataléia/MG,-18.04432,-41.1110524,1173,9252.24799
D1,Ataléia/MG,-18.04432,-41.1110524,11,86.76447
1,Atibaia/SP,-23.1177393,-46.5547861,11858,8229.69297
D1,Atibaia/SP,-23.1177393,-46.5547861,262,181.83332
1,Atilio Vivacqua/ES,-20.9139369,-41.1947519,1559,12878.97563
D1,Atilio Vivacqua/ES,-20.9139369,-41.1947519,28,231.30938
1,Augustinópolis/TO,-5.4662267,-47.8897519,1671,8963.14971
D1,Augustinópolis/TO,-5.4662267,-47.8897519,27,144.82648
1,Augusto Corrêa/PA,-1.0229335,-46.6404029,2019,4344.64505
D1,Augusto Corrêa/PA,-1.0229335,-46.6404029,47,101.13834
1,Augusto Pestana/RS,-28.5148413,-53.9906433,837,12677.97637
D1,Augusto Pestana/RS,-28.5148413,-53.9906433,13,196.91003
1,Augusto de Lima/MG,-18.1092963,-44.2651945,277,5710.16285
D1,Augusto de Lima/MG,-18.1092963,-44.2651945,10,206.14306
1,Aurelino Leal/BA,-14.3167137,-39.3256107,1019,9018.49721
D1,Aurelino Leal/BA,-14.3167137,-39.3256107,33,292.06124
1,Auriflama/SP,-20.6840418,-50.5554616,2025,13276.07684
D1,Auriflama/SP,-20.6840418,-50.5554616,71,465.48220
1,Aurilândia/GO,-16.6772599,-50.4641231,240,7848.26684
D1,Aurilândia/GO,-16.6772599,-50.4641231,8,261.60889
1,Aurora do Pará/PA,-2.1323199,-47.558436,1693,5328.42350
D1,Aurora do Pará/PA,-2.1323199,-47.558436,15,47.20990
1,Aurora do Tocantins/TO,-12.71045,-46.407604,245,6476.34153
D1,Aurora do Tocantins/TO,-12.71045,-46.407604,5,132.17024
1,Aurora/CE,-6.9426019,-38.9693765,1784,7249.08574
D1,Aurora/CE,-6.9426019,-38.9693765,38,154.40878
1,Aurora/SC,-27.3166417,-49.6368502,873,15361.60479
D1,Aurora/SC,-27.3166417,-49.6368502,16,281.54144
1,Autazes/AM,-3.5833283,-59.1301518,2889,7170.51378
D1,Autazes/AM,-3.5833283,-59.1301518,95,235.79052
1,Avanhandava/SP,-21.4603331,-49.9465156,1125,8117.46879
D1,Avanhandava/SP,-21.4603331,-49.9465156,43,310.26770
1,Avaré/SP,-23.1045215,-48.9259103,11335,12424.36864
D1,Avaré/SP,-23.1045215,-48.9259103,257,281.69940
1,Avaí/SP,-22.1564662,-49.3316395,466,8572.47976
D1,Avaí/SP,-22.1564662,-49.3316395,12,220.75055
1,Aveiro/PA,-3.6049239,-55.3310742,843,5138.99049
D1,Aveiro/PA,-3.6049239,-55.3310742,13,79.24896
1,Avelino Lopes/PI,-10.1346855,-43.9489525,442,3902.52516
D1,Avelino Lopes/PI,-10.1346855,-43.9489525,19,167.75561
1,Avelinópolis/GO,-16.4672409,-49.7578661,317,13158.98713
D1,Avelinópolis/GO,-16.4672409,-49.7578661,14,581.15401
1,Axixá do Tocantins/TO,-5.612747,-47.77007,1039,10616.12343
D1,Axixá do Tocantins/TO,-5.612747,-47.77007,21,214.57035
1,Axixá/MA,-2.8379465,-44.0561053,192,1575.96651
D1,Axixá/MA,-2.8379465,-44.0561053,8,65.66527
1,Açailândia/MA,-4.9514278,-47.4844564,5539,4896.52673
D1,Açailândia/MA,-4.9514278,-47.4844564,229,202.43810
1,Açu/RN,-5.5836157,-36.9139541,8147,13954.16552
D1,Açu/RN,-5.5836157,-36.9139541,147,251.78131
1,Açucena/MG,-19.073056,-42.546666,799,8529.03501
D1,Açucena/MG,-19.073056,-42.546666,34,362.93766
1,Babaçulândia/TO,-7.2034355,-47.761613,854,8006.75042
D1,Babaçulândia/TO,-7.2034355,-47.761613,7,65.62910
1,Bacabal/MA,-4.2318132,-44.781167,5427,5178.92929
D1,Bacabal/MA,-4.2318132,-44.781167,194,185.13217
1,Bacabeira/MA,-2.9775747,-44.3155943,389,2254.81104
D1,Bacabeira/MA,-2.9775747,-44.3155943,9,52.16786
1,Bacuri/MA,-1.728894,-45.1417148,600,3216.46832
D1,Bacuri/MA,-1.728894,-45.1417148,4,21.44312
1,Bacurituba/MA,-2.7082587,-44.7381309,117,2063.49206
D1,Bacurituba/MA,-2.7082587,-44.7381309,2,35.27337
1,Bady Bassitt/SP,-20.9178969,-49.4517911,3975,22380.49659
D1,Bady Bassitt/SP,-20.9178969,-49.4517911,82,461.68572
1,Baependi/MG,-21.959162,-44.8899249,1531,7974.37367
D1,Baependi/MG,-21.959162,-44.8899249,32,166.67535
1,Bagre/PA,-1.8994498,-50.2103844,919,2933.75898
D1,Bagre/PA,-1.8994498,-50.2103844,12,38.30806
1,Bagé/RS,-31.3314264,-54.1062808,11194,9225.69745
D1,Bagé/RS,-31.3314264,-54.1062808,288,237.35938
1,Baianópolis/BA,-12.3067564,-44.5383591,906,6504.41525
D1,Baianópolis/BA,-12.3067564,-44.5383591,15,107.68899
1,Baixa Grande do Ribeiro/PI,-7.862861,-45.2113289,2653,22731.55685
D1,Baixa Grande do Ribeiro/PI,-7.862861,-45.2113289,33,282.75212
1,Baixa Grande/BA,-11.9630941,-40.1657537,872,4264.26720
D1,Baixa Grande/BA,-11.9630941,-40.1657537,15,73.35322
1,Baixio/CE,-6.7303544,-38.7170095,695,11026.49532
D1,Baixio/CE,-6.7303544,-38.7170095,13,206.25099
1,Baixo Guandu/ES,-19.5138322,-41.0182089,3743,12022.99884
D1,Baixo Guandu/ES,-19.5138322,-41.0182089,77,247.33393
1,Baião/PA,-2.7903479,-49.6702845,770,1588.97212
D1,Baião/PA,-2.7903479,-49.6702845,35,72.22601
1,Balbinos/SP,-21.9006253,-49.3583966,363,6117.29019
D1,Balbinos/SP,-21.9006253,-49.3583966,4,67.40816
1,Baldim/MG,-19.2913568,-43.9558262,665,8522.36319
D1,Baldim/MG,-19.2913568,-43.9558262,21,269.12726
1,Baliza/GO,-16.1978119,-52.542789,419,7935.60606
D1,Baliza/GO,-16.1978119,-52.542789,9,170.45455
1,Balneário Arroio do Silva/SC,-28.9815269,-49.4189932,2128,15845.12286
D1,Balneário Arroio do Silva/SC,-28.9815269,-49.4189932,58,431.86895
1,Balneário Barra do Sul/SC,-26.459842,-48.6061471,1454,13176.25736
D1,Balneário Barra do Sul/SC,-26.459842,-48.6061471,43,389.66923
1,Balneário Camboriú/SC,-26.9924395,-48.6339782,25381,17408.57088
D1,Balneário Camboriú/SC,-26.9924395,-48.6339782,384,263.38171
1,Balneário Gaivota/SC,-29.1553098,-49.5808712,1340,11900.53286
D1,Balneário Gaivota/SC,-29.1553098,-49.5808712,38,337.47780
1,Balneário Pinhal/RS,-30.2482978,-50.234585,983,6843.97410
D1,Balneário Pinhal/RS,-30.2482978,-50.234585,49,341.15435
1,Balneário Piçarras/SC,-26.7638889,-48.6716667,5135,21601.04324
D1,Balneário Piçarras/SC,-26.7638889,-48.6716667,57,239.77789
1,Balneário Rincão/SC,-28.8235718,-49.2241642,1463,11300.78789
D1,Balneário Rincão/SC,-28.8235718,-49.2241642,51,393.94408
1,Balsa Nova/PR,-25.5842234,-49.6312741,1655,12641.30767
D1,Balsa Nova/PR,-25.5842234,-49.6312741,31,236.78582
1,Balsas/MA,-7.53214,-46.037163,10943,11407.39505
D1,Balsas/MA,-7.53214,-46.037163,199,207.44509
1,Bambuí/MG,-20.0131996,-45.9777034,1805,7552.93330
D1,Bambuí/MG,-20.0131996,-45.9777034,29,121.34907
1,Banabuiú/CE,-5.3046404,-38.919766,2313,12669.80719
D1,Banabuiú/CE,-5.3046404,-38.919766,22,120.50833
1,Bananal/SP,-22.6828195,-44.3221095,972,8841.99036
D1,Bananal/SP,-22.6828195,-44.3221095,3,27.29009
1,Bananeiras/PB,-6.7537682,-35.6338343,1507,7085.42950
D1,Bananeiras/PB,-6.7537682,-35.6338343,26,122.24364
1,Bandeira do Sul/MG,-21.728056,-46.385555,652,11284.18138
D1,Bandeira do Sul/MG,-21.728056,-46.385555,15,259.60540
1,Bandeira/MG,-15.884444,-40.559167,474,9945.44692
D1,Bandeira/MG,-15.884444,-40.559167,9,188.83760
1,Bandeirante/SC,-26.7677402,-53.6397596,420,15861.02719
D1,Bandeirante/SC,-26.7677402,-53.6397596,4,151.05740
1,Bandeirantes do Tocantins/TO,-7.7635698,-48.579148,507,14114.69933
D1,Bandeirantes do Tocantins/TO,-7.7635698,-48.579148,8,222.71715
1,Bandeirantes/MS,-19.9179623,-54.3646768,609,8381.50289
D1,Bandeirantes/MS,-19.9179623,-54.3646768,11,151.39004
1,Bandeirantes/PR,-23.107788,-50.370407,5246,16808.17660
D1,Bandeirantes/PR,-23.107788,-50.370407,136,435.74381
1,Bannach/PA,-7.3508505,-50.4064531,649,19895.76947
D1,Bannach/PA,-7.3508505,-50.4064531,3,91.96812
1,Banzaê/BA,-10.5827616,-38.6122305,1184,8942.59819
D1,Banzaê/BA,-10.5827616,-38.6122305,9,67.97583
1,Baraúna/PB,-6.643394,-36.2531932,694,13980.66076
D1,Baraúna/PB,-6.643394,-36.2531932,9,181.30540
1,Baraúna/RN,-5.0775002,-37.61752,1686,5864.95982
D1,Baraúna/RN,-5.0775002,-37.61752,28,97.40147
1,Barbacena/MG,-21.2254524,-43.7735087,8659,6265.37582
D1,Barbacena/MG,-21.2254524,-43.7735087,288,208.38760
1,Barbalha/CE,-7.3121067,-39.3036427,6902,11272.62037
D1,Barbalha/CE,-7.3121067,-39.3036427,163,266.21807
1,Barbosa Ferraz/PR,-24.0287182,-52.00811,1248,10922.45755
D1,Barbosa Ferraz/PR,-24.0287182,-52.00811,39,341.32680
1,Barbosa/SP,-21.265661,-49.951816,756,10123.19229
D1,Barbosa/SP,-21.265661,-49.951816,18,241.02839
1,Barcarena/PA,-1.5107945,-48.6190679,11556,9097.27853
D1,Barcarena/PA,-1.5107945,-48.6190679,225,177.12770
1,Barcelona/RN,-5.9514918,-35.9260284,155,3880.82123
D1,Barcelona/RN,-5.9514918,-35.9260284,6,150.22534
1,Barcelos/AM,-0.9729214,-62.925635,4437,16053.98365
D1,Barcelos/AM,-0.9729214,-62.925635,60,217.09241
1,Bariri/SP,-22.0746355,-48.7394852,3087,8681.59064
D1,Bariri/SP,-22.0746355,-48.7394852,127,357.16295
1,Barra Bonita/SC,-26.6526364,-53.4419581,193,11689.88492
D1,Barra Bonita/SC,-26.6526364,-53.4419581,2,121.13870
1,Barra Bonita/SP,-22.490859,-48.558349,3542,9804.57288
D1,Barra Bonita/SP,-22.490859,-48.558349,107,296.18557
1,Barra D'Alcântara/PI,-6.5209258,-42.1071089,152,3846.15385
D1,Barra D'Alcântara/PI,-6.5209258,-42.1071089,4,101.21457
1,Barra Funda/RS,-27.9230048,-53.0401045,590,23128.18503
D1,Barra Funda/RS,-27.9230048,-53.0401045,14,548.80439
1,Barra Longa/MG,-20.2833541,-43.0423516,415,8275.17448
D1,Barra Longa/MG,-20.2833541,-43.0423516,9,179.46162
1,Barra Mansa/RJ,-22.5394843,-44.1735129,15943,8625.62421
D1,Barra Mansa/RJ,-22.5394843,-44.1735129,616,333.27382
1,Barra Velha/SC,-26.6338203,-48.6835001,4560,15271.26591
D1,Barra Velha/SC,-26.6338203,-48.6835001,113,378.43269
1,Barra da Estiva/BA,-13.6269662,-41.3278287,2732,13397.41075
D1,Barra da Estiva/BA,-13.6269662,-41.3278287,31,152.02040
1,Barra de Guabiraba/PE,-8.4173522,-35.6626669,438,3018.60786
D1,Barra de Guabiraba/PE,-8.4173522,-35.6626669,16,110.26878
1,Barra de Santa Rosa/PB,-6.7218007,-36.0564638,1710,11034.39375
D1,Barra de Santa Rosa/PB,-6.7218007,-36.0564638,12,77.43434
1,Barra de Santana/PB,-7.5230865,-35.9988518,631,7557.79135
D1,Barra de Santana/PB,-7.5230865,-35.9988518,7,83.84238
1,Barra de Santo Antônio/AL,-9.4038098,-35.5117693,457,2844.16231
D1,Barra de Santo Antônio/AL,-9.4038098,-35.5117693,32,199.15360
1,Barra de São Francisco/ES,-18.7570902,-40.8916119,4969,11047.37767
D1,Barra de São Francisco/ES,-18.7570902,-40.8916119,202,449.09847
1,Barra de São Miguel/AL,-9.8261357,-35.8837777,629,7507.75841
D1,Barra de São Miguel/AL,-9.8261357,-35.8837777,8,95.48818
1,Barra de São Miguel/PB,-7.7528088,-36.3170996,628,10354.49299
D1,Barra de São Miguel/PB,-7.7528088,-36.3170996,7,115.41632
1,Barra do Bugres/MT,-15.0683712,-57.1853688,3476,9845.07321
D1,Barra do Bugres/MT,-15.0683712,-57.1853688,80,226.58396
1,Barra do Chapéu/SP,-24.472203,-49.023784,426,7395.83333
D1,Barra do Chapéu/SP,-24.472203,-49.023784,4,69.44444
1,Barra do Choça/BA,-14.8638173,-40.5761637,2236,7164.59996
D1,Barra do Choça/BA,-14.8638173,-40.5761637,33,105.73873
1,Barra do Corda/MA,-5.496823,-45.248496,5826,6583.64598
D1,Barra do Corda/MA,-5.496823,-45.248496,61,68.93278
1,Barra do Garças/MT,-15.8916033,-52.2615413,10054,16445.57128
D1,Barra do Garças/MT,-15.8916033,-52.2615413,339,554.51051
1,Barra do Guarita/RS,-27.1888016,-53.7147086,116,3561.55972
D1,Barra do Guarita/RS,-27.1888016,-53.7147086,8,245.62481
1,Barra do Jacaré/PR,-23.1151788,-50.1813945,256,9205.32183
D1,Barra do Jacaré/PR,-23.1151788,-50.1813945,7,251.70802
1,Barra do Mendes/BA,-11.8053298,-42.057037,801,5790.50098
D1,Barra do Mendes/BA,-11.8053298,-42.057037,13,93.97817
1,Barra do Ouro/TO,-7.7113784,-47.6743925,164,3540.58722
D1,Barra do Ouro/TO,-7.7113784,-47.6743925,7,151.12263
1,Barra do Piraí/RJ,-22.4703403,-43.8263256,6492,6442.77718
D1,Barra do Piraí/RJ,-22.4703403,-43.8263256,373,370.17189
1,Barra do Quaraí/RS,-30.208947,-57.5505128,467,11048.02460
D1,Barra do Quaraí/RS,-30.208947,-57.5505128,7,165.60208
1,Barra do Ribeiro/RS,-30.2930206,-51.301437,1096,8084.98082
D1,Barra do Ribeiro/RS,-30.2930206,-51.301437,50,368.84037
1,Barra do Rio Azul/RS,-27.4101581,-52.4117471,119,7190.33233
D1,Barra do Rio Azul/RS,-27.4101581,-52.4117471,1,60.42296
1,Barra do Rocha/BA,-14.2090974,-39.6004395,403,7181.04063
D1,Barra do Rocha/BA,-14.2090974,-39.6004395,7,124.73272
1,Barra do Turvo/SP,-24.756421,-48.5056942,599,7848.53249
D1,Barra do Turvo/SP,-24.756421,-48.5056942,18,235.84906
1,Barra dos Coqueiros/SE,-10.9075694,-37.0386249,7018,22689.94504
D1,Barra dos Coqueiros/SE,-10.9075694,-37.0386249,96,310.37827
1,Barra/BA,-11.0892702,-43.1420453,2207,4093.86014
D1,Barra/BA,-11.0892702,-43.1420453,57,105.73178
1,Barracão/PR,-26.252395,-53.6349576,1345,13043.05663
D1,Barracão/PR,-26.252395,-53.6349576,35,339.41040
1,Barracão/RS,-27.6728964,-51.4582928,506,9627.09285
D1,Barracão/RS,-27.6728964,-51.4582928,16,304.41400
1,Barras/PI,-4.2446153,-42.2920241,5124,10859.38328
D1,Barras/PI,-4.2446153,-42.2920241,94,199.21585
1,Barreira/CE,-4.2883361,-38.641094,1572,6964.07212
D1,Barreira/CE,-4.2883361,-38.641094,46,203.78328
1,Barreiras do Piauí/PI,-9.9224524,-45.4763776,99,2953.46062
D1,Barreiras do Piauí/PI,-9.9224524,-45.4763776,2,59.66587
1,Barreiras/BA,-12.1440031,-44.9967406,19392,12353.55948
D1,Barreiras/BA,-12.1440031,-44.9967406,318,202.58003
1,Barreirinha/AM,-2.798863,-57.067897,2436,7499.30733
D1,Barreirinha/AM,-2.798863,-57.067897,63,193.94760
1,Barreirinhas/MA,-2.7541271,-42.8259693,2438,3856.55757
D1,Barreirinhas/MA,-2.7541271,-42.8259693,42,66.43783
1,Barreiros/PE,-8.8159644,-35.1831905,794,1856.70190
D1,Barreiros/PE,-8.8159644,-35.1831905,63,147.32018
1,Barretos/SP,-20.5531437,-48.5697509,16780,13660.82405
D1,Barretos/SP,-20.5531437,-48.5697509,537,437.17893
1,Barrinha/SP,-21.1898849,-48.1550642,1669,5030.13864
D1,Barrinha/SP,-21.1898849,-48.1550642,70,210.97046
1,Barro Alto/BA,-11.7618025,-41.9094904,926,6151.18905
D1,Barro Alto/BA,-11.7618025,-41.9094904,13,86.35579
1,Barro Alto/GO,-14.9696025,-48.9190985,1425,12491.23422
D1,Barro Alto/GO,-14.9696025,-48.9190985,19,166.54979
1,Barro Duro/PI,-5.8180139,-42.5106589,703,10004.26925
D1,Barro Duro/PI,-5.8180139,-42.5106589,12,170.76989
1,Barro Preto/BA,-14.8068289,-39.4727588,618,11343.61233
D1,Barro Preto/BA,-14.8068289,-39.4727588,11,201.90896
1,Barro/CE,-7.1713587,-38.7742136,1748,7680.81554
D1,Barro/CE,-7.1713587,-38.7742136,45,197.73267
1,Barrocas/BA,-11.5165,-39.099282894736845,806,5004.65694
D1,Barrocas/BA,-11.5165,-39.099282894736845,24,149.02204
1,Barrolândia/TO,-9.837246,-48.7264346,773,13678.99487
D1,Barrolândia/TO,-9.837246,-48.7264346,20,353.91966
1,Barroquinha/CE,-3.0200371,-41.1339229,1311,8714.43765
D1,Barroquinha/CE,-3.0200371,-41.1339229,25,166.17921
1,Barros Cassal/RS,-29.094938,-52.5832366,785,7020.21105
D1,Barros Cassal/RS,-29.094938,-52.5832366,13,116.25827
1,Barroso/MG,-21.187222,-43.976111,2044,9781.30832
D1,Barroso/MG,-21.187222,-43.976111,55,263.19567
1,Barueri/SP,-23.5112184,-46.8764612,31734,11457.06219
D1,Barueri/SP,-23.5112184,-46.8764612,1092,394.24945
1,Barão de Antonina/SP,-23.6295651,-49.5632104,476,13607.77587
D1,Barão de Antonina/SP,-23.6295651,-49.5632104,10,285.87764
1,Barão de Cocais/MG,-19.9452437,-43.4870298,4107,12496.19668
D1,Barão de Cocais/MG,-19.9452437,-43.4870298,66,200.81543
1,Barão de Cotegipe/RS,-27.6214694,-52.3765316,795,12009.06344
D1,Barão de Cotegipe/RS,-27.6214694,-52.3765316,10,151.05740
1,Barão de Grajaú/MA,-6.7542591,-43.0263477,477,2520.60875
D1,Barão de Grajaú/MA,-6.7542591,-43.0263477,2,10.56859
1,Barão de Melgaço/MT,-16.195776,-55.9668049,397,4862.81235
D1,Barão de Melgaço/MT,-16.195776,-55.9668049,16,195.98236
1,Barão de Monte Alto/MG,-21.244722,-42.2375,333,6219.64886
D1,Barão de Monte Alto/MG,-21.244722,-42.2375,12,224.13149
1,Barão do Triunfo/RS,-30.3909877,-51.7375349,473,6290.73015
D1,Barão do Triunfo/RS,-30.3909877,-51.7375349,6,79.79785
1,Barão/RS,-29.372474,-51.494908,702,11318.92938
D1,Barão/RS,-29.372474,-51.494908,11,177.36214
1,Bastos/SP,-21.9222474,-50.7317727,1938,9249.27218
D1,Bastos/SP,-21.9222474,-50.7317727,43,205.22121
1,Bataguassu/MS,-21.715899,-52.422058,3450,14790.99678
D1,Bataguassu/MS,-21.715899,-52.422058,47,201.50054
1,Batalha/AL,-9.6733809,-37.1265481,1129,6156.61468
D1,Batalha/AL,-9.6733809,-37.1265481,19,103.60999
1,Batalha/PI,-4.022391,-42.0780926,1232,4579.07452
D1,Batalha/PI,-4.022391,-42.0780926,34,126.37056
1,Batatais/SP,-20.892867,-47.592149,5039,8000.95268
D1,Batatais/SP,-20.892867,-47.592149,167,265.16354
1,Batayporã/MS,-22.2976466,-53.2685608,1081,9525.06829
D1,Batayporã/MS,-22.2976466,-53.2685608,26,229.09507
1,Baturité/CE,-4.3290203,-38.8821055,4184,11641.30102
D1,Baturité/CE,-4.3290203,-38.8821055,84,233.71637
1,Bauru/SP,-22.3218102,-49.0705863,50502,13314.63207
D1,Bauru/SP,-22.3218102,-49.0705863,1188,313.21102
1,Bayeux/PB,-7.1301631,-34.936532,8025,8255.91803
D1,Bayeux/PB,-7.1301631,-34.936532,246,253.07861
1,Baía Formosa/RN,-6.3691885,-35.0063741,515,5524.56554
D1,Baía Formosa/RN,-6.3691885,-35.0063741,9,96.54581
1,Baía da Traição/PB,-6.691258,-34.9371244,1300,14291.99648
D1,Baía da Traição/PB,-6.691258,-34.9371244,12,131.92612
1,Bebedouro/SP,-20.949077,-48.479083,4129,5323.96364
D1,Bebedouro/SP,-20.949077,-48.479083,161,207.59461
1,Beberibe/CE,-4.1810469,-38.1298101,5530,10250.42169
D1,Beberibe/CE,-4.1810469,-38.1298101,113,209.45708
1,Bela Cruz/CE,-3.0529129,-40.167582,3497,10686.99957
D1,Bela Cruz/CE,-3.0529129,-40.167582,70,213.92335
1,Bela Vista da Caroba/PR,-25.8792818,-53.6672545,192,5553.94851
D1,Bela Vista da Caroba/PR,-25.8792818,-53.6672545,7,202.48771
1,Bela Vista de Goiás/GO,-16.9692949,-48.9513071,2920,9576.28230
D1,Bela Vista de Goiás/GO,-16.9692949,-48.9513071,77,252.52525
1,Bela Vista de Minas/MG,-19.8289721,-43.0973688,881,8585.07114
D1,Bela Vista de Minas/MG,-19.8289721,-43.0973688,23,224.12785
1,Bela Vista do Maranhão/MA,-3.7416367,-45.2514192,221,1959.39356
D1,Bela Vista do Maranhão/MA,-3.7416367,-45.2514192,19,168.45465
1,Bela Vista do Paraíso/PR,-22.9948493,-51.1907996,1881,12215.07890
D1,Bela Vista do Paraíso/PR,-22.9948493,-51.1907996,67,435.09319
1,Bela Vista do Piauí/PI,-7.9716353,-41.8715061,263,6526.05459
D1,Bela Vista do Piauí/PI,-7.9716353,-41.8715061,6,148.88337
1,Bela Vista do Toldo/SC,-26.274625,-50.466354,81,1273.18453
D1,Bela Vista do Toldo/SC,-26.274625,-50.466354,3,47.15498
1,Bela Vista/MS,-22.107327,-56.5317344,1057,4273.29695
D1,Bela Vista/MS,-22.107327,-56.5317344,31,125.32848
1,Belford Roxo/RJ,-22.7667284,-43.4033603,21301,4151.28684
D1,Belford Roxo/RJ,-22.7667284,-43.4033603,789,153.76580
1,Belmiro Braga/MG,-21.9486291,-43.413564,201,5868.61314
D1,Belmiro Braga/MG,-21.9486291,-43.413564,3,87.59124
1,Belmonte/BA,-15.8630837,-38.8792845,1186,5060.37462
D1,Belmonte/BA,-15.8630837,-38.8792845,24,102.40218
1,Belmonte/SC,-26.8448262,-53.578916,329,12144.70284
D1,Belmonte/SC,-26.8448262,-53.578916,5,184.56995
1,Belo Campo/BA,-15.0338286,-41.2585109,971,5675.37553
D1,Belo Campo/BA,-15.0338286,-41.2585109,18,105.20779
1,Belo Horizonte/MG,-19.9227318,-43.9450948,260392,10326.60682
D1,Belo Horizonte/MG,-19.9227318,-43.9450948,6234,247.22751
1,Belo Jardim/PE,-8.3338293,-36.4176419,4227,5512.01638
D1,Belo Jardim/PE,-8.3338293,-36.4176419,127,165.60825
1,Belo Monte/AL,-9.8269944,-37.2787165,537,8002.98063
D1,Belo Monte/AL,-9.8269944,-37.2787165,9,134.12817
1,Belo Oriente/MG,-19.2232523,-42.4807033,2681,9931.83670
D1,Belo Oriente/MG,-19.2232523,-42.4807033,68,251.90783
1,Belo Vale/MG,-20.407778,-44.024167,1003,12993.91113
D1,Belo Vale/MG,-20.407778,-44.024167,12,155.46055
1,Belterra/PA,-2.636091,-54.937392,1636,9170.91765
D1,Belterra/PA,-2.636091,-54.937392,28,156.95947
1,Belágua/MA,-3.1604031,-43.5085052,413,5486.18491
D1,Belágua/MA,-3.1604031,-43.5085052,4,53.13496
1,Belém de Maria/PE,-8.6242497,-35.8388934,300,2474.83914
D1,Belém de Maria/PE,-8.6242497,-35.8388934,6,49.49678
1,Belém do Brejo do Cruz/PB,-6.1880727,-37.5332267,533,7252.68744
D1,Belém do Brejo do Cruz/PB,-6.1880727,-37.5332267,5,68.03647
1,Belém do Piauí/PI,-7.3767305,-40.9712156,481,13409.53443
D1,Belém do Piauí/PI,-7.3767305,-40.9712156,7,195.14915
1,Belém do São Francisco/PE,-8.7517707,-38.9625715,992,4785.33526
D1,Belém do São Francisco/PE,-8.7517707,-38.9625715,11,53.06319
1,Belém/AL,-9.5715351,-36.492841,125,2917.83380
D1,Belém/AL,-9.5715351,-36.492841,7,163.39869
1,Belém/PA,-1.45056,-48.4682453,105075,7006.67693
D1,Belém/PA,-1.45056,-48.4682453,5025,335.08020
1,Belém/PB,-6.6967586,-35.5369626,2367,13369.10477
D1,Belém/PB,-6.6967586,-35.5369626,45,254.16549
1,Beneditinos/PI,-5.4565671,-42.3605061,1289,12307.83921
D1,Beneditinos/PI,-5.4565671,-42.3605061,38,362.83777
1,Benedito Leite/MA,-7.2173453,-44.5523331,314,5569.35083
D1,Benedito Leite/MA,-7.2173453,-44.5523331,2,35.47357
1,Benedito Novo/SC,-26.7840657,-49.3629511,1063,9027.60085
D1,Benedito Novo/SC,-26.7840657,-49.3629511,19,161.35881
1,Benevides/PA,-1.3555577,-48.252235,4036,6329.19333
D1,Benevides/PA,-1.3555577,-48.252235,103,161.52302
1,Benjamin Constant do Sul/RS,-27.5105555,-52.6007689,174,8886.61900
1,Benjamin Constant/AM,-4.3782748,-70.0290603,2709,6165.92694
D1,Benjamin Constant/AM,-4.3782748,-70.0290603,87,198.01980
1,Bento Fernandes/RN,-5.6926846,-35.8207423,176,3185.52036
D1,Bento Fernandes/RN,-5.6926846,-35.8207423,3,54.29864
1,Bento Gonçalves/RS,-29.1654014,-51.5197627,20107,16507.80358
D1,Bento Gonçalves/RS,-29.1654014,-51.5197627,366,300.48521
1,Bento de Abreu/SP,-21.2707225,-50.8120444,362,12046.58902
D1,Bento de Abreu/SP,-21.2707225,-50.8120444,5,166.38935
1,Bequimão/MA,-2.4495376,-44.7884889,281,1319.31077
D1,Bequimão/MA,-2.4495376,-44.7884889,22,103.29123
1,Berilo/MG,-16.9515764,-42.4643732,153,1288.74663
D1,Berilo/MG,-16.9515764,-42.4643732,1,8.42318
1,Berizal/MG,-15.6118785,-41.7417382,241,5058.77414
D1,Berizal/MG,-15.6118785,-41.7417382,1,20.99076
1,Bernardino Batista/PB,-6.4532173,-38.5495418,291,8229.63801
D1,Bernardino Batista/PB,-6.4532173,-38.5495418,1,28.28054
1,Bernardino de Campos/SP,-23.0140216,-49.4760724,847,7590.96612
D1,Bernardino de Campos/SP,-23.0140216,-49.4760724,31,277.82757
1,Bernardo Sayão/TO,-7.8794244,-48.8968905,636,14298.56115
D1,Bernardo Sayão/TO,-7.8794244,-48.8968905,12,269.78417
1,Bernardo do Mearim/MA,-4.6315929,-44.7617508,299,4923.43158
D1,Bernardo do Mearim/MA,-4.6315929,-44.7617508,6,98.79796
1,Bertioga/SP,-23.848568,-46.139586,5842,9026.15763
D1,Bertioga/SP,-23.848568,-46.139586,161,248.75238
1,Bertolínia/PI,-7.6372159,-43.9540611,885,16070.45578
D1,Bertolínia/PI,-7.6372159,-43.9540611,11,199.74578
1,Bertópolis/MG,-17.063333,-40.573889,484,10505.75212
D1,Bertópolis/MG,-17.063333,-40.573889,3,65.11830
1,Beruri/AM,-3.9007135,-61.3717319,2292,11406.95765
D1,Beruri/AM,-3.9007135,-61.3717319,34,169.21316
1,Betim/MG,-19.968056,-44.198333,30717,6906.04878
D1,Betim/MG,-19.968056,-44.198333,1301,292.50153
1,Betânia do Piauí/PI,-8.1460635,-40.7961387,173,2785.82931
D1,Betânia do Piauí/PI,-8.1460635,-40.7961387,2,32.20612
1,Betânia/PE,-8.2742779,-38.0351767,505,3956.13004
D1,Betânia/PE,-8.2742779,-38.0351767,17,133.17665
1,Bezerros/PE,-8.2372132,-35.7558262,3863,6345.26938
D1,Bezerros/PE,-8.2372132,-35.7558262,127,208.60710
1,Bias Fortes/MG,-21.605833,-43.756944,113,3394.41274
D1,Bias Fortes/MG,-21.605833,-43.756944,3,90.11715
1,Bicas/MG,-21.7213723,-43.0604327,1427,9804.86464
D1,Bicas/MG,-21.7213723,-43.0604327,43,295.45142
1,Biguaçu/SC,-27.4961277,-48.6542432,11224,16152.89411
D1,Biguaçu/SC,-27.4961277,-48.6542432,167,240.33618
1,Bilac/SP,-21.403962,-50.47464,914,11260.31785
D1,Bilac/SP,-21.403962,-50.47464,17,209.43698
1,Biquinhas/MG,-18.783611,-45.502222,135,5404.32346
D1,Biquinhas/MG,-18.783611,-45.502222,2,80.06405
1,Birigui/SP,-21.2908491,-50.34144,16683,13358.90393
D1,Birigui/SP,-21.2908491,-50.34144,559,447.61897
1,Biritiba Mirim/SP,-23.5697765,-46.0407456,1469,4460.16517
D1,Biritiba Mirim/SP,-23.5697765,-46.0407456,100,303.61914
1,Biritinga/BA,-11.6227908,-38.8066738,577,3609.85986
D1,Biritinga/BA,-11.6227908,-38.8066738,7,43.79379
1,Bituruna/PR,-26.161281,-51.5533319,1334,8134.14634
D1,Bituruna/PR,-26.161281,-51.5533319,19,115.85366
1,Blumenau/SC,-26.9195567,-49.0658025,55348,15295.62946
D1,Blumenau/SC,-26.9195567,-49.0658025,621,171.61570
1,Boa Esperança do Iguaçu/PR,-25.6362851,-53.2139114,181,7327.93522
1,Boa Esperança do Sul/SP,-21.9930206,-48.3917372,1698,11306.43228
D1,Boa Esperança do Sul/SP,-21.9930206,-48.3917372,21,139.83220
1,Boa Esperança/ES,-18.5395472,-40.2904088,1667,11045.58707
D1,Boa Esperança/ES,-18.5395472,-40.2904088,45,298.17122
1,Boa Esperança/MG,-21.0901253,-45.5660195,4807,11952.06246
D1,Boa Esperança/MG,-21.0901253,-45.5660195,139,345.60780
1,Boa Esperança/PR,-24.2411024,-52.7860277,453,11193.47665
D1,Boa Esperança/PR,-24.2411024,-52.7860277,17,420.06425
1,Boa Hora/PI,-4.4094627,-42.1255341,565,8290.53558
D1,Boa Hora/PI,-4.4094627,-42.1255341,6,88.04109
1,Boa Nova/BA,-14.365907,-40.2063056,1012,8208.28940
D1,Boa Nova/BA,-14.365907,-40.2063056,19,154.10820
1,Boa Ventura de São Roque/PR,-24.88177,-51.5441292,528,8295.36528
D1,Boa Ventura de São Roque/PR,-24.88177,-51.5441292,6,94.26551
1,Boa Ventura/PB,-7.4202462,-38.2156782,755,14226.49331
D1,Boa Ventura/PB,-7.4202462,-38.2156782,12,226.11645
1,Boa Viagem/CE,-5.1261877,-39.7300055,4244,7776.16945
D1,Boa Viagem/CE,-5.1261877,-39.7300055,105,192.38874
1,Boa Vista da Aparecida/PR,-25.4357216,-53.4067721,1042,13819.62865
D1,Boa Vista da Aparecida/PR,-25.4357216,-53.4067721,33,437.66578
1,Boa Vista das Missões/RS,-27.6677983,-53.3127622,255,12189.29254
D1,Boa Vista das Missões/RS,-27.6677983,-53.3127622,7,334.60803
1,Boa Vista do Buricá/RS,-27.6687782,-54.1111913,893,13304.52920
D1,Boa Vista do Buricá/RS,-27.6687782,-54.1111913,11,163.88558
1,Boa Vista do Cadeado/RS,-28.5783827,-53.8123759,209,8468.39546
D1,Boa Vista do Cadeado/RS,-28.5783827,-53.8123759,4,162.07455
1,Boa Vista do Gurupi/MA,-1.7981168,-46.3071882,15,178.95490
D1,Boa Vista do Gurupi/MA,-1.7981168,-46.3071882,4,47.72131
1,Boa Vista do Incra/RS,-28.8195551,-53.3866624,310,11850.15291
D1,Boa Vista do Incra/RS,-28.8195551,-53.3866624,4,152.90520
1,Boa Vista do Ramos/AM,-2.9716927,-57.5869819,978,4983.18557
D1,Boa Vista do Ramos/AM,-2.9716927,-57.5869819,12,61.14338
1,Boa Vista do Sul/RS,-29.3510488,-51.6779679,319,11483.08135
D1,Boa Vista do Sul/RS,-29.3510488,-51.6779679,4,143.98848
1,Boa Vista do Tupim/BA,-12.6605988,-40.6083594,289,1559.54886
D1,Boa Vista do Tupim/BA,-12.6605988,-40.6083594,9,48.56727
1,Boa Vista/PB,-7.2620711,-36.2415161,834,11687.21973
D1,Boa Vista/PB,-7.2620711,-36.2415161,15,210.20179
1,Boa Vista/RR,2.8208478,-60.6719582,92839,22122.85417
D1,Boa Vista/RR,2.8208478,-60.6719582,1436,342.18829
1,Boca da Mata/AL,-9.6452054,-36.2116658,1864,6813.86168
D1,Boca da Mata/AL,-9.6452054,-36.2116658,45,164.49773
1,Boca do Acre/AM,-8.7553487,-67.3930873,2669,7706.07767
D1,Boca do Acre/AM,-8.7553487,-67.3930873,27,77.95583
1,Bocaina de Minas/MG,-22.167778,-44.394722,187,3674.59226
D1,Bocaina de Minas/MG,-22.167778,-44.394722,7,137.55158
1,Bocaina do Sul/SC,-27.745494,-49.942279,390,11181.19266
D1,Bocaina do Sul/SC,-27.745494,-49.942279,3,86.00917
1,Bocaina/PI,-6.9445939,-41.3224599,338,7502.77469
D1,Bocaina/PI,-6.9445939,-41.3224599,7,155.38291
1,Bocaina/SP,-22.1421831,-48.522276,1329,10672.98426
D1,Bocaina/SP,-22.1421831,-48.522276,34,273.04851
1,Bocaiúva do Sul/PR,-25.206591,-49.114131,2074,15797.09041
D1,Bocaiúva do Sul/PR,-25.206591,-49.114131,20,152.33453
1,Bocaiúva/MG,-17.1160208,-43.8122678,2546,5066.06176
D1,Bocaiúva/MG,-17.1160208,-43.8122678,66,131.32760
1,Bodocó/PE,-7.777592,-39.933797,2100,5471.88493
D1,Bodocó/PE,-7.777592,-39.933797,38,99.01506
1,Bodoquena/MS,-20.5508775,-56.6769653,570,7272.26333
D1,Bodoquena/MS,-20.5508775,-56.6769653,17,216.89206
1,Bodó/RN,-5.9866104,-36.4134824,190,8648.15658
1,Bofete/SP,-23.1019554,-48.2610535,910,7633.58779
D1,Bofete/SP,-23.1019554,-48.2610535,20,167.77116
1,Boituva/SP,-23.2838893,-47.6738231,6387,10273.44378
D1,Boituva/SP,-23.2838893,-47.6738231,182,292.74570
1,Bom Conselho/PE,-9.169191,-36.685683,2263,4640.43308
D1,Bom Conselho/PE,-9.169191,-36.685683,69,141.48912
1,Bom Despacho/MG,-19.7375242,-45.2517288,5175,10141.49095
D1,Bom Despacho/MG,-19.7375242,-45.2517288,88,172.45434
1,Bom Jardim da Serra/SC,-28.3380324,-49.625588,679,14228.83487
D1,Bom Jardim da Serra/SC,-28.3380324,-49.625588,5,104.77787
1,Bom Jardim de Goiás/GO,-16.2062659,-52.172793,997,11241.40264
D1,Bom Jardim de Goiás/GO,-16.2062659,-52.172793,16,180.40365
1,Bom Jardim de Minas/MG,-21.9476466,-44.1906033,487,7539.86685
D1,Bom Jardim de Minas/MG,-21.9476466,-44.1906033,3,46.44682
1,Bom Jardim/MA,-3.54129,-45.606004,1443,3450.33714
D1,Bom Jardim/MA,-3.54129,-45.606004,53,126.72756
1,Bom Jardim/PE,-7.7961572,-35.5871696,1766,4416.87717
D1,Bom Jardim/PE,-7.7961572,-35.5871696,70,175.07441
1,Bom Jardim/RJ,-22.1515328,-42.4186683,1832,6633.83546
D1,Bom Jardim/RJ,-22.1515328,-42.4186683,46,166.57010
1,Bom Jesus da Lapa/BA,-13.250571,-43.410754,6076,8722.11536
D1,Bom Jesus da Lapa/BA,-13.250571,-43.410754,94,134.93727
1,Bom Jesus da Penha/MG,-21.0165299,-46.5226644,661,15574.92931
D1,Bom Jesus da Penha/MG,-21.0165299,-46.5226644,17,400.56550
1,Bom Jesus da Serra/BA,-14.3724084,-40.5047119,478,4866.13051
D1,Bom Jesus da Serra/BA,-14.3724084,-40.5047119,9,91.62170
1,Bom Jesus das Selvas/MA,-4.4878075,-46.8526639,3454,9992.18908
D1,Bom Jesus das Selvas/MA,-4.4878075,-46.8526639,27,78.10918
1,Bom Jesus de Goiás/GO,-18.2174587,-49.739721,2957,11529.16407
D1,Bom Jesus de Goiás/GO,-18.2174587,-49.739721,113,440.58016
1,Bom Jesus do Amparo/MG,-19.7045132,-43.4752911,265,4320.88700
D1,Bom Jesus do Amparo/MG,-19.7045132,-43.4752911,7,114.13664
1,Bom Jesus do Araguaia/MT,-12.1725897,-51.5074425,1085,16179.54071
D1,Bom Jesus do Araguaia/MT,-12.1725897,-51.5074425,17,253.50432
1,Bom Jesus do Galho/MG,-19.8283191,-42.3162256,793,5335.75562
D1,Bom Jesus do Galho/MG,-19.8283191,-42.3162256,33,222.04279
1,Bom Jesus do Itabapoana/RJ,-21.1341025,-41.680095,3694,9929.30678
D1,Bom Jesus do Itabapoana/RJ,-21.1341025,-41.680095,95,255.35575
1,Bom Jesus do Norte/ES,-21.1254776,-41.6711646,1128,11323.02750
D1,Bom Jesus do Norte/ES,-21.1254776,-41.6711646,29,291.10620
1,Bom Jesus do Oeste/SC,-26.6929713,-53.0967453,183,8555.39972
D1,Bom Jesus do Oeste/SC,-26.6929713,-53.0967453,6,280.50491
1,Bom Jesus do Sul/PR,-26.1922507,-53.6002033,499,14232.74387
D1,Bom Jesus do Sul/PR,-26.1922507,-53.6002033,6,171.13520
1,Bom Jesus do Tocantins/PA,-5.0471796,-48.5978362,772,4509.87265
D1,Bom Jesus do Tocantins/PA,-5.0471796,-48.5978362,25,146.04510
1,Bom Jesus do Tocantins/TO,-8.96306,-48.165043,135,2695.68690
D1,Bom Jesus do Tocantins/TO,-8.96306,-48.165043,3,59.90415
1,Bom Jesus dos Perdões/SP,-23.1353864,-46.4648052,2159,8308.63960
D1,Bom Jesus dos Perdões/SP,-23.1353864,-46.4648052,25,96.20935
1,Bom Jesus/PB,-6.8156725,-38.6551841,186,7223.30097
D1,Bom Jesus/PB,-6.8156725,-38.6551841,3,116.50485
1,Bom Jesus/PI,-9.0711644,-44.3583926,3726,14676.80309
D1,Bom Jesus/PI,-9.0711644,-44.3583926,44,173.31705
1,Bom Jesus/RN,-5.9887544,-35.5821149,965,9399.04549
D1,Bom Jesus/RN,-5.9887544,-35.5821149,17,165.57904
1,Bom Jesus/RS,-28.6692723,-50.4346894,1001,8851.35733
D1,Bom Jesus/RS,-28.6692723,-50.4346894,23,203.37784
1,Bom Jesus/SC,-26.7350604,-52.3916519,458,14982.00851
D1,Bom Jesus/SC,-26.7350604,-52.3916519,10,327.11809
1,Bom Lugar/MA,-4.3728019,-45.0366054,518,3151.23494
D1,Bom Lugar/MA,-4.3728019,-45.0366054,7,42.58426
1,Bom Princípio do Piauí/PI,-3.1912777,-41.6430185,138,2442.04566
D1,Bom Princípio do Piauí/PI,-3.1912777,-41.6430185,13,230.04778
1,Bom Princípio/RS,-29.489788,-51.3566782,2111,14808.83900
D1,Bom Princípio/RS,-29.489788,-51.3566782,29,203.43739
1,Bom Progresso/RS,-27.5490948,-53.8655601,187,9847.28805
D1,Bom Progresso/RS,-27.5490948,-53.8655601,3,157.97788
1,Bom Repouso/MG,-22.4657069,-46.1485376,1113,10562.77878
D1,Bom Repouso/MG,-22.4657069,-46.1485376,24,227.76881
1,Bom Retiro do Sul/RS,-29.6000007,-51.9359243,1053,8498.78935
D1,Bom Retiro do Sul/RS,-29.6000007,-51.9359243,33,266.34383
1,Bom Retiro/SC,-27.798993,-49.486994,884,8787.27634
D1,Bom Retiro/SC,-27.798993,-49.486994,20,198.80716
1,Bom Sucesso de Itararé/SP,-24.3190016,-49.1446207,239,5998.99598
D1,Bom Sucesso de Itararé/SP,-24.3190016,-49.1446207,6,150.60241
1,Bom Sucesso do Sul/PR,-26.0749256,-52.8348629,528,16226.18316
D1,Bom Sucesso do Sul/PR,-26.0749256,-52.8348629,9,276.58267
1,Bom Sucesso/MG,-21.0323516,-44.7598082,1177,6684.84126
D1,Bom Sucesso/MG,-21.0323516,-44.7598082,22,124.95030
1,Bom Sucesso/PB,-6.4458948,-37.9297662,499,10068.60371
D1,Bom Sucesso/PB,-6.4458948,-37.9297662,4,80.71025
1,Bom Sucesso/PR,-23.7088019,-51.7651297,1271,17982.45614
D1,Bom Sucesso/PR,-23.7088019,-51.7651297,19,268.81720
1,Bombinhas/SC,-27.1519159,-48.4875691,3523,17324.80944
D1,Bombinhas/SC,-27.1519159,-48.4875691,61,299.97541
1,Bonfim do Piauí/PI,-9.1648678,-42.8734415,465,8179.41953
D1,Bonfim do Piauí/PI,-9.1648678,-42.8734415,8,140.72120
1,Bonfim/MG,-20.3266626, -44.2386157,464,6763.84840
D1,Bonfim/MG,-20.3266626, -44.2386157,14,204.08163
1,Bonfim/RR,3.3613818,-59.8427241,2431,19359.71968
D1,Bonfim/RR,3.3613818,-59.8427241,28,222.98320
1,Bonfinópolis de Minas/MG,-16.5660011,-45.98645,530,9735.48861
D1,Bonfinópolis de Minas/MG,-16.5660011,-45.98645,14,257.16385
1,Bonfinópolis/GO,-16.6172709,-48.9615701,489,4929.93245
D1,Bonfinópolis/GO,-16.6172709,-48.9615701,28,282.28652
1,Boninal/BA,-12.7095183,-41.8299984,653,4520.28243
D1,Boninal/BA,-12.7095183,-41.8299984,7,48.45632
1,Bonito de Minas/MG,-15.3191266,-44.7544,101,888.38068
1,Bonito de Santa Fé/PB,-7.3143332,-38.5146677,546,4541.67360
D1,Bonito de Santa Fé/PB,-7.3143332,-38.5146677,14,116.45317
1,Bonito/BA,-11.9665473,-41.2649896,875,5182.42123
D1,Bonito/BA,-11.9665473,-41.2649896,13,76.99597
1,Bonito/MS,-21.1264766,-56.4902208,3067,13821.54123
D1,Bonito/MS,-21.1264766,-56.4902208,67,301.93781
1,Bonito/PA,-1.3605722,-47.3049907,402,2431.94192
D1,Bonito/PA,-1.3605722,-47.3049907,15,90.74410
1,Bonito/PE,-8.4721161,-35.7314591,1035,2715.32387
D1,Bonito/PE,-8.4721161,-35.7314591,43,112.81056
1,Bonópolis/GO,-13.649331,-49.8329113,229,5096.81727
D1,Bonópolis/GO,-13.649331,-49.8329113,3,66.77053
1,Boqueirão do Leão/RS,-29.30332,-52.4296817,616,7997.92262
D1,Boqueirão do Leão/RS,-29.30332,-52.4296817,32,415.47650
1,Boqueirão do Piauí/PI,-4.4850148,-42.1095161,768,11951.44725
D1,Boqueirão do Piauí/PI,-4.4850148,-42.1095161,10,155.61780
1,Boqueirão/PB,-7.487004,-36.130887,2161,12092.89312
D1,Boqueirão/PB,-7.487004,-36.130887,39,218.24287
1,Boquim/SE,-11.1450175,-37.6204228,2678,9955.76044
D1,Boquim/SE,-11.1450175,-37.6204228,66,245.36228
1,Boquira/BA,-12.8184859,-42.7270883,820,3814.48574
D1,Boquira/BA,-12.8184859,-42.7270883,19,88.38443
1,Boracéia/SP,-22.195355,-48.7801925,963,19782.25144
D1,Boracéia/SP,-22.195355,-48.7801925,22,451.93098
1,Borba/AM,-4.3934778,-59.5947721,2419,5794.28955
D1,Borba/AM,-4.3934778,-59.5947721,69,165.27738
1,Borborema/PB,-6.8066718,-35.5990191,386,7300.92680
D1,Borborema/PB,-6.8066718,-35.5990191,13,245.88614
1,Borborema/SP,-21.6212706,-49.074135,1666,10306.85474
D1,Borborema/SP,-21.6212706,-49.074135,52,321.70255
1,Borda da Mata/MG,-22.274167,-46.165278,1894,9656.36790
D1,Borda da Mata/MG,-22.274167,-46.165278,53,270.21515
1,Borebi/SP,-22.5700178,-48.9714871,276,10286.99217
D1,Borebi/SP,-22.5700178,-48.9714871,4,149.08684
1,Borrazópolis/PR,-23.9393362,-51.5850786,849,13185.27722
D1,Borrazópolis/PR,-23.9393362,-51.5850786,27,419.31977
1,Borá/SP,-22.2701088,-50.544407,127,15155.13126
D1,Borá/SP,-22.2701088,-50.544407,1,119.33174
1,Bossoroca/RS,-28.7278885,-54.9120278,471,7590.65270
D1,Bossoroca/RS,-28.7278885,-54.9120278,22,354.55278
1,Botelhos/MG,-21.65,-46.394722,1793,11994.11332
D1,Botelhos/MG,-21.65,-46.394722,29,193.99291
1,Botucatu/SP,-22.8879628,-48.4410712,17716,11959.76507
D1,Botucatu/SP,-22.8879628,-48.4410712,295,199.14940
1,Botumirim/MG,-16.862778,-43.011111,236,3753.18066
D1,Botumirim/MG,-16.862778,-43.011111,4,63.61323
1,Botuporã/BA,-13.3744752,-42.5198469,386,3810.84016
D1,Botuporã/BA,-13.3744752,-42.5198469,5,49.36321
1,Botuverá/SC,-27.200749,-49.068892,926,17399.47388
D1,Botuverá/SC,-27.200749,-49.068892,10,187.89929
1,Bozano/RS,-28.3669953,-53.7705165,267,12648.03411
D1,Bozano/RS,-28.3669953,-53.7705165,8,378.96731
1,Braga/RS,-27.617348,-53.740514,425,12836.00121
D1,Braga/RS,-27.617348,-53.740514,9,271.82120
1,Braganey/PR,-24.8179919,-53.118506,545,10126.34708
D1,Braganey/PR,-24.8179919,-53.118506,7,130.06317
1,Bragança Paulista/SP,-22.9520235,-46.5418586,19656,11526.21487
D1,Bragança Paulista/SP,-22.9520235,-46.5418586,518,303.75353
1,Bragança/PA,-1.0573967,-46.7635406,4196,3254.88310
D1,Bragança/PA,-1.0573967,-46.7635406,171,132.64657
1,Branquinha/AL,-9.2478057,-36.0152009,639,6108.98662
D1,Branquinha/AL,-9.2478057,-36.0152009,12,114.72275
1,Brasil Novo/PA,-3.3055853,-52.539198,1972,13161.58313
D1,Brasil Novo/PA,-3.3055853,-52.539198,43,286.99192
1,Brasileira/PI,-4.131182,-41.7824969,630,7547.62190
D1,Brasileira/PI,-4.131182,-41.7824969,16,191.68564
1,Brasilândia de Minas/MG,-17.0096469,-46.0087183,1450,8657.75018
D1,Brasilândia de Minas/MG,-17.0096469,-46.0087183,24,143.30069
1,Brasilândia do Sul/PR,-24.1975793,-53.527551,403,15589.94197
D1,Brasilândia do Sul/PR,-24.1975793,-53.527551,9,348.16248
1,Brasilândia do Tocantins/TO,-8.3886619,-48.4842729,246,11126.18725
D1,Brasilândia do Tocantins/TO,-8.3886619,-48.4842729,6,271.37042
1,Brasilândia/MS,-21.255575,-52.0365617,1261,10638.65688
D1,Brasilândia/MS,-21.255575,-52.0365617,24,202.48038
1,Brasiléia/AC,-11.0010413,-68.7487894,2973,11133.99745
D1,Brasiléia/AC,-11.0010413,-68.7487894,42,157.29159
1,Brasnorte/MT,-12.1227151,-58.0050109,2089,10372.39325
D1,Brasnorte/MT,-12.1227151,-58.0050109,38,188.67925
1,Brasília de Minas/MG,-16.2075114,-44.430559,1328,4098.13300
D1,Brasília de Minas/MG,-16.2075114,-44.430559,8,24.68755
1,Brasília/DF,-15.7934036,-47.8823172,451894,14791.22622
D1,Brasília/DF,-15.7934036,-47.8823172,9661,316.22026
1,Brazabrantes/GO,-16.4291635,-49.3858216,522,13934.86385
D1,Brazabrantes/GO,-16.4291635,-49.3858216,3,80.08542
1,Brazópolis/MG,-22.4742842,-45.6165577,877,6086.05135
D1,Brazópolis/MG,-22.4742842,-45.6165577,32,222.06801
1,Braço do Norte/SC,-28.2728633,-49.1622712,8563,25277.48258
D1,Braço do Norte/SC,-28.2728633,-49.1622712,108,318.80978
1,Braço do Trombudo/SC,-27.358578,-49.882145,719,19076.67816
D1,Braço do Trombudo/SC,-27.358578,-49.882145,7,185.72566
1,Braúna/SP,-21.5015319,-50.3175246,613,10677.58230
D1,Braúna/SP,-21.5015319,-50.3175246,24,418.04564
1,Braúnas/MG,-19.055556,-42.716111,245,5137.34536
D1,Braúnas/MG,-19.055556,-42.716111,10,209.68757
1,Brejetuba/ES,-20.1465817,-41.2902303,1691,13607.46761
D1,Brejetuba/ES,-20.1465817,-41.2902303,14,112.65792
1,Brejinho de Nazaré/TO,-11.0205883,-48.5722906,652,11813.73437
D1,Brejinho de Nazaré/TO,-11.0205883,-48.5722906,17,308.02682
1,Brejinho/PE,-7.3482153,-37.28538,790,10550.21368
D1,Brejinho/PE,-7.3482153,-37.28538,21,280.44872
1,Brejinho/RN,-6.1957907,-35.3583019,1498,11715.02307
D1,Brejinho/RN,-6.1957907,-35.3583019,16,125.12708
1,Brejo Alegre/SP,-21.1671191,-50.1850393,393,13603.32295
D1,Brejo Alegre/SP,-21.1671191,-50.1850393,13,449.98269
1,Brejo Grande do Araguaia/PA,-5.7011449,-48.4037308,863,11712.81216
D1,Brejo Grande do Araguaia/PA,-5.7011449,-48.4037308,4,54.28882
1,Brejo Grande/SE,-10.4287358,-36.4667918,459,5495.03173
D1,Brejo Grande/SE,-10.4287358,-36.4667918,14,167.60445
1,Brejo Santo/CE,-7.4909841,-38.9859152,8408,16869.30701
D1,Brejo Santo/CE,-7.4909841,-38.9859152,155,310.98271
1,Brejo da Madre de Deus/PE,-8.1409718,-36.3712527,2262,4415.81259
D1,Brejo da Madre de Deus/PE,-8.1409718,-36.3712527,51,99.56076
1,Brejo de Areia/MA,-4.3316785,-45.5833334,316,3505.65787
D1,Brejo de Areia/MA,-4.3316785,-45.5833334,11,122.03239
1,Brejo do Cruz/PB,-6.32926065,-37.48746163303929,1921,13522.45530
D1,Brejo do Cruz/PB,-6.32926065,-37.48746163303929,23,161.90342
1,Brejo do Piauí/PI,-8.207583,-42.8359849,154,4002.07900
D1,Brejo do Piauí/PI,-8.207583,-42.8359849,4,103.95010
1,Brejo dos Santos/PB,-6.3769367,-37.8243125,765,11834.77723
D1,Brejo dos Santos/PB,-6.3769367,-37.8243125,8,123.76238
1,Brejo/MA,-3.6804397,-42.7529313,923,2518.34875
D1,Brejo/MA,-3.6804397,-42.7529313,19,51.84033
1,Brejolândia/BA,-12.4843845,-43.9611861,147,1384.44151
D1,Brejolândia/BA,-12.4843845,-43.9611861,11,103.59766
1,Brejão/PE,-9.029146,-36.566034,480,5341.04818
D1,Brejão/PE,-9.029146,-36.566034,9,100.14465
1,Brejões/BA,-13.1033754,-39.7909837,822,5779.77781
D1,Brejões/BA,-13.1033754,-39.7909837,12,84.37632
1,Breu Branco/PA,-3.7785073,-49.5684795,877,1302.50104
D1,Breu Branco/PA,-3.7785073,-49.5684795,46,68.31818
1,Breves/PA,-1.68036,-50.479085,4070,3932.48113
D1,Breves/PA,-1.68036,-50.479085,120,115.94539
1,Britânia/GO,-15.2427599,-51.1602061,663,11436.95015
D1,Britânia/GO,-15.2427599,-51.1602061,6,103.50181
1,Brochier/RS,-29.556766,-51.5963047,569,11148.11912
D1,Brochier/RS,-29.556766,-51.5963047,5,97.96238
1,Brodowski/SP,-20.984532,-47.657217,2733,10812.20081
D1,Brodowski/SP,-20.984532,-47.657217,74,292.75626
1,Brotas de Macaúbas/BA,-12.0019007,-42.6257506,148,1461.00691
D1,Brotas de Macaúbas/BA,-12.0019007,-42.6257506,8,78.97335
1,Brotas/SP,-22.2840884,-48.1267265,1708,6932.94366
D1,Brotas/SP,-22.2840884,-48.1267265,52,211.07323
1,Brumadinho/MG,-20.143611,-44.2,3915,9627.20700
D1,Brumadinho/MG,-20.143611,-44.2,86,211.47888
1,Brumado/BA,-14.29507325,-41.659307508575985,9483,14083.31477
D1,Brumado/BA,-14.29507325,-41.659307508575985,195,289.59679
1,Brunópolis/SC,-27.310953,-50.837585,290,12246.62162
D1,Brunópolis/SC,-27.310953,-50.837585,8,337.83784
1,Brusque/SC,-27.0964628,-48.9136323,28569,20748.93419
D1,Brusque/SC,-27.0964628,-48.9136323,302,219.33488
1,Brás Pires/MG,-20.8483109,-43.2430524,274,6382.48311
D1,Brás Pires/MG,-20.8483109,-43.2430524,8,186.34987
1,Bueno Brandão/MG,-22.441976,-46.3517971,953,8670.73060
D1,Bueno Brandão/MG,-22.441976,-46.3517971,29,263.85224
1,Buenos Aires/PE,-7.7218931,-35.326587,370,2805.15542
D1,Buenos Aires/PE,-7.7218931,-35.326587,25,189.53753
1,Buenópolis/MG,-17.8756607,-44.1749365,305,2946.00599
D1,Buenópolis/MG,-17.8756607,-44.1749365,12,115.90843
1,Buerarema/BA,-14.9571177,-39.3008035,1358,7418.33279
D1,Buerarema/BA,-14.9571177,-39.3008035,44,240.35835
1,Bugre/MG,-19.4257687,-42.2556,371,9314.58699
D1,Bugre/MG,-19.4257687,-42.2556,13,326.38715
1,Bujari/AC,-9.8309656,-67.9520886,1139,10930.90211
D1,Bujari/AC,-9.8309656,-67.9520886,17,163.14779
1,Bujaru/PA,-1.5169239,-48.0410699,1445,4910.45638
D1,Bujaru/PA,-1.5169239,-48.0410699,38,129.13311
1,Buri/SP,-23.79849,-48.598924,2636,13203.10543
D1,Buri/SP,-23.79849,-48.598924,93,465.81518
1,Buritama/SP,-21.0664017,-50.1448077,2527,14622.99635
D1,Buritama/SP,-21.0664017,-50.1448077,68,393.49575
1,Buriti Alegre/GO,-18.1377879,-49.0404411,1027,10828.76423
D1,Buriti Alegre/GO,-18.1377879,-49.0404411,32,337.41038
1,Buriti Bravo/MA,-5.8391884,-43.8367876,1700,7101.38268
D1,Buriti Bravo/MA,-5.8391884,-43.8367876,20,83.54568
1,Buriti de Goiás/GO,-16.180644,-50.4287479,276,11147.01131
D1,Buriti de Goiás/GO,-16.180644,-50.4287479,9,363.48950
1,Buriti do Tocantins/TO,-5.3187439,-48.2256609,1091,9489.43203
D1,Buriti do Tocantins/TO,-5.3187439,-48.2256609,19,165.26050
1,Buriti dos Lopes/PI,-3.1776723,-41.8707444,1324,6684.50548
D1,Buriti dos Lopes/PI,-3.1776723,-41.8707444,34,171.65649
1,Buriti dos Montes/PI,-5.3136171,-41.0971256,717,8676.18587
D1,Buriti dos Montes/PI,-5.3136171,-41.0971256,8,96.80542
1,Buriti/MA,-3.9430944,-42.9244281,853,2962.01125
D1,Buriti/MA,-3.9430944,-42.9244281,8,27.77971
1,Buriticupu/MA,-4.3227472,-46.4516989,3627,4969.65047
D1,Buriticupu/MA,-4.3227472,-46.4516989,65,89.06184
1,Buritinópolis/GO,-14.4589282,-46.4293104,199,6061.52909
D1,Buritinópolis/GO,-14.4589282,-46.4293104,3,91.37984
1,Buritirama/BA,-10.7148421,-43.6362327,850,3995.11186
D1,Buritirama/BA,-10.7148421,-43.6362327,23,108.10303
1,Buritirana/MA,-5.5897455,-47.0148915,448,2896.48930
D1,Buritirana/MA,-5.5897455,-47.0148915,24,155.16907
1,Buritis/MG,-15.621389,-46.423889,1934,7731.97937
D1,Buritis/MG,-15.621389,-46.423889,38,151.92100
1,Buritis/RO,-10.2054937,-63.8281954,4913,12174.15006
D1,Buritis/RO,-10.2054937,-63.8281954,75,185.84597
1,Buritizal/SP,-20.1933264,-47.7097165,317,7022.59637
D1,Buritizal/SP,-20.1933264,-47.7097165,10,221.53301
1,Buritizeiro/MG,-17.3667765,-44.9647781,1461,5195.40557
D1,Buritizeiro/MG,-17.3667765,-44.9647781,33,117.35002
1,Butiá/RS,-30.1256795,-51.9692224,2447,11679.07598
D1,Butiá/RS,-30.1256795,-51.9692224,56,267.27759
1,Buíque/PE,-8.6239732,-37.157296,2495,4234.62720
D1,Buíque/PE,-8.6239732,-37.157296,45,76.37604
1,Bálsamo/SP,-20.7343722,-49.5807484,1743,19072.10855
D1,Bálsamo/SP,-20.7343722,-49.5807484,63,689.35332
0,CASO SEM LOCALIZAÇÃO DEFINIDA/BA,-13.415069300066518,-38.14174656569957,11056,74.33573
D0,CASO SEM LOCALIZAÇÃO DEFINIDA/BA,-13.415069300066518,-38.14174656569957,280,1.88260
0,CASO SEM LOCALIZAÇÃO DEFINIDA/CE,-3.3445126297392798,-38.624961942434304,10679,116.93943
0,CASO SEM LOCALIZAÇÃO DEFINIDA/ES,-20.30989267097039,-39.81745156645774,4501,112.00279
D0,CASO SEM LOCALIZAÇÃO DEFINIDA/ES,-20.30989267097039,-39.81745156645774,219,5.44959
0,CASO SEM LOCALIZAÇÃO DEFINIDA/GO,-16.701590966270153,-49.164524059025034,2236,31.85932
D0,CASO SEM LOCALIZAÇÃO DEFINIDA/GO,-16.701590966270153,-49.164524059025034,91,1.29660
0,CASO SEM LOCALIZAÇÃO DEFINIDA/MG,-19.97049116501593,-43.8852149072783,4266,20.15231
D0,CASO SEM LOCALIZAÇÃO DEFINIDA/MG,-19.97049116501593,-43.8852149072783,341,1.61086
0,CASO SEM LOCALIZAÇÃO DEFINIDA/MT,-15.54791153961863,-56.17143998972475,3359,96.39928
D0,CASO SEM LOCALIZAÇÃO DEFINIDA/MT,-15.54791153961863,-56.17143998972475,227,6.51463
0,CASO SEM LOCALIZAÇÃO DEFINIDA/PA,-0.09317078214359542,-48.0050231510481,758,8.81102
D0,CASO SEM LOCALIZAÇÃO DEFINIDA/PA,-0.09317078214359542,-48.0050231510481,33,0.38359
0,CASO SEM LOCALIZAÇÃO DEFINIDA/PI,-2.683810218391744,-41.470898009352254,336,10.26510
D0,CASO SEM LOCALIZAÇÃO DEFINIDA/PI,-2.683810218391744,-41.470898009352254,4,0.12220
0,CASO SEM LOCALIZAÇÃO DEFINIDA/PR,-25.69415946385943,-48.10141676336737,18665,163.24182
D0,CASO SEM LOCALIZAÇÃO DEFINIDA/PR,-25.69415946385943,-48.10141676336737,533,4.66155
0,CASO SEM LOCALIZAÇÃO DEFINIDA/RR,2.813328208465927,-60.663338675861986,2648,437.13610
D0,CASO SEM LOCALIZAÇÃO DEFINIDA/RR,2.813328208465927,-60.663338675861986,15,2.47622
0,CASO SEM LOCALIZAÇÃO DEFINIDA/SP,-24.30968974555485,-46.21366504207253,979,2.13201
1,Caapiranga/AM,-3.3188884,-61.2096404,684,5149.43913
D1,Caapiranga/AM,-3.3188884,-61.2096404,22,165.62524
1,Caaporã/PB,-7.510234,-34.9154114,2120,9656.11478
D1,Caaporã/PB,-7.510234,-34.9154114,33,150.30745
1,Caarapó/MS,-22.6349267,-54.8240903,4071,13306.96565
D1,Caarapó/MS,-22.6349267,-54.8240903,55,179.77969
1,Caatiba/BA,-14.9782759,-40.4092325,943,14534.52528
D1,Caatiba/BA,-14.9782759,-40.4092325,13,200.36991
1,Cabaceiras do Paraguaçu/BA,-12.5377868,-39.1901339,744,3934.21818
D1,Cabaceiras do Paraguaçu/BA,-12.5377868,-39.1901339,5,26.43964
1,Cabaceiras/PB,-7.4899156,-36.2860501,436,7701.81947
D1,Cabaceiras/PB,-7.4899156,-36.2860501,4,70.65889
1,Cabeceira Grande/MG,-16.0297,-47.0906,452,6468.23125
D1,Cabeceira Grande/MG,-16.0297,-47.0906,6,85.86148
1,Cabeceiras do Piauí/PI,-4.4733665,-42.3098716,670,6302.91627
D1,Cabeceiras do Piauí/PI,-4.4733665,-42.3098716,14,131.70273
1,Cabeceiras/GO,-15.7995459,-46.9264991,372,4623.41536
D1,Cabeceiras/GO,-15.7995459,-46.9264991,16,198.85657
1,Cabedelo/PB,-6.97324,-34.8351609,9405,13676.61815
D1,Cabedelo/PB,-6.97324,-34.8351609,199,289.38299
1,Cabixi/RO,-13.4956065,-60.5424442,857,16518.88975
D1,Cabixi/RO,-13.4956065,-60.5424442,21,404.78026
1,Cabo Frio/RJ,-22.8804369,-42.0189227,14156,6144.68395
D1,Cabo Frio/RJ,-22.8804369,-42.0189227,755,327.72227
1,Cabo Verde/MG,-21.4743338,-46.3964995,739,5250.44405
D1,Cabo Verde/MG,-21.4743338,-46.3964995,9,63.94316
1,Cabo de Santo Agostinho/PE,-8.2838945,-35.0320984,9221,4413.14419
D1,Cabo de Santo Agostinho/PE,-8.2838945,-35.0320984,501,239.77717
1,Cabreúva/SP,-23.3075813,-47.1324417,4326,8578.39735
D1,Cabreúva/SP,-23.3075813,-47.1324417,105,208.21353
1,Cabrobó/PE,-8.5083701,-39.3106961,2398,6950.12028
D1,Cabrobó/PE,-8.5083701,-39.3106961,27,78.25406
1,Cabrália Paulista/SP,-22.4562909,-49.3385645,430,10134.33891
D1,Cabrália Paulista/SP,-22.4562909,-49.3385645,8,188.54584
1,Cacaulândia/RO,-10.3380043,-62.9007231,888,14164.93859
D1,Cacaulândia/RO,-10.3380043,-62.9007231,12,191.41809
1,Cacequi/RS,-29.8838059,-54.8273443,798,6423.56919
D1,Cacequi/RS,-29.8838059,-54.8273443,11,88.54544
1,Cachoeira Alta/GO,-18.7618269,-50.9432431,1616,12758.56624
D1,Cachoeira Alta/GO,-18.7618269,-50.9432431,23,181.58850
1,Cachoeira Dourada/GO,-18.4934204,-49.481062,732,9114.68061
D1,Cachoeira Dourada/GO,-18.4934204,-49.481062,27,336.19724
1,Cachoeira Dourada/MG,-18.517136,-49.5002062,169,6245.38064
D1,Cachoeira Dourada/MG,-18.517136,-49.5002062,2,73.90983
1,Cachoeira Grande/MA,-2.9290492,-44.0573223,326,3439.54421
D1,Cachoeira Grande/MA,-2.9290492,-44.0573223,8,84.40599
1,Cachoeira Paulista/SP,-22.666498,-45.015384,2570,7653.13719
D1,Cachoeira Paulista/SP,-22.666498,-45.015384,44,131.02647
1,Cachoeira da Prata/MG,-19.524723,-44.453056,226,6293.51156
D1,Cachoeira da Prata/MG,-19.524723,-44.453056,13,362.01615
1,Cachoeira de Goiás/GO,-16.6688414,-50.6435997,91,6780.92399
D1,Cachoeira de Goiás/GO,-16.6688414,-50.6435997,2,149.03130
1,Cachoeira de Minas/MG,-22.3554043,-45.7796324,1024,8843.59617
D1,Cachoeira de Minas/MG,-22.3554043,-45.7796324,16,138.18119
1,Cachoeira de Pajeú/MG,-15.965833,-41.496666,524,5549.67168
D1,Cachoeira de Pajeú/MG,-15.965833,-41.496666,11,116.50074
1,Cachoeira do Arari/PA,-1.0143572,-48.9621089,500,2077.79255
D1,Cachoeira do Arari/PA,-1.0143572,-48.9621089,24,99.73404
1,Cachoeira do Piriá/PA,-1.7599443,-46.5446954,934,2698.71999
D1,Cachoeira do Piriá/PA,-1.7599443,-46.5446954,6,17.33653
1,Cachoeira do Sul/RS,-30.0474778,-52.8905413,10743,13122.18300
D1,Cachoeira do Sul/RS,-30.0474778,-52.8905413,194,236.96393
1,Cachoeira dos Índios/PB,-6.9259193,-38.6742159,901,8743.32848
D1,Cachoeira dos Índios/PB,-6.9259193,-38.6742159,15,145.56041
1,Cachoeira/BA,-12.5998256,-38.9665918,1686,5022.79024
D1,Cachoeira/BA,-12.5998256,-38.9665918,30,89.37349
1,Cachoeiras de Macacu/RJ,-22.4626861,-42.6534414,3252,5483.70234
D1,Cachoeiras de Macacu/RJ,-22.4626861,-42.6534414,97,163.56677
1,Cachoeirinha/PE,-8.4906364,-36.2338963,631,3077.89864
D1,Cachoeirinha/PE,-8.4906364,-36.2338963,33,160.96776
1,Cachoeirinha/RS,-29.9493353,-51.0898927,15412,11743.37092
D1,Cachoeirinha/RS,-29.9493353,-51.0898927,441,336.02560
1,Cachoeirinha/TO,-6.118647,-47.9208885,127,5560.42032
D1,Cachoeirinha/TO,-6.118647,-47.9208885,2,87.56567
1,Cachoeiro de Itapemirim/ES,-20.848084,-41.11129,27431,13025.84655
D1,Cachoeiro de Itapemirim/ES,-20.848084,-41.11129,575,273.04370
1,Cacimba de Areia/PB,-7.1288513,-37.1575194,55,1488.49797
D1,Cacimba de Areia/PB,-7.1288513,-37.1575194,4,108.25440
1,Cacimba de Dentro/PB,-6.6425101,-35.7929304,1219,7096.28595
D1,Cacimba de Dentro/PB,-6.6425101,-35.7929304,34,197.92758
1,Cacimbas/PB,-7.2125451,-37.0593398,250,3472.70454
D1,Cacimbas/PB,-7.2125451,-37.0593398,8,111.12655
1,Cacimbinhas/AL,-9.401212,-36.991082,853,7833.59353
D1,Cacimbinhas/AL,-9.401212,-36.991082,11,101.01938
1,Cacique Doble/RS,-27.7700117,-51.6616409,605,11923.53173
D1,Cacique Doble/RS,-27.7700117,-51.6616409,12,236.49980
1,Cacoal/RO,-11.4333,-61.4420502,14207,16540.34671
D1,Cacoal/RO,-11.4333,-61.4420502,297,345.77905
1,Caconde/SP,-21.527995,-46.643659,1409,7412.27839
D1,Caconde/SP,-21.527995,-46.643659,38,199.90531
1,Caculé/BA,-14.4990734,-42.2233006,2337,10033.91868
D1,Caculé/BA,-14.4990734,-42.2233006,19,81.57657
1,Caetanos/BA,-14.3387456,-40.9085971,698,4778.20372
D1,Caetanos/BA,-14.3387456,-40.9085971,10,68.45564
1,Caetanópolis/MG,-19.2947496,-44.4138386,1110,9447.61256
D1,Caetanópolis/MG,-19.2947496,-44.4138386,19,161.71589
1,Caetité/BA,-14.0691776,-42.4852428,3181,6227.36438
D1,Caetité/BA,-14.0691776,-42.4852428,40,78.30700
1,Caeté/MG,-19.897777,-43.670278,2075,4606.30009
D1,Caeté/MG,-19.897777,-43.670278,69,153.17335
1,Caetés/PE,-8.7728788,-36.6255835,1642,5680.87462
D1,Caetés/PE,-8.7728788,-36.6255835,22,76.11403
1,Cafarnaum/BA,-11.691399,-41.468823,914,4937.07125
D1,Cafarnaum/BA,-11.691399,-41.468823,22,118.83541
1,Cafeara/PR,-22.78905,-51.714195,410,13879.48544
D1,Cafeara/PR,-22.78905,-51.714195,11,372.37644
1,Cafelândia/PR,-24.6176963,-53.3218057,2535,13735.37061
D1,Cafelândia/PR,-24.6176963,-53.3218057,26,140.87560
1,Cafelândia/SP,-21.8054355,-49.6030627,800,4483.55097
D1,Cafelândia/SP,-21.8054355,-49.6030627,43,240.99086
1,Cafezal do Sul/PR,-23.900508,-53.512418,436,10875.53006
D1,Cafezal do Sul/PR,-23.900508,-53.512418,4,99.77551
1,Caiabu/SP,-22.0143038,-51.2356597,310,7393.27451
D1,Caiabu/SP,-22.0143038,-51.2356597,7,166.94491
1,Caiana/MG,-20.695555,-41.924723,155,2797.32900
D1,Caiana/MG,-20.695555,-41.924723,7,126.33099
1,Caiapônia/GO,-16.9538779,-51.8090761,1417,7416.13021
D1,Caiapônia/GO,-16.9538779,-51.8090761,38,198.87999
1,Caibaté/RS,-28.290475,-54.645407,422,8749.74083
D1,Caibaté/RS,-28.290475,-54.645407,7,145.13788
1,Caibi/SC,-27.0751925,-53.2502133,669,10913.53997
D1,Caibi/SC,-27.0751925,-53.2502133,13,212.07178
1,Caicó/RN,-6.4594544,-37.0971911,12146,17772.12004
D1,Caicó/RN,-6.4594544,-37.0971911,143,209.23869
1,Caieiras/SP,-23.3644621,-46.7484765,8897,8656.77451
D1,Caieiras/SP,-23.3644621,-46.7484765,309,300.65677
1,Cairu/BA,-13.4860505,-39.0455744,1503,8156.50947
D1,Cairu/BA,-13.4860505,-39.0455744,16,86.82911
1,Caiuá/SP,-21.8319357,-51.9887179,386,6491.75917
D1,Caiuá/SP,-21.8319357,-51.9887179,8,134.54423
1,Caiçara do Norte/RN,-5.0645017,-36.0561226,526,8017.07057
D1,Caiçara do Norte/RN,-5.0645017,-36.0561226,12,182.89895
1,Caiçara do Rio do Vento/RN,-5.757968,-36.00089,367,9878.86945
D1,Caiçara do Rio do Vento/RN,-5.757968,-36.00089,8,215.34320
1,Caiçara/PB,-6.6146866,-35.4681434,813,11305.79892
D1,Caiçara/PB,-6.6146866,-35.4681434,14,194.68780
1,Caiçara/RS,-27.2750478,-53.4310053,644,13702.12766
D1,Caiçara/RS,-27.2750478,-53.4310053,9,191.48936
1,Cajamar/SP,-23.3561111,-46.8769444,5017,6437.49840
D1,Cajamar/SP,-23.3561111,-46.8769444,230,295.12151
1,Cajapió/MA,-2.8778715,-44.6746871,165,1471.11270
D1,Cajapió/MA,-2.8778715,-44.6746871,7,62.41084
1,Cajari/MA,-3.3213076,-45.0118757,253,1300.70433
D1,Cajari/MA,-3.3213076,-45.0118757,9,46.27011
1,Cajati/SP,-24.7272376,-48.1077914,4341,15234.78627
D1,Cajati/SP,-24.7272376,-48.1077914,102,357.97010
1,Cajazeiras do Piauí/PI,-6.794271,-42.3935024,75,2099.07641
D1,Cajazeiras do Piauí/PI,-6.794271,-42.3935024,1,27.98769
1,Cajazeiras/PB,-6.8897849,-38.5570389,9709,15587.02179
D1,Cajazeiras/PB,-6.8897849,-38.5570389,147,235.99672
1,Cajazeirinhas/PB,-6.961442,-37.7993733,211,6583.46334
D1,Cajazeirinhas/PB,-6.961442,-37.7993733,1,31.20125
1,Cajobi/SP,-20.8776238,-48.8106972,1052,9928.27482
D1,Cajobi/SP,-20.8776238,-48.8106972,31,292.56323
1,Cajueiro da Praia/PI,-2.931114,-41.340801,481,6267.91764
D1,Cajueiro da Praia/PI,-2.931114,-41.340801,20,260.62028
1,Cajueiro/AL,-9.399589,-36.1524309,630,2953.44803
D1,Cajueiro/AL,-9.399589,-36.1524309,30,140.64038
1,Cajuri/MG,-20.7901414,-42.7954489,419,10543.53296
D1,Cajuri/MG,-20.7901414,-42.7954489,4,100.65425
1,Cajuru/SP,-21.2759978,-47.3046035,1907,7225.40067
D1,Cajuru/SP,-21.2759978,-47.3046035,57,215.96635
1,Caldas Brandão/PB,-7.1027959,-35.3254676,596,9857.75719
D1,Caldas Brandão/PB,-7.1027959,-35.3254676,10,165.39861
1,Caldas Novas/GO,-17.745,-48.625,10372,11129.23301
D1,Caldas Novas/GO,-17.745,-48.625,242,259.66780
1,Caldas/MG,-21.923611,-46.386111,1004,6904.61454
D1,Caldas/MG,-21.923611,-46.386111,35,240.69871
1,Caldazinha/GO,-16.7116649,-49.0012601,354,9199.58420
D1,Caldazinha/GO,-16.7116649,-49.0012601,11,285.86279
1,Caldeirão Grande do Piauí/PI,-7.3310393,-40.6374433,418,7230.58294
D1,Caldeirão Grande do Piauí/PI,-7.3310393,-40.6374433,2,34.59609
1,Caldeirão Grande/BA,-11.0208483,-40.3041387,567,4234.18714
D1,Caldeirão Grande/BA,-11.0208483,-40.3041387,6,44.80621
1,Califórnia/PR,-23.6672543,-51.3554556,1267,14722.28678
D1,Califórnia/PR,-23.6672543,-51.3554556,37,429.93261
1,Calmon/SC,-26.6023644,-51.0992893,49,1469.26537
D1,Calmon/SC,-26.6023644,-51.0992893,7,209.89505
1,Calumbi/PE,-7.9389746,-38.1516871,751,13067.68749
D1,Calumbi/PE,-7.9389746,-38.1516871,5,87.00191
1,Calçado/PE,-8.7413446,-36.3351787,540,4901.07097
D1,Calçado/PE,-8.7413446,-36.3351787,6,54.45634
1,Calçoene/AP,2.4981757,-50.9539503,1679,14850.52185
D1,Calçoene/AP,2.4981757,-50.9539503,10,88.44861
1,Camacan/BA,-15.4166631,-39.4930088,2964,9260.76361
D1,Camacan/BA,-15.4166631,-39.4930088,84,262.45079
1,Camacho/MG,-20.625556,-45.156667,133,4635.76159
D1,Camacho/MG,-20.625556,-45.156667,2,69.71070
1,Camalaú/PB,-7.885031,-36.824191,449,7444.86818
D1,Camalaú/PB,-7.885031,-36.824191,7,116.06699
1,Camamu/BA,-13.9438142,-39.1060917,2472,6986.60336
D1,Camamu/BA,-13.9438142,-39.1060917,57,161.09886
1,Camanducaia/MG,-22.755278,-46.144444,3383,15517.63681
D1,Camanducaia/MG,-22.755278,-46.144444,67,307.32535
1,Camapuã/MS,-19.5291747,-54.0434641,908,6631.12539
D1,Camapuã/MS,-19.5291747,-54.0434641,31,226.39305
1,Camaquã/RS,-30.8524752,-51.8075619,7232,10878.78697
D1,Camaquã/RS,-30.8524752,-51.8075619,148,222.63004
1,Camaragibe/PE,-8.0213832,-34.9810768,7306,4597.88923
D1,Camaragibe/PE,-8.0213832,-34.9810768,422,265.57751
1,Camargo/RS,-28.5865661,-52.2031474,443,16156.09044
D1,Camargo/RS,-28.5865661,-52.2031474,7,255.28811
1,Camaçari/BA,-12.6998188,-38.3260762,24430,8028.20882
D1,Camaçari/BA,-12.6998188,-38.3260762,614,201.77324
1,Cambará do Sul/RS,-29.0489517,-50.145412,337,5260.69310
D1,Cambará do Sul/RS,-29.0489517,-50.145412,10,156.10365
1,Cambará/PR,-23.042273,-50.075281,2987,11729.36464
D1,Cambará/PR,-23.042273,-50.075281,61,239.53507
1,Cambira/PR,-23.600265,-51.581045,1070,13515.22041
D1,Cambira/PR,-23.600265,-51.581045,26,328.40722
1,Camboriú/SC,-27.0273601,-48.6535657,13087,15377.47488
D1,Camboriú/SC,-27.0273601,-48.6535657,165,193.87815
1,Cambuci/RJ,-21.5749919,-41.9107833,1043,6722.95991
D1,Cambuci/RJ,-21.5749919,-41.9107833,38,244.94005
1,Cambuquira/MG,-21.853056,-45.2953619,837,6532.93787
D1,Cambuquira/MG,-21.853056,-45.2953619,25,195.12957
1,Cambuí/MG,-22.6122501,-46.0572137,3953,13258.87167
D1,Cambuí/MG,-22.6122501,-46.0572137,59,197.89361
1,Cambé/PR,-23.2782035,-51.2779583,11676,10877.48391
D1,Cambé/PR,-23.2782035,-51.2779583,264,245.94517
1,Cametá/PA,-2.242949,-49.497885,9381,6731.29359
D1,Cametá/PA,-2.242949,-49.497885,253,181.53899
1,Camocim de São Félix/PE,-8.3616757,-35.7638903,574,3037.03704
D1,Camocim de São Félix/PE,-8.3616757,-35.7638903,19,100.52910
1,Camocim/CE,-2.9009918,-40.8427389,6245,9772.01246
D1,Camocim/CE,-2.9009918,-40.8427389,163,255.05813
1,Campanha/MG,-21.8361108,-45.401986,2067,12331.46403
D1,Campanha/MG,-21.8361108,-45.401986,40,238.63501
1,Campanário/MG,-18.2398144,-41.7271768,246,6595.17426
D1,Campanário/MG,-18.2398144,-41.7271768,6,160.85791
1,Campestre da Serra/RS,-28.7966535,-51.0958149,293,8630.33873
