type,name,lat,lon,total,total_per_100k_inhabitants
1,Abadia de Goiás/GO,-16.7572644,-49.4412205,1096,12234.87386
D1,Abadia de Goiás/GO,-16.7572644,-49.4412205,17,189.77450
1,Abadia dos Dourados/MG,-18.4911191,-47.4063589,324,4624.60748
D1,Abadia dos Dourados/MG,-18.4911191,-47.4063589,10,142.73480
1,Abadiânia/GO,-16.1940946,-48.7067767,289,1412.44318
D1,Abadiânia/GO,-16.1940946,-48.7067767,19,92.85959
1,Abaetetuba/PA,-1.721828,-48.878843,6015,3781.11642
D1,Abaetetuba/PA,-1.721828,-48.878843,131,82.34850
1,Abaeté/MG,-19.1566833,-45.4481213,700,3010.75269
D1,Abaeté/MG,-19.1566833,-45.4481213,16,68.81720
1,Abaiara/CE,-7.3607808,-39.0487878,289,2438.20130
D1,Abaiara/CE,-7.3607808,-39.0487878,7,59.05678
1,Abaré/BA,-8.7239913,-39.1139689,543,2668.69809
D1,Abaré/BA,-8.7239913,-39.1139689,2,9.82946
1,Abatiá/PR,-23.3052967,-50.3102532,340,4589.63283
D1,Abatiá/PR,-23.3052967,-50.3102532,6,80.99352
1,Abaíra/BA,-13.2503296,-41.6640342,241,2766.93456
D1,Abaíra/BA,-13.2503296,-41.6640342,7,80.36739
1,Abdon Batista/SC,-27.612419,-51.022992,213,8359.49765
D1,Abdon Batista/SC,-27.612419,-51.022992,1,39.24647
1,Abel Figueiredo/PA,-4.953001,-48.3958485,699,9337.42987
D1,Abel Figueiredo/PA,-4.953001,-48.3958485,5,66.79134
1,Abelardo Luz/SC,-26.5705893,-52.3280339,1079,6007.79510
D1,Abelardo Luz/SC,-26.5705893,-52.3280339,35,194.87751
1,Abre Campo/MG,-20.2976097,-42.4764741,631,4693.54359
D1,Abre Campo/MG,-20.2976097,-42.4764741,6,44.62957
1,Abreu e Lima/PE,-7.900719,-34.898389,1811,1804.75555
D1,Abreu e Lima/PE,-7.900719,-34.898389,162,161.44141
1,Abreulândia/TO,-9.6221526,-49.1558343,204,7864.30224
D1,Abreulândia/TO,-9.6221526,-49.1558343,4,154.20200
1,Acaiaca/MG,-20.3621646,-43.1444162,146,3655.48322
D1,Acaiaca/MG,-20.3621646,-43.1444162,5,125.18778
1,Acajutiba/BA,-11.6609659,-38.0186381,420,2765.52314
D1,Acajutiba/BA,-11.6609659,-38.0186381,11,72.43037
1,Acarape/CE,-4.2237866,-38.7071663,2147,14279.06358
D1,Acarape/CE,-4.2237866,-38.7071663,15,99.76057
1,Acaraú/CE,-2.8869514,-40.1194713,3796,6015.46653
D1,Acaraú/CE,-2.8869514,-40.1194713,69,109.34331
1,Acari/RN,-6.4364689,-36.6394777,618,5557.05422
D1,Acari/RN,-6.4364689,-36.6394777,9,80.92797
1,Acará/PA,-1.961388,-48.1987043,1029,1848.42552
D1,Acará/PA,-1.961388,-48.1987043,21,37.72297
1,Acauã/PI,-8.219542,-41.083059,155,2182.48381
D1,Acauã/PI,-8.219542,-41.083059,1,14.08054
1,Aceguá/RS,-31.8695131,-54.1615593,101,2043.70700
1,Acopiara/CE,-6.0936464,-39.4543204,1983,3639.80103
D1,Acopiara/CE,-6.0936464,-39.4543204,79,145.00468
1,Acorizal/MT,-15.2001544,-56.3668953,349,6542.93213
D1,Acorizal/MT,-15.2001544,-56.3668953,11,206.22422
1,Acrelândia/AC,-10.0759167,-67.0526898,1260,8134.28018
D1,Acrelândia/AC,-10.0759167,-67.0526898,21,135.57134
1,Acreúna/GO,-17.3959899,-50.3749031,1293,5734.94190
D1,Acreúna/GO,-17.3959899,-50.3749031,33,146.36743
1,Adamantina/SP,-21.6866517,-51.0762975,1808,5149.38338
D1,Adamantina/SP,-21.6866517,-51.0762975,48,136.70929
1,Adelândia/GO,-16.4155077,-50.1665834,103,4093.79968
D1,Adelândia/GO,-16.4155077,-50.1665834,2,79.49126
1,Adolfo/SP,-21.2356597,-49.6441918,289,8131.68261
D1,Adolfo/SP,-21.2356597,-49.6441918,7,196.96117
1,Adrianópolis/PR,-24.6557863,-48.9912769,993,16954.07205
D1,Adrianópolis/PR,-24.6557863,-48.9912769,20,341.47174
1,Adustina/BA,-10.5358875,-38.114479,498,2907.85940
D1,Adustina/BA,-10.5358875,-38.114479,9,52.55168
1,Afogados da Ingazeira/PE,-7.750429,-37.6356375,2746,7341.46081
D1,Afogados da Ingazeira/PE,-7.750429,-37.6356375,40,106.94043
1,Afonso Bezerra/RN,-5.4745,-36.57625071327935,312,2828.90561
D1,Afonso Bezerra/RN,-5.4745,-36.57625071327935,11,99.73706
1,Afonso Cláudio/ES,-20.077841,-41.12606,2828,9285.83155
D1,Afonso Cláudio/ES,-20.077841,-41.12606,45,147.75899
1,Afonso Cunha/MA,-4.1326105,-43.3230026,155,2356.33931
D1,Afonso Cunha/MA,-4.1326105,-43.3230026,2,30.40438
1,Afrânio/PE,-8.5198919,-41.0070197,591,2983.34175
D1,Afrânio/PE,-8.5198919,-41.0070197,9,45.43160
1,Afuá/PA,-0.1535664,-50.3879223,2747,6942.65423
D1,Afuá/PA,-0.1535664,-50.3879223,14,35.38302
1,Agrestina/PE,-8.4558021,-35.9442663,928,3702.37383
D1,Agrestina/PE,-8.4558021,-35.9442663,36,143.62657
1,Agricolândia/PI,-5.7967843,-42.6605131,100,1948.93783
1,Agrolândia/SC,-27.4122212,-49.8295774,711,6456.00654
D1,Agrolândia/SC,-27.4122212,-49.8295774,7,63.56125
1,Agronômica/SC,-27.2660744,-49.7104753,381,6915.95571
D1,Agronômica/SC,-27.2660744,-49.7104753,8,145.21692
1,Aguanil/MG,-20.9424533,-45.3927152,292,6457.31977
D1,Aguanil/MG,-20.9424533,-45.3927152,7,154.79876
1,Aguaí/SP,-22.0592036,-46.979384,1427,3893.80048
D1,Aguaí/SP,-22.0592036,-46.979384,29,79.13119
1,Agudo/RS,-29.6423259,-53.2494005,791,4822.87665
D1,Agudo/RS,-29.6423259,-53.2494005,7,42.68032
1,Agudos do Sul/PR,-25.9890808,-49.3328175,405,4276.66315
D1,Agudos do Sul/PR,-25.9890808,-49.3328175,5,52.79831
1,Agudos/SP,-22.471162,-48.987822,2019,5398.25138
D1,Agudos/SP,-22.471162,-48.987822,46,122.99136
1,Aguiar/PB,-7.0928404,-38.1727215,225,3996.44760
D1,Aguiar/PB,-7.0928404,-38.1727215,3,53.28597
1,Aguiarnópolis/TO,-6.5600452,-47.4721189,496,7196.74985
D1,Aguiarnópolis/TO,-6.5600452,-47.4721189,11,159.60534
1,Aimorés/MG,-19.4917754,-41.0615603,1395,5548.70530
D1,Aimorés/MG,-19.4917754,-41.0615603,32,127.28213
1,Aiquara/BA,-14.126918,-39.8887574,432,9782.60870
D1,Aiquara/BA,-14.126918,-39.8887574,9,203.80435
1,Aiuaba/CE,-6.5710836,-40.1212278,287,1640.65626
D1,Aiuaba/CE,-6.5710836,-40.1212278,7,40.01601
1,Aiuruoca/MG,-21.9759554,-44.6036637,79,1321.95448
D1,Aiuruoca/MG,-21.9759554,-44.6036637,5,83.66801
1,Ajuricaba/RS,-28.239654,-53.7693013,555,7943.32331
D1,Ajuricaba/RS,-28.239654,-53.7693013,14,200.37212
1,Alagoa Grande/PB,-7.0415212,-35.6285322,2194,7714.75790
D1,Alagoa Grande/PB,-7.0415212,-35.6285322,41,144.16822
1,Alagoa Nova/PB,-7.0653703,-35.76695977336711,669,3197.74389
D1,Alagoa Nova/PB,-7.0653703,-35.76695977336711,13,62.13852
1,Alagoa/MG,-22.1697202,-44.6400042,236,8855.53471
D1,Alagoa/MG,-22.1697202,-44.6400042,2,75.04690
1,Alagoinha do Piauí/PI,-7.0090952,-40.939675,240,3131.11546
D1,Alagoinha do Piauí/PI,-7.0090952,-40.939675,9,117.41683
1,Alagoinha/PB,-6.97063215,-35.51490901897793,1287,8839.28571
D1,Alagoinha/PB,-6.97063215,-35.51490901897793,16,109.89011
1,Alagoinha/PE,-8.50355635,-36.77701174370496,449,3050.68623
D1,Alagoinha/PE,-8.50355635,-36.77701174370496,13,88.32722
1,Alagoinhas/BA,-12.133526,-38.420772,9813,6442.06214
D1,Alagoinhas/BA,-12.133526,-38.420772,175,114.88443
1,Alambari/SP,-23.550338,-47.897971,246,4013.70534
D1,Alambari/SP,-23.550338,-47.897971,8,130.52700
1,Albertina/MG,-20.66164,-43.784039,152,5048.15676
D1,Albertina/MG,-20.66164,-43.784039,6,199.26935
1,Alcantil/PB,-7.7425491,-36.0609604,183,3321.83699
D1,Alcantil/PB,-7.7425491,-36.0609604,4,72.60846
1,Alcinópolis/MS,-18.3264121,-53.7094463,92,1698.35702
D1,Alcinópolis/MS,-18.3264121,-53.7094463,3,55.38121
1,Alcobaça/BA,-17.5215875,-39.1965474,1123,4993.33037
D1,Alcobaça/BA,-17.5215875,-39.1965474,16,71.14273
1,Alcântara/MA,-2.4038956,-44.4154241,206,931.62084
D1,Alcântara/MA,-2.4038956,-44.4154241,9,40.70188
1,Alcântaras/CE,-3.586247,-40.5457641,843,7155.58951
D1,Alcântaras/CE,-3.586247,-40.5457641,5,42.44122
1,Aldeias Altas/MA,-4.6291957,-43.4708622,973,3636.43159
D1,Aldeias Altas/MA,-4.6291957,-43.4708622,11,41.11074
1,Alecrim/RS,-27.6566142,-54.7653195,211,3621.07431
D1,Alecrim/RS,-27.6566142,-54.7653195,5,85.80745
1,Alegre/ES,-20.7625787,-41.5318886,1454,4850.70892
D1,Alegre/ES,-20.7625787,-41.5318886,33,110.09174
1,Alegrete do Piauí/PI,-7.2440138,-40.8602296,377,7665.71777
D1,Alegrete do Piauí/PI,-7.2440138,-40.8602296,4,81.33388
1,Alegrete/RS,-29.790166,-55.794862,4436,6074.38243
D1,Alegrete/RS,-29.790166,-55.794862,139,190.33795
1,Alegria/RS,-27.8332103,-54.0574959,278,8239.47836
D1,Alegria/RS,-27.8332103,-54.0574959,1,29.63841
1,Alenquer/PA,-1.946229,-54.738355,2039,3571.42857
D1,Alenquer/PA,-1.946229,-54.738355,68,119.10600
1,Alexandria/RN,-6.414779,-38.0135516,942,6950.49067
D1,Alexandria/RN,-6.414779,-38.0135516,10,73.78440
1,Alexânia/GO,-16.0834049,-48.5077803,2000,7140.30703
D1,Alexânia/GO,-16.0834049,-48.5077803,30,107.10461
1,Alfenas/MG,-21.4297405,-45.9479419,4863,6041.44408
D1,Alfenas/MG,-21.4297405,-45.9479419,103,127.95985
1,Alfredo Chaves/ES,-20.624970400000002,-40.75006690147988,1810,12366.76688
D1,Alfredo Chaves/ES,-20.624970400000002,-40.75006690147988,24,163.97923
1,Alfredo Marcondes/SP,-21.9527,-51.413956,177,4230.40153
D1,Alfredo Marcondes/SP,-21.9527,-51.413956,6,143.40344
1,Alfredo Vasconcelos/MG,-21.145833,-43.776389,166,2377.88282
D1,Alfredo Vasconcelos/MG,-21.145833,-43.776389,5,71.62298
1,Alfredo Wagner/SC,-27.6961513,-49.3326734,585,5800.11898
D1,Alfredo Wagner/SC,-27.6961513,-49.3326734,4,39.65893
1,Algodão de Jandaíra/PB,-6.9040175,-36.0089879,82,3181.99457
1,Alhandra/PB,-7.4304246,-34.9106103,1057,5358.13859
D1,Alhandra/PB,-7.4304246,-34.9106103,22,111.52228
1,Aliança do Tocantins/TO,-11.3055927,-48.9409096,448,8380.09727
D1,Aliança do Tocantins/TO,-11.3055927,-48.9409096,12,224.46689
1,Aliança/PE,-7.60398,-35.222696,460,1198.01026
D1,Aliança/PE,-7.60398,-35.222696,32,83.33984
1,Almadina/BA,-14.70466,-39.6381994,560,10436.07902
D1,Almadina/BA,-14.70466,-39.6381994,9,167.72270
1,Almas/TO,-11.5681309,-47.1702803,164,2349.90686
D1,Almas/TO,-11.5681309,-47.1702803,3,42.98610
1,Almeirim/PA,-1.5290377,-52.5788111,2793,8196.38455
D1,Almeirim/PA,-1.5290377,-52.5788111,26,76.30004
1,Almenara/MG,-16.1740678,-40.6904907,2741,6504.04575
D1,Almenara/MG,-16.1740678,-40.6904907,27,64.06758
1,Almino Afonso/RN,-6.1544208,-37.7649018,258,5477.70701
D1,Almino Afonso/RN,-6.1544208,-37.7649018,7,148.61996
1,Almirante Tamandaré do Sul/RS,-28.1141129,-52.9134874,136,6977.93740
D1,Almirante Tamandaré do Sul/RS,-28.1141129,-52.9134874,1,51.30836
1,Almirante Tamandaré/PR,-25.3133048,-49.2997838,6735,5610.58305
D1,Almirante Tamandaré/PR,-25.3133048,-49.2997838,212,176.60633
1,Aloândia/GO,-17.7277983,-49.4809338,183,9214.50151
D1,Aloândia/GO,-17.7277983,-49.4809338,6,302.11480
1,Alpercata/MG,-18.9803616,-41.9827637,337,4532.00646
D1,Alpercata/MG,-18.9803616,-41.9827637,12,161.37708
1,Alpestre/RS,-27.2512339,-53.0349646,233,3840.44833
D1,Alpestre/RS,-27.2512339,-53.0349646,4,65.93044
1,Alpinópolis/MG,-20.863611,-46.387777,576,2886.06073
D1,Alpinópolis/MG,-20.863611,-46.387777,10,50.10522
1,Alta Floresta D'Oeste/RO,-11.9296917,-61.9961284,2787,12262.40760
D1,Alta Floresta D'Oeste/RO,-11.9296917,-61.9961284,41,180.39423
1,Alta Floresta/MT,-9.8715018,-56.0839881,5653,10879.73210
D1,Alta Floresta/MT,-9.8715018,-56.0839881,68,130.87242
1,Altair/SP,-20.5238955,-49.0606135,94,2245.58051
D1,Altair/SP,-20.5238955,-49.0606135,6,143.33493
1,Altamira do Maranhão/MA,-4.1643006,-45.4674574,277,3382.58640
D1,Altamira do Maranhão/MA,-4.1643006,-45.4674574,8,97.69203
1,Altamira do Paraná/PR,-24.799114,-52.7128633,86,5112.96076
D1,Altamira do Paraná/PR,-24.799114,-52.7128633,2,118.90606
1,Altamira/PA,-3.204065,-52.209961,10158,8759.23738
D1,Altamira/PA,-3.204065,-52.209961,200,172.45988
1,Altaneira/CE,-6.9980933,-39.7385742,289,3777.77778
D1,Altaneira/CE,-6.9980933,-39.7385742,8,104.57516
1,Alterosa/MG,-21.249166,-46.143055,477,3285.80285
D1,Alterosa/MG,-21.249166,-46.143055,24,165.32341
1,Altinho/PE,-8.4904095,-36.0607494,774,3367.56004
D1,Altinho/PE,-8.4904095,-36.0607494,15,65.26279
1,Altinópolis/SP,-21.021364,-47.3712,512,3159.90866
D1,Altinópolis/SP,-21.021364,-47.3712,16,98.74715
1,Alto Alegre do Maranhão/MA,-4.2055693,-44.4525287,638,2290.18594
D1,Alto Alegre do Maranhão/MA,-4.2055693,-44.4525287,21,75.38230
1,Alto Alegre do Pindaré/MA,-3.6698186,-45.8462153,1698,5315.71862
D1,Alto Alegre do Pindaré/MA,-3.6698186,-45.8462153,28,87.65614
1,Alto Alegre dos Parecis/RO,-12.1314515,-61.856265,738,5567.71030
D1,Alto Alegre dos Parecis/RO,-12.1314515,-61.856265,17,128.25349
1,Alto Alegre/RR,2.98858,-61.307167,1129,7340.70221
D1,Alto Alegre/RR,2.98858,-61.307167,23,149.54486
1,Alto Alegre/RS,-31.780844700000003,-52.81311114489171,91,5641.66150
1,Alto Alegre/SP,-21.5820592,-50.1661976,175,4280.82192
D1,Alto Alegre/SP,-21.5820592,-50.1661976,4,97.84736
1,Alto Araguaia/MT,-17.3156528,-53.2169365,883,4555.06835
D1,Alto Araguaia/MT,-17.3156528,-53.2169365,15,77.37942
1,Alto Bela Vista/SC,-27.4320737,-51.905771,103,5347.87124
D1,Alto Bela Vista/SC,-27.4320737,-51.905771,2,103.84216
1,Alto Boa Vista/MT,-11.6723985,-51.3744431,408,5882.35294
D1,Alto Boa Vista/MT,-11.6723985,-51.3744431,6,86.50519
1,Alto Caparaó/MG,-20.4405661,-41.8683799,286,4852.39226
D1,Alto Caparaó/MG,-20.4405661,-41.8683799,7,118.76485
1,Alto Feliz/RS,-29.3785943,-51.3123751,153,5039.52569
1,Alto Garças/MT,-16.9469683,-53.529427,425,3497.65451
D1,Alto Garças/MT,-16.9469683,-53.529427,20,164.59551
1,Alto Horizonte/GO,-14.1954948,-49.3366993,521,7887.96366
D1,Alto Horizonte/GO,-14.1954948,-49.3366993,4,60.56018
1,Alto Jequitibá/MG,-20.423611,-41.966111,444,5348.75316
D1,Alto Jequitibá/MG,-20.423611,-41.966111,9,108.42067
1,Alto Longá/PI,-5.2549051,-42.2072388,442,3082.50227
D1,Alto Longá/PI,-5.2549051,-42.2072388,11,76.71386
1,Alto Paraguai/MT,-14.513712,-56.4936374,438,3817.65885
D1,Alto Paraguai/MT,-14.513712,-56.4936374,13,113.30951
1,Alto Paraná/PR,-23.131247,-52.318893,583,3923.54802
D1,Alto Paraná/PR,-23.131247,-52.318893,12,80.75914
1,Alto Paraíso de Goiás/GO,-14.1304779,-47.5100161,475,6178.45994
D1,Alto Paraíso de Goiás/GO,-14.1304779,-47.5100161,2,26.01457
1,Alto Paraíso/PR,-23.508137,-53.728537,129,4804.46927
D1,Alto Paraíso/PR,-23.508137,-53.728537,1,37.24395
1,Alto Paraíso/RO,-9.7240103,-63.3188123,1330,6087.79237
D1,Alto Paraíso/RO,-9.7240103,-63.3188123,26,119.00947
1,Alto Parnaíba/MA,-9.112506,-45.9310154,650,5797.35997
D1,Alto Parnaíba/MA,-9.112506,-45.9310154,5,44.59508
1,Alto Piquiri/PR,-24.0239021,-53.4417448,415,4244.22172
D1,Alto Piquiri/PR,-24.0239021,-53.4417448,10,102.27040
1,Alto Rio Doce/MG,-21.0239537,-43.4133507,245,2256.19302
D1,Alto Rio Doce/MG,-21.0239537,-43.4133507,19,174.97007
1,Alto Rio Novo/ES,-19.0577208,-41.0171518,557,7073.91415
D1,Alto Rio Novo/ES,-19.0577208,-41.0171518,18,228.60046
1,Alto Santo/CE,-5.5190371,-38.2719351,676,3931.14678
D1,Alto Santo/CE,-5.5190371,-38.2719351,18,104.67551
1,Alto Taquari/MT,-17.8269099,-53.2831736,893,8021.19824
D1,Alto Taquari/MT,-17.8269099,-53.2831736,15,134.73457
1,Alto do Rodrigues/RN,-5.290868,-36.7616726,1055,7163.22651
D1,Alto do Rodrigues/RN,-5.290868,-36.7616726,23,156.16513
1,Altos/PI,-5.0393915,-42.4611694,3132,7713.33580
D1,Altos/PI,-5.0393915,-42.4611694,54,132.98855
1,Altônia/PR,-23.8722004,-53.894037,803,3621.03175
D1,Altônia/PR,-23.8722004,-53.894037,13,58.62193
1,Alumínio/SP,-23.5203479,-47.2575256,856,4561.19785
D1,Alumínio/SP,-23.5203479,-47.2575256,23,122.55555
1,Alvarenga/MG,-19.4175,-41.728334,335,8714.88033
D1,Alvarenga/MG,-19.4175,-41.728334,3,78.04370
1,Alvarães/AM,-3.214786,-64.8143124,2568,15832.30580
D1,Alvarães/AM,-3.214786,-64.8143124,35,215.78298
1,Alvinlândia/SP,-22.4431852,-49.7643596,85,2625.88817
1,Alvinópolis/MG,-20.1105199,-43.0601805,385,2538.07107
D1,Alvinópolis/MG,-20.1105199,-43.0601805,5,32.96196
1,Alvorada D'Oeste/RO,-11.346271,-62.284697,668,4735.57351
D1,Alvorada D'Oeste/RO,-11.346271,-62.284697,16,113.42691
1,Alvorada de Minas/MG,-18.7318587,-43.3641479,180,4993.06519
D1,Alvorada de Minas/MG,-18.7318587,-43.3641479,1,27.73925
1,Alvorada do Gurguéia/PI,-8.4465288,-43.8655915,214,3930.21120
D1,Alvorada do Gurguéia/PI,-8.4465288,-43.8655915,6,110.19284
1,Alvorada do Norte/GO,-14.483911,-46.4959897,505,5801.26364
D1,Alvorada do Norte/GO,-14.483911,-46.4959897,2,22.97530
1,Alvorada do Sul/PR,-22.7807269,-51.2307721,580,5042.16291
D1,Alvorada do Sul/PR,-22.7807269,-51.2307721,12,104.32061
1,Alvorada/RS,-29.9981184,-51.0772509,14096,6669.44245
D1,Alvorada/RS,-29.9981184,-51.0772509,451,213.38809
1,Alvorada/TO,-12.478465,-49.124926,928,11052.88232
D1,Alvorada/TO,-12.478465,-49.124926,13,154.83564
1,Além Paraíba/MG,-21.8760576,-42.6810473,2042,5768.19864
D1,Além Paraíba/MG,-21.8760576,-42.6810473,82,231.63187
1,Amajari/RR,3.6523869,-61.4194315,810,6143.34471
D1,Amajari/RR,3.6523869,-61.4194315,18,136.51877
1,Amambai/MS,-23.1082701,-55.2284854,1891,4748.15447
D1,Amambai/MS,-23.1082701,-55.2284854,35,87.88229
1,Amaporã/PR,-23.094272,-52.786597,145,2289.95578
1,Amapá do Maranhão/MA,-1.6762114,-46.0109669,77,1099.21485
1,Amapá/AP,2.0529997,-50.7930003,1163,12659.19234
D1,Amapá/AP,2.0529997,-50.7930003,9,97.96452
1,Amaraji/PE,-8.373925,-35.4536527,408,1783.99650
D1,Amaraji/PE,-8.373925,-35.4536527,26,113.68605
1,Amaral Ferrador/RS,-30.8750633,-52.2542051,164,2314.74947
D1,Amaral Ferrador/RS,-30.8750633,-52.2542051,4,56.45730
1,Amaralina/GO,-13.9236199,-49.2962411,43,1118.33550
1,Amarante do Maranhão/MA,-5.56913,-46.747284,1251,2997.91512
D1,Amarante do Maranhão/MA,-5.56913,-46.747284,41,98.25301
1,Amarante/PI,-6.2459374,-42.8476238,1065,6049.76142
D1,Amarante/PI,-6.2459374,-42.8476238,21,119.29107
1,Amargosa/BA,-13.03793715,-39.60796443875596,1999,5339.06680
D1,Amargosa/BA,-13.03793715,-39.60796443875596,37,98.82215
1,Amaturá/AM,-3.3640509,-68.1994689,1981,16879.68643
D1,Amaturá/AM,-3.3640509,-68.1994689,17,144.85344
1,Americana/SP,-22.7392463,-47.3306032,12721,5256.22061
D1,Americana/SP,-22.7392463,-47.3306032,323,133.46115
1,Americano do Brasil/GO,-16.2515808,-49.9806104,305,4948.08566
D1,Americano do Brasil/GO,-16.2515808,-49.9806104,10,162.23232
1,Ametista do Sul/RS,-27.3617341,-53.1826575,405,5470.75510
D1,Ametista do Sul/RS,-27.3617341,-53.1826575,10,135.08037
1,Amontada/CE,-3.3634586,-39.8284791,1430,3262.67996
D1,Amontada/CE,-3.3634586,-39.8284791,24,54.75827
1,Amorinópolis/GO,-16.6211308,-51.0949921,140,4561.74650
D1,Amorinópolis/GO,-16.6211308,-51.0949921,1,32.58390
1,Amparo de São Francisco/SE,-10.1299754,-36.9269099,112,4705.88235
D1,Amparo de São Francisco/SE,-10.1299754,-36.9269099,3,126.05042
1,Amparo do Serra/MG,-20.5070255,-42.8028462,92,1966.65242
D1,Amparo do Serra/MG,-20.5070255,-42.8028462,3,64.12997
1,Amparo/PB,-7.56394725,-37.04652873235175,125,5553.08752
D1,Amparo/PB,-7.56394725,-37.04652873235175,3,133.27410
1,Amparo/SP,-22.70111,-46.76444,3205,4409.92336
D1,Amparo/SP,-22.70111,-46.76444,82,112.82799
1,Ampére/PR,-25.9168712,-53.4742414,811,4199.67894
D1,Ampére/PR,-25.9168712,-53.4742414,20,103.56791
1,Amélia Rodrigues/BA,-12.4015388,-38.7516971,1547,6176.14181
D1,Amélia Rodrigues/BA,-12.4015388,-38.7516971,30,119.77004
1,América Dourada/BA,-11.4515262,-41.4357517,477,2964.57427
D1,América Dourada/BA,-11.4515262,-41.4357517,2,12.43008
1,Américo Brasiliense/SP,-21.7297099,-48.1052092,2700,6580.23006
D1,Américo Brasiliense/SP,-21.7297099,-48.1052092,58,141.35309
1,Américo de Campos/SP,-20.298476,-49.735904,502,8393.24528
D1,Américo de Campos/SP,-20.298476,-49.735904,17,284.23341
1,Anadia/AL,-9.6830208,-36.3052699,905,5163.75670
D1,Anadia/AL,-9.6830208,-36.3052699,17,96.99874
1,Anagé/BA,-14.6134669,-41.1376308,583,2698.19966
D1,Anagé/BA,-14.6134669,-41.1376308,13,60.16569
1,Anahy/PR,-24.6450861,-53.1337957,211,7568.14921
D1,Anahy/PR,-24.6450861,-53.1337957,3,107.60402
1,Anajatuba/MA,-3.26441,-44.6179916,629,2330.66548
D1,Anajatuba/MA,-3.26441,-44.6179916,16,59.28561
1,Anajás/PA,-0.9878802,-49.9390114,1175,3957.82808
D1,Anajás/PA,-0.9878802,-49.9390114,14,47.15710
1,Analândia/SP,-22.128917,-47.661939,210,4153.48101
D1,Analândia/SP,-22.128917,-47.661939,3,59.33544
1,Anamã/AM,-3.5797356,-61.4049996,1558,11163.65721
D1,Anamã/AM,-3.5797356,-61.4049996,4,28.66151
1,Ananindeua/PA,-1.374035,-48.4016623,15830,2955.85635
D1,Ananindeua/PA,-1.374035,-48.4016623,500,93.36249
1,Ananás/TO,-6.3663053,-48.080238,1254,13211.12516
D1,Ananás/TO,-6.3663053,-48.080238,19,200.16856
1,Anapu/PA,-3.4668292,-51.2057035,1220,4264.69046
D1,Anapu/PA,-3.4668292,-51.2057035,26,90.88685
1,Anapurus/MA,-3.6751298,-43.1046001,827,5203.22134
D1,Anapurus/MA,-3.6751298,-43.1046001,10,62.91682
1,Anastácio/MS,-20.4832458,-55.8048448,1532,6070.45211
D1,Anastácio/MS,-20.4832458,-55.8048448,46,182.27206
1,Anaurilândia/MS,-22.185169,-52.719056,227,2501.10181
D1,Anaurilândia/MS,-22.185169,-52.719056,7,77.12649
1,Anchieta/ES,-20.8057672,-40.6454564,3416,11471.17096
D1,Anchieta/ES,-20.8057672,-40.6454564,44,147.75513
1,Anchieta/SC,-26.5350527,-53.3293938,362,6514.30628
D1,Anchieta/SC,-26.5350527,-53.3293938,4,71.98128
1,Andaraí/BA,-12.8059674,-41.3322919,584,4447.15200
D1,Andaraí/BA,-12.8059674,-41.3322919,5,38.07493
1,Andirá/PR,-23.0494761,-50.2310027,1251,6278.22945
D1,Andirá/PR,-23.0494761,-50.2310027,42,210.77989
1,Andorinha/BA,-10.3445708,-39.8334411,601,4143.97021
D1,Andorinha/BA,-10.3445708,-39.8334411,9,62.05613
1,Andradas/MG,-22.0680484,-46.5688976,2059,4973.91052
D1,Andradas/MG,-22.0680484,-46.5688976,48,115.95323
1,Andradina/SP,-20.896505,-51.3742765,3629,6344.18377
D1,Andradina/SP,-20.896505,-51.3742765,120,209.78287
1,Andrelândia/MG,-21.739722,-44.308889,206,1687.69458
D1,Andrelândia/MG,-21.739722,-44.308889,6,49.15615
1,André da Rocha/RS,-28.6309124,-51.5733328,69,5137.75130
1,Angatuba/SP,-23.4938938,-48.4110675,1433,5624.23957
D1,Angatuba/SP,-23.4938938,-48.4110675,32,125.59363
1,Angelim/PE,-8.8902038,-36.2872987,119,1060.03919
D1,Angelim/PE,-8.8902038,-36.2872987,4,35.63157
1,Angelina/SC,-27.5805287,-48.9838759,400,8433.48092
D1,Angelina/SC,-27.5805287,-48.9838759,1,21.08370
1,Angelândia/MG,-17.7253,-42.2728,80,934.90709
1,Angical do Piauí/PI,-6.0872666,-42.7366138,294,4334.36533
D1,Angical do Piauí/PI,-6.0872666,-42.7366138,7,103.19917
1,Angical/BA,-12.005623,-44.7000236,346,2482.42216
D1,Angical/BA,-12.005623,-44.7000236,6,43.04778
1,Angico/TO,-6.3893733,-47.8656722,196,5674.58020
D1,Angico/TO,-6.3893733,-47.8656722,3,86.85582
1,Angicos/RN,-5.6666344,-36.6009064,396,3383.16959
D1,Angicos/RN,-5.6666344,-36.6009064,9,76.89022
1,Angra dos Reis/RJ,-23.0063966,-44.316326,11437,5523.94660
D1,Angra dos Reis/RJ,-23.0063966,-44.316326,359,173.39310
1,Anguera/BA,-12.1509425,-39.2452469,293,2593.60892
D1,Anguera/BA,-12.1509425,-39.2452469,1,8.85191
1,Angélica/MS,-22.1588196,-53.7728504,505,4619.46579
D1,Angélica/MS,-22.1588196,-53.7728504,9,82.32711
1,Anhanguera/GO,-18.3338749,-48.220363,70,6034.48276
D1,Anhanguera/GO,-18.3338749,-48.220363,6,517.24138
1,Anhembi/SP,-22.7891096,-48.1316776,100,1466.49069
D1,Anhembi/SP,-22.7891096,-48.1316776,2,29.32981
1,Anhumas/SP,-22.2956478,-51.3873401,168,4054.05405
D1,Anhumas/SP,-22.2956478,-51.3873401,2,48.26255
1,Anicuns/GO,-16.4606451,-49.9572265,2007,9130.61280
D1,Anicuns/GO,-16.4606451,-49.9572265,44,200.17288
1,Anita Garibaldi/SC,-27.6855032,-51.1293873,734,10550.52465
D1,Anita Garibaldi/SC,-27.6855032,-51.1293873,5,71.87006
1,Anitápolis/SC,-27.9041185,-49.1287395,281,8705.08055
D1,Anitápolis/SC,-27.9041185,-49.1287395,1,30.97893
1,Anori/AM,-3.7435254,-61.6605203,1804,8399.68338
D1,Anori/AM,-3.7435254,-61.6605203,29,135.02817
1,Anta Gorda/RS,-28.9718745,-52.0069187,496,8320.75155
D1,Anta Gorda/RS,-28.9718745,-52.0069187,4,67.10284
1,Antas/BA,-10.4114649,-38.3308815,898,4610.09292
D1,Antas/BA,-10.4114649,-38.3308815,3,15.40120
1,Antonina do Norte/CE,-6.7754187,-39.9879345,124,1680.67227
D1,Antonina do Norte/CE,-6.7754187,-39.9879345,8,108.43047
1,Antonina/PR,-25.4298854,-48.7125431,1698,8960.89503
D1,Antonina/PR,-25.4298854,-48.7125431,44,232.20223
1,Antônio Almeida/PI,-7.2186016,-44.1950248,363,11451.10410
D1,Antônio Almeida/PI,-7.2186016,-44.1950248,9,283.91167
1,Antônio Cardoso/BA,-12.4363122,-39.1200307,282,2415.00385
D1,Antônio Cardoso/BA,-12.4363122,-39.1200307,5,42.81922
1,Antônio Carlos/MG,-21.318334,-43.746666,355,3098.00157
D1,Antônio Carlos/MG,-21.318334,-43.746666,6,52.36059
1,Antônio Carlos/SC,-27.5168462,-48.7684715,1360,15790.08476
D1,Antônio Carlos/SC,-27.5168462,-48.7684715,18,208.98642
1,Antônio Dias/MG,-19.6525,-42.872778,346,3730.45822
D1,Antônio Dias/MG,-19.6525,-42.872778,7,75.47170
1,Antônio Gonçalves/BA,-10.5715409,-40.2748824,527,4436.77387
D1,Antônio Gonçalves/BA,-10.5715409,-40.2748824,5,42.09463
1,Antônio João/MS,-22.1892837,-55.9508227,233,2583.14856
D1,Antônio João/MS,-22.1892837,-55.9508227,4,44.34590
1,Antônio Martins/RN,-6.2155812,-37.8890129,232,3242.94101
D1,Antônio Martins/RN,-6.2155812,-37.8890129,2,27.95639
1,Antônio Olinto/PR,-25.9849006,-50.1974516,245,3298.77474
D1,Antônio Olinto/PR,-25.9849006,-50.1974516,2,26.92877
1,Antônio Prado de Minas/MG,-21.0171988,-42.1101106,144,9073.72401
D1,Antônio Prado de Minas/MG,-21.0171988,-42.1101106,4,252.04789
1,Antônio Prado/RS,-28.8567806,-51.2801355,1431,10969.72020
D1,Antônio Prado/RS,-28.8567806,-51.2801355,14,107.32081
1,Anápolis/GO,-16.3332828,-48.9525756,24707,6306.47417
D1,Anápolis/GO,-16.3332828,-48.9525756,646,164.89182
1,Anísio de Abreu/PI,-9.185643,-43.04941,243,2445.15999
D1,Anísio de Abreu/PI,-9.185643,-43.04941,2,20.12477
1,Aparecida d'Oeste/SP,-20.4498109,-50.8808706,490,11784.51178
D1,Aparecida d'Oeste/SP,-20.4498109,-50.8808706,11,264.55026
1,Aparecida de Goiânia/GO,-16.8226769,-49.2452546,51756,8770.03318
D1,Aparecida de Goiânia/GO,-16.8226769,-49.2452546,897,151.99629
1,Aparecida do Rio Doce/GO,-18.2980167,-51.1491312,153,6184.31690
D1,Aparecida do Rio Doce/GO,-18.2980167,-51.1491312,2,80.84074
1,Aparecida do Rio Negro/TO,-9.9513491,-47.9773786,269,5548.67987
D1,Aparecida do Rio Negro/TO,-9.9513491,-47.9773786,5,103.13531
1,Aparecida do Taboado/MS,-20.0840304,-51.1013943,1802,6912.42472
D1,Aparecida do Taboado/MS,-20.0840304,-51.1013943,26,99.73532
1,Aparecida/PB,-6.7859598, -38.0831353,625,7426.33080
D1,Aparecida/PB,-6.7859598, -38.0831353,10,118.82129
1,Aparecida/SP,-22.851552,-45.2340924,1647,4551.60978
D1,Aparecida/SP,-22.851552,-45.2340924,44,121.59735
1,Aperibé/RJ,-21.6211928,-42.1028167,327,2747.66826
D1,Aperibé/RJ,-21.6211928,-42.1028167,13,109.23452
1,Apiacá/ES,-21.152272,-41.569297,529,7002.91236
D1,Apiacá/ES,-21.152272,-41.569297,15,198.57029
1,Apiacás/MT,-9.5678422,-57.394852,826,8032.67529
D1,Apiacás/MT,-9.5678422,-57.394852,6,58.34873
1,Apiaí/SP,-24.5076527,-48.8461582,801,3306.36506
D1,Apiaí/SP,-24.5076527,-48.8461582,29,119.70610
1,Apicum-Açu/MA,-1.5279295,-45.082278,294,1688.39373
D1,Apicum-Açu/MA,-1.5279295,-45.082278,3,17.22851
1,Apiúna/SC,-27.0374658,-49.3885037,635,5853.61357
D1,Apiúna/SC,-27.0374658,-49.3885037,12,110.61947
1,Apodi/RN,-5.6631109,-37.796927,4231,11794.05698
D1,Apodi/RN,-5.6631109,-37.796927,54,150.52684
1,Aporá/BA,-11.6599747,-38.0794757,385,2164.38048
D1,Aporá/BA,-11.6599747,-38.0794757,12,67.46121
1,Aporé/GO,-18.9642193,-51.92804,242,5718.33648
D1,Aporé/GO,-18.9642193,-51.92804,5,118.14745
1,Apuarema/BA,-13.8517897,-39.7457126,596,8162.14736
D1,Apuarema/BA,-13.8517897,-39.7457126,9,123.25390
1,Apucarana/PR,-23.5525327,-51.4610764,4631,3399.29827
D1,Apucarana/PR,-23.5525327,-51.4610764,153,112.30677
1,Apuiarés/CE,-3.9460303,-39.4313298,580,3953.10796
D1,Apuiarés/CE,-3.9460303,-39.4313298,13,88.60414
1,Apuí/AM,-7.1940195,-59.8830192,1029,4602.17362
D1,Apuí/AM,-7.1940195,-59.8830192,19,84.97697
1,Aquidabã/SE,-10.2837579,-37.0188687,1439,6637.14773
D1,Aquidabã/SE,-10.2837579,-37.0188687,24,110.69600
1,Aquidauana/MS,-20.473969,-55.7821375,3623,7543.35922
D1,Aquidauana/MS,-20.473969,-55.7821375,95,197.79716
1,Aquiraz/CE,-3.9063117,-38.387504,3341,4128.00395
D1,Aquiraz/CE,-3.9063117,-38.387504,55,67.95577
1,Arabutã/SC,-27.1587028,-52.1438142,313,7335.36442
D1,Arabutã/SC,-27.1587028,-52.1438142,4,93.74268
1,Aracaju/SE,-10.9162061,-37.0774655,85152,12806.58377
D1,Aracaju/SE,-10.9162061,-37.0774655,1269,190.85347
1,Aracati/CE,-4.558259,-37.767894,3758,5012.33745
D1,Aracati/CE,-4.558259,-37.767894,80,106.70223
1,Aracatu/BA,-14.4274236,-41.4604105,598,4584.13185
D1,Aracatu/BA,-14.4274236,-41.4604105,9,68.99195
1,Araci/BA,-11.3356065,-38.9573261,2967,5429.29293
D1,Araci/BA,-11.3356065,-38.9573261,31,56.72669
1,Aracitaba/MG,-21.3425,-43.378611,70,3399.70860
D1,Aracitaba/MG,-21.3425,-43.378611,7,339.97086
1,Aracoiaba/CE,-4.3702577,-38.8084313,1360,5125.30620
D1,Aracoiaba/CE,-4.3702577,-38.8084313,21,79.14076
1,Aracruz/ES,-19.8245218,-40.2735025,11414,11070.69767
D1,Aracruz/ES,-19.8245218,-40.2735025,157,152.27786
1,Aragarças/GO,-15.8957166,-52.2514538,1601,7897.20318
D1,Aragarças/GO,-15.8957166,-52.2514538,34,167.71075
1,Aragoiânia/GO,-16.9146388,-49.4499148,735,7002.66768
D1,Aragoiânia/GO,-16.9146388,-49.4499148,6,57.16463
1,Aragominas/TO,-7.1654101,-48.525488,424,7398.35980
D1,Aragominas/TO,-7.1654101,-48.525488,8,139.59169
1,Araguacema/TO,-8.8067391,-49.5560969,327,4570.23061
D1,Araguacema/TO,-8.8067391,-49.5560969,9,125.78616
1,Araguaiana/MT,-15.729144,-51.834112,96,3087.80959
D1,Araguaiana/MT,-15.729144,-51.834112,1,32.16468
1,Araguainha/MT,-16.857016,-53.031778,16,1691.33192
1,Araguanã/MA,-2.9508403,-45.6651986,651,4186.22597
D1,Araguanã/MA,-2.9508403,-45.6651986,5,32.15227
1,Araguanã/TO,-6.5799107,-48.6428482,214,3694.11359
D1,Araguanã/TO,-6.5799107,-48.6428482,11,189.88434
1,Araguapaz/GO,-15.0937927,-50.626417,357,4586.92021
D1,Araguapaz/GO,-15.0937927,-50.626417,14,179.87922
1,Araguari/MG,-18.6511256,-48.1933764,9822,8336.09166
D1,Araguari/MG,-18.6511256,-48.1933764,265,224.90982
1,Araguatins/TO,-5.6522925,-48.1158973,1468,4058.61211
D1,Araguatins/TO,-5.6522925,-48.1158973,42,116.11833
1,Araguaçu/TO,-12.928934,-49.823134,692,8172.90658
D1,Araguaçu/TO,-12.928934,-49.823134,14,165.34782
1,Araguaína/TO,-7.193241,-48.2018597,23468,12797.39995
D1,Araguaína/TO,-7.193241,-48.2018597,300,163.59383
1,Araioses/MA,-2.890914,-41.904993,597,1276.43198
D1,Araioses/MA,-2.890914,-41.904993,10,21.38077
1,Aral Moreira/MS,-22.951141,-55.6268421,324,2627.31106
D1,Aral Moreira/MS,-22.951141,-55.6268421,8,64.87188
1,Aramari/BA,-12.0907897,-38.4985065,474,4135.76477
D1,Aramari/BA,-12.0907897,-38.4985065,10,87.25242
1,Arambaré/RS,-30.9132252,-51.4994625,108,3032.00449
D1,Arambaré/RS,-30.9132252,-51.4994625,4,112.29646
1,Arame/MA,-4.8858769,-46.0102484,979,2988.03565
D1,Arame/MA,-4.8858769,-46.0102484,26,79.35539
1,Aramina/SP,-20.0876144,-47.789201,200,3536.69319
D1,Aramina/SP,-20.0876144,-47.789201,7,123.78426
1,Arandu/SP,-23.1345103,-49.0545651,204,3205.02749
D1,Arandu/SP,-23.1345103,-49.0545651,7,109.97643
1,Arantina/MG,-21.911667,-44.255833,64,2296.37603
D1,Arantina/MG,-21.911667,-44.255833,2,71.76175
1,Arapeí/SP,-22.6738889,-44.4477778,166,6747.96748
D1,Arapeí/SP,-22.6738889,-44.4477778,2,81.30081
1,Arapiraca/AL,-9.754866,-36.661471,18824,8077.34062
D1,Arapiraca/AL,-9.754866,-36.661471,279,119.71834
1,Arapoema/TO,-7.6575001,-49.0641484,386,5834.34099
D1,Arapoema/TO,-7.6575001,-49.0641484,5,75.57437
1,Araponga/MG,-20.666667,-42.520556,255,3016.68047
D1,Araponga/MG,-20.666667,-42.520556,2,23.66024
1,Arapongas/PR,-23.415296,-51.42592,8314,6661.32521
D1,Arapongas/PR,-23.415296,-51.42592,274,219.53369
1,Araporã/MG,-18.4318188,-49.188313,1409,20328.95686
D1,Araporã/MG,-18.4318188,-49.188313,18,259.70278
1,Arapoti/PR,-24.1457957,-49.8224605,1915,6766.78445
D1,Arapoti/PR,-24.1457957,-49.8224605,26,91.87279
1,Araputanga/MT,-15.4710868,-58.346796,1264,7456.78721
D1,Araputanga/MT,-15.4710868,-58.346796,30,176.98071
1,Arapuá/MG,-19.034444,-46.155556,94,3315.69665
D1,Arapuá/MG,-19.034444,-46.155556,1,35.27337
1,Arapuã/PR,-24.3079525,-51.7901941,154,5117.97940
D1,Arapuã/PR,-24.3079525,-51.7901941,4,132.93453
1,Araquari/SC,-26.3703324,-48.7210994,2492,6305.02986
D1,Araquari/SC,-26.3703324,-48.7210994,41,103.73444
1,Arara/PB,-6.8271895,-35.7605703,400,2953.77345
D1,Arara/PB,-6.8271895,-35.7605703,11,81.22877
1,Araranguá/SC,-28.9348832,-49.4858389,7518,10916.69450
D1,Araranguá/SC,-28.9348832,-49.4858389,140,203.29040
1,Araraquara/SP,-21.7886713,-48.1773096,13416,5628.95707
D1,Araraquara/SP,-21.7886713,-48.1773096,292,122.51457
1,Araras/SP,-22.3569477,-47.3838889,10212,7536.19766
D1,Araras/SP,-22.3569477,-47.3838889,211,155.71266
1,Ararendá/CE,-4.7504395,-40.8303611,546,4982.20641
D1,Ararendá/CE,-4.7504395,-40.8303611,9,82.12428
1,Arari/MA,-3.4547602,-44.7772723,381,1272.88521
D1,Arari/MA,-3.4547602,-44.7772723,15,50.11359
1,Araricá/RS,-29.6168543,-50.929121,831,14399.58413
D1,Araricá/RS,-29.6168543,-50.929121,20,346.56039
1,Araripe/CE,-7.212861,-40.1359222,614,2835.50383
D1,Araripe/CE,-7.212861,-40.1359222,7,32.32659
1,Araripina/PE,-7.5768582,-40.5038509,4761,5610.15271
D1,Araripina/PE,-7.5768582,-40.5038509,84,98.98190
1,Araruama/RJ,-22.8733203,-42.3428897,3950,2941.32978
D1,Araruama/RJ,-22.8733203,-42.3428897,125,93.08006
1,Araruna/PB,-6.5321155,-35.7397595,565,2761.08098
D1,Araruna/PB,-6.5321155,-35.7397595,15,73.30303
1,Araruna/PR,-23.9320308,-52.4976047,807,5764.28571
D1,Araruna/PR,-23.9320308,-52.4976047,13,92.85714
1,Arataca/BA,-15.2617424,-39.4122943,419,3822.64392
D1,Arataca/BA,-15.2617424,-39.4122943,12,109.47906
1,Aratiba/RS,-27.3955734,-52.3024325,287,4637.25965
D1,Aratiba/RS,-27.3955734,-52.3024325,5,80.78850
1,Aratuba/CE,-4.4195958,-39.0463737,494,4185.73123
D1,Aratuba/CE,-4.4195958,-39.0463737,3,25.41942
1,Aratuípe/BA,-13.077137,-39.0010786,251,2840.33043
D1,Aratuípe/BA,-13.077137,-39.0010786,7,79.21240
1,Araucária/PR,-25.5861107,-49.4051209,16542,11313.55411
D1,Araucária/PR,-25.5861107,-49.4051209,213,145.67688
1,Arauá/SE,-11.2644014,-37.6181058,658,6615.05982
D1,Arauá/SE,-11.2644014,-37.6181058,12,120.63939
1,Araxá/MG,-19.5928536,-46.940241,7301,6801.94155
D1,Araxá/MG,-19.5928536,-46.940241,94,87.57465
1,Araçagi/PB,-6.8519969,-35.3835602,825,4875.59837
D1,Araçagi/PB,-6.8519969,-35.3835602,9,53.18835
1,Araçariguama/SP,-23.438611,-47.061389,916,4006.99913
D1,Araçariguama/SP,-23.438611,-47.061389,25,109.36133
1,Araçatuba/SP,-21.207992,-50.4390225,18063,9116.78755
D1,Araçatuba/SP,-21.207992,-50.4390225,412,207.94533
1,Araçaí/MG,-19.200833,-44.2475,49,2081.56330
1,Araçoiaba da Serra/SP,-23.5045367,-47.6168158,1580,4543.36324
D1,Araçoiaba da Serra/SP,-23.5045367,-47.6168158,34,97.76858
1,Araçoiaba/PE,-7.7856903,-35.0898881,292,1408.38277
D1,Araçoiaba/PE,-7.7856903,-35.0898881,21,101.28780
1,Araçu/GO,-16.3561579,-49.6815269,320,9179.57544
D1,Araçu/GO,-16.3561579,-49.6815269,9,258.17556
1,Araçuaí/MG,-16.8484451,-42.0661868,732,1993.89845
D1,Araçuaí/MG,-16.8484451,-42.0661868,16,43.58248
1,Araçás/BA,-12.2139176,-38.2026159,493,4038.33552
D1,Araçás/BA,-12.2139176,-38.2026159,7,57.33945
1,Araújos/MG,-19.948055,-45.165556,464,4935.64514
D1,Araújos/MG,-19.948055,-45.165556,3,31.91150
1,Arceburgo/MG,-21.364444,-46.939722,422,3877.60728
D1,Arceburgo/MG,-21.364444,-46.939722,7,64.32050
1,Arco-Íris/SP,-21.7741308,-50.4668814,66,3722.50423
D1,Arco-Íris/SP,-21.7741308,-50.4668814,5,282.00790
1,Arcos/MG,-20.282223,-45.539444,3464,8578.50421
D1,Arcos/MG,-20.282223,-45.539444,38,94.10599
1,Arcoverde/PE,-8.415192,-37.057748,4363,5831.17265
D1,Arcoverde/PE,-8.415192,-37.057748,87,116.27596
1,Areado/MG,-21.3582771,-46.1476688,434,2858.83670
D1,Areado/MG,-21.3582771,-46.1476688,10,65.87181
1,Areal/RJ,-22.2314922,-43.1056264,431,3402.00489
D1,Areal/RJ,-22.2314922,-43.1056264,21,165.75894
1,Arealva/SP,-22.0301906,-48.9111936,444,5154.99826
D1,Arealva/SP,-22.0301906,-48.9111936,5,58.05178
1,Areia Branca/RN,-4.9506652,-37.1263312,1611,5760.36042
D1,Areia Branca/RN,-4.9506652,-37.1263312,67,239.56806
1,Areia Branca/SE,-10.7591455,-37.3148072,1172,6272.07535
D1,Areia Branca/SE,-10.7591455,-37.3148072,25,133.79000
1,Areia de Baraúnas/PB,-7.1233949,-36.9446216,42,1984.87713
D1,Areia de Baraúnas/PB,-7.1233949,-36.9446216,1,47.25898
1,Areia/PB,-6.9680243,-35.6994783,974,4299.08192
D1,Areia/PB,-6.9680243,-35.6994783,17,75.03531
1,Areial/PB,-7.0501306,-35.9245244,179,2547.31749
D1,Areial/PB,-7.0501306,-35.9245244,6,85.38494
1,Areias/SP,-22.5800929,-44.6975127,196,5030.80082
D1,Areias/SP,-22.5800929,-44.6975127,1,25.66735
1,Areiópolis/SP,-22.6758064,-48.6673653,542,4857.50134
D1,Areiópolis/SP,-22.6758064,-48.6673653,6,53.77308
1,Arenápolis/MT,-14.4610369,-56.8432806,1020,10734.58219
D1,Arenápolis/MT,-14.4610369,-56.8432806,14,147.33740
1,Arenópolis/GO,-16.3859286,-51.55937,115,4534.70032
D1,Arenópolis/GO,-16.3859286,-51.55937,1,39.43218
1,Argirita/MG,-21.612761,-42.8371922,220,8136.09467
D1,Argirita/MG,-21.612761,-42.8371922,5,184.91124
1,Aricanduva/MG,-17.8678,-42.5569,53,1005.88347
1,Arinos/MG,-15.917223,-46.106111,284,1589.96753
D1,Arinos/MG,-15.917223,-46.106111,7,39.18934
1,Aripuanã/MT,-10.175806,-59.4439663,1666,7334.68346
D1,Aripuanã/MT,-10.175806,-59.4439663,29,127.67456
1,Ariquemes/RO,-9.9076522,-63.033069,15094,13781.58012
D1,Ariquemes/RO,-9.9076522,-63.033069,295,269.34982
1,Ariranha do Ivaí/PR,-24.3834527,-51.5876772,105,5082.28461
D1,Ariranha do Ivaí/PR,-24.3834527,-51.5876772,2,96.80542
1,Ariranha/SP,-21.18716,-48.790418,303,3104.19014
D1,Ariranha/SP,-21.18716,-48.790418,13,133.18308
1,Armazém/SC,-28.2624996,-49.0190126,1130,12901.01610
D1,Armazém/SC,-28.2624996,-49.0190126,10,114.16828
1,Armação dos Búzios/RJ,-22.7597805,-41.8875267,3018,8753.66186
D1,Armação dos Búzios/RJ,-22.7597805,-41.8875267,29,84.11405
1,Arneiroz/CE,-6.3235099,-40.1603859,143,1823.04946
D1,Arneiroz/CE,-6.3235099,-40.1603859,7,89.24018
1,Aroazes/PI,-6.1108814,-41.7886137,403,6916.08032
D1,Aroazes/PI,-6.1108814,-41.7886137,10,171.61490
1,Aroeiras do Itaim/PI,-7.2797031,-41.5629681,97,3802.43042
D1,Aroeiras do Itaim/PI,-7.2797031,-41.5629681,1,39.20031
1,Aroeiras/PB,-7.5462904,-35.7080002,728,3808.32810
D1,Aroeiras/PB,-7.5462904,-35.7080002,4,20.92488
1,Arraial do Cabo/RJ,-22.9662839,-42.024427,530,1732.42245
D1,Arraial do Cabo/RJ,-22.9662839,-42.024427,11,35.95594
1,Arraial/PI,-6.6541632,-42.5335332,121,2563.55932
D1,Arraial/PI,-6.6541632,-42.5335332,2,42.37288
1,Arraias/TO,-12.9287788,-46.9437231,353,3351.05373
D1,Arraias/TO,-12.9287788,-46.9437231,2,18.98614
1,Arroio Grande/RS,-32.2384246,-53.0866661,828,4539.97149
D1,Arroio Grande/RS,-32.2384246,-53.0866661,20,109.66115
1,Arroio Trinta/SC,-26.9301976,-51.334928,361,10171.87940
D1,Arroio Trinta/SC,-26.9301976,-51.334928,5,140.88476
1,Arroio do Meio/RS,-29.4020392,-51.9444993,1932,9214.47990
D1,Arroio do Meio/RS,-29.4020392,-51.9444993,17,81.07979
1,Arroio do Padre/RS,-31.4428773,-52.4228985,105,3558.11589
D1,Arroio do Padre/RS,-31.4428773,-52.4228985,1,33.88682
1,Arroio do Sal/RS,-29.549852,-49.8874395,761,7403.44391
D1,Arroio do Sal/RS,-29.549852,-49.8874395,21,204.30003
1,Arroio do Tigre/RS,-29.334158,-53.0888935,836,6232.75926
D1,Arroio do Tigre/RS,-29.334158,-53.0888935,11,82.00999
1,Arroio dos Ratos/RS,-30.0894524,-51.7265541,667,4704.80356
D1,Arroio dos Ratos/RS,-30.0894524,-51.7265541,23,162.23461
1,Artur Nogueira/SP,-22.572737,-47.172679,2448,4423.56343
D1,Artur Nogueira/SP,-22.572737,-47.172679,59,106.61366
1,Aruanã/GO,-14.9162439,-51.0715692,335,3313.55094
D1,Aruanã/GO,-14.9162439,-51.0715692,8,79.12957
1,Arujá/SP,-23.396266,-46.3175449,4624,5072.56711
D1,Arujá/SP,-23.396266,-46.3175449,156,171.13332
1,Arvoredo/SC,-27.0752908,-52.4571847,256,11459.26589
D1,Arvoredo/SC,-27.0752908,-52.4571847,3,134.28827
1,Arvorezinha/RS,-28.87369,-52.17808,602,5775.68838
D1,Arvorezinha/RS,-28.87369,-52.17808,18,172.69500
1,Arês/RN,-6.1969216,-35.1642968,591,4099.32718
D1,Arês/RN,-6.1969216,-35.1642968,18,124.85260
1,Ascurra/SC,-26.9569975,-49.3767752,925,11594.38456
D1,Ascurra/SC,-26.9569975,-49.3767752,5,62.67235
1,Aspásia/SP,-20.160028,-50.728046,69,3795.37954
D1,Aspásia/SP,-20.160028,-50.728046,3,165.01650
1,Assaré/CE,-6.8746791,-39.8741385,1056,4497.82775
D1,Assaré/CE,-6.8746791,-39.8741385,24,102.22336
1,Assaí/PR,-23.3736041,-50.8454929,916,6125.45138
D1,Assaí/PR,-23.3736041,-50.8454929,23,153.80500
1,Assis Brasil/AC,-10.9409203,-69.5672108,1312,17414.38811
D1,Assis Brasil/AC,-10.9409203,-69.5672108,16,212.37059
1,Assis Chateaubriand/PR,-24.4054826,-53.5120468,2647,7939.41212
D1,Assis Chateaubriand/PR,-24.4054826,-53.5120468,33,98.98020
1,Assis/SP,-22.6620892,-50.420623,5008,4765.57519
D1,Assis/SP,-22.6620892,-50.420623,107,101.82040
1,Assunção do Piauí/PI,-5.8610212,-41.0485091,219,2785.19649
D1,Assunção do Piauí/PI,-5.8610212,-41.0485091,4,50.87117
1,Assunção/PB,-7.073396,-36.7274003,230,5708.61256
D1,Assunção/PB,-7.073396,-36.7274003,1,24.82005
1,Astolfo Dutra/MG,-21.3132636,-42.8624102,871,6103.71409
D1,Astolfo Dutra/MG,-21.3132636,-42.8624102,13,91.10021
1,Astorga/PR,-23.2350184,-51.6647074,1944,7417.29940
D1,Astorga/PR,-23.2350184,-51.6647074,31,118.27998
1,Atalaia do Norte/AM,-4.3658547,-70.1908742,2521,12359.05481
D1,Atalaia do Norte/AM,-4.3658547,-70.1908742,7,34.31709
1,Atalaia/AL,-9.5029595,-36.0219316,857,1809.35290
D1,Atalaia/AL,-9.5029595,-36.0219316,31,65.44917
1,Atalaia/PR,-23.1513833,-52.0529697,281,7240.40196
D1,Atalaia/PR,-23.1513833,-52.0529697,11,283.43211
1,Atalanta/SC,-27.421916,-49.778863,183,5727.69953
D1,Atalanta/SC,-27.421916,-49.778863,2,62.59781
1,Ataléia/MG,-18.04432,-41.1110524,828,6530.99858
D1,Ataléia/MG,-18.04432,-41.1110524,6,47.32608
1,Atibaia/SP,-23.1177393,-46.5547861,6946,4820.66515
D1,Atibaia/SP,-23.1177393,-46.5547861,137,95.08078
1,Atilio Vivacqua/ES,-20.9139369,-41.1947519,1078,8905.41099
D1,Atilio Vivacqua/ES,-20.9139369,-41.1947519,17,140.43784
1,Augustinópolis/TO,-5.4662267,-47.8897519,1151,6173.89905
D1,Augustinópolis/TO,-5.4662267,-47.8897519,16,85.82310
1,Augusto Corrêa/PA,-1.0229335,-46.6404029,1647,3544.14581
D1,Augusto Corrêa/PA,-1.0229335,-46.6404029,29,62.40451
1,Augusto Pestana/RS,-28.5148413,-53.9906433,259,3923.05362
D1,Augusto Pestana/RS,-28.5148413,-53.9906433,2,30.29385
1,Augusto de Lima/MG,-18.1092963,-44.2651945,138,2844.77427
D1,Augusto de Lima/MG,-18.1092963,-44.2651945,4,82.45723
1,Aurelino Leal/BA,-14.3167137,-39.3256107,776,6867.86441
D1,Aurelino Leal/BA,-14.3167137,-39.3256107,21,185.85716
1,Auriflama/SP,-20.6840418,-50.5554616,1227,8044.31915
D1,Auriflama/SP,-20.6840418,-50.5554616,26,170.45827
1,Aurilândia/GO,-16.6772599,-50.4641231,161,5264.87901
D1,Aurilândia/GO,-16.6772599,-50.4641231,3,98.10334
1,Aurora do Pará/PA,-2.1323199,-47.558436,911,2867.21430
D1,Aurora do Pará/PA,-2.1323199,-47.558436,11,34.62059
1,Aurora do Tocantins/TO,-12.71045,-46.407604,139,3674.33254
D1,Aurora do Tocantins/TO,-12.71045,-46.407604,2,52.86809
1,Aurora/CE,-6.9426019,-38.9693765,1055,4286.87525
D1,Aurora/CE,-6.9426019,-38.9693765,25,101.58472
1,Aurora/SC,-27.3166417,-49.6368502,544,9572.40894
D1,Aurora/SC,-27.3166417,-49.6368502,11,193.55974
1,Autazes/AM,-3.5833283,-59.1301518,2571,6381.23604
D1,Autazes/AM,-3.5833283,-59.1301518,84,208.48846
1,Avanhandava/SP,-21.4603331,-49.9465156,473,3412.94466
D1,Avanhandava/SP,-21.4603331,-49.9465156,20,144.31056
1,Avaré/SP,-23.1045215,-48.9259103,4019,4405.25254
D1,Avaré/SP,-23.1045215,-48.9259103,74,81.11189
1,Avaí/SP,-22.1564662,-49.3316395,188,3458.42531
D1,Avaí/SP,-22.1564662,-49.3316395,3,55.18764
1,Aveiro/PA,-3.6049239,-55.3310742,554,3377.22507
D1,Aveiro/PA,-3.6049239,-55.3310742,7,42.67252
1,Avelino Lopes/PI,-10.1346855,-43.9489525,227,2004.23804
D1,Avelino Lopes/PI,-10.1346855,-43.9489525,17,150.09712
1,Avelinópolis/GO,-16.4672409,-49.7578661,221,9173.93109
D1,Avelinópolis/GO,-16.4672409,-49.7578661,8,332.08800
1,Axixá do Tocantins/TO,-5.612747,-47.77007,718,7336.26239
D1,Axixá do Tocantins/TO,-5.612747,-47.77007,10,102.17636
1,Axixá/MA,-2.8379465,-44.0561053,180,1477.46860
D1,Axixá/MA,-2.8379465,-44.0561053,4,32.83264
1,Açailândia/MA,-4.9514278,-47.4844564,4336,3833.06371
D1,Açailândia/MA,-4.9514278,-47.4844564,139,122.87727
1,Açu/RN,-5.5836157,-36.9139541,3673,6291.10715
D1,Açu/RN,-5.5836157,-36.9139541,102,174.70540
1,Açucena/MG,-19.073056,-42.546666,382,4077.71136
D1,Açucena/MG,-19.073056,-42.546666,10,106.74637
1,Babaçulândia/TO,-7.2034355,-47.761613,532,4987.81174
D1,Babaçulândia/TO,-7.2034355,-47.761613,4,37.50234
1,Bacabal/MA,-4.2318132,-44.781167,3983,3800.93520
D1,Bacabal/MA,-4.2318132,-44.781167,105,100.20040
1,Bacabeira/MA,-2.9775747,-44.3155943,260,1507.07164
D1,Bacabeira/MA,-2.9775747,-44.3155943,4,23.18572
1,Bacuri/MA,-1.728894,-45.1417148,429,2299.77485
D1,Bacuri/MA,-1.728894,-45.1417148,4,21.44312
1,Bacurituba/MA,-2.7082587,-44.7381309,111,1957.67196
D1,Bacurituba/MA,-2.7082587,-44.7381309,1,17.63668
1,Bady Bassitt/SP,-20.9178969,-49.4517911,1921,10815.83244
D1,Bady Bassitt/SP,-20.9178969,-49.4517911,29,163.27909
1,Baependi/MG,-21.959162,-44.8899249,911,4745.03880
D1,Baependi/MG,-21.959162,-44.8899249,10,52.08605
1,Bagre/PA,-1.8994498,-50.2103844,745,2378.29210
D1,Bagre/PA,-1.8994498,-50.2103844,11,35.11572
1,Bagé/RS,-31.3314264,-54.1062808,5032,4147.19578
D1,Bagé/RS,-31.3314264,-54.1062808,123,101.37223
1,Baianópolis/BA,-12.3067564,-44.5383591,252,1809.17510
D1,Baianópolis/BA,-12.3067564,-44.5383591,2,14.35853
1,Baixa Grande do Ribeiro/PI,-7.862861,-45.2113289,1812,15525.66190
D1,Baixa Grande do Ribeiro/PI,-7.862861,-45.2113289,17,145.66018
1,Baixa Grande/BA,-11.9630941,-40.1657537,481,2352.19326
D1,Baixa Grande/BA,-11.9630941,-40.1657537,5,24.45107
1,Baixio/CE,-6.7303544,-38.7170095,244,3871.17246
D1,Baixio/CE,-6.7303544,-38.7170095,5,79.32730
1,Baixo Guandu/ES,-19.5138322,-41.0182089,2699,8669.53617
D1,Baixo Guandu/ES,-19.5138322,-41.0182089,51,163.81858
1,Baião/PA,-2.7903479,-49.6702845,589,1215.46049
D1,Baião/PA,-2.7903479,-49.6702845,21,43.33560
1,Balbinos/SP,-21.9006253,-49.3583966,286,4819.68318
D1,Balbinos/SP,-21.9006253,-49.3583966,3,50.55612
1,Baldim/MG,-19.2913568,-43.9558262,326,4177.88030
D1,Baldim/MG,-19.2913568,-43.9558262,7,89.70909
1,Baliza/GO,-16.1978119,-52.542789,124,2348.48485
D1,Baliza/GO,-16.1978119,-52.542789,4,75.75758
1,Balneário Arroio do Silva/SC,-28.9815269,-49.4189932,1490,11094.56441
D1,Balneário Arroio do Silva/SC,-28.9815269,-49.4189932,33,245.71854
1,Balneário Barra do Sul/SC,-26.459842,-48.6061471,1121,10158.58632
D1,Balneário Barra do Sul/SC,-26.459842,-48.6061471,20,181.24150
1,Balneário Camboriú/SC,-26.9924395,-48.6339782,20623,14145.10686
D1,Balneário Camboriú/SC,-26.9924395,-48.6339782,253,173.53014
1,Balneário Gaivota/SC,-29.1553098,-49.5808712,1001,8889.87567
D1,Balneário Gaivota/SC,-29.1553098,-49.5808712,18,159.85790
1,Balneário Pinhal/RS,-30.2482978,-50.234585,630,4386.27028
D1,Balneário Pinhal/RS,-30.2482978,-50.234585,21,146.20901
1,Balneário Piçarras/SC,-26.7638889,-48.6716667,3477,14626.45129
D1,Balneário Piçarras/SC,-26.7638889,-48.6716667,31,130.40552
1,Balneário Rincão/SC,-28.8235718,-49.2241642,1093,8442.76224
D1,Balneário Rincão/SC,-28.8235718,-49.2241642,25,193.10984
1,Balsa Nova/PR,-25.5842234,-49.6312741,976,7454.93431
D1,Balsa Nova/PR,-25.5842234,-49.6312741,16,122.21204
1,Balsas/MA,-7.53214,-46.037163,7794,8124.75894
D1,Balsas/MA,-7.53214,-46.037163,99,103.20133
1,Bambuí/MG,-20.0131996,-45.9777034,767,3209.47360
D1,Bambuí/MG,-20.0131996,-45.9777034,6,25.10670
1,Banabuiú/CE,-5.3046404,-38.919766,795,4354.73269
D1,Banabuiú/CE,-5.3046404,-38.919766,7,38.34356
1,Bananal/SP,-22.6828195,-44.3221095,614,5585.37251
D1,Bananal/SP,-22.6828195,-44.3221095,2,18.19340
1,Bananeiras/PB,-6.7537682,-35.6338343,815,3831.86798
D1,Bananeiras/PB,-6.7537682,-35.6338343,8,37.61343
1,Bandeira do Sul/MG,-21.728056,-46.385555,114,1973.00104
D1,Bandeira do Sul/MG,-21.728056,-46.385555,5,86.53513
1,Bandeira/MG,-15.884444,-40.559167,419,8791.43936
D1,Bandeira/MG,-15.884444,-40.559167,8,167.85564
1,Bandeirante/SC,-26.7677402,-53.6397596,166,6268.88218
D1,Bandeirante/SC,-26.7677402,-53.6397596,1,37.76435
1,Bandeirantes do Tocantins/TO,-7.7635698,-48.579148,253,7043.42984
D1,Bandeirantes do Tocantins/TO,-7.7635698,-48.579148,3,83.51893
1,Bandeirantes/MS,-19.9179623,-54.3646768,395,5436.27856
D1,Bandeirantes/MS,-19.9179623,-54.3646768,7,96.33911
1,Bandeirantes/PR,-23.107788,-50.370407,2166,6939.86095
D1,Bandeirantes/PR,-23.107788,-50.370407,55,176.21992
1,Bannach/PA,-7.3508505,-50.4064531,125,3832.00490
D1,Bannach/PA,-7.3508505,-50.4064531,2,61.31208
1,Banzaê/BA,-10.5827616,-38.6122305,778,5876.13293
D1,Banzaê/BA,-10.5827616,-38.6122305,4,30.21148
1,Baraúna/PB,-6.643394,-36.2531932,198,3988.71878
D1,Baraúna/PB,-6.643394,-36.2531932,3,60.43513
1,Baraúna/RN,-5.0775002,-37.61752,718,2497.65193
D1,Baraúna/RN,-5.0775002,-37.61752,17,59.13661
1,Barbacena/MG,-21.2254524,-43.7735087,4196,3036.09157
D1,Barbacena/MG,-21.2254524,-43.7735087,94,68.01540
1,Barbalha/CE,-7.3121067,-39.3036427,3164,5167.57039
D1,Barbalha/CE,-7.3121067,-39.3036427,61,99.62762
1,Barbosa Ferraz/PR,-24.0287182,-52.00811,557,4874.84684
D1,Barbosa Ferraz/PR,-24.0287182,-52.00811,9,78.76772
1,Barbosa/SP,-21.265661,-49.951816,291,3896.62560
D1,Barbosa/SP,-21.265661,-49.951816,7,93.73326
1,Barcarena/PA,-1.5107945,-48.6190679,7501,5905.04381
D1,Barcarena/PA,-1.5107945,-48.6190679,145,114.14896
1,Barcelona/RN,-5.9514918,-35.9260284,51,1276.91537
D1,Barcelona/RN,-5.9514918,-35.9260284,3,75.11267
1,Barcelos/AM,-0.9729214,-62.925635,4001,14476.44547
D1,Barcelos/AM,-0.9729214,-62.925635,52,188.14675
1,Bariri/SP,-22.0746355,-48.7394852,2031,5711.79481
D1,Bariri/SP,-22.0746355,-48.7394852,69,194.04916
1,Barra Bonita/SC,-26.6526364,-53.4419581,97,5875.22714
D1,Barra Bonita/SC,-26.6526364,-53.4419581,1,60.56935
1,Barra Bonita/SP,-22.490859,-48.558349,2319,6419.19947
D1,Barra Bonita/SP,-22.490859,-48.558349,55,152.24492
1,Barra D'Alcântara/PI,-6.5209258,-42.1071089,99,2505.06073
D1,Barra D'Alcântara/PI,-6.5209258,-42.1071089,3,75.91093
1,Barra Funda/RS,-27.9230048,-53.0401045,338,13249.70600
D1,Barra Funda/RS,-27.9230048,-53.0401045,5,196.00157
1,Barra Longa/MG,-20.2833541,-43.0423516,165,3290.12961
D1,Barra Longa/MG,-20.2833541,-43.0423516,2,39.88036
1,Barra Mansa/RJ,-22.5394843,-44.1735129,10962,5930.75912
D1,Barra Mansa/RJ,-22.5394843,-44.1735129,312,168.80103
1,Barra Velha/SC,-26.6338203,-48.6835001,3026,10133.95847
D1,Barra Velha/SC,-26.6338203,-48.6835001,60,200.93771
1,Barra da Estiva/BA,-13.6269662,-41.3278287,1221,5987.64221
D1,Barra da Estiva/BA,-13.6269662,-41.3278287,8,39.23107
1,Barra de Guabiraba/PE,-8.4173522,-35.6626669,332,2288.07719
D1,Barra de Guabiraba/PE,-8.4173522,-35.6626669,12,82.70159
1,Barra de Santa Rosa/PB,-6.7218007,-36.0564638,638,4116.92586
D1,Barra de Santa Rosa/PB,-6.7218007,-36.0564638,3,19.35859
1,Barra de Santana/PB,-7.5230865,-35.9988518,291,3485.44736
D1,Barra de Santana/PB,-7.5230865,-35.9988518,4,47.90993
1,Barra de Santo Antônio/AL,-9.4038098,-35.5117693,180,1120.23898
D1,Barra de Santo Antônio/AL,-9.4038098,-35.5117693,15,93.35325
1,Barra de São Francisco/ES,-18.7570902,-40.8916119,2897,6440.78348
D1,Barra de São Francisco/ES,-18.7570902,-40.8916119,91,202.31664
1,Barra de São Miguel/AL,-9.8261357,-35.8837777,258,3079.49391
D1,Barra de São Miguel/AL,-9.8261357,-35.8837777,6,71.61614
1,Barra de São Miguel/PB,-7.7528088,-36.3170996,254,4187.96373
D1,Barra de São Miguel/PB,-7.7528088,-36.3170996,1,16.48805
1,Barra do Bugres/MT,-15.0683712,-57.1853688,1882,5330.38774
D1,Barra do Bugres/MT,-15.0683712,-57.1853688,44,124.62118
1,Barra do Chapéu/SP,-24.472203,-49.023784,199,3454.86111
1,Barra do Choça/BA,-14.8638173,-40.5761637,1571,5033.80435
D1,Barra do Choça/BA,-14.8638173,-40.5761637,21,67.28828
1,Barra do Corda/MA,-5.496823,-45.248496,4644,5247.93202
D1,Barra do Corda/MA,-5.496823,-45.248496,48,54.24219
1,Barra do Garças/MT,-15.8916033,-52.2615413,5427,8877.07533
D1,Barra do Garças/MT,-15.8916033,-52.2615413,183,299.33753
1,Barra do Guarita/RS,-27.1888016,-53.7147086,101,3101.01320
D1,Barra do Guarita/RS,-27.1888016,-53.7147086,2,61.40620
1,Barra do Jacaré/PR,-23.1151788,-50.1813945,138,4962.24380
D1,Barra do Jacaré/PR,-23.1151788,-50.1813945,1,35.95829
1,Barra do Mendes/BA,-11.8053298,-42.057037,583,4214.55939
D1,Barra do Mendes/BA,-11.8053298,-42.057037,9,65.06181
1,Barra do Ouro/TO,-7.7113784,-47.6743925,106,2288.42832
D1,Barra do Ouro/TO,-7.7113784,-47.6743925,5,107.94473
1,Barra do Piraí/RJ,-22.4703403,-43.8263256,3894,3864.47541
D1,Barra do Piraí/RJ,-22.4703403,-43.8263256,165,163.74896
1,Barra do Quaraí/RS,-30.208947,-57.5505128,187,4423.94133
D1,Barra do Quaraí/RS,-30.208947,-57.5505128,2,47.31488
1,Barra do Ribeiro/RS,-30.2930206,-51.301437,836,6167.01092
D1,Barra do Ribeiro/RS,-30.2930206,-51.301437,39,287.69549
1,Barra do Rio Azul/RS,-27.4101581,-52.4117471,57,3444.10876
D1,Barra do Rio Azul/RS,-27.4101581,-52.4117471,1,60.42296
1,Barra do Rocha/BA,-14.2090974,-39.6004395,295,5256.59301
D1,Barra do Rocha/BA,-14.2090974,-39.6004395,3,53.45688
1,Barra do Turvo/SP,-24.756421,-48.5056942,330,4323.89937
D1,Barra do Turvo/SP,-24.756421,-48.5056942,10,131.02725
1,Barra dos Coqueiros/SE,-10.9075694,-37.0386249,4262,13779.50210
D1,Barra dos Coqueiros/SE,-10.9075694,-37.0386249,44,142.25671
1,Barra/BA,-11.0892702,-43.1420453,1292,2396.58690
D1,Barra/BA,-11.0892702,-43.1420453,22,40.80876
1,Barracão/PR,-26.252395,-53.6349576,802,7777.34678
D1,Barracão/PR,-26.252395,-53.6349576,19,184.25136
1,Barracão/RS,-27.6728964,-51.4582928,227,4318.87367
D1,Barracão/RS,-27.6728964,-51.4582928,7,133.18113
1,Barras/PI,-4.2446153,-42.2920241,3699,7839.35573
D1,Barras/PI,-4.2446153,-42.2920241,72,152.59087
1,Barreira/CE,-4.2883361,-38.641094,673,2981.43800
D1,Barreira/CE,-4.2883361,-38.641094,24,106.32171
1,Barreiras do Piauí/PI,-9.9224524,-45.4763776,47,1402.14797
D1,Barreiras do Piauí/PI,-9.9224524,-45.4763776,1,29.83294
1,Barreiras/BA,-12.1440031,-44.9967406,10331,6581.30276
D1,Barreiras/BA,-12.1440031,-44.9967406,120,76.44529
1,Barreirinha/AM,-2.798863,-57.067897,2185,6726.59545
D1,Barreirinha/AM,-2.798863,-57.067897,57,175.47640
1,Barreirinhas/MA,-2.7541271,-42.8259693,1495,2364.87021
D1,Barreirinhas/MA,-2.7541271,-42.8259693,29,45.87374
1,Barreiros/PE,-8.8159644,-35.1831905,520,1215.97605
D1,Barreiros/PE,-8.8159644,-35.1831905,44,102.89028
1,Barretos/SP,-20.5531437,-48.5697509,8803,7166.64089
D1,Barretos/SP,-20.5531437,-48.5697509,222,180.73319
1,Barrinha/SP,-21.1898849,-48.1550642,1035,3119.34901
D1,Barrinha/SP,-21.1898849,-48.1550642,38,114.52682
1,Barro Alto/BA,-11.7618025,-41.9094904,592,3932.50963
D1,Barro Alto/BA,-11.7618025,-41.9094904,4,26.57101
1,Barro Alto/GO,-14.9696025,-48.9190985,1101,9651.12202
D1,Barro Alto/GO,-14.9696025,-48.9190985,11,96.42356
1,Barro Duro/PI,-5.8180139,-42.5106589,509,7243.48940
D1,Barro Duro/PI,-5.8180139,-42.5106589,7,99.61577
1,Barro Preto/BA,-14.8068289,-39.4727588,451,8278.26725
D1,Barro Preto/BA,-14.8068289,-39.4727588,7,128.48752
1,Barro/CE,-7.1713587,-38.7742136,589,2588.10089
D1,Barro/CE,-7.1713587,-38.7742136,14,61.51683
1,Barrocas/BA,-11.5165,-39.099282894736845,595,3694.50481
D1,Barrocas/BA,-11.5165,-39.099282894736845,9,55.88327
1,Barrolândia/TO,-9.837246,-48.7264346,547,9679.70271
D1,Barrolândia/TO,-9.837246,-48.7264346,9,159.26385
1,Barroquinha/CE,-3.0200371,-41.1339229,893,5935.92130
D1,Barroquinha/CE,-3.0200371,-41.1339229,21,139.59053
1,Barros Cassal/RS,-29.094938,-52.5832366,421,3764.97943
D1,Barros Cassal/RS,-29.094938,-52.5832366,4,35.77178
1,Barroso/MG,-21.187222,-43.976111,533,2550.60535
D1,Barroso/MG,-21.187222,-43.976111,10,47.85376
1,Barueri/SP,-23.5112184,-46.8764612,18655,6735.09470
D1,Barueri/SP,-23.5112184,-46.8764612,595,214.81540
1,Barão de Antonina/SP,-23.6295651,-49.5632104,91,2601.48656
D1,Barão de Antonina/SP,-23.6295651,-49.5632104,1,28.58776
1,Barão de Cocais/MG,-19.9452437,-43.4870298,2465,7500.15213
D1,Barão de Cocais/MG,-19.9452437,-43.4870298,28,85.19443
1,Barão de Cotegipe/RS,-27.6214694,-52.3765316,485,7326.28399
D1,Barão de Cotegipe/RS,-27.6214694,-52.3765316,6,90.63444
1,Barão de Grajaú/MA,-6.7542591,-43.0263477,240,1268.23082
D1,Barão de Grajaú/MA,-6.7542591,-43.0263477,2,10.56859
1,Barão de Melgaço/MT,-16.195776,-55.9668049,184,2253.79716
D1,Barão de Melgaço/MT,-16.195776,-55.9668049,9,110.24008
1,Barão de Monte Alto/MG,-21.244722,-42.2375,163,3044.45275
D1,Barão de Monte Alto/MG,-21.244722,-42.2375,7,130.74337
1,Barão do Triunfo/RS,-30.3909877,-51.7375349,304,4043.09084
D1,Barão do Triunfo/RS,-30.3909877,-51.7375349,4,53.19856
1,Barão/RS,-29.372474,-51.494908,371,5981.94131
D1,Barão/RS,-29.372474,-51.494908,7,112.86682
1,Bastos/SP,-21.9222474,-50.7317727,383,1827.90054
D1,Bastos/SP,-21.9222474,-50.7317727,13,62.04362
1,Bataguassu/MS,-21.715899,-52.422058,1799,7712.75456
D1,Bataguassu/MS,-21.715899,-52.422058,18,77.17042
1,Batalha/AL,-9.6733809,-37.1265481,783,4269.82223
D1,Batalha/AL,-9.6733809,-37.1265481,15,81.79736
1,Batalha/PI,-4.022391,-42.0780926,677,2516.26092
D1,Batalha/PI,-4.022391,-42.0780926,22,81.76919
1,Batatais/SP,-20.892867,-47.592149,1775,2818.35503
D1,Batatais/SP,-20.892867,-47.592149,58,92.09273
1,Batayporã/MS,-22.2976466,-53.2685608,546,4810.99656
D1,Batayporã/MS,-22.2976466,-53.2685608,11,96.92484
1,Baturité/CE,-4.3290203,-38.8821055,1341,3731.11488
D1,Baturité/CE,-4.3290203,-38.8821055,42,116.85818
1,Bauru/SP,-22.3218102,-49.0705863,28591,7537.89247
D1,Bauru/SP,-22.3218102,-49.0705863,532,140.25948
1,Bayeux/PB,-7.1301631,-34.936532,5011,5155.19068
D1,Bayeux/PB,-7.1301631,-34.936532,173,177.97805
1,Baía Formosa/RN,-6.3691885,-35.0063741,239,2563.82750
D1,Baía Formosa/RN,-6.3691885,-35.0063741,8,85.81849
1,Baía da Traição/PB,-6.691258,-34.9371244,1061,11664.46790
D1,Baía da Traição/PB,-6.691258,-34.9371244,9,98.94459
1,Bebedouro/SP,-20.949077,-48.479083,2970,3829.54033
D1,Bebedouro/SP,-20.949077,-48.479083,62,79.94327
1,Beberibe/CE,-4.1810469,-38.1298101,2137,3961.14849
D1,Beberibe/CE,-4.1810469,-38.1298101,36,66.72969
1,Bela Cruz/CE,-3.0529129,-40.167582,2068,6319.90710
D1,Bela Cruz/CE,-3.0529129,-40.167582,33,100.84958
1,Bela Vista da Caroba/PR,-25.8792818,-53.6672545,140,4049.75412
D1,Bela Vista da Caroba/PR,-25.8792818,-53.6672545,3,86.78045
1,Bela Vista de Goiás/GO,-16.9692949,-48.9513071,1715,5624.42608
D1,Bela Vista de Goiás/GO,-16.9692949,-48.9513071,36,118.06375
1,Bela Vista de Minas/MG,-19.8289721,-43.0973688,448,4365.62074
D1,Bela Vista de Minas/MG,-19.8289721,-43.0973688,9,87.70220
1,Bela Vista do Maranhão/MA,-3.7416367,-45.2514192,174,1542.68995
D1,Bela Vista do Maranhão/MA,-3.7416367,-45.2514192,10,88.66034
1,Bela Vista do Paraíso/PR,-22.9948493,-51.1907996,1355,8799.27268
D1,Bela Vista do Paraíso/PR,-22.9948493,-51.1907996,35,227.28749
1,Bela Vista do Piauí/PI,-7.9716353,-41.8715061,213,5285.35980
D1,Bela Vista do Piauí/PI,-7.9716353,-41.8715061,6,148.88337
1,Bela Vista do Toldo/SC,-26.274625,-50.466354,55,864.50802
D1,Bela Vista do Toldo/SC,-26.274625,-50.466354,1,15.71833
1,Bela Vista/MS,-22.107327,-56.5317344,494,1997.17000
D1,Bela Vista/MS,-22.107327,-56.5317344,12,48.51425
1,Belford Roxo/RJ,-22.7667284,-43.4033603,17776,3464.31035
D1,Belford Roxo/RJ,-22.7667284,-43.4033603,449,87.50424
1,Belmiro Braga/MG,-21.9486291,-43.413564,116,3386.86131
D1,Belmiro Braga/MG,-21.9486291,-43.413564,3,87.59124
1,Belmonte/BA,-15.8630837,-38.8792845,852,3635.27755
D1,Belmonte/BA,-15.8630837,-38.8792845,13,55.46785
1,Belmonte/SC,-26.8448262,-53.578916,194,7161.31414
D1,Belmonte/SC,-26.8448262,-53.578916,4,147.65596
1,Belo Campo/BA,-15.0338286,-41.2585109,483,2823.07557
D1,Belo Campo/BA,-15.0338286,-41.2585109,6,35.06926
1,Belo Horizonte/MG,-19.9227318,-43.9450948,132376,5249.75769
D1,Belo Horizonte/MG,-19.9227318,-43.9450948,3052,121.03599
1,Belo Jardim/PE,-8.3338293,-36.4176419,2029,2645.82002
D1,Belo Jardim/PE,-8.3338293,-36.4176419,48,62.59210
1,Belo Monte/AL,-9.8269944,-37.2787165,227,3383.01043
D1,Belo Monte/AL,-9.8269944,-37.2787165,6,89.41878
1,Belo Oriente/MG,-19.2232523,-42.4807033,1870,6927.46536
D1,Belo Oriente/MG,-19.2232523,-42.4807033,32,118.54486
1,Belo Vale/MG,-20.407778,-44.024167,359,4650.86151
D1,Belo Vale/MG,-20.407778,-44.024167,6,77.73028
1,Belterra/PA,-2.636091,-54.937392,808,4529.40187
D1,Belterra/PA,-2.636091,-54.937392,17,95.29682
1,Belágua/MA,-3.1604031,-43.5085052,282,3746.01488
D1,Belágua/MA,-3.1604031,-43.5085052,2,26.56748
1,Belém de Maria/PE,-8.6242497,-35.8388934,129,1064.18083
D1,Belém de Maria/PE,-8.6242497,-35.8388934,3,24.74839
1,Belém do Brejo do Cruz/PB,-6.1880727,-37.5332267,476,6477.07171
D1,Belém do Brejo do Cruz/PB,-6.1880727,-37.5332267,5,68.03647
1,Belém do Piauí/PI,-7.3767305,-40.9712156,383,10677.44633
D1,Belém do Piauí/PI,-7.3767305,-40.9712156,6,167.27070
1,Belém do São Francisco/PE,-8.7517707,-38.9625715,384,1852.38784
D1,Belém do São Francisco/PE,-8.7517707,-38.9625715,7,33.76749
1,Belém/AL,-9.5715351,-36.492841,82,1914.09897
D1,Belém/AL,-9.5715351,-36.492841,3,70.02801
1,Belém/PA,-1.45056,-48.4682453,82995,5534.32455
D1,Belém/PA,-1.45056,-48.4682453,3292,219.51920
1,Belém/PB,-6.6967586,-35.5369626,1470,8302.73934
D1,Belém/PB,-6.6967586,-35.5369626,29,163.79554
1,Beneditinos/PI,-5.4565671,-42.3605061,571,5452.11496
D1,Beneditinos/PI,-5.4565671,-42.3605061,21,200.51561
1,Benedito Leite/MA,-7.2173453,-44.5523331,261,4629.30117
D1,Benedito Leite/MA,-7.2173453,-44.5523331,2,35.47357
1,Benedito Novo/SC,-26.7840657,-49.3629511,819,6955.41401
D1,Benedito Novo/SC,-26.7840657,-49.3629511,12,101.91083
1,Benevides/PA,-1.3555577,-48.252235,2692,4221.55313
D1,Benevides/PA,-1.3555577,-48.252235,65,101.93200
1,Benjamin Constant do Sul/RS,-27.5105555,-52.6007689,140,7150.15322
1,Benjamin Constant/AM,-4.3782748,-70.0290603,2554,5813.13304
D1,Benjamin Constant/AM,-4.3782748,-70.0290603,68,154.77410
1,Bento Fernandes/RN,-5.6926846,-35.8207423,64,1158.37104
D1,Bento Fernandes/RN,-5.6926846,-35.8207423,2,36.19910
1,Bento Gonçalves/RS,-29.1654014,-51.5197627,11436,9388.93131
D1,Bento Gonçalves/RS,-29.1654014,-51.5197627,213,174.87254
1,Bento de Abreu/SP,-21.2707225,-50.8120444,189,6289.51747
1,Bequimão/MA,-2.4495376,-44.7884889,266,1248.88492
D1,Bequimão/MA,-2.4495376,-44.7884889,14,65.73079
1,Berilo/MG,-16.9515764,-42.4643732,10,84.23181
1,Berizal/MG,-15.6118785,-41.7417382,88,1847.18724
D1,Berizal/MG,-15.6118785,-41.7417382,1,20.99076
1,Bernardino Batista/PB,-6.4532173,-38.5495418,207,5854.07240
1,Bernardino de Campos/SP,-23.0140216,-49.4760724,303,2715.54042
D1,Bernardino de Campos/SP,-23.0140216,-49.4760724,6,53.77308
1,Bernardo Sayão/TO,-7.8794244,-48.8968905,245,5508.09353
D1,Bernardo Sayão/TO,-7.8794244,-48.8968905,4,89.92806
1,Bernardo do Mearim/MA,-4.6315929,-44.7617508,199,3276.79895
D1,Bernardo do Mearim/MA,-4.6315929,-44.7617508,3,49.39898
1,Bertioga/SP,-23.848568,-46.139586,3446,5324.22786
D1,Bertioga/SP,-23.848568,-46.139586,68,105.06312
1,Bertolínia/PI,-7.6372159,-43.9540611,604,10967.85909
D1,Bertolínia/PI,-7.6372159,-43.9540611,6,108.95224
1,Bertópolis/MG,-17.063333,-40.573889,239,5187.75776
1,Beruri/AM,-3.9007135,-61.3717319,1969,9799.43264
D1,Beruri/AM,-3.9007135,-61.3717319,31,154.28259
1,Betim/MG,-19.968056,-44.198333,19813,4454.52175
D1,Betim/MG,-19.968056,-44.198333,573,128.82658
1,Betânia do Piauí/PI,-8.1460635,-40.7961387,146,2351.04670
D1,Betânia do Piauí/PI,-8.1460635,-40.7961387,2,32.20612
1,Betânia/PE,-8.2742779,-38.0351767,254,1989.81590
D1,Betânia/PE,-8.2742779,-38.0351767,5,39.16960
1,Bezerros/PE,-8.2372132,-35.7558262,2736,4494.08673
D1,Bezerros/PE,-8.2372132,-35.7558262,81,133.04862
1,Bias Fortes/MG,-21.605833,-43.756944,85,2553.31932
D1,Bias Fortes/MG,-21.605833,-43.756944,2,60.07810
1,Bicas/MG,-21.7213723,-43.0604327,726,4988.31936
D1,Bicas/MG,-21.7213723,-43.0604327,22,151.16119
1,Biguaçu/SC,-27.4961277,-48.6542432,9328,13424.28691
D1,Biguaçu/SC,-27.4961277,-48.6542432,118,169.81838
1,Bilac/SP,-21.403962,-50.47464,577,7108.53764
D1,Bilac/SP,-21.403962,-50.47464,11,135.51805
1,Biquinhas/MG,-18.783611,-45.502222,75,3002.40192
1,Birigui/SP,-21.2908491,-50.34144,8654,6929.68619
D1,Birigui/SP,-21.2908491,-50.34144,219,175.36414
1,Biritiba Mirim/SP,-23.5697765,-46.0407456,828,2513.96648
D1,Biritiba Mirim/SP,-23.5697765,-46.0407456,51,154.84576
1,Biritinga/BA,-11.6227908,-38.8066738,260,1626.62663
D1,Biritinga/BA,-11.6227908,-38.8066738,3,18.76877
1,Bituruna/PR,-26.161281,-51.5533319,461,2810.97561
D1,Bituruna/PR,-26.161281,-51.5533319,5,30.48780
1,Blumenau/SC,-26.9195567,-49.0658025,40641,11231.29430
D1,Blumenau/SC,-26.9195567,-49.0658025,391,108.05433
1,Boa Esperança do Iguaçu/PR,-25.6362851,-53.2139114,116,4696.35628
1,Boa Esperança do Sul/SP,-21.9930206,-48.3917372,605,4028.49913
D1,Boa Esperança do Sul/SP,-21.9930206,-48.3917372,10,66.58676
1,Boa Esperança/ES,-18.5395472,-40.2904088,888,5883.91201
D1,Boa Esperança/ES,-18.5395472,-40.2904088,30,198.78081
1,Boa Esperança/MG,-21.0901253,-45.5660195,1799,4473.01027
D1,Boa Esperança/MG,-21.0901253,-45.5660195,44,109.40103
1,Boa Esperança/PR,-24.2411024,-52.7860277,218,5386.70620
D1,Boa Esperança/PR,-24.2411024,-52.7860277,5,123.54831
1,Boa Hora/PI,-4.4094627,-42.1255341,399,5854.73221
D1,Boa Hora/PI,-4.4094627,-42.1255341,5,73.36757
1,Boa Nova/BA,-14.365907,-40.2063056,564,4574.58026
D1,Boa Nova/BA,-14.365907,-40.2063056,11,89.22054
1,Boa Ventura de São Roque/PR,-24.88177,-51.5441292,253,3974.86253
D1,Boa Ventura de São Roque/PR,-24.88177,-51.5441292,5,78.55460
1,Boa Ventura/PB,-7.4202462,-38.2156782,212,3994.72395
D1,Boa Ventura/PB,-7.4202462,-38.2156782,4,75.37215
1,Boa Viagem/CE,-5.1261877,-39.7300055,2114,3873.42653
D1,Boa Viagem/CE,-5.1261877,-39.7300055,54,98.94278
1,Boa Vista da Aparecida/PR,-25.4357216,-53.4067721,509,6750.66313
D1,Boa Vista da Aparecida/PR,-25.4357216,-53.4067721,16,212.20159
1,Boa Vista das Missões/RS,-27.6677983,-53.3127622,79,3776.29063
D1,Boa Vista das Missões/RS,-27.6677983,-53.3127622,2,95.60229
1,Boa Vista do Buricá/RS,-27.6687782,-54.1111913,543,8089.98808
D1,Boa Vista do Buricá/RS,-27.6687782,-54.1111913,7,104.29082
1,Boa Vista do Cadeado/RS,-28.5783827,-53.8123759,122,4943.27391
D1,Boa Vista do Cadeado/RS,-28.5783827,-53.8123759,1,40.51864
1,Boa Vista do Gurupi/MA,-1.7981168,-46.3071882,14,167.02458
D1,Boa Vista do Gurupi/MA,-1.7981168,-46.3071882,3,35.79098
1,Boa Vista do Incra/RS,-28.8195551,-53.3866624,147,5619.26606
D1,Boa Vista do Incra/RS,-28.8195551,-53.3866624,1,38.22630
1,Boa Vista do Ramos/AM,-2.9716927,-57.5869819,815,4152.65464
D1,Boa Vista do Ramos/AM,-2.9716927,-57.5869819,11,56.04810
1,Boa Vista do Sul/RS,-29.3510488,-51.6779679,233,8387.32901
D1,Boa Vista do Sul/RS,-29.3510488,-51.6779679,2,71.99424
1,Boa Vista do Tupim/BA,-12.6605988,-40.6083594,162,874.21078
D1,Boa Vista do Tupim/BA,-12.6605988,-40.6083594,4,21.58545
1,Boa Vista/PB,-7.2620711,-36.2415161,381,5339.12556
D1,Boa Vista/PB,-7.2620711,-36.2415161,4,56.05381
1,Boa Vista/RR,2.8208478,-60.6719582,66841,15927.72106
D1,Boa Vista/RR,2.8208478,-60.6719582,991,236.14805
1,Boca da Mata/AL,-9.6452054,-36.2116658,1451,5304.13803
D1,Boca da Mata/AL,-9.6452054,-36.2116658,32,116.97617
1,Boca do Acre/AM,-8.7553487,-67.3930873,2360,6813.91656
D1,Boca do Acre/AM,-8.7553487,-67.3930873,22,63.51956
1,Bocaina de Minas/MG,-22.167778,-44.394722,94,1847.12124
D1,Bocaina de Minas/MG,-22.167778,-44.394722,2,39.30045
1,Bocaina do Sul/SC,-27.745494,-49.942279,346,9919.72477
D1,Bocaina do Sul/SC,-27.745494,-49.942279,3,86.00917
1,Bocaina/PI,-6.9445939,-41.3224599,217,4816.87014
D1,Bocaina/PI,-6.9445939,-41.3224599,3,66.59267
1,Bocaina/SP,-22.1421831,-48.522276,1032,8287.82525
D1,Bocaina/SP,-22.1421831,-48.522276,21,168.64761
1,Bocaiúva do Sul/PR,-25.206591,-49.114131,851,6481.83411
D1,Bocaiúva do Sul/PR,-25.206591,-49.114131,5,38.08363
1,Bocaiúva/MG,-17.1160208,-43.8122678,1263,2513.13276
D1,Bocaiúva/MG,-17.1160208,-43.8122678,28,55.71474
1,Bodocó/PE,-7.777592,-39.933797,1420,3700.03648
D1,Bodocó/PE,-7.777592,-39.933797,19,49.50753
1,Bodoquena/MS,-20.5508775,-56.6769653,152,1939.27022
D1,Bodoquena/MS,-20.5508775,-56.6769653,3,38.27507
1,Bodó/RN,-5.9866104,-36.4134824,89,4050.97861
1,Bofete/SP,-23.1019554,-48.2610535,465,3900.67947
D1,Bofete/SP,-23.1019554,-48.2610535,8,67.10846
1,Boituva/SP,-23.2838893,-47.6738231,3426,5510.69648
D1,Boituva/SP,-23.2838893,-47.6738231,53,85.25012
1,Bom Conselho/PE,-9.169191,-36.685683,1194,2448.37698
D1,Bom Conselho/PE,-9.169191,-36.685683,37,75.87098
1,Bom Despacho/MG,-19.7375242,-45.2517288,2340,4585.71765
D1,Bom Despacho/MG,-19.7375242,-45.2517288,45,88.18688
1,Bom Jardim da Serra/SC,-28.3380324,-49.625588,528,11064.54317
D1,Bom Jardim da Serra/SC,-28.3380324,-49.625588,3,62.86672
1,Bom Jardim de Goiás/GO,-16.2062659,-52.172793,479,5400.83437
D1,Bom Jardim de Goiás/GO,-16.2062659,-52.172793,9,101.47705
1,Bom Jardim de Minas/MG,-21.9476466,-44.1906033,180,2786.80910
D1,Bom Jardim de Minas/MG,-21.9476466,-44.1906033,1,15.48227
1,Bom Jardim/MA,-3.54129,-45.606004,1094,2615.84812
D1,Bom Jardim/MA,-3.54129,-45.606004,36,86.07910
1,Bom Jardim/PE,-7.7961572,-35.5871696,919,2298.47685
D1,Bom Jardim/PE,-7.7961572,-35.5871696,39,97.54146
1,Bom Jardim/RJ,-22.1515328,-42.4186683,747,2704.95365
D1,Bom Jardim/RJ,-22.1515328,-42.4186683,18,65.17961
1,Bom Jesus da Lapa/BA,-13.250571,-43.410754,2191,3145.18676
D1,Bom Jesus da Lapa/BA,-13.250571,-43.410754,29,41.62958
1,Bom Jesus da Penha/MG,-21.0165299,-46.5226644,234,5513.66635
D1,Bom Jesus da Penha/MG,-21.0165299,-46.5226644,4,94.25071
1,Bom Jesus da Serra/BA,-14.3724084,-40.5047119,379,3858.29176
D1,Bom Jesus da Serra/BA,-14.3724084,-40.5047119,6,61.08114
1,Bom Jesus das Selvas/MA,-4.4878075,-46.8526639,2189,6332.62939
D1,Bom Jesus das Selvas/MA,-4.4878075,-46.8526639,19,54.96572
1,Bom Jesus de Goiás/GO,-18.2174587,-49.739721,1966,7665.31503
D1,Bom Jesus de Goiás/GO,-18.2174587,-49.739721,60,233.93637
1,Bom Jesus do Amparo/MG,-19.7045132,-43.4752911,126,2054.45948
D1,Bom Jesus do Amparo/MG,-19.7045132,-43.4752911,3,48.91570
1,Bom Jesus do Araguaia/MT,-12.1725897,-51.5074425,491,7321.80137
D1,Bom Jesus do Araguaia/MT,-12.1725897,-51.5074425,4,59.64808
1,Bom Jesus do Galho/MG,-19.8283191,-42.3162256,362,2435.74216
D1,Bom Jesus do Galho/MG,-19.8283191,-42.3162256,11,74.01426
1,Bom Jesus do Itabapoana/RJ,-21.1341025,-41.680095,2236,6010.26799
D1,Bom Jesus do Itabapoana/RJ,-21.1341025,-41.680095,47,126.33390
1,Bom Jesus do Norte/ES,-21.1254776,-41.6711646,749,7518.57057
D1,Bom Jesus do Norte/ES,-21.1254776,-41.6711646,17,170.64846
1,Bom Jesus do Oeste/SC,-26.6929713,-53.0967453,111,5189.34081
D1,Bom Jesus do Oeste/SC,-26.6929713,-53.0967453,3,140.25245
1,Bom Jesus do Sul/PR,-26.1922507,-53.6002033,207,5904.16429
D1,Bom Jesus do Sul/PR,-26.1922507,-53.6002033,3,85.56760
1,Bom Jesus do Tocantins/PA,-5.0471796,-48.5978362,558,3259.72660
D1,Bom Jesus do Tocantins/PA,-5.0471796,-48.5978362,13,75.94345
1,Bom Jesus do Tocantins/TO,-8.96306,-48.165043,115,2296.32588
D1,Bom Jesus do Tocantins/TO,-8.96306,-48.165043,1,19.96805
1,Bom Jesus dos Perdões/SP,-23.1353864,-46.4648052,1030,3963.82528
D1,Bom Jesus dos Perdões/SP,-23.1353864,-46.4648052,10,38.48374
1,Bom Jesus/PB,-6.8156725,-38.6551841,98,3805.82524
D1,Bom Jesus/PB,-6.8156725,-38.6551841,3,116.50485
1,Bom Jesus/PI,-9.0711644,-44.3583926,2375,9355.18179
D1,Bom Jesus/PI,-9.0711644,-44.3583926,27,106.35365
1,Bom Jesus/RN,-5.9887544,-35.5821149,547,5327.74910
D1,Bom Jesus/RN,-5.9887544,-35.5821149,11,107.13938
1,Bom Jesus/RS,-28.6692723,-50.4346894,495,4377.04483
D1,Bom Jesus/RS,-28.6692723,-50.4346894,13,114.95269
1,Bom Jesus/SC,-26.7350604,-52.3916519,304,9944.38992
D1,Bom Jesus/SC,-26.7350604,-52.3916519,5,163.55904
1,Bom Lugar/MA,-4.3728019,-45.0366054,352,2141.37973
D1,Bom Lugar/MA,-4.3728019,-45.0366054,6,36.50079
1,Bom Princípio do Piauí/PI,-3.1912777,-41.6430185,86,1521.85454
D1,Bom Princípio do Piauí/PI,-3.1912777,-41.6430185,6,106.17590
1,Bom Princípio/RS,-29.489788,-51.3566782,1178,8263.76710
D1,Bom Princípio/RS,-29.489788,-51.3566782,19,133.28657
1,Bom Progresso/RS,-27.5490948,-53.8655601,88,4634.01790
D1,Bom Progresso/RS,-27.5490948,-53.8655601,1,52.65929
1,Bom Repouso/MG,-22.4657069,-46.1485376,334,3169.78267
D1,Bom Repouso/MG,-22.4657069,-46.1485376,11,104.39404
1,Bom Retiro do Sul/RS,-29.6000007,-51.9359243,812,6553.67232
D1,Bom Retiro do Sul/RS,-29.6000007,-51.9359243,17,137.20743
1,Bom Retiro/SC,-27.798993,-49.486994,527,5238.56859
D1,Bom Retiro/SC,-27.798993,-49.486994,12,119.28429
1,Bom Sucesso de Itararé/SP,-24.3190016,-49.1446207,73,1832.32932
D1,Bom Sucesso de Itararé/SP,-24.3190016,-49.1446207,4,100.40161
1,Bom Sucesso do Sul/PR,-26.0749256,-52.8348629,253,7775.04610
D1,Bom Sucesso do Sul/PR,-26.0749256,-52.8348629,4,122.92563
1,Bom Sucesso/MG,-21.0323516,-44.7598082,279,1584.59704
D1,Bom Sucesso/MG,-21.0323516,-44.7598082,4,22.71824
1,Bom Sucesso/PB,-6.4458948,-37.9297662,141,2845.03632
1,Bom Sucesso/PR,-23.7088019,-51.7651297,460,6508.20600
D1,Bom Sucesso/PR,-23.7088019,-51.7651297,9,127.33447
1,Bombinhas/SC,-27.1519159,-48.4875691,3042,14959.42955
D1,Bombinhas/SC,-27.1519159,-48.4875691,35,172.11704
1,Bonfim do Piauí/PI,-9.1648678,-42.8734415,207,3641.16095
D1,Bonfim do Piauí/PI,-9.1648678,-42.8734415,3,52.77045
1,Bonfim/MG,-20.3266626, -44.2386157,242,3527.69679
D1,Bonfim/MG,-20.3266626, -44.2386157,6,87.46356
1,Bonfim/RR,3.3613818,-59.8427241,1814,14446.12567
D1,Bonfim/RR,3.3613818,-59.8427241,24,191.12845
1,Bonfinópolis de Minas/MG,-16.5660011,-45.98645,296,5437.17855
D1,Bonfinópolis de Minas/MG,-16.5660011,-45.98645,10,183.68846
1,Bonfinópolis/GO,-16.6172709,-48.9615701,416,4193.97117
D1,Bonfinópolis/GO,-16.6172709,-48.9615701,12,120.97994
1,Boninal/BA,-12.7095183,-41.8299984,505,3495.77738
D1,Boninal/BA,-12.7095183,-41.8299984,6,41.53399
1,Bonito de Minas/MG,-15.3191266,-44.7544,38,334.24224
1,Bonito de Santa Fé/PB,-7.3143332,-38.5146677,345,2869.73881
D1,Bonito de Santa Fé/PB,-7.3143332,-38.5146677,11,91.49892
1,Bonito/BA,-11.9665473,-41.2649896,567,3358.20896
D1,Bonito/BA,-11.9665473,-41.2649896,6,35.53660
1,Bonito/MS,-21.1264766,-56.4902208,1740,7841.36999
D1,Bonito/MS,-21.1264766,-56.4902208,25,112.66336
1,Bonito/PA,-1.3605722,-47.3049907,325,1966.12220
D1,Bonito/PA,-1.3605722,-47.3049907,12,72.59528
1,Bonito/PE,-8.4721161,-35.7314591,545,1429.80822
D1,Bonito/PE,-8.4721161,-35.7314591,28,73.45804
1,Bonópolis/GO,-13.649331,-49.8329113,101,2247.94124
D1,Bonópolis/GO,-13.649331,-49.8329113,1,22.25684
1,Boqueirão do Leão/RS,-29.30332,-52.4296817,415,5388.21085
D1,Boqueirão do Leão/RS,-29.30332,-52.4296817,24,311.60737
1,Boqueirão do Piauí/PI,-4.4850148,-42.1095161,368,5726.73514
D1,Boqueirão do Piauí/PI,-4.4850148,-42.1095161,7,108.93246
1,Boqueirão/PB,-7.487004,-36.130887,1120,6267.48741
D1,Boqueirão/PB,-7.487004,-36.130887,21,117.51539
1,Boquim/SE,-11.1450175,-37.6204228,1403,5215.80728
D1,Boquim/SE,-11.1450175,-37.6204228,30,111.52831
1,Boquira/BA,-12.8184859,-42.7270883,370,1721.17040
D1,Boquira/BA,-12.8184859,-42.7270883,5,23.25906
1,Boracéia/SP,-22.195355,-48.7801925,676,13886.60641
D1,Boracéia/SP,-22.195355,-48.7801925,9,184.88085
1,Borba/AM,-4.3934778,-59.5947721,1520,3640.89298
D1,Borba/AM,-4.3934778,-59.5947721,45,107.78959
1,Borborema/PB,-6.8066718,-35.5990191,136,2572.34727
D1,Borborema/PB,-6.8066718,-35.5990191,3,56.74295
1,Borborema/SP,-21.6212706,-49.074135,704,4355.35758
D1,Borborema/SP,-21.6212706,-49.074135,22,136.10492
1,Borda da Mata/MG,-22.274167,-46.165278,853,4348.93443
D1,Borda da Mata/MG,-22.274167,-46.165278,25,127.45998
1,Borebi/SP,-22.5700178,-48.9714871,110,4099.88818
D1,Borebi/SP,-22.5700178,-48.9714871,2,74.54342
1,Borrazópolis/PR,-23.9393362,-51.5850786,451,7004.19320
D1,Borrazópolis/PR,-23.9393362,-51.5850786,13,201.89470
1,Borá/SP,-22.2701088,-50.544407,38,4534.60621
D1,Borá/SP,-22.2701088,-50.544407,1,119.33174
1,Bossoroca/RS,-28.7278885,-54.9120278,143,2304.59307
D1,Bossoroca/RS,-28.7278885,-54.9120278,13,209.50846
1,Botelhos/MG,-21.65,-46.394722,673,4501.97338
D1,Botelhos/MG,-21.65,-46.394722,5,33.44705
1,Botucatu/SP,-22.8879628,-48.4410712,9440,6372.78067
D1,Botucatu/SP,-22.8879628,-48.4410712,133,89.78600
1,Botumirim/MG,-16.862778,-43.011111,132,2099.23664
D1,Botumirim/MG,-16.862778,-43.011111,1,15.90331
1,Botuporã/BA,-13.3744752,-42.5198469,174,1717.83987
D1,Botuporã/BA,-13.3744752,-42.5198469,3,29.61793
1,Botuverá/SC,-27.200749,-49.068892,746,14017.28673
D1,Botuverá/SC,-27.200749,-49.068892,7,131.52950
1,Bozano/RS,-28.3669953,-53.7705165,180,8526.76457
D1,Bozano/RS,-28.3669953,-53.7705165,5,236.85457
1,Braga/RS,-27.617348,-53.740514,114,3443.06856
D1,Braga/RS,-27.617348,-53.740514,3,90.60707
1,Braganey/PR,-24.8179919,-53.118506,275,5109.62467
D1,Braganey/PR,-24.8179919,-53.118506,4,74.32181
1,Bragança Paulista/SP,-22.9520235,-46.5418586,9544,5596.57075
D1,Bragança Paulista/SP,-22.9520235,-46.5418586,225,131.93927
1,Bragança/PA,-1.0573967,-46.7635406,3317,2573.03318
D1,Bragança/PA,-1.0573967,-46.7635406,108,83.77678
1,Branquinha/AL,-9.2478057,-36.0152009,356,3403.44168
D1,Branquinha/AL,-9.2478057,-36.0152009,9,86.04207
1,Brasil Novo/PA,-3.3055853,-52.539198,1097,7321.63118
D1,Brasil Novo/PA,-3.3055853,-52.539198,23,153.50731
1,Brasileira/PI,-4.131182,-41.7824969,366,4384.80891
D1,Brasileira/PI,-4.131182,-41.7824969,8,95.84282
1,Brasilândia de Minas/MG,-17.0096469,-46.0087183,701,4185.57440
D1,Brasilândia de Minas/MG,-17.0096469,-46.0087183,7,41.79604
1,Brasilândia do Sul/PR,-24.1975793,-53.527551,242,9361.70213
D1,Brasilândia do Sul/PR,-24.1975793,-53.527551,7,270.79304
1,Brasilândia do Tocantins/TO,-8.3886619,-48.4842729,104,4703.75396
D1,Brasilândia do Tocantins/TO,-8.3886619,-48.4842729,1,45.22840
1,Brasilândia/MS,-21.255575,-52.0365617,377,3180.62938
D1,Brasilândia/MS,-21.255575,-52.0365617,9,75.93014
1,Brasiléia/AC,-11.0010413,-68.7487894,2044,7654.85731
D1,Brasiléia/AC,-11.0010413,-68.7487894,29,108.60610
1,Brasnorte/MT,-12.1227151,-58.0050109,1210,6007.94439
D1,Brasnorte/MT,-12.1227151,-58.0050109,17,84.40914
1,Brasília de Minas/MG,-16.2075114,-44.430559,590,1820.70668
D1,Brasília de Minas/MG,-16.2075114,-44.430559,5,15.42972
1,Brasília/DF,-15.7934036,-47.8823172,335153,10970.10326
D1,Brasília/DF,-15.7934036,-47.8823172,5610,183.62443
1,Brazabrantes/GO,-16.4291635,-49.3858216,307,8195.40844
D1,Brazabrantes/GO,-16.4291635,-49.3858216,2,53.39028
1,Brazópolis/MG,-22.4742842,-45.6165577,542,3761.27689
D1,Brazópolis/MG,-22.4742842,-45.6165577,19,131.85288
1,Braço do Norte/SC,-28.2728633,-49.1622712,6320,18656.27583
D1,Braço do Norte/SC,-28.2728633,-49.1622712,54,159.40489
1,Braço do Trombudo/SC,-27.358578,-49.882145,463,12284.42558
D1,Braço do Trombudo/SC,-27.358578,-49.882145,3,79.59671
1,Braúna/SP,-21.5015319,-50.3175246,296,5155.89619
D1,Braúna/SP,-21.5015319,-50.3175246,9,156.76711
1,Braúnas/MG,-19.055556,-42.716111,125,2621.09457
D1,Braúnas/MG,-19.055556,-42.716111,3,62.90627
1,Brejetuba/ES,-20.1465817,-41.2902303,1270,10219.68295
D1,Brejetuba/ES,-20.1465817,-41.2902303,9,72.42295
1,Brejinho de Nazaré/TO,-11.0205883,-48.5722906,247,4475.44845
D1,Brejinho de Nazaré/TO,-11.0205883,-48.5722906,7,126.83457
1,Brejinho/PE,-7.3482153,-37.28538,359,4794.33761
D1,Brejinho/PE,-7.3482153,-37.28538,4,53.41880
1,Brejinho/RN,-6.1957907,-35.3583019,656,5130.21037
D1,Brejinho/RN,-6.1957907,-35.3583019,6,46.92266
1,Brejo Alegre/SP,-21.1671191,-50.1850393,228,7892.00415
D1,Brejo Alegre/SP,-21.1671191,-50.1850393,8,276.91243
1,Brejo Grande do Araguaia/PA,-5.7011449,-48.4037308,720,9771.98697
D1,Brejo Grande do Araguaia/PA,-5.7011449,-48.4037308,4,54.28882
1,Brejo Grande/SE,-10.4287358,-36.4667918,249,2980.96492
D1,Brejo Grande/SE,-10.4287358,-36.4667918,10,119.71747
1,Brejo Santo/CE,-7.4909841,-38.9859152,4784,9598.33073
D1,Brejo Santo/CE,-7.4909841,-38.9859152,60,120.38040
1,Brejo da Madre de Deus/PE,-8.1409718,-36.3712527,1473,2875.54905
D1,Brejo da Madre de Deus/PE,-8.1409718,-36.3712527,41,80.03904
1,Brejo de Areia/MA,-4.3316785,-45.5833334,280,3106.27912
D1,Brejo de Areia/MA,-4.3316785,-45.5833334,7,77.65698
1,Brejo do Cruz/PB,-6.32926065,-37.48746163303929,1216,8559.76348
D1,Brejo do Cruz/PB,-6.32926065,-37.48746163303929,17,119.66775
1,Brejo do Piauí/PI,-8.207583,-42.8359849,58,1507.27651
D1,Brejo do Piauí/PI,-8.207583,-42.8359849,3,77.96258
1,Brejo dos Santos/PB,-6.3769367,-37.8243125,298,4610.14851
D1,Brejo dos Santos/PB,-6.3769367,-37.8243125,4,61.88119
1,Brejo/MA,-3.6804397,-42.7529313,760,2073.61327
D1,Brejo/MA,-3.6804397,-42.7529313,18,49.11189
1,Brejolândia/BA,-12.4843845,-43.9611861,129,1214.91806
D1,Brejolândia/BA,-12.4843845,-43.9611861,7,65.92579
1,Brejão/PE,-9.029146,-36.566034,137,1524.42417
D1,Brejão/PE,-9.029146,-36.566034,4,44.50873
1,Brejões/BA,-13.1033754,-39.7909837,468,3290.67642
D1,Brejões/BA,-13.1033754,-39.7909837,7,49.21952
1,Breu Branco/PA,-3.7785073,-49.5684795,530,787.14430
D1,Breu Branco/PA,-3.7785073,-49.5684795,31,46.04052
1,Breves/PA,-1.68036,-50.479085,3635,3512.17910
D1,Breves/PA,-1.68036,-50.479085,102,98.55358
1,Britânia/GO,-15.2427599,-51.1602061,389,6710.36743
D1,Britânia/GO,-15.2427599,-51.1602061,2,34.50060
1,Brochier/RS,-29.556766,-51.5963047,305,5975.70533
D1,Brochier/RS,-29.556766,-51.5963047,1,19.59248
1,Brodowski/SP,-20.984532,-47.657217,1461,5779.95806
D1,Brodowski/SP,-20.984532,-47.657217,36,142.42196
1,Brotas de Macaúbas/BA,-12.0019007,-42.6257506,56,552.81343
D1,Brotas de Macaúbas/BA,-12.0019007,-42.6257506,1,9.87167
1,Brotas/SP,-22.2840884,-48.1267265,320,1298.91216
D1,Brotas/SP,-22.2840884,-48.1267265,14,56.82741
1,Brumadinho/MG,-20.143611,-44.2,2408,5921.40855
D1,Brumadinho/MG,-20.143611,-44.2,38,93.44415
1,Brumado/BA,-14.29507325,-41.659307508575985,6616,9825.49937
D1,Brumado/BA,-14.29507325,-41.659307508575985,98,145.54095
1,Brunópolis/SC,-27.310953,-50.837585,151,6376.68919
D1,Brunópolis/SC,-27.310953,-50.837585,3,126.68919
1,Brusque/SC,-27.0964628,-48.9136323,19855,14420.17881
D1,Brusque/SC,-27.0964628,-48.9136323,175,127.09803
1,Brás Pires/MG,-20.8483109,-43.2430524,111,2585.60447
D1,Brás Pires/MG,-20.8483109,-43.2430524,5,116.46867
1,Bueno Brandão/MG,-22.441976,-46.3517971,415,3775.81658
D1,Bueno Brandão/MG,-22.441976,-46.3517971,12,109.18024
1,Buenos Aires/PE,-7.7218931,-35.326587,173,1311.59970
D1,Buenos Aires/PE,-7.7218931,-35.326587,15,113.72252
1,Buenópolis/MG,-17.8756607,-44.1749365,207,1999.42046
D1,Buenópolis/MG,-17.8756607,-44.1749365,6,57.95422
1,Buerarema/BA,-14.9571177,-39.3008035,1127,6156.45144
D1,Buerarema/BA,-14.9571177,-39.3008035,35,191.19414
1,Bugre/MG,-19.4257687,-42.2556,322,8084.35852
D1,Bugre/MG,-19.4257687,-42.2556,9,225.96033
1,Bujari/AC,-9.8309656,-67.9520886,914,8771.59309
D1,Bujari/AC,-9.8309656,-67.9520886,11,105.56622
1,Bujaru/PA,-1.5169239,-48.0410699,1040,3534.16930
D1,Bujaru/PA,-1.5169239,-48.0410699,27,91.75247
1,Buri/SP,-23.79849,-48.598924,1414,7082.39419
D1,Buri/SP,-23.79849,-48.598924,23,115.20160
1,Buritama/SP,-21.0664017,-50.1448077,1430,8274.98409
D1,Buritama/SP,-21.0664017,-50.1448077,38,219.89468
1,Buriti Alegre/GO,-18.1377879,-49.0404411,657,6927.45677
D1,Buriti Alegre/GO,-18.1377879,-49.0404411,21,221.42556
1,Buriti Bravo/MA,-5.8391884,-43.8367876,1088,4544.88492
D1,Buriti Bravo/MA,-5.8391884,-43.8367876,10,41.77284
1,Buriti de Goiás/GO,-16.180644,-50.4287479,139,5613.89338
D1,Buriti de Goiás/GO,-16.180644,-50.4287479,1,40.38772
1,Buriti do Tocantins/TO,-5.3187439,-48.2256609,471,4096.72088
D1,Buriti do Tocantins/TO,-5.3187439,-48.2256609,2,17.39584
1,Buriti dos Lopes/PI,-3.1776723,-41.8707444,993,5013.37911
D1,Buriti dos Lopes/PI,-3.1776723,-41.8707444,16,80.77952
1,Buriti dos Montes/PI,-5.3136171,-41.0971256,433,5239.59342
D1,Buriti dos Montes/PI,-5.3136171,-41.0971256,3,36.30203
1,Buriti/MA,-3.9430944,-42.9244281,741,2573.09535
D1,Buriti/MA,-3.9430944,-42.9244281,6,20.83478
1,Buriticupu/MA,-4.3227472,-46.4516989,2730,3740.59713
D1,Buriticupu/MA,-4.3227472,-46.4516989,33,45.21601
1,Buritinópolis/GO,-14.4589282,-46.4293104,116,3533.35364
1,Buritirama/BA,-10.7148421,-43.6362327,635,2984.58357
D1,Buritirama/BA,-10.7148421,-43.6362327,15,70.50197
1,Buritirana/MA,-5.5897455,-47.0148915,278,1797.37506
D1,Buritirana/MA,-5.5897455,-47.0148915,20,129.30756
1,Buritis/MG,-15.621389,-46.423889,892,3566.14560
D1,Buritis/MG,-15.621389,-46.423889,12,47.97505
1,Buritis/RO,-10.2054937,-63.8281954,3841,9517.79165
D1,Buritis/RO,-10.2054937,-63.8281954,45,111.50758
1,Buritizal/SP,-20.1933264,-47.7097165,130,2879.92911
D1,Buritizal/SP,-20.1933264,-47.7097165,5,110.76650
1,Buritizeiro/MG,-17.3667765,-44.9647781,691,2457.23836
D1,Buritizeiro/MG,-17.3667765,-44.9647781,15,53.34092
1,Butiá/RS,-30.1256795,-51.9692224,883,4214.39481
D1,Butiá/RS,-30.1256795,-51.9692224,33,157.50286
1,Buíque/PE,-8.6239732,-37.157296,1549,2629.03308
D1,Buíque/PE,-8.6239732,-37.157296,25,42.43113
1,Bálsamo/SP,-20.7343722,-49.5807484,1010,11051.53737
D1,Bálsamo/SP,-20.7343722,-49.5807484,33,361.08983
0,CASO SEM LOCALIZAÇÃO DEFINIDA/AL,-9.931093434363673,-35.609611600637464,2,0.05993
D0,CASO SEM LOCALIZAÇÃO DEFINIDA/AL,-9.931093434363673,-35.609611600637464,2,0.05993
0,CASO SEM LOCALIZAÇÃO DEFINIDA/BA,-13.415069300066518,-38.14174656569957,9664,64.97652
D0,CASO SEM LOCALIZAÇÃO DEFINIDA/BA,-13.415069300066518,-38.14174656569957,117,0.78666
0,CASO SEM LOCALIZAÇÃO DEFINIDA/CE,-3.3445126297392798,-38.624961942434304,7724,84.58097
0,CASO SEM LOCALIZAÇÃO DEFINIDA/ES,-20.30989267097039,-39.81745156645774,3047,75.82148
D0,CASO SEM LOCALIZAÇÃO DEFINIDA/ES,-20.30989267097039,-39.81745156645774,137,3.40911
0,CASO SEM LOCALIZAÇÃO DEFINIDA/GO,-16.701590966270153,-49.164524059025034,3205,45.66598
D0,CASO SEM LOCALIZAÇÃO DEFINIDA/GO,-16.701590966270153,-49.164524059025034,105,1.49608
0,CASO SEM LOCALIZAÇÃO DEFINIDA/MG,-19.97049116501593,-43.8852149072783,4266,20.15231
D0,CASO SEM LOCALIZAÇÃO DEFINIDA/MG,-19.97049116501593,-43.8852149072783,188,0.88810
0,CASO SEM LOCALIZAÇÃO DEFINIDA/MT,-15.54791153961863,-56.17143998972475,1907,54.72862
D0,CASO SEM LOCALIZAÇÃO DEFINIDA/MT,-15.54791153961863,-56.17143998972475,129,3.70215
0,CASO SEM LOCALIZAÇÃO DEFINIDA/PA,-0.09317078214359542,-48.0050231510481,2858,33.22149
D0,CASO SEM LOCALIZAÇÃO DEFINIDA/PA,-0.09317078214359542,-48.0050231510481,100,1.16240
0,CASO SEM LOCALIZAÇÃO DEFINIDA/PR,-25.69415946385943,-48.10141676336737,5338,46.68550
D0,CASO SEM LOCALIZAÇÃO DEFINIDA/PR,-25.69415946385943,-48.10141676336737,116,1.01452
0,CASO SEM LOCALIZAÇÃO DEFINIDA/RN,-5.749310788669161,-34.95302586257457,378,10.77889
0,CASO SEM LOCALIZAÇÃO DEFINIDA/RR,2.813328208465927,-60.663338675861986,2478,409.07222
D0,CASO SEM LOCALIZAÇÃO DEFINIDA/RR,2.813328208465927,-60.663338675861986,12,1.98098
0,CASO SEM LOCALIZAÇÃO DEFINIDA/SP,-24.30968974555485,-46.21366504207253,404,0.87981
1,Caapiranga/AM,-3.3188884,-61.2096404,540,4065.34668
D1,Caapiranga/AM,-3.3188884,-61.2096404,20,150.56840
1,Caaporã/PB,-7.510234,-34.9154114,1355,6171.71487
D1,Caaporã/PB,-7.510234,-34.9154114,22,100.20496
1,Caarapó/MS,-22.6349267,-54.8240903,2312,7557.28435
D1,Caarapó/MS,-22.6349267,-54.8240903,19,62.10571
1,Caatiba/BA,-14.9782759,-40.4092325,581,8954.99383
D1,Caatiba/BA,-14.9782759,-40.4092325,7,107.89149
1,Cabaceiras do Paraguaçu/BA,-12.5377868,-39.1901339,359,1898.36603
D1,Cabaceiras do Paraguaçu/BA,-12.5377868,-39.1901339,3,15.86378
1,Cabaceiras/PB,-7.4899156,-36.2860501,284,5016.78149
D1,Cabaceiras/PB,-7.4899156,-36.2860501,1,17.66472
1,Cabeceira Grande/MG,-16.0297,-47.0906,195,2790.49800
D1,Cabeceira Grande/MG,-16.0297,-47.0906,3,42.93074
1,Cabeceiras do Piauí/PI,-4.4733665,-42.3098716,363,3414.86359
D1,Cabeceiras do Piauí/PI,-4.4733665,-42.3098716,8,75.25870
1,Cabeceiras/GO,-15.7995459,-46.9264991,217,2696.99229
D1,Cabeceiras/GO,-15.7995459,-46.9264991,8,99.42829
1,Cabedelo/PB,-6.97324,-34.8351609,6254,9094.47846
D1,Cabedelo/PB,-6.97324,-34.8351609,129,187.58998
1,Cabixi/RO,-13.4956065,-60.5424442,523,10080.95605
D1,Cabixi/RO,-13.4956065,-60.5424442,13,250.57826
1,Cabo Frio/RJ,-22.8804369,-42.0189227,8353,3625.78024
D1,Cabo Frio/RJ,-22.8804369,-42.0189227,373,161.90782
1,Cabo Verde/MG,-21.4743338,-46.3964995,284,2017.76199
D1,Cabo Verde/MG,-21.4743338,-46.3964995,5,35.52398
1,Cabo de Santo Agostinho/PE,-8.2838945,-35.0320984,3543,1695.66965
D1,Cabo de Santo Agostinho/PE,-8.2838945,-35.0320984,334,159.85144
1,Cabreúva/SP,-23.3075813,-47.1324417,2649,5252.92986
D1,Cabreúva/SP,-23.3075813,-47.1324417,55,109.06423
1,Cabrobó/PE,-8.5083701,-39.3106961,1235,3579.39889
D1,Cabrobó/PE,-8.5083701,-39.3106961,12,34.77958
1,Cabrália Paulista/SP,-22.4562909,-49.3385645,178,4195.14494
D1,Cabrália Paulista/SP,-22.4562909,-49.3385645,2,47.13646
1,Cacaulândia/RO,-10.3380043,-62.9007231,569,9076.40772
D1,Cacaulândia/RO,-10.3380043,-62.9007231,8,127.61206
1,Cacequi/RS,-29.8838059,-54.8273443,137,1102.79321
D1,Cacequi/RS,-29.8838059,-54.8273443,4,32.19834
1,Cachoeira Alta/GO,-18.7618269,-50.9432431,985,7776.72509
D1,Cachoeira Alta/GO,-18.7618269,-50.9432431,13,102.63698
1,Cachoeira Dourada/GO,-18.4934204,-49.481062,302,3760.42834
D1,Cachoeira Dourada/GO,-18.4934204,-49.481062,7,87.16225
1,Cachoeira Dourada/MG,-18.517136,-49.5002062,120,4434.58980
1,Cachoeira Grande/MA,-2.9290492,-44.0573223,202,2131.25132
D1,Cachoeira Grande/MA,-2.9290492,-44.0573223,5,52.75375
1,Cachoeira Paulista/SP,-22.666498,-45.015384,1308,3895.05971
D1,Cachoeira Paulista/SP,-22.666498,-45.015384,27,80.40261
1,Cachoeira da Prata/MG,-19.524723,-44.453056,190,5291.00529
D1,Cachoeira da Prata/MG,-19.524723,-44.453056,3,83.54219
1,Cachoeira de Goiás/GO,-16.6688414,-50.6435997,37,2757.07899
1,Cachoeira de Minas/MG,-22.3554043,-45.7796324,437,3774.07375
D1,Cachoeira de Minas/MG,-22.3554043,-45.7796324,5,43.18162
1,Cachoeira de Pajeú/MG,-15.965833,-41.496666,293,3103.15611
D1,Cachoeira de Pajeú/MG,-15.965833,-41.496666,5,52.95488
1,Cachoeira do Arari/PA,-1.0143572,-48.9621089,350,1454.45479
D1,Cachoeira do Arari/PA,-1.0143572,-48.9621089,15,62.33378
1,Cachoeira do Piriá/PA,-1.7599443,-46.5446954,653,1886.79245
D1,Cachoeira do Piriá/PA,-1.7599443,-46.5446954,3,8.66827
1,Cachoeira do Sul/RS,-30.0474778,-52.8905413,4613,5634.61139
D1,Cachoeira do Sul/RS,-30.0474778,-52.8905413,70,85.50245
1,Cachoeira dos Índios/PB,-6.9259193,-38.6742159,486,4716.15721
D1,Cachoeira dos Índios/PB,-6.9259193,-38.6742159,13,126.15235
1,Cachoeira/BA,-12.5998256,-38.9665918,1057,3148.92603
D1,Cachoeira/BA,-12.5998256,-38.9665918,17,50.64498
1,Cachoeiras de Macacu/RJ,-22.4626861,-42.6534414,2057,3468.62722
D1,Cachoeiras de Macacu/RJ,-22.4626861,-42.6534414,64,107.92034
1,Cachoeirinha/PE,-8.4906364,-36.2338963,349,1702.35598
D1,Cachoeirinha/PE,-8.4906364,-36.2338963,22,107.31184
1,Cachoeirinha/RS,-29.9493353,-51.0898927,9280,7071.01493
D1,Cachoeirinha/RS,-29.9493353,-51.0898927,262,199.63426
1,Cachoeirinha/TO,-6.118647,-47.9208885,116,5078.80911
D1,Cachoeirinha/TO,-6.118647,-47.9208885,2,87.56567
1,Cachoeiro de Itapemirim/ES,-20.848084,-41.11129,19581,9298.20646
D1,Cachoeiro de Itapemirim/ES,-20.848084,-41.11129,375,178.07198
1,Cacimba de Areia/PB,-7.1288513,-37.1575194,26,703.65359
D1,Cacimba de Areia/PB,-7.1288513,-37.1575194,1,27.06360
1,Cacimba de Dentro/PB,-6.6425101,-35.7929304,796,4633.83397
D1,Cacimba de Dentro/PB,-6.6425101,-35.7929304,19,110.60659
1,Cacimbas/PB,-7.2125451,-37.0593398,182,2528.12891
D1,Cacimbas/PB,-7.2125451,-37.0593398,6,83.34491
1,Cacimbinhas/AL,-9.401212,-36.991082,425,3903.02140
D1,Cacimbinhas/AL,-9.401212,-36.991082,6,55.10148
1,Cacique Doble/RS,-27.7700117,-51.6616409,245,4828.53764
D1,Cacique Doble/RS,-27.7700117,-51.6616409,4,78.83327
1,Cacoal/RO,-11.4333,-61.4420502,9188,10697.03003
D1,Cacoal/RO,-11.4333,-61.4420502,136,158.33653
1,Caconde/SP,-21.527995,-46.643659,771,4055.97349
D1,Caconde/SP,-21.527995,-46.643659,7,36.82466
1,Caculé/BA,-14.4990734,-42.2233006,941,4040.18720
D1,Caculé/BA,-14.4990734,-42.2233006,9,38.64154
1,Caetanos/BA,-14.3387456,-40.9085971,459,3142.11391
D1,Caetanos/BA,-14.3387456,-40.9085971,5,34.22782
1,Caetanópolis/MG,-19.2947496,-44.4138386,636,5413.22666
D1,Caetanópolis/MG,-19.2947496,-44.4138386,4,34.04545
1,Caetité/BA,-14.0691776,-42.4852428,1517,2969.79307
D1,Caetité/BA,-14.0691776,-42.4852428,13,25.44978
1,Caeté/MG,-19.897777,-43.670278,1132,2512.93094
D1,Caeté/MG,-19.897777,-43.670278,32,71.03692
1,Caetés/PE,-8.7728788,-36.6255835,967,3345.55771
D1,Caetés/PE,-8.7728788,-36.6255835,11,38.05702
1,Cafarnaum/BA,-11.691399,-41.468823,710,3835.14287
D1,Cafarnaum/BA,-11.691399,-41.468823,12,64.81932
1,Cafeara/PR,-22.78905,-51.714195,198,6702.77590
D1,Cafeara/PR,-22.78905,-51.714195,3,101.55721
1,Cafelândia/PR,-24.6176963,-53.3218057,1238,6707.84569
D1,Cafelândia/PR,-24.6176963,-53.3218057,8,43.34634
1,Cafelândia/SP,-21.8054355,-49.6030627,605,3390.68542
D1,Cafelândia/SP,-21.8054355,-49.6030627,25,140.11097
1,Cafezal do Sul/PR,-23.900508,-53.512418,165,4115.73959
D1,Cafezal do Sul/PR,-23.900508,-53.512418,1,24.94388
1,Caiabu/SP,-22.0143038,-51.2356597,61,1454.80563
D1,Caiabu/SP,-22.0143038,-51.2356597,4,95.39709
1,Caiana/MG,-20.695555,-41.924723,106,1913.01209
D1,Caiana/MG,-20.695555,-41.924723,2,36.09457
1,Caiapônia/GO,-16.9538779,-51.8090761,758,3967.13246
D1,Caiapônia/GO,-16.9538779,-51.8090761,18,94.20631
1,Caibaté/RS,-28.290475,-54.645407,107,2218.53618
D1,Caibaté/RS,-28.290475,-54.645407,6,124.40390
1,Caibi/SC,-27.0751925,-53.2502133,461,7520.39152
D1,Caibi/SC,-27.0751925,-53.2502133,7,114.19250
1,Caicó/RN,-6.4594544,-37.0971911,8160,11939.77437
D1,Caicó/RN,-6.4594544,-37.0971911,97,141.93114
1,Caieiras/SP,-23.3644621,-46.7484765,5204,5063.48820
D1,Caieiras/SP,-23.3644621,-46.7484765,152,147.89589
1,Cairu/BA,-13.4860505,-39.0455744,972,5274.86840
D1,Cairu/BA,-13.4860505,-39.0455744,9,48.84137
1,Caiuá/SP,-21.8319357,-51.9887179,186,3128.15338
D1,Caiuá/SP,-21.8319357,-51.9887179,3,50.45409
1,Caiçara do Norte/RN,-5.0645017,-36.0561226,223,3398.87212
D1,Caiçara do Norte/RN,-5.0645017,-36.0561226,4,60.96632
1,Caiçara do Rio do Vento/RN,-5.757968,-36.00089,167,4495.28937
D1,Caiçara do Rio do Vento/RN,-5.757968,-36.00089,5,134.58950
1,Caiçara/PB,-6.6146866,-35.4681434,541,7523.29301
D1,Caiçara/PB,-6.6146866,-35.4681434,11,152.96899
1,Caiçara/RS,-27.2750478,-53.4310053,369,7851.06383
D1,Caiçara/RS,-27.2750478,-53.4310053,6,127.65957
1,Cajamar/SP,-23.3561111,-46.8769444,2653,3404.16250
D1,Cajamar/SP,-23.3561111,-46.8769444,105,134.72939
1,Cajapió/MA,-2.8778715,-44.6746871,65,579.52924
D1,Cajapió/MA,-2.8778715,-44.6746871,3,26.74750
1,Cajari/MA,-3.3213076,-45.0118757,132,678.62835
D1,Cajari/MA,-3.3213076,-45.0118757,4,20.56450
1,Cajati/SP,-24.7272376,-48.1077914,2687,9430.05545
D1,Cajati/SP,-24.7272376,-48.1077914,58,203.55162
1,Cajazeiras do Piauí/PI,-6.794271,-42.3935024,28,783.65519
D1,Cajazeiras do Piauí/PI,-6.794271,-42.3935024,1,27.98769
1,Cajazeiras/PB,-6.8897849,-38.5570389,5640,9054.56822
D1,Cajazeiras/PB,-6.8897849,-38.5570389,99,158.93657
1,Cajazeirinhas/PB,-6.961442,-37.7993733,105,3276.13105
1,Cajobi/SP,-20.8776238,-48.8106972,554,5228.38807
D1,Cajobi/SP,-20.8776238,-48.8106972,18,169.87542
1,Cajueiro da Praia/PI,-2.931114,-41.340801,460,5994.26635
D1,Cajueiro da Praia/PI,-2.931114,-41.340801,12,156.37217
1,Cajueiro/AL,-9.399589,-36.1524309,456,2137.73381
D1,Cajueiro/AL,-9.399589,-36.1524309,18,84.38423
1,Cajuri/MG,-20.7901414,-42.7954489,198,4982.38551
D1,Cajuri/MG,-20.7901414,-42.7954489,1,25.16356
1,Cajuru/SP,-21.2759978,-47.3046035,559,2117.98583
D1,Cajuru/SP,-21.2759978,-47.3046035,18,68.19990
1,Caldas Brandão/PB,-7.1027959,-35.3254676,412,6814.42276
D1,Caldas Brandão/PB,-7.1027959,-35.3254676,6,99.23917
1,Caldas Novas/GO,-17.745,-48.625,6135,6582.90055
D1,Caldas Novas/GO,-17.745,-48.625,125,134.12593
1,Caldas/MG,-21.923611,-46.386111,477,3280.37962
D1,Caldas/MG,-21.923611,-46.386111,13,89.40238
1,Caldazinha/GO,-16.7116649,-49.0012601,183,4755.71726
D1,Caldazinha/GO,-16.7116649,-49.0012601,2,51.97505
1,Caldeirão Grande do Piauí/PI,-7.3310393,-40.6374433,234,4047.74261
D1,Caldeirão Grande do Piauí/PI,-7.3310393,-40.6374433,2,34.59609
1,Caldeirão Grande/BA,-11.0208483,-40.3041387,532,3972.81756
D1,Caldeirão Grande/BA,-11.0208483,-40.3041387,6,44.80621
1,Califórnia/PR,-23.6672543,-51.3554556,630,7320.47409
D1,Califórnia/PR,-23.6672543,-51.3554556,9,104.57820
1,Calmon/SC,-26.6023644,-51.0992893,19,569.71514
D1,Calmon/SC,-26.6023644,-51.0992893,2,59.97001
1,Calumbi/PE,-7.9389746,-38.1516871,373,6490.34279
D1,Calumbi/PE,-7.9389746,-38.1516871,2,34.80077
1,Calçado/PE,-8.7413446,-36.3351787,284,2577.60029
D1,Calçado/PE,-8.7413446,-36.3351787,2,18.15211
1,Calçoene/AP,2.4981757,-50.9539503,1563,13824.51796
D1,Calçoene/AP,2.4981757,-50.9539503,9,79.60375
1,Camacan/BA,-15.4166631,-39.4930088,2137,6676.87309
D1,Camacan/BA,-15.4166631,-39.4930088,49,153.09629
1,Camacho/MG,-20.625556,-45.156667,49,1707.91216
D1,Camacho/MG,-20.625556,-45.156667,1,34.85535
1,Camalaú/PB,-7.885031,-36.824191,285,4725.58448
D1,Camalaú/PB,-7.885031,-36.824191,5,82.90499
1,Camamu/BA,-13.9438142,-39.1060917,1796,5076.02736
D1,Camamu/BA,-13.9438142,-39.1060917,35,98.92035
1,Camanducaia/MG,-22.755278,-46.144444,2130,9770.19403
D1,Camanducaia/MG,-22.755278,-46.144444,31,142.19531
1,Camapuã/MS,-19.5291747,-54.0434641,454,3315.56270
D1,Camapuã/MS,-19.5291747,-54.0434641,12,87.63602
1,Camaquã/RS,-30.8524752,-51.8075619,3999,6015.52393
D1,Camaquã/RS,-30.8524752,-51.8075619,76,114.32354
1,Camaragibe/PE,-8.0213832,-34.9810768,3765,2369.42964
D1,Camaragibe/PE,-8.0213832,-34.9810768,256,161.10863
1,Camargo/RS,-28.5865661,-52.2031474,262,9555.06929
D1,Camargo/RS,-28.5865661,-52.2031474,4,145.87892
1,Camaçari/BA,-12.6998188,-38.3260762,17818,5855.36737
D1,Camaçari/BA,-12.6998188,-38.3260762,395,129.80526
1,Cambará do Sul/RS,-29.0489517,-50.145412,276,4308.46082
D1,Cambará do Sul/RS,-29.0489517,-50.145412,4,62.44146
1,Cambará/PR,-23.042273,-50.075281,1410,5536.79416
D1,Cambará/PR,-23.042273,-50.075281,13,51.04846
1,Cambira/PR,-23.600265,-51.581045,476,6012.37843
D1,Cambira/PR,-23.600265,-51.581045,12,151.57257
1,Camboriú/SC,-27.0273601,-48.6535657,10190,11973.44457
D1,Camboriú/SC,-27.0273601,-48.6535657,115,135.12720
1,Cambuci/RJ,-21.5749919,-41.9107833,558,3596.75132
D1,Cambuci/RJ,-21.5749919,-41.9107833,11,70.90370
1,Cambuquira/MG,-21.853056,-45.2953619,263,2052.76303
D1,Cambuquira/MG,-21.853056,-45.2953619,8,62.44146
1,Cambuí/MG,-22.6122501,-46.0572137,1738,5829.47609
D1,Cambuí/MG,-22.6122501,-46.0572137,27,90.56148
1,Cambé/PR,-23.2782035,-51.2779583,7938,7395.12395
D1,Cambé/PR,-23.2782035,-51.2779583,124,115.51970
1,Cametá/PA,-2.242949,-49.497885,6335,4545.65024
D1,Cametá/PA,-2.242949,-49.497885,146,104.76163
1,Camocim de São Félix/PE,-8.3616757,-35.7638903,368,1947.08995
D1,Camocim de São Félix/PE,-8.3616757,-35.7638903,11,58.20106
1,Camocim/CE,-2.9009918,-40.8427389,3439,5381.25714
D1,Camocim/CE,-2.9009918,-40.8427389,100,156.47738
1,Campanha/MG,-21.8361108,-45.401986,888,5297.69717
D1,Campanha/MG,-21.8361108,-45.401986,19,113.35163
1,Campanário/MG,-18.2398144,-41.7271768,128,3431.63539
D1,Campanário/MG,-18.2398144,-41.7271768,1,26.80965
1,Campestre da Serra/RS,-28.7966535,-51.0958149,126,3711.34021
1,Campestre de Goiás/GO,-16.7624179,-49.69497,338,9262.81173
D1,Campestre de Goiás/GO,-16.7624179,-49.69497,7,191.83338
1,Campestre do Maranhão/MA,-6.1729113,-47.3640512,764,5286.09977
D1,Campestre do Maranhão/MA,-6.1729113,-47.3640512,29,200.65038
1,Campestre/AL,-8.8481634,-35.5660033,200,2876.04257
D1,Campestre/AL,-8.8481634,-35.5660033,6,86.28128
1,Campestre/MG,-19.6142116,-43.219378,668,3172.79377
D1,Campestre/MG,-19.6142116,-43.219378,9,42.74722
1,Campina Grande do Sul/PR,-25.3046032,-49.0545355,3819,8742.13117
D1,Campina Grande do Sul/PR,-25.3046032,-49.0545355,60,137.34692
1,Campina Grande/PB,-7.2246743,-35.8771292,22941,5570.81351
D1,Campina Grande/PB,-7.2246743,-35.8771292,642,155.89827
1,Campina Verde/MG,-19.535277,-49.486389,507,2566.82868
D1,Campina Verde/MG,-19.535277,-49.486389,18,91.13001
1,Campina da Lagoa/PR,-24.5937926,-52.8038965,624,4443.49498
D1,Campina da Lagoa/PR,-24.5937926,-52.8038965,13,92.57281
1,Campina das Missões/RS,-27.9883295,-54.8411665,331,6131.90070
D1,Campina das Missões/RS,-27.9883295,-54.8411665,7,129.67766
1,Campina do Monte Alegre/SP,-23.5935653,-48.4801876,274,4523.69160
D1,Campina do Monte Alegre/SP,-23.5935653,-48.4801876,1,16.50982
1,Campina do Simão/PR,-25.1086375,-51.8076658,155,4016.58461
D1,Campina do Simão/PR,-25.1086375,-51.8076658,6,155.48069
1,Campinas do Piauí/PI,-7.6593687,-41.8814875,129,2295.37367
D1,Campinas do Piauí/PI,-7.6593687,-41.8814875,1,17.79359
1,Campinas do Sul/RS,-27.7167968,-52.6257885,354,6509.74623
D1,Campinas do Sul/RS,-27.7167968,-52.6257885,5,91.94557
1,Campinas/SP,-22.90556,-47.06083,65659,5409.41117
D1,Campinas/SP,-22.90556,-47.06083,2226,183.39221
1,Campinaçu/GO,-13.7869969,-48.5703841,163,4487.88546
1,Campinorte/GO,-14.3136699,-49.1510931,905,7090.25384
D1,Campinorte/GO,-14.3136699,-49.1510931,16,125.35255
1,Campinápolis/MT,-14.5403731,-52.7970626,701,4143.27088
D1,Campinápolis/MT,-14.5403731,-52.7970626,20,118.21030
1,Campo Alegre de Goiás/GO,-17.6337896,-47.779291,156,2016.02481
D1,Campo Alegre de Goiás/GO,-17.6337896,-47.779291,7,90.46265
1,Campo Alegre de Lourdes/BA,-9.5160326,-43.0101338,373,1294.24011
D1,Campo Alegre de Lourdes/BA,-9.5160326,-43.0101338,12,41.63775
1,Campo Alegre do Fidalgo/PI,-8.3753852,-41.8364191,62,1223.12093
D1,Campo Alegre do Fidalgo/PI,-8.3753852,-41.8364191,1,19.72776
