type,name,lat,lon,total,total_per_100k_inhabitants
1,Abadia de Goiás/GO,-16.7572644,-49.4412205,383,4365.66739
D1,Abadia de Goiás/GO,-16.7572644,-49.4412205,3,34.19583
1,Abadia dos Dourados/MG,-18.4911191,-47.4063589,50,715.40993
D1,Abadia dos Dourados/MG,-18.4911191,-47.4063589,1,14.30820
1,Abadiânia/GO,-16.1940946,-48.7067767,98,488.97316
D1,Abadiânia/GO,-16.1940946,-48.7067767,8,39.91618
1,Abaetetuba/PA,-1.721828,-48.878843,2999,1901.73623
D1,Abaetetuba/PA,-1.721828,-48.878843,114,72.29007
1,Abaeté/MG,-19.1566833,-45.4481213,40,172.13926
D1,Abaeté/MG,-19.1566833,-45.4481213,2,8.60696
1,Abaiara/CE,-7.3607808,-39.0487878,66,562.32427
D1,Abaiara/CE,-7.3607808,-39.0487878,2,17.04013
1,Abaré/BA,-8.7239913,-39.1139689,48,238.97242
1,Abatiá/PR,-23.3052967,-50.3102532,58,777.79268
1,Abaíra/BA,-13.2503296,-41.6640342,17,194.53027
D1,Abaíra/BA,-13.2503296,-41.6640342,1,11.44296
1,Abdon Batista/SC,-27.612419,-51.022992,89,3472.49317
1,Abel Figueiredo/PA,-4.953001,-48.3958485,321,4317.99839
D1,Abel Figueiredo/PA,-4.953001,-48.3958485,1,13.45171
1,Abelardo Luz/SC,-26.5705893,-52.3280339,174,971.84987
D1,Abelardo Luz/SC,-26.5705893,-52.3280339,3,16.75603
1,Abre Campo/MG,-20.2976097,-42.4764741,44,327.04029
1,Abreu e Lima/PE,-7.900719,-34.898389,759,759.07591
D1,Abreu e Lima/PE,-7.900719,-34.898389,92,92.00920
1,Abreulândia/TO,-9.6221526,-49.1558343,40,1550.98876
D1,Abreulândia/TO,-9.6221526,-49.1558343,3,116.32416
1,Acaiaca/MG,-20.3621646,-43.1444162,20,500.75113
D1,Acaiaca/MG,-20.3621646,-43.1444162,1,25.03756
1,Acajutiba/BA,-11.6609659,-38.0186381,92,606.90019
D1,Acajutiba/BA,-11.6609659,-38.0186381,3,19.79022
1,Acarape/CE,-4.2237866,-38.7071663,1421,9518.38703
D1,Acarape/CE,-4.2237866,-38.7071663,14,93.77721
1,Acaraú/CE,-2.8869514,-40.1194713,2621,4184.16053
D1,Acaraú/CE,-2.8869514,-40.1194713,56,89.39832
1,Acari/RN,-6.4364689,-36.6394777,65,583.69253
D1,Acari/RN,-6.4364689,-36.6394777,4,35.91954
1,Acará/PA,-1.961388,-48.1987043,733,1318.55876
D1,Acará/PA,-1.961388,-48.1987043,13,23.38508
1,Acauã/PI,-8.219542,-41.083059,33,465.83851
1,Acopiara/CE,-6.0936464,-39.4543204,623,1147.96388
D1,Acopiara/CE,-6.0936464,-39.4543204,30,55.27916
1,Acorizal/MT,-15.2001544,-56.3668953,115,2130.02408
D1,Acorizal/MT,-15.2001544,-56.3668953,3,55.56585
1,Acrelândia/AC,-10.0759167,-67.0526898,422,2766.12480
D1,Acrelândia/AC,-10.0759167,-67.0526898,8,52.43838
1,Acreúna/GO,-17.3959899,-50.3749031,327,1462.04060
D1,Acreúna/GO,-17.3959899,-50.3749031,9,40.23965
1,Adamantina/SP,-21.6866517,-51.0762975,250,712.90065
D1,Adamantina/SP,-21.6866517,-51.0762975,7,19.96122
1,Adelândia/GO,-16.4155077,-50.1665834,57,2265.50079
1,Adolfo/SP,-21.2356597,-49.6441918,84,2358.22572
D1,Adolfo/SP,-21.2356597,-49.6441918,3,84.22235
1,Adrianópolis/PR,-24.6557863,-48.9912769,165,2787.63305
D1,Adrianópolis/PR,-24.6557863,-48.9912769,2,33.78949
1,Adustina/BA,-10.5358875,-38.114479,79,463.61502
D1,Adustina/BA,-10.5358875,-38.114479,1,5.86854
1,Afogados da Ingazeira/PE,-7.750429,-37.6356375,428,1148.71575
D1,Afogados da Ingazeira/PE,-7.750429,-37.6356375,8,21.47132
1,Afonso Bezerra/RN,-5.4745,-36.57625071327935,120,1087.44903
D1,Afonso Bezerra/RN,-5.4745,-36.57625071327935,7,63.43453
1,Afonso Cláudio/ES,-20.077841,-41.12606,663,2167.65841
D1,Afonso Cláudio/ES,-20.077841,-41.12606,16,52.31152
1,Afonso Cunha/MA,-4.1326105,-43.3230026,137,2099.93869
D1,Afonso Cunha/MA,-4.1326105,-43.3230026,2,30.65604
1,Afrânio/PE,-8.5198919,-41.0070197,147,748.66310
D1,Afrânio/PE,-8.5198919,-41.0070197,2,10.18589
1,Afuá/PA,-0.1535664,-50.3879223,2034,5186.39400
D1,Afuá/PA,-0.1535664,-50.3879223,11,28.04835
1,Agrestina/PE,-8.4558021,-35.9442663,537,2157.92646
D1,Agrestina/PE,-8.4558021,-35.9442663,30,120.55455
1,Agricolândia/PI,-5.7967843,-42.6605131,45,875.65674
1,Agrolândia/SC,-27.4122212,-49.8295774,123,1132.17968
D1,Agrolândia/SC,-27.4122212,-49.8295774,3,27.61414
1,Agronômica/SC,-27.2660744,-49.7104753,76,1395.00734
D1,Agronômica/SC,-27.2660744,-49.7104753,3,55.06608
1,Aguanil/MG,-20.9424533,-45.3927152,24,534.99777
D1,Aguanil/MG,-20.9424533,-45.3927152,3,66.87472
1,Aguaí/SP,-22.0592036,-46.979384,240,661.06597
D1,Aguaí/SP,-22.0592036,-46.979384,5,13.77221
1,Agudo/RS,-29.6423259,-53.2494005,9,54.67469
1,Agudos do Sul/PR,-25.9890808,-49.3328175,68,725.64294
1,Agudos/SP,-22.471162,-48.987822,464,1246.84259
D1,Agudos/SP,-22.471162,-48.987822,7,18.81013
1,Aguiar/PB,-7.0928404,-38.1727215,24,425.53191
1,Aguiarnópolis/TO,-6.5600452,-47.4721189,376,5584.43487
D1,Aguiarnópolis/TO,-6.5600452,-47.4721189,7,103.96554
1,Aimorés/MG,-19.4917754,-41.0615603,269,1068.86002
D1,Aimorés/MG,-19.4917754,-41.0615603,5,19.86729
1,Aiquara/BA,-14.126918,-39.8887574,146,3283.85065
D1,Aiquara/BA,-14.126918,-39.8887574,3,67.47638
1,Aiuaba/CE,-6.5710836,-40.1212278,21,120.69659
D1,Aiuaba/CE,-6.5710836,-40.1212278,1,5.74746
1,Aiuruoca/MG,-21.9759554,-44.6036637,3,49.97501
1,Ajuricaba/RS,-28.239654,-53.7693013,10,142.36902
1,Alagoa Grande/PB,-7.0415212,-35.6285322,939,3295.19933
D1,Alagoa Grande/PB,-7.0415212,-35.6285322,24,84.22235
1,Alagoa Nova/PB,-7.0653703,-35.76695977336711,284,1362.17564
D1,Alagoa Nova/PB,-7.0653703,-35.76695977336711,9,43.16754
1,Alagoa/MG,-22.1697202,-44.6400042,4,149.58863
1,Alagoinha do Piauí/PI,-7.0090952,-40.939675,92,1202.45720
D1,Alagoinha do Piauí/PI,-7.0090952,-40.939675,1,13.07019
1,Alagoinha/PB,-6.97063215,-35.51490901897793,945,6522.18925
D1,Alagoinha/PB,-6.97063215,-35.51490901897793,9,62.11609
1,Alagoinha/PE,-8.50355635,-36.77701174370496,169,1154.68707
D1,Alagoinha/PE,-8.50355635,-36.77701174370496,3,20.49740
1,Alagoinhas/BA,-12.133526,-38.420772,3929,2591.75704
D1,Alagoinhas/BA,-12.133526,-38.420772,40,26.38592
1,Alambari/SP,-23.550338,-47.897971,56,929.46058
D1,Alambari/SP,-23.550338,-47.897971,1,16.59751
1,Albertina/MG,-20.66164,-43.784039,9,299.30163
D1,Albertina/MG,-20.66164,-43.784039,1,33.25574
1,Alcantil/PB,-7.7425491,-36.0609604,63,1147.12309
1,Alcinópolis/MS,-18.3264121,-53.7094463,11,205.87685
D1,Alcinópolis/MS,-18.3264121,-53.7094463,2,37.43215
1,Alcobaça/BA,-17.5215875,-39.1965474,385,1713.39564
D1,Alcobaça/BA,-17.5215875,-39.1965474,5,22.25189
1,Alcântara/MA,-2.4038956,-44.4154241,44,199.12205
D1,Alcântara/MA,-2.4038956,-44.4154241,6,27.15301
1,Alcântaras/CE,-3.586247,-40.5457641,422,3602.52689
D1,Alcântaras/CE,-3.586247,-40.5457641,3,25.61038
1,Aldeias Altas/MA,-4.6291957,-43.4708622,830,3128.29790
D1,Aldeias Altas/MA,-4.6291957,-43.4708622,4,15.07613
1,Alecrim/RS,-27.6566142,-54.7653195,15,252.10084
1,Alegre/ES,-20.7625787,-41.5318886,301,1000.53184
D1,Alegre/ES,-20.7625787,-41.5318886,15,49.86039
1,Alegrete do Piauí/PI,-7.2440138,-40.8602296,76,1546.28688
1,Alegrete/RS,-29.790166,-55.794862,460,625.09342
D1,Alegrete/RS,-29.790166,-55.794862,13,17.66568
1,Alegria/RS,-27.8332103,-54.0574959,44,1270.20785
1,Alenquer/PA,-1.946229,-54.738355,1235,2174.71693
D1,Alenquer/PA,-1.946229,-54.738355,30,52.82713
1,Alexandria/RN,-6.414779,-38.0135516,102,751.27053
D1,Alexandria/RN,-6.414779,-38.0135516,4,29.46159
1,Alexânia/GO,-16.0834049,-48.5077803,626,2263.76885
D1,Alexânia/GO,-16.0834049,-48.5077803,11,39.77869
1,Alfenas/MG,-21.4297405,-45.9479419,506,632.53163
D1,Alfenas/MG,-21.4297405,-45.9479419,24,30.00150
1,Alfredo Chaves/ES,-20.624970400000002,-40.75006690147988,406,2780.63146
D1,Alfredo Chaves/ES,-20.624970400000002,-40.75006690147988,5,34.24423
1,Alfredo Marcondes/SP,-21.9527,-51.413956,42,1008.16131
D1,Alfredo Marcondes/SP,-21.9527,-51.413956,2,48.00768
1,Alfredo Vasconcelos/MG,-21.145833,-43.776389,16,231.64905
D1,Alfredo Vasconcelos/MG,-21.145833,-43.776389,1,14.47807
1,Alfredo Wagner/SC,-27.6961513,-49.3326734,135,1345.15743
1,Algodão de Jandaíra/PB,-6.9040175,-36.0089879,19,740.16362
1,Alhandra/PB,-7.4304246,-34.9106103,627,3200.93935
D1,Alhandra/PB,-7.4304246,-34.9106103,17,86.78783
1,Aliança do Tocantins/TO,-11.3055927,-48.9409096,51,946.19666
D1,Aliança do Tocantins/TO,-11.3055927,-48.9409096,1,18.55288
1,Aliança/PE,-7.60398,-35.222696,346,901.37029
D1,Aliança/PE,-7.60398,-35.222696,26,67.73303
1,Almadina/BA,-14.70466,-39.6381994,307,5618.59444
D1,Almadina/BA,-14.70466,-39.6381994,4,73.20644
1,Almas/TO,-11.5681309,-47.1702803,74,1048.90149
D1,Almas/TO,-11.5681309,-47.1702803,2,28.34869
1,Almeirim/PA,-1.5290377,-52.5788111,255,747.60327
D1,Almeirim/PA,-1.5290377,-52.5788111,18,52.77200
1,Almenara/MG,-16.1740678,-40.6904907,590,1408.24900
D1,Almenara/MG,-16.1740678,-40.6904907,10,23.86863
1,Almino Afonso/RN,-6.1544208,-37.7649018,19,401.26716
1,Almirante Tamandaré do Sul/RS,-28.1141129,-52.9134874,10,509.16497
1,Almirante Tamandaré/PR,-25.3133048,-49.2997838,1208,1018.35226
D1,Almirante Tamandaré/PR,-25.3133048,-49.2997838,32,26.97622
1,Aloândia/GO,-17.7277983,-49.4809338,16,802.00501
D1,Aloândia/GO,-17.7277983,-49.4809338,2,100.25063
1,Alpercata/MG,-18.9803616,-41.9827637,166,2235.99138
D1,Alpercata/MG,-18.9803616,-41.9827637,5,67.34914
1,Alpestre/RS,-27.2512339,-53.0349646,31,495.36593
1,Alpinópolis/MG,-20.863611,-46.387777,67,337.48048
D1,Alpinópolis/MG,-20.863611,-46.387777,5,25.18511
1,Alta Floresta D'Oeste/RO,-11.9296917,-61.9961284,484,2109.39202
D1,Alta Floresta D'Oeste/RO,-11.9296917,-61.9961284,8,34.86598
1,Alta Floresta/MT,-9.8715018,-56.0839881,603,1164.49732
D1,Alta Floresta/MT,-9.8715018,-56.0839881,15,28.96759
1,Altair/SP,-20.5238955,-49.0606135,33,793.26923
D1,Altair/SP,-20.5238955,-49.0606135,2,48.07692
1,Altamira do Maranhão/MA,-4.1643006,-45.4674574,264,3248.03150
D1,Altamira do Maranhão/MA,-4.1643006,-45.4674574,5,61.51575
1,Altamira do Paraná/PR,-24.799114,-52.7128633,7,360.45314
1,Altamira/PA,-3.204065,-52.209961,3712,3239.26209
D1,Altamira/PA,-3.204065,-52.209961,105,91.62783
1,Altaneira/CE,-6.9980933,-39.7385742,12,158.18613
1,Alterosa/MG,-21.249166,-46.143055,13,89.86589
D1,Alterosa/MG,-21.249166,-46.143055,1,6.91276
1,Altinho/PE,-8.4904095,-36.0607494,407,1771.72210
D1,Altinho/PE,-8.4904095,-36.0607494,7,30.47188
1,Altinópolis/SP,-21.021364,-47.3712,183,1130.74642
D1,Altinópolis/SP,-21.021364,-47.3712,7,43.25260
1,Alto Alegre do Maranhão/MA,-4.2055693,-44.4525287,330,1219.82775
D1,Alto Alegre do Maranhão/MA,-4.2055693,-44.4525287,11,40.66092
1,Alto Alegre do Pindaré/MA,-3.6698186,-45.8462153,1341,4201.25944
D1,Alto Alegre do Pindaré/MA,-3.6698186,-45.8462153,19,59.52567
1,Alto Alegre dos Parecis/RO,-12.1314515,-61.856265,163,1231.02485
D1,Alto Alegre dos Parecis/RO,-12.1314515,-61.856265,4,30.20920
1,Alto Alegre/RR,2.98858,-61.307167,531,3423.59768
D1,Alto Alegre/RR,2.98858,-61.307167,14,90.26435
1,Alto Alegre/RS,-31.780844700000003,-52.81311114489171,5,305.25031
1,Alto Alegre/SP,-21.5820592,-50.1661976,51,1244.20590
D1,Alto Alegre/SP,-21.5820592,-50.1661976,2,48.79239
1,Alto Araguaia/MT,-17.3156528,-53.2169365,134,703.63369
D1,Alto Araguaia/MT,-17.3156528,-53.2169365,3,15.75299
1,Alto Bela Vista/SC,-27.4320737,-51.905771,13,671.14094
1,Alto Boa Vista/MT,-11.6723985,-51.3744431,63,923.48285
D1,Alto Boa Vista/MT,-11.6723985,-51.3744431,3,43.97537
1,Alto Caparaó/MG,-20.4405661,-41.8683799,12,205.23345
1,Alto Feliz/RS,-29.3785943,-51.3123751,20,660.50198
1,Alto Garças/MT,-16.9469683,-53.529427,164,1363.25852
D1,Alto Garças/MT,-16.9469683,-53.529427,4,33.25021
1,Alto Horizonte/GO,-14.1954948,-49.3366993,100,1559.08949
D1,Alto Horizonte/GO,-14.1954948,-49.3366993,1,15.59089
1,Alto Jequitibá/MG,-20.423611,-41.966111,49,589.15474
D1,Alto Jequitibá/MG,-20.423611,-41.966111,3,36.07070
1,Alto Longá/PI,-5.2549051,-42.2072388,110,769.01566
D1,Alto Longá/PI,-5.2549051,-42.2072388,2,13.98210
1,Alto Paraguai/MT,-14.513712,-56.4936374,81,713.27932
D1,Alto Paraguai/MT,-14.513712,-56.4936374,1,8.80592
1,Alto Paraná/PR,-23.131247,-52.318893,44,297.90115
1,Alto Paraíso de Goiás/GO,-14.1304779,-47.5100161,92,1206.71563
1,Alto Paraíso/PR,-23.508137,-53.728537,3,109.44911
1,Alto Paraíso/RO,-9.7240103,-63.3188123,273,1274.03397
D1,Alto Paraíso/RO,-9.7240103,-63.3188123,5,23.33396
1,Alto Parnaíba/MA,-9.112506,-45.9310154,204,1823.05630
D1,Alto Parnaíba/MA,-9.112506,-45.9310154,2,17.87310
1,Alto Piquiri/PR,-24.0239021,-53.4417448,86,874.33916
D1,Alto Piquiri/PR,-24.0239021,-53.4417448,4,40.66694
1,Alto Rio Doce/MG,-21.0239537,-43.4133507,60,545.45455
D1,Alto Rio Doce/MG,-21.0239537,-43.4133507,1,9.09091
1,Alto Rio Novo/ES,-19.0577208,-41.0171518,159,2029.09648
D1,Alto Rio Novo/ES,-19.0577208,-41.0171518,8,102.09290
1,Alto Santo/CE,-5.5190371,-38.2719351,311,1813.83413
D1,Alto Santo/CE,-5.5190371,-38.2719351,6,34.99358
1,Alto Taquari/MT,-17.8269099,-53.2831736,96,885.03734
D1,Alto Taquari/MT,-17.8269099,-53.2831736,5,46.09569
1,Alto do Rodrigues/RN,-5.290868,-36.7616726,339,2333.26451
D1,Alto do Rodrigues/RN,-5.290868,-36.7616726,16,110.12458
1,Altos/PI,-5.0393915,-42.4611694,1163,2869.90425
D1,Altos/PI,-5.0393915,-42.4611694,16,39.48278
1,Altônia/PR,-23.8722004,-53.894037,121,548.60355
D1,Altônia/PR,-23.8722004,-53.894037,1,4.53391
1,Alumínio/SP,-23.5203479,-47.2575256,139,746.18853
D1,Alumínio/SP,-23.5203479,-47.2575256,6,32.20958
1,Alvarenga/MG,-19.4175,-41.728334,120,3071.41029
D1,Alvarenga/MG,-19.4175,-41.728334,1,25.59509
1,Alvarães/AM,-3.214786,-64.8143124,1208,7530.70257
D1,Alvarães/AM,-3.214786,-64.8143124,13,81.04233
1,Alvinlândia/SP,-22.4431852,-49.7643596,23,713.84233
1,Alvinópolis/MG,-20.1105199,-43.0601805,51,335.46011
1,Alvorada D'Oeste/RO,-11.346271,-62.284697,106,735.54923
D1,Alvorada D'Oeste/RO,-11.346271,-62.284697,5,34.69572
1,Alvorada de Minas/MG,-18.7318587,-43.3641479,47,1303.38325
D1,Alvorada de Minas/MG,-18.7318587,-43.3641479,1,27.73156
1,Alvorada do Gurguéia/PI,-8.4465288,-43.8655915,40,738.14357
D1,Alvorada do Gurguéia/PI,-8.4465288,-43.8655915,2,36.90718
1,Alvorada do Norte/GO,-14.483911,-46.4959897,140,1616.62818
D1,Alvorada do Norte/GO,-14.483911,-46.4959897,1,11.54734
1,Alvorada do Sul/PR,-22.7807269,-51.2307721,37,324.39067
D1,Alvorada do Sul/PR,-22.7807269,-51.2307721,3,26.30195
1,Alvorada/RS,-29.9981184,-51.0772509,2277,1082.71320
D1,Alvorada/RS,-29.9981184,-51.0772509,94,44.69699
1,Alvorada/TO,-12.478465,-49.124926,441,5242.51070
D1,Alvorada/TO,-12.478465,-49.124926,4,47.55112
1,Além Paraíba/MG,-21.8760576,-42.6810473,336,950.17250
D1,Além Paraíba/MG,-21.8760576,-42.6810473,11,31.10684
1,Amajari/RR,3.6523869,-61.4194315,289,2258.51829
D1,Amajari/RR,3.6523869,-61.4194315,8,62.51954
1,Amambai/MS,-23.1082701,-55.2284854,144,365.51934
D1,Amambai/MS,-23.1082701,-55.2284854,3,7.61499
1,Amaporã/PR,-23.094272,-52.786597,24,383.57040
1,Amapá do Maranhão/MA,-1.6762114,-46.0109669,3,43.09107
1,Amapá/AP,2.0529997,-50.7930003,477,5236.57921
D1,Amapá/AP,2.0529997,-50.7930003,4,43.91261
1,Amaraji/PE,-8.373925,-35.4536527,147,643.91782
D1,Amaraji/PE,-8.373925,-35.4536527,23,100.74905
1,Amaral Ferrador/RS,-30.8750633,-52.2542051,3,42.66818
D1,Amaral Ferrador/RS,-30.8750633,-52.2542051,1,14.22273
1,Amaralina/GO,-13.9236199,-49.2962411,2,52.46590
1,Amarante do Maranhão/MA,-5.56913,-46.747284,837,2020.03137
D1,Amarante do Maranhão/MA,-5.56913,-46.747284,16,38.61470
1,Amarante/PI,-6.2459374,-42.8476238,245,1392.20366
D1,Amarante/PI,-6.2459374,-42.8476238,5,28.41232
1,Amargosa/BA,-13.03793715,-39.60796443875596,285,765.28557
D1,Amargosa/BA,-13.03793715,-39.60796443875596,8,21.48170
1,Amaturá/AM,-3.3640509,-68.1994689,601,5209.77809
D1,Amaturá/AM,-3.3640509,-68.1994689,9,78.01664
1,Americana/SP,-22.7392463,-47.3306032,3692,1540.92080
D1,Americana/SP,-22.7392463,-47.3306032,111,46.32779
1,Americano do Brasil/GO,-16.2515808,-49.9806104,124,2029.12780
D1,Americano do Brasil/GO,-16.2515808,-49.9806104,3,49.09180
1,Ametista do Sul/RS,-27.3617341,-53.1826575,45,607.36942
1,Amontada/CE,-3.3634586,-39.8284791,784,1804.28979
D1,Amontada/CE,-3.3634586,-39.8284791,19,43.72641
1,Amorinópolis/GO,-16.6211308,-51.0949921,25,799.74408
1,Amparo de São Francisco/SE,-10.1299754,-36.9269099,70,2948.60994
1,Amparo do Serra/MG,-20.5070255,-42.8028462,11,233.39699
1,Amparo/PB,-7.56394725,-37.04652873235175,17,759.60679
1,Amparo/SP,-22.70111,-46.76444,687,951.58945
D1,Amparo/SP,-22.70111,-46.76444,20,27.70275
1,Ampére/PR,-25.9168712,-53.4742414,73,381.16124
D1,Ampére/PR,-25.9168712,-53.4742414,2,10.44277
1,Amélia Rodrigues/BA,-12.4015388,-38.7516971,283,1127.40021
D1,Amélia Rodrigues/BA,-12.4015388,-38.7516971,4,15.93499
1,América Dourada/BA,-11.4515262,-41.4357517,92,571.64161
1,Américo Brasiliense/SP,-21.7297099,-48.1052092,409,1009.77681
D1,Américo Brasiliense/SP,-21.7297099,-48.1052092,4,9.87557
1,Américo de Campos/SP,-20.298476,-49.735904,246,4121.29335
D1,Américo de Campos/SP,-20.298476,-49.735904,6,100.51935
1,Anadia/AL,-9.6830208,-36.3052699,437,2490.73810
D1,Anadia/AL,-9.6830208,-36.3052699,7,39.89741
1,Anagé/BA,-14.6134669,-41.1376308,86,390.82027
D1,Anagé/BA,-14.6134669,-41.1376308,1,4.54442
1,Anahy/PR,-24.6450861,-53.1337957,23,821.13531
1,Anajatuba/MA,-3.26441,-44.6179916,323,1205.08898
D1,Anajatuba/MA,-3.26441,-44.6179916,8,29.84741
1,Anajás/PA,-0.9878802,-49.9390114,546,1864.94518
D1,Anajás/PA,-0.9878802,-49.9390114,12,40.98781
1,Analândia/SP,-22.128917,-47.661939,35,700.70070
D1,Analândia/SP,-22.128917,-47.661939,1,20.02002
1,Anamã/AM,-3.5797356,-61.4049996,668,4906.71368
1,Ananindeua/PA,-1.374035,-48.4016623,6680,1258.95688
D1,Ananindeua/PA,-1.374035,-48.4016623,350,65.96331
1,Ananás/TO,-6.3663053,-48.080238,163,1706.98502
D1,Ananás/TO,-6.3663053,-48.080238,6,62.83380
1,Anapu/PA,-3.4668292,-51.2057035,785,2814.62890
D1,Anapu/PA,-3.4668292,-51.2057035,18,64.53926
1,Anapurus/MA,-3.6751298,-43.1046001,710,4513.09433
D1,Anapurus/MA,-3.6751298,-43.1046001,6,38.13883
1,Anastácio/MS,-20.4832458,-55.8048448,368,1464.09389
D1,Anastácio/MS,-20.4832458,-55.8048448,10,39.78516
1,Anaurilândia/MS,-22.185169,-52.719056,30,332.04206
1,Anchieta/ES,-20.8057672,-40.6454564,722,2467.27950
D1,Anchieta/ES,-20.8057672,-40.6454564,20,68.34569
1,Anchieta/SC,-26.5350527,-53.3293938,23,407.94608
D1,Anchieta/SC,-26.5350527,-53.3293938,1,17.73679
1,Andaraí/BA,-12.8059674,-41.3322919,28,213.04116
1,Andirá/PR,-23.0494761,-50.2310027,186,928.56073
D1,Andirá/PR,-23.0494761,-50.2310027,2,9.98452
1,Andorinha/BA,-10.3445708,-39.8334411,61,417.95135
D1,Andorinha/BA,-10.3445708,-39.8334411,2,13.70332
1,Andradas/MG,-22.0680484,-46.5688976,188,457.67705
D1,Andradas/MG,-22.0680484,-46.5688976,5,12.17226
1,Andradina/SP,-20.896505,-51.3742765,396,692.82852
D1,Andradina/SP,-20.896505,-51.3742765,8,13.99654
1,Andrelândia/MG,-21.739722,-44.308889,66,539.92147
1,André da Rocha/RS,-28.6309124,-51.5733328,19,1425.35634
1,Angatuba/SP,-23.4938938,-48.4110675,250,990.96242
D1,Angatuba/SP,-23.4938938,-48.4110675,6,23.78310
1,Angelim/PE,-8.8902038,-36.2872987,59,529.14798
D1,Angelim/PE,-8.8902038,-36.2872987,2,17.93722
1,Angelina/SC,-27.5805287,-48.9838759,61,1270.56863
1,Angelândia/MG,-17.7253,-42.2728,12,140.84507
1,Angical do Piauí/PI,-6.0872666,-42.7366138,80,1178.55038
D1,Angical do Piauí/PI,-6.0872666,-42.7366138,3,44.19564
1,Angical/BA,-12.005623,-44.7000236,86,615.29656
D1,Angical/BA,-12.005623,-44.7000236,1,7.15461
1,Angico/TO,-6.3893733,-47.8656722,39,1136.03262
1,Angicos/RN,-5.6666344,-36.6009064,91,776.84822
D1,Angicos/RN,-5.6666344,-36.6009064,3,25.61038
1,Angra dos Reis/RJ,-23.0063966,-44.316326,4653,2283.28876
D1,Angra dos Reis/RJ,-23.0063966,-44.316326,144,70.66271
1,Anguera/BA,-12.1509425,-39.2452469,54,481.24053
1,Angélica/MS,-22.1588196,-53.7728504,64,593.69202
D1,Angélica/MS,-22.1588196,-53.7728504,3,27.82931
1,Anhanguera/GO,-18.3338749,-48.220363,14,1218.45083
D1,Anhanguera/GO,-18.3338749,-48.220363,3,261.09661
1,Anhembi/SP,-22.7891096,-48.1316776,15,223.08150
1,Anhumas/SP,-22.2956478,-51.3873401,26,631.83475
1,Anicuns/GO,-16.4606451,-49.9572265,449,2054.91991
D1,Anicuns/GO,-16.4606451,-49.9572265,6,27.45995
1,Anita Garibaldi/SC,-27.6855032,-51.1293873,187,2621.61783
D1,Anita Garibaldi/SC,-27.6855032,-51.1293873,1,14.01935
1,Anitápolis/SC,-27.9041185,-49.1287395,42,1299.50495
1,Anori/AM,-3.7435254,-61.6605203,735,3498.33413
D1,Anori/AM,-3.7435254,-61.6605203,11,52.35602
1,Anta Gorda/RS,-28.9718745,-52.0069187,47,785.82177
1,Antas/BA,-10.4114649,-38.3308815,128,663.52185
1,Antonina do Norte/CE,-6.7754187,-39.9879345,15,203.99837
1,Antonina/PR,-25.4298854,-48.7125431,275,1448.89357
D1,Antonina/PR,-25.4298854,-48.7125431,4,21.07482
1,Antônio Almeida/PI,-7.2186016,-44.1950248,207,6542.35145
D1,Antônio Almeida/PI,-7.2186016,-44.1950248,1,31.60556
1,Antônio Cardoso/BA,-12.4363122,-39.1200307,44,376.61560
1,Antônio Carlos/MG,-21.318334,-43.746666,32,279.59808
1,Antônio Carlos/SC,-27.5168462,-48.7684715,231,2713.49700
D1,Antônio Carlos/SC,-27.5168462,-48.7684715,11,129.21414
1,Antônio Dias/MG,-19.6525,-42.872778,67,719.03842
D1,Antônio Dias/MG,-19.6525,-42.872778,1,10.73192
1,Antônio Gonçalves/BA,-10.5715409,-40.2748824,146,1237.49788
D1,Antônio Gonçalves/BA,-10.5715409,-40.2748824,1,8.47601
1,Antônio João/MS,-22.1892837,-55.9508227,53,591.78205
1,Antônio Martins/RN,-6.2155812,-37.8890129,4,55.98321
D1,Antônio Martins/RN,-6.2155812,-37.8890129,1,13.99580
1,Antônio Olinto/PR,-25.9849006,-50.1974516,12,161.42050
1,Antônio Prado/RS,-28.8567806,-51.2801355,228,1747.12644
D1,Antônio Prado/RS,-28.8567806,-51.2801355,4,30.65134
1,Anápolis/GO,-16.3332828,-48.9525756,5232,1352.20703
D1,Anápolis/GO,-16.3332828,-48.9525756,143,36.95826
1,Anísio de Abreu/PI,-9.185643,-43.04941,95,961.53846
1,Aparecida d'Oeste/SP,-20.4498109,-50.8808706,42,1000.95329
1,Aparecida de Goiânia/GO,-16.8226769,-49.2452546,18108,3131.90206
D1,Aparecida de Goiânia/GO,-16.8226769,-49.2452546,334,57.76758
1,Aparecida do Rio Doce/GO,-18.2980167,-51.1491312,54,2182.70008
D1,Aparecida do Rio Doce/GO,-18.2980167,-51.1491312,2,80.84074
1,Aparecida do Rio Negro/TO,-9.9513491,-47.9773786,31,646.50678
1,Aparecida do Taboado/MS,-20.0840304,-51.1013943,443,1720.72247
D1,Aparecida do Taboado/MS,-20.0840304,-51.1013943,9,34.95824
1,Aparecida/PB,-6.7859598, -38.0831353,81,970.40853
D1,Aparecida/PB,-6.7859598, -38.0831353,3,35.94106
1,Aparecida/SP,-22.851552,-45.2340924,240,663.77188
D1,Aparecida/SP,-22.851552,-45.2340924,2,5.53143
1,Aperibé/RJ,-21.6211928,-42.1028167,167,1420.18879
D1,Aperibé/RJ,-21.6211928,-42.1028167,6,51.02475
1,Apiacá/ES,-21.152272,-41.569297,119,1572.61795
D1,Apiacá/ES,-21.152272,-41.569297,4,52.86111
1,Apiacás/MT,-9.5678422,-57.394852,17,167.76868
D1,Apiacás/MT,-9.5678422,-57.394852,1,9.86875
1,Apiaí/SP,-24.5076527,-48.8461582,113,463.60876
D1,Apiaí/SP,-24.5076527,-48.8461582,5,20.51366
1,Apicum-Açu/MA,-1.5279295,-45.082278,197,1142.75770
D1,Apicum-Açu/MA,-1.5279295,-45.082278,3,17.40240
1,Apiúna/SC,-27.0374658,-49.3885037,69,642.27869
D1,Apiúna/SC,-27.0374658,-49.3885037,3,27.92516
1,Apodi/RN,-5.6631109,-37.796927,1526,4257.21858
D1,Apodi/RN,-5.6631109,-37.796927,21,58.58558
1,Aporá/BA,-11.6599747,-38.0794757,136,767.01822
D1,Aporá/BA,-11.6599747,-38.0794757,2,11.27968
1,Aporé/GO,-18.9642193,-51.92804,3,71.46260
D1,Aporé/GO,-18.9642193,-51.92804,2,47.64173
1,Apuarema/BA,-13.8517897,-39.7457126,251,3424.28377
D1,Apuarema/BA,-13.8517897,-39.7457126,4,54.57026
1,Apucarana/PR,-23.5525327,-51.4610764,500,370.38134
D1,Apucarana/PR,-23.5525327,-51.4610764,24,17.77830
1,Apuiarés/CE,-3.9460303,-39.4313298,207,1417.80822
D1,Apuiarés/CE,-3.9460303,-39.4313298,11,75.34247
1,Apuí/AM,-7.1940195,-59.8830192,172,782.77886
1,Aquidabã/SE,-10.2837579,-37.0188687,519,2406.90071
D1,Aquidabã/SE,-10.2837579,-37.0188687,11,51.01331
1,Aquidauana/MS,-20.473969,-55.7821375,1379,2880.65844
D1,Aquidauana/MS,-20.473969,-55.7821375,41,85.64684
1,Aquiraz/CE,-3.9063117,-38.387504,947,1179.75358
D1,Aquiraz/CE,-3.9063117,-38.387504,32,39.86496
1,Arabutã/SC,-27.1587028,-52.1438142,58,1359.26881
D1,Arabutã/SC,-27.1587028,-52.1438142,1,23.43567
1,Aracaju/SE,-10.9162061,-37.0774655,32716,4979.50573
D1,Aracaju/SE,-10.9162061,-37.0774655,668,101.67227
1,Aracati/CE,-4.558259,-37.767894,1470,1971.91034
D1,Aracati/CE,-4.558259,-37.767894,48,64.38891
1,Aracatu/BA,-14.4274236,-41.4604105,25,190.33118
1,Araci/BA,-11.3356065,-38.9573261,944,1735.96425
D1,Araci/BA,-11.3356065,-38.9573261,9,16.55051
1,Aracitaba/MG,-21.3425,-43.378611,2,96.94619
1,Aracoiaba/CE,-4.3702577,-38.8084313,741,2799.50130
D1,Aracoiaba/CE,-4.3702577,-38.8084313,13,49.11406
1,Aracruz/ES,-19.8245218,-40.2735025,3041,3004.34697
D1,Aracruz/ES,-19.8245218,-40.2735025,66,65.20451
1,Aragarças/GO,-15.8957166,-52.2514538,536,2664.28074
D1,Aragarças/GO,-15.8957166,-52.2514538,13,64.61875
1,Aragoiânia/GO,-16.9146388,-49.4499148,168,1629.80210
D1,Aragoiânia/GO,-16.9146388,-49.4499148,2,19.40241
1,Aragominas/TO,-7.1654101,-48.525488,103,1788.81556
D1,Aragominas/TO,-7.1654101,-48.525488,2,34.73428
1,Araguacema/TO,-8.8067391,-49.5560969,26,366.92069
1,Araguaiana/MT,-15.729144,-51.834112,22,709.67742
1,Araguainha/MT,-16.857016,-53.031778,2,213.90374
1,Araguanã/MA,-2.9508403,-45.6651986,495,3208.86814
D1,Araguanã/MA,-2.9508403,-45.6651986,2,12.96512
1,Araguanã/TO,-6.5799107,-48.6428482,90,1570.95479
D1,Araguanã/TO,-6.5799107,-48.6428482,5,87.27527
1,Araguapaz/GO,-15.0937927,-50.626417,109,1402.83140
D1,Araguapaz/GO,-15.0937927,-50.626417,3,38.61004
1,Araguari/MG,-18.6511256,-48.1933764,2160,1841.95042
D1,Araguari/MG,-18.6511256,-48.1933764,61,52.01804
1,Araguatins/TO,-5.6522925,-48.1158973,656,1834.40060
D1,Araguatins/TO,-5.6522925,-48.1158973,23,64.31587
1,Araguaçu/TO,-12.928934,-49.823134,349,4097.68698
D1,Araguaçu/TO,-12.928934,-49.823134,6,70.44734
1,Araguaína/TO,-7.193241,-48.2018597,11226,6220.42445
D1,Araguaína/TO,-7.193241,-48.2018597,139,77.02111
1,Araioses/MA,-2.890914,-41.904993,548,1180.01723
D1,Araioses/MA,-2.890914,-41.904993,10,21.53316
1,Aral Moreira/MS,-22.951141,-55.6268421,34,279.85842
D1,Aral Moreira/MS,-22.951141,-55.6268421,1,8.23113
1,Aramari/BA,-12.0907897,-38.4985065,107,938.84356
1,Arambaré/RS,-30.9132252,-51.4994625,12,335.10193
D1,Arambaré/RS,-30.9132252,-51.4994625,1,27.92516
1,Arame/MA,-4.8858769,-46.0102484,832,2544.26470
D1,Arame/MA,-4.8858769,-46.0102484,7,21.40607
1,Aramina/SP,-20.0876144,-47.789201,72,1281.13879
D1,Aramina/SP,-20.0876144,-47.789201,1,17.79359
1,Arandu/SP,-23.1345103,-49.0545651,28,440.45934
D1,Arandu/SP,-23.1345103,-49.0545651,2,31.46138
1,Arantina/MG,-21.911667,-44.255833,8,286.22540
D1,Arantina/MG,-21.911667,-44.255833,1,35.77818
1,Arapeí/SP,-22.6738889,-44.4477778,4,162.00891
D1,Arapeí/SP,-22.6738889,-44.4477778,1,40.50223
1,Arapiraca/AL,-9.754866,-36.661471,10374,4476.43335
D1,Arapiraca/AL,-9.754866,-36.661471,124,53.50663
1,Arapoema/TO,-7.6575001,-49.0641484,64,963.42014
D1,Arapoema/TO,-7.6575001,-49.0641484,2,30.10688
1,Araponga/MG,-20.666667,-42.520556,1,11.84975
1,Arapongas/PR,-23.415296,-51.42592,1850,1503.73495
D1,Arapongas/PR,-23.415296,-51.42592,69,56.08525
1,Araporã/MG,-18.4318188,-49.188313,338,4920.65803
D1,Araporã/MG,-18.4318188,-49.188313,4,58.23264
1,Arapoti/PR,-24.1457957,-49.8224605,169,601.10261
D1,Arapoti/PR,-24.1457957,-49.8224605,1,3.55682
1,Araputanga/MT,-15.4710868,-58.346796,293,1741.76673
D1,Araputanga/MT,-15.4710868,-58.346796,4,23.77839
1,Arapuá/MG,-19.034444,-46.155556,19,670.43049
1,Arapuã/PR,-24.3079525,-51.7901941,29,945.24120
D1,Arapuã/PR,-24.3079525,-51.7901941,1,32.59452
1,Araquari/SC,-26.3703324,-48.7210994,594,1557.86934
D1,Araquari/SC,-26.3703324,-48.7210994,8,20.98141
1,Arara/PB,-6.8271895,-35.7605703,215,1596.13957
D1,Arara/PB,-6.8271895,-35.7605703,6,44.54343
1,Araranguá/SC,-28.9348832,-49.4858389,1619,2372.92607
D1,Araranguá/SC,-28.9348832,-49.4858389,35,51.29859
1,Araraquara/SP,-21.7886713,-48.1773096,3191,1351.70626
D1,Araraquara/SP,-21.7886713,-48.1773096,28,11.86079
1,Araras/SP,-22.3569477,-47.3838889,2348,1749.15820
D1,Araras/SP,-22.3569477,-47.3838889,50,37.24783
1,Ararendá/CE,-4.7504395,-40.8303611,53,484.68221
D1,Ararendá/CE,-4.7504395,-40.8303611,2,18.28989
1,Arari/MA,-3.4547602,-44.7772723,196,656.66041
D1,Arari/MA,-3.4547602,-44.7772723,8,26.80247
1,Araricá/RS,-29.6168543,-50.929121,58,1017.90102
D1,Araricá/RS,-29.6168543,-50.929121,4,70.20007
1,Araripe/CE,-7.212861,-40.1359222,195,902.77778
D1,Araripe/CE,-7.212861,-40.1359222,2,9.25926
1,Araripina/PE,-7.5768582,-40.5038509,1320,1563.64756
D1,Araripina/PE,-7.5768582,-40.5038509,29,34.35286
1,Araruama/RJ,-22.8733203,-42.3428897,970,732.62840
D1,Araruama/RJ,-22.8733203,-42.3428897,52,39.27492
1,Araruna/PB,-6.5321155,-35.7397595,240,1181.56755
D1,Araruna/PB,-6.5321155,-35.7397595,7,34.46239
1,Araruna/PR,-23.9320308,-52.4976047,133,952.04009
D1,Araruna/PR,-23.9320308,-52.4976047,7,50.10737
1,Arataca/BA,-15.2617424,-39.4122943,155,1406.66122
D1,Arataca/BA,-15.2617424,-39.4122943,1,9.07523
1,Aratiba/RS,-27.3955734,-52.3024325,34,545.30874
D1,Aratiba/RS,-27.3955734,-52.3024325,1,16.03849
1,Aratuba/CE,-4.4195958,-39.0463737,218,1840.12830
D1,Aratuba/CE,-4.4195958,-39.0463737,1,8.44096
1,Aratuípe/BA,-13.077137,-39.0010786,86,974.50425
D1,Aratuípe/BA,-13.077137,-39.0010786,5,56.65722
1,Araucária/PR,-25.5861107,-49.4051209,2514,1747.73885
D1,Araucária/PR,-25.5861107,-49.4051209,40,27.80810
1,Arauá/SE,-11.2644014,-37.6181058,298,2963.40493
D1,Arauá/SE,-11.2644014,-37.6181058,8,79.55449
1,Araxá/MG,-19.5928536,-46.940241,813,765.32774
D1,Araxá/MG,-19.5928536,-46.940241,16,15.06180
1,Araçagi/PB,-6.8519969,-35.3835602,498,2931.65362
D1,Araçagi/PB,-6.8519969,-35.3835602,5,29.43427
1,Araçariguama/SP,-23.438611,-47.061389,282,1260.95511
D1,Araçariguama/SP,-23.438611,-47.061389,7,31.30030
1,Araças/BA,-12.2139176,-38.2026159,108,886.91796
D1,Araças/BA,-12.2139176,-38.2026159,1,8.21220
1,Araçatuba/SP,-21.207992,-50.4390225,5321,2700.79587
D1,Araçatuba/SP,-21.207992,-50.4390225,117,59.38604
1,Araçaí/MG,-19.200833,-44.2475,4,170.43034
1,Araçoiaba da Serra/SP,-23.5045367,-47.6168158,531,1555.08698
D1,Araçoiaba da Serra/SP,-23.5045367,-47.6168158,10,29.28601
1,Araçoiaba/PE,-7.7856903,-35.0898881,123,599.29838
D1,Araçoiaba/PE,-7.7856903,-35.0898881,12,58.46813
1,Araçu/GO,-16.3561579,-49.6815269,30,851.78876
D1,Araçu/GO,-16.3561579,-49.6815269,1,28.39296
1,Araçuaí/MG,-16.8484451,-42.0661868,34,92.62286
1,Araújos/MG,-19.948055,-45.165556,41,442.14386
1,Arceburgo/MG,-21.364444,-46.939722,29,269.21649
1,Arco-Íris/SP,-21.7741308,-50.4668814,7,390.84310
1,Arcos/MG,-20.282223,-45.539444,257,641.02564
D1,Arcos/MG,-20.282223,-45.539444,4,9.97705
1,Arcoverde/PE,-8.415192,-37.057748,894,1202.61508
D1,Arcoverde/PE,-8.415192,-37.057748,41,55.15349
1,Areado/MG,-21.3582771,-46.1476688,3,19.90710
1,Areal/RJ,-22.2314922,-43.1056264,158,1256.76106
D1,Areal/RJ,-22.2314922,-43.1056264,5,39.77092
1,Arealva/SP,-22.0301906,-48.9111936,90,1051.40187
D1,Arealva/SP,-22.0301906,-48.9111936,1,11.68224
1,Areia Branca/RN,-4.9506652,-37.1263312,731,2631.95795
D1,Areia Branca/RN,-4.9506652,-37.1263312,49,176.42399
1,Areia Branca/SE,-10.7591455,-37.3148072,654,3527.12760
D1,Areia Branca/SE,-10.7591455,-37.3148072,17,91.68375
1,Areia de Baraúnas/PB,-7.1233949,-36.9446216,11,516.91729
1,Areia/PB,-6.9680243,-35.6994783,435,1906.30615
D1,Areia/PB,-6.9680243,-35.6994783,3,13.14694
1,Areial/PB,-7.0501306,-35.9245244,49,700.20006
D1,Areial/PB,-7.0501306,-35.9245244,2,28.57959
1,Areias/SP,-22.5800929,-44.6975127,41,1055.06948
1,Areiópolis/SP,-22.6758064,-48.6673653,75,673.91500
D1,Areiópolis/SP,-22.6758064,-48.6673653,3,26.95660
1,Arenápolis/MT,-14.4610369,-56.8432806,187,1946.49735
D1,Arenápolis/MT,-14.4610369,-56.8432806,3,31.22723
1,Arenópolis/GO,-16.3859286,-51.55937,22,842.26646
1,Argirita/MG,-21.612761,-42.8371922,5,183.35167
D1,Argirita/MG,-21.612761,-42.8371922,1,36.67033
1,Aricanduva/MG,-17.8678,-42.5569,1,19.11680
1,Arinos/MG,-15.917223,-46.106111,55,307.69231
D1,Arinos/MG,-15.917223,-46.106111,1,5.59441
1,Aripuanã/MT,-10.175806,-59.4439663,207,926.00877
D1,Aripuanã/MT,-10.175806,-59.4439663,7,31.31431
1,Ariquemes/RO,-9.9076522,-63.033069,4277,3965.21513
D1,Ariquemes/RO,-9.9076522,-63.033069,71,65.82424
1,Ariranha do Ivaí/PR,-24.3834527,-51.5876772,15,711.57495
D1,Ariranha do Ivaí/PR,-24.3834527,-51.5876772,1,47.43833
1,Ariranha/SP,-21.18716,-48.790418,102,1055.02689
D1,Ariranha/SP,-21.18716,-48.790418,3,31.03020
1,Armazém/SC,-28.2624996,-49.0190126,188,2167.39682
D1,Armazém/SC,-28.2624996,-49.0190126,4,46.11483
1,Armação dos Búzios/RJ,-22.7597805,-41.8875267,353,1042.22025
D1,Armação dos Búzios/RJ,-22.7597805,-41.8875267,12,35.42958
1,Arneiroz/CE,-6.3235099,-40.1603859,41,522.95918
D1,Arneiroz/CE,-6.3235099,-40.1603859,2,25.51020
1,Aroazes/PI,-6.1108814,-41.7886137,47,805.48415
D1,Aroazes/PI,-6.1108814,-41.7886137,2,34.27592
1,Aroeiras do Itaim/PI,-7.2797031,-41.5629681,59,2312.81850
1,Aroeiras/PB,-7.5462904,-35.7080002,209,1091.21286
D1,Aroeiras/PB,-7.5462904,-35.7080002,1,5.22111
1,Arraial do Cabo/RJ,-22.9662839,-42.024427,155,510.72523
D1,Arraial do Cabo/RJ,-22.9662839,-42.024427,6,19.77001
1,Arraial/PI,-6.6541632,-42.5335332,2,42.31013
1,Arraias/TO,-12.9287788,-46.9437231,38,359.61011
1,Arroio Grande/RS,-32.2384246,-53.0866661,31,169.46373
D1,Arroio Grande/RS,-32.2384246,-53.0866661,1,5.46657
1,Arroio Trinta/SC,-26.9301976,-51.334928,51,1436.61972
1,Arroio do Meio/RS,-29.4020392,-51.9444993,328,1576.54410
1,Arroio do Padre/RS,-31.4428773,-52.4228985,1,34.04835
1,Arroio do Sal/RS,-29.549852,-49.8874395,61,606.06061
D1,Arroio do Sal/RS,-29.549852,-49.8874395,3,29.80626
1,Arroio do Tigre/RS,-29.334158,-53.0888935,20,149.55507
1,Arroio dos Ratos/RS,-30.0894524,-51.7265541,86,607.73090
D1,Arroio dos Ratos/RS,-30.0894524,-51.7265541,7,49.46647
1,Artur Nogueira/SP,-22.572737,-47.172679,619,1137.70034
D1,Artur Nogueira/SP,-22.572737,-47.172679,13,23.89355
1,Aruanã/GO,-14.9162439,-51.0715692,57,577.21519
1,Arujá/SP,-23.396266,-46.3175449,1550,1725.59672
D1,Arujá/SP,-23.396266,-46.3175449,69,76.81689
1,Arvoredo/SC,-27.0752908,-52.4571847,40,1785.71429
D1,Arvoredo/SC,-27.0752908,-52.4571847,1,44.64286
1,Arvorezinha/RS,-28.87369,-52.17808,32,306.98388
D1,Arvorezinha/RS,-28.87369,-52.17808,3,28.77974
1,Arês/RN,-6.1969216,-35.1642968,206,1439.95526
D1,Arês/RN,-6.1969216,-35.1642968,9,62.91067
1,Ascurra/SC,-26.9569975,-49.3767752,108,1361.23015
D1,Ascurra/SC,-26.9569975,-49.3767752,2,25.20797
1,Aspásia/SP,-20.160028,-50.728046,31,1701.42700
1,Assaré/CE,-6.8746791,-39.8741385,288,1229.87573
D1,Assaré/CE,-6.8746791,-39.8741385,8,34.16321
1,Assaí/PR,-23.3736041,-50.8454929,197,1302.99623
D1,Assaí/PR,-23.3736041,-50.8454929,7,46.29936
1,Assis Brasil/AC,-10.9409203,-69.5672108,487,6565.99703
D1,Assis Brasil/AC,-10.9409203,-69.5672108,9,121.34286
1,Assis Chateaubriand/PR,-24.4054826,-53.5120468,364,1091.06169
D1,Assis Chateaubriand/PR,-24.4054826,-53.5120468,4,11.98969
1,Assis/SP,-22.6620892,-50.420623,947,907.20978
D1,Assis/SP,-22.6620892,-50.420623,21,20.11764
1,Assunção do Piauí/PI,-5.8610212,-41.0485091,122,1554.93245
D1,Assunção do Piauí/PI,-5.8610212,-41.0485091,1,12.74535
1,Assunção/PB,-7.073396,-36.7274003,45,1127.81955
1,Astolfo Dutra/MG,-21.3132636,-42.8624102,101,712.32104
D1,Astolfo Dutra/MG,-21.3132636,-42.8624102,2,14.10537
1,Astorga/PR,-23.2350184,-51.6647074,281,1076.17479
D1,Astorga/PR,-23.2350184,-51.6647074,4,15.31921
1,Atalaia do Norte/AM,-4.3658547,-70.1908742,862,4327.09201
D1,Atalaia do Norte/AM,-4.3658547,-70.1908742,4,20.07931
1,Atalaia/AL,-9.5029595,-36.0219316,554,1174.10194
D1,Atalaia/AL,-9.5029595,-36.0219316,17,36.02840
1,Atalaia/PR,-23.1513833,-52.0529697,62,1593.01131
D1,Atalaia/PR,-23.1513833,-52.0529697,1,25.69373
1,Atalanta/SC,-27.421916,-49.778863,14,436.13707
1,Ataléia/MG,-18.04432,-41.1110524,99,769.35033
D1,Ataléia/MG,-18.04432,-41.1110524,4,31.08486
1,Atibaia/SP,-23.1177393,-46.5547861,1266,886.79681
D1,Atibaia/SP,-23.1177393,-46.5547861,46,32.22169
1,Atilio Vivacqua/ES,-20.9139369,-41.1947519,287,2404.49062
D1,Atilio Vivacqua/ES,-20.9139369,-41.1947519,5,41.89008
1,Augustinópolis/TO,-5.4662267,-47.8897519,547,2970.88855
D1,Augustinópolis/TO,-5.4662267,-47.8897519,5,27.15620
1,Augusto Corrêa/PA,-1.0229335,-46.6404029,1234,2682.72534
D1,Augusto Corrêa/PA,-1.0229335,-46.6404029,20,43.48015
1,Augusto Pestana/RS,-28.5148413,-53.9906433,5,75.06380
1,Augusto de Lima/MG,-18.1092963,-44.2651945,32,657.21914
1,Aurelino Leal/BA,-14.3167137,-39.3256107,357,3096.00208
D1,Aurelino Leal/BA,-14.3167137,-39.3256107,4,34.68910
1,Auriflama/SP,-20.6840418,-50.5554616,298,1961.94615
D1,Auriflama/SP,-20.6840418,-50.5554616,8,52.66970
1,Aurilândia/GO,-16.6772599,-50.4641231,43,1378.20513
1,Aurora do Pará/PA,-2.1323199,-47.558436,611,1949.70962
D1,Aurora do Pará/PA,-2.1323199,-47.558436,7,22.33710
1,Aurora do Tocantins/TO,-12.71045,-46.407604,22,585.57360
1,Aurora/CE,-6.9426019,-38.9693765,197,799.05898
D1,Aurora/CE,-6.9426019,-38.9693765,11,44.61751
1,Aurora/SC,-27.3166417,-49.6368502,56,986.08910
1,Autazes/AM,-3.5833283,-59.1301518,1227,3101.22583
D1,Autazes/AM,-3.5833283,-59.1301518,36,90.98951
1,Avanhandava/SP,-21.4603331,-49.9465156,98,718.00132
D1,Avanhandava/SP,-21.4603331,-49.9465156,3,21.97963
1,Avaré/SP,-23.1045215,-48.9259103,406,447.85175
D1,Avaré/SP,-23.1045215,-48.9259103,14,15.44316
1,Avaí/SP,-22.1564662,-49.3316395,54,999.44475
D1,Avaí/SP,-22.1564662,-49.3316395,1,18.50824
1,Aveiro/PA,-3.6049239,-55.3310742,412,2514.03466
D1,Aveiro/PA,-3.6049239,-55.3310742,4,24.40810
1,Avelino Lopes/PI,-10.1346855,-43.9489525,19,168.30543
D1,Avelino Lopes/PI,-10.1346855,-43.9489525,3,26.57454
1,Avelinópolis/GO,-16.4672409,-49.7578661,53,2192.80099
D1,Avelinópolis/GO,-16.4672409,-49.7578661,1,41.37360
1,Axixá do Tocantins/TO,-5.612747,-47.77007,175,1793.76794
D1,Axixá do Tocantins/TO,-5.612747,-47.77007,3,30.75031
1,Axixá/MA,-2.8379465,-44.0561053,125,1030.50289
D1,Axixá/MA,-2.8379465,-44.0561053,3,24.73207
1,Açailândia/MA,-4.9514278,-47.4844564,3055,2716.88381
D1,Açailândia/MA,-4.9514278,-47.4844564,80,71.14589
1,Açu/RN,-5.5836157,-36.9139541,1311,2259.68251
D1,Açu/RN,-5.5836157,-36.9139541,51,87.90527
1,Açucena/MG,-19.073056,-42.546666,58,612.46040
D1,Açucena/MG,-19.073056,-42.546666,2,21.11932
1,Babaçulândia/TO,-7.2034355,-47.761613,128,1200.30008
D1,Babaçulândia/TO,-7.2034355,-47.761613,2,18.75469
1,Bacabal/MA,-4.2318132,-44.781167,3141,2992.88226
D1,Bacabal/MA,-4.2318132,-44.781167,48,45.73650
1,Bacabeira/MA,-2.9775747,-44.3155943,147,861.91733
D1,Bacabeira/MA,-2.9775747,-44.3155943,2,11.72677
1,Bacuri/MA,-1.728894,-45.1417148,412,2217.19944
D1,Bacuri/MA,-1.728894,-45.1417148,3,16.14466
1,Bacurituba/MA,-2.7082587,-44.7381309,39,690.99929
1,Bady Bassitt/SP,-20.9178969,-49.4517911,642,3668.15221
D1,Bady Bassitt/SP,-20.9178969,-49.4517911,15,85.70449
1,Baependi/MG,-21.959162,-44.8899249,62,323.79361
D1,Baependi/MG,-21.959162,-44.8899249,1,5.22248
1,Bagre/PA,-1.8994498,-50.2103844,308,1004.14045
D1,Bagre/PA,-1.8994498,-50.2103844,10,32.60196
1,Bagé/RS,-31.3314264,-54.1062808,606,500.23526
D1,Bagé/RS,-31.3314264,-54.1062808,9,7.42924
1,Baianópolis/BA,-12.3067564,-44.5383591,60,432.37011
1,Baixa Grande do Ribeiro/PI,-7.862861,-45.2113289,775,6689.10754
D1,Baixa Grande do Ribeiro/PI,-7.862861,-45.2113289,8,69.04885
1,Baixa Grande/BA,-11.9630941,-40.1657537,25,122.14188
D1,Baixa Grande/BA,-11.9630941,-40.1657537,2,9.77135
1,Baixio/CE,-6.7303544,-38.7170095,80,1272.26463
D1,Baixio/CE,-6.7303544,-38.7170095,1,15.90331
1,Baixo Guandu/ES,-19.5138322,-41.0182089,622,2006.58107
D1,Baixo Guandu/ES,-19.5138322,-41.0182089,14,45.16420
1,Baião/PA,-2.7903479,-49.6702845,326,687.09691
D1,Baião/PA,-2.7903479,-49.6702845,14,29.50723
1,Balbinos/SP,-21.9006253,-49.3583966,80,1394.94333
D1,Balbinos/SP,-21.9006253,-49.3583966,1,17.43679
1,Baldim/MG,-19.2913568,-43.9558262,22,281.11423
D1,Baldim/MG,-19.2913568,-43.9558262,2,25.55584
1,Baliza/GO,-16.1978119,-52.542789,13,253.01674
1,Balneário Arroio do Silva/SC,-28.9815269,-49.4189932,336,2570.57608
D1,Balneário Arroio do Silva/SC,-28.9815269,-49.4189932,5,38.25262
1,Balneário Barra do Sul/SC,-26.459842,-48.6061471,395,3659.10144
D1,Balneário Barra do Sul/SC,-26.459842,-48.6061471,3,27.79064
1,Balneário Camboriú/SC,-26.9924395,-48.6339782,5564,3910.18658
D1,Balneário Camboriú/SC,-26.9924395,-48.6339782,75,52.70740
1,Balneário Gaivota/SC,-29.1553098,-49.5808712,133,1211.40359
D1,Balneário Gaivota/SC,-29.1553098,-49.5808712,4,36.43319
1,Balneário Pinhal/RS,-30.2482978,-50.234585,43,305.65823
D1,Balneário Pinhal/RS,-30.2482978,-50.234585,1,7.10833
1,Balneário Piçarras/SC,-26.7638889,-48.6716667,511,2207.62950
D1,Balneário Piçarras/SC,-26.7638889,-48.6716667,9,38.88193
1,Balneário Rincão/SC,-28.8235718,-49.2241642,247,1935.73668
D1,Balneário Rincão/SC,-28.8235718,-49.2241642,7,54.85893
1,Balsa Nova/PR,-25.5842234,-49.6312741,185,1429.56495
D1,Balsa Nova/PR,-25.5842234,-49.6312741,4,30.90951
1,Balsas/MA,-7.53214,-46.037163,4941,5207.24651
D1,Balsas/MA,-7.53214,-46.037163,33,34.77821
1,Bambuí/MG,-20.0131996,-45.9777034,25,104.91418
1,Banabuiú/CE,-5.3046404,-38.919766,500,2747.70567
D1,Banabuiú/CE,-5.3046404,-38.919766,3,16.48623
1,Bananal/SP,-22.6828195,-44.3221095,126,1151.21060
D1,Bananal/SP,-22.6828195,-44.3221095,1,9.13659
1,Bananeiras/PB,-6.7537682,-35.6338343,317,1487.00629
D1,Bananeiras/PB,-6.7537682,-35.6338343,2,9.38174
1,Bandeira do Sul/MG,-21.728056,-46.385555,14,243.64775
1,Bandeira/MG,-15.884444,-40.559167,198,4129.30136
D1,Bandeira/MG,-15.884444,-40.559167,1,20.85506
1,Bandeirante/SC,-26.7677402,-53.6397596,6,224.04780
1,Bandeirantes do Tocantins/TO,-7.7635698,-48.579148,24,675.48551
D1,Bandeirantes do Tocantins/TO,-7.7635698,-48.579148,1,28.14523
1,Bandeirantes/MS,-19.9179623,-54.3646768,61,898.64467
1,Bandeirantes/PR,-23.107788,-50.370407,395,1259.28524
D1,Bandeirantes/PR,-23.107788,-50.370407,13,41.44483
1,Bannach/PA,-7.3508505,-50.4064531,108,3286.67072
D1,Bannach/PA,-7.3508505,-50.4064531,2,60.86427
1,Banzaê/BA,-10.5827616,-38.6122305,122,922.21634
1,Baraúna/PB,-6.643394,-36.2531932,135,2759.60752
1,Baraúna/RN,-5.0775002,-37.61752,404,1423.83873
D1,Baraúna/RN,-5.0775002,-37.61752,12,42.29224
1,Barbacena/MG,-21.2254524,-43.7735087,619,450.79490
D1,Barbacena/MG,-21.2254524,-43.7735087,10,7.28263
1,Barbalha/CE,-7.3121067,-39.3036427,1043,1715.99678
D1,Barbalha/CE,-7.3121067,-39.3036427,45,74.03629
1,Barbosa Ferraz/PR,-24.0287182,-52.00811,120,1037.34440
D1,Barbosa Ferraz/PR,-24.0287182,-52.00811,4,34.57815
1,Barbosa/SP,-21.265661,-49.951816,96,1296.94677
D1,Barbosa/SP,-21.265661,-49.951816,1,13.50986
1,Barcarena/PA,-1.5107945,-48.6190679,4033,3234.68078
D1,Barcarena/PA,-1.5107945,-48.6190679,106,85.01765
1,Barcelona/RN,-5.9514918,-35.9260284,32,800.40020
D1,Barcelona/RN,-5.9514918,-35.9260284,2,50.02501
1,Barcelos/AM,-0.9729214,-62.925635,2393,8701.18537
D1,Barcelos/AM,-0.9729214,-62.925635,24,87.26638
1,Bariri/SP,-22.0746355,-48.7394852,484,1372.50454
D1,Bariri/SP,-22.0746355,-48.7394852,10,28.35753
1,Barra Bonita/SC,-26.6526364,-53.4419581,2,119.26058
1,Barra Bonita/SP,-22.490859,-48.558349,506,1400.65327
D1,Barra Bonita/SP,-22.490859,-48.558349,11,30.44898
1,Barra D'Alcântara/PI,-6.5209258,-42.1071089,10,253.10048
1,Barra Funda/RS,-27.9230048,-53.0401045,75,2953.91887
D1,Barra Funda/RS,-27.9230048,-53.0401045,3,118.15675
1,Barra Longa/MG,-20.2833541,-43.0423516,59,1149.87332
1,Barra Mansa/RJ,-22.5394843,-44.1735129,1466,794.95911
D1,Barra Mansa/RJ,-22.5394843,-44.1735129,92,49.88829
1,Barra Velha/SC,-26.6338203,-48.6835001,514,1762.20516
D1,Barra Velha/SC,-26.6338203,-48.6835001,10,34.28415
1,Barra da Estiva/BA,-13.6269662,-41.3278287,9,43.69356
1,Barra de Guabiraba/PE,-8.4173522,-35.6626669,171,1188.73827
D1,Barra de Guabiraba/PE,-8.4173522,-35.6626669,11,76.46854
1,Barra de Santa Rosa/PB,-6.7218007,-36.0564638,73,474.51898
D1,Barra de Santa Rosa/PB,-6.7218007,-36.0564638,1,6.50026
1,Barra de Santana/PB,-7.5230865,-35.9988518,105,1256.13112
D1,Barra de Santana/PB,-7.5230865,-35.9988518,3,35.88946
1,Barra de Santo Antônio/AL,-9.4038098,-35.5117693,126,790.86116
D1,Barra de Santo Antônio/AL,-9.4038098,-35.5117693,9,56.49008
1,Barra de São Francisco/ES,-18.7570902,-40.8916119,552,1236.28219
D1,Barra de São Francisco/ES,-18.7570902,-40.8916119,21,47.03247
1,Barra de São Miguel/AL,-9.8261357,-35.8837777,137,1646.23888
D1,Barra de São Miguel/AL,-9.8261357,-35.8837777,5,60.08171
1,Barra de São Miguel/PB,-7.7528088,-36.3170996,57,944.33400
D1,Barra de São Miguel/PB,-7.7528088,-36.3170996,1,16.56726
1,Barra do Bugres/MT,-15.0683712,-57.1853688,361,1032.43150
D1,Barra do Bugres/MT,-15.0683712,-57.1853688,10,28.59921
1,Barra do Chapéu/SP,-24.472203,-49.023784,42,733.75262
1,Barra do Choça/BA,-14.8638173,-40.5761637,350,1107.48980
D1,Barra do Choça/BA,-14.8638173,-40.5761637,5,15.82128
1,Barra do Corda/MA,-5.496823,-45.248496,3241,3674.10330
D1,Barra do Corda/MA,-5.496823,-45.248496,24,27.20718
1,Barra do Garças/MT,-15.8916033,-52.2615413,1187,1945.51891
D1,Barra do Garças/MT,-15.8916033,-52.2615413,62,101.61935
1,Barra do Guarita/RS,-27.1888016,-53.7147086,54,1662.56158
1,Barra do Jacaré/PR,-23.1151788,-50.1813945,15,539.37433
1,Barra do Mendes/BA,-11.8053298,-42.057037,15,108.18608
1,Barra do Ouro/TO,-7.7113784,-47.6743925,33,718.79765
D1,Barra do Ouro/TO,-7.7113784,-47.6743925,4,87.12699
1,Barra do Piraí/RJ,-22.4703403,-43.8263256,892,888.67635
D1,Barra do Piraí/RJ,-22.4703403,-43.8263256,42,41.84351
1,Barra do Quaraí/RS,-30.208947,-57.5505128,32,759.19336
D1,Barra do Quaraí/RS,-30.208947,-57.5505128,1,23.72479
1,Barra do Ribeiro/RS,-30.2930206,-51.301437,82,607.81262
D1,Barra do Ribeiro/RS,-30.2930206,-51.301437,7,51.88644
1,Barra do Rio Azul/RS,-27.4101581,-52.4117471,4,236.68639
1,Barra do Rocha/BA,-14.2090974,-39.6004395,66,1155.05775
1,Barra do Turvo/SP,-24.756421,-48.5056942,94,1227.31427
D1,Barra do Turvo/SP,-24.756421,-48.5056942,3,39.16960
1,Barra dos Coqueiros/SE,-10.9075694,-37.0386249,1084,3564.96859
D1,Barra dos Coqueiros/SE,-10.9075694,-37.0386249,20,65.77433
1,Barra/BA,-11.0892702,-43.1420453,135,251.96909
D1,Barra/BA,-11.0892702,-43.1420453,3,5.59931
1,Barracão/PR,-26.252395,-53.6349576,59,574.20925
D1,Barracão/PR,-26.252395,-53.6349576,1,9.73236
1,Barracão/RS,-27.6728964,-51.4582928,40,758.29384
D1,Barracão/RS,-27.6728964,-51.4582928,1,18.95735
1,Barras/PI,-4.2446153,-42.2920241,2327,4944.12102
D1,Barras/PI,-4.2446153,-42.2920241,49,104.10912
1,Barreira/CE,-4.2883361,-38.641094,321,1431.43813
D1,Barreira/CE,-4.2883361,-38.641094,19,84.72687
1,Barreiras do Piauí/PI,-9.9224524,-45.4763776,19,567.50299
1,Barreiras/BA,-12.1440031,-44.9967406,3250,2090.85236
D1,Barreiras/BA,-12.1440031,-44.9967406,54,34.74032
1,Barreirinha/AM,-2.798863,-57.067897,844,2634.12503
D1,Barreirinha/AM,-2.798863,-57.067897,12,37.45201
1,Barreirinhas/MA,-2.7541271,-42.8259693,703,1124.29632
D1,Barreirinhas/MA,-2.7541271,-42.8259693,23,36.78352
1,Barreiros/PE,-8.8159644,-35.1831905,298,698.56302
D1,Barreiros/PE,-8.8159644,-35.1831905,40,93.76685
1,Barretos/SP,-20.5531437,-48.5697509,3121,2556.14343
D1,Barretos/SP,-20.5531437,-48.5697509,91,74.53030
1,Barrinha/SP,-21.1898849,-48.1550642,506,1542.11874
D1,Barrinha/SP,-21.1898849,-48.1550642,19,57.90564
1,Barro Alto/BA,-11.7618025,-41.9094904,17,113.85708
D1,Barro Alto/BA,-11.7618025,-41.9094904,1,6.69748
1,Barro Alto/GO,-14.9696025,-48.9190985,181,1620.84714
D1,Barro Alto/GO,-14.9696025,-48.9190985,2,17.90991
1,Barro Duro/PI,-5.8180139,-42.5106589,291,4138.22526
D1,Barro Duro/PI,-5.8180139,-42.5106589,5,71.10353
1,Barro Preto/BA,-14.8068289,-39.4727588,211,3773.92238
D1,Barro Preto/BA,-14.8068289,-39.4727588,3,53.65766
1,Barro/CE,-7.1713587,-38.7742136,144,634.92063
D1,Barro/CE,-7.1713587,-38.7742136,8,35.27337
1,Barrocas/BA,-11.5165,-39.099282894736845,98,613.34335
1,Barrolândia/TO,-9.837246,-48.7264346,65,1154.11932
D1,Barrolândia/TO,-9.837246,-48.7264346,1,17.75568
1,Barroquinha/CE,-3.0200371,-41.1339229,751,5000.99887
D1,Barroquinha/CE,-3.0200371,-41.1339229,17,113.20503
1,Barros Cassal/RS,-29.094938,-52.5832366,14,125.01116
D1,Barros Cassal/RS,-29.094938,-52.5832366,1,8.92937
1,Barroso/MG,-21.187222,-43.976111,118,567.03508
1,Barueri/SP,-23.5112184,-46.8764612,5272,1922.81040
D1,Barueri/SP,-23.5112184,-46.8764612,318,115.98136
1,Barão de Antonina/SP,-23.6295651,-49.5632104,10,288.26751
1,Barão de Cocais/MG,-19.9452437,-43.4870298,346,1065.10697
D1,Barão de Cocais/MG,-19.9452437,-43.4870298,2,6.15669
1,Barão de Cotegipe/RS,-27.6214694,-52.3765316,96,1449.49419
D1,Barão de Cotegipe/RS,-27.6214694,-52.3765316,3,45.29669
1,Barão de Grajaú/MA,-6.7542591,-43.0263477,16,85.01594
D1,Barão de Grajaú/MA,-6.7542591,-43.0263477,1,5.31350
1,Barão de Melgaço/MT,-16.195776,-55.9668049,82,957.49650
D1,Barão de Melgaço/MT,-16.195776,-55.9668049,4,46.70715
1,Barão de Monte Alto/MG,-21.244722,-42.2375,47,870.85418
D1,Barão de Monte Alto/MG,-21.244722,-42.2375,1,18.52881
1,Barão do Triunfo/RS,-30.3909877,-51.7375349,60,801.38907
D1,Barão do Triunfo/RS,-30.3909877,-51.7375349,1,13.35648
1,Barão/RS,-29.372474,-51.494908,49,794.03662
D1,Barão/RS,-29.372474,-51.494908,2,32.40966
1,Bastos/SP,-21.9222474,-50.7317727,52,248.17449
D1,Bastos/SP,-21.9222474,-50.7317727,2,9.54517
1,Bataguassu/MS,-21.715899,-52.422058,712,3092.42530
D1,Bataguassu/MS,-21.715899,-52.422058,5,21.71647
1,Batalha/AL,-9.6733809,-37.1265481,493,2704.03686
D1,Batalha/AL,-9.6733809,-37.1265481,6,32.90917
1,Batalha/PI,-4.022391,-42.0780926,354,1318.09212
D1,Batalha/PI,-4.022391,-42.0780926,7,26.06397
1,Batatais/SP,-20.892867,-47.592149,383,612.72157
D1,Batatais/SP,-20.892867,-47.592149,17,27.19652
1,Batayporã/MS,-22.2976466,-53.2685608,92,812.07521
D1,Batayporã/MS,-22.2976466,-53.2685608,3,26.48071
1,Baturité/CE,-4.3290203,-38.8821055,543,1518.88112
D1,Baturité/CE,-4.3290203,-38.8821055,29,81.11888
1,Bauru/SP,-22.3218102,-49.0705863,6548,1737.70892
D1,Bauru/SP,-22.3218102,-49.0705863,134,35.56093
1,Bayeux/PB,-7.1301631,-34.936532,1731,1786.74649
D1,Bayeux/PB,-7.1301631,-34.936532,95,98.05945
1,Baía Formosa/RN,-6.3691885,-35.0063741,86,927.62377
D1,Baía Formosa/RN,-6.3691885,-35.0063741,5,53.93161
1,Baía da Traição/PB,-6.691258,-34.9371244,616,6849.77204
D1,Baía da Traição/PB,-6.691258,-34.9371244,6,66.71856
1,Bebedouro/SP,-20.949077,-48.479083,504,650.35615
D1,Bebedouro/SP,-20.949077,-48.479083,21,27.09817
1,Beberibe/CE,-4.1810469,-38.1298101,724,1351.42702
D1,Beberibe/CE,-4.1810469,-38.1298101,28,52.26513
1,Bela Cruz/CE,-3.0529129,-40.167582,1156,3546.99150
D1,Bela Cruz/CE,-3.0529129,-40.167582,21,64.43497
1,Bela Vista da Caroba/PR,-25.8792818,-53.6672545,17,484.19254
1,Bela Vista de Goiás/GO,-16.9692949,-48.9513071,516,1721.43453
D1,Bela Vista de Goiás/GO,-16.9692949,-48.9513071,8,26.68891
1,Bela Vista de Minas/MG,-19.8289721,-43.0973688,32,312.04291
D1,Bela Vista de Minas/MG,-19.8289721,-43.0973688,1,9.75134
1,Bela Vista do Maranhão/MA,-3.7416367,-45.2514192,125,1115.17531
D1,Bela Vista do Maranhão/MA,-3.7416367,-45.2514192,3,26.76421
1,Bela Vista do Paraíso/PR,-22.9948493,-51.1907996,97,629.99286
D1,Bela Vista do Paraíso/PR,-22.9948493,-51.1907996,4,25.97909
1,Bela Vista do Piauí/PI,-7.9716353,-41.8715061,13,323.78580
1,Bela Vista do Toldo/SC,-26.274625,-50.466354,5,78.90169
1,Bela Vista/MS,-22.107327,-56.5317344,18,73.08458
1,Belford Roxo/RJ,-22.7667284,-43.4033603,7088,1387.33935
D1,Belford Roxo/RJ,-22.7667284,-43.4033603,253,49.51987
1,Belmiro Braga/MG,-21.9486291,-43.413564,12,349.95626
D1,Belmiro Braga/MG,-21.9486291,-43.413564,2,58.32604
1,Belmonte/BA,-15.8630837,-38.8792845,365,1564.64335
D1,Belmonte/BA,-15.8630837,-38.8792845,2,8.57339
1,Belmonte/SC,-26.8448262,-53.578916,2,73.90983
1,Belo Campo/BA,-15.0338286,-41.2585109,26,151.06618
D1,Belo Campo/BA,-15.0338286,-41.2585109,1,5.81024
1,Belo Horizonte/MG,-19.9227318,-43.9450948,31840,1267.48060
D1,Belo Horizonte/MG,-19.9227318,-43.9450948,891,35.46876
1,Belo Jardim/PE,-8.3338293,-36.4176419,895,1170.86827
D1,Belo Jardim/PE,-8.3338293,-36.4176419,30,39.24698
1,Belo Monte/AL,-9.8269944,-37.2787165,75,1118.73508
D1,Belo Monte/AL,-9.8269944,-37.2787165,2,29.83294
1,Belo Oriente/MG,-19.2232523,-42.4807033,410,1535.58052
D1,Belo Oriente/MG,-19.2232523,-42.4807033,9,33.70787
1,Belo Vale/MG,-20.407778,-44.024167,68,881.39987
D1,Belo Vale/MG,-20.407778,-44.024167,1,12.96176
1,Belterra/PA,-2.636091,-54.937392,222,1251.97383
D1,Belterra/PA,-2.636091,-54.937392,7,39.47665
1,Belágua/MA,-3.1604031,-43.5085052,213,2851.78739
D1,Belágua/MA,-3.1604031,-43.5085052,1,13.38867
1,Belém de Maria/PE,-8.6242497,-35.8388934,91,753.74803
D1,Belém de Maria/PE,-8.6242497,-35.8388934,1,8.28295
1,Belém do Brejo do Cruz/PB,-6.1880727,-37.5332267,50,681.01335
D1,Belém do Brejo do Cruz/PB,-6.1880727,-37.5332267,1,13.62027
1,Belém do Piauí/PI,-7.3767305,-40.9712156,82,2299.49523
D1,Belém do Piauí/PI,-7.3767305,-40.9712156,2,56.08525
1,Belém do São Francisco/PE,-8.7517707,-38.9625715,96,463.11930
1,Belém/AL,-9.5715351,-36.492841,51,1174.03315
D1,Belém/AL,-9.5715351,-36.492841,1,23.02026
1,Belém/PA,-1.45056,-48.4682453,30805,2063.64784
D1,Belém/PA,-1.45056,-48.4682453,2090,140.01052
1,Belém/PB,-6.6967586,-35.5369626,1017,5753.56415
D1,Belém/PB,-6.6967586,-35.5369626,11,62.23127
1,Beneditinos/PI,-5.4565671,-42.3605061,196,1872.55183
D1,Beneditinos/PI,-5.4565671,-42.3605061,8,76.43069
1,Benedito Leite/MA,-7.2173453,-44.5523331,104,1846.59091
1,Benedito Novo/SC,-26.7840657,-49.3629511,100,858.22176
D1,Benedito Novo/SC,-26.7840657,-49.3629511,2,17.16444
1,Benevides/PA,-1.3555577,-48.252235,1370,2183.71934
D1,Benevides/PA,-1.3555577,-48.252235,50,79.69779
1,Benjamin Constant do Sul/RS,-27.5105555,-52.6007689,65,3259.77934
1,Benjamin Constant/AM,-4.3782748,-70.0290603,1537,3575.74912
D1,Benjamin Constant/AM,-4.3782748,-70.0290603,37,86.07854
1,Bento Fernandes/RN,-5.6926846,-35.8207423,24,436.60178
D1,Bento Fernandes/RN,-5.6926846,-35.8207423,1,18.19174
1,Bento Gonçalves/RS,-29.1654014,-51.5197627,2687,2230.72708
D1,Bento Gonçalves/RS,-29.1654014,-51.5197627,99,82.18905
1,Bento de Abreu/SP,-21.2707225,-50.8120444,30,1006.71141
1,Bequimão/MA,-2.4495376,-44.7884889,207,972.74436
D1,Bequimão/MA,-2.4495376,-44.7884889,10,46.99248
1,Berilo/MG,-16.9515764,-42.4643732,5,41.90412
1,Bernardino Batista/PB,-6.4532173,-38.5495418,12,342.75921
1,Bernardino de Campos/SP,-23.0140216,-49.4760724,89,798.34948
D1,Bernardino de Campos/SP,-23.0140216,-49.4760724,3,26.91066
1,Bernardo Sayão/TO,-7.8794244,-48.8968905,30,672.79659
D1,Bernardo Sayão/TO,-7.8794244,-48.8968905,1,22.42655
1,Bernardo do Mearim/MA,-4.6315929,-44.7617508,49,810.85554
D1,Bernardo do Mearim/MA,-4.6315929,-44.7617508,3,49.64422
1,Bertioga/SP,-23.848568,-46.139586,1631,2578.69690
D1,Bertioga/SP,-23.848568,-46.139586,37,58.49895
1,Bertolínia/PI,-7.6372159,-43.9540611,129,2345.02818
D1,Bertolínia/PI,-7.6372159,-43.9540611,1,18.17851
1,Bertópolis/MG,-17.063333,-40.573889,7,152.04170
1,Beruri/AM,-3.9007135,-61.3717319,713,3623.15158
D1,Beruri/AM,-3.9007135,-61.3717319,9,45.73403
1,Betim/MG,-19.968056,-44.198333,4545,1034.50630
D1,Betim/MG,-19.968056,-44.198333,159,36.19065
1,Betânia do Piauí/PI,-8.1460635,-40.7961387,14,225.62450
D1,Betânia do Piauí/PI,-8.1460635,-40.7961387,1,16.11604
1,Betânia/PE,-8.2742779,-38.0351767,48,377.38816
D1,Betânia/PE,-8.2742779,-38.0351767,2,15.72451
1,Bezerros/PE,-8.2372132,-35.7558262,854,1404.65147
D1,Bezerros/PE,-8.2372132,-35.7558262,44,72.37080
1,Bias Fortes/MG,-21.605833,-43.756944,13,384.72921
1,Bicas/MG,-21.7213723,-43.0604327,47,324.27211
D1,Bicas/MG,-21.7213723,-43.0604327,1,6.89941
1,Biguaçu/SC,-27.4961277,-48.6542432,1621,2367.07992
D1,Biguaçu/SC,-27.4961277,-48.6542432,30,43.80777
1,Bilac/SP,-21.403962,-50.47464,76,945.97959
D1,Bilac/SP,-21.403962,-50.47464,2,24.89420
1,Biquinhas/MG,-18.783611,-45.502222,27,1073.55865
1,Birigui/SP,-21.2908491,-50.34144,1654,1337.77641
D1,Birigui/SP,-21.2908491,-50.34144,59,47.71996
1,Biritiba-Mirim/SP,-23.5697765,-46.0407456,284,871.21909
D1,Biritiba-Mirim/SP,-23.5697765,-46.0407456,18,55.21811
1,Biritinga/BA,-11.6227908,-38.8066738,70,438.07497
1,Bituruna/PR,-26.161281,-51.5533319,36,219.65953
D1,Bituruna/PR,-26.161281,-51.5533319,1,6.10165
1,Blumenau/SC,-26.9195567,-49.0658025,8162,2285.00080
D1,Blumenau/SC,-26.9195567,-49.0658025,119,33.31476
1,Boa Esperança do Iguaçu/PR,-25.6362851,-53.2139114,32,1278.46584
1,Boa Esperança do Sul/SP,-21.9930206,-48.3917372,124,830.93212
D1,Boa Esperança do Sul/SP,-21.9930206,-48.3917372,3,20.10320
1,Boa Esperança/ES,-18.5395472,-40.2904088,315,2094.83275
D1,Boa Esperança/ES,-18.5395472,-40.2904088,13,86.45341
1,Boa Esperança/MG,-21.0901253,-45.5660195,82,204.35118
D1,Boa Esperança/MG,-21.0901253,-45.5660195,7,17.44461
1,Boa Esperança/PR,-24.2411024,-52.7860277,32,779.53715
1,Boa Hora/PI,-4.4094627,-42.1255341,88,1297.74370
1,Boa Nova/BA,-14.365907,-40.2063056,79,625.34632
D1,Boa Nova/BA,-14.365907,-40.2063056,2,15.83155
1,Boa Ventura/PB,-7.4202462,-38.2156782,6,111.81513
1,Boa Viagem/CE,-5.1261877,-39.7300055,497,912.42886
D1,Boa Viagem/CE,-5.1261877,-39.7300055,22,40.38921
1,Boa Vista da Aparecida/PR,-25.4357216,-53.4067721,91,1198.78804
D1,Boa Vista da Aparecida/PR,-25.4357216,-53.4067721,3,39.52048
1,Boa Vista das Missões/RS,-27.6677983,-53.3127622,4,190.65777
1,Boa Vista do Buricá/RS,-27.6687782,-54.1111913,61,908.82002
1,Boa Vista do Cadeado/RS,-28.5783827,-53.8123759,4,161.94332
1,Boa Vista do Gurupi/MA,-1.7981168,-46.3071882,13,139.98062
D1,Boa Vista do Gurupi/MA,-1.7981168,-46.3071882,3,32.30322
1,Boa Vista do Incra/RS,-28.8195551,-53.3866624,10,384.17211
1,Boa Vista do Ramos/AM,-2.9716927,-57.5869819,317,1650.43994
D1,Boa Vista do Ramos/AM,-2.9716927,-57.5869819,2,10.41287
1,Boa Vista do Sul/RS,-29.3510488,-51.6779679,43,1545.09522
D1,Boa Vista do Sul/RS,-29.3510488,-51.6779679,1,35.93245
1,Boa Vista do Tupim/BA,-12.6605988,-40.6083594,96,516.79587
1,Boa Vista/PB,-7.2620711,-36.2415161,102,1446.60332
D1,Boa Vista/PB,-7.2620711,-36.2415161,1,14.18239
1,Boa Vista/RR,2.8208478,-60.6719582,31539,7900.29383
D1,Boa Vista/RR,2.8208478,-60.6719582,450,112.72178
1,Boca da Mata/AL,-9.6452054,-36.2116658,1201,4402.33129
D1,Boca da Mata/AL,-9.6452054,-36.2116658,20,73.31110
1,Boca do Acre/AM,-8.7553487,-67.3930873,1090,3177.10155
D1,Boca do Acre/AM,-8.7553487,-67.3930873,11,32.06249
1,Bocaina de Minas/MG,-22.167778,-44.394722,10,196.46365
1,Bocaina do Sul/SC,-27.745494,-49.942279,11,316.63788
D1,Bocaina do Sul/SC,-27.745494,-49.942279,2,57.57052
1,Bocaina/PI,-6.9445939,-41.3224599,98,2177.77778
1,Bocaina/SP,-22.1421831,-48.522276,101,819.20675
D1,Bocaina/SP,-22.1421831,-48.522276,3,24.33287
1,Bocaiúva do Sul/PR,-25.206591,-49.114131,160,1236.09394
D1,Bocaiúva do Sul/PR,-25.206591,-49.114131,2,15.45117
1,Bocaiúva/MG,-17.1160208,-43.8122678,216,432.18152
D1,Bocaiúva/MG,-17.1160208,-43.8122678,2,4.00168
1,Bodocó/PE,-7.777592,-39.933797,173,453.52068
D1,Bodocó/PE,-7.777592,-39.933797,8,20.97205
1,Bodoquena/MS,-20.5508775,-56.6769653,8,101.58730
1,Bodó/RN,-5.9866104,-36.4134824,8,359.87404
1,Bofete/SP,-23.1019554,-48.2610535,110,937.76641
D1,Bofete/SP,-23.1019554,-48.2610535,3,25.57545
1,Boituva/SP,-23.2838893,-47.6738231,683,1119.72720
D1,Boituva/SP,-23.2838893,-47.6738231,15,24.59137
1,Bom Conselho/PE,-9.169191,-36.685683,550,1132.75940
D1,Bom Conselho/PE,-9.169191,-36.685683,17,35.01256
1,Bom Despacho/MG,-19.7375242,-45.2517288,374,739.05741
D1,Bom Despacho/MG,-19.7375242,-45.2517288,5,9.88045
1,Bom Jardim da Serra/SC,-28.3380324,-49.625588,74,1560.19397
D1,Bom Jardim da Serra/SC,-28.3380324,-49.625588,1,21.08370
1,Bom Jardim de Goiás/GO,-16.2062659,-52.172793,103,1165.02658
D1,Bom Jardim de Goiás/GO,-16.2062659,-52.172793,2,22.62188
1,Bom Jardim de Minas/MG,-21.9476466,-44.1906033,5,77.23200
1,Bom Jardim/MA,-3.54129,-45.606004,816,1960.12491
D1,Bom Jardim/MA,-3.54129,-45.606004,22,52.84650
1,Bom Jardim/PE,-7.7961572,-35.5871696,576,1469.98775
D1,Bom Jardim/PE,-7.7961572,-35.5871696,26,66.35361
1,Bom Jardim/RJ,-22.1515328,-42.4186683,126,459.08329
D1,Bom Jardim/RJ,-22.1515328,-42.4186683,4,14.57407
1,Bom Jesus da Lapa/BA,-13.250571,-43.410754,247,357.20484
D1,Bom Jesus da Lapa/BA,-13.250571,-43.410754,1,1.44617
1,Bom Jesus da Penha/MG,-21.0165299,-46.5226644,27,640.26559
1,Bom Jesus da Serra/BA,-14.3724084,-40.5047119,77,779.35223
1,Bom Jesus das Selvas/MA,-4.4878075,-46.8526639,1500,4408.13448
D1,Bom Jesus das Selvas/MA,-4.4878075,-46.8526639,10,29.38756
1,Bom Jesus de Goiás/GO,-18.2174587,-49.739721,178,705.90102
D1,Bom Jesus de Goiás/GO,-18.2174587,-49.739721,6,23.79442
1,Bom Jesus do Amparo/MG,-19.7045132,-43.4752911,21,345.22440
1,Bom Jesus do Araguaia/MT,-12.1725897,-51.5074425,53,805.47112
1,Bom Jesus do Galho/MG,-19.8283191,-42.3162256,74,495.48042
D1,Bom Jesus do Galho/MG,-19.8283191,-42.3162256,6,40.17409
1,Bom Jesus do Itabapoana/RJ,-21.1341025,-41.680095,681,1835.77744
D1,Bom Jesus do Itabapoana/RJ,-21.1341025,-41.680095,20,53.91417
1,Bom Jesus do Norte/ES,-21.1254776,-41.6711646,262,2636.87601
D1,Bom Jesus do Norte/ES,-21.1254776,-41.6711646,5,50.32206
1,Bom Jesus do Oeste/SC,-26.6929713,-53.0967453,16,746.96545
1,Bom Jesus do Sul/PR,-26.1922507,-53.6002033,13,367.12793
D1,Bom Jesus do Sul/PR,-26.1922507,-53.6002033,1,28.24061
1,Bom Jesus do Tocantins/PA,-5.0471796,-48.5978362,327,1925.68164
D1,Bom Jesus do Tocantins/PA,-5.0471796,-48.5978362,2,11.77787
1,Bom Jesus do Tocantins/TO,-8.96306,-48.165043,51,1042.09236
1,Bom Jesus dos Perdões/SP,-23.1353864,-46.4648052,205,805.56429
D1,Bom Jesus dos Perdões/SP,-23.1353864,-46.4648052,1,3.92958
1,Bom Jesus/PB,-6.8156725,-38.6551841,14,546.66146
1,Bom Jesus/PI,-9.0711644,-44.3583926,940,3733.26979
D1,Bom Jesus/PI,-9.0711644,-44.3583926,11,43.68720
1,Bom Jesus/RN,-5.9887544,-35.5821149,115,1126.34672
D1,Bom Jesus/RN,-5.9887544,-35.5821149,4,39.17728
1,Bom Jesus/RS,-28.6692723,-50.4346894,90,793.02141
1,Bom Jesus/SC,-26.7350604,-52.3916519,75,2491.69435
1,Bom Lugar/MA,-4.3728019,-45.0366054,206,1264.26906
D1,Bom Lugar/MA,-4.3728019,-45.0366054,1,6.13723
1,Bom Princípio do Piauí/PI,-3.1912777,-41.6430185,39,692.71758
D1,Bom Princípio do Piauí/PI,-3.1912777,-41.6430185,3,53.28597
1,Bom Princípio/RS,-29.489788,-51.3566782,263,1871.22021
D1,Bom Princípio/RS,-29.489788,-51.3566782,1,7.11491
1,Bom Progresso/RS,-27.5490948,-53.8655601,12,617.91967
1,Bom Repouso/MG,-22.4657069,-46.1485376,34,322.36655
D1,Bom Repouso/MG,-22.4657069,-46.1485376,2,18.96274
1,Bom Retiro do Sul/RS,-29.6000007,-51.9359243,168,1362.75146
D1,Bom Retiro do Sul/RS,-29.6000007,-51.9359243,3,24.33485
1,Bom Retiro/SC,-27.798993,-49.486994,68,682.31989
D1,Bom Retiro/SC,-27.798993,-49.486994,2,20.06823
1,Bom Sucesso de Itararé/SP,-24.3190016,-49.1446207,2,50.58169
1,Bom Sucesso do Sul/PR,-26.0749256,-52.8348629,5,153.18627
1,Bom Sucesso/MG,-21.0323516,-44.7598082,26,147.70210
D1,Bom Sucesso/MG,-21.0323516,-44.7598082,1,5.68085
1,Bom Sucesso/PB,-6.4458948,-37.9297662,23,462.31156
1,Bom Sucesso/PR,-23.7088019,-51.7651297,75,1066.55290
D1,Bom Sucesso/PR,-23.7088019,-51.7651297,1,14.22071
1,Bombinhas/SC,-27.1519159,-48.4875691,909,4598.10815
D1,Bombinhas/SC,-27.1519159,-48.4875691,8,40.46740
1,Bonfim do Piauí/PI,-9.1648678,-42.8734415,68,1199.29453
D1,Bonfim do Piauí/PI,-9.1648678,-42.8734415,1,17.63668
1,Bonfim/MG,-20.3266626, -44.2386157,29,422.24811
D1,Bonfim/MG,-20.3266626, -44.2386157,3,43.68084
1,Bonfim/RR,3.3613818,-59.8427241,669,5391.24829
D1,Bonfim/RR,3.3613818,-59.8427241,11,88.64534
1,Bonfinópolis de Minas/MG,-16.5660011,-45.98645,56,1019.47934
D1,Bonfinópolis de Minas/MG,-16.5660011,-45.98645,1,18.20499
1,Bonfinópolis/GO,-16.6172709,-48.9615701,194,1998.76365
D1,Bonfinópolis/GO,-16.6172709,-48.9615701,5,51.51453
1,Boninal/BA,-12.7095183,-41.8299984,7,48.71938
D1,Boninal/BA,-12.7095183,-41.8299984,1,6.95991
1,Bonito de Minas/MG,-15.3191266,-44.7544,5,44.52360
1,Bonito de Santa Fé/PB,-7.3143332,-38.5146677,40,335.65495
D1,Bonito de Santa Fé/PB,-7.3143332,-38.5146677,1,8.39137
1,Bonito/BA,-11.9665473,-41.2649896,33,196.85039
D1,Bonito/BA,-11.9665473,-41.2649896,2,11.93033
1,Bonito/MS,-21.1264766,-56.4902208,315,1433.38187
D1,Bonito/MS,-21.1264766,-56.4902208,2,9.10084
1,Bonito/PA,-1.3605722,-47.3049907,247,1516.64006
D1,Bonito/PA,-1.3605722,-47.3049907,7,42.98170
1,Bonito/PE,-8.4721161,-35.7314591,288,755.23155
D1,Bonito/PE,-8.4721161,-35.7314591,23,60.31363
1,Bonópolis/GO,-13.649331,-49.8329113,16,363.22361
D1,Bonópolis/GO,-13.649331,-49.8329113,1,22.70148
1,Boqueirão do Leão/RS,-29.30332,-52.4296817,17,220.37853
1,Boqueirão do Piauí/PI,-4.4850148,-42.1095161,130,2029.03075
D1,Boqueirão do Piauí/PI,-4.4850148,-42.1095161,1,15.60793
1,Boqueirão/PB,-7.487004,-36.130887,372,2089.41811
D1,Boqueirão/PB,-7.487004,-36.130887,6,33.70029
1,Boquim/SE,-11.1450175,-37.6204228,468,1745.22673
D1,Boquim/SE,-11.1450175,-37.6204228,14,52.20764
1,Boquira/BA,-12.8184859,-42.7270883,31,144.13242
1,Boracéia/SP,-22.195355,-48.7801925,61,1264.77296
D1,Boracéia/SP,-22.195355,-48.7801925,1,20.73398
1,Borba/AM,-4.3934778,-59.5947721,704,1710.35689
D1,Borba/AM,-4.3934778,-59.5947721,22,53.44865
1,Borborema/PB,-6.8066718,-35.5990191,41,779.02337
1,Borborema/SP,-21.6212706,-49.074135,128,797.70659
D1,Borborema/SP,-21.6212706,-49.074135,1,6.23208
1,Borda da Mata/MG,-22.274167,-46.165278,196,1009.68473
D1,Borda da Mata/MG,-22.274167,-46.165278,10,51.51453
1,Borebi/SP,-22.5700178,-48.9714871,28,1055.40897
D1,Borebi/SP,-22.5700178,-48.9714871,1,37.69318
1,Borrazópolis/PR,-23.9393362,-51.5850786,42,637.13592
1,Borá/SP,-22.2701088,-50.544407,3,358.42294
1,Bossoroca/RS,-28.7278885,-54.9120278,16,254.81765
D1,Bossoroca/RS,-28.7278885,-54.9120278,1,15.92610
1,Botelhos/MG,-21.65,-46.394722,47,313.94028
D1,Botelhos/MG,-21.65,-46.394722,1,6.67958
1,Botucatu/SP,-22.8879628,-48.4410712,1777,1212.99412
D1,Botucatu/SP,-22.8879628,-48.4410712,31,21.16084
1,Botuporã/BA,-13.3744752,-42.5198469,3,29.38008
D1,Botuporã/BA,-13.3744752,-42.5198469,1,9.79336
1,Botuverá/SC,-27.200749,-49.068892,124,2363.70568
1,Bozano/RS,-28.3669953,-53.7705165,5,235.51578
1,Braga/RS,-27.617348,-53.740514,12,357.88846
1,Braganey/PR,-24.8179919,-53.118506,45,829.18740
D1,Braganey/PR,-24.8179919,-53.118506,2,36.85277
1,Bragança Paulista/SP,-22.9520235,-46.5418586,2143,1270.54332
D1,Bragança Paulista/SP,-22.9520235,-46.5418586,47,27.86539
1,Bragança/PA,-1.0573967,-46.7635406,2240,1754.30353
D1,Bragança/PA,-1.0573967,-46.7635406,93,72.83492
1,Branquinha/AL,-9.2478057,-36.0152009,259,2468.07700
D1,Branquinha/AL,-9.2478057,-36.0152009,6,57.17553
1,Brasil Novo/PA,-3.3055853,-52.539198,638,4229.08657
D1,Brasil Novo/PA,-3.3055853,-52.539198,9,59.65796
1,Brasileira/PI,-4.131182,-41.7824969,90,1080.56189
D1,Brasileira/PI,-4.131182,-41.7824969,1,12.00624
1,Brasilândia de Minas/MG,-17.0096469,-46.0087183,141,852.58193
D1,Brasilândia de Minas/MG,-17.0096469,-46.0087183,1,6.04668
1,Brasilândia do Sul/PR,-24.1975793,-53.527551,23,867.59713
1,Brasilândia do Tocantins/TO,-8.3886619,-48.4842729,29,1317.58292
1,Brasilândia/MS,-21.255575,-52.0365617,85,715.97035
D1,Brasilândia/MS,-21.255575,-52.0365617,2,16.84636
1,Brasiléia/AC,-11.0010413,-68.7487894,1098,4178.40018
D1,Brasiléia/AC,-11.0010413,-68.7487894,17,64.69290
1,Brasnorte/MT,-12.1227151,-58.0050109,76,385.88474
1,Brasília de Minas/MG,-16.2075114,-44.430559,38,117.47612
D1,Brasília de Minas/MG,-16.2075114,-44.430559,2,6.18295
1,Brasília/DF,-15.7934036,-47.8823172,156863,5202.29048
D1,Brasília/DF,-15.7934036,-47.8823172,2425,80.42403
1,Brazabrantes/GO,-16.4291635,-49.3858216,64,1728.32838
D1,Brazabrantes/GO,-16.4291635,-49.3858216,2,54.01026
1,Brazópolis/MG,-22.4742842,-45.6165577,229,1583.78864
D1,Brazópolis/MG,-22.4742842,-45.6165577,3,20.74832
1,Braço do Norte/SC,-28.2728633,-49.1622712,1507,4505.23169
D1,Braço do Norte/SC,-28.2728633,-49.1622712,14,41.85351
1,Braço do Trombudo/SC,-27.358578,-49.882145,29,774.77959
D1,Braço do Trombudo/SC,-27.358578,-49.882145,1,26.71654
1,Braúna/SP,-21.5015319,-50.3175246,71,1248.68097
D1,Braúna/SP,-21.5015319,-50.3175246,6,105.52234
1,Braúnas/MG,-19.055556,-42.716111,16,333.26390
D1,Braúnas/MG,-19.055556,-42.716111,2,41.65799
1,Brejetuba/ES,-20.1465817,-41.2902303,399,3216.70429
1,Brejinho de Nazaré/TO,-11.0205883,-48.5722906,56,1018.73749
D1,Brejinho de Nazaré/TO,-11.0205883,-48.5722906,3,54.57522
1,Brejinho/PE,-7.3482153,-37.28538,58,774.67611
1,Brejinho/RN,-6.1957907,-35.3583019,146,1149.69683
D1,Brejinho/RN,-6.1957907,-35.3583019,3,23.62391
1,Brejo Alegre/SP,-21.1671191,-50.1850393,31,1082.02443
D1,Brejo Alegre/SP,-21.1671191,-50.1850393,1,34.90401
1,Brejo Grande do Araguaia/PA,-5.7011449,-48.4037308,239,3238.48238
D1,Brejo Grande do Araguaia/PA,-5.7011449,-48.4037308,2,27.10027
1,Brejo Grande/SE,-10.4287358,-36.4667918,162,1949.69310
D1,Brejo Grande/SE,-10.4287358,-36.4667918,6,72.21086
1,Brejo Santo/CE,-7.4909841,-38.9859152,1199,2423.34822
D1,Brejo Santo/CE,-7.4909841,-38.9859152,19,38.40168
1,Brejo da Madre de Deus/PE,-8.1409718,-36.3712527,847,1669.22865
D1,Brejo da Madre de Deus/PE,-8.1409718,-36.3712527,18,35.47357
1,Brejo de Areia/MA,-4.3316785,-45.5833334,196,2133.21724
D1,Brejo de Areia/MA,-4.3316785,-45.5833334,1,10.88376
1,Brejo do Cruz/PB,-6.32926065,-37.48746163303929,412,2917.43379
D1,Brejo do Cruz/PB,-6.32926065,-37.48746163303929,7,49.56805
1,Brejo do Piauí/PI,-8.207583,-42.8359849,9,232.25806
1,Brejo dos Santos/PB,-6.3769367,-37.8243125,48,744.30144
1,Brejo/MA,-3.6804397,-42.7529313,645,1772.12408
D1,Brejo/MA,-3.6804397,-42.7529313,18,49.45463
1,Brejolândia/BA,-12.4843845,-43.9611861,4,37.88955
D1,Brejolândia/BA,-12.4843845,-43.9611861,1,9.47239
1,Brejão/PE,-9.029146,-36.566034,28,311.35327
1,Brejões/BA,-13.1033754,-39.7909837,35,244.84085
1,Breu Branco/PA,-3.7785073,-49.5684795,291,440.60200
D1,Breu Branco/PA,-3.7785073,-49.5684795,20,30.28192
1,Breves/PA,-1.68036,-50.479085,2150,2093.45576
D1,Breves/PA,-1.68036,-50.479085,85,82.76453
1,Britânia/GO,-15.2427599,-51.1602061,61,1055.54594
D1,Britânia/GO,-15.2427599,-51.1602061,1,17.30403
1,Brochier/RS,-29.556766,-51.5963047,23,453.29129
1,Brodowski/SP,-20.984532,-47.657217,388,1555.79614
D1,Brodowski/SP,-20.984532,-47.657217,14,56.13697
1,Brotas/SP,-22.2840884,-48.1267265,100,409.78568
D1,Brotas/SP,-22.2840884,-48.1267265,1,4.09786
1,Brumadinho/MG,-20.143611,-44.2,705,1757.97322
D1,Brumadinho/MG,-20.143611,-44.2,7,17.45505
1,Brumado/BA,-14.29507325,-41.659307508575985,799,1189.07657
D1,Brumado/BA,-14.29507325,-41.659307508575985,8,11.90565
1,Brunópolis/SC,-27.310953,-50.837585,28,1157.02479
D1,Brunópolis/SC,-27.310953,-50.837585,1,41.32231
1,Brusque/SC,-27.0964628,-48.9136323,4053,3008.39500
D1,Brusque/SC,-27.0964628,-48.9136323,50,37.11319
1,Brás Pires/MG,-20.8483109,-43.2430524,5,115.39349
1,Bueno Brandão/MG,-22.441976,-46.3517971,41,372.69339
D1,Bueno Brandão/MG,-22.441976,-46.3517971,3,27.27025
1,Buenos Aires/PE,-7.7218931,-35.326587,44,334.47358
D1,Buenos Aires/PE,-7.7218931,-35.326587,7,53.21171
1,Buenópolis/MG,-17.8756607,-44.1749365,87,839.36324
D1,Buenópolis/MG,-17.8756607,-44.1749365,1,9.64785
1,Buerarema/BA,-14.9571177,-39.3008035,406,2212.65464
D1,Buerarema/BA,-14.9571177,-39.3008035,12,65.39866
1,Bugre/MG,-19.4257687,-42.2556,41,1029.63335
D1,Bugre/MG,-19.4257687,-42.2556,1,25.11301
1,Bujari/AC,-9.8309656,-67.9520886,362,3526.20300
D1,Bujari/AC,-9.8309656,-67.9520886,6,58.44535
1,Bujaru/PA,-1.5169239,-48.0410699,501,1719.75834
D1,Bujaru/PA,-1.5169239,-48.0410699,21,72.08568
1,Buri/SP,-23.79849,-48.598924,232,1167.11943
D1,Buri/SP,-23.79849,-48.598924,4,20.12275
1,Buritama/SP,-21.0664017,-50.1448077,218,1271.58189
D1,Buritama/SP,-21.0664017,-50.1448077,9,52.49650
1,Buriti Alegre/GO,-18.1377879,-49.0404411,203,2146.10424
1,Buriti Bravo/MA,-5.8391884,-43.8367876,271,1134.65081
D1,Buriti Bravo/MA,-5.8391884,-43.8367876,1,4.18690
1,Buriti de Goiás/GO,-16.180644,-50.4287479,51,2049.83923
D1,Buriti de Goiás/GO,-16.180644,-50.4287479,1,40.19293
1,Buriti do Tocantins/TO,-5.3187439,-48.2256609,189,1665.49172
1,Buriti dos Lopes/PI,-3.1776723,-41.8707444,683,3452.80825
D1,Buriti dos Lopes/PI,-3.1776723,-41.8707444,12,60.66427
1,Buriti dos Montes/PI,-5.3136171,-41.0971256,13,157.69044
D1,Buriti dos Montes/PI,-5.3136171,-41.0971256,1,12.13003
1,Buriti/MA,-3.9430944,-42.9244281,540,1882.97650
D1,Buriti/MA,-3.9430944,-42.9244281,1,3.48699
1,Buriticupu/MA,-4.3227472,-46.4516989,2172,3001.74134
D1,Buriticupu/MA,-4.3227472,-46.4516989,4,5.52807
1,Buritinópolis/GO,-14.4589282,-46.4293104,29,880.92345
1,Buritirama/BA,-10.7148421,-43.6362327,164,774.53481
D1,Buritirama/BA,-10.7148421,-43.6362327,3,14.16832
1,Buritirana/MA,-5.5897455,-47.0148915,236,1529.48801
D1,Buritirana/MA,-5.5897455,-47.0148915,6,38.88529
1,Buritis/MG,-15.621389,-46.423889,224,901.73503
D1,Buritis/MG,-15.621389,-46.423889,2,8.05121
1,Buritis/RO,-10.2054937,-63.8281954,501,1263.42866
D1,Buritis/RO,-10.2054937,-63.8281954,8,20.17451
1,Buritizal/SP,-20.1933264,-47.7097165,50,1115.82236
1,Buritizeiro/MG,-17.3667765,-44.9647781,167,595.23810
D1,Buritizeiro/MG,-17.3667765,-44.9647781,5,17.82150
1,Butiá/RS,-30.1256795,-51.9692224,153,730.62413
D1,Butiá/RS,-30.1256795,-51.9692224,7,33.42725
1,Buíque/PE,-8.6239732,-37.157296,302,517.31817
D1,Buíque/PE,-8.6239732,-37.157296,6,10.27784
1,Bálsamo/SP,-20.7343722,-49.5807484,286,3153.94795
D1,Bálsamo/SP,-20.7343722,-49.5807484,10,110.27790
0,CASO SEM LOCALIZAÇÃO DEFINIDA/AC,-9.884083190922777,-67.85119819780795,150,17.00806
0,CASO SEM LOCALIZAÇÃO DEFINIDA/AL,-9.931093434363673,-35.609611600637464,197,5.90287
D0,CASO SEM LOCALIZAÇÃO DEFINIDA/AL,-9.931093434363673,-35.609611600637464,8,0.23971
0,CASO SEM LOCALIZAÇÃO DEFINIDA/AM,-3.07518492149711,-60.16169212873594,1504,36.28821
D0,CASO SEM LOCALIZAÇÃO DEFINIDA/AM,-3.07518492149711,-60.16169212873594,28,0.67558
0,CASO SEM LOCALIZAÇÃO DEFINIDA/AP,2.677150600275196,-50.477785111870624,732,86.55234
D0,CASO SEM LOCALIZAÇÃO DEFINIDA/AP,2.677150600275196,-50.477785111870624,10,1.18241
0,CASO SEM LOCALIZAÇÃO DEFINIDA/BA,-13.415069300066518,-38.14174656569957,8672,58.30675
D0,CASO SEM LOCALIZAÇÃO DEFINIDA/BA,-13.415069300066518,-38.14174656569957,92,0.61857
0,CASO SEM LOCALIZAÇÃO DEFINIDA/CE,-3.3445126297392798,-38.624961942434304,3617,39.60763
D0,CASO SEM LOCALIZAÇÃO DEFINIDA/CE,-3.3445126297392798,-38.624961942434304,12,0.13140
0,CASO SEM LOCALIZAÇÃO DEFINIDA/ES,-20.30989267097039,-39.81745156645774,2462,61.26435
D0,CASO SEM LOCALIZAÇÃO DEFINIDA/ES,-20.30989267097039,-39.81745156645774,53,1.31885
0,CASO SEM LOCALIZAÇÃO DEFINIDA/GO,-16.701590966270153,-49.164524059025034,1821,25.94625
D0,CASO SEM LOCALIZAÇÃO DEFINIDA/GO,-16.701590966270153,-49.164524059025034,54,0.76941
0,CASO SEM LOCALIZAÇÃO DEFINIDA/MA,-2.171256551718846,-43.98946796681719,1247,17.62499
D0,CASO SEM LOCALIZAÇÃO DEFINIDA/MA,-2.171256551718846,-43.98946796681719,12,0.16961
0,CASO SEM LOCALIZAÇÃO DEFINIDA/MG,-19.97049116501593,-43.8852149072783,4569,21.58366
D0,CASO SEM LOCALIZAÇÃO DEFINIDA/MG,-19.97049116501593,-43.8852149072783,148,0.69914
0,CASO SEM LOCALIZAÇÃO DEFINIDA/MS,-20.391549234908513,-54.645156949758444,1937,69.70168
D0,CASO SEM LOCALIZAÇÃO DEFINIDA/MS,-20.391549234908513,-54.645156949758444,33,1.18748
0,CASO SEM LOCALIZAÇÃO DEFINIDA/MT,-15.54791153961863,-56.17143998972475,23323,669.34216
D0,CASO SEM LOCALIZAÇÃO DEFINIDA/MT,-15.54791153961863,-56.17143998972475,540,15.49735
0,CASO SEM LOCALIZAÇÃO DEFINIDA/PA,-0.09317078214359542,-48.0050231510481,1577,18.33110
D0,CASO SEM LOCALIZAÇÃO DEFINIDA/PA,-0.09317078214359542,-48.0050231510481,4,0.04650
0,CASO SEM LOCALIZAÇÃO DEFINIDA/PB,-7.1049355696146606,-34.68696690234351,883,21.97541
D0,CASO SEM LOCALIZAÇÃO DEFINIDA/PB,-7.1049355696146606,-34.68696690234351,17,0.42308
0,CASO SEM LOCALIZAÇÃO DEFINIDA/PE,-8.121628543819208,-34.57313921302556,1325,13.86408
D0,CASO SEM LOCALIZAÇÃO DEFINIDA/PE,-8.121628543819208,-34.57313921302556,83,0.86847
0,CASO SEM LOCALIZAÇÃO DEFINIDA/PI,-2.683810218391744,-41.470898009352254,873,26.67093
D0,CASO SEM LOCALIZAÇÃO DEFINIDA/PI,-2.683810218391744,-41.470898009352254,20,0.61102
0,CASO SEM LOCALIZAÇÃO DEFINIDA/PR,-25.69415946385943,-48.10141676336737,8490,74.25251
D0,CASO SEM LOCALIZAÇÃO DEFINIDA/PR,-25.69415946385943,-48.10141676336737,227,1.98531
0,CASO SEM LOCALIZAÇÃO DEFINIDA/RJ,-23.210238986465157,-43.12864305824042,5195,30.08988
D0,CASO SEM LOCALIZAÇÃO DEFINIDA/RJ,-23.210238986465157,-43.12864305824042,299,1.73183
0,CASO SEM LOCALIZAÇÃO DEFINIDA/RN,-5.749310788669161,-34.95302586257457,1755,50.04487
D0,CASO SEM LOCALIZAÇÃO DEFINIDA/RN,-5.749310788669161,-34.95302586257457,62,1.76797
0,CASO SEM LOCALIZAÇÃO DEFINIDA/RO,-8.681174926655274,-63.9216949899276,686,38.59950
D0,CASO SEM LOCALIZAÇÃO DEFINIDA/RO,-8.681174926655274,-63.9216949899276,9,0.50641
0,CASO SEM LOCALIZAÇÃO DEFINIDA/RR,2.813328208465927,-60.663338675861986,1354,223.52050
D0,CASO SEM LOCALIZAÇÃO DEFINIDA/RR,2.813328208465927,-60.663338675861986,5,0.82541
0,CASO SEM LOCALIZAÇÃO DEFINIDA/RS,-30.50647488532064,-49.906261466443524,2331,20.48827
D0,CASO SEM LOCALIZAÇÃO DEFINIDA/RS,-30.50647488532064,-49.906261466443524,40,0.35158
0,CASO SEM LOCALIZAÇÃO DEFINIDA/SC,-27.675643660562308,-48.18313219398259,6494,90.63771
D0,CASO SEM LOCALIZAÇÃO DEFINIDA/SC,-27.675643660562308,-48.18313219398259,28,0.39080
0,CASO SEM LOCALIZAÇÃO DEFINIDA/SE,-11.03002091978736,-36.89283180376513,377,16.40060
D0,CASO SEM LOCALIZAÇÃO DEFINIDA/SE,-11.03002091978736,-36.89283180376513,8,0.34802
0,CASO SEM LOCALIZAÇÃO DEFINIDA/SP,-24.30968974555485,-46.21366504207253,154,0.33537
0,CASO SEM LOCALIZAÇÃO DEFINIDA/TO,-10.213012114749148,-48.40023803990334,1194,75.91238
D0,CASO SEM LOCALIZAÇÃO DEFINIDA/TO,-10.213012114749148,-48.40023803990334,14,0.89009
1,Caapiranga/AM,-3.3188884,-61.2096404,281,2148.15381
D1,Caapiranga/AM,-3.3188884,-61.2096404,6,45.86805
1,Caaporã/PB,-7.510234,-34.9154114,947,4338.46436
D1,Caaporã/PB,-7.510234,-34.9154114,13,59.55653
1,Caarapó/MS,-22.6349267,-54.8240903,318,1053.88745
D1,Caarapó/MS,-22.6349267,-54.8240903,1,3.31411
1,Caatiba/BA,-14.9782759,-40.4092325,181,2678.30719
1,Cabaceiras do Paraguaçu/BA,-12.5377868,-39.1901339,55,292.44430
D1,Cabaceiras do Paraguaçu/BA,-12.5377868,-39.1901339,1,5.31717
1,Cabaceiras/PB,-7.4899156,-36.2860501,64,1140.61665
1,Cabeceira Grande/MG,-16.0297,-47.0906,28,402.93567
1,Cabeceiras do Piauí/PI,-4.4733665,-42.3098716,200,1889.28774
D1,Cabeceiras do Piauí/PI,-4.4733665,-42.3098716,2,18.89288
1,Cabeceiras/GO,-15.7995459,-46.9264991,47,588.01451
D1,Cabeceiras/GO,-15.7995459,-46.9264991,3,37.53284
1,Cabedelo/PB,-6.97324,-34.8351609,2713,4005.25570
D1,Cabedelo/PB,-6.97324,-34.8351609,59,87.10287
1,Cabixi/RO,-13.4956065,-60.5424442,74,1393.07229
D1,Cabixi/RO,-13.4956065,-60.5424442,4,75.30120
1,Cabo Frio/RJ,-22.8804369,-42.0189227,1912,844.05695
D1,Cabo Frio/RJ,-22.8804369,-42.0189227,109,48.11831
1,Cabo Verde/MG,-21.4743338,-46.3964995,18,127.88632
1,Cabo de Santo Agostinho/PE,-8.2838945,-35.0320984,1659,801.26348
D1,Cabo de Santo Agostinho/PE,-8.2838945,-35.0320984,227,109.63641
1,Cabreúva/SP,-23.3075813,-47.1324417,996,2003.74193
D1,Cabreúva/SP,-23.3075813,-47.1324417,37,74.43620
1,Cabrobó/PE,-8.5083701,-39.3106961,376,1098.74054
D1,Cabrobó/PE,-8.5083701,-39.3106961,2,5.84436
1,Cabrália Paulista/SP,-22.4562909,-49.3385645,70,1641.65103
1,Cacaulândia/RO,-10.3380043,-62.9007231,73,1171.74960
1,Cacequi/RS,-29.8838059,-54.8273443,13,103.49494
1,Cachoeira Alta/GO,-18.7618269,-50.9432431,430,3444.40884
D1,Cachoeira Alta/GO,-18.7618269,-50.9432431,5,40.05127
1,Cachoeira Dourada/GO,-18.4934204,-49.481062,37,458.65873
1,Cachoeira Dourada/MG,-18.517136,-49.5002062,4,148.58841
1,Cachoeira Grande/MA,-2.9290492,-44.0573223,171,1813.16934
D1,Cachoeira Grande/MA,-2.9290492,-44.0573223,4,42.41332
1,Cachoeira Paulista/SP,-22.666498,-45.015384,253,759.14424
D1,Cachoeira Paulista/SP,-22.666498,-45.015384,7,21.00399
1,Cachoeira da Prata/MG,-19.524723,-44.453056,31,860.39412
1,Cachoeira de Goiás/GO,-16.6688414,-50.6435997,15,1110.28868
1,Cachoeira de Minas/MG,-22.3554043,-45.7796324,64,554.25652
1,Cachoeira de Pajeú/MG,-15.965833,-41.496666,127,1349.34127
1,Cachoeira do Arari/PA,-1.0143572,-48.9621089,272,1144.44398
D1,Cachoeira do Arari/PA,-1.0143572,-48.9621089,12,50.49018
1,Cachoeira do Piriá/PA,-1.7599443,-46.5446954,478,1410.02950
D1,Cachoeira do Piriá/PA,-1.7599443,-46.5446954,2,5.89971
1,Cachoeira do Sul/RS,-30.0474778,-52.8905413,399,485.39555
D1,Cachoeira do Sul/RS,-30.0474778,-52.8905413,4,4.86612
1,Cachoeira dos Índios/PB,-6.9259193,-38.6742159,100,976.18118
D1,Cachoeira dos Índios/PB,-6.9259193,-38.6742159,6,58.57087
1,Cachoeira/BA,-12.5998256,-38.9665918,412,1230.95309
D1,Cachoeira/BA,-12.5998256,-38.9665918,9,26.88975
1,Cachoeiras de Macacu/RJ,-22.4626861,-42.6534414,525,890.78168
D1,Cachoeiras de Macacu/RJ,-22.4626861,-42.6534414,26,44.11490
1,Cachoeirinha/PE,-8.4906364,-36.2338963,281,1378.80275
D1,Cachoeirinha/PE,-8.4906364,-36.2338963,19,93.22866
1,Cachoeirinha/RS,-29.9493353,-51.0898927,1830,1404.52672
D1,Cachoeirinha/RS,-29.9493353,-51.0898927,44,33.77004
1,Cachoeirinha/TO,-6.118647,-47.9208885,23,1010.98901
1,Cachoeiro de Itapemirim/ES,-20.848084,-41.11129,4516,2161.05507
D1,Cachoeiro de Itapemirim/ES,-20.848084,-41.11129,139,66.51609
1,Cacimba de Areia/PB,-7.1288513,-37.1575194,9,244.43237
1,Cacimba de Dentro/PB,-6.6425101,-35.7929304,293,1704.77687
D1,Cacimba de Dentro/PB,-6.6425101,-35.7929304,6,34.91011
1,Cacimbas/PB,-7.2125451,-37.0593398,47,655.23491
D1,Cacimbas/PB,-7.2125451,-37.0593398,1,13.94117
1,Cacimbinhas/AL,-9.401212,-36.991082,230,2118.25382
D1,Cacimbinhas/AL,-9.401212,-36.991082,3,27.62940
1,Cacique Doble/RS,-27.7700117,-51.6616409,73,1441.26357
1,Cacoal/RO,-11.4333,-61.4420502,1610,1886.15143
D1,Cacoal/RO,-11.4333,-61.4420502,22,25.77350
1,Caconde/SP,-21.527995,-46.643659,78,410.85067
1,Caculé/BA,-14.4990734,-42.2233006,70,302.11480
D1,Caculé/BA,-14.4990734,-42.2233006,2,8.63185
1,Caetanos/BA,-14.3387456,-40.9085971,33,226.92890
1,Caetanópolis/MG,-19.2947496,-44.4138386,61,524.77632
1,Caetité/BA,-14.0691776,-42.4852428,114,223.63904
D1,Caetité/BA,-14.0691776,-42.4852428,3,5.88524
1,Caeté/MG,-19.897777,-43.670278,260,581.42135
D1,Caeté/MG,-19.897777,-43.670278,6,13.41742
1,Caetés/PE,-8.7728788,-36.6255835,405,1409.23484
D1,Caetés/PE,-8.7728788,-36.6255835,5,17.39796
1,Cafarnaum/BA,-11.691399,-41.468823,142,770.19038
1,Cafeara/PR,-22.78905,-51.714195,47,1601.90866
1,Cafelândia/PR,-24.6176963,-53.3218057,110,607.06402
D1,Cafelândia/PR,-24.6176963,-53.3218057,1,5.51876
1,Cafelândia/SP,-21.8054355,-49.6030627,221,1243.87910
D1,Cafelândia/SP,-21.8054355,-49.6030627,2,11.25682
1,Cafezal do Sul/PR,-23.900508,-53.512418,9,222.55193
1,Caiabu/SP,-22.0143038,-51.2356597,35,835.12288
D1,Caiabu/SP,-22.0143038,-51.2356597,2,47.72131
1,Caiana/MG,-20.695555,-41.924723,16,291.12082
D1,Caiana/MG,-20.695555,-41.924723,1,18.19505
1,Caiapônia/GO,-16.9538779,-51.8090761,81,428.27685
1,Caibaté/RS,-28.290475,-54.645407,3,61.90673
1,Caibi/SC,-27.0751925,-53.2502133,33,536.75992
D1,Caibi/SC,-27.0751925,-53.2502133,2,32.53090
1,Caicó/RN,-6.4594544,-37.0971911,1720,2531.19849
D1,Caicó/RN,-6.4594544,-37.0971911,20,29.43254
1,Caieiras/SP,-23.3644621,-46.7484765,1728,1702.96639
D1,Caieiras/SP,-23.3644621,-46.7484765,85,83.76860
1,Cairu/BA,-13.4860505,-39.0455744,158,869.27817
D1,Cairu/BA,-13.4860505,-39.0455744,3,16.50528
1,Caiuá/SP,-21.8319357,-51.9887179,51,868.23289
1,Caiçara do Norte/RN,-5.0645017,-36.0561226,84,1282.63857
D1,Caiçara do Norte/RN,-5.0645017,-36.0561226,3,45.80852
1,Caiçara do Rio do Vento/RN,-5.757968,-36.00089,61,1655.80890
D1,Caiçara do Rio do Vento/RN,-5.757968,-36.00089,2,54.28882
1,Caiçara/PB,-6.6146866,-35.4681434,437,6068.60158
D1,Caiçara/PB,-6.6146866,-35.4681434,7,97.20872
1,Caiçara/RS,-27.2750478,-53.4310053,30,632.51107
D1,Caiçara/RS,-27.2750478,-53.4310053,1,21.08370
1,Cajamar/SP,-23.3561111,-46.8769444,1318,1716.12349
D1,Cajamar/SP,-23.3561111,-46.8769444,67,87.23845
1,Cajapió/MA,-2.8778715,-44.6746871,5,44.73472
D1,Cajapió/MA,-2.8778715,-44.6746871,2,17.89389
1,Cajari/MA,-3.3213076,-45.0118757,125,645.02812
D1,Cajari/MA,-3.3213076,-45.0118757,4,20.64090
1,Cajati/SP,-24.7272376,-48.1077914,1448,5071.98151
D1,Cajati/SP,-24.7272376,-48.1077914,21,73.55774
1,Cajazeiras do Piauí/PI,-6.794271,-42.3935024,6,168.58668
1,Cajazeiras/PB,-6.8897849,-38.5570389,1597,2576.09730
D1,Cajazeiras/PB,-6.8897849,-38.5570389,39,62.91033
1,Cajazeirinhas/PB,-6.961442,-37.7993733,34,1064.82931
1,Cajobi/SP,-20.8776238,-48.8106972,136,1290.07778
D1,Cajobi/SP,-20.8776238,-48.8106972,5,47.42933
1,Cajueiro da Praia/PI,-2.931114,-41.340801,259,3389.16514
D1,Cajueiro da Praia/PI,-2.931114,-41.340801,7,91.59906
1,Cajueiro/AL,-9.399589,-36.1524309,263,1236.83220
D1,Cajueiro/AL,-9.399589,-36.1524309,12,56.43341
1,Cajuri/MG,-20.7901414,-42.7954489,42,1053.42363
1,Cajuru/SP,-21.2759978,-47.3046035,373,1425.45955
D1,Cajuru/SP,-21.2759978,-47.3046035,7,26.75125
1,Caldas Brandão/PB,-7.1027959,-35.3254676,243,4040.57200
D1,Caldas Brandão/PB,-7.1027959,-35.3254676,2,33.25574
1,Caldas Novas/GO,-17.745,-48.625,872,956.53891
D1,Caldas Novas/GO,-17.745,-48.625,19,20.84202
1,Caldas/MG,-21.923611,-46.386111,65,448.89503
D1,Caldas/MG,-21.923611,-46.386111,2,13.81215
1,Caldazinha/GO,-16.7116649,-49.0012601,48,1261.82965
D1,Caldazinha/GO,-16.7116649,-49.0012601,1,26.28812
1,Caldeirão Grande do Piauí/PI,-7.3310393,-40.6374433,120,2077.56233
1,Caldeirão Grande/BA,-11.0208483,-40.3041387,117,877.91701
D1,Caldeirão Grande/BA,-11.0208483,-40.3041387,1,7.50356
1,Califórnia/PR,-23.6672543,-51.3554556,40,466.74446
D1,Califórnia/PR,-23.6672543,-51.3554556,2,23.33722
1,Calmon/SC,-26.6023644,-51.0992893,6,179.31859
1,Calumbi/PE,-7.9389746,-38.1516871,133,2313.04348
D1,Calumbi/PE,-7.9389746,-38.1516871,1,17.39130
1,Calçado/PE,-8.7413446,-36.3351787,48,434.27124
D1,Calçado/PE,-8.7413446,-36.3351787,1,9.04732
1,Calçoene/AP,2.4981757,-50.9539503,1121,10083.65566
D1,Calçoene/AP,2.4981757,-50.9539503,5,44.97616
1,Camacan/BA,-15.4166631,-39.4930088,1185,3704.51419
D1,Camacan/BA,-15.4166631,-39.4930088,23,71.90196
1,Camalaú/PB,-7.885031,-36.824191,3,49.89190
1,Camamu/BA,-13.9438142,-39.1060917,765,2166.15698
D1,Camamu/BA,-13.9438142,-39.1060917,13,36.81051
1,Camanducaia/MG,-22.755278,-46.144444,365,1676.61920
D1,Camanducaia/MG,-22.755278,-46.144444,5,22.96739
1,Camapuã/MS,-19.5291747,-54.0434641,33,240.68266
D1,Camapuã/MS,-19.5291747,-54.0434641,1,7.29341
1,Camaquã/RS,-30.8524752,-51.8075619,604,911.54676
D1,Camaquã/RS,-30.8524752,-51.8075619,14,21.12857
1,Camaragibe/PE,-8.0213832,-34.9810768,1839,1165.19249
D1,Camaragibe/PE,-8.0213832,-34.9810768,162,102.64338
1,Camargo/RS,-28.5865661,-52.2031474,29,1061.10501
1,Camaçari/BA,-12.6998188,-38.3260762,5343,1786.16798
D1,Camaçari/BA,-12.6998188,-38.3260762,81,27.07835
1,Cambará do Sul/RS,-29.0489517,-50.145412,57,886.33183
1,Cambará/PR,-23.042273,-50.075281,104,410.09464
D1,Cambará/PR,-23.042273,-50.075281,3,11.82965
1,Cambira/PR,-23.600265,-51.581045,28,356.00763
D1,Cambira/PR,-23.600265,-51.581045,1,12.71456
1,Camboriú/SC,-27.0273601,-48.6535657,2007,2418.39280
D1,Camboriú/SC,-27.0273601,-48.6535657,39,46.99418
1,Cambuci/RJ,-21.5749919,-41.9107833,168,1083.52144
D1,Cambuci/RJ,-21.5749919,-41.9107833,4,25.79813
1,Cambuquira/MG,-21.853056,-45.2953619,13,101.45154
1,Cambuí/MG,-22.6122501,-46.0572137,269,910.29068
D1,Cambuí/MG,-22.6122501,-46.0572137,6,20.30388
1,Cambé/PR,-23.2782035,-51.2779583,880,826.03513
D1,Cambé/PR,-23.2782035,-51.2779583,15,14.08014
1,Cametá/PA,-2.242949,-49.497885,4618,3349.04634
D1,Cametá/PA,-2.242949,-49.497885,94,68.17028
1,Camocim de São Félix/PE,-8.3616757,-35.7638903,171,911.27098
D1,Camocim de São Félix/PE,-8.3616757,-35.7638903,7,37.30349
1,Camocim/CE,-2.9009918,-40.8427389,2295,3605.03291
D1,Camocim/CE,-2.9009918,-40.8427389,79,124.09481
1,Campanha/MG,-21.8361108,-45.401986,68,408.04080
D1,Campanha/MG,-21.8361108,-45.401986,3,18.00180
1,Campanário/MG,-18.2398144,-41.7271768,15,403.11744
1,Campestre da Serra/RS,-28.7966535,-51.0958149,25,737.89847
1,Campestre de Goiás/GO,-16.7624179,-49.69497,106,2920.11019
D1,Campestre de Goiás/GO,-16.7624179,-49.69497,1,27.54821
1,Campestre do Maranhão/MA,-6.1729113,-47.3640512,357,2483.65104
D1,Campestre do Maranhão/MA,-6.1729113,-47.3640512,4,27.82802
1,Campestre/AL,-8.8481634,-35.5660033,89,1283.16032
D1,Campestre/AL,-8.8481634,-35.5660033,3,43.25260
1,Campestre/MG,-19.6142116,-43.219378,102,484.44550
D1,Campestre/MG,-19.6142116,-43.219378,4,18.99786
1,Campina Grande do Sul/PR,-25.3046032,-49.0545355,699,1614.76622
D1,Campina Grande do Sul/PR,-25.3046032,-49.0545355,19,43.89207
1,Campina Grande/PB,-7.2246743,-35.8771292,12191,2975.36677
D1,Campina Grande/PB,-7.2246743,-35.8771292,299,72.97471
1,Campina Verde/MG,-19.535277,-49.486389,89,450.74702
D1,Campina Verde/MG,-19.535277,-49.486389,3,15.19372
1,Campina da Lagoa/PR,-24.5937926,-52.8038965,20,140.82524
D1,Campina da Lagoa/PR,-24.5937926,-52.8038965,2,14.08252
1,Campina das Missões/RS,-27.9883295,-54.8411665,13,237.48630
1,Campina do Monte Alegre/SP,-23.5935653,-48.4801876,72,1195.21912
1,Campina do Simão/PR,-25.1086375,-51.8076658,5,128.63391
D1,Campina do Simão/PR,-25.1086375,-51.8076658,1,25.72678
1,Campinas do Piauí/PI,-7.6593687,-41.8814875,29,516.65776
D1,Campinas do Piauí/PI,-7.6593687,-41.8814875,1,17.81578
1,Campinas do Sul/RS,-27.7167968,-52.6257885,55,1008.43418
D1,Campinas do Sul/RS,-27.7167968,-52.6257885,1,18.33517
1,Campinas/SP,-22.90556,-47.06083,26486,2199.70052
D1,Campinas/SP,-22.90556,-47.06083,990,82.22093
1,Campinaçu/GO,-13.7869969,-48.5703841,109,2994.50549
1,Campinorte/GO,-14.3136699,-49.1510931,201,1591.95311
D1,Campinorte/GO,-14.3136699,-49.1510931,5,39.60082
1,Campinápolis/MT,-14.5403731,-52.7970626,200,1251.56446
D1,Campinápolis/MT,-14.5403731,-52.7970626,8,50.06258
1,Campo Alegre de Goiás/GO,-17.6337896,-47.779291,7,92.23877
1,Campo Alegre de Lourdes/BA,-9.5160326,-43.0101338,99,343.77387
D1,Campo Alegre de Lourdes/BA,-9.5160326,-43.0101338,2,6.94493
1,Campo Alegre do Fidalgo/PI,-8.3753852,-41.8364191,13,257.68087
D1,Campo Alegre do Fidalgo/PI,-8.3753852,-41.8364191,1,19.82161
1,Campo Alegre/AL,-9.7798607,-36.3575793,1262,2211.59070
D1,Campo Alegre/AL,-9.7798607,-36.3575793,26,45.56368
1,Campo Alegre/SC,-26.1941684,-49.2657484,108,901.65303
D1,Campo Alegre/SC,-26.1941684,-49.2657484,3,25.04592
1,Campo Azul/MG,-16.5078525,-44.8133524,1,26.19859
1,Campo Belo do Sul/SC,-27.8987563,-50.7586887,39,555.87229
D1,Campo Belo do Sul/SC,-27.8987563,-50.7586887,1,14.25314
1,Campo Belo/MG,-20.8975,-45.277223,506,936.53408
D1,Campo Belo/MG,-20.8975,-45.277223,9,16.65772
1,Campo Bom/RS,-29.674694,-51.060601,1654,2479.31407
D1,Campo Bom/RS,-29.674694,-51.060601,36,53.96330
1,Campo Bonito/PR,-25.0328004,-52.992976,39,1017.47978
1,Campo Erê/SC,-26.3947432,-53.0790495,66,774.10274
1,Campo Florido/MG,-19.760833,-48.572223,74,907.86407
1,Campo Formoso/BA,-10.51055,-40.320031,924,1297.64346
D1,Campo Formoso/BA,-10.51055,-40.320031,8,11.23501
1,Campo Grande do Piauí/PI,-7.1327559,-41.0381164,98,1648.99882
D1,Campo Grande do Piauí/PI,-7.1327559,-41.0381164,1,16.82652
1,Campo Grande/AL,-9.9725,-36.74791447368421,179,1872.77673
D1,Campo Grande/AL,-9.9725,-36.74791447368421,5,52.31220
1,Campo Grande/MS,-20.4640173,-54.6162947,19336,2158.07907
D1,Campo Grande/MS,-20.4640173,-54.6162947,305,34.04086
1,Campo Largo do Piauí/PI,-3.8104731,-42.6288333,157,2156.88968
D1,Campo Largo do Piauí/PI,-3.8104731,-42.6288333,4,54.95260
1,Campo Largo/PR,-25.4597726,-49.5270851,2170,1643.91449
D1,Campo Largo/PR,-25.4597726,-49.5270851,50,37.87821
1,Campo Limpo Paulista/SP,-23.207791,-46.788919,942,1112.81748
D1,Campo Limpo Paulista/SP,-23.207791,-46.788919,61,72.06143
1,Campo Limpo de Goiás/GO,-16.297101,-49.0894994,18,231.09513
D1,Campo Limpo de Goiás/GO,-16.297101,-49.0894994,1,12.83862
1,Campo Magro/PR,-25.3691533,-49.4496921,363,1238.14721
D1,Campo Magro/PR,-25.3691533,-49.4496921,5,17.05437
1,Campo Maior/PI,-4.8339574,-42.1739786,2011,4293.98074
D1,Campo Maior/PI,-4.8339574,-42.1739786,41,87.54511
1,Campo Mourão/PR,-24.046329,-52.37802,789,831.76082
D1,Campo Mourão/PR,-24.046329,-52.37802,25,26.35491
1,Campo Novo de Rondônia/RO,-10.5704235,-63.6199511,132,933.58795
D1,Campo Novo de Rondônia/RO,-10.5704235,-63.6199511,5,35.36318
1,Campo Novo do Parecis/MT,-13.658735,-57.890723,1271,3594.45701
D1,Campo Novo do Parecis/MT,-13.658735,-57.890723,13,36.76471
1,Campo Novo/RS,-28.91500235,-52.331375687737626,14,312.22123
1,Campo Redondo/RN,-6.2420373,-36.1830606,211,1881.07337
D1,Campo Redondo/RN,-6.2420373,-36.1830606,2,17.83008
1,Campo Verde/MT,-15.5430787,-55.1590511,1019,2313.75309
D1,Campo Verde/MT,-15.5430787,-55.1590511,15,34.05917
1,Campo do Brito/SE,-10.7496246,-37.4942276,580,3202.82732
D1,Campo do Brito/SE,-10.7496246,-37.4942276,10,55.22116
1,Campo do Meio/MG,-21.1072006,-45.8301735,35,300.30030
1,Campo do Tenente/PR,-25.9814143,-49.684518,61,765.27412
D1,Campo do Tenente/PR,-25.9814143,-49.684518,3,37.63643
1,Campos Altos/MG,-19.696389,-46.171389,110,711.46756
D1,Campos Altos/MG,-19.696389,-46.171389,5,32.33943
1,Campos Belos/GO,-13.0349839,-46.768112,164,824.65933
D1,Campos Belos/GO,-13.0349839,-46.768112,3,15.08523
1,Campos Borges/RS,-28.8852198,-52.999098,6,180.72289
1,Campos Gerais/MG,-21.2333342,-45.7584127,72,250.22590
D1,Campos Gerais/MG,-21.2333342,-45.7584127,3,10.42608
1,Campos Lindos/TO,-7.9740597,-46.8023881,180,1779.35943
D1,Campos Lindos/TO,-7.9740597,-46.8023881,2,19.77066
1,Campos Novos Paulista/SP,-22.601952,-49.998726,41,825.78046
1,Campos Novos/SC,-27.3962904,-51.2224397,742,2047.23540
D1,Campos Novos/SC,-27.3962904,-51.2224397,12,33.10893
1,Campos Sales/CE,-7.0742675,-40.3740367,290,1057.39080
D1,Campos Sales/CE,-7.0742675,-40.3740367,7,25.52323
1,Campos Verdes/GO,-14.2709062,-49.65746,23,1074.26436
1,Campos de Júlio/MT,-13.7223646,-59.2645296,274,3976.20084
D1,Campos de Júlio/MT,-13.7223646,-59.2645296,4,58.04673
1,Campos do Jordão/SP,-22.7395263,-45.5912829,549,1053.98556
D1,Campos do Jordão/SP,-22.7395263,-45.5912829,9,17.27845
1,Campos dos Goytacazes/RJ,-21.7558619,-41.3326895,4179,823.37040
D1,Campos dos Goytacazes/RJ,-21.7558619,-41.3326895,287,56.54638
1,Camutanga/PE,-7.4092965,-35.2738166,142,1660.62449
D1,Camutanga/PE,-7.4092965,-35.2738166,4,46.77815
1,Cana Verde/MG,-21.021308,-45.1817881,73,1302.87346
D1,Cana Verde/MG,-21.021308,-45.1817881,1,17.84758
1,Canabrava do Norte/MT,-11.0516481,-51.8301897,50,1054.18511
D1,Canabrava do Norte/MT,-11.0516481,-51.8301897,1,21.08370
1,Cananéia/SP,-25.0104609,-47.9315628,154,1228.07018
D1,Cananéia/SP,-25.0104609,-47.9315628,7,55.82137
1,Canapi/AL,-9.1173572,-37.6011704,58,327.27683
D1,Canapi/AL,-9.1173572,-37.6011704,3,16.92811
1,Canarana/BA,-11.6870151,-41.7683675,78,297.98289
D1,Canarana/BA,-11.6870151,-41.7683675,1,3.82029
1,Canarana/MT,-13.5564602,-52.2691167,384,1779.50785
D1,Canarana/MT,-13.5564602,-52.2691167,8,37.07308
1,Canas/SP,-22.7029347,-45.0526508,30,583.88478
D1,Canas/SP,-22.7029347,-45.0526508,2,38.92565
1,Canavieiras/BA,-15.61621745,-39.08485321304444,155,498.40831
D1,Canavieiras/BA,-15.61621745,-39.08485321304444,8,25.72430
1,Canaã dos Carajás/PA,-6.5296837,-49.8516592,3218,8677.36282
D1,Canaã dos Carajás/PA,-6.5296837,-49.8516592,41,110.55683
1,Candeal/BA,-11.8053441,-39.1206515,59,714.45871
1,Candeias do Jamari/RO,-8.7949939,-63.7018851,1168,4375.67902
D1,Candeias do Jamari/RO,-8.7949939,-63.7018851,21,78.67231
1,Candeias/BA,-12.6693806,-38.5406462,1909,2192.33773
D1,Candeias/BA,-12.6693806,-38.5406462,43,49.38215
1,Candeias/MG,-20.7676161,-45.2763777,68,456.80505
D1,Candeias/MG,-20.7676161,-45.2763777,2,13.43544
1,Candelária/RS,-29.668391,-52.789495,128,408.09820
D1,Candelária/RS,-29.668391,-52.789495,1,3.18827
1,Candiba/BA,-14.4125032,-42.8714102,25,174.59320
1,Candiota/RS,-31.5451894,-53.719538,69,719.94992
D1,Candiota/RS,-31.5451894,-53.719538,1,10.43406
1,Candói/PR,-25.5711951,-52.051107,59,369.23462
1,Canela/RS,-29.3624657,-50.8134204,443,984.48820
D1,Canela/RS,-29.3624657,-50.8134204,17,37.77946
1,Canelinha/SC,-27.2660341,-48.7666708,376,3071.89542
D1,Canelinha/SC,-27.2660341,-48.7666708,6,49.01961
1,Canguaretama/RN,-6.3751942,-35.137463,296,863.57801
D1,Canguaretama/RN,-6.3751942,-35.137463,17,49.59739
1,Canguçu/RS,-31.398276,-52.6773522,87,155.23240
D1,Canguçu/RS,-31.398276,-52.6773522,3,5.35284
1,Canhoba/SE,-10.1373681,-36.9710796,88,2195.60878
1,Canhotinho/PE,-8.876519,-36.197935,288,1161.10305
D1,Canhotinho/PE,-8.876519,-36.197935,13,52.41090
1,Canindé de São Francisco/SE,-9.6597475,-37.7904456,297,993.31104
D1,Canindé de São Francisco/SE,-9.6597475,-37.7904456,8,26.75585
1,Canindé/CE,-4.3547946,-39.3108516,1875,2435.15981
D1,Canindé/CE,-4.3547946,-39.3108516,69,89.61388
1,Canitar/SP,-23.0066616,-49.7840632,36,690.18405
D1,Canitar/SP,-23.0066616,-49.7840632,1,19.17178
1,Canoas/RS,-29.9216045,-51.1799525,3855,1112.18178
D1,Canoas/RS,-29.9216045,-51.1799525,179,51.64216
1,Canoinhas/SC,-26.176591,-50.395001,346,636.01772
D1,Canoinhas/SC,-26.176591,-50.395001,8,14.70561
1,Cansanção/BA,-10.6671448,-39.498199,136,390.42315
D1,Cansanção/BA,-10.6671448,-39.498199,3,8.61228
1,Cantagalo/PR,-25.3735238,-52.1238114,57,428.02433
D1,Cantagalo/PR,-25.3735238,-52.1238114,1,7.50920
1,Cantagalo/RJ,-21.9811325,-42.3682522,72,356.93040
D1,Cantagalo/RJ,-21.9811325,-42.3682522,1,4.95737
1,Cantanhede/MA,-3.6355005,-44.3778738,381,1732.21187
D1,Cantanhede/MA,-3.6355005,-44.3778738,3,13.63946
1,Canto do Buriti/PI,-8.1112473,-42.944844,251,1184.68872
D1,Canto do Buriti/PI,-8.1112473,-42.944844,4,18.87950
1,Cantá/RR,2.60994,-60.605827,881,4805.01773
D1,Cantá/RR,2.60994,-60.605827,9,49.08645
1,Canudos do Vale/RS,-29.3240418,-52.2348494,5,291.37529
1,Canudos/BA,-9.8948692,-39.0266244,102,611.95104
D1,Canudos/BA,-9.8948692,-39.0266244,3,17.99856
1,Canutama/AM,-6.5330019,-64.3834966,376,2405.78412
1,Canápolis/BA,-13.072454,-44.200949,1,10.29760
1,Canápolis/MG,-18.7228793,-49.2016329,247,2032.92181
D1,Canápolis/MG,-18.7228793,-49.2016329,4,32.92181
1,Capanema/PA,-1.1933054,-47.1828679,1199,1737.00146
D1,Capanema/PA,-1.1933054,-47.1828679,64,92.71734
1,Capanema/PR,-25.6704878,-53.8083036,386,2018.40619
D1,Capanema/PR,-25.6704878,-53.8083036,3,15.68709
1,Caparaó/MG,-20.5232726,-41.9049984,20,367.78227
D1,Caparaó/MG,-20.5232726,-41.9049984,3,55.16734
1,Capela Nova/MG,-20.9236773,-43.6179487,2,42.98302
1,Capela de Santana/RS,-29.6926603,-51.3206659,43,360.13400
D1,Capela de Santana/RS,-29.6926603,-51.3206659,1,8.37521
1,Capela do Alto Alegre/BA,-11.6703944,-39.8362745,145,1246.02561
D1,Capela do Alto Alegre/BA,-11.6703944,-39.8362745,1,8.59328
1,Capela do Alto/SP,-23.4704798,-47.7352309,225,1086.64155
D1,Capela do Alto/SP,-23.4704798,-47.7352309,1,4.82952
1,Capela/AL,-9.415041,-36.082583,502,2943.76356
D1,Capela/AL,-9.415041,-36.082583,5,29.32035
1,Capela/SE,-10.50494,-37.0552566,676,1975.85713
D1,Capela/SE,-10.50494,-37.0552566,16,46.76585
1,Capelinha/MG,-17.693889,-42.518611,43,113.80479
1,Capetinga/MG,-20.6193382,-47.0577418,21,303.46821
1,Capim Branco/MG,-19.548333,-44.133056,31,317.81833
D1,Capim Branco/MG,-19.548333,-44.133056,2,20.50441
1,Capim Grosso/BA,-11.3793228,-40.0112095,822,2680.84274
D1,Capim Grosso/BA,-11.3793228,-40.0112095,4,13.04546
1,Capim/PB,-6.9174091,-35.1720326,152,2330.21616
D1,Capim/PB,-6.9174091,-35.1720326,5,76.65185
1,Capinzal do Norte/MA,-4.7304006,-44.3249063,347,3173.58698
D1,Capinzal do Norte/MA,-4.7304006,-44.3249063,1,9.14578
1,Capinzal/SC,-27.3440651,-51.6110403,1184,5182.07283
D1,Capinzal/SC,-27.3440651,-51.6110403,6,26.26050
1,Capinópolis/MG,-18.682778,-49.569723,227,1403.57386
D1,Capinópolis/MG,-18.682778,-49.569723,4,24.73258
1,Capistrano/CE,-4.4644692,-38.8956734,664,3743.37580
D1,Capistrano/CE,-4.4644692,-38.8956734,13,73.28898
1,Capitão Andrade/MG,-19.0675,-41.859722,16,292.61156
D1,Capitão Andrade/MG,-19.0675,-41.859722,1,18.28822
1,Capitão Enéas/MG,-16.3236018,-43.7154584,95,623.60509
D1,Capitão Enéas/MG,-16.3236018,-43.7154584,2,13.12853
1,Capitão Gervásio Oliveira/PI,-8.4954657,-41.8169342,19,463.41463
D1,Capitão Gervásio Oliveira/PI,-8.4954657,-41.8169342,1,24.39024
1,Capitão Leônidas Marques/PR,-25.481645,-53.611238,128,811.15336
1,Capitão Poço/PA,-1.7447162,-47.0638495,795,1464.00751
D1,Capitão Poço/PA,-1.7447162,-47.0638495,35,64.45316
1,Capitão de Campos/PI,-4.4584198,-41.9415301,156,1366.38346
D1,Capitão de Campos/PI,-4.4584198,-41.9415301,1,8.75887
1,Capitão/RS,-29.2718294,-51.9869716,20,725.42619
1,Capitólio/MG,-20.6142437,-46.0487652,33,382.29842
D1,Capitólio/MG,-20.6142437,-46.0487652,3,34.75440
1,Capivari de Baixo/SC,-28.449773,-48.963144,693,2786.37771
D1,Capivari de Baixo/SC,-28.449773,-48.963144,9,36.18672
1,Capivari do Sul/RS,-30.1437605,-50.5129169,27,579.39914
1,Capivari/SP,-22.995144,-47.50715,744,1334.09841
D1,Capivari/SP,-22.995144,-47.50715,9,16.13829
1,Capixaba/AC,-10.5741345,-67.6759719,245,2088.12750
