type,name,lat,lon,total,total_per_100k_inhabitants
1,Abadia de Goiás/GO,-16.7572644,-49.4412205,1389,15505.69324
D1,Abadia de Goiás/GO,-16.7572644,-49.4412205,29,323.73298
1,Abadia dos Dourados/MG,-18.4911191,-47.4063589,378,5395.37539
D1,Abadia dos Dourados/MG,-18.4911191,-47.4063589,14,199.82872
1,Abadiânia/GO,-16.1940946,-48.7067767,407,1989.15009
D1,Abadiânia/GO,-16.1940946,-48.7067767,27,131.95836
1,Abaetetuba/PA,-1.721828,-48.878843,7852,4935.88132
D1,Abaetetuba/PA,-1.721828,-48.878843,216,135.78074
1,Abaeté/MG,-19.1566833,-45.4481213,1055,4537.63441
D1,Abaeté/MG,-19.1566833,-45.4481213,25,107.52688
1,Abaiara/CE,-7.3607808,-39.0487878,504,4252.08808
D1,Abaiara/CE,-7.3607808,-39.0487878,12,101.24019
1,Abaré/BA,-8.7239913,-39.1139689,849,4172.60530
D1,Abaré/BA,-8.7239913,-39.1139689,10,49.14729
1,Abatiá/PR,-23.3052967,-50.3102532,794,10718.14255
D1,Abatiá/PR,-23.3052967,-50.3102532,12,161.98704
1,Abaíra/BA,-13.2503296,-41.6640342,255,2927.66935
D1,Abaíra/BA,-13.2503296,-41.6640342,10,114.81056
1,Abdon Batista/SC,-27.612419,-51.022992,366,14364.20722
D1,Abdon Batista/SC,-27.612419,-51.022992,3,117.73940
1,Abel Figueiredo/PA,-4.953001,-48.3958485,890,11888.85920
D1,Abel Figueiredo/PA,-4.953001,-48.3958485,10,133.58269
1,Abelardo Luz/SC,-26.5705893,-52.3280339,1376,7661.46993
D1,Abelardo Luz/SC,-26.5705893,-52.3280339,43,239.42094
1,Abre Campo/MG,-20.2976097,-42.4764741,940,6991.96668
D1,Abre Campo/MG,-20.2976097,-42.4764741,15,111.57394
1,Abreu e Lima/PE,-7.900719,-34.898389,2786,2776.39368
D1,Abreu e Lima/PE,-7.900719,-34.898389,202,201.30349
1,Abreulândia/TO,-9.6221526,-49.1558343,264,10177.33231
D1,Abreulândia/TO,-9.6221526,-49.1558343,6,231.30301
1,Acaiaca/MG,-20.3621646,-43.1444162,221,5533.29995
D1,Acaiaca/MG,-20.3621646,-43.1444162,11,275.41312
1,Acajutiba/BA,-11.6609659,-38.0186381,485,3193.52077
D1,Acajutiba/BA,-11.6609659,-38.0186381,16,105.35326
1,Acarape/CE,-4.2237866,-38.7071663,2632,17504.65549
D1,Acarape/CE,-4.2237866,-38.7071663,26,172.91833
1,Acaraú/CE,-2.8869514,-40.1194713,4667,7395.72769
D1,Acaraú/CE,-2.8869514,-40.1194713,96,152.12982
1,Acari/RN,-6.4364689,-36.6394777,931,8371.54932
D1,Acari/RN,-6.4364689,-36.6394777,14,125.88796
1,Acará/PA,-1.961388,-48.1987043,1231,2211.28456
D1,Acará/PA,-1.961388,-48.1987043,28,50.29729
1,Acauã/PI,-8.219542,-41.083059,189,2661.22219
D1,Acauã/PI,-8.219542,-41.083059,1,14.08054
1,Aceguá/RS,-31.8695131,-54.1615593,307,6212.05989
D1,Aceguá/RS,-31.8695131,-54.1615593,4,80.93889
1,Acopiara/CE,-6.0936464,-39.4543204,3131,5746.95765
D1,Acopiara/CE,-6.0936464,-39.4543204,120,220.26027
1,Acorizal/MT,-15.2001544,-56.3668953,473,8867.64154
D1,Acorizal/MT,-15.2001544,-56.3668953,18,337.45782
1,Acrelândia/AC,-10.0759167,-67.0526898,1549,10000.00000
D1,Acrelândia/AC,-10.0759167,-67.0526898,33,213.04067
1,Acreúna/GO,-17.3959899,-50.3749031,1763,7819.56888
D1,Acreúna/GO,-17.3959899,-50.3749031,44,195.15657
1,Adamantina/SP,-21.6866517,-51.0762975,2759,7857.93626
D1,Adamantina/SP,-21.6866517,-51.0762975,80,227.84882
1,Adelândia/GO,-16.4155077,-50.1665834,162,6438.79173
D1,Adelândia/GO,-16.4155077,-50.1665834,4,158.98251
1,Adolfo/SP,-21.2356597,-49.6441918,445,12521.10298
D1,Adolfo/SP,-21.2356597,-49.6441918,11,309.51041
1,Adrianópolis/PR,-24.6557863,-48.9912769,1169,19959.02339
D1,Adrianópolis/PR,-24.6557863,-48.9912769,23,392.69250
1,Adustina/BA,-10.5358875,-38.114479,764,4461.05337
D1,Adustina/BA,-10.5358875,-38.114479,15,87.58613
1,Afogados da Ingazeira/PE,-7.750429,-37.6356375,4244,11346.38007
D1,Afogados da Ingazeira/PE,-7.750429,-37.6356375,61,163.08416
1,Afonso Bezerra/RN,-5.4745,-36.57625071327935,637,5775.68229
D1,Afonso Bezerra/RN,-5.4745,-36.57625071327935,15,136.00508
1,Afonso Cláudio/ES,-20.077841,-41.12606,3251,10674.76605
D1,Afonso Cláudio/ES,-20.077841,-41.12606,55,180.59432
1,Afonso Cunha/MA,-4.1326105,-43.3230026,166,2523.56339
D1,Afonso Cunha/MA,-4.1326105,-43.3230026,2,30.40438
1,Afrânio/PE,-8.5198919,-41.0070197,815,4114.08380
D1,Afrânio/PE,-8.5198919,-41.0070197,14,70.67138
1,Afuá/PA,-0.1535664,-50.3879223,2905,7341.97690
D1,Afuá/PA,-0.1535664,-50.3879223,14,35.38302
1,Agrestina/PE,-8.4558021,-35.9442663,1438,5737.08358
D1,Agrestina/PE,-8.4558021,-35.9442663,51,203.47098
1,Agricolândia/PI,-5.7967843,-42.6605131,440,8575.32645
D1,Agricolândia/PI,-5.7967843,-42.6605131,5,97.44689
1,Agrolândia/SC,-27.4122212,-49.8295774,1322,12003.99528
D1,Agrolândia/SC,-27.4122212,-49.8295774,19,172.52338
1,Agronômica/SC,-27.2660744,-49.7104753,578,10491.92231
D1,Agronômica/SC,-27.2660744,-49.7104753,12,217.82538
1,Aguanil/MG,-20.9424533,-45.3927152,519,11477.22247
D1,Aguanil/MG,-20.9424533,-45.3927152,8,176.91287
1,Aguaí/SP,-22.0592036,-46.979384,2430,6630.64833
D1,Aguaí/SP,-22.0592036,-46.979384,78,212.83563
1,Agudo/RS,-29.6423259,-53.2494005,1443,8798.24401
D1,Agudo/RS,-29.6423259,-53.2494005,23,140.23535
1,Agudos do Sul/PR,-25.9890808,-49.3328175,520,5491.02429
D1,Agudos do Sul/PR,-25.9890808,-49.3328175,19,200.63358
1,Agudos/SP,-22.471162,-48.987822,3114,8325.98059
D1,Agudos/SP,-22.471162,-48.987822,73,195.18195
1,Aguiar/PB,-7.0928404,-38.1727215,317,5630.55062
D1,Aguiar/PB,-7.0928404,-38.1727215,5,88.80995
1,Aguiarnópolis/TO,-6.5600452,-47.4721189,565,8197.91062
D1,Aguiarnópolis/TO,-6.5600452,-47.4721189,12,174.11492
1,Aimorés/MG,-19.4917754,-41.0615603,1806,7183.48514
D1,Aimorés/MG,-19.4917754,-41.0615603,57,226.72129
1,Aiquara/BA,-14.126918,-39.8887574,451,10212.86232
D1,Aiquara/BA,-14.126918,-39.8887574,11,249.09420
1,Aiuaba/CE,-6.5710836,-40.1212278,559,3195.56394
D1,Aiuaba/CE,-6.5710836,-40.1212278,10,57.16572
1,Aiuruoca/MG,-21.9759554,-44.6036637,79,1321.95448
D1,Aiuruoca/MG,-21.9759554,-44.6036637,6,100.40161
1,Ajuricaba/RS,-28.239654,-53.7693013,946,13539.43037
D1,Ajuricaba/RS,-28.239654,-53.7693013,24,343.49506
1,Alagoa Grande/PB,-7.0415212,-35.6285322,3391,11923.76666
D1,Alagoa Grande/PB,-7.0415212,-35.6285322,62,218.01048
1,Alagoa Nova/PB,-7.0653703,-35.76695977336711,843,4029.44410
D1,Alagoa Nova/PB,-7.0653703,-35.76695977336711,17,81.25807
1,Alagoa/MG,-22.1697202,-44.6400042,427,16022.51407
D1,Alagoa/MG,-22.1697202,-44.6400042,5,187.61726
1,Alagoinha do Piauí/PI,-7.0090952,-40.939675,321,4187.86693
D1,Alagoinha do Piauí/PI,-7.0090952,-40.939675,10,130.46314
1,Alagoinha/PB,-6.97063215,-35.51490901897793,1646,11304.94505
D1,Alagoinha/PB,-6.97063215,-35.51490901897793,24,164.83516
1,Alagoinha/PE,-8.50355635,-36.77701174370496,923,6271.23250
D1,Alagoinha/PE,-8.50355635,-36.77701174370496,20,135.88803
1,Alagoinhas/BA,-12.133526,-38.420772,11582,7603.37957
D1,Alagoinhas/BA,-12.133526,-38.420772,227,149.02151
1,Alambari/SP,-23.550338,-47.897971,486,7929.51542
D1,Alambari/SP,-23.550338,-47.897971,10,163.15875
1,Albertina/MG,-20.66164,-43.784039,206,6841.58087
D1,Albertina/MG,-20.66164,-43.784039,7,232.48090
1,Alcantil/PB,-7.7425491,-36.0609604,378,6861.49936
D1,Alcantil/PB,-7.7425491,-36.0609604,6,108.91269
1,Alcinópolis/MS,-18.3264121,-53.7094463,227,4190.51135
D1,Alcinópolis/MS,-18.3264121,-53.7094463,6,110.76241
1,Alcobaça/BA,-17.5215875,-39.1965474,1366,6073.81058
D1,Alcobaça/BA,-17.5215875,-39.1965474,25,111.16052
1,Alcântara/MA,-2.4038956,-44.4154241,265,1198.44428
D1,Alcântara/MA,-2.4038956,-44.4154241,15,67.83647
1,Alcântaras/CE,-3.586247,-40.5457641,1511,12825.73636
D1,Alcântaras/CE,-3.586247,-40.5457641,18,152.78839
1,Aldeias Altas/MA,-4.6291957,-43.4708622,975,3643.90627
D1,Aldeias Altas/MA,-4.6291957,-43.4708622,13,48.58542
1,Alecrim/RS,-27.6566142,-54.7653195,254,4359.01836
D1,Alecrim/RS,-27.6566142,-54.7653195,11,188.77639
1,Alegre/ES,-20.7625787,-41.5318886,2127,7095.91326
D1,Alegre/ES,-20.7625787,-41.5318886,47,156.79733
1,Alegrete do Piauí/PI,-7.2440138,-40.8602296,478,9719.39813
D1,Alegrete do Piauí/PI,-7.2440138,-40.8602296,5,101.66734
1,Alegrete/RS,-29.790166,-55.794862,8201,11229.93920
D1,Alegrete/RS,-29.790166,-55.794862,236,323.16372
1,Alegria/RS,-27.8332103,-54.0574959,335,9928.86781
D1,Alegria/RS,-27.8332103,-54.0574959,2,59.27682
1,Alenquer/PA,-1.946229,-54.738355,2839,4972.67568
D1,Alenquer/PA,-1.946229,-54.738355,120,210.18707
1,Alexandria/RN,-6.414779,-38.0135516,1323,9761.67638
D1,Alexandria/RN,-6.414779,-38.0135516,16,118.05504
1,Alexânia/GO,-16.0834049,-48.5077803,2911,10392.71689
D1,Alexânia/GO,-16.0834049,-48.5077803,73,260.62121
1,Alfenas/MG,-21.4297405,-45.9479419,7128,8855.31841
D1,Alfenas/MG,-21.4297405,-45.9479419,150,186.34929
1,Alfredo Chaves/ES,-20.624970400000002,-40.75006690147988,2182,14908.44493
D1,Alfredo Chaves/ES,-20.624970400000002,-40.75006690147988,31,211.80650
1,Alfredo Marcondes/SP,-21.9527,-51.413956,215,5138.62333
D1,Alfredo Marcondes/SP,-21.9527,-51.413956,9,215.10516
1,Alfredo Vasconcelos/MG,-21.145833,-43.776389,355,5085.23134
D1,Alfredo Vasconcelos/MG,-21.145833,-43.776389,12,171.89514
1,Alfredo Wagner/SC,-27.6961513,-49.3326734,659,6533.80924
D1,Alfredo Wagner/SC,-27.6961513,-49.3326734,7,69.40313
1,Algodão de Jandaíra/PB,-6.9040175,-36.0089879,142,5510.28328
1,Alhandra/PB,-7.4304246,-34.9106103,1861,9433.77097
D1,Alhandra/PB,-7.4304246,-34.9106103,32,162.21422
1,Aliança do Tocantins/TO,-11.3055927,-48.9409096,560,10475.12159
D1,Aliança do Tocantins/TO,-11.3055927,-48.9409096,20,374.11149
1,Aliança/PE,-7.60398,-35.222696,588,1531.36964
D1,Aliança/PE,-7.60398,-35.222696,54,140.63599
1,Almadina/BA,-14.70466,-39.6381994,595,11088.33395
D1,Almadina/BA,-14.70466,-39.6381994,9,167.72270
1,Almas/TO,-11.5681309,-47.1702803,213,3052.01318
D1,Almas/TO,-11.5681309,-47.1702803,5,71.64350
1,Almeirim/PA,-1.5290377,-52.5788111,3337,9792.81606
D1,Almeirim/PA,-1.5290377,-52.5788111,42,123.25390
1,Almenara/MG,-16.1740678,-40.6904907,3638,8632.51311
D1,Almenara/MG,-16.1740678,-40.6904907,43,102.03355
1,Almino Afonso/RN,-6.1544208,-37.7649018,406,8619.95754
D1,Almino Afonso/RN,-6.1544208,-37.7649018,11,233.54565
1,Almirante Tamandaré do Sul/RS,-28.1141129,-52.9134874,283,14520.26680
D1,Almirante Tamandaré do Sul/RS,-28.1141129,-52.9134874,3,153.92509
1,Almirante Tamandaré/PR,-25.3133048,-49.2997838,8582,7149.22402
D1,Almirante Tamandaré/PR,-25.3133048,-49.2997838,329,274.07303
1,Aloândia/GO,-17.7277983,-49.4809338,226,11379.65760
D1,Aloândia/GO,-17.7277983,-49.4809338,6,302.11480
1,Alpercata/MG,-18.9803616,-41.9827637,450,6051.64067
D1,Alpercata/MG,-18.9803616,-41.9827637,18,242.06563
1,Alpestre/RS,-27.2512339,-53.0349646,283,4664.57887
D1,Alpestre/RS,-27.2512339,-53.0349646,7,115.37828
1,Alpinópolis/MG,-20.863611,-46.387777,1041,5215.95350
D1,Alpinópolis/MG,-20.863611,-46.387777,23,115.24201
1,Alta Floresta D'Oeste/RO,-11.9296917,-61.9961284,3704,16297.07849
D1,Alta Floresta D'Oeste/RO,-11.9296917,-61.9961284,63,277.19113
1,Alta Floresta/MT,-9.8715018,-56.0839881,7735,14886.73762
D1,Alta Floresta/MT,-9.8715018,-56.0839881,113,217.47917
1,Altair/SP,-20.5238955,-49.0606135,158,3774.48638
D1,Altair/SP,-20.5238955,-49.0606135,12,286.66985
1,Altamira do Maranhão/MA,-4.1643006,-45.4674574,308,3761.14300
D1,Altamira do Maranhão/MA,-4.1643006,-45.4674574,10,122.11503
1,Altamira do Paraná/PR,-24.799114,-52.7128633,190,11296.07610
D1,Altamira do Paraná/PR,-24.799114,-52.7128633,6,356.71819
1,Altamira/PA,-3.204065,-52.209961,12826,11059.85220
D1,Altamira/PA,-3.204065,-52.209961,275,237.13234
1,Altaneira/CE,-6.9980933,-39.7385742,450,5882.35294
D1,Altaneira/CE,-6.9980933,-39.7385742,16,209.15033
1,Alterosa/MG,-21.249166,-46.143055,620,4270.85486
D1,Alterosa/MG,-21.249166,-46.143055,31,213.54274
1,Altinho/PE,-8.4904095,-36.0607494,988,4298.64253
D1,Altinho/PE,-8.4904095,-36.0607494,20,87.01706
1,Altinópolis/SP,-21.021364,-47.3712,765,4721.34790
D1,Altinópolis/SP,-21.021364,-47.3712,35,216.00938
1,Alto Alegre do Maranhão/MA,-4.2055693,-44.4525287,1106,3970.13425
D1,Alto Alegre do Maranhão/MA,-4.2055693,-44.4525287,25,89.74083
1,Alto Alegre do Pindaré/MA,-3.6698186,-45.8462153,1847,5782.17450
D1,Alto Alegre do Pindaré/MA,-3.6698186,-45.8462153,45,140.87594
1,Alto Alegre dos Parecis/RO,-12.1314515,-61.856265,1393,10509.24180
D1,Alto Alegre dos Parecis/RO,-12.1314515,-61.856265,40,301.77292
1,Alto Alegre/RR,2.98858,-61.307167,1292,8400.52016
D1,Alto Alegre/RR,2.98858,-61.307167,29,188.55657
1,Alto Alegre/RS,-31.780844700000003,-52.81311114489171,176,10911.34532
D1,Alto Alegre/RS,-31.780844700000003,-52.81311114489171,1,61.99628
1,Alto Alegre/SP,-21.5820592,-50.1661976,304,7436.39922
D1,Alto Alegre/SP,-21.5820592,-50.1661976,14,342.46575
1,Alto Araguaia/MT,-17.3156528,-53.2169365,1084,5591.95254
D1,Alto Araguaia/MT,-17.3156528,-53.2169365,23,118.64844
1,Alto Bela Vista/SC,-27.4320737,-51.905771,156,8099.68847
D1,Alto Bela Vista/SC,-27.4320737,-51.905771,2,103.84216
1,Alto Boa Vista/MT,-11.6723985,-51.3744431,716,10322.95271
D1,Alto Boa Vista/MT,-11.6723985,-51.3744431,12,173.01038
1,Alto Caparaó/MG,-20.4405661,-41.8683799,368,6243.63760
D1,Alto Caparaó/MG,-20.4405661,-41.8683799,8,135.73125
1,Alto Feliz/RS,-29.3785943,-51.3123751,236,7773.38603
D1,Alto Feliz/RS,-29.3785943,-51.3123751,2,65.87615
1,Alto Garças/MT,-16.9469683,-53.529427,771,6345.15678
D1,Alto Garças/MT,-16.9469683,-53.529427,26,213.97416
1,Alto Horizonte/GO,-14.1954948,-49.3366993,758,11476.15443
D1,Alto Horizonte/GO,-14.1954948,-49.3366993,9,136.26041
1,Alto Jequitibá/MG,-20.423611,-41.966111,629,7577.40031
D1,Alto Jequitibá/MG,-20.423611,-41.966111,9,108.42067
1,Alto Longá/PI,-5.2549051,-42.2072388,594,4142.54829
D1,Alto Longá/PI,-5.2549051,-42.2072388,13,90.66183
1,Alto Paraguai/MT,-14.513712,-56.4936374,815,7103.63462
D1,Alto Paraguai/MT,-14.513712,-56.4936374,26,226.61902
1,Alto Paraná/PR,-23.131247,-52.318893,859,5781.00814
D1,Alto Paraná/PR,-23.131247,-52.318893,21,141.32849
1,Alto Paraíso de Goiás/GO,-14.1304779,-47.5100161,614,7986.47242
D1,Alto Paraíso de Goiás/GO,-14.1304779,-47.5100161,7,91.05099
1,Alto Paraíso/PR,-23.508137,-53.728537,181,6741.15456
D1,Alto Paraíso/PR,-23.508137,-53.728537,3,111.73184
1,Alto Paraíso/RO,-9.7240103,-63.3188123,1693,7749.34774
D1,Alto Paraíso/RO,-9.7240103,-63.3188123,40,183.09150
1,Alto Parnaíba/MA,-9.112506,-45.9310154,789,7037.10310
D1,Alto Parnaíba/MA,-9.112506,-45.9310154,9,80.27114
1,Alto Piquiri/PR,-24.0239021,-53.4417448,707,7230.51749
D1,Alto Piquiri/PR,-24.0239021,-53.4417448,18,184.08673
1,Alto Rio Doce/MG,-21.0239537,-43.4133507,324,2983.70016
D1,Alto Rio Doce/MG,-21.0239537,-43.4133507,23,211.80588
1,Alto Rio Novo/ES,-19.0577208,-41.0171518,674,8559.81712
D1,Alto Rio Novo/ES,-19.0577208,-41.0171518,21,266.70053
1,Alto Santo/CE,-5.5190371,-38.2719351,1365,7937.89253
D1,Alto Santo/CE,-5.5190371,-38.2719351,22,127.93673
1,Alto Taquari/MT,-17.8269099,-53.2831736,1370,12305.75766
D1,Alto Taquari/MT,-17.8269099,-53.2831736,26,233.53993
1,Alto do Rodrigues/RN,-5.290868,-36.7616726,1846,12533.94894
D1,Alto do Rodrigues/RN,-5.290868,-36.7616726,32,217.27322
1,Altos/PI,-5.0393915,-42.4611694,4110,10121.90617
D1,Altos/PI,-5.0393915,-42.4611694,83,204.40832
1,Altônia/PR,-23.8722004,-53.894037,962,4338.02309
D1,Altônia/PR,-23.8722004,-53.894037,18,81.16883
1,Alumínio/SP,-23.5203479,-47.2575256,1249,6655.29920
D1,Alumínio/SP,-23.5203479,-47.2575256,38,202.48308
1,Alvarenga/MG,-19.4175,-41.728334,416,10822.06035
D1,Alvarenga/MG,-19.4175,-41.728334,4,104.05827
1,Alvarães/AM,-3.214786,-64.8143124,2787,17182.49075
D1,Alvarães/AM,-3.214786,-64.8143124,44,271.27004
1,Alvinlândia/SP,-22.4431852,-49.7643596,127,3923.38585
D1,Alvinlândia/SP,-22.4431852,-49.7643596,7,216.24961
1,Alvinópolis/MG,-20.1105199,-43.0601805,588,3876.32672
D1,Alvinópolis/MG,-20.1105199,-43.0601805,19,125.25546
1,Alvorada D'Oeste/RO,-11.346271,-62.284697,1010,7160.07373
D1,Alvorada D'Oeste/RO,-11.346271,-62.284697,25,177.22955
1,Alvorada de Minas/MG,-18.7318587,-43.3641479,240,6657.42025
D1,Alvorada de Minas/MG,-18.7318587,-43.3641479,1,27.73925
1,Alvorada do Gurguéia/PI,-8.4465288,-43.8655915,332,6097.33701
D1,Alvorada do Gurguéia/PI,-8.4465288,-43.8655915,9,165.28926
1,Alvorada do Norte/GO,-14.483911,-46.4959897,670,7696.72602
D1,Alvorada do Norte/GO,-14.483911,-46.4959897,4,45.95060
1,Alvorada do Sul/PR,-22.7807269,-51.2307721,683,5937.58150
D1,Alvorada do Sul/PR,-22.7807269,-51.2307721,22,191.25446
1,Alvorada/RS,-29.9981184,-51.0772509,19165,9067.81105
D1,Alvorada/RS,-29.9981184,-51.0772509,686,324.57701
1,Alvorada/TO,-12.478465,-49.124926,1052,12529.77608
D1,Alvorada/TO,-12.478465,-49.124926,18,214.38780
1,Além Paraíba/MG,-21.8760576,-42.6810473,2884,8146.66252
D1,Além Paraíba/MG,-21.8760576,-42.6810473,135,381.34516
1,Amajari/RR,3.6523869,-61.4194315,983,7455.44179
D1,Amajari/RR,3.6523869,-61.4194315,20,151.68752
1,Amambai/MS,-23.1082701,-55.2284854,2463,6184.40215
D1,Amambai/MS,-23.1082701,-55.2284854,52,130.56797
1,Amaporã/PR,-23.094272,-52.786597,277,4374.60518
D1,Amaporã/PR,-23.094272,-52.786597,5,78.96399
1,Amapá do Maranhão/MA,-1.6762114,-46.0109669,172,2455.38901
D1,Amapá do Maranhão/MA,-1.6762114,-46.0109669,4,57.10207
1,Amapá/AP,2.0529997,-50.7930003,1276,13889.19125
D1,Amapá/AP,2.0529997,-50.7930003,10,108.84946
1,Amaraji/PE,-8.373925,-35.4536527,475,2076.95671
D1,Amaraji/PE,-8.373925,-35.4536527,29,126.80367
1,Amaral Ferrador/RS,-30.8750633,-52.2542051,240,3387.43825
D1,Amaral Ferrador/RS,-30.8750633,-52.2542051,6,84.68596
1,Amaralina/GO,-13.9236199,-49.2962411,64,1664.49935
1,Amarante do Maranhão/MA,-5.56913,-46.747284,1560,3738.40734
D1,Amarante do Maranhão/MA,-5.56913,-46.747284,55,131.80282
1,Amarante/PI,-6.2459374,-42.8476238,1452,8248.12543
D1,Amarante/PI,-6.2459374,-42.8476238,32,181.77687
1,Amargosa/BA,-13.03793715,-39.60796443875596,2430,6490.21127
D1,Amargosa/BA,-13.03793715,-39.60796443875596,47,125.53084
1,Amaturá/AM,-3.3640509,-68.1994689,2351,20032.37900
D1,Amaturá/AM,-3.3640509,-68.1994689,17,144.85344
1,Americana/SP,-22.7392463,-47.3306032,18152,7500.26858
D1,Americana/SP,-22.7392463,-47.3306032,554,228.90859
1,Americano do Brasil/GO,-16.2515808,-49.9806104,477,7738.48151
D1,Americano do Brasil/GO,-16.2515808,-49.9806104,16,259.57171
1,Ametista do Sul/RS,-27.3617341,-53.1826575,597,8064.29826
D1,Ametista do Sul/RS,-27.3617341,-53.1826575,14,189.11252
1,Amontada/CE,-3.3634586,-39.8284791,2633,6007.43800
D1,Amontada/CE,-3.3634586,-39.8284791,50,114.07972
1,Amorinópolis/GO,-16.6211308,-51.0949921,182,5930.27045
D1,Amorinópolis/GO,-16.6211308,-51.0949921,3,97.75171
1,Amparo de São Francisco/SE,-10.1299754,-36.9269099,202,8487.39496
D1,Amparo de São Francisco/SE,-10.1299754,-36.9269099,3,126.05042
1,Amparo do Serra/MG,-20.5070255,-42.8028462,137,2928.60197
D1,Amparo do Serra/MG,-20.5070255,-42.8028462,7,149.63660
1,Amparo/PB,-7.56394725,-37.04652873235175,161,7152.37672
D1,Amparo/PB,-7.56394725,-37.04652873235175,4,177.69880
1,Amparo/SP,-22.70111,-46.76444,5154,7091.65210
D1,Amparo/SP,-22.70111,-46.76444,123,169.24199
1,Ampére/PR,-25.9168712,-53.4742414,1296,6711.20087
D1,Ampére/PR,-25.9168712,-53.4742414,27,139.81668
1,Amélia Rodrigues/BA,-12.4015388,-38.7516971,1952,7793.03737
D1,Amélia Rodrigues/BA,-12.4015388,-38.7516971,39,155.70105
1,América Dourada/BA,-11.4515262,-41.4357517,839,5214.41889
D1,América Dourada/BA,-11.4515262,-41.4357517,7,43.50528
1,Américo Brasiliense/SP,-21.7297099,-48.1052092,3393,8269.15578
D1,Américo Brasiliense/SP,-21.7297099,-48.1052092,82,199.84402
1,Américo de Campos/SP,-20.298476,-49.735904,707,11820.76576
D1,Américo de Campos/SP,-20.298476,-49.735904,23,384.55108
1,Anadia/AL,-9.6830208,-36.3052699,1180,6732.85405
D1,Anadia/AL,-9.6830208,-36.3052699,28,159.76264
1,Anagé/BA,-14.6134669,-41.1376308,823,3808.95080
D1,Anagé/BA,-14.6134669,-41.1376308,17,78.67821
1,Anahy/PR,-24.6450861,-53.1337957,330,11836.44189
D1,Anahy/PR,-24.6450861,-53.1337957,8,286.94405
1,Anajatuba/MA,-3.26441,-44.6179916,828,3068.03024
D1,Anajatuba/MA,-3.26441,-44.6179916,23,85.22306
1,Anajás/PA,-0.9878802,-49.9390114,1329,4476.55618
D1,Anajás/PA,-0.9878802,-49.9390114,21,70.73565
1,Analândia/SP,-22.128917,-47.661939,274,5419.30380
D1,Analândia/SP,-22.128917,-47.661939,4,79.11392
1,Anamã/AM,-3.5797356,-61.4049996,1731,12403.26741
D1,Anamã/AM,-3.5797356,-61.4049996,9,64.48839
1,Ananindeua/PA,-1.374035,-48.4016623,22214,4147.90859
D1,Ananindeua/PA,-1.374035,-48.4016623,782,146.01893
1,Ananás/TO,-6.3663053,-48.080238,1514,15950.27391
D1,Ananás/TO,-6.3663053,-48.080238,22,231.77413
1,Anapu/PA,-3.4668292,-51.2057035,1302,4551.33359
D1,Anapu/PA,-3.4668292,-51.2057035,36,125.84333
1,Anapurus/MA,-3.6751298,-43.1046001,828,5209.51302
D1,Anapurus/MA,-3.6751298,-43.1046001,11,69.20851
1,Anastácio/MS,-20.4832458,-55.8048448,1946,7710.90066
D1,Anastácio/MS,-20.4832458,-55.8048448,60,237.74617
1,Anaurilândia/MS,-22.185169,-52.719056,418,4605.55311
D1,Anaurilândia/MS,-22.185169,-52.719056,13,143.23491
1,Anchieta/ES,-20.8057672,-40.6454564,4500,15111.32006
D1,Anchieta/ES,-20.8057672,-40.6454564,81,272.00376
1,Anchieta/SC,-26.5350527,-53.3293938,538,9681.48281
D1,Anchieta/SC,-26.5350527,-53.3293938,7,125.96725
1,Andaraí/BA,-12.8059674,-41.3322919,717,5459.94517
D1,Andaraí/BA,-12.8059674,-41.3322919,6,45.68992
1,Andirá/PR,-23.0494761,-50.2310027,1802,9043.46080
D1,Andirá/PR,-23.0494761,-50.2310027,67,336.24410
1,Andorinha/BA,-10.3445708,-39.8334411,771,5316.14149
D1,Andorinha/BA,-10.3445708,-39.8334411,12,82.74150
1,Andradas/MG,-22.0680484,-46.5688976,2955,7138.37086
D1,Andradas/MG,-22.0680484,-46.5688976,87,210.16523
1,Andradina/SP,-20.896505,-51.3742765,5157,9015.41904
D1,Andradina/SP,-20.896505,-51.3742765,219,382.85375
1,Andrelândia/MG,-21.739722,-44.308889,206,1687.69458
D1,Andrelândia/MG,-21.739722,-44.308889,7,57.34884
1,André da Rocha/RS,-28.6309124,-51.5733328,101,7520.47655
1,Angatuba/SP,-23.4938938,-48.4110675,2326,9129.08670
D1,Angatuba/SP,-23.4938938,-48.4110675,57,223.71365
1,Angelim/PE,-8.8902038,-36.2872987,183,1630.14431
D1,Angelim/PE,-8.8902038,-36.2872987,6,53.44735
1,Angelina/SC,-27.5805287,-48.9838759,483,10183.42821
D1,Angelina/SC,-27.5805287,-48.9838759,1,21.08370
1,Angelândia/MG,-17.7253,-42.2728,94,1098.51583
D1,Angelândia/MG,-17.7253,-42.2728,1,11.68634
1,Angical do Piauí/PI,-6.0872666,-42.7366138,657,9685.97966
D1,Angical do Piauí/PI,-6.0872666,-42.7366138,9,132.68465
1,Angical/BA,-12.005623,-44.7000236,554,3974.74530
D1,Angical/BA,-12.005623,-44.7000236,11,78.92094
1,Angico/TO,-6.3893733,-47.8656722,220,6369.42675
D1,Angico/TO,-6.3893733,-47.8656722,3,86.85582
1,Angicos/RN,-5.6666344,-36.6009064,745,6364.80137
D1,Angicos/RN,-5.6666344,-36.6009064,18,153.78044
1,Angra dos Reis/RJ,-23.0063966,-44.316326,12826,6194.81849
D1,Angra dos Reis/RJ,-23.0063966,-44.316326,433,209.13429
1,Anguera/BA,-12.1509425,-39.2452469,377,3337.16916
D1,Anguera/BA,-12.1509425,-39.2452469,1,8.85191
1,Angélica/MS,-22.1588196,-53.7728504,956,8744.96890
D1,Angélica/MS,-22.1588196,-53.7728504,16,146.35931
1,Anhanguera/GO,-18.3338749,-48.220363,88,7586.20690
D1,Anhanguera/GO,-18.3338749,-48.220363,6,517.24138
1,Anhembi/SP,-22.7891096,-48.1316776,209,3064.96554
D1,Anhembi/SP,-22.7891096,-48.1316776,5,73.32453
1,Anhumas/SP,-22.2956478,-51.3873401,196,4729.72973
D1,Anhumas/SP,-22.2956478,-51.3873401,4,96.52510
1,Anicuns/GO,-16.4606451,-49.9572265,2423,11023.15636
D1,Anicuns/GO,-16.4606451,-49.9572265,57,259.31486
1,Anita Garibaldi/SC,-27.6855032,-51.1293873,1100,15811.41297
D1,Anita Garibaldi/SC,-27.6855032,-51.1293873,9,129.36611
1,Anitápolis/SC,-27.9041185,-49.1287395,314,9727.38538
D1,Anitápolis/SC,-27.9041185,-49.1287395,4,123.91574
1,Anori/AM,-3.7435254,-61.6605203,1873,8720.95730
D1,Anori/AM,-3.7435254,-61.6605203,31,144.34046
1,Anta Gorda/RS,-28.9718745,-52.0069187,574,9629.25684
D1,Anta Gorda/RS,-28.9718745,-52.0069187,4,67.10284
1,Antas/BA,-10.4114649,-38.3308815,1135,5826.78782
D1,Antas/BA,-10.4114649,-38.3308815,8,41.06987
1,Antonina do Norte/CE,-6.7754187,-39.9879345,625,8471.13039
D1,Antonina do Norte/CE,-6.7754187,-39.9879345,24,325.29141
1,Antonina/PR,-25.4298854,-48.7125431,2281,12037.57454
D1,Antonina/PR,-25.4298854,-48.7125431,58,306.08475
1,Antônio Almeida/PI,-7.2186016,-44.1950248,404,12744.47950
D1,Antônio Almeida/PI,-7.2186016,-44.1950248,10,315.45741
1,Antônio Cardoso/BA,-12.4363122,-39.1200307,384,3288.51589
D1,Antônio Cardoso/BA,-12.4363122,-39.1200307,8,68.51075
1,Antônio Carlos/MG,-21.318334,-43.746666,539,4703.72633
D1,Antônio Carlos/MG,-21.318334,-43.746666,12,104.72118
1,Antônio Carlos/SC,-27.5168462,-48.7684715,1463,16985.95147
D1,Antônio Carlos/SC,-27.5168462,-48.7684715,22,255.42784
1,Antônio Dias/MG,-19.6525,-42.872778,524,5649.59569
D1,Antônio Dias/MG,-19.6525,-42.872778,22,237.19677
1,Antônio Gonçalves/BA,-10.5715409,-40.2748824,746,6280.51861
D1,Antônio Gonçalves/BA,-10.5715409,-40.2748824,8,67.35141
1,Antônio João/MS,-22.1892837,-55.9508227,374,4146.34146
D1,Antônio João/MS,-22.1892837,-55.9508227,8,88.69180
1,Antônio Martins/RN,-6.2155812,-37.8890129,590,8247.13447
D1,Antônio Martins/RN,-6.2155812,-37.8890129,5,69.89097
1,Antônio Olinto/PR,-25.9849006,-50.1974516,365,4914.50114
D1,Antônio Olinto/PR,-25.9849006,-50.1974516,8,107.71509
1,Antônio Prado de Minas/MG,-21.0171988,-42.1101106,157,9892.87965
D1,Antônio Prado de Minas/MG,-21.0171988,-42.1101106,5,315.05986
1,Antônio Prado/RS,-28.8567806,-51.2801355,2185,16749.71253
D1,Antônio Prado/RS,-28.8567806,-51.2801355,21,160.98122
1,Anápolis/GO,-16.3332828,-48.9525756,35883,9159.15379
D1,Anápolis/GO,-16.3332828,-48.9525756,1256,320.59463
1,Anísio de Abreu/PI,-9.185643,-43.04941,284,2857.71785
D1,Anísio de Abreu/PI,-9.185643,-43.04941,10,100.62387
1,Aparecida d'Oeste/SP,-20.4498109,-50.8808706,648,15584.41558
D1,Aparecida d'Oeste/SP,-20.4498109,-50.8808706,12,288.60029
1,Aparecida de Goiânia/GO,-16.8226769,-49.2452546,64652,10955.25514
D1,Aparecida de Goiânia/GO,-16.8226769,-49.2452546,1257,212.99814
1,Aparecida do Rio Doce/GO,-18.2980167,-51.1491312,187,7558.60954
D1,Aparecida do Rio Doce/GO,-18.2980167,-51.1491312,3,121.26112
1,Aparecida do Rio Negro/TO,-9.9513491,-47.9773786,325,6703.79538
D1,Aparecida do Rio Negro/TO,-9.9513491,-47.9773786,6,123.76238
1,Aparecida do Taboado/MS,-20.0840304,-51.1013943,2942,11285.43481
D1,Aparecida do Taboado/MS,-20.0840304,-51.1013943,46,176.45479
1,Aparecida/PB,-6.7859598, -38.0831353,790,9386.88213
D1,Aparecida/PB,-6.7859598, -38.0831353,13,154.46768
1,Aparecida/SP,-22.851552,-45.2340924,2140,5914.05278
D1,Aparecida/SP,-22.851552,-45.2340924,76,210.03178
1,Aperibé/RJ,-21.6211928,-42.1028167,520,4369.38072
D1,Aperibé/RJ,-21.6211928,-42.1028167,23,193.26107
1,Apiacá/ES,-21.152272,-41.569297,738,9769.65846
D1,Apiacá/ES,-21.152272,-41.569297,31,410.37861
1,Apiacás/MT,-9.5678422,-57.394852,1553,15102.59652
D1,Apiacás/MT,-9.5678422,-57.394852,15,145.87183
1,Apiaí/SP,-24.5076527,-48.8461582,1130,4664.41014
D1,Apiaí/SP,-24.5076527,-48.8461582,66,272.43457
1,Apicum-Açu/MA,-1.5279295,-45.082278,475,2727.84701
D1,Apicum-Açu/MA,-1.5279295,-45.082278,5,28.71418
1,Apiúna/SC,-27.0374658,-49.3885037,776,7153.39233
D1,Apiúna/SC,-27.0374658,-49.3885037,15,138.27434
1,Apodi/RN,-5.6631109,-37.796927,5535,15429.00151
D1,Apodi/RN,-5.6631109,-37.796927,86,239.72794
1,Aporá/BA,-11.6599747,-38.0794757,472,2653.47425
D1,Aporá/BA,-11.6599747,-38.0794757,18,101.19181
1,Aporé/GO,-18.9642193,-51.92804,344,8128.54442
D1,Aporé/GO,-18.9642193,-51.92804,9,212.66541
1,Apuarema/BA,-13.8517897,-39.7457126,655,8970.14517
D1,Apuarema/BA,-13.8517897,-39.7457126,9,123.25390
1,Apucarana/PR,-23.5525327,-51.4610764,7944,5831.14347
D1,Apucarana/PR,-23.5525327,-51.4610764,284,208.46485
1,Apuiarés/CE,-3.9460303,-39.4313298,1010,6883.86041
D1,Apuiarés/CE,-3.9460303,-39.4313298,22,149.94547
1,Apuí/AM,-7.1940195,-59.8830192,1313,5872.35565
D1,Apuí/AM,-7.1940195,-59.8830192,28,125.22921
1,Aquidabã/SE,-10.2837579,-37.0188687,1998,9215.44209
D1,Aquidabã/SE,-10.2837579,-37.0188687,33,152.20700
1,Aquidauana/MS,-20.473969,-55.7821375,4385,9129.90069
D1,Aquidauana/MS,-20.473969,-55.7821375,126,262.34150
1,Aquiraz/CE,-3.9063117,-38.387504,5997,7409.64972
D1,Aquiraz/CE,-3.9063117,-38.387504,80,98.84475
1,Arabutã/SC,-27.1587028,-52.1438142,390,9139.91094
D1,Arabutã/SC,-27.1587028,-52.1438142,7,164.04968
1,Aracaju/SE,-10.9162061,-37.0774655,109806,16514.46516
D1,Aracaju/SE,-10.9162061,-37.0774655,2060,309.81730
1,Aracati/CE,-4.558259,-37.767894,6453,8606.86896
D1,Aracati/CE,-4.558259,-37.767894,127,169.38980
1,Aracatu/BA,-14.4274236,-41.4604105,796,6101.95477
D1,Aracatu/BA,-14.4274236,-41.4604105,14,107.32081
1,Araci/BA,-11.3356065,-38.9573261,3291,6022.17830
D1,Araci/BA,-11.3356065,-38.9573261,43,78.68540
1,Aracitaba/MG,-21.3425,-43.378611,77,3739.67946
D1,Aracitaba/MG,-21.3425,-43.378611,8,388.53813
1,Aracoiaba/CE,-4.3702577,-38.8084313,3497,13178.82043
D1,Aracoiaba/CE,-4.3702577,-38.8084313,28,105.52101
1,Aracruz/ES,-19.8245218,-40.2735025,14580,14141.47292
D1,Aracruz/ES,-19.8245218,-40.2735025,207,200.77400
1,Aragarças/GO,-15.8957166,-52.2514538,2055,10136.63493
D1,Aragarças/GO,-15.8957166,-52.2514538,50,246.63345
1,Aragoiânia/GO,-16.9146388,-49.4499148,949,9041.53963
D1,Aragoiânia/GO,-16.9146388,-49.4499148,17,161.96646
1,Aragominas/TO,-7.1654101,-48.525488,492,8584.88920
D1,Aragominas/TO,-7.1654101,-48.525488,9,157.04066
1,Araguacema/TO,-8.8067391,-49.5560969,559,7812.71838
D1,Araguacema/TO,-8.8067391,-49.5560969,11,153.73864
1,Araguaiana/MT,-15.729144,-51.834112,193,6207.78385
D1,Araguaiana/MT,-15.729144,-51.834112,5,160.82342
1,Araguainha/MT,-16.857016,-53.031778,25,2642.70613
1,Araguanã/MA,-2.9508403,-45.6651986,767,4932.15870
D1,Araguanã/MA,-2.9508403,-45.6651986,5,32.15227
1,Araguanã/TO,-6.5799107,-48.6428482,435,7509.06266
D1,Araguanã/TO,-6.5799107,-48.6428482,12,207.14656
1,Araguapaz/GO,-15.0937927,-50.626417,498,6398.56097
D1,Araguapaz/GO,-15.0937927,-50.626417,19,244.12180
1,Araguari/MG,-18.6511256,-48.1933764,13418,11388.07554
D1,Araguari/MG,-18.6511256,-48.1933764,362,307.23531
1,Araguatins/TO,-5.6522925,-48.1158973,2127,5880.56400
D1,Araguatins/TO,-5.6522925,-48.1158973,53,146.53027
1,Araguaçu/TO,-12.928934,-49.823134,791,9342.15188
D1,Araguaçu/TO,-12.928934,-49.823134,18,212.59006
1,Araguaína/TO,-7.193241,-48.2018597,30394,16574.23615
D1,Araguaína/TO,-7.193241,-48.2018597,395,215.39854
1,Araioses/MA,-2.890914,-41.904993,650,1389.75006
D1,Araioses/MA,-2.890914,-41.904993,13,27.79500
1,Aral Moreira/MS,-22.951141,-55.6268421,434,3519.29938
D1,Aral Moreira/MS,-22.951141,-55.6268421,9,72.98086
1,Aramari/BA,-12.0907897,-38.4985065,544,4746.53172
D1,Aramari/BA,-12.0907897,-38.4985065,12,104.70291
1,Arambaré/RS,-30.9132252,-51.4994625,171,4800.67378
D1,Arambaré/RS,-30.9132252,-51.4994625,7,196.51881
1,Arame/MA,-4.8858769,-46.0102484,1216,3711.39055
D1,Arame/MA,-4.8858769,-46.0102484,36,109.87669
1,Aramina/SP,-20.0876144,-47.789201,270,4774.53581
D1,Aramina/SP,-20.0876144,-47.789201,10,176.83466
1,Arandu/SP,-23.1345103,-49.0545651,378,5938.72742
D1,Arandu/SP,-23.1345103,-49.0545651,10,157.10919
1,Arantina/MG,-21.911667,-44.255833,156,5597.41658
D1,Arantina/MG,-21.911667,-44.255833,3,107.64263
1,Arapeí/SP,-22.6738889,-44.4477778,189,7682.92683
D1,Arapeí/SP,-22.6738889,-44.4477778,3,121.95122
1,Arapiraca/AL,-9.754866,-36.661471,24038,10314.65756
D1,Arapiraca/AL,-9.754866,-36.661471,388,166.49002
1,Arapoema/TO,-7.6575001,-49.0641484,432,6529.62515
D1,Arapoema/TO,-7.6575001,-49.0641484,6,90.68924
1,Araponga/MG,-20.666667,-42.520556,380,4495.44540
D1,Araponga/MG,-20.666667,-42.520556,6,70.98072
1,Arapongas/PR,-23.415296,-51.42592,10998,8811.79393
D1,Arapongas/PR,-23.415296,-51.42592,423,338.91515
1,Araporã/MG,-18.4318188,-49.188313,1694,24440.91762
D1,Araporã/MG,-18.4318188,-49.188313,26,375.12624
1,Arapoti/PR,-24.1457957,-49.8224605,2535,8957.59717
D1,Arapoti/PR,-24.1457957,-49.8224605,46,162.54417
1,Araputanga/MT,-15.4710868,-58.346796,1799,10612.94319
D1,Araputanga/MT,-15.4710868,-58.346796,48,283.16913
1,Arapuá/MG,-19.034444,-46.155556,217,7654.32099
D1,Arapuá/MG,-19.034444,-46.155556,2,70.54674
1,Arapuã/PR,-24.3079525,-51.7901941,189,6281.15653
D1,Arapuã/PR,-24.3079525,-51.7901941,5,166.16816
1,Araquari/SC,-26.3703324,-48.7210994,3344,8460.68212
D1,Araquari/SC,-26.3703324,-48.7210994,70,177.10758
1,Arara/PB,-6.8271895,-35.7605703,887,6549.99262
D1,Arara/PB,-6.8271895,-35.7605703,21,155.07311
1,Araranguá/SC,-28.9348832,-49.4858389,9330,13547.85311
D1,Araranguá/SC,-28.9348832,-49.4858389,219,318.00427
1,Araraquara/SP,-21.7886713,-48.1773096,18131,7607.23172
D1,Araraquara/SP,-21.7886713,-48.1773096,402,168.66732
1,Araras/SP,-22.3569477,-47.3838889,14234,10504.33191
D1,Araras/SP,-22.3569477,-47.3838889,320,236.15190
1,Ararendá/CE,-4.7504395,-40.8303611,915,8349.30194
D1,Ararendá/CE,-4.7504395,-40.8303611,17,155.12364
1,Arari/MA,-3.4547602,-44.7772723,681,2275.15702
D1,Arari/MA,-3.4547602,-44.7772723,30,100.22718
1,Araricá/RS,-29.6168543,-50.929121,964,16704.21071
D1,Araricá/RS,-29.6168543,-50.929121,24,415.87247
1,Araripe/CE,-7.212861,-40.1359222,1004,4636.55676
D1,Araripe/CE,-7.212861,-40.1359222,13,60.03510
1,Araripina/PE,-7.5768582,-40.5038509,5996,7065.42232
D1,Araripina/PE,-7.5768582,-40.5038509,128,150.82956
1,Araruama/RJ,-22.8733203,-42.3428897,5357,3989.03889
D1,Araruama/RJ,-22.8733203,-42.3428897,325,242.00815
1,Araruna/PB,-6.5321155,-35.7397595,605,2956.55573
D1,Araruna/PB,-6.5321155,-35.7397595,16,78.18990
1,Araruna/PR,-23.9320308,-52.4976047,1351,9650.00000
D1,Araruna/PR,-23.9320308,-52.4976047,20,142.85714
1,Arataca/BA,-15.2617424,-39.4122943,605,5519.56938
D1,Arataca/BA,-15.2617424,-39.4122943,14,127.72557
1,Aratiba/RS,-27.3955734,-52.3024325,360,5816.77169
D1,Aratiba/RS,-27.3955734,-52.3024325,6,96.94619
1,Aratuba/CE,-4.4195958,-39.0463737,1227,10396.54296
D1,Aratuba/CE,-4.4195958,-39.0463737,8,67.78512
1,Aratuípe/BA,-13.077137,-39.0010786,351,3971.93618
D1,Aratuípe/BA,-13.077137,-39.0010786,9,101.84452
1,Araucária/PR,-25.5861107,-49.4051209,21716,14852.20294
D1,Araucária/PR,-25.5861107,-49.4051209,336,229.80016
1,Arauá/SE,-11.2644014,-37.6181058,1063,10686.63919
D1,Arauá/SE,-11.2644014,-37.6181058,19,191.01237
1,Araxá/MG,-19.5928536,-46.940241,10877,10133.50476
D1,Araxá/MG,-19.5928536,-46.940241,166,154.65310
1,Araçagi/PB,-6.8519969,-35.3835602,1094,6465.33893
D1,Araçagi/PB,-6.8519969,-35.3835602,14,82.73743
1,Araçariguama/SP,-23.438611,-47.061389,1415,6189.85127
D1,Araçariguama/SP,-23.438611,-47.061389,48,209.97375
1,Araçatuba/SP,-21.207992,-50.4390225,23001,11609.10316
D1,Araçatuba/SP,-21.207992,-50.4390225,682,344.22018
1,Araçaí/MG,-19.200833,-44.2475,49,2081.56330
1,Araçoiaba da Serra/SP,-23.5045367,-47.6168158,2230,6412.46837
D1,Araçoiaba da Serra/SP,-23.5045367,-47.6168158,51,146.65286
1,Araçoiaba/PE,-7.7856903,-35.0898881,573,2763.71003
D1,Araçoiaba/PE,-7.7856903,-35.0898881,28,135.05040
1,Araçu/GO,-16.3561579,-49.6815269,391,11216.29375
D1,Araçu/GO,-16.3561579,-49.6815269,15,430.29260
1,Araçuaí/MG,-16.8484451,-42.0661868,1367,3723.57812
D1,Araçuaí/MG,-16.8484451,-42.0661868,32,87.16496
1,Araçás/BA,-12.2139176,-38.2026159,578,4734.60026
D1,Araçás/BA,-12.2139176,-38.2026159,7,57.33945
1,Araújos/MG,-19.948055,-45.165556,656,6977.98107
D1,Araújos/MG,-19.948055,-45.165556,9,95.73450
1,Arceburgo/MG,-21.364444,-46.939722,898,8251.40127
D1,Arceburgo/MG,-21.364444,-46.939722,24,220.52743
1,Arco-Íris/SP,-21.7741308,-50.4668814,111,6260.57530
D1,Arco-Íris/SP,-21.7741308,-50.4668814,6,338.40948
1,Arcos/MG,-20.282223,-45.539444,4497,11136.70134
D1,Arcos/MG,-20.282223,-45.539444,106,262.50619
1,Arcoverde/PE,-8.415192,-37.057748,5247,7012.64334
D1,Arcoverde/PE,-8.415192,-37.057748,111,148.35209
1,Areado/MG,-21.3582771,-46.1476688,642,4228.97042
D1,Areado/MG,-21.3582771,-46.1476688,17,111.98208
1,Areal/RJ,-22.2314922,-43.1056264,1007,7948.53580
D1,Areal/RJ,-22.2314922,-43.1056264,40,315.73131
1,Arealva/SP,-22.0301906,-48.9111936,678,7871.82166
D1,Arealva/SP,-22.0301906,-48.9111936,10,116.10356
1,Areia Branca/RN,-4.9506652,-37.1263312,2237,7998.71277
D1,Areia Branca/RN,-4.9506652,-37.1263312,85,303.92963
1,Areia Branca/SE,-10.7591455,-37.3148072,1690,9044.20422
D1,Areia Branca/SE,-10.7591455,-37.3148072,42,224.76721
1,Areia de Baraúnas/PB,-7.1233949,-36.9446216,123,5812.85444
D1,Areia de Baraúnas/PB,-7.1233949,-36.9446216,3,141.77694
1,Areia/PB,-6.9680243,-35.6994783,1111,4903.77825
D1,Areia/PB,-6.9680243,-35.6994783,22,97.10452
1,Areial/PB,-7.0501306,-35.9245244,283,4027.32318
D1,Areial/PB,-7.0501306,-35.9245244,7,99.61577
1,Areias/SP,-22.5800929,-44.6975127,257,6596.50924
D1,Areias/SP,-22.5800929,-44.6975127,1,25.66735
1,Areiópolis/SP,-22.6758064,-48.6673653,1056,9464.06166
D1,Areiópolis/SP,-22.6758064,-48.6673653,13,116.50833
1,Arenápolis/MT,-14.4610369,-56.8432806,1481,15586.19238
D1,Arenápolis/MT,-14.4610369,-56.8432806,24,252.57840
1,Arenópolis/GO,-16.3859286,-51.55937,175,6900.63091
D1,Arenópolis/GO,-16.3859286,-51.55937,8,315.45741
1,Argirita/MG,-21.612761,-42.8371922,248,9171.59763
D1,Argirita/MG,-21.612761,-42.8371922,5,184.91124
1,Aricanduva/MG,-17.8678,-42.5569,81,1537.29360
1,Arinos/MG,-15.917223,-46.106111,565,3163.13963
D1,Arinos/MG,-15.917223,-46.106111,13,72.78020
1,Aripuanã/MT,-10.175806,-59.4439663,2371,10438.49608
D1,Aripuanã/MT,-10.175806,-59.4439663,41,180.50542
1,Ariquemes/RO,-9.9076522,-63.033069,19933,18199.83017
D1,Ariquemes/RO,-9.9076522,-63.033069,435,397.17685
1,Ariranha do Ivaí/PR,-24.3834527,-51.5876772,141,6824.78219
D1,Ariranha do Ivaí/PR,-24.3834527,-51.5876772,2,96.80542
1,Ariranha/SP,-21.18716,-48.790418,445,4558.95912
D1,Ariranha/SP,-21.18716,-48.790418,16,163.91763
1,Armazém/SC,-28.2624996,-49.0190126,1352,15435.55200
D1,Armazém/SC,-28.2624996,-49.0190126,29,331.08802
1,Armação dos Búzios/RJ,-22.7597805,-41.8875267,4181,12126.92520
D1,Armação dos Búzios/RJ,-22.7597805,-41.8875267,51,147.92470
1,Arneiroz/CE,-6.3235099,-40.1603859,555,7075.47170
D1,Arneiroz/CE,-6.3235099,-40.1603859,15,191.22896
1,Aroazes/PI,-6.1108814,-41.7886137,555,9524.62674
D1,Aroazes/PI,-6.1108814,-41.7886137,12,205.93788
1,Aroeiras do Itaim/PI,-7.2797031,-41.5629681,110,4312.03450
D1,Aroeiras do Itaim/PI,-7.2797031,-41.5629681,2,78.40063
1,Aroeiras/PB,-7.5462904,-35.7080002,1135,5937.43461
D1,Aroeiras/PB,-7.5462904,-35.7080002,7,36.61854
1,Arraial do Cabo/RJ,-22.9662839,-42.024427,654,2137.74393
D1,Arraial do Cabo/RJ,-22.9662839,-42.024427,32,104.59909
1,Arraial/PI,-6.6541632,-42.5335332,145,3072.03390
D1,Arraial/PI,-6.6541632,-42.5335332,2,42.37288
1,Arraias/TO,-12.9287788,-46.9437231,542,5145.24397
D1,Arraias/TO,-12.9287788,-46.9437231,6,56.95842
1,Arroio Grande/RS,-32.2384246,-53.0866661,1704,9343.12973
D1,Arroio Grande/RS,-32.2384246,-53.0866661,49,268.66981
1,Arroio Trinta/SC,-26.9301976,-51.334928,547,15412.79234
D1,Arroio Trinta/SC,-26.9301976,-51.334928,12,338.12342
1,Arroio do Meio/RS,-29.4020392,-51.9444993,2856,13621.40507
D1,Arroio do Meio/RS,-29.4020392,-51.9444993,40,190.77598
1,Arroio do Padre/RS,-31.4428773,-52.4228985,170,5760.75906
D1,Arroio do Padre/RS,-31.4428773,-52.4228985,3,101.66045
1,Arroio do Sal/RS,-29.549852,-49.8874395,996,9689.65853
D1,Arroio do Sal/RS,-29.549852,-49.8874395,33,321.04290
1,Arroio do Tigre/RS,-29.334158,-53.0888935,1014,7559.83002
D1,Arroio do Tigre/RS,-29.334158,-53.0888935,19,141.65362
1,Arroio dos Ratos/RS,-30.0894524,-51.7265541,859,6059.10983
D1,Arroio dos Ratos/RS,-30.0894524,-51.7265541,31,218.66403
1,Artur Nogueira/SP,-22.572737,-47.172679,3665,6622.69606
D1,Artur Nogueira/SP,-22.572737,-47.172679,105,189.73618
1,Aruanã/GO,-14.9162439,-51.0715692,495,4896.14243
D1,Aruanã/GO,-14.9162439,-51.0715692,11,108.80317
1,Arujá/SP,-23.396266,-46.3175449,6650,7295.10625
D1,Arujá/SP,-23.396266,-46.3175449,254,278.64015
1,Arvoredo/SC,-27.0752908,-52.4571847,279,12488.80931
D1,Arvoredo/SC,-27.0752908,-52.4571847,4,179.05103
1,Arvorezinha/RS,-28.87369,-52.17808,755,7243.59589
D1,Arvorezinha/RS,-28.87369,-52.17808,24,230.26000
1,Arês/RN,-6.1969216,-35.1642968,923,6402.16411
D1,Arês/RN,-6.1969216,-35.1642968,20,138.72512
1,Ascurra/SC,-26.9569975,-49.3767752,1080,13537.22738
D1,Ascurra/SC,-26.9569975,-49.3767752,9,112.81023
1,Aspásia/SP,-20.160028,-50.728046,105,5775.57756
D1,Aspásia/SP,-20.160028,-50.728046,4,220.02200
1,Assaré/CE,-6.8746791,-39.8741385,1701,7245.08050
D1,Assaré/CE,-6.8746791,-39.8741385,32,136.29781
1,Assaí/PR,-23.3736041,-50.8454929,1226,8198.47532
D1,Assaí/PR,-23.3736041,-50.8454929,39,260.79979
1,Assis Brasil/AC,-10.9409203,-69.5672108,1631,21648.52668
D1,Assis Brasil/AC,-10.9409203,-69.5672108,23,305.28272
1,Assis Chateaubriand/PR,-24.4054826,-53.5120468,3634,10899.82004
D1,Assis Chateaubriand/PR,-24.4054826,-53.5120468,79,236.95261
1,Assis/SP,-22.6620892,-50.420623,8758,8334.04703
D1,Assis/SP,-22.6620892,-50.420623,294,279.76819
1,Assunção do Piauí/PI,-5.8610212,-41.0485091,307,3904.36220
D1,Assunção do Piauí/PI,-5.8610212,-41.0485091,7,89.02455
1,Assunção/PB,-7.073396,-36.7274003,331,8215.43807
D1,Assunção/PB,-7.073396,-36.7274003,3,74.46016
1,Astolfo Dutra/MG,-21.3132636,-42.8624102,1254,8787.66643
D1,Astolfo Dutra/MG,-21.3132636,-42.8624102,20,140.15417
1,Astorga/PR,-23.2350184,-51.6647074,2691,10267.46537
D1,Astorga/PR,-23.2350184,-51.6647074,63,240.37544
1,Atalaia do Norte/AM,-4.3658547,-70.1908742,2742,13442.49436
D1,Atalaia do Norte/AM,-4.3658547,-70.1908742,8,39.21953
1,Atalaia/AL,-9.5029595,-36.0219316,1088,2297.05479
D1,Atalaia/AL,-9.5029595,-36.0219316,45,95.00686
1,Atalaia/PR,-23.1513833,-52.0529697,351,9044.06081
D1,Atalaia/PR,-23.1513833,-52.0529697,16,412.26488
1,Atalanta/SC,-27.421916,-49.778863,380,11893.58372
D1,Atalanta/SC,-27.421916,-49.778863,11,344.28795
1,Ataléia/MG,-18.04432,-41.1110524,1047,8258.40038
D1,Ataléia/MG,-18.04432,-41.1110524,8,63.10144
1,Atibaia/SP,-23.1177393,-46.5547861,9525,6610.54356
D1,Atibaia/SP,-23.1177393,-46.5547861,224,155.46055
1,Atilio Vivacqua/ES,-20.9139369,-41.1947519,1397,11540.68567
D1,Atilio Vivacqua/ES,-20.9139369,-41.1947519,27,223.04833
1,Augustinópolis/TO,-5.4662267,-47.8897519,1409,7557.79649
D1,Augustinópolis/TO,-5.4662267,-47.8897519,26,139.46253
1,Augusto Corrêa/PA,-1.0229335,-46.6404029,1957,4211.22851
D1,Augusto Corrêa/PA,-1.0229335,-46.6404029,42,90.37895
1,Augusto Pestana/RS,-28.5148413,-53.9906433,647,9800.06059
D1,Augusto Pestana/RS,-28.5148413,-53.9906433,9,136.32233
1,Augusto de Lima/MG,-18.1092963,-44.2651945,238,4906.20491
D1,Augusto de Lima/MG,-18.1092963,-44.2651945,8,164.91445
1,Aurelino Leal/BA,-14.3167137,-39.3256107,882,7806.00053
D1,Aurelino Leal/BA,-14.3167137,-39.3256107,25,221.25852
1,Auriflama/SP,-20.6840418,-50.5554616,1723,11296.13846
D1,Auriflama/SP,-20.6840418,-50.5554616,60,393.36524
1,Aurilândia/GO,-16.6772599,-50.4641231,175,5722.69457
D1,Aurilândia/GO,-16.6772599,-50.4641231,7,228.90778
1,Aurora do Pará/PA,-2.1323199,-47.558436,1415,4453.46678
D1,Aurora do Pará/PA,-2.1323199,-47.558436,14,44.06257
1,Aurora do Tocantins/TO,-12.71045,-46.407604,172,4546.65609
D1,Aurora do Tocantins/TO,-12.71045,-46.407604,3,79.30214
1,Aurora/CE,-6.9426019,-38.9693765,1450,5891.91386
D1,Aurora/CE,-6.9426019,-38.9693765,30,121.90167
1,Aurora/SC,-27.3166417,-49.6368502,724,12739.75013
D1,Aurora/SC,-27.3166417,-49.6368502,14,246.34876
1,Autazes/AM,-3.5833283,-59.1301518,2829,7021.59345
D1,Autazes/AM,-3.5833283,-59.1301518,93,230.82651
1,Avanhandava/SP,-21.4603331,-49.9465156,675,4870.48128
D1,Avanhandava/SP,-21.4603331,-49.9465156,26,187.60372
1,Avaré/SP,-23.1045215,-48.9259103,7867,8623.07085
D1,Avaré/SP,-23.1045215,-48.9259103,170,186.33813
1,Avaí/SP,-22.1564662,-49.3316395,305,5610.74319
D1,Avaí/SP,-22.1564662,-49.3316395,9,165.56291
1,Aveiro/PA,-3.6049239,-55.3310742,628,3828.33455
D1,Aveiro/PA,-3.6049239,-55.3310742,10,60.96074
1,Avelino Lopes/PI,-10.1346855,-43.9489525,358,3160.86880
D1,Avelino Lopes/PI,-10.1346855,-43.9489525,19,167.75561
1,Avelinópolis/GO,-16.4672409,-49.7578661,264,10958.90411
D1,Avelinópolis/GO,-16.4672409,-49.7578661,11,456.62100
1,Axixá do Tocantins/TO,-5.612747,-47.77007,1012,10340.24727
D1,Axixá do Tocantins/TO,-5.612747,-47.77007,17,173.69981
1,Axixá/MA,-2.8379465,-44.0561053,191,1567.75835
D1,Axixá/MA,-2.8379465,-44.0561053,6,49.24895
1,Açailândia/MA,-4.9514278,-47.4844564,5004,4423.58183
D1,Açailândia/MA,-4.9514278,-47.4844564,183,161.77368
1,Açu/RN,-5.5836157,-36.9139541,5496,9413.53796
D1,Açu/RN,-5.5836157,-36.9139541,128,219.23815
1,Açucena/MG,-19.073056,-42.546666,717,7653.71477
D1,Açucena/MG,-19.073056,-42.546666,28,298.88984
1,Babaçulândia/TO,-7.2034355,-47.761613,654,6131.63323
D1,Babaçulândia/TO,-7.2034355,-47.761613,5,46.87793
1,Bacabal/MA,-4.2318132,-44.781167,4685,4470.84645
D1,Bacabal/MA,-4.2318132,-44.781167,167,159.36635
1,Bacabeira/MA,-2.9775747,-44.3155943,320,1854.85741
D1,Bacabeira/MA,-2.9775747,-44.3155943,6,34.77858
1,Bacuri/MA,-1.728894,-45.1417148,435,2331.93953
D1,Bacuri/MA,-1.728894,-45.1417148,4,21.44312
1,Bacurituba/MA,-2.7082587,-44.7381309,117,2063.49206
D1,Bacurituba/MA,-2.7082587,-44.7381309,1,17.63668
1,Bady Bassitt/SP,-20.9178969,-49.4517911,2753,15500.25336
D1,Bady Bassitt/SP,-20.9178969,-49.4517911,64,360.34007
1,Baependi/MG,-21.959162,-44.8899249,1279,6661.80530
D1,Baependi/MG,-21.959162,-44.8899249,12,62.50326
1,Bagre/PA,-1.8994498,-50.2103844,883,2818.83480
D1,Bagre/PA,-1.8994498,-50.2103844,11,35.11572
1,Bagé/RS,-31.3314264,-54.1062808,8415,6935.34429
D1,Bagé/RS,-31.3314264,-54.1062808,235,193.67866
1,Baianópolis/BA,-12.3067564,-44.5383591,708,5082.92053
D1,Baianópolis/BA,-12.3067564,-44.5383591,8,57.43413
1,Baixa Grande do Ribeiro/PI,-7.862861,-45.2113289,2173,18618.79873
D1,Baixa Grande do Ribeiro/PI,-7.862861,-45.2113289,23,197.06966
1,Baixa Grande/BA,-11.9630941,-40.1657537,644,3149.29825
D1,Baixa Grande/BA,-11.9630941,-40.1657537,10,48.90215
1,Baixio/CE,-6.7303544,-38.7170095,429,6806.28272
D1,Baixio/CE,-6.7303544,-38.7170095,10,158.65461
1,Baixo Guandu/ES,-19.5138322,-41.0182089,3253,10449.05563
D1,Baixo Guandu/ES,-19.5138322,-41.0182089,69,221.63690
1,Baião/PA,-2.7903479,-49.6702845,717,1479.60131
D1,Baião/PA,-2.7903479,-49.6702845,30,61.90800
1,Balbinos/SP,-21.9006253,-49.3583966,323,5443.20863
D1,Balbinos/SP,-21.9006253,-49.3583966,4,67.40816
1,Baldim/MG,-19.2913568,-43.9558262,560,7176.72690
D1,Baldim/MG,-19.2913568,-43.9558262,16,205.04934
1,Baliza/GO,-16.1978119,-52.542789,236,4469.69697
D1,Baliza/GO,-16.1978119,-52.542789,6,113.63636
1,Balneário Arroio do Silva/SC,-28.9815269,-49.4189932,1897,14125.09308
D1,Balneário Arroio do Silva/SC,-28.9815269,-49.4189932,47,349.96277
1,Balneário Barra do Sul/SC,-26.459842,-48.6061471,1334,12088.80834
D1,Balneário Barra do Sul/SC,-26.459842,-48.6061471,35,317.17263
1,Balneário Camboriú/SC,-26.9924395,-48.6339782,23043,15804.96036
D1,Balneário Camboriú/SC,-26.9924395,-48.6339782,342,234.57434
1,Balneário Gaivota/SC,-29.1553098,-49.5808712,1159,10293.07282
D1,Balneário Gaivota/SC,-29.1553098,-49.5808712,31,275.31083
1,Balneário Pinhal/RS,-30.2482978,-50.234585,667,4643.87663
D1,Balneário Pinhal/RS,-30.2482978,-50.234585,40,278.49335
1,Balneário Piçarras/SC,-26.7638889,-48.6716667,4306,18113.74727
D1,Balneário Piçarras/SC,-26.7638889,-48.6716667,45,189.29833
1,Balneário Rincão/SC,-28.8235718,-49.2241642,1274,9840.87749
D1,Balneário Rincão/SC,-28.8235718,-49.2241642,39,301.25135
1,Balsa Nova/PR,-25.5842234,-49.6312741,1332,10174.15215
D1,Balsa Nova/PR,-25.5842234,-49.6312741,25,190.95631
1,Balsas/MA,-7.53214,-46.037163,9179,9568.53506
D1,Balsas/MA,-7.53214,-46.037163,165,172.00221
1,Bambuí/MG,-20.0131996,-45.9777034,1343,5619.71713
D1,Bambuí/MG,-20.0131996,-45.9777034,21,87.87346
1,Banabuiú/CE,-5.3046404,-38.919766,1589,8703.98773
D1,Banabuiú/CE,-5.3046404,-38.919766,15,82.16477
1,Bananal/SP,-22.6828195,-44.3221095,905,8232.51160
D1,Bananal/SP,-22.6828195,-44.3221095,3,27.29009
1,Bananeiras/PB,-6.7537682,-35.6338343,1076,5059.00607
D1,Bananeiras/PB,-6.7537682,-35.6338343,20,94.03357
1,Bandeira do Sul/MG,-21.728056,-46.385555,298,5157.49394
D1,Bandeira do Sul/MG,-21.728056,-46.385555,10,173.07027
1,Bandeira/MG,-15.884444,-40.559167,453,9504.82585
D1,Bandeira/MG,-15.884444,-40.559167,9,188.83760
1,Bandeirante/SC,-26.7677402,-53.6397596,249,9403.32326
D1,Bandeirante/SC,-26.7677402,-53.6397596,2,75.52870
1,Bandeirantes do Tocantins/TO,-7.7635698,-48.579148,423,11776.16927
D1,Bandeirantes do Tocantins/TO,-7.7635698,-48.579148,6,167.03786
1,Bandeirantes/MS,-19.9179623,-54.3646768,490,6743.73796
D1,Bandeirantes/MS,-19.9179623,-54.3646768,9,123.86457
1,Bandeirantes/PR,-23.107788,-50.370407,3842,12309.76258
D1,Bandeirantes/PR,-23.107788,-50.370407,104,333.21585
1,Bannach/PA,-7.3508505,-50.4064531,640,19619.86511
D1,Bannach/PA,-7.3508505,-50.4064531,3,91.96812
1,Banzaê/BA,-10.5827616,-38.6122305,919,6941.08761
D1,Banzaê/BA,-10.5827616,-38.6122305,7,52.87009
1,Baraúna/PB,-6.643394,-36.2531932,428,8622.07897
D1,Baraúna/PB,-6.643394,-36.2531932,5,100.72522
1,Baraúna/RN,-5.0775002,-37.61752,985,3426.44450
D1,Baraúna/RN,-5.0775002,-37.61752,22,76.52972
1,Barbacena/MG,-21.2254524,-43.7735087,6790,4913.02712
D1,Barbacena/MG,-21.2254524,-43.7735087,223,161.35568
1,Barbalha/CE,-7.3121067,-39.3036427,5427,8863.59182
D1,Barbalha/CE,-7.3121067,-39.3036427,113,184.55609
1,Barbosa Ferraz/PR,-24.0287182,-52.00811,1006,8804.48101
D1,Barbosa Ferraz/PR,-24.0287182,-52.00811,29,253.80711
1,Barbosa/SP,-21.265661,-49.951816,386,5168.71987
D1,Barbosa/SP,-21.265661,-49.951816,11,147.29513
1,Barcarena/PA,-1.5107945,-48.6190679,10614,8355.70391
D1,Barcarena/PA,-1.5107945,-48.6190679,210,165.31918
1,Barcelona/RN,-5.9514918,-35.9260284,89,2228.34251
D1,Barcelona/RN,-5.9514918,-35.9260284,4,100.15023
1,Barcelos/AM,-0.9729214,-62.925635,4219,15265.21456
D1,Barcelos/AM,-0.9729214,-62.925635,57,206.23779
1,Bariri/SP,-22.0746355,-48.7394852,2412,6783.28365
D1,Bariri/SP,-22.0746355,-48.7394852,97,272.79375
1,Barra Bonita/SC,-26.6526364,-53.4419581,162,9812.23501
D1,Barra Bonita/SC,-26.6526364,-53.4419581,1,60.56935
1,Barra Bonita/SP,-22.490859,-48.558349,2805,7764.49095
D1,Barra Bonita/SP,-22.490859,-48.558349,77,213.14289
1,Barra D'Alcântara/PI,-6.5209258,-42.1071089,118,2985.82996
D1,Barra D'Alcântara/PI,-6.5209258,-42.1071089,4,101.21457
1,Barra Funda/RS,-27.9230048,-53.0401045,460,18032.14426
D1,Barra Funda/RS,-27.9230048,-53.0401045,8,313.60251
1,Barra Longa/MG,-20.2833541,-43.0423516,338,6739.78066
D1,Barra Longa/MG,-20.2833541,-43.0423516,9,179.46162
1,Barra Mansa/RJ,-22.5394843,-44.1735129,14254,7711.82635
D1,Barra Mansa/RJ,-22.5394843,-44.1735129,527,285.12225
1,Barra Velha/SC,-26.6338203,-48.6835001,3843,12870.06028
D1,Barra Velha/SC,-26.6338203,-48.6835001,86,288.01072
1,Barra da Estiva/BA,-13.6269662,-41.3278287,1977,9694.97842
D1,Barra da Estiva/BA,-13.6269662,-41.3278287,18,88.26991
1,Barra de Guabiraba/PE,-8.4173522,-35.6626669,346,2384.56237
D1,Barra de Guabiraba/PE,-8.4173522,-35.6626669,14,96.48518
1,Barra de Santa Rosa/PB,-6.7218007,-36.0564638,1191,7685.35846
D1,Barra de Santa Rosa/PB,-6.7218007,-36.0564638,7,45.17003
1,Barra de Santana/PB,-7.5230865,-35.9988518,406,4862.85783
D1,Barra de Santana/PB,-7.5230865,-35.9988518,5,59.88741
1,Barra de Santo Antônio/AL,-9.4038098,-35.5117693,367,2284.04282
D1,Barra de Santo Antônio/AL,-9.4038098,-35.5117693,22,136.91810
1,Barra de São Francisco/ES,-18.7570902,-40.8916119,4476,9951.31061
D1,Barra de São Francisco/ES,-18.7570902,-40.8916119,183,406.85653
1,Barra de São Miguel/AL,-9.8261357,-35.8837777,466,5562.18668
D1,Barra de São Miguel/AL,-9.8261357,-35.8837777,7,83.55216
1,Barra de São Miguel/PB,-7.7528088,-36.3170996,456,7518.54905
D1,Barra de São Miguel/PB,-7.7528088,-36.3170996,7,115.41632
1,Barra do Bugres/MT,-15.0683712,-57.1853688,2586,7324.32662
D1,Barra do Bugres/MT,-15.0683712,-57.1853688,60,169.93797
1,Barra do Chapéu/SP,-24.472203,-49.023784,243,4218.75000
D1,Barra do Chapéu/SP,-24.472203,-49.023784,2,34.72222
1,Barra do Choça/BA,-14.8638173,-40.5761637,1893,6065.55801
D1,Barra do Choça/BA,-14.8638173,-40.5761637,27,86.51351
1,Barra do Corda/MA,-5.496823,-45.248496,5435,6141.79813
D1,Barra do Corda/MA,-5.496823,-45.248496,56,63.28256
1,Barra do Garças/MT,-15.8916033,-52.2615413,7032,11502.41269
D1,Barra do Garças/MT,-15.8916033,-52.2615413,245,400.75243
1,Barra do Guarita/RS,-27.1888016,-53.7147086,111,3408.04421
D1,Barra do Guarita/RS,-27.1888016,-53.7147086,7,214.92171
1,Barra do Jacaré/PR,-23.1151788,-50.1813945,166,5969.07587
D1,Barra do Jacaré/PR,-23.1151788,-50.1813945,1,35.95829
1,Barra do Mendes/BA,-11.8053298,-42.057037,706,5103.73744
D1,Barra do Mendes/BA,-11.8053298,-42.057037,11,79.51999
1,Barra do Ouro/TO,-7.7113784,-47.6743925,122,2633.85147
D1,Barra do Ouro/TO,-7.7113784,-47.6743925,6,129.53368
1,Barra do Piraí/RJ,-22.4703403,-43.8263256,5592,5549.60105
D1,Barra do Piraí/RJ,-22.4703403,-43.8263256,330,327.49792
1,Barra do Quaraí/RS,-30.208947,-57.5505128,360,8516.67850
D1,Barra do Quaraí/RS,-30.208947,-57.5505128,6,141.94464
1,Barra do Ribeiro/RS,-30.2930206,-51.301437,1007,7428.44497
D1,Barra do Ribeiro/RS,-30.2930206,-51.301437,47,346.70994
1,Barra do Rio Azul/RS,-27.4101581,-52.4117471,89,5377.64350
D1,Barra do Rio Azul/RS,-27.4101581,-52.4117471,1,60.42296
1,Barra do Rocha/BA,-14.2090974,-39.6004395,449,8000.71276
D1,Barra do Rocha/BA,-14.2090974,-39.6004395,5,89.09480
1,Barra do Turvo/SP,-24.756421,-48.5056942,526,6892.03354
D1,Barra do Turvo/SP,-24.756421,-48.5056942,16,209.64361
1,Barra dos Coqueiros/SE,-10.9075694,-37.0386249,6266,20258.64856
D1,Barra dos Coqueiros/SE,-10.9075694,-37.0386249,80,258.64856
1,Barra/BA,-11.0892702,-43.1420453,1942,3602.30013
D1,Barra/BA,-11.0892702,-43.1420453,39,72.34279
1,Barracão/PR,-26.252395,-53.6349576,1101,10676.88130
D1,Barracão/PR,-26.252395,-53.6349576,29,281.22576
1,Barracão/RS,-27.6728964,-51.4582928,382,7267.88432
D1,Barracão/RS,-27.6728964,-51.4582928,13,247.33638
1,Barras/PI,-4.2446153,-42.2920241,4528,9596.27000
D1,Barras/PI,-4.2446153,-42.2920241,86,182.26131
1,Barreira/CE,-4.2883361,-38.641094,1291,5719.22208
D1,Barreira/CE,-4.2883361,-38.641094,33,146.19235
1,Barreiras do Piauí/PI,-9.9224524,-45.4763776,70,2088.30549
D1,Barreiras do Piauí/PI,-9.9224524,-45.4763776,1,29.83294
1,Barreiras/BA,-12.1440031,-44.9967406,15939,10153.84615
D1,Barreiras/BA,-12.1440031,-44.9967406,254,161.80921
1,Barreirinha/AM,-2.798863,-57.067897,2354,7246.86759
D1,Barreirinha/AM,-2.798863,-57.067897,61,187.79054
1,Barreirinhas/MA,-2.7541271,-42.8259693,1909,3019.75734
D1,Barreirinhas/MA,-2.7541271,-42.8259693,35,55.36485
1,Barreiros/PE,-8.8159644,-35.1831905,737,1723.41222
D1,Barreiros/PE,-8.8159644,-35.1831905,55,128.61285
1,Barretos/SP,-20.5531437,-48.5697509,11990,9761.22052
D1,Barretos/SP,-20.5531437,-48.5697509,367,298.77964
1,Barrinha/SP,-21.1898849,-48.1550642,1403,4228.45087
D1,Barrinha/SP,-21.1898849,-48.1550642,53,159.73478
1,Barro Alto/BA,-11.7618025,-41.9094904,773,5134.84788
D1,Barro Alto/BA,-11.7618025,-41.9094904,8,53.14202
1,Barro Alto/GO,-14.9696025,-48.9190985,1247,10930.92567
D1,Barro Alto/GO,-14.9696025,-48.9190985,15,131.48668
1,Barro Duro/PI,-5.8180139,-42.5106589,673,9577.34453
D1,Barro Duro/PI,-5.8180139,-42.5106589,11,156.53906
1,Barro Preto/BA,-14.8068289,-39.4727588,569,10444.19971
D1,Barro Preto/BA,-14.8068289,-39.4727588,10,183.55360
1,Barro/CE,-7.1713587,-38.7742136,1317,5786.97601
D1,Barro/CE,-7.1713587,-38.7742136,21,92.27524
1,Barrocas/BA,-11.5165,-39.099282894736845,711,4414.77802
D1,Barrocas/BA,-11.5165,-39.099282894736845,22,136.60354
1,Barrolândia/TO,-9.837246,-48.7264346,715,12652.62785
D1,Barrolândia/TO,-9.837246,-48.7264346,20,353.91966
1,Barroquinha/CE,-3.0200371,-41.1339229,1000,6647.16831
D1,Barroquinha/CE,-3.0200371,-41.1339229,24,159.53204
1,Barros Cassal/RS,-29.094938,-52.5832366,609,5446.25291
D1,Barros Cassal/RS,-29.094938,-52.5832366,8,71.54355
1,Barroso/MG,-21.187222,-43.976111,1519,7268.98598
D1,Barroso/MG,-21.187222,-43.976111,40,191.41504
1,Barueri/SP,-23.5112184,-46.8764612,25482,9199.87580
D1,Barueri/SP,-23.5112184,-46.8764612,926,334.31775
1,Barão de Antonina/SP,-23.6295651,-49.5632104,312,8919.38250
D1,Barão de Antonina/SP,-23.6295651,-49.5632104,7,200.11435
1,Barão de Cocais/MG,-19.9452437,-43.4870298,3409,10372.42135
D1,Barão de Cocais/MG,-19.9452437,-43.4870298,57,173.43151
1,Barão de Cotegipe/RS,-27.6214694,-52.3765316,631,9531.72205
D1,Barão de Cotegipe/RS,-27.6214694,-52.3765316,7,105.74018
1,Barão de Grajaú/MA,-6.7542591,-43.0263477,375,1981.61065
D1,Barão de Grajaú/MA,-6.7542591,-43.0263477,2,10.56859
1,Barão de Melgaço/MT,-16.195776,-55.9668049,335,4103.38070
D1,Barão de Melgaço/MT,-16.195776,-55.9668049,14,171.48457
1,Barão de Monte Alto/MG,-21.244722,-42.2375,190,3548.74860
D1,Barão de Monte Alto/MG,-21.244722,-42.2375,8,149.42099
1,Barão do Triunfo/RS,-30.3909877,-51.7375349,407,5412.95385
D1,Barão do Triunfo/RS,-30.3909877,-51.7375349,6,79.79785
1,Barão/RS,-29.372474,-51.494908,525,8465.01129
D1,Barão/RS,-29.372474,-51.494908,8,128.99065
1,Bastos/SP,-21.9222474,-50.7317727,1085,5178.25610
D1,Bastos/SP,-21.9222474,-50.7317727,31,147.95017
1,Bataguassu/MS,-21.715899,-52.422058,2591,11108.25295
D1,Bataguassu/MS,-21.715899,-52.422058,31,132.90461
1,Batalha/AL,-9.6733809,-37.1265481,1000,5453.15738
D1,Batalha/AL,-9.6733809,-37.1265481,15,81.79736
1,Batalha/PI,-4.022391,-42.0780926,976,3627.57852
D1,Batalha/PI,-4.022391,-42.0780926,30,111.50344
1,Batatais/SP,-20.892867,-47.592149,2509,3983.80438
D1,Batatais/SP,-20.892867,-47.592149,125,198.47571
1,Batayporã/MS,-22.2976466,-53.2685608,808,7119.57001
D1,Batayporã/MS,-22.2976466,-53.2685608,12,105.73619
1,Baturité/CE,-4.3290203,-38.8821055,3483,9690.88228
D1,Baturité/CE,-4.3290203,-38.8821055,71,197.54598
1,Bauru/SP,-22.3218102,-49.0705863,39139,10318.82667
D1,Bauru/SP,-22.3218102,-49.0705863,884,233.06275
1,Bayeux/PB,-7.1301631,-34.936532,6391,6574.89995
D1,Bayeux/PB,-7.1301631,-34.936532,227,233.53189
1,Baía Formosa/RN,-6.3691885,-35.0063741,318,3411.28513
D1,Baía Formosa/RN,-6.3691885,-35.0063741,8,85.81849
1,Baía da Traição/PB,-6.691258,-34.9371244,1245,13687.33509
D1,Baía da Traição/PB,-6.691258,-34.9371244,12,131.92612
1,Bebedouro/SP,-20.949077,-48.479083,3512,4528.39920
D1,Bebedouro/SP,-20.949077,-48.479083,116,149.57127
1,Beberibe/CE,-4.1810469,-38.1298101,4198,7781.42320
D1,Beberibe/CE,-4.1810469,-38.1298101,97,179.79944
1,Bela Cruz/CE,-3.0529129,-40.167582,3163,9666.27957
D1,Bela Cruz/CE,-3.0529129,-40.167582,63,192.53102
1,Bela Vista da Caroba/PR,-25.8792818,-53.6672545,161,4657.21724
D1,Bela Vista da Caroba/PR,-25.8792818,-53.6672545,5,144.63408
1,Bela Vista de Goiás/GO,-16.9692949,-48.9513071,2246,7365.86646
D1,Bela Vista de Goiás/GO,-16.9692949,-48.9513071,58,190.21383
1,Bela Vista de Minas/MG,-19.8289721,-43.0973688,725,7064.89963
D1,Bela Vista de Minas/MG,-19.8289721,-43.0973688,22,214.38316
1,Bela Vista do Maranhão/MA,-3.7416367,-45.2514192,206,1826.40305
D1,Bela Vista do Maranhão/MA,-3.7416367,-45.2514192,16,141.85655
1,Bela Vista do Paraíso/PR,-22.9948493,-51.1907996,1711,11111.11111
D1,Bela Vista do Paraíso/PR,-22.9948493,-51.1907996,59,383.14176
1,Bela Vista do Piauí/PI,-7.9716353,-41.8715061,258,6401.98511
D1,Bela Vista do Piauí/PI,-7.9716353,-41.8715061,6,148.88337
1,Bela Vista do Toldo/SC,-26.274625,-50.466354,72,1131.71959
D1,Bela Vista do Toldo/SC,-26.274625,-50.466354,3,47.15498
1,Bela Vista/MS,-22.107327,-56.5317344,808,3266.62624
D1,Bela Vista/MS,-22.107327,-56.5317344,20,80.85709
1,Belford Roxo/RJ,-22.7667284,-43.4033603,19862,3870.84452
D1,Belford Roxo/RJ,-22.7667284,-43.4033603,647,126.09185
1,Belmiro Braga/MG,-21.9486291,-43.413564,169,4934.30657
D1,Belmiro Braga/MG,-21.9486291,-43.413564,3,87.59124
1,Belmonte/BA,-15.8630837,-38.8792845,973,4151.55523
D1,Belmonte/BA,-15.8630837,-38.8792845,19,81.06840
1,Belmonte/SC,-26.8448262,-53.578916,224,8268.73385
D1,Belmonte/SC,-26.8448262,-53.578916,5,184.56995
1,Belo Campo/BA,-15.0338286,-41.2585109,765,4471.33088
D1,Belo Campo/BA,-15.0338286,-41.2585109,12,70.13852
1,Belo Horizonte/MG,-19.9227318,-43.9450948,204663,8116.51023
D1,Belo Horizonte/MG,-19.9227318,-43.9450948,5054,200.43116
1,Belo Jardim/PE,-8.3338293,-36.4176419,3139,4093.26222
D1,Belo Jardim/PE,-8.3338293,-36.4176419,97,126.48819
1,Belo Monte/AL,-9.8269944,-37.2787165,280,4172.87630
D1,Belo Monte/AL,-9.8269944,-37.2787165,8,119.22504
1,Belo Oriente/MG,-19.2232523,-42.4807033,2449,9072.38646
D1,Belo Oriente/MG,-19.2232523,-42.4807033,58,214.86256
1,Belo Vale/MG,-20.407778,-44.024167,675,8744.65604
D1,Belo Vale/MG,-20.407778,-44.024167,10,129.55046
1,Belterra/PA,-2.636091,-54.937392,1303,7304.22109
D1,Belterra/PA,-2.636091,-54.937392,24,134.53669
1,Belágua/MA,-3.1604031,-43.5085052,379,5034.53773
D1,Belágua/MA,-3.1604031,-43.5085052,3,39.85122
1,Belém de Maria/PE,-8.6242497,-35.8388934,221,1823.13150
D1,Belém de Maria/PE,-8.6242497,-35.8388934,6,49.49678
1,Belém do Brejo do Cruz/PB,-6.1880727,-37.5332267,495,6735.61029
D1,Belém do Brejo do Cruz/PB,-6.1880727,-37.5332267,5,68.03647
1,Belém do Piauí/PI,-7.3767305,-40.9712156,437,12182.88263
D1,Belém do Piauí/PI,-7.3767305,-40.9712156,7,195.14915
1,Belém do São Francisco/PE,-8.7517707,-38.9625715,622,3000.48239
D1,Belém do São Francisco/PE,-8.7517707,-38.9625715,9,43.41534
1,Belém/AL,-9.5715351,-36.492841,110,2567.69374
D1,Belém/AL,-9.5715351,-36.492841,3,70.02801
1,Belém/PA,-1.45056,-48.4682453,99489,6634.18778
D1,Belém/PA,-1.45056,-48.4682453,4747,316.54243
1,Belém/PB,-6.6967586,-35.5369626,1916,10821.80175
D1,Belém/PB,-6.6967586,-35.5369626,35,197.68427
1,Beneditinos/PI,-5.4565671,-42.3605061,1082,10331.32818
D1,Beneditinos/PI,-5.4565671,-42.3605061,34,324.64432
1,Benedito Leite/MA,-7.2173453,-44.5523331,296,5250.08868
D1,Benedito Leite/MA,-7.2173453,-44.5523331,2,35.47357
1,Benedito Novo/SC,-26.7840657,-49.3629511,926,7864.11890
D1,Benedito Novo/SC,-26.7840657,-49.3629511,17,144.37367
1,Benevides/PA,-1.3555577,-48.252235,3724,5839.91971
D1,Benevides/PA,-1.3555577,-48.252235,93,145.84117
1,Benjamin Constant do Sul/RS,-27.5105555,-52.6007689,152,7763.02349
1,Benjamin Constant/AM,-4.3782748,-70.0290603,2686,6113.57687
D1,Benjamin Constant/AM,-4.3782748,-70.0290603,85,193.46762
1,Bento Fernandes/RN,-5.6926846,-35.8207423,143,2588.23529
D1,Bento Fernandes/RN,-5.6926846,-35.8207423,3,54.29864
1,Bento Gonçalves/RS,-29.1654014,-51.5197627,15963,13105.58853
D1,Bento Gonçalves/RS,-29.1654014,-51.5197627,274,224.95341
1,Bento de Abreu/SP,-21.2707225,-50.8120444,288,9584.02662
1,Bequimão/MA,-2.4495376,-44.7884889,275,1291.14043
D1,Bequimão/MA,-2.4495376,-44.7884889,17,79.81595
1,Berilo/MG,-16.9515764,-42.4643732,131,1103.43666
D1,Berilo/MG,-16.9515764,-42.4643732,1,8.42318
1,Berizal/MG,-15.6118785,-41.7417382,113,2371.95634
D1,Berizal/MG,-15.6118785,-41.7417382,1,20.99076
1,Bernardino Batista/PB,-6.4532173,-38.5495418,232,6561.08597
1,Bernardino de Campos/SP,-23.0140216,-49.4760724,543,4866.46352
D1,Bernardino de Campos/SP,-23.0140216,-49.4760724,17,152.35705
1,Bernardo Sayão/TO,-7.8794244,-48.8968905,468,10521.58273
D1,Bernardo Sayão/TO,-7.8794244,-48.8968905,6,134.89209
1,Bernardo do Mearim/MA,-4.6315929,-44.7617508,269,4429.44179
D1,Bernardo do Mearim/MA,-4.6315929,-44.7617508,6,98.79796
1,Bertioga/SP,-23.848568,-46.139586,5128,7922.99492
D1,Bertioga/SP,-23.848568,-46.139586,136,210.12623
1,Bertolínia/PI,-7.6372159,-43.9540611,834,15144.36172
D1,Bertolínia/PI,-7.6372159,-43.9540611,10,181.58707
1,Bertópolis/MG,-17.063333,-40.573889,276,5990.88344
1,Beruri/AM,-3.9007135,-61.3717319,2177,10834.61902
D1,Beruri/AM,-3.9007135,-61.3717319,32,159.25944
1,Betim/MG,-19.968056,-44.198333,27150,6104.08648
D1,Betim/MG,-19.968056,-44.198333,1028,231.12342
1,Betânia do Piauí/PI,-8.1460635,-40.7961387,157,2528.18035
D1,Betânia do Piauí/PI,-8.1460635,-40.7961387,2,32.20612
1,Betânia/PE,-8.2742779,-38.0351767,450,3525.26439
D1,Betânia/PE,-8.2742779,-38.0351767,13,101.84097
1,Bezerros/PE,-8.2372132,-35.7558262,3522,5785.15112
D1,Bezerros/PE,-8.2372132,-35.7558262,105,172.47043
1,Bias Fortes/MG,-21.605833,-43.756944,101,3033.94413
D1,Bias Fortes/MG,-21.605833,-43.756944,3,90.11715
1,Bicas/MG,-21.7213723,-43.0604327,1301,8939.12327
D1,Bicas/MG,-21.7213723,-43.0604327,38,261.09661
1,Biguaçu/SC,-27.4961277,-48.6542432,10480,15082.17483
D1,Biguaçu/SC,-27.4961277,-48.6542432,154,221.62738
1,Bilac/SP,-21.403962,-50.47464,752,9264.50659
D1,Bilac/SP,-21.403962,-50.47464,13,160.15769
1,Biquinhas/MG,-18.783611,-45.502222,106,4243.39472
D1,Biquinhas/MG,-18.783611,-45.502222,1,40.03203
1,Birigui/SP,-21.2908491,-50.34144,12333,9875.64360
D1,Birigui/SP,-21.2908491,-50.34144,442,353.93128
1,Biritiba Mirim/SP,-23.5697765,-46.0407456,1169,3549.30775
D1,Biritiba Mirim/SP,-23.5697765,-46.0407456,76,230.75055
1,Biritinga/BA,-11.6227908,-38.8066738,381,2383.63363
D1,Biritinga/BA,-11.6227908,-38.8066738,6,37.53754
1,Bituruna/PR,-26.161281,-51.5533319,861,5250.00000
D1,Bituruna/PR,-26.161281,-51.5533319,10,60.97561
1,Blumenau/SC,-26.9195567,-49.0658025,47018,12993.60241
D1,Blumenau/SC,-26.9195567,-49.0658025,532,147.02022
1,Boa Esperança do Iguaçu/PR,-25.6362851,-53.2139114,144,5829.95951
1,Boa Esperança do Sul/SP,-21.9930206,-48.3917372,849,5653.21614
D1,Boa Esperança do Sul/SP,-21.9930206,-48.3917372,13,86.56279
1,Boa Esperança/ES,-18.5395472,-40.2904088,1352,8958.38855
D1,Boa Esperança/ES,-18.5395472,-40.2904088,37,245.16300
1,Boa Esperança/MG,-21.0901253,-45.5660195,3434,8538.25306
D1,Boa Esperança/MG,-21.0901253,-45.5660195,90,223.77483
1,Boa Esperança/PR,-24.2411024,-52.7860277,327,8080.05930
D1,Boa Esperança/PR,-24.2411024,-52.7860277,13,321.22560
1,Boa Hora/PI,-4.4094627,-42.1255341,510,7483.49230
D1,Boa Hora/PI,-4.4094627,-42.1255341,6,88.04109
1,Boa Nova/BA,-14.365907,-40.2063056,810,6569.87590
D1,Boa Nova/BA,-14.365907,-40.2063056,12,97.33149
1,Boa Ventura de São Roque/PR,-24.88177,-51.5441292,401,6300.07855
D1,Boa Ventura de São Roque/PR,-24.88177,-51.5441292,5,78.55460
1,Boa Ventura/PB,-7.4202462,-38.2156782,322,6067.45807
D1,Boa Ventura/PB,-7.4202462,-38.2156782,5,94.21519
1,Boa Viagem/CE,-5.1261877,-39.7300055,3454,6328.67325
D1,Boa Viagem/CE,-5.1261877,-39.7300055,90,164.90463
1,Boa Vista da Aparecida/PR,-25.4357216,-53.4067721,745,9880.63660
D1,Boa Vista da Aparecida/PR,-25.4357216,-53.4067721,24,318.30239
1,Boa Vista das Missões/RS,-27.6677983,-53.3127622,158,7552.58126
D1,Boa Vista das Missões/RS,-27.6677983,-53.3127622,4,191.20459
1,Boa Vista do Buricá/RS,-27.6687782,-54.1111913,703,10473.77831
D1,Boa Vista do Buricá/RS,-27.6687782,-54.1111913,9,134.08820
1,Boa Vista do Cadeado/RS,-28.5783827,-53.8123759,144,5834.68395
D1,Boa Vista do Cadeado/RS,-28.5783827,-53.8123759,2,81.03728
1,Boa Vista do Gurupi/MA,-1.7981168,-46.3071882,15,178.95490
D1,Boa Vista do Gurupi/MA,-1.7981168,-46.3071882,4,47.72131
1,Boa Vista do Incra/RS,-28.8195551,-53.3866624,248,9480.12232
D1,Boa Vista do Incra/RS,-28.8195551,-53.3866624,4,152.90520
1,Boa Vista do Ramos/AM,-2.9716927,-57.5869819,906,4616.32528
D1,Boa Vista do Ramos/AM,-2.9716927,-57.5869819,11,56.04810
1,Boa Vista do Sul/RS,-29.3510488,-51.6779679,267,9611.23110
D1,Boa Vista do Sul/RS,-29.3510488,-51.6779679,3,107.99136
1,Boa Vista do Tupim/BA,-12.6605988,-40.6083594,232,1251.95618
D1,Boa Vista do Tupim/BA,-12.6605988,-40.6083594,4,21.58545
1,Boa Vista/PB,-7.2620711,-36.2415161,592,8295.96413
D1,Boa Vista/PB,-7.2620711,-36.2415161,10,140.13453
1,Boa Vista/RR,2.8208478,-60.6719582,78695,18752.44250
D1,Boa Vista/RR,2.8208478,-60.6719582,1257,299.53390
1,Boca da Mata/AL,-9.6452054,-36.2116658,1674,6119.31569
D1,Boca da Mata/AL,-9.6452054,-36.2116658,42,153.53122
1,Boca do Acre/AM,-8.7553487,-67.3930873,2545,7348.05832
D1,Boca do Acre/AM,-8.7553487,-67.3930873,23,66.40681
1,Bocaina de Minas/MG,-22.167778,-44.394722,171,3360.18864
D1,Bocaina de Minas/MG,-22.167778,-44.394722,7,137.55158
1,Bocaina do Sul/SC,-27.745494,-49.942279,363,10407.11009
D1,Bocaina do Sul/SC,-27.745494,-49.942279,3,86.00917
1,Bocaina/PI,-6.9445939,-41.3224599,250,5549.38957
D1,Bocaina/PI,-6.9445939,-41.3224599,4,88.79023
1,Bocaina/SP,-22.1421831,-48.522276,1117,8970.44651
D1,Bocaina/SP,-22.1421831,-48.522276,26,208.80180
1,Bocaiúva do Sul/PR,-25.206591,-49.114131,1617,12316.24648
D1,Bocaiúva do Sul/PR,-25.206591,-49.114131,15,114.25089
1,Bocaiúva/MG,-17.1160208,-43.8122678,1941,3862.22541
D1,Bocaiúva/MG,-17.1160208,-43.8122678,50,99.49061
1,Bodocó/PE,-7.777592,-39.933797,1793,4671.94747
D1,Bodocó/PE,-7.777592,-39.933797,27,70.35281
1,Bodoquena/MS,-20.5508775,-56.6769653,332,4235.77443
D1,Bodoquena/MS,-20.5508775,-56.6769653,12,153.10028
1,Bodó/RN,-5.9866104,-36.4134824,138,6281.29267
1,Bofete/SP,-23.1019554,-48.2610535,620,5200.90596
D1,Bofete/SP,-23.1019554,-48.2610535,13,109.05125
1,Boituva/SP,-23.2838893,-47.6738231,4624,7437.67090
D1,Boituva/SP,-23.2838893,-47.6738231,120,193.01914
1,Bom Conselho/PE,-9.169191,-36.685683,1530,3137.36748
D1,Bom Conselho/PE,-9.169191,-36.685683,50,102.52835
1,Bom Despacho/MG,-19.7375242,-45.2517288,3366,6596.37846
D1,Bom Despacho/MG,-19.7375242,-45.2517288,68,133.26017
1,Bom Jardim da Serra/SC,-28.3380324,-49.625588,568,11902.76614
D1,Bom Jardim da Serra/SC,-28.3380324,-49.625588,4,83.82230
1,Bom Jardim de Goiás/GO,-16.2062659,-52.172793,670,7554.40298
D1,Bom Jardim de Goiás/GO,-16.2062659,-52.172793,14,157.85320
1,Bom Jardim de Minas/MG,-21.9476466,-44.1906033,427,6610.93048
D1,Bom Jardim de Minas/MG,-21.9476466,-44.1906033,3,46.44682
1,Bom Jardim/MA,-3.54129,-45.606004,1346,3218.40180
D1,Bom Jardim/MA,-3.54129,-45.606004,45,107.59887
1,Bom Jardim/PE,-7.7961572,-35.5871696,1249,3123.82763
D1,Bom Jardim/PE,-7.7961572,-35.5871696,56,140.05953
1,Bom Jardim/RJ,-22.1515328,-42.4186683,1432,5185.39977
D1,Bom Jardim/RJ,-22.1515328,-42.4186683,39,141.22248
1,Bom Jesus da Lapa/BA,-13.250571,-43.410754,4362,6261.66346
D1,Bom Jesus da Lapa/BA,-13.250571,-43.410754,57,81.82366
1,Bom Jesus da Penha/MG,-21.0165299,-46.5226644,451,10626.76720
D1,Bom Jesus da Penha/MG,-21.0165299,-46.5226644,10,235.62677
1,Bom Jesus da Serra/BA,-14.3724084,-40.5047119,418,4255.31915
D1,Bom Jesus da Serra/BA,-14.3724084,-40.5047119,8,81.44151
1,Bom Jesus das Selvas/MA,-4.4878075,-46.8526639,2946,8522.57934
D1,Bom Jesus das Selvas/MA,-4.4878075,-46.8526639,23,66.53745
1,Bom Jesus de Goiás/GO,-18.2174587,-49.739721,2512,9794.13600
D1,Bom Jesus de Goiás/GO,-18.2174587,-49.739721,99,385.99501
1,Bom Jesus do Amparo/MG,-19.7045132,-43.4752911,190,3097.99446
D1,Bom Jesus do Amparo/MG,-19.7045132,-43.4752911,6,97.83140
1,Bom Jesus do Araguaia/MT,-12.1725897,-51.5074425,930,13868.17775
D1,Bom Jesus do Araguaia/MT,-12.1725897,-51.5074425,15,223.68029
1,Bom Jesus do Galho/MG,-19.8283191,-42.3162256,572,3848.74176
D1,Bom Jesus do Galho/MG,-19.8283191,-42.3162256,26,174.94281
1,Bom Jesus do Itabapoana/RJ,-21.1341025,-41.680095,2908,7816.57393
D1,Bom Jesus do Itabapoana/RJ,-21.1341025,-41.680095,79,212.34847
1,Bom Jesus do Norte/ES,-21.1254776,-41.6711646,931,9345.51295
D1,Bom Jesus do Norte/ES,-21.1254776,-41.6711646,22,220.83919
1,Bom Jesus do Oeste/SC,-26.6929713,-53.0967453,178,8321.64563
D1,Bom Jesus do Oeste/SC,-26.6929713,-53.0967453,6,280.50491
1,Bom Jesus do Sul/PR,-26.1922507,-53.6002033,368,10496.29207
D1,Bom Jesus do Sul/PR,-26.1922507,-53.6002033,3,85.56760
1,Bom Jesus do Tocantins/PA,-5.0471796,-48.5978362,746,4357.98575
D1,Bom Jesus do Tocantins/PA,-5.0471796,-48.5978362,24,140.20329
1,Bom Jesus do Tocantins/TO,-8.96306,-48.165043,127,2535.94249
D1,Bom Jesus do Tocantins/TO,-8.96306,-48.165043,3,59.90415
1,Bom Jesus dos Perdões/SP,-23.1353864,-46.4648052,1884,7250.33673
D1,Bom Jesus dos Perdões/SP,-23.1353864,-46.4648052,24,92.36098
1,Bom Jesus/PB,-6.8156725,-38.6551841,127,4932.03883
D1,Bom Jesus/PB,-6.8156725,-38.6551841,3,116.50485
1,Bom Jesus/PI,-9.0711644,-44.3583926,3092,12179.46193
D1,Bom Jesus/PI,-9.0711644,-44.3583926,34,133.92681
1,Bom Jesus/RN,-5.9887544,-35.5821149,688,6701.08113
D1,Bom Jesus/RN,-5.9887544,-35.5821149,13,126.61927
1,Bom Jesus/RS,-28.6692723,-50.4346894,769,6799.89389
D1,Bom Jesus/RS,-28.6692723,-50.4346894,16,141.48024
1,Bom Jesus/SC,-26.7350604,-52.3916519,343,11220.15047
D1,Bom Jesus/SC,-26.7350604,-52.3916519,6,196.27085
1,Bom Lugar/MA,-4.3728019,-45.0366054,447,2719.30892
D1,Bom Lugar/MA,-4.3728019,-45.0366054,7,42.58426
1,Bom Princípio do Piauí/PI,-3.1912777,-41.6430185,121,2141.21394
D1,Bom Princípio do Piauí/PI,-3.1912777,-41.6430185,12,212.35180
1,Bom Princípio/RS,-29.489788,-51.3566782,1631,11441.59944
D1,Bom Princípio/RS,-29.489788,-51.3566782,26,182.39214
1,Bom Progresso/RS,-27.5490948,-53.8655601,117,6161.13744
D1,Bom Progresso/RS,-27.5490948,-53.8655601,3,157.97788
1,Bom Repouso/MG,-22.4657069,-46.1485376,827,7848.53374
D1,Bom Repouso/MG,-22.4657069,-46.1485376,19,180.31698
1,Bom Retiro do Sul/RS,-29.6000007,-51.9359243,933,7530.26634
D1,Bom Retiro do Sul/RS,-29.6000007,-51.9359243,26,209.84665
1,Bom Retiro/SC,-27.798993,-49.486994,671,6669.98012
D1,Bom Retiro/SC,-27.798993,-49.486994,15,149.10537
1,Bom Sucesso de Itararé/SP,-24.3190016,-49.1446207,131,3288.15261
D1,Bom Sucesso de Itararé/SP,-24.3190016,-49.1446207,5,125.50201
1,Bom Sucesso do Sul/PR,-26.0749256,-52.8348629,354,10878.91825
D1,Bom Sucesso do Sul/PR,-26.0749256,-52.8348629,6,184.38844
1,Bom Sucesso/MG,-21.0323516,-44.7598082,701,3981.37105
D1,Bom Sucesso/MG,-21.0323516,-44.7598082,5,28.39780
1,Bom Sucesso/PB,-6.4458948,-37.9297662,243,4903.14770
D1,Bom Sucesso/PB,-6.4458948,-37.9297662,3,60.53269
1,Bom Sucesso/PR,-23.7088019,-51.7651297,694,9818.90209
D1,Bom Sucesso/PR,-23.7088019,-51.7651297,12,169.77929
1,Bombinhas/SC,-27.1519159,-48.4875691,3347,16459.30661
D1,Bombinhas/SC,-27.1519159,-48.4875691,54,265.55200
1,Bonfim do Piauí/PI,-9.1648678,-42.8734415,315,5540.89710
D1,Bonfim do Piauí/PI,-9.1648678,-42.8734415,6,105.54090
1,Bonfim/MG,-20.3266626, -44.2386157,358,5218.65889
D1,Bonfim/MG,-20.3266626, -44.2386157,13,189.50437
1,Bonfim/RR,3.3613818,-59.8427241,2197,17496.21725
D1,Bonfim/RR,3.3613818,-59.8427241,25,199.09214
1,Bonfinópolis de Minas/MG,-16.5660011,-45.98645,396,7274.06319
D1,Bonfinópolis de Minas/MG,-16.5660011,-45.98645,12,220.42616
1,Bonfinópolis/GO,-16.6172709,-48.9615701,447,4506.50267
D1,Bonfinópolis/GO,-16.6172709,-48.9615701,18,181.46991
1,Boninal/BA,-12.7095183,-41.8299984,580,4014.95224
D1,Boninal/BA,-12.7095183,-41.8299984,7,48.45632
1,Bonito de Minas/MG,-15.3191266,-44.7544,43,378.22148
1,Bonito de Santa Fé/PB,-7.3143332,-38.5146677,429,3568.45783
D1,Bonito de Santa Fé/PB,-7.3143332,-38.5146677,11,91.49892
1,Bonito/BA,-11.9665473,-41.2649896,783,4637.52665
D1,Bonito/BA,-11.9665473,-41.2649896,10,59.22767
1,Bonito/MS,-21.1264766,-56.4902208,2537,11433.07796
D1,Bonito/MS,-21.1264766,-56.4902208,52,234.33979
1,Bonito/PA,-1.3605722,-47.3049907,360,2177.85844
D1,Bonito/PA,-1.3605722,-47.3049907,12,72.59528
1,Bonito/PE,-8.4721161,-35.7314591,725,1902.03846
D1,Bonito/PE,-8.4721161,-35.7314591,35,91.82255
1,Bonópolis/GO,-13.649331,-49.8329113,145,3227.24238
D1,Bonópolis/GO,-13.649331,-49.8329113,1,22.25684
1,Boqueirão do Leão/RS,-29.30332,-52.4296817,557,7231.88782
D1,Boqueirão do Leão/RS,-29.30332,-52.4296817,28,363.54194
1,Boqueirão do Piauí/PI,-4.4850148,-42.1095161,557,8667.91161
D1,Boqueirão do Piauí/PI,-4.4850148,-42.1095161,10,155.61780
1,Boqueirão/PB,-7.487004,-36.130887,1449,8108.56184
D1,Boqueirão/PB,-7.487004,-36.130887,28,156.68719
1,Boquim/SE,-11.1450175,-37.6204228,2219,8249.37730
D1,Boquim/SE,-11.1450175,-37.6204228,57,211.90379
1,Boquira/BA,-12.8184859,-42.7270883,508,2363.12044
D1,Boquira/BA,-12.8184859,-42.7270883,11,51.16993
1,Boracéia/SP,-22.195355,-48.7801925,832,17091.20789
D1,Boracéia/SP,-22.195355,-48.7801925,21,431.38866
1,Borba/AM,-4.3934778,-59.5947721,2046,4900.83357
D1,Borba/AM,-4.3934778,-59.5947721,58,138.92881
1,Borborema/PB,-6.8066718,-35.5990191,368,6960.46908
D1,Borborema/PB,-6.8066718,-35.5990191,12,226.97182
1,Borborema/SP,-21.6212706,-49.074135,1239,7665.18189
D1,Borborema/SP,-21.6212706,-49.074135,39,241.27691
1,Borda da Mata/MG,-22.274167,-46.165278,1225,6245.53890
D1,Borda da Mata/MG,-22.274167,-46.165278,40,203.93596
1,Borebi/SP,-22.5700178,-48.9714871,159,5926.20201
D1,Borebi/SP,-22.5700178,-48.9714871,2,74.54342
1,Borrazópolis/PR,-23.9393362,-51.5850786,647,10048.14412
D1,Borrazópolis/PR,-23.9393362,-51.5850786,19,295.07688
1,Borá/SP,-22.2701088,-50.544407,101,12052.50597
D1,Borá/SP,-22.2701088,-50.544407,1,119.33174
1,Bossoroca/RS,-28.7278885,-54.9120278,381,6140.20951
D1,Bossoroca/RS,-28.7278885,-54.9120278,20,322.32071
1,Botelhos/MG,-21.65,-46.394722,1373,9184.56084
D1,Botelhos/MG,-21.65,-46.394722,19,127.09880
1,Botucatu/SP,-22.8879628,-48.4410712,12069,8147.57308
D1,Botucatu/SP,-22.8879628,-48.4410712,229,154.59394
1,Botumirim/MG,-16.862778,-43.011111,210,3339.69466
D1,Botumirim/MG,-16.862778,-43.011111,3,47.70992
1,Botuporã/BA,-13.3744752,-42.5198469,193,1905.42008
D1,Botuporã/BA,-13.3744752,-42.5198469,3,29.61793
1,Botuverá/SC,-27.200749,-49.068892,860,16159.33859
D1,Botuverá/SC,-27.200749,-49.068892,8,150.31943
1,Bozano/RS,-28.3669953,-53.7705165,221,10468.97205
D1,Bozano/RS,-28.3669953,-53.7705165,7,331.59640
1,Braga/RS,-27.617348,-53.740514,256,7731.80308
D1,Braga/RS,-27.617348,-53.740514,7,211.41649
1,Braganey/PR,-24.8179919,-53.118506,375,6967.67001
D1,Braganey/PR,-24.8179919,-53.118506,7,130.06317
1,Bragança Paulista/SP,-22.9520235,-46.5418586,14291,8380.19621
D1,Bragança Paulista/SP,-22.9520235,-46.5418586,407,238.66348
1,Bragança/PA,-1.0573967,-46.7635406,3910,3033.02977
D1,Bragança/PA,-1.0573967,-46.7635406,135,104.72098
1,Branquinha/AL,-9.2478057,-36.0152009,476,4550.66922
D1,Branquinha/AL,-9.2478057,-36.0152009,9,86.04207
1,Brasil Novo/PA,-3.3055853,-52.539198,1710,11412.93466
D1,Brasil Novo/PA,-3.3055853,-52.539198,40,266.96923
1,Brasileira/PI,-4.131182,-41.7824969,537,6433.44914
D1,Brasileira/PI,-4.131182,-41.7824969,10,119.80352
1,Brasilândia de Minas/MG,-17.0096469,-46.0087183,1029,6144.01720
D1,Brasilândia de Minas/MG,-17.0096469,-46.0087183,14,83.59207
1,Brasilândia do Sul/PR,-24.1975793,-53.527551,351,13578.33656
D1,Brasilândia do Sul/PR,-24.1975793,-53.527551,9,348.16248
1,Brasilândia do Tocantins/TO,-8.3886619,-48.4842729,200,9045.68069
D1,Brasilândia do Tocantins/TO,-8.3886619,-48.4842729,4,180.91361
1,Brasilândia/MS,-21.255575,-52.0365617,953,8040.15861
D1,Brasilândia/MS,-21.255575,-52.0365617,16,134.98692
1,Brasiléia/AC,-11.0010413,-68.7487894,2726,10208.97311
D1,Brasiléia/AC,-11.0010413,-68.7487894,37,138.56640
1,Brasnorte/MT,-12.1227151,-58.0050109,1845,9160.87388
D1,Brasnorte/MT,-12.1227151,-58.0050109,31,153.92254
1,Brasília de Minas/MG,-16.2075114,-44.430559,905,2792.77889
D1,Brasília de Minas/MG,-16.2075114,-44.430559,7,21.60160
1,Brasília/DF,-15.7934036,-47.8823172,405903,13285.86593
D1,Brasília/DF,-15.7934036,-47.8823172,8670,283.78321
1,Brazabrantes/GO,-16.4291635,-49.3858216,408,10891.61773
D1,Brazabrantes/GO,-16.4291635,-49.3858216,3,80.08542
1,Brazópolis/MG,-22.4742842,-45.6165577,748,5190.83969
D1,Brazópolis/MG,-22.4742842,-45.6165577,28,194.30951
1,Braço do Norte/SC,-28.2728633,-49.1622712,7461,22024.44208
D1,Braço do Norte/SC,-28.2728633,-49.1622712,82,242.05928
1,Braço do Trombudo/SC,-27.358578,-49.882145,582,15441.76174
D1,Braço do Trombudo/SC,-27.358578,-49.882145,4,106.12895
1,Braúna/SP,-21.5015319,-50.3175246,407,7089.35725
D1,Braúna/SP,-21.5015319,-50.3175246,19,330.95280
1,Braúnas/MG,-19.055556,-42.716111,197,4130.84504
D1,Braúnas/MG,-19.055556,-42.716111,7,146.78130
1,Brejetuba/ES,-20.1465817,-41.2902303,1528,12295.80752
D1,Brejetuba/ES,-20.1465817,-41.2902303,13,104.61093
1,Brejinho de Nazaré/TO,-11.0205883,-48.5722906,430,7791.26653
D1,Brejinho de Nazaré/TO,-11.0205883,-48.5722906,12,217.43069
1,Brejinho/PE,-7.3482153,-37.28538,615,8213.14103
D1,Brejinho/PE,-7.3482153,-37.28538,18,240.38462
1,Brejinho/RN,-6.1957907,-35.3583019,1102,8618.12779
D1,Brejinho/RN,-6.1957907,-35.3583019,12,93.84531
1,Brejo Alegre/SP,-21.1671191,-50.1850393,305,10557.28626
D1,Brejo Alegre/SP,-21.1671191,-50.1850393,12,415.36864
1,Brejo Grande do Araguaia/PA,-5.7011449,-48.4037308,775,10518.45820
D1,Brejo Grande do Araguaia/PA,-5.7011449,-48.4037308,4,54.28882
1,Brejo Grande/SE,-10.4287358,-36.4667918,369,4417.57452
D1,Brejo Grande/SE,-10.4287358,-36.4667918,12,143.66096
1,Brejo Santo/CE,-7.4909841,-38.9859152,7695,15438.78657
D1,Brejo Santo/CE,-7.4909841,-38.9859152,139,278.88126
1,Brejo da Madre de Deus/PE,-8.1409718,-36.3712527,1898,3705.22206
D1,Brejo da Madre de Deus/PE,-8.1409718,-36.3712527,47,91.75207
1,Brejo de Areia/MA,-4.3316785,-45.5833334,287,3183.93610
D1,Brejo de Areia/MA,-4.3316785,-45.5833334,9,99.84469
1,Brejo do Cruz/PB,-6.32926065,-37.48746163303929,1286,9052.51302
D1,Brejo do Cruz/PB,-6.32926065,-37.48746163303929,20,140.78558
1,Brejo do Piauí/PI,-8.207583,-42.8359849,100,2598.75260
D1,Brejo do Piauí/PI,-8.207583,-42.8359849,3,77.96258
1,Brejo dos Santos/PB,-6.3769367,-37.8243125,452,6992.57426
D1,Brejo dos Santos/PB,-6.3769367,-37.8243125,4,61.88119
1,Brejo/MA,-3.6804397,-42.7529313,859,2343.72868
D1,Brejo/MA,-3.6804397,-42.7529313,19,51.84033
1,Brejolândia/BA,-12.4843845,-43.9611861,191,1798.83217
D1,Brejolândia/BA,-12.4843845,-43.9611861,8,75.34376
1,Brejão/PE,-9.029146,-36.566034,297,3304.77356
D1,Brejão/PE,-9.029146,-36.566034,5,55.63592
1,Brejões/BA,-13.1033754,-39.7909837,594,4176.62776
D1,Brejões/BA,-13.1033754,-39.7909837,9,63.28224
1,Breu Branco/PA,-3.7785073,-49.5684795,648,962.39529
D1,Breu Branco/PA,-3.7785073,-49.5684795,44,65.34783
1,Breves/PA,-1.68036,-50.479085,3850,3719.91459
D1,Breves/PA,-1.68036,-50.479085,110,106.28327
1,Britânia/GO,-15.2427599,-51.1602061,483,8331.89581
D1,Britânia/GO,-15.2427599,-51.1602061,4,69.00121
1,Brochier/RS,-29.556766,-51.5963047,386,7562.69592
D1,Brochier/RS,-29.556766,-51.5963047,4,78.36991
1,Brodowski/SP,-20.984532,-47.657217,2216,8766.86316
D1,Brodowski/SP,-20.984532,-47.657217,51,201.76445
1,Brotas de Macaúbas/BA,-12.0019007,-42.6257506,89,878.57848
D1,Brotas de Macaúbas/BA,-12.0019007,-42.6257506,3,29.61500
1,Brotas/SP,-22.2840884,-48.1267265,471,1911.83634
D1,Brotas/SP,-22.2840884,-48.1267265,34,138.00942
1,Brumadinho/MG,-20.143611,-44.2,3115,7659.96164
D1,Brumadinho/MG,-20.143611,-44.2,71,174.59303
1,Brumado/BA,-14.29507325,-41.659307508575985,8553,12702.16084
D1,Brumado/BA,-14.29507325,-41.659307508575985,174,258.40945
1,Brunópolis/SC,-27.310953,-50.837585,257,10853.04054
D1,Brunópolis/SC,-27.310953,-50.837585,8,337.83784
1,Brusque/SC,-27.0964628,-48.9136323,24959,18127.08350
D1,Brusque/SC,-27.0964628,-48.9136323,252,183.02116
1,Brás Pires/MG,-20.8483109,-43.2430524,183,4262.75332
D1,Brás Pires/MG,-20.8483109,-43.2430524,6,139.76240
1,Bueno Brandão/MG,-22.441976,-46.3517971,636,5786.55263
D1,Bueno Brandão/MG,-22.441976,-46.3517971,22,200.16377
1,Buenos Aires/PE,-7.7218931,-35.326587,272,2062.16831
D1,Buenos Aires/PE,-7.7218931,-35.326587,19,144.04852
1,Buenópolis/MG,-17.8756607,-44.1749365,305,2946.00599
D1,Buenópolis/MG,-17.8756607,-44.1749365,11,106.24940
1,Buerarema/BA,-14.9571177,-39.3008035,1293,7063.25795
D1,Buerarema/BA,-14.9571177,-39.3008035,37,202.11952
1,Bugre/MG,-19.4257687,-42.2556,354,8887.77304
D1,Bugre/MG,-19.4257687,-42.2556,12,301.28044
1,Bujari/AC,-9.8309656,-67.9520886,1116,10710.17274
D1,Bujari/AC,-9.8309656,-67.9520886,15,143.95393
1,Bujaru/PA,-1.5169239,-48.0410699,1354,4601.21657
D1,Bujaru/PA,-1.5169239,-48.0410699,37,125.73487
1,Buri/SP,-23.79849,-48.598924,2239,11214.62559
D1,Buri/SP,-23.79849,-48.598924,68,340.59604
1,Buritama/SP,-21.0664017,-50.1448077,2028,11735.43198
D1,Buritama/SP,-21.0664017,-50.1448077,57,329.84202
1,Buriti Alegre/GO,-18.1377879,-49.0404411,860,9067.90384
D1,Buriti Alegre/GO,-18.1377879,-49.0404411,29,305.77815
1,Buriti Bravo/MA,-5.8391884,-43.8367876,1329,5551.61034
D1,Buriti Bravo/MA,-5.8391884,-43.8367876,13,54.30469
1,Buriti de Goiás/GO,-16.180644,-50.4287479,180,7269.78998
D1,Buriti de Goiás/GO,-16.180644,-50.4287479,8,323.10178
1,Buriti do Tocantins/TO,-5.3187439,-48.2256609,855,7436.72262
D1,Buriti do Tocantins/TO,-5.3187439,-48.2256609,10,86.97921
1,Buriti dos Lopes/PI,-3.1776723,-41.8707444,1251,6315.94891
D1,Buriti dos Lopes/PI,-3.1776723,-41.8707444,30,151.46160
1,Buriti dos Montes/PI,-5.3136171,-41.0971256,605,7320.90997
D1,Buriti dos Montes/PI,-5.3136171,-41.0971256,7,84.70474
1,Buriti/MA,-3.9430944,-42.9244281,751,2607.81999
D1,Buriti/MA,-3.9430944,-42.9244281,7,24.30724
1,Buriticupu/MA,-4.3227472,-46.4516989,3120,4274.96814
D1,Buriticupu/MA,-4.3227472,-46.4516989,40,54.80728
1,Buritinópolis/GO,-14.4589282,-46.4293104,166,5056.35090
D1,Buritinópolis/GO,-14.4589282,-46.4293104,2,60.91989
1,Buritirama/BA,-10.7148421,-43.6362327,825,3877.60857
D1,Buritirama/BA,-10.7148421,-43.6362327,21,98.70276
1,Buritirana/MA,-5.5897455,-47.0148915,431,2786.57788
D1,Buritirana/MA,-5.5897455,-47.0148915,23,148.70369
1,Buritis/MG,-15.621389,-46.423889,1529,6112.82133
D1,Buritis/MG,-15.621389,-46.423889,31,123.93555
1,Buritis/RO,-10.2054937,-63.8281954,4389,10875.70621
D1,Buritis/RO,-10.2054937,-63.8281954,62,153.63267
1,Buritizal/SP,-20.1933264,-47.7097165,245,5427.55871
D1,Buritizal/SP,-20.1933264,-47.7097165,10,221.53301
1,Buritizeiro/MG,-17.3667765,-44.9647781,1092,3883.21895
D1,Buritizeiro/MG,-17.3667765,-44.9647781,29,103.12578
1,Butiá/RS,-30.1256795,-51.9692224,1806,8619.70218
D1,Butiá/RS,-30.1256795,-51.9692224,48,229.09507
1,Buíque/PE,-8.6239732,-37.157296,1943,3297.74776
D1,Buíque/PE,-8.6239732,-37.157296,40,67.88981
1,Bálsamo/SP,-20.7343722,-49.5807484,1370,14990.69920
D1,Bálsamo/SP,-20.7343722,-49.5807484,54,590.87428
0,CASO SEM LOCALIZAÇÃO DEFINIDA/AC,-9.884083190922777,-67.85119819780795,317,35.94369
D0,CASO SEM LOCALIZAÇÃO DEFINIDA/AC,-9.884083190922777,-67.85119819780795,5,0.56694
0,CASO SEM LOCALIZAÇÃO DEFINIDA/AL,-9.931093434363673,-35.609611600637464,822,24.63027
D0,CASO SEM LOCALIZAÇÃO DEFINIDA/AL,-9.931093434363673,-35.609611600637464,36,1.07870
0,CASO SEM LOCALIZAÇÃO DEFINIDA/AM,-3.07518492149711,-60.16169212873594,590,14.23540
D0,CASO SEM LOCALIZAÇÃO DEFINIDA/AM,-3.07518492149711,-60.16169212873594,13,0.31366
0,CASO SEM LOCALIZAÇÃO DEFINIDA/AP,2.677150600275196,-50.477785111870624,359,42.44849
D0,CASO SEM LOCALIZAÇÃO DEFINIDA/AP,2.677150600275196,-50.477785111870624,8,0.94593
0,CASO SEM LOCALIZAÇÃO DEFINIDA/BA,-13.415069300066518,-38.14174656569957,12430,83.57390
D0,CASO SEM LOCALIZAÇÃO DEFINIDA/BA,-13.415069300066518,-38.14174656569957,374,2.51461
0,CASO SEM LOCALIZAÇÃO DEFINIDA/CE,-3.3445126297392798,-38.624961942434304,13778,150.87475
D0,CASO SEM LOCALIZAÇÃO DEFINIDA/CE,-3.3445126297392798,-38.624961942434304,46,0.50372
0,CASO SEM LOCALIZAÇÃO DEFINIDA/ES,-20.30989267097039,-39.81745156645774,5837,145.24778
D0,CASO SEM LOCALIZAÇÃO DEFINIDA/ES,-20.30989267097039,-39.81745156645774,268,6.66891
0,CASO SEM LOCALIZAÇÃO DEFINIDA/GO,-16.701590966270153,-49.164524059025034,3439,49.00009
D0,CASO SEM LOCALIZAÇÃO DEFINIDA/GO,-16.701590966270153,-49.164524059025034,140,1.99477
0,CASO SEM LOCALIZAÇÃO DEFINIDA/MA,-2.171256551718846,-43.98946796681719,415,5.86557
D0,CASO SEM LOCALIZAÇÃO DEFINIDA/MA,-2.171256551718846,-43.98946796681719,22,0.31095
0,CASO SEM LOCALIZAÇÃO DEFINIDA/MG,-19.97049116501593,-43.8852149072783,12070,57.01790
D0,CASO SEM LOCALIZAÇÃO DEFINIDA/MG,-19.97049116501593,-43.8852149072783,522,2.46589
0,CASO SEM LOCALIZAÇÃO DEFINIDA/MS,-20.391549234908513,-54.645156949758444,3568,128.39215
D0,CASO SEM LOCALIZAÇÃO DEFINIDA/MS,-20.391549234908513,-54.645156949758444,74,2.66284
0,CASO SEM LOCALIZAÇÃO DEFINIDA/MT,-15.54791153961863,-56.17143998972475,4572,131.21092
D0,CASO SEM LOCALIZAÇÃO DEFINIDA/MT,-15.54791153961863,-56.17143998972475,251,7.20340
0,CASO SEM LOCALIZAÇÃO DEFINIDA/PA,-0.09317078214359542,-48.0050231510481,1388,16.13416
D0,CASO SEM LOCALIZAÇÃO DEFINIDA/PA,-0.09317078214359542,-48.0050231510481,19,0.22086
0,CASO SEM LOCALIZAÇÃO DEFINIDA/PB,-7.1049355696146606,-34.68696690234351,1016,25.28541
D0,CASO SEM LOCALIZAÇÃO DEFINIDA/PB,-7.1049355696146606,-34.68696690234351,27,0.67195
0,CASO SEM LOCALIZAÇÃO DEFINIDA/PE,-8.121628543819208,-34.57313921302556,1087,11.37378
D0,CASO SEM LOCALIZAÇÃO DEFINIDA/PE,-8.121628543819208,-34.57313921302556,55,0.57549
0,CASO SEM LOCALIZAÇÃO DEFINIDA/PI,-2.683810218391744,-41.470898009352254,891,27.22084
D0,CASO SEM LOCALIZAÇÃO DEFINIDA/PI,-2.683810218391744,-41.470898009352254,25,0.76377
0,CASO SEM LOCALIZAÇÃO DEFINIDA/PR,-25.69415946385943,-48.10141676336737,9601,83.96918
D0,CASO SEM LOCALIZAÇÃO DEFINIDA/PR,-25.69415946385943,-48.10141676336737,199,1.74043
0,CASO SEM LOCALIZAÇÃO DEFINIDA/RJ,-23.210238986465157,-43.12864305824042,6414,37.15043
D0,CASO SEM LOCALIZAÇÃO DEFINIDA/RJ,-23.210238986465157,-43.12864305824042,34,0.19693
0,CASO SEM LOCALIZAÇÃO DEFINIDA/RN,-5.749310788669161,-34.95302586257457,1345,38.35348
D0,CASO SEM LOCALIZAÇÃO DEFINIDA/RN,-5.749310788669161,-34.95302586257457,27,0.76992
0,CASO SEM LOCALIZAÇÃO DEFINIDA/RO,-8.681174926655274,-63.9216949899276,581,32.69141
D0,CASO SEM LOCALIZAÇÃO DEFINIDA/RO,-8.681174926655274,-63.9216949899276,38,2.13816
0,CASO SEM LOCALIZAÇÃO DEFINIDA/RR,2.813328208465927,-60.663338675861986,2845,469.65718
D0,CASO SEM LOCALIZAÇÃO DEFINIDA/RR,2.813328208465927,-60.663338675861986,14,2.31114
0,CASO SEM LOCALIZAÇÃO DEFINIDA/RS,-30.50647488532064,-49.906261466443524,2777,24.40838
D0,CASO SEM LOCALIZAÇÃO DEFINIDA/RS,-30.50647488532064,-49.906261466443524,87,0.76468
0,CASO SEM LOCALIZAÇÃO DEFINIDA/SE,-11.03002091978736,-36.89283180376513,2973,129.33420
D0,CASO SEM LOCALIZAÇÃO DEFINIDA/SE,-11.03002091978736,-36.89283180376513,37,1.60961
0,CASO SEM LOCALIZAÇÃO DEFINIDA/SP,-24.30968974555485,-46.21366504207253,6908,15.04387
D0,CASO SEM LOCALIZAÇÃO DEFINIDA/SP,-24.30968974555485,-46.21366504207253,70,0.15244
0,CASO SEM LOCALIZAÇÃO DEFINIDA/TO,-10.213012114749148,-48.40023803990334,832,52.89707
D0,CASO SEM LOCALIZAÇÃO DEFINIDA/TO,-10.213012114749148,-48.40023803990334,25,1.58946
1,Caapiranga/AM,-3.3188884,-61.2096404,597,4494.46661
D1,Caapiranga/AM,-3.3188884,-61.2096404,21,158.09682
1,Caaporã/PB,-7.510234,-34.9154114,1728,7870.64450
D1,Caaporã/PB,-7.510234,-34.9154114,31,141.19790
1,Caarapó/MS,-22.6349267,-54.8240903,3300,10786.78129
D1,Caarapó/MS,-22.6349267,-54.8240903,29,94.79293
1,Caatiba/BA,-14.9782759,-40.4092325,806,12422.93465
D1,Caatiba/BA,-14.9782759,-40.4092325,9,138.71763
1,Cabaceiras do Paraguaçu/BA,-12.5377868,-39.1901339,517,2733.85860
D1,Cabaceiras do Paraguaçu/BA,-12.5377868,-39.1901339,4,21.15171
1,Cabaceiras/PB,-7.4899156,-36.2860501,333,5882.35294
D1,Cabaceiras/PB,-7.4899156,-36.2860501,3,52.99417
1,Cabeceira Grande/MG,-16.0297,-47.0906,328,4693.76073
D1,Cabeceira Grande/MG,-16.0297,-47.0906,5,71.55123
1,Cabeceiras do Piauí/PI,-4.4733665,-42.3098716,489,4600.18815
D1,Cabeceiras do Piauí/PI,-4.4733665,-42.3098716,10,94.07338
1,Cabeceiras/GO,-15.7995459,-46.9264991,312,3877.70321
D1,Cabeceiras/GO,-15.7995459,-46.9264991,14,173.99950
1,Cabedelo/PB,-6.97324,-34.8351609,7912,11505.51864
D1,Cabedelo/PB,-6.97324,-34.8351609,180,261.75346
1,Cabixi/RO,-13.4956065,-60.5424442,686,13222.82190
D1,Cabixi/RO,-13.4956065,-60.5424442,18,346.95451
1,Cabo Frio/RJ,-22.8804369,-42.0189227,11655,5059.07682
D1,Cabo Frio/RJ,-22.8804369,-42.0189227,619,268.68885
1,Cabo Verde/MG,-21.4743338,-46.3964995,510,3623.44583
D1,Cabo Verde/MG,-21.4743338,-46.3964995,6,42.62877
1,Cabo de Santo Agostinho/PE,-8.2838945,-35.0320984,6263,2997.45386
D1,Cabo de Santo Agostinho/PE,-8.2838945,-35.0320984,436,208.66835
1,Cabreúva/SP,-23.3075813,-47.1324417,3265,6474.44923
D1,Cabreúva/SP,-23.3075813,-47.1324417,81,160.62186
1,Cabrobó/PE,-8.5083701,-39.3106961,1978,5732.83483
D1,Cabrobó/PE,-8.5083701,-39.3106961,23,66.66087
1,Cabrália Paulista/SP,-22.4562909,-49.3385645,321,7565.40184
D1,Cabrália Paulista/SP,-22.4562909,-49.3385645,4,94.27292
1,Cacaulândia/RO,-10.3380043,-62.9007231,783,12490.03031
D1,Cacaulândia/RO,-10.3380043,-62.9007231,10,159.51507
1,Cacequi/RS,-29.8838059,-54.8273443,452,3638.41262
D1,Cacequi/RS,-29.8838059,-54.8273443,6,48.29751
1,Cachoeira Alta/GO,-18.7618269,-50.9432431,1277,10082.10958
D1,Cachoeira Alta/GO,-18.7618269,-50.9432431,19,150.00790
1,Cachoeira Dourada/GO,-18.4934204,-49.481062,392,4881.08579
D1,Cachoeira Dourada/GO,-18.4934204,-49.481062,19,236.58324
1,Cachoeira Dourada/MG,-18.517136,-49.5002062,136,5025.86844
D1,Cachoeira Dourada/MG,-18.517136,-49.5002062,2,73.90983
1,Cachoeira Grande/MA,-2.9290492,-44.0573223,240,2532.17978
D1,Cachoeira Grande/MA,-2.9290492,-44.0573223,6,63.30449
1,Cachoeira Paulista/SP,-22.666498,-45.015384,2154,6414.34144
D1,Cachoeira Paulista/SP,-22.666498,-45.015384,34,101.24773
1,Cachoeira da Prata/MG,-19.524723,-44.453056,226,6293.51156
D1,Cachoeira da Prata/MG,-19.524723,-44.453056,9,250.62657
1,Cachoeira de Goiás/GO,-16.6688414,-50.6435997,63,4694.48584
D1,Cachoeira de Goiás/GO,-16.6688414,-50.6435997,2,149.03130
1,Cachoeira de Minas/MG,-22.3554043,-45.7796324,553,4775.88738
D1,Cachoeira de Minas/MG,-22.3554043,-45.7796324,8,69.09060
1,Cachoeira de Pajeú/MG,-15.965833,-41.496666,293,3103.15611
D1,Cachoeira de Pajeú/MG,-15.965833,-41.496666,8,84.72781
1,Cachoeira do Arari/PA,-1.0143572,-48.9621089,455,1890.79122
D1,Cachoeira do Arari/PA,-1.0143572,-48.9621089,22,91.42287
1,Cachoeira do Piriá/PA,-1.7599443,-46.5446954,795,2297.09035
D1,Cachoeira do Piriá/PA,-1.7599443,-46.5446954,4,11.55769
1,Cachoeira do Sul/RS,-30.0474778,-52.8905413,7862,9603.14649
D1,Cachoeira do Sul/RS,-30.0474778,-52.8905413,122,149.01855
1,Cachoeira dos Índios/PB,-6.9259193,-38.6742159,685,6647.25861
D1,Cachoeira dos Índios/PB,-6.9259193,-38.6742159,14,135.85638
1,Cachoeira/BA,-12.5998256,-38.9665918,1408,4194.59588
D1,Cachoeira/BA,-12.5998256,-38.9665918,22,65.54056
1,Cachoeiras de Macacu/RJ,-22.4626861,-42.6534414,2636,4444.96906
D1,Cachoeiras de Macacu/RJ,-22.4626861,-42.6534414,89,150.07672
1,Cachoeirinha/PE,-8.4906364,-36.2338963,474,2312.08234
D1,Cachoeirinha/PE,-8.4906364,-36.2338963,26,126.82308
1,Cachoeirinha/RS,-29.9493353,-51.0898927,12809,9759.98171
D1,Cachoeirinha/RS,-29.9493353,-51.0898927,387,294.87961
1,Cachoeirinha/TO,-6.118647,-47.9208885,117,5122.59194
D1,Cachoeirinha/TO,-6.118647,-47.9208885,2,87.56567
1,Cachoeiro de Itapemirim/ES,-20.848084,-41.11129,24521,11644.00800
D1,Cachoeiro de Itapemirim/ES,-20.848084,-41.11129,512,243.12761
1,Cacimba de Areia/PB,-7.1288513,-37.1575194,31,838.97158
D1,Cacimba de Areia/PB,-7.1288513,-37.1575194,3,81.19080
1,Cacimba de Dentro/PB,-6.6425101,-35.7929304,976,5681.68588
D1,Cacimba de Dentro/PB,-6.6425101,-35.7929304,29,168.82058
1,Cacimbas/PB,-7.2125451,-37.0593398,201,2792.05445
D1,Cacimbas/PB,-7.2125451,-37.0593398,6,83.34491
1,Cacimbinhas/AL,-9.401212,-36.991082,638,5859.12389
D1,Cacimbinhas/AL,-9.401212,-36.991082,8,73.46864
1,Cacique Doble/RS,-27.7700117,-51.6616409,479,9440.28380
D1,Cacique Doble/RS,-27.7700117,-51.6616409,9,177.37485
1,Cacoal/RO,-11.4333,-61.4420502,12181,14181.59803
D1,Cacoal/RO,-11.4333,-61.4420502,241,280.58165
1,Caconde/SP,-21.527995,-46.643659,1117,5876.16392
D1,Caconde/SP,-21.527995,-46.643659,26,136.77732
1,Caculé/BA,-14.4990734,-42.2233006,1389,5963.67696
D1,Caculé/BA,-14.4990734,-42.2233006,11,47.22854
1,Caetanos/BA,-14.3387456,-40.9085971,614,4203.17634
D1,Caetanos/BA,-14.3387456,-40.9085971,10,68.45564
1,Caetanópolis/MG,-19.2947496,-44.4138386,810,6894.20376
D1,Caetanópolis/MG,-19.2947496,-44.4138386,13,110.64771
1,Caetité/BA,-14.0691776,-42.4852428,2117,4144.39811
D1,Caetité/BA,-14.0691776,-42.4852428,24,46.98420
1,Caeté/MG,-19.897777,-43.670278,1713,3802.69496
D1,Caeté/MG,-19.897777,-43.670278,47,104.33547
1,Caetés/PE,-8.7728788,-36.6255835,1299,4494.18766
D1,Caetés/PE,-8.7728788,-36.6255835,18,62.27512
1,Cafarnaum/BA,-11.691399,-41.468823,814,4396.91028
D1,Cafarnaum/BA,-11.691399,-41.468823,18,97.22897
1,Cafeara/PR,-22.78905,-51.714195,257,8700.06770
D1,Cafeara/PR,-22.78905,-51.714195,10,338.52404
1,Cafelândia/PR,-24.6176963,-53.3218057,1748,9471.17469
D1,Cafelândia/PR,-24.6176963,-53.3218057,14,75.85609
1,Cafelândia/SP,-21.8054355,-49.6030627,679,3805.41389
D1,Cafelândia/SP,-21.8054355,-49.6030627,31,173.73760
1,Cafezal do Sul/PR,-23.900508,-53.512418,317,7907.20878
D1,Cafezal do Sul/PR,-23.900508,-53.512418,4,99.77551
1,Caiabu/SP,-22.0143038,-51.2356597,89,2122.58526
D1,Caiabu/SP,-22.0143038,-51.2356597,5,119.24636
1,Caiana/MG,-20.695555,-41.924723,131,2364.19419
D1,Caiana/MG,-20.695555,-41.924723,7,126.33099
1,Caiapônia/GO,-16.9538779,-51.8090761,1037,5427.33030
D1,Caiapônia/GO,-16.9538779,-51.8090761,34,177.94526
1,Caibaté/RS,-28.290475,-54.645407,217,4499.27431
D1,Caibaté/RS,-28.290475,-54.645407,7,145.13788
1,Caibi/SC,-27.0751925,-53.2502133,563,9184.33931
D1,Caibi/SC,-27.0751925,-53.2502133,11,179.44535
1,Caicó/RN,-6.4594544,-37.0971911,9937,14539.89436
D1,Caicó/RN,-6.4594544,-37.0971911,119,174.12171
1,Caieiras/SP,-23.3644621,-46.7484765,7117,6924.83581
D1,Caieiras/SP,-23.3644621,-46.7484765,255,248.11481
1,Cairu/BA,-13.4860505,-39.0455744,1145,6213.70815
D1,Cairu/BA,-13.4860505,-39.0455744,13,70.54865
1,Caiuá/SP,-21.8319357,-51.9887179,274,4608.13993
D1,Caiuá/SP,-21.8319357,-51.9887179,6,100.90817
1,Caiçara do Norte/RN,-5.0645017,-36.0561226,365,5563.17635
D1,Caiçara do Norte/RN,-5.0645017,-36.0561226,9,137.17421
1,Caiçara do Rio do Vento/RN,-5.757968,-36.00089,258,6944.81830
D1,Caiçara do Rio do Vento/RN,-5.757968,-36.00089,7,188.42530
1,Caiçara/PB,-6.6146866,-35.4681434,680,9456.26478
D1,Caiçara/PB,-6.6146866,-35.4681434,14,194.68780
1,Caiçara/RS,-27.2750478,-53.4310053,490,10425.53191
D1,Caiçara/RS,-27.2750478,-53.4310053,8,170.21277
1,Cajamar/SP,-23.3561111,-46.8769444,3776,4845.12536
D1,Cajamar/SP,-23.3561111,-46.8769444,184,236.09721
1,Cajapió/MA,-2.8778715,-44.6746871,81,722.18260
D1,Cajapió/MA,-2.8778715,-44.6746871,4,35.66334
1,Cajari/MA,-3.3213076,-45.0118757,198,1017.94252
D1,Cajari/MA,-3.3213076,-45.0118757,7,35.98787
1,Cajati/SP,-24.7272376,-48.1077914,3035,10651.36520
D1,Cajati/SP,-24.7272376,-48.1077914,81,284.27037
1,Cajazeiras do Piauí/PI,-6.794271,-42.3935024,50,1399.38427
D1,Cajazeiras do Piauí/PI,-6.794271,-42.3935024,1,27.98769
1,Cajazeiras/PB,-6.8897849,-38.5570389,7685,12337.65191
D1,Cajazeiras/PB,-6.8897849,-38.5570389,127,203.88833
1,Cajazeirinhas/PB,-6.961442,-37.7993733,140,4368.17473
1,Cajobi/SP,-20.8776238,-48.8106972,817,7710.45678
D1,Cajobi/SP,-20.8776238,-48.8106972,27,254.81314
1,Cajueiro da Praia/PI,-2.931114,-41.340801,474,6176.70055
D1,Cajueiro da Praia/PI,-2.931114,-41.340801,18,234.55825
1,Cajueiro/AL,-9.399589,-36.1524309,528,2475.27073
D1,Cajueiro/AL,-9.399589,-36.1524309,20,93.76026
1,Cajuri/MG,-20.7901414,-42.7954489,338,8505.28435
D1,Cajuri/MG,-20.7901414,-42.7954489,2,50.32713
1,Cajuru/SP,-21.2759978,-47.3046035,941,3565.33929
D1,Cajuru/SP,-21.2759978,-47.3046035,36,136.39980
1,Caldas Brandão/PB,-7.1027959,-35.3254676,489,8087.99206
D1,Caldas Brandão/PB,-7.1027959,-35.3254676,8,132.31889
1,Caldas Novas/GO,-17.745,-48.625,7749,8314.73454
D1,Caldas Novas/GO,-17.745,-48.625,195,209.23645
1,Caldas/MG,-21.923611,-46.386111,679,4669.55505
D1,Caldas/MG,-21.923611,-46.386111,23,158.17344
1,Caldazinha/GO,-16.7116649,-49.0012601,253,6574.84407
D1,Caldazinha/GO,-16.7116649,-49.0012601,5,129.93763
1,Caldeirão Grande do Piauí/PI,-7.3310393,-40.6374433,378,6538.66113
D1,Caldeirão Grande do Piauí/PI,-7.3310393,-40.6374433,2,34.59609
1,Caldeirão Grande/BA,-11.0208483,-40.3041387,545,4069.89769
D1,Caldeirão Grande/BA,-11.0208483,-40.3041387,6,44.80621
1,Califórnia/PR,-23.6672543,-51.3554556,910,10574.01813
D1,Califórnia/PR,-23.6672543,-51.3554556,19,220.77620
1,Calmon/SC,-26.6023644,-51.0992893,32,959.52024
D1,Calmon/SC,-26.6023644,-51.0992893,4,119.94003
1,Calumbi/PE,-7.9389746,-38.1516871,494,8595.78911
D1,Calumbi/PE,-7.9389746,-38.1516871,3,52.20115
1,Calçado/PE,-8.7413446,-36.3351787,406,3684.87929
D1,Calçado/PE,-8.7413446,-36.3351787,4,36.30423
1,Calçoene/AP,2.4981757,-50.9539503,1611,14249.07129
D1,Calçoene/AP,2.4981757,-50.9539503,10,88.44861
1,Camacan/BA,-15.4166631,-39.4930088,2642,8254.70224
D1,Camacan/BA,-15.4166631,-39.4930088,71,221.83341
1,Camacho/MG,-20.625556,-45.156667,49,1707.91216
D1,Camacho/MG,-20.625556,-45.156667,1,34.85535
1,Camalaú/PB,-7.885031,-36.824191,390,6466.58929
D1,Camalaú/PB,-7.885031,-36.824191,6,99.48599
1,Camamu/BA,-13.9438142,-39.1060917,2137,6039.79425
D1,Camamu/BA,-13.9438142,-39.1060917,45,127.18331
1,Camanducaia/MG,-22.755278,-46.144444,2621,12022.38429
D1,Camanducaia/MG,-22.755278,-46.144444,54,247.69506
1,Camapuã/MS,-19.5291747,-54.0434641,713,5207.04009
D1,Camapuã/MS,-19.5291747,-54.0434641,24,175.27204
1,Camaquã/RS,-30.8524752,-51.8075619,6307,9487.34920
D1,Camaquã/RS,-30.8524752,-51.8075619,128,192.54490
1,Camaragibe/PE,-8.0213832,-34.9810768,5966,3754.58625
D1,Camaragibe/PE,-8.0213832,-34.9810768,352,221.52436
