type,name,lat,lon,total,total_per_100k_inhabitants
1,Abadia de Goiás/GO,-16.7572644,-49.4412205,1344,15003.34896
D1,Abadia de Goiás/GO,-16.7572644,-49.4412205,27,301.40656
1,Abadia dos Dourados/MG,-18.4911191,-47.4063589,370,5281.18755
D1,Abadia dos Dourados/MG,-18.4911191,-47.4063589,13,185.55524
1,Abadiânia/GO,-16.1940946,-48.7067767,386,1886.51581
D1,Abadiânia/GO,-16.1940946,-48.7067767,27,131.95836
1,Abaetetuba/PA,-1.721828,-48.878843,7555,4749.18280
D1,Abaetetuba/PA,-1.721828,-48.878843,210,132.00905
1,Abaeté/MG,-19.1566833,-45.4481213,1003,4313.97849
D1,Abaeté/MG,-19.1566833,-45.4481213,26,111.82796
1,Abaiara/CE,-7.3607808,-39.0487878,460,3880.87404
D1,Abaiara/CE,-7.3607808,-39.0487878,12,101.24019
1,Abaré/BA,-8.7239913,-39.1139689,799,3926.86883
D1,Abaré/BA,-8.7239913,-39.1139689,8,39.31784
1,Abatiá/PR,-23.3052967,-50.3102532,760,10259.17927
D1,Abatiá/PR,-23.3052967,-50.3102532,10,134.98920
1,Abaíra/BA,-13.2503296,-41.6640342,252,2893.22618
D1,Abaíra/BA,-13.2503296,-41.6640342,10,114.81056
1,Abdon Batista/SC,-27.612419,-51.022992,344,13500.78493
D1,Abdon Batista/SC,-27.612419,-51.022992,3,117.73940
1,Abel Figueiredo/PA,-4.953001,-48.3958485,884,11808.70959
D1,Abel Figueiredo/PA,-4.953001,-48.3958485,10,133.58269
1,Abelardo Luz/SC,-26.5705893,-52.3280339,1335,7433.18486
D1,Abelardo Luz/SC,-26.5705893,-52.3280339,43,239.42094
1,Abre Campo/MG,-20.2976097,-42.4764741,905,6731.62749
D1,Abre Campo/MG,-20.2976097,-42.4764741,14,104.13567
1,Abreu e Lima/PE,-7.900719,-34.898389,2605,2596.01778
D1,Abreu e Lima/PE,-7.900719,-34.898389,195,194.32763
1,Abreulândia/TO,-9.6221526,-49.1558343,262,10100.23130
D1,Abreulândia/TO,-9.6221526,-49.1558343,6,231.30301
1,Acaiaca/MG,-20.3621646,-43.1444162,219,5483.22484
D1,Acaiaca/MG,-20.3621646,-43.1444162,10,250.37556
1,Acajutiba/BA,-11.6609659,-38.0186381,483,3180.35162
D1,Acajutiba/BA,-11.6609659,-38.0186381,14,92.18410
1,Acarape/CE,-4.2237866,-38.7071663,2612,17371.64139
D1,Acarape/CE,-4.2237866,-38.7071663,24,159.61692
1,Acaraú/CE,-2.8869514,-40.1194713,4513,7151.68611
D1,Acaraú/CE,-2.8869514,-40.1194713,93,147.37576
1,Acari/RN,-6.4364689,-36.6394777,889,7993.88544
D1,Acari/RN,-6.4364689,-36.6394777,13,116.89596
1,Acará/PA,-1.961388,-48.1987043,1203,2160.98726
D1,Acará/PA,-1.961388,-48.1987043,28,50.29729
1,Acauã/PI,-8.219542,-41.083059,187,2633.06111
D1,Acauã/PI,-8.219542,-41.083059,1,14.08054
1,Aceguá/RS,-31.8695131,-54.1615593,298,6029.94739
D1,Aceguá/RS,-31.8695131,-54.1615593,4,80.93889
1,Acopiara/CE,-6.0936464,-39.4543204,2880,5286.24658
D1,Acopiara/CE,-6.0936464,-39.4543204,117,214.75377
1,Acorizal/MT,-15.2001544,-56.3668953,470,8811.39858
D1,Acorizal/MT,-15.2001544,-56.3668953,18,337.45782
1,Acrelândia/AC,-10.0759167,-67.0526898,1538,9928.98644
D1,Acrelândia/AC,-10.0759167,-67.0526898,32,206.58489
1,Acreúna/GO,-17.3959899,-50.3749031,1726,7655.45995
D1,Acreúna/GO,-17.3959899,-50.3749031,43,190.72119
1,Adamantina/SP,-21.6866517,-51.0762975,2634,7501.92247
D1,Adamantina/SP,-21.6866517,-51.0762975,73,207.91205
1,Adelândia/GO,-16.4155077,-50.1665834,151,6001.58983
D1,Adelândia/GO,-16.4155077,-50.1665834,4,158.98251
1,Adolfo/SP,-21.2356597,-49.6441918,414,11648.84637
D1,Adolfo/SP,-21.2356597,-49.6441918,10,281.37310
1,Adrianópolis/PR,-24.6557863,-48.9912769,1126,19224.85914
D1,Adrianópolis/PR,-24.6557863,-48.9912769,22,375.61892
1,Adustina/BA,-10.5358875,-38.114479,686,4005.60551
D1,Adustina/BA,-10.5358875,-38.114479,12,70.06890
1,Afogados da Ingazeira/PE,-7.750429,-37.6356375,4027,10766.22821
D1,Afogados da Ingazeira/PE,-7.750429,-37.6356375,59,157.73714
1,Afonso Bezerra/RN,-5.4745,-36.57625071327935,613,5558.07417
D1,Afonso Bezerra/RN,-5.4745,-36.57625071327935,13,117.87107
1,Afonso Cláudio/ES,-20.077841,-41.12606,3171,10412.08340
D1,Afonso Cláudio/ES,-20.077841,-41.12606,55,180.59432
1,Afonso Cunha/MA,-4.1326105,-43.3230026,165,2508.36120
D1,Afonso Cunha/MA,-4.1326105,-43.3230026,2,30.40438
1,Afrânio/PE,-8.5198919,-41.0070197,770,3886.92580
D1,Afrânio/PE,-8.5198919,-41.0070197,13,65.62342
1,Afuá/PA,-0.1535664,-50.3879223,2896,7319.23067
D1,Afuá/PA,-0.1535664,-50.3879223,14,35.38302
1,Agrestina/PE,-8.4558021,-35.9442663,1350,5385.99641
D1,Agrestina/PE,-8.4558021,-35.9442663,50,199.48135
1,Agricolândia/PI,-5.7967843,-42.6605131,410,7990.64510
D1,Agricolândia/PI,-5.7967843,-42.6605131,4,77.95751
1,Agrolândia/SC,-27.4122212,-49.8295774,1200,10896.21357
D1,Agrolândia/SC,-27.4122212,-49.8295774,18,163.44320
1,Agronômica/SC,-27.2660744,-49.7104753,546,9911.05464
D1,Agronômica/SC,-27.2660744,-49.7104753,11,199.67326
1,Aguanil/MG,-20.9424533,-45.3927152,469,10371.51703
D1,Aguanil/MG,-20.9424533,-45.3927152,8,176.91287
1,Aguaí/SP,-22.0592036,-46.979384,2278,6215.89173
D1,Aguaí/SP,-22.0592036,-46.979384,71,193.73499
1,Agudo/RS,-29.6423259,-53.2494005,1295,7895.86001
D1,Agudo/RS,-29.6423259,-53.2494005,21,128.04097
1,Agudos do Sul/PR,-25.9890808,-49.3328175,490,5174.23442
D1,Agudos do Sul/PR,-25.9890808,-49.3328175,19,200.63358
1,Agudos/SP,-22.471162,-48.987822,3018,8069.30296
D1,Agudos/SP,-22.471162,-48.987822,70,187.16077
1,Aguiar/PB,-7.0928404,-38.1727215,292,5186.50089
D1,Aguiar/PB,-7.0928404,-38.1727215,3,53.28597
1,Aguiarnópolis/TO,-6.5600452,-47.4721189,549,7965.75740
D1,Aguiarnópolis/TO,-6.5600452,-47.4721189,12,174.11492
1,Aimorés/MG,-19.4917754,-41.0615603,1787,7107.91138
D1,Aimorés/MG,-19.4917754,-41.0615603,57,226.72129
1,Aiquara/BA,-14.126918,-39.8887574,444,10054.34783
D1,Aiquara/BA,-14.126918,-39.8887574,11,249.09420
1,Aiuaba/CE,-6.5710836,-40.1212278,452,2583.89070
D1,Aiuaba/CE,-6.5710836,-40.1212278,10,57.16572
1,Aiuruoca/MG,-21.9759554,-44.6036637,79,1321.95448
D1,Aiuruoca/MG,-21.9759554,-44.6036637,6,100.40161
1,Ajuricaba/RS,-28.239654,-53.7693013,907,12981.25089
D1,Ajuricaba/RS,-28.239654,-53.7693013,23,329.18277
1,Alagoa Grande/PB,-7.0415212,-35.6285322,2888,10155.06874
D1,Alagoa Grande/PB,-7.0415212,-35.6285322,57,200.42899
1,Alagoa Nova/PB,-7.0653703,-35.76695977336711,786,3756.99058
D1,Alagoa Nova/PB,-7.0653703,-35.76695977336711,17,81.25807
1,Alagoa/MG,-22.1697202,-44.6400042,411,15422.13884
D1,Alagoa/MG,-22.1697202,-44.6400042,5,187.61726
1,Alagoinha do Piauí/PI,-7.0090952,-40.939675,291,3796.47750
D1,Alagoinha do Piauí/PI,-7.0090952,-40.939675,10,130.46314
1,Alagoinha/PB,-6.97063215,-35.51490901897793,1584,10879.12088
D1,Alagoinha/PB,-6.97063215,-35.51490901897793,23,157.96703
1,Alagoinha/PE,-8.50355635,-36.77701174370496,700,4756.08099
D1,Alagoinha/PE,-8.50355635,-36.77701174370496,20,135.88803
1,Alagoinhas/BA,-12.133526,-38.420772,11279,7404.46539
D1,Alagoinhas/BA,-12.133526,-38.420772,221,145.08262
1,Alambari/SP,-23.550338,-47.897971,478,7798.98842
D1,Alambari/SP,-23.550338,-47.897971,9,146.84288
1,Albertina/MG,-20.66164,-43.784039,199,6609.09997
D1,Albertina/MG,-20.66164,-43.784039,7,232.48090
1,Alcantil/PB,-7.7425491,-36.0609604,346,6280.63169
D1,Alcantil/PB,-7.7425491,-36.0609604,6,108.91269
1,Alcinópolis/MS,-18.3264121,-53.7094463,199,3673.62008
D1,Alcinópolis/MS,-18.3264121,-53.7094463,6,110.76241
1,Alcobaça/BA,-17.5215875,-39.1965474,1318,5860.38239
D1,Alcobaça/BA,-17.5215875,-39.1965474,22,97.82125
1,Alcântara/MA,-2.4038956,-44.4154241,264,1193.92185
D1,Alcântara/MA,-2.4038956,-44.4154241,15,67.83647
1,Alcântaras/CE,-3.586247,-40.5457641,1387,11773.19413
D1,Alcântaras/CE,-3.586247,-40.5457641,17,144.30014
1,Aldeias Altas/MA,-4.6291957,-43.4708622,975,3643.90627
D1,Aldeias Altas/MA,-4.6291957,-43.4708622,13,48.58542
1,Alecrim/RS,-27.6566142,-54.7653195,245,4204.56496
D1,Alecrim/RS,-27.6566142,-54.7653195,11,188.77639
1,Alegre/ES,-20.7625787,-41.5318886,2013,6715.59633
D1,Alegre/ES,-20.7625787,-41.5318886,47,156.79733
1,Alegrete do Piauí/PI,-7.2440138,-40.8602296,474,9638.06425
D1,Alegrete do Piauí/PI,-7.2440138,-40.8602296,5,101.66734
1,Alegrete/RS,-29.790166,-55.794862,7936,10867.06469
D1,Alegrete/RS,-29.790166,-55.794862,222,303.99299
1,Alegria/RS,-27.8332103,-54.0574959,316,9365.73800
D1,Alegria/RS,-27.8332103,-54.0574959,2,59.27682
1,Alenquer/PA,-1.946229,-54.738355,2826,4949.90542
D1,Alenquer/PA,-1.946229,-54.738355,116,203.18083
1,Alexandria/RN,-6.414779,-38.0135516,1227,9053.34612
D1,Alexandria/RN,-6.414779,-38.0135516,16,118.05504
1,Alexânia/GO,-16.0834049,-48.5077803,2851,10178.50768
D1,Alexânia/GO,-16.0834049,-48.5077803,71,253.48090
1,Alfenas/MG,-21.4297405,-45.9479419,6562,8152.16041
D1,Alfenas/MG,-21.4297405,-45.9479419,150,186.34929
1,Alfredo Chaves/ES,-20.624970400000002,-40.75006690147988,2128,14539.49166
D1,Alfredo Chaves/ES,-20.624970400000002,-40.75006690147988,30,204.97404
1,Alfredo Marcondes/SP,-21.9527,-51.413956,211,5043.02103
D1,Alfredo Marcondes/SP,-21.9527,-51.413956,9,215.10516
1,Alfredo Vasconcelos/MG,-21.145833,-43.776389,323,4626.84429
D1,Alfredo Vasconcelos/MG,-21.145833,-43.776389,11,157.57055
1,Alfredo Wagner/SC,-27.6961513,-49.3326734,638,6325.59984
D1,Alfredo Wagner/SC,-27.6961513,-49.3326734,7,69.40313
1,Algodão de Jandaíra/PB,-6.9040175,-36.0089879,127,4928.21110
D1,Algodão de Jandaíra/PB,-6.9040175,-36.0089879,1,38.80481
1,Alhandra/PB,-7.4304246,-34.9106103,1752,8881.22877
D1,Alhandra/PB,-7.4304246,-34.9106103,30,152.07584
1,Aliança do Tocantins/TO,-11.3055927,-48.9409096,556,10400.29929
D1,Aliança do Tocantins/TO,-11.3055927,-48.9409096,20,374.11149
1,Aliança/PE,-7.60398,-35.222696,564,1468.86476
D1,Aliança/PE,-7.60398,-35.222696,47,122.40540
1,Almadina/BA,-14.70466,-39.6381994,588,10957.88297
D1,Almadina/BA,-14.70466,-39.6381994,9,167.72270
1,Almas/TO,-11.5681309,-47.1702803,197,2822.75398
D1,Almas/TO,-11.5681309,-47.1702803,4,57.31480
1,Almeirim/PA,-1.5290377,-52.5788111,3324,9754.66604
D1,Almeirim/PA,-1.5290377,-52.5788111,42,123.25390
1,Almenara/MG,-16.1740678,-40.6904907,3476,8248.10763
D1,Almenara/MG,-16.1740678,-40.6904907,42,99.66068
1,Almino Afonso/RN,-6.1544208,-37.7649018,392,8322.71762
D1,Almino Afonso/RN,-6.1544208,-37.7649018,10,212.31423
1,Almirante Tamandaré do Sul/RS,-28.1141129,-52.9134874,239,12262.69882
D1,Almirante Tamandaré do Sul/RS,-28.1141129,-52.9134874,2,102.61673
1,Almirante Tamandaré/PR,-25.3133048,-49.2997838,8303,6916.80343
D1,Almirante Tamandaré/PR,-25.3133048,-49.2997838,312,259.91120
1,Aloândia/GO,-17.7277983,-49.4809338,224,11278.95267
D1,Aloândia/GO,-17.7277983,-49.4809338,6,302.11480
1,Alpercata/MG,-18.9803616,-41.9827637,450,6051.64067
D1,Alpercata/MG,-18.9803616,-41.9827637,15,201.72136
1,Alpestre/RS,-27.2512339,-53.0349646,279,4598.64843
D1,Alpestre/RS,-27.2512339,-53.0349646,7,115.37828
1,Alpinópolis/MG,-20.863611,-46.387777,918,4599.65928
D1,Alpinópolis/MG,-20.863611,-46.387777,19,95.19992
1,Alta Floresta D'Oeste/RO,-11.9296917,-61.9961284,3624,15945.08976
D1,Alta Floresta D'Oeste/RO,-11.9296917,-61.9961284,61,268.39141
1,Alta Floresta/MT,-9.8715018,-56.0839881,7434,14307.43471
D1,Alta Floresta/MT,-9.8715018,-56.0839881,110,211.70538
1,Altair/SP,-20.5238955,-49.0606135,149,3559.48399
D1,Altair/SP,-20.5238955,-49.0606135,10,238.89154
1,Altamira do Maranhão/MA,-4.1643006,-45.4674574,300,3663.45097
D1,Altamira do Maranhão/MA,-4.1643006,-45.4674574,8,97.69203
1,Altamira do Paraná/PR,-24.799114,-52.7128633,178,10582.63971
D1,Altamira do Paraná/PR,-24.799114,-52.7128633,5,297.26516
1,Altamira/PA,-3.204065,-52.209961,12579,10846.86425
D1,Altamira/PA,-3.204065,-52.209961,273,235.40774
1,Altaneira/CE,-6.9980933,-39.7385742,407,5320.26144
D1,Altaneira/CE,-6.9980933,-39.7385742,13,169.93464
1,Alterosa/MG,-21.249166,-46.143055,563,3878.21175
D1,Alterosa/MG,-21.249166,-46.143055,29,199.76579
1,Altinho/PE,-8.4904095,-36.0607494,939,4085.45075
D1,Altinho/PE,-8.4904095,-36.0607494,19,82.66620
1,Altinópolis/SP,-21.021364,-47.3712,750,4628.77245
D1,Altinópolis/SP,-21.021364,-47.3712,25,154.29241
1,Alto Alegre do Maranhão/MA,-4.2055693,-44.4525287,1059,3801.42149
D1,Alto Alegre do Maranhão/MA,-4.2055693,-44.4525287,24,86.15120
1,Alto Alegre do Pindaré/MA,-3.6698186,-45.8462153,1796,5622.51511
D1,Alto Alegre do Pindaré/MA,-3.6698186,-45.8462153,44,137.74536
1,Alto Alegre dos Parecis/RO,-12.1314515,-61.856265,1371,10343.26669
D1,Alto Alegre dos Parecis/RO,-12.1314515,-61.856265,36,271.59562
1,Alto Alegre/RR,2.98858,-61.307167,1246,8101.43043
D1,Alto Alegre/RR,2.98858,-61.307167,29,188.55657
1,Alto Alegre/RS,-31.780844700000003,-52.81311114489171,166,10291.38252
D1,Alto Alegre/RS,-31.780844700000003,-52.81311114489171,1,61.99628
1,Alto Alegre/SP,-21.5820592,-50.1661976,285,6971.62427
D1,Alto Alegre/SP,-21.5820592,-50.1661976,14,342.46575
1,Alto Araguaia/MT,-17.3156528,-53.2169365,1062,5478.46273
D1,Alto Araguaia/MT,-17.3156528,-53.2169365,23,118.64844
1,Alto Bela Vista/SC,-27.4320737,-51.905771,154,7995.84631
D1,Alto Bela Vista/SC,-27.4320737,-51.905771,2,103.84216
1,Alto Boa Vista/MT,-11.6723985,-51.3744431,685,9876.00923
D1,Alto Boa Vista/MT,-11.6723985,-51.3744431,12,173.01038
1,Alto Caparaó/MG,-20.4405661,-41.8683799,359,6090.93994
D1,Alto Caparaó/MG,-20.4405661,-41.8683799,8,135.73125
1,Alto Feliz/RS,-29.3785943,-51.3123751,222,7312.25296
D1,Alto Feliz/RS,-29.3785943,-51.3123751,2,65.87615
1,Alto Garças/MT,-16.9469683,-53.529427,733,6032.42531
D1,Alto Garças/MT,-16.9469683,-53.529427,25,205.74438
1,Alto Horizonte/GO,-14.1954948,-49.3366993,711,10764.57229
D1,Alto Horizonte/GO,-14.1954948,-49.3366993,8,121.12036
1,Alto Jequitibá/MG,-20.423611,-41.966111,607,7312.37200
D1,Alto Jequitibá/MG,-20.423611,-41.966111,9,108.42067
1,Alto Longá/PI,-5.2549051,-42.2072388,577,4023.99052
D1,Alto Longá/PI,-5.2549051,-42.2072388,13,90.66183
1,Alto Paraguai/MT,-14.513712,-56.4936374,785,6842.15114
D1,Alto Paraguai/MT,-14.513712,-56.4936374,26,226.61902
1,Alto Paraná/PR,-23.131247,-52.318893,807,5431.05189
D1,Alto Paraná/PR,-23.131247,-52.318893,18,121.13870
1,Alto Paraíso de Goiás/GO,-14.1304779,-47.5100161,599,7791.36316
D1,Alto Paraíso de Goiás/GO,-14.1304779,-47.5100161,7,91.05099
1,Alto Paraíso/PR,-23.508137,-53.728537,173,6443.20298
D1,Alto Paraíso/PR,-23.508137,-53.728537,3,111.73184
1,Alto Paraíso/RO,-9.7240103,-63.3188123,1668,7634.91555
D1,Alto Paraíso/RO,-9.7240103,-63.3188123,40,183.09150
1,Alto Parnaíba/MA,-9.112506,-45.9310154,717,6394.93400
D1,Alto Parnaíba/MA,-9.112506,-45.9310154,6,53.51409
1,Alto Piquiri/PR,-24.0239021,-53.4417448,646,6606.66803
D1,Alto Piquiri/PR,-24.0239021,-53.4417448,17,173.85969
1,Alto Rio Doce/MG,-21.0239537,-43.4133507,307,2827.14799
D1,Alto Rio Doce/MG,-21.0239537,-43.4133507,23,211.80588
1,Alto Rio Novo/ES,-19.0577208,-41.0171518,657,8343.91669
D1,Alto Rio Novo/ES,-19.0577208,-41.0171518,21,266.70053
1,Alto Santo/CE,-5.5190371,-38.2719351,1178,6850.43033
D1,Alto Santo/CE,-5.5190371,-38.2719351,22,127.93673
1,Alto Taquari/MT,-17.8269099,-53.2831736,1362,12233.89922
D1,Alto Taquari/MT,-17.8269099,-53.2831736,26,233.53993
1,Alto do Rodrigues/RN,-5.290868,-36.7616726,1728,11732.75394
D1,Alto do Rodrigues/RN,-5.290868,-36.7616726,32,217.27322
1,Altos/PI,-5.0393915,-42.4611694,3963,9759.88179
D1,Altos/PI,-5.0393915,-42.4611694,82,201.94557
1,Altônia/PR,-23.8722004,-53.894037,906,4085.49784
D1,Altônia/PR,-23.8722004,-53.894037,18,81.16883
1,Alumínio/SP,-23.5203479,-47.2575256,1197,6378.21708
D1,Alumínio/SP,-23.5203479,-47.2575256,38,202.48308
1,Alvarenga/MG,-19.4175,-41.728334,383,9963.57960
D1,Alvarenga/MG,-19.4175,-41.728334,4,104.05827
1,Alvarães/AM,-3.214786,-64.8143124,2750,16954.37731
D1,Alvarães/AM,-3.214786,-64.8143124,44,271.27004
1,Alvinlândia/SP,-22.4431852,-49.7643596,125,3861.60025
D1,Alvinlândia/SP,-22.4431852,-49.7643596,7,216.24961
1,Alvinópolis/MG,-20.1105199,-43.0601805,562,3704.92452
D1,Alvinópolis/MG,-20.1105199,-43.0601805,17,112.07067
1,Alvorada D'Oeste/RO,-11.346271,-62.284697,997,7067.91436
D1,Alvorada D'Oeste/RO,-11.346271,-62.284697,25,177.22955
1,Alvorada de Minas/MG,-18.7318587,-43.3641479,238,6601.94175
D1,Alvorada de Minas/MG,-18.7318587,-43.3641479,1,27.73925
1,Alvorada do Gurguéia/PI,-8.4465288,-43.8655915,302,5546.37282
D1,Alvorada do Gurguéia/PI,-8.4465288,-43.8655915,9,165.28926
1,Alvorada do Norte/GO,-14.483911,-46.4959897,640,7352.09650
D1,Alvorada do Norte/GO,-14.483911,-46.4959897,3,34.46295
1,Alvorada do Sul/PR,-22.7807269,-51.2307721,674,5859.34104
D1,Alvorada do Sul/PR,-22.7807269,-51.2307721,21,182.56107
1,Alvorada/RS,-29.9981184,-51.0772509,18699,8847.32579
D1,Alvorada/RS,-29.9981184,-51.0772509,683,323.15758
1,Alvorada/TO,-12.478465,-49.124926,1034,12315.38828
D1,Alvorada/TO,-12.478465,-49.124926,18,214.38780
1,Além Paraíba/MG,-21.8760576,-42.6810473,2803,7917.85543
D1,Além Paraíba/MG,-21.8760576,-42.6810473,135,381.34516
1,Amajari/RR,3.6523869,-61.4194315,934,7083.80736
D1,Amajari/RR,3.6523869,-61.4194315,20,151.68752
1,Amambai/MS,-23.1082701,-55.2284854,2246,5639.53196
D1,Amambai/MS,-23.1082701,-55.2284854,41,102.94782
1,Amaporã/PR,-23.094272,-52.786597,273,4311.43399
D1,Amaporã/PR,-23.094272,-52.786597,5,78.96399
1,Amapá do Maranhão/MA,-1.6762114,-46.0109669,172,2455.38901
D1,Amapá do Maranhão/MA,-1.6762114,-46.0109669,4,57.10207
1,Amapá/AP,2.0529997,-50.7930003,1268,13802.11168
D1,Amapá/AP,2.0529997,-50.7930003,10,108.84946
1,Amaraji/PE,-8.373925,-35.4536527,446,1950.15304
D1,Amaraji/PE,-8.373925,-35.4536527,28,122.43113
1,Amaral Ferrador/RS,-30.8750633,-52.2542051,233,3288.63797
D1,Amaral Ferrador/RS,-30.8750633,-52.2542051,6,84.68596
1,Amaralina/GO,-13.9236199,-49.2962411,61,1586.47594
1,Amarante do Maranhão/MA,-5.56913,-46.747284,1538,3685.68621
D1,Amarante do Maranhão/MA,-5.56913,-46.747284,54,129.40641
1,Amarante/PI,-6.2459374,-42.8476238,1389,7890.25222
D1,Amarante/PI,-6.2459374,-42.8476238,32,181.77687
1,Amargosa/BA,-13.03793715,-39.60796443875596,2382,6362.00956
D1,Amargosa/BA,-13.03793715,-39.60796443875596,47,125.53084
1,Amaturá/AM,-3.3640509,-68.1994689,2351,20032.37900
D1,Amaturá/AM,-3.3640509,-68.1994689,17,144.85344
1,Americana/SP,-22.7392463,-47.3306032,17384,7182.93681
D1,Americana/SP,-22.7392463,-47.3306032,532,219.81836
1,Americano do Brasil/GO,-16.2515808,-49.9806104,416,6748.86437
D1,Americano do Brasil/GO,-16.2515808,-49.9806104,15,243.34848
1,Ametista do Sul/RS,-27.3617341,-53.1826575,564,7618.53303
D1,Ametista do Sul/RS,-27.3617341,-53.1826575,13,175.60448
1,Amontada/CE,-3.3634586,-39.8284791,2460,5612.72217
D1,Amontada/CE,-3.3634586,-39.8284791,46,104.95334
1,Amorinópolis/GO,-16.6211308,-51.0949921,172,5604.43141
D1,Amorinópolis/GO,-16.6211308,-51.0949921,3,97.75171
1,Amparo de São Francisco/SE,-10.1299754,-36.9269099,189,7941.17647
D1,Amparo de São Francisco/SE,-10.1299754,-36.9269099,3,126.05042
1,Amparo do Serra/MG,-20.5070255,-42.8028462,127,2714.83540
D1,Amparo do Serra/MG,-20.5070255,-42.8028462,4,85.50663
1,Amparo/PB,-7.56394725,-37.04652873235175,158,7019.10262
D1,Amparo/PB,-7.56394725,-37.04652873235175,4,177.69880
1,Amparo/SP,-22.70111,-46.76444,4782,6579.79829
D1,Amparo/SP,-22.70111,-46.76444,109,149.97867
1,Ampére/PR,-25.9168712,-53.4742414,1179,6105.32857
D1,Ampére/PR,-25.9168712,-53.4742414,27,139.81668
1,Amélia Rodrigues/BA,-12.4015388,-38.7516971,1898,7577.45129
D1,Amélia Rodrigues/BA,-12.4015388,-38.7516971,37,147.71638
1,América Dourada/BA,-11.4515262,-41.4357517,755,4692.35550
D1,América Dourada/BA,-11.4515262,-41.4357517,7,43.50528
1,Américo Brasiliense/SP,-21.7297099,-48.1052092,3290,8018.13219
D1,Américo Brasiliense/SP,-21.7297099,-48.1052092,78,190.09554
1,Américo de Campos/SP,-20.298476,-49.735904,670,11202.14011
D1,Américo de Campos/SP,-20.298476,-49.735904,22,367.83147
1,Anadia/AL,-9.6830208,-36.3052699,1139,6498.91590
D1,Anadia/AL,-9.6830208,-36.3052699,26,148.35102
1,Anagé/BA,-14.6134669,-41.1376308,803,3716.38821
D1,Anagé/BA,-14.6134669,-41.1376308,16,74.05008
1,Anahy/PR,-24.6450861,-53.1337957,327,11728.83788
D1,Anahy/PR,-24.6450861,-53.1337957,8,286.94405
1,Anajatuba/MA,-3.26441,-44.6179916,803,2975.39647
D1,Anajatuba/MA,-3.26441,-44.6179916,21,77.81236
1,Anajás/PA,-0.9878802,-49.9390114,1315,4429.39908
D1,Anajás/PA,-0.9878802,-49.9390114,21,70.73565
1,Analândia/SP,-22.128917,-47.661939,266,5261.07595
D1,Analândia/SP,-22.128917,-47.661939,3,59.33544
1,Anamã/AM,-3.5797356,-61.4049996,1727,12374.60590
D1,Anamã/AM,-3.5797356,-61.4049996,9,64.48839
1,Ananindeua/PA,-1.374035,-48.4016623,21101,3940.08369
D1,Ananindeua/PA,-1.374035,-48.4016623,770,143.77823
1,Ananás/TO,-6.3663053,-48.080238,1452,15297.09229
D1,Ananás/TO,-6.3663053,-48.080238,22,231.77413
1,Anapu/PA,-3.4668292,-51.2057035,1299,4540.84665
D1,Anapu/PA,-3.4668292,-51.2057035,35,122.34768
1,Anapurus/MA,-3.6751298,-43.1046001,828,5209.51302
D1,Anapurus/MA,-3.6751298,-43.1046001,11,69.20851
1,Anastácio/MS,-20.4832458,-55.8048448,1822,7219.55858
D1,Anastácio/MS,-20.4832458,-55.8048448,56,221.89642
1,Anaurilândia/MS,-22.185169,-52.719056,357,3933.45086
D1,Anaurilândia/MS,-22.185169,-52.719056,13,143.23491
1,Anchieta/ES,-20.8057672,-40.6454564,4351,14610.96746
D1,Anchieta/ES,-20.8057672,-40.6454564,76,255.21341
1,Anchieta/SC,-26.5350527,-53.3293938,430,7737.98812
D1,Anchieta/SC,-26.5350527,-53.3293938,6,107.97193
1,Andaraí/BA,-12.8059674,-41.3322919,679,5170.57569
D1,Andaraí/BA,-12.8059674,-41.3322919,6,45.68992
1,Andirá/PR,-23.0494761,-50.2310027,1716,8611.86390
D1,Andirá/PR,-23.0494761,-50.2310027,63,316.16983
1,Andorinha/BA,-10.3445708,-39.8334411,738,5088.60236
D1,Andorinha/BA,-10.3445708,-39.8334411,12,82.74150
1,Andradas/MG,-22.0680484,-46.5688976,2818,6807.42101
D1,Andradas/MG,-22.0680484,-46.5688976,85,205.33385
1,Andradina/SP,-20.896505,-51.3742765,4928,8615.08339
D1,Andradina/SP,-20.896505,-51.3742765,211,368.86822
1,Andrelândia/MG,-21.739722,-44.308889,206,1687.69458
D1,Andrelândia/MG,-21.739722,-44.308889,7,57.34884
1,André da Rocha/RS,-28.6309124,-51.5733328,98,7297.09605
1,Angatuba/SP,-23.4938938,-48.4110675,2282,8956.39546
D1,Angatuba/SP,-23.4938938,-48.4110675,58,227.63845
1,Angelim/PE,-8.8902038,-36.2872987,167,1487.61803
D1,Angelim/PE,-8.8902038,-36.2872987,6,53.44735
1,Angelina/SC,-27.5805287,-48.9838759,476,10035.84229
D1,Angelina/SC,-27.5805287,-48.9838759,1,21.08370
1,Angelândia/MG,-17.7253,-42.2728,94,1098.51583
D1,Angelândia/MG,-17.7253,-42.2728,1,11.68634
1,Angical do Piauí/PI,-6.0872666,-42.7366138,632,9317.41117
D1,Angical do Piauí/PI,-6.0872666,-42.7366138,9,132.68465
1,Angical/BA,-12.005623,-44.7000236,515,3694.93471
D1,Angical/BA,-12.005623,-44.7000236,11,78.92094
1,Angico/TO,-6.3893733,-47.8656722,211,6108.85929
D1,Angico/TO,-6.3893733,-47.8656722,3,86.85582
1,Angicos/RN,-5.6666344,-36.6009064,673,5749.67962
D1,Angicos/RN,-5.6666344,-36.6009064,16,136.69372
1,Angra dos Reis/RJ,-23.0063966,-44.316326,12688,6128.16599
D1,Angra dos Reis/RJ,-23.0063966,-44.316326,427,206.23636
1,Anguera/BA,-12.1509425,-39.2452469,362,3204.39055
D1,Anguera/BA,-12.1509425,-39.2452469,1,8.85191
1,Angélica/MS,-22.1588196,-53.7728504,813,7436.88255
D1,Angélica/MS,-22.1588196,-53.7728504,15,137.21186
1,Anhanguera/GO,-18.3338749,-48.220363,88,7586.20690
D1,Anhanguera/GO,-18.3338749,-48.220363,6,517.24138
1,Anhembi/SP,-22.7891096,-48.1316776,191,2800.99721
D1,Anhembi/SP,-22.7891096,-48.1316776,5,73.32453
1,Anhumas/SP,-22.2956478,-51.3873401,195,4705.59846
D1,Anhumas/SP,-22.2956478,-51.3873401,4,96.52510
1,Anicuns/GO,-16.4606451,-49.9572265,2302,10472.68095
D1,Anicuns/GO,-16.4606451,-49.9572265,57,259.31486
1,Anita Garibaldi/SC,-27.6855032,-51.1293873,1065,15308.32255
D1,Anita Garibaldi/SC,-27.6855032,-51.1293873,8,114.99209
1,Anitápolis/SC,-27.9041185,-49.1287395,307,9510.53284
D1,Anitápolis/SC,-27.9041185,-49.1287395,4,123.91574
1,Anori/AM,-3.7435254,-61.6605203,1868,8697.67658
D1,Anori/AM,-3.7435254,-61.6605203,31,144.34046
1,Anta Gorda/RS,-28.9718745,-52.0069187,568,9528.60258
D1,Anta Gorda/RS,-28.9718745,-52.0069187,4,67.10284
1,Antas/BA,-10.4114649,-38.3308815,1100,5647.10714
D1,Antas/BA,-10.4114649,-38.3308815,7,35.93614
1,Antonina do Norte/CE,-6.7754187,-39.9879345,563,7630.79425
D1,Antonina do Norte/CE,-6.7754187,-39.9879345,20,271.07617
1,Antonina/PR,-25.4298854,-48.7125431,2198,11599.55670
D1,Antonina/PR,-25.4298854,-48.7125431,56,295.53011
1,Antônio Almeida/PI,-7.2186016,-44.1950248,403,12712.93375
D1,Antônio Almeida/PI,-7.2186016,-44.1950248,10,315.45741
1,Antônio Cardoso/BA,-12.4363122,-39.1200307,360,3082.98364
D1,Antônio Cardoso/BA,-12.4363122,-39.1200307,7,59.94690
1,Antônio Carlos/MG,-21.318334,-43.746666,495,4319.74867
D1,Antônio Carlos/MG,-21.318334,-43.746666,9,78.54088
1,Antônio Carlos/SC,-27.5168462,-48.7684715,1445,16776.96505
D1,Antônio Carlos/SC,-27.5168462,-48.7684715,21,243.81749
1,Antônio Dias/MG,-19.6525,-42.872778,499,5380.05391
D1,Antônio Dias/MG,-19.6525,-42.872778,22,237.19677
1,Antônio Gonçalves/BA,-10.5715409,-40.2748824,697,5867.99124
D1,Antônio Gonçalves/BA,-10.5715409,-40.2748824,8,67.35141
1,Antônio João/MS,-22.1892837,-55.9508227,353,3913.52550
D1,Antônio João/MS,-22.1892837,-55.9508227,7,77.60532
1,Antônio Martins/RN,-6.2155812,-37.8890129,523,7310.59547
D1,Antônio Martins/RN,-6.2155812,-37.8890129,5,69.89097
1,Antônio Olinto/PR,-25.9849006,-50.1974516,364,4901.03676
D1,Antônio Olinto/PR,-25.9849006,-50.1974516,8,107.71509
1,Antônio Prado de Minas/MG,-21.0171988,-42.1101106,155,9766.85570
D1,Antônio Prado de Minas/MG,-21.0171988,-42.1101106,5,315.05986
1,Antônio Prado/RS,-28.8567806,-51.2801355,2043,15661.17286
D1,Antônio Prado/RS,-28.8567806,-51.2801355,19,145.64967
1,Anápolis/GO,-16.3332828,-48.9525756,34853,8896.24578
D1,Anápolis/GO,-16.3332828,-48.9525756,1196,305.27960
1,Anísio de Abreu/PI,-9.185643,-43.04941,284,2857.71785
D1,Anísio de Abreu/PI,-9.185643,-43.04941,9,90.56148
1,Aparecida d'Oeste/SP,-20.4498109,-50.8808706,630,15151.51515
D1,Aparecida d'Oeste/SP,-20.4498109,-50.8808706,12,288.60029
1,Aparecida de Goiânia/GO,-16.8226769,-49.2452546,63398,10742.76535
D1,Aparecida de Goiânia/GO,-16.8226769,-49.2452546,1212,205.37291
1,Aparecida do Rio Doce/GO,-18.2980167,-51.1491312,184,7437.34842
D1,Aparecida do Rio Doce/GO,-18.2980167,-51.1491312,3,121.26112
1,Aparecida do Rio Negro/TO,-9.9513491,-47.9773786,312,6435.64356
D1,Aparecida do Rio Negro/TO,-9.9513491,-47.9773786,5,103.13531
1,Aparecida do Taboado/MS,-20.0840304,-51.1013943,2682,10288.08163
D1,Aparecida do Taboado/MS,-20.0840304,-51.1013943,42,161.11090
1,Aparecida/PB,-6.7859598, -38.0831353,709,8424.42966
D1,Aparecida/PB,-6.7859598, -38.0831353,13,154.46768
1,Aparecida/SP,-22.851552,-45.2340924,2115,5844.96338
D1,Aparecida/SP,-22.851552,-45.2340924,73,201.74105
1,Aperibé/RJ,-21.6211928,-42.1028167,511,4293.75683
D1,Aperibé/RJ,-21.6211928,-42.1028167,21,176.45576
1,Apiacá/ES,-21.152272,-41.569297,710,9398.99391
D1,Apiacá/ES,-21.152272,-41.569297,29,383.90257
1,Apiacás/MT,-9.5678422,-57.394852,1500,14587.18273
D1,Apiacás/MT,-9.5678422,-57.394852,14,136.14704
1,Apiaí/SP,-24.5076527,-48.8461582,1082,4466.27590
D1,Apiaí/SP,-24.5076527,-48.8461582,63,260.05118
1,Apicum-Açu/MA,-1.5279295,-45.082278,463,2658.93298
D1,Apicum-Açu/MA,-1.5279295,-45.082278,4,22.97134
1,Apiúna/SC,-27.0374658,-49.3885037,760,7005.89971
D1,Apiúna/SC,-27.0374658,-49.3885037,15,138.27434
1,Apodi/RN,-5.6631109,-37.796927,5042,14054.74717
D1,Apodi/RN,-5.6631109,-37.796927,78,217.42766
1,Aporá/BA,-11.6599747,-38.0794757,465,2614.12188
D1,Aporá/BA,-11.6599747,-38.0794757,18,101.19181
1,Aporé/GO,-18.9642193,-51.92804,330,7797.73157
D1,Aporé/GO,-18.9642193,-51.92804,9,212.66541
1,Apuarema/BA,-13.8517897,-39.7457126,647,8860.58614
D1,Apuarema/BA,-13.8517897,-39.7457126,9,123.25390
1,Apucarana/PR,-23.5525327,-51.4610764,7821,5740.85764
D1,Apucarana/PR,-23.5525327,-51.4610764,261,191.58213
1,Apuiarés/CE,-3.9460303,-39.4313298,943,6427.20829
D1,Apuiarés/CE,-3.9460303,-39.4313298,21,143.12977
1,Apuí/AM,-7.1940195,-59.8830192,1283,5738.18149
D1,Apuí/AM,-7.1940195,-59.8830192,27,120.75674
1,Aquidabã/SE,-10.2837579,-37.0188687,1869,8620.45109
D1,Aquidabã/SE,-10.2837579,-37.0188687,33,152.20700
1,Aquidauana/MS,-20.473969,-55.7821375,4214,8773.86579
D1,Aquidauana/MS,-20.473969,-55.7821375,121,251.93112
1,Aquiraz/CE,-3.9063117,-38.387504,5740,7092.11095
D1,Aquiraz/CE,-3.9063117,-38.387504,78,96.37363
1,Arabutã/SC,-27.1587028,-52.1438142,388,9093.03961
D1,Arabutã/SC,-27.1587028,-52.1438142,7,164.04968
1,Aracaju/SE,-10.9162061,-37.0774655,105367,15846.85400
D1,Aracaju/SE,-10.9162061,-37.0774655,1952,293.57445
1,Aracati/CE,-4.558259,-37.767894,6034,8048.01601
D1,Aracati/CE,-4.558259,-37.767894,124,165.38846
1,Aracatu/BA,-14.4274236,-41.4604105,748,5733.99770
D1,Aracatu/BA,-14.4274236,-41.4604105,14,107.32081
1,Araci/BA,-11.3356065,-38.9573261,3236,5921.53418
D1,Araci/BA,-11.3356065,-38.9573261,42,76.85551
1,Aracitaba/MG,-21.3425,-43.378611,77,3739.67946
D1,Aracitaba/MG,-21.3425,-43.378611,8,388.53813
1,Aracoiaba/CE,-4.3702577,-38.8084313,3130,11795.74147
D1,Aracoiaba/CE,-4.3702577,-38.8084313,27,101.75240
1,Aracruz/ES,-19.8245218,-40.2735025,14165,13738.95501
D1,Aracruz/ES,-19.8245218,-40.2735025,199,193.01462
1,Aragarças/GO,-15.8957166,-52.2514538,1957,9653.23336
D1,Aragarças/GO,-15.8957166,-52.2514538,47,231.83545
1,Aragoiânia/GO,-16.9146388,-49.4499148,924,8803.35366
D1,Aragoiânia/GO,-16.9146388,-49.4499148,17,161.96646
1,Aragominas/TO,-7.1654101,-48.525488,473,8253.35893
D1,Aragominas/TO,-7.1654101,-48.525488,9,157.04066
1,Araguacema/TO,-8.8067391,-49.5560969,497,6946.19147
D1,Araguacema/TO,-8.8067391,-49.5560969,11,153.73864
1,Araguaiana/MT,-15.729144,-51.834112,177,5693.14892
D1,Araguaiana/MT,-15.729144,-51.834112,4,128.65873
1,Araguainha/MT,-16.857016,-53.031778,23,2431.28964
1,Araguanã/MA,-2.9508403,-45.6651986,757,4867.85416
D1,Araguanã/MA,-2.9508403,-45.6651986,5,32.15227
1,Araguanã/TO,-6.5799107,-48.6428482,421,7267.39168
D1,Araguanã/TO,-6.5799107,-48.6428482,12,207.14656
1,Araguapaz/GO,-15.0937927,-50.626417,469,6025.95400
D1,Araguapaz/GO,-15.0937927,-50.626417,19,244.12180
1,Araguari/MG,-18.6511256,-48.1933764,12654,10739.65627
D1,Araguari/MG,-18.6511256,-48.1933764,352,298.74814
1,Araguatins/TO,-5.6522925,-48.1158973,2038,5634.50373
D1,Araguatins/TO,-5.6522925,-48.1158973,50,138.23611
1,Araguaçu/TO,-12.928934,-49.823134,782,9235.85686
D1,Araguaçu/TO,-12.928934,-49.823134,18,212.59006
1,Araguaína/TO,-7.193241,-48.2018597,28930,15775.89827
D1,Araguaína/TO,-7.193241,-48.2018597,382,208.30948
1,Araioses/MA,-2.890914,-41.904993,642,1372.64544
D1,Araioses/MA,-2.890914,-41.904993,12,25.65692
1,Aral Moreira/MS,-22.951141,-55.6268421,398,3227.37593
D1,Aral Moreira/MS,-22.951141,-55.6268421,9,72.98086
1,Aramari/BA,-12.0907897,-38.4985065,524,4572.02687
D1,Aramari/BA,-12.0907897,-38.4985065,11,95.97766
1,Arambaré/RS,-30.9132252,-51.4994625,168,4716.45143
D1,Arambaré/RS,-30.9132252,-51.4994625,7,196.51881
1,Arame/MA,-4.8858769,-46.0102484,1166,3558.78403
D1,Arame/MA,-4.8858769,-46.0102484,35,106.82456
1,Aramina/SP,-20.0876144,-47.789201,262,4633.06808
D1,Aramina/SP,-20.0876144,-47.789201,10,176.83466
1,Arandu/SP,-23.1345103,-49.0545651,337,5294.57973
D1,Arandu/SP,-23.1345103,-49.0545651,7,109.97643
1,Arantina/MG,-21.911667,-44.255833,150,5382.13132
D1,Arantina/MG,-21.911667,-44.255833,3,107.64263
1,Arapeí/SP,-22.6738889,-44.4477778,187,7601.62602
D1,Arapeí/SP,-22.6738889,-44.4477778,2,81.30081
1,Arapiraca/AL,-9.754866,-36.661471,23309,10001.84512
D1,Arapiraca/AL,-9.754866,-36.661471,373,160.05355
1,Arapoema/TO,-7.6575001,-49.0641484,412,6227.32769
D1,Arapoema/TO,-7.6575001,-49.0641484,6,90.68924
1,Araponga/MG,-20.666667,-42.520556,373,4412.63457
D1,Araponga/MG,-20.666667,-42.520556,6,70.98072
1,Arapongas/PR,-23.415296,-51.42592,10772,8630.71869
D1,Arapongas/PR,-23.415296,-51.42592,405,324.49323
1,Araporã/MG,-18.4318188,-49.188313,1660,23950.36791
D1,Araporã/MG,-18.4318188,-49.188313,24,346.27038
1,Arapoti/PR,-24.1457957,-49.8224605,2433,8597.17314
D1,Arapoti/PR,-24.1457957,-49.8224605,45,159.01060
1,Araputanga/MT,-15.4710868,-58.346796,1731,10211.78692
D1,Araputanga/MT,-15.4710868,-58.346796,47,277.26978
1,Arapuá/MG,-19.034444,-46.155556,189,6666.66667
D1,Arapuá/MG,-19.034444,-46.155556,2,70.54674
1,Arapuã/PR,-24.3079525,-51.7901941,183,6081.75474
D1,Arapuã/PR,-24.3079525,-51.7901941,5,166.16816
1,Araquari/SC,-26.3703324,-48.7210994,3214,8131.76804
D1,Araquari/SC,-26.3703324,-48.7210994,66,166.98715
1,Arara/PB,-6.8271895,-35.7605703,762,5626.93841
D1,Arara/PB,-6.8271895,-35.7605703,21,155.07311
1,Araranguá/SC,-28.9348832,-49.4858389,9104,13219.68432
D1,Araranguá/SC,-28.9348832,-49.4858389,207,300.57938
1,Araraquara/SP,-21.7886713,-48.1773096,17433,7314.37155
D1,Araraquara/SP,-21.7886713,-48.1773096,393,164.89118
1,Araras/SP,-22.3569477,-47.3838889,13808,10189.95469
D1,Araras/SP,-22.3569477,-47.3838889,305,225.08228
1,Ararendá/CE,-4.7504395,-40.8303611,818,7464.18469
D1,Ararendá/CE,-4.7504395,-40.8303611,16,145.99872
1,Arari/MA,-3.4547602,-44.7772723,680,2271.81612
D1,Arari/MA,-3.4547602,-44.7772723,29,96.88628
1,Araricá/RS,-29.6168543,-50.929121,953,16513.60250
D1,Araricá/RS,-29.6168543,-50.929121,24,415.87247
1,Araripe/CE,-7.212861,-40.1359222,901,4160.89406
D1,Araripe/CE,-7.212861,-40.1359222,13,60.03510
1,Araripina/PE,-7.5768582,-40.5038509,5781,6812.07579
D1,Araripina/PE,-7.5768582,-40.5038509,122,143.75943
1,Araruama/RJ,-22.8733203,-42.3428897,5289,3938.40334
D1,Araruama/RJ,-22.8733203,-42.3428897,322,239.77423
1,Araruna/PB,-6.5321155,-35.7397595,598,2922.34765
D1,Araruna/PB,-6.5321155,-35.7397595,16,78.18990
1,Araruna/PR,-23.9320308,-52.4976047,1206,8614.28571
D1,Araruna/PR,-23.9320308,-52.4976047,20,142.85714
1,Arataca/BA,-15.2617424,-39.4122943,545,4972.17407
D1,Arataca/BA,-15.2617424,-39.4122943,14,127.72557
1,Aratiba/RS,-27.3955734,-52.3024325,349,5639.03700
D1,Aratiba/RS,-27.3955734,-52.3024325,6,96.94619
1,Aratuba/CE,-4.4195958,-39.0463737,1169,9905.10083
D1,Aratuba/CE,-4.4195958,-39.0463737,8,67.78512
1,Aratuípe/BA,-13.077137,-39.0010786,336,3802.19532
D1,Aratuípe/BA,-13.077137,-39.0010786,9,101.84452
1,Araucária/PR,-25.5861107,-49.4051209,20939,14320.79007
D1,Araucária/PR,-25.5861107,-49.4051209,320,218.85729
1,Arauá/SE,-11.2644014,-37.6181058,1014,10194.02835
D1,Arauá/SE,-11.2644014,-37.6181058,18,180.95908
1,Araxá/MG,-19.5928536,-46.940241,9924,9245.64689
D1,Araxá/MG,-19.5928536,-46.940241,151,140.67842
1,Araçagi/PB,-6.8519969,-35.3835602,1023,6045.74198
D1,Araçagi/PB,-6.8519969,-35.3835602,14,82.73743
1,Araçariguama/SP,-23.438611,-47.061389,1345,5883.63955
D1,Araçariguama/SP,-23.438611,-47.061389,46,201.22485
1,Araçatuba/SP,-21.207992,-50.4390225,22414,11312.83154
D1,Araçatuba/SP,-21.207992,-50.4390225,661,333.62102
1,Araçaí/MG,-19.200833,-44.2475,49,2081.56330
1,Araçoiaba da Serra/SP,-23.5045367,-47.6168158,2155,6196.80239
D1,Araçoiaba da Serra/SP,-23.5045367,-47.6168158,50,143.77732
1,Araçoiaba/PE,-7.7856903,-35.0898881,505,2435.73048
D1,Araçoiaba/PE,-7.7856903,-35.0898881,27,130.22717
1,Araçu/GO,-16.3561579,-49.6815269,380,10900.74584
D1,Araçu/GO,-16.3561579,-49.6815269,15,430.29260
1,Araçuaí/MG,-16.8484451,-42.0661868,1300,3541.07649
D1,Araçuaí/MG,-16.8484451,-42.0661868,30,81.71715
1,Araçás/BA,-12.2139176,-38.2026159,564,4619.92136
D1,Araçás/BA,-12.2139176,-38.2026159,7,57.33945
1,Araújos/MG,-19.948055,-45.165556,618,6573.76875
D1,Araújos/MG,-19.948055,-45.165556,9,95.73450
1,Arceburgo/MG,-21.364444,-46.939722,835,7672.51677
D1,Arceburgo/MG,-21.364444,-46.939722,23,211.33879
1,Arco-Íris/SP,-21.7741308,-50.4668814,106,5978.56740
D1,Arco-Íris/SP,-21.7741308,-50.4668814,6,338.40948
1,Arcos/MG,-20.282223,-45.539444,4385,10859.33631
D1,Arcos/MG,-20.282223,-45.539444,106,262.50619
1,Arcoverde/PE,-8.415192,-37.057748,5084,6794.79298
D1,Arcoverde/PE,-8.415192,-37.057748,106,141.66956
1,Areado/MG,-21.3582771,-46.1476688,577,3800.80364
D1,Areado/MG,-21.3582771,-46.1476688,15,98.80772
1,Areal/RJ,-22.2314922,-43.1056264,942,7435.47241
D1,Areal/RJ,-22.2314922,-43.1056264,40,315.73131
1,Arealva/SP,-22.0301906,-48.9111936,633,7349.35563
D1,Arealva/SP,-22.0301906,-48.9111936,9,104.49321
1,Areia Branca/RN,-4.9506652,-37.1263312,2128,7608.96771
D1,Areia Branca/RN,-4.9506652,-37.1263312,84,300.35399
1,Areia Branca/SE,-10.7591455,-37.3148072,1573,8418.06700
D1,Areia Branca/SE,-10.7591455,-37.3148072,38,203.36080
1,Areia de Baraúnas/PB,-7.1233949,-36.9446216,105,4962.19282
D1,Areia de Baraúnas/PB,-7.1233949,-36.9446216,3,141.77694
1,Areia/PB,-6.9680243,-35.6994783,1092,4819.91525
D1,Areia/PB,-6.9680243,-35.6994783,22,97.10452
1,Areial/PB,-7.0501306,-35.9245244,265,3771.16835
D1,Areial/PB,-7.0501306,-35.9245244,7,99.61577
1,Areias/SP,-22.5800929,-44.6975127,236,6057.49487
D1,Areias/SP,-22.5800929,-44.6975127,1,25.66735
1,Areiópolis/SP,-22.6758064,-48.6673653,1027,9204.15845
D1,Areiópolis/SP,-22.6758064,-48.6673653,13,116.50833
1,Arenápolis/MT,-14.4610369,-56.8432806,1355,14260.15576
D1,Arenápolis/MT,-14.4610369,-56.8432806,22,231.53020
1,Arenópolis/GO,-16.3859286,-51.55937,171,6742.90221
D1,Arenópolis/GO,-16.3859286,-51.55937,8,315.45741
1,Argirita/MG,-21.612761,-42.8371922,248,9171.59763
D1,Argirita/MG,-21.612761,-42.8371922,5,184.91124
1,Aricanduva/MG,-17.8678,-42.5569,82,1556.27254
1,Arinos/MG,-15.917223,-46.106111,513,2872.01881
D1,Arinos/MG,-15.917223,-46.106111,13,72.78020
1,Aripuanã/MT,-10.175806,-59.4439663,2267,9980.62869
D1,Aripuanã/MT,-10.175806,-59.4439663,40,176.10284
1,Ariquemes/RO,-9.9076522,-63.033069,19359,17675.73934
D1,Ariquemes/RO,-9.9076522,-63.033069,417,380.74194
1,Ariranha do Ivaí/PR,-24.3834527,-51.5876772,131,6340.75508
D1,Ariranha do Ivaí/PR,-24.3834527,-51.5876772,2,96.80542
1,Ariranha/SP,-21.18716,-48.790418,428,4384.79664
D1,Ariranha/SP,-21.18716,-48.790418,15,153.67278
1,Armazém/SC,-28.2624996,-49.0190126,1339,15287.13323
D1,Armazém/SC,-28.2624996,-49.0190126,28,319.67120
1,Armação dos Búzios/RJ,-22.7597805,-41.8875267,4075,11819.47385
D1,Armação dos Búzios/RJ,-22.7597805,-41.8875267,47,136.32277
1,Arneiroz/CE,-6.3235099,-40.1603859,507,6463.53901
D1,Arneiroz/CE,-6.3235099,-40.1603859,15,191.22896
1,Aroazes/PI,-6.1108814,-41.7886137,541,9284.36588
D1,Aroazes/PI,-6.1108814,-41.7886137,12,205.93788
1,Aroeiras do Itaim/PI,-7.2797031,-41.5629681,103,4037.63230
D1,Aroeiras do Itaim/PI,-7.2797031,-41.5629681,2,78.40063
1,Aroeiras/PB,-7.5462904,-35.7080002,904,4729.02281
D1,Aroeiras/PB,-7.5462904,-35.7080002,7,36.61854
1,Arraial do Cabo/RJ,-22.9662839,-42.024427,630,2059.29461
D1,Arraial do Cabo/RJ,-22.9662839,-42.024427,29,94.79293
1,Arraial/PI,-6.6541632,-42.5335332,140,2966.10169
D1,Arraial/PI,-6.6541632,-42.5335332,2,42.37288
1,Arraias/TO,-12.9287788,-46.9437231,514,4879.43801
D1,Arraias/TO,-12.9287788,-46.9437231,4,37.97228
1,Arroio Grande/RS,-32.2384246,-53.0866661,1649,9041.56157
D1,Arroio Grande/RS,-32.2384246,-53.0866661,48,263.18675
1,Arroio Trinta/SC,-26.9301976,-51.334928,512,14426.59904
D1,Arroio Trinta/SC,-26.9301976,-51.334928,11,309.94646
1,Arroio do Meio/RS,-29.4020392,-51.9444993,2785,13282.77770
D1,Arroio do Meio/RS,-29.4020392,-51.9444993,36,171.69838
1,Arroio do Padre/RS,-31.4428773,-52.4228985,156,5286.34361
D1,Arroio do Padre/RS,-31.4428773,-52.4228985,3,101.66045
1,Arroio do Sal/RS,-29.549852,-49.8874395,963,9368.61562
D1,Arroio do Sal/RS,-29.549852,-49.8874395,32,311.31433
1,Arroio do Tigre/RS,-29.334158,-53.0888935,983,7328.71095
D1,Arroio do Tigre/RS,-29.334158,-53.0888935,19,141.65362
1,Arroio dos Ratos/RS,-30.0894524,-51.7265541,839,5918.03626
D1,Arroio dos Ratos/RS,-30.0894524,-51.7265541,30,211.61035
1,Artur Nogueira/SP,-22.572737,-47.172679,3504,6331.76726
D1,Artur Nogueira/SP,-22.572737,-47.172679,100,180.70112
1,Aruanã/GO,-14.9162439,-51.0715692,466,4609.29773
D1,Aruanã/GO,-14.9162439,-51.0715692,10,98.91197
1,Arujá/SP,-23.396266,-46.3175449,6341,6956.13063
D1,Arujá/SP,-23.396266,-46.3175449,240,263.28203
1,Arvoredo/SC,-27.0752908,-52.4571847,275,12309.75828
D1,Arvoredo/SC,-27.0752908,-52.4571847,4,179.05103
1,Arvorezinha/RS,-28.87369,-52.17808,729,6994.14756
D1,Arvorezinha/RS,-28.87369,-52.17808,24,230.26000
1,Arês/RN,-6.1969216,-35.1642968,888,6159.39516
D1,Arês/RN,-6.1969216,-35.1642968,20,138.72512
1,Ascurra/SC,-26.9569975,-49.3767752,1061,13299.07245
D1,Ascurra/SC,-26.9569975,-49.3767752,9,112.81023
1,Aspásia/SP,-20.160028,-50.728046,99,5445.54455
D1,Aspásia/SP,-20.160028,-50.728046,4,220.02200
1,Assaré/CE,-6.8746791,-39.8741385,1556,6627.48105
D1,Assaré/CE,-6.8746791,-39.8741385,32,136.29781
1,Assaí/PR,-23.3736041,-50.8454929,1198,8011.23445
D1,Assaí/PR,-23.3736041,-50.8454929,39,260.79979
1,Assis Brasil/AC,-10.9409203,-69.5672108,1557,20666.31272
D1,Assis Brasil/AC,-10.9409203,-69.5672108,22,292.00956
1,Assis Chateaubriand/PR,-24.4054826,-53.5120468,3337,10008.99820
D1,Assis Chateaubriand/PR,-24.4054826,-53.5120468,77,230.95381
1,Assis/SP,-22.6620892,-50.420623,8115,7722.17306
D1,Assis/SP,-22.6620892,-50.420623,261,248.36564
1,Assunção do Piauí/PI,-5.8610212,-41.0485091,301,3828.05545
D1,Assunção do Piauí/PI,-5.8610212,-41.0485091,7,89.02455
1,Assunção/PB,-7.073396,-36.7274003,292,7247.45594
D1,Assunção/PB,-7.073396,-36.7274003,2,49.64011
1,Astolfo Dutra/MG,-21.3132636,-42.8624102,1201,8416.25788
D1,Astolfo Dutra/MG,-21.3132636,-42.8624102,16,112.12334
1,Astorga/PR,-23.2350184,-51.6647074,2664,10164.44733
D1,Astorga/PR,-23.2350184,-51.6647074,62,236.55996
1,Atalaia do Norte/AM,-4.3658547,-70.1908742,2716,13315.03089
D1,Atalaia do Norte/AM,-4.3658547,-70.1908742,8,39.21953
1,Atalaia/AL,-9.5029595,-36.0219316,1078,2275.94215
D1,Atalaia/AL,-9.5029595,-36.0219316,43,90.78433
1,Atalaia/PR,-23.1513833,-52.0529697,339,8734.86215
D1,Atalaia/PR,-23.1513833,-52.0529697,16,412.26488
1,Atalanta/SC,-27.421916,-49.778863,330,10328.63850
D1,Atalanta/SC,-27.421916,-49.778863,10,312.98905
1,Ataléia/MG,-18.04432,-41.1110524,1036,8171.63590
D1,Ataléia/MG,-18.04432,-41.1110524,8,63.10144
1,Atibaia/SP,-23.1177393,-46.5547861,9234,6408.58364
D1,Atibaia/SP,-23.1177393,-46.5547861,219,151.99045
1,Atilio Vivacqua/ES,-20.9139369,-41.1947519,1358,11218.50475
D1,Atilio Vivacqua/ES,-20.9139369,-41.1947519,26,214.78728
1,Augustinópolis/TO,-5.4662267,-47.8897519,1370,7348.60269
D1,Augustinópolis/TO,-5.4662267,-47.8897519,26,139.46253
1,Augusto Corrêa/PA,-1.0229335,-46.6404029,1949,4194.01347
D1,Augusto Corrêa/PA,-1.0229335,-46.6404029,41,88.22707
1,Augusto Pestana/RS,-28.5148413,-53.9906433,602,9118.44895
D1,Augusto Pestana/RS,-28.5148413,-53.9906433,8,121.17540
1,Augusto de Lima/MG,-18.1092963,-44.2651945,223,4596.99031
D1,Augusto de Lima/MG,-18.1092963,-44.2651945,8,164.91445
1,Aurelino Leal/BA,-14.3167137,-39.3256107,855,7567.04133
D1,Aurelino Leal/BA,-14.3167137,-39.3256107,25,221.25852
1,Auriflama/SP,-20.6840418,-50.5554616,1706,11184.68498
D1,Auriflama/SP,-20.6840418,-50.5554616,59,386.80915
1,Aurilândia/GO,-16.6772599,-50.4641231,173,5657.29235
D1,Aurilândia/GO,-16.6772599,-50.4641231,7,228.90778
1,Aurora do Pará/PA,-2.1323199,-47.558436,1349,4245.74324
D1,Aurora do Pará/PA,-2.1323199,-47.558436,13,40.91524
1,Aurora do Tocantins/TO,-12.71045,-46.407604,172,4546.65609
D1,Aurora do Tocantins/TO,-12.71045,-46.407604,3,79.30214
1,Aurora/CE,-6.9426019,-38.9693765,1397,5676.55425
D1,Aurora/CE,-6.9426019,-38.9693765,30,121.90167
1,Aurora/SC,-27.3166417,-49.6368502,702,12352.63065
D1,Aurora/SC,-27.3166417,-49.6368502,14,246.34876
1,Autazes/AM,-3.5833283,-59.1301518,2806,6964.50732
D1,Autazes/AM,-3.5833283,-59.1301518,90,223.38049
1,Avanhandava/SP,-21.4603331,-49.9465156,614,4430.33408
D1,Avanhandava/SP,-21.4603331,-49.9465156,25,180.38820
1,Avaré/SP,-23.1045215,-48.9259103,7281,7980.75237
D1,Avaré/SP,-23.1045215,-48.9259103,160,175.37706
1,Avaí/SP,-22.1564662,-49.3316395,298,5481.97204
D1,Avaí/SP,-22.1564662,-49.3316395,8,147.16703
1,Aveiro/PA,-3.6049239,-55.3310742,615,3749.08559
D1,Aveiro/PA,-3.6049239,-55.3310742,9,54.86467
1,Avelino Lopes/PI,-10.1346855,-43.9489525,335,2957.79622
D1,Avelino Lopes/PI,-10.1346855,-43.9489525,19,167.75561
1,Avelinópolis/GO,-16.4672409,-49.7578661,264,10958.90411
D1,Avelinópolis/GO,-16.4672409,-49.7578661,11,456.62100
1,Axixá do Tocantins/TO,-5.612747,-47.77007,1005,10268.72382
D1,Axixá do Tocantins/TO,-5.612747,-47.77007,16,163.48217
1,Axixá/MA,-2.8379465,-44.0561053,190,1559.55019
D1,Axixá/MA,-2.8379465,-44.0561053,5,41.04079
1,Açailândia/MA,-4.9514278,-47.4844564,4875,4309.54465
D1,Açailândia/MA,-4.9514278,-47.4844564,177,156.46962
1,Açu/RN,-5.5836157,-36.9139541,5140,8803.78186
D1,Açu/RN,-5.5836157,-36.9139541,125,214.09975
1,Açucena/MG,-19.073056,-42.546666,703,7504.26985
D1,Açucena/MG,-19.073056,-42.546666,24,256.19129
1,Babaçulândia/TO,-7.2034355,-47.761613,610,5719.10744
D1,Babaçulândia/TO,-7.2034355,-47.761613,5,46.87793
1,Bacabal/MA,-4.2318132,-44.781167,4529,4321.97729
D1,Bacabal/MA,-4.2318132,-44.781167,163,155.54919
1,Bacabeira/MA,-2.9775747,-44.3155943,320,1854.85741
D1,Bacabeira/MA,-2.9775747,-44.3155943,6,34.77858
1,Bacuri/MA,-1.728894,-45.1417148,432,2315.85719
D1,Bacuri/MA,-1.728894,-45.1417148,4,21.44312
1,Bacurituba/MA,-2.7082587,-44.7381309,117,2063.49206
D1,Bacurituba/MA,-2.7082587,-44.7381309,1,17.63668
1,Bady Bassitt/SP,-20.9178969,-49.4517911,2558,14402.34221
D1,Bady Bassitt/SP,-20.9178969,-49.4517911,61,343.44913
1,Baependi/MG,-21.959162,-44.8899249,1201,6255.53414
D1,Baependi/MG,-21.959162,-44.8899249,12,62.50326
1,Bagre/PA,-1.8994498,-50.2103844,864,2758.18037
D1,Bagre/PA,-1.8994498,-50.2103844,11,35.11572
1,Bagé/RS,-31.3314264,-54.1062808,8139,6707.87489
D1,Bagé/RS,-31.3314264,-54.1062808,217,178.84370
1,Baianópolis/BA,-12.3067564,-44.5383591,614,4408.06950
D1,Baianópolis/BA,-12.3067564,-44.5383591,7,50.25486
1,Baixa Grande do Ribeiro/PI,-7.862861,-45.2113289,2022,17324.99357
D1,Baixa Grande do Ribeiro/PI,-7.862861,-45.2113289,21,179.93317
1,Baixa Grande/BA,-11.9630941,-40.1657537,632,3090.61568
D1,Baixa Grande/BA,-11.9630941,-40.1657537,9,44.01193
1,Baixio/CE,-6.7303544,-38.7170095,398,6314.45343
D1,Baixio/CE,-6.7303544,-38.7170095,10,158.65461
1,Baixo Guandu/ES,-19.5138322,-41.0182089,3178,10208.14596
D1,Baixo Guandu/ES,-19.5138322,-41.0182089,69,221.63690
1,Baião/PA,-2.7903479,-49.6702845,709,1463.09251
D1,Baião/PA,-2.7903479,-49.6702845,29,59.84440
1,Balbinos/SP,-21.9006253,-49.3583966,319,5375.80047
D1,Balbinos/SP,-21.9006253,-49.3583966,4,67.40816
1,Baldim/MG,-19.2913568,-43.9558262,487,6241.18929
D1,Baldim/MG,-19.2913568,-43.9558262,15,192.23376
1,Baliza/GO,-16.1978119,-52.542789,226,4280.30303
D1,Baliza/GO,-16.1978119,-52.542789,6,113.63636
1,Balneário Arroio do Silva/SC,-28.9815269,-49.4189932,1842,13715.56217
D1,Balneário Arroio do Silva/SC,-28.9815269,-49.4189932,40,297.84066
1,Balneário Barra do Sul/SC,-26.459842,-48.6061471,1314,11907.56683
D1,Balneário Barra do Sul/SC,-26.459842,-48.6061471,30,271.86226
1,Balneário Camboriú/SC,-26.9924395,-48.6339782,22576,15484.64978
D1,Balneário Camboriú/SC,-26.9924395,-48.6339782,331,227.02955
1,Balneário Gaivota/SC,-29.1553098,-49.5808712,1132,10053.28597
D1,Balneário Gaivota/SC,-29.1553098,-49.5808712,30,266.42984
1,Balneário Pinhal/RS,-30.2482978,-50.234585,660,4595.14029
D1,Balneário Pinhal/RS,-30.2482978,-50.234585,40,278.49335
1,Balneário Piçarras/SC,-26.7638889,-48.6716667,4211,17714.11745
D1,Balneário Piçarras/SC,-26.7638889,-48.6716667,44,185.09170
1,Balneário Rincão/SC,-28.8235718,-49.2241642,1254,9686.38962
D1,Balneário Rincão/SC,-28.8235718,-49.2241642,38,293.52696
1,Balsa Nova/PR,-25.5842234,-49.6312741,1274,9731.13352
D1,Balsa Nova/PR,-25.5842234,-49.6312741,24,183.31806
1,Balsas/MA,-7.53214,-46.037163,8726,9096.31081
D1,Balsas/MA,-7.53214,-46.037163,150,156.36565
1,Bambuí/MG,-20.0131996,-45.9777034,1269,5310.06779
D1,Bambuí/MG,-20.0131996,-45.9777034,17,71.13566
1,Banabuiú/CE,-5.3046404,-38.919766,1398,7657.75635
D1,Banabuiú/CE,-5.3046404,-38.919766,14,76.68712
1,Bananal/SP,-22.6828195,-44.3221095,901,8196.12481
D1,Bananal/SP,-22.6828195,-44.3221095,2,18.19340
1,Bananeiras/PB,-6.7537682,-35.6338343,983,4621.74996
D1,Bananeiras/PB,-6.7537682,-35.6338343,18,84.63021
1,Bandeira do Sul/MG,-21.728056,-46.385555,271,4690.20422
D1,Bandeira do Sul/MG,-21.728056,-46.385555,11,190.37729
1,Bandeira/MG,-15.884444,-40.559167,452,9483.84389
D1,Bandeira/MG,-15.884444,-40.559167,9,188.83760
1,Bandeirante/SC,-26.7677402,-53.6397596,241,9101.20846
D1,Bandeirante/SC,-26.7677402,-53.6397596,2,75.52870
1,Bandeirantes do Tocantins/TO,-7.7635698,-48.579148,391,10885.30067
D1,Bandeirantes do Tocantins/TO,-7.7635698,-48.579148,6,167.03786
1,Bandeirantes/MS,-19.9179623,-54.3646768,454,6248.27966
D1,Bandeirantes/MS,-19.9179623,-54.3646768,9,123.86457
1,Bandeirantes/PR,-23.107788,-50.370407,3254,10425.81141
D1,Bandeirantes/PR,-23.107788,-50.370407,97,310.78786
1,Bannach/PA,-7.3508505,-50.4064531,636,19497.24096
D1,Bannach/PA,-7.3508505,-50.4064531,2,61.31208
1,Banzaê/BA,-10.5827616,-38.6122305,869,6563.44411
D1,Banzaê/BA,-10.5827616,-38.6122305,7,52.87009
1,Baraúna/PB,-6.643394,-36.2531932,295,5942.78807
D1,Baraúna/PB,-6.643394,-36.2531932,5,100.72522
1,Baraúna/RN,-5.0775002,-37.61752,932,3242.07743
D1,Baraúna/RN,-5.0775002,-37.61752,22,76.52972
1,Barbacena/MG,-21.2254524,-43.7735087,6301,4559.20234
D1,Barbacena/MG,-21.2254524,-43.7735087,206,149.05502
1,Barbalha/CE,-7.3121067,-39.3036427,4888,7983.27563
D1,Barbalha/CE,-7.3121067,-39.3036427,103,168.22369
1,Barbosa Ferraz/PR,-24.0287182,-52.00811,944,8261.85892
D1,Barbosa Ferraz/PR,-24.0287182,-52.00811,27,236.30317
1,Barbosa/SP,-21.265661,-49.951816,373,4994.64381
D1,Barbosa/SP,-21.265661,-49.951816,10,133.90466
1,Barcarena/PA,-1.5107945,-48.6190679,10411,8195.89536
D1,Barcarena/PA,-1.5107945,-48.6190679,203,159.80854
1,Barcelona/RN,-5.9514918,-35.9260284,79,1977.96695
D1,Barcelona/RN,-5.9514918,-35.9260284,3,75.11267
1,Barcelos/AM,-0.9729214,-62.925635,4192,15167.52298
D1,Barcelos/AM,-0.9729214,-62.925635,57,206.23779
1,Bariri/SP,-22.0746355,-48.7394852,2349,6606.10833
D1,Bariri/SP,-22.0746355,-48.7394852,95,267.16913
1,Barra Bonita/SC,-26.6526364,-53.4419581,159,9630.52695
D1,Barra Bonita/SC,-26.6526364,-53.4419581,1,60.56935
1,Barra Bonita/SP,-22.490859,-48.558349,2713,7509.82672
D1,Barra Bonita/SP,-22.490859,-48.558349,76,210.37480
1,Barra D'Alcântara/PI,-6.5209258,-42.1071089,108,2732.79352
D1,Barra D'Alcântara/PI,-6.5209258,-42.1071089,3,75.91093
1,Barra Funda/RS,-27.9230048,-53.0401045,441,17287.33830
D1,Barra Funda/RS,-27.9230048,-53.0401045,8,313.60251
1,Barra Longa/MG,-20.2833541,-43.0423516,291,5802.59222
D1,Barra Longa/MG,-20.2833541,-43.0423516,8,159.52144
1,Barra Mansa/RJ,-22.5394843,-44.1735129,14012,7580.89735
D1,Barra Mansa/RJ,-22.5394843,-44.1735129,506,273.76064
1,Barra Velha/SC,-26.6338203,-48.6835001,3744,12538.51306
D1,Barra Velha/SC,-26.6338203,-48.6835001,83,277.96383
1,Barra da Estiva/BA,-13.6269662,-41.3278287,1748,8571.98902
D1,Barra da Estiva/BA,-13.6269662,-41.3278287,17,83.36603
1,Barra de Guabiraba/PE,-8.4173522,-35.6626669,345,2377.67057
D1,Barra de Guabiraba/PE,-8.4173522,-35.6626669,14,96.48518
1,Barra de Santa Rosa/PB,-6.7218007,-36.0564638,878,5665.61270
D1,Barra de Santa Rosa/PB,-6.7218007,-36.0564638,6,38.71717
1,Barra de Santana/PB,-7.5230865,-35.9988518,349,4180.14133
D1,Barra de Santana/PB,-7.5230865,-35.9988518,5,59.88741
1,Barra de Santo Antônio/AL,-9.4038098,-35.5117693,358,2228.03087
D1,Barra de Santo Antônio/AL,-9.4038098,-35.5117693,20,124.47100
1,Barra de São Francisco/ES,-18.7570902,-40.8916119,4425,9837.92436
D1,Barra de São Francisco/ES,-18.7570902,-40.8916119,181,402.41001
1,Barra de São Miguel/AL,-9.8261357,-35.8837777,447,5335.40224
D1,Barra de São Miguel/AL,-9.8261357,-35.8837777,7,83.55216
1,Barra de São Miguel/PB,-7.7528088,-36.3170996,416,6859.02721
D1,Barra de São Miguel/PB,-7.7528088,-36.3170996,6,98.92828
1,Barra do Bugres/MT,-15.0683712,-57.1853688,2422,6859.82950
D1,Barra do Bugres/MT,-15.0683712,-57.1853688,57,161.44107
1,Barra do Chapéu/SP,-24.472203,-49.023784,229,3975.69444
D1,Barra do Chapéu/SP,-24.472203,-49.023784,1,17.36111
1,Barra do Choça/BA,-14.8638173,-40.5761637,1844,5908.55202
D1,Barra do Choça/BA,-14.8638173,-40.5761637,27,86.51351
1,Barra do Corda/MA,-5.496823,-45.248496,5269,5954.21055
D1,Barra do Corda/MA,-5.496823,-45.248496,54,61.02247
1,Barra do Garças/MT,-15.8916033,-52.2615413,6676,10920.09487
D1,Barra do Garças/MT,-15.8916033,-52.2615413,232,379.48802
1,Barra do Guarita/RS,-27.1888016,-53.7147086,111,3408.04421
D1,Barra do Guarita/RS,-27.1888016,-53.7147086,6,184.21861
1,Barra do Jacaré/PR,-23.1151788,-50.1813945,161,5789.28443
D1,Barra do Jacaré/PR,-23.1151788,-50.1813945,1,35.95829
1,Barra do Mendes/BA,-11.8053298,-42.057037,660,4771.19931
D1,Barra do Mendes/BA,-11.8053298,-42.057037,11,79.51999
1,Barra do Ouro/TO,-7.7113784,-47.6743925,119,2569.08463
D1,Barra do Ouro/TO,-7.7113784,-47.6743925,6,129.53368
1,Barra do Piraí/RJ,-22.4703403,-43.8263256,5384,5343.17812
D1,Barra do Piraí/RJ,-22.4703403,-43.8263256,307,304.67230
1,Barra do Quaraí/RS,-30.208947,-57.5505128,350,8280.10409
D1,Barra do Quaraí/RS,-30.208947,-57.5505128,5,118.28720
1,Barra do Ribeiro/RS,-30.2930206,-51.301437,1000,7376.80732
D1,Barra do Ribeiro/RS,-30.2930206,-51.301437,47,346.70994
1,Barra do Rio Azul/RS,-27.4101581,-52.4117471,67,4048.33837
D1,Barra do Rio Azul/RS,-27.4101581,-52.4117471,1,60.42296
1,Barra do Rocha/BA,-14.2090974,-39.6004395,384,6842.48040
D1,Barra do Rocha/BA,-14.2090974,-39.6004395,5,89.09480
1,Barra do Turvo/SP,-24.756421,-48.5056942,514,6734.80084
D1,Barra do Turvo/SP,-24.756421,-48.5056942,14,183.43816
1,Barra dos Coqueiros/SE,-10.9075694,-37.0386249,5916,19127.06111
D1,Barra dos Coqueiros/SE,-10.9075694,-37.0386249,79,255.41545
1,Barra/BA,-11.0892702,-43.1420453,1841,3414.95084
D1,Barra/BA,-11.0892702,-43.1420453,31,57.50325
1,Barracão/PR,-26.252395,-53.6349576,1065,10327.77347
D1,Barracão/PR,-26.252395,-53.6349576,28,271.52832
1,Barracão/RS,-27.6728964,-51.4582928,361,6868.34094
D1,Barracão/RS,-27.6728964,-51.4582928,12,228.31050
1,Barras/PI,-4.2446153,-42.2920241,4357,9233.86669
D1,Barras/PI,-4.2446153,-42.2920241,85,180.14199
1,Barreira/CE,-4.2883361,-38.641094,1194,5289.50516
D1,Barreira/CE,-4.2883361,-38.641094,32,141.76228
1,Barreiras do Piauí/PI,-9.9224524,-45.4763776,67,1998.80668
D1,Barreiras do Piauí/PI,-9.9224524,-45.4763776,1,29.83294
1,Barreiras/BA,-12.1440031,-44.9967406,14764,9405.31932
D1,Barreiras/BA,-12.1440031,-44.9967406,238,151.61650
1,Barreirinha/AM,-2.798863,-57.067897,2337,7194.53252
D1,Barreirinha/AM,-2.798863,-57.067897,61,187.79054
1,Barreirinhas/MA,-2.7541271,-42.8259693,1881,2975.46546
D1,Barreirinhas/MA,-2.7541271,-42.8259693,34,53.78300
1,Barreiros/PE,-8.8159644,-35.1831905,732,1711.72014
D1,Barreiros/PE,-8.8159644,-35.1831905,53,123.93602
1,Barretos/SP,-20.5531437,-48.5697509,11449,9320.78513
D1,Barretos/SP,-20.5531437,-48.5697509,355,289.01028
1,Barrinha/SP,-21.1898849,-48.1550642,1337,4029.53586
D1,Barrinha/SP,-21.1898849,-48.1550642,53,159.73478
1,Barro Alto/BA,-11.7618025,-41.9094904,752,4995.35007
D1,Barro Alto/BA,-11.7618025,-41.9094904,8,53.14202
1,Barro Alto/GO,-14.9696025,-48.9190985,1232,10799.43899
D1,Barro Alto/GO,-14.9696025,-48.9190985,14,122.72090
1,Barro Duro/PI,-5.8180139,-42.5106589,662,9420.80546
D1,Barro Duro/PI,-5.8180139,-42.5106589,10,142.30824
1,Barro Preto/BA,-14.8068289,-39.4727588,563,10334.06755
D1,Barro Preto/BA,-14.8068289,-39.4727588,10,183.55360
1,Barro/CE,-7.1713587,-38.7742136,1001,4398.45329
D1,Barro/CE,-7.1713587,-38.7742136,20,87.88118
1,Barrocas/BA,-11.5165,-39.099282894736845,704,4371.31326
D1,Barrocas/BA,-11.5165,-39.099282894736845,19,117.97578
1,Barrolândia/TO,-9.837246,-48.7264346,704,12457.97204
D1,Barrolândia/TO,-9.837246,-48.7264346,20,353.91966
1,Barroquinha/CE,-3.0200371,-41.1339229,939,6241.69104
D1,Barroquinha/CE,-3.0200371,-41.1339229,24,159.53204
1,Barros Cassal/RS,-29.094938,-52.5832366,565,5052.76337
D1,Barros Cassal/RS,-29.094938,-52.5832366,7,62.60061
1,Barroso/MG,-21.187222,-43.976111,1367,6541.60884
D1,Barroso/MG,-21.187222,-43.976111,31,148.34665
1,Barueri/SP,-23.5112184,-46.8764612,24450,8827.28842
D1,Barueri/SP,-23.5112184,-46.8764612,923,333.23465
1,Barão de Antonina/SP,-23.6295651,-49.5632104,273,7804.45969
D1,Barão de Antonina/SP,-23.6295651,-49.5632104,7,200.11435
1,Barão de Cocais/MG,-19.9452437,-43.4870298,3314,10083.36883
D1,Barão de Cocais/MG,-19.9452437,-43.4870298,54,164.30354
1,Barão de Cotegipe/RS,-27.6214694,-52.3765316,595,8987.91541
D1,Barão de Cotegipe/RS,-27.6214694,-52.3765316,6,90.63444
1,Barão de Grajaú/MA,-6.7542591,-43.0263477,345,1823.08180
D1,Barão de Grajaú/MA,-6.7542591,-43.0263477,2,10.56859
1,Barão de Melgaço/MT,-16.195776,-55.9668049,331,4054.38511
D1,Barão de Melgaço/MT,-16.195776,-55.9668049,14,171.48457
1,Barão de Monte Alto/MG,-21.244722,-42.2375,190,3548.74860
D1,Barão de Monte Alto/MG,-21.244722,-42.2375,8,149.42099
1,Barão do Triunfo/RS,-30.3909877,-51.7375349,403,5359.75529
D1,Barão do Triunfo/RS,-30.3909877,-51.7375349,6,79.79785
1,Barão/RS,-29.372474,-51.494908,504,8126.41084
D1,Barão/RS,-29.372474,-51.494908,8,128.99065
1,Bastos/SP,-21.9222474,-50.7317727,954,4553.04730
D1,Bastos/SP,-21.9222474,-50.7317727,30,143.17759
1,Bataguassu/MS,-21.715899,-52.422058,2394,10263.66559
D1,Bataguassu/MS,-21.715899,-52.422058,28,120.04287
1,Batalha/AL,-9.6733809,-37.1265481,968,5278.65634
D1,Batalha/AL,-9.6733809,-37.1265481,15,81.79736
1,Batalha/PI,-4.022391,-42.0780926,938,3486.34083
D1,Batalha/PI,-4.022391,-42.0780926,30,111.50344
1,Batatais/SP,-20.892867,-47.592149,2365,3755.16037
D1,Batatais/SP,-20.892867,-47.592149,110,174.65862
1,Batayporã/MS,-22.2976466,-53.2685608,717,6317.73725
D1,Batayporã/MS,-22.2976466,-53.2685608,12,105.73619
1,Baturité/CE,-4.3290203,-38.8821055,3176,8836.70460
D1,Baturité/CE,-4.3290203,-38.8821055,67,186.41663
1,Bauru/SP,-22.3218102,-49.0705863,37841,9976.61463
D1,Bauru/SP,-22.3218102,-49.0705863,840,221.46234
1,Bayeux/PB,-7.1301631,-34.936532,6119,6295.07320
D1,Bayeux/PB,-7.1301631,-34.936532,219,225.30169
1,Baía Formosa/RN,-6.3691885,-35.0063741,315,3379.10320
D1,Baía Formosa/RN,-6.3691885,-35.0063741,8,85.81849
1,Baía da Traição/PB,-6.691258,-34.9371244,1223,13445.47054
D1,Baía da Traição/PB,-6.691258,-34.9371244,11,120.93228
1,Bebedouro/SP,-20.949077,-48.479083,3443,4439.43008
D1,Bebedouro/SP,-20.949077,-48.479083,104,134.09838
1,Beberibe/CE,-4.1810469,-38.1298101,3885,7201.24562
D1,Beberibe/CE,-4.1810469,-38.1298101,94,174.23863
1,Bela Cruz/CE,-3.0529129,-40.167582,3095,9458.46831
D1,Bela Cruz/CE,-3.0529129,-40.167582,60,183.36288
1,Bela Vista da Caroba/PR,-25.8792818,-53.6672545,159,4599.36361
D1,Bela Vista da Caroba/PR,-25.8792818,-53.6672545,5,144.63408
1,Bela Vista de Goiás/GO,-16.9692949,-48.9513071,2194,7195.32992
D1,Bela Vista de Goiás/GO,-16.9692949,-48.9513071,57,186.93428
1,Bela Vista de Minas/MG,-19.8289721,-43.0973688,712,6938.21867
D1,Bela Vista de Minas/MG,-19.8289721,-43.0973688,20,194.89378
1,Bela Vista do Maranhão/MA,-3.7416367,-45.2514192,205,1817.53702
D1,Bela Vista do Maranhão/MA,-3.7416367,-45.2514192,16,141.85655
1,Bela Vista do Paraíso/PR,-22.9948493,-51.1907996,1666,10818.88434
D1,Bela Vista do Paraíso/PR,-22.9948493,-51.1907996,58,376.64783
1,Bela Vista do Piauí/PI,-7.9716353,-41.8715061,236,5856.07940
D1,Bela Vista do Piauí/PI,-7.9716353,-41.8715061,6,148.88337
1,Bela Vista do Toldo/SC,-26.274625,-50.466354,69,1084.56460
D1,Bela Vista do Toldo/SC,-26.274625,-50.466354,2,31.43666
1,Bela Vista/MS,-22.107327,-56.5317344,753,3044.26925
D1,Bela Vista/MS,-22.107327,-56.5317344,20,80.85709
1,Belford Roxo/RJ,-22.7667284,-43.4033603,19651,3829.72338
D1,Belford Roxo/RJ,-22.7667284,-43.4033603,606,118.10149
1,Belmiro Braga/MG,-21.9486291,-43.413564,157,4583.94161
D1,Belmiro Braga/MG,-21.9486291,-43.413564,3,87.59124
1,Belmonte/BA,-15.8630837,-38.8792845,948,4044.88629
D1,Belmonte/BA,-15.8630837,-38.8792845,18,76.80164
1,Belmonte/SC,-26.8448262,-53.578916,222,8194.90587
D1,Belmonte/SC,-26.8448262,-53.578916,4,147.65596
1,Belo Campo/BA,-15.0338286,-41.2585109,720,4208.31142
D1,Belo Campo/BA,-15.0338286,-41.2585109,9,52.60389
1,Belo Horizonte/MG,-19.9227318,-43.9450948,196581,7795.99487
D1,Belo Horizonte/MG,-19.9227318,-43.9450948,4798,190.27873
1,Belo Jardim/PE,-8.3338293,-36.4176419,2920,3807.68579
D1,Belo Jardim/PE,-8.3338293,-36.4176419,89,116.05618
1,Belo Monte/AL,-9.8269944,-37.2787165,277,4128.16692
D1,Belo Monte/AL,-9.8269944,-37.2787165,7,104.32191
1,Belo Oriente/MG,-19.2232523,-42.4807033,2406,8913.09180
D1,Belo Oriente/MG,-19.2232523,-42.4807033,58,214.86256
1,Belo Vale/MG,-20.407778,-44.024167,634,8213.49916
D1,Belo Vale/MG,-20.407778,-44.024167,10,129.55046
1,Belterra/PA,-2.636091,-54.937392,1268,7108.02175
D1,Belterra/PA,-2.636091,-54.937392,24,134.53669
1,Belágua/MA,-3.1604031,-43.5085052,334,4436.76939
D1,Belágua/MA,-3.1604031,-43.5085052,3,39.85122
1,Belém de Maria/PE,-8.6242497,-35.8388934,202,1666.39168
D1,Belém de Maria/PE,-8.6242497,-35.8388934,6,49.49678
1,Belém do Brejo do Cruz/PB,-6.1880727,-37.5332267,487,6626.75194
D1,Belém do Brejo do Cruz/PB,-6.1880727,-37.5332267,5,68.03647
1,Belém do Piauí/PI,-7.3767305,-40.9712156,436,12155.00418
D1,Belém do Piauí/PI,-7.3767305,-40.9712156,7,195.14915
1,Belém do São Francisco/PE,-8.7517707,-38.9625715,594,2865.41245
D1,Belém do São Francisco/PE,-8.7517707,-38.9625715,9,43.41534
1,Belém/AL,-9.5715351,-36.492841,107,2497.66573
D1,Belém/AL,-9.5715351,-36.492841,3,70.02801
1,Belém/PA,-1.45056,-48.4682453,98615,6575.90717
D1,Belém/PA,-1.45056,-48.4682453,4669,311.34118
1,Belém/PB,-6.6967586,-35.5369626,1871,10567.63626
D1,Belém/PB,-6.6967586,-35.5369626,33,186.38803
1,Beneditinos/PI,-5.4565671,-42.3605061,1026,9796.61988
D1,Beneditinos/PI,-5.4565671,-42.3605061,34,324.64432
1,Benedito Leite/MA,-7.2173453,-44.5523331,295,5232.35190
D1,Benedito Leite/MA,-7.2173453,-44.5523331,2,35.47357
1,Benedito Novo/SC,-26.7840657,-49.3629511,921,7821.65605
D1,Benedito Novo/SC,-26.7840657,-49.3629511,16,135.88110
1,Benevides/PA,-1.3555577,-48.252235,3683,5775.62414
D1,Benevides/PA,-1.3555577,-48.252235,92,144.27299
1,Benjamin Constant do Sul/RS,-27.5105555,-52.6007689,152,7763.02349
1,Benjamin Constant/AM,-4.3782748,-70.0290603,2682,6104.47252
D1,Benjamin Constant/AM,-4.3782748,-70.0290603,85,193.46762
1,Bento Fernandes/RN,-5.6926846,-35.8207423,128,2316.74208
D1,Bento Fernandes/RN,-5.6926846,-35.8207423,3,54.29864
1,Bento Gonçalves/RS,-29.1654014,-51.5197627,15257,12525.96406
D1,Bento Gonçalves/RS,-29.1654014,-51.5197627,270,221.66942
1,Bento de Abreu/SP,-21.2707225,-50.8120444,276,9184.69218
1,Bequimão/MA,-2.4495376,-44.7884889,275,1291.14043
D1,Bequimão/MA,-2.4495376,-44.7884889,17,79.81595
1,Berilo/MG,-16.9515764,-42.4643732,133,1120.28302
D1,Berilo/MG,-16.9515764,-42.4643732,1,8.42318
1,Berizal/MG,-15.6118785,-41.7417382,112,2350.96558
D1,Berizal/MG,-15.6118785,-41.7417382,1,20.99076
1,Bernardino Batista/PB,-6.4532173,-38.5495418,232,6561.08597
1,Bernardino de Campos/SP,-23.0140216,-49.4760724,466,4176.37569
D1,Bernardino de Campos/SP,-23.0140216,-49.4760724,8,71.69744
1,Bernardo Sayão/TO,-7.8794244,-48.8968905,448,10071.94245
D1,Bernardo Sayão/TO,-7.8794244,-48.8968905,6,134.89209
1,Bernardo do Mearim/MA,-4.6315929,-44.7617508,268,4412.97547
D1,Bernardo do Mearim/MA,-4.6315929,-44.7617508,6,98.79796
1,Bertioga/SP,-23.848568,-46.139586,5014,7746.85969
D1,Bertioga/SP,-23.848568,-46.139586,127,196.22082
1,Bertolínia/PI,-7.6372159,-43.9540611,816,14817.50499
D1,Bertolínia/PI,-7.6372159,-43.9540611,10,181.58707
1,Bertópolis/MG,-17.063333,-40.573889,273,5925.76514
1,Beruri/AM,-3.9007135,-61.3717319,2160,10750.01244
D1,Beruri/AM,-3.9007135,-61.3717319,31,154.28259
1,Betim/MG,-19.968056,-44.198333,26142,5877.45962
D1,Betim/MG,-19.968056,-44.198333,967,217.40890
1,Betânia do Piauí/PI,-8.1460635,-40.7961387,157,2528.18035
D1,Betânia do Piauí/PI,-8.1460635,-40.7961387,2,32.20612
1,Betânia/PE,-8.2742779,-38.0351767,408,3196.23972
D1,Betânia/PE,-8.2742779,-38.0351767,10,78.33921
1,Bezerros/PE,-8.2372132,-35.7558262,3377,5546.97766
D1,Bezerros/PE,-8.2372132,-35.7558262,100,164.25756
1,Bias Fortes/MG,-21.605833,-43.756944,99,2973.86603
D1,Bias Fortes/MG,-21.605833,-43.756944,3,90.11715
1,Bicas/MG,-21.7213723,-43.0604327,1192,8190.18826
D1,Bicas/MG,-21.7213723,-43.0604327,35,240.48372
1,Biguaçu/SC,-27.4961277,-48.6542432,10309,14836.08209
D1,Biguaçu/SC,-27.4961277,-48.6542432,151,217.30996
1,Bilac/SP,-21.403962,-50.47464,734,9042.74978
D1,Bilac/SP,-21.403962,-50.47464,13,160.15769
1,Biquinhas/MG,-18.783611,-45.502222,104,4163.33066
D1,Biquinhas/MG,-18.783611,-45.502222,1,40.03203
1,Birigui/SP,-21.2908491,-50.34144,11952,9570.55804
D1,Birigui/SP,-21.2908491,-50.34144,424,339.51779
1,Biritiba Mirim/SP,-23.5697765,-46.0407456,1103,3348.91912
D1,Biritiba Mirim/SP,-23.5697765,-46.0407456,71,215.56959
1,Biritinga/BA,-11.6227908,-38.8066738,341,2133.38338
D1,Biritinga/BA,-11.6227908,-38.8066738,6,37.53754
1,Bituruna/PR,-26.161281,-51.5533319,708,4317.07317
D1,Bituruna/PR,-26.161281,-51.5533319,10,60.97561
1,Blumenau/SC,-26.9195567,-49.0658025,45750,12643.18581
D1,Blumenau/SC,-26.9195567,-49.0658025,520,143.70397
1,Boa Esperança do Iguaçu/PR,-25.6362851,-53.2139114,144,5829.95951
1,Boa Esperança do Sul/SP,-21.9930206,-48.3917372,815,5426.82115
D1,Boa Esperança do Sul/SP,-21.9930206,-48.3917372,11,73.24544
1,Boa Esperança/ES,-18.5395472,-40.2904088,1264,8375.29817
D1,Boa Esperança/ES,-18.5395472,-40.2904088,36,238.53697
1,Boa Esperança/MG,-21.0901253,-45.5660195,3150,7832.11915
D1,Boa Esperança/MG,-21.0901253,-45.5660195,88,218.80206
1,Boa Esperança/PR,-24.2411024,-52.7860277,280,6918.70521
D1,Boa Esperança/PR,-24.2411024,-52.7860277,8,197.67729
1,Boa Hora/PI,-4.4094627,-42.1255341,499,7322.08364
D1,Boa Hora/PI,-4.4094627,-42.1255341,5,73.36757
1,Boa Nova/BA,-14.365907,-40.2063056,774,6277.88142
D1,Boa Nova/BA,-14.365907,-40.2063056,11,89.22054
1,Boa Ventura de São Roque/PR,-24.88177,-51.5441292,385,6048.70385
D1,Boa Ventura de São Roque/PR,-24.88177,-51.5441292,5,78.55460
1,Boa Ventura/PB,-7.4202462,-38.2156782,296,5577.53910
D1,Boa Ventura/PB,-7.4202462,-38.2156782,5,94.21519
1,Boa Viagem/CE,-5.1261877,-39.7300055,3175,5817.46890
D1,Boa Viagem/CE,-5.1261877,-39.7300055,88,161.24008
1,Boa Vista da Aparecida/PR,-25.4357216,-53.4067721,734,9734.74801
D1,Boa Vista da Aparecida/PR,-25.4357216,-53.4067721,22,291.77719
1,Boa Vista das Missões/RS,-27.6677983,-53.3127622,138,6596.55832
D1,Boa Vista das Missões/RS,-27.6677983,-53.3127622,4,191.20459
1,Boa Vista do Buricá/RS,-27.6687782,-54.1111913,642,9564.95828
D1,Boa Vista do Buricá/RS,-27.6687782,-54.1111913,8,119.18951
1,Boa Vista do Cadeado/RS,-28.5783827,-53.8123759,144,5834.68395
D1,Boa Vista do Cadeado/RS,-28.5783827,-53.8123759,2,81.03728
1,Boa Vista do Gurupi/MA,-1.7981168,-46.3071882,15,178.95490
D1,Boa Vista do Gurupi/MA,-1.7981168,-46.3071882,4,47.72131
1,Boa Vista do Incra/RS,-28.8195551,-53.3866624,230,8792.04893
D1,Boa Vista do Incra/RS,-28.8195551,-53.3866624,3,114.67890
1,Boa Vista do Ramos/AM,-2.9716927,-57.5869819,885,4509.32437
D1,Boa Vista do Ramos/AM,-2.9716927,-57.5869819,11,56.04810
1,Boa Vista do Sul/RS,-29.3510488,-51.6779679,260,9359.25126
D1,Boa Vista do Sul/RS,-29.3510488,-51.6779679,3,107.99136
1,Boa Vista do Tupim/BA,-12.6605988,-40.6083594,216,1165.61438
D1,Boa Vista do Tupim/BA,-12.6605988,-40.6083594,4,21.58545
1,Boa Vista/PB,-7.2620711,-36.2415161,549,7693.38565
D1,Boa Vista/PB,-7.2620711,-36.2415161,9,126.12108
1,Boa Vista/RR,2.8208478,-60.6719582,76937,18333.52397
D1,Boa Vista/RR,2.8208478,-60.6719582,1224,291.67024
1,Boca da Mata/AL,-9.6452054,-36.2116658,1669,6101.03816
D1,Boca da Mata/AL,-9.6452054,-36.2116658,42,153.53122
1,Boca do Acre/AM,-8.7553487,-67.3930873,2514,7258.55349
D1,Boca do Acre/AM,-8.7553487,-67.3930873,22,63.51956
1,Bocaina de Minas/MG,-22.167778,-44.394722,169,3320.88819
D1,Bocaina de Minas/MG,-22.167778,-44.394722,6,117.90136
1,Bocaina do Sul/SC,-27.745494,-49.942279,362,10378.44037
D1,Bocaina do Sul/SC,-27.745494,-49.942279,3,86.00917
1,Bocaina/PI,-6.9445939,-41.3224599,240,5327.41398
D1,Bocaina/PI,-6.9445939,-41.3224599,3,66.59267
1,Bocaina/SP,-22.1421831,-48.522276,1099,8825.89142
D1,Bocaina/SP,-22.1421831,-48.522276,26,208.80180
1,Bocaiúva do Sul/PR,-25.206591,-49.114131,1580,12034.42760
D1,Bocaiúva do Sul/PR,-25.206591,-49.114131,14,106.63417
1,Bocaiúva/MG,-17.1160208,-43.8122678,1862,3705.03025
D1,Bocaiúva/MG,-17.1160208,-43.8122678,47,93.52117
1,Bodocó/PE,-7.777592,-39.933797,1705,4442.64943
D1,Bodocó/PE,-7.777592,-39.933797,26,67.74715
1,Bodoquena/MS,-20.5508775,-56.6769653,293,3738.19852
D1,Bodoquena/MS,-20.5508775,-56.6769653,11,140.34192
1,Bodó/RN,-5.9866104,-36.4134824,110,5006.82749
1,Bofete/SP,-23.1019554,-48.2610535,601,5041.52336
D1,Bofete/SP,-23.1019554,-48.2610535,13,109.05125
1,Boituva/SP,-23.2838893,-47.6738231,4482,7209.26492
D1,Boituva/SP,-23.2838893,-47.6738231,114,183.36818
1,Bom Conselho/PE,-9.169191,-36.685683,1433,2938.46248
D1,Bom Conselho/PE,-9.169191,-36.685683,46,94.32608
1,Bom Despacho/MG,-19.7375242,-45.2517288,3083,6041.78098
D1,Bom Despacho/MG,-19.7375242,-45.2517288,65,127.38105
1,Bom Jardim da Serra/SC,-28.3380324,-49.625588,559,11714.16597
D1,Bom Jardim da Serra/SC,-28.3380324,-49.625588,4,83.82230
1,Bom Jardim de Goiás/GO,-16.2062659,-52.172793,645,7272.52227
D1,Bom Jardim de Goiás/GO,-16.2062659,-52.172793,14,157.85320
1,Bom Jardim de Minas/MG,-21.9476466,-44.1906033,388,6007.12185
D1,Bom Jardim de Minas/MG,-21.9476466,-44.1906033,2,30.96455
1,Bom Jardim/MA,-3.54129,-45.606004,1311,3134.71379
D1,Bom Jardim/MA,-3.54129,-45.606004,44,105.20779
1,Bom Jardim/PE,-7.7961572,-35.5871696,1142,2856.21389
D1,Bom Jardim/PE,-7.7961572,-35.5871696,54,135.05740
1,Bom Jardim/RJ,-22.1515328,-42.4186683,1380,4997.10313
D1,Bom Jardim/RJ,-22.1515328,-42.4186683,35,126.73812
1,Bom Jesus da Lapa/BA,-13.250571,-43.410754,3999,5740.57592
D1,Bom Jesus da Lapa/BA,-13.250571,-43.410754,57,81.82366
1,Bom Jesus da Penha/MG,-21.0165299,-46.5226644,393,9260.13195
D1,Bom Jesus da Penha/MG,-21.0165299,-46.5226644,8,188.50141
1,Bom Jesus da Serra/BA,-14.3724084,-40.5047119,415,4224.77858
D1,Bom Jesus da Serra/BA,-14.3724084,-40.5047119,8,81.44151
1,Bom Jesus das Selvas/MA,-4.4878075,-46.8526639,2856,8262.21541
D1,Bom Jesus das Selvas/MA,-4.4878075,-46.8526639,23,66.53745
1,Bom Jesus de Goiás/GO,-18.2174587,-49.739721,2454,9567.99750
D1,Bom Jesus de Goiás/GO,-18.2174587,-49.739721,97,378.19713
1,Bom Jesus do Amparo/MG,-19.7045132,-43.4752911,186,3032.77352
D1,Bom Jesus do Amparo/MG,-19.7045132,-43.4752911,6,97.83140
1,Bom Jesus do Araguaia/MT,-12.1725897,-51.5074425,898,13390.99314
D1,Bom Jesus do Araguaia/MT,-12.1725897,-51.5074425,14,208.76827
1,Bom Jesus do Galho/MG,-19.8283191,-42.3162256,555,3734.35608
D1,Bom Jesus do Galho/MG,-19.8283191,-42.3162256,24,161.48567
1,Bom Jesus do Itabapoana/RJ,-21.1341025,-41.680095,2829,7604.22547
D1,Bom Jesus do Itabapoana/RJ,-21.1341025,-41.680095,76,204.28460
1,Bom Jesus do Norte/ES,-21.1254776,-41.6711646,889,8923.91086
D1,Bom Jesus do Norte/ES,-21.1254776,-41.6711646,21,210.80104
1,Bom Jesus do Oeste/SC,-26.6929713,-53.0967453,161,7526.88172
D1,Bom Jesus do Oeste/SC,-26.6929713,-53.0967453,5,233.75409
1,Bom Jesus do Sul/PR,-26.1922507,-53.6002033,331,9440.95836
D1,Bom Jesus do Sul/PR,-26.1922507,-53.6002033,3,85.56760
1,Bom Jesus do Tocantins/PA,-5.0471796,-48.5978362,742,4334.61853
D1,Bom Jesus do Tocantins/PA,-5.0471796,-48.5978362,24,140.20329
1,Bom Jesus do Tocantins/TO,-8.96306,-48.165043,124,2476.03834
D1,Bom Jesus do Tocantins/TO,-8.96306,-48.165043,3,59.90415
1,Bom Jesus dos Perdões/SP,-23.1353864,-46.4648052,1824,7019.43429
D1,Bom Jesus dos Perdões/SP,-23.1353864,-46.4648052,23,88.51260
1,Bom Jesus/PB,-6.8156725,-38.6551841,123,4776.69903
D1,Bom Jesus/PB,-6.8156725,-38.6551841,3,116.50485
1,Bom Jesus/PI,-9.0711644,-44.3583926,2986,11761.92539
D1,Bom Jesus/PI,-9.0711644,-44.3583926,31,122.10974
1,Bom Jesus/RN,-5.9887544,-35.5821149,659,6418.62277
D1,Bom Jesus/RN,-5.9887544,-35.5821149,13,126.61927
1,Bom Jesus/RS,-28.6692723,-50.4346894,675,5968.69750
D1,Bom Jesus/RS,-28.6692723,-50.4346894,15,132.63772
1,Bom Jesus/SC,-26.7350604,-52.3916519,334,10925.74419
D1,Bom Jesus/SC,-26.7350604,-52.3916519,6,196.27085
1,Bom Lugar/MA,-4.3728019,-45.0366054,445,2707.14199
D1,Bom Lugar/MA,-4.3728019,-45.0366054,7,42.58426
1,Bom Princípio do Piauí/PI,-3.1912777,-41.6430185,118,2088.12600
D1,Bom Princípio do Piauí/PI,-3.1912777,-41.6430185,11,194.65581
1,Bom Princípio/RS,-29.489788,-51.3566782,1506,10564.71414
D1,Bom Princípio/RS,-29.489788,-51.3566782,26,182.39214
1,Bom Progresso/RS,-27.5490948,-53.8655601,117,6161.13744
D1,Bom Progresso/RS,-27.5490948,-53.8655601,3,157.97788
1,Bom Repouso/MG,-22.4657069,-46.1485376,769,7298.09244
D1,Bom Repouso/MG,-22.4657069,-46.1485376,18,170.82661
1,Bom Retiro do Sul/RS,-29.6000007,-51.9359243,916,7393.05892
D1,Bom Retiro do Sul/RS,-29.6000007,-51.9359243,24,193.70460
1,Bom Retiro/SC,-27.798993,-49.486994,650,6461.23260
D1,Bom Retiro/SC,-27.798993,-49.486994,14,139.16501
1,Bom Sucesso de Itararé/SP,-24.3190016,-49.1446207,124,3112.44980
D1,Bom Sucesso de Itararé/SP,-24.3190016,-49.1446207,5,125.50201
1,Bom Sucesso do Sul/PR,-26.0749256,-52.8348629,350,10755.99262
D1,Bom Sucesso do Sul/PR,-26.0749256,-52.8348629,6,184.38844
1,Bom Sucesso/MG,-21.0323516,-44.7598082,586,3328.22173
D1,Bom Sucesso/MG,-21.0323516,-44.7598082,4,22.71824
1,Bom Sucesso/PB,-6.4458948,-37.9297662,204,4116.22276
D1,Bom Sucesso/PB,-6.4458948,-37.9297662,2,40.35513
1,Bom Sucesso/PR,-23.7088019,-51.7651297,664,9394.45388
D1,Bom Sucesso/PR,-23.7088019,-51.7651297,12,169.77929
1,Bombinhas/SC,-27.1519159,-48.4875691,3312,16287.18957
D1,Bombinhas/SC,-27.1519159,-48.4875691,52,255.71674
1,Bonfim do Piauí/PI,-9.1648678,-42.8734415,302,5312.22515
D1,Bonfim do Piauí/PI,-9.1648678,-42.8734415,6,105.54090
1,Bonfim/MG,-20.3266626, -44.2386157,346,5043.73178
D1,Bonfim/MG,-20.3266626, -44.2386157,13,189.50437
1,Bonfim/RR,3.3613818,-59.8427241,2195,17480.28988
D1,Bonfim/RR,3.3613818,-59.8427241,24,191.12845
1,Bonfinópolis de Minas/MG,-16.5660011,-45.98645,383,7035.26819
D1,Bonfinópolis de Minas/MG,-16.5660011,-45.98645,11,202.05731
1,Bonfinópolis/GO,-16.6172709,-48.9615701,444,4476.25769
D1,Bonfinópolis/GO,-16.6172709,-48.9615701,17,171.38824
1,Boninal/BA,-12.7095183,-41.8299984,573,3966.49592
D1,Boninal/BA,-12.7095183,-41.8299984,7,48.45632
1,Bonito de Minas/MG,-15.3191266,-44.7544,43,378.22148
1,Bonito de Santa Fé/PB,-7.3143332,-38.5146677,414,3443.68657
D1,Bonito de Santa Fé/PB,-7.3143332,-38.5146677,11,91.49892
1,Bonito/BA,-11.9665473,-41.2649896,708,4193.31912
D1,Bonito/BA,-11.9665473,-41.2649896,10,59.22767
1,Bonito/MS,-21.1264766,-56.4902208,2373,10694.00631
D1,Bonito/MS,-21.1264766,-56.4902208,49,220.82019
1,Bonito/PA,-1.3605722,-47.3049907,359,2171.80883
D1,Bonito/PA,-1.3605722,-47.3049907,12,72.59528
1,Bonito/PE,-8.4721161,-35.7314591,684,1794.47491
D1,Bonito/PE,-8.4721161,-35.7314591,34,89.19905
1,Bonópolis/GO,-13.649331,-49.8329113,146,3249.49922
D1,Bonópolis/GO,-13.649331,-49.8329113,1,22.25684
1,Boqueirão do Leão/RS,-29.30332,-52.4296817,554,7192.93690
D1,Boqueirão do Leão/RS,-29.30332,-52.4296817,28,363.54194
1,Boqueirão do Piauí/PI,-4.4850148,-42.1095161,526,8185.49642
D1,Boqueirão do Piauí/PI,-4.4850148,-42.1095161,10,155.61780
1,Boqueirão/PB,-7.487004,-36.130887,1324,7409.06547
D1,Boqueirão/PB,-7.487004,-36.130887,24,134.30330
1,Boquim/SE,-11.1450175,-37.6204228,2041,7587.64266
D1,Boquim/SE,-11.1450175,-37.6204228,50,185.88052
1,Boquira/BA,-12.8184859,-42.7270883,477,2218.91427
D1,Boquira/BA,-12.8184859,-42.7270883,10,46.51812
1,Boracéia/SP,-22.195355,-48.7801925,811,16659.81923
D1,Boracéia/SP,-22.195355,-48.7801925,21,431.38866
1,Borba/AM,-4.3934778,-59.5947721,1954,4680.46373
D1,Borba/AM,-4.3934778,-59.5947721,54,129.34751
1,Borborema/PB,-6.8066718,-35.5990191,350,6620.01135
D1,Borborema/PB,-6.8066718,-35.5990191,11,208.05750
1,Borborema/SP,-21.6212706,-49.074135,1126,6966.09750
D1,Borborema/SP,-21.6212706,-49.074135,37,228.90374
1,Borda da Mata/MG,-22.274167,-46.165278,1180,6016.11094
D1,Borda da Mata/MG,-22.274167,-46.165278,37,188.64077
1,Borebi/SP,-22.5700178,-48.9714871,147,5478.94148
D1,Borebi/SP,-22.5700178,-48.9714871,2,74.54342
1,Borrazópolis/PR,-23.9393362,-51.5850786,579,8992.07952
D1,Borrazópolis/PR,-23.9393362,-51.5850786,19,295.07688
1,Borá/SP,-22.2701088,-50.544407,97,11575.17900
D1,Borá/SP,-22.2701088,-50.544407,1,119.33174
1,Bossoroca/RS,-28.7278885,-54.9120278,371,5979.04915
D1,Bossoroca/RS,-28.7278885,-54.9120278,20,322.32071
1,Botelhos/MG,-21.65,-46.394722,1252,8375.14215
D1,Botelhos/MG,-21.65,-46.394722,17,113.71998
1,Botucatu/SP,-22.8879628,-48.4410712,11716,7909.26889
D1,Botucatu/SP,-22.8879628,-48.4410712,217,146.49295
1,Botumirim/MG,-16.862778,-43.011111,193,3069.33842
D1,Botumirim/MG,-16.862778,-43.011111,3,47.70992
1,Botuporã/BA,-13.3744752,-42.5198469,190,1875.80215
D1,Botuporã/BA,-13.3744752,-42.5198469,3,29.61793
1,Botuverá/SC,-27.200749,-49.068892,851,15990.22924
D1,Botuverá/SC,-27.200749,-49.068892,8,150.31943
1,Bozano/RS,-28.3669953,-53.7705165,212,10042.63382
D1,Bozano/RS,-28.3669953,-53.7705165,7,331.59640
1,Braga/RS,-27.617348,-53.740514,201,6070.67351
D1,Braga/RS,-27.617348,-53.740514,5,151.01178
1,Braganey/PR,-24.8179919,-53.118506,330,6131.54961
D1,Braganey/PR,-24.8179919,-53.118506,7,130.06317
1,Bragança Paulista/SP,-22.9520235,-46.5418586,13867,8131.56398
D1,Bragança Paulista/SP,-22.9520235,-46.5418586,392,229.86753
1,Bragança/PA,-1.0573967,-46.7635406,3873,3004.32847
D1,Bragança/PA,-1.0573967,-46.7635406,134,103.94527
1,Branquinha/AL,-9.2478057,-36.0152009,469,4483.74761
D1,Branquinha/AL,-9.2478057,-36.0152009,9,86.04207
1,Brasil Novo/PA,-3.3055853,-52.539198,1644,10972.43543
D1,Brasil Novo/PA,-3.3055853,-52.539198,38,253.62077
1,Brasileira/PI,-4.131182,-41.7824969,494,5918.29400
D1,Brasileira/PI,-4.131182,-41.7824969,9,107.82317
1,Brasilândia de Minas/MG,-17.0096469,-46.0087183,988,5899.21185
D1,Brasilândia de Minas/MG,-17.0096469,-46.0087183,13,77.62121
1,Brasilândia do Sul/PR,-24.1975793,-53.527551,341,13191.48936
D1,Brasilândia do Sul/PR,-24.1975793,-53.527551,8,309.47776
1,Brasilândia do Tocantins/TO,-8.3886619,-48.4842729,157,7100.85934
D1,Brasilândia do Tocantins/TO,-8.3886619,-48.4842729,4,180.91361
1,Brasilândia/MS,-21.255575,-52.0365617,854,7204.92702
D1,Brasilândia/MS,-21.255575,-52.0365617,14,118.11356
1,Brasiléia/AC,-11.0010413,-68.7487894,2649,9920.60520
D1,Brasiléia/AC,-11.0010413,-68.7487894,36,134.82136
1,Brasnorte/MT,-12.1227151,-58.0050109,1794,8907.64647
D1,Brasnorte/MT,-12.1227151,-58.0050109,32,158.88779
1,Brasília de Minas/MG,-16.2075114,-44.430559,857,2644.65360
D1,Brasília de Minas/MG,-16.2075114,-44.430559,7,21.60160
1,Brasília/DF,-15.7934036,-47.8823172,396087,12964.57227
D1,Brasília/DF,-15.7934036,-47.8823172,8422,275.66577
1,Brazabrantes/GO,-16.4291635,-49.3858216,383,10224.23919
D1,Brazabrantes/GO,-16.4291635,-49.3858216,3,80.08542
1,Brazópolis/MG,-22.4742842,-45.6165577,726,5038.16794
D1,Brazópolis/MG,-22.4742842,-45.6165577,28,194.30951
1,Braço do Norte/SC,-28.2728633,-49.1622712,7262,21437.00555
D1,Braço do Norte/SC,-28.2728633,-49.1622712,78,230.25151
1,Braço do Trombudo/SC,-27.358578,-49.882145,572,15176.43937
D1,Braço do Trombudo/SC,-27.358578,-49.882145,4,106.12895
1,Braúna/SP,-21.5015319,-50.3175246,380,6619.05591
D1,Braúna/SP,-21.5015319,-50.3175246,19,330.95280
1,Braúnas/MG,-19.055556,-42.716111,194,4067.93877
D1,Braúnas/MG,-19.055556,-42.716111,7,146.78130
1,Brejetuba/ES,-20.1465817,-41.2902303,1495,12030.25670
D1,Brejetuba/ES,-20.1465817,-41.2902303,13,104.61093
1,Brejinho de Nazaré/TO,-11.0205883,-48.5722906,416,7537.59739
D1,Brejinho de Nazaré/TO,-11.0205883,-48.5722906,11,199.31147
1,Brejinho/PE,-7.3482153,-37.28538,606,8092.94872
D1,Brejinho/PE,-7.3482153,-37.28538,18,240.38462
1,Brejinho/RN,-6.1957907,-35.3583019,1066,8336.59185
D1,Brejinho/RN,-6.1957907,-35.3583019,10,78.20443
1,Brejo Alegre/SP,-21.1671191,-50.1850393,300,10384.21599
D1,Brejo Alegre/SP,-21.1671191,-50.1850393,11,380.75459
1,Brejo Grande do Araguaia/PA,-5.7011449,-48.4037308,764,10369.16395
D1,Brejo Grande do Araguaia/PA,-5.7011449,-48.4037308,4,54.28882
1,Brejo Grande/SE,-10.4287358,-36.4667918,358,4285.88531
D1,Brejo Grande/SE,-10.4287358,-36.4667918,12,143.66096
1,Brejo Santo/CE,-7.4909841,-38.9859152,7408,14862.96698
D1,Brejo Santo/CE,-7.4909841,-38.9859152,135,270.85590
1,Brejo da Madre de Deus/PE,-8.1409718,-36.3712527,1861,3632.99170
D1,Brejo da Madre de Deus/PE,-8.1409718,-36.3712527,47,91.75207
1,Brejo de Areia/MA,-4.3316785,-45.5833334,281,3117.37298
D1,Brejo de Areia/MA,-4.3316785,-45.5833334,8,88.75083
1,Brejo do Cruz/PB,-6.32926065,-37.48746163303929,1240,8728.70618
D1,Brejo do Cruz/PB,-6.32926065,-37.48746163303929,20,140.78558
1,Brejo do Piauí/PI,-8.207583,-42.8359849,84,2182.95218
D1,Brejo do Piauí/PI,-8.207583,-42.8359849,3,77.96258
1,Brejo dos Santos/PB,-6.3769367,-37.8243125,386,5971.53465
D1,Brejo dos Santos/PB,-6.3769367,-37.8243125,4,61.88119
1,Brejo/MA,-3.6804397,-42.7529313,841,2294.61679
D1,Brejo/MA,-3.6804397,-42.7529313,19,51.84033
1,Brejolândia/BA,-12.4843845,-43.9611861,129,1214.91806
D1,Brejolândia/BA,-12.4843845,-43.9611861,8,75.34376
1,Brejão/PE,-9.029146,-36.566034,235,2614.88817
D1,Brejão/PE,-9.029146,-36.566034,5,55.63592
1,Brejões/BA,-13.1033754,-39.7909837,569,4000.84376
D1,Brejões/BA,-13.1033754,-39.7909837,9,63.28224
1,Breu Branco/PA,-3.7785073,-49.5684795,617,916.35478
D1,Breu Branco/PA,-3.7785073,-49.5684795,43,63.86265
1,Breves/PA,-1.68036,-50.479085,3843,3713.15111
D1,Breves/PA,-1.68036,-50.479085,109,105.31706
1,Britânia/GO,-15.2427599,-51.1602061,483,8331.89581
D1,Britânia/GO,-15.2427599,-51.1602061,4,69.00121
1,Brochier/RS,-29.556766,-51.5963047,368,7210.03135
D1,Brochier/RS,-29.556766,-51.5963047,2,39.18495
1,Brodowski/SP,-20.984532,-47.657217,2042,8078.49033
D1,Brodowski/SP,-20.984532,-47.657217,50,197.80828
1,Brotas de Macaúbas/BA,-12.0019007,-42.6257506,73,720.63179
D1,Brotas de Macaúbas/BA,-12.0019007,-42.6257506,1,9.87167
1,Brotas/SP,-22.2840884,-48.1267265,463,1879.36353
D1,Brotas/SP,-22.2840884,-48.1267265,32,129.89122
1,Brumadinho/MG,-20.143611,-44.2,2983,7335.36615
D1,Brumadinho/MG,-20.143611,-44.2,71,174.59303
1,Brumado/BA,-14.29507325,-41.659307508575985,8407,12485.33452
D1,Brumado/BA,-14.29507325,-41.659307508575985,170,252.46900
1,Brunópolis/SC,-27.310953,-50.837585,248,10472.97297
D1,Brunópolis/SC,-27.310953,-50.837585,7,295.60811
1,Brusque/SC,-27.0964628,-48.9136323,24191,17569.30474
D1,Brusque/SC,-27.0964628,-48.9136323,245,177.93724
1,Brás Pires/MG,-20.8483109,-43.2430524,182,4239.45959
D1,Brás Pires/MG,-20.8483109,-43.2430524,6,139.76240
1,Bueno Brandão/MG,-22.441976,-46.3517971,585,5322.53662
D1,Bueno Brandão/MG,-22.441976,-46.3517971,22,200.16377
1,Buenos Aires/PE,-7.7218931,-35.326587,242,1834.72328
D1,Buenos Aires/PE,-7.7218931,-35.326587,19,144.04852
1,Buenópolis/MG,-17.8756607,-44.1749365,305,2946.00599
D1,Buenópolis/MG,-17.8756607,-44.1749365,10,96.59036
1,Buerarema/BA,-14.9571177,-39.3008035,1249,6822.89960
D1,Buerarema/BA,-14.9571177,-39.3008035,37,202.11952
1,Bugre/MG,-19.4257687,-42.2556,352,8837.55963
D1,Bugre/MG,-19.4257687,-42.2556,12,301.28044
1,Bujari/AC,-9.8309656,-67.9520886,1108,10633.39731
D1,Bujari/AC,-9.8309656,-67.9520886,15,143.95393
1,Bujaru/PA,-1.5169239,-48.0410699,1325,4502.66762
D1,Bujaru/PA,-1.5169239,-48.0410699,37,125.73487
1,Buri/SP,-23.79849,-48.598924,2183,10934.13474
D1,Buri/SP,-23.79849,-48.598924,65,325.56975
1,Buritama/SP,-21.0664017,-50.1448077,1971,11405.58995
D1,Buritama/SP,-21.0664017,-50.1448077,56,324.05532
1,Buriti Alegre/GO,-18.1377879,-49.0404411,830,8751.58161
D1,Buriti Alegre/GO,-18.1377879,-49.0404411,28,295.23408
1,Buriti Bravo/MA,-5.8391884,-43.8367876,1245,5200.71849
D1,Buriti Bravo/MA,-5.8391884,-43.8367876,12,50.12741
1,Buriti de Goiás/GO,-16.180644,-50.4287479,178,7189.01454
D1,Buriti de Goiás/GO,-16.180644,-50.4287479,8,323.10178
1,Buriti do Tocantins/TO,-5.3187439,-48.2256609,762,6627.81595
D1,Buriti do Tocantins/TO,-5.3187439,-48.2256609,8,69.58337
1,Buriti dos Lopes/PI,-3.1776723,-41.8707444,1215,6134.19498
D1,Buriti dos Lopes/PI,-3.1776723,-41.8707444,27,136.31544
1,Buriti dos Montes/PI,-5.3136171,-41.0971256,574,6945.78896
D1,Buriti dos Montes/PI,-5.3136171,-41.0971256,7,84.70474
1,Buriti/MA,-3.9430944,-42.9244281,751,2607.81999
D1,Buriti/MA,-3.9430944,-42.9244281,7,24.30724
1,Buriticupu/MA,-4.3227472,-46.4516989,3054,4184.53612
D1,Buriticupu/MA,-4.3227472,-46.4516989,40,54.80728
1,Buritinópolis/GO,-14.4589282,-46.4293104,160,4873.59123
D1,Buritinópolis/GO,-14.4589282,-46.4293104,2,60.91989
1,Buritirama/BA,-10.7148421,-43.6362327,814,3825.90713
D1,Buritirama/BA,-10.7148421,-43.6362327,19,89.30250
1,Buritirana/MA,-5.5897455,-47.0148915,387,2502.10125
D1,Buritirana/MA,-5.5897455,-47.0148915,23,148.70369
1,Buritis/MG,-15.621389,-46.423889,1461,5840.96270
D1,Buritis/MG,-15.621389,-46.423889,30,119.93763
1,Buritis/RO,-10.2054937,-63.8281954,4282,10610.56596
D1,Buritis/RO,-10.2054937,-63.8281954,62,153.63267
1,Buritizal/SP,-20.1933264,-47.7097165,242,5361.09880
D1,Buritizal/SP,-20.1933264,-47.7097165,10,221.53301
1,Buritizeiro/MG,-17.3667765,-44.9647781,1021,3630.73859
D1,Buritizeiro/MG,-17.3667765,-44.9647781,29,103.12578
1,Butiá/RS,-30.1256795,-51.9692224,1753,8366.74303
D1,Butiá/RS,-30.1256795,-51.9692224,48,229.09507
1,Buíque/PE,-8.6239732,-37.157296,1866,3167.05986
D1,Buíque/PE,-8.6239732,-37.157296,39,66.19257
1,Bálsamo/SP,-20.7343722,-49.5807484,1326,14509.24609
D1,Bálsamo/SP,-20.7343722,-49.5807484,51,558.04793
0,CASO SEM LOCALIZAÇÃO DEFINIDA/BA,-13.415069300066518,-38.14174656569957,10271,69.05773
D0,CASO SEM LOCALIZAÇÃO DEFINIDA/BA,-13.415069300066518,-38.14174656569957,195,1.31110
0,CASO SEM LOCALIZAÇÃO DEFINIDA/CE,-3.3445126297392798,-38.624961942434304,11558,126.56484
D0,CASO SEM LOCALIZAÇÃO DEFINIDA/CE,-3.3445126297392798,-38.624961942434304,95,1.04029
0,CASO SEM LOCALIZAÇÃO DEFINIDA/ES,-20.30989267097039,-39.81745156645774,3830,95.30564
D0,CASO SEM LOCALIZAÇÃO DEFINIDA/ES,-20.30989267097039,-39.81745156645774,188,4.67819
0,CASO SEM LOCALIZAÇÃO DEFINIDA/GO,-16.701590966270153,-49.164524059025034,1857,26.45920
D0,CASO SEM LOCALIZAÇÃO DEFINIDA/GO,-16.701590966270153,-49.164524059025034,73,1.04013
0,CASO SEM LOCALIZAÇÃO DEFINIDA/MG,-19.97049116501593,-43.8852149072783,4266,20.15231
D0,CASO SEM LOCALIZAÇÃO DEFINIDA/MG,-19.97049116501593,-43.8852149072783,276,1.30381
0,CASO SEM LOCALIZAÇÃO DEFINIDA/MT,-15.54791153961863,-56.17143998972475,2283,65.51937
D0,CASO SEM LOCALIZAÇÃO DEFINIDA/MT,-15.54791153961863,-56.17143998972475,174,4.99359
0,CASO SEM LOCALIZAÇÃO DEFINIDA/PA,-0.09317078214359542,-48.0050231510481,1571,18.26136
D0,CASO SEM LOCALIZAÇÃO DEFINIDA/PA,-0.09317078214359542,-48.0050231510481,63,0.73231
0,CASO SEM LOCALIZAÇÃO DEFINIDA/PI,-2.683810218391744,-41.470898009352254,1224,37.39429
D0,CASO SEM LOCALIZAÇÃO DEFINIDA/PI,-2.683810218391744,-41.470898009352254,21,0.64157
0,CASO SEM LOCALIZAÇÃO DEFINIDA/PR,-25.69415946385943,-48.10141676336737,5750,50.28880
D0,CASO SEM LOCALIZAÇÃO DEFINIDA/PR,-25.69415946385943,-48.10141676336737,144,1.25941
0,CASO SEM LOCALIZAÇÃO DEFINIDA/RN,-5.749310788669161,-34.95302586257457,2315,66.01360
D0,CASO SEM LOCALIZAÇÃO DEFINIDA/RN,-5.749310788669161,-34.95302586257457,47,1.34023
0,CASO SEM LOCALIZAÇÃO DEFINIDA/RR,2.813328208465927,-60.663338675861986,2549,420.79302
D0,CASO SEM LOCALIZAÇÃO DEFINIDA/RR,2.813328208465927,-60.663338675861986,14,2.31114
0,CASO SEM LOCALIZAÇÃO DEFINIDA/SP,-24.30968974555485,-46.21366504207253,741,1.61371
1,Caapiranga/AM,-3.3188884,-61.2096404,580,4366.48348
D1,Caapiranga/AM,-3.3188884,-61.2096404,21,158.09682
1,Caaporã/PB,-7.510234,-34.9154114,1688,7688.45366
D1,Caaporã/PB,-7.510234,-34.9154114,30,136.64313
1,Caarapó/MS,-22.6349267,-54.8240903,2827,9240.67597
D1,Caarapó/MS,-22.6349267,-54.8240903,28,91.52420
1,Caatiba/BA,-14.9782759,-40.4092325,758,11683.10727
D1,Caatiba/BA,-14.9782759,-40.4092325,9,138.71763
1,Cabaceiras do Paraguaçu/BA,-12.5377868,-39.1901339,479,2532.91735
D1,Cabaceiras do Paraguaçu/BA,-12.5377868,-39.1901339,4,21.15171
1,Cabaceiras/PB,-7.4899156,-36.2860501,319,5635.04681
D1,Cabaceiras/PB,-7.4899156,-36.2860501,2,35.32945
1,Cabeceira Grande/MG,-16.0297,-47.0906,303,4336.00458
D1,Cabeceira Grande/MG,-16.0297,-47.0906,5,71.55123
1,Cabeceiras do Piauí/PI,-4.4733665,-42.3098716,471,4430.85607
D1,Cabeceiras do Piauí/PI,-4.4733665,-42.3098716,10,94.07338
1,Cabeceiras/GO,-15.7995459,-46.9264991,312,3877.70321
D1,Cabeceiras/GO,-15.7995459,-46.9264991,13,161.57097
1,Cabedelo/PB,-6.97324,-34.8351609,7784,11319.38284
D1,Cabedelo/PB,-6.97324,-34.8351609,174,253.02834
1,Cabixi/RO,-13.4956065,-60.5424442,675,13010.79414
D1,Cabixi/RO,-13.4956065,-60.5424442,18,346.95451
1,Cabo Frio/RJ,-22.8804369,-42.0189227,11325,4915.83398
D1,Cabo Frio/RJ,-22.8804369,-42.0189227,598,259.57340
1,Cabo Verde/MG,-21.4743338,-46.3964995,438,3111.90053
D1,Cabo Verde/MG,-21.4743338,-46.3964995,5,35.52398
1,Cabo de Santo Agostinho/PE,-8.2838945,-35.0320984,5489,2627.01968
D1,Cabo de Santo Agostinho/PE,-8.2838945,-35.0320984,423,202.44659
1,Cabreúva/SP,-23.3075813,-47.1324417,3136,6218.64403
D1,Cabreúva/SP,-23.3075813,-47.1324417,78,154.67291
1,Cabrobó/PE,-8.5083701,-39.3106961,1854,5373.44579
D1,Cabrobó/PE,-8.5083701,-39.3106961,23,66.66087
1,Cabrália Paulista/SP,-22.4562909,-49.3385645,277,6528.39972
D1,Cabrália Paulista/SP,-22.4562909,-49.3385645,3,70.70469
1,Cacaulândia/RO,-10.3380043,-62.9007231,775,12362.41825
D1,Cacaulândia/RO,-10.3380043,-62.9007231,10,159.51507
1,Cacequi/RS,-29.8838059,-54.8273443,451,3630.36304
D1,Cacequi/RS,-29.8838059,-54.8273443,6,48.29751
1,Cachoeira Alta/GO,-18.7618269,-50.9432431,1251,9876.83562
D1,Cachoeira Alta/GO,-18.7618269,-50.9432431,17,134.21759
1,Cachoeira Dourada/GO,-18.4934204,-49.481062,386,4806.37530
D1,Cachoeira Dourada/GO,-18.4934204,-49.481062,18,224.13149
1,Cachoeira Dourada/MG,-18.517136,-49.5002062,135,4988.91353
D1,Cachoeira Dourada/MG,-18.517136,-49.5002062,2,73.90983
1,Cachoeira Grande/MA,-2.9290492,-44.0573223,222,2342.26630
D1,Cachoeira Grande/MA,-2.9290492,-44.0573223,6,63.30449
1,Cachoeira Paulista/SP,-22.666498,-45.015384,2073,6173.13362
D1,Cachoeira Paulista/SP,-22.666498,-45.015384,32,95.29198
1,Cachoeira da Prata/MG,-19.524723,-44.453056,226,6293.51156
D1,Cachoeira da Prata/MG,-19.524723,-44.453056,8,222.77917
1,Cachoeira de Goiás/GO,-16.6688414,-50.6435997,63,4694.48584
D1,Cachoeira de Goiás/GO,-16.6688414,-50.6435997,2,149.03130
1,Cachoeira de Minas/MG,-22.3554043,-45.7796324,546,4715.43311
D1,Cachoeira de Minas/MG,-22.3554043,-45.7796324,8,69.09060
1,Cachoeira de Pajeú/MG,-15.965833,-41.496666,293,3103.15611
D1,Cachoeira de Pajeú/MG,-15.965833,-41.496666,8,84.72781
1,Cachoeira do Arari/PA,-1.0143572,-48.9621089,451,1874.16888
D1,Cachoeira do Arari/PA,-1.0143572,-48.9621089,21,87.26729
1,Cachoeira do Piriá/PA,-1.7599443,-46.5446954,739,2135.28273
D1,Cachoeira do Piriá/PA,-1.7599443,-46.5446954,4,11.55769
1,Cachoeira do Sul/RS,-30.0474778,-52.8905413,7189,8781.10152
D1,Cachoeira do Sul/RS,-30.0474778,-52.8905413,113,138.02538
1,Cachoeira dos Índios/PB,-6.9259193,-38.6742159,637,6181.46531
D1,Cachoeira dos Índios/PB,-6.9259193,-38.6742159,14,135.85638
1,Cachoeira/BA,-12.5998256,-38.9665918,1338,3986.05774
D1,Cachoeira/BA,-12.5998256,-38.9665918,19,56.60321
1,Cachoeiras de Macacu/RJ,-22.4626861,-42.6534414,2558,4313.44114
D1,Cachoeiras de Macacu/RJ,-22.4626861,-42.6534414,86,145.01796
1,Cachoeirinha/PE,-8.4906364,-36.2338963,431,2102.33647
D1,Cachoeirinha/PE,-8.4906364,-36.2338963,23,112.18965
1,Cachoeirinha/RS,-29.9493353,-51.0898927,12631,9624.35233
D1,Cachoeirinha/RS,-29.9493353,-51.0898927,381,290.30783
1,Cachoeirinha/TO,-6.118647,-47.9208885,117,5122.59194
D1,Cachoeirinha/TO,-6.118647,-47.9208885,2,87.56567
1,Cachoeiro de Itapemirim/ES,-20.848084,-41.11129,23712,11259.84738
D1,Cachoeiro de Itapemirim/ES,-20.848084,-41.11129,504,239.32874
1,Cacimba de Areia/PB,-7.1288513,-37.1575194,31,838.97158
D1,Cacimba de Areia/PB,-7.1288513,-37.1575194,3,81.19080
1,Cacimba de Dentro/PB,-6.6425101,-35.7929304,914,5320.75911
D1,Cacimba de Dentro/PB,-6.6425101,-35.7929304,26,151.35639
1,Cacimbas/PB,-7.2125451,-37.0593398,196,2722.60036
D1,Cacimbas/PB,-7.2125451,-37.0593398,6,83.34491
1,Cacimbinhas/AL,-9.401212,-36.991082,617,5666.26871
D1,Cacimbinhas/AL,-9.401212,-36.991082,7,64.28506
1,Cacique Doble/RS,-27.7700117,-51.6616409,421,8297.20142
D1,Cacique Doble/RS,-27.7700117,-51.6616409,9,177.37485
1,Cacoal/RO,-11.4333,-61.4420502,11902,13856.77529
D1,Cacoal/RO,-11.4333,-61.4420502,234,272.43198
1,Caconde/SP,-21.527995,-46.643659,1059,5571.04529
D1,Caconde/SP,-21.527995,-46.643659,22,115.73465
1,Caculé/BA,-14.4990734,-42.2233006,1361,5843.45885
D1,Caculé/BA,-14.4990734,-42.2233006,11,47.22854
1,Caetanos/BA,-14.3387456,-40.9085971,602,4121.02957
D1,Caetanos/BA,-14.3387456,-40.9085971,10,68.45564
1,Caetanópolis/MG,-19.2947496,-44.4138386,798,6792.06741
D1,Caetanópolis/MG,-19.2947496,-44.4138386,9,76.60226
1,Caetité/BA,-14.0691776,-42.4852428,2074,4060.21809
D1,Caetité/BA,-14.0691776,-42.4852428,23,45.02653
1,Caeté/MG,-19.897777,-43.670278,1635,3629.54248
D1,Caeté/MG,-19.897777,-43.670278,43,95.45586
1,Caetés/PE,-8.7728788,-36.6255835,1239,4286.60393
D1,Caetés/PE,-8.7728788,-36.6255835,17,58.81539
1,Cafarnaum/BA,-11.691399,-41.468823,785,4240.26360
D1,Cafarnaum/BA,-11.691399,-41.468823,17,91.82736
1,Cafeara/PR,-22.78905,-51.714195,235,7955.31483
D1,Cafeara/PR,-22.78905,-51.714195,10,338.52404
1,Cafelândia/PR,-24.6176963,-53.3218057,1625,8804.72475
D1,Cafelândia/PR,-24.6176963,-53.3218057,13,70.43780
1,Cafelândia/SP,-21.8054355,-49.6030627,660,3698.92955
D1,Cafelândia/SP,-21.8054355,-49.6030627,30,168.13316
1,Cafezal do Sul/PR,-23.900508,-53.512418,292,7283.61187
D1,Cafezal do Sul/PR,-23.900508,-53.512418,4,99.77551
1,Caiabu/SP,-22.0143038,-51.2356597,78,1860.24326
D1,Caiabu/SP,-22.0143038,-51.2356597,5,119.24636
1,Caiana/MG,-20.695555,-41.924723,125,2255.91049
D1,Caiana/MG,-20.695555,-41.924723,7,126.33099
1,Caiapônia/GO,-16.9538779,-51.8090761,1011,5291.25451
D1,Caiapônia/GO,-16.9538779,-51.8090761,33,172.71157
1,Caibaté/RS,-28.290475,-54.645407,217,4499.27431
D1,Caibaté/RS,-28.290475,-54.645407,7,145.13788
1,Caibi/SC,-27.0751925,-53.2502133,556,9070.14682
D1,Caibi/SC,-27.0751925,-53.2502133,11,179.44535
1,Caicó/RN,-6.4594544,-37.0971911,9636,14099.46886
D1,Caicó/RN,-6.4594544,-37.0971911,114,166.80567
1,Caieiras/SP,-23.3644621,-46.7484765,6853,6667.96400
D1,Caieiras/SP,-23.3644621,-46.7484765,247,240.33082
1,Cairu/BA,-13.4860505,-39.0455744,1092,5926.08672
D1,Cairu/BA,-13.4860505,-39.0455744,13,70.54865
1,Caiuá/SP,-21.8319357,-51.9887179,258,4339.05146
D1,Caiuá/SP,-21.8319357,-51.9887179,5,84.09014
1,Caiçara do Norte/RN,-5.0645017,-36.0561226,357,5441.24371
D1,Caiçara do Norte/RN,-5.0645017,-36.0561226,9,137.17421
1,Caiçara do Rio do Vento/RN,-5.757968,-36.00089,256,6890.98250
D1,Caiçara do Rio do Vento/RN,-5.757968,-36.00089,7,188.42530
1,Caiçara/PB,-6.6146866,-35.4681434,639,8886.10763
D1,Caiçara/PB,-6.6146866,-35.4681434,14,194.68780
1,Caiçara/RS,-27.2750478,-53.4310053,438,9319.14894
D1,Caiçara/RS,-27.2750478,-53.4310053,8,170.21277
1,Cajamar/SP,-23.3561111,-46.8769444,3658,4693.71519
D1,Cajamar/SP,-23.3561111,-46.8769444,181,232.24780
1,Cajapió/MA,-2.8778715,-44.6746871,75,668.68759
D1,Cajapió/MA,-2.8778715,-44.6746871,4,35.66334
1,Cajari/MA,-3.3213076,-45.0118757,187,961.39016
D1,Cajari/MA,-3.3213076,-45.0118757,6,30.84674
1,Cajati/SP,-24.7272376,-48.1077914,3003,10539.06085
D1,Cajati/SP,-24.7272376,-48.1077914,76,266.72282
1,Cajazeiras do Piauí/PI,-6.794271,-42.3935024,47,1315.42121
D1,Cajazeiras do Piauí/PI,-6.794271,-42.3935024,1,27.98769
1,Cajazeiras/PB,-6.8897849,-38.5570389,7088,11379.21623
D1,Cajazeiras/PB,-6.8897849,-38.5570389,122,195.86123
1,Cajazeirinhas/PB,-6.961442,-37.7993733,116,3619.34477
1,Cajobi/SP,-20.8776238,-48.8106972,786,7417.89354
D1,Cajobi/SP,-20.8776238,-48.8106972,26,245.37561
1,Cajueiro da Praia/PI,-2.931114,-41.340801,471,6137.60751
D1,Cajueiro da Praia/PI,-2.931114,-41.340801,18,234.55825
1,Cajueiro/AL,-9.399589,-36.1524309,516,2419.01458
D1,Cajueiro/AL,-9.399589,-36.1524309,20,93.76026
1,Cajuri/MG,-20.7901414,-42.7954489,335,8429.79366
D1,Cajuri/MG,-20.7901414,-42.7954489,2,50.32713
1,Cajuru/SP,-21.2759978,-47.3046035,871,3300.11746
D1,Cajuru/SP,-21.2759978,-47.3046035,35,132.61092
1,Caldas Brandão/PB,-7.1027959,-35.3254676,471,7790.27456
D1,Caldas Brandão/PB,-7.1027959,-35.3254676,7,115.77903
1,Caldas Novas/GO,-17.745,-48.625,7481,8027.16855
D1,Caldas Novas/GO,-17.745,-48.625,189,202.79840
1,Caldas/MG,-21.923611,-46.386111,642,4415.10213
D1,Caldas/MG,-21.923611,-46.386111,22,151.29633
1,Caldazinha/GO,-16.7116649,-49.0012601,236,6133.05613
D1,Caldazinha/GO,-16.7116649,-49.0012601,5,129.93763
1,Caldeirão Grande do Piauí/PI,-7.3310393,-40.6374433,323,5587.26864
D1,Caldeirão Grande do Piauí/PI,-7.3310393,-40.6374433,2,34.59609
1,Caldeirão Grande/BA,-11.0208483,-40.3041387,540,4032.55918
D1,Caldeirão Grande/BA,-11.0208483,-40.3041387,6,44.80621
1,Califórnia/PR,-23.6672543,-51.3554556,876,10178.94492
D1,Califórnia/PR,-23.6672543,-51.3554556,17,197.53660
1,Calmon/SC,-26.6023644,-51.0992893,30,899.55022
D1,Calmon/SC,-26.6023644,-51.0992893,4,119.94003
1,Calumbi/PE,-7.9389746,-38.1516871,461,8021.57647
D1,Calumbi/PE,-7.9389746,-38.1516871,3,52.20115
1,Calçado/PE,-8.7413446,-36.3351787,389,3530.58631
D1,Calçado/PE,-8.7413446,-36.3351787,2,18.15211
1,Calçoene/AP,2.4981757,-50.9539503,1605,14196.00212
D1,Calçoene/AP,2.4981757,-50.9539503,10,88.44861
1,Camacan/BA,-15.4166631,-39.4930088,2549,7964.13173
D1,Camacan/BA,-15.4166631,-39.4930088,70,218.70899
1,Camacho/MG,-20.625556,-45.156667,49,1707.91216
D1,Camacho/MG,-20.625556,-45.156667,1,34.85535
1,Camalaú/PB,-7.885031,-36.824191,382,6333.94130
D1,Camalaú/PB,-7.885031,-36.824191,6,99.48599
1,Camamu/BA,-13.9438142,-39.1060917,2024,5720.42281
D1,Camamu/BA,-13.9438142,-39.1060917,43,121.53072
1,Camanducaia/MG,-22.755278,-46.144444,2556,11724.23283
D1,Camanducaia/MG,-22.755278,-46.144444,52,238.52117
1,Camapuã/MS,-19.5291747,-54.0434641,663,4841.89002
D1,Camapuã/MS,-19.5291747,-54.0434641,21,153.36303
1,Camaquã/RS,-30.8524752,-51.8075619,6213,9345.94904
D1,Camaquã/RS,-30.8524752,-51.8075619,123,185.02362
1,Camaragibe/PE,-8.0213832,-34.9810768,4965,3124.62633
D1,Camaragibe/PE,-8.0213832,-34.9810768,338,212.71374
1,Camargo/RS,-28.5865661,-52.2031474,315,11487.96499
D1,Camargo/RS,-28.5865661,-52.2031474,5,182.34865
1,Camaçari/BA,-12.6998188,-38.3260762,21288,6995.68192
D1,Camaçari/BA,-12.6998188,-38.3260762,539,177.12667
1,Cambará do Sul/RS,-29.0489517,-50.145412,293,4573.83703
D1,Cambará do Sul/RS,-29.0489517,-50.145412,10,156.10365
1,Cambará/PR,-23.042273,-50.075281,1981,7778.99945
D1,Cambará/PR,-23.042273,-50.075281,40,157.07217
1,Cambira/PR,-23.600265,-51.581045,725,9157.50916
D1,Cambira/PR,-23.600265,-51.581045,16,202.09675
1,Camboriú/SC,-27.0273601,-48.6535657,11312,13291.81599
D1,Camboriú/SC,-27.0273601,-48.6535657,150,176.25286
1,Cambuci/RJ,-21.5749919,-41.9107833,760,4898.80108
D1,Cambuci/RJ,-21.5749919,-41.9107833,30,193.37373
1,Cambuquira/MG,-21.853056,-45.2953619,473,3691.85139
D1,Cambuquira/MG,-21.853056,-45.2953619,15,117.07774
1,Cambuí/MG,-22.6122501,-46.0572137,2767,9280.87476
D1,Cambuí/MG,-22.6122501,-46.0572137,42,140.87342
1,Cambé/PR,-23.2782035,-51.2779583,9371,8730.12176
D1,Cambé/PR,-23.2782035,-51.2779583,201,187.25371
1,Cametá/PA,-2.242949,-49.497885,7885,5657.84564
D1,Cametá/PA,-2.242949,-49.497885,209,149.96699
1,Camocim de São Félix/PE,-8.3616757,-35.7638903,435,2301.58730
D1,Camocim de São Félix/PE,-8.3616757,-35.7638903,14,74.07407
1,Camocim/CE,-2.9009918,-40.8427389,5431,8498.28657
D1,Camocim/CE,-2.9009918,-40.8427389,142,222.19788
1,Campanha/MG,-21.8361108,-45.401986,1224,7302.23124
D1,Campanha/MG,-21.8361108,-45.401986,26,155.11276
1,Campanário/MG,-18.2398144,-41.7271768,193,5174.26273
D1,Campanário/MG,-18.2398144,-41.7271768,3,80.42895
1,Campestre da Serra/RS,-28.7966535,-51.0958149,175,5154.63918
1,Campestre de Goiás/GO,-16.7624179,-49.69497,449,12304.74102
D1,Campestre de Goiás/GO,-16.7624179,-49.69497,13,356.26199
1,Campestre do Maranhão/MA,-6.1729113,-47.3640512,952,6586.86778
D1,Campestre do Maranhão/MA,-6.1729113,-47.3640512,41,283.67813
1,Campestre/AL,-8.8481634,-35.5660033,244,3508.77193
D1,Campestre/AL,-8.8481634,-35.5660033,6,86.28128
1,Campestre/MG,-19.6142116,-43.219378,1060,5034.67275
D1,Campestre/MG,-19.6142116,-43.219378,24,113.99259
1,Campina Grande do Sul/PR,-25.3046032,-49.0545355,4543,10399.45061
D1,Campina Grande do Sul/PR,-25.3046032,-49.0545355,103,235.77887
1,Campina Grande/PB,-7.2246743,-35.8771292,28063,6814.60004
D1,Campina Grande/PB,-7.2246743,-35.8771292,850,206.40737
