type,name,lat,lon,total,total_per_100k_inhabitants
1,Abadia de Goiás/GO,-16.7572644,-49.4412205,8,91.18887
1,Abadia dos Dourados/MG,-18.4911191,-47.4063589,5,71.54099
1,Abadiânia/GO,-16.1940946,-48.7067767,11,54.88474
1,Abaetetuba/PA,-1.721828,-48.878843,1651,1046.93782
D1,Abaetetuba/PA,-1.721828,-48.878843,64,40.58390
1,Abaeté/MG,-19.1566833,-45.4481213,1,4.30348
1,Abaiara/CE,-7.3607808,-39.0487878,6,51.12039
D1,Abaiara/CE,-7.3607808,-39.0487878,1,8.52006
1,Abatiá/PR,-23.3052967,-50.3102532,2,26.82044
1,Abaíra/BA,-13.2503296,-41.6640342,4,45.77183
1,Abdon Batista/SC,-27.612419,-51.022992,1,39.01678
1,Abel Figueiredo/PA,-4.953001,-48.3958485,30,403.55125
D1,Abel Figueiredo/PA,-4.953001,-48.3958485,1,13.45171
1,Abelardo Luz/SC,-26.5705893,-52.3280339,5,27.92672
1,Abreu e Lima/PE,-7.900719,-34.898389,355,355.03550
D1,Abreu e Lima/PE,-7.900719,-34.898389,47,47.00470
1,Abreulândia/TO,-9.6221526,-49.1558343,2,77.54944
1,Acajutiba/BA,-11.6609659,-38.0186381,3,19.79022
1,Acarape/CE,-4.2237866,-38.7071663,93,622.94862
D1,Acarape/CE,-4.2237866,-38.7071663,6,40.19023
1,Acaraú/CE,-2.8869514,-40.1194713,604,964.22471
D1,Acaraú/CE,-2.8869514,-40.1194713,23,36.71717
1,Acari/RN,-6.4364689,-36.6394777,3,26.93966
1,Acará/PA,-1.961388,-48.1987043,178,320.19572
D1,Acará/PA,-1.961388,-48.1987043,8,14.39082
1,Acauã/PI,-8.219542,-41.083059,2,28.23264
1,Acopiara/CE,-6.0936464,-39.4543204,89,163.99484
D1,Acopiara/CE,-6.0936464,-39.4543204,6,11.05583
1,Acorizal/MT,-15.2001544,-56.3668953,9,166.69754
D1,Acorizal/MT,-15.2001544,-56.3668953,1,18.52195
1,Acrelândia/AC,-10.0759167,-67.0526898,165,1081.54169
D1,Acrelândia/AC,-10.0759167,-67.0526898,1,6.55480
1,Acreúna/GO,-17.3959899,-50.3749031,2,8.94214
1,Adamantina/SP,-21.6866517,-51.0762975,43,122.61891
D1,Adamantina/SP,-21.6866517,-51.0762975,3,8.55481
1,Adolfo/SP,-21.2356597,-49.6441918,3,84.22235
1,Adustina/BA,-10.5358875,-38.114479,3,17.60563
D1,Adustina/BA,-10.5358875,-38.114479,1,5.86854
1,Afogados da Ingazeira/PE,-7.750429,-37.6356375,7,18.78741
1,Afonso Bezerra/RN,-5.4745,-36.57625071327935,14,126.86905
D1,Afonso Bezerra/RN,-5.4745,-36.57625071327935,1,9.06208
1,Afonso Cláudio/ES,-20.077841,-41.12606,91,297.52174
D1,Afonso Cláudio/ES,-20.077841,-41.12606,6,19.61682
1,Afonso Cunha/MA,-4.1326105,-43.3230026,14,214.59227
1,Afrânio/PE,-8.5198919,-41.0070197,44,224.08964
1,Afuá/PA,-0.1535664,-50.3879223,228,581.36570
D1,Afuá/PA,-0.1535664,-50.3879223,3,7.64955
1,Agrestina/PE,-8.4558021,-35.9442663,49,196.90577
D1,Agrestina/PE,-8.4558021,-35.9442663,5,20.09243
1,Agrolândia/SC,-27.4122212,-49.8295774,9,82.84242
1,Agronômica/SC,-27.2660744,-49.7104753,10,183.55360
D1,Agronômica/SC,-27.2660744,-49.7104753,1,18.35536
1,Aguaí/SP,-22.0592036,-46.979384,40,110.17766
D1,Aguaí/SP,-22.0592036,-46.979384,4,11.01777
1,Agudo/RS,-29.6423259,-53.2494005,1,6.07497
1,Agudos do Sul/PR,-25.9890808,-49.3328175,11,117.38342
1,Agudos/SP,-22.471162,-48.987822,32,85.98914
D1,Agudos/SP,-22.471162,-48.987822,1,2.68716
1,Aguiar/PB,-7.0928404,-38.1727215,1,17.73050
1,Aguiarnópolis/TO,-6.5600452,-47.4721189,45,668.34992
D1,Aguiarnópolis/TO,-6.5600452,-47.4721189,1,14.85222
1,Aimorés/MG,-19.4917754,-41.0615603,37,147.01792
1,Aiquara/BA,-14.126918,-39.8887574,5,112.46064
D1,Aiquara/BA,-14.126918,-39.8887574,1,22.49213
1,Aiuaba/CE,-6.5710836,-40.1212278,4,22.98983
1,Ajuricaba/RS,-28.239654,-53.7693013,2,28.47380
1,Alagoa Grande/PB,-7.0415212,-35.6285322,89,312.32454
D1,Alagoa Grande/PB,-7.0415212,-35.6285322,1,3.50926
1,Alagoa Nova/PB,-7.0653703,-35.76695977336711,50,239.81966
D1,Alagoa Nova/PB,-7.0653703,-35.76695977336711,2,9.59279
1,Alagoinha do Piauí/PI,-7.0090952,-40.939675,1,13.07019
1,Alagoinha/PB,-6.97063215,-35.51490901897793,132,911.03596
1,Alagoinha/PE,-8.50355635,-36.77701174370496,17,116.15195
1,Alagoinhas/BA,-12.133526,-38.420772,99,65.30515
D1,Alagoinhas/BA,-12.133526,-38.420772,3,1.97894
1,Alambari/SP,-23.550338,-47.897971,5,82.98755
1,Alcantil/PB,-7.7425491,-36.0609604,4,72.83321
1,Alcinópolis/MS,-18.3264121,-53.7094463,1,18.71608
1,Alcobaça/BA,-17.5215875,-39.1965474,2,8.90076
1,Alcântara/MA,-2.4038956,-44.4154241,21,95.03553
D1,Alcântara/MA,-2.4038956,-44.4154241,1,4.52550
1,Alcântaras/CE,-3.586247,-40.5457641,120,1024.41523
D1,Alcântaras/CE,-3.586247,-40.5457641,1,8.53679
1,Aldeias Altas/MA,-4.6291957,-43.4708622,12,45.22840
1,Alecrim/RS,-27.6566142,-54.7653195,2,33.61345
1,Alegre/ES,-20.7625787,-41.5318886,20,66.48052
1,Alegrete/RS,-29.790166,-55.794862,12,16.30678
1,Alenquer/PA,-1.946229,-54.738355,242,426.13886
D1,Alenquer/PA,-1.946229,-54.738355,2,3.52181
1,Alexandria/RN,-6.414779,-38.0135516,6,44.19238
D1,Alexandria/RN,-6.414779,-38.0135516,1,7.36540
1,Alexânia/GO,-16.0834049,-48.5077803,7,25.31371
1,Alfenas/MG,-21.4297405,-45.9479419,15,18.75094
1,Alfredo Chaves/ES,-20.624970400000002,-40.75006690147988,87,595.84960
D1,Alfredo Chaves/ES,-20.624970400000002,-40.75006690147988,2,13.69769
1,Alfredo Marcondes/SP,-21.9527,-51.413956,3,72.01152
D1,Alfredo Marcondes/SP,-21.9527,-51.413956,1,24.00384
1,Alfredo Vasconcelos/MG,-21.145833,-43.776389,2,28.95613
D1,Alfredo Vasconcelos/MG,-21.145833,-43.776389,1,14.47807
1,Alhandra/PB,-7.4304246,-34.9106103,172,878.08863
D1,Alhandra/PB,-7.4304246,-34.9106103,4,20.42067
1,Aliança do Tocantins/TO,-11.3055927,-48.9409096,3,55.65863
1,Aliança/PE,-7.60398,-35.222696,87,226.64513
D1,Aliança/PE,-7.60398,-35.222696,14,36.47163
1,Almadina/BA,-14.70466,-39.6381994,3,54.90483
1,Almeirim/PA,-1.5290377,-52.5788111,24,70.36266
D1,Almeirim/PA,-1.5290377,-52.5788111,1,2.93178
1,Almenara/MG,-16.1740678,-40.6904907,14,33.41608
1,Almino Afonso/RN,-6.1544208,-37.7649018,2,42.23865
1,Almirante Tamandaré/PR,-25.3133048,-49.2997838,29,24.44720
1,Aloândia/GO,-17.7277983,-49.4809338,1,50.12531
1,Alpercata/MG,-18.9803616,-41.9827637,3,40.40948
1,Alpestre/RS,-27.2512339,-53.0349646,10,159.79546
1,Alpinópolis/MG,-20.863611,-46.387777,1,5.03702
1,Alta Floresta D'Oeste/RO,-11.9296917,-61.9961284,7,30.50774
1,Alta Floresta/MT,-9.8715018,-56.0839881,38,73.38457
D1,Alta Floresta/MT,-9.8715018,-56.0839881,3,5.79352
1,Altair/SP,-20.5238955,-49.0606135,1,24.03846
1,Altamira do Maranhão/MA,-4.1643006,-45.4674574,1,12.30315
D1,Altamira do Maranhão/MA,-4.1643006,-45.4674574,1,12.30315
1,Altamira do Paraná/PR,-24.799114,-52.7128633,1,51.49331
1,Altamira/PA,-3.204065,-52.209961,524,457.26652
D1,Altamira/PA,-3.204065,-52.209961,11,9.59911
1,Altaneira/CE,-6.9980933,-39.7385742,1,13.18218
1,Alterosa/MG,-21.249166,-46.143055,1,6.91276
1,Altinho/PE,-8.4904095,-36.0607494,49,213.30315
D1,Altinho/PE,-8.4904095,-36.0607494,2,8.70625
1,Altinópolis/SP,-21.021364,-47.3712,5,30.89471
1,Alto Alegre do Maranhão/MA,-4.2055693,-44.4525287,189,698.62862
D1,Alto Alegre do Maranhão/MA,-4.2055693,-44.4525287,6,22.17869
1,Alto Alegre do Pindaré/MA,-3.6698186,-45.8462153,76,238.10270
1,Alto Alegre dos Parecis/RO,-12.1314515,-61.856265,4,30.20920
1,Alto Alegre/RR,2.98858,-61.307167,78,502.90135
D1,Alto Alegre/RR,2.98858,-61.307167,3,19.34236
1,Alto Alegre/SP,-21.5820592,-50.1661976,1,24.39619
D1,Alto Alegre/SP,-21.5820592,-50.1661976,1,24.39619
1,Alto Araguaia/MT,-17.3156528,-53.2169365,10,52.50998
D1,Alto Araguaia/MT,-17.3156528,-53.2169365,1,5.25100
1,Alto Bela Vista/SC,-27.4320737,-51.905771,4,206.50490
1,Alto Boa Vista/MT,-11.6723985,-51.3744431,3,43.97537
D1,Alto Boa Vista/MT,-11.6723985,-51.3744431,1,14.65846
1,Alto Caparaó/MG,-20.4405661,-41.8683799,1,17.10279
1,Alto Garças/MT,-16.9469683,-53.529427,1,8.31255
1,Alto Jequitibá/MG,-20.423611,-41.966111,12,144.28279
D1,Alto Jequitibá/MG,-20.423611,-41.966111,1,12.02357
1,Alto Longá/PI,-5.2549051,-42.2072388,13,90.88367
1,Alto Paraguai/MT,-14.513712,-56.4936374,1,8.80592
1,Alto Paraná/PR,-23.131247,-52.318893,9,60.93433
1,Alto Paraíso de Goiás/GO,-14.1304779,-47.5100161,3,39.34942
1,Alto Paraíso/PR,-23.508137,-53.728537,1,36.48304
1,Alto Paraíso/RO,-9.7240103,-63.3188123,11,51.33470
D1,Alto Paraíso/RO,-9.7240103,-63.3188123,2,9.33358
1,Alto Parnaíba/MA,-9.112506,-45.9310154,26,232.35031
1,Alto Rio Doce/MG,-21.0239537,-43.4133507,1,9.09091
1,Alto Rio Novo/ES,-19.0577208,-41.0171518,4,51.04645
D1,Alto Rio Novo/ES,-19.0577208,-41.0171518,1,12.76161
1,Alto Santo/CE,-5.5190371,-38.2719351,32,186.63245
D1,Alto Santo/CE,-5.5190371,-38.2719351,1,5.83226
1,Alto do Rodrigues/RN,-5.290868,-36.7616726,61,419.84996
D1,Alto do Rodrigues/RN,-5.290868,-36.7616726,6,41.29672
1,Altos/PI,-5.0393915,-42.4611694,86,212.21992
D1,Altos/PI,-5.0393915,-42.4611694,4,9.87069
1,Alumínio/SP,-23.5203479,-47.2575256,11,59.05089
D1,Alumínio/SP,-23.5203479,-47.2575256,1,5.36826
1,Alvarenga/MG,-19.4175,-41.728334,71,1817.25109
1,Alvarães/AM,-3.214786,-64.8143124,367,2287.88729
D1,Alvarães/AM,-3.214786,-64.8143124,10,62.34025
1,Alvinlândia/SP,-22.4431852,-49.7643596,1,31.03662
1,Alvorada D'Oeste/RO,-11.346271,-62.284697,4,27.75657
D1,Alvorada D'Oeste/RO,-11.346271,-62.284697,1,6.93914
1,Alvorada do Gurguéia/PI,-8.4465288,-43.8655915,2,36.90718
1,Alvorada do Sul/PR,-22.7807269,-51.2307721,6,52.60389
1,Alvorada/RS,-29.9981184,-51.0772509,85,40.41749
D1,Alvorada/RS,-29.9981184,-51.0772509,3,1.42650
1,Alvorada/TO,-12.478465,-49.124926,8,95.10223
1,Além Paraíba/MG,-21.8760576,-42.6810473,45,127.25525
D1,Além Paraíba/MG,-21.8760576,-42.6810473,1,2.82789
1,Amajari/RR,3.6523869,-61.4194315,38,296.96780
D1,Amajari/RR,3.6523869,-61.4194315,1,7.81494
1,Amambai/MS,-23.1082701,-55.2284854,6,15.22997
1,Amaporã/PR,-23.094272,-52.786597,18,287.67780
1,Amapá do Maranhão/MA,-1.6762114,-46.0109669,3,43.09107
1,Amapá/AP,2.0529997,-50.7930003,119,1306.40026
D1,Amapá/AP,2.0529997,-50.7930003,3,32.93446
1,Amaraji/PE,-8.373925,-35.4536527,62,271.58439
D1,Amaraji/PE,-8.373925,-35.4536527,9,39.42354
1,Amaralina/GO,-13.9236199,-49.2962411,2,52.46590
1,Amarante do Maranhão/MA,-5.56913,-46.747284,265,639.55593
D1,Amarante do Maranhão/MA,-5.56913,-46.747284,1,2.41342
1,Amarante/PI,-6.2459374,-42.8476238,7,39.77725
1,Amargosa/BA,-13.03793715,-39.60796443875596,11,29.53734
D1,Amargosa/BA,-13.03793715,-39.60796443875596,1,2.68521
1,Amaturá/AM,-3.3640509,-68.1994689,326,2825.93620
D1,Amaturá/AM,-3.3640509,-68.1994689,8,69.34813
1,Americana/SP,-22.7392463,-47.3306032,145,60.51829
D1,Americana/SP,-22.7392463,-47.3306032,8,3.33894
1,Ametista do Sul/RS,-27.3617341,-53.1826575,7,94.47969
1,Amontada/CE,-3.3634586,-39.8284791,246,566.14195
D1,Amontada/CE,-3.3634586,-39.8284791,8,18.41112
1,Amorinópolis/GO,-16.6211308,-51.0949921,2,63.97953
1,Amparo de São Francisco/SE,-10.1299754,-36.9269099,6,252.73799
1,Amparo/PB,-7.56394725,-37.04652873235175,12,536.19303
1,Amparo/SP,-22.70111,-46.76444,53,73.41229
D1,Amparo/SP,-22.70111,-46.76444,4,5.54055
1,Ampére/PR,-25.9168712,-53.4742414,6,31.32832
D1,Ampére/PR,-25.9168712,-53.4742414,1,5.22139
1,Amélia Rodrigues/BA,-12.4015388,-38.7516971,29,115.52864
1,Américo Brasiliense/SP,-21.7297099,-48.1052092,49,120.97571
D1,Américo Brasiliense/SP,-21.7297099,-48.1052092,2,4.93778
1,Américo de Campos/SP,-20.298476,-49.735904,4,67.01290
1,Anadia/AL,-9.6830208,-36.3052699,49,279.28185
D1,Anadia/AL,-9.6830208,-36.3052699,1,5.69963
1,Anagé/BA,-14.6134669,-41.1376308,2,9.08884
D1,Anagé/BA,-14.6134669,-41.1376308,1,4.54442
1,Anahy/PR,-24.6450861,-53.1337957,5,178.50768
1,Anajatuba/MA,-3.26441,-44.6179916,72,268.62665
D1,Anajatuba/MA,-3.26441,-44.6179916,4,14.92370
1,Anajás/PA,-0.9878802,-49.9390114,146,498.68497
D1,Anajás/PA,-0.9878802,-49.9390114,5,17.07825
1,Anamã/AM,-3.5797356,-61.4049996,197,1447.03981
1,Ananindeua/PA,-1.374035,-48.4016623,2931,552.39560
D1,Ananindeua/PA,-1.374035,-48.4016623,271,51.07445
1,Ananás/TO,-6.3663053,-48.080238,9,94.25071
1,Anapu/PA,-3.4668292,-51.2057035,134,480.45895
D1,Anapu/PA,-3.4668292,-51.2057035,3,10.75654
1,Anapurus/MA,-3.6751298,-43.1046001,300,1906.94127
D1,Anapurus/MA,-3.6751298,-43.1046001,1,6.35647
1,Anastácio/MS,-20.4832458,-55.8048448,1,3.97852
1,Anchieta/ES,-20.8057672,-40.6454564,176,601.44209
D1,Anchieta/ES,-20.8057672,-40.6454564,3,10.25185
1,Anchieta/SC,-26.5350527,-53.3293938,8,141.89429
1,Andaraí/BA,-12.8059674,-41.3322919,2,15.21723
1,Andirá/PR,-23.0494761,-50.2310027,9,44.93036
1,Andradas/MG,-22.0680484,-46.5688976,5,12.17226
D1,Andradas/MG,-22.0680484,-46.5688976,1,2.43445
1,Andradina/SP,-20.896505,-51.3742765,42,73.48181
D1,Andradina/SP,-20.896505,-51.3742765,4,6.99827
1,Andrelândia/MG,-21.739722,-44.308889,11,89.98691
1,Angatuba/SP,-23.4938938,-48.4110675,26,103.06009
D1,Angatuba/SP,-23.4938938,-48.4110675,2,7.92770
1,Angelim/PE,-8.8902038,-36.2872987,4,35.87444
1,Angical do Piauí/PI,-6.0872666,-42.7366138,9,132.58692
D1,Angical do Piauí/PI,-6.0872666,-42.7366138,1,14.73188
1,Angico/TO,-6.3893733,-47.8656722,2,58.25808
1,Angicos/RN,-5.6666344,-36.6009064,7,59.75756
D1,Angicos/RN,-5.6666344,-36.6009064,1,8.53679
1,Angra dos Reis/RJ,-23.0063966,-44.316326,1080,529.97031
D1,Angra dos Reis/RJ,-23.0063966,-44.316326,42,20.60996
1,Anguera/BA,-12.1509425,-39.2452469,21,187.14910
1,Anhanguera/GO,-18.3338749,-48.220363,1,87.03220
1,Anhembi/SP,-22.7891096,-48.1316776,3,44.61630
1,Anhumas/SP,-22.2956478,-51.3873401,2,48.60267
1,Anicuns/GO,-16.4606451,-49.9572265,5,22.88330
1,Anita Garibaldi/SC,-27.6855032,-51.1293873,2,28.03869
1,Anori/AM,-3.7435254,-61.6605203,403,1918.13422
D1,Anori/AM,-3.7435254,-61.6605203,5,23.79819
1,Anta Gorda/RS,-28.9718745,-52.0069187,6,100.31767
1,Antas/BA,-10.4114649,-38.3308815,4,20.73506
1,Antonina do Norte/CE,-6.7754187,-39.9879345,2,27.19978
1,Antonina/PR,-25.4298854,-48.7125431,5,26.34352
1,Antônio Cardoso/BA,-12.4363122,-39.1200307,4,34.23778
1,Antônio Carlos/MG,-21.318334,-43.746666,4,34.94976
1,Antônio Carlos/SC,-27.5168462,-48.7684715,22,258.42829
D1,Antônio Carlos/SC,-27.5168462,-48.7684715,4,46.98696
1,Antônio Dias/MG,-19.6525,-42.872778,4,42.92767
1,Antônio Martins/RN,-6.2155812,-37.8890129,2,27.99160
1,Antônio Prado/RS,-28.8567806,-51.2801355,2,15.32567
1,Anápolis/GO,-16.3332828,-48.9525756,180,46.52088
D1,Anápolis/GO,-16.3332828,-48.9525756,2,0.51690
1,Anísio de Abreu/PI,-9.185643,-43.04941,17,172.06478
1,Aparecida de Goiânia/GO,-16.8226769,-49.2452546,575,99.45017
D1,Aparecida de Goiânia/GO,-16.8226769,-49.2452546,13,2.24844
1,Aparecida do Rio Doce/GO,-18.2980167,-51.1491312,8,323.36297
1,Aparecida do Taboado/MS,-20.0840304,-51.1013943,1,3.88425
1,Aparecida/PB,-6.7859598, -38.0831353,8,95.84282
1,Aparecida/SP,-22.851552,-45.2340924,7,19.36001
1,Aperibé/RJ,-21.6211928,-42.1028167,17,144.57012
1,Apiacá/ES,-21.152272,-41.569297,18,237.87498
1,Apiaí/SP,-24.5076527,-48.8461582,2,8.20546
1,Apicum-Açu/MA,-1.5279295,-45.082278,115,667.09206
D1,Apicum-Açu/MA,-1.5279295,-45.082278,1,5.80080
1,Apodi/RN,-5.6631109,-37.796927,308,859.25513
D1,Apodi/RN,-5.6631109,-37.796927,7,19.52853
1,Aporá/BA,-11.6599747,-38.0794757,11,62.03824
D1,Aporá/BA,-11.6599747,-38.0794757,1,5.63984
1,Apuarema/BA,-13.8517897,-39.7457126,1,13.64256
1,Apucarana/PR,-23.5525327,-51.4610764,40,29.63051
D1,Apucarana/PR,-23.5525327,-51.4610764,3,2.22229
1,Apuiarés/CE,-3.9460303,-39.4313298,63,431.50685
D1,Apuiarés/CE,-3.9460303,-39.4313298,7,47.94521
1,Apuí/AM,-7.1940195,-59.8830192,27,122.87808
1,Aquidabã/SE,-10.2837579,-37.0188687,23,106.66419
D1,Aquidabã/SE,-10.2837579,-37.0188687,1,4.63757
1,Aquiraz/CE,-3.9063117,-38.387504,304,378.71710
D1,Aquiraz/CE,-3.9063117,-38.387504,13,16.19514
1,Arabutã/SC,-27.1587028,-52.1438142,27,632.76307
1,Aracaju/SE,-10.9162061,-37.0774655,4691,713.98892
D1,Aracaju/SE,-10.9162061,-37.0774655,85,12.93734
1,Aracati/CE,-4.558259,-37.767894,337,452.06380
D1,Aracati/CE,-4.558259,-37.767894,16,21.46297
1,Aracatu/BA,-14.4274236,-41.4604105,5,38.06624
1,Araci/BA,-11.3356065,-38.9573261,14,25.74523
D1,Araci/BA,-11.3356065,-38.9573261,1,1.83895
1,Aracoiaba/CE,-4.3702577,-38.8084313,189,714.04284
D1,Aracoiaba/CE,-4.3702577,-38.8084313,2,7.55601
1,Aracruz/ES,-19.8245218,-40.2735025,137,135.34875
D1,Aracruz/ES,-19.8245218,-40.2735025,13,12.84331
1,Aragarças/GO,-15.8957166,-52.2514538,12,59.64808
1,Aragoiânia/GO,-16.9146388,-49.4499148,8,77.60962
1,Aragominas/TO,-7.1654101,-48.525488,15,260.50712
1,Araguanã/MA,-2.9508403,-45.6651986,227,1471.54155
1,Araguanã/TO,-6.5799107,-48.6428482,5,87.27527
1,Araguapaz/GO,-15.0937927,-50.626417,2,25.74003
D1,Araguapaz/GO,-15.0937927,-50.626417,1,12.87001
1,Araguari/MG,-18.6511256,-48.1933764,24,20.46612
D1,Araguari/MG,-18.6511256,-48.1933764,1,0.85275
1,Araguatins/TO,-5.6522925,-48.1158973,82,229.30008
D1,Araguatins/TO,-5.6522925,-48.1158973,12,33.55611
1,Araguaçu/TO,-12.928934,-49.823134,4,46.96489
D1,Araguaçu/TO,-12.928934,-49.823134,1,11.74122
1,Araguaína/TO,-7.193241,-48.2018597,2025,1122.07015
D1,Araguaína/TO,-7.193241,-48.2018597,20,11.08217
1,Araioses/MA,-2.890914,-41.904993,153,329.45736
D1,Araioses/MA,-2.890914,-41.904993,2,4.30663
1,Aramari/BA,-12.0907897,-38.4985065,1,8.77424
1,Arame/MA,-4.8858769,-46.0102484,95,290.51099
1,Arandu/SP,-23.1345103,-49.0545651,10,157.30691
D1,Arandu/SP,-23.1345103,-49.0545651,2,31.46138
1,Arantina/MG,-21.911667,-44.255833,2,71.55635
1,Arapiraca/AL,-9.754866,-36.661471,500,215.75252
D1,Arapiraca/AL,-9.754866,-36.661471,18,7.76709
1,Arapongas/PR,-23.415296,-51.42592,25,20.32074
D1,Arapongas/PR,-23.415296,-51.42592,1,0.81283
1,Araporã/MG,-18.4318188,-49.188313,7,101.90712
1,Arapoti/PR,-24.1457957,-49.8224605,1,3.55682
1,Araputanga/MT,-15.4710868,-58.346796,3,17.83379
1,Araquari/SC,-26.3703324,-48.7210994,30,78.68027
1,Arara/PB,-6.8271895,-35.7605703,21,155.90200
1,Araranguá/SC,-28.9348832,-49.4858389,67,98.20015
D1,Araranguá/SC,-28.9348832,-49.4858389,2,2.93135
1,Araraquara/SP,-21.7886713,-48.1773096,296,125.38548
D1,Araraquara/SP,-21.7886713,-48.1773096,4,1.69440
1,Araras/SP,-22.3569477,-47.3838889,129,96.09941
D1,Araras/SP,-22.3569477,-47.3838889,3,2.23487
1,Ararendá/CE,-4.7504395,-40.8303611,2,18.28989
D1,Ararendá/CE,-4.7504395,-40.8303611,1,9.14495
1,Arari/MA,-3.4547602,-44.7772723,73,244.57250
D1,Arari/MA,-3.4547602,-44.7772723,2,6.70062
1,Araricá/RS,-29.6168543,-50.929121,1,17.55002
1,Araripe/CE,-7.212861,-40.1359222,3,13.88889
1,Araripina/PE,-7.5768582,-40.5038509,70,82.92070
D1,Araripina/PE,-7.5768582,-40.5038509,3,3.55374
1,Araruama/RJ,-22.8733203,-42.3428897,157,118.58006
D1,Araruama/RJ,-22.8733203,-42.3428897,28,21.14804
1,Araruna/PB,-6.5321155,-35.7397595,4,19.69279
1,Araruna/PR,-23.9320308,-52.4976047,17,121.68933
D1,Araruna/PR,-23.9320308,-52.4976047,1,7.15820
1,Arataca/BA,-15.2617424,-39.4122943,2,18.15047
1,Aratiba/RS,-27.3955734,-52.3024325,2,32.07698
1,Aratuba/CE,-4.4195958,-39.0463737,25,211.02389
D1,Aratuba/CE,-4.4195958,-39.0463737,1,8.44096
1,Aratuípe/BA,-13.077137,-39.0010786,2,22.66289
1,Araucária/PR,-25.5861107,-49.4051209,100,69.52024
1,Arauá/SE,-11.2644014,-37.6181058,4,39.77725
D1,Arauá/SE,-11.2644014,-37.6181058,3,29.83294
1,Araxá/MG,-19.5928536,-46.940241,129,121.43577
D1,Araxá/MG,-19.5928536,-46.940241,2,1.88273
1,Araçagi/PB,-6.8519969,-35.3835602,45,264.90846
1,Araçariguama/SP,-23.438611,-47.061389,17,76.01502
D1,Araçariguama/SP,-23.438611,-47.061389,1,4.47147
1,Araças/BA,-12.2139176,-38.2026159,2,16.42441
1,Araçatuba/SP,-21.207992,-50.4390225,190,96.43887
D1,Araçatuba/SP,-21.207992,-50.4390225,7,3.55301
1,Araçoiaba da Serra/SP,-23.5045367,-47.6168158,43,125.92983
D1,Araçoiaba da Serra/SP,-23.5045367,-47.6168158,1,2.92860
1,Araçoiaba/PE,-7.7856903,-35.0898881,40,194.89378
D1,Araçoiaba/PE,-7.7856903,-35.0898881,6,29.23407
1,Araçuaí/MG,-16.8484451,-42.0661868,2,5.44840
1,Arceburgo/MG,-21.364444,-46.939722,5,46.41664
1,Arcos/MG,-20.282223,-45.539444,24,59.86232
1,Arcoverde/PE,-8.415192,-37.057748,125,168.15088
D1,Arcoverde/PE,-8.415192,-37.057748,13,17.48769
1,Areal/RJ,-22.2314922,-43.1056264,16,127.26694
1,Arealva/SP,-22.0301906,-48.9111936,1,11.68224
1,Areia Branca/RN,-4.9506652,-37.1263312,284,1022.53907
D1,Areia Branca/RN,-4.9506652,-37.1263312,21,75.61028
1,Areia Branca/SE,-10.7591455,-37.3148072,57,307.41020
D1,Areia Branca/SE,-10.7591455,-37.3148072,1,5.39316
1,Areia de Baraúnas/PB,-7.1233949,-36.9446216,1,46.99248
1,Areia/PB,-6.9680243,-35.6994783,66,289.23266
D1,Areia/PB,-6.9680243,-35.6994783,1,4.38231
1,Areial/PB,-7.0501306,-35.9245244,13,185.76736
D1,Areial/PB,-7.0501306,-35.9245244,1,14.28980
1,Areiópolis/SP,-22.6758064,-48.6673653,10,89.85533
D1,Areiópolis/SP,-22.6758064,-48.6673653,3,26.95660
1,Arenápolis/MT,-14.4610369,-56.8432806,1,10.40908
1,Aripuanã/MT,-10.175806,-59.4439663,25,111.83681
D1,Aripuanã/MT,-10.175806,-59.4439663,1,4.47347
1,Ariquemes/RO,-9.9076522,-63.033069,466,432.02952
D1,Ariquemes/RO,-9.9076522,-63.033069,5,4.63551
1,Ariranha/SP,-21.18716,-48.790418,2,20.68680
1,Armazém/SC,-28.2624996,-49.0190126,26,299.74637
1,Armação dos Búzios/RJ,-22.7597805,-41.8875267,113,333.62858
D1,Armação dos Búzios/RJ,-22.7597805,-41.8875267,3,8.85740
1,Arneiroz/CE,-6.3235099,-40.1603859,19,242.34694
1,Aroazes/PI,-6.1108814,-41.7886137,1,17.13796
1,Aroeiras/PB,-7.5462904,-35.7080002,32,167.07565
1,Arraial do Cabo/RJ,-22.9662839,-42.024427,45,148.27507
D1,Arraial do Cabo/RJ,-22.9662839,-42.024427,4,13.18001
1,Arroio do Meio/RS,-29.4020392,-51.9444993,99,475.84715
1,Arroio do Sal/RS,-29.549852,-49.8874395,11,109.28962
D1,Arroio do Sal/RS,-29.549852,-49.8874395,1,9.93542
1,Arroio dos Ratos/RS,-30.0894524,-51.7265541,9,63.59975
D1,Arroio dos Ratos/RS,-30.0894524,-51.7265541,1,7.06664
1,Artur Nogueira/SP,-22.572737,-47.172679,28,51.46302
D1,Artur Nogueira/SP,-22.572737,-47.172679,2,3.67593
1,Arujá/SP,-23.396266,-46.3175449,278,309.49412
D1,Arujá/SP,-23.396266,-46.3175449,19,21.15248
1,Arvoredo/SC,-27.0752908,-52.4571847,13,580.35714
D1,Arvoredo/SC,-27.0752908,-52.4571847,1,44.64286
1,Arvorezinha/RS,-28.87369,-52.17808,5,47.96623
1,Arês/RN,-6.1969216,-35.1642968,12,83.88089
1,Ascurra/SC,-26.9569975,-49.3767752,1,12.60398
1,Aspásia/SP,-20.160028,-50.728046,2,109.76948
1,Assaré/CE,-6.8746791,-39.8741385,9,38.43362
1,Assaí/PR,-23.3736041,-50.8454929,4,26.45678
1,Assis Brasil/AC,-10.9409203,-69.5672108,48,647.16193
D1,Assis Brasil/AC,-10.9409203,-69.5672108,2,26.96508
1,Assis Chateaubriand/PR,-24.4054826,-53.5120468,33,98.91493
1,Assis/SP,-22.6620892,-50.420623,59,56.52099
D1,Assis/SP,-22.6620892,-50.420623,5,4.78991
1,Assunção/PB,-7.073396,-36.7274003,18,451.12782
1,Astolfo Dutra/MG,-21.3132636,-42.8624102,12,84.63220
1,Atalaia do Norte/AM,-4.3658547,-70.1908742,89,446.76472
D1,Atalaia do Norte/AM,-4.3658547,-70.1908742,1,5.01983
1,Atalaia/AL,-9.5029595,-36.0219316,209,442.93737
D1,Atalaia/AL,-9.5029595,-36.0219316,5,10.59659
1,Atalanta/SC,-27.421916,-49.778863,3,93.45794
1,Atibaia/SP,-23.1177393,-46.5547861,94,65.84431
D1,Atibaia/SP,-23.1177393,-46.5547861,4,2.80189
1,Atilio Vivacqua/ES,-20.9139369,-41.1947519,5,41.89008
1,Augustinópolis/TO,-5.4662267,-47.8897519,52,282.42451
D1,Augustinópolis/TO,-5.4662267,-47.8897519,2,10.86248
1,Augusto Corrêa/PA,-1.0229335,-46.6404029,162,352.18923
D1,Augusto Corrêa/PA,-1.0229335,-46.6404029,4,8.69603
1,Aurelino Leal/BA,-14.3167137,-39.3256107,16,138.75640
1,Auriflama/SP,-20.6840418,-50.5554616,3,19.75114
1,Aurora do Pará/PA,-2.1323199,-47.558436,116,370.15764
D1,Aurora do Pará/PA,-2.1323199,-47.558436,4,12.76406
1,Aurora do Tocantins/TO,-12.71045,-46.407604,2,53.23396
1,Aurora/CE,-6.9426019,-38.9693765,7,28.39296
D1,Aurora/CE,-6.9426019,-38.9693765,1,4.05614
1,Aurora/SC,-27.3166417,-49.6368502,4,70.43494
1,Autazes/AM,-3.5833283,-59.1301518,633,1599.89890
D1,Autazes/AM,-3.5833283,-59.1301518,22,55.60470
1,Avanhandava/SP,-21.4603331,-49.9465156,1,7.32654
1,Avaré/SP,-23.1045215,-48.9259103,66,72.80349
D1,Avaré/SP,-23.1045215,-48.9259103,7,7.72158
1,Avaí/SP,-22.1564662,-49.3316395,2,37.01647
1,Aveiro/PA,-3.6049239,-55.3310742,1,6.10203
1,Avelino Lopes/PI,-10.1346855,-43.9489525,2,17.71636
1,Avelinópolis/GO,-16.4672409,-49.7578661,1,41.37360
1,Axixá do Tocantins/TO,-5.612747,-47.77007,42,430.50431
D1,Axixá do Tocantins/TO,-5.612747,-47.77007,2,20.50021
1,Axixá/MA,-2.8379465,-44.0561053,18,148.39242
D1,Axixá/MA,-2.8379465,-44.0561053,1,8.24402
1,Açailândia/MA,-4.9514278,-47.4844564,1332,1184.57913
D1,Açailândia/MA,-4.9514278,-47.4844564,3,2.66797
1,Açu/RN,-5.5836157,-36.9139541,141,243.03221
D1,Açu/RN,-5.5836157,-36.9139541,7,12.06543
1,Açucena/MG,-19.073056,-42.546666,4,42.23865
D1,Açucena/MG,-19.073056,-42.546666,1,10.55966
1,Babaçulândia/TO,-7.2034355,-47.761613,4,37.50938
1,Bacabal/MA,-4.2318132,-44.781167,555,528.82829
D1,Bacabal/MA,-4.2318132,-44.781167,6,5.71706
1,Bacabeira/MA,-2.9775747,-44.3155943,108,633.24538
D1,Bacabeira/MA,-2.9775747,-44.3155943,2,11.72677
1,Bacuri/MA,-1.728894,-45.1417148,148,796.46970
1,Bacurituba/MA,-2.7082587,-44.7381309,8,141.74344
1,Bady Bassitt/SP,-20.9178969,-49.4517911,30,171.40898
D1,Bady Bassitt/SP,-20.9178969,-49.4517911,4,22.85453
1,Baependi/MG,-21.959162,-44.8899249,2,10.44496
1,Bagre/PA,-1.8994498,-50.2103844,98,319.49923
D1,Bagre/PA,-1.8994498,-50.2103844,5,16.30098
1,Bagé/RS,-31.3314264,-54.1062808,69,56.95748
1,Baianópolis/BA,-12.3067564,-44.5383591,1,7.20617
1,Baixa Grande do Ribeiro/PI,-7.862861,-45.2113289,19,163.99102
D1,Baixa Grande do Ribeiro/PI,-7.862861,-45.2113289,1,8.63111
1,Baixio/CE,-6.7303544,-38.7170095,1,15.90331
1,Baixo Guandu/ES,-19.5138322,-41.0182089,111,358.08762
D1,Baixo Guandu/ES,-19.5138322,-41.0182089,3,9.67804
1,Baião/PA,-2.7903479,-49.6702845,140,295.07229
D1,Baião/PA,-2.7903479,-49.6702845,6,12.64596
1,Balneário Arroio do Silva/SC,-28.9815269,-49.4189932,30,229.51572
D1,Balneário Arroio do Silva/SC,-28.9815269,-49.4189932,1,7.65052
1,Balneário Barra do Sul/SC,-26.459842,-48.6061471,14,129.68967
1,Balneário Camboriú/SC,-26.9924395,-48.6339782,432,303.59464
D1,Balneário Camboriú/SC,-26.9924395,-48.6339782,2,1.40553
1,Balneário Gaivota/SC,-29.1553098,-49.5808712,8,72.86638
D1,Balneário Gaivota/SC,-29.1553098,-49.5808712,1,9.10830
1,Balneário Pinhal/RS,-30.2482978,-50.234585,5,35.54165
1,Balneário Piçarras/SC,-26.7638889,-48.6716667,65,280.81393
1,Balneário Rincão/SC,-28.8235718,-49.2241642,6,47.02194
1,Balsa Nova/PR,-25.5842234,-49.6312741,5,38.63689
1,Balsas/MA,-7.53214,-46.037163,331,348.83598
1,Banabuiú/CE,-5.3046404,-38.919766,84,461.61455
D1,Banabuiú/CE,-5.3046404,-38.919766,1,5.49541
1,Bananal/SP,-22.6828195,-44.3221095,5,45.68296
1,Bananeiras/PB,-6.7537682,-35.6338343,36,168.87138
1,Bandeirantes do Tocantins/TO,-7.7635698,-48.579148,7,197.01661
1,Bandeirantes/PR,-23.107788,-50.370407,11,35.06870
D1,Bandeirantes/PR,-23.107788,-50.370407,1,3.18806
1,Bannach/PA,-7.3508505,-50.4064531,11,334.75350
D1,Bannach/PA,-7.3508505,-50.4064531,3,91.29641
1,Banzaê/BA,-10.5827616,-38.6122305,2,15.11830
1,Baraúna/PB,-6.643394,-36.2531932,42,858.54456
1,Baraúna/RN,-5.0775002,-37.61752,94,331.28921
D1,Baraúna/RN,-5.0775002,-37.61752,4,14.09741
1,Barbacena/MG,-21.2254524,-43.7735087,286,208.28327
D1,Barbacena/MG,-21.2254524,-43.7735087,4,2.91305
1,Barbalha/CE,-7.3121067,-39.3036427,71,116.81282
D1,Barbalha/CE,-7.3121067,-39.3036427,2,3.29050
1,Barbosa Ferraz/PR,-24.0287182,-52.00811,1,8.64454
1,Barcarena/PA,-1.5107945,-48.6190679,863,692.17196
D1,Barcarena/PA,-1.5107945,-48.6190679,66,52.93551
1,Barcelona/RN,-5.9514918,-35.9260284,2,50.02501
1,Barcelos/AM,-0.9729214,-62.925635,534,1941.67697
D1,Barcelos/AM,-0.9729214,-62.925635,17,61.81369
1,Bariri/SP,-22.0746355,-48.7394852,17,48.20780
D1,Bariri/SP,-22.0746355,-48.7394852,1,2.83575
1,Barra Bonita/SP,-22.490859,-48.558349,34,94.11504
D1,Barra Bonita/SP,-22.490859,-48.558349,1,2.76809
1,Barra Longa/MG,-20.2833541,-43.0423516,1,19.48938
1,Barra Mansa/RJ,-22.5394843,-44.1735129,194,105.19923
D1,Barra Mansa/RJ,-22.5394843,-44.1735129,17,9.21849
1,Barra Velha/SC,-26.6338203,-48.6835001,20,68.56829
1,Barra de Guabiraba/PE,-8.4173522,-35.6626669,32,222.45395
D1,Barra de Guabiraba/PE,-8.4173522,-35.6626669,2,13.90337
1,Barra de Santa Rosa/PB,-6.7218007,-36.0564638,10,65.00260
1,Barra de Santana/PB,-7.5230865,-35.9988518,19,227.29992
1,Barra de Santo Antônio/AL,-9.4038098,-35.5117693,24,150.64022
D1,Barra de Santo Antônio/AL,-9.4038098,-35.5117693,2,12.55335
1,Barra de São Francisco/ES,-18.7570902,-40.8916119,114,255.31915
D1,Barra de São Francisco/ES,-18.7570902,-40.8916119,4,8.95857
1,Barra de São Miguel/AL,-9.8261357,-35.8837777,40,480.65369
D1,Barra de São Miguel/AL,-9.8261357,-35.8837777,1,12.01634
1,Barra de São Miguel/PB,-7.7528088,-36.3170996,3,49.70179
D1,Barra de São Miguel/PB,-7.7528088,-36.3170996,1,16.56726
1,Barra do Bugres/MT,-15.0683712,-57.1853688,5,14.29961
1,Barra do Choça/BA,-14.8638173,-40.5761637,8,25.31405
1,Barra do Corda/MA,-5.496823,-45.248496,751,851.35809
D1,Barra do Corda/MA,-5.496823,-45.248496,12,13.60359
1,Barra do Garças/MT,-15.8916033,-52.2615413,87,142.59490
D1,Barra do Garças/MT,-15.8916033,-52.2615413,5,8.19511
1,Barra do Mendes/BA,-11.8053298,-42.057037,1,7.21241
1,Barra do Ouro/TO,-7.7113784,-47.6743925,3,65.34524
1,Barra do Piraí/RJ,-22.4703403,-43.8263256,152,151.43364
D1,Barra do Piraí/RJ,-22.4703403,-43.8263256,16,15.94038
1,Barra do Ribeiro/RS,-30.2930206,-51.301437,2,14.82470
1,Barra do Rocha/BA,-14.2090974,-39.6004395,7,122.50613
1,Barra do Turvo/SP,-24.756421,-48.5056942,9,117.50881
D1,Barra do Turvo/SP,-24.756421,-48.5056942,1,13.05653
1,Barra dos Coqueiros/SE,-10.9075694,-37.0386249,181,595.25767
D1,Barra dos Coqueiros/SE,-10.9075694,-37.0386249,1,3.28872
1,Barra/BA,-11.0892702,-43.1420453,4,7.46575
1,Barracão/PR,-26.252395,-53.6349576,5,48.66180
1,Barras/PI,-4.2446153,-42.2920241,214,454.68066
D1,Barras/PI,-4.2446153,-42.2920241,2,4.24935
1,Barreira/CE,-4.2883361,-38.641094,95,423.63434
D1,Barreira/CE,-4.2883361,-38.641094,8,35.67447
1,Barreiras do Piauí/PI,-9.9224524,-45.4763776,1,29.86858
1,Barreiras/BA,-12.1440031,-44.9967406,71,45.67708
1,Barreirinha/AM,-2.798863,-57.067897,343,1070.50342
D1,Barreirinha/AM,-2.798863,-57.067897,4,12.48400
1,Barreirinhas/MA,-2.7541271,-42.8259693,194,310.26100
D1,Barreirinhas/MA,-2.7541271,-42.8259693,5,7.99642
1,Barreiros/PE,-8.8159644,-35.1831905,157,368.03488
D1,Barreiros/PE,-8.8159644,-35.1831905,11,25.78588
1,Barretos/SP,-20.5531437,-48.5697509,272,222.77187
D1,Barretos/SP,-20.5531437,-48.5697509,11,9.00916
1,Barrinha/SP,-21.1898849,-48.1550642,20,60.95331
D1,Barrinha/SP,-21.1898849,-48.1550642,1,3.04767
1,Barro Alto/GO,-14.9696025,-48.9190985,9,80.59461
D1,Barro Alto/GO,-14.9696025,-48.9190985,1,8.95496
1,Barro Duro/PI,-5.8180139,-42.5106589,30,426.62116
1,Barro Preto/BA,-14.8068289,-39.4727588,6,107.31533
1,Barro/CE,-7.1713587,-38.7742136,9,39.68254
D1,Barro/CE,-7.1713587,-38.7742136,2,8.81834
1,Barrocas/BA,-11.5165,-39.099282894736845,15,93.87908
1,Barrolândia/TO,-9.837246,-48.7264346,9,159.80114
D1,Barrolândia/TO,-9.837246,-48.7264346,1,17.75568
1,Barroquinha/CE,-3.0200371,-41.1339229,156,1038.82267
D1,Barroquinha/CE,-3.0200371,-41.1339229,4,26.63648
1,Barros Cassal/RS,-29.094938,-52.5832366,2,17.85874
D1,Barros Cassal/RS,-29.094938,-52.5832366,1,8.92937
1,Barroso/MG,-21.187222,-43.976111,2,9.61076
1,Barueri/SP,-23.5112184,-46.8764612,1326,483.62037
D1,Barueri/SP,-23.5112184,-46.8764612,137,49.96681
1,Barão de Antonina/SP,-23.6295651,-49.5632104,1,28.82675
1,Barão de Cocais/MG,-19.9452437,-43.4870298,29,89.27197
1,Barão de Cotegipe/RS,-27.6214694,-52.3765316,14,211.38457
1,Barão de Grajaú/MA,-6.7542591,-43.0263477,7,37.19447
1,Barão/RS,-29.372474,-51.494908,1,16.20483
1,Bastos/SP,-21.9222474,-50.7317727,2,9.54517
1,Bataguassu/MS,-21.715899,-52.422058,11,47.77623
1,Batalha/AL,-9.6733809,-37.1265481,38,208.42475
D1,Batalha/AL,-9.6733809,-37.1265481,1,5.48486
1,Batalha/PI,-4.022391,-42.0780926,77,286.70365
D1,Batalha/PI,-4.022391,-42.0780926,2,7.44685
1,Batatais/SP,-20.892867,-47.592149,20,31.99590
D1,Batatais/SP,-20.892867,-47.592149,1,1.59980
1,Batayporã/MS,-22.2976466,-53.2685608,6,52.96143
D1,Batayporã/MS,-22.2976466,-53.2685608,2,17.65381
1,Baturité/CE,-4.3290203,-38.8821055,64,179.02098
D1,Baturité/CE,-4.3290203,-38.8821055,10,27.97203
1,Bauru/SP,-22.3218102,-49.0705863,345,91.55614
D1,Bauru/SP,-22.3218102,-49.0705863,15,3.98070
1,Bayeux/PB,-7.1301631,-34.936532,416,429.39719
D1,Bayeux/PB,-7.1301631,-34.936532,26,26.83732
1,Baía Formosa/RN,-6.3691885,-35.0063741,6,64.71794
1,Baía da Traição/PB,-6.691258,-34.9371244,64,711.66463
D1,Baía da Traição/PB,-6.691258,-34.9371244,1,11.11976
1,Bebedouro/SP,-20.949077,-48.479083,27,34.84051
D1,Bebedouro/SP,-20.949077,-48.479083,2,2.58078
1,Beberibe/CE,-4.1810469,-38.1298101,127,237.05971
D1,Beberibe/CE,-4.1810469,-38.1298101,15,27.99918
1,Bela Cruz/CE,-3.0529129,-40.167582,363,1113.80442
D1,Bela Cruz/CE,-3.0529129,-40.167582,6,18.40999
1,Bela Vista de Goiás/GO,-16.9692949,-48.9513071,30,100.08340
D1,Bela Vista de Goiás/GO,-16.9692949,-48.9513071,1,3.33611
1,Bela Vista de Minas/MG,-19.8289721,-43.0973688,3,29.25402
1,Bela Vista do Maranhão/MA,-3.7416367,-45.2514192,65,579.89116
1,Bela Vista do Paraíso/PR,-22.9948493,-51.1907996,3,19.48432
1,Bela Vista do Piauí/PI,-7.9716353,-41.8715061,1,24.90660
1,Bela Vista/MS,-22.107327,-56.5317344,2,8.12051
1,Belford Roxo/RJ,-22.7667284,-43.4033603,835,163.43515
D1,Belford Roxo/RJ,-22.7667284,-43.4033603,122,23.87915
1,Belmiro Braga/MG,-21.9486291,-43.413564,3,87.48906
D1,Belmiro Braga/MG,-21.9486291,-43.413564,1,29.16302
1,Belmonte/BA,-15.8630837,-38.8792845,11,47.15364
D1,Belmonte/BA,-15.8630837,-38.8792845,1,4.28669
1,Belo Horizonte/MG,-19.9227318,-43.9450948,2029,80.77004
D1,Belo Horizonte/MG,-19.9227318,-43.9450948,51,2.03020
1,Belo Jardim/PE,-8.3338293,-36.4176419,43,56.25401
D1,Belo Jardim/PE,-8.3338293,-36.4176419,2,2.61647
1,Belo Monte/AL,-9.8269944,-37.2787165,2,29.83294
1,Belo Oriente/MG,-19.2232523,-42.4807033,10,37.45318
1,Belo Vale/MG,-20.407778,-44.024167,2,25.92353
D1,Belo Vale/MG,-20.407778,-44.024167,1,12.96176
1,Belterra/PA,-2.636091,-54.937392,19,107.15091
D1,Belterra/PA,-2.636091,-54.937392,3,16.91857
1,Belágua/MA,-3.1604031,-43.5085052,81,1084.48253
1,Belém de Maria/PE,-8.6242497,-35.8388934,6,49.69767
1,Belém do Brejo do Cruz/PB,-6.1880727,-37.5332267,2,27.24053
1,Belém do Piauí/PI,-7.3767305,-40.9712156,6,168.25575
D1,Belém do Piauí/PI,-7.3767305,-40.9712156,1,28.04262
1,Belém do São Francisco/PE,-8.7517707,-38.9625715,6,28.94496
1,Belém/AL,-9.5715351,-36.492841,2,46.04052
D1,Belém/AL,-9.5715351,-36.492841,1,23.02026
1,Belém/PA,-1.45056,-48.4682453,13123,879.11867
D1,Belém/PA,-1.45056,-48.4682453,1517,101.62486
1,Belém/PB,-6.6967586,-35.5369626,60,339.44331
1,Beneditinos/PI,-5.4565671,-42.3605061,2,19.10767
1,Benedito Leite/MA,-7.2173453,-44.5523331,5,88.77841
1,Benedito Novo/SC,-26.7840657,-49.3629511,10,85.82218
1,Benevides/PA,-1.3555577,-48.252235,906,1444.12388
D1,Benevides/PA,-1.3555577,-48.252235,43,68.54010
1,Benjamin Constant do Sul/RS,-27.5105555,-52.6007689,17,852.55767
1,Benjamin Constant/AM,-4.3782748,-70.0290603,1020,2372.97599
D1,Benjamin Constant/AM,-4.3782748,-70.0290603,25,58.16118
1,Bento Fernandes/RN,-5.6926846,-35.8207423,3,54.57522
1,Bento Gonçalves/RS,-29.1654014,-51.5197627,653,542.11566
D1,Bento Gonçalves/RS,-29.1654014,-51.5197627,16,13.28308
1,Bequimão/MA,-2.4495376,-44.7884889,105,493.42105
D1,Bequimão/MA,-2.4495376,-44.7884889,5,23.49624
1,Bernardino Batista/PB,-6.4532173,-38.5495418,1,28.56327
1,Bernardino de Campos/SP,-23.0140216,-49.4760724,1,8.97022
1,Bernardo do Mearim/MA,-4.6315929,-44.7617508,25,413.70180
1,Bertioga/SP,-23.848568,-46.139586,109,172.33474
D1,Bertioga/SP,-23.848568,-46.139586,7,11.06737
1,Bertolínia/PI,-7.6372159,-43.9540611,4,72.71405
1,Beruri/AM,-3.9007135,-61.3717319,374,1900.50307
D1,Beruri/AM,-3.9007135,-61.3717319,5,25.40780
1,Betim/MG,-19.968056,-44.198333,156,35.50781
D1,Betim/MG,-19.968056,-44.198333,8,1.82091
1,Betânia do Piauí/PI,-8.1460635,-40.7961387,1,16.11604
1,Betânia/PE,-8.2742779,-38.0351767,7,55.03577
D1,Betânia/PE,-8.2742779,-38.0351767,1,7.86225
1,Bezerros/PE,-8.2372132,-35.7558262,104,171.05826
D1,Bezerros/PE,-8.2372132,-35.7558262,2,3.28958
1,Bicas/MG,-21.7213723,-43.0604327,5,34.49703
1,Biguaçu/SC,-27.4961277,-48.6542432,28,40.88725
1,Bilac/SP,-21.403962,-50.47464,1,12.44710
1,Biquinhas/MG,-18.783611,-45.502222,1,39.76143
1,Birigui/SP,-21.2908491,-50.34144,59,47.71996
D1,Birigui/SP,-21.2908491,-50.34144,1,0.80881
1,Biritiba-Mirim/SP,-23.5697765,-46.0407456,38,116.57157
D1,Biritiba-Mirim/SP,-23.5697765,-46.0407456,4,12.27069
1,Bituruna/PR,-26.161281,-51.5533319,1,6.10165
1,Blumenau/SC,-26.9195567,-49.0658025,645,180.57161
D1,Blumenau/SC,-26.9195567,-49.0658025,4,1.11982
1,Boa Esperança do Sul/SP,-21.9930206,-48.3917372,12,80.41279
1,Boa Esperança/ES,-18.5395472,-40.2904088,74,492.11944
D1,Boa Esperança/ES,-18.5395472,-40.2904088,3,19.95079
1,Boa Esperança/MG,-21.0901253,-45.5660195,33,82.23889
D1,Boa Esperança/MG,-21.0901253,-45.5660195,2,4.98418
1,Boa Hora/PI,-4.4094627,-42.1255341,4,58.98835
1,Boa Ventura/PB,-7.4202462,-38.2156782,1,18.63586
1,Boa Viagem/CE,-5.1261877,-39.7300055,43,78.94254
D1,Boa Viagem/CE,-5.1261877,-39.7300055,9,16.52286
1,Boa Vista da Aparecida/PR,-25.4357216,-53.4067721,20,263.46990
1,Boa Vista das Missões/RS,-27.6677983,-53.3127622,1,47.66444
1,Boa Vista do Gurupi/MA,-1.7981168,-46.3071882,10,107.67740
D1,Boa Vista do Gurupi/MA,-1.7981168,-46.3071882,2,21.53548
1,Boa Vista do Ramos/AM,-2.9716927,-57.5869819,78,406.10194
D1,Boa Vista do Ramos/AM,-2.9716927,-57.5869819,2,10.41287
1,Boa Vista do Sul/RS,-29.3510488,-51.6779679,13,467.12181
D1,Boa Vista do Sul/RS,-29.3510488,-51.6779679,1,35.93245
1,Boa Vista do Tupim/BA,-12.6605988,-40.6083594,3,16.14987
1,Boa Vista/PB,-7.2620711,-36.2415161,35,496.38349
1,Boa Vista/RR,2.8208478,-60.6719582,3358,841.15497
D1,Boa Vista/RR,2.8208478,-60.6719582,103,25.80076
1,Boca da Mata/AL,-9.6452054,-36.2116658,82,300.57549
D1,Boca da Mata/AL,-9.6452054,-36.2116658,2,7.33111
1,Boca do Acre/AM,-8.7553487,-67.3930873,456,1329.13606
D1,Boca do Acre/AM,-8.7553487,-67.3930873,6,17.48863
1,Bocaina de Minas/MG,-22.167778,-44.394722,2,39.29273
1,Bocaina/PI,-6.9445939,-41.3224599,4,88.88889
1,Bocaina/SP,-22.1421831,-48.522276,10,81.10958
D1,Bocaina/SP,-22.1421831,-48.522276,1,8.11096
1,Bocaiúva do Sul/PR,-25.206591,-49.114131,1,7.72559
1,Bocaiúva/MG,-17.1160208,-43.8122678,3,6.00252
1,Bodocó/PE,-7.777592,-39.933797,10,26.21507
1,Bofete/SP,-23.1019554,-48.2610535,8,68.20119
D1,Bofete/SP,-23.1019554,-48.2610535,1,8.52515
1,Boituva/SP,-23.2838893,-47.6738231,70,114.75974
D1,Boituva/SP,-23.2838893,-47.6738231,4,6.55770
1,Bom Conselho/PE,-9.169191,-36.685683,88,181.24150
D1,Bom Conselho/PE,-9.169191,-36.685683,1,2.05956
1,Bom Despacho/MG,-19.7375242,-45.2517288,11,21.73698
D1,Bom Despacho/MG,-19.7375242,-45.2517288,1,1.97609
1,Bom Jardim de Goiás/GO,-16.2062659,-52.172793,1,11.31094
1,Bom Jardim/MA,-3.54129,-45.606004,102,245.01561
D1,Bom Jardim/MA,-3.54129,-45.606004,2,4.80423
1,Bom Jardim/PE,-7.7961572,-35.5871696,51,130.15517
D1,Bom Jardim/PE,-7.7961572,-35.5871696,10,25.52062
1,Bom Jardim/RJ,-22.1515328,-42.4186683,25,91.08795
D1,Bom Jardim/RJ,-22.1515328,-42.4186683,2,7.28704
1,Bom Jesus da Lapa/BA,-13.250571,-43.410754,18,26.03112
1,Bom Jesus das Selvas/MA,-4.4878075,-46.8526639,198,581.87375
1,Bom Jesus de Goiás/GO,-18.2174587,-49.739721,4,15.86294
1,Bom Jesus do Araguaia/MT,-12.1725897,-51.5074425,6,91.18541
1,Bom Jesus do Galho/MG,-19.8283191,-42.3162256,1,6.69568
1,Bom Jesus do Itabapoana/RJ,-21.1341025,-41.680095,64,172.52534
D1,Bom Jesus do Itabapoana/RJ,-21.1341025,-41.680095,2,5.39142
1,Bom Jesus do Norte/ES,-21.1254776,-41.6711646,27,271.73913
1,Bom Jesus do Tocantins/PA,-5.0471796,-48.5978362,16,94.22296
1,Bom Jesus dos Perdões/SP,-23.1353864,-46.4648052,19,74.66206
1,Bom Jesus/PB,-6.8156725,-38.6551841,1,39.04725
1,Bom Jesus/PI,-9.0711644,-44.3583926,75,297.86727
1,Bom Jesus/RN,-5.9887544,-35.5821149,10,97.94319
D1,Bom Jesus/RN,-5.9887544,-35.5821149,1,9.79432
1,Bom Jesus/RS,-28.6692723,-50.4346894,35,308.39722
1,Bom Lugar/MA,-4.3728019,-45.0366054,26,159.56794
1,Bom Princípio do Piauí/PI,-3.1912777,-41.6430185,1,17.76199
D1,Bom Princípio do Piauí/PI,-3.1912777,-41.6430185,1,17.76199
1,Bom Princípio/RS,-29.489788,-51.3566782,31,220.56208
1,Bom Progresso/RS,-27.5490948,-53.8655601,4,205.97322
1,Bom Repouso/MG,-22.4657069,-46.1485376,5,47.40685
1,Bom Retiro do Sul/RS,-29.6000007,-51.9359243,70,567.81311
D1,Bom Retiro do Sul/RS,-29.6000007,-51.9359243,1,8.11162
1,Bombinhas/SC,-27.1519159,-48.4875691,12,60.70110
1,Bonfim do Piauí/PI,-9.1648678,-42.8734415,1,17.63668
1,Bonfim/MG,-20.3266626, -44.2386157,4,58.24112
D1,Bonfim/MG,-20.3266626, -44.2386157,1,14.56028
1,Bonfim/RR,3.3613818,-59.8427241,84,676.92804
D1,Bonfim/RR,3.3613818,-59.8427241,2,16.11733
1,Bonfinópolis de Minas/MG,-16.5660011,-45.98645,1,18.20499
1,Bonfinópolis/GO,-16.6172709,-48.9615701,4,41.21162
1,Bonito de Santa Fé/PB,-7.3143332,-38.5146677,1,8.39137
1,Bonito/BA,-11.9665473,-41.2649896,1,5.96516
1,Bonito/MS,-21.1264766,-56.4902208,49,222.97051
1,Bonito/PA,-1.3605722,-47.3049907,114,699.98772
D1,Bonito/PA,-1.3605722,-47.3049907,3,18.42073
1,Bonito/PE,-8.4721161,-35.7314591,44,115.38260
D1,Bonito/PE,-8.4721161,-35.7314591,9,23.60099
1,Boqueirão/PB,-7.487004,-36.130887,33,185.35161
D1,Boqueirão/PB,-7.487004,-36.130887,1,5.61672
1,Boquim/SE,-11.1450175,-37.6204228,24,89.49881
D1,Boquim/SE,-11.1450175,-37.6204228,1,3.72912
1,Boquira/BA,-12.8184859,-42.7270883,9,41.84489
1,Boracéia/SP,-22.195355,-48.7801925,5,103.66991
1,Borba/AM,-4.3934778,-59.5947721,275,668.10816
D1,Borba/AM,-4.3934778,-59.5947721,14,34.01278
1,Borborema/PB,-6.8066718,-35.5990191,2,38.00114
1,Borborema/SP,-21.6212706,-49.074135,10,62.32083
1,Borda da Mata/MG,-22.274167,-46.165278,4,20.60581
1,Borebi/SP,-22.5700178,-48.9714871,4,150.77271
1,Borá/SP,-22.2701088,-50.544407,1,119.47431
1,Botelhos/MG,-21.65,-46.394722,4,26.71832
1,Botucatu/SP,-22.8879628,-48.4410712,325,221.84755
D1,Botucatu/SP,-22.8879628,-48.4410712,7,4.77825
1,Botuverá/SC,-27.200749,-49.068892,6,114.37286
1,Braga/RS,-27.617348,-53.740514,2,59.64808
1,Braganey/PR,-24.8179919,-53.118506,11,202.69025
D1,Braganey/PR,-24.8179919,-53.118506,1,18.42639
1,Bragança Paulista/SP,-22.9520235,-46.5418586,246,145.84865
D1,Bragança Paulista/SP,-22.9520235,-46.5418586,12,7.11457
1,Bragança/PA,-1.0573967,-46.7635406,901,705.63727
D1,Bragança/PA,-1.0573967,-46.7635406,39,30.54368
1,Branquinha/AL,-9.2478057,-36.0152009,11,104.82180
1,Brasil Novo/PA,-3.3055853,-52.539198,62,410.97706
D1,Brasil Novo/PA,-3.3055853,-52.539198,1,6.62866
1,Brasileira/PI,-4.131182,-41.7824969,7,84.04370
1,Brasilândia do Tocantins/TO,-8.3886619,-48.4842729,1,45.43389
1,Brasilândia/MS,-21.255575,-52.0365617,15,126.34771
D1,Brasilândia/MS,-21.255575,-52.0365617,2,16.84636
1,Brasiléia/AC,-11.0010413,-68.7487894,73,277.79892
D1,Brasiléia/AC,-11.0010413,-68.7487894,3,11.41639
1,Brasília de Minas/MG,-16.2075114,-44.430559,7,21.64034
1,Brasília/DF,-15.7934036,-47.8823172,13147,436.01431
D1,Brasília/DF,-15.7934036,-47.8823172,202,6.69924
1,Brazópolis/MG,-22.4742842,-45.6165577,8,55.32886
1,Braço do Norte/SC,-28.2728633,-49.1622712,113,337.81764
D1,Braço do Norte/SC,-28.2728633,-49.1622712,2,5.97907
1,Brejetuba/ES,-20.1465817,-41.2902303,7,56.43341
1,Brejinho de Nazaré/TO,-11.0205883,-48.5722906,2,36.38348
1,Brejinho/PE,-7.3482153,-37.28538,2,26.71297
1,Brejinho/RN,-6.1957907,-35.3583019,10,78.74636
1,Brejo Alegre/SP,-21.1671191,-50.1850393,1,34.90401
1,Brejo Grande do Araguaia/PA,-5.7011449,-48.4037308,9,121.95122
1,Brejo Grande/SE,-10.4287358,-36.4667918,2,24.07029
1,Brejo Santo/CE,-7.4909841,-38.9859152,26,52.54967
D1,Brejo Santo/CE,-7.4909841,-38.9859152,3,6.06342
1,Brejo da Madre de Deus/PE,-8.1409718,-36.3712527,134,264.08104
D1,Brejo da Madre de Deus/PE,-8.1409718,-36.3712527,3,5.91226
1,Brejo de Areia/MA,-4.3316785,-45.5833334,19,206.79147
1,Brejo do Cruz/PB,-6.32926065,-37.48746163303929,8,56.64920
D1,Brejo do Cruz/PB,-6.32926065,-37.48746163303929,1,7.08115
1,Brejo/MA,-3.6804397,-42.7529313,105,288.48531
D1,Brejo/MA,-3.6804397,-42.7529313,6,16.48488
1,Brejão/PE,-9.029146,-36.566034,1,11.11976
1,Breu Branco/PA,-3.7785073,-49.5684795,75,113.55722
D1,Breu Branco/PA,-3.7785073,-49.5684795,7,10.59867
1,Breves/PA,-1.68036,-50.479085,577,561.82510
D1,Breves/PA,-1.68036,-50.479085,62,60.36942
1,Britânia/GO,-15.2427599,-51.1602061,2,34.60806
1,Brochier/RS,-29.556766,-51.5963047,12,236.49980
1,Brodowski/SP,-20.984532,-47.657217,24,96.23481
D1,Brodowski/SP,-20.984532,-47.657217,1,4.00978
1,Brotas/SP,-22.2840884,-48.1267265,5,20.48928
1,Brumadinho/MG,-20.143611,-44.2,20,49.87158
1,Brumado/BA,-14.29507325,-41.659307508575985,41,61.01644
1,Brusque/SC,-27.0964628,-48.9136323,152,112.82409
1,Bueno Brandão/MG,-22.441976,-46.3517971,3,27.27025
D1,Bueno Brandão/MG,-22.441976,-46.3517971,1,9.09008
1,Buenos Aires/PE,-7.7218931,-35.326587,16,121.62676
D1,Buenos Aires/PE,-7.7218931,-35.326587,3,22.80502
1,Buenópolis/MG,-17.8756607,-44.1749365,5,48.23927
1,Buerarema/BA,-14.9571177,-39.3008035,41,223.44542
D1,Buerarema/BA,-14.9571177,-39.3008035,5,27.24944
1,Bugre/MG,-19.4257687,-42.2556,1,25.11301
1,Bujari/AC,-9.8309656,-67.9520886,59,574.71264
D1,Bujari/AC,-9.8309656,-67.9520886,1,9.74089
1,Bujaru/PA,-1.5169239,-48.0410699,149,511.46506
D1,Bujaru/PA,-1.5169239,-48.0410699,16,54.92242
1,Buri/SP,-23.79849,-48.598924,7,35.21481
1,Buritama/SP,-21.0664017,-50.1448077,16,93.32711
1,Buriti Bravo/MA,-5.8391884,-43.8367876,6,25.12142
1,Buriti do Tocantins/TO,-5.3187439,-48.2256609,23,202.67889
1,Buriti dos Lopes/PI,-3.1776723,-41.8707444,41,207.26960
D1,Buriti dos Lopes/PI,-3.1776723,-41.8707444,2,10.11071
1,Buriti dos Montes/PI,-5.3136171,-41.0971256,3,36.39010
D1,Buriti dos Montes/PI,-5.3136171,-41.0971256,1,12.13003
1,Buriti/MA,-3.9430944,-42.9244281,87,303.36844
1,Buriticupu/MA,-4.3227472,-46.4516989,625,863.76075
D1,Buriticupu/MA,-4.3227472,-46.4516989,2,2.76403
1,Buritirama/BA,-10.7148421,-43.6362327,4,18.89109
1,Buritirana/MA,-5.5897455,-47.0148915,135,874.91899
D1,Buritirana/MA,-5.5897455,-47.0148915,3,19.44264
1,Buritis/RO,-10.2054937,-63.8281954,33,83.21985
D1,Buritis/RO,-10.2054937,-63.8281954,1,2.52181
1,Buritizal/SP,-20.1933264,-47.7097165,2,44.63289
1,Butiá/RS,-30.1256795,-51.9692224,2,9.55064
1,Buíque/PE,-8.6239732,-37.157296,30,51.38922
D1,Buíque/PE,-8.6239732,-37.157296,1,1.71297
1,Bálsamo/SP,-20.7343722,-49.5807484,2,22.05558
0,CASO SEM LOCALIZAÇÃO DEFINIDA/AC,-9.884083190922777,-67.85119819780795,263,29.82079
D0,CASO SEM LOCALIZAÇÃO DEFINIDA/AC,-9.884083190922777,-67.85119819780795,9,1.02048
0,CASO SEM LOCALIZAÇÃO DEFINIDA/AL,-9.931093434363673,-35.609611600637464,897,26.87756
D0,CASO SEM LOCALIZAÇÃO DEFINIDA/AL,-9.931093434363673,-35.609611600637464,30,0.89891
D0,CASO SEM LOCALIZAÇÃO DEFINIDA/AM,-3.07518492149711,-60.16169212873594,25,0.60319
0,CASO SEM LOCALIZAÇÃO DEFINIDA/BA,-13.415069300066518,-38.14174656569957,582,3.91311
D0,CASO SEM LOCALIZAÇÃO DEFINIDA/BA,-13.415069300066518,-38.14174656569957,4,0.02689
0,CASO SEM LOCALIZAÇÃO DEFINIDA/CE,-3.3445126297392798,-38.624961942434304,7668,83.96775
D0,CASO SEM LOCALIZAÇÃO DEFINIDA/CE,-3.3445126297392798,-38.624961942434304,77,0.84318
0,CASO SEM LOCALIZAÇÃO DEFINIDA/ES,-20.30989267097039,-39.81745156645774,323,8.03753
D0,CASO SEM LOCALIZAÇÃO DEFINIDA/ES,-20.30989267097039,-39.81745156645774,4,0.09954
0,CASO SEM LOCALIZAÇÃO DEFINIDA/GO,-16.701590966270153,-49.164524059025034,509,7.25241
D0,CASO SEM LOCALIZAÇÃO DEFINIDA/GO,-16.701590966270153,-49.164524059025034,3,0.04275
0,CASO SEM LOCALIZAÇÃO DEFINIDA/MG,-19.97049116501593,-43.8852149072783,2214,10.45879
D0,CASO SEM LOCALIZAÇÃO DEFINIDA/MG,-19.97049116501593,-43.8852149072783,43,0.20313
0,CASO SEM LOCALIZAÇÃO DEFINIDA/MS,-20.391549234908513,-54.645156949758444,72,2.59087
D0,CASO SEM LOCALIZAÇÃO DEFINIDA/MS,-20.391549234908513,-54.645156949758444,1,0.03598
0,CASO SEM LOCALIZAÇÃO DEFINIDA/MT,-15.54791153961863,-56.17143998972475,50,1.43494
D0,CASO SEM LOCALIZAÇÃO DEFINIDA/MT,-15.54791153961863,-56.17143998972475,2,0.05740
0,CASO SEM LOCALIZAÇÃO DEFINIDA/PA,-0.09317078214359542,-48.0050231510481,2911,33.83756
D0,CASO SEM LOCALIZAÇÃO DEFINIDA/PA,-0.09317078214359542,-48.0050231510481,122,1.41813
0,CASO SEM LOCALIZAÇÃO DEFINIDA/PE,-8.121628543819208,-34.57313921302556,1062,11.11219
D0,CASO SEM LOCALIZAÇÃO DEFINIDA/PE,-8.121628543819208,-34.57313921302556,84,0.87893
0,CASO SEM LOCALIZAÇÃO DEFINIDA/PR,-25.69415946385943,-48.10141676336737,853,7.46023
D0,CASO SEM LOCALIZAÇÃO DEFINIDA/PR,-25.69415946385943,-48.10141676336737,22,0.19241
0,CASO SEM LOCALIZAÇÃO DEFINIDA/RJ,-23.210238986465157,-43.12864305824042,2134,12.36031
D0,CASO SEM LOCALIZAÇÃO DEFINIDA/RJ,-23.210238986465157,-43.12864305824042,146,0.84564
0,CASO SEM LOCALIZAÇÃO DEFINIDA/RN,-5.749310788669161,-34.95302586257457,194,5.53203
D0,CASO SEM LOCALIZAÇÃO DEFINIDA/RN,-5.749310788669161,-34.95302586257457,13,0.37070
0,CASO SEM LOCALIZAÇÃO DEFINIDA/RR,2.813328208465927,-60.663338675861986,511,84.35670
D0,CASO SEM LOCALIZAÇÃO DEFINIDA/RR,2.813328208465927,-60.663338675861986,15,2.47622
0,CASO SEM LOCALIZAÇÃO DEFINIDA/RS,-30.50647488532064,-49.906261466443524,573,5.03637
D0,CASO SEM LOCALIZAÇÃO DEFINIDA/RS,-30.50647488532064,-49.906261466443524,11,0.09668
0,CASO SEM LOCALIZAÇÃO DEFINIDA/SC,-27.675643660562308,-48.18313219398259,909,12.68705
D0,CASO SEM LOCALIZAÇÃO DEFINIDA/SC,-27.675643660562308,-48.18313219398259,4,0.05583
0,CASO SEM LOCALIZAÇÃO DEFINIDA/SE,-11.03002091978736,-36.89283180376513,4,0.17401
0,CASO SEM LOCALIZAÇÃO DEFINIDA/SP,-24.30968974555485,-46.21366504207253,5445,11.85782
D0,CASO SEM LOCALIZAÇÃO DEFINIDA/SP,-24.30968974555485,-46.21366504207253,281,0.61195
0,CASO SEM LOCALIZAÇÃO DEFINIDA/TO,-10.213012114749148,-48.40023803990334,301,19.13704
D0,CASO SEM LOCALIZAÇÃO DEFINIDA/TO,-10.213012114749148,-48.40023803990334,2,0.12716
1,Caapiranga/AM,-3.3188884,-61.2096404,104,795.04625
D1,Caapiranga/AM,-3.3188884,-61.2096404,2,15.28935
1,Caaporã/PB,-7.510234,-34.9154114,431,1974.52813
D1,Caaporã/PB,-7.510234,-34.9154114,5,22.90636
1,Caarapó/MS,-22.6349267,-54.8240903,3,9.94233
1,Cabaceiras do Paraguaçu/BA,-12.5377868,-39.1901339,2,10.63434
1,Cabaceiras/PB,-7.4899156,-36.2860501,1,17.82214
1,Cabeceiras do Piauí/PI,-4.4733665,-42.3098716,3,28.33932
1,Cabeceiras/GO,-15.7995459,-46.9264991,1,12.51095
D1,Cabeceiras/GO,-15.7995459,-46.9264991,1,12.51095
1,Cabedelo/PB,-6.97324,-34.8351609,1003,1480.74879
D1,Cabedelo/PB,-6.97324,-34.8351609,8,11.81056
1,Cabixi/RO,-13.4956065,-60.5424442,3,56.47590
1,Cabo Frio/RJ,-22.8804369,-42.0189227,416,183.64419
D1,Cabo Frio/RJ,-22.8804369,-42.0189227,22,9.71195
1,Cabo de Santo Agostinho/PE,-8.2838945,-35.0320984,703,339.53479
D1,Cabo de Santo Agostinho/PE,-8.2838945,-35.0320984,107,51.67884
1,Cabreúva/SP,-23.3075813,-47.1324417,70,140.82524
D1,Cabreúva/SP,-23.3075813,-47.1324417,4,8.04716
1,Cabrobó/PE,-8.5083701,-39.3106961,3,8.76655
D1,Cabrobó/PE,-8.5083701,-39.3106961,1,2.92218
1,Cacaulândia/RO,-10.3380043,-62.9007231,4,64.20546
1,Cachoeira Alta/GO,-18.7618269,-50.9432431,1,8.01025
1,Cachoeira Dourada/GO,-18.4934204,-49.481062,3,37.18855
1,Cachoeira Dourada/MG,-18.517136,-49.5002062,2,74.29421
1,Cachoeira Grande/MA,-2.9290492,-44.0573223,34,360.51320
D1,Cachoeira Grande/MA,-2.9290492,-44.0573223,2,21.20666
1,Cachoeira Paulista/SP,-22.666498,-45.015384,10,30.00570
1,Cachoeira de Minas/MG,-22.3554043,-45.7796324,1,8.66026
1,Cachoeira de Pajeú/MG,-15.965833,-41.496666,1,10.62473
1,Cachoeira do Arari/PA,-1.0143572,-48.9621089,85,357.63874
D1,Cachoeira do Arari/PA,-1.0143572,-48.9621089,9,37.86763
1,Cachoeira do Piriá/PA,-1.7599443,-46.5446954,64,188.79056
1,Cachoeira do Sul/RS,-30.0474778,-52.8905413,35,42.57856
1,Cachoeira dos Índios/PB,-6.9259193,-38.6742159,9,87.85631
D1,Cachoeira dos Índios/PB,-6.9259193,-38.6742159,1,9.76181
1,Cachoeira/BA,-12.5998256,-38.9665918,9,26.88975
1,Cachoeiras de Macacu/RJ,-22.4626861,-42.6534414,138,234.14833
D1,Cachoeiras de Macacu/RJ,-22.4626861,-42.6534414,19,32.23781
1,Cachoeirinha/PE,-8.4906364,-36.2338963,42,206.08440
D1,Cachoeirinha/PE,-8.4906364,-36.2338963,3,14.72031
1,Cachoeirinha/RS,-29.9493353,-51.0898927,118,90.56511
1,Cachoeirinha/TO,-6.118647,-47.9208885,9,395.60440
1,Cachoeiro de Itapemirim/ES,-20.848084,-41.11129,380,181.84254
D1,Cachoeiro de Itapemirim/ES,-20.848084,-41.11129,15,7.17800
1,Cacimba de Areia/PB,-7.1288513,-37.1575194,5,135.79576
1,Cacimba de Dentro/PB,-6.6425101,-35.7929304,29,168.73218
1,Cacimbas/PB,-7.2125451,-37.0593398,5,69.70584
1,Cacimbinhas/AL,-9.401212,-36.991082,18,165.77639
D1,Cacimbinhas/AL,-9.401212,-36.991082,1,9.20980
1,Cacique Doble/RS,-27.7700117,-51.6616409,2,39.48667
1,Cacoal/RO,-11.4333,-61.4420502,81,94.89333
D1,Cacoal/RO,-11.4333,-61.4420502,1,1.17152
1,Caconde/SP,-21.527995,-46.643659,1,5.26732
1,Caetanos/BA,-14.3387456,-40.9085971,2,13.75327
1,Caetanópolis/MG,-19.2947496,-44.4138386,3,25.80867
1,Caetité/BA,-14.0691776,-42.4852428,8,15.69397
1,Caeté/MG,-19.897777,-43.670278,10,22.36236
1,Caetés/PE,-8.7728788,-36.6255835,40,139.18369
D1,Caetés/PE,-8.7728788,-36.6255835,2,6.95918
1,Cafeara/PR,-22.78905,-51.714195,1,34.08316
1,Cafelândia/PR,-24.6176963,-53.3218057,2,11.03753
1,Caiabu/SP,-22.0143038,-51.2356597,3,71.58196
D1,Caiabu/SP,-22.0143038,-51.2356597,1,23.86065
1,Caiapônia/GO,-16.9538779,-51.8090761,1,5.28737
1,Caibi/SC,-27.0751925,-53.2502133,6,97.59271
1,Caicó/RN,-6.4594544,-37.0971911,64,94.18413
D1,Caicó/RN,-6.4594544,-37.0971911,1,1.47163
1,Caieiras/SP,-23.3644621,-46.7484765,338,333.10338
D1,Caieiras/SP,-23.3644621,-46.7484765,37,36.46398
1,Cairu/BA,-13.4860505,-39.0455744,23,126.54049
D1,Cairu/BA,-13.4860505,-39.0455744,1,5.50176
1,Caiuá/SP,-21.8319357,-51.9887179,2,34.04835
1,Caiçara do Norte/RN,-5.0645017,-36.0561226,12,183.23408
1,Caiçara do Rio do Vento/RN,-5.757968,-36.00089,8,217.15527
D1,Caiçara do Rio do Vento/RN,-5.757968,-36.00089,1,27.14441
1,Caiçara/PB,-6.6146866,-35.4681434,28,388.83488
D1,Caiçara/PB,-6.6146866,-35.4681434,1,13.88696
1,Cajamar/SP,-23.3561111,-46.8769444,320,416.66124
D1,Cajamar/SP,-23.3561111,-46.8769444,23,29.94753
1,Cajapió/MA,-2.8778715,-44.6746871,4,35.78778
D1,Cajapió/MA,-2.8778715,-44.6746871,1,8.94694
1,Cajari/MA,-3.3213076,-45.0118757,112,577.94520
1,Cajati/SP,-24.7272376,-48.1077914,20,70.05499
1,Cajazeiras do Piauí/PI,-6.794271,-42.3935024,1,28.09778
1,Cajazeiras/PB,-6.8897849,-38.5570389,126,203.24875
D1,Cajazeiras/PB,-6.8897849,-38.5570389,5,8.06543
1,Cajazeirinhas/PB,-6.961442,-37.7993733,1,31.31851
1,Cajobi/SP,-20.8776238,-48.8106972,6,56.91520
D1,Cajobi/SP,-20.8776238,-48.8106972,1,9.48587
1,Cajueiro da Praia/PI,-2.931114,-41.340801,2,26.17116
1,Cajueiro/AL,-9.399589,-36.1524309,34,159.89466
D1,Cajueiro/AL,-9.399589,-36.1524309,1,4.70278
1,Cajuri/MG,-20.7901414,-42.7954489,1,25.08151
1,Cajuru/SP,-21.2759978,-47.3046035,5,19.10804
D1,Cajuru/SP,-21.2759978,-47.3046035,1,3.82161
1,Caldas Brandão/PB,-7.1027959,-35.3254676,18,299.30163
1,Caldas Novas/GO,-17.745,-48.625,22,24.13286
D1,Caldas Novas/GO,-17.745,-48.625,2,2.19390
1,Caldas/MG,-21.923611,-46.386111,14,96.68508
1,Caldeirão Grande do Piauí/PI,-7.3310393,-40.6374433,3,51.93906
1,Caldeirão Grande/BA,-11.0208483,-40.3041387,5,37.51782
1,Calumbi/PE,-7.9389746,-38.1516871,2,34.78261
1,Calçado/PE,-8.7413446,-36.3351787,2,18.09463
1,Calçoene/AP,2.4981757,-50.9539503,142,1277.32302
D1,Calçoene/AP,2.4981757,-50.9539503,1,8.99523
1,Camacan/BA,-15.4166631,-39.4930088,76,237.58910
1,Camamu/BA,-13.9438142,-39.1060917,9,25.48420
1,Camanducaia/MG,-22.755278,-46.144444,54,248.04777
D1,Camanducaia/MG,-22.755278,-46.144444,1,4.59348
1,Camapuã/MS,-19.5291747,-54.0434641,2,14.58683
1,Camaquã/RS,-30.8524752,-51.8075619,16,24.14693
D1,Camaquã/RS,-30.8524752,-51.8075619,1,1.50918
1,Camaragibe/PE,-8.0213832,-34.9810768,970,614.59310
D1,Camaragibe/PE,-8.0213832,-34.9810768,76,48.15369
1,Camargo/RS,-28.5865661,-52.2031474,6,219.53897
1,Camaçari/BA,-12.6998188,-38.3260762,286,95.60996
D1,Camaçari/BA,-12.6998188,-38.3260762,6,2.00580
1,Cambará/PR,-23.042273,-50.075281,2,7.88644
1,Camboriú/SC,-27.0273601,-48.6535657,144,173.51697
D1,Camboriú/SC,-27.0273601,-48.6535657,5,6.02489
1,Cambuci/RJ,-21.5749919,-41.9107833,33,212.83457
1,Cambuquira/MG,-21.853056,-45.2953619,3,23.41189
1,Cambuí/MG,-22.6122501,-46.0572137,37,125.20727
1,Cambé/PR,-23.2782035,-51.2779583,49,45.99514
D1,Cambé/PR,-23.2782035,-51.2779583,1,0.93868
1,Cametá/PA,-2.242949,-49.497885,1510,1095.07579
D1,Cametá/PA,-2.242949,-49.497885,48,34.81036
1,Camocim de São Félix/PE,-8.3616757,-35.7638903,28,149.21396
D1,Camocim de São Félix/PE,-8.3616757,-35.7638903,1,5.32907
1,Camocim/CE,-2.9009918,-40.8427389,364,571.77864
D1,Camocim/CE,-2.9009918,-40.8427389,13,20.42067
1,Campanha/MG,-21.8361108,-45.401986,1,6.00060
1,Campestre da Serra/RS,-28.7966535,-51.0958149,1,29.51594
1,Campestre de Goiás/GO,-16.7624179,-49.69497,1,27.54821
1,Campestre do Maranhão/MA,-6.1729113,-47.3640512,102,709.61458
D1,Campestre do Maranhão/MA,-6.1729113,-47.3640512,1,6.95701
1,Campestre/AL,-8.8481634,-35.5660033,21,302.76817
D1,Campestre/AL,-8.8481634,-35.5660033,2,28.83506
1,Campestre/MG,-19.6142116,-43.219378,1,4.74947
1,Campina Grande do Sul/PR,-25.3046032,-49.0545355,49,113.19534
D1,Campina Grande do Sul/PR,-25.3046032,-49.0545355,3,6.93033
1,Campina Grande/PB,-7.2246743,-35.8771292,2006,489.58951
D1,Campina Grande/PB,-7.2246743,-35.8771292,40,9.76250
1,Campina Verde/MG,-19.535277,-49.486389,5,25.32287
1,Campina da Lagoa/PR,-24.5937926,-52.8038965,2,14.08252
D1,Campina da Lagoa/PR,-24.5937926,-52.8038965,1,7.04126
1,Campina do Monte Alegre/SP,-23.5935653,-48.4801876,6,99.60159
1,Campinas do Piauí/PI,-7.6593687,-41.8814875,2,35.63157
1,Campinas do Sul/RS,-27.7167968,-52.6257885,5,91.67583
1,Campinas/SP,-22.90556,-47.06083,2247,186.61659
D1,Campinas/SP,-22.90556,-47.06083,90,7.47463
1,Campinorte/GO,-14.3136699,-49.1510931,8,63.36132
1,Campo Alegre de Goiás/GO,-17.6337896,-47.779291,2,26.35393
1,Campo Alegre de Lourdes/BA,-9.5160326,-43.0101338,19,65.97680
1,Campo Alegre do Fidalgo/PI,-8.3753852,-41.8364191,1,19.82161
1,Campo Alegre/AL,-9.7798607,-36.3575793,29,50.82102
D1,Campo Alegre/AL,-9.7798607,-36.3575793,1,1.75245
1,Campo Belo/MG,-20.8975,-45.277223,6,11.10515
1,Campo Bom/RS,-29.674694,-51.060601,23,34.47656
1,Campo Bonito/PR,-25.0328004,-52.992976,13,339.15993
1,Campo Erê/SC,-26.3947432,-53.0790495,2,23.45766
1,Campo Formoso/BA,-10.51055,-40.320031,2,2.80875
1,Campo Grande do Piauí/PI,-7.1327559,-41.0381164,22,370.18341
1,Campo Grande/AL,-9.9725,-36.74791447368421,14,146.47416
D1,Campo Grande/AL,-9.9725,-36.74791447368421,1,10.46244
1,Campo Grande/MS,-20.4640173,-54.6162947,341,38.05880
D1,Campo Grande/MS,-20.4640173,-54.6162947,7,0.78127
1,Campo Largo do Piauí/PI,-3.8104731,-42.6288333,1,13.73815
1,Campo Largo/PR,-25.4597726,-49.5270851,43,32.57526
D1,Campo Largo/PR,-25.4597726,-49.5270851,2,1.51513
1,Campo Limpo Paulista/SP,-23.207791,-46.788919,94,111.04548
D1,Campo Limpo Paulista/SP,-23.207791,-46.788919,14,16.53869
1,Campo Limpo de Goiás/GO,-16.297101,-49.0894994,1,12.83862
1,Campo Magro/PR,-25.3691533,-49.4496921,3,10.23262
1,Campo Maior/PI,-4.8339574,-42.1739786,195,416.37307
D1,Campo Maior/PI,-4.8339574,-42.1739786,4,8.54099
1,Campo Mourão/PR,-24.046329,-52.37802,57,60.08919
D1,Campo Mourão/PR,-24.046329,-52.37802,4,4.21678
1,Campo Novo de Rondônia/RO,-10.5704235,-63.6199511,9,63.65372
D1,Campo Novo de Rondônia/RO,-10.5704235,-63.6199511,1,7.07264
1,Campo Novo do Parecis/MT,-13.658735,-57.890723,28,79.18552
1,Campo Novo/RS,-28.91500235,-52.331375687737626,2,44.60303
1,Campo Redondo/RN,-6.2420373,-36.1830606,9,80.23536
1,Campo Verde/MT,-15.5430787,-55.1590511,63,143.04852
1,Campo do Brito/SE,-10.7496246,-37.4942276,11,60.74328
1,Campo do Tenente/PR,-25.9814143,-49.684518,1,12.54548
1,Campos Altos/MG,-19.696389,-46.171389,4,25.87155
1,Campos Belos/GO,-13.0349839,-46.768112,16,80.45457
D1,Campos Belos/GO,-13.0349839,-46.768112,1,5.02841
1,Campos Gerais/MG,-21.2333342,-45.7584127,4,13.90144
1,Campos Lindos/TO,-7.9740597,-46.8023881,2,19.77066
1,Campos Novos/SC,-27.3962904,-51.2224397,3,8.27723
1,Campos Sales/CE,-7.0742675,-40.3740367,52,189.60111
D1,Campos Sales/CE,-7.0742675,-40.3740367,1,3.64618
1,Campos de Júlio/MT,-13.7223646,-59.2645296,10,145.11682
1,Campos do Jordão/SP,-22.7395263,-45.5912829,41,78.71295
D1,Campos do Jordão/SP,-22.7395263,-45.5912829,1,1.91983
1,Campos dos Goytacazes/RJ,-21.7558619,-41.3326895,840,165.50159
D1,Campos dos Goytacazes/RJ,-21.7558619,-41.3326895,40,7.88103
1,Camutanga/PE,-7.4092965,-35.2738166,21,245.58531
D1,Camutanga/PE,-7.4092965,-35.2738166,3,35.08362
1,Cana Verde/MG,-21.021308,-45.1817881,6,107.08549
1,Canabrava do Norte/MT,-11.0516481,-51.8301897,5,105.41851
1,Cananéia/SP,-25.0104609,-47.9315628,17,135.56619
D1,Cananéia/SP,-25.0104609,-47.9315628,2,15.94896
1,Canapi/AL,-9.1173572,-37.6011704,3,16.92811
D1,Canapi/AL,-9.1173572,-37.6011704,1,5.64270
1,Canarana/BA,-11.6870151,-41.7683675,7,26.74205
1,Canarana/MT,-13.5564602,-52.2691167,16,74.14616
1,Canas/SP,-22.7029347,-45.0526508,1,19.46283
1,Canavieiras/BA,-15.61621745,-39.08485321304444,27,86.81951
D1,Canavieiras/BA,-15.61621745,-39.08485321304444,1,3.21554
1,Canaã dos Carajás/PA,-6.5296837,-49.8516592,1077,2904.13914
D1,Canaã dos Carajás/PA,-6.5296837,-49.8516592,15,40.44762
1,Candeal/BA,-11.8053441,-39.1206515,1,12.10947
1,Candeias do Jamari/RO,-8.7949939,-63.7018851,147,550.70618
D1,Candeias do Jamari/RO,-8.7949939,-63.7018851,2,7.49260
1,Candeias/BA,-12.6693806,-38.5406462,245,281.36341
D1,Candeias/BA,-12.6693806,-38.5406462,5,5.74211
1,Candeias/MG,-20.7676161,-45.2763777,4,26.87089
1,Candelária/RS,-29.668391,-52.789495,8,25.50614
1,Candiba/BA,-14.4125032,-42.8714102,3,20.95118
1,Candiota/RS,-31.5451894,-53.719538,1,10.43406
1,Candói/PR,-25.5711951,-52.051107,3,18.77464
1,Canela/RS,-29.3624657,-50.8134204,6,13.33393
D1,Canela/RS,-29.3624657,-50.8134204,1,2.22232
1,Canelinha/SC,-27.2660341,-48.7666708,4,32.67974
1,Canguaretama/RN,-6.3751942,-35.137463,56,163.37962
D1,Canguaretama/RN,-6.3751942,-35.137463,7,20.42245
1,Canguçu/RS,-31.398276,-52.6773522,18,32.11705
1,Canhoba/SE,-10.1373681,-36.9710796,2,49.90020
1,Canhotinho/PE,-8.876519,-36.197935,18,72.56894
D1,Canhotinho/PE,-8.876519,-36.197935,1,4.03161
1,Canindé de São Francisco/SE,-9.6597475,-37.7904456,42,140.46823
D1,Canindé de São Francisco/SE,-9.6597475,-37.7904456,2,6.68896
1,Canindé/CE,-4.3547946,-39.3108516,534,693.53351
D1,Canindé/CE,-4.3547946,-39.3108516,15,19.48128
1,Canoas/RS,-29.9216045,-51.1799525,125,36.06296
D1,Canoas/RS,-29.9216045,-51.1799525,7,2.01953
1,Canoinhas/SC,-26.176591,-50.395001,54,99.26288
1,Cansanção/BA,-10.6671448,-39.498199,10,28.70758
1,Cantagalo/PR,-25.3735238,-52.1238114,1,7.50920
1,Cantagalo/RJ,-21.9811325,-42.3682522,8,39.65893
D1,Cantagalo/RJ,-21.9811325,-42.3682522,1,4.95737
1,Cantanhede/MA,-3.6355005,-44.3778738,162,736.53103
D1,Cantanhede/MA,-3.6355005,-44.3778738,1,4.54649
1,Canto do Buriti/PI,-8.1112473,-42.944844,4,18.87950
D1,Canto do Buriti/PI,-8.1112473,-42.944844,1,4.71988
1,Cantá/RR,2.60994,-60.605827,170,927.18844
D1,Cantá/RR,2.60994,-60.605827,3,16.36215
1,Canudos do Vale/RS,-29.3240418,-52.2348494,4,233.10023
1,Canudos/BA,-9.8948692,-39.0266244,12,71.99424
1,Canutama/AM,-6.5330019,-64.3834966,36,230.34103
1,Canápolis/MG,-18.7228793,-49.2016329,1,8.23045
1,Capanema/PA,-1.1933054,-47.1828679,409,592.52177
D1,Capanema/PA,-1.1933054,-47.1828679,38,55.05092
1,Capanema/PR,-25.6704878,-53.8083036,5,26.14516
1,Caparaó/MG,-20.5232726,-41.9049984,1,18.38911
1,Capela de Santana/RS,-29.6926603,-51.3206659,1,8.37521
1,Capela do Alto Alegre/BA,-11.6703944,-39.8362745,2,17.18656
1,Capela do Alto/SP,-23.4704798,-47.7352309,45,217.32831
1,Capela/AL,-9.415041,-36.082583,117,686.09629
D1,Capela/AL,-9.415041,-36.082583,1,5.86407
1,Capela/SE,-10.50494,-37.0552566,33,96.45456
D1,Capela/SE,-10.50494,-37.0552566,1,2.92287
1,Capetinga/MG,-20.6193382,-47.0577418,1,14.45087
1,Capim Branco/MG,-19.548333,-44.133056,2,20.50441
1,Capim Grosso/BA,-11.3793228,-40.0112095,28,91.31824
D1,Capim Grosso/BA,-11.3793228,-40.0112095,3,9.78410
1,Capim/PB,-6.9174091,-35.1720326,44,674.53626
D1,Capim/PB,-6.9174091,-35.1720326,1,15.33037
1,Capinzal do Norte/MA,-4.7304006,-44.3249063,98,896.28681
1,Capinzal/SC,-27.3440651,-51.6110403,2,8.75350
1,Capinópolis/MG,-18.682778,-49.569723,4,24.73258
1,Capistrano/CE,-4.4644692,-38.8956734,176,992.22009
D1,Capistrano/CE,-4.4644692,-38.8956734,4,22.55046
1,Capitão Enéas/MG,-16.3236018,-43.7154584,10,65.64264
1,Capitão Gervásio Oliveira/PI,-8.4954657,-41.8169342,3,73.17073
1,Capitão Leônidas Marques/PR,-25.481645,-53.611238,2,12.67427
1,Capitão Poço/PA,-1.7447162,-47.0638495,288,530.35744
D1,Capitão Poço/PA,-1.7447162,-47.0638495,17,31.30582
1,Capitão/RS,-29.2718294,-51.9869716,10,362.71309
1,Capitólio/MG,-20.6142437,-46.0487652,2,23.16960
D1,Capitólio/MG,-20.6142437,-46.0487652,1,11.58480
1,Capivari de Baixo/SC,-28.449773,-48.963144,24,96.49793
1,Capivari/SP,-22.995144,-47.50715,56,100.41601
1,Capixaba/AC,-10.5741345,-67.6759719,51,434.67144
D1,Capixaba/AC,-10.5741345,-67.6759719,1,8.52297
1,Capoeiras/PE,-8.7386788,-36.6268109,10,49.88029
D1,Capoeiras/PE,-8.7386788,-36.6268109,1,4.98803
1,Capão Bonito/SP,-24.0048759,-48.3489848,23,48.79291
D1,Capão Bonito/SP,-24.0048759,-48.3489848,4,8.48572
1,Capão da Canoa/RS,-29.7542937,-50.0215684,15,28.27575
D1,Capão da Canoa/RS,-29.7542937,-50.0215684,1,1.88505
1,Capão do Leão/RS,-31.766133,-52.5013148,1,3.94415
1,Caracaraí/RR,1.827598,-61.125389,23,104.89829
1,Caracol/PI,-9.2804898,-43.3284924,3,27.48259
1,Caraguatatuba/SP,-23.62028,-45.41306,175,143.99500
D1,Caraguatatuba/SP,-23.62028,-45.41306,8,6.58263
1,Carambeí/PR,-24.9513298,-50.1171293,3,12.81230
1,Caranaíba/MG,-20.8736914,-43.7379458,2,62.83380
1,Carandaí/MG,-20.9523934,-43.8043903,6,23.52849
1,Carangola/MG,-20.733056,-42.029445,89,269.69697
D1,Carangola/MG,-20.733056,-42.029445,2,6.06061
1,Carapebus/RJ,-22.1869969,-41.6633764,33,202.44157
D1,Carapebus/RJ,-22.1869969,-41.6633764,1,6.13459
1,Carapicuíba/SP,-23.5234673,-46.8406808,1198,298.80751
D1,Carapicuíba/SP,-23.5234673,-46.8406808,83,20.70202
1,Caratinga/MG,-19.7900887,-42.140533,30,32.58674
1,Carauari/AM,-4.8766426,-66.8961433,264,933.06001
D1,Carauari/AM,-4.8766426,-66.8961433,2,7.06864
1,Caravelas/BA,-17.7296514,-39.2660082,1,4.54215
1,Carazinho/RS,-28.2981634,-52.7942363,44,70.84205
1,Caraíbas/BA,-14.72496,-41.2566163,3,33.51581
1,Caraúbas do Piauí/PI,-3.4757229,-41.8431178,5,85.20791
1,Caraúbas/PB,-7.7273231,-36.4923357,1,24.02691
1,Caraúbas/RN,-5.7889323,-37.5548751,44,214.70746
1,Carbonita/MG,-17.5308667,-43.0136207,1,10.63264
1,Cardeal da Silva/BA,-11.9428154,-37.9494462,6,64.55083
1,Cardoso Moreira/RJ,-21.4894916,-41.6152776,22,171.56672
1,Cardoso/SP,-20.080447,-49.9139767,1,8.11293
1,Careaçu/MG,-22.0440585,-45.6949091,1,14.79947
1,Careiro da Várzea/AM,-3.197024,-59.8259104,52,172.04301
D1,Careiro da Várzea/AM,-3.197024,-59.8259104,1,3.30852
1,Careiro/AM,-3.8185277,-60.3616505,734,1938.26085
D1,Careiro/AM,-3.8185277,-60.3616505,13,34.32887
1,Cariacica/ES,-20.263202,-40.416549,2201,577.25848
D1,Cariacica/ES,-20.263202,-40.416549,125,32.78388
1,Caridade/CE,-4.2316487,-39.1946515,82,363.68475
D1,Caridade/CE,-4.2316487,-39.1946515,8,35.48144
1,Carira/SE,-10.358303,-37.701473,6,27.17145
D1,Carira/SE,-10.358303,-37.701473,1,4.52858
1,Cariri do Tocantins/TO,-11.8882727,-49.1604216,57,1300.77590
D1,Cariri do Tocantins/TO,-11.8882727,-49.1604216,1,22.82063
1,Caririaçu/CE,-7.0417053,-39.2835527,15,55.62767
D1,Caririaçu/CE,-7.0417053,-39.2835527,3,11.12553
1,Cariré/CE,-3.948584,-40.476028,112,607.11188
D1,Cariré/CE,-3.948584,-40.476028,1,5.42064
1,Cariús/CE,-6.5348688,-39.4966658,7,37.43516
D1,Cariús/CE,-6.5348688,-39.4966658,2,10.69576
1,Carlos Barbosa/RS,-29.2978372,-51.5005613,188,630.17464
D1,Carlos Barbosa/RS,-29.2978372,-51.5005613,3,10.05598
1,Carlos Chagas/MG,-21.744351,-43.3908675,1,5.30870
1,Carmo da Cachoeira/MG,-21.460556,-45.223334,1,8.21693
1,Carmo da Mata/MG,-20.558334,-44.8703774,1,8.71384
1,Carmo de Minas/MG,-22.1216655,-45.1323836,1,6.72993
1,Carmo do Cajuru/MG,-20.184444,-44.770834,42,186.84936
D1,Carmo do Cajuru/MG,-20.184444,-44.770834,2,8.89759
1,Carmo do Paranaíba/MG,-18.9992327,-46.306916,6,19.78305
1,Carmo do Rio Claro/MG,-20.973315,-46.1186754,6,28.26855
1,Carmo do Rio Verde/GO,-15.3549139,-49.707975,3,29.75600
1,Carmo/RJ,-21.9341749,-42.6091737,23,121.72532
1,Carmolândia/TO,-7.033804,-48.3951295,2,77.51938
D1,Carmolândia/TO,-7.033804,-48.3951295,1,38.75969
1,Carmópolis de Minas/MG,-20.541224,-44.6350611,13,67.16611
1,Carmópolis/SE,-10.64835,-36.98493,22,132.25923
D1,Carmópolis/SE,-10.64835,-36.98493,1,6.01178
1,Carnaubais/RN,-5.3383681,-36.8335566,21,195.18543
1,Carnaubal/CE,-4.1611842,-40.9412317,29,164.71657
1,Carnaubeira da Penha/PE,-8.3192809,-38.7435891,5,38.66378
D1,Carnaubeira da Penha/PE,-8.3192809,-38.7435891,1,7.73276
1,Carnaíba/PE,-7.805964,-37.7947314,18,92.06690
D1,Carnaíba/PE,-7.805964,-37.7947314,4,20.45931
1,Carnaúba dos Dantas/RN,-6.5560588,-36.5930811,4,48.89976
D1,Carnaúba dos Dantas/RN,-6.5560588,-36.5930811,2,24.44988
1,Carneiros/AL,-9.4832948,-37.3757121,14,154.16804
1,Caroebe/RR,0.8812315,-59.6932274,67,658.86518
D1,Caroebe/RR,0.8812315,-59.6932274,1,9.83381
1,Carolina/MA,-7.3313437,-47.4738762,48,197.35219
1,Carpina/PE,-7.8459151,-35.2538861,135,161.40410
D1,Carpina/PE,-7.8459151,-35.2538861,21,25.10730
1,Carrancas/MG,-21.4910462,-44.6436151,1,24.70966
1,Carrapateira/PB,-7.0395225,-38.3432281,1,37.60812
1,Caruaru/PE,-8.2829702,-35.9722852,468,129.59753
D1,Caruaru/PE,-8.2829702,-35.9722852,40,11.07671
1,Carutapera/MA,-1.2016638,-46.0205618,119,499.85298
D1,Carutapera/MA,-1.2016638,-46.0205618,9,37.80401
1,Casa Branca/SP,-21.7743137,-47.0852175,5,16.45820
1,Casa Nova/BA,-9.1736775,-40.9734475,24,33.34769
1,Casca/RS,-28.5634054,-51.9741902,7,77.51080
1,Cascalho Rico/MG,-18.579344,-47.875774,1,32.52033
1,Cascavel/CE,-4.129666,-38.241178,362,504.57884
D1,Cascavel/CE,-4.129666,-38.241178,25,34.84661
1,Cascavel/PR,-24.9554996,-53.4560544,586,178.41159
D1,Cascavel/PR,-24.9554996,-53.4560544,8,2.43565
1,Caseara/TO,-9.273159,-49.9576837,2,37.25088
1,Caseiros/RS,-28.2721149,-51.6873536,6,187.38289
1,Casimiro de Abreu/RJ,-22.4809932,-42.2039976,166,375.70161
D1,Casimiro de Abreu/RJ,-22.4809932,-42.2039976,6,13.57958
1,Casinhas/PE,-7.744698,-35.7250923,6,41.83809
1,Casserengue/PB,-6.779538,-35.817875,19,254.41885
1,Castanhal/PA,-1.2927031,-47.9223903,891,443.74057
D1,Castanhal/PA,-1.2927031,-47.9223903,98,48.80648
1,Castelo do Piauí/PI,-5.3230426,-41.5546185,10,50.72023
1,Castelo/ES,-20.6034476,-41.2033505,26,69.27053
D1,Castelo/ES,-20.6034476,-41.2033505,2,5.32850
1,Castelândia/GO,-18.089062,-50.220798,3,87.33624
1,Castilho/SP,-20.8695636,-51.4877792,5,23.80272
D1,Castilho/SP,-20.8695636,-51.4877792,1,4.76054
1,Castro Alves/BA,-12.7616941,-39.4281088,25,95.18733
D1,Castro Alves/BA,-12.7616941,-39.4281088,1,3.80749
1,Castro/PR,-24.794072,-49.9972914,4,5.59566
1,Cataguases/MG,-21.387426,-42.6957219,40,53.24601
D1,Cataguases/MG,-21.387426,-42.6957219,2,2.66230
1,Catalão/GO,-18.1702546,-47.9447082,25,22.97308
D1,Catalão/GO,-18.1702546,-47.9447082,1,0.91892
1,Catanduva/SP,-21.1331035,-48.9712817,134,109.96045
D1,Catanduva/SP,-21.1331035,-48.9712817,10,8.20600
1,Catanduvas/PR,-25.2043528,-53.154826,2,19.62901
1,Catanduvas/SC,-27.0689719,-51.660158,14,128.90157
1,Catarina/CE,-6.1341578,-39.8795321,17,82.13354
D1,Catarina/CE,-6.1341578,-39.8795321,1,4.83138
1,Catas Altas da Noruega/MG,-20.690277,-43.4975,2,54.92996
1,Catas Altas/MG,-20.0744,-43.4075,10,186.01190
1,Catende/PE,-8.6900588,-35.748470825,142,331.06407
D1,Catende/PE,-8.6900588,-35.748470825,10,23.31437
1,Catiguá/SP,-21.0491485,-49.0578923,2,25.62788
1,Catingueira/PB,-7.120081,-37.60638,5,101.37875
1,Catolé do Rocha/PB,-6.340625,-37.746967,60,196.42506
D1,Catolé do Rocha/PB,-6.340625,-37.746967,2,6.54750
1,Catu/BA,-12.351274,-38.379108,37,67.63674
D1,Catu/BA,-12.351274,-38.379108,1,1.82802
1,Catuji/MG,-17.3024568,-41.5168387,6,95.07210
1,Catunda/CE,-4.6494224,-40.2002603,17,164.37826
1,Caturaí/GO,-16.4473559,-49.4919149,1,19.72387
1,Caturité/PB,-7.4199652,-36.0207132,16,329.76092
1,Caucaia/CE,-3.7300563,-38.6593082,2072,573.32595
D1,Caucaia/CE,-3.7300563,-38.6593082,137,37.90814
1,Cavalcante/GO,-13.7928414,-47.4568521,1,10.29972
1,Caxambu do Sul/SC,-27.1615046,-52.8796675,27,741.35091
D1,Caxambu do Sul/SC,-27.1615046,-52.8796675,1,27.45744
1,Caxambu/MG,-21.9770359,-44.9318289,9,41.55892
D1,Caxambu/MG,-21.9770359,-44.9318289,1,4.61766
1,Caxias do Sul/RS,-29.1684796,-51.1793861,207,40.51626
D1,Caxias do Sul/RS,-29.1684796,-51.1793861,5,0.97865
1,Caxias/MA,-4.8654201,-43.353664,340,206.21058
D1,Caxias/MA,-4.8654201,-43.353664,10,6.06502
1,Caxingó/PI,-3.4208396,-41.8925637,3,55.30973
1,Caçador/SC,-26.77567,-51.0120041,21,26.71926
D1,Caçador/SC,-26.77567,-51.0120041,1,1.27235
1,Caçapava do Sul/RS,-30.5113286,-53.4916761,16,47.58506
D1,Caçapava do Sul/RS,-30.5113286,-53.4916761,1,2.97407
1,Caçapava/SP,-23.099204,-45.707645,59,62.59084
D1,Caçapava/SP,-23.099204,-45.707645,3,3.18258
1,Caçu/GO,-18.5637222,-51.1369685,23,143.66919
1,Caém/BA,-11.0909658,-40.4322187,3,32.56268
1,Ceará-Mirim/RN,-5.633588,-35.4248407,127,172.79617
D1,Ceará-Mirim/RN,-5.633588,-35.4248407,13,17.68780
1,Cedral/MA,-2.000269,-44.528114,32,299.76581
1,Cedral/SP,-20.9028433,-49.2699665,4,43.30410
1,Cedro de São João/SE,-10.2506778,-36.8816067,30,508.73325
1,Cedro/CE,-6.6065382,-39.0599487,11,43.04105
D1,Cedro/CE,-6.6065382,-39.0599487,2,7.82564
1,Cedro/PE,-7.7186318,-39.2363385,4,33.87821
1,Centenário do Sul/PR,-22.821497,-51.5951456,5,46.18084
1,Central do Maranhão/MA,-2.1967253,-44.8290757,7,80.71025
1,Centralina/MG,-18.5843349,-49.1954739,14,135.26570
D1,Centralina/MG,-18.5843349,-49.1954739,1,9.66184
1,Centro Novo do Maranhão/MA,-2.1361032,-46.1248528,117,541.11553
D1,Centro Novo do Maranhão/MA,-2.1361032,-46.1248528,2,9.24984
1,Centro do Guilherme/MA,-2.4511749,-46.039127,20,148.61049
1,Cerejeiras/RO,-13.186987,-60.816836,5,30.63162
D1,Cerejeiras/RO,-13.186987,-60.816836,2,12.25265
1,Ceres/GO,-15.3103568,-49.6032054,4,18.02533
1,Cerqueira César/SP,-23.0353135,-49.1650519,5,25.01876
1,Cerquilho/SP,-23.1626556,-47.7433878,16,32.68708
D1,Cerquilho/SP,-23.1626556,-47.7433878,3,6.12883
1,Cerro Corá/RN,-6.0412685,-36.3464694,1,8.94534
D1,Cerro Corá/RN,-6.0412685,-36.3464694,1,8.94534
1,Cerro Grande do Sul/RS,-30.5962963,-51.7517196,1,8.17060
D1,Cerro Grande do Sul/RS,-30.5962963,-51.7517196,1,8.17060
1,Cesário Lange/SP,-23.226035,-47.954453,8,44.08199
D1,Cesário Lange/SP,-23.226035,-47.954453,1,5.51025
1,Cezarina/GO,-16.9718289,-49.775814,1,11.61980
1,Chalé/MG,-20.0419748,-41.6914563,3,52.59467
1,Chapada dos Guimarães/MT,-15.464343,-55.749857,12,60.75334
D1,Chapada dos Guimarães/MT,-15.464343,-55.749857,2,10.12556
1,Chapada/RS,-28.0587829,-53.0657459,3,32.36595
1,Chapadinha/MA,-3.7416803,-43.3548006,1192,1496.07782
D1,Chapadinha/MA,-3.7416803,-43.3548006,6,7.53059
1,Chapadão do Céu/GO,-18.3951972,-52.6670783,11,108.19317
1,Chapadão do Sul/MS,-18.7949051,-52.6199512,24,95.17012
1,Chapecó/SC,-27.0922364,-52.6166878,954,432.91418
D1,Chapecó/SC,-27.0922364,-52.6166878,4,1.81515
1,Charqueada/SP,-22.50958,-47.775468,58,337.40547
D1,Charqueada/SP,-22.50958,-47.775468,3,17.45201
1,Charqueadas/RS,-29.955012,-51.6249195,14,34.32298
1,Chaval/CE,-3.0339874,-41.2438452,87,665.69745
D1,Chaval/CE,-3.0339874,-41.2438452,3,22.95508
1,Chavantes/SP,-23.0406405,-49.7071698,1,8.05283
1,Chaves/PA,-0.164154,-49.987006,37,156.00624
D1,Chaves/PA,-0.164154,-49.987006,1,4.21638
1,Chiador/MG,-22.002778,-43.057222,16,595.45962
1,Chiapetta/RS,-27.923162,-53.9419052,1,26.62407
1,Chopinzinho/PR,-25.8566167,-52.5294107,5,25.96863
1,Chorozinho/CE,-4.3010895,-38.4976923,108,532.96486
D1,Chorozinho/CE,-4.3010895,-38.4976923,8,39.47888
1,Choró/CE,-4.8435726,-39.1393071,109,806.15339
D1,Choró/CE,-4.8435726,-39.1393071,3,22.18771
1,Chupinguaia/RO,-12.5528918,-60.9027819,4,35.77178
1,Chácara/MG,-21.6727567,-43.2206851,1,31.70577
1,Chã Grande/PE,-8.238271,-35.457148,90,414.78477
D1,Chã Grande/PE,-8.238271,-35.457148,5,23.04360
1,Chã Preta/AL,-9.255605,-36.298334,7,95.74614
1,Chã de Alegria/PE,-7.9959409,-35.2134636,74,547.41826
D1,Chã de Alegria/PE,-7.9959409,-35.2134636,4,29.59018
1,Cianorte/PR,-23.662036,-52.6103989,90,108.93246
D1,Cianorte/PR,-23.662036,-52.6103989,1,1.21036
1,Cidade Gaúcha/PR,-23.3816558,-52.9444098,2,15.80778
D1,Cidade Gaúcha/PR,-23.3816558,-52.9444098,1,7.90389
1,Cidade Ocidental/GO,-16.1000758,-47.9445014,41,57.44228
D1,Cidade Ocidental/GO,-16.1000758,-47.9445014,1,1.40103
1,Cidelândia/MA,-5.174655,-47.7833531,75,510.30823
1,Cidreira/RS,-30.1657063,-50.218331,9,55.37099
D1,Cidreira/RS,-30.1657063,-50.218331,1,6.15233
1,Cipó/BA,-11.0990534,-38.5153006,1,5.78035
1,Ciríaco/RS,-28.3429139,-51.8763682,2,42.13187
1,Clevelândia/PR,-26.404065,-52.3513972,2,12.07802
1,Cláudio/MG,-20.4448485,-44.7655217,3,10.48328
1,Coaraci/BA,-14.6407979,-39.5496765,39,229.50627
D1,Coaraci/BA,-14.6407979,-39.5496765,2,11.76955
1,Coari/AM,-4.0885957,-63.1431166,2066,2427.81767
D1,Coari/AM,-4.0885957,-63.1431166,59,69.33264
1,Cocal de Telha/PI,-4.5553648,-41.9722429,26,531.58863
1,Cocal do Sul/SC,-28.6007346,-49.3248697,18,107.88780
D1,Cocal do Sul/SC,-28.6007346,-49.3248697,1,5.99377
1,Cocal dos Alves/PI,-3.59964,-41.444741,2,32.50447
1,Cocal/PI,-3.4691882,-41.555851,19,68.37730
D1,Cocal/PI,-3.4691882,-41.555851,1,3.59881
1,Cocalzinho de Goiás/GO,-15.7762854,-48.7730427,7,34.58498
1,Cocos/BA,-14.1811222,-44.5382117,8,42.60532
1,Codajás/AM,-3.8413202,-62.0603444,61,213.01114
D1,Codajás/AM,-3.8413202,-62.0603444,2,6.98397
1,Codó/MA,-4.455623,-43.892354,1098,893.70742
D1,Codó/MA,-4.455623,-43.892354,5,4.06971
1,Coelho Neto/MA,-4.2535154,-43.0149321,403,815.21189
D1,Coelho Neto/MA,-4.2535154,-43.0149321,3,6.06857
1,Coimbra/MG,-21.5733599,-45.1979819,1,13.23452
1,Coité do Nóia/AL,-9.633484,-36.584493,8,74.81530
1,Coivaras/PI,-5.0927005,-42.2052489,4,99.50249
1,Colares/PA,-0.936423,-48.280254,62,513.03269
D1,Colares/PA,-0.936423,-48.280254,4,33.09888
1,Colatina/ES,-19.5346732,-40.6287836,427,348.57427
D1,Colatina/ES,-19.5346732,-40.6287836,5,4.08167
1,Colina/SP,-20.711443,-48.53867,10,54.14771
D1,Colina/SP,-20.711443,-48.53867,2,10.82954
1,Colinas do Tocantins/TO,-8.0612688,-48.4716768,99,279.47154
D1,Colinas do Tocantins/TO,-8.0612688,-48.4716768,1,2.82294
1,Colinas/MA,-6.0332631,-44.2528542,112,271.98990
D1,Colinas/MA,-6.0332631,-44.2528542,1,2.42848
1,Colinas/RS,-29.3866023,-51.8697911,13,533.22395
1,Colméia/TO,-8.734098,-48.7510897,3,36.56307
1,Colniza/MT,-9.4560637,-59.2197132,1,2.59188
1,Colombo/PR,-25.2925439,-49.2243472,66,27.07959
1,Colorado/PR,-22.8385097,-51.9730135,7,29.15209
1,Colorado/RS,-28.525842,-52.99282,2,62.99213
1,Colíder/MT,-10.8094999,-55.4540386,9,26.91549
1,Colônia Leopoldina/AL,-8.918058,-35.721414,38,175.13135
D1,Colônia Leopoldina/AL,-8.918058,-35.721414,2,9.21744
1,Colônia do Gurguéia/PI,-8.183697,-43.793999,4,61.69031
D1,Colônia do Gurguéia/PI,-8.183697,-43.793999,1,15.42258
1,Colônia do Piauí/PI,-7.2320268,-42.1777122,3,39.18495
1,Comendador Levy Gasparian/RJ,-22.028685,-43.204655,15,175.21318
1,Comercinho/MG,-16.2965093,-41.7930954,1,14.43210
1,Comodoro/MT,-13.6581107,-59.786883,6,28.89756
1,Conceição da Barra/ES,-18.5841421,-39.7371844,15,48.28896
D1,Conceição da Barra/ES,-18.5841421,-39.7371844,1,3.21926
1,Conceição da Feira/BA,-12.5013001,-39.0002166,17,75.28453
1,Conceição das Alagoas/MG,-19.9194009,-48.3803414,2,7.17026
1,Conceição de Macabu/RJ,-22.0849986,-41.8679947,85,365.93766
D1,Conceição de Macabu/RJ,-22.0849986,-41.8679947,1,4.30515
1,Conceição do Almeida/BA,-12.7772763,-39.1692214,4,23.19244
1,Conceição do Araguaia/PA,-8.2696905,-49.2676864,38,79.39161
D1,Conceição do Araguaia/PA,-8.2696905,-49.2676864,1,2.08925
1,Conceição do Castelo/ES,-20.3601311,-41.2470343,18,141.47607
D1,Conceição do Castelo/ES,-20.3601311,-41.2470343,1,7.85978
1,Conceição do Coité/BA,-11.5629384,-39.2839543,21,31.52585
1,Conceição do Jacuípe/BA,-12.326831,-38.768433,13,39.21214
1,Conceição do Lago-Açu/MA,-3.8410056,-44.8930565,55,338.73252
D1,Conceição do Lago-Açu/MA,-3.8410056,-44.8930565,2,12.31755
1,Conceição do Mato Dentro/MG,-19.037222,-43.425278,2,11.20951
1,Conceição do Rio Verde/MG,-21.881078,-45.0868526,2,14.66491
1,Conceição dos Ouros/MG,-22.413056,-45.797777,2,17.18508
1,Conceição/PB,-7.5565059,-38.5053706,7,36.87704
1,Conchal/SP,-22.337512,-47.172927,9,32.08556
1,Conchas/SP,-23.0133538,-48.0077595,12,67.05409
D1,Conchas/SP,-23.0133538,-48.0077595,1,5.58784
1,Concórdia do Pará/PA,-1.9924056,-47.9450474,159,477.21952
D1,Concórdia do Pará/PA,-1.9924056,-47.9450474,4,12.00552
1,Concórdia/SC,-27.2312011,-52.0231024,935,1252.66275
D1,Concórdia/SC,-27.2312011,-52.0231024,10,13.39746
1,Condado/PB,-6.9092101,-37.5966375,43,646.22783
1,Condado/PE,-7.587868,-35.09994,105,397.41115
D1,Condado/PE,-7.587868,-35.09994,17,64.34276
1,Conde/BA,-11.8129758,-37.6138705,7,27.09293
D1,Conde/BA,-11.8129758,-37.6138705,1,3.87042
1,Conde/PB,-7.2600359,-34.9053524,114,462.09972
D1,Conde/PB,-7.2600359,-34.9053524,2,8.10701
1,Condeúba/BA,-14.902227,-41.971829,9,52.18299
1,Condor/RS,-28.2058277,-53.4844696,10,148.08233
1,Confresa/MT,-10.643695,-51.569873,126,407.33198
D1,Confresa/MT,-10.643695,-51.569873,3,9.69838
1,Congo/PB,-7.80963435,-36.641233278035656,11,229.83702
D1,Congo/PB,-7.80963435,-36.641233278035656,1,20.89427
1,Congonhal/MG,-22.1532505,-46.0404698,1,8.36820
1,Congonhas/MG,-20.5015168,-43.8564586,27,49.30426
D1,Congonhas/MG,-20.5015168,-43.8564586,1,1.82608
1,Congonhinhas/PR,-23.5497241,-50.5520182,2,22.68088
1,Conquista D'Oeste/MT,-14.5381171,-59.5443775,7,173.35315
1,Conselheiro Lafaiete/MG,-20.6596107,-43.785743,36,27.99617
1,Conselheiro Mairinck/PR,-23.6229983,-50.1706779,5,129.53368
1,Conselheiro Pena/MG,-19.1720883,-41.471995,6,26.17687
1,Contagem/MG,-19.9132749,-44.0840953,297,44.73869
D1,Contagem/MG,-19.9132749,-44.0840953,13,1.95826
1,Contenda/PR,-25.678811,-49.535044,3,16.14292
D1,Contenda/PR,-25.678811,-49.535044,1,5.38097
1,Coqueiral/MG,-21.1898365,-45.4409829,1,10.91822
1,Coqueiro Seco/AL,-9.637147,-35.799377,49,838.32335
D1,Coqueiro Seco/AL,-9.637147,-35.799377,1,17.10864
1,Coqueiros do Sul/RS,-28.1184032,-52.7824375,4,173.46054
1,Coração de Maria/BA,-12.2484345,-38.7499274,10,44.23800
1,Corbélia/PR,-24.7951117,-53.2961804,9,52.72099
1,Cordeiro/RJ,-22.0287681,-42.3607442,40,182.43182
1,Cordeirópolis/SP,-22.4768324,-47.4550551,50,203.84866
1,Cordilheira Alta/SC,-26.9853947,-52.603549,3,67.37031
1,Coreaú/CE,-3.5519794,-40.6528409,189,816.90871
D1,Coreaú/CE,-3.5519794,-40.6528409,2,8.64454
1,Coremas/PB,-7.0175897,-37.9465062,17,110.06798
1,Corguinho/MS,-19.827429,-54.8322243,1,16.81520
1,Corinto/MG,-18.363056,-44.456111,25,105.34744
1,Cornélio Procópio/PR,-23.1825218,-50.6499263,107,223.63883
D1,Cornélio Procópio/PR,-23.1825218,-50.6499263,1,2.09008
1,Coroados/SP,-21.3554634,-50.2853589,12,198.08518
D1,Coroados/SP,-21.3554634,-50.2853589,1,16.50710
1,Coroatá/MA,-4.1282283,-44.1360269,179,274.13624
D1,Coroatá/MA,-4.1282283,-44.1360269,1,1.53149
1,Coromandel/MG,-18.473889,-47.200278,7,25.02324
1,Coronel Bicaco/RS,-27.7174002,-53.705821,3,40.95563
1,Coronel Domingos Soares/PR,-26.22394,-52.0314509,49,653.59477
1,Coronel Fabriciano/MG,-19.5200067,-42.6282686,99,90.11879
1,Coronel Freitas/SC,-26.9058932,-52.7028055,5,50.09518
1,Coronel João Pessoa/RN,-6.2607103,-38.4424915,2,40.71661
D1,Coronel João Pessoa/RN,-6.2607103,-38.4424915,1,20.35831
1,Coronel João Sá/BA,-10.2856387,-37.9259435,15,94.36930
1,Coronel Macedo/SP,-23.6304001,-49.313234,1,21.36296
1,Coronel Martins/SC,-26.5124719,-52.6681763,3,117.69321
1,Coronel Pacheco/MG,-21.5878865,-43.2615975,1,32.40441
1,Coronel Vivida/PR,-25.9803771,-52.5654277,1,4.82300
1,Corrente/PI,-10.4401356,-45.1627472,24,90.07657
1,Correntes/PE,-9.1295585,-36.3287438,5,27.46197
D1,Correntes/PE,-9.1295585,-36.3287438,1,5.49239
1,Correntina/BA,-13.344157,-44.6345066,1,3.11168
1,Cortês/PE,-8.4724921,-35.5431197,38,302.11480
D1,Cortês/PE,-8.4724921,-35.5431197,9,71.55351
1,Corumbaíba/GO,-18.1348982,-48.564223,1,10.28489
D1,Corumbaíba/GO,-18.1348982,-48.564223,1,10.28489
1,Corumbá de Goiás/GO,-15.9268355,-48.8074659,2,18.00180
1,Corumbá/MS,-19.0016365,-57.6534316,57,51.15090
1,Corupá/SC,-26.42464,-49.245968,6,37.71450
1,Coruripe/AL,-10.1249963,-36.1760623,220,386.41912
D1,Coruripe/AL,-10.1249963,-36.1760623,8,14.05160
1,Cosmorama/SP,-20.475472,-49.782747,5,68.42754
D1,Cosmorama/SP,-20.475472,-49.782747,1,13.68551
1,Cosmópolis/SP,-22.6437398,-47.1972086,29,40.13730
D1,Cosmópolis/SP,-22.6437398,-47.1972086,1,1.38404
1,Costa Marques/RO,-12.4367165,-64.2279765,4,21.82096
1,Costa Rica/MS,-18.5333859,-53.1394286,3,14.40715
1,Cotia/SP,-23.603889,-46.918889,683,274.06605
D1,Cotia/SP,-23.603889,-46.918889,58,23.27354
1,Cotriguaçu/MT,-9.9034364,-58.5658915,5,25.31646
D1,Cotriguaçu/MT,-9.9034364,-58.5658915,1,5.06329
1,Couto Magalhães/TO,-8.360583,-49.1773955,18,322.11883
1,Couto de Magalhães de Minas/MG,-18.073016,-43.4718628,4,90.70295
1,Coxilha/RS,-28.1254442,-52.2979903,24,870.82729
1,Coxim/MS,-18.504915,-54.7450251,8,23.84998
1,Coxixola/PB,-7.6272915,-36.606013,7,364.39355
1,Crateús/CE,-5.1782451,-40.6696545,211,281.05602
D1,Crateús/CE,-5.1782451,-40.6696545,8,10.65615
1,Crato/CE,-7.2369112,-39.4149236,65,49.19658
1,Cravinhos/SP,-21.340278,-47.729444,27,76.50459
D1,Cravinhos/SP,-21.340278,-47.729444,1,2.83350
1,Cravolândia/BA,-13.3576247,-39.8153954,2,37.39017
1,Craíbas/AL,-9.6168038,-36.7684669,88,363.35109
D1,Craíbas/AL,-9.6168038,-36.7684669,1,4.12899
1,Criciúma/SC,-28.6789941,-49.3695627,387,179.84441
D1,Criciúma/SC,-28.6789941,-49.3695627,9,4.18243
1,Crissiumal/RS,-27.4982242,-54.1024643,1,7.43605
1,Cristalina/GO,-16.7676079,-47.6131281,9,15.25501
D1,Cristalina/GO,-16.7676079,-47.6131281,1,1.69500
1,Cristina/MG,-22.212222,-45.264167,2,19.52744
1,Cristino Castro/PI,-8.8163934,-44.2211062,1,9.59417
D1,Cristino Castro/PI,-8.8163934,-44.2211062,1,9.59417
1,Cristinápolis/SE,-11.4757019,-37.7555212,14,78.32606
1,Cristópolis/BA,-12.2349301,-44.4160811,4,28.75629
1,Crisólita/MG,-17.2391664,-40.9132444,5,74.58234
1,Crisópolis/BA,-11.5105813,-38.1506278,2,9.47733
1,Crixás do Tocantins/TO,-11.1039404,-48.918827,1,58.07201
1,Croatá/CE,-4.4156199,-40.9048081,10,55.36179
1,Cromínia/GO,-17.2891983,-49.3749654,1,28.68617
1,Cruz Alta/RS,-28.645056,-53.6058047,18,29.85124
D1,Cruz Alta/RS,-28.645056,-53.6058047,1,1.65840
1,Cruz das Almas/BA,-12.6722649,-39.1053665,25,39.53257
1,Cruz do Espírito Santo/PB,-7.139022,-35.085721,128,739.07269
D1,Cruz do Espírito Santo/PB,-7.139022,-35.085721,8,46.19204
1,Cruz/CE,-2.918128,-40.175981,237,954.60587
D1,Cruz/CE,-2.918128,-40.175981,5,20.13936
1,Cruzaltense/RS,-27.667414,-52.6487833,7,381.88762
1,Cruzeiro do Iguaçu/PR,-25.6142278,-53.1299075,6,141.11007
1,Cruzeiro do Oeste/PR,-23.7839582,-53.0709425,5,23.88687
1,Cruzeiro do Sul/AC,-7.6307956,-72.6703869,809,915.40690
D1,Cruzeiro do Sul/AC,-7.6307956,-72.6703869,15,16.97293
1,Cruzeiro do Sul/PR,-22.9623678,-52.1625688,6,134.25822
1,Cruzeiro do Sul/RS,-29.5139742,-51.9917068,56,453.51474
D1,Cruzeiro do Sul/RS,-29.5139742,-51.9917068,2,16.19695
1,Cruzeiro/SP,-22.5783685,-44.9642044,33,40.12744
D1,Cruzeiro/SP,-22.5783685,-44.9642044,2,2.43197
1,Cruzeta/RN,-6.4113343,-36.7872964,11,137.53438
1,Cruzília/MG,-21.838333,-44.808056,5,32.43173
1,Cubati/PB,-6.8647974,-36.3525993,3,38.47634
1,Cubatão/SP,-23.8857982,-46.4241869,509,389.42657
D1,Cubatão/SP,-23.8857982,-46.4241869,46,35.19376
1,Cuiabá/MT,-15.5986686,-56.0991301,975,159.17146
D1,Cuiabá/MT,-15.5986686,-56.0991301,13,2.12229
1,Cuitegi/PB,-6.8962776,-35.5228851,54,793.76746
D1,Cuitegi/PB,-6.8962776,-35.5228851,1,14.69940
1,Cuité de Mamanguape/PB,-6.912922,-35.250219,10,157.40595
1,Cuité/PB,-6.4855072,-36.1478606,10,49.16904
D1,Cuité/PB,-6.4855072,-36.1478606,1,4.91690
1,Cujubim/RO,-9.3687919,-62.5832107,30,118.97680
D1,Cujubim/RO,-9.3687919,-62.5832107,1,3.96589
1,Cumari/GO,-18.2644369,-48.1511341,5,175.19271
1,Cumaru do Norte/PA,-7.8122669,-50.7677675,25,185.55630
1,Cumaru/PE,-8.0065285,-35.6991651,25,229.23162
D1,Cumaru/PE,-8.0065285,-35.6991651,1,9.16926
1,Cumbe/SE,-10.3552462,-37.1828788,1,25.08151
1,Cunha Porã/SC,-26.8927163,-53.1716516,16,144.32618
1,Cunha/SP,-23.07753,-44.9567436,5,23.20509
1,Cunhataí/SC,-26.9735014,-53.0914014,1,50.96840
1,Cupira/PE,-8.6053148,-35.9530366,45,186.66777
D1,Cupira/PE,-8.6053148,-35.9530366,3,12.44452
1,Curaçá/BA,-8.9925655,-39.9053169,33,95.10086
1,Curimatá/PI,-10.0349005,-44.3033114,8,70.24939
1,Curionópolis/PA,-6.0990443,-49.6059039,332,1851.74856
D1,Curionópolis/PA,-6.0990443,-49.6059039,6,33.46534
1,Curitiba/PR,-25.4295963,-49.2712724,1099,56.85154
D1,Curitiba/PR,-25.4295963,-49.2712724,53,2.74170
1,Curitibanos/SC,-27.2917869,-50.5768954,5,12.58020
1,Curiúva/PR,-24.0383013,-50.455484,3,19.86623
1,Currais Novos/RN,-6.2626676,-36.5173039,33,73.68374
D1,Currais Novos/RN,-6.2626676,-36.5173039,1,2.23284
1,Curral Novo do Piauí/PI,-7.8316503,-40.9006904,1,18.71608
1,Curral Velho/PB,-7.5376473,-38.1979125,1,39.74563
1,Curral de Cima/PB,-6.7174163,-35.266704,10,191.31433
1,Curralinho/PA,-1.8137876,-49.7980165,96,278.68091
D1,Curralinho/PA,-1.8137876,-49.7980165,4,11.61170
1,Curralinhos/PI,-5.6190404,-42.8280018,3,67.52194
1,Cururupu/MA,-1.824255,-44.872996,121,370.08717
D1,Cururupu/MA,-1.824255,-44.872996,2,6.11714
1,Curuá/PA,-1.887754,-55.116842,20,138.95644
1,Curuçá/PA,-0.7276792,-47.856568,367,915.98862
D1,Curuçá/PA,-0.7276792,-47.856568,36,89.85174
1,Curvelo/MG,-18.7571926,-44.4305993,47,58.65542
1,Curvelândia/MT,-15.6108629,-57.9188924,4,76.64304
D1,Curvelândia/MT,-15.6108629,-57.9188924,1,19.16076
1,Custódia/PE,-8.0861426,-37.6401873,65,175.15023
D1,Custódia/PE,-8.0861426,-37.6401873,7,18.86233
1,Cutias/AP,0.9708625,-50.8000608,159,2657.52967
D1,Cutias/AP,0.9708625,-50.8000608,2,33.42805
1,Cáceres/MT,-16.0658939,-57.6852775,36,38.14529
D1,Cáceres/MT,-16.0658939,-57.6852775,4,4.23837
1,Cássia dos Coqueiros/SP,-21.280082,-47.164327,2,79.27071
1,Cândido Mendes/MA,-1.4531117,-45.7273136,19,94.16196
D1,Cândido Mendes/MA,-1.4531117,-45.7273136,1,4.95589
1,Cândido Mota/SP,-22.7434964,-50.38924,6,19.18159
1,Cândido Rodrigues/SP,-21.3255615,-48.6308798,10,358.03795
1,Cândido Sales/BA,-15.5037649,-41.2391141,13,51.60983
1,Céu Azul/PR,-25.1484973,-53.8494214,9,76.49809
1,Cícero Dantas/BA,-10.5932265,-38.3834411,2,6.15101
1,Córrego Novo/MG,-19.832223,-42.395833,1,36.08805
1,Córrego do Bom Jesus/MG,-22.630556,-46.019723,9,242.98056
1,Córrego do Ouro/GO,-16.2960629,-50.5512216,1,42.97379
1,Damião/PB,-6.64317595,-35.933835193092264,2,37.52345
1,Damolândia/GO,-16.2548322,-49.3675277,1,34.03676
1,Darcinópolis/TO,-6.7085964,-47.7524283,127,2082.99164
1,David Canabarro/RS,-28.3878667,-51.8472645,1,21.09705
1,Davinópolis/MA,-5.5265775,-47.3942217,103,797.95476
D1,Davinópolis/MA,-5.5265775,-47.3942217,3,23.24140
1,Delfim Moreira/MG,-22.5086783,-45.2792398,7,87.22741
1,Delfinópolis/MG,-20.344749,-46.8546425,1,14.05679
1,Delmiro Gouveia/AL,-9.3841161,-37.997756,32,61.51953
D1,Delmiro Gouveia/AL,-9.3841161,-37.997756,2,3.84497
1,Delta/MG,-19.9769,-47.7711,1,9.49397
1,Demerval Lobão/PI,-5.3640643,-42.673993,97,702.03373
D1,Demerval Lobão/PI,-5.3640643,-42.673993,1,7.23746
1,Denise/MT,-14.7252735,-57.0480299,4,42.27436
1,Deodápolis/MS,-22.276272,-54.168163,4,30.95017
1,Deputado Irapuan Pinheiro/CE,-5.9173532,-39.2672104,4,41.55844
1,Derrubadas/RS,-27.2657279,-53.8618488,1,35.65062
1,Descalvado/SP,-21.9090404,-47.6203241,10,29.65775
D1,Descalvado/SP,-21.9090404,-47.6203241,1,2.96577
1,Descanso/SC,-26.8246854,-53.5017586,3,36.36364
1,Descoberto/MG,-21.459444,-42.967223,1,19.94813
1,Desterro/PB,-7.2889695,-37.0880761,11,132.57804
1,Diadema/SP,-23.681347,-46.62052,1418,334.52548
D1,Diadema/SP,-23.681347,-46.62052,93,21.93996
1,Diamante do Norte/PR,-22.6565442,-52.8589113,1,19.65795
1,Diamante do Sul/PR,-25.0436147,-52.6800923,7,203.54754
1,Diamante/PB,-7.4261827,-38.2646879,1,15.26252
1,Diamantina/MG,-18.2440862,-43.6006487,9,18.85883
1,Dianópolis/TO,-11.624008,-46.819787,2,9.03383
1,Dias d'Ávila/BA,-12.6107233,-38.3028518,94,115.92201
D1,Dias d'Ávila/BA,-12.6107233,-38.3028518,4,4.93285
1,Diogo de Vasconcelos/MG,-20.4868723,-43.1984645,3,78.90584
1,Dionísio Cerqueira/SC,-26.2604681,-53.6346379,1,6.45245
D1,Dionísio Cerqueira/SC,-26.2604681,-53.6346379,1,6.45245
1,Dionísio/MG,-19.841944,-42.776945,5,64.69142
1,Dirceu Arcoverde/PI,-9.3413101,-42.4362055,28,399.37241
1,Divina Pastora/SE,-10.6783231,-37.1482727,7,136.23978
1,Divino das Laranjeiras/MG,-18.7775,-41.479167,1,20.08435
1,Divino de São Lourenço/ES,-20.6201409,-41.6834749,9,209.10781
1,Divino/MG,-20.6151497,-42.1474733,5,25.08655
1,Divinolândia/SP,-21.6604584,-46.7371151,1,8.97183
1,Divinésia/MG,-20.990277,-43.003889,1,29.26544
1,Divinópolis do Tocantins/TO,-9.8015722,-49.2143531,2,28.98551
1,Divinópolis/MG,-20.1434559,-44.89125,199,83.53272
D1,Divinópolis/MG,-20.1434559,-44.89125,2,0.83952
1,Divisa Alegre/MG,-15.7207751,-41.3442809,5,73.68111
1,Divisa Nova/MG,-21.5126801,-46.1926626,1,16.63617
1,Dobrada/SP,-21.5180904,-48.3938897,4,44.79785
1,Dois Córregos/SP,-22.3697554,-48.3845315,5,18.30496
D1,Dois Córregos/SP,-22.3697554,-48.3845315,2,7.32198
1,Dois Irmãos/RS,-29.58356,-51.089776,7,21.42573
1,Dois Riachos/AL,-9.384645,-37.096502,13,117.38149
1,Dois Vizinhos/PR,-25.7464681,-53.0554369,1,2.46057
1,Dolcinópolis/SP,-20.1230736,-50.513261,3,141.84397
D1,Dolcinópolis/SP,-20.1230736,-50.513261,1,47.28132
1,Dom Aquino/MT,-15.809899,-54.922298,5,61.13964
1,Dom Basílio/BA,-13.7589818,-41.7715676,3,24.59218
1,Dom Bosco/MG,-16.6516044,-46.2677917,1,27.19608
1,Dom Cavati/MG,-19.3744152,-42.1067301,1,19.71609
1,Dom Eliseu/PA,-4.2928111,-47.5559083,334,559.28599
D1,Dom Eliseu/PA,-4.2928111,-47.5559083,4,6.69804
1,Dom Expedito Lopes/PI,-6.9644926,-41.648155,13,188.29664
1,Dom Feliciano/RS,-30.70214,-52.1080845,3,19.46283
1,Dom Inocêncio/PI,-9.0009167,-41.974038,3,31.39389
1,Dom Pedrito/RS,-30.983755,-54.6746483,17,44.20062
D1,Dom Pedrito/RS,-30.983755,-54.6746483,1,2.60004
1,Dom Pedro/MA,-5.0389999,-44.4377854,40,171.30621
1,Domingos Martins/ES,-20.3646483,-40.6585797,121,357.45938
1,Domingos Mourão/PI,-4.2544732,-41.2722903,1,22.96211
1,Dona Emma/SC,-26.9849398,-49.7265136,3,72.35890
1,Dona Inês/PB,-6.6032239,-35.627146,3,28.69989
1,Dores do Indaiá/MG,-19.4636451,-45.60166,1,7.41675
1,Dores do Rio Preto/ES,-20.6893254,-41.84819,1,14.81701
1,Dormentes/PE,-8.441163,-40.766168,27,142.79670
1,Douradina/MS,-22.0402812,-54.6118292,67,1130.99257
1,Douradina/PR,-23.3847331,-53.2932989,2,22.86498
1,Dourado/SP,-22.1124638,-48.3151079,3,33.81044
1,Dourados/MS,-22.2206145,-54.812208,419,187.93536
D1,Dourados/MS,-22.2206145,-54.812208,2,0.89707
1,Doutor Camargo/PR,-23.5575611,-52.2185546,2,33.45041
1,Doutor Maurício Cardoso/RS,-27.5067264,-54.3626756,5,109.91427
D1,Doutor Maurício Cardoso/RS,-27.5067264,-54.3626756,2,43.96571
1,Doutor Ricardo/RS,-29.0901549,-51.9894847,3,151.28593
1,Doutor Severiano/RN,-6.0948339,-38.3748,6,84.79367
1,Dracena/SP,-21.4835523,-51.5334408,37,79.07166
D1,Dracena/SP,-21.4835523,-51.5334408,2,4.27414
1,Duartina/SP,-22.414562,-49.408355,4,32.14142
1,Duas Barras/RJ,-22.0522519,-42.5194705,4,34.80682
1,Duas Estradas/PB,-6.6883382,-35.4175255,28,778.64294
1,Dueré/TO,-11.341631,-49.271566,5,106.70081
1,Dumont/SP,-21.2391417,-47.9747665,4,40.53506
1,Duque Bacelar/MA,-4.1542795,-42.946096,57,502.24689
1,Duque de Caxias/RJ,-22.7896225,-43.309929,1688,183.55887
D1,Duque de Caxias/RJ,-22.7896225,-43.309929,286,31.10061
1,Durandé/MG,-20.203611,-41.798055,2,25.50695
1,Dário Meira/BA,-14.4332181,-39.9028712,10,93.37068
1,Echaporã/SP,-22.4325855,-50.2037693,1,16.38807
1,Ecoporanga/ES,-18.3720918,-40.8321351,68,296.64529
D1,Ecoporanga/ES,-18.3720918,-40.8321351,4,17.44972
1,Edéia/GO,-17.3407253,-49.9292351,7,56.57937
1,Eirunepé/AM,-6.6567654,-69.866161,177,501.80024
1,Eldorado do Carajás/PA,-6.1029246,-49.3572487,12,35.49456
D1,Eldorado do Carajás/PA,-6.1029246,-49.3572487,1,2.95788
1,Eldorado do Sul/RS,-29.9984639,-51.3091977,16,38.75500
D1,Eldorado do Sul/RS,-29.9984639,-51.3091977,1,2.42219
1,Eldorado/SP,-24.522583,-48.1093489,5,32.27056
D1,Eldorado/SP,-24.522583,-48.1093489,1,6.45411
1,Elesbão Veloso/PI,-6.2032654,-42.1376937,30,205.45131
D1,Elesbão Veloso/PI,-6.2032654,-42.1376937,1,6.84838
1,Elias Fausto/SP,-23.0416538,-47.3718002,7,39.38780
D1,Elias Fausto/SP,-23.0416538,-47.3718002,1,5.62683
1,Elisiário/SP,-21.1673392,-49.1111015,1,27.38976
1,Elói Mendes/MG,-21.6094466,-45.5660211,6,21.37057
1,Emas/PB,-7.1071447,-37.7155578,1,28.39296
1,Embaúba/SP,-20.9819513,-48.837455,1,40.78303
1,Embu das Artes/SP,-23.6495294,-46.8528497,621,226.86920
D1,Embu das Artes/SP,-23.6495294,-46.8528497,53,19.36243
1,Embu-Guaçu/SP,-23.8317997,-46.8156204,142,204.65518
D1,Embu-Guaçu/SP,-23.8317997,-46.8156204,10,14.41234
1,Emilianópolis/SP,-21.831436,-51.483168,4,124.45551
1,Encantado/RS,-29.2392716,-51.8744817,58,255.43909
D1,Encantado/RS,-29.2392716,-51.8744817,3,13.21237
1,Encanto/RN,-6.1107477,-38.3050953,15,266.05179
D1,Encanto/RN,-6.1107477,-38.3050953,2,35.47357
1,Encruzilhada do Sul/RS,-30.53619325,-52.51564721101029,2,7.72887
D1,Encruzilhada do Sul/RS,-30.53619325,-52.51564721101029,1,3.86444
1,Encruzilhada/BA,-15.5322113,-40.9072488,10,58.80278
1,Engenheiro Coelho/SP,-22.4896659,-47.2119005,17,81.83700
1,Engenheiro Navarro/MG,-17.286622,-43.9515719,1,13.80834
1,Engenheiro Paulo de Frontin/RJ,-22.5504556,-43.6783403,21,149.97857
D1,Engenheiro Paulo de Frontin/RJ,-22.5504556,-43.6783403,2,14.28367
1,Entre Folhas/MG,-19.6259301,-42.2321332,1,18.62197
1,Entre Rios do Sul/RS,-27.5299266,-52.7325438,16,573.06590
1,Entre Rios/BA,-11.9423743,-38.0836985,16,38.29584
1,Entre Rios/SC,-26.7236463,-52.5638445,86,2684.98283
D1,Entre Rios/SC,-26.7236463,-52.5638445,1,31.22073
1,Entre-Ijuís/RS,-28.361628,-54.2670019,6,70.79646
1,Epitaciolândia/AC,-11.0289439,-68.7411519,89,483.40666
D1,Epitaciolândia/AC,-11.0289439,-68.7411519,2,10.86307
1,Equador/RN,-6.89071355,-36.66447219982531,2,33.08519
1,Erebango/RS,-27.8542708,-52.3029274,4,133.73454
1,Erechim/RS,-27.6350143,-52.2737288,236,222.93174
D1,Erechim/RS,-27.6350143,-52.2737288,2,1.88925
1,Ererê/CE,-6.0311304,-38.3482173,27,375.10420
D1,Ererê/CE,-6.0311304,-38.3482173,3,41.67824
1,Ernestina/RS,-28.498434,-52.5702451,4,126.26263
1,Erval Grande/RS,-27.3910282,-52.5703742,12,246.96440
1,Ervália/MG,-20.8400156,-42.653352,3,15.87722
1,Escada/PE,-8.3594071,-35.2232683,147,213.43013
D1,Escada/PE,-8.3594071,-35.2232683,17,24.68240
1,Esmeralda/RS,-28.0543707,-51.1921896,1,30.46923
1,Esmeraldas/MG,-19.7613111,-44.3145945,15,21.26091
1,Espera Feliz/MG,-20.6494192,-41.9080693,24,96.18853
1,Esperantina/PI,-3.8950963,-42.2370595,182,458.01143
D1,Esperantina/PI,-3.8950963,-42.2370595,2,5.03309
1,Esperantina/TO,-5.3658232,-48.5368181,16,145.50746
1,Esperantinópolis/MA,-4.8751875,-44.8801032,226,1310.82884
D1,Esperantinópolis/MA,-4.8751875,-44.8801032,5,29.00064
1,Esperança do Sul/RS,-27.3617442,-53.9909736,12,410.11620
D1,Esperança do Sul/RS,-27.3617442,-53.9909736,1,34.17635
1,Esperança/PB,-7.018517,-35.852193,69,209.04657
1,Espigão D'Oeste/RO,-11.532175,-61.0130935,29,89.57806
D1,Espigão D'Oeste/RO,-11.532175,-61.0130935,2,6.17780
1,Espinosa/MG,-14.9232007,-42.8093337,5,15.81428
D1,Espinosa/MG,-14.9232007,-42.8093337,1,3.16286
1,Esplanada/BA,-11.800614,-37.9453,2,5.37100
1,Espumoso/RS,-28.7256962,-52.8453751,11,70.56710
D1,Espumoso/RS,-28.7256962,-52.8453751,1,6.41519
1,Espírito Santo do Dourado/MG,-22.046666,-45.950833,3,63.93862
1,Espírito Santo do Pinhal/SP,-22.190871,-46.74767,18,40.60456
1,Espírito Santo/RN,-6.3317917,-35.3096508,5,47.59638
1,Estação/RS,-27.9128965,-52.2606058,13,218.19402
1,Esteio/RS,-29.8511627,-51.1778852,44,52.88334
D1,Esteio/RS,-29.8511627,-51.1778852,1,1.20189
1,Estiva Gerbi/SP,-22.2754831,-46.9525448,2,17.69285
1,Estiva/MG,-22.4638686,-46.0182101,15,132.11203
D1,Estiva/MG,-22.4638686,-46.0182101,1,8.80747
1,Estreito/MA,-6.5583016,-47.4432212,275,655.60483
D1,Estreito/MA,-6.5583016,-47.4432212,1,2.38402
1,Estrela Dalva/MG,-21.741666,-42.460833,10,426.80324
D1,Estrela Dalva/MG,-21.741666,-42.460833,1,42.68032
1,Estrela d'Oeste/SP,-20.2860692,-50.3986216,4,47.51158
1,Estrela de Alagoas/AL,-9.3888972,-36.7616833,8,43.94397
1,Estrela do Sul/MG,-18.7420499,-47.6900736,1,12.53447
1,Estrela/RS,-29.5010545,-51.962226,159,466.05698
D1,Estrela/RS,-29.5010545,-51.962226,1,2.93118
1,Estância Velha/RS,-29.6529666,-51.1719687,29,57.97449
1,Estância/SE,-11.2682255,-37.4378341,190,274.62997
D1,Estância/SE,-11.2682255,-37.4378341,5,7.22710
