type,name,lat,lon,total,total_per_100k_inhabitants
1,Abadia de Goiás/GO,-16.7572644,-49.4412205,3603,39342.65123
D1,Abadia de Goiás/GO,-16.7572644,-49.4412205,46,502.29308
1,Abadia dos Dourados/MG,-18.4911191,-47.4063589,1741,24793.50612
D1,Abadia dos Dourados/MG,-18.4911191,-47.4063589,20,284.81914
1,Abadiânia/GO,-16.1940946,-48.7067767,1890,9054.75974
D1,Abadiânia/GO,-16.1940946,-48.7067767,55,263.49830
1,Abaetetuba/PA,-1.721828,-48.878843,10739,6693.50968
D1,Abaetetuba/PA,-1.721828,-48.878843,239,148.96627
1,Abaeté/MG,-19.1566833,-45.4481213,3816,16403.73125
D1,Abaeté/MG,-19.1566833,-45.4481213,50,214.93359
1,Abaiara/CE,-7.3607808,-39.0487878,1183,9887.17092
D1,Abaiara/CE,-7.3607808,-39.0487878,20,167.15420
1,Abaré/BA,-8.7239913,-39.1139689,2667,12950.37390
D1,Abaré/BA,-8.7239913,-39.1139689,17,82.54832
1,Abatiá/PR,-23.3052967,-50.3102532,1725,23437.50000
D1,Abatiá/PR,-23.3052967,-50.3102532,23,312.50000
1,Abaíra/BA,-13.2503296,-41.6640342,345,3974.19652
D1,Abaíra/BA,-13.2503296,-41.6640342,17,195.82997
1,Abdon Batista/SC,-27.612419,-51.022992,511,20165.74586
D1,Abdon Batista/SC,-27.612419,-51.022992,4,157.85320
1,Abel Figueiredo/PA,-4.953001,-48.3958485,1449,19227.70701
D1,Abel Figueiredo/PA,-4.953001,-48.3958485,12,159.23567
1,Abelardo Luz/SC,-26.5705893,-52.3280339,2418,13422.14821
D1,Abelardo Luz/SC,-26.5705893,-52.3280339,68,377.46323
1,Abre Campo/MG,-20.2976097,-42.4764741,2001,14895.04243
D1,Abre Campo/MG,-20.2976097,-42.4764741,19,141.43219
1,Abreu e Lima/PE,-7.900719,-34.898389,4965,4930.58452
D1,Abreu e Lima/PE,-7.900719,-34.898389,259,257.20471
1,Abreulândia/TO,-9.6221526,-49.1558343,514,19701.03488
D1,Abreulândia/TO,-9.6221526,-49.1558343,8,306.63089
1,Acaiaca/MG,-20.3621646,-43.1444162,270,6758.44806
D1,Acaiaca/MG,-20.3621646,-43.1444162,12,300.37547
1,Acajutiba/BA,-11.6609659,-38.0186381,642,4219.79755
D1,Acajutiba/BA,-11.6609659,-38.0186381,26,170.89523
1,Acarape/CE,-4.2237866,-38.7071663,3372,22272.12682
D1,Acarape/CE,-4.2237866,-38.7071663,36,237.78071
1,Acaraú/CE,-2.8869514,-40.1194713,7336,11542.57663
D1,Acaraú/CE,-2.8869514,-40.1194713,121,190.38328
1,Acari/RN,-6.4364689,-36.6394777,1448,13037.99748
D1,Acari/RN,-6.4364689,-36.6394777,25,225.10355
1,Acará/PA,-1.961388,-48.1987043,2469,4429.17623
D1,Acará/PA,-1.961388,-48.1987043,42,75.34443
1,Acauã/PI,-8.219542,-41.083059,251,3525.77609
D1,Acauã/PI,-8.219542,-41.083059,2,28.09383
1,Aceguá/RS,-31.8695131,-54.1615593,1023,20538.04457
D1,Aceguá/RS,-31.8695131,-54.1615593,8,160.61032
1,Acopiara/CE,-6.0936464,-39.4543204,6148,11242.15993
D1,Acopiara/CE,-6.0936464,-39.4543204,170,310.85999
1,Acorizal/MT,-15.2001544,-56.3668953,1469,27669.99435
D1,Acorizal/MT,-15.2001544,-56.3668953,24,452.06254
1,Acrelândia/AC,-10.0759167,-67.0526898,3064,19489.85433
D1,Acrelândia/AC,-10.0759167,-67.0526898,40,254.43674
1,Acreúna/GO,-17.3959899,-50.3749031,5432,23918.97842
D1,Acreúna/GO,-17.3959899,-50.3749031,83,365.47776
1,Adamantina/SP,-21.6866517,-51.0762975,9399,26737.40506
D1,Adamantina/SP,-21.6866517,-51.0762975,180,512.04734
1,Adelândia/GO,-16.4155077,-50.1665834,674,26799.20477
D1,Adelândia/GO,-16.4155077,-50.1665834,6,238.56859
1,Adolfo/SP,-21.2356597,-49.6441918,959,27052.18618
D1,Adolfo/SP,-21.2356597,-49.6441918,25,705.21862
1,Adrianópolis/PR,-24.6557863,-48.9912769,1957,33758.84078
D1,Adrianópolis/PR,-24.6557863,-48.9912769,30,517.50906
1,Adustina/BA,-10.5358875,-38.114479,1546,8983.67133
D1,Adustina/BA,-10.5358875,-38.114479,29,168.51647
1,Afogados da Ingazeira/PE,-7.750429,-37.6356375,9080,24183.66803
D1,Afogados da Ingazeira/PE,-7.750429,-37.6356375,79,210.40857
1,Afonso Bezerra/RN,-5.4745,-36.57625071327935,1293,11728.95501
D1,Afonso Bezerra/RN,-5.4745,-36.57625071327935,19,172.35123
1,Afonso Cláudio/ES,-20.077841,-41.12606,8140,26841.65403
D1,Afonso Cláudio/ES,-20.077841,-41.12606,84,276.99004
1,Afonso Cunha/MA,-4.1326105,-43.3230026,430,6484.69311
D1,Afonso Cunha/MA,-4.1326105,-43.3230026,3,45.24204
1,Afrânio/PE,-8.5198919,-41.0070197,1536,7687.30294
D1,Afrânio/PE,-8.5198919,-41.0070197,16,80.07607
1,Afuá/PA,-0.1535664,-50.3879223,3496,8759.70935
D1,Afuá/PA,-0.1535664,-50.3879223,17,42.59584
1,Agrestina/PE,-8.4558021,-35.9442663,2927,11596.67195
D1,Agrestina/PE,-8.4558021,-35.9442663,73,289.22345
1,Agricolândia/PI,-5.7967843,-42.6605131,841,16416.16240
D1,Agricolândia/PI,-5.7967843,-42.6605131,10,195.19813
1,Agrolândia/SC,-27.4122212,-49.8295774,2277,20403.22581
D1,Agrolândia/SC,-27.4122212,-49.8295774,35,313.62007
1,Agronômica/SC,-27.2660744,-49.7104753,1247,22387.79174
D1,Agronômica/SC,-27.2660744,-49.7104753,15,269.29982
1,Aguanil/MG,-20.9424533,-45.3927152,1297,28461.70726
D1,Aguanil/MG,-20.9424533,-45.3927152,8,175.55409
1,Aguaí/SP,-22.0592036,-46.979384,6643,17963.27844
D1,Aguaí/SP,-22.0592036,-46.979384,134,362.34823
1,Agudo/RS,-29.6423259,-53.2494005,3361,20564.12139
D1,Agudo/RS,-29.6423259,-53.2494005,38,232.50122
1,Agudos do Sul/PR,-25.9890808,-49.3328175,1633,17069.09167
D1,Agudos do Sul/PR,-25.9890808,-49.3328175,38,397.19870
1,Agudos/SP,-22.471162,-48.987822,7102,18897.34447
D1,Agudos/SP,-22.471162,-48.987822,121,321.96264
1,Aguiar/PB,-7.0928404,-38.1727215,897,15955.17609
D1,Aguiar/PB,-7.0928404,-38.1727215,7,124.51085
1,Aguiarnópolis/TO,-6.5600452,-47.4721189,1042,14782.23862
D1,Aguiarnópolis/TO,-6.5600452,-47.4721189,15,212.79614
1,Aimorés/MG,-19.4917754,-41.0615603,3751,14934.70298
D1,Aimorés/MG,-19.4917754,-41.0615603,90,358.33731
1,Aiquara/BA,-14.126918,-39.8887574,654,14907.68179
D1,Aiquara/BA,-14.126918,-39.8887574,12,273.53545
1,Aiuaba/CE,-6.5710836,-40.1212278,1214,6904.00364
D1,Aiuaba/CE,-6.5710836,-40.1212278,16,90.99181
1,Aiuruoca/MG,-21.9759554,-44.6036637,1038,17448.31064
D1,Aiuruoca/MG,-21.9759554,-44.6036637,14,235.33367
1,Ajuricaba/RS,-28.239654,-53.7693013,2262,32542.08028
D1,Ajuricaba/RS,-28.239654,-53.7693013,38,546.68393
1,Alagoa Grande/PB,-7.0415212,-35.6285322,5615,19782.27170
D1,Alagoa Grande/PB,-7.0415212,-35.6285322,79,278.32582
1,Alagoa Nova/PB,-7.0653703,-35.76695977336711,2940,14005.33537
D1,Alagoa Nova/PB,-7.0653703,-35.76695977336711,37,176.25762
1,Alagoa/MG,-22.1697202,-44.6400042,689,25931.50169
D1,Alagoa/MG,-22.1697202,-44.6400042,9,338.72789
1,Alagoinha do Piauí/PI,-7.0090952,-40.939675,403,5248.76270
D1,Alagoinha do Piauí/PI,-7.0090952,-40.939675,13,169.31493
1,Alagoinha/PB,-6.97063215,-35.51490901897793,2490,17020.98571
D1,Alagoinha/PB,-6.97063215,-35.51490901897793,26,177.72917
1,Alagoinha/PE,-8.50355635,-36.77701174370496,2891,19536.42384
D1,Alagoinha/PE,-8.50355635,-36.77701174370496,31,209.48777
1,Alagoinhas/BA,-12.133526,-38.420772,18447,12055.05055
D1,Alagoinhas/BA,-12.133526,-38.420772,355,231.99127
1,Alambari/SP,-23.550338,-47.897971,1407,22580.64516
D1,Alambari/SP,-23.550338,-47.897971,13,208.63425
1,Albertina/MG,-20.66164,-43.784039,769,25505.80431
D1,Albertina/MG,-20.66164,-43.784039,12,398.00995
1,Alcantil/PB,-7.7425491,-36.0609604,1238,22399.13154
D1,Alcantil/PB,-7.7425491,-36.0609604,9,162.83698
1,Alcinópolis/MS,-18.3264121,-53.7094463,896,16323.55620
D1,Alcinópolis/MS,-18.3264121,-53.7094463,14,255.05557
1,Alcobaça/BA,-17.5215875,-39.1965474,2565,11395.44182
D1,Alcobaça/BA,-17.5215875,-39.1965474,32,142.16536
1,Alcântara/MA,-2.4038956,-44.4154241,337,1523.09500
D1,Alcântara/MA,-2.4038956,-44.4154241,20,90.39139
1,Alcântaras/CE,-3.586247,-40.5457641,2383,20116.49502
D1,Alcântaras/CE,-3.586247,-40.5457641,23,194.15837
1,Aldeias Altas/MA,-4.6291957,-43.4708622,1159,4295.93387
D1,Aldeias Altas/MA,-4.6291957,-43.4708622,14,51.89221
1,Alecrim/RS,-27.6566142,-54.7653195,631,11050.78809
D1,Alecrim/RS,-27.6566142,-54.7653195,13,227.67075
1,Alegre/ES,-20.7625787,-41.5318886,8316,27841.57488
D1,Alegre/ES,-20.7625787,-41.5318886,90,301.31575
1,Alegrete do Piauí/PI,-7.2440138,-40.8602296,637,12944.52347
D1,Alegrete do Piauí/PI,-7.2440138,-40.8602296,9,182.88966
1,Alegrete/RS,-29.790166,-55.794862,18731,25838.35681
D1,Alegrete/RS,-29.790166,-55.794862,328,452.45748
1,Alegria/RS,-27.8332103,-54.0574959,584,17766.96075
D1,Alegria/RS,-27.8332103,-54.0574959,5,152.11439
1,Alenquer/PA,-1.946229,-54.738355,5539,9651.50723
D1,Alenquer/PA,-1.946229,-54.738355,170,296.21885
1,Alexandria/RN,-6.414779,-38.0135516,2554,18877.96585
D1,Alexandria/RN,-6.414779,-38.0135516,33,243.92047
1,Alexânia/GO,-16.0834049,-48.5077803,7534,26565.58533
D1,Alexânia/GO,-16.0834049,-48.5077803,116,409.02680
1,Alfenas/MG,-21.4297405,-45.9479419,22972,28369.95048
D1,Alfenas/MG,-21.4297405,-45.9479419,251,309.97987
1,Alfredo Chaves/ES,-20.624970400000002,-40.75006690147988,5083,34648.94342
D1,Alfredo Chaves/ES,-20.624970400000002,-40.75006690147988,47,320.38173
1,Alfredo Marcondes/SP,-21.9527,-51.413956,305,7260.17615
D1,Alfredo Marcondes/SP,-21.9527,-51.413956,19,452.27327
1,Alfredo Vasconcelos/MG,-21.145833,-43.776389,1453,20604.08395
D1,Alfredo Vasconcelos/MG,-21.145833,-43.776389,16,226.88599
1,Alfredo Wagner/SC,-27.6961513,-49.3326734,1449,14295.58011
D1,Alfredo Wagner/SC,-27.6961513,-49.3326734,12,118.38990
1,Algodão de Jandaíra/PB,-6.9040175,-36.0089879,518,20015.45595
D1,Algodão de Jandaíra/PB,-6.9040175,-36.0089879,1,38.63988
1,Alhandra/PB,-7.4304246,-34.9106103,3097,15590.23408
D1,Alhandra/PB,-7.4304246,-34.9106103,47,236.59703
1,Aliança do Tocantins/TO,-11.3055927,-48.9409096,1256,23684.70677
D1,Aliança do Tocantins/TO,-11.3055927,-48.9409096,26,490.28852
1,Aliança/PE,-7.60398,-35.222696,2269,5907.62341
D1,Aliança/PE,-7.60398,-35.222696,84,218.70444
1,Almadina/BA,-14.70466,-39.6381994,838,15892.28143
D1,Almadina/BA,-14.70466,-39.6381994,13,246.53897
1,Almas/TO,-11.5681309,-47.1702803,322,4663.28747
D1,Almas/TO,-11.5681309,-47.1702803,5,72.41130
1,Almeirim/PA,-1.5290377,-52.5788111,4690,13776.28951
D1,Almeirim/PA,-1.5290377,-52.5788111,56,164.49301
1,Almenara/MG,-16.1740678,-40.6904907,7377,17406.79566
D1,Almenara/MG,-16.1740678,-40.6904907,71,167.53185
1,Almino Afonso/RN,-6.1544208,-37.7649018,765,16328.70864
D1,Almino Afonso/RN,-6.1544208,-37.7649018,15,320.17076
1,Almirante Tamandaré do Sul/RS,-28.1141129,-52.9134874,595,30749.35401
D1,Almirante Tamandaré do Sul/RS,-28.1141129,-52.9134874,7,361.75711
1,Almirante Tamandaré/PR,-25.3133048,-49.2997838,16956,13964.75045
D1,Almirante Tamandaré/PR,-25.3133048,-49.2997838,461,379.67386
1,Aloândia/GO,-17.7277983,-49.4809338,573,28997.97571
D1,Aloândia/GO,-17.7277983,-49.4809338,12,607.28745
1,Alpercata/MG,-18.9803616,-41.9827637,589,7908.16327
D1,Alpercata/MG,-18.9803616,-41.9827637,23,308.80773
1,Alpestre/RS,-27.2512339,-53.0349646,1327,22548.85302
D1,Alpestre/RS,-27.2512339,-53.0349646,17,288.87001
1,Alpinópolis/MG,-20.863611,-46.387777,4567,22767.83489
D1,Alpinópolis/MG,-20.863611,-46.387777,51,254.24996
1,Alta Floresta D'Oeste/RO,-11.9296917,-61.9961284,8823,39185.46811
D1,Alta Floresta D'Oeste/RO,-11.9296917,-61.9961284,81,359.74418
1,Alta Floresta/MT,-9.8715018,-56.0839881,18114,34764.41800
D1,Alta Floresta/MT,-9.8715018,-56.0839881,181,347.37549
1,Altair/SP,-20.5238955,-49.0606135,320,7599.14510
D1,Altair/SP,-20.5238955,-49.0606135,18,427.45191
1,Altamira do Maranhão/MA,-4.1643006,-45.4674574,532,6448.48485
D1,Altamira do Maranhão/MA,-4.1643006,-45.4674574,15,181.81818
1,Altamira do Paraná/PR,-24.799114,-52.7128633,579,40517.84465
D1,Altamira do Paraná/PR,-24.799114,-52.7128633,15,1049.68509
1,Altamira/PA,-3.204065,-52.209961,23149,19731.50358
D1,Altamira/PA,-3.204065,-52.209961,353,300.88646
1,Altaneira/CE,-6.9980933,-39.7385742,1078,13978.21577
D1,Altaneira/CE,-6.9980933,-39.7385742,19,246.36929
1,Alterosa/MG,-21.249166,-46.143055,2112,14499.51943
D1,Alterosa/MG,-21.249166,-46.143055,41,281.47741
1,Altinho/PE,-8.4904095,-36.0607494,1747,7596.97339
D1,Altinho/PE,-8.4904095,-36.0607494,30,130.45747
1,Altinópolis/SP,-21.021364,-47.3712,1235,7613.58733
D1,Altinópolis/SP,-21.021364,-47.3712,65,400.71512
1,Alto Alegre do Maranhão/MA,-4.2055693,-44.4525287,2149,7656.95147
D1,Alto Alegre do Maranhão/MA,-4.2055693,-44.4525287,29,103.32787
1,Alto Alegre do Pindaré/MA,-3.6698186,-45.8462153,2596,8120.87465
D1,Alto Alegre do Pindaré/MA,-3.6698186,-45.8462153,55,172.05243
1,Alto Alegre dos Parecis/RO,-12.1314515,-61.856265,2305,17372.62587
D1,Alto Alegre dos Parecis/RO,-12.1314515,-61.856265,51,384.38348
1,Alto Alegre/RR,2.98858,-61.307167,2599,17043.74057
D1,Alto Alegre/RR,2.98858,-61.307167,39,255.75448
1,Alto Alegre/RS,-31.780844700000003,-52.81311114489171,420,26415.09434
D1,Alto Alegre/RS,-31.780844700000003,-52.81311114489171,2,125.78616
1,Alto Alegre/SP,-21.5820592,-50.1661976,413,10127.51349
D1,Alto Alegre/SP,-21.5820592,-50.1661976,25,613.04561
1,Alto Araguaia/MT,-17.3156528,-53.2169365,3359,17038.65273
D1,Alto Araguaia/MT,-17.3156528,-53.2169365,35,177.53880
1,Alto Bela Vista/SC,-27.4320737,-51.905771,508,26527.41514
D1,Alto Bela Vista/SC,-27.4320737,-51.905771,3,156.65796
1,Alto Boa Vista/MT,-11.6723985,-51.3744431,1564,22053.01748
D1,Alto Boa Vista/MT,-11.6723985,-51.3744431,20,282.00790
1,Alto Caparaó/MG,-20.4405661,-41.8683799,619,10424.38531
D1,Alto Caparaó/MG,-20.4405661,-41.8683799,10,168.40687
1,Alto Feliz/RS,-29.3785943,-51.3123751,726,23858.03483
D1,Alto Feliz/RS,-29.3785943,-51.3123751,4,131.44923
1,Alto Garças/MT,-16.9469683,-53.529427,1454,11799.07490
D1,Alto Garças/MT,-16.9469683,-53.529427,46,373.28573
1,Alto Horizonte/GO,-14.1954948,-49.3366993,2706,39817.53973
D1,Alto Horizonte/GO,-14.1954948,-49.3366993,16,235.43261
1,Alto Jequitibá/MG,-20.423611,-41.966111,1484,17909.72725
D1,Alto Jequitibá/MG,-20.423611,-41.966111,15,181.02824
1,Alto Longá/PI,-5.2549051,-42.2072388,899,6255.65375
D1,Alto Longá/PI,-5.2549051,-42.2072388,16,111.33533
1,Alto Paraguai/MT,-14.513712,-56.4936374,965,8328.29896
D1,Alto Paraguai/MT,-14.513712,-56.4936374,32,276.17157
1,Alto Paraná/PR,-23.131247,-52.318893,3105,20776.17932
D1,Alto Paraná/PR,-23.131247,-52.318893,28,187.35363
1,Alto Paraíso de Goiás/GO,-14.1304779,-47.5100161,1607,20732.80867
D1,Alto Paraíso de Goiás/GO,-14.1304779,-47.5100161,10,129.01561
1,Alto Paraíso/PR,-23.508137,-53.728537,1238,47072.24335
D1,Alto Paraíso/PR,-23.508137,-53.728537,10,380.22814
1,Alto Paraíso/RO,-9.7240103,-63.3188123,4277,19215.56294
D1,Alto Paraíso/RO,-9.7240103,-63.3188123,65,292.02983
1,Alto Parnaíba/MA,-9.112506,-45.9310154,1021,9089.29048
D1,Alto Parnaíba/MA,-9.112506,-45.9310154,11,97.92575
1,Alto Piquiri/PR,-24.0239021,-53.4417448,2513,25848.59082
D1,Alto Piquiri/PR,-24.0239021,-53.4417448,32,329.15038
1,Alto Rio Doce/MG,-21.0239537,-43.4133507,1154,10761.91364
D1,Alto Rio Doce/MG,-21.0239537,-43.4133507,32,298.42395
1,Alto Rio Novo/ES,-19.0577208,-41.0171518,1550,19592.97181
D1,Alto Rio Novo/ES,-19.0577208,-41.0171518,29,366.57818
1,Alto Santo/CE,-5.5190371,-38.2719351,2950,18349.19450
D1,Alto Santo/CE,-5.5190371,-38.2719351,43,267.46284
1,Alto Taquari/MT,-17.8269099,-53.2831736,1681,14728.81801
D1,Alto Taquari/MT,-17.8269099,-53.2831736,30,262.85814
1,Alto do Rodrigues/RN,-5.290868,-36.7616726,3948,26455.80647
D1,Alto do Rodrigues/RN,-5.290868,-36.7616726,45,301.54795
1,Altos/PI,-5.0393915,-42.4611694,6006,14763.64888
D1,Altos/PI,-5.0393915,-42.4611694,112,275.31280
1,Altônia/PR,-23.8722004,-53.894037,4615,20701.56551
D1,Altônia/PR,-23.8722004,-53.894037,54,242.22850
1,Alumínio/SP,-23.5203479,-47.2575256,1706,9025.02248
D1,Alumínio/SP,-23.5203479,-47.2575256,56,296.24927
1,Alvarenga/MG,-19.4175,-41.728334,715,18900.34364
D1,Alvarenga/MG,-19.4175,-41.728334,6,158.60428
1,Alvarães/AM,-3.214786,-64.8143124,3743,22828.73872
D1,Alvarães/AM,-3.214786,-64.8143124,46,280.55623
1,Alvinlândia/SP,-22.4431852,-49.7643596,151,4644.72470
D1,Alvinlândia/SP,-22.4431852,-49.7643596,10,307.59766
1,Alvinópolis/MG,-20.1105199,-43.0601805,2353,15546.74595
D1,Alvinópolis/MG,-20.1105199,-43.0601805,25,165.18005
1,Alvorada D'Oeste/RO,-11.346271,-62.284697,3489,25269.79069
D1,Alvorada D'Oeste/RO,-11.346271,-62.284697,43,311.43623
1,Alvorada de Minas/MG,-18.7318587,-43.3641479,503,13952.84327
D1,Alvorada de Minas/MG,-18.7318587,-43.3641479,4,110.95700
1,Alvorada do Gurguéia/PI,-8.4465288,-43.8655915,878,16054.12324
D1,Alvorada do Gurguéia/PI,-8.4465288,-43.8655915,14,255.98830
1,Alvorada do Norte/GO,-14.483911,-46.4959897,1569,17933.47811
D1,Alvorada do Norte/GO,-14.483911,-46.4959897,22,251.45731
1,Alvorada do Sul/PR,-22.7807269,-51.2307721,1629,14045.52509
D1,Alvorada do Sul/PR,-22.7807269,-51.2307721,38,327.64270
1,Alvorada/RS,-29.9981184,-51.0772509,36083,16992.06977
D1,Alvorada/RS,-29.9981184,-51.0772509,897,422.41184
1,Alvorada/TO,-12.478465,-49.124926,3355,40031.02255
D1,Alvorada/TO,-12.478465,-49.124926,32,381.81601
1,Além Paraíba/MG,-21.8760576,-42.6810473,7268,20509.05807
D1,Além Paraíba/MG,-21.8760576,-42.6810473,172,485.35470
1,Amajari/RR,3.6523869,-61.4194315,1389,10242.60748
D1,Amajari/RR,3.6523869,-61.4194315,25,184.35219
1,Amambai/MS,-23.1082701,-55.2284854,5941,14761.34867
D1,Amambai/MS,-23.1082701,-55.2284854,102,253.43504
1,Amaporã/PR,-23.094272,-52.786597,958,14957.06479
D1,Amaporã/PR,-23.094272,-52.786597,8,124.90242
1,Amapá do Maranhão/MA,-1.6762114,-46.0109669,172,2440.75493
D1,Amapá do Maranhão/MA,-1.6762114,-46.0109669,6,85.14261
1,Amapá/AP,2.0529997,-50.7930003,2003,21618.99622
D1,Amapá/AP,2.0529997,-50.7930003,13,140.31301
1,Amaraji/PE,-8.373925,-35.4536527,1328,5796.59537
D1,Amaraji/PE,-8.373925,-35.4536527,50,218.24531
1,Amaral Ferrador/RS,-30.8750633,-52.2542051,567,7945.62780
D1,Amaral Ferrador/RS,-30.8750633,-52.2542051,14,196.18834
1,Amaralina/GO,-13.9236199,-49.2962411,400,10322.58065
D1,Amaralina/GO,-13.9236199,-49.2962411,2,51.61290
1,Amarante do Maranhão/MA,-5.56913,-46.747284,2301,5476.35481
D1,Amarante do Maranhão/MA,-5.56913,-46.747284,63,149.93931
1,Amarante/PI,-6.2459374,-42.8476238,1820,10335.62383
D1,Amarante/PI,-6.2459374,-42.8476238,37,210.11983
1,Amargosa/BA,-13.03793715,-39.60796443875596,5084,13510.13792
D1,Amargosa/BA,-13.03793715,-39.60796443875596,63,167.41516
1,Amaturá/AM,-3.3640509,-68.1994689,2624,21987.59846
D1,Amaturá/AM,-3.3640509,-68.1994689,19,159.20898
1,Americana/SP,-22.7392463,-47.3306032,28104,11500.59336
D1,Americana/SP,-22.7392463,-47.3306032,977,399.80358
1,Americano do Brasil/GO,-16.2515808,-49.9806104,2208,35498.39228
D1,Americano do Brasil/GO,-16.2515808,-49.9806104,27,434.08360
1,Ametista do Sul/RS,-27.3617341,-53.1826575,1843,24918.87507
D1,Ametista do Sul/RS,-27.3617341,-53.1826575,28,378.58302
1,Amontada/CE,-3.3634586,-39.8284791,3604,8154.76864
D1,Amontada/CE,-3.3634586,-39.8284791,62,140.28736
1,Amorinópolis/GO,-16.6211308,-51.0949921,672,22318.16672
D1,Amorinópolis/GO,-16.6211308,-51.0949921,14,464.96181
1,Amparo de São Francisco/SE,-10.1299754,-36.9269099,263,11022.63202
D1,Amparo de São Francisco/SE,-10.1299754,-36.9269099,5,209.55574
1,Amparo do Serra/MG,-20.5070255,-42.8028462,363,7818.22098
D1,Amparo do Serra/MG,-20.5070255,-42.8028462,12,258.45359
1,Amparo/PB,-7.56394725,-37.04652873235175,303,13383.39223
D1,Amparo/PB,-7.56394725,-37.04652873235175,4,176.67845
1,Amparo/SP,-22.70111,-46.76444,10312,14098.02447
D1,Amparo/SP,-22.70111,-46.76444,256,349.98975
1,Ampére/PR,-25.9168712,-53.4742414,5633,28937.63485
D1,Ampére/PR,-25.9168712,-53.4742414,69,354.46419
1,Amélia Rodrigues/BA,-12.4015388,-38.7516971,2828,11313.35760
D1,Amélia Rodrigues/BA,-12.4015388,-38.7516971,56,224.02688
1,América Dourada/BA,-11.4515262,-41.4357517,1235,7677.48353
D1,América Dourada/BA,-11.4515262,-41.4357517,14,87.03220
1,Américo Brasiliense/SP,-21.7297099,-48.1052092,6560,15790.10711
D1,Américo Brasiliense/SP,-21.7297099,-48.1052092,108,259.95908
1,Américo de Campos/SP,-20.298476,-49.735904,1291,21541.79877
D1,Américo de Campos/SP,-20.298476,-49.735904,38,634.07309
1,Anadia/AL,-9.6830208,-36.3052699,1846,10544.35369
D1,Anadia/AL,-9.6830208,-36.3052699,38,217.05603
1,Anagé/BA,-14.6134669,-41.1376308,1273,5996.51420
D1,Anagé/BA,-14.6134669,-41.1376308,32,150.73720
1,Anahy/PR,-24.6450861,-53.1337957,785,28298.48594
D1,Anahy/PR,-24.6450861,-53.1337957,15,540.73540
1,Anajatuba/MA,-3.26441,-44.6179916,1615,5944.05594
D1,Anajatuba/MA,-3.26441,-44.6179916,29,106.73537
1,Anajás/PA,-0.9878802,-49.9390114,1388,4612.67489
D1,Anajás/PA,-0.9878802,-49.9390114,24,79.75807
1,Analândia/SP,-22.128917,-47.661939,588,11495.60117
D1,Analândia/SP,-22.128917,-47.661939,6,117.30205
1,Anamã/AM,-3.5797356,-61.4049996,2477,17331.37420
D1,Anamã/AM,-3.5797356,-61.4049996,11,76.96613
1,Ananindeua/PA,-1.374035,-48.4016623,30968,5730.46391
D1,Ananindeua/PA,-1.374035,-48.4016623,864,159.87861
1,Ananás/TO,-6.3663053,-48.080238,2320,24589.29518
D1,Ananás/TO,-6.3663053,-48.080238,28,296.76736
1,Anapu/PA,-3.4668292,-51.2057035,2642,9013.37336
D1,Anapu/PA,-3.4668292,-51.2057035,69,235.39847
1,Anapurus/MA,-3.6751298,-43.1046001,832,5182.50903
D1,Anapurus/MA,-3.6751298,-43.1046001,15,93.43466
1,Anastácio/MS,-20.4832458,-55.8048448,3380,13340.70098
D1,Anastácio/MS,-20.4832458,-55.8048448,94,371.01358
1,Anaurilândia/MS,-22.185169,-52.719056,1285,14096.09478
D1,Anaurilândia/MS,-22.185169,-52.719056,17,186.48530
1,Anchieta/ES,-20.8057672,-40.6454564,10950,36156.51313
D1,Anchieta/ES,-20.8057672,-40.6454564,116,383.02790
1,Anchieta/SC,-26.5350527,-53.3293938,1244,22713.16414
D1,Anchieta/SC,-26.5350527,-53.3293938,12,219.09805
1,Andaraí/BA,-12.8059674,-41.3322919,1358,10349.03216
D1,Andaraí/BA,-12.8059674,-41.3322919,15,114.31184
1,Andirá/PR,-23.0494761,-50.2310027,5691,28709.07532
D1,Andirá/PR,-23.0494761,-50.2310027,100,504.46451
1,Andorinha/BA,-10.3445708,-39.8334411,1437,9968.09101
D1,Andorinha/BA,-10.3445708,-39.8334411,20,138.73474
1,Andradas/MG,-22.0680484,-46.5688976,7428,17811.24113
D1,Andradas/MG,-22.0680484,-46.5688976,141,338.09707
1,Andradina/SP,-20.896505,-51.3742765,13528,23631.75823
D1,Andradina/SP,-20.896505,-51.3742765,313,546.77264
1,Andrelândia/MG,-21.739722,-44.308889,206,1690.04840
D1,Andrelândia/MG,-21.739722,-44.308889,19,155.87825
1,André da Rocha/RS,-28.6309124,-51.5733328,263,19467.06144
D1,André da Rocha/RS,-28.6309124,-51.5733328,1,74.01925
1,Angatuba/SP,-23.4938938,-48.4110675,4742,18434.14710
D1,Angatuba/SP,-23.4938938,-48.4110675,90,349.86783
1,Angelim/PE,-8.8902038,-36.2872987,311,2751.96885
D1,Angelim/PE,-8.8902038,-36.2872987,16,141.58039
1,Angelina/SC,-27.5805287,-48.9838759,967,20635.93683
D1,Angelina/SC,-27.5805287,-48.9838759,6,128.04097
1,Angelândia/MG,-17.7253,-42.2728,534,6213.63742
D1,Angelândia/MG,-17.7253,-42.2728,4,46.54410
1,Angical do Piauí/PI,-6.0872666,-42.7366138,903,13320.54875
D1,Angical do Piauí/PI,-6.0872666,-42.7366138,12,177.01726
1,Angical/BA,-12.005623,-44.7000236,1274,9164.14904
D1,Angical/BA,-12.005623,-44.7000236,21,151.05740
1,Angico/TO,-6.3893733,-47.8656722,253,7280.57554
D1,Angico/TO,-6.3893733,-47.8656722,5,143.88489
1,Angicos/RN,-5.6666344,-36.6009064,1329,11363.83070
D1,Angicos/RN,-5.6666344,-36.6009064,30,256.51988
1,Angra dos Reis/RJ,-23.0063966,-44.316326,24449,11632.90844
D1,Angra dos Reis/RJ,-23.0063966,-44.316326,611,290.71566
1,Anguera/BA,-12.1509425,-39.2452469,643,5655.73050
D1,Anguera/BA,-12.1509425,-39.2452469,2,17.59170
1,Angélica/MS,-22.1588196,-53.7728504,2283,20602.83368
D1,Angélica/MS,-22.1588196,-53.7728504,23,207.56249
1,Anhanguera/GO,-18.3338749,-48.220363,237,20239.11187
D1,Anhanguera/GO,-18.3338749,-48.220363,7,597.77968
1,Anhembi/SP,-22.7891096,-48.1316776,446,6453.47996
D1,Anhembi/SP,-22.7891096,-48.1316776,14,202.57560
1,Anhumas/SP,-22.2956478,-51.3873401,409,9803.45158
D1,Anhumas/SP,-22.2956478,-51.3873401,9,215.72387
1,Anicuns/GO,-16.4606451,-49.9572265,7642,34558.85678
D1,Anicuns/GO,-16.4606451,-49.9572265,82,370.82259
1,Anita Garibaldi/SC,-27.6855032,-51.1293873,2047,30178.38714
D1,Anita Garibaldi/SC,-27.6855032,-51.1293873,12,176.91287
1,Anitápolis/SC,-27.9041185,-49.1287395,707,21936.08439
D1,Anitápolis/SC,-27.9041185,-49.1287395,6,186.16196
1,Anori/AM,-3.7435254,-61.6605203,2670,12171.21758
D1,Anori/AM,-3.7435254,-61.6605203,33,150.43078
1,Anta Gorda/RS,-28.9718745,-52.0069187,1011,17017.33715
D1,Anta Gorda/RS,-28.9718745,-52.0069187,8,134.65747
1,Antas/BA,-10.4114649,-38.3308815,1477,7513.09833
D1,Antas/BA,-10.4114649,-38.3308815,15,76.30093
1,Antonina do Norte/CE,-6.7754187,-39.9879345,1047,14144.82572
D1,Antonina do Norte/CE,-6.7754187,-39.9879345,27,364.76628
1,Antonina/PR,-25.4298854,-48.7125431,4809,25418.89106
D1,Antonina/PR,-25.4298854,-48.7125431,73,385.85549
1,Antônio Almeida/PI,-7.2186016,-44.1950248,409,12881.88976
D1,Antônio Almeida/PI,-7.2186016,-44.1950248,11,346.45669
1,Antônio Cardoso/BA,-12.4363122,-39.1200307,1076,9220.22279
D1,Antônio Cardoso/BA,-12.4363122,-39.1200307,12,102.82776
1,Antônio Carlos/MG,-21.318334,-43.746666,2019,17600.90663
D1,Antônio Carlos/MG,-21.318334,-43.746666,20,174.35272
1,Antônio Carlos/SC,-27.5168462,-48.7684715,2992,34343.43434
D1,Antônio Carlos/SC,-27.5168462,-48.7684715,29,332.87420
1,Antônio Dias/MG,-19.6525,-42.872778,826,8946.17134
D1,Antônio Dias/MG,-19.6525,-42.872778,30,324.92148
1,Antônio Gonçalves/BA,-10.5715409,-40.2748824,1172,9803.42953
D1,Antônio Gonçalves/BA,-10.5715409,-40.2748824,10,83.64701
1,Antônio João/MS,-22.1892837,-55.9508227,1232,13565.29399
D1,Antônio João/MS,-22.1892837,-55.9508227,21,231.22660
1,Antônio Martins/RN,-6.2155812,-37.8890129,1007,14060.31835
D1,Antônio Martins/RN,-6.2155812,-37.8890129,7,97.73806
1,Antônio Olinto/PR,-25.9849006,-50.1974516,1261,16992.31909
D1,Antônio Olinto/PR,-25.9849006,-50.1974516,17,229.07964
1,Antônio Prado de Minas/MG,-21.0171988,-42.1101106,166,10526.31579
D1,Antônio Prado de Minas/MG,-21.0171988,-42.1101106,6,380.46925
1,Antônio Prado/RS,-28.8567806,-51.2801355,4961,38041.56123
D1,Antônio Prado/RS,-28.8567806,-51.2801355,36,276.05245
1,Anápolis/GO,-16.3332828,-48.9525756,72246,18219.73843
D1,Anápolis/GO,-16.3332828,-48.9525756,1978,498.83236
1,Anísio de Abreu/PI,-9.185643,-43.04941,294,2941.76506
D1,Anísio de Abreu/PI,-9.185643,-43.04941,16,160.09606
1,Aparecida d'Oeste/SP,-20.4498109,-50.8808706,1586,38476.46773
D1,Aparecida d'Oeste/SP,-20.4498109,-50.8808706,22,533.72149
1,Aparecida de Goiânia/GO,-16.8226769,-49.2452546,145140,24115.88385
D1,Aparecida de Goiânia/GO,-16.8226769,-49.2452546,1983,329.48738
1,Aparecida do Rio Doce/GO,-18.2980167,-51.1491312,732,29587.71221
D1,Aparecida do Rio Doce/GO,-18.2980167,-51.1491312,6,242.52223
1,Aparecida do Rio Negro/TO,-9.9513491,-47.9773786,413,8426.85166
D1,Aparecida do Rio Negro/TO,-9.9513491,-47.9773786,13,265.25199
1,Aparecida do Taboado/MS,-20.0840304,-51.1013943,6201,23501.09907
D1,Aparecida do Taboado/MS,-20.0840304,-51.1013943,73,276.66187
1,Aparecida/PB,-6.7859598, -38.0831353,1669,19676.96298
D1,Aparecida/PB,-6.7859598, -38.0831353,16,188.63476
1,Aparecida/SP,-22.851552,-45.2340924,2976,8218.49714
D1,Aparecida/SP,-22.851552,-45.2340924,125,345.19897
1,Aperibé/RJ,-21.6211928,-42.1028167,1953,16226.32104
D1,Aperibé/RJ,-21.6211928,-42.1028167,35,290.79428
1,Apiacá/ES,-21.152272,-41.569297,2490,33015.11535
D1,Apiacá/ES,-21.152272,-41.569297,40,530.36330
1,Apiacás/MT,-9.5678422,-57.394852,3135,30054.64481
D1,Apiacás/MT,-9.5678422,-57.394852,19,182.14936
1,Apiaí/SP,-24.5076527,-48.8461582,1801,7478.92529
D1,Apiaí/SP,-24.5076527,-48.8461582,108,448.48636
1,Apicum-Açu/MA,-1.5279295,-45.082278,746,4242.97577
D1,Apicum-Açu/MA,-1.5279295,-45.082278,11,62.56399
1,Apiúna/SC,-27.0374658,-49.3885037,1664,15194.95936
D1,Apiúna/SC,-27.0374658,-49.3885037,20,182.63172
1,Apodi/RN,-5.6631109,-37.796927,9335,25999.88859
D1,Apodi/RN,-5.6631109,-37.796927,106,295.23173
1,Aporá/BA,-11.6599747,-38.0794757,714,4002.24215
D1,Aporá/BA,-11.6599747,-38.0794757,21,117.71300
1,Aporé/GO,-18.9642193,-51.92804,944,22128.45757
D1,Aporé/GO,-18.9642193,-51.92804,11,257.85279
1,Apuarema/BA,-13.8517897,-39.7457126,906,12455.32032
D1,Apuarema/BA,-13.8517897,-39.7457126,12,164.97113
1,Apucarana/PR,-23.5525327,-51.4610764,21212,15433.86836
D1,Apucarana/PR,-23.5525327,-51.4610764,554,403.09085
1,Apuiarés/CE,-3.9460303,-39.4313298,1733,11755.52842
D1,Apuiarés/CE,-3.9460303,-39.4313298,27,183.15018
1,Apuí/AM,-7.1940195,-59.8830192,2305,10136.76943
D1,Apuí/AM,-7.1940195,-59.8830192,36,158.31831
1,Aquidabã/SE,-10.2837579,-37.0188687,2624,12038.90622
D1,Aquidabã/SE,-10.2837579,-37.0188687,45,206.45990
1,Aquidauana/MS,-20.473969,-55.7821375,7867,16326.99651
D1,Aquidauana/MS,-20.473969,-55.7821375,176,365.26648
1,Aquiraz/CE,-3.9063117,-38.387504,11028,13517.85342
D1,Aquiraz/CE,-3.9063117,-38.387504,105,128.70644
1,Arabutã/SC,-27.1587028,-52.1438142,634,14854.73290
D1,Arabutã/SC,-27.1587028,-52.1438142,10,234.30178
1,Aracaju/SE,-10.9162061,-37.0774655,158343,23541.43684
D1,Aracaju/SE,-10.9162061,-37.0774655,2587,384.61882
1,Aracati/CE,-4.558259,-37.767894,13818,18328.20458
D1,Aracati/CE,-4.558259,-37.767894,181,240.07852
1,Aracatu/BA,-14.4274236,-41.4604105,1370,10570.98765
D1,Aracatu/BA,-14.4274236,-41.4604105,23,177.46914
1,Araci/BA,-11.3356065,-38.9573261,4493,8183.52367
D1,Araci/BA,-11.3356065,-38.9573261,61,111.10504
1,Aracitaba/MG,-21.3425,-43.378611,109,5301.55642
D1,Aracitaba/MG,-21.3425,-43.378611,11,535.01946
1,Aracoiaba/CE,-4.3702577,-38.8084313,5468,20556.39098
D1,Aracoiaba/CE,-4.3702577,-38.8084313,38,142.85714
1,Aracruz/ES,-19.8245218,-40.2735025,38075,36281.94622
D1,Aracruz/ES,-19.8245218,-40.2735025,281,267.76696
1,Aragarças/GO,-15.8957166,-52.2514538,4878,23900.04900
D1,Aragarças/GO,-15.8957166,-52.2514538,85,416.46252
1,Aragoiânia/GO,-16.9146388,-49.4499148,3015,28230.33708
D1,Aragoiânia/GO,-16.9146388,-49.4499148,33,308.98876
1,Aragominas/TO,-7.1654101,-48.525488,1090,19106.04733
D1,Aragominas/TO,-7.1654101,-48.525488,11,192.81332
1,Araguacema/TO,-8.8067391,-49.5560969,1378,19077.94545
D1,Araguacema/TO,-8.8067391,-49.5560969,20,276.89326
1,Araguaiana/MT,-15.729144,-51.834112,615,20071.80157
D1,Araguaiana/MT,-15.729144,-51.834112,8,261.09661
1,Araguainha/MT,-16.857016,-53.031778,64,7040.70407
D1,Araguainha/MT,-16.857016,-53.031778,2,220.02200
1,Araguanã/MA,-2.9508403,-45.6651986,878,5601.27592
D1,Araguanã/MA,-2.9508403,-45.6651986,6,38.27751
1,Araguanã/TO,-6.5799107,-48.6428482,629,10741.12022
D1,Araguanã/TO,-6.5799107,-48.6428482,16,273.22404
1,Araguapaz/GO,-15.0937927,-50.626417,1211,15535.59974
D1,Araguapaz/GO,-15.0937927,-50.626417,31,397.69083
1,Araguari/MG,-18.6511256,-48.1933764,31213,26371.01748
D1,Araguari/MG,-18.6511256,-48.1933764,517,436.79928
1,Araguatins/TO,-5.6522925,-48.1158973,3485,9528.88743
D1,Araguatins/TO,-5.6522925,-48.1158973,76,207.80357
1,Araguaçu/TO,-12.928934,-49.823134,2019,23984.31932
D1,Araguaçu/TO,-12.928934,-49.823134,25,296.98266
1,Araguaína/TO,-7.193241,-48.2018597,50192,26949.44831
D1,Araguaína/TO,-7.193241,-48.2018597,604,324.30401
1,Araioses/MA,-2.890914,-41.904993,687,1458.75358
D1,Araioses/MA,-2.890914,-41.904993,15,31.85051
1,Aral Moreira/MS,-22.951141,-55.6268421,580,4635.92039
D1,Aral Moreira/MS,-22.951141,-55.6268421,19,151.86636
1,Aramari/BA,-12.0907897,-38.4985065,1058,9184.82507
D1,Aramari/BA,-12.0907897,-38.4985065,14,121.53833
1,Arambaré/RS,-30.9132252,-51.4994625,380,10722.34763
D1,Arambaré/RS,-30.9132252,-51.4994625,10,282.16704
1,Arame/MA,-4.8858769,-46.0102484,1708,5203.35110
D1,Arame/MA,-4.8858769,-46.0102484,42,127.95126
1,Aramina/SP,-20.0876144,-47.789201,392,6890.49042
D1,Aramina/SP,-20.0876144,-47.789201,20,351.55563
1,Arandu/SP,-23.1345103,-49.0545651,666,10450.33736
D1,Arandu/SP,-23.1345103,-49.0545651,22,345.20634
1,Arantina/MG,-21.911667,-44.255833,672,24181.36020
D1,Arantina/MG,-21.911667,-44.255833,7,251.88917
1,Arapeí/SP,-22.6738889,-44.4477778,270,11011.41925
D1,Arapeí/SP,-22.6738889,-44.4477778,7,285.48124
1,Arapiraca/AL,-9.754866,-36.661471,38908,16605.42275
D1,Arapiraca/AL,-9.754866,-36.661471,575,245.40244
1,Arapoema/TO,-7.6575001,-49.0641484,657,9969.65099
D1,Arapoema/TO,-7.6575001,-49.0641484,12,182.09408
1,Araponga/MG,-20.666667,-42.520556,989,11680.64249
D1,Araponga/MG,-20.666667,-42.520556,15,177.15838
1,Arapongas/PR,-23.415296,-51.42592,28888,22828.24292
D1,Arapongas/PR,-23.415296,-51.42592,638,504.16848
1,Araporã/MG,-18.4318188,-49.188313,2749,39316.36156
D1,Araporã/MG,-18.4318188,-49.188313,43,614.98856
1,Arapoti/PR,-24.1457957,-49.8224605,5666,19894.66292
D1,Arapoti/PR,-24.1457957,-49.8224605,73,256.32022
1,Araputanga/MT,-15.4710868,-58.346796,4308,25225.43623
D1,Araputanga/MT,-15.4710868,-58.346796,57,333.76274
1,Arapuá/MG,-19.034444,-46.155556,463,16325.81100
D1,Arapuá/MG,-19.034444,-46.155556,3,105.78279
1,Arapuã/PR,-24.3079525,-51.7901941,865,29312.09759
D1,Arapuã/PR,-24.3079525,-51.7901941,9,304.98136
1,Araquari/SC,-26.3703324,-48.7210994,7009,17141.11030
D1,Araquari/SC,-26.3703324,-48.7210994,95,232.33064
1,Arara/PB,-6.8271895,-35.7605703,1185,8704.91442
D1,Arara/PB,-6.8271895,-35.7605703,31,227.72350
1,Araranguá/SC,-28.9348832,-49.4858389,18021,25932.10827
D1,Araranguá/SC,-28.9348832,-49.4858389,281,404.35727
1,Araraquara/SP,-21.7886713,-48.1773096,59061,24553.30046
D1,Araraquara/SP,-21.7886713,-48.1773096,640,266.06580
1,Araras/SP,-22.3569477,-47.3838889,20198,14771.20646
D1,Araras/SP,-22.3569477,-47.3838889,450,329.09411
1,Ararendá/CE,-4.7504395,-40.8303611,2064,18792.67960
D1,Ararendá/CE,-4.7504395,-40.8303611,22,200.30957
1,Arari/MA,-3.4547602,-44.7772723,1277,4254.68115
D1,Arari/MA,-3.4547602,-44.7772723,37,123.27580
1,Araricá/RS,-29.6168543,-50.929121,1714,29349.31507
D1,Araricá/RS,-29.6168543,-50.929121,30,513.69863
1,Araripe/CE,-7.212861,-40.1359222,2044,9416.31732
D1,Araripe/CE,-7.212861,-40.1359222,28,128.99065
1,Araripina/PE,-7.5768582,-40.5038509,10677,12516.85209
D1,Araripina/PE,-7.5768582,-40.5038509,182,213.36209
1,Araruama/RJ,-22.8733203,-42.3428897,10739,7889.99993
D1,Araruama/RJ,-22.8733203,-42.3428897,513,376.90381
1,Araruna/PB,-6.5321155,-35.7397595,1042,5055.79816
D1,Araruna/PB,-6.5321155,-35.7397595,18,87.33624
1,Araruna/PR,-23.9320308,-52.4976047,3404,24264.02452
D1,Araruna/PR,-23.9320308,-52.4976047,44,313.63604
1,Arataca/BA,-15.2617424,-39.4122943,959,8794.93764
D1,Arataca/BA,-15.2617424,-39.4122943,16,146.73514
1,Aratiba/RS,-27.3955734,-52.3024325,1018,16566.31408
D1,Aratiba/RS,-27.3955734,-52.3024325,8,130.18714
1,Aratuba/CE,-4.4195958,-39.0463737,2193,18649.54503
D1,Aratuba/CE,-4.4195958,-39.0463737,14,119.05774
1,Aratuípe/BA,-13.077137,-39.0010786,1157,13076.40145
D1,Aratuípe/BA,-13.077137,-39.0010786,12,135.62387
1,Araucária/PR,-25.5861107,-49.4051209,44507,29966.60427
D1,Araucária/PR,-25.5861107,-49.4051209,576,387.82133
1,Arauá/SE,-11.2644014,-37.6181058,1419,14420.73171
D1,Arauá/SE,-11.2644014,-37.6181058,23,233.73984
1,Araxá/MG,-19.5928536,-46.940241,37102,34225.99006
D1,Araxá/MG,-19.5928536,-46.940241,299,275.82262
1,Araçagi/PB,-6.8519969,-35.3835602,2741,16260.30729
D1,Araçagi/PB,-6.8519969,-35.3835602,29,172.03536
1,Araçariguama/SP,-23.438611,-47.061389,2886,12363.44943
D1,Araçariguama/SP,-23.438611,-47.061389,75,321.29546
1,Araçatuba/SP,-21.207992,-50.4390225,45729,22955.17293
D1,Araçatuba/SP,-21.207992,-50.4390225,991,497.46499
1,Araçaí/MG,-19.200833,-44.2475,308,13050.84746
D1,Araçaí/MG,-19.200833,-44.2475,2,84.74576
1,Araçoiaba da Serra/SP,-23.5045367,-47.6168158,3294,9307.97706
D1,Araçoiaba da Serra/SP,-23.5045367,-47.6168158,101,285.39942
1,Araçoiaba/PE,-7.7856903,-35.0898881,1132,5406.95453
D1,Araçoiaba/PE,-7.7856903,-35.0898881,33,157.62323
1,Araçu/GO,-16.3561579,-49.6815269,1700,49275.36232
D1,Araçu/GO,-16.3561579,-49.6815269,22,637.68116
1,Araçuaí/MG,-16.8484451,-42.0661868,3908,10644.15089
D1,Araçuaí/MG,-16.8484451,-42.0661868,61,166.14463
1,Araçás/BA,-12.2139176,-38.2026159,971,7934.95138
D1,Araçás/BA,-12.2139176,-38.2026159,16,130.75100
1,Araújos/MG,-19.948055,-45.165556,947,9944.34527
D1,Araújos/MG,-19.948055,-45.165556,15,157.51339
1,Arceburgo/MG,-21.364444,-46.939722,2390,21747.04277
D1,Arceburgo/MG,-21.364444,-46.939722,36,327.57052
1,Arco-Íris/SP,-21.7741308,-50.4668814,552,31452.99145
D1,Arco-Íris/SP,-21.7741308,-50.4668814,9,512.82051
1,Arcos/MG,-20.282223,-45.539444,10137,24932.36263
D1,Arcos/MG,-20.282223,-45.539444,149,366.47154
1,Arcoverde/PE,-8.415192,-37.057748,11504,15278.57095
D1,Arcoverde/PE,-8.415192,-37.057748,143,189.91965
1,Areado/MG,-21.3582771,-46.1476688,3291,21526.68760
D1,Areado/MG,-21.3582771,-46.1476688,35,228.93773
1,Areal/RJ,-22.2314922,-43.1056264,2179,17072.78853
D1,Areal/RJ,-22.2314922,-43.1056264,54,423.09802
1,Arealva/SP,-22.0301906,-48.9111936,2025,23369.87882
D1,Arealva/SP,-22.0301906,-48.9111936,29,334.67975
1,Areia Branca/RN,-4.9506652,-37.1263312,4384,15570.39352
D1,Areia Branca/RN,-4.9506652,-37.1263312,120,426.19690
1,Areia Branca/SE,-10.7591455,-37.3148072,2420,12855.24568
D1,Areia Branca/SE,-10.7591455,-37.3148072,50,265.60425
1,Areia de Baraúnas/PB,-7.1233949,-36.9446216,377,17909.73872
D1,Areia de Baraúnas/PB,-7.1233949,-36.9446216,7,332.54157
1,Areia/PB,-6.9680243,-35.6994783,2912,12946.24994
D1,Areia/PB,-6.9680243,-35.6994783,37,164.49562
1,Areial/PB,-7.0501306,-35.9245244,563,7981.28721
D1,Areial/PB,-7.0501306,-35.9245244,13,184.29260
1,Areias/SP,-22.5800929,-44.6975127,363,9293.39478
D1,Areias/SP,-22.5800929,-44.6975127,4,102.40655
1,Areiópolis/SP,-22.6758064,-48.6673653,2048,18308.60004
D1,Areiópolis/SP,-22.6758064,-48.6673653,32,286.07188
1,Arenápolis/MT,-14.4610369,-56.8432806,3043,32375.78466
D1,Arenápolis/MT,-14.4610369,-56.8432806,43,457.49548
1,Arenópolis/GO,-16.3859286,-51.55937,858,34849.71568
D1,Arenópolis/GO,-16.3859286,-51.55937,10,406.17384
1,Argirita/MG,-21.612761,-42.8371922,734,27377.84409
D1,Argirita/MG,-21.612761,-42.8371922,14,522.19321
1,Aricanduva/MG,-17.8678,-42.5569,411,7747.40811
1,Arinos/MG,-15.917223,-46.106111,2900,16246.49860
D1,Arinos/MG,-15.917223,-46.106111,32,179.27171
1,Aripuanã/MT,-10.175806,-59.4439663,6266,27164.34734
D1,Aripuanã/MT,-10.175806,-59.4439663,58,251.44145
1,Ariquemes/RO,-9.9076522,-63.033069,33941,30536.76180
D1,Ariquemes/RO,-9.9076522,-63.033069,559,502.93303
1,Ariranha do Ivaí/PR,-24.3834527,-51.5876772,655,32329.71372
D1,Ariranha do Ivaí/PR,-24.3834527,-51.5876772,5,246.79171
1,Ariranha/SP,-21.18716,-48.790418,1038,10537.00132
D1,Ariranha/SP,-21.18716,-48.790418,36,365.44513
1,Armazém/SC,-28.2624996,-49.0190126,1757,19868.82280
D1,Armazém/SC,-28.2624996,-49.0190126,36,407.10166
1,Armação dos Búzios/RJ,-22.7597805,-41.8875267,8916,25430.69025
D1,Armação dos Búzios/RJ,-22.7597805,-41.8875267,83,236.73702
1,Arneiroz/CE,-6.3235099,-40.1603859,893,11378.69521
D1,Arneiroz/CE,-6.3235099,-40.1603859,21,267.58410
1,Aroazes/PI,-6.1108814,-41.7886137,700,12029.55834
D1,Aroazes/PI,-6.1108814,-41.7886137,15,257.77625
1,Aroeiras do Itaim/PI,-7.2797031,-41.5629681,190,7448.05958
D1,Aroeiras do Itaim/PI,-7.2797031,-41.5629681,2,78.40063
1,Aroeiras/PB,-7.5462904,-35.7080002,2797,14658.56087
D1,Aroeiras/PB,-7.5462904,-35.7080002,20,104.81631
1,Arraial do Cabo/RJ,-22.9662839,-42.024427,3074,9971.77799
D1,Arraial do Cabo/RJ,-22.9662839,-42.024427,53,171.92721
1,Arraial/PI,-6.6541632,-42.5335332,172,3649.48016
D1,Arraial/PI,-6.6541632,-42.5335332,3,63.65372
1,Arraias/TO,-12.9287788,-46.9437231,1725,16425.44277
D1,Arraias/TO,-12.9287788,-46.9437231,13,123.78595
1,Arroio Grande/RS,-32.2384246,-53.0866661,3270,17981.85318
D1,Arroio Grande/RS,-32.2384246,-53.0866661,62,340.94034
1,Arroio Trinta/SC,-26.9301976,-51.334928,1240,34959.12038
D1,Arroio Trinta/SC,-26.9301976,-51.334928,15,422.89259
1,Arroio do Meio/RS,-29.4020392,-51.9444993,5403,25581.17513
D1,Arroio do Meio/RS,-29.4020392,-51.9444993,56,265.13896
1,Arroio do Padre/RS,-31.4428773,-52.4228985,478,16115.98112
D1,Arroio do Padre/RS,-31.4428773,-52.4228985,4,134.86177
1,Arroio do Sal/RS,-29.549852,-49.8874395,3731,35590.95679
D1,Arroio do Sal/RS,-29.549852,-49.8874395,43,410.18792
1,Arroio do Tigre/RS,-29.334158,-53.0888935,2652,19714.54059
D1,Arroio do Tigre/RS,-29.334158,-53.0888935,25,185.84597
1,Arroio dos Ratos/RS,-30.0894524,-51.7265541,2707,19062.03788
D1,Arroio dos Ratos/RS,-30.0894524,-51.7265541,49,345.04612
1,Artur Nogueira/SP,-22.572737,-47.172679,9032,16057.74530
D1,Artur Nogueira/SP,-22.572737,-47.172679,155,275.57025
1,Aruanã/GO,-14.9162439,-51.0715692,1951,18868.47195
D1,Aruanã/GO,-14.9162439,-51.0715692,23,222.43714
1,Arujá/SP,-23.396266,-46.3175449,11573,12517.71170
D1,Arujá/SP,-23.396266,-46.3175449,360,389.38704
1,Arvoredo/SC,-27.0752908,-52.4571847,462,20736.08618
D1,Arvoredo/SC,-27.0752908,-52.4571847,5,224.41652
1,Arvorezinha/RS,-28.87369,-52.17808,1605,15400.11514
D1,Arvorezinha/RS,-28.87369,-52.17808,32,307.04279
1,Arês/RN,-6.1969216,-35.1642968,1567,10787.55335
D1,Arês/RN,-6.1969216,-35.1642968,27,185.87361
1,Ascurra/SC,-26.9569975,-49.3767752,2263,28213.43972
D1,Ascurra/SC,-26.9569975,-49.3767752,14,174.54183
1,Aspásia/SP,-20.160028,-50.728046,568,31294.76584
D1,Aspásia/SP,-20.160028,-50.728046,10,550.96419
1,Assaré/CE,-6.8746791,-39.8741385,3094,13145.26065
D1,Assaré/CE,-6.8746791,-39.8741385,55,233.67464
1,Assaí/PR,-23.3736041,-50.8454929,3273,22126.82531
D1,Assaí/PR,-23.3736041,-50.8454929,71,479.98918
1,Assis Brasil/AC,-10.9409203,-69.5672108,2062,26957.77226
D1,Assis Brasil/AC,-10.9409203,-69.5672108,25,326.84011
1,Assis Chateaubriand/PR,-24.4054826,-53.5120468,9390,28193.11836
D1,Assis Chateaubriand/PR,-24.4054826,-53.5120468,142,426.34961
1,Assis/SP,-22.6620892,-50.420623,21716,20531.72982
D1,Assis/SP,-22.6620892,-50.420623,466,440.58695
1,Assunção do Piauí/PI,-5.8610212,-41.0485091,410,5203.70605
D1,Assunção do Piauí/PI,-5.8610212,-41.0485091,10,126.91966
1,Assunção/PB,-7.073396,-36.7274003,736,18096.87731
D1,Assunção/PB,-7.073396,-36.7274003,6,147.52889
1,Astolfo Dutra/MG,-21.3132636,-42.8624102,2315,16123.41552
D1,Astolfo Dutra/MG,-21.3132636,-42.8624102,32,222.87227
1,Astorga/PR,-23.2350184,-51.6647074,9015,34272.35401
D1,Astorga/PR,-23.2350184,-51.6647074,106,402.98054
1,Atalaia do Norte/AM,-4.3658547,-70.1908742,3991,19124.97604
D1,Atalaia do Norte/AM,-4.3658547,-70.1908742,11,52.71229
1,Atalaia/AL,-9.5029595,-36.0219316,2059,4331.08961
D1,Atalaia/AL,-9.5029595,-36.0219316,58,122.00252
1,Atalaia/PR,-23.1513833,-52.0529697,1219,31490.57091
D1,Atalaia/PR,-23.1513833,-52.0529697,27,697.49419
1,Atalanta/SC,-27.421916,-49.778863,916,28814.09248
D1,Atalanta/SC,-27.421916,-49.778863,12,377.47719
1,Ataléia/MG,-18.04432,-41.1110524,1530,12243.91805
D1,Ataléia/MG,-18.04432,-41.1110524,12,96.03073
1,Atibaia/SP,-23.1177393,-46.5547861,13051,8977.28680
D1,Atibaia/SP,-23.1177393,-46.5547861,371,255.19680
1,Atilio Vivacqua/ES,-20.9139369,-41.1947519,3128,25493.07253
D1,Atilio Vivacqua/ES,-20.9139369,-41.1947519,37,301.54849
1,Augustinópolis/TO,-5.4662267,-47.8897519,2360,12506.62427
D1,Augustinópolis/TO,-5.4662267,-47.8897519,32,169.58135
1,Augusto Corrêa/PA,-1.0229335,-46.6404029,3094,6591.81456
D1,Augusto Corrêa/PA,-1.0229335,-46.6404029,56,119.30886
1,Augusto Pestana/RS,-28.5148413,-53.9906433,1906,29121.46677
D1,Augusto Pestana/RS,-28.5148413,-53.9906433,16,244.46142
1,Augusto de Lima/MG,-18.1092963,-44.2651945,327,6765.98386
D1,Augusto de Lima/MG,-18.1092963,-44.2651945,11,227.60190
1,Aurelino Leal/BA,-14.3167137,-39.3256107,1347,12158.13702
D1,Aurelino Leal/BA,-14.3167137,-39.3256107,41,370.06950
1,Auriflama/SP,-20.6840418,-50.5554616,2255,14723.16532
D1,Auriflama/SP,-20.6840418,-50.5554616,86,561.50431
1,Aurilândia/GO,-16.6772599,-50.4641231,1362,45400.00000
D1,Aurilândia/GO,-16.6772599,-50.4641231,16,533.33333
1,Aurora do Pará/PA,-2.1323199,-47.558436,2090,6490.68323
D1,Aurora do Pará/PA,-2.1323199,-47.558436,20,62.11180
1,Aurora do Tocantins/TO,-12.71045,-46.407604,570,14964.55763
D1,Aurora do Tocantins/TO,-12.71045,-46.407604,8,210.02888
1,Aurora/CE,-6.9426019,-38.9693765,2718,11063.62193
D1,Aurora/CE,-6.9426019,-38.9693765,44,179.10205
1,Aurora/SC,-27.3166417,-49.6368502,1511,26569.36874
D1,Aurora/SC,-27.3166417,-49.6368502,23,404.43116
1,Autazes/AM,-3.5833283,-59.1301518,4143,10103.64590
D1,Autazes/AM,-3.5833283,-59.1301518,102,248.75015
1,Avanhandava/SP,-21.4603331,-49.9465156,1763,12536.44315
D1,Avanhandava/SP,-21.4603331,-49.9465156,48,341.32120
1,Avaré/SP,-23.1045215,-48.9259103,15168,16524.31584
D1,Avaré/SP,-23.1045215,-48.9259103,317,345.34600
1,Avaí/SP,-22.1564662,-49.3316395,828,15145.41796
D1,Avaí/SP,-22.1564662,-49.3316395,14,256.08195
1,Aveiro/PA,-3.6049239,-55.3310742,1189,7240.72834
D1,Aveiro/PA,-3.6049239,-55.3310742,15,91.34645
1,Avelino Lopes/PI,-10.1346855,-43.9489525,624,5492.47425
D1,Avelino Lopes/PI,-10.1346855,-43.9489525,23,202.44697
1,Avelinópolis/GO,-16.4672409,-49.7578661,404,16826.32237
D1,Avelinópolis/GO,-16.4672409,-49.7578661,18,749.68763
1,Axixá do Tocantins/TO,-5.612747,-47.77007,1327,13517.36783
D1,Axixá do Tocantins/TO,-5.612747,-47.77007,24,244.47387
1,Axixá/MA,-2.8379465,-44.0561053,192,1569.39676
D1,Axixá/MA,-2.8379465,-44.0561053,8,65.39153
1,Açailândia/MA,-4.9514278,-47.4844564,6758,5939.37583
D1,Açailândia/MA,-4.9514278,-47.4844564,292,256.62885
1,Açu/RN,-5.5836157,-36.9139541,10443,17777.43731
D1,Açu/RN,-5.5836157,-36.9139541,171,291.09851
1,Açucena/MG,-19.073056,-42.546666,881,9503.77562
D1,Açucena/MG,-19.073056,-42.546666,39,420.71197
1,Babaçulândia/TO,-7.2034355,-47.761613,909,8520.80990
D1,Babaçulândia/TO,-7.2034355,-47.761613,8,74.99063
1,Bacabal/MA,-4.2318132,-44.781167,5767,5487.46836
D1,Bacabal/MA,-4.2318132,-44.781167,219,208.38487
1,Bacabeira/MA,-2.9775747,-44.3155943,600,3439.18377
D1,Bacabeira/MA,-2.9775747,-44.3155943,11,63.05170
1,Bacuri/MA,-1.728894,-45.1417148,989,5281.42689
D1,Bacuri/MA,-1.728894,-45.1417148,4,21.36067
1,Bacurituba/MA,-2.7082587,-44.7381309,117,2054.07303
D1,Bacurituba/MA,-2.7082587,-44.7381309,2,35.11236
1,Bady Bassitt/SP,-20.9178969,-49.4517911,4505,25009.71521
D1,Bady Bassitt/SP,-20.9178969,-49.4517911,101,560.70616
1,Baependi/MG,-21.959162,-44.8899249,3365,17481.42761
D1,Baependi/MG,-21.959162,-44.8899249,38,197.41285
1,Bagre/PA,-1.8994498,-50.2103844,1333,4169.92524
D1,Bagre/PA,-1.8994498,-50.2103844,13,40.66694
1,Bagé/RS,-31.3314264,-54.1062808,25365,20873.45085
D1,Bagé/RS,-31.3314264,-54.1062808,342,281.43979
1,Baianópolis/BA,-12.3067564,-44.5383591,1378,9857.64361
D1,Baianópolis/BA,-12.3067564,-44.5383591,26,185.99328
1,Baixa Grande do Ribeiro/PI,-7.862861,-45.2113289,2672,22738.49034
D1,Baixa Grande do Ribeiro/PI,-7.862861,-45.2113289,36,306.35691
1,Baixa Grande/BA,-11.9630941,-40.1657537,1384,6774.01987
D1,Baixa Grande/BA,-11.9630941,-40.1657537,26,127.25760
1,Baixio/CE,-6.7303544,-38.7170095,916,14498.25894
D1,Baixio/CE,-6.7303544,-38.7170095,18,284.90028
1,Baixo Guandu/ES,-19.5138322,-41.0182089,10251,32789.55954
D1,Baixo Guandu/ES,-19.5138322,-41.0182089,106,339.05895
1,Baião/PA,-2.7903479,-49.6702845,969,1959.39661
D1,Baião/PA,-2.7903479,-49.6702845,39,78.86116
1,Balbinos/SP,-21.9006253,-49.3583966,695,11343.23486
D1,Balbinos/SP,-21.9006253,-49.3583966,4,65.28480
1,Baldim/MG,-19.2913568,-43.9558262,860,11053.98458
D1,Baldim/MG,-19.2913568,-43.9558262,24,308.48329
1,Baliza/GO,-16.1978119,-52.542789,859,15854.55888
D1,Baliza/GO,-16.1978119,-52.542789,13,239.94094
1,Balneário Arroio do Silva/SC,-28.9815269,-49.4189932,3767,27332.75287
D1,Balneário Arroio do Silva/SC,-28.9815269,-49.4189932,65,471.62966
1,Balneário Barra do Sul/SC,-26.459842,-48.6061471,2311,20503.94819
D1,Balneário Barra do Sul/SC,-26.459842,-48.6061471,55,487.97800
1,Balneário Camboriú/SC,-26.9924395,-48.6339782,36846,24691.24220
D1,Balneário Camboriú/SC,-26.9924395,-48.6339782,499,334.38989
1,Balneário Gaivota/SC,-29.1553098,-49.5808712,3385,29340.38312
D1,Balneário Gaivota/SC,-29.1553098,-49.5808712,41,355.37835
1,Balneário Pinhal/RS,-30.2482978,-50.234585,3789,25872.31137
D1,Balneário Pinhal/RS,-30.2482978,-50.234585,63,430.18095
1,Balneário Piçarras/SC,-26.7638889,-48.6716667,7470,30633.58622
D1,Balneário Piçarras/SC,-26.7638889,-48.6716667,73,299.36436
1,Balneário Rincão/SC,-28.8235718,-49.2241642,2457,18714.29660
D1,Balneário Rincão/SC,-28.8235718,-49.2241642,55,418.91995
1,Balsa Nova/PR,-25.5842234,-49.6312741,3109,23485.42076
D1,Balsa Nova/PR,-25.5842234,-49.6312741,36,271.94440
1,Balsas/MA,-7.53214,-46.037163,16262,16773.42163
D1,Balsas/MA,-7.53214,-46.037163,237,244.45338
1,Bambuí/MG,-20.0131996,-45.9777034,6155,25684.35987
D1,Bambuí/MG,-20.0131996,-45.9777034,42,175.26289
1,Banabuiú/CE,-5.3046404,-38.919766,2956,16141.53880
D1,Banabuiú/CE,-5.3046404,-38.919766,22,120.13324
1,Bananal/SP,-22.6828195,-44.3221095,1146,10381.37512
D1,Bananal/SP,-22.6828195,-44.3221095,6,54.35275
1,Bananeiras/PB,-6.7537682,-35.6338343,2052,9670.12253
D1,Bananeiras/PB,-6.7537682,-35.6338343,29,136.66352
1,Bandeira do Sul/MG,-21.728056,-46.385555,1313,22606.74931
D1,Bandeira do Sul/MG,-21.728056,-46.385555,16,275.48209
1,Bandeira/MG,-15.884444,-40.559167,741,15639.51034
D1,Bandeira/MG,-15.884444,-40.559167,12,253.27142
1,Bandeirante/SC,-26.7677402,-53.6397596,746,28495.03438
D1,Bandeirante/SC,-26.7677402,-53.6397596,7,267.37968
1,Bandeirantes do Tocantins/TO,-7.7635698,-48.579148,826,22748.55412
D1,Bandeirantes do Tocantins/TO,-7.7635698,-48.579148,8,220.32498
1,Bandeirantes/MS,-19.9179623,-54.3646768,827,11358.32990
D1,Bandeirantes/MS,-19.9179623,-54.3646768,12,164.81253
1,Bandeirantes/PR,-23.107788,-50.370407,9544,30726.63469
D1,Bandeirantes/PR,-23.107788,-50.370407,164,527.99330
1,Bannach/PA,-7.3508505,-50.4064531,656,20253.16456
D1,Bannach/PA,-7.3508505,-50.4064531,3,92.62118
1,Banzaê/BA,-10.5827616,-38.6122305,1423,10738.81217
D1,Banzaê/BA,-10.5827616,-38.6122305,12,90.55920
1,Baraúna/PB,-6.643394,-36.2531932,793,15756.01033
D1,Baraúna/PB,-6.643394,-36.2531932,9,178.81979
1,Baraúna/RN,-5.0775002,-37.61752,1771,6083.40203
D1,Baraúna/RN,-5.0775002,-37.61752,32,109.92031
1,Barbacena/MG,-21.2254524,-43.7735087,17858,12841.84638
D1,Barbacena/MG,-21.2254524,-43.7735087,353,253.84543
1,Barbalha/CE,-7.3121067,-39.3036427,11197,18158.67147
D1,Barbalha/CE,-7.3121067,-39.3036427,210,340.56631
1,Barbosa Ferraz/PR,-24.0287182,-52.00811,3299,29228.31576
D1,Barbosa Ferraz/PR,-24.0287182,-52.00811,56,496.14601
1,Barbosa/SP,-21.265661,-49.951816,935,12413.70154
D1,Barbosa/SP,-21.265661,-49.951816,25,331.91715
1,Barcarena/PA,-1.5107945,-48.6190679,14397,11131.72972
D1,Barcarena/PA,-1.5107945,-48.6190679,259,200.25825
1,Barcelona/RN,-5.9514918,-35.9260284,502,12584.60767
D1,Barcelona/RN,-5.9514918,-35.9260284,11,275.75834
1,Barcelos/AM,-0.9729214,-62.925635,5345,19246.00317
D1,Barcelos/AM,-0.9729214,-62.925635,60,216.04494
1,Bariri/SP,-22.0746355,-48.7394852,5413,15101.55117
D1,Bariri/SP,-22.0746355,-48.7394852,150,418.48008
1,Barra Bonita/SC,-26.6526364,-53.4419581,474,29169.23077
D1,Barra Bonita/SC,-26.6526364,-53.4419581,2,123.07692
1,Barra Bonita/SP,-22.490859,-48.558349,5544,15346.71280
D1,Barra Bonita/SP,-22.490859,-48.558349,130,359.86159
1,Barra D'Alcântara/PI,-6.5209258,-42.1071089,164,4148.74779
D1,Barra D'Alcântara/PI,-6.5209258,-42.1071089,5,126.48621
1,Barra Funda/RS,-27.9230048,-53.0401045,1100,42918.45494
D1,Barra Funda/RS,-27.9230048,-53.0401045,14,546.23488
1,Barra Longa/MG,-20.2833541,-43.0423516,667,13598.36901
D1,Barra Longa/MG,-20.2833541,-43.0423516,14,285.42304
1,Barra Mansa/RJ,-22.5394843,-44.1735129,47448,25614.75299
D1,Barra Mansa/RJ,-22.5394843,-44.1735129,751,405.42656
1,Barra Velha/SC,-26.6338203,-48.6835001,6910,22626.80507
D1,Barra Velha/SC,-26.6338203,-48.6835001,144,471.52821
1,Barra da Estiva/BA,-13.6269662,-41.3278287,3866,19140.50896
D1,Barra da Estiva/BA,-13.6269662,-41.3278287,37,183.18645
1,Barra de Guabiraba/PE,-8.4173522,-35.6626669,969,6622.47130
D1,Barra de Guabiraba/PE,-8.4173522,-35.6626669,21,143.52105
1,Barra de Santa Rosa/PB,-6.7218007,-36.0564638,1750,11212.91728
D1,Barra de Santa Rosa/PB,-6.7218007,-36.0564638,16,102.51810
1,Barra de Santana/PB,-7.5230865,-35.9988518,1165,13972.17558
D1,Barra de Santana/PB,-7.5230865,-35.9988518,8,95.94627
1,Barra de Santo Antônio/AL,-9.4038098,-35.5117693,639,3944.20098
D1,Barra de Santo Antônio/AL,-9.4038098,-35.5117693,33,203.69113
1,Barra de São Francisco/ES,-18.7570902,-40.8916119,11676,25774.26547
D1,Barra de São Francisco/ES,-18.7570902,-40.8916119,263,580.56114
1,Barra de São Miguel/AL,-9.8261357,-35.8837777,1012,11999.05146
D1,Barra de São Miguel/AL,-9.8261357,-35.8837777,10,118.56770
1,Barra de São Miguel/PB,-7.7528088,-36.3170996,1354,22214.93027
D1,Barra de São Miguel/PB,-7.7528088,-36.3170996,10,164.06891
1,Barra do Bugres/MT,-15.0683712,-57.1853688,7843,22004.93799
D1,Barra do Bugres/MT,-15.0683712,-57.1853688,104,291.79058
1,Barra do Chapéu/SP,-24.472203,-49.023784,465,8025.54367
D1,Barra do Chapéu/SP,-24.472203,-49.023784,14,241.62927
1,Barra do Choça/BA,-14.8638173,-40.5761637,2937,9526.12630
D1,Barra do Choça/BA,-14.8638173,-40.5761637,41,132.98304
1,Barra do Corda/MA,-5.496823,-45.248496,5876,6610.04556
D1,Barra do Corda/MA,-5.496823,-45.248496,80,89.99381
1,Barra do Garças/MT,-15.8916033,-52.2615413,16295,26409.19257
D1,Barra do Garças/MT,-15.8916033,-52.2615413,408,661.24275
1,Barra do Guarita/RS,-27.1888016,-53.7147086,137,4194.73362
D1,Barra do Guarita/RS,-27.1888016,-53.7147086,8,244.94795
1,Barra do Jacaré/PR,-23.1151788,-50.1813945,674,24235.88637
D1,Barra do Jacaré/PR,-23.1151788,-50.1813945,7,251.70802
1,Barra do Mendes/BA,-11.8053298,-42.057037,1127,8584.70445
D1,Barra do Mendes/BA,-11.8053298,-42.057037,21,159.96344
1,Barra do Ouro/TO,-7.7113784,-47.6743925,208,4451.10208
D1,Barra do Ouro/TO,-7.7113784,-47.6743925,8,171.19623
1,Barra do Piraí/RJ,-22.4703403,-43.8263256,12144,12007.23756
D1,Barra do Piraí/RJ,-22.4703403,-43.8263256,446,440.97727
1,Barra do Quaraí/RS,-30.208947,-57.5505128,1035,24421.89712
D1,Barra do Quaraí/RS,-30.208947,-57.5505128,9,212.36432
1,Barra do Ribeiro/RS,-30.2930206,-51.301437,2405,17660.44941
D1,Barra do Ribeiro/RS,-30.2930206,-51.301437,61,447.93655
1,Barra do Rio Azul/RS,-27.4101581,-52.4117471,209,12893.27576
D1,Barra do Rio Azul/RS,-27.4101581,-52.4117471,1,61.69031
1,Barra do Rocha/BA,-14.2090974,-39.6004395,772,13998.18676
D1,Barra do Rocha/BA,-14.2090974,-39.6004395,8,145.05893
1,Barra do Turvo/SP,-24.756421,-48.5056942,790,10386.53694
D1,Barra do Turvo/SP,-24.756421,-48.5056942,25,328.68788
1,Barra dos Coqueiros/SE,-10.9075694,-37.0386249,8702,27678.99742
D1,Barra dos Coqueiros/SE,-10.9075694,-37.0386249,108,343.52238
1,Barra/BA,-11.0892702,-43.1420453,3454,6369.75565
D1,Barra/BA,-11.0892702,-43.1420453,71,130.93592
1,Barracão/PR,-26.252395,-53.6349576,2691,26007.53842
D1,Barracão/PR,-26.252395,-53.6349576,39,376.92085
1,Barracão/RS,-27.6728964,-51.4582928,873,16669.84915
D1,Barracão/RS,-27.6728964,-51.4582928,18,343.70823
1,Barras/PI,-4.2446153,-42.2920241,6510,13763.79551
D1,Barras/PI,-4.2446153,-42.2920241,107,226.22521
1,Barreira/CE,-4.2883361,-38.641094,2337,10288.35571
D1,Barreira/CE,-4.2883361,-38.641094,53,233.32600
1,Barreiras do Piauí/PI,-9.9224524,-45.4763776,114,3396.90107
D1,Barreiras do Piauí/PI,-9.9224524,-45.4763776,4,119.18951
1,Barreiras/BA,-12.1440031,-44.9967406,25791,16278.90830
D1,Barreiras/BA,-12.1440031,-44.9967406,354,223.43971
1,Barreirinha/AM,-2.798863,-57.067897,4008,12175.33947
D1,Barreirinha/AM,-2.798863,-57.067897,69,209.60540
1,Barreirinhas/MA,-2.7541271,-42.8259693,2867,4487.32998
D1,Barreirinhas/MA,-2.7541271,-42.8259693,49,76.69312
1,Barreiros/PE,-8.8159644,-35.1831905,1436,3349.97434
D1,Barreiros/PE,-8.8159644,-35.1831905,67,156.30103
1,Barretos/SP,-20.5531437,-48.5697509,27852,22543.82983
D1,Barretos/SP,-20.5531437,-48.5697509,636,514.78801
1,Barrinha/SP,-21.1898849,-48.1550642,1755,5233.02621
D1,Barrinha/SP,-21.1898849,-48.1550642,91,271.34210
1,Barro Alto/BA,-11.7618025,-41.9094904,1197,7890.05339
D1,Barro Alto/BA,-11.7618025,-41.9094904,17,112.05590
1,Barro Alto/GO,-14.9696025,-48.9190985,2721,23370.26540
D1,Barro Alto/GO,-14.9696025,-48.9190985,24,206.13244
1,Barro Duro/PI,-5.8180139,-42.5106589,812,11563.65708
D1,Barro Duro/PI,-5.8180139,-42.5106589,12,170.89148
1,Barro Preto/BA,-14.8068289,-39.4727588,756,14231.92771
D1,Barro Preto/BA,-14.8068289,-39.4727588,14,263.55422
1,Barro/CE,-7.1713587,-38.7742136,2856,12507.66401
D1,Barro/CE,-7.1713587,-38.7742136,51,223.35114
1,Barrocas/BA,-11.5165,-39.099282894736845,1149,7081.66410
D1,Barrocas/BA,-11.5165,-39.099282894736845,29,178.73652
1,Barrolândia/TO,-9.837246,-48.7264346,867,15293.70259
D1,Barrolândia/TO,-9.837246,-48.7264346,21,370.43570
1,Barroquinha/CE,-3.0200371,-41.1339229,1624,10777.09204
D1,Barroquinha/CE,-3.0200371,-41.1339229,28,185.81193
1,Barros Cassal/RS,-29.094938,-52.5832366,1559,13960.77729
D1,Barros Cassal/RS,-29.094938,-52.5832366,16,143.27931
1,Barroso/MG,-21.187222,-43.976111,5859,27925.26572
D1,Barroso/MG,-21.187222,-43.976111,74,352.70006
1,Barueri/SP,-23.5112184,-46.8764612,42347,15139.93364
D1,Barueri/SP,-23.5112184,-46.8764612,1254,448.33109
1,Barão de Antonina/SP,-23.6295651,-49.5632104,910,25815.60284
D1,Barão de Antonina/SP,-23.6295651,-49.5632104,11,312.05674
1,Barão de Cocais/MG,-19.9452437,-43.4870298,7531,22661.89215
D1,Barão de Cocais/MG,-19.9452437,-43.4870298,85,255.77756
1,Barão de Cotegipe/RS,-27.6214694,-52.3765316,1075,16248.48851
D1,Barão de Cotegipe/RS,-27.6214694,-52.3765316,11,166.26360
1,Barão de Grajaú/MA,-6.7542591,-43.0263477,481,2528.11942
D1,Barão de Grajaú/MA,-6.7542591,-43.0263477,7,36.79176
1,Barão de Melgaço/MT,-16.195776,-55.9668049,1200,14696.87691
D1,Barão de Melgaço/MT,-16.195776,-55.9668049,19,232.70055
1,Barão de Monte Alto/MG,-21.244722,-42.2375,387,7286.76332
D1,Barão de Monte Alto/MG,-21.244722,-42.2375,16,301.26153
1,Barão do Triunfo/RS,-30.3909877,-51.7375349,777,10291.39073
D1,Barão do Triunfo/RS,-30.3909877,-51.7375349,10,132.45033
1,Barão/RS,-29.372474,-51.494908,1356,21758.66496
D1,Barão/RS,-29.372474,-51.494908,15,240.69320
1,Bastos/SP,-21.9222474,-50.7317727,2410,11502.48186
D1,Bastos/SP,-21.9222474,-50.7317727,72,343.64261
1,Bataguassu/MS,-21.715899,-52.422058,4377,18530.90601
D1,Bataguassu/MS,-21.715899,-52.422058,53,224.38611
1,Batalha/AL,-9.6733809,-37.1265481,1291,7001.08460
D1,Batalha/AL,-9.6733809,-37.1265481,24,130.15184
1,Batalha/PI,-4.022391,-42.0780926,1563,5799.41375
D1,Batalha/PI,-4.022391,-42.0780926,40,148.41750
1,Batatais/SP,-20.892867,-47.592149,6826,10760.11224
D1,Batatais/SP,-20.892867,-47.592149,211,332.60822
1,Batayporã/MS,-22.2976466,-53.2685608,1804,15869.10626
D1,Batayporã/MS,-22.2976466,-53.2685608,31,272.69529
1,Baturité/CE,-4.3290203,-38.8821055,5570,15417.83154
D1,Baturité/CE,-4.3290203,-38.8821055,91,251.88917
1,Bauru/SP,-22.3218102,-49.0705863,80087,20981.33118
D1,Bauru/SP,-22.3218102,-49.0705863,1448,379.34955
1,Bayeux/PB,-7.1301631,-34.936532,11423,11713.61478
D1,Bayeux/PB,-7.1301631,-34.936532,270,276.86912
1,Baía Formosa/RN,-6.3691885,-35.0063741,743,7927.02443
D1,Baía Formosa/RN,-6.3691885,-35.0063741,11,117.35837
1,Baía da Traição/PB,-6.691258,-34.9371244,1669,18147.22192
D1,Baía da Traição/PB,-6.691258,-34.9371244,13,141.35044
1,Bebedouro/SP,-20.949077,-48.479083,5190,6687.11024
D1,Bebedouro/SP,-20.949077,-48.479083,343,441.94197
1,Beberibe/CE,-4.1810469,-38.1298101,10101,18597.07263
D1,Beberibe/CE,-4.1810469,-38.1298101,145,266.96124
1,Bela Cruz/CE,-3.0529129,-40.167582,4174,12705.85370
D1,Bela Cruz/CE,-3.0529129,-40.167582,77,234.39165
1,Bela Vista da Caroba/PR,-25.8792818,-53.6672545,738,21680.37603
D1,Bela Vista da Caroba/PR,-25.8792818,-53.6672545,9,264.39483
1,Bela Vista de Goiás/GO,-16.9692949,-48.9513071,5474,17655.78635
D1,Bela Vista de Goiás/GO,-16.9692949,-48.9513071,93,299.96130
1,Bela Vista de Minas/MG,-19.8289721,-43.0973688,1308,12737.36488
D1,Bela Vista de Minas/MG,-19.8289721,-43.0973688,25,243.45116
1,Bela Vista do Maranhão/MA,-3.7416367,-45.2514192,312,2749.62545
D1,Bela Vista do Maranhão/MA,-3.7416367,-45.2514192,20,176.25804
1,Bela Vista do Paraíso/PR,-22.9948493,-51.1907996,3885,25227.27273
D1,Bela Vista do Paraíso/PR,-22.9948493,-51.1907996,86,558.44156
1,Bela Vista do Piauí/PI,-7.9716353,-41.8715061,325,8036.59743
D1,Bela Vista do Piauí/PI,-7.9716353,-41.8715061,7,173.09594
1,Bela Vista do Toldo/SC,-26.274625,-50.466354,108,1691.19950
D1,Bela Vista do Toldo/SC,-26.274625,-50.466354,5,78.29627
1,Bela Vista/MS,-22.107327,-56.5317344,2742,11037.75863
D1,Bela Vista/MS,-22.107327,-56.5317344,43,173.09395
1,Belford Roxo/RJ,-22.7667284,-43.4033603,50443,9790.21386
D1,Belford Roxo/RJ,-22.7667284,-43.4033603,1018,197.57821
1,Belmiro Braga/MG,-21.9486291,-43.413564,885,25862.06897
D1,Belmiro Braga/MG,-21.9486291,-43.413564,6,175.33606
1,Belmonte/BA,-15.8630837,-38.8792845,1777,7548.85302
D1,Belmonte/BA,-15.8630837,-38.8792845,33,140.18692
1,Belmonte/SC,-26.8448262,-53.578916,642,23672.56637
D1,Belmonte/SC,-26.8448262,-53.578916,5,184.36578
1,Belo Campo/BA,-15.0338286,-41.2585109,1171,6882.97185
D1,Belo Campo/BA,-15.0338286,-41.2585109,22,129.31288
1,Belo Horizonte/MG,-19.9227318,-43.9450948,436230,17237.51640
D1,Belo Horizonte/MG,-19.9227318,-43.9450948,7977,315.20911
1,Belo Jardim/PE,-8.3338293,-36.4176419,10035,13044.32601
D1,Belo Jardim/PE,-8.3338293,-36.4176419,139,180.68374
1,Belo Monte/AL,-9.8269944,-37.2787165,655,9751.37710
D1,Belo Monte/AL,-9.8269944,-37.2787165,9,133.98839
1,Belo Oriente/MG,-19.2232523,-42.4807033,3501,12834.98919
D1,Belo Oriente/MG,-19.2232523,-42.4807033,83,304.28566
1,Belo Vale/MG,-20.407778,-44.024167,1723,22309.98317
D1,Belo Vale/MG,-20.407778,-44.024167,15,194.22504
1,Belterra/PA,-2.636091,-54.937392,3102,17287.11547
D1,Belterra/PA,-2.636091,-54.937392,50,278.64467
1,Belágua/MA,-3.1604031,-43.5085052,446,5879.25125
D1,Belágua/MA,-3.1604031,-43.5085052,4,52.72871
1,Belém de Maria/PE,-8.6242497,-35.8388934,546,4486.81075
D1,Belém de Maria/PE,-8.6242497,-35.8388934,10,82.17602
1,Belém do Brejo do Cruz/PB,-6.1880727,-37.5332267,875,11895.05166
D1,Belém do Brejo do Cruz/PB,-6.1880727,-37.5332267,8,108.75476
1,Belém do Piauí/PI,-7.3767305,-40.9712156,625,17327.41891
D1,Belém do Piauí/PI,-7.3767305,-40.9712156,8,221.79096
1,Belém do São Francisco/PE,-8.7517707,-38.9625715,1596,7698.98698
D1,Belém do São Francisco/PE,-8.7517707,-38.9625715,17,82.00675
1,Belém/AL,-9.5715351,-36.492841,240,5679.12920
D1,Belém/AL,-9.5715351,-36.492841,8,189.30431
1,Belém/PA,-1.45056,-48.4682453,145230,9640.73764
D1,Belém/PA,-1.45056,-48.4682453,5375,356.80620
1,Belém/PB,-6.6967586,-35.5369626,3090,17425.13957
D1,Belém/PB,-6.6967586,-35.5369626,48,270.68178
1,Beneditinos/PI,-5.4565671,-42.3605061,1485,14171.19954
D1,Beneditinos/PI,-5.4565671,-42.3605061,41,391.25871
1,Benedito Leite/MA,-7.2173453,-44.5523331,341,6042.88499
D1,Benedito Leite/MA,-7.2173453,-44.5523331,2,35.44214
1,Benedito Novo/SC,-26.7840657,-49.3629511,1547,13004.37122
D1,Benedito Novo/SC,-26.7840657,-49.3629511,24,201.74849
1,Benevides/PA,-1.3555577,-48.252235,6788,10478.54276
D1,Benevides/PA,-1.3555577,-48.252235,116,179.06761
1,Benjamin Constant do Sul/RS,-27.5105555,-52.6007689,207,10758.83576
D1,Benjamin Constant do Sul/RS,-27.5105555,-52.6007689,3,155.92516
1,Benjamin Constant/AM,-4.3782748,-70.0290603,4081,9094.55575
D1,Benjamin Constant/AM,-4.3782748,-70.0290603,88,196.10902
1,Bento Fernandes/RN,-5.6926846,-35.8207423,243,4376.80115
D1,Bento Fernandes/RN,-5.6926846,-35.8207423,4,72.04611
1,Bento Gonçalves/RS,-29.1654014,-51.5197627,38380,31180.43708
D1,Bento Gonçalves/RS,-29.1654014,-51.5197627,470,381.83443
1,Bento de Abreu/SP,-21.2707225,-50.8120444,647,21367.23910
D1,Bento de Abreu/SP,-21.2707225,-50.8120444,6,198.15059
1,Bequimão/MA,-2.4495376,-44.7884889,673,3157.10466
D1,Bequimão/MA,-2.4495376,-44.7884889,29,136.04166
1,Berilo/MG,-16.9515764,-42.4643732,521,4410.39533
D1,Berilo/MG,-16.9515764,-42.4643732,3,25.39575
1,Berizal/MG,-15.6118785,-41.7417382,412,8597.66277
D1,Berizal/MG,-15.6118785,-41.7417382,3,62.60434
1,Bernardino Batista/PB,-6.4532173,-38.5495418,469,13133.57603
D1,Bernardino Batista/PB,-6.4532173,-38.5495418,3,84.01008
1,Bernardino de Campos/SP,-23.0140216,-49.4760724,2051,18364.97135
D1,Bernardino de Campos/SP,-23.0140216,-49.4760724,40,358.16619
1,Bernardo Sayão/TO,-7.8794244,-48.8968905,1169,26334.76008
D1,Bernardo Sayão/TO,-7.8794244,-48.8968905,13,292.85875
1,Bernardo do Mearim/MA,-4.6315929,-44.7617508,593,9718.12520
D1,Bernardo do Mearim/MA,-4.6315929,-44.7617508,7,114.71649
1,Bertioga/SP,-23.848568,-46.139586,9621,14543.33827
D1,Bertioga/SP,-23.848568,-46.139586,197,297.79001
1,Bertolínia/PI,-7.6372159,-43.9540611,1255,22768.50508
D1,Bertolínia/PI,-7.6372159,-43.9540611,12,217.70682
1,Bertópolis/MG,-17.063333,-40.573889,813,17639.40117
D1,Bertópolis/MG,-17.063333,-40.573889,6,130.18008
1,Beruri/AM,-3.9007135,-61.3717319,2906,14173.53558
D1,Beruri/AM,-3.9007135,-61.3717319,35,170.70673
1,Betim/MG,-19.968056,-44.198333,51152,11366.50490
D1,Betim/MG,-19.968056,-44.198333,1451,322.42725
1,Betânia do Piauí/PI,-8.1460635,-40.7961387,184,2961.05568
D1,Betânia do Piauí/PI,-8.1460635,-40.7961387,4,64.37078
1,Betânia/PE,-8.2742779,-38.0351767,741,5784.09180
D1,Betânia/PE,-8.2742779,-38.0351767,19,148.31005
1,Bezerros/PE,-8.2372132,-35.7558262,9064,14868.76640
D1,Bezerros/PE,-8.2372132,-35.7558262,131,214.89501
1,Bias Fortes/MG,-21.605833,-43.756944,562,17123.70506
D1,Bias Fortes/MG,-21.605833,-43.756944,4,121.87690
1,Bicas/MG,-21.7213723,-43.0604327,3972,27183.13715
D1,Bicas/MG,-21.7213723,-43.0604327,55,376.40296
1,Biguaçu/SC,-27.4961277,-48.6542432,17190,24393.01273
D1,Biguaçu/SC,-27.4961277,-48.6542432,187,265.35738
1,Bilac/SP,-21.403962,-50.47464,968,11809.19849
D1,Bilac/SP,-21.403962,-50.47464,25,304.98963
1,Biquinhas/MG,-18.783611,-45.502222,425,17123.28767
D1,Biquinhas/MG,-18.783611,-45.502222,4,161.16035
1,Birigui/SP,-21.2908491,-50.34144,29533,23421.41577
D1,Birigui/SP,-21.2908491,-50.34144,643,509.93703
1,Biritiba Mirim/SP,-23.5697765,-46.0407456,1584,4761.76161
D1,Biritiba Mirim/SP,-23.5697765,-46.0407456,119,357.73335
1,Biritinga/BA,-11.6227908,-38.8066738,1121,7011.07011
D1,Biritinga/BA,-11.6227908,-38.8066738,10,62.54300
1,Bituruna/PR,-26.161281,-51.5533319,2619,15958.80812
D1,Bituruna/PR,-26.161281,-51.5533319,37,225.45853
1,Blumenau/SC,-26.9195567,-49.0658025,100517,27432.33138
D1,Blumenau/SC,-26.9195567,-49.0658025,805,219.69445
1,Boa Esperança do Iguaçu/PR,-25.6362851,-53.2139114,500,20517.02913
D1,Boa Esperança do Iguaçu/PR,-25.6362851,-53.2139114,1,41.03406
1,Boa Esperança do Sul/SP,-21.9930206,-48.3917372,2661,17609.68831
D1,Boa Esperança do Sul/SP,-21.9930206,-48.3917372,26,172.06009
1,Boa Esperança/ES,-18.5395472,-40.2904088,4872,32166.90875
D1,Boa Esperança/ES,-18.5395472,-40.2904088,55,363.13218
1,Boa Esperança/MG,-21.0901253,-45.5660195,8605,21348.11948
D1,Boa Esperança/MG,-21.0901253,-45.5660195,152,377.09636
1,Boa Esperança/PR,-24.2411024,-52.7860277,1445,36206.46455
D1,Boa Esperança/PR,-24.2411024,-52.7860277,20,501.12754
1,Boa Hora/PI,-4.4094627,-42.1255341,608,8878.50467
D1,Boa Hora/PI,-4.4094627,-42.1255341,7,102.21963
1,Boa Nova/BA,-14.365907,-40.2063056,1337,11105.57355
D1,Boa Nova/BA,-14.365907,-40.2063056,23,191.04577
1,Boa Ventura de São Roque/PR,-24.88177,-51.5441292,1138,17941.03736
D1,Boa Ventura de São Roque/PR,-24.88177,-51.5441292,10,157.65411
1,Boa Ventura/PB,-7.4202462,-38.2156782,1035,19721.79878
D1,Boa Ventura/PB,-7.4202462,-38.2156782,12,228.65854
1,Boa Viagem/CE,-5.1261877,-39.7300055,6127,11205.19386
D1,Boa Viagem/CE,-5.1261877,-39.7300055,124,226.77396
1,Boa Vista da Aparecida/PR,-25.4357216,-53.4067721,1792,23817.11855
D1,Boa Vista da Aparecida/PR,-25.4357216,-53.4067721,39,518.34131
1,Boa Vista das Missões/RS,-27.6677983,-53.3127622,641,30713.94346
D1,Boa Vista das Missões/RS,-27.6677983,-53.3127622,7,335.40968
1,Boa Vista do Buricá/RS,-27.6687782,-54.1111913,1652,24612.63409
D1,Boa Vista do Buricá/RS,-27.6687782,-54.1111913,13,193.68296
1,Boa Vista do Cadeado/RS,-28.5783827,-53.8123759,460,18653.69019
D1,Boa Vista do Cadeado/RS,-28.5783827,-53.8123759,5,202.75750
1,Boa Vista do Gurupi/MA,-1.7981168,-46.3071882,16,188.36826
D1,Boa Vista do Gurupi/MA,-1.7981168,-46.3071882,5,58.86508
1,Boa Vista do Incra/RS,-28.8195551,-53.3866624,812,30898.02131
D1,Boa Vista do Incra/RS,-28.8195551,-53.3866624,5,190.25875
1,Boa Vista do Ramos/AM,-2.9716927,-57.5869819,1809,9026.94611
D1,Boa Vista do Ramos/AM,-2.9716927,-57.5869819,14,69.86028
1,Boa Vista do Sul/RS,-29.3510488,-51.6779679,639,23043.63505
D1,Boa Vista do Sul/RS,-29.3510488,-51.6779679,5,180.31013
1,Boa Vista do Tupim/BA,-12.6605988,-40.6083594,313,1692.71538
D1,Boa Vista do Tupim/BA,-12.6605988,-40.6083594,14,75.71251
1,Boa Vista/PB,-7.2620711,-36.2415161,1536,21280.13300
D1,Boa Vista/PB,-7.2620711,-36.2415161,17,235.52231
1,Boa Vista/RR,2.8208478,-60.6719582,132185,30276.62045
D1,Boa Vista/RR,2.8208478,-60.6719582,1626,372.43095
1,Boca da Mata/AL,-9.6452054,-36.2116658,2786,10157.13296
D1,Boca da Mata/AL,-9.6452054,-36.2116658,51,185.93459
1,Boca do Acre/AM,-8.7553487,-67.3930873,4727,13521.94061
D1,Boca do Acre/AM,-8.7553487,-67.3930873,32,91.53842
1,Bocaina de Minas/MG,-22.167778,-44.394722,802,15762.57862
D1,Bocaina de Minas/MG,-22.167778,-44.394722,7,137.57862
1,Bocaina do Sul/SC,-27.745494,-49.942279,815,23279.06312
D1,Bocaina do Sul/SC,-27.745494,-49.942279,5,142.81634
1,Bocaina/PI,-6.9445939,-41.3224599,451,10002.21779
D1,Bocaina/PI,-6.9445939,-41.3224599,11,243.95653
1,Bocaina/SP,-22.1421831,-48.522276,2432,19346.11407
D1,Bocaina/SP,-22.1421831,-48.522276,39,310.23785
1,Bocaiúva do Sul/PR,-25.206591,-49.114131,3265,24534.11482
D1,Bocaiúva do Sul/PR,-25.206591,-49.114131,31,232.94259
1,Bocaiúva/MG,-17.1160208,-43.8122678,4885,9669.24645
D1,Bocaiúva/MG,-17.1160208,-43.8122678,80,158.34999
1,Bodocó/PE,-7.777592,-39.933797,2985,7732.15905
D1,Bodocó/PE,-7.777592,-39.933797,45,116.56521
1,Bodoquena/MS,-20.5508775,-56.6769653,639,8190.20764
D1,Bodoquena/MS,-20.5508775,-56.6769653,24,307.61343
1,Bodó/RN,-5.9866104,-36.4134824,562,25886.68816
D1,Bodó/RN,-5.9866104,-36.4134824,2,92.12345
1,Bofete/SP,-23.1019554,-48.2610535,2226,18386.05765
D1,Bofete/SP,-23.1019554,-48.2610535,29,239.53085
1,Boituva/SP,-23.2838893,-47.6738231,7025,11096.19333
D1,Boituva/SP,-23.2838893,-47.6738231,211,333.28068
1,Bom Conselho/PE,-9.169191,-36.685683,3671,7495.66105
D1,Bom Conselho/PE,-9.169191,-36.685683,91,185.80909
1,Bom Despacho/MG,-19.7375242,-45.2517288,12145,23611.86717
D1,Bom Despacho/MG,-19.7375242,-45.2517288,131,254.68543
1,Bom Jardim da Serra/SC,-28.3380324,-49.625588,1094,22786.91939
D1,Bom Jardim da Serra/SC,-28.3380324,-49.625588,8,166.63195
1,Bom Jardim de Goiás/GO,-16.2062659,-52.172793,2255,25302.96230
D1,Bom Jardim de Goiás/GO,-16.2062659,-52.172793,32,359.06643
1,Bom Jardim de Minas/MG,-21.9476466,-44.1906033,1415,21958.41092
D1,Bom Jardim de Minas/MG,-21.9476466,-44.1906033,8,124.14649
1,Bom Jardim/MA,-3.54129,-45.606004,2125,5058.31945
D1,Bom Jardim/MA,-3.54129,-45.606004,59,140.44275
1,Bom Jardim/PE,-7.7961572,-35.5871696,2833,7075.77801
D1,Bom Jardim/PE,-7.7961572,-35.5871696,73,182.32679
1,Bom Jardim/RJ,-22.1515328,-42.4186683,4428,15940.09864
D1,Bom Jardim/RJ,-22.1515328,-42.4186683,60,215.99050
1,Bom Jesus da Lapa/BA,-13.250571,-43.410754,8468,12071.10376
D1,Bom Jesus da Lapa/BA,-13.250571,-43.410754,108,153.95361
1,Bom Jesus da Penha/MG,-21.0165299,-46.5226644,1294,30304.44965
D1,Bom Jesus da Penha/MG,-21.0165299,-46.5226644,21,491.80328
1,Bom Jesus da Serra/BA,-14.3724084,-40.5047119,651,6664.61916
D1,Bom Jesus da Serra/BA,-14.3724084,-40.5047119,13,133.08763
1,Bom Jesus das Selvas/MA,-4.4878075,-46.8526639,4476,12753.95355
D1,Bom Jesus das Selvas/MA,-4.4878075,-46.8526639,48,136.77162
1,Bom Jesus de Goiás/GO,-18.2174587,-49.739721,5821,22329.20327
D1,Bom Jesus de Goiás/GO,-18.2174587,-49.739721,123,471.82477
1,Bom Jesus do Amparo/MG,-19.7045132,-43.4752911,640,10352.63669
D1,Bom Jesus do Amparo/MG,-19.7045132,-43.4752911,9,145.58395
1,Bom Jesus do Araguaia/MT,-12.1725897,-51.5074425,1136,16632.50366
D1,Bom Jesus do Araguaia/MT,-12.1725897,-51.5074425,17,248.90190
1,Bom Jesus do Galho/MG,-19.8283191,-42.3162256,1026,6936.18172
D1,Bom Jesus do Galho/MG,-19.8283191,-42.3162256,42,283.93726
1,Bom Jesus do Itabapoana/RJ,-21.1341025,-41.680095,8231,22063.47504
D1,Bom Jesus do Itabapoana/RJ,-21.1341025,-41.680095,125,335.06675
1,Bom Jesus do Norte/ES,-21.1254776,-41.6711646,2669,26722.06648
D1,Bom Jesus do Norte/ES,-21.1254776,-41.6711646,33,330.39648
1,Bom Jesus do Oeste/SC,-26.6929713,-53.0967453,377,17649.81273
D1,Bom Jesus do Oeste/SC,-26.6929713,-53.0967453,6,280.89888
1,Bom Jesus do Sul/PR,-26.1922507,-53.6002033,1323,38104.83871
D1,Bom Jesus do Sul/PR,-26.1922507,-53.6002033,9,259.21659
1,Bom Jesus do Tocantins/PA,-5.0471796,-48.5978362,1336,7743.13203
D1,Bom Jesus do Tocantins/PA,-5.0471796,-48.5978362,29,168.07697
1,Bom Jesus do Tocantins/TO,-8.96306,-48.165043,200,3906.25000
D1,Bom Jesus do Tocantins/TO,-8.96306,-48.165043,3,58.59375
1,Bom Jesus dos Perdões/SP,-23.1353864,-46.4648052,2525,9526.14502
D1,Bom Jesus dos Perdões/SP,-23.1353864,-46.4648052,36,135.81831
1,Bom Jesus/PB,-6.8156725,-38.6551841,470,18160.74189
D1,Bom Jesus/PB,-6.8156725,-38.6551841,4,154.55951
1,Bom Jesus/PI,-9.0711644,-44.3583926,3862,15095.37211
D1,Bom Jesus/PI,-9.0711644,-44.3583926,53,207.16073
1,Bom Jesus/RN,-5.9887544,-35.5821149,1471,14249.73360
D1,Bom Jesus/RN,-5.9887544,-35.5821149,20,193.74213
1,Bom Jesus/RS,-28.6692723,-50.4346894,1934,17160.60337
D1,Bom Jesus/RS,-28.6692723,-50.4346894,27,239.57409
1,Bom Jesus/SC,-26.7350604,-52.3916519,783,25225.51546
D1,Bom Jesus/SC,-26.7350604,-52.3916519,12,386.59794
1,Bom Lugar/MA,-4.3728019,-45.0366054,656,3957.05151
D1,Bom Lugar/MA,-4.3728019,-45.0366054,7,42.22464
1,Bom Princípio do Piauí/PI,-3.1912777,-41.6430185,270,4761.90476
D1,Bom Princípio do Piauí/PI,-3.1912777,-41.6430185,13,229.27690
1,Bom Princípio/RS,-29.489788,-51.3566782,3670,25404.95639
D1,Bom Princípio/RS,-29.489788,-51.3566782,35,242.28160
1,Bom Progresso/RS,-27.5490948,-53.8655601,309,16630.78579
D1,Bom Progresso/RS,-27.5490948,-53.8655601,3,161.46394
1,Bom Repouso/MG,-22.4657069,-46.1485376,2598,24679.39584
D1,Bom Repouso/MG,-22.4657069,-46.1485376,35,332.47839
1,Bom Retiro do Sul/RS,-29.6000007,-51.9359243,2187,17569.08740
D1,Bom Retiro do Sul/RS,-29.6000007,-51.9359243,41,329.37018
1,Bom Retiro/SC,-27.798993,-49.486994,1281,12616.96050
D1,Bom Retiro/SC,-27.798993,-49.486994,22,216.68472
1,Bom Sucesso de Itararé/SP,-24.3190016,-49.1446207,609,15175.67904
D1,Bom Sucesso de Itararé/SP,-24.3190016,-49.1446207,7,174.43309
1,Bom Sucesso do Sul/PR,-26.0749256,-52.8348629,1026,31627.62022
D1,Bom Sucesso do Sul/PR,-26.0749256,-52.8348629,10,308.26141
1,Bom Sucesso/MG,-21.0323516,-44.7598082,2282,12957.07472
D1,Bom Sucesso/MG,-21.0323516,-44.7598082,34,193.05019
1,Bom Sucesso/PB,-6.4458948,-37.9297662,819,16589.02167
D1,Bom Sucesso/PB,-6.4458948,-37.9297662,5,101.27608
1,Bom Sucesso/PR,-23.7088019,-51.7651297,2502,35224.55301
D1,Bom Sucesso/PR,-23.7088019,-51.7651297,22,309.72828
1,Bombinhas/SC,-27.1519159,-48.4875691,4810,23026.47326
D1,Bombinhas/SC,-27.1519159,-48.4875691,76,363.82785
1,Bonfim do Piauí/PI,-9.1648678,-42.8734415,518,9087.71930
D1,Bonfim do Piauí/PI,-9.1648678,-42.8734415,9,157.89474
1,Bonfim/MG,-20.3266626, -44.2386157,989,14433.74197
D1,Bonfim/MG,-20.3266626, -44.2386157,20,291.88558
1,Bonfim/RR,3.3613818,-59.8427241,3130,24643.72884
D1,Bonfim/RR,3.3613818,-59.8427241,36,283.44225
1,Bonfinópolis de Minas/MG,-16.5660011,-45.98645,960,17787.65981
D1,Bonfinópolis de Minas/MG,-16.5660011,-45.98645,14,259.40337
1,Bonfinópolis/GO,-16.6172709,-48.9615701,641,6333.99209
D1,Bonfinópolis/GO,-16.6172709,-48.9615701,37,365.61265
1,Boninal/BA,-12.7095183,-41.8299984,1195,8231.16132
D1,Boninal/BA,-12.7095183,-41.8299984,11,75.76801
1,Bonito de Minas/MG,-15.3191266,-44.7544,379,3295.07912
D1,Bonito de Minas/MG,-15.3191266,-44.7544,5,43.47070
1,Bonito de Santa Fé/PB,-7.3143332,-38.5146677,880,7257.13343
D1,Bonito de Santa Fé/PB,-7.3143332,-38.5146677,14,115.45440
1,Bonito/BA,-11.9665473,-41.2649896,1565,9206.42391
D1,Bonito/BA,-11.9665473,-41.2649896,16,94.12318
1,Bonito/MS,-21.1264766,-56.4902208,5109,22807.01754
D1,Bonito/MS,-21.1264766,-56.4902208,80,357.12691
1,Bonito/PA,-1.3605722,-47.3049907,535,3190.41088
D1,Bonito/PA,-1.3605722,-47.3049907,18,107.34093
1,Bonito/PE,-8.4721161,-35.7314591,2820,7401.38054
D1,Bonito/PE,-8.4721161,-35.7314591,48,125.98095
1,Bonópolis/GO,-13.649331,-49.8329113,804,17558.41887
D1,Bonópolis/GO,-13.649331,-49.8329113,5,109.19415
1,Boqueirão do Leão/RS,-29.30332,-52.4296817,714,9283.57821
D1,Boqueirão do Leão/RS,-29.30332,-52.4296817,35,455.07736
1,Boqueirão do Piauí/PI,-4.4850148,-42.1095161,885,13735.83734
D1,Boqueirão do Piauí/PI,-4.4850148,-42.1095161,14,217.29008
1,Boqueirão/PB,-7.487004,-36.130887,2471,13778.29820
D1,Boqueirão/PB,-7.487004,-36.130887,49,273.22404
1,Boquim/SE,-11.1450175,-37.6204228,3844,14247.59081
D1,Boquim/SE,-11.1450175,-37.6204228,77,285.39659
1,Boquira/BA,-12.8184859,-42.7270883,1091,5077.72503
D1,Boquira/BA,-12.8184859,-42.7270883,27,125.66322
1,Boracéia/SP,-22.195355,-48.7801925,1055,21473.64136
D1,Boracéia/SP,-22.195355,-48.7801925,26,529.20822
1,Borba/AM,-4.3934778,-59.5947721,3794,8963.33396
D1,Borba/AM,-4.3934778,-59.5947721,71,167.73767
1,Borborema/PB,-6.8066718,-35.5990191,478,9000.18829
D1,Borborema/PB,-6.8066718,-35.5990191,14,263.60384
1,Borborema/SP,-21.6212706,-49.074135,3982,24462.46468
D1,Borborema/SP,-21.6212706,-49.074135,58,356.30913
1,Borda da Mata/MG,-22.274167,-46.165278,5638,28461.81029
D1,Borda da Mata/MG,-22.274167,-46.165278,66,333.18189
1,Borebi/SP,-22.5700178,-48.9714871,304,11205.30778
D1,Borebi/SP,-22.5700178,-48.9714871,4,147.43826
1,Borrazópolis/PR,-23.9393362,-51.5850786,1965,31240.06359
D1,Borrazópolis/PR,-23.9393362,-51.5850786,36,572.33704
1,Borá/SP,-22.2701088,-50.544407,203,24195.47080
D1,Borá/SP,-22.2701088,-50.544407,1,119.18951
1,Bossoroca/RS,-28.7278885,-54.9120278,858,13985.33007
D1,Bossoroca/RS,-28.7278885,-54.9120278,22,358.59821
1,Botelhos/MG,-21.65,-46.394722,3685,24686.80914
D1,Botelhos/MG,-21.65,-46.394722,36,241.17371
1,Botucatu/SP,-22.8879628,-48.4410712,48075,32110.36749
D1,Botucatu/SP,-22.8879628,-48.4410712,385,257.15011
1,Botumirim/MG,-16.862778,-43.011111,1015,16216.64803
D1,Botumirim/MG,-16.862778,-43.011111,5,79.88497
1,Botuporã/BA,-13.3744752,-42.5198469,1046,10407.96020
D1,Botuporã/BA,-13.3744752,-42.5198469,8,79.60199
1,Botuverá/SC,-27.200749,-49.068892,1728,32023.72128
D1,Botuverá/SC,-27.200749,-49.068892,12,222.38695
1,Bozano/RS,-28.3669953,-53.7705165,609,29013.81610
D1,Bozano/RS,-28.3669953,-53.7705165,9,428.77561
1,Braga/RS,-27.617348,-53.740514,696,21277.89667
D1,Braga/RS,-27.617348,-53.740514,11,336.28860
1,Braganey/PR,-24.8179919,-53.118506,1335,25009.36680
D1,Braganey/PR,-24.8179919,-53.118506,15,281.00412
1,Bragança Paulista/SP,-22.9520235,-46.5418586,36925,21424.92428
D1,Bragança Paulista/SP,-22.9520235,-46.5418586,638,370.18556
1,Bragança/PA,-1.0573967,-46.7635406,7163,5504.83393
D1,Bragança/PA,-1.0573967,-46.7635406,196,150.62787
1,Branquinha/AL,-9.2478057,-36.0152009,1148,11010.93420
D1,Branquinha/AL,-9.2478057,-36.0152009,17,163.05390
1,Brasil Novo/PA,-3.3055853,-52.539198,4634,31136.19566
D1,Brasil Novo/PA,-3.3055853,-52.539198,47,315.79655
1,Brasileira/PI,-4.131182,-41.7824969,907,10844.09374
D1,Brasileira/PI,-4.131182,-41.7824969,21,251.07604
1,Brasilândia de Minas/MG,-17.0096469,-46.0087183,3387,19982.30088
D1,Brasilândia de Minas/MG,-17.0096469,-46.0087183,31,182.89086
1,Brasilândia do Sul/PR,-24.1975793,-53.527551,915,36295.12098
D1,Brasilândia do Sul/PR,-24.1975793,-53.527551,13,515.66839
1,Brasilândia do Tocantins/TO,-8.3886619,-48.4842729,306,13777.57767
D1,Brasilândia do Tocantins/TO,-8.3886619,-48.4842729,6,270.14858
1,Brasilândia/MS,-21.255575,-52.0365617,2149,18158.00591
D1,Brasilândia/MS,-21.255575,-52.0365617,27,228.13688
1,Brasiléia/AC,-11.0010413,-68.7487894,3866,14253.58552
D1,Brasiléia/AC,-11.0010413,-68.7487894,49,180.65848
1,Brasnorte/MT,-12.1227151,-58.0050109,3757,18263.57494
D1,Brasnorte/MT,-12.1227151,-58.0050109,45,218.75456
1,Brasília de Minas/MG,-16.2075114,-44.430559,2182,6722.11953
D1,Brasília de Minas/MG,-16.2075114,-44.430559,18,55.45287
1,Brasília/DF,-15.7934036,-47.8823172,829549,26808.72242
D1,Brasília/DF,-15.7934036,-47.8823172,11817,381.89266
1,Brazabrantes/GO,-16.4291635,-49.3858216,903,23688.35257
D1,Brazabrantes/GO,-16.4291635,-49.3858216,8,209.86359
1,Brazópolis/MG,-22.4742842,-45.6165577,1934,13464.21610
D1,Brazópolis/MG,-22.4742842,-45.6165577,39,271.51211
1,Braço do Norte/SC,-28.2728633,-49.1622712,12853,37478.85928
D1,Braço do Norte/SC,-28.2728633,-49.1622712,119,346.99948
1,Braço do Trombudo/SC,-27.358578,-49.882145,1249,32920.40063
D1,Braço do Trombudo/SC,-27.358578,-49.882145,8,210.85925
1,Braúna/SP,-21.5015319,-50.3175246,632,10905.95341
D1,Braúna/SP,-21.5015319,-50.3175246,26,448.66264
1,Braúnas/MG,-19.055556,-42.716111,491,10365.21005
D1,Braúnas/MG,-19.055556,-42.716111,11,232.21448
1,Brejetuba/ES,-20.1465817,-41.2902303,3110,24979.91968
D1,Brejetuba/ES,-20.1465817,-41.2902303,21,168.67470
1,Brejinho de Nazaré/TO,-11.0205883,-48.5722906,1349,24350.18051
D1,Brejinho de Nazaré/TO,-11.0205883,-48.5722906,20,361.01083
1,Brejinho/PE,-7.3482153,-37.28538,1067,14247.56309
D1,Brejinho/PE,-7.3482153,-37.28538,22,293.76419
1,Brejinho/RN,-6.1957907,-35.3583019,1879,14596.44217
D1,Brejinho/RN,-6.1957907,-35.3583019,20,155.36394
1,Brejo Alegre/SP,-21.1671191,-50.1850393,814,27962.89935
D1,Brejo Alegre/SP,-21.1671191,-50.1850393,14,480.93439
1,Brejo Grande do Araguaia/PA,-5.7011449,-48.4037308,1240,16854.69621
D1,Brejo Grande do Araguaia/PA,-5.7011449,-48.4037308,6,81.55498
1,Brejo Grande/SE,-10.4287358,-36.4667918,620,7384.46879
D1,Brejo Grande/SE,-10.4287358,-36.4667918,13,154.83564
1,Brejo Santo/CE,-7.4909841,-38.9859152,11325,22562.00817
D1,Brejo Santo/CE,-7.4909841,-38.9859152,159,316.76462
1,Brejo da Madre de Deus/PE,-8.1409718,-36.3712527,4046,7826.52430
D1,Brejo da Madre de Deus/PE,-8.1409718,-36.3712527,63,121.86630
1,Brejo de Areia/MA,-4.3316785,-45.5833334,468,5293.51883
D1,Brejo de Areia/MA,-4.3316785,-45.5833334,12,135.73125
1,Brejo do Cruz/PB,-6.32926065,-37.48746163303929,2076,14530.69224
D1,Brejo do Cruz/PB,-6.32926065,-37.48746163303929,25,174.98425
1,Brejo do Piauí/PI,-8.207583,-42.8359849,161,4210.25105
D1,Brejo do Piauí/PI,-8.207583,-42.8359849,5,130.75314
1,Brejo dos Santos/PB,-6.3769367,-37.8243125,1543,23815.40361
D1,Brejo dos Santos/PB,-6.3769367,-37.8243125,8,123.47585
1,Brejo/MA,-3.6804397,-42.7529313,1079,2924.11924
D1,Brejo/MA,-3.6804397,-42.7529313,19,51.49051
1,Brejolândia/BA,-12.4843845,-43.9611861,389,3644.02810
D1,Brejolândia/BA,-12.4843845,-43.9611861,12,112.41218
1,Brejão/PE,-9.029146,-36.566034,665,7404.52065
D1,Brejão/PE,-9.029146,-36.566034,9,100.21156
1,Brejões/BA,-13.1033754,-39.7909837,1391,9826.91628
D1,Brejões/BA,-13.1033754,-39.7909837,19,134.22819
1,Breu Branco/PA,-3.7785073,-49.5684795,1619,2360.16152
D1,Breu Branco/PA,-3.7785073,-49.5684795,74,107.87644
1,Breves/PA,-1.68036,-50.479085,5421,5198.50403
D1,Breves/PA,-1.68036,-50.479085,127,121.78750
1,Britânia/GO,-15.2427599,-51.1602061,1226,21083.40499
D1,Britânia/GO,-15.2427599,-51.1602061,10,171.96905
1,Brochier/RS,-29.556766,-51.5963047,1204,23460.63913
D1,Brochier/RS,-29.556766,-51.5963047,8,155.88465
1,Brodowski/SP,-20.984532,-47.657217,4379,17102.12849
D1,Brodowski/SP,-20.984532,-47.657217,86,335.87190
1,Brotas de Macaúbas/BA,-12.0019007,-42.6257506,678,6333.48902
D1,Brotas de Macaúbas/BA,-12.0019007,-42.6257506,9,84.07286
1,Brotas/SP,-22.2840884,-48.1267265,7064,28412.83887
D1,Brotas/SP,-22.2840884,-48.1267265,77,309.70960
1,Brumadinho/MG,-20.143611,-44.2,7758,18826.44147
D1,Brumadinho/MG,-20.143611,-44.2,110,266.93846
1,Brumado/BA,-14.29507325,-41.659307508575985,11684,17317.83957
D1,Brumado/BA,-14.29507325,-41.659307508575985,209,309.77649
1,Brunópolis/SC,-27.310953,-50.837585,720,31061.25971
D1,Brunópolis/SC,-27.310953,-50.837585,9,388.26575
1,Brusque/SC,-27.0964628,-48.9136323,43732,31104.50436
D1,Brusque/SC,-27.0964628,-48.9136323,361,256.76224
1,Brás Pires/MG,-20.8483109,-43.2430524,727,17085.78143
D1,Brás Pires/MG,-20.8483109,-43.2430524,11,258.51939
1,Bueno Brandão/MG,-22.441976,-46.3517971,2205,20078.30996
D1,Bueno Brandão/MG,-22.441976,-46.3517971,37,336.91495
1,Buenos Aires/PE,-7.7218931,-35.326587,729,5512.70417
D1,Buenos Aires/PE,-7.7218931,-35.326587,27,204.17423
1,Buenópolis/MG,-17.8756607,-44.1749365,799,7725.77838
D1,Buenópolis/MG,-17.8756607,-44.1749365,19,183.71688
1,Buerarema/BA,-14.9571177,-39.3008035,1595,8730.63660
D1,Buerarema/BA,-14.9571177,-39.3008035,52,284.63517
1,Bugre/MG,-19.4257687,-42.2556,380,9538.15261
D1,Bugre/MG,-19.4257687,-42.2556,13,326.30522
1,Bujari/AC,-9.8309656,-67.9520886,1623,15351.87287
D1,Bujari/AC,-9.8309656,-67.9520886,17,160.80212
1,Bujaru/PA,-1.5169239,-48.0410699,2001,6733.51953
D1,Bujaru/PA,-1.5169239,-48.0410699,43,144.69832
1,Buri/SP,-23.79849,-48.598924,4029,20094.76309
D1,Buri/SP,-23.79849,-48.598924,106,528.67830
1,Buritama/SP,-21.0664017,-50.1448077,5418,31112.89767
D1,Buritama/SP,-21.0664017,-50.1448077,87,499.59802
1,Buriti Alegre/GO,-18.1377879,-49.0404411,1738,18265.89595
D1,Buriti Alegre/GO,-18.1377879,-49.0404411,40,420.38886
1,Buriti Bravo/MA,-5.8391884,-43.8367876,2350,9794.52340
D1,Buriti Bravo/MA,-5.8391884,-43.8367876,21,87.52553
1,Buriti de Goiás/GO,-16.180644,-50.4287479,719,29180.19481
D1,Buriti de Goiás/GO,-16.180644,-50.4287479,9,365.25974
1,Buriti do Tocantins/TO,-5.3187439,-48.2256609,1702,14616.97011
D1,Buriti do Tocantins/TO,-5.3187439,-48.2256609,27,231.87908
1,Buriti dos Lopes/PI,-3.1776723,-41.8707444,1714,8642.59782
D1,Buriti dos Lopes/PI,-3.1776723,-41.8707444,38,191.60952
1,Buriti dos Montes/PI,-5.3136171,-41.0971256,724,8741.84979
D1,Buriti dos Montes/PI,-5.3136171,-41.0971256,10,120.74378
1,Buriti/MA,-3.9430944,-42.9244281,1169,4042.74450
D1,Buriti/MA,-3.9430944,-42.9244281,9,31.12464
1,Buriticupu/MA,-4.3227472,-46.4516989,4701,6387.66221
D1,Buriticupu/MA,-4.3227472,-46.4516989,88,119.57334
1,Buritinópolis/GO,-14.4589282,-46.4293104,638,19498.77751
D1,Buritinópolis/GO,-14.4589282,-46.4293104,4,122.24939
1,Buritirama/BA,-10.7148421,-43.6362327,1432,6699.72864
D1,Buritirama/BA,-10.7148421,-43.6362327,25,116.96454
1,Buritirana/MA,-5.5897455,-47.0148915,451,2909.11436
D1,Buritirana/MA,-5.5897455,-47.0148915,28,180.61020
1,Buritis/MG,-15.621389,-46.423889,5687,22586.28222
D1,Buritis/MG,-15.621389,-46.423889,57,226.37913
1,Buritis/RO,-10.2054937,-63.8281954,12970,31601.00383
D1,Buritis/RO,-10.2054937,-63.8281954,103,250.95631
1,Buritizal/SP,-20.1933264,-47.7097165,361,7939.30064
D1,Buritizal/SP,-20.1933264,-47.7097165,10,219.92523
1,Buritizeiro/MG,-17.3667765,-44.9647781,3268,11595.23134
D1,Buritizeiro/MG,-17.3667765,-44.9647781,43,152.56883
1,Butiá/RS,-30.1256795,-51.9692224,3534,16858.27410
D1,Butiá/RS,-30.1256795,-51.9692224,67,319.61074
1,Buíque/PE,-8.6239732,-37.157296,3049,5128.85211
D1,Buíque/PE,-8.6239732,-37.157296,54,90.83569
1,Bálsamo/SP,-20.7343722,-49.5807484,2901,31501.79173
D1,Bálsamo/SP,-20.7343722,-49.5807484,76,825.27962
0,CASO SEM LOCALIZAÇÃO DEFINIDA/BA,-13.415069300066518,-38.14174656569957,20109,135.20415
D0,CASO SEM LOCALIZAÇÃO DEFINIDA/BA,-13.415069300066518,-38.14174656569957,352,2.36669
0,CASO SEM LOCALIZAÇÃO DEFINIDA/CE,-3.3445126297392798,-38.624961942434304,18067,197.84106
0,CASO SEM LOCALIZAÇÃO DEFINIDA/ES,-20.30989267097039,-39.81745156645774,9210,229.18144
D0,CASO SEM LOCALIZAÇÃO DEFINIDA/ES,-20.30989267097039,-39.81745156645774,277,6.89286
0,CASO SEM LOCALIZAÇÃO DEFINIDA/MG,-19.97049116501593,-43.8852149072783,4266,20.15231
D0,CASO SEM LOCALIZAÇÃO DEFINIDA/MG,-19.97049116501593,-43.8852149072783,420,1.98405
0,CASO SEM LOCALIZAÇÃO DEFINIDA/PR,-25.69415946385943,-48.10141676336737,11620,101.62711
D0,CASO SEM LOCALIZAÇÃO DEFINIDA/PR,-25.69415946385943,-48.10141676336737,241,2.10776
0,CASO SEM LOCALIZAÇÃO DEFINIDA/RR,2.813328208465927,-60.663338675861986,3899,643.65319
D0,CASO SEM LOCALIZAÇÃO DEFINIDA/RR,2.813328208465927,-60.663338675861986,23,3.79688
0,CASO SEM LOCALIZAÇÃO DEFINIDA/SP,-24.30968974555485,-46.21366504207253,128,0.27875
1,Caapiranga/AM,-3.3188884,-61.2096404,1026,7610.14686
D1,Caapiranga/AM,-3.3188884,-61.2096404,23,170.59783
1,Caaporã/PB,-7.510234,-34.9154114,2764,12518.68291
D1,Caaporã/PB,-7.510234,-34.9154114,39,176.63843
1,Caarapó/MS,-22.6349267,-54.8240903,6364,20525.72166
D1,Caarapó/MS,-22.6349267,-54.8240903,64,206.41832
1,Caatiba/BA,-14.9782759,-40.4092325,1012,16238.76765
D1,Caatiba/BA,-14.9782759,-40.4092325,17,272.78562
1,Cabaceiras do Paraguaçu/BA,-12.5377868,-39.1901339,1577,8295.63388
D1,Cabaceiras do Paraguaçu/BA,-12.5377868,-39.1901339,8,42.08311
1,Cabaceiras/PB,-7.4899156,-36.2860501,661,11576.18214
D1,Cabaceiras/PB,-7.4899156,-36.2860501,5,87.56567
1,Cabeceira Grande/MG,-16.0297,-47.0906,975,13879.00356
D1,Cabeceira Grande/MG,-16.0297,-47.0906,9,128.11388
1,Cabeceiras do Piauí/PI,-4.4733665,-42.3098716,829,7768.71896
D1,Cabeceiras do Piauí/PI,-4.4733665,-42.3098716,18,168.68147
1,Cabeceiras/GO,-15.7995459,-46.9264991,1383,17078.29094
D1,Cabeceiras/GO,-15.7995459,-46.9264991,19,234.62583
1,Cabedelo/PB,-6.97324,-34.8351609,13727,19673.79932
D1,Cabedelo/PB,-6.97324,-34.8351609,220,315.30821
1,Cabixi/RO,-13.4956065,-60.5424442,1776,35050.32564
D1,Cabixi/RO,-13.4956065,-60.5424442,22,434.18196
1,Cabo Frio/RJ,-22.8804369,-42.0189227,28955,12369.86120
D1,Cabo Frio/RJ,-22.8804369,-42.0189227,1020,435.75405
1,Cabo Verde/MG,-21.4743338,-46.3964995,2376,16882.19412
D1,Cabo Verde/MG,-21.4743338,-46.3964995,15,106.57951
1,Cabo de Santo Agostinho/PE,-8.2838945,-35.0320984,13263,6291.86512
D1,Cabo de Santo Agostinho/PE,-8.2838945,-35.0320984,557,264.23651
1,Cabreúva/SP,-23.3075813,-47.1324417,7282,14242.12791
D1,Cabreúva/SP,-23.3075813,-47.1324417,151,295.32564
1,Cabrobó/PE,-8.5083701,-39.3106961,5128,14744.95371
D1,Cabrobó/PE,-8.5083701,-39.3106961,34,97.76295
1,Cabrália Paulista/SP,-22.4562909,-49.3385645,1032,24443.39176
D1,Cabrália Paulista/SP,-22.4562909,-49.3385645,9,213.16911
1,Cacaulândia/RO,-10.3380043,-62.9007231,2133,33819.56556
D1,Cacaulândia/RO,-10.3380043,-62.9007231,17,269.54178
1,Cacequi/RS,-29.8838059,-54.8273443,1494,12155.23554
D1,Cacequi/RS,-29.8838059,-54.8273443,18,146.44862
1,Cachoeira Alta/GO,-18.7618269,-50.9432431,3653,28443.51008
D1,Cachoeira Alta/GO,-18.7618269,-50.9432431,33,256.94931
1,Cachoeira Dourada/GO,-18.4934204,-49.481062,1777,22220.83281
D1,Cachoeira Dourada/GO,-18.4934204,-49.481062,33,412.65475
1,Cachoeira Dourada/MG,-18.517136,-49.5002062,629,23125.00000
D1,Cachoeira Dourada/MG,-18.517136,-49.5002062,2,73.52941
1,Cachoeira Grande/MA,-2.9290492,-44.0573223,490,5144.89710
D1,Cachoeira Grande/MA,-2.9290492,-44.0573223,8,83.99832
1,Cachoeira Paulista/SP,-22.666498,-45.015384,4804,14201.67322
D1,Cachoeira Paulista/SP,-22.666498,-45.015384,67,198.06663
1,Cachoeira da Prata/MG,-19.524723,-44.453056,226,6312.84916
D1,Cachoeira da Prata/MG,-19.524723,-44.453056,15,418.99441
1,Cachoeira de Goiás/GO,-16.6688414,-50.6435997,518,38772.45509
D1,Cachoeira de Goiás/GO,-16.6688414,-50.6435997,6,449.10180
1,Cachoeira de Minas/MG,-22.3554043,-45.7796324,2465,21233.52571
D1,Cachoeira de Minas/MG,-22.3554043,-45.7796324,21,180.89413
1,Cachoeira de Pajeú/MG,-15.965833,-41.496666,691,7296.72650
D1,Cachoeira de Pajeú/MG,-15.965833,-41.496666,11,116.15628
1,Cachoeira do Arari/PA,-1.0143572,-48.9621089,625,2566.20817
D1,Cachoeira do Arari/PA,-1.0143572,-48.9621089,27,110.86019
1,Cachoeira do Piriá/PA,-1.7599443,-46.5446954,1651,4676.12655
D1,Cachoeira do Piriá/PA,-1.7599443,-46.5446954,12,33.98759
1,Cachoeira do Sul/RS,-30.0474778,-52.8905413,22552,27653.52168
D1,Cachoeira do Sul/RS,-30.0474778,-52.8905413,242,296.74318
1,Cachoeira dos Índios/PB,-6.9259193,-38.6742159,1575,15196.83520
D1,Cachoeira dos Índios/PB,-6.9259193,-38.6742159,24,231.57082
1,Cachoeira/BA,-12.5998256,-38.9665918,2614,7766.12496
D1,Cachoeira/BA,-12.5998256,-38.9665918,33,98.04213
1,Cachoeiras de Macacu/RJ,-22.4626861,-42.6534414,4807,8058.40542
D1,Cachoeiras de Macacu/RJ,-22.4626861,-42.6534414,121,202.84316
1,Cachoeirinha/PE,-8.4906364,-36.2338963,1086,5267.24222
D1,Cachoeirinha/PE,-8.4906364,-36.2338963,37,179.45485
1,Cachoeirinha/RS,-29.9493353,-51.0898927,22278,16858.88122
D1,Cachoeirinha/RS,-29.9493353,-51.0898927,545,412.42887
1,Cachoeirinha/TO,-6.118647,-47.9208885,130,5669.42870
D1,Cachoeirinha/TO,-6.118647,-47.9208885,2,87.22198
1,Cachoeiro de Itapemirim/ES,-20.848084,-41.11129,54814,25834.70015
D1,Cachoeiro de Itapemirim/ES,-20.848084,-41.11129,735,346.41706
1,Cacimba de Areia/PB,-7.1288513,-37.1575194,375,10113.26861
D1,Cacimba de Areia/PB,-7.1288513,-37.1575194,5,134.84358
1,Cacimba de Dentro/PB,-6.6425101,-35.7929304,1524,8876.46339
D1,Cacimba de Dentro/PB,-6.6425101,-35.7929304,39,227.15359
1,Cacimbas/PB,-7.2125451,-37.0593398,486,6726.64360
D1,Cacimbas/PB,-7.2125451,-37.0593398,11,152.24913
1,Cacimbinhas/AL,-9.401212,-36.991082,1115,10210.62271
D1,Cacimbinhas/AL,-9.401212,-36.991082,13,119.04762
1,Cacique Doble/RS,-27.7700117,-51.6616409,1321,25988.58942
D1,Cacique Doble/RS,-27.7700117,-51.6616409,14,275.42790
1,Cacoal/RO,-11.4333,-61.4420502,28977,33531.98482
D1,Cacoal/RO,-11.4333,-61.4420502,351,406.17478
1,Caconde/SP,-21.527995,-46.643659,3205,16840.94372
D1,Caconde/SP,-21.527995,-46.643659,46,241.71089
1,Caculé/BA,-14.4990734,-42.2233006,3397,14512.75260
D1,Caculé/BA,-14.4990734,-42.2233006,32,136.71124
1,Caetanos/BA,-14.3387456,-40.9085971,823,5609.70622
D1,Caetanos/BA,-14.3387456,-40.9085971,13,88.61018
1,Caetanópolis/MG,-19.2947496,-44.4138386,1840,15502.56972
D1,Caetanópolis/MG,-19.2947496,-44.4138386,21,176.93150
1,Caetité/BA,-14.0691776,-42.4852428,5200,10159.42482
D1,Caetité/BA,-14.0691776,-42.4852428,51,99.64051
1,Caeté/MG,-19.897777,-43.670278,3380,7450.84208
D1,Caeté/MG,-19.897777,-43.670278,83,182.96447
1,Caetés/PE,-8.7728788,-36.6255835,2754,9475.31395
D1,Caetés/PE,-8.7728788,-36.6255835,29,99.77636
1,Cafarnaum/BA,-11.691399,-41.468823,1270,6833.46785
D1,Cafarnaum/BA,-11.691399,-41.468823,24,129.13640
1,Cafeara/PR,-22.78905,-51.714195,870,29263.37033
D1,Cafeara/PR,-22.78905,-51.714195,13,437.26875
1,Cafelândia/PR,-24.6176963,-53.3218057,5232,27854.97524
D1,Cafelândia/PR,-24.6176963,-53.3218057,49,260.87419
1,Cafelândia/SP,-21.8054355,-49.6030627,881,4917.11782
D1,Cafelândia/SP,-21.8054355,-49.6030627,60,334.87749
1,Cafezal do Sul/PR,-23.900508,-53.512418,1084,27270.44025
D1,Cafezal do Sul/PR,-23.900508,-53.512418,10,251.57233
1,Caiabu/SP,-22.0143038,-51.2356597,329,7842.66985
D1,Caiabu/SP,-22.0143038,-51.2356597,8,190.70322
1,Caiana/MG,-20.695555,-41.924723,290,5193.40974
D1,Caiana/MG,-20.695555,-41.924723,7,125.35817
1,Caiapônia/GO,-16.9538779,-51.8090761,3906,20234.14836
D1,Caiapônia/GO,-16.9538779,-51.8090761,46,238.29258
1,Caibaté/RS,-28.290475,-54.645407,539,11224.48980
D1,Caibaté/RS,-28.290475,-54.645407,8,166.59725
1,Caibi/SC,-27.0751925,-53.2502133,1307,21384.16230
D1,Caibi/SC,-27.0751925,-53.2502133,20,327.22513
1,Caicó/RN,-6.4594544,-37.0971911,19277,28049.06440
D1,Caicó/RN,-6.4594544,-37.0971911,184,267.72983
1,Caieiras/SP,-23.3644621,-46.7484765,12453,11968.97466
D1,Caieiras/SP,-23.3644621,-46.7484765,355,341.20180
1,Cairu/BA,-13.4860505,-39.0455744,1894,10146.79096
D1,Cairu/BA,-13.4860505,-39.0455744,19,101.78935
1,Caiuá/SP,-21.8319357,-51.9887179,511,8492.60429
D1,Caiuá/SP,-21.8319357,-51.9887179,12,199.43493
1,Caiçara do Norte/RN,-5.0645017,-36.0561226,717,10909.92088
D1,Caiçara do Norte/RN,-5.0645017,-36.0561226,14,213.02495
1,Caiçara do Rio do Vento/RN,-5.757968,-36.00089,826,22056.07477
D1,Caiçara do Rio do Vento/RN,-5.757968,-36.00089,8,213.61816
1,Caiçara/PB,-6.6146866,-35.4681434,1121,15608.46561
D1,Caiçara/PB,-6.6146866,-35.4681434,15,208.85547
1,Caiçara/RS,-27.2750478,-53.4310053,1241,26636.61730
D1,Caiçara/RS,-27.2750478,-53.4310053,12,257.56600
1,Cajamar/SP,-23.3561111,-46.8769444,5640,7136.16924
D1,Cajamar/SP,-23.3561111,-46.8769444,260,328.97234
1,Cajapió/MA,-2.8778715,-44.6746871,480,4264.77121
D1,Cajapió/MA,-2.8778715,-44.6746871,8,71.07952
1,Cajari/MA,-3.3213076,-45.0118757,506,2592.08032
D1,Cajari/MA,-3.3213076,-45.0118757,9,46.10420
1,Cajati/SP,-24.7272376,-48.1077914,6484,22798.07320
D1,Cajati/SP,-24.7272376,-48.1077914,111,390.28164
1,Cajazeiras do Piauí/PI,-6.794271,-42.3935024,87,2426.10151
D1,Cajazeiras do Piauí/PI,-6.794271,-42.3935024,2,55.77245
1,Cajazeiras/PB,-6.8897849,-38.5570389,17624,28164.15239
D1,Cajazeiras/PB,-6.8897849,-38.5570389,190,303.63078
1,Cajazeirinhas/PB,-6.961442,-37.7993733,341,10599.93783
D1,Cajazeirinhas/PB,-6.961442,-37.7993733,1,31.08486
1,Cajobi/SP,-20.8776238,-48.8106972,2272,21335.33665
D1,Cajobi/SP,-20.8776238,-48.8106972,38,356.84102
1,Cajueiro da Praia/PI,-2.931114,-41.340801,500,6490.13499
D1,Cajueiro da Praia/PI,-2.931114,-41.340801,21,272.58567
1,Cajueiro/AL,-9.399589,-36.1524309,885,4136.09384
D1,Cajueiro/AL,-9.399589,-36.1524309,34,158.90078
1,Cajuri/MG,-20.7901414,-42.7954489,734,18530.67407
D1,Cajuri/MG,-20.7901414,-42.7954489,11,277.70765
1,Cajuru/SP,-21.2759978,-47.3046035,2084,7830.75940
D1,Cajuru/SP,-21.2759978,-47.3046035,78,293.08984
1,Caldas Brandão/PB,-7.1027959,-35.3254676,999,16439.03242
D1,Caldas Brandão/PB,-7.1027959,-35.3254676,13,213.92134
1,Caldas Novas/GO,-17.745,-48.625,20633,21677.19025
D1,Caldas Novas/GO,-17.745,-48.625,348,365.61151
1,Caldas/MG,-21.923611,-46.386111,2063,14130.13699
D1,Caldas/MG,-21.923611,-46.386111,43,294.52055
1,Caldazinha/GO,-16.7116649,-49.0012601,1320,33846.15385
D1,Caldazinha/GO,-16.7116649,-49.0012601,12,307.69231
1,Caldeirão Grande do Piauí/PI,-7.3310393,-40.6374433,551,9522.98652
D1,Caldeirão Grande do Piauí/PI,-7.3310393,-40.6374433,2,34.56619
1,Caldeirão Grande/BA,-11.0208483,-40.3041387,726,5396.96699
D1,Caldeirão Grande/BA,-11.0208483,-40.3041387,7,52.03687
1,Califórnia/PR,-23.6672543,-51.3554556,2190,25344.28886
D1,Califórnia/PR,-23.6672543,-51.3554556,42,486.05485
1,Calmon/SC,-26.6023644,-51.0992893,74,2225.56391
D1,Calmon/SC,-26.6023644,-51.0992893,7,210.52632
1,Calumbi/PE,-7.9389746,-38.1516871,1286,22388.57939
D1,Calumbi/PE,-7.9389746,-38.1516871,6,104.45682
1,Calçado/PE,-8.7413446,-36.3351787,882,8030.59273
D1,Calçado/PE,-8.7413446,-36.3351787,9,81.94482
1,Calçoene/AP,2.4981757,-50.9539503,2910,25319.75985
D1,Calçoene/AP,2.4981757,-50.9539503,15,130.51423
1,Camacan/BA,-15.4166631,-39.4930088,3698,11547.94991
D1,Camacan/BA,-15.4166631,-39.4930088,99,309.15280
1,Camacho/MG,-20.625556,-45.156667,356,12539.62663
D1,Camacho/MG,-20.625556,-45.156667,2,70.44734
1,Camalaú/PB,-7.885031,-36.824191,956,15806.87831
D1,Camalaú/PB,-7.885031,-36.824191,8,132.27513
1,Camamu/BA,-13.9438142,-39.1060917,3137,8850.58120
D1,Camamu/BA,-13.9438142,-39.1060917,64,180.56653
1,Camanducaia/MG,-22.755278,-46.144444,5316,24350.69397
D1,Camanducaia/MG,-22.755278,-46.144444,88,403.09651
1,Camapuã/MS,-19.5291747,-54.0434641,1841,13462.52285
D1,Camapuã/MS,-19.5291747,-54.0434641,38,277.87934
1,Camaquã/RS,-30.8524752,-51.8075619,12962,19437.36316
D1,Camaquã/RS,-30.8524752,-51.8075619,187,280.41868
1,Camaragibe/PE,-8.0213832,-34.9810768,12251,7659.50796
D1,Camaragibe/PE,-8.0213832,-34.9810768,474,296.35187
1,Camargo/RS,-28.5865661,-52.2031474,693,25200.00000
D1,Camargo/RS,-28.5865661,-52.2031474,8,290.90909
1,Camaçari/BA,-12.6998188,-38.3260762,33394,10799.84994
D1,Camaçari/BA,-12.6998188,-38.3260762,678,219.26988
1,Cambará do Sul/RS,-29.0489517,-50.145412,425,6658.31114
D1,Cambará do Sul/RS,-29.0489517,-50.145412,12,187.99937
1,Cambará/PR,-23.042273,-50.075281,6412,25077.24197
D1,Cambará/PR,-23.042273,-50.075281,77,301.14592
1,Cambira/PR,-23.600265,-51.581045,2652,33287.31015
D1,Cambira/PR,-23.600265,-51.581045,32,401.65683
1,Camboriú/SC,-27.0273601,-48.6535657,19121,21933.03433
D1,Camboriú/SC,-27.0273601,-48.6535657,213,244.32489
1,Cambuci/RJ,-21.5749919,-41.9107833,3266,21042.45860
D1,Cambuci/RJ,-21.5749919,-41.9107833,51,328.58708
1,Cambuquira/MG,-21.853056,-45.2953619,2008,15675.25371
D1,Cambuquira/MG,-21.853056,-45.2953619,38,296.64325
1,Cambuí/MG,-22.6122501,-46.0572137,9230,30697.08660
D1,Cambuí/MG,-22.6122501,-46.0572137,66,219.50246
1,Cambé/PR,-23.2782035,-51.2779583,23092,21356.56549
D1,Cambé/PR,-23.2782035,-51.2779583,402,371.78847
1,Cametá/PA,-2.242949,-49.497885,11819,8393.34157
D1,Cametá/PA,-2.242949,-49.497885,313,222.27903
1,Camocim de São Félix/PE,-8.3616757,-35.7638903,1122,5895.33417
D1,Camocim de São Félix/PE,-8.3616757,-35.7638903,23,120.84910
1,Camocim/CE,-2.9009918,-40.8427389,8115,12650.63058
D1,Camocim/CE,-2.9009918,-40.8427389,166,258.78061
1,Campanha/MG,-21.8361108,-45.401986,4140,24562.44438
