type,name,lat,lon,total,total_per_100k_inhabitants
1,Abadia de Goiás/GO,-16.7572644,-49.4412205,1239,13831.21232
D1,Abadia de Goiás/GO,-16.7572644,-49.4412205,23,256.75374
1,Abadia dos Dourados/MG,-18.4911191,-47.4063589,347,4952.89752
D1,Abadia dos Dourados/MG,-18.4911191,-47.4063589,12,171.28176
1,Abadiânia/GO,-16.1940946,-48.7067767,315,1539.51420
D1,Abadiânia/GO,-16.1940946,-48.7067767,24,117.29632
1,Abaetetuba/PA,-1.721828,-48.878843,6615,4158.28514
D1,Abaetetuba/PA,-1.721828,-48.878843,175,110.00754
1,Abaeté/MG,-19.1566833,-45.4481213,898,3862.36559
D1,Abaeté/MG,-19.1566833,-45.4481213,19,81.72043
1,Abaiara/CE,-7.3607808,-39.0487878,377,3180.62938
D1,Abaiara/CE,-7.3607808,-39.0487878,8,67.49346
1,Abaré/BA,-8.7239913,-39.1139689,694,3410.82223
D1,Abaré/BA,-8.7239913,-39.1139689,4,19.65892
1,Abatiá/PR,-23.3052967,-50.3102532,518,6992.44060
D1,Abatiá/PR,-23.3052967,-50.3102532,9,121.49028
1,Abaíra/BA,-13.2503296,-41.6640342,248,2847.30195
D1,Abaíra/BA,-13.2503296,-41.6640342,9,103.32951
1,Abdon Batista/SC,-27.612419,-51.022992,271,10635.79278
D1,Abdon Batista/SC,-27.612419,-51.022992,2,78.49294
1,Abel Figueiredo/PA,-4.953001,-48.3958485,793,10593.10713
D1,Abel Figueiredo/PA,-4.953001,-48.3958485,8,106.86615
1,Abelardo Luz/SC,-26.5705893,-52.3280339,1219,6787.30512
D1,Abelardo Luz/SC,-26.5705893,-52.3280339,40,222.71715
1,Abre Campo/MG,-20.2976097,-42.4764741,843,6270.45522
D1,Abre Campo/MG,-20.2976097,-42.4764741,11,81.82089
1,Abreu e Lima/PE,-7.900719,-34.898389,2275,2267.15564
D1,Abreu e Lima/PE,-7.900719,-34.898389,182,181.37245
1,Abreulândia/TO,-9.6221526,-49.1558343,240,9252.12028
D1,Abreulândia/TO,-9.6221526,-49.1558343,5,192.75251
1,Acaiaca/MG,-20.3621646,-43.1444162,208,5207.81172
D1,Acaiaca/MG,-20.3621646,-43.1444162,7,175.26289
1,Acajutiba/BA,-11.6609659,-38.0186381,471,3101.33667
D1,Acajutiba/BA,-11.6609659,-38.0186381,13,85.59953
1,Acarape/CE,-4.2237866,-38.7071663,2453,16314.17930
D1,Acarape/CE,-4.2237866,-38.7071663,20,133.01410
1,Acaraú/CE,-2.8869514,-40.1194713,4249,6733.32911
D1,Acaraú/CE,-2.8869514,-40.1194713,87,137.86765
1,Acari/RN,-6.4364689,-36.6394777,787,7076.70174
D1,Acari/RN,-6.4364689,-36.6394777,12,107.90397
1,Acará/PA,-1.961388,-48.1987043,1091,1959.79809
D1,Acará/PA,-1.961388,-48.1987043,25,44.90830
1,Acauã/PI,-8.219542,-41.083059,175,2464.09462
D1,Acauã/PI,-8.219542,-41.083059,1,14.08054
1,Aceguá/RS,-31.8695131,-54.1615593,289,5847.83488
D1,Aceguá/RS,-31.8695131,-54.1615593,4,80.93889
1,Acopiara/CE,-6.0936464,-39.4543204,2506,4599.76873
D1,Acopiara/CE,-6.0936464,-39.4543204,102,187.22123
1,Acorizal/MT,-15.2001544,-56.3668953,447,8380.20247
D1,Acorizal/MT,-15.2001544,-56.3668953,17,318.71016
1,Acrelândia/AC,-10.0759167,-67.0526898,1466,9464.17043
D1,Acrelândia/AC,-10.0759167,-67.0526898,27,174.30600
1,Acreúna/GO,-17.3959899,-50.3749031,1536,6812.73840
D1,Acreúna/GO,-17.3959899,-50.3749031,39,172.97969
1,Adamantina/SP,-21.6866517,-51.0762975,2346,6681.66671
D1,Adamantina/SP,-21.6866517,-51.0762975,63,179.43095
1,Adelândia/GO,-16.4155077,-50.1665834,128,5087.44038
D1,Adelândia/GO,-16.4155077,-50.1665834,3,119.23688
1,Adolfo/SP,-21.2356597,-49.6441918,374,10523.35397
D1,Adolfo/SP,-21.2356597,-49.6441918,9,253.23579
1,Adrianópolis/PR,-24.6557863,-48.9912769,1055,18012.63445
D1,Adrianópolis/PR,-24.6557863,-48.9912769,21,358.54533
1,Adustina/BA,-10.5358875,-38.114479,601,3509.28413
D1,Adustina/BA,-10.5358875,-38.114479,9,52.55168
1,Afogados da Ingazeira/PE,-7.750429,-37.6356375,3410,9116.67201
D1,Afogados da Ingazeira/PE,-7.750429,-37.6356375,50,133.67554
1,Afonso Bezerra/RN,-5.4745,-36.57625071327935,427,3871.61121
D1,Afonso Bezerra/RN,-5.4745,-36.57625071327935,12,108.80406
1,Afonso Cláudio/ES,-20.077841,-41.12606,3050,10014.77590
D1,Afonso Cláudio/ES,-20.077841,-41.12606,53,174.02725
1,Afonso Cunha/MA,-4.1326105,-43.3230026,158,2401.94588
D1,Afonso Cunha/MA,-4.1326105,-43.3230026,2,30.40438
1,Afrânio/PE,-8.5198919,-41.0070197,684,3452.80162
D1,Afrânio/PE,-8.5198919,-41.0070197,12,60.57547
1,Afuá/PA,-0.1535664,-50.3879223,2842,7182.75330
D1,Afuá/PA,-0.1535664,-50.3879223,14,35.38302
1,Agrestina/PE,-8.4558021,-35.9442663,1178,4699.78057
D1,Agrestina/PE,-8.4558021,-35.9442663,41,163.57471
1,Agricolândia/PI,-5.7967843,-42.6605131,321,6256.09043
D1,Agricolândia/PI,-5.7967843,-42.6605131,3,58.46813
1,Agrolândia/SC,-27.4122212,-49.8295774,951,8635.24925
D1,Agrolândia/SC,-27.4122212,-49.8295774,14,127.12249
1,Agronômica/SC,-27.2660744,-49.7104753,445,8077.69105
D1,Agronômica/SC,-27.2660744,-49.7104753,9,163.36903
1,Aguanil/MG,-20.9424533,-45.3927152,416,9199.46926
D1,Aguanil/MG,-20.9424533,-45.3927152,8,176.91287
1,Aguaí/SP,-22.0592036,-46.979384,1833,5001.63720
D1,Aguaí/SP,-22.0592036,-46.979384,52,141.89042
1,Agudo/RS,-29.6423259,-53.2494005,1018,6206.93860
D1,Agudo/RS,-29.6423259,-53.2494005,14,85.36065
1,Agudos do Sul/PR,-25.9890808,-49.3328175,448,4730.72862
D1,Agudos do Sul/PR,-25.9890808,-49.3328175,14,147.83527
1,Agudos/SP,-22.471162,-48.987822,2547,6809.97834
D1,Agudos/SP,-22.471162,-48.987822,57,152.40234
1,Aguiar/PB,-7.0928404,-38.1727215,266,4724.68917
D1,Aguiar/PB,-7.0928404,-38.1727215,3,53.28597
1,Aguiarnópolis/TO,-6.5600452,-47.4721189,515,7472.43180
D1,Aguiarnópolis/TO,-6.5600452,-47.4721189,12,174.11492
1,Aimorés/MG,-19.4917754,-41.0615603,1660,6602.76043
D1,Aimorés/MG,-19.4917754,-41.0615603,42,167.05779
1,Aiquara/BA,-14.126918,-39.8887574,436,9873.18841
D1,Aiquara/BA,-14.126918,-39.8887574,9,203.80435
1,Aiuaba/CE,-6.5710836,-40.1212278,357,2040.81633
D1,Aiuaba/CE,-6.5710836,-40.1212278,9,51.44915
1,Aiuruoca/MG,-21.9759554,-44.6036637,79,1321.95448
D1,Aiuruoca/MG,-21.9759554,-44.6036637,6,100.40161
1,Ajuricaba/RS,-28.239654,-53.7693013,642,9188.49292
D1,Ajuricaba/RS,-28.239654,-53.7693013,22,314.87047
1,Alagoa Grande/PB,-7.0415212,-35.6285322,2540,8931.39703
D1,Alagoa Grande/PB,-7.0415212,-35.6285322,48,168.78231
1,Alagoa Nova/PB,-7.0653703,-35.76695977336711,702,3355.48014
D1,Alagoa Nova/PB,-7.0653703,-35.76695977336711,13,62.13852
1,Alagoa/MG,-22.1697202,-44.6400042,309,11594.74672
D1,Alagoa/MG,-22.1697202,-44.6400042,4,150.09381
1,Alagoinha do Piauí/PI,-7.0090952,-40.939675,256,3339.85649
D1,Alagoinha do Piauí/PI,-7.0090952,-40.939675,9,117.41683
1,Alagoinha/PB,-6.97063215,-35.51490901897793,1385,9512.36264
D1,Alagoinha/PB,-6.97063215,-35.51490901897793,21,144.23077
1,Alagoinha/PE,-8.50355635,-36.77701174370496,508,3451.55592
D1,Alagoinha/PE,-8.50355635,-36.77701174370496,15,101.91602
1,Alagoinhas/BA,-12.133526,-38.420772,10685,7014.51483
D1,Alagoinhas/BA,-12.133526,-38.420772,208,136.54835
1,Alambari/SP,-23.550338,-47.897971,424,6917.93115
D1,Alambari/SP,-23.550338,-47.897971,9,146.84288
1,Albertina/MG,-20.66164,-43.784039,176,5845.23414
D1,Albertina/MG,-20.66164,-43.784039,6,199.26935
1,Alcantil/PB,-7.7425491,-36.0609604,284,5155.20058
D1,Alcantil/PB,-7.7425491,-36.0609604,6,108.91269
1,Alcinópolis/MS,-18.3264121,-53.7094463,162,2990.58519
D1,Alcinópolis/MS,-18.3264121,-53.7094463,6,110.76241
1,Alcobaça/BA,-17.5215875,-39.1965474,1205,5357.93686
D1,Alcobaça/BA,-17.5215875,-39.1965474,19,84.48199
1,Alcântara/MA,-2.4038956,-44.4154241,262,1184.87699
D1,Alcântara/MA,-2.4038956,-44.4154241,13,58.79161
1,Alcântaras/CE,-3.586247,-40.5457641,1182,10033.10415
D1,Alcântaras/CE,-3.586247,-40.5457641,13,110.34717
1,Aldeias Altas/MA,-4.6291957,-43.4708622,975,3643.90627
D1,Aldeias Altas/MA,-4.6291957,-43.4708622,13,48.58542
1,Alecrim/RS,-27.6566142,-54.7653195,232,3981.46559
D1,Alecrim/RS,-27.6566142,-54.7653195,9,154.45341
1,Alegre/ES,-20.7625787,-41.5318886,1782,5944.95413
D1,Alegre/ES,-20.7625787,-41.5318886,44,146.78899
1,Alegrete do Piauí/PI,-7.2440138,-40.8602296,443,9007.72672
D1,Alegrete do Piauí/PI,-7.2440138,-40.8602296,5,101.66734
1,Alegrete/RS,-29.790166,-55.794862,6797,9307.38895
D1,Alegrete/RS,-29.790166,-55.794862,202,276.60623
1,Alegria/RS,-27.8332103,-54.0574959,295,8743.33136
D1,Alegria/RS,-27.8332103,-54.0574959,2,59.27682
1,Alenquer/PA,-1.946229,-54.738355,2458,4305.33175
D1,Alenquer/PA,-1.946229,-54.738355,91,159.39186
1,Alexandria/RN,-6.414779,-38.0135516,1025,7562.90120
D1,Alexandria/RN,-6.414779,-38.0135516,13,95.91972
1,Alexânia/GO,-16.0834049,-48.5077803,2517,8986.07640
D1,Alexânia/GO,-16.0834049,-48.5077803,60,214.20921
1,Alfenas/MG,-21.4297405,-45.9479419,5947,7388.12831
D1,Alfenas/MG,-21.4297405,-45.9479419,130,161.50272
1,Alfredo Chaves/ES,-20.624970400000002,-40.75006690147988,2024,13828.91500
D1,Alfredo Chaves/ES,-20.624970400000002,-40.75006690147988,27,184.47663
1,Alfredo Marcondes/SP,-21.9527,-51.413956,204,4875.71702
D1,Alfredo Marcondes/SP,-21.9527,-51.413956,8,191.20459
1,Alfredo Vasconcelos/MG,-21.145833,-43.776389,262,3753.04398
D1,Alfredo Vasconcelos/MG,-21.145833,-43.776389,7,100.27217
1,Alfredo Wagner/SC,-27.6961513,-49.3326734,606,6008.32838
D1,Alfredo Wagner/SC,-27.6961513,-49.3326734,6,59.48840
1,Algodão de Jandaíra/PB,-6.9040175,-36.0089879,96,3725.26193
1,Alhandra/PB,-7.4304246,-34.9106103,1466,7431.43914
D1,Alhandra/PB,-7.4304246,-34.9106103,27,136.86825
1,Aliança do Tocantins/TO,-11.3055927,-48.9409096,535,10007.48223
D1,Aliança do Tocantins/TO,-11.3055927,-48.9409096,17,317.99476
1,Aliança/PE,-7.60398,-35.222696,499,1299.58070
D1,Aliança/PE,-7.60398,-35.222696,38,98.96607
1,Almadina/BA,-14.70466,-39.6381994,587,10939.24711
D1,Almadina/BA,-14.70466,-39.6381994,9,167.72270
1,Almas/TO,-11.5681309,-47.1702803,179,2564.83737
D1,Almas/TO,-11.5681309,-47.1702803,4,57.31480
1,Almeirim/PA,-1.5290377,-52.5788111,3268,9590.32750
D1,Almeirim/PA,-1.5290377,-52.5788111,32,93.90774
1,Almenara/MG,-16.1740678,-40.6904907,3321,7880.31227
D1,Almenara/MG,-16.1740678,-40.6904907,33,78.30482
1,Almino Afonso/RN,-6.1544208,-37.7649018,349,7409.76645
D1,Almino Afonso/RN,-6.1544208,-37.7649018,10,212.31423
1,Almirante Tamandaré do Sul/RS,-28.1141129,-52.9134874,170,8722.42175
D1,Almirante Tamandaré do Sul/RS,-28.1141129,-52.9134874,1,51.30836
1,Almirante Tamandaré/PR,-25.3133048,-49.2997838,7657,6378.65396
D1,Almirante Tamandaré/PR,-25.3133048,-49.2997838,276,229.92144
1,Aloândia/GO,-17.7277983,-49.4809338,202,10171.19839
D1,Aloândia/GO,-17.7277983,-49.4809338,6,302.11480
1,Alpercata/MG,-18.9803616,-41.9827637,407,5473.37278
D1,Alpercata/MG,-18.9803616,-41.9827637,14,188.27327
1,Alpestre/RS,-27.2512339,-53.0349646,261,4301.96143
D1,Alpestre/RS,-27.2512339,-53.0349646,7,115.37828
1,Alpinópolis/MG,-20.863611,-46.387777,739,3702.77583
D1,Alpinópolis/MG,-20.863611,-46.387777,16,80.16835
1,Alta Floresta D'Oeste/RO,-11.9296917,-61.9961284,3328,14642.73143
D1,Alta Floresta D'Oeste/RO,-11.9296917,-61.9961284,52,228.79268
1,Alta Floresta/MT,-9.8715018,-56.0839881,6774,13037.20241
D1,Alta Floresta/MT,-9.8715018,-56.0839881,99,190.53484
1,Altair/SP,-20.5238955,-49.0606135,132,3153.36837
D1,Altair/SP,-20.5238955,-49.0606135,9,215.00239
1,Altamira do Maranhão/MA,-4.1643006,-45.4674574,279,3407.00940
D1,Altamira do Maranhão/MA,-4.1643006,-45.4674574,8,97.69203
1,Altamira do Paraná/PR,-24.799114,-52.7128633,102,6064.20927
D1,Altamira do Paraná/PR,-24.799114,-52.7128633,3,178.35910
1,Altamira/PA,-3.204065,-52.209961,11905,10265.67445
D1,Altamira/PA,-3.204065,-52.209961,258,222.47325
1,Altaneira/CE,-6.9980933,-39.7385742,347,4535.94771
D1,Altaneira/CE,-6.9980933,-39.7385742,12,156.86275
1,Alterosa/MG,-21.249166,-46.143055,521,3588.89578
D1,Alterosa/MG,-21.249166,-46.143055,28,192.87732
1,Altinho/PE,-8.4904095,-36.0607494,886,3854.85555
D1,Altinho/PE,-8.4904095,-36.0607494,17,73.96450
1,Altinópolis/SP,-21.021364,-47.3712,679,4190.58199
D1,Altinópolis/SP,-21.021364,-47.3712,21,129.60563
1,Alto Alegre do Maranhão/MA,-4.2055693,-44.4525287,812,2914.78211
D1,Alto Alegre do Maranhão/MA,-4.2055693,-44.4525287,22,78.97193
1,Alto Alegre do Pindaré/MA,-3.6698186,-45.8462153,1733,5425.28880
D1,Alto Alegre do Pindaré/MA,-3.6698186,-45.8462153,36,112.70075
1,Alto Alegre dos Parecis/RO,-12.1314515,-61.856265,1198,9038.09883
D1,Alto Alegre dos Parecis/RO,-12.1314515,-61.856265,28,211.24104
1,Alto Alegre/RR,2.98858,-61.307167,1211,7873.86216
D1,Alto Alegre/RR,2.98858,-61.307167,26,169.05072
1,Alto Alegre/RS,-31.780844700000003,-52.81311114489171,140,8679.47923
D1,Alto Alegre/RS,-31.780844700000003,-52.81311114489171,1,61.99628
1,Alto Alegre/SP,-21.5820592,-50.1661976,219,5357.14286
D1,Alto Alegre/SP,-21.5820592,-50.1661976,10,244.61840
1,Alto Araguaia/MT,-17.3156528,-53.2169365,992,5117.35878
D1,Alto Araguaia/MT,-17.3156528,-53.2169365,20,103.17256
1,Alto Bela Vista/SC,-27.4320737,-51.905771,125,6490.13499
D1,Alto Bela Vista/SC,-27.4320737,-51.905771,2,103.84216
1,Alto Boa Vista/MT,-11.6723985,-51.3744431,498,7179.93080
D1,Alto Boa Vista/MT,-11.6723985,-51.3744431,10,144.17532
1,Alto Caparaó/MG,-20.4405661,-41.8683799,333,5649.81337
D1,Alto Caparaó/MG,-20.4405661,-41.8683799,7,118.76485
1,Alto Feliz/RS,-29.3785943,-51.3123751,178,5862.97760
D1,Alto Feliz/RS,-29.3785943,-51.3123751,1,32.93808
1,Alto Garças/MT,-16.9469683,-53.529427,581,4781.49947
D1,Alto Garças/MT,-16.9469683,-53.529427,24,197.51461
1,Alto Horizonte/GO,-14.1954948,-49.3366993,619,9371.68812
D1,Alto Horizonte/GO,-14.1954948,-49.3366993,7,105.98032
1,Alto Jequitibá/MG,-20.423611,-41.966111,568,6842.54909
D1,Alto Jequitibá/MG,-20.423611,-41.966111,9,108.42067
1,Alto Longá/PI,-5.2549051,-42.2072388,531,3703.18711
D1,Alto Longá/PI,-5.2549051,-42.2072388,13,90.66183
1,Alto Paraguai/MT,-14.513712,-56.4936374,678,5909.52671
D1,Alto Paraguai/MT,-14.513712,-56.4936374,22,191.75455
1,Alto Paraná/PR,-23.131247,-52.318893,662,4455.21233
D1,Alto Paraná/PR,-23.131247,-52.318893,16,107.67885
1,Alto Paraíso de Goiás/GO,-14.1304779,-47.5100161,521,6776.79501
D1,Alto Paraíso de Goiás/GO,-14.1304779,-47.5100161,6,78.04370
1,Alto Paraíso/PR,-23.508137,-53.728537,153,5698.32402
D1,Alto Paraíso/PR,-23.508137,-53.728537,2,74.48790
1,Alto Paraíso/RO,-9.7240103,-63.3188123,1590,7277.88712
D1,Alto Paraíso/RO,-9.7240103,-63.3188123,36,164.78235
1,Alto Parnaíba/MA,-9.112506,-45.9310154,680,6064.93043
D1,Alto Parnaíba/MA,-9.112506,-45.9310154,5,44.59508
1,Alto Piquiri/PR,-24.0239021,-53.4417448,467,4776.02782
D1,Alto Piquiri/PR,-24.0239021,-53.4417448,12,122.72448
1,Alto Rio Doce/MG,-21.0239537,-43.4133507,282,2596.92421
D1,Alto Rio Doce/MG,-21.0239537,-43.4133507,22,202.59692
1,Alto Rio Novo/ES,-19.0577208,-41.0171518,639,8115.31623
D1,Alto Rio Novo/ES,-19.0577208,-41.0171518,21,266.70053
1,Alto Santo/CE,-5.5190371,-38.2719351,855,4972.08653
D1,Alto Santo/CE,-5.5190371,-38.2719351,19,110.49081
1,Alto Taquari/MT,-17.8269099,-53.2831736,1281,11506.33252
D1,Alto Taquari/MT,-17.8269099,-53.2831736,25,224.55762
1,Alto do Rodrigues/RN,-5.290868,-36.7616726,1372,9315.58935
D1,Alto do Rodrigues/RN,-5.290868,-36.7616726,25,169.74470
1,Altos/PI,-5.0393915,-42.4611694,3674,9048.14678
D1,Altos/PI,-5.0393915,-42.4611694,67,165.00431
1,Altônia/PR,-23.8722004,-53.894037,845,3810.42569
D1,Altônia/PR,-23.8722004,-53.894037,14,63.13131
1,Alumínio/SP,-23.5203479,-47.2575256,1103,5877.33788
D1,Alumínio/SP,-23.5203479,-47.2575256,35,186.49758
1,Alvarenga/MG,-19.4175,-41.728334,360,9365.24454
D1,Alvarenga/MG,-19.4175,-41.728334,4,104.05827
1,Alvarães/AM,-3.214786,-64.8143124,2698,16633.78545
D1,Alvarães/AM,-3.214786,-64.8143124,38,234.27867
1,Alvinlândia/SP,-22.4431852,-49.7643596,112,3459.99382
D1,Alvinlândia/SP,-22.4431852,-49.7643596,6,185.35681
1,Alvinópolis/MG,-20.1105199,-43.0601805,502,3309.38097
D1,Alvinópolis/MG,-20.1105199,-43.0601805,15,98.88589
1,Alvorada D'Oeste/RO,-11.346271,-62.284697,818,5798.95080
D1,Alvorada D'Oeste/RO,-11.346271,-62.284697,23,163.05118
1,Alvorada de Minas/MG,-18.7318587,-43.3641479,234,6490.98474
D1,Alvorada de Minas/MG,-18.7318587,-43.3641479,1,27.73925
1,Alvorada do Gurguéia/PI,-8.4465288,-43.8655915,265,4866.85032
D1,Alvorada do Gurguéia/PI,-8.4465288,-43.8655915,7,128.55831
1,Alvorada do Norte/GO,-14.483911,-46.4959897,591,6789.20161
D1,Alvorada do Norte/GO,-14.483911,-46.4959897,2,22.97530
1,Alvorada do Sul/PR,-22.7807269,-51.2307721,628,5459.44536
D1,Alvorada do Sul/PR,-22.7807269,-51.2307721,18,156.48092
1,Alvorada/RS,-29.9981184,-51.0772509,16848,7971.53564
D1,Alvorada/RS,-29.9981184,-51.0772509,636,300.91979
1,Alvorada/TO,-12.478465,-49.124926,988,11767.50834
D1,Alvorada/TO,-12.478465,-49.124926,17,202.47737
1,Além Paraíba/MG,-21.8760576,-42.6810473,2560,7231.43414
D1,Além Paraíba/MG,-21.8760576,-42.6810473,119,336.14870
1,Amajari/RR,3.6523869,-61.4194315,853,6469.47289
D1,Amajari/RR,3.6523869,-61.4194315,18,136.51877
1,Amambai/MS,-23.1082701,-55.2284854,2089,5245.31713
D1,Amambai/MS,-23.1082701,-55.2284854,40,100.43690
1,Amaporã/PR,-23.094272,-52.786597,227,3584.96526
D1,Amaporã/PR,-23.094272,-52.786597,2,31.58560
1,Amapá do Maranhão/MA,-1.6762114,-46.0109669,120,1713.06210
D1,Amapá do Maranhão/MA,-1.6762114,-46.0109669,2,28.55103
1,Amapá/AP,2.0529997,-50.7930003,1227,13355.82889
D1,Amapá/AP,2.0529997,-50.7930003,10,108.84946
1,Amaraji/PE,-8.373925,-35.4536527,433,1893.31001
D1,Amaraji/PE,-8.373925,-35.4536527,28,122.43113
1,Amaral Ferrador/RS,-30.8750633,-52.2542051,192,2709.95060
D1,Amaral Ferrador/RS,-30.8750633,-52.2542051,4,56.45730
1,Amaralina/GO,-13.9236199,-49.2962411,51,1326.39792
1,Amarante do Maranhão/MA,-5.56913,-46.747284,1462,3503.55868
D1,Amarante do Maranhão/MA,-5.56913,-46.747284,53,127.00999
1,Amarante/PI,-6.2459374,-42.8476238,1252,7112.02000
D1,Amarante/PI,-6.2459374,-42.8476238,29,164.73529
1,Amargosa/BA,-13.03793715,-39.60796443875596,2243,5990.75879
D1,Amargosa/BA,-13.03793715,-39.60796443875596,44,117.51823
1,Amaturá/AM,-3.3640509,-68.1994689,2302,19614.86026
D1,Amaturá/AM,-3.3640509,-68.1994689,17,144.85344
1,Americana/SP,-22.7392463,-47.3306032,15294,6319.36468
D1,Americana/SP,-22.7392463,-47.3306032,469,193.78724
1,Americano do Brasil/GO,-16.2515808,-49.9806104,379,6148.60480
D1,Americano do Brasil/GO,-16.2515808,-49.9806104,15,243.34848
1,Ametista do Sul/RS,-27.3617341,-53.1826575,500,6754.01864
D1,Ametista do Sul/RS,-27.3617341,-53.1826575,12,162.09645
1,Amontada/CE,-3.3634586,-39.8284791,2036,4645.32615
D1,Amontada/CE,-3.3634586,-39.8284791,33,75.29261
1,Amorinópolis/GO,-16.6211308,-51.0949921,148,4822.41773
D1,Amorinópolis/GO,-16.6211308,-51.0949921,2,65.16781
1,Amparo de São Francisco/SE,-10.1299754,-36.9269099,132,5546.21849
D1,Amparo de São Francisco/SE,-10.1299754,-36.9269099,3,126.05042
1,Amparo do Serra/MG,-20.5070255,-42.8028462,100,2137.66567
D1,Amparo do Serra/MG,-20.5070255,-42.8028462,4,85.50663
1,Amparo/PB,-7.56394725,-37.04652873235175,157,6974.67792
D1,Amparo/PB,-7.56394725,-37.04652873235175,4,177.69880
1,Amparo/SP,-22.70111,-46.76444,4008,5514.81211
D1,Amparo/SP,-22.70111,-46.76444,107,147.22677
1,Ampére/PR,-25.9168712,-53.4742414,933,4831.44322
D1,Ampére/PR,-25.9168712,-53.4742414,28,144.99508
1,Amélia Rodrigues/BA,-12.4015388,-38.7516971,1774,7082.40179
D1,Amélia Rodrigues/BA,-12.4015388,-38.7516971,35,139.73172
1,América Dourada/BA,-11.4515262,-41.4357517,675,4195.15227
D1,América Dourada/BA,-11.4515262,-41.4357517,3,18.64512
1,Américo Brasiliense/SP,-21.7297099,-48.1052092,3019,7357.67206
D1,Américo Brasiliense/SP,-21.7297099,-48.1052092,70,170.59856
1,Américo de Campos/SP,-20.298476,-49.735904,616,10299.28106
D1,Américo de Campos/SP,-20.298476,-49.735904,19,317.67263
1,Anadia/AL,-9.6830208,-36.3052699,1050,5991.09894
D1,Anadia/AL,-9.6830208,-36.3052699,23,131.23360
1,Anagé/BA,-14.6134669,-41.1376308,710,3285.97214
D1,Anagé/BA,-14.6134669,-41.1376308,15,69.42195
1,Anahy/PR,-24.6450861,-53.1337957,265,9505.02152
D1,Anahy/PR,-24.6450861,-53.1337957,5,179.34003
1,Anajatuba/MA,-3.26441,-44.6179916,748,2771.60219
D1,Anajatuba/MA,-3.26441,-44.6179916,18,66.69631
1,Anajás/PA,-0.9878802,-49.9390114,1289,4341.82161
D1,Anajás/PA,-0.9878802,-49.9390114,16,53.89383
1,Analândia/SP,-22.128917,-47.661939,245,4845.72785
D1,Analândia/SP,-22.128917,-47.661939,3,59.33544
1,Anamã/AM,-3.5797356,-61.4049996,1695,12145.31384
D1,Anamã/AM,-3.5797356,-61.4049996,8,57.32302
1,Ananindeua/PA,-1.374035,-48.4016623,18741,3499.41275
D1,Ananindeua/PA,-1.374035,-48.4016623,663,123.79866
1,Ananás/TO,-6.3663053,-48.080238,1361,14338.39022
D1,Ananás/TO,-6.3663053,-48.080238,20,210.70375
1,Anapu/PA,-3.4668292,-51.2057035,1270,4439.47286
D1,Anapu/PA,-3.4668292,-51.2057035,31,108.36509
1,Anapurus/MA,-3.6751298,-43.1046001,828,5209.51302
D1,Anapurus/MA,-3.6751298,-43.1046001,11,69.20851
1,Anastácio/MS,-20.4832458,-55.8048448,1663,6589.53124
D1,Anastácio/MS,-20.4832458,-55.8048448,51,202.08424
1,Anaurilândia/MS,-22.185169,-52.719056,277,3052.00529
D1,Anaurilândia/MS,-22.185169,-52.719056,8,88.14456
1,Anchieta/ES,-20.8057672,-40.6454564,4096,13754.65932
D1,Anchieta/ES,-20.8057672,-40.6454564,66,221.63269
1,Anchieta/SC,-26.5350527,-53.3293938,391,7036.17060
D1,Anchieta/SC,-26.5350527,-53.3293938,6,107.97193
1,Andaraí/BA,-12.8059674,-41.3322919,625,4759.36643
D1,Andaraí/BA,-12.8059674,-41.3322919,5,38.07493
1,Andirá/PR,-23.0494761,-50.2310027,1452,7286.96176
D1,Andirá/PR,-23.0494761,-50.2310027,52,260.96557
1,Andorinha/BA,-10.3445708,-39.8334411,679,4681.78997
D1,Andorinha/BA,-10.3445708,-39.8334411,10,68.95125
1,Andradas/MG,-22.0680484,-46.5688976,2504,6048.89361
D1,Andradas/MG,-22.0680484,-46.5688976,62,149.77292
1,Andradina/SP,-20.896505,-51.3742765,4424,7733.99531
D1,Andradina/SP,-20.896505,-51.3742765,182,318.17069
1,Andrelândia/MG,-21.739722,-44.308889,206,1687.69458
D1,Andrelândia/MG,-21.739722,-44.308889,7,57.34884
1,André da Rocha/RS,-28.6309124,-51.5733328,92,6850.33507
1,Angatuba/SP,-23.4938938,-48.4110675,2119,8316.65293
D1,Angatuba/SP,-23.4938938,-48.4110675,53,208.01444
1,Angelim/PE,-8.8902038,-36.2872987,129,1149.11812
D1,Angelim/PE,-8.8902038,-36.2872987,4,35.63157
1,Angelina/SC,-27.5805287,-48.9838759,432,9108.15939
D1,Angelina/SC,-27.5805287,-48.9838759,1,21.08370
1,Angelândia/MG,-17.7253,-42.2728,86,1005.02513
D1,Angelândia/MG,-17.7253,-42.2728,1,11.68634
1,Angical do Piauí/PI,-6.0872666,-42.7366138,439,6472.06251
D1,Angical do Piauí/PI,-6.0872666,-42.7366138,8,117.94191
1,Angical/BA,-12.005623,-44.7000236,424,3042.04333
D1,Angical/BA,-12.005623,-44.7000236,10,71.74631
1,Angico/TO,-6.3893733,-47.8656722,200,5790.38796
D1,Angico/TO,-6.3893733,-47.8656722,3,86.85582
1,Angicos/RN,-5.6666344,-36.6009064,573,4895.34387
D1,Angicos/RN,-5.6666344,-36.6009064,14,119.60701
1,Angra dos Reis/RJ,-23.0063966,-44.316326,12144,5865.41991
D1,Angra dos Reis/RJ,-23.0063966,-44.316326,388,187.39978
1,Anguera/BA,-12.1509425,-39.2452469,319,2823.75852
D1,Anguera/BA,-12.1509425,-39.2452469,1,8.85191
1,Angélica/MS,-22.1588196,-53.7728504,611,5589.09623
D1,Angélica/MS,-22.1588196,-53.7728504,13,118.91694
1,Anhanguera/GO,-18.3338749,-48.220363,85,7327.58621
D1,Anhanguera/GO,-18.3338749,-48.220363,6,517.24138
1,Anhembi/SP,-22.7891096,-48.1316776,127,1862.44317
D1,Anhembi/SP,-22.7891096,-48.1316776,2,29.32981
1,Anhumas/SP,-22.2956478,-51.3873401,181,4367.76062
D1,Anhumas/SP,-22.2956478,-51.3873401,4,96.52510
1,Anicuns/GO,-16.4606451,-49.9572265,2193,9976.79814
D1,Anicuns/GO,-16.4606451,-49.9572265,53,241.11733
1,Anita Garibaldi/SC,-27.6855032,-51.1293873,868,12476.64223
D1,Anita Garibaldi/SC,-27.6855032,-51.1293873,8,114.99209
1,Anitápolis/SC,-27.9041185,-49.1287395,297,9200.74349
D1,Anitápolis/SC,-27.9041185,-49.1287395,1,30.97893
1,Anori/AM,-3.7435254,-61.6605203,1833,8534.71155
D1,Anori/AM,-3.7435254,-61.6605203,31,144.34046
1,Anta Gorda/RS,-28.9718745,-52.0069187,528,8857.57423
D1,Anta Gorda/RS,-28.9718745,-52.0069187,4,67.10284
1,Antas/BA,-10.4114649,-38.3308815,1026,5267.21084
D1,Antas/BA,-10.4114649,-38.3308815,5,25.66867
1,Antonina do Norte/CE,-6.7754187,-39.9879345,414,5611.27677
D1,Antonina do Norte/CE,-6.7754187,-39.9879345,16,216.86094
1,Antonina/PR,-25.4298854,-48.7125431,2040,10765.73962
D1,Antonina/PR,-25.4298854,-48.7125431,50,263.86617
1,Antônio Almeida/PI,-7.2186016,-44.1950248,400,12618.29653
D1,Antônio Almeida/PI,-7.2186016,-44.1950248,10,315.45741
1,Antônio Cardoso/BA,-12.4363122,-39.1200307,315,2697.61069
D1,Antônio Cardoso/BA,-12.4363122,-39.1200307,7,59.94690
1,Antônio Carlos/MG,-21.318334,-43.746666,426,3717.60188
D1,Antônio Carlos/MG,-21.318334,-43.746666,8,69.81412
1,Antônio Carlos/SC,-27.5168462,-48.7684715,1424,16533.14757
D1,Antônio Carlos/SC,-27.5168462,-48.7684715,20,232.20713
1,Antônio Dias/MG,-19.6525,-42.872778,462,4981.13208
D1,Antônio Dias/MG,-19.6525,-42.872778,17,183.28841
1,Antônio Gonçalves/BA,-10.5715409,-40.2748824,626,5270.24752
D1,Antônio Gonçalves/BA,-10.5715409,-40.2748824,7,58.93248
1,Antônio João/MS,-22.1892837,-55.9508227,301,3337.02882
D1,Antônio João/MS,-22.1892837,-55.9508227,6,66.51885
1,Antônio Martins/RN,-6.2155812,-37.8890129,336,4696.67319
D1,Antônio Martins/RN,-6.2155812,-37.8890129,3,41.93458
1,Antônio Olinto/PR,-25.9849006,-50.1974516,304,4093.17356
D1,Antônio Olinto/PR,-25.9849006,-50.1974516,7,94.25071
1,Antônio Prado de Minas/MG,-21.0171988,-42.1101106,150,9451.79584
D1,Antônio Prado de Minas/MG,-21.0171988,-42.1101106,5,315.05986
1,Antônio Prado/RS,-28.8567806,-51.2801355,1735,13300.11499
D1,Antônio Prado/RS,-28.8567806,-51.2801355,17,130.31813
1,Anápolis/GO,-16.3332828,-48.9525756,30318,7738.68475
D1,Anápolis/GO,-16.3332828,-48.9525756,1006,256.78201
1,Anísio de Abreu/PI,-9.185643,-43.04941,283,2847.65546
D1,Anísio de Abreu/PI,-9.185643,-43.04941,8,80.49909
1,Aparecida d'Oeste/SP,-20.4498109,-50.8808706,576,13852.81385
D1,Aparecida d'Oeste/SP,-20.4498109,-50.8808706,11,264.55026
1,Aparecida de Goiânia/GO,-16.8226769,-49.2452546,58938,9987.02016
D1,Aparecida de Goiânia/GO,-16.8226769,-49.2452546,1137,192.66419
1,Aparecida do Rio Doce/GO,-18.2980167,-51.1491312,183,7396.92805
D1,Aparecida do Rio Doce/GO,-18.2980167,-51.1491312,3,121.26112
1,Aparecida do Rio Negro/TO,-9.9513491,-47.9773786,284,5858.08581
D1,Aparecida do Rio Negro/TO,-9.9513491,-47.9773786,5,103.13531
1,Aparecida do Taboado/MS,-20.0840304,-51.1013943,2221,8519.69773
D1,Aparecida do Taboado/MS,-20.0840304,-51.1013943,35,134.25908
1,Aparecida/PB,-6.7859598, -38.0831353,665,7901.61597
D1,Aparecida/PB,-6.7859598, -38.0831353,11,130.70342
1,Aparecida/SP,-22.851552,-45.2340924,2035,5623.87730
D1,Aparecida/SP,-22.851552,-45.2340924,66,182.39602
1,Aperibé/RJ,-21.6211928,-42.1028167,434,3646.75237
D1,Aperibé/RJ,-21.6211928,-42.1028167,18,151.24779
1,Apiacá/ES,-21.152272,-41.569297,621,8220.81017
D1,Apiacá/ES,-21.152272,-41.569297,25,330.95049
1,Apiacás/MT,-9.5678422,-57.394852,1089,10590.29466
D1,Apiacás/MT,-9.5678422,-57.394852,10,97.24788
1,Apiaí/SP,-24.5076527,-48.8461582,927,3826.46743
D1,Apiaí/SP,-24.5076527,-48.8461582,40,165.11186
1,Apicum-Açu/MA,-1.5279295,-45.082278,399,2291.39149
D1,Apicum-Açu/MA,-1.5279295,-45.082278,3,17.22851
1,Apiúna/SC,-27.0374658,-49.3885037,727,6701.69617
D1,Apiúna/SC,-27.0374658,-49.3885037,15,138.27434
1,Apodi/RN,-5.6631109,-37.796927,4535,12641.46736
D1,Apodi/RN,-5.6631109,-37.796927,63,175.61465
1,Aporá/BA,-11.6599747,-38.0794757,445,2501.68653
D1,Aporá/BA,-11.6599747,-38.0794757,17,95.57005
1,Aporé/GO,-18.9642193,-51.92804,300,7088.84688
D1,Aporé/GO,-18.9642193,-51.92804,6,141.77694
1,Apuarema/BA,-13.8517897,-39.7457126,621,8504.51931
D1,Apuarema/BA,-13.8517897,-39.7457126,9,123.25390
1,Apucarana/PR,-23.5525327,-51.4610764,6388,4688.99100
D1,Apucarana/PR,-23.5525327,-51.4610764,217,159.28476
1,Apuiarés/CE,-3.9460303,-39.4313298,826,5629.77099
D1,Apuiarés/CE,-3.9460303,-39.4313298,14,95.41985
1,Apuí/AM,-7.1940195,-59.8830192,1189,5317.76913
D1,Apuí/AM,-7.1940195,-59.8830192,24,107.33933
1,Aquidabã/SE,-10.2837579,-37.0188687,1674,7721.04608
D1,Aquidabã/SE,-10.2837579,-37.0188687,27,124.53300
1,Aquidauana/MS,-20.473969,-55.7821375,3938,8199.21298
D1,Aquidauana/MS,-20.473969,-55.7821375,112,233.19245
1,Aquiraz/CE,-3.9063117,-38.387504,4763,5884.96942
D1,Aquiraz/CE,-3.9063117,-38.387504,70,86.48916
1,Arabutã/SC,-27.1587028,-52.1438142,378,8858.68292
D1,Arabutã/SC,-27.1587028,-52.1438142,6,140.61401
1,Aracaju/SE,-10.9162061,-37.0774655,96863,14567.88007
D1,Aracaju/SE,-10.9162061,-37.0774655,1664,250.26019
1,Aracati/CE,-4.558259,-37.767894,4909,6547.51584
D1,Aracati/CE,-4.558259,-37.767894,104,138.71290
1,Aracatu/BA,-14.4274236,-41.4604105,685,5251.05404
D1,Aracatu/BA,-14.4274236,-41.4604105,13,99.65504
1,Araci/BA,-11.3356065,-38.9573261,3175,5809.91070
D1,Araci/BA,-11.3356065,-38.9573261,41,75.02562
1,Aracitaba/MG,-21.3425,-43.378611,81,3933.94852
D1,Aracitaba/MG,-21.3425,-43.378611,7,339.97086
1,Aracoiaba/CE,-4.3702577,-38.8084313,2379,8965.51724
D1,Aracoiaba/CE,-4.3702577,-38.8084313,25,94.21519
1,Aracruz/ES,-19.8245218,-40.2735025,12906,12517.82233
D1,Aracruz/ES,-19.8245218,-40.2735025,186,180.40562
1,Aragarças/GO,-15.8957166,-52.2514538,1793,8844.27564
D1,Aragarças/GO,-15.8957166,-52.2514538,41,202.23943
1,Aragoiânia/GO,-16.9146388,-49.4499148,860,8193.59756
D1,Aragoiânia/GO,-16.9146388,-49.4499148,14,133.38415
1,Aragominas/TO,-7.1654101,-48.525488,449,7834.58384
D1,Aragominas/TO,-7.1654101,-48.525488,8,139.59169
1,Araguacema/TO,-8.8067391,-49.5560969,415,5800.13976
D1,Araguacema/TO,-8.8067391,-49.5560969,11,153.73864
1,Araguaiana/MT,-15.729144,-51.834112,144,4631.71438
D1,Araguaiana/MT,-15.729144,-51.834112,2,64.32937
1,Araguainha/MT,-16.857016,-53.031778,21,2219.87315
1,Araguanã/MA,-2.9508403,-45.6651986,722,4642.78825
D1,Araguanã/MA,-2.9508403,-45.6651986,5,32.15227
1,Araguanã/TO,-6.5799107,-48.6428482,356,6145.34783
D1,Araguanã/TO,-6.5799107,-48.6428482,12,207.14656
1,Araguapaz/GO,-15.0937927,-50.626417,431,5537.71039
D1,Araguapaz/GO,-15.0937927,-50.626417,19,244.12180
1,Araguari/MG,-18.6511256,-48.1933764,11466,9731.38129
D1,Araguari/MG,-18.6511256,-48.1933764,321,272.43794
1,Araguatins/TO,-5.6522925,-48.1158973,1715,4741.49848
D1,Araguatins/TO,-5.6522925,-48.1158973,47,129.94194
1,Araguaçu/TO,-12.928934,-49.823134,735,8680.76060
D1,Araguaçu/TO,-12.928934,-49.823134,16,188.96894
1,Araguaína/TO,-7.193241,-48.2018597,26460,14428.97574
D1,Araguaína/TO,-7.193241,-48.2018597,349,190.31415
1,Araioses/MA,-2.890914,-41.904993,618,1321.33159
D1,Araioses/MA,-2.890914,-41.904993,12,25.65692
1,Aral Moreira/MS,-22.951141,-55.6268421,342,2773.27279
D1,Aral Moreira/MS,-22.951141,-55.6268421,9,72.98086
1,Aramari/BA,-12.0907897,-38.4985065,509,4441.14824
D1,Aramari/BA,-12.0907897,-38.4985065,11,95.97766
1,Arambaré/RS,-30.9132252,-51.4994625,145,4070.74677
D1,Arambaré/RS,-30.9132252,-51.4994625,5,140.37058
1,Arame/MA,-4.8858769,-46.0102484,1036,3162.00708
D1,Arame/MA,-4.8858769,-46.0102484,30,91.56391
1,Aramina/SP,-20.0876144,-47.789201,235,4155.61450
D1,Aramina/SP,-20.0876144,-47.789201,9,159.15119
1,Arandu/SP,-23.1345103,-49.0545651,250,3927.72977
D1,Arandu/SP,-23.1345103,-49.0545651,7,109.97643
1,Arantina/MG,-21.911667,-44.255833,105,3767.49193
D1,Arantina/MG,-21.911667,-44.255833,3,107.64263
1,Arapeí/SP,-22.6738889,-44.4477778,177,7195.12195
D1,Arapeí/SP,-22.6738889,-44.4477778,2,81.30081
1,Arapiraca/AL,-9.754866,-36.661471,21226,9108.03400
D1,Arapiraca/AL,-9.754866,-36.661471,326,139.88595
1,Arapoema/TO,-7.6575001,-49.0641484,404,6106.40871
D1,Arapoema/TO,-7.6575001,-49.0641484,5,75.57437
1,Araponga/MG,-20.666667,-42.520556,337,3986.75027
D1,Araponga/MG,-20.666667,-42.520556,6,70.98072
1,Arapongas/PR,-23.415296,-51.42592,9325,7471.35646
D1,Arapongas/PR,-23.415296,-51.42592,357,286.03477
1,Araporã/MG,-18.4318188,-49.188313,1550,22363.29534
D1,Araporã/MG,-18.4318188,-49.188313,21,302.98658
1,Arapoti/PR,-24.1457957,-49.8224605,2179,7699.64664
D1,Arapoti/PR,-24.1457957,-49.8224605,36,127.20848
1,Araputanga/MT,-15.4710868,-58.346796,1484,8754.64574
D1,Araputanga/MT,-15.4710868,-58.346796,35,206.47749
1,Arapuá/MG,-19.034444,-46.155556,163,5749.55908
D1,Arapuá/MG,-19.034444,-46.155556,1,35.27337
1,Arapuã/PR,-24.3079525,-51.7901941,175,5815.88568
D1,Arapuã/PR,-24.3079525,-51.7901941,5,166.16816
1,Araquari/SC,-26.3703324,-48.7210994,2933,7420.80761
D1,Araquari/SC,-26.3703324,-48.7210994,59,149.27639
1,Arara/PB,-6.8271895,-35.7605703,570,4209.12716
D1,Arara/PB,-6.8271895,-35.7605703,17,125.53537
1,Araranguá/SC,-28.9348832,-49.4858389,8431,12242.43832
D1,Araranguá/SC,-28.9348832,-49.4858389,177,257.01715
1,Araraquara/SP,-21.7886713,-48.1773096,15694,6584.73854
D1,Araraquara/SP,-21.7886713,-48.1773096,341,143.07352
1,Araras/SP,-22.3569477,-47.3838889,12866,9494.78252
D1,Araras/SP,-22.3569477,-47.3838889,281,207.37089
1,Ararendá/CE,-4.7504395,-40.8303611,673,6141.07127
D1,Ararendá/CE,-4.7504395,-40.8303611,12,109.49904
1,Arari/MA,-3.4547602,-44.7772723,506,1690.49846
D1,Arari/MA,-3.4547602,-44.7772723,19,63.47722
1,Araricá/RS,-29.6168543,-50.929121,927,16063.07399
D1,Araricá/RS,-29.6168543,-50.929121,24,415.87247
1,Araripe/CE,-7.212861,-40.1359222,724,3343.49312
D1,Araripe/CE,-7.212861,-40.1359222,11,50.79893
1,Araripina/PE,-7.5768582,-40.5038509,5449,6420.86161
D1,Araripina/PE,-7.5768582,-40.5038509,111,130.79751
1,Araruama/RJ,-22.8733203,-42.3428897,4494,3346.41418
D1,Araruama/RJ,-22.8733203,-42.3428897,210,156.37449
1,Araruna/PB,-6.5321155,-35.7397595,592,2893.02644
D1,Araruna/PB,-6.5321155,-35.7397595,16,78.18990
1,Araruna/PR,-23.9320308,-52.4976047,992,7085.71429
D1,Araruna/PR,-23.9320308,-52.4976047,18,128.57143
1,Arataca/BA,-15.2617424,-39.4122943,463,4224.06715
D1,Arataca/BA,-15.2617424,-39.4122943,12,109.47906
1,Aratiba/RS,-27.3955734,-52.3024325,341,5509.77541
D1,Aratiba/RS,-27.3955734,-52.3024325,6,96.94619
1,Aratuba/CE,-4.4195958,-39.0463737,1048,8879.85087
D1,Aratuba/CE,-4.4195958,-39.0463737,6,50.83884
1,Aratuípe/BA,-13.077137,-39.0010786,299,3383.50119
D1,Aratuípe/BA,-13.077137,-39.0010786,8,90.52846
1,Araucária/PR,-25.5861107,-49.4051209,19117,13074.67137
D1,Araucária/PR,-25.5861107,-49.4051209,286,195.60370
1,Arauá/SE,-11.2644014,-37.6181058,867,8716.19584
D1,Arauá/SE,-11.2644014,-37.6181058,17,170.90580
1,Araxá/MG,-19.5928536,-46.940241,8498,7917.12084
D1,Araxá/MG,-19.5928536,-46.940241,129,120.18223
1,Araçagi/PB,-6.8519969,-35.3835602,955,5643.87448
D1,Araçagi/PB,-6.8519969,-35.3835602,12,70.91779
1,Araçariguama/SP,-23.438611,-47.061389,1123,4912.51094
D1,Araçariguama/SP,-23.438611,-47.061389,35,153.10586
1,Araçatuba/SP,-21.207992,-50.4390225,20985,10591.58427
D1,Araçatuba/SP,-21.207992,-50.4390225,588,296.77634
1,Araçaí/MG,-19.200833,-44.2475,49,2081.56330
1,Araçoiaba da Serra/SP,-23.5045367,-47.6168158,1963,5644.69749
D1,Araçoiaba da Serra/SP,-23.5045367,-47.6168158,41,117.89740
1,Araçoiaba/PE,-7.7856903,-35.0898881,368,1774.94815
D1,Araçoiaba/PE,-7.7856903,-35.0898881,23,110.93426
1,Araçu/GO,-16.3561579,-49.6815269,367,10527.82559
D1,Araçu/GO,-16.3561579,-49.6815269,14,401.60643
1,Araçuaí/MG,-16.8484451,-42.0661868,1146,3121.59512
D1,Araçuaí/MG,-16.8484451,-42.0661868,23,62.64981
1,Araçás/BA,-12.2139176,-38.2026159,530,4341.41547
D1,Araçás/BA,-12.2139176,-38.2026159,7,57.33945
1,Araújos/MG,-19.948055,-45.165556,545,5797.25561
D1,Araújos/MG,-19.948055,-45.165556,5,53.18583
1,Arceburgo/MG,-21.364444,-46.939722,646,5935.86327
D1,Arceburgo/MG,-21.364444,-46.939722,15,137.82964
1,Arco-Íris/SP,-21.7741308,-50.4668814,85,4794.13424
D1,Arco-Íris/SP,-21.7741308,-50.4668814,5,282.00790
1,Arcos/MG,-20.282223,-45.539444,4136,10242.69440
D1,Arcos/MG,-20.282223,-45.539444,53,131.25310
1,Arcoverde/PE,-8.415192,-37.057748,4743,6339.04467
D1,Arcoverde/PE,-8.415192,-37.057748,96,128.30451
1,Areado/MG,-21.3582771,-46.1476688,501,3300.17785
D1,Areado/MG,-21.3582771,-46.1476688,14,92.22054
1,Areal/RJ,-22.2314922,-43.1056264,760,5998.89494
D1,Areal/RJ,-22.2314922,-43.1056264,34,268.37162
1,Arealva/SP,-22.0301906,-48.9111936,571,6629.51353
D1,Arealva/SP,-22.0301906,-48.9111936,8,92.88285
1,Areia Branca/RN,-4.9506652,-37.1263312,1872,6693.60318
D1,Areia Branca/RN,-4.9506652,-37.1263312,78,278.90013
1,Areia Branca/SE,-10.7591455,-37.3148072,1348,7213.95697
D1,Areia Branca/SE,-10.7591455,-37.3148072,32,171.25120
1,Areia de Baraúnas/PB,-7.1233949,-36.9446216,89,4206.04915
D1,Areia de Baraúnas/PB,-7.1233949,-36.9446216,3,141.77694
1,Areia/PB,-6.9680243,-35.6994783,1005,4435.91102
D1,Areia/PB,-6.9680243,-35.6994783,20,88.27684
1,Areial/PB,-7.0501306,-35.9245244,239,3401.16693
D1,Areial/PB,-7.0501306,-35.9245244,6,85.38494
1,Areias/SP,-22.5800929,-44.6975127,228,5852.15606
D1,Areias/SP,-22.5800929,-44.6975127,1,25.66735
1,Areiópolis/SP,-22.6758064,-48.6673653,785,7035.31099
D1,Areiópolis/SP,-22.6758064,-48.6673653,12,107.54616
1,Arenápolis/MT,-14.4610369,-56.8432806,1184,12460.53462
D1,Arenápolis/MT,-14.4610369,-56.8432806,19,199.95790
1,Arenópolis/GO,-16.3859286,-51.55937,164,6466.87697
D1,Arenópolis/GO,-16.3859286,-51.55937,7,276.02524
1,Argirita/MG,-21.612761,-42.8371922,244,9023.66864
D1,Argirita/MG,-21.612761,-42.8371922,5,184.91124
1,Aricanduva/MG,-17.8678,-42.5569,80,1518.31467
1,Arinos/MG,-15.917223,-46.106111,395,2211.39850
D1,Arinos/MG,-15.917223,-46.106111,10,55.98477
1,Aripuanã/MT,-10.175806,-59.4439663,2017,8879.98591
D1,Aripuanã/MT,-10.175806,-59.4439663,38,167.29770
1,Ariquemes/RO,-9.9076522,-63.033069,18066,16495.16540
D1,Ariquemes/RO,-9.9076522,-63.033069,386,352.43739
1,Ariranha do Ivaí/PR,-24.3834527,-51.5876772,129,6243.94966
D1,Ariranha do Ivaí/PR,-24.3834527,-51.5876772,2,96.80542
1,Ariranha/SP,-21.18716,-48.790418,379,3882.79889
D1,Ariranha/SP,-21.18716,-48.790418,13,133.18308
1,Armazém/SC,-28.2624996,-49.0190126,1298,14819.04327
D1,Armazém/SC,-28.2624996,-49.0190126,25,285.42071
1,Armação dos Búzios/RJ,-22.7597805,-41.8875267,3812,11056.64646
D1,Armação dos Búzios/RJ,-22.7597805,-41.8875267,39,113.11889
1,Arneiroz/CE,-6.3235099,-40.1603859,322,4105.04844
D1,Arneiroz/CE,-6.3235099,-40.1603859,11,140.23457
1,Aroazes/PI,-6.1108814,-41.7886137,516,8855.32864
D1,Aroazes/PI,-6.1108814,-41.7886137,12,205.93788
1,Aroeiras do Itaim/PI,-7.2797031,-41.5629681,97,3802.43042
D1,Aroeiras do Itaim/PI,-7.2797031,-41.5629681,1,39.20031
1,Aroeiras/PB,-7.5462904,-35.7080002,842,4404.68717
D1,Aroeiras/PB,-7.5462904,-35.7080002,6,31.38732
1,Arraial do Cabo/RJ,-22.9662839,-42.024427,573,1872.97748
D1,Arraial do Cabo/RJ,-22.9662839,-42.024427,17,55.56827
1,Arraial/PI,-6.6541632,-42.5335332,137,2902.54237
D1,Arraial/PI,-6.6541632,-42.5335332,2,42.37288
1,Arraias/TO,-12.9287788,-46.9437231,425,4034.55478
D1,Arraias/TO,-12.9287788,-46.9437231,3,28.47921
1,Arroio Grande/RS,-32.2384246,-53.0866661,1243,6815.44029
D1,Arroio Grande/RS,-32.2384246,-53.0866661,46,252.22064
1,Arroio Trinta/SC,-26.9301976,-51.334928,433,12200.61989
D1,Arroio Trinta/SC,-26.9301976,-51.334928,7,197.23866
1,Arroio do Meio/RS,-29.4020392,-51.9444993,2550,12161.96881
D1,Arroio do Meio/RS,-29.4020392,-51.9444993,31,147.85139
1,Arroio do Padre/RS,-31.4428773,-52.4228985,125,4235.85225
D1,Arroio do Padre/RS,-31.4428773,-52.4228985,1,33.88682
1,Arroio do Sal/RS,-29.549852,-49.8874395,893,8687.61553
D1,Arroio do Sal/RS,-29.549852,-49.8874395,31,301.58576
1,Arroio do Tigre/RS,-29.334158,-53.0888935,934,6963.39372
D1,Arroio do Tigre/RS,-29.334158,-53.0888935,17,126.74271
1,Arroio dos Ratos/RS,-30.0894524,-51.7265541,766,5403.11773
D1,Arroio dos Ratos/RS,-30.0894524,-51.7265541,29,204.55668
1,Artur Nogueira/SP,-22.572737,-47.172679,3104,5608.96278
D1,Artur Nogueira/SP,-22.572737,-47.172679,86,155.40296
1,Aruanã/GO,-14.9162439,-51.0715692,372,3679.52522
D1,Aruanã/GO,-14.9162439,-51.0715692,10,98.91197
1,Arujá/SP,-23.396266,-46.3175449,5766,6325.35077
D1,Arujá/SP,-23.396266,-46.3175449,214,234.75981
1,Arvoredo/SC,-27.0752908,-52.4571847,266,11906.89346
D1,Arvoredo/SC,-27.0752908,-52.4571847,4,179.05103
1,Arvorezinha/RS,-28.87369,-52.17808,686,6581.59839
D1,Arvorezinha/RS,-28.87369,-52.17808,23,220.66584
1,Arês/RN,-6.1969216,-35.1642968,711,4931.67788
D1,Arês/RN,-6.1969216,-35.1642968,20,138.72512
1,Ascurra/SC,-26.9569975,-49.3767752,994,12459.26297
D1,Ascurra/SC,-26.9569975,-49.3767752,9,112.81023
1,Aspásia/SP,-20.160028,-50.728046,89,4895.48955
D1,Aspásia/SP,-20.160028,-50.728046,4,220.02200
1,Assaré/CE,-6.8746791,-39.8741385,1258,5358.20768
D1,Assaré/CE,-6.8746791,-39.8741385,27,115.00128
1,Assaí/PR,-23.3736041,-50.8454929,1103,7375.95292
D1,Assaí/PR,-23.3736041,-50.8454929,35,234.05109
1,Assis Brasil/AC,-10.9409203,-69.5672108,1430,18980.62118
D1,Assis Brasil/AC,-10.9409203,-69.5672108,21,278.73640
1,Assis Chateaubriand/PR,-24.4054826,-53.5120468,2970,8908.21836
D1,Assis Chateaubriand/PR,-24.4054826,-53.5120468,73,218.95621
1,Assis/SP,-22.6620892,-50.420623,6835,6504.13467
D1,Assis/SP,-22.6620892,-50.420623,218,207.44716
1,Assunção do Piauí/PI,-5.8610212,-41.0485091,283,3599.13519
D1,Assunção do Piauí/PI,-5.8610212,-41.0485091,6,76.30675
1,Assunção/PB,-7.073396,-36.7274003,270,6701.41474
D1,Assunção/PB,-7.073396,-36.7274003,2,49.64011
1,Astolfo Dutra/MG,-21.3132636,-42.8624102,1028,7203.92432
D1,Astolfo Dutra/MG,-21.3132636,-42.8624102,15,105.11563
1,Astorga/PR,-23.2350184,-51.6647074,2364,9019.80236
D1,Astorga/PR,-23.2350184,-51.6647074,53,202.22061
1,Atalaia do Norte/AM,-4.3658547,-70.1908742,2678,13128.73811
D1,Atalaia do Norte/AM,-4.3658547,-70.1908742,8,39.21953
1,Atalaia/AL,-9.5029595,-36.0219316,1011,2134.48749
D1,Atalaia/AL,-9.5029595,-36.0219316,40,84.45054
1,Atalaia/PR,-23.1513833,-52.0529697,325,8374.13038
D1,Atalaia/PR,-23.1513833,-52.0529697,15,386.49833
1,Atalanta/SC,-27.421916,-49.778863,254,7949.92175
D1,Atalanta/SC,-27.421916,-49.778863,5,156.49452
1,Ataléia/MG,-18.04432,-41.1110524,1001,7895.56712
D1,Ataléia/MG,-18.04432,-41.1110524,7,55.21376
1,Atibaia/SP,-23.1177393,-46.5547861,8390,5822.83049
D1,Atibaia/SP,-23.1177393,-46.5547861,203,140.88613
1,Atilio Vivacqua/ES,-20.9139369,-41.1947519,1273,10516.31557
D1,Atilio Vivacqua/ES,-20.9139369,-41.1947519,22,181.74308
1,Augustinópolis/TO,-5.4662267,-47.8897519,1311,7032.13002
D1,Augustinópolis/TO,-5.4662267,-47.8897519,21,112.64281
1,Augusto Corrêa/PA,-1.0229335,-46.6404029,1860,4002.49618
D1,Augusto Corrêa/PA,-1.0229335,-46.6404029,31,66.70827
1,Augusto Pestana/RS,-28.5148413,-53.9906433,323,4892.45683
D1,Augusto Pestana/RS,-28.5148413,-53.9906433,6,90.88155
1,Augusto de Lima/MG,-18.1092963,-44.2651945,203,4184.70418
D1,Augusto de Lima/MG,-18.1092963,-44.2651945,6,123.68584
1,Aurelino Leal/BA,-14.3167137,-39.3256107,811,7177.62634
D1,Aurelino Leal/BA,-14.3167137,-39.3256107,22,194.70750
1,Auriflama/SP,-20.6840418,-50.5554616,1560,10227.49623
D1,Auriflama/SP,-20.6840418,-50.5554616,52,340.91654
1,Aurilândia/GO,-16.6772599,-50.4641231,170,5559.18901
D1,Aurilândia/GO,-16.6772599,-50.4641231,5,163.50556
1,Aurora do Pará/PA,-2.1323199,-47.558436,1088,3424.29106
D1,Aurora do Pará/PA,-2.1323199,-47.558436,13,40.91524
1,Aurora do Tocantins/TO,-12.71045,-46.407604,155,4097.27729
D1,Aurora do Tocantins/TO,-12.71045,-46.407604,2,52.86809
1,Aurora/CE,-6.9426019,-38.9693765,1217,4945.14425
D1,Aurora/CE,-6.9426019,-38.9693765,28,113.77489
1,Aurora/SC,-27.3166417,-49.6368502,635,11173.67588
D1,Aurora/SC,-27.3166417,-49.6368502,13,228.75242
1,Autazes/AM,-3.5833283,-59.1301518,2739,6798.21296
D1,Autazes/AM,-3.5833283,-59.1301518,86,213.45247
1,Avanhandava/SP,-21.4603331,-49.9465156,529,3817.01421
D1,Avanhandava/SP,-21.4603331,-49.9465156,23,165.95714
1,Avaré/SP,-23.1045215,-48.9259103,5805,6362.89898
D1,Avaré/SP,-23.1045215,-48.9259103,122,133.72501
1,Avaí/SP,-22.1564662,-49.3316395,254,4672.55335
D1,Avaí/SP,-22.1564662,-49.3316395,4,73.58352
1,Aveiro/PA,-3.6049239,-55.3310742,570,3474.76225
D1,Aveiro/PA,-3.6049239,-55.3310742,8,48.76859
1,Avelino Lopes/PI,-10.1346855,-43.9489525,295,2604.62652
D1,Avelino Lopes/PI,-10.1346855,-43.9489525,17,150.09712
1,Avelinópolis/GO,-16.4672409,-49.7578661,263,10917.39311
D1,Avelinópolis/GO,-16.4672409,-49.7578661,11,456.62100
1,Axixá do Tocantins/TO,-5.612747,-47.77007,970,9911.10657
D1,Axixá do Tocantins/TO,-5.612747,-47.77007,16,163.48217
1,Axixá/MA,-2.8379465,-44.0561053,189,1551.34203
D1,Axixá/MA,-2.8379465,-44.0561053,4,32.83264
1,Açailândia/MA,-4.9514278,-47.4844564,4645,4106.22254
D1,Açailândia/MA,-4.9514278,-47.4844564,164,144.97750
1,Açu/RN,-5.5836157,-36.9139541,4323,7404.42587
D1,Açu/RN,-5.5836157,-36.9139541,120,205.53576
1,Açucena/MG,-19.073056,-42.546666,645,6885.14091
D1,Açucena/MG,-19.073056,-42.546666,20,213.49274
1,Babaçulândia/TO,-7.2034355,-47.761613,553,5184.69904
D1,Babaçulândia/TO,-7.2034355,-47.761613,4,37.50234
1,Bacabal/MA,-4.2318132,-44.781167,4253,4058.59338
D1,Bacabal/MA,-4.2318132,-44.781167,139,132.64624
1,Bacabeira/MA,-2.9775747,-44.3155943,316,1831.67169
D1,Bacabeira/MA,-2.9775747,-44.3155943,6,34.77858
1,Bacuri/MA,-1.728894,-45.1417148,429,2299.77485
D1,Bacuri/MA,-1.728894,-45.1417148,4,21.44312
1,Bacurituba/MA,-2.7082587,-44.7381309,112,1975.30864
D1,Bacurituba/MA,-2.7082587,-44.7381309,1,17.63668
1,Bady Bassitt/SP,-20.9178969,-49.4517911,2231,12561.22966
D1,Bady Bassitt/SP,-20.9178969,-49.4517911,50,281.51568
1,Baependi/MG,-21.959162,-44.8899249,1015,5286.73368
D1,Baependi/MG,-21.959162,-44.8899249,12,62.50326
1,Bagre/PA,-1.8994498,-50.2103844,809,2582.60176
D1,Bagre/PA,-1.8994498,-50.2103844,11,35.11572
1,Bagé/RS,-31.3314264,-54.1062808,6863,5656.24099
D1,Bagé/RS,-31.3314264,-54.1062808,178,146.70128
1,Baianópolis/BA,-12.3067564,-44.5383591,400,2871.70651
D1,Baianópolis/BA,-12.3067564,-44.5383591,4,28.71707
1,Baixa Grande do Ribeiro/PI,-7.862861,-45.2113289,1892,16211.12158
D1,Baixa Grande do Ribeiro/PI,-7.862861,-45.2113289,19,162.79668
1,Baixa Grande/BA,-11.9630941,-40.1657537,597,2919.45816
D1,Baixa Grande/BA,-11.9630941,-40.1657537,7,34.23150
1,Baixio/CE,-6.7303544,-38.7170095,330,5235.60209
D1,Baixio/CE,-6.7303544,-38.7170095,8,126.92369
1,Baixo Guandu/ES,-19.5138322,-41.0182089,3064,9841.96325
D1,Baixo Guandu/ES,-19.5138322,-41.0182089,66,212.00051
1,Baião/PA,-2.7903479,-49.6702845,648,1337.21290
D1,Baião/PA,-2.7903479,-49.6702845,22,45.39920
1,Balbinos/SP,-21.9006253,-49.3583966,308,5190.42804
D1,Balbinos/SP,-21.9006253,-49.3583966,3,50.55612
1,Baldim/MG,-19.2913568,-43.9558262,435,5574.77893
D1,Baldim/MG,-19.2913568,-43.9558262,8,102.52467
1,Baliza/GO,-16.1978119,-52.542789,186,3522.72727
D1,Baliza/GO,-16.1978119,-52.542789,6,113.63636
1,Balneário Arroio do Silva/SC,-28.9815269,-49.4189932,1672,12449.73939
D1,Balneário Arroio do Silva/SC,-28.9815269,-49.4189932,36,268.05659
1,Balneário Barra do Sul/SC,-26.459842,-48.6061471,1234,11182.60082
D1,Balneário Barra do Sul/SC,-26.459842,-48.6061471,26,235.61396
1,Balneário Camboriú/SC,-26.9924395,-48.6339782,21859,14992.86675
D1,Balneário Camboriú/SC,-26.9924395,-48.6339782,315,216.05531
1,Balneário Gaivota/SC,-29.1553098,-49.5808712,1080,9591.47425
D1,Balneário Gaivota/SC,-29.1553098,-49.5808712,24,213.14387
1,Balneário Pinhal/RS,-30.2482978,-50.234585,649,4518.55462
D1,Balneário Pinhal/RS,-30.2482978,-50.234585,34,236.71935
1,Balneário Piçarras/SC,-26.7638889,-48.6716667,3852,16203.93741
D1,Balneário Piçarras/SC,-26.7638889,-48.6716667,38,159.85193
1,Balneário Rincão/SC,-28.8235718,-49.2241642,1212,9361.96509
D1,Balneário Rincão/SC,-28.8235718,-49.2241642,33,254.90499
1,Balsa Nova/PR,-25.5842234,-49.6312741,1119,8547.20440
D1,Balsa Nova/PR,-25.5842234,-49.6312741,23,175.67980
1,Balsas/MA,-7.53214,-46.037163,8207,8555.28568
D1,Balsas/MA,-7.53214,-46.037163,121,126.13495
1,Bambuí/MG,-20.0131996,-45.9777034,1019,4263.95514
D1,Bambuí/MG,-20.0131996,-45.9777034,14,58.58231
1,Banabuiú/CE,-5.3046404,-38.919766,1040,5696.75723
D1,Banabuiú/CE,-5.3046404,-38.919766,7,38.34356
1,Bananal/SP,-22.6828195,-44.3221095,723,6576.91258
D1,Bananal/SP,-22.6828195,-44.3221095,2,18.19340
1,Bananeiras/PB,-6.7537682,-35.6338343,904,4250.31736
D1,Bananeiras/PB,-6.7537682,-35.6338343,14,65.82350
1,Bandeira do Sul/MG,-21.728056,-46.385555,181,3132.57182
D1,Bandeira do Sul/MG,-21.728056,-46.385555,6,103.84216
1,Bandeira/MG,-15.884444,-40.559167,447,9378.93412
D1,Bandeira/MG,-15.884444,-40.559167,9,188.83760
1,Bandeirante/SC,-26.7677402,-53.6397596,211,7968.27795
D1,Bandeirante/SC,-26.7677402,-53.6397596,2,75.52870
1,Bandeirantes do Tocantins/TO,-7.7635698,-48.579148,274,7628.06236
D1,Bandeirantes do Tocantins/TO,-7.7635698,-48.579148,4,111.35857
1,Bandeirantes/MS,-19.9179623,-54.3646768,431,5931.73686
D1,Bandeirantes/MS,-19.9179623,-54.3646768,8,110.10184
1,Bandeirantes/PR,-23.107788,-50.370407,2610,8362.43632
D1,Bandeirantes/PR,-23.107788,-50.370407,76,243.50389
1,Bannach/PA,-7.3508505,-50.4064531,528,16186.38872
D1,Bannach/PA,-7.3508505,-50.4064531,2,61.31208
1,Banzaê/BA,-10.5827616,-38.6122305,812,6132.93051
D1,Banzaê/BA,-10.5827616,-38.6122305,7,52.87009
1,Baraúna/PB,-6.643394,-36.2531932,224,4512.48993
D1,Baraúna/PB,-6.643394,-36.2531932,3,60.43513
1,Baraúna/RN,-5.0775002,-37.61752,789,2744.63422
D1,Baraúna/RN,-5.0775002,-37.61752,20,69.57248
1,Barbacena/MG,-21.2254524,-43.7735087,5302,3836.35785
D1,Barbacena/MG,-21.2254524,-43.7735087,160,115.77089
1,Barbalha/CE,-7.3121067,-39.3036427,3735,6100.15026
D1,Barbalha/CE,-7.3121067,-39.3036427,74,120.85974
1,Barbosa Ferraz/PR,-24.0287182,-52.00811,661,5785.05164
D1,Barbosa Ferraz/PR,-24.0287182,-52.00811,14,122.52757
1,Barbosa/SP,-21.265661,-49.951816,337,4512.58704
D1,Barbosa/SP,-21.265661,-49.951816,10,133.90466
1,Barcarena/PA,-1.5107945,-48.6190679,9097,7161.46961
D1,Barcarena/PA,-1.5107945,-48.6190679,179,140.91492
1,Barcelona/RN,-5.9514918,-35.9260284,53,1326.99049
D1,Barcelona/RN,-5.9514918,-35.9260284,3,75.11267
1,Barcelos/AM,-0.9729214,-62.925635,4056,14675.44685
D1,Barcelos/AM,-0.9729214,-62.925635,56,202.61958
1,Bariri/SP,-22.0746355,-48.7394852,2224,6254.57000
D1,Bariri/SP,-22.0746355,-48.7394852,85,239.04607
1,Barra Bonita/SC,-26.6526364,-53.4419581,124,7510.59964
D1,Barra Bonita/SC,-26.6526364,-53.4419581,1,60.56935
1,Barra Bonita/SP,-22.490859,-48.558349,2554,7069.70049
D1,Barra Bonita/SP,-22.490859,-48.558349,67,185.46199
1,Barra D'Alcântara/PI,-6.5209258,-42.1071089,104,2631.57895
D1,Barra D'Alcântara/PI,-6.5209258,-42.1071089,3,75.91093
1,Barra Funda/RS,-27.9230048,-53.0401045,382,14974.51980
D1,Barra Funda/RS,-27.9230048,-53.0401045,7,274.40220
1,Barra Longa/MG,-20.2833541,-43.0423516,228,4546.36092
D1,Barra Longa/MG,-20.2833541,-43.0423516,6,119.64108
1,Barra Mansa/RJ,-22.5394843,-44.1735129,12782,6915.43177
D1,Barra Mansa/RJ,-22.5394843,-44.1735129,402,217.49363
1,Barra Velha/SC,-26.6338203,-48.6835001,3458,11580.70998
D1,Barra Velha/SC,-26.6338203,-48.6835001,73,244.47421
1,Barra da Estiva/BA,-13.6269662,-41.3278287,1331,6527.06944
D1,Barra da Estiva/BA,-13.6269662,-41.3278287,10,49.03884
1,Barra de Guabiraba/PE,-8.4173522,-35.6626669,339,2336.31978
D1,Barra de Guabiraba/PE,-8.4173522,-35.6626669,14,96.48518
1,Barra de Santa Rosa/PB,-6.7218007,-36.0564638,713,4600.89049
D1,Barra de Santa Rosa/PB,-6.7218007,-36.0564638,4,25.81145
1,Barra de Santana/PB,-7.5230865,-35.9988518,314,3760.92945
D1,Barra de Santana/PB,-7.5230865,-35.9988518,4,47.90993
1,Barra de Santo Antônio/AL,-9.4038098,-35.5117693,258,1605.67588
D1,Barra de Santo Antônio/AL,-9.4038098,-35.5117693,19,118.24745
1,Barra de São Francisco/ES,-18.7570902,-40.8916119,4286,9528.89126
D1,Barra de São Francisco/ES,-18.7570902,-40.8916119,174,386.84720
1,Barra de São Miguel/AL,-9.8261357,-35.8837777,339,4046.31177
D1,Barra de São Miguel/AL,-9.8261357,-35.8837777,6,71.61614
1,Barra de São Miguel/PB,-7.7528088,-36.3170996,326,5375.10305
D1,Barra de São Miguel/PB,-7.7528088,-36.3170996,5,82.44023
1,Barra do Bugres/MT,-15.0683712,-57.1853688,2172,6151.75461
D1,Barra do Bugres/MT,-15.0683712,-57.1853688,54,152.94418
1,Barra do Chapéu/SP,-24.472203,-49.023784,216,3750.00000
D1,Barra do Chapéu/SP,-24.472203,-49.023784,1,17.36111
1,Barra do Choça/BA,-14.8638173,-40.5761637,1714,5492.00551
D1,Barra do Choça/BA,-14.8638173,-40.5761637,27,86.51351
1,Barra do Corda/MA,-5.496823,-45.248496,4958,5602.76635
D1,Barra do Corda/MA,-5.496823,-45.248496,48,54.24219
1,Barra do Garças/MT,-15.8916033,-52.2615413,6100,9977.91772
D1,Barra do Garças/MT,-15.8916033,-52.2615413,218,356.58788
1,Barra do Guarita/RS,-27.1888016,-53.7147086,107,3285.23181
D1,Barra do Guarita/RS,-27.1888016,-53.7147086,4,122.81240
1,Barra do Jacaré/PR,-23.1151788,-50.1813945,156,5609.49299
D1,Barra do Jacaré/PR,-23.1151788,-50.1813945,1,35.95829
1,Barra do Mendes/BA,-11.8053298,-42.057037,633,4576.01388
D1,Barra do Mendes/BA,-11.8053298,-42.057037,10,72.29090
1,Barra do Ouro/TO,-7.7113784,-47.6743925,114,2461.13990
D1,Barra do Ouro/TO,-7.7113784,-47.6743925,5,107.94473
1,Barra do Piraí/RJ,-22.4703403,-43.8263256,4527,4492.67596
D1,Barra do Piraí/RJ,-22.4703403,-43.8263256,217,215.35469
1,Barra do Quaraí/RS,-30.208947,-57.5505128,199,4707.83061
D1,Barra do Quaraí/RS,-30.208947,-57.5505128,2,47.31488
1,Barra do Ribeiro/RS,-30.2930206,-51.301437,932,6875.18442
D1,Barra do Ribeiro/RS,-30.2930206,-51.301437,46,339.33314
1,Barra do Rio Azul/RS,-27.4101581,-52.4117471,63,3806.64653
D1,Barra do Rio Azul/RS,-27.4101581,-52.4117471,1,60.42296
1,Barra do Rocha/BA,-14.2090974,-39.6004395,349,6218.81682
D1,Barra do Rocha/BA,-14.2090974,-39.6004395,4,71.27584
1,Barra do Turvo/SP,-24.756421,-48.5056942,432,5660.37736
D1,Barra do Turvo/SP,-24.756421,-48.5056942,11,144.12998
1,Barra dos Coqueiros/SE,-10.9075694,-37.0386249,5312,17174.26447
D1,Barra dos Coqueiros/SE,-10.9075694,-37.0386249,66,213.38506
1,Barra/BA,-11.0892702,-43.1420453,1565,2902.98646
D1,Barra/BA,-11.0892702,-43.1420453,27,50.08347
1,Barracão/PR,-26.252395,-53.6349576,950,9212.56788
D1,Barracão/PR,-26.252395,-53.6349576,24,232.73856
1,Barracão/RS,-27.6728964,-51.4582928,285,5422.37443
D1,Barracão/RS,-27.6728964,-51.4582928,9,171.23288
1,Barras/PI,-4.2446153,-42.2920241,4019,8517.53735
D1,Barras/PI,-4.2446153,-42.2920241,79,167.42609
1,Barreira/CE,-4.2883361,-38.641094,993,4399.06082
D1,Barreira/CE,-4.2883361,-38.641094,31,137.33221
1,Barreiras do Piauí/PI,-9.9224524,-45.4763776,59,1760.14320
D1,Barreiras do Piauí/PI,-9.9224524,-45.4763776,1,29.83294
1,Barreiras/BA,-12.1440031,-44.9967406,11736,7476.34974
D1,Barreiras/BA,-12.1440031,-44.9967406,165,105.11228
1,Barreirinha/AM,-2.798863,-57.067897,2269,6985.19225
D1,Barreirinha/AM,-2.798863,-57.067897,60,184.71200
1,Barreirinhas/MA,-2.7541271,-42.8259693,1710,2704.96860
D1,Barreirinhas/MA,-2.7541271,-42.8259693,32,50.61930
1,Barreiros/PE,-8.8159644,-35.1831905,649,1517.63165
D1,Barreiros/PE,-8.8159644,-35.1831905,47,109.90553
1,Barretos/SP,-20.5531437,-48.5697509,10287,8374.78528
D1,Barretos/SP,-20.5531437,-48.5697509,294,239.34936
1,Barrinha/SP,-21.1898849,-48.1550642,1190,3586.49789
D1,Barrinha/SP,-21.1898849,-48.1550642,50,150.69319
1,Barro Alto/BA,-11.7618025,-41.9094904,679,4510.42912
D1,Barro Alto/BA,-11.7618025,-41.9094904,8,53.14202
1,Barro Alto/GO,-14.9696025,-48.9190985,1184,10378.68163
D1,Barro Alto/GO,-14.9696025,-48.9190985,13,113.95512
1,Barro Duro/PI,-5.8180139,-42.5106589,586,8339.26284
D1,Barro Duro/PI,-5.8180139,-42.5106589,9,128.07742
1,Barro Preto/BA,-14.8068289,-39.4727588,536,9838.47283
D1,Barro Preto/BA,-14.8068289,-39.4727588,9,165.19824
1,Barro/CE,-7.1713587,-38.7742136,698,3067.05334
D1,Barro/CE,-7.1713587,-38.7742136,17,74.69901
1,Barrocas/BA,-11.5165,-39.099282894736845,664,4122.94319
D1,Barrocas/BA,-11.5165,-39.099282894736845,17,105.55728
1,Barrolândia/TO,-9.837246,-48.7264346,668,11820.91665
D1,Barrolândia/TO,-9.837246,-48.7264346,18,318.52769
1,Barroquinha/CE,-3.0200371,-41.1339229,928,6168.57219
D1,Barroquinha/CE,-3.0200371,-41.1339229,23,152.88487
1,Barros Cassal/RS,-29.094938,-52.5832366,468,4185.29780
D1,Barros Cassal/RS,-29.094938,-52.5832366,6,53.65766
1,Barroso/MG,-21.187222,-43.976111,886,4239.84304
D1,Barroso/MG,-21.187222,-43.976111,16,76.56601
1,Barueri/SP,-23.5112184,-46.8764612,22219,8021.82091
D1,Barueri/SP,-23.5112184,-46.8764612,826,298.21432
1,Barão de Antonina/SP,-23.6295651,-49.5632104,168,4802.74443
D1,Barão de Antonina/SP,-23.6295651,-49.5632104,3,85.76329
1,Barão de Cocais/MG,-19.9452437,-43.4870298,3036,9237.50989
D1,Barão de Cocais/MG,-19.9452437,-43.4870298,51,155.17556
1,Barão de Cotegipe/RS,-27.6214694,-52.3765316,535,8081.57100
D1,Barão de Cotegipe/RS,-27.6214694,-52.3765316,6,90.63444
1,Barão de Grajaú/MA,-6.7542591,-43.0263477,293,1548.29846
D1,Barão de Grajaú/MA,-6.7542591,-43.0263477,2,10.56859
1,Barão de Melgaço/MT,-16.195776,-55.9668049,285,3490.93582
D1,Barão de Melgaço/MT,-16.195776,-55.9668049,12,146.98677
1,Barão de Monte Alto/MG,-21.244722,-42.2375,190,3548.74860
D1,Barão de Monte Alto/MG,-21.244722,-42.2375,7,130.74337
1,Barão do Triunfo/RS,-30.3909877,-51.7375349,363,4827.76965
D1,Barão do Triunfo/RS,-30.3909877,-51.7375349,5,66.49820
1,Barão/RS,-29.372474,-51.494908,469,7562.07675
D1,Barão/RS,-29.372474,-51.494908,7,112.86682
1,Bastos/SP,-21.9222474,-50.7317727,507,2419.70124
D1,Bastos/SP,-21.9222474,-50.7317727,21,100.22431
1,Bataguassu/MS,-21.715899,-52.422058,2041,8750.26795
D1,Bataguassu/MS,-21.715899,-52.422058,24,102.89389
1,Batalha/AL,-9.6733809,-37.1265481,882,4809.68481
D1,Batalha/AL,-9.6733809,-37.1265481,15,81.79736
1,Batalha/PI,-4.022391,-42.0780926,849,3155.54730
D1,Batalha/PI,-4.022391,-42.0780926,30,111.50344
1,Batatais/SP,-20.892867,-47.592149,2065,3278.81867
D1,Batatais/SP,-20.892867,-47.592149,82,130.20006
1,Batayporã/MS,-22.2976466,-53.2685608,619,5454.22504
D1,Batayporã/MS,-22.2976466,-53.2685608,11,96.92484
1,Baturité/CE,-4.3290203,-38.8821055,2287,6363.20637
D1,Baturité/CE,-4.3290203,-38.8821055,50,139.11689
1,Bauru/SP,-22.3218102,-49.0705863,33571,8850.84775
D1,Bauru/SP,-22.3218102,-49.0705863,728,191.93403
1,Bayeux/PB,-7.1301631,-34.936532,5861,6029.64929
D1,Bayeux/PB,-7.1301631,-34.936532,208,213.98517
1,Baía Formosa/RN,-6.3691885,-35.0063741,306,3282.55739
D1,Baía Formosa/RN,-6.3691885,-35.0063741,8,85.81849
1,Baía da Traição/PB,-6.691258,-34.9371244,1129,12412.04925
D1,Baía da Traição/PB,-6.691258,-34.9371244,11,120.93228
1,Bebedouro/SP,-20.949077,-48.479083,3238,4175.10154
D1,Bebedouro/SP,-20.949077,-48.479083,79,101.86319
1,Beberibe/CE,-4.1810469,-38.1298101,3242,6009.37923
D1,Beberibe/CE,-4.1810469,-38.1298101,86,159.40981
1,Bela Cruz/CE,-3.0529129,-40.167582,2575,7869.32339
D1,Bela Cruz/CE,-3.0529129,-40.167582,48,146.69030
1,Bela Vista da Caroba/PR,-25.8792818,-53.6672545,158,4570.43679
D1,Bela Vista da Caroba/PR,-25.8792818,-53.6672545,4,115.70726
1,Bela Vista de Goiás/GO,-16.9692949,-48.9513071,2020,6624.68844
D1,Bela Vista de Goiás/GO,-16.9692949,-48.9513071,50,163.97744
1,Bela Vista de Minas/MG,-19.8289721,-43.0973688,628,6119.66478
D1,Bela Vista de Minas/MG,-19.8289721,-43.0973688,10,97.44689
1,Bela Vista do Maranhão/MA,-3.7416367,-45.2514192,283,2509.08769
D1,Bela Vista do Maranhão/MA,-3.7416367,-45.2514192,3,26.59810
1,Bela Vista do Paraíso/PR,-22.9948493,-51.1907996,1569,10188.97331
D1,Bela Vista do Paraíso/PR,-22.9948493,-51.1907996,55,357.16605
1,Bela Vista do Piauí/PI,-7.9716353,-41.8715061,227,5632.75434
D1,Bela Vista do Piauí/PI,-7.9716353,-41.8715061,6,148.88337
1,Bela Vista do Toldo/SC,-26.274625,-50.466354,58,911.66300
D1,Bela Vista do Toldo/SC,-26.274625,-50.466354,1,15.71833
1,Bela Vista/MS,-22.107327,-56.5317344,698,2821.91227
D1,Bela Vista/MS,-22.107327,-56.5317344,19,76.81423
1,Belford Roxo/RJ,-22.7667284,-43.4033603,18728,3649.84273
D1,Belford Roxo/RJ,-22.7667284,-43.4033603,534,104.06963
1,Belmiro Braga/MG,-21.9486291,-43.413564,149,4350.36496
D1,Belmiro Braga/MG,-21.9486291,-43.413564,3,87.59124
1,Belmonte/BA,-15.8630837,-38.8792845,884,3771.81380
D1,Belmonte/BA,-15.8630837,-38.8792845,16,68.26812
1,Belmonte/SC,-26.8448262,-53.578916,204,7530.45404
D1,Belmonte/SC,-26.8448262,-53.578916,4,147.65596
1,Belo Campo/BA,-15.0338286,-41.2585109,628,3670.58273
D1,Belo Campo/BA,-15.0338286,-41.2585109,7,40.91414
1,Belo Horizonte/MG,-19.9227318,-43.9450948,169676,6728.99835
D1,Belo Horizonte/MG,-19.9227318,-43.9450948,4126,163.62861
1,Belo Jardim/PE,-8.3338293,-36.4176419,2514,3278.26098
D1,Belo Jardim/PE,-8.3338293,-36.4176419,75,97.80015
1,Belo Monte/AL,-9.8269944,-37.2787165,243,3621.46051
D1,Belo Monte/AL,-9.8269944,-37.2787165,6,89.41878
1,Belo Oriente/MG,-19.2232523,-42.4807033,2260,8372.23087
D1,Belo Oriente/MG,-19.2232523,-42.4807033,52,192.63540
1,Belo Vale/MG,-20.407778,-44.024167,522,6762.53401
D1,Belo Vale/MG,-20.407778,-44.024167,9,116.59541
1,Belterra/PA,-2.636091,-54.937392,1176,6592.29777
D1,Belterra/PA,-2.636091,-54.937392,23,128.93099
1,Belágua/MA,-3.1604031,-43.5085052,197,2616.89692
D1,Belágua/MA,-3.1604031,-43.5085052,14,185.97237
1,Belém de Maria/PE,-8.6242497,-35.8388934,174,1435.40670
D1,Belém de Maria/PE,-8.6242497,-35.8388934,5,41.24732
1,Belém do Brejo do Cruz/PB,-6.1880727,-37.5332267,487,6626.75194
D1,Belém do Brejo do Cruz/PB,-6.1880727,-37.5332267,5,68.03647
1,Belém do Piauí/PI,-7.3767305,-40.9712156,415,11569.55673
D1,Belém do Piauí/PI,-7.3767305,-40.9712156,7,195.14915
1,Belém do São Francisco/PE,-8.7517707,-38.9625715,551,2657.98360
D1,Belém do São Francisco/PE,-8.7517707,-38.9625715,7,33.76749
1,Belém/AL,-9.5715351,-36.492841,93,2170.86835
D1,Belém/AL,-9.5715351,-36.492841,3,70.02801
1,Belém/PA,-1.45056,-48.4682453,94079,6273.43478
D1,Belém/PA,-1.45056,-48.4682453,4339,289.33591
1,Belém/PB,-6.6967586,-35.5369626,1835,10364.30387
D1,Belém/PB,-6.6967586,-35.5369626,30,169.44366
1,Beneditinos/PI,-5.4565671,-42.3605061,805,7686.43178
D1,Beneditinos/PI,-5.4565671,-42.3605061,29,276.90251
1,Benedito Leite/MA,-7.2173453,-44.5523331,295,5232.35190
D1,Benedito Leite/MA,-7.2173453,-44.5523331,2,35.47357
1,Benedito Novo/SC,-26.7840657,-49.3629511,906,7694.26752
D1,Benedito Novo/SC,-26.7840657,-49.3629511,15,127.38854
1,Benevides/PA,-1.3555577,-48.252235,3500,5488.64634
D1,Benevides/PA,-1.3555577,-48.252235,81,127.02296
1,Benjamin Constant do Sul/RS,-27.5105555,-52.6007689,152,7763.02349
1,Benjamin Constant/AM,-4.3782748,-70.0290603,2661,6056.67463
D1,Benjamin Constant/AM,-4.3782748,-70.0290603,81,184.36326
1,Bento Fernandes/RN,-5.6926846,-35.8207423,92,1665.15837
D1,Bento Fernandes/RN,-5.6926846,-35.8207423,2,36.19910
1,Bento Gonçalves/RS,-29.1654014,-51.5197627,13765,11301.03528
D1,Bento Gonçalves/RS,-29.1654014,-51.5197627,248,203.60746
1,Bento de Abreu/SP,-21.2707225,-50.8120444,237,7886.85524
1,Bequimão/MA,-2.4495376,-44.7884889,275,1291.14043
D1,Bequimão/MA,-2.4495376,-44.7884889,17,79.81595
1,Berilo/MG,-16.9515764,-42.4643732,10,84.23181
D1,Berilo/MG,-16.9515764,-42.4643732,1,8.42318
1,Berizal/MG,-15.6118785,-41.7417382,102,2141.05793
D1,Berizal/MG,-15.6118785,-41.7417382,1,20.99076
1,Bernardino Batista/PB,-6.4532173,-38.5495418,227,6419.68326
1,Bernardino de Campos/SP,-23.0140216,-49.4760724,384,3441.47697
D1,Bernardino de Campos/SP,-23.0140216,-49.4760724,7,62.73526
1,Bernardo Sayão/TO,-7.8794244,-48.8968905,376,8453.23741
D1,Bernardo Sayão/TO,-7.8794244,-48.8968905,6,134.89209
1,Bernardo do Mearim/MA,-4.6315929,-44.7617508,216,3556.72649
D1,Bernardo do Mearim/MA,-4.6315929,-44.7617508,5,82.33163
1,Bertioga/SP,-23.848568,-46.139586,4469,6904.80973
D1,Bertioga/SP,-23.848568,-46.139586,103,159.13972
1,Bertolínia/PI,-7.6372159,-43.9540611,731,13274.01489
D1,Bertolínia/PI,-7.6372159,-43.9540611,9,163.42836
1,Bertópolis/MG,-17.063333,-40.573889,254,5513.34925
1,Beruri/AM,-3.9007135,-61.3717319,2074,10322.00269
D1,Beruri/AM,-3.9007135,-61.3717319,31,154.28259
1,Betim/MG,-19.968056,-44.198333,24192,5439.04457
D1,Betim/MG,-19.968056,-44.198333,798,179.41293
1,Betânia do Piauí/PI,-8.1460635,-40.7961387,155,2495.97424
D1,Betânia do Piauí/PI,-8.1460635,-40.7961387,2,32.20612
1,Betânia/PE,-8.2742779,-38.0351767,340,2663.53310
D1,Betânia/PE,-8.2742779,-38.0351767,10,78.33921
1,Bezerros/PE,-8.2372132,-35.7558262,3091,5077.20105
D1,Bezerros/PE,-8.2372132,-35.7558262,91,149.47438
1,Bias Fortes/MG,-21.605833,-43.756944,99,2973.86603
D1,Bias Fortes/MG,-21.605833,-43.756944,2,60.07810
1,Bicas/MG,-21.7213723,-43.0604327,922,6335.02817
D1,Bicas/MG,-21.7213723,-43.0604327,28,192.38697
1,Biguaçu/SC,-27.4961277,-48.6542432,10022,14423.04925
D1,Biguaçu/SC,-27.4961277,-48.6542432,144,207.23599
1,Bilac/SP,-21.403962,-50.47464,704,8673.15511
D1,Bilac/SP,-21.403962,-50.47464,12,147.83787
1,Biquinhas/MG,-18.783611,-45.502222,99,3963.17054
D1,Biquinhas/MG,-18.783611,-45.502222,1,40.03203
1,Birigui/SP,-21.2908491,-50.34144,10711,8576.82791
D1,Birigui/SP,-21.2908491,-50.34144,340,272.25483
1,Biritiba Mirim/SP,-23.5697765,-46.0407456,977,2966.35900
D1,Biritiba Mirim/SP,-23.5697765,-46.0407456,63,191.28006
1,Biritinga/BA,-11.6227908,-38.8066738,281,1758.00801
D1,Biritinga/BA,-11.6227908,-38.8066738,6,37.53754
1,Bituruna/PR,-26.161281,-51.5533319,535,3262.19512
D1,Bituruna/PR,-26.161281,-51.5533319,8,48.78049
1,Blumenau/SC,-26.9195567,-49.0658025,43712,12079.97679
D1,Blumenau/SC,-26.9195567,-49.0658025,482,133.20253
1,Boa Esperança do Iguaçu/PR,-25.6362851,-53.2139114,126,5101.21457
1,Boa Esperança do Sul/SP,-21.9930206,-48.3917372,673,4481.28912
D1,Boa Esperança do Sul/SP,-21.9930206,-48.3917372,11,73.24544
1,Boa Esperança/ES,-18.5395472,-40.2904088,1079,7149.48317
D1,Boa Esperança/ES,-18.5395472,-40.2904088,34,225.28492
1,Boa Esperança/MG,-21.0901253,-45.5660195,2678,6658.54447
D1,Boa Esperança/MG,-21.0901253,-45.5660195,67,166.58793
1,Boa Esperança/PR,-24.2411024,-52.7860277,239,5905.60909
D1,Boa Esperança/PR,-24.2411024,-52.7860277,6,148.25797
1,Boa Hora/PI,-4.4094627,-42.1255341,455,6676.44901
D1,Boa Hora/PI,-4.4094627,-42.1255341,5,73.36757
1,Boa Nova/BA,-14.365907,-40.2063056,698,5661.44862
D1,Boa Nova/BA,-14.365907,-40.2063056,11,89.22054
1,Boa Ventura de São Roque/PR,-24.88177,-51.5441292,315,4948.93951
D1,Boa Ventura de São Roque/PR,-24.88177,-51.5441292,5,78.55460
1,Boa Ventura/PB,-7.4202462,-38.2156782,263,4955.71886
D1,Boa Ventura/PB,-7.4202462,-38.2156782,4,75.37215
1,Boa Viagem/CE,-5.1261877,-39.7300055,2677,4904.99661
D1,Boa Viagem/CE,-5.1261877,-39.7300055,66,120.93006
1,Boa Vista da Aparecida/PR,-25.4357216,-53.4067721,629,8342.17507
D1,Boa Vista da Aparecida/PR,-25.4357216,-53.4067721,17,225.46419
1,Boa Vista das Missões/RS,-27.6677983,-53.3127622,102,4875.71702
D1,Boa Vista das Missões/RS,-27.6677983,-53.3127622,4,191.20459
1,Boa Vista do Buricá/RS,-27.6687782,-54.1111913,572,8522.05006
D1,Boa Vista do Buricá/RS,-27.6687782,-54.1111913,8,119.18951
1,Boa Vista do Cadeado/RS,-28.5783827,-53.8123759,144,5834.68395
D1,Boa Vista do Cadeado/RS,-28.5783827,-53.8123759,2,81.03728
1,Boa Vista do Gurupi/MA,-1.7981168,-46.3071882,15,178.95490
D1,Boa Vista do Gurupi/MA,-1.7981168,-46.3071882,4,47.72131
1,Boa Vista do Incra/RS,-28.8195551,-53.3866624,157,6001.52905
D1,Boa Vista do Incra/RS,-28.8195551,-53.3866624,2,76.45260
1,Boa Vista do Ramos/AM,-2.9716927,-57.5869819,843,4295.32253
D1,Boa Vista do Ramos/AM,-2.9716927,-57.5869819,11,56.04810
1,Boa Vista do Sul/RS,-29.3510488,-51.6779679,249,8963.28294
D1,Boa Vista do Sul/RS,-29.3510488,-51.6779679,3,107.99136
1,Boa Vista do Tupim/BA,-12.6605988,-40.6083594,171,922.77805
D1,Boa Vista do Tupim/BA,-12.6605988,-40.6083594,4,21.58545
1,Boa Vista/PB,-7.2620711,-36.2415161,537,7525.22422
D1,Boa Vista/PB,-7.2620711,-36.2415161,9,126.12108
1,Boa Vista/RR,2.8208478,-60.6719582,72418,17256.67934
D1,Boa Vista/RR,2.8208478,-60.6719582,1132,269.74731
1,Boca da Mata/AL,-9.6452054,-36.2116658,1564,5717.21012
D1,Boca da Mata/AL,-9.6452054,-36.2116658,38,138.90920
1,Boca do Acre/AM,-8.7553487,-67.3930873,2463,7111.30359
D1,Boca do Acre/AM,-8.7553487,-67.3930873,22,63.51956
1,Bocaina de Minas/MG,-22.167778,-44.394722,128,2515.22893
D1,Bocaina de Minas/MG,-22.167778,-44.394722,5,98.25113
1,Bocaina do Sul/SC,-27.745494,-49.942279,351,10063.07339
D1,Bocaina do Sul/SC,-27.745494,-49.942279,3,86.00917
1,Bocaina/PI,-6.9445939,-41.3224599,233,5172.03108
D1,Bocaina/PI,-6.9445939,-41.3224599,3,66.59267
1,Bocaina/SP,-22.1421831,-48.522276,1083,8697.39801
D1,Bocaina/SP,-22.1421831,-48.522276,24,192.74012
1,Bocaiúva do Sul/PR,-25.206591,-49.114131,1012,7708.12705
D1,Bocaiúva do Sul/PR,-25.206591,-49.114131,9,68.55054
1,Bocaiúva/MG,-17.1160208,-43.8122678,1717,3416.50748
D1,Bocaiúva/MG,-17.1160208,-43.8122678,40,79.59249
1,Bodocó/PE,-7.777592,-39.933797,1540,4012.71562
D1,Bodocó/PE,-7.777592,-39.933797,23,59.93017
1,Bodoquena/MS,-20.5508775,-56.6769653,260,3317.17275
D1,Bodoquena/MS,-20.5508775,-56.6769653,9,114.82521
1,Bodó/RN,-5.9866104,-36.4134824,95,4324.07829
1,Bofete/SP,-23.1019554,-48.2610535,543,4554.98700
D1,Bofete/SP,-23.1019554,-48.2610535,11,92.27414
1,Boituva/SP,-23.2838893,-47.6738231,4076,6556.21682
D1,Boituva/SP,-23.2838893,-47.6738231,89,143.15586
1,Bom Conselho/PE,-9.169191,-36.685683,1271,2606.27063
D1,Bom Conselho/PE,-9.169191,-36.685683,41,84.07325
1,Bom Despacho/MG,-19.7375242,-45.2517288,2693,5277.49471
D1,Bom Despacho/MG,-19.7375242,-45.2517288,59,115.62280
1,Bom Jardim da Serra/SC,-28.3380324,-49.625588,540,11316.01006
D1,Bom Jardim da Serra/SC,-28.3380324,-49.625588,4,83.82230
1,Bom Jardim de Goiás/GO,-16.2062659,-52.172793,570,6426.88014
D1,Bom Jardim de Goiás/GO,-16.2062659,-52.172793,11,124.02751
1,Bom Jardim de Minas/MG,-21.9476466,-44.1906033,311,4814.98684
D1,Bom Jardim de Minas/MG,-21.9476466,-44.1906033,1,15.48227
1,Bom Jardim/MA,-3.54129,-45.606004,1136,2716.27373
D1,Bom Jardim/MA,-3.54129,-45.606004,40,95.64344
1,Bom Jardim/PE,-7.7961572,-35.5871696,1031,2578.59590
D1,Bom Jardim/PE,-7.7961572,-35.5871696,46,115.04890
1,Bom Jardim/RJ,-22.1515328,-42.4186683,1037,3755.06952
D1,Bom Jardim/RJ,-22.1515328,-42.4186683,26,94.14832
1,Bom Jesus da Lapa/BA,-13.250571,-43.410754,3070,4406.99377
D1,Bom Jesus da Lapa/BA,-13.250571,-43.410754,51,73.21065
1,Bom Jesus da Penha/MG,-21.0165299,-46.5226644,280,6597.54948
D1,Bom Jesus da Penha/MG,-21.0165299,-46.5226644,8,188.50141
1,Bom Jesus da Serra/BA,-14.3724084,-40.5047119,406,4133.15688
D1,Bom Jesus da Serra/BA,-14.3724084,-40.5047119,7,71.26133
1,Bom Jesus das Selvas/MA,-4.4878075,-46.8526639,2440,7058.75546
D1,Bom Jesus das Selvas/MA,-4.4878075,-46.8526639,22,63.64452
1,Bom Jesus de Goiás/GO,-18.2174587,-49.739721,2360,9201.49719
D1,Bom Jesus de Goiás/GO,-18.2174587,-49.739721,89,347.00561
1,Bom Jesus do Amparo/MG,-19.7045132,-43.4752911,162,2641.44790
D1,Bom Jesus do Amparo/MG,-19.7045132,-43.4752911,5,81.52617
1,Bom Jesus do Araguaia/MT,-12.1725897,-51.5074425,789,11765.58306
D1,Bom Jesus do Araguaia/MT,-12.1725897,-51.5074425,14,208.76827
1,Bom Jesus do Galho/MG,-19.8283191,-42.3162256,513,3451.75616
D1,Bom Jesus do Galho/MG,-19.8283191,-42.3162256,20,134.57139
1,Bom Jesus do Itabapoana/RJ,-21.1341025,-41.680095,2523,6781.71115
D1,Bom Jesus do Itabapoana/RJ,-21.1341025,-41.680095,68,182.78096
1,Bom Jesus do Norte/ES,-21.1254776,-41.6711646,843,8462.15619
D1,Bom Jesus do Norte/ES,-21.1254776,-41.6711646,20,200.76290
1,Bom Jesus do Oeste/SC,-26.6929713,-53.0967453,120,5610.09818
D1,Bom Jesus do Oeste/SC,-26.6929713,-53.0967453,4,187.00327
1,Bom Jesus do Sul/PR,-26.1922507,-53.6002033,228,6503.13748
D1,Bom Jesus do Sul/PR,-26.1922507,-53.6002033,3,85.56760
1,Bom Jesus do Tocantins/PA,-5.0471796,-48.5978362,675,3943.21767
D1,Bom Jesus do Tocantins/PA,-5.0471796,-48.5978362,20,116.83608
1,Bom Jesus do Tocantins/TO,-8.96306,-48.165043,122,2436.10224
D1,Bom Jesus do Tocantins/TO,-8.96306,-48.165043,1,19.96805
1,Bom Jesus dos Perdões/SP,-23.1353864,-46.4648052,1624,6249.75948
D1,Bom Jesus dos Perdões/SP,-23.1353864,-46.4648052,21,80.81586
1,Bom Jesus/PB,-6.8156725,-38.6551841,113,4388.34951
D1,Bom Jesus/PB,-6.8156725,-38.6551841,3,116.50485
1,Bom Jesus/PI,-9.0711644,-44.3583926,2634,10375.38898
D1,Bom Jesus/PI,-9.0711644,-44.3583926,28,110.29267
1,Bom Jesus/RN,-5.9887544,-35.5821149,600,5843.96610
D1,Bom Jesus/RN,-5.9887544,-35.5821149,12,116.87932
1,Bom Jesus/RS,-28.6692723,-50.4346894,581,5137.50111
D1,Bom Jesus/RS,-28.6692723,-50.4346894,14,123.79521
1,Bom Jesus/SC,-26.7350604,-52.3916519,317,10369.64344
D1,Bom Jesus/SC,-26.7350604,-52.3916519,6,196.27085
1,Bom Lugar/MA,-4.3728019,-45.0366054,397,2415.13566
D1,Bom Lugar/MA,-4.3728019,-45.0366054,7,42.58426
1,Bom Princípio do Piauí/PI,-3.1912777,-41.6430185,106,1875.77420
D1,Bom Princípio do Piauí/PI,-3.1912777,-41.6430185,9,159.26385
1,Bom Princípio/RS,-29.489788,-51.3566782,1323,9280.95405
D1,Bom Princípio/RS,-29.489788,-51.3566782,25,175.37706
1,Bom Progresso/RS,-27.5490948,-53.8655601,102,5371.24803
D1,Bom Progresso/RS,-27.5490948,-53.8655601,2,105.31859
1,Bom Repouso/MG,-22.4657069,-46.1485376,566,5371.54788
D1,Bom Repouso/MG,-22.4657069,-46.1485376,13,123.37477
1,Bom Retiro do Sul/RS,-29.6000007,-51.9359243,894,7215.49637
D1,Bom Retiro do Sul/RS,-29.6000007,-51.9359243,23,185.63358
1,Bom Retiro/SC,-27.798993,-49.486994,587,5834.99006
D1,Bom Retiro/SC,-27.798993,-49.486994,14,139.16501
1,Bom Sucesso de Itararé/SP,-24.3190016,-49.1446207,117,2936.74699
D1,Bom Sucesso de Itararé/SP,-24.3190016,-49.1446207,5,125.50201
1,Bom Sucesso do Sul/PR,-26.0749256,-52.8348629,296,9096.49662
D1,Bom Sucesso do Sul/PR,-26.0749256,-52.8348629,6,184.38844
1,Bom Sucesso/MG,-21.0323516,-44.7598082,468,2658.03374
D1,Bom Sucesso/MG,-21.0323516,-44.7598082,4,22.71824
1,Bom Sucesso/PB,-6.4458948,-37.9297662,186,3753.02663
D1,Bom Sucesso/PB,-6.4458948,-37.9297662,2,40.35513
1,Bom Sucesso/PR,-23.7088019,-51.7651297,593,8389.92643
D1,Bom Sucesso/PR,-23.7088019,-51.7651297,12,169.77929
1,Bombinhas/SC,-27.1519159,-48.4875691,3211,15790.50897
D1,Bombinhas/SC,-27.1519159,-48.4875691,46,226.21097
1,Bonfim do Piauí/PI,-9.1648678,-42.8734415,268,4714.16007
D1,Bonfim do Piauí/PI,-9.1648678,-42.8734415,5,87.95075
1,Bonfim/MG,-20.3266626, -44.2386157,321,4679.30029
D1,Bonfim/MG,-20.3266626, -44.2386157,12,174.92711
1,Bonfim/RR,3.3613818,-59.8427241,2064,16437.04707
D1,Bonfim/RR,3.3613818,-59.8427241,24,191.12845
1,Bonfinópolis de Minas/MG,-16.5660011,-45.98645,353,6484.20279
D1,Bonfinópolis de Minas/MG,-16.5660011,-45.98645,10,183.68846
1,Bonfinópolis/GO,-16.6172709,-48.9615701,428,4314.95110
D1,Bonfinópolis/GO,-16.6172709,-48.9615701,16,161.30658
1,Boninal/BA,-12.7095183,-41.8299984,566,3918.03960
D1,Boninal/BA,-12.7095183,-41.8299984,7,48.45632
1,Bonito de Minas/MG,-15.3191266,-44.7544,43,378.22148
1,Bonito de Santa Fé/PB,-7.3143332,-38.5146677,395,3285.64299
D1,Bonito de Santa Fé/PB,-7.3143332,-38.5146677,11,91.49892
1,Bonito/BA,-11.9665473,-41.2649896,624,3695.80668
D1,Bonito/BA,-11.9665473,-41.2649896,6,35.53660
1,Bonito/MS,-21.1264766,-56.4902208,2106,9490.76160
D1,Bonito/MS,-21.1264766,-56.4902208,41,184.76791
1,Bonito/PA,-1.3605722,-47.3049907,345,2087.11434
D1,Bonito/PA,-1.3605722,-47.3049907,12,72.59528
1,Bonito/PE,-8.4721161,-35.7314591,589,1545.24228
D1,Bonito/PE,-8.4721161,-35.7314591,32,83.95204
1,Bonópolis/GO,-13.649331,-49.8329113,125,2782.10550
D1,Bonópolis/GO,-13.649331,-49.8329113,1,22.25684
1,Boqueirão do Leão/RS,-29.30332,-52.4296817,545,7076.08413
D1,Boqueirão do Leão/RS,-29.30332,-52.4296817,28,363.54194
1,Boqueirão do Piauí/PI,-4.4850148,-42.1095161,456,7096.17180
D1,Boqueirão do Piauí/PI,-4.4850148,-42.1095161,7,108.93246
1,Boqueirão/PB,-7.487004,-36.130887,1260,7050.92334
D1,Boqueirão/PB,-7.487004,-36.130887,22,123.11136
1,Boquim/SE,-11.1450175,-37.6204228,1702,6327.37276
D1,Boquim/SE,-11.1450175,-37.6204228,39,144.98680
1,Boquira/BA,-12.8184859,-42.7270883,440,2046.79723
D1,Boquira/BA,-12.8184859,-42.7270883,8,37.21450
1,Boracéia/SP,-22.195355,-48.7801925,743,15262.94166
D1,Boracéia/SP,-22.195355,-48.7801925,19,390.30403
1,Borba/AM,-4.3934778,-59.5947721,1722,4124.74849
D1,Borba/AM,-4.3934778,-59.5947721,52,124.55686
1,Borborema/PB,-6.8066718,-35.5990191,236,4463.77908
D1,Borborema/PB,-6.8066718,-35.5990191,6,113.48591
1,Borborema/SP,-21.6212706,-49.074135,901,5574.11532
D1,Borborema/SP,-21.6212706,-49.074135,29,179.41104
1,Borda da Mata/MG,-22.274167,-46.165278,1028,5241.15428
D1,Borda da Mata/MG,-22.274167,-46.165278,32,163.14877
1,Borebi/SP,-22.5700178,-48.9714871,125,4658.96385
D1,Borebi/SP,-22.5700178,-48.9714871,2,74.54342
1,Borrazópolis/PR,-23.9393362,-51.5850786,483,7501.16478
D1,Borrazópolis/PR,-23.9393362,-51.5850786,15,232.95543
1,Borá/SP,-22.2701088,-50.544407,48,5727.92363
1,Bossoroca/RS,-28.7278885,-54.9120278,340,5479.45205
D1,Bossoroca/RS,-28.7278885,-54.9120278,19,306.20467
1,Botelhos/MG,-21.65,-46.394722,1115,7458.69289
D1,Botelhos/MG,-21.65,-46.394722,11,73.58352
1,Botucatu/SP,-22.8879628,-48.4410712,10808,7296.29380
D1,Botucatu/SP,-22.8879628,-48.4410712,194,130.96604
1,Botumirim/MG,-16.862778,-43.011111,159,2528.62595
D1,Botumirim/MG,-16.862778,-43.011111,2,31.80662
1,Botuporã/BA,-13.3744752,-42.5198469,187,1846.18422
D1,Botuporã/BA,-13.3744752,-42.5198469,3,29.61793
1,Botuverá/SC,-27.200749,-49.068892,810,15219.84216
D1,Botuverá/SC,-27.200749,-49.068892,8,150.31943
1,Bozano/RS,-28.3669953,-53.7705165,199,9426.81194
D1,Bozano/RS,-28.3669953,-53.7705165,7,331.59640
1,Braga/RS,-27.617348,-53.740514,143,4318.93688
D1,Braga/RS,-27.617348,-53.740514,4,120.80942
1,Braganey/PR,-24.8179919,-53.118506,294,5462.65329
D1,Braganey/PR,-24.8179919,-53.118506,7,130.06317
1,Bragança Paulista/SP,-22.9520235,-46.5418586,11490,6737.69886
D1,Bragança Paulista/SP,-22.9520235,-46.5418586,268,157.15433
1,Bragança/PA,-1.0573967,-46.7635406,3491,2708.00689
D1,Bragança/PA,-1.0573967,-46.7635406,113,87.65534
1,Branquinha/AL,-9.2478057,-36.0152009,440,4206.50096
D1,Branquinha/AL,-9.2478057,-36.0152009,9,86.04207
1,Brasil Novo/PA,-3.3055853,-52.539198,1366,9116.99927
D1,Brasil Novo/PA,-3.3055853,-52.539198,28,186.87846
1,Brasileira/PI,-4.131182,-41.7824969,452,5415.11920
D1,Brasileira/PI,-4.131182,-41.7824969,8,95.84282
1,Brasilândia de Minas/MG,-17.0096469,-46.0087183,887,5296.15476
D1,Brasilândia de Minas/MG,-17.0096469,-46.0087183,10,59.70862
1,Brasilândia do Sul/PR,-24.1975793,-53.527551,308,11914.89362
D1,Brasilândia do Sul/PR,-24.1975793,-53.527551,7,270.79304
1,Brasilândia do Tocantins/TO,-8.3886619,-48.4842729,125,5653.55043
D1,Brasilândia do Tocantins/TO,-8.3886619,-48.4842729,3,135.68521
1,Brasilândia/MS,-21.255575,-52.0365617,671,5661.01409
D1,Brasilândia/MS,-21.255575,-52.0365617,11,92.80351
1,Brasiléia/AC,-11.0010413,-68.7487894,2419,9059.24650
D1,Brasiléia/AC,-11.0010413,-68.7487894,33,123.58625
1,Brasnorte/MT,-12.1227151,-58.0050109,1642,8152.92949
D1,Brasnorte/MT,-12.1227151,-58.0050109,25,124.13108
1,Brasília de Minas/MG,-16.2075114,-44.430559,805,2484.18454
D1,Brasília de Minas/MG,-16.2075114,-44.430559,5,15.42972
1,Brasília/DF,-15.7934036,-47.8823172,374588,12260.87500
D1,Brasília/DF,-15.7934036,-47.8823172,7628,249.67686
1,Brazabrantes/GO,-16.4291635,-49.3858216,344,9183.12867
D1,Brazabrantes/GO,-16.4291635,-49.3858216,3,80.08542
1,Brazópolis/MG,-22.4742842,-45.6165577,632,4385.84316
D1,Brazópolis/MG,-22.4742842,-45.6165577,26,180.43026
1,Braço do Norte/SC,-28.2728633,-49.1622712,6864,20262.13248
D1,Braço do Norte/SC,-28.2728633,-49.1622712,69,203.68402
1,Braço do Trombudo/SC,-27.358578,-49.882145,536,14221.27885
D1,Braço do Trombudo/SC,-27.358578,-49.882145,4,106.12895
1,Braúna/SP,-21.5015319,-50.3175246,350,6096.49887
D1,Braúna/SP,-21.5015319,-50.3175246,19,330.95280
1,Braúnas/MG,-19.055556,-42.716111,186,3900.18872
D1,Braúnas/MG,-19.055556,-42.716111,6,125.81254
1,Brejetuba/ES,-20.1465817,-41.2902303,1385,11145.08731
D1,Brejetuba/ES,-20.1465817,-41.2902303,12,96.56393
1,Brejinho de Nazaré/TO,-11.0205883,-48.5722906,364,6595.39772
D1,Brejinho de Nazaré/TO,-11.0205883,-48.5722906,7,126.83457
1,Brejinho/PE,-7.3482153,-37.28538,528,7051.28205
D1,Brejinho/PE,-7.3482153,-37.28538,10,133.54701
1,Brejinho/RN,-6.1957907,-35.3583019,817,6389.30163
D1,Brejinho/RN,-6.1957907,-35.3583019,8,62.56354
1,Brejo Alegre/SP,-21.1671191,-50.1850393,262,9068.88197
D1,Brejo Alegre/SP,-21.1671191,-50.1850393,10,346.14053
1,Brejo Grande do Araguaia/PA,-5.7011449,-48.4037308,750,10179.15309
D1,Brejo Grande do Araguaia/PA,-5.7011449,-48.4037308,4,54.28882
1,Brejo Grande/SE,-10.4287358,-36.4667918,304,3639.41099
D1,Brejo Grande/SE,-10.4287358,-36.4667918,12,143.66096
1,Brejo Santo/CE,-7.4909841,-38.9859152,6714,13470.56699
D1,Brejo Santo/CE,-7.4909841,-38.9859152,104,208.65936
1,Brejo da Madre de Deus/PE,-8.1409718,-36.3712527,1667,3254.27038
D1,Brejo da Madre de Deus/PE,-8.1409718,-36.3712527,46,89.79990
1,Brejo de Areia/MA,-4.3316785,-45.5833334,281,3117.37298
D1,Brejo de Areia/MA,-4.3316785,-45.5833334,8,88.75083
1,Brejo do Cruz/PB,-6.32926065,-37.48746163303929,1231,8665.35267
D1,Brejo do Cruz/PB,-6.32926065,-37.48746163303929,19,133.74630
1,Brejo do Piauí/PI,-8.207583,-42.8359849,59,1533.26403
D1,Brejo do Piauí/PI,-8.207583,-42.8359849,3,77.96258
1,Brejo dos Santos/PB,-6.3769367,-37.8243125,345,5337.25248
D1,Brejo dos Santos/PB,-6.3769367,-37.8243125,4,61.88119
1,Brejo/MA,-3.6804397,-42.7529313,801,2185.47925
D1,Brejo/MA,-3.6804397,-42.7529313,19,51.84033
1,Brejolândia/BA,-12.4843845,-43.9611861,129,1214.91806
D1,Brejolândia/BA,-12.4843845,-43.9611861,8,75.34376
1,Brejão/PE,-9.029146,-36.566034,165,1835.98531
D1,Brejão/PE,-9.029146,-36.566034,5,55.63592
1,Brejões/BA,-13.1033754,-39.7909837,542,3810.99705
D1,Brejões/BA,-13.1033754,-39.7909837,8,56.25088
1,Breu Branco/PA,-3.7785073,-49.5684795,574,852.49213
D1,Breu Branco/PA,-3.7785073,-49.5684795,38,56.43676
1,Breves/PA,-1.68036,-50.479085,3764,3636.82039
D1,Breves/PA,-1.68036,-50.479085,107,103.38464
1,Britânia/GO,-15.2427599,-51.1602061,428,7383.12920
D1,Britânia/GO,-15.2427599,-51.1602061,3,51.75091
1,Brochier/RS,-29.556766,-51.5963047,348,6818.18182
D1,Brochier/RS,-29.556766,-51.5963047,1,19.59248
1,Brodowski/SP,-20.984532,-47.657217,1702,6733.39399
D1,Brodowski/SP,-20.984532,-47.657217,45,178.02746
1,Brotas de Macaúbas/BA,-12.0019007,-42.6257506,59,582.42843
D1,Brotas de Macaúbas/BA,-12.0019007,-42.6257506,1,9.87167
1,Brotas/SP,-22.2840884,-48.1267265,425,1725.11771
D1,Brotas/SP,-22.2840884,-48.1267265,24,97.41841
1,Brumadinho/MG,-20.143611,-44.2,2828,6954.21236
D1,Brumadinho/MG,-20.143611,-44.2,61,150.00246
1,Brumado/BA,-14.29507325,-41.659307508575985,7994,11871.98337
D1,Brumado/BA,-14.29507325,-41.659307508575985,154,228.70721
1,Brunópolis/SC,-27.310953,-50.837585,177,7474.66216
D1,Brunópolis/SC,-27.310953,-50.837585,4,168.91892
1,Brusque/SC,-27.0964628,-48.9136323,22272,16175.58411
D1,Brusque/SC,-27.0964628,-48.9136323,222,161.23292
1,Brás Pires/MG,-20.8483109,-43.2430524,158,3680.40997
D1,Brás Pires/MG,-20.8483109,-43.2430524,5,116.46867
1,Bueno Brandão/MG,-22.441976,-46.3517971,531,4831.22555
D1,Bueno Brandão/MG,-22.441976,-46.3517971,17,154.67200
1,Buenos Aires/PE,-7.7218931,-35.326587,188,1425.32221
D1,Buenos Aires/PE,-7.7218931,-35.326587,19,144.04852
1,Buenópolis/MG,-17.8756607,-44.1749365,264,2549.98551
D1,Buenópolis/MG,-17.8756607,-44.1749365,8,77.27229
1,Buerarema/BA,-14.9571177,-39.3008035,1225,6691.79504
D1,Buerarema/BA,-14.9571177,-39.3008035,36,196.65683
1,Bugre/MG,-19.4257687,-42.2556,346,8686.91941
D1,Bugre/MG,-19.4257687,-42.2556,10,251.06703
1,Bujari/AC,-9.8309656,-67.9520886,1060,10172.74472
D1,Bujari/AC,-9.8309656,-67.9520886,13,124.76008
1,Bujaru/PA,-1.5169239,-48.0410699,1240,4213.81724
D1,Bujaru/PA,-1.5169239,-48.0410699,35,118.93839
1,Buri/SP,-23.79849,-48.598924,2071,10373.15302
D1,Buri/SP,-23.79849,-48.598924,48,240.42074
1,Buritama/SP,-21.0664017,-50.1448077,1754,10149.87559
D1,Buritama/SP,-21.0664017,-50.1448077,49,283.54841
1,Buriti Alegre/GO,-18.1377879,-49.0404411,779,8213.83383
D1,Buriti Alegre/GO,-18.1377879,-49.0404411,27,284.69000
1,Buriti Bravo/MA,-5.8391884,-43.8367876,1166,4870.71306
D1,Buriti Bravo/MA,-5.8391884,-43.8367876,11,45.95012
1,Buriti de Goiás/GO,-16.180644,-50.4287479,173,6987.07593
D1,Buriti de Goiás/GO,-16.180644,-50.4287479,7,282.71405
1,Buriti do Tocantins/TO,-5.3187439,-48.2256609,603,5244.84648
D1,Buriti do Tocantins/TO,-5.3187439,-48.2256609,6,52.18753
1,Buriti dos Lopes/PI,-3.1776723,-41.8707444,1122,5664.66401
D1,Buriti dos Lopes/PI,-3.1776723,-41.8707444,22,111.07184
1,Buriti dos Montes/PI,-5.3136171,-41.0971256,523,6328.65440
D1,Buriti dos Montes/PI,-5.3136171,-41.0971256,6,72.60407
1,Buriti/MA,-3.9430944,-42.9244281,751,2607.81999
D1,Buriti/MA,-3.9430944,-42.9244281,7,24.30724
1,Buriticupu/MA,-4.3227472,-46.4516989,2909,3985.85972
D1,Buriticupu/MA,-4.3227472,-46.4516989,38,52.06692
1,Buritinópolis/GO,-14.4589282,-46.4293104,150,4568.99178
D1,Buritinópolis/GO,-14.4589282,-46.4293104,1,30.45995
1,Buritirama/BA,-10.7148421,-43.6362327,747,3510.99831
D1,Buritirama/BA,-10.7148421,-43.6362327,16,75.20211
1,Buritirana/MA,-5.5897455,-47.0148915,282,1823.23657
D1,Buritirana/MA,-5.5897455,-47.0148915,23,148.70369
1,Buritis/MG,-15.621389,-46.423889,1257,5025.38680
D1,Buritis/MG,-15.621389,-46.423889,22,87.95426
1,Buritis/RO,-10.2054937,-63.8281954,4152,10288.43295
D1,Buritis/RO,-10.2054937,-63.8281954,56,138.76499
1,Buritizal/SP,-20.1933264,-47.7097165,210,4652.19318
D1,Buritizal/SP,-20.1933264,-47.7097165,6,132.91981
1,Buritizeiro/MG,-17.3667765,-44.9647781,883,3140.00213
D1,Buritizeiro/MG,-17.3667765,-44.9647781,28,99.56972
1,Butiá/RS,-30.1256795,-51.9692224,1521,7259.45017
D1,Butiá/RS,-30.1256795,-51.9692224,46,219.54945
1,Buíque/PE,-8.6239732,-37.157296,1708,2898.89509
D1,Buíque/PE,-8.6239732,-37.157296,32,54.31185
1,Bálsamo/SP,-20.7343722,-49.5807484,1236,13524.45563
D1,Bálsamo/SP,-20.7343722,-49.5807484,48,525.22158
0,CASO SEM LOCALIZAÇÃO DEFINIDA/BA,-13.415069300066518,-38.14174656569957,10027,67.41718
D0,CASO SEM LOCALIZAÇÃO DEFINIDA/BA,-13.415069300066518,-38.14174656569957,166,1.11611
0,CASO SEM LOCALIZAÇÃO DEFINIDA/CE,-3.3445126297392798,-38.624961942434304,8279,90.65845
0,CASO SEM LOCALIZAÇÃO DEFINIDA/ES,-20.30989267097039,-39.81745156645774,3198,79.57896
D0,CASO SEM LOCALIZAÇÃO DEFINIDA/ES,-20.30989267097039,-39.81745156645774,162,4.03120
0,CASO SEM LOCALIZAÇÃO DEFINIDA/MG,-19.97049116501593,-43.8852149072783,4266,20.15231
D0,CASO SEM LOCALIZAÇÃO DEFINIDA/MG,-19.97049116501593,-43.8852149072783,249,1.17626
0,CASO SEM LOCALIZAÇÃO DEFINIDA/MT,-15.54791153961863,-56.17143998972475,2479,71.14433
D0,CASO SEM LOCALIZAÇÃO DEFINIDA/MT,-15.54791153961863,-56.17143998972475,163,4.67790
0,CASO SEM LOCALIZAÇÃO DEFINIDA/PR,-25.69415946385943,-48.10141676336737,5656,49.46669
D0,CASO SEM LOCALIZAÇÃO DEFINIDA/PR,-25.69415946385943,-48.10141676336737,143,1.25066
0,CASO SEM LOCALIZAÇÃO DEFINIDA/RR,2.813328208465927,-60.663338675861986,2517,415.51041
D0,CASO SEM LOCALIZAÇÃO DEFINIDA/RR,2.813328208465927,-60.663338675861986,14,2.31114
0,CASO SEM LOCALIZAÇÃO DEFINIDA/SP,-24.30968974555485,-46.21366504207253,552,1.20212
1,Caapiranga/AM,-3.3188884,-61.2096404,555,4178.27298
D1,Caapiranga/AM,-3.3188884,-61.2096404,20,150.56840
1,Caaporã/PB,-7.510234,-34.9154114,1582,7205.64792
D1,Caaporã/PB,-7.510234,-34.9154114,26,118.42405
1,Caarapó/MS,-22.6349267,-54.8240903,2541,8305.82159
D1,Caarapó/MS,-22.6349267,-54.8240903,25,81.71804
1,Caatiba/BA,-14.9782759,-40.4092325,692,10665.84464
D1,Caatiba/BA,-14.9782759,-40.4092325,8,123.30456
1,Cabaceiras do Paraguaçu/BA,-12.5377868,-39.1901339,406,2146.89863
D1,Cabaceiras do Paraguaçu/BA,-12.5377868,-39.1901339,4,21.15171
1,Cabaceiras/PB,-7.4899156,-36.2860501,301,5317.08179
D1,Cabaceiras/PB,-7.4899156,-36.2860501,1,17.66472
1,Cabeceira Grande/MG,-16.0297,-47.0906,260,3720.66400
D1,Cabeceira Grande/MG,-16.0297,-47.0906,4,57.24098
1,Cabeceiras do Piauí/PI,-4.4733665,-42.3098716,436,4101.59925
D1,Cabeceiras do Piauí/PI,-4.4733665,-42.3098716,10,94.07338
1,Cabeceiras/GO,-15.7995459,-46.9264991,261,3243.84787
D1,Cabeceiras/GO,-15.7995459,-46.9264991,10,124.28536
1,Cabedelo/PB,-6.97324,-34.8351609,7238,10525.39736
D1,Cabedelo/PB,-6.97324,-34.8351609,162,235.57811
1,Cabixi/RO,-13.4956065,-60.5424442,630,12143.40786
D1,Cabixi/RO,-13.4956065,-60.5424442,14,269.85351
1,Cabo Frio/RJ,-22.8804369,-42.0189227,9939,4314.21403
D1,Cabo Frio/RJ,-22.8804369,-42.0189227,484,210.08951
1,Cabo Verde/MG,-21.4743338,-46.3964995,325,2309.05861
D1,Cabo Verde/MG,-21.4743338,-46.3964995,5,35.52398
1,Cabo de Santo Agostinho/PE,-8.2838945,-35.0320984,4433,2121.62110
D1,Cabo de Santo Agostinho/PE,-8.2838945,-35.0320984,383,183.30270
1,Cabreúva/SP,-23.3075813,-47.1324417,2947,5843.85968
D1,Cabreúva/SP,-23.3075813,-47.1324417,68,134.84305
1,Cabrobó/PE,-8.5083701,-39.3106961,1447,4193.83822
D1,Cabrobó/PE,-8.5083701,-39.3106961,19,55.06768
1,Cabrália Paulista/SP,-22.4562909,-49.3385645,217,5114.30592
D1,Cabrália Paulista/SP,-22.4562909,-49.3385645,2,47.13646
1,Cacaulândia/RO,-10.3380043,-62.9007231,736,11740.30946
D1,Cacaulândia/RO,-10.3380043,-62.9007231,9,143.56357
1,Cacequi/RS,-29.8838059,-54.8273443,188,1513.32206
D1,Cacequi/RS,-29.8838059,-54.8273443,6,48.29751
1,Cachoeira Alta/GO,-18.7618269,-50.9432431,1134,8953.10279
D1,Cachoeira Alta/GO,-18.7618269,-50.9432431,15,118.42729
1,Cachoeira Dourada/GO,-18.4934204,-49.481062,376,4681.85780
D1,Cachoeira Dourada/GO,-18.4934204,-49.481062,13,161.87274
1,Cachoeira Dourada/MG,-18.517136,-49.5002062,133,4915.00370
D1,Cachoeira Dourada/MG,-18.517136,-49.5002062,2,73.90983
1,Cachoeira Grande/MA,-2.9290492,-44.0573223,214,2257.86031
D1,Cachoeira Grande/MA,-2.9290492,-44.0573223,5,52.75375
1,Cachoeira Paulista/SP,-22.666498,-45.015384,1794,5342.30666
D1,Cachoeira Paulista/SP,-22.666498,-45.015384,29,86.35836
1,Cachoeira da Prata/MG,-19.524723,-44.453056,214,5959.34280
D1,Cachoeira da Prata/MG,-19.524723,-44.453056,4,111.38959
1,Cachoeira de Goiás/GO,-16.6688414,-50.6435997,51,3800.29806
D1,Cachoeira de Goiás/GO,-16.6688414,-50.6435997,1,74.51565
1,Cachoeira de Minas/MG,-22.3554043,-45.7796324,502,4335.43484
D1,Cachoeira de Minas/MG,-22.3554043,-45.7796324,7,60.45427
1,Cachoeira de Pajeú/MG,-15.965833,-41.496666,293,3103.15611
D1,Cachoeira de Pajeú/MG,-15.965833,-41.496666,8,84.72781
1,Cachoeira do Arari/PA,-1.0143572,-48.9621089,353,1466.92154
D1,Cachoeira do Arari/PA,-1.0143572,-48.9621089,18,74.80053
1,Cachoeira do Piriá/PA,-1.7599443,-46.5446954,691,1996.59048
D1,Cachoeira do Piriá/PA,-1.7599443,-46.5446954,3,8.66827
1,Cachoeira do Sul/RS,-30.0474778,-52.8905413,6057,7398.40477
D1,Cachoeira do Sul/RS,-30.0474778,-52.8905413,98,119.70343
1,Cachoeira dos Índios/PB,-6.9259193,-38.6742159,539,5230.47065
D1,Cachoeira dos Índios/PB,-6.9259193,-38.6742159,13,126.15235
1,Cachoeira/BA,-12.5998256,-38.9665918,1196,3563.02321
D1,Cachoeira/BA,-12.5998256,-38.9665918,18,53.62410
1,Cachoeiras de Macacu/RJ,-22.4626861,-42.6534414,2310,3895.24982
D1,Cachoeiras de Macacu/RJ,-22.4626861,-42.6534414,78,131.52792
1,Cachoeirinha/PE,-8.4906364,-36.2338963,395,1926.73528
D1,Cachoeirinha/PE,-8.4906364,-36.2338963,22,107.31184
1,Cachoeirinha/RS,-29.9493353,-51.0898927,11425,8705.42518
D1,Cachoeirinha/RS,-29.9493353,-51.0898927,339,258.30539
1,Cachoeirinha/TO,-6.118647,-47.9208885,116,5078.80911
D1,Cachoeirinha/TO,-6.118647,-47.9208885,2,87.56567
1,Cachoeiro de Itapemirim/ES,-20.848084,-41.11129,21734,10320.57705
D1,Cachoeiro de Itapemirim/ES,-20.848084,-41.11129,439,208.46293
1,Cacimba de Areia/PB,-7.1288513,-37.1575194,28,757.78078
D1,Cacimba de Areia/PB,-7.1288513,-37.1575194,1,27.06360
1,Cacimba de Dentro/PB,-6.6425101,-35.7929304,858,4994.76074
D1,Cacimba de Dentro/PB,-6.6425101,-35.7929304,23,133.89219
1,Cacimbas/PB,-7.2125451,-37.0593398,196,2722.60036
D1,Cacimbas/PB,-7.2125451,-37.0593398,6,83.34491
1,Cacimbinhas/AL,-9.401212,-36.991082,538,4940.76591
D1,Cacimbinhas/AL,-9.401212,-36.991082,7,64.28506
1,Cacique Doble/RS,-27.7700117,-51.6616409,317,6247.53646
D1,Cacique Doble/RS,-27.7700117,-51.6616409,6,118.24990
1,Cacoal/RO,-11.4333,-61.4420502,10967,12768.21161
D1,Cacoal/RO,-11.4333,-61.4420502,198,230.51937
1,Caconde/SP,-21.527995,-46.643659,933,4908.20138
D1,Caconde/SP,-21.527995,-46.643659,13,68.38866
1,Caculé/BA,-14.4990734,-42.2233006,1302,5590.14211
D1,Caculé/BA,-14.4990734,-42.2233006,11,47.22854
1,Caetanos/BA,-14.3387456,-40.9085971,538,3682.91347
D1,Caetanos/BA,-14.3387456,-40.9085971,9,61.61008
1,Caetanópolis/MG,-19.2947496,-44.4138386,753,6409.05609
D1,Caetanópolis/MG,-19.2947496,-44.4138386,7,59.57954
1,Caetité/BA,-14.0691776,-42.4852428,1911,3741.11705
D1,Caetité/BA,-14.0691776,-42.4852428,18,35.23815
1,Caeté/MG,-19.897777,-43.670278,1439,3194.44136
D1,Caeté/MG,-19.897777,-43.670278,39,86.57624
1,Caetés/PE,-8.7728788,-36.6255835,1090,3771.10435
D1,Caetés/PE,-8.7728788,-36.6255835,14,48.43620
1,Cafarnaum/BA,-11.691399,-41.468823,748,4040.40404
D1,Cafarnaum/BA,-11.691399,-41.468823,15,81.02415
1,Cafeara/PR,-22.78905,-51.714195,218,7379.82397
D1,Cafeara/PR,-22.78905,-51.714195,8,270.81923
1,Cafelândia/PR,-24.6176963,-53.3218057,1363,7385.13221
D1,Cafelândia/PR,-24.6176963,-53.3218057,9,48.76463
1,Cafelândia/SP,-21.8054355,-49.6030627,635,3558.81858
D1,Cafelândia/SP,-21.8054355,-49.6030627,29,162.52872
1,Cafezal do Sul/PR,-23.900508,-53.512418,215,5362.93340
D1,Cafezal do Sul/PR,-23.900508,-53.512418,3,74.83163
1,Caiabu/SP,-22.0143038,-51.2356597,68,1621.75054
D1,Caiabu/SP,-22.0143038,-51.2356597,5,119.24636
1,Caiana/MG,-20.695555,-41.924723,121,2183.72135
D1,Caiana/MG,-20.695555,-41.924723,5,90.23642
1,Caiapônia/GO,-16.9538779,-51.8090761,909,4757.41875
D1,Caiapônia/GO,-16.9538779,-51.8090761,29,151.77684
1,Caibaté/RS,-28.290475,-54.645407,205,4250.46651
D1,Caibaté/RS,-28.290475,-54.645407,7,145.13788
1,Caibi/SC,-27.0751925,-53.2502133,534,8711.25612
D1,Caibi/SC,-27.0751925,-53.2502133,10,163.13214
1,Caicó/RN,-6.4594544,-37.0971911,8751,12804.53009
D1,Caicó/RN,-6.4594544,-37.0971911,105,153.63680
1,Caieiras/SP,-23.3644621,-46.7484765,6208,6040.37947
D1,Caieiras/SP,-23.3644621,-46.7484765,215,209.19484
1,Cairu/BA,-13.4860505,-39.0455744,1017,5519.07527
D1,Cairu/BA,-13.4860505,-39.0455744,9,48.84137
1,Caiuá/SP,-21.8319357,-51.9887179,238,4002.69088
D1,Caiuá/SP,-21.8319357,-51.9887179,4,67.27212
1,Caiçara do Norte/RN,-5.0645017,-36.0561226,289,4404.81634
D1,Caiçara do Norte/RN,-5.0645017,-36.0561226,9,137.17421
1,Caiçara do Rio do Vento/RN,-5.757968,-36.00089,207,5572.00538
D1,Caiçara do Rio do Vento/RN,-5.757968,-36.00089,7,188.42530
1,Caiçara/PB,-6.6146866,-35.4681434,603,8385.48185
D1,Caiçara/PB,-6.6146866,-35.4681434,13,180.78153
1,Caiçara/RS,-27.2750478,-53.4310053,401,8531.91489
D1,Caiçara/RS,-27.2750478,-53.4310053,8,170.21277
1,Cajamar/SP,-23.3561111,-46.8769444,3373,4328.02115
D1,Cajamar/SP,-23.3561111,-46.8769444,157,201.45251
1,Cajapió/MA,-2.8778715,-44.6746871,71,633.02425
D1,Cajapió/MA,-2.8778715,-44.6746871,3,26.74750
1,Cajari/MA,-3.3213076,-45.0118757,151,776.30970
D1,Cajari/MA,-3.3213076,-45.0118757,5,25.70562
1,Cajati/SP,-24.7272376,-48.1077914,2791,9795.04457
D1,Cajati/SP,-24.7272376,-48.1077914,66,231.62771
1,Cajazeiras do Piauí/PI,-6.794271,-42.3935024,36,1007.55668
D1,Cajazeiras do Piauí/PI,-6.794271,-42.3935024,1,27.98769
1,Cajazeiras/PB,-6.8897849,-38.5570389,6370,10226.52475
D1,Cajazeiras/PB,-6.8897849,-38.5570389,114,183.01787
1,Cajazeirinhas/PB,-6.961442,-37.7993733,109,3400.93604
1,Cajobi/SP,-20.8776238,-48.8106972,657,6200.45300
D1,Cajobi/SP,-20.8776238,-48.8106972,21,198.18800
1,Cajueiro da Praia/PI,-2.931114,-41.340801,466,6072.45244
D1,Cajueiro da Praia/PI,-2.931114,-41.340801,14,182.43419
1,Cajueiro/AL,-9.399589,-36.1524309,491,2301.81426
D1,Cajueiro/AL,-9.399589,-36.1524309,18,84.38423
1,Cajuri/MG,-20.7901414,-42.7954489,286,7196.77906
D1,Cajuri/MG,-20.7901414,-42.7954489,1,25.16356
1,Cajuru/SP,-21.2759978,-47.3046035,666,2523.39636
D1,Cajuru/SP,-21.2759978,-47.3046035,21,79.56655
1,Caldas Brandão/PB,-7.1027959,-35.3254676,451,7459.47734
D1,Caldas Brandão/PB,-7.1027959,-35.3254676,6,99.23917
1,Caldas Novas/GO,-17.745,-48.625,6829,7327.56771
D1,Caldas Novas/GO,-17.745,-48.625,164,175.97322
1,Caldas/MG,-21.923611,-46.386111,575,3954.33602
D1,Caldas/MG,-21.923611,-46.386111,19,130.66502
1,Caldazinha/GO,-16.7116649,-49.0012601,203,5275.46778
D1,Caldazinha/GO,-16.7116649,-49.0012601,3,77.96258
1,Caldeirão Grande do Piauí/PI,-7.3310393,-40.6374433,269,4653.17419
D1,Caldeirão Grande do Piauí/PI,-7.3310393,-40.6374433,2,34.59609
1,Caldeirão Grande/BA,-11.0208483,-40.3041387,536,4002.68837
D1,Caldeirão Grande/BA,-11.0208483,-40.3041387,6,44.80621
1,Califórnia/PR,-23.6672543,-51.3554556,759,8819.42831
D1,Califórnia/PR,-23.6672543,-51.3554556,14,162.67720
1,Calmon/SC,-26.6023644,-51.0992893,27,809.59520
D1,Calmon/SC,-26.6023644,-51.0992893,3,89.95502
1,Calumbi/PE,-7.9389746,-38.1516871,411,7151.55733
D1,Calumbi/PE,-7.9389746,-38.1516871,3,52.20115
1,Calçado/PE,-8.7413446,-36.3351787,335,3040.47922
D1,Calçado/PE,-8.7413446,-36.3351787,2,18.15211
1,Calçoene/AP,2.4981757,-50.9539503,1587,14036.79462
D1,Calçoene/AP,2.4981757,-50.9539503,10,88.44861
1,Camacan/BA,-15.4166631,-39.4930088,2357,7364.24420
D1,Camacan/BA,-15.4166631,-39.4930088,57,178.09161
1,Camacho/MG,-20.625556,-45.156667,49,1707.91216
D1,Camacho/MG,-20.625556,-45.156667,1,34.85535
1,Camalaú/PB,-7.885031,-36.824191,353,5853.09236
D1,Camalaú/PB,-7.885031,-36.824191,5,82.90499
1,Camamu/BA,-13.9438142,-39.1060917,1902,5375.61472
D1,Camamu/BA,-13.9438142,-39.1060917,39,110.22554
1,Camanducaia/MG,-22.755278,-46.144444,2338,10724.27870
D1,Camanducaia/MG,-22.755278,-46.144444,46,210.99950
1,Camapuã/MS,-19.5291747,-54.0434641,570,4162.71087
D1,Camapuã/MS,-19.5291747,-54.0434641,19,138.75703
1,Camaquã/RS,-30.8524752,-51.8075619,5765,8672.04188
D1,Camaquã/RS,-30.8524752,-51.8075619,107,160.95550
1,Camaragibe/PE,-8.0213832,-34.9810768,4335,2728.14807
D1,Camaragibe/PE,-8.0213832,-34.9810768,297,186.91118
1,Camargo/RS,-28.5865661,-52.2031474,273,9956.23632
D1,Camargo/RS,-28.5865661,-52.2031474,5,182.34865
1,Camaçari/BA,-12.6998188,-38.3260762,20015,6577.34750
D1,Camaçari/BA,-12.6998188,-38.3260762,508,166.93942
1,Cambará do Sul/RS,-29.0489517,-50.145412,288,4495.78520
D1,Cambará do Sul/RS,-29.0489517,-50.145412,7,109.27256
1,Cambará/PR,-23.042273,-50.075281,1790,7028.97982
D1,Cambará/PR,-23.042273,-50.075281,34,133.51135
1,Cambira/PR,-23.600265,-51.581045,630,7957.55968
D1,Cambira/PR,-23.600265,-51.581045,13,164.20361
1,Camboriú/SC,-27.0273601,-48.6535657,10735,12613.82997
D1,Camboriú/SC,-27.0273601,-48.6535657,139,163.32765
1,Cambuci/RJ,-21.5749919,-41.9107833,676,4357.35465
D1,Cambuci/RJ,-21.5749919,-41.9107833,23,148.25319
1,Cambuquira/MG,-21.853056,-45.2953619,393,3067.43678
D1,Cambuquira/MG,-21.853056,-45.2953619,12,93.66219
1,Cambuí/MG,-22.6122501,-46.0572137,2302,7721.20480
D1,Cambuí/MG,-22.6122501,-46.0572137,33,110.68625
1,Cambé/PR,-23.2782035,-51.2779583,8766,8166.49742
D1,Cambé/PR,-23.2782035,-51.2779583,172,160.23700
1,Cametá/PA,-2.242949,-49.497885,6725,4825.49295
D1,Cametá/PA,-2.242949,-49.497885,180,129.15818
1,Camocim de São Félix/PE,-8.3616757,-35.7638903,416,2201.05820
D1,Camocim de São Félix/PE,-8.3616757,-35.7638903,12,63.49206
1,Camocim/CE,-2.9009918,-40.8427389,4493,7030.52874
D1,Camocim/CE,-2.9009918,-40.8427389,126,197.16150
1,Campanha/MG,-21.8361108,-45.401986,1047,6246.27133
D1,Campanha/MG,-21.8361108,-45.401986,22,131.24925
1,Campanário/MG,-18.2398144,-41.7271768,173,4638.06971
D1,Campanário/MG,-18.2398144,-41.7271768,1,26.80965
1,Campestre da Serra/RS,-28.7966535,-51.0958149,139,4094.25626
1,Campestre de Goiás/GO,-16.7624179,-49.69497,404,11071.52645
D1,Campestre de Goiás/GO,-16.7624179,-49.69497,10,274.04768
1,Campestre do Maranhão/MA,-6.1729113,-47.3640512,872,6033.34948
D1,Campestre do Maranhão/MA,-6.1729113,-47.3640512,39,269.84017
1,Campestre/AL,-8.8481634,-35.5660033,237,3408.11044
D1,Campestre/AL,-8.8481634,-35.5660033,6,86.28128
1,Campestre/MG,-19.6142116,-43.219378,786,3733.25734
D1,Campestre/MG,-19.6142116,-43.219378,18,85.49444
1,Campina Grande do Sul/PR,-25.3046032,-49.0545355,4046,9261.76033
D1,Campina Grande do Sul/PR,-25.3046032,-49.0545355,75,171.68364
1,Campina Grande/PB,-7.2246743,-35.8771292,26442,6420.96905
D1,Campina Grande/PB,-7.2246743,-35.8771292,763,185.28097
1,Campina Verde/MG,-19.535277,-49.486389,798,4040.09721
D1,Campina Verde/MG,-19.535277,-49.486389,22,111.38113
1,Campina da Lagoa/PR,-24.5937926,-52.8038965,857,6102.68461
D1,Campina da Lagoa/PR,-24.5937926,-52.8038965,19,135.29873
1,Campina das Missões/RS,-27.9883295,-54.8411665,372,6891.44127
D1,Campina das Missões/RS,-27.9883295,-54.8411665,7,129.67766
1,Campina do Monte Alegre/SP,-23.5935653,-48.4801876,370,6108.63464
D1,Campina do Monte Alegre/SP,-23.5935653,-48.4801876,7,115.56876
1,Campina do Simão/PR,-25.1086375,-51.8076658,234,6063.74708
D1,Campina do Simão/PR,-25.1086375,-51.8076658,11,285.04794
1,Campinas do Piauí/PI,-7.6593687,-41.8814875,159,2829.18149
D1,Campinas do Piauí/PI,-7.6593687,-41.8814875,1,17.79359
1,Campinas do Sul/RS,-27.7167968,-52.6257885,380,6987.86318
D1,Campinas do Sul/RS,-27.7167968,-52.6257885,5,91.94557
1,Campinas/SP,-22.90556,-47.06083,75332,6206.33519
D1,Campinas/SP,-22.90556,-47.06083,2927,241.14511
1,Campinaçu/GO,-13.7869969,-48.5703841,180,4955.94714
D1,Campinaçu/GO,-13.7869969,-48.5703841,2,55.06608
1,Campinorte/GO,-14.3136699,-49.1510931,1101,8625.82263
