type,name,lat,lon,total,total_per_100k_inhabitants
1,Abadia de Goiás/GO,-16.7572644,-49.4412205,794,8863.58562
D1,Abadia de Goiás/GO,-16.7572644,-49.4412205,10,111.63206
1,Abadia dos Dourados/MG,-18.4911191,-47.4063589,111,1584.35627
D1,Abadia dos Dourados/MG,-18.4911191,-47.4063589,1,14.27348
1,Abadiânia/GO,-16.1940946,-48.7067767,204,997.01872
D1,Abadiânia/GO,-16.1940946,-48.7067767,15,73.31020
1,Abaetetuba/PA,-1.721828,-48.878843,5534,3478.75283
D1,Abaetetuba/PA,-1.721828,-48.878843,124,77.94820
1,Abaeté/MG,-19.1566833,-45.4481213,415,1784.94624
D1,Abaeté/MG,-19.1566833,-45.4481213,5,21.50538
1,Abaiara/CE,-7.3607808,-39.0487878,174,1467.98279
D1,Abaiara/CE,-7.3607808,-39.0487878,4,33.74673
1,Abaré/BA,-8.7239913,-39.1139689,191,938.71332
D1,Abaré/BA,-8.7239913,-39.1139689,1,4.91473
1,Abatiá/PR,-23.3052967,-50.3102532,210,2834.77322
D1,Abatiá/PR,-23.3052967,-50.3102532,1,13.49892
1,Abaíra/BA,-13.2503296,-41.6640342,162,1859.93111
D1,Abaíra/BA,-13.2503296,-41.6640342,3,34.44317
1,Abdon Batista/SC,-27.612419,-51.022992,161,6318.68132
D1,Abdon Batista/SC,-27.612419,-51.022992,1,39.24647
1,Abel Figueiredo/PA,-4.953001,-48.3958485,467,6238.31151
D1,Abel Figueiredo/PA,-4.953001,-48.3958485,2,26.71654
1,Abelardo Luz/SC,-26.5705893,-52.3280339,754,4198.21826
D1,Abelardo Luz/SC,-26.5705893,-52.3280339,19,105.79065
1,Abre Campo/MG,-20.2976097,-42.4764741,252,1874.44213
D1,Abre Campo/MG,-20.2976097,-42.4764741,3,22.31479
1,Abreu e Lima/PE,-7.900719,-34.898389,1382,1377.23477
D1,Abreu e Lima/PE,-7.900719,-34.898389,147,146.49313
1,Abreulândia/TO,-9.6221526,-49.1558343,108,4163.45412
D1,Abreulândia/TO,-9.6221526,-49.1558343,4,154.20200
1,Acaiaca/MG,-20.3621646,-43.1444162,101,2528.79319
D1,Acaiaca/MG,-20.3621646,-43.1444162,3,75.11267
1,Acajutiba/BA,-11.6609659,-38.0186381,277,1823.92836
D1,Acajutiba/BA,-11.6609659,-38.0186381,6,39.50747
1,Acarape/CE,-4.2237866,-38.7071663,1970,13101.88880
D1,Acarape/CE,-4.2237866,-38.7071663,14,93.10987
1,Acaraú/CE,-2.8869514,-40.1194713,2825,4476.73682
D1,Acaraú/CE,-2.8869514,-40.1194713,58,91.91176
1,Acari/RN,-6.4364689,-36.6394777,370,3327.03894
D1,Acari/RN,-6.4364689,-36.6394777,7,62.94398
1,Acará/PA,-1.961388,-48.1987043,880,1580.77206
D1,Acará/PA,-1.961388,-48.1987043,16,28.74131
1,Acauã/PI,-8.219542,-41.083059,126,1774.14813
D1,Acauã/PI,-8.219542,-41.083059,1,14.08054
1,Aceguá/RS,-31.8695131,-54.1615593,61,1234.31809
1,Acopiara/CE,-6.0936464,-39.4543204,1429,2622.93277
D1,Acopiara/CE,-6.0936464,-39.4543204,62,113.80114
1,Acorizal/MT,-15.2001544,-56.3668953,238,4461.94226
D1,Acorizal/MT,-15.2001544,-56.3668953,7,131.23360
1,Acrelândia/AC,-10.0759167,-67.0526898,622,4015.49387
D1,Acrelândia/AC,-10.0759167,-67.0526898,14,90.38089
1,Acreúna/GO,-17.3959899,-50.3749031,1077,4776.90056
D1,Acreúna/GO,-17.3959899,-50.3749031,27,119.75517
1,Adamantina/SP,-21.6866517,-51.0762975,893,2543.36248
D1,Adamantina/SP,-21.6866517,-51.0762975,20,56.96221
1,Adelândia/GO,-16.4155077,-50.1665834,92,3656.59777
D1,Adelândia/GO,-16.4155077,-50.1665834,2,79.49126
1,Adolfo/SP,-21.2356597,-49.6441918,186,5233.53967
D1,Adolfo/SP,-21.2356597,-49.6441918,5,140.68655
1,Adrianópolis/PR,-24.6557863,-48.9912769,561,9578.28240
D1,Adrianópolis/PR,-24.6557863,-48.9912769,9,153.66228
1,Adustina/BA,-10.5358875,-38.114479,183,1068.55074
D1,Adustina/BA,-10.5358875,-38.114479,4,23.35630
1,Afogados da Ingazeira/PE,-7.750429,-37.6356375,1994,5330.98064
D1,Afogados da Ingazeira/PE,-7.750429,-37.6356375,26,69.51128
1,Afonso Bezerra/RN,-5.4745,-36.57625071327935,219,1985.67413
D1,Afonso Bezerra/RN,-5.4745,-36.57625071327935,11,99.73706
1,Afonso Cláudio/ES,-20.077841,-41.12606,1921,6307.66705
D1,Afonso Cláudio/ES,-20.077841,-41.12606,33,108.35659
1,Afonso Cunha/MA,-4.1326105,-43.3230026,152,2310.73275
D1,Afonso Cunha/MA,-4.1326105,-43.3230026,2,30.40438
1,Afrânio/PE,-8.5198919,-41.0070197,516,2604.74508
D1,Afrânio/PE,-8.5198919,-41.0070197,7,35.33569
1,Afuá/PA,-0.1535664,-50.3879223,2585,6533.22213
D1,Afuá/PA,-0.1535664,-50.3879223,11,27.80095
1,Agrestina/PE,-8.4558021,-35.9442663,719,2868.54179
D1,Agrestina/PE,-8.4558021,-35.9442663,33,131.65769
1,Agricolândia/PI,-5.7967843,-42.6605131,74,1442.21399
1,Agrolândia/SC,-27.4122212,-49.8295774,463,4204.12240
D1,Agrolândia/SC,-27.4122212,-49.8295774,6,54.48107
1,Agronômica/SC,-27.2660744,-49.7104753,261,4737.70194
D1,Agronômica/SC,-27.2660744,-49.7104753,6,108.91269
1,Aguanil/MG,-20.9424533,-45.3927152,175,3869.96904
D1,Aguanil/MG,-20.9424533,-45.3927152,4,88.45644
1,Aguaí/SP,-22.0592036,-46.979384,786,2144.72823
D1,Aguaí/SP,-22.0592036,-46.979384,17,46.38725
1,Agudo/RS,-29.6423259,-53.2494005,360,2194.98811
D1,Agudo/RS,-29.6423259,-53.2494005,3,18.29157
1,Agudos do Sul/PR,-25.9890808,-49.3328175,250,2639.91552
D1,Agudos do Sul/PR,-25.9890808,-49.3328175,1,10.55966
1,Agudos/SP,-22.471162,-48.987822,1205,3221.83899
D1,Agudos/SP,-22.471162,-48.987822,20,53.47451
1,Aguiar/PB,-7.0928404,-38.1727215,62,1101.24334
D1,Aguiar/PB,-7.0928404,-38.1727215,1,17.76199
1,Aguiarnópolis/TO,-6.5600452,-47.4721189,475,6892.04875
D1,Aguiarnópolis/TO,-6.5600452,-47.4721189,9,130.58619
1,Aimorés/MG,-19.4917754,-41.0615603,1015,4037.23002
D1,Aimorés/MG,-19.4917754,-41.0615603,18,71.59620
1,Aiquara/BA,-14.126918,-39.8887574,350,7925.72464
D1,Aiquara/BA,-14.126918,-39.8887574,6,135.86957
1,Aiuaba/CE,-6.5710836,-40.1212278,94,537.35780
D1,Aiuaba/CE,-6.5710836,-40.1212278,1,5.71657
1,Aiuruoca/MG,-21.9759554,-44.6036637,49,819.94645
D1,Aiuruoca/MG,-21.9759554,-44.6036637,4,66.93440
1,Ajuricaba/RS,-28.239654,-53.7693013,448,6411.90783
D1,Ajuricaba/RS,-28.239654,-53.7693013,4,57.24918
1,Alagoa Grande/PB,-7.0415212,-35.6285322,1796,6315.27128
D1,Alagoa Grande/PB,-7.0415212,-35.6285322,30,105.48894
1,Alagoa Nova/PB,-7.0653703,-35.76695977336711,479,2289.56551
D1,Alagoa Nova/PB,-7.0653703,-35.76695977336711,11,52.57875
1,Alagoa/MG,-22.1697202,-44.6400042,147,5515.94747
1,Alagoinha do Piauí/PI,-7.0090952,-40.939675,173,2257.01239
D1,Alagoinha do Piauí/PI,-7.0090952,-40.939675,6,78.27789
1,Alagoinha/PB,-6.97063215,-35.51490901897793,1142,7843.40659
D1,Alagoinha/PB,-6.97063215,-35.51490901897793,16,109.89011
1,Alagoinha/PE,-8.50355635,-36.77701174370496,390,2649.81655
D1,Alagoinha/PE,-8.50355635,-36.77701174370496,12,81.53282
1,Alagoinhas/BA,-12.133526,-38.420772,7510,4930.18309
D1,Alagoinhas/BA,-12.133526,-38.420772,103,67.61769
1,Alambari/SP,-23.550338,-47.897971,161,2626.85593
D1,Alambari/SP,-23.550338,-47.897971,5,81.57938
1,Albertina/MG,-20.66164,-43.784039,84,2789.77084
D1,Albertina/MG,-20.66164,-43.784039,5,166.05779
1,Alcantil/PB,-7.7425491,-36.0609604,108,1960.42839
D1,Alcantil/PB,-7.7425491,-36.0609604,1,18.15211
1,Alcinópolis/MS,-18.3264121,-53.7094463,71,1310.68857
D1,Alcinópolis/MS,-18.3264121,-53.7094463,2,36.92080
1,Alcobaça/BA,-17.5215875,-39.1965474,914,4064.02846
D1,Alcobaça/BA,-17.5215875,-39.1965474,16,71.14273
1,Alcântara/MA,-2.4038956,-44.4154241,202,913.53111
D1,Alcântara/MA,-2.4038956,-44.4154241,8,36.17945
1,Alcântaras/CE,-3.586247,-40.5457641,629,5339.10534
D1,Alcântaras/CE,-3.586247,-40.5457641,4,33.95298
1,Aldeias Altas/MA,-4.6291957,-43.4708622,947,3539.26075
D1,Aldeias Altas/MA,-4.6291957,-43.4708622,11,41.11074
1,Alecrim/RS,-27.6566142,-54.7653195,77,1321.43470
D1,Alecrim/RS,-27.6566142,-54.7653195,2,34.32298
1,Alegre/ES,-20.7625787,-41.5318886,1063,3546.28857
D1,Alegre/ES,-20.7625787,-41.5318886,26,86.73895
1,Alegrete do Piauí/PI,-7.2440138,-40.8602296,353,7177.71452
D1,Alegrete do Piauí/PI,-7.2440138,-40.8602296,4,81.33388
1,Alegrete/RS,-29.790166,-55.794862,2367,3241.22254
D1,Alegrete/RS,-29.790166,-55.794862,49,67.09755
1,Alegria/RS,-27.8332103,-54.0574959,190,5631.29816
D1,Alegria/RS,-27.8332103,-54.0574959,1,29.63841
1,Alenquer/PA,-1.946229,-54.738355,1687,2954.87984
D1,Alenquer/PA,-1.946229,-54.738355,30,52.54677
1,Alexandria/RN,-6.414779,-38.0135516,521,3844.16734
D1,Alexandria/RN,-6.414779,-38.0135516,9,66.40596
1,Alexânia/GO,-16.0834049,-48.5077803,1542,5505.17672
D1,Alexânia/GO,-16.0834049,-48.5077803,26,92.82399
1,Alfenas/MG,-21.4297405,-45.9479419,3402,4226.40197
D1,Alfenas/MG,-21.4297405,-45.9479419,75,93.17465
1,Alfredo Chaves/ES,-20.624970400000002,-40.75006690147988,1495,10214.53949
D1,Alfredo Chaves/ES,-20.624970400000002,-40.75006690147988,18,122.98442
1,Alfredo Marcondes/SP,-21.9527,-51.413956,119,2844.16826
D1,Alfredo Marcondes/SP,-21.9527,-51.413956,4,95.60229
1,Alfredo Vasconcelos/MG,-21.145833,-43.776389,117,1675.97765
D1,Alfredo Vasconcelos/MG,-21.145833,-43.776389,4,57.29838
1,Alfredo Wagner/SC,-27.6961513,-49.3326734,531,5264.72338
D1,Alfredo Wagner/SC,-27.6961513,-49.3326734,1,9.91473
1,Algodão de Jandaíra/PB,-6.9040175,-36.0089879,47,1823.82615
1,Alhandra/PB,-7.4304246,-34.9106103,794,4024.94044
D1,Alhandra/PB,-7.4304246,-34.9106103,19,96.31470
1,Aliança do Tocantins/TO,-11.3055927,-48.9409096,228,4264.87093
D1,Aliança do Tocantins/TO,-11.3055927,-48.9409096,4,74.82230
1,Aliança/PE,-7.60398,-35.222696,416,1083.41798
D1,Aliança/PE,-7.60398,-35.222696,30,78.13110
1,Almadina/BA,-14.70466,-39.6381994,400,7454.34215
D1,Almadina/BA,-14.70466,-39.6381994,6,111.81513
1,Almas/TO,-11.5681309,-47.1702803,139,1991.68935
D1,Almas/TO,-11.5681309,-47.1702803,3,42.98610
1,Almeirim/PA,-1.5290377,-52.5788111,330,968.42352
D1,Almeirim/PA,-1.5290377,-52.5788111,18,52.82310
1,Almenara/MG,-16.1740678,-40.6904907,1872,4442.01884
D1,Almenara/MG,-16.1740678,-40.6904907,19,45.08459
1,Almino Afonso/RN,-6.1544208,-37.7649018,129,2738.85350
D1,Almino Afonso/RN,-6.1544208,-37.7649018,4,84.92569
1,Almirante Tamandaré do Sul/RS,-28.1141129,-52.9134874,76,3899.43561
1,Almirante Tamandaré/PR,-25.3133048,-49.2997838,4306,3587.10774
D1,Almirante Tamandaré/PR,-25.3133048,-49.2997838,103,85.80402
1,Aloândia/GO,-17.7277983,-49.4809338,146,7351.46022
D1,Aloândia/GO,-17.7277983,-49.4809338,5,251.76234
1,Alpercata/MG,-18.9803616,-41.9827637,308,4142.01183
D1,Alpercata/MG,-18.9803616,-41.9827637,12,161.37708
1,Alpestre/RS,-27.2512339,-53.0349646,129,2126.25680
D1,Alpestre/RS,-27.2512339,-53.0349646,2,32.96522
1,Alpinópolis/MG,-20.863611,-46.387777,195,977.05181
D1,Alpinópolis/MG,-20.863611,-46.387777,5,25.05261
1,Alta Floresta D'Oeste/RO,-11.9296917,-61.9961284,1918,8438.92995
D1,Alta Floresta D'Oeste/RO,-11.9296917,-61.9961284,23,101.19676
1,Alta Floresta/MT,-9.8715018,-56.0839881,2969,5714.12075
D1,Alta Floresta/MT,-9.8715018,-56.0839881,32,61.58702
1,Altair/SP,-20.5238955,-49.0606135,57,1361.68180
D1,Altair/SP,-20.5238955,-49.0606135,4,95.55662
1,Altamira do Maranhão/MA,-4.1643006,-45.4674574,275,3358.16339
D1,Altamira do Maranhão/MA,-4.1643006,-45.4674574,7,85.48052
1,Altamira do Paraná/PR,-24.799114,-52.7128633,27,1605.23187
D1,Altamira do Paraná/PR,-24.799114,-52.7128633,2,118.90606
1,Altamira/PA,-3.204065,-52.209961,6799,5862.77367
D1,Altamira/PA,-3.204065,-52.209961,137,118.13502
1,Altaneira/CE,-6.9980933,-39.7385742,244,3189.54248
D1,Altaneira/CE,-6.9980933,-39.7385742,6,78.43137
1,Alterosa/MG,-21.249166,-46.143055,335,2307.63932
D1,Alterosa/MG,-21.249166,-46.143055,6,41.33085
1,Altinho/PE,-8.4904095,-36.0607494,647,2815.00174
D1,Altinho/PE,-8.4904095,-36.0607494,12,52.21023
1,Altinópolis/SP,-21.021364,-47.3712,343,2116.89193
D1,Altinópolis/SP,-21.021364,-47.3712,8,49.37357
1,Alto Alegre do Maranhão/MA,-4.2055693,-44.4525287,397,1425.08436
D1,Alto Alegre do Maranhão/MA,-4.2055693,-44.4525287,18,64.61340
1,Alto Alegre do Pindaré/MA,-3.6698186,-45.8462153,1604,5021.44445
D1,Alto Alegre do Pindaré/MA,-3.6698186,-45.8462153,25,78.26441
1,Alto Alegre dos Parecis/RO,-12.1314515,-61.856265,464,3500.56582
D1,Alto Alegre dos Parecis/RO,-12.1314515,-61.856265,12,90.53187
1,Alto Alegre/RR,2.98858,-61.307167,877,5702.21066
D1,Alto Alegre/RR,2.98858,-61.307167,21,136.54096
1,Alto Alegre/RS,-31.780844700000003,-52.81311114489171,27,1673.89957
1,Alto Alegre/SP,-21.5820592,-50.1661976,133,3253.42466
D1,Alto Alegre/SP,-21.5820592,-50.1661976,4,97.84736
1,Alto Araguaia/MT,-17.3156528,-53.2169365,506,2610.26567
D1,Alto Araguaia/MT,-17.3156528,-53.2169365,9,46.42765
1,Alto Bela Vista/SC,-27.4320737,-51.905771,47,2440.29076
D1,Alto Bela Vista/SC,-27.4320737,-51.905771,1,51.92108
1,Alto Boa Vista/MT,-11.6723985,-51.3744431,105,1513.84083
D1,Alto Boa Vista/MT,-11.6723985,-51.3744431,3,43.25260
1,Alto Caparaó/MG,-20.4405661,-41.8683799,228,3868.34069
D1,Alto Caparaó/MG,-20.4405661,-41.8683799,4,67.86563
1,Alto Feliz/RS,-29.3785943,-51.3123751,90,2964.42688
1,Alto Garças/MT,-16.9469683,-53.529427,328,2699.36631
D1,Alto Garças/MT,-16.9469683,-53.529427,15,123.44663
1,Alto Horizonte/GO,-14.1954948,-49.3366993,216,3270.24981
D1,Alto Horizonte/GO,-14.1954948,-49.3366993,3,45.42014
1,Alto Jequitibá/MG,-20.423611,-41.966111,352,4240.45296
D1,Alto Jequitibá/MG,-20.423611,-41.966111,7,84.32719
1,Alto Longá/PI,-5.2549051,-42.2072388,301,2099.17010
D1,Alto Longá/PI,-5.2549051,-42.2072388,6,41.84392
1,Alto Paraguai/MT,-14.513712,-56.4936374,357,3111.65345
D1,Alto Paraguai/MT,-14.513712,-56.4936374,11,95.87728
1,Alto Paraná/PR,-23.131247,-52.318893,336,2261.25580
D1,Alto Paraná/PR,-23.131247,-52.318893,2,13.45986
1,Alto Paraíso de Goiás/GO,-14.1304779,-47.5100161,400,5202.91363
1,Alto Paraíso/PR,-23.508137,-53.728537,54,2011.17318
1,Alto Paraíso/RO,-9.7240103,-63.3188123,632,2892.84570
D1,Alto Paraíso/RO,-9.7240103,-63.3188123,10,45.77287
1,Alto Parnaíba/MA,-9.112506,-45.9310154,536,4780.59222
D1,Alto Parnaíba/MA,-9.112506,-45.9310154,4,35.67606
1,Alto Piquiri/PR,-24.0239021,-53.4417448,281,2873.79832
D1,Alto Piquiri/PR,-24.0239021,-53.4417448,5,51.13520
1,Alto Rio Doce/MG,-21.0239537,-43.4133507,168,1547.10378
D1,Alto Rio Doce/MG,-21.0239537,-43.4133507,12,110.50741
1,Alto Rio Novo/ES,-19.0577208,-41.0171518,446,5664.21133
D1,Alto Rio Novo/ES,-19.0577208,-41.0171518,15,190.50038
1,Alto Santo/CE,-5.5190371,-38.2719351,552,3210.04885
D1,Alto Santo/CE,-5.5190371,-38.2719351,13,75.59898
1,Alto Taquari/MT,-17.8269099,-53.2831736,611,5488.18827
D1,Alto Taquari/MT,-17.8269099,-53.2831736,9,80.84074
1,Alto do Rodrigues/RN,-5.290868,-36.7616726,760,5160.23900
D1,Alto do Rodrigues/RN,-5.290868,-36.7616726,19,129.00598
1,Altos/PI,-5.0393915,-42.4611694,2348,5782.53910
D1,Altos/PI,-5.0393915,-42.4611694,33,81.27078
1,Altônia/PR,-23.8722004,-53.894037,461,2078.82395
D1,Altônia/PR,-23.8722004,-53.894037,5,22.54690
1,Alumínio/SP,-23.5203479,-47.2575256,525,2797.46363
D1,Alumínio/SP,-23.5203479,-47.2575256,13,69.27053
1,Alvarenga/MG,-19.4175,-41.728334,221,5749.21956
D1,Alvarenga/MG,-19.4175,-41.728334,2,52.02914
1,Alvarães/AM,-3.214786,-64.8143124,1843,11362.51541
D1,Alvarães/AM,-3.214786,-64.8143124,29,178.79162
1,Alvinlândia/SP,-22.4431852,-49.7643596,54,1668.21131
1,Alvinópolis/MG,-20.1105199,-43.0601805,269,1773.35355
D1,Alvinópolis/MG,-20.1105199,-43.0601805,3,19.77718
1,Alvorada D'Oeste/RO,-11.346271,-62.284697,366,2594.64058
D1,Alvorada D'Oeste/RO,-11.346271,-62.284697,8,56.71346
1,Alvorada de Minas/MG,-18.7318587,-43.3641479,96,2662.96810
D1,Alvorada de Minas/MG,-18.7318587,-43.3641479,1,27.73925
1,Alvorada do Gurguéia/PI,-8.4465288,-43.8655915,114,2093.66391
D1,Alvorada do Gurguéia/PI,-8.4465288,-43.8655915,5,91.82736
1,Alvorada do Norte/GO,-14.483911,-46.4959897,377,4330.84434
D1,Alvorada do Norte/GO,-14.483911,-46.4959897,1,11.48765
1,Alvorada do Sul/PR,-22.7807269,-51.2307721,271,2355.90715
D1,Alvorada do Sul/PR,-22.7807269,-51.2307721,7,60.85369
1,Alvorada/RS,-29.9981184,-51.0772509,9716,4597.07029
D1,Alvorada/RS,-29.9981184,-51.0772509,262,123.96381
1,Alvorada/TO,-12.478465,-49.124926,615,7324.91663
D1,Alvorada/TO,-12.478465,-49.124926,11,131.01477
1,Além Paraíba/MG,-21.8760576,-42.6810473,1227,3466.00379
D1,Além Paraíba/MG,-21.8760576,-42.6810473,32,90.39293
1,Amajari/RR,3.6523869,-61.4194315,612,4641.63823
D1,Amajari/RR,3.6523869,-61.4194315,16,121.35002
1,Amambai/MS,-23.1082701,-55.2284854,1551,3894.44082
D1,Amambai/MS,-23.1082701,-55.2284854,28,70.30583
1,Amaporã/PR,-23.094272,-52.786597,66,1042.32470
1,Amapá do Maranhão/MA,-1.6762114,-46.0109669,6,85.65310
1,Amapá/AP,2.0529997,-50.7930003,1053,11461.84826
D1,Amapá/AP,2.0529997,-50.7930003,7,76.19462
1,Amaraji/PE,-8.373925,-35.4536527,368,1609.09488
D1,Amaraji/PE,-8.373925,-35.4536527,24,104.94097
1,Amaral Ferrador/RS,-30.8750633,-52.2542051,125,1764.29076
D1,Amaral Ferrador/RS,-30.8750633,-52.2542051,2,28.22865
1,Amaralina/GO,-13.9236199,-49.2962411,17,442.13264
1,Amarante do Maranhão/MA,-5.56913,-46.747284,1156,2770.25570
D1,Amarante do Maranhão/MA,-5.56913,-46.747284,31,74.28886
1,Amarante/PI,-6.2459374,-42.8476238,830,4714.83754
D1,Amarante/PI,-6.2459374,-42.8476238,16,90.88843
1,Amargosa/BA,-13.03793715,-39.60796443875596,985,2630.80580
D1,Amargosa/BA,-13.03793715,-39.60796443875596,18,48.07564
1,Amaturá/AM,-3.3640509,-68.1994689,1320,11247.44376
D1,Amaturá/AM,-3.3640509,-68.1994689,10,85.20791
1,Americana/SP,-22.7392463,-47.3306032,9346,3861.69624
D1,Americana/SP,-22.7392463,-47.3306032,243,100.40575
1,Americano do Brasil/GO,-16.2515808,-49.9806104,163,2644.38676
D1,Americano do Brasil/GO,-16.2515808,-49.9806104,4,64.89293
1,Ametista do Sul/RS,-27.3617341,-53.1826575,205,2769.14764
D1,Ametista do Sul/RS,-27.3617341,-53.1826575,1,13.50804
1,Amontada/CE,-3.3634586,-39.8284791,1074,2450.43236
D1,Amontada/CE,-3.3634586,-39.8284791,21,47.91348
1,Amorinópolis/GO,-16.6211308,-51.0949921,97,3160.63864
D1,Amorinópolis/GO,-16.6211308,-51.0949921,1,32.58390
1,Amparo de São Francisco/SE,-10.1299754,-36.9269099,76,3193.27731
D1,Amparo de São Francisco/SE,-10.1299754,-36.9269099,2,84.03361
1,Amparo do Serra/MG,-20.5070255,-42.8028462,70,1496.36597
D1,Amparo do Serra/MG,-20.5070255,-42.8028462,3,64.12997
1,Amparo/PB,-7.56394725,-37.04652873235175,41,1821.41271
D1,Amparo/PB,-7.56394725,-37.04652873235175,1,44.42470
1,Amparo/SP,-22.70111,-46.76444,2261,3111.02550
D1,Amparo/SP,-22.70111,-46.76444,38,52.28614
1,Ampére/PR,-25.9168712,-53.4742414,476,2464.91637
D1,Ampére/PR,-25.9168712,-53.4742414,9,46.60556
1,Amélia Rodrigues/BA,-12.4015388,-38.7516971,933,3724.84829
D1,Amélia Rodrigues/BA,-12.4015388,-38.7516971,18,71.86202
1,América Dourada/BA,-11.4515262,-41.4357517,394,2448.72592
D1,América Dourada/BA,-11.4515262,-41.4357517,2,12.43008
1,Américo Brasiliense/SP,-21.7297099,-48.1052092,1305,3180.44453
D1,Américo Brasiliense/SP,-21.7297099,-48.1052092,22,53.61669
1,Américo de Campos/SP,-20.298476,-49.735904,395,6604.24678
D1,Américo de Campos/SP,-20.298476,-49.735904,12,200.63535
1,Anadia/AL,-9.6830208,-36.3052699,607,3463.42577
D1,Anadia/AL,-9.6830208,-36.3052699,10,57.05809
1,Anagé/BA,-14.6134669,-41.1376308,367,1698.52363
D1,Anagé/BA,-14.6134669,-41.1376308,7,32.39691
1,Anahy/PR,-24.6450861,-53.1337957,76,2725.96844
D1,Anahy/PR,-24.6450861,-53.1337957,2,71.73601
1,Anajatuba/MA,-3.26441,-44.6179916,364,1348.74759
D1,Anajatuba/MA,-3.26441,-44.6179916,11,40.75886
1,Anajás/PA,-0.9878802,-49.9390114,1014,3415.52142
D1,Anajás/PA,-0.9878802,-49.9390114,11,37.05201
1,Analândia/SP,-22.128917,-47.661939,123,2432.75316
D1,Analândia/SP,-22.128917,-47.661939,3,59.33544
1,Anamã/AM,-3.5797356,-61.4049996,1375,9852.39324
D1,Anamã/AM,-3.5797356,-61.4049996,3,21.49613
1,Ananindeua/PA,-1.374035,-48.4016623,12317,2299.89151
D1,Ananindeua/PA,-1.374035,-48.4016623,398,74.31654
1,Ananás/TO,-6.3663053,-48.080238,804,8470.29077
D1,Ananás/TO,-6.3663053,-48.080238,17,179.09819
1,Anapu/PA,-3.4668292,-51.2057035,1115,3897.64743
D1,Anapu/PA,-3.4668292,-51.2057035,23,80.39990
1,Anapurus/MA,-3.6751298,-43.1046001,821,5165.47125
D1,Anapurus/MA,-3.6751298,-43.1046001,6,37.75009
1,Anastácio/MS,-20.4832458,-55.8048448,1314,5206.64104
D1,Anastácio/MS,-20.4832458,-55.8048448,37,146.61014
1,Anaurilândia/MS,-22.185169,-52.719056,124,1366.24063
D1,Anaurilândia/MS,-22.185169,-52.719056,5,55.09035
1,Anchieta/ES,-20.8057672,-40.6454564,2273,7632.89566
D1,Anchieta/ES,-20.8057672,-40.6454564,37,124.24863
1,Anchieta/SC,-26.5350527,-53.3293938,176,3167.17653
D1,Anchieta/SC,-26.5350527,-53.3293938,4,71.98128
1,Andaraí/BA,-12.8059674,-41.3322919,478,3639.96345
D1,Andaraí/BA,-12.8059674,-41.3322919,2,15.22997
1,Andirá/PR,-23.0494761,-50.2310027,737,3698.68513
D1,Andirá/PR,-23.0494761,-50.2310027,7,35.12998
1,Andorinha/BA,-10.3445708,-39.8334411,424,2923.53306
D1,Andorinha/BA,-10.3445708,-39.8334411,7,48.26588
1,Andradas/MG,-22.0680484,-46.5688976,851,2055.75418
D1,Andradas/MG,-22.0680484,-46.5688976,23,55.56092
1,Andradina/SP,-20.896505,-51.3742765,2608,4559.28114
D1,Andradina/SP,-20.896505,-51.3742765,97,169.57449
1,Andrelândia/MG,-21.739722,-44.308889,167,1368.17958
D1,Andrelândia/MG,-21.739722,-44.308889,2,16.38538
1,André da Rocha/RS,-28.6309124,-51.5733328,52,3871.92852
1,Angatuba/SP,-23.4938938,-48.4110675,509,1997.72362
D1,Angatuba/SP,-23.4938938,-48.4110675,16,62.79681
1,Angelim/PE,-8.8902038,-36.2872987,93,828.43399
D1,Angelim/PE,-8.8902038,-36.2872987,3,26.72368
1,Angelina/SC,-27.5805287,-48.9838759,255,5376.34409
1,Angelândia/MG,-17.7253,-42.2728,37,432.39453
1,Angical do Piauí/PI,-6.0872666,-42.7366138,225,3317.11632
D1,Angical do Piauí/PI,-6.0872666,-42.7366138,5,73.71370
1,Angical/BA,-12.005623,-44.7000236,301,2159.56378
D1,Angical/BA,-12.005623,-44.7000236,5,35.87315
1,Angico/TO,-6.3893733,-47.8656722,173,5008.68558
D1,Angico/TO,-6.3893733,-47.8656722,3,86.85582
1,Angicos/RN,-5.6666344,-36.6009064,202,1725.75822
D1,Angicos/RN,-5.6666344,-36.6009064,6,51.26015
1,Angra dos Reis/RJ,-23.0063966,-44.316326,9850,4757.44286
D1,Angra dos Reis/RJ,-23.0063966,-44.316326,307,148.27766
1,Anguera/BA,-12.1509425,-39.2452469,171,1513.67620
1,Angélica/MS,-22.1588196,-53.7728504,313,2863.15404
D1,Angélica/MS,-22.1588196,-53.7728504,6,54.88474
1,Anhanguera/GO,-18.3338749,-48.220363,22,1896.55172
D1,Anhanguera/GO,-18.3338749,-48.220363,2,172.41379
1,Anhembi/SP,-22.7891096,-48.1316776,51,747.91025
D1,Anhembi/SP,-22.7891096,-48.1316776,1,14.66491
1,Anhumas/SP,-22.2956478,-51.3873401,136,3281.85328
D1,Anhumas/SP,-22.2956478,-51.3873401,1,24.13127
1,Anicuns/GO,-16.4606451,-49.9572265,1063,4835.99472
D1,Anicuns/GO,-16.4606451,-49.9572265,17,77.33952
1,Anita Garibaldi/SC,-27.6855032,-51.1293873,582,8365.67486
D1,Anita Garibaldi/SC,-27.6855032,-51.1293873,3,43.12204
1,Anitápolis/SC,-27.9041185,-49.1287395,187,5793.06072
1,Anori/AM,-3.7435254,-61.6605203,1486,6919.02966
D1,Anori/AM,-3.7435254,-61.6605203,21,97.77902
1,Anta Gorda/RS,-28.9718745,-52.0069187,355,5955.37661
D1,Anta Gorda/RS,-28.9718745,-52.0069187,1,16.77571
1,Antas/BA,-10.4114649,-38.3308815,669,3434.46789
1,Antonina do Norte/CE,-6.7754187,-39.9879345,84,1138.51992
D1,Antonina do Norte/CE,-6.7754187,-39.9879345,3,40.66143
1,Antonina/PR,-25.4298854,-48.7125431,1390,7335.47944
D1,Antonina/PR,-25.4298854,-48.7125431,34,179.42899
1,Antônio Almeida/PI,-7.2186016,-44.1950248,259,8170.34700
D1,Antônio Almeida/PI,-7.2186016,-44.1950248,4,126.18297
1,Antônio Cardoso/BA,-12.4363122,-39.1200307,161,1378.77880
D1,Antônio Cardoso/BA,-12.4363122,-39.1200307,4,34.25537
1,Antônio Carlos/MG,-21.318334,-43.746666,249,2172.96448
D1,Antônio Carlos/MG,-21.318334,-43.746666,4,34.90706
1,Antônio Carlos/SC,-27.5168462,-48.7684715,838,9729.47869
D1,Antônio Carlos/SC,-27.5168462,-48.7684715,14,162.54499
1,Antônio Dias/MG,-19.6525,-42.872778,183,1973.04582
D1,Antônio Dias/MG,-19.6525,-42.872778,6,64.69003
1,Antônio Gonçalves/BA,-10.5715409,-40.2748824,381,3207.61071
D1,Antônio Gonçalves/BA,-10.5715409,-40.2748824,2,16.83785
1,Antônio João/MS,-22.1892837,-55.9508227,172,1906.87361
D1,Antônio João/MS,-22.1892837,-55.9508227,4,44.34590
1,Antônio Martins/RN,-6.2155812,-37.8890129,134,1873.07800
D1,Antônio Martins/RN,-6.2155812,-37.8890129,2,27.95639
1,Antônio Olinto/PR,-25.9849006,-50.1974516,147,1979.26484
D1,Antônio Olinto/PR,-25.9849006,-50.1974516,1,13.46439
1,Antônio Prado de Minas/MG,-21.0171988,-42.1101106,126,7939.50851
D1,Antônio Prado de Minas/MG,-21.0171988,-42.1101106,3,189.03592
1,Antônio Prado/RS,-28.8567806,-51.2801355,1071,8210.04216
D1,Antônio Prado/RS,-28.8567806,-51.2801355,11,84.32350
1,Anápolis/GO,-16.3332828,-48.9525756,17958,4583.78853
D1,Anápolis/GO,-16.3332828,-48.9525756,438,111.79972
1,Anísio de Abreu/PI,-9.185643,-43.04941,215,2163.41316
D1,Anísio de Abreu/PI,-9.185643,-43.04941,2,20.12477
1,Aparecida d'Oeste/SP,-20.4498109,-50.8808706,391,9403.55940
D1,Aparecida d'Oeste/SP,-20.4498109,-50.8808706,9,216.45022
1,Aparecida de Goiânia/GO,-16.8226769,-49.2452546,41715,7068.58981
D1,Aparecida de Goiânia/GO,-16.8226769,-49.2452546,615,104.21150
1,Aparecida do Rio Doce/GO,-18.2980167,-51.1491312,111,4486.66128
D1,Aparecida do Rio Doce/GO,-18.2980167,-51.1491312,3,121.26112
1,Aparecida do Rio Negro/TO,-9.9513491,-47.9773786,134,2764.02640
D1,Aparecida do Rio Negro/TO,-9.9513491,-47.9773786,3,61.88119
1,Aparecida do Taboado/MS,-20.0840304,-51.1013943,1242,4764.27941
D1,Aparecida do Taboado/MS,-20.0840304,-51.1013943,20,76.71948
1,Aparecida/PB,-6.7859598, -38.0831353,574,6820.34221
D1,Aparecida/PB,-6.7859598, -38.0831353,8,95.05703
1,Aparecida/SP,-22.851552,-45.2340924,913,2523.14495
D1,Aparecida/SP,-22.851552,-45.2340924,24,66.32583
1,Aperibé/RJ,-21.6211928,-42.1028167,271,2277.11957
D1,Aperibé/RJ,-21.6211928,-42.1028167,10,84.02655
1,Apiacá/ES,-21.152272,-41.569297,403,5334.92190
D1,Apiacá/ES,-21.152272,-41.569297,10,132.38020
1,Apiacás/MT,-9.5678422,-57.394852,281,2732.66556
D1,Apiacás/MT,-9.5678422,-57.394852,1,9.72479
1,Apiaí/SP,-24.5076527,-48.8461582,416,1717.16338
D1,Apiaí/SP,-24.5076527,-48.8461582,14,57.78915
1,Apicum-Açu/MA,-1.5279295,-45.082278,199,1142.82433
D1,Apicum-Açu/MA,-1.5279295,-45.082278,3,17.22851
1,Apiúna/SC,-27.0374658,-49.3885037,472,4351.03245
D1,Apiúna/SC,-27.0374658,-49.3885037,9,82.96460
1,Apodi/RN,-5.6631109,-37.796927,3567,9943.13430
D1,Apodi/RN,-5.6631109,-37.796927,48,133.80164
1,Aporá/BA,-11.6599747,-38.0794757,312,1753.99145
D1,Aporá/BA,-11.6599747,-38.0794757,8,44.97414
1,Aporé/GO,-18.9642193,-51.92804,171,4040.64272
D1,Aporé/GO,-18.9642193,-51.92804,3,70.88847
1,Apuarema/BA,-13.8517897,-39.7457126,489,6696.79540
D1,Apuarema/BA,-13.8517897,-39.7457126,7,95.86415
1,Apucarana/PR,-23.5525327,-51.4610764,3304,2425.23893
D1,Apucarana/PR,-23.5525327,-51.4610764,110,80.74343
1,Apuiarés/CE,-3.9460303,-39.4313298,265,1806.16140
D1,Apuiarés/CE,-3.9460303,-39.4313298,12,81.78844
1,Apuí/AM,-7.1940195,-59.8830192,699,3126.25788
D1,Apuí/AM,-7.1940195,-59.8830192,11,49.19719
1,Aquidabã/SE,-10.2837579,-37.0188687,1117,5151.97638
D1,Aquidabã/SE,-10.2837579,-37.0188687,20,92.24667
1,Aquidauana/MS,-20.473969,-55.7821375,3072,6396.13567
D1,Aquidauana/MS,-20.473969,-55.7821375,83,172.81226
1,Aquiraz/CE,-3.9063117,-38.387504,1500,1853.33910
D1,Aquiraz/CE,-3.9063117,-38.387504,40,49.42238
1,Arabutã/SC,-27.1587028,-52.1438142,171,4007.49941
D1,Arabutã/SC,-27.1587028,-52.1438142,2,46.87134
1,Aracaju/SE,-10.9162061,-37.0774655,66392,9985.14080
D1,Aracaju/SE,-10.9162061,-37.0774655,983,147.84000
1,Aracati/CE,-4.558259,-37.767894,2593,3458.48616
D1,Aracati/CE,-4.558259,-37.767894,60,80.02668
1,Aracatu/BA,-14.4274236,-41.4604105,472,3618.24454
D1,Aracatu/BA,-14.4274236,-41.4604105,7,53.66041
1,Araci/BA,-11.3356065,-38.9573261,1671,3057.75143
D1,Araci/BA,-11.3356065,-38.9573261,20,36.59786
1,Aracitaba/MG,-21.3425,-43.378611,67,3254.00680
D1,Aracitaba/MG,-21.3425,-43.378611,5,242.83633
1,Aracoiaba/CE,-4.3702577,-38.8084313,940,3542.49105
D1,Aracoiaba/CE,-4.3702577,-38.8084313,17,64.06633
1,Aracruz/ES,-19.8245218,-40.2735025,9172,8896.13098
D1,Aracruz/ES,-19.8245218,-40.2735025,118,114.45088
1,Aragarças/GO,-15.8957166,-52.2514538,1218,6007.99092
D1,Aragarças/GO,-15.8957166,-52.2514538,21,103.58605
1,Aragoiânia/GO,-16.9146388,-49.4499148,462,4401.67683
D1,Aragoiânia/GO,-16.9146388,-49.4499148,6,57.16463
1,Aragominas/TO,-7.1654101,-48.525488,355,6194.38143
D1,Aragominas/TO,-7.1654101,-48.525488,7,122.14273
1,Araguacema/TO,-8.8067391,-49.5560969,101,1411.60028
D1,Araguacema/TO,-8.8067391,-49.5560969,1,13.97624
1,Araguaiana/MT,-15.729144,-51.834112,73,2348.02187
D1,Araguaiana/MT,-15.729144,-51.834112,2,64.32937
1,Araguainha/MT,-16.857016,-53.031778,8,845.66596
1,Araguanã/MA,-2.9508403,-45.6651986,569,3658.92869
D1,Araguanã/MA,-2.9508403,-45.6651986,4,25.72182
1,Araguanã/TO,-6.5799107,-48.6428482,184,3176.24719
D1,Araguanã/TO,-6.5799107,-48.6428482,11,189.88434
1,Araguapaz/GO,-15.0937927,-50.626417,204,2621.09726
D1,Araguapaz/GO,-15.0937927,-50.626417,7,89.93961
1,Araguari/MG,-18.6511256,-48.1933764,6350,5389.34861
D1,Araguari/MG,-18.6511256,-48.1933764,129,109.48440
1,Araguatins/TO,-5.6522925,-48.1158973,1178,3256.84269
D1,Araguatins/TO,-5.6522925,-48.1158973,31,85.70639
1,Araguaçu/TO,-12.928934,-49.823134,601,7098.14574
D1,Araguaçu/TO,-12.928934,-49.823134,10,118.10559
1,Araguaína/TO,-7.193241,-48.2018597,19244,10493.99883
D1,Araguaína/TO,-7.193241,-48.2018597,251,136.87350
1,Araioses/MA,-2.890914,-41.904993,589,1259.32736
D1,Araioses/MA,-2.890914,-41.904993,10,21.38077
1,Aral Moreira/MS,-22.951141,-55.6268421,267,2165.09893
D1,Aral Moreira/MS,-22.951141,-55.6268421,6,48.65391
1,Aramari/BA,-12.0907897,-38.4985065,265,2312.18916
D1,Aramari/BA,-12.0907897,-38.4985065,7,61.07669
1,Arambaré/RS,-30.9132252,-51.4994625,59,1656.37282
D1,Arambaré/RS,-30.9132252,-51.4994625,2,56.14823
1,Arame/MA,-4.8858769,-46.0102484,958,2923.94091
D1,Arame/MA,-4.8858769,-46.0102484,22,67.14687
1,Aramina/SP,-20.0876144,-47.789201,145,2564.10256
D1,Aramina/SP,-20.0876144,-47.789201,5,88.41733
1,Arandu/SP,-23.1345103,-49.0545651,110,1728.20110
D1,Arandu/SP,-23.1345103,-49.0545651,6,94.26551
1,Arantina/MG,-21.911667,-44.255833,35,1255.83064
D1,Arantina/MG,-21.911667,-44.255833,2,71.76175
1,Arapeí/SP,-22.6738889,-44.4477778,73,2967.47967
D1,Arapeí/SP,-22.6738889,-44.4477778,1,40.65041
1,Arapiraca/AL,-9.754866,-36.661471,14990,6432.17892
D1,Arapiraca/AL,-9.754866,-36.661471,198,84.96140
1,Arapoema/TO,-7.6575001,-49.0641484,169,2554.41354
D1,Arapoema/TO,-7.6575001,-49.0641484,4,60.45949
1,Araponga/MG,-20.666667,-42.520556,210,2484.32509
D1,Araponga/MG,-20.666667,-42.520556,1,11.83012
1,Arapongas/PR,-23.415296,-51.42592,5868,4701.54635
D1,Arapongas/PR,-23.415296,-51.42592,171,137.00825
1,Araporã/MG,-18.4318188,-49.188313,1061,15308.03636
D1,Araporã/MG,-18.4318188,-49.188313,10,144.27932
1,Arapoti/PR,-24.1457957,-49.8224605,1070,3780.91873
D1,Arapoti/PR,-24.1457957,-49.8224605,6,21.20141
1,Araputanga/MT,-15.4710868,-58.346796,782,4613.29715
D1,Araputanga/MT,-15.4710868,-58.346796,13,76.69164
1,Arapuá/MG,-19.034444,-46.155556,58,2045.85538
1,Arapuã/PR,-24.3079525,-51.7901941,103,3423.06414
D1,Arapuã/PR,-24.3079525,-51.7901941,2,66.46726
1,Araquari/SC,-26.3703324,-48.7210994,1686,4265.76257
D1,Araquari/SC,-26.3703324,-48.7210994,24,60.72260
1,Arara/PB,-6.8271895,-35.7605703,300,2215.33008
D1,Arara/PB,-6.8271895,-35.7605703,9,66.45990
1,Araranguá/SC,-28.9348832,-49.4858389,5969,8667.43143
D1,Araranguá/SC,-28.9348832,-49.4858389,94,136.49498
1,Araraquara/SP,-21.7886713,-48.1773096,8565,3593.62085
D1,Araraquara/SP,-21.7886713,-48.1773096,100,41.95704
1,Araras/SP,-22.3569477,-47.3838889,6974,5146.63557
D1,Araras/SP,-22.3569477,-47.3838889,109,80.43924
1,Ararendá/CE,-4.7504395,-40.8303611,446,4069.71439
D1,Ararendá/CE,-4.7504395,-40.8303611,9,82.12428
1,Arari/MA,-3.4547602,-44.7772723,373,1246.15796
D1,Arari/MA,-3.4547602,-44.7772723,10,33.40906
1,Araricá/RS,-29.6168543,-50.929121,446,7728.29666
D1,Araricá/RS,-29.6168543,-50.929121,9,155.95217
1,Araripe/CE,-7.212861,-40.1359222,354,1634.80188
D1,Araripe/CE,-7.212861,-40.1359222,5,23.09042
1,Araripina/PE,-7.5768582,-40.5038509,3517,4144.27790
D1,Araripina/PE,-7.5768582,-40.5038509,58,68.34465
1,Araruama/RJ,-22.8733203,-42.3428897,2678,1994.14713
D1,Araruama/RJ,-22.8733203,-42.3428897,100,74.46405
1,Araruna/PB,-6.5321155,-35.7397595,494,2414.11328
D1,Araruna/PB,-6.5321155,-35.7397595,15,73.30303
1,Araruna/PR,-23.9320308,-52.4976047,576,4114.28571
D1,Araruna/PR,-23.9320308,-52.4976047,11,78.57143
1,Arataca/BA,-15.2617424,-39.4122943,303,2764.34632
D1,Arataca/BA,-15.2617424,-39.4122943,10,91.23255
1,Aratiba/RS,-27.3955734,-52.3024325,227,3667.79771
D1,Aratiba/RS,-27.3955734,-52.3024325,4,64.63080
1,Aratuba/CE,-4.4195958,-39.0463737,276,2338.58668
D1,Aratuba/CE,-4.4195958,-39.0463737,2,16.94628
1,Aratuípe/BA,-13.077137,-39.0010786,210,2376.37207
D1,Aratuípe/BA,-13.077137,-39.0010786,6,67.89634
1,Araucária/PR,-25.5861107,-49.4051209,11639,7960.25004
D1,Araucária/PR,-25.5861107,-49.4051209,144,98.48578
1,Arauá/SE,-11.2644014,-37.6181058,522,5247.81341
D1,Arauá/SE,-11.2644014,-37.6181058,11,110.58611
1,Araxá/MG,-19.5928536,-46.940241,4025,3749.87190
D1,Araxá/MG,-19.5928536,-46.940241,47,43.78732
1,Araçagi/PB,-6.8519969,-35.3835602,627,3705.45476
D1,Araçagi/PB,-6.8519969,-35.3835602,7,41.36871
1,Araçariguama/SP,-23.438611,-47.061389,609,2664.04199
D1,Araçariguama/SP,-23.438611,-47.061389,15,65.61680
1,Araçatuba/SP,-21.207992,-50.4390225,12389,6252.99678
D1,Araçatuba/SP,-21.207992,-50.4390225,236,119.11431
1,Araçaí/MG,-19.200833,-44.2475,19,807.13679
1,Araçoiaba da Serra/SP,-23.5045367,-47.6168158,1110,3191.85645
D1,Araçoiaba da Serra/SP,-23.5045367,-47.6168158,22,63.26202
1,Araçoiaba/PE,-7.7856903,-35.0898881,219,1056.28708
D1,Araçoiaba/PE,-7.7856903,-35.0898881,20,96.46457
1,Araçu/GO,-16.3561579,-49.6815269,164,4704.53242
D1,Araçu/GO,-16.3561579,-49.6815269,4,114.74469
1,Araçuaí/MG,-16.8484451,-42.0661868,446,1214.86163
D1,Araçuaí/MG,-16.8484451,-42.0661868,11,29.96295
1,Araçás/BA,-12.2139176,-38.2026159,456,3735.25557
D1,Araçás/BA,-12.2139176,-38.2026159,7,57.33945
1,Araújos/MG,-19.948055,-45.165556,280,2978.40655
D1,Araújos/MG,-19.948055,-45.165556,1,10.63717
1,Arceburgo/MG,-21.364444,-46.939722,294,2701.46099
D1,Arceburgo/MG,-21.364444,-46.939722,3,27.56593
1,Arco-Íris/SP,-21.7741308,-50.4668814,39,2199.66159
D1,Arco-Íris/SP,-21.7741308,-50.4668814,4,225.60632
1,Arcos/MG,-20.282223,-45.539444,1525,3776.62209
D1,Arcos/MG,-20.282223,-45.539444,17,42.10005
1,Arcoverde/PE,-8.415192,-37.057748,3476,4645.69244
D1,Arcoverde/PE,-8.415192,-37.057748,77,102.91091
1,Areado/MG,-21.3582771,-46.1476688,274,1804.88769
D1,Areado/MG,-21.3582771,-46.1476688,3,19.76154
1,Areal/RJ,-22.2314922,-43.1056264,361,2849.47510
D1,Areal/RJ,-22.2314922,-43.1056264,9,71.03955
1,Arealva/SP,-22.0301906,-48.9111936,294,3413.44479
D1,Arealva/SP,-22.0301906,-48.9111936,2,23.22071
1,Areia Branca/RN,-4.9506652,-37.1263312,1091,3901.02621
D1,Areia Branca/RN,-4.9506652,-37.1263312,57,203.81164
1,Areia Branca/SE,-10.7591455,-37.3148072,988,5287.38093
D1,Areia Branca/SE,-10.7591455,-37.3148072,22,117.73520
1,Areia de Baraúnas/PB,-7.1233949,-36.9446216,16,756.14367
1,Areia/PB,-6.9680243,-35.6994783,634,2798.37571
D1,Areia/PB,-6.9680243,-35.6994783,6,26.48305
1,Areial/PB,-7.0501306,-35.9245244,110,1565.39064
D1,Areial/PB,-7.0501306,-35.9245244,4,56.92330
1,Areias/SP,-22.5800929,-44.6975127,84,2156.05749
D1,Areias/SP,-22.5800929,-44.6975127,1,25.66735
1,Areiópolis/SP,-22.6758064,-48.6673653,253,2267.43144
D1,Areiópolis/SP,-22.6758064,-48.6673653,4,35.84872
1,Arenápolis/MT,-14.4610369,-56.8432806,645,6788.04462
D1,Arenápolis/MT,-14.4610369,-56.8432806,8,84.19280
1,Arenópolis/GO,-16.3859286,-51.55937,32,1261.82965
1,Argirita/MG,-21.612761,-42.8371922,138,5103.55030
D1,Argirita/MG,-21.612761,-42.8371922,5,184.91124
1,Aricanduva/MG,-17.8678,-42.5569,18,341.62080
1,Arinos/MG,-15.917223,-46.106111,170,951.74113
D1,Arinos/MG,-15.917223,-46.106111,4,22.39391
1,Aripuanã/MT,-10.175806,-59.4439663,1134,4992.51563
D1,Aripuanã/MT,-10.175806,-59.4439663,17,74.84371
1,Ariquemes/RO,-9.9076522,-63.033069,9647,8808.19554
D1,Ariquemes/RO,-9.9076522,-63.033069,169,154.30549
1,Ariranha do Ivaí/PR,-24.3834527,-51.5876772,45,2178.12197
D1,Ariranha do Ivaí/PR,-24.3834527,-51.5876772,1,48.40271
1,Ariranha/SP,-21.18716,-48.790418,226,2315.33654
D1,Ariranha/SP,-21.18716,-48.790418,11,112.69337
1,Armazém/SC,-28.2624996,-49.0190126,752,8585.45496
D1,Armazém/SC,-28.2624996,-49.0190126,6,68.50097
1,Armação dos Búzios/RJ,-22.7597805,-41.8875267,2242,6502.88598
D1,Armação dos Búzios/RJ,-22.7597805,-41.8875267,22,63.81066
1,Arneiroz/CE,-6.3235099,-40.1603859,72,917.89903
D1,Arneiroz/CE,-6.3235099,-40.1603859,6,76.49159
1,Aroazes/PI,-6.1108814,-41.7886137,158,2711.51536
D1,Aroazes/PI,-6.1108814,-41.7886137,5,85.80745
1,Aroeiras do Itaim/PI,-7.2797031,-41.5629681,93,3645.62917
D1,Aroeiras do Itaim/PI,-7.2797031,-41.5629681,1,39.20031
1,Aroeiras/PB,-7.5462904,-35.7080002,347,1815.23331
D1,Aroeiras/PB,-7.5462904,-35.7080002,3,15.69366
1,Arraial do Cabo/RJ,-22.9662839,-42.024427,443,1448.04367
D1,Arraial do Cabo/RJ,-22.9662839,-42.024427,9,29.41849
1,Arraial/PI,-6.6541632,-42.5335332,93,1970.33898
D1,Arraial/PI,-6.6541632,-42.5335332,1,21.18644
1,Arraias/TO,-12.9287788,-46.9437231,177,1680.27340
1,Arroio Grande/RS,-32.2384246,-53.0866661,588,3224.03772
D1,Arroio Grande/RS,-32.2384246,-53.0866661,6,32.89834
1,Arroio Trinta/SC,-26.9301976,-51.334928,239,6734.29135
D1,Arroio Trinta/SC,-26.9301976,-51.334928,3,84.53085
1,Arroio do Meio/RS,-29.4020392,-51.9444993,1076,5131.87390
D1,Arroio do Meio/RS,-29.4020392,-51.9444993,9,42.92460
1,Arroio do Padre/RS,-31.4428773,-52.4228985,79,2677.05862
D1,Arroio do Padre/RS,-31.4428773,-52.4228985,1,33.88682
1,Arroio do Sal/RS,-29.549852,-49.8874395,462,4494.60064
D1,Arroio do Sal/RS,-29.549852,-49.8874395,10,97.28573
1,Arroio do Tigre/RS,-29.334158,-53.0888935,315,2348.46790
D1,Arroio do Tigre/RS,-29.334158,-53.0888935,3,22.36636
1,Arroio dos Ratos/RS,-30.0894524,-51.7265541,357,2518.16322
D1,Arroio dos Ratos/RS,-30.0894524,-51.7265541,16,112.85886
1,Artur Nogueira/SP,-22.572737,-47.172679,1680,3035.77882
D1,Artur Nogueira/SP,-22.572737,-47.172679,44,79.50849
1,Aruanã/GO,-14.9162439,-51.0715692,218,2156.28091
D1,Aruanã/GO,-14.9162439,-51.0715692,2,19.78239
1,Arujá/SP,-23.396266,-46.3175449,3363,3689.23944
D1,Arujá/SP,-23.396266,-46.3175449,118,129.44700
1,Arvoredo/SC,-27.0752908,-52.4571847,97,4341.98747
D1,Arvoredo/SC,-27.0752908,-52.4571847,1,44.76276
1,Arvorezinha/RS,-28.87369,-52.17808,365,3501.87086
D1,Arvorezinha/RS,-28.87369,-52.17808,10,95.94167
1,Arês/RN,-6.1969216,-35.1642968,416,2885.48242
D1,Arês/RN,-6.1969216,-35.1642968,11,76.29881
1,Ascurra/SC,-26.9569975,-49.3767752,596,7470.54400
D1,Ascurra/SC,-26.9569975,-49.3767752,2,25.06894
1,Aspásia/SP,-20.160028,-50.728046,61,3355.33553
D1,Aspásia/SP,-20.160028,-50.728046,2,110.01100
1,Assaré/CE,-6.8746791,-39.8741385,937,3990.97027
D1,Assaré/CE,-6.8746791,-39.8741385,15,63.88960
1,Assaí/PR,-23.3736041,-50.8454929,502,3356.96135
D1,Assaí/PR,-23.3736041,-50.8454929,17,113.68196
1,Assis Brasil/AC,-10.9409203,-69.5672108,818,10857.44624
D1,Assis Brasil/AC,-10.9409203,-69.5672108,9,119.45846
1,Assis Chateaubriand/PR,-24.4054826,-53.5120468,1661,4982.00360
D1,Assis Chateaubriand/PR,-24.4054826,-53.5120468,23,68.98620
1,Assis/SP,-22.6620892,-50.420623,2838,2700.61949
D1,Assis/SP,-22.6620892,-50.420623,48,45.67644
1,Assunção do Piauí/PI,-5.8610212,-41.0485091,183,2327.35597
D1,Assunção do Piauí/PI,-5.8610212,-41.0485091,4,50.87117
1,Assunção/PB,-7.073396,-36.7274003,85,2109.70464
1,Astolfo Dutra/MG,-21.3132636,-42.8624102,729,5108.61948
D1,Astolfo Dutra/MG,-21.3132636,-42.8624102,12,84.09250
1,Astorga/PR,-23.2350184,-51.6647074,1153,4399.25217
D1,Astorga/PR,-23.2350184,-51.6647074,20,76.30966
1,Atalaia do Norte/AM,-4.3658547,-70.1908742,1887,9250.90695
D1,Atalaia do Norte/AM,-4.3658547,-70.1908742,5,24.51221
1,Atalaia/AL,-9.5029595,-36.0219316,668,1410.32408
D1,Atalaia/AL,-9.5029595,-36.0219316,27,57.00412
1,Atalaia/PR,-23.1513833,-52.0529697,146,3761.91703
D1,Atalaia/PR,-23.1513833,-52.0529697,3,77.29967
1,Atalanta/SC,-27.421916,-49.778863,97,3035.99374
1,Ataléia/MG,-18.04432,-41.1110524,442,3486.35431
D1,Ataléia/MG,-18.04432,-41.1110524,4,31.55072
1,Atibaia/SP,-23.1177393,-46.5547861,4293,2979.42924
D1,Atibaia/SP,-23.1177393,-46.5547861,96,66.62595
1,Atilio Vivacqua/ES,-20.9139369,-41.1947519,854,7054.93598
D1,Atilio Vivacqua/ES,-20.9139369,-41.1947519,14,115.65469
1,Augustinópolis/TO,-5.4662267,-47.8897519,836,4484.25683
D1,Augustinópolis/TO,-5.4662267,-47.8897519,11,59.00338
1,Augusto Corrêa/PA,-1.0229335,-46.6404029,1498,3223.51574
D1,Augusto Corrêa/PA,-1.0229335,-46.6404029,22,47.34135
1,Augusto Pestana/RS,-28.5148413,-53.9906433,112,1696.45562
D1,Augusto Pestana/RS,-28.5148413,-53.9906433,2,30.29385
1,Augusto de Lima/MG,-18.1092963,-44.2651945,107,2205.73078
D1,Augusto de Lima/MG,-18.1092963,-44.2651945,4,82.45723
1,Aurelino Leal/BA,-14.3167137,-39.3256107,692,6124.43579
D1,Aurelino Leal/BA,-14.3167137,-39.3256107,16,141.60545
1,Auriflama/SP,-20.6840418,-50.5554616,783,5133.41638
D1,Auriflama/SP,-20.6840418,-50.5554616,17,111.45348
1,Aurilândia/GO,-16.6772599,-50.4641231,67,2190.97449
D1,Aurilândia/GO,-16.6772599,-50.4641231,2,65.40222
1,Aurora do Pará/PA,-2.1323199,-47.558436,722,2272.36962
D1,Aurora do Pará/PA,-2.1323199,-47.558436,8,25.17861
1,Aurora do Tocantins/TO,-12.71045,-46.407604,121,3198.51969
D1,Aurora do Tocantins/TO,-12.71045,-46.407604,1,26.43405
1,Aurora/CE,-6.9426019,-38.9693765,932,3787.07842
D1,Aurora/CE,-6.9426019,-38.9693765,24,97.52133
1,Aurora/SC,-27.3166417,-49.6368502,251,4416.68133
D1,Aurora/SC,-27.3166417,-49.6368502,4,70.38536
1,Autazes/AM,-3.5833283,-59.1301518,1954,4849.83867
D1,Autazes/AM,-3.5833283,-59.1301518,49,121.61827
1,Avanhandava/SP,-21.4603331,-49.9465156,311,2244.02915
D1,Avanhandava/SP,-21.4603331,-49.9465156,11,79.37081
1,Avaré/SP,-23.1045215,-48.9259103,1592,1745.00175
D1,Avaré/SP,-23.1045215,-48.9259103,27,29.59488
1,Avaí/SP,-22.1564662,-49.3316395,141,2593.81898
D1,Avaí/SP,-22.1564662,-49.3316395,3,55.18764
1,Aveiro/PA,-3.6049239,-55.3310742,455,2773.71373
D1,Aveiro/PA,-3.6049239,-55.3310742,5,30.48037
1,Avelino Lopes/PI,-10.1346855,-43.9489525,186,1642.23910
D1,Avelino Lopes/PI,-10.1346855,-43.9489525,15,132.43864
1,Avelinópolis/GO,-16.4672409,-49.7578661,144,5977.58406
D1,Avelinópolis/GO,-16.4672409,-49.7578661,3,124.53300
1,Axixá do Tocantins/TO,-5.612747,-47.77007,584,5967.09921
D1,Axixá do Tocantins/TO,-5.612747,-47.77007,5,51.08818
1,Axixá/MA,-2.8379465,-44.0561053,148,1214.80752
D1,Axixá/MA,-2.8379465,-44.0561053,3,24.62448
1,Açailândia/MA,-4.9514278,-47.4844564,3789,3349.51070
D1,Açailândia/MA,-4.9514278,-47.4844564,104,91.93695
1,Açu/RN,-5.5836157,-36.9139541,2653,4544.05317
D1,Açu/RN,-5.5836157,-36.9139541,84,143.87503
1,Açucena/MG,-19.073056,-42.546666,192,2049.53032
D1,Açucena/MG,-19.073056,-42.546666,6,64.04782
1,Babaçulândia/TO,-7.2034355,-47.761613,435,4078.37990
D1,Babaçulândia/TO,-7.2034355,-47.761613,4,37.50234
1,Bacabal/MA,-4.2318132,-44.781167,3709,3539.45987
D1,Bacabal/MA,-4.2318132,-44.781167,74,70.61743
1,Bacabeira/MA,-2.9775747,-44.3155943,174,1008.57872
D1,Bacabeira/MA,-2.9775747,-44.3155943,3,17.38929
1,Bacuri/MA,-1.728894,-45.1417148,429,2299.77485
D1,Bacuri/MA,-1.728894,-45.1417148,4,21.44312
1,Bacurituba/MA,-2.7082587,-44.7381309,93,1640.21164
1,Bady Bassitt/SP,-20.9178969,-49.4517911,1345,7572.77180
D1,Bady Bassitt/SP,-20.9178969,-49.4517911,23,129.49721
1,Baependi/MG,-21.959162,-44.8899249,540,2812.64649
D1,Baependi/MG,-21.959162,-44.8899249,10,52.08605
1,Bagre/PA,-1.8994498,-50.2103844,546,1743.01676
D1,Bagre/PA,-1.8994498,-50.2103844,11,35.11572
1,Bagé/RS,-31.3314264,-54.1062808,3228,2660.40302
D1,Bagé/RS,-31.3314264,-54.1062808,70,57.69152
1,Baianópolis/BA,-12.3067564,-44.5383591,187,1342.52279
D1,Baianópolis/BA,-12.3067564,-44.5383591,2,14.35853
1,Baixa Grande do Ribeiro/PI,-7.862861,-45.2113289,1581,13546.39705
D1,Baixa Grande do Ribeiro/PI,-7.862861,-45.2113289,15,128.52369
1,Baixa Grande/BA,-11.9630941,-40.1657537,387,1892.51308
D1,Baixa Grande/BA,-11.9630941,-40.1657537,3,14.67064
1,Baixio/CE,-6.7303544,-38.7170095,132,2094.24084
D1,Baixio/CE,-6.7303544,-38.7170095,4,63.46184
1,Baixo Guandu/ES,-19.5138322,-41.0182089,2135,6857.89541
D1,Baixo Guandu/ES,-19.5138322,-41.0182089,37,118.84877
1,Baião/PA,-2.7903479,-49.6702845,464,957.51047
D1,Baião/PA,-2.7903479,-49.6702845,15,30.95400
1,Balbinos/SP,-21.9006253,-49.3583966,266,4482.64240
D1,Balbinos/SP,-21.9006253,-49.3583966,3,50.55612
1,Baldim/MG,-19.2913568,-43.9558262,240,3075.74010
D1,Baldim/MG,-19.2913568,-43.9558262,5,64.07792
1,Baliza/GO,-16.1978119,-52.542789,83,1571.96970
1,Balneário Arroio do Silva/SC,-28.9815269,-49.4189932,1098,8175.72599
D1,Balneário Arroio do Silva/SC,-28.9815269,-49.4189932,19,141.47431
1,Balneário Barra do Sul/SC,-26.459842,-48.6061471,871,7893.06751
D1,Balneário Barra do Sul/SC,-26.459842,-48.6061471,17,154.05528
1,Balneário Camboriú/SC,-26.9924395,-48.6339782,16306,11184.12028
D1,Balneário Camboriú/SC,-26.9924395,-48.6339782,169,115.91539
1,Balneário Gaivota/SC,-29.1553098,-49.5808712,755,6705.15098
D1,Balneário Gaivota/SC,-29.1553098,-49.5808712,11,97.69094
1,Balneário Pinhal/RS,-30.2482978,-50.234585,578,4024.22892
D1,Balneário Pinhal/RS,-30.2482978,-50.234585,15,104.43501
1,Balneário Piçarras/SC,-26.7638889,-48.6716667,2498,10508.16086
D1,Balneário Piçarras/SC,-26.7638889,-48.6716667,20,84.13259
1,Balneário Rincão/SC,-28.8235718,-49.2241642,872,6735.67125
D1,Balneário Rincão/SC,-28.8235718,-49.2241642,20,154.48787
1,Balsa Nova/PR,-25.5842234,-49.6312741,565,4315.61259
D1,Balsa Nova/PR,-25.5842234,-49.6312741,11,84.02078
1,Balsas/MA,-7.53214,-46.037163,7201,7506.59342
D1,Balsas/MA,-7.53214,-46.037163,87,90.69207
1,Bambuí/MG,-20.0131996,-45.9777034,254,1062.85045
D1,Bambuí/MG,-20.0131996,-45.9777034,1,4.18445
1,Banabuiú/CE,-5.3046404,-38.919766,666,3648.11569
D1,Banabuiú/CE,-5.3046404,-38.919766,4,21.91060
1,Bananal/SP,-22.6828195,-44.3221095,272,2474.30183
D1,Bananal/SP,-22.6828195,-44.3221095,1,9.09670
1,Bananeiras/PB,-6.7537682,-35.6338343,610,2868.02388
D1,Bananeiras/PB,-6.7537682,-35.6338343,3,14.10504
1,Bandeira do Sul/MG,-21.728056,-46.385555,80,1384.56213
D1,Bandeira do Sul/MG,-21.728056,-46.385555,3,51.92108
1,Bandeira/MG,-15.884444,-40.559167,394,8266.89047
D1,Bandeira/MG,-15.884444,-40.559167,5,104.90978
1,Bandeirante/SC,-26.7677402,-53.6397596,48,1812.68882
1,Bandeirantes do Tocantins/TO,-7.7635698,-48.579148,195,5428.73051
D1,Bandeirantes do Tocantins/TO,-7.7635698,-48.579148,2,55.67929
1,Bandeirantes/MS,-19.9179623,-54.3646768,232,3192.95348
D1,Bandeirantes/MS,-19.9179623,-54.3646768,4,55.05092
1,Bandeirantes/PR,-23.107788,-50.370407,1651,5289.80167
D1,Bandeirantes/PR,-23.107788,-50.370407,45,144.17994
1,Bannach/PA,-7.3508505,-50.4064531,121,3709.38075
D1,Bannach/PA,-7.3508505,-50.4064531,2,61.31208
1,Banzaê/BA,-10.5827616,-38.6122305,688,5196.37462
D1,Banzaê/BA,-10.5827616,-38.6122305,4,30.21148
1,Baraúna/PB,-6.643394,-36.2531932,156,3142.62691
1,Baraúna/RN,-5.0775002,-37.61752,662,2302.84899
D1,Baraúna/RN,-5.0775002,-37.61752,17,59.13661
1,Barbacena/MG,-21.2254524,-43.7735087,2914,2108.47732
D1,Barbacena/MG,-21.2254524,-43.7735087,54,39.07268
1,Barbalha/CE,-7.3121067,-39.3036427,2612,4266.02208
D1,Barbalha/CE,-7.3121067,-39.3036427,58,94.72790
1,Barbosa Ferraz/PR,-24.0287182,-52.00811,393,3439.52389
D1,Barbosa Ferraz/PR,-24.0287182,-52.00811,6,52.51182
1,Barbosa/SP,-21.265661,-49.951816,225,3012.85485
D1,Barbosa/SP,-21.265661,-49.951816,3,40.17140
1,Barcarena/PA,-1.5107945,-48.6190679,4803,3781.08591
D1,Barcarena/PA,-1.5107945,-48.6190679,128,100.76598
1,Barcelona/RN,-5.9514918,-35.9260284,40,1001.50225
D1,Barcelona/RN,-5.9514918,-35.9260284,3,75.11267
1,Barcelos/AM,-0.9729214,-62.925635,3509,12696.28772
D1,Barcelos/AM,-0.9729214,-62.925635,37,133.87365
1,Bariri/SP,-22.0746355,-48.7394852,1458,4100.34310
D1,Bariri/SP,-22.0746355,-48.7394852,34,95.61843
1,Barra Bonita/SC,-26.6526364,-53.4419581,49,2967.89824
1,Barra Bonita/SP,-22.490859,-48.558349,1512,4185.35127
D1,Barra Bonita/SP,-22.490859,-48.558349,29,80.27459
1,Barra D'Alcântara/PI,-6.5209258,-42.1071089,65,1644.73684
D1,Barra D'Alcântara/PI,-6.5209258,-42.1071089,1,25.30364
1,Barra Funda/RS,-27.9230048,-53.0401045,225,8820.07056
D1,Barra Funda/RS,-27.9230048,-53.0401045,3,117.60094
1,Barra Longa/MG,-20.2833541,-43.0423516,128,2552.34297
1,Barra Mansa/RJ,-22.5394843,-44.1735129,7324,3962.49587
D1,Barra Mansa/RJ,-22.5394843,-44.1735129,250,135.25723
1,Barra Velha/SC,-26.6338203,-48.6835001,2068,6925.65305
D1,Barra Velha/SC,-26.6338203,-48.6835001,34,113.86470
1,Barra da Estiva/BA,-13.6269662,-41.3278287,1009,4948.01883
D1,Barra da Estiva/BA,-13.6269662,-41.3278287,4,19.61554
1,Barra de Guabiraba/PE,-8.4173522,-35.6626669,211,1454.16954
D1,Barra de Guabiraba/PE,-8.4173522,-35.6626669,11,75.80979
1,Barra de Santa Rosa/PB,-6.7218007,-36.0564638,423,2729.56056
D1,Barra de Santa Rosa/PB,-6.7218007,-36.0564638,2,12.90572
1,Barra de Santana/PB,-7.5230865,-35.9988518,244,2922.50569
D1,Barra de Santana/PB,-7.5230865,-35.9988518,3,35.93245
1,Barra de Santo Antônio/AL,-9.4038098,-35.5117693,147,914.86184
D1,Barra de Santo Antônio/AL,-9.4038098,-35.5117693,15,93.35325
1,Barra de São Francisco/ES,-18.7570902,-40.8916119,1932,4295.33782
D1,Barra de São Francisco/ES,-18.7570902,-40.8916119,59,131.17232
1,Barra de São Miguel/AL,-9.8261357,-35.8837777,211,2518.50084
D1,Barra de São Miguel/AL,-9.8261357,-35.8837777,5,59.68011
1,Barra de São Miguel/PB,-7.7528088,-36.3170996,162,2671.06348
D1,Barra de São Miguel/PB,-7.7528088,-36.3170996,1,16.48805
1,Barra do Bugres/MT,-15.0683712,-57.1853688,1394,3948.22556
D1,Barra do Bugres/MT,-15.0683712,-57.1853688,29,82.13669
1,Barra do Chapéu/SP,-24.472203,-49.023784,86,1493.05556
1,Barra do Choça/BA,-14.8638173,-40.5761637,956,3063.21894
D1,Barra do Choça/BA,-14.8638173,-40.5761637,9,28.83784
1,Barra do Corda/MA,-5.496823,-45.248496,4085,4616.23650
D1,Barra do Corda/MA,-5.496823,-45.248496,48,54.24219
1,Barra do Garças/MT,-15.8916033,-52.2615413,4074,6663.94046
D1,Barra do Garças/MT,-15.8916033,-52.2615413,143,233.90856
1,Barra do Guarita/RS,-27.1888016,-53.7147086,66,2026.40467
1,Barra do Jacaré/PR,-23.1151788,-50.1813945,80,2876.66307
1,Barra do Mendes/BA,-11.8053298,-42.057037,540,3903.70852
D1,Barra do Mendes/BA,-11.8053298,-42.057037,6,43.37454
1,Barra do Ouro/TO,-7.7113784,-47.6743925,85,1835.06045
D1,Barra do Ouro/TO,-7.7113784,-47.6743925,5,107.94473
1,Barra do Piraí/RJ,-22.4703403,-43.8263256,2743,2722.20237
D1,Barra do Piraí/RJ,-22.4703403,-43.8263256,114,113.13564
1,Barra do Quaraí/RS,-30.208947,-57.5505128,156,3690.56068
D1,Barra do Quaraí/RS,-30.208947,-57.5505128,1,23.65744
1,Barra do Ribeiro/RS,-30.2930206,-51.301437,409,3017.11419
D1,Barra do Ribeiro/RS,-30.2930206,-51.301437,28,206.55060
1,Barra do Rio Azul/RS,-27.4101581,-52.4117471,36,2175.22659
D1,Barra do Rio Azul/RS,-27.4101581,-52.4117471,1,60.42296
1,Barra do Rocha/BA,-14.2090974,-39.6004395,184,3278.68852
D1,Barra do Rocha/BA,-14.2090974,-39.6004395,3,53.45688
1,Barra do Turvo/SP,-24.756421,-48.5056942,279,3655.66038
D1,Barra do Turvo/SP,-24.756421,-48.5056942,7,91.71908
1,Barra dos Coqueiros/SE,-10.9075694,-37.0386249,2916,9427.74006
D1,Barra dos Coqueiros/SE,-10.9075694,-37.0386249,35,113.15875
1,Barra/BA,-11.0892702,-43.1420453,733,1359.67353
D1,Barra/BA,-11.0892702,-43.1420453,13,24.11426
1,Barracão/PR,-26.252395,-53.6349576,382,3704.42203
D1,Barracão/PR,-26.252395,-53.6349576,7,67.88208
1,Barracão/RS,-27.6728964,-51.4582928,179,3405.63166
D1,Barracão/RS,-27.6728964,-51.4582928,4,76.10350
1,Barras/PI,-4.2446153,-42.2920241,3265,6919.57190
D1,Barras/PI,-4.2446153,-42.2920241,61,129.27837
1,Barreira/CE,-4.2883361,-38.641094,380,1683.42710
D1,Barreira/CE,-4.2883361,-38.641094,21,93.03150
1,Barreiras do Piauí/PI,-9.9224524,-45.4763776,41,1223.15036
D1,Barreiras do Piauí/PI,-9.9224524,-45.4763776,1,29.83294
1,Barreiras/BA,-12.1440031,-44.9967406,8063,5136.48670
D1,Barreiras/BA,-12.1440031,-44.9967406,108,68.80076
1,Barreirinha/AM,-2.798863,-57.067897,1696,5221.19262
D1,Barreirinha/AM,-2.798863,-57.067897,31,95.43453
1,Barreirinhas/MA,-2.7541271,-42.8259693,1372,2170.30229
D1,Barreirinhas/MA,-2.7541271,-42.8259693,28,44.29188
1,Barreiros/PE,-8.8159644,-35.1831905,377,881.58264
D1,Barreiros/PE,-8.8159644,-35.1831905,42,98.21345
1,Barretos/SP,-20.5531437,-48.5697509,6900,5617.38295
D1,Barretos/SP,-20.5531437,-48.5697509,165,134.32872
1,Barrinha/SP,-21.1898849,-48.1550642,873,2631.10307
D1,Barrinha/SP,-21.1898849,-48.1550642,34,102.47137
1,Barro Alto/BA,-11.7618025,-41.9094904,554,3680.08503
D1,Barro Alto/BA,-11.7618025,-41.9094904,4,26.57101
1,Barro Alto/GO,-14.9696025,-48.9190985,653,5724.05330
D1,Barro Alto/GO,-14.9696025,-48.9190985,8,70.12623
1,Barro Duro/PI,-5.8180139,-42.5106589,467,6645.79479
D1,Barro Duro/PI,-5.8180139,-42.5106589,7,99.61577
1,Barro Preto/BA,-14.8068289,-39.4727588,358,6571.21880
D1,Barro Preto/BA,-14.8068289,-39.4727588,6,110.13216
1,Barro/CE,-7.1713587,-38.7742136,508,2232.18209
D1,Barro/CE,-7.1713587,-38.7742136,10,43.94059
1,Barrocas/BA,-11.5165,-39.099282894736845,266,1651.66097
D1,Barrocas/BA,-11.5165,-39.099282894736845,4,24.83701
1,Barrolândia/TO,-9.837246,-48.7264346,267,4724.82746
D1,Barrolândia/TO,-9.837246,-48.7264346,4,70.78393
1,Barroquinha/CE,-3.0200371,-41.1339229,828,5503.85536
D1,Barroquinha/CE,-3.0200371,-41.1339229,20,132.94337
1,Barros Cassal/RS,-29.094938,-52.5832366,254,2271.50778
D1,Barros Cassal/RS,-29.094938,-52.5832366,2,17.88589
1,Barroso/MG,-21.187222,-43.976111,417,1995.50175
D1,Barroso/MG,-21.187222,-43.976111,4,19.14150
1,Barueri/SP,-23.5112184,-46.8764612,12988,4689.11337
D1,Barueri/SP,-23.5112184,-46.8764612,478,172.57439
1,Barão de Antonina/SP,-23.6295651,-49.5632104,39,1114.92281
D1,Barão de Antonina/SP,-23.6295651,-49.5632104,1,28.58776
1,Barão de Cocais/MG,-19.9452437,-43.4870298,1252,3809.40790
D1,Barão de Cocais/MG,-19.9452437,-43.4870298,10,30.42658
1,Barão de Cotegipe/RS,-27.6214694,-52.3765316,322,4864.04834
D1,Barão de Cotegipe/RS,-27.6214694,-52.3765316,4,60.42296
1,Barão de Grajaú/MA,-6.7542591,-43.0263477,27,142.67597
D1,Barão de Grajaú/MA,-6.7542591,-43.0263477,1,5.28430
1,Barão de Melgaço/MT,-16.195776,-55.9668049,167,2045.56590
D1,Barão de Melgaço/MT,-16.195776,-55.9668049,6,73.49339
1,Barão de Monte Alto/MG,-21.244722,-42.2375,130,2428.09115
D1,Barão de Monte Alto/MG,-21.244722,-42.2375,6,112.06575
1,Barão do Triunfo/RS,-30.3909877,-51.7375349,186,2473.73321
D1,Barão do Triunfo/RS,-30.3909877,-51.7375349,1,13.29964
1,Barão/RS,-29.372474,-51.494908,236,3805.22412
D1,Barão/RS,-29.372474,-51.494908,4,64.49532
1,Bastos/SP,-21.9222474,-50.7317727,290,1384.05002
D1,Bastos/SP,-21.9222474,-50.7317727,9,42.95328
1,Bataguassu/MS,-21.715899,-52.422058,1504,6448.01715
D1,Bataguassu/MS,-21.715899,-52.422058,16,68.59593
1,Batalha/AL,-9.6733809,-37.1265481,679,3702.69386
D1,Batalha/AL,-9.6733809,-37.1265481,12,65.43789
1,Batalha/PI,-4.022391,-42.0780926,503,1869.54098
D1,Batalha/PI,-4.022391,-42.0780926,12,44.60138
1,Batatais/SP,-20.892867,-47.592149,1087,1725.94474
D1,Batatais/SP,-20.892867,-47.592149,36,57.16100
1,Batayporã/MS,-22.2976466,-53.2685608,401,3533.35096
D1,Batayporã/MS,-22.2976466,-53.2685608,7,61.67944
1,Baturité/CE,-4.3290203,-38.8821055,868,2415.06914
D1,Baturité/CE,-4.3290203,-38.8821055,33,91.81714
1,Bauru/SP,-22.3218102,-49.0705863,21548,5681.03623
D1,Bauru/SP,-22.3218102,-49.0705863,338,89.11223
1,Bayeux/PB,-7.1301631,-34.936532,2771,2850.73506
D1,Bayeux/PB,-7.1301631,-34.936532,133,136.82705
1,Baía Formosa/RN,-6.3691885,-35.0063741,198,2124.00772
D1,Baía Formosa/RN,-6.3691885,-35.0063741,6,64.36387
1,Baía da Traição/PB,-6.691258,-34.9371244,943,10367.19437
D1,Baía da Traição/PB,-6.691258,-34.9371244,8,87.95075
1,Bebedouro/SP,-20.949077,-48.479083,1962,2529.81755
D1,Bebedouro/SP,-20.949077,-48.479083,40,51.57630
1,Beberibe/CE,-4.1810469,-38.1298101,1385,2567.23943
D1,Beberibe/CE,-4.1810469,-38.1298101,31,57.46168
1,Bela Cruz/CE,-3.0529129,-40.167582,1396,4266.24289
D1,Bela Cruz/CE,-3.0529129,-40.167582,24,73.34515
1,Bela Vista da Caroba/PR,-25.8792818,-53.6672545,70,2024.87706
D1,Bela Vista da Caroba/PR,-25.8792818,-53.6672545,1,28.92682
1,Bela Vista de Goiás/GO,-16.9692949,-48.9513071,1278,4191.26328
D1,Bela Vista de Goiás/GO,-16.9692949,-48.9513071,22,72.15007
1,Bela Vista de Minas/MG,-19.8289721,-43.0973688,286,2786.98110
D1,Bela Vista de Minas/MG,-19.8289721,-43.0973688,7,68.21282
1,Bela Vista do Maranhão/MA,-3.7416367,-45.2514192,155,1374.23530
D1,Bela Vista do Maranhão/MA,-3.7416367,-45.2514192,8,70.92827
1,Bela Vista do Paraíso/PR,-22.9948493,-51.1907996,511,3318.39730
D1,Bela Vista do Paraíso/PR,-22.9948493,-51.1907996,9,58.44535
1,Bela Vista do Piauí/PI,-7.9716353,-41.8715061,199,4937.96526
D1,Bela Vista do Piauí/PI,-7.9716353,-41.8715061,4,99.25558
1,Bela Vista do Toldo/SC,-26.274625,-50.466354,32,502.98648
D1,Bela Vista do Toldo/SC,-26.274625,-50.466354,1,15.71833
1,Bela Vista/MS,-22.107327,-56.5317344,221,893.47079
D1,Bela Vista/MS,-22.107327,-56.5317344,8,32.34283
1,Belford Roxo/RJ,-22.7667284,-43.4033603,15884,3095.58425
D1,Belford Roxo/RJ,-22.7667284,-43.4033603,402,78.34455
1,Belmiro Braga/MG,-21.9486291,-43.413564,71,2072.99270
D1,Belmiro Braga/MG,-21.9486291,-43.413564,3,87.59124
1,Belmonte/BA,-15.8630837,-38.8792845,734,3131.80015
D1,Belmonte/BA,-15.8630837,-38.8792845,6,25.60055
1,Belmonte/SC,-26.8448262,-53.578916,68,2510.15135
D1,Belmonte/SC,-26.8448262,-53.578916,1,36.91399
1,Belo Campo/BA,-15.0338286,-41.2585109,277,1619.03092
D1,Belo Campo/BA,-15.0338286,-41.2585109,3,17.53463
1,Belo Horizonte/MG,-19.9227318,-43.9450948,81654,3238.22834
D1,Belo Horizonte/MG,-19.9227318,-43.9450948,2182,86.53360
1,Belo Jardim/PE,-8.3338293,-36.4176419,1475,1923.40292
D1,Belo Jardim/PE,-8.3338293,-36.4176419,41,53.46408
1,Belo Monte/AL,-9.8269944,-37.2787165,200,2980.62593
D1,Belo Monte/AL,-9.8269944,-37.2787165,6,89.41878
1,Belo Oriente/MG,-19.2232523,-42.4807033,1264,4682.52204
D1,Belo Oriente/MG,-19.2232523,-42.4807033,24,88.90865
1,Belo Vale/MG,-20.407778,-44.024167,232,3005.57067
D1,Belo Vale/MG,-20.407778,-44.024167,6,77.73028
1,Belterra/PA,-2.636091,-54.937392,564,3161.61220
D1,Belterra/PA,-2.636091,-54.937392,14,78.47974
1,Belágua/MA,-3.1604031,-43.5085052,279,3706.16366
D1,Belágua/MA,-3.1604031,-43.5085052,2,26.56748
1,Belém de Maria/PE,-8.6242497,-35.8388934,116,956.93780
D1,Belém de Maria/PE,-8.6242497,-35.8388934,3,24.74839
1,Belém do Brejo do Cruz/PB,-6.1880727,-37.5332267,399,5429.31011
D1,Belém do Brejo do Cruz/PB,-6.1880727,-37.5332267,5,68.03647
1,Belém do Piauí/PI,-7.3767305,-40.9712156,293,8168.38584
D1,Belém do Piauí/PI,-7.3767305,-40.9712156,4,111.51380
1,Belém do São Francisco/PE,-8.7517707,-38.9625715,216,1041.96816
1,Belém/AL,-9.5715351,-36.492841,73,1704.01494
D1,Belém/AL,-9.5715351,-36.492841,3,70.02801
1,Belém/PA,-1.45056,-48.4682453,64229,4282.95839
D1,Belém/PA,-1.45056,-48.4682453,2543,169.57392
1,Belém/PB,-6.6967586,-35.5369626,1206,6811.63513
D1,Belém/PB,-6.6967586,-35.5369626,19,107.31432
1,Beneditinos/PI,-5.4565671,-42.3605061,413,3943.47369
D1,Beneditinos/PI,-5.4565671,-42.3605061,15,143.22544
1,Benedito Leite/MA,-7.2173453,-44.5523331,238,4221.35509
D1,Benedito Leite/MA,-7.2173453,-44.5523331,2,35.47357
1,Benedito Novo/SC,-26.7840657,-49.3629511,502,4263.26964
D1,Benedito Novo/SC,-26.7840657,-49.3629511,5,42.46285
1,Benevides/PA,-1.3555577,-48.252235,2310,3622.50659
D1,Benevides/PA,-1.3555577,-48.252235,51,79.97742
1,Benjamin Constant do Sul/RS,-27.5105555,-52.6007689,127,6486.21042
1,Benjamin Constant/AM,-4.3782748,-70.0290603,2074,4720.60999
D1,Benjamin Constant/AM,-4.3782748,-70.0290603,48,109.25230
1,Bento Fernandes/RN,-5.6926846,-35.8207423,42,760.18100
D1,Bento Fernandes/RN,-5.6926846,-35.8207423,2,36.19910
1,Bento Gonçalves/RS,-29.1654014,-51.5197627,7846,6441.54906
D1,Bento Gonçalves/RS,-29.1654014,-51.5197627,156,128.07566
1,Bento de Abreu/SP,-21.2707225,-50.8120444,86,2861.89684
1,Bequimão/MA,-2.4495376,-44.7884889,246,1154.98380
D1,Bequimão/MA,-2.4495376,-44.7884889,12,56.34067
1,Berilo/MG,-16.9515764,-42.4643732,10,84.23181
1,Berizal/MG,-15.6118785,-41.7417382,29,608.73216
1,Bernardino Batista/PB,-6.4532173,-38.5495418,166,4694.57014
1,Bernardino de Campos/SP,-23.0140216,-49.4760724,172,1541.49489
D1,Bernardino de Campos/SP,-23.0140216,-49.4760724,6,53.77308
1,Bernardo Sayão/TO,-7.8794244,-48.8968905,129,2900.17986
D1,Bernardo Sayão/TO,-7.8794244,-48.8968905,4,89.92806
1,Bernardo do Mearim/MA,-4.6315929,-44.7617508,147,2420.54998
D1,Bernardo do Mearim/MA,-4.6315929,-44.7617508,3,49.39898
1,Bertioga/SP,-23.848568,-46.139586,2687,4151.53809
D1,Bertioga/SP,-23.848568,-46.139586,55,84.97752
1,Bertolínia/PI,-7.6372159,-43.9540611,570,10350.46305
D1,Bertolínia/PI,-7.6372159,-43.9540611,6,108.95224
1,Bertópolis/MG,-17.063333,-40.573889,207,4493.16258
1,Beruri/AM,-3.9007135,-61.3717319,1523,7579.75414
D1,Beruri/AM,-3.9007135,-61.3717319,18,89.58344
1,Betim/MG,-19.968056,-44.198333,13079,2940.52844
D1,Betim/MG,-19.968056,-44.198333,372,83.63610
1,Betânia do Piauí/PI,-8.1460635,-40.7961387,91,1465.37842
D1,Betânia do Piauí/PI,-8.1460635,-40.7961387,2,32.20612
1,Betânia/PE,-8.2742779,-38.0351767,170,1331.76655
D1,Betânia/PE,-8.2742779,-38.0351767,2,15.66784
1,Bezerros/PE,-8.2372132,-35.7558262,1972,3239.15900
D1,Bezerros/PE,-8.2372132,-35.7558262,75,123.19317
1,Bias Fortes/MG,-21.605833,-43.756944,60,1802.34305
D1,Bias Fortes/MG,-21.605833,-43.756944,2,60.07810
1,Bicas/MG,-21.7213723,-43.0604327,413,2837.70785
D1,Bicas/MG,-21.7213723,-43.0604327,12,82.45156
1,Biguaçu/SC,-27.4961277,-48.6542432,6516,9377.42855
D1,Biguaçu/SC,-27.4961277,-48.6542432,69,99.30058
1,Bilac/SP,-21.403962,-50.47464,284,3498.82962
D1,Bilac/SP,-21.403962,-50.47464,6,73.91894
1,Biquinhas/MG,-18.783611,-45.502222,28,1120.89672
1,Birigui/SP,-21.2908491,-50.34144,5737,4593.89989
D1,Birigui/SP,-21.2908491,-50.34144,149,119.31168
1,Biritiba Mirim/SP,-23.5697765,-46.0407456,594,1803.49769
D1,Biritiba Mirim/SP,-23.5697765,-46.0407456,35,106.26670
1,Biritinga/BA,-11.6227908,-38.8066738,141,882.13213
D1,Biritinga/BA,-11.6227908,-38.8066738,2,12.51251
1,Bituruna/PR,-26.161281,-51.5533319,154,939.02439
D1,Bituruna/PR,-26.161281,-51.5533319,1,6.09756
1,Blumenau/SC,-26.9195567,-49.0658025,29653,8194.71888
D1,Blumenau/SC,-26.9195567,-49.0658025,287,79.31354
1,Boa Esperança do Iguaçu/PR,-25.6362851,-53.2139114,93,3765.18219
1,Boa Esperança do Sul/SP,-21.9930206,-48.3917372,348,2317.21934
D1,Boa Esperança do Sul/SP,-21.9930206,-48.3917372,8,53.26941
1,Boa Esperança/ES,-18.5395472,-40.2904088,621,4114.76279
D1,Boa Esperança/ES,-18.5395472,-40.2904088,22,145.77259
1,Boa Esperança/MG,-21.0901253,-45.5660195,901,2240.23471
D1,Boa Esperança/MG,-21.0901253,-45.5660195,24,59.67329
1,Boa Esperança/PR,-24.2411024,-52.7860277,122,3014.57870
D1,Boa Esperança/PR,-24.2411024,-52.7860277,2,49.41932
1,Boa Hora/PI,-4.4094627,-42.1255341,204,2993.39692
1,Boa Nova/BA,-14.365907,-40.2063056,265,2149.40384
D1,Boa Nova/BA,-14.365907,-40.2063056,5,40.55479
1,Boa Ventura de São Roque/PR,-24.88177,-51.5441292,149,2340.92694
D1,Boa Ventura de São Roque/PR,-24.88177,-51.5441292,2,31.42184
1,Boa Ventura/PB,-7.4202462,-38.2156782,154,2901.82777
D1,Boa Ventura/PB,-7.4202462,-38.2156782,3,56.52911
1,Boa Viagem/CE,-5.1261877,-39.7300055,1629,2984.77381
D1,Boa Viagem/CE,-5.1261877,-39.7300055,42,76.95549
1,Boa Vista da Aparecida/PR,-25.4357216,-53.4067721,337,4469.49602
D1,Boa Vista da Aparecida/PR,-25.4357216,-53.4067721,9,119.36340
1,Boa Vista das Missões/RS,-27.6677983,-53.3127622,33,1577.43786
1,Boa Vista do Buricá/RS,-27.6687782,-54.1111913,301,4484.50536
D1,Boa Vista do Buricá/RS,-27.6687782,-54.1111913,4,59.59476
1,Boa Vista do Cadeado/RS,-28.5783827,-53.8123759,75,3038.89789
1,Boa Vista do Gurupi/MA,-1.7981168,-46.3071882,14,167.02458
D1,Boa Vista do Gurupi/MA,-1.7981168,-46.3071882,3,35.79098
1,Boa Vista do Incra/RS,-28.8195551,-53.3866624,64,2446.48318
D1,Boa Vista do Incra/RS,-28.8195551,-53.3866624,1,38.22630
1,Boa Vista do Ramos/AM,-2.9716927,-57.5869819,675,3439.31519
D1,Boa Vista do Ramos/AM,-2.9716927,-57.5869819,10,50.95282
1,Boa Vista do Sul/RS,-29.3510488,-51.6779679,120,4319.65443
D1,Boa Vista do Sul/RS,-29.3510488,-51.6779679,2,71.99424
1,Boa Vista do Tupim/BA,-12.6605988,-40.6083594,146,787.86898
D1,Boa Vista do Tupim/BA,-12.6605988,-40.6083594,2,10.79273
1,Boa Vista/PB,-7.2620711,-36.2415161,176,2466.36771
D1,Boa Vista/PB,-7.2620711,-36.2415161,2,28.02691
1,Boa Vista/RR,2.8208478,-60.6719582,54513,12990.04890
D1,Boa Vista/RR,2.8208478,-60.6719582,596,142.02244
1,Boca da Mata/AL,-9.6452054,-36.2116658,1306,4774.08978
D1,Boca da Mata/AL,-9.6452054,-36.2116658,26,95.04313
1,Boca do Acre/AM,-8.7553487,-67.3930873,2150,6207.59347
D1,Boca do Acre/AM,-8.7553487,-67.3930873,18,51.97055
1,Bocaina de Minas/MG,-22.167778,-44.394722,58,1139.71311
D1,Bocaina de Minas/MG,-22.167778,-44.394722,2,39.30045
1,Bocaina do Sul/SC,-27.745494,-49.942279,283,8113.53211
D1,Bocaina do Sul/SC,-27.745494,-49.942279,3,86.00917
1,Bocaina/PI,-6.9445939,-41.3224599,183,4062.15316
D1,Bocaina/PI,-6.9445939,-41.3224599,3,66.59267
1,Bocaina/SP,-22.1421831,-48.522276,365,2931.25602
D1,Bocaina/SP,-22.1421831,-48.522276,5,40.15419
1,Bocaiúva do Sul/PR,-25.206591,-49.114131,632,4813.77104
D1,Bocaiúva do Sul/PR,-25.206591,-49.114131,3,22.85018
1,Bocaiúva/MG,-17.1160208,-43.8122678,712,1416.74626
D1,Bocaiúva/MG,-17.1160208,-43.8122678,10,19.89812
1,Bodocó/PE,-7.777592,-39.933797,1200,3126.79139
D1,Bodocó/PE,-7.777592,-39.933797,15,39.08489
1,Bodoquena/MS,-20.5508775,-56.6769653,93,1186.52718
D1,Bodoquena/MS,-20.5508775,-56.6769653,2,25.51671
1,Bodó/RN,-5.9866104,-36.4134824,56,2548.93036
1,Bofete/SP,-23.1019554,-48.2610535,252,2113.91662
D1,Bofete/SP,-23.1019554,-48.2610535,4,33.55423
1,Boituva/SP,-23.2838893,-47.6738231,2288,3680.23162
D1,Boituva/SP,-23.2838893,-47.6738231,37,59.51424
1,Bom Conselho/PE,-9.169191,-36.685683,961,1970.59487
D1,Bom Conselho/PE,-9.169191,-36.685683,29,59.46644
1,Bom Despacho/MG,-19.7375242,-45.2517288,1759,3447.12707
D1,Bom Despacho/MG,-19.7375242,-45.2517288,31,60.75096
1,Bom Jardim da Serra/SC,-28.3380324,-49.625588,479,10037.72003
D1,Bom Jardim da Serra/SC,-28.3380324,-49.625588,2,41.91115
1,Bom Jardim de Goiás/GO,-16.2062659,-52.172793,189,2131.01815
D1,Bom Jardim de Goiás/GO,-16.2062659,-52.172793,4,45.10091
1,Bom Jardim de Minas/MG,-21.9476466,-44.1906033,101,1563.70955
1,Bom Jardim/MA,-3.54129,-45.606004,1001,2393.47712
D1,Bom Jardim/MA,-3.54129,-45.606004,29,69.34149
1,Bom Jardim/PE,-7.7961572,-35.5871696,799,1998.34930
D1,Bom Jardim/PE,-7.7961572,-35.5871696,34,85.03614
1,Bom Jardim/RJ,-22.1515328,-42.4186683,540,1955.38818
D1,Bom Jardim/RJ,-22.1515328,-42.4186683,5,18.10545
1,Bom Jesus da Lapa/BA,-13.250571,-43.410754,1448,2078.60814
D1,Bom Jesus da Lapa/BA,-13.250571,-43.410754,18,25.83905
1,Bom Jesus da Penha/MG,-21.0165299,-46.5226644,140,3298.77474
D1,Bom Jesus da Penha/MG,-21.0165299,-46.5226644,1,23.56268
1,Bom Jesus da Serra/BA,-14.3724084,-40.5047119,254,2585.76810
1,Bom Jesus das Selvas/MA,-4.4878075,-46.8526639,1954,5652.79023
D1,Bom Jesus das Selvas/MA,-4.4878075,-46.8526639,18,52.07279
1,Bom Jesus de Goiás/GO,-18.2174587,-49.739721,1119,4362.91329
D1,Bom Jesus de Goiás/GO,-18.2174587,-49.739721,32,124.76606
1,Bom Jesus do Amparo/MG,-19.7045132,-43.4752911,72,1173.97685
D1,Bom Jesus do Amparo/MG,-19.7045132,-43.4752911,2,32.61047
1,Bom Jesus do Araguaia/MT,-12.1725897,-51.5074425,257,3832.38891
D1,Bom Jesus do Araguaia/MT,-12.1725897,-51.5074425,1,14.91202
1,Bom Jesus do Galho/MG,-19.8283191,-42.3162256,272,1830.17091
D1,Bom Jesus do Galho/MG,-19.8283191,-42.3162256,8,53.82856
1,Bom Jesus do Itabapoana/RJ,-21.1341025,-41.680095,1500,4031.93291
D1,Bom Jesus do Itabapoana/RJ,-21.1341025,-41.680095,34,91.39048
1,Bom Jesus do Norte/ES,-21.1254776,-41.6711646,677,6795.82413
D1,Bom Jesus do Norte/ES,-21.1254776,-41.6711646,14,140.53403
1,Bom Jesus do Oeste/SC,-26.6929713,-53.0967453,71,3319.30809
D1,Bom Jesus do Oeste/SC,-26.6929713,-53.0967453,1,46.75082
1,Bom Jesus do Sul/PR,-26.1922507,-53.6002033,114,3251.56874
D1,Bom Jesus do Sul/PR,-26.1922507,-53.6002033,2,57.04507
1,Bom Jesus do Tocantins/PA,-5.0471796,-48.5978362,440,2570.39374
D1,Bom Jesus do Tocantins/PA,-5.0471796,-48.5978362,5,29.20902
1,Bom Jesus do Tocantins/TO,-8.96306,-48.165043,102,2036.74121
1,Bom Jesus dos Perdões/SP,-23.1353864,-46.4648052,654,2516.83664
D1,Bom Jesus dos Perdões/SP,-23.1353864,-46.4648052,6,23.09024
1,Bom Jesus/PB,-6.8156725,-38.6551841,76,2951.45631
D1,Bom Jesus/PB,-6.8156725,-38.6551841,3,116.50485
1,Bom Jesus/PI,-9.0711644,-44.3583926,2085,8212.86485
D1,Bom Jesus/PI,-9.0711644,-44.3583926,24,94.53657
1,Bom Jesus/RN,-5.9887544,-35.5821149,363,3535.59949
D1,Bom Jesus/RN,-5.9887544,-35.5821149,6,58.43966
1,Bom Jesus/RS,-28.6692723,-50.4346894,396,3501.63587
D1,Bom Jesus/RS,-28.6692723,-50.4346894,9,79.58263
1,Bom Jesus/SC,-26.7350604,-52.3916519,148,4841.34773
D1,Bom Jesus/SC,-26.7350604,-52.3916519,3,98.13543
1,Bom Lugar/MA,-4.3728019,-45.0366054,306,1861.54033
D1,Bom Lugar/MA,-4.3728019,-45.0366054,5,30.41733
1,Bom Princípio do Piauí/PI,-3.1912777,-41.6430185,44,778.62325
D1,Bom Princípio do Piauí/PI,-3.1912777,-41.6430185,3,53.08795
1,Bom Princípio/RS,-29.489788,-51.3566782,783,5492.80954
D1,Bom Princípio/RS,-29.489788,-51.3566782,10,70.15082
1,Bom Progresso/RS,-27.5490948,-53.8655601,32,1685.09742
1,Bom Repouso/MG,-22.4657069,-46.1485376,239,2268.19778
D1,Bom Repouso/MG,-22.4657069,-46.1485376,8,75.92294
1,Bom Retiro do Sul/RS,-29.6000007,-51.9359243,492,3970.94431
D1,Bom Retiro do Sul/RS,-29.6000007,-51.9359243,8,64.56820
1,Bom Retiro/SC,-27.798993,-49.486994,324,3220.67594
D1,Bom Retiro/SC,-27.798993,-49.486994,7,69.58250
1,Bom Sucesso de Itararé/SP,-24.3190016,-49.1446207,47,1179.71888
D1,Bom Sucesso de Itararé/SP,-24.3190016,-49.1446207,4,100.40161
1,Bom Sucesso do Sul/PR,-26.0749256,-52.8348629,123,3779.96312
D1,Bom Sucesso do Sul/PR,-26.0749256,-52.8348629,2,61.46281
1,Bom Sucesso/MG,-21.0323516,-44.7598082,149,846.25433
D1,Bom Sucesso/MG,-21.0323516,-44.7598082,1,5.67956
1,Bom Sucesso/PB,-6.4458948,-37.9297662,71,1432.60694
1,Bom Sucesso/PR,-23.7088019,-51.7651297,221,3126.76853
D1,Bom Sucesso/PR,-23.7088019,-51.7651297,3,42.44482
1,Bombinhas/SC,-27.1519159,-48.4875691,2466,12126.87485
D1,Bombinhas/SC,-27.1519159,-48.4875691,24,118.02311
1,Bonfim do Piauí/PI,-9.1648678,-42.8734415,158,2779.24362
D1,Bonfim do Piauí/PI,-9.1648678,-42.8734415,2,35.18030
1,Bonfim/MG,-20.3266626, -44.2386157,159,2317.78426
D1,Bonfim/MG,-20.3266626, -44.2386157,3,43.73178
1,Bonfim/RR,3.3613818,-59.8427241,1352,10766.90292
D1,Bonfim/RR,3.3613818,-59.8427241,15,119.45528
1,Bonfinópolis de Minas/MG,-16.5660011,-45.98645,205,3765.61352
D1,Bonfinópolis de Minas/MG,-16.5660011,-45.98645,9,165.31962
1,Bonfinópolis/GO,-16.6172709,-48.9615701,393,3962.09295
D1,Bonfinópolis/GO,-16.6172709,-48.9615701,11,110.89828
1,Boninal/BA,-12.7095183,-41.8299984,339,2346.67036
D1,Boninal/BA,-12.7095183,-41.8299984,4,27.68933
1,Bonito de Minas/MG,-15.3191266,-44.7544,7,61.57094
1,Bonito de Santa Fé/PB,-7.3143332,-38.5146677,322,2678.42289
D1,Bonito de Santa Fé/PB,-7.3143332,-38.5146677,11,91.49892
1,Bonito/BA,-11.9665473,-41.2649896,440,2606.01753
D1,Bonito/BA,-11.9665473,-41.2649896,3,17.76830
1,Bonito/MS,-21.1264766,-56.4902208,1295,5835.96215
D1,Bonito/MS,-21.1264766,-56.4902208,20,90.13069
1,Bonito/PA,-1.3605722,-47.3049907,318,1923.77495
D1,Bonito/PA,-1.3605722,-47.3049907,10,60.49607
1,Bonito/PE,-8.4721161,-35.7314591,461,1209.43411
D1,Bonito/PE,-8.4721161,-35.7314591,28,73.45804
1,Bonópolis/GO,-13.649331,-49.8329113,87,1936.34543
D1,Bonópolis/GO,-13.649331,-49.8329113,1,22.25684
1,Boqueirão do Leão/RS,-29.30332,-52.4296817,184,2388.98987
D1,Boqueirão do Leão/RS,-29.30332,-52.4296817,5,64.91820
1,Boqueirão do Piauí/PI,-4.4850148,-42.1095161,273,4248.36601
D1,Boqueirão do Piauí/PI,-4.4850148,-42.1095161,2,31.12356
1,Boqueirão/PB,-7.487004,-36.130887,923,5165.08114
D1,Boqueirão/PB,-7.487004,-36.130887,11,61.55568
1,Boquim/SE,-11.1450175,-37.6204228,1035,3847.72668
D1,Boquim/SE,-11.1450175,-37.6204228,25,92.94026
1,Boquira/BA,-12.8184859,-42.7270883,312,1451.36531
D1,Boquira/BA,-12.8184859,-42.7270883,4,18.60725
1,Boracéia/SP,-22.195355,-48.7801925,205,4211.17502
D1,Boracéia/SP,-22.195355,-48.7801925,3,61.62695
1,Borba/AM,-4.3934778,-59.5947721,1128,2701.92584
D1,Borba/AM,-4.3934778,-59.5947721,36,86.23168
1,Borborema/PB,-6.8066718,-35.5990191,96,1815.77454
D1,Borborema/PB,-6.8066718,-35.5990191,1,18.91432
1,Borborema/SP,-21.6212706,-49.074135,423,2616.92650
D1,Borborema/SP,-21.6212706,-49.074135,11,68.05246
1,Borda da Mata/MG,-22.274167,-46.165278,603,3074.33466
D1,Borda da Mata/MG,-22.274167,-46.165278,18,91.77118
1,Borebi/SP,-22.5700178,-48.9714871,78,2907.19344
D1,Borebi/SP,-22.5700178,-48.9714871,2,74.54342
1,Borrazópolis/PR,-23.9393362,-51.5850786,356,5528.80882
D1,Borrazópolis/PR,-23.9393362,-51.5850786,9,139.77326
1,Borá/SP,-22.2701088,-50.544407,10,1193.31742
1,Bossoroca/RS,-28.7278885,-54.9120278,116,1869.46011
D1,Bossoroca/RS,-28.7278885,-54.9120278,3,48.34811
1,Botelhos/MG,-21.65,-46.394722,313,2093.78554
D1,Botelhos/MG,-21.65,-46.394722,4,26.75764
1,Botucatu/SP,-22.8879628,-48.4410712,5416,3656.24789
D1,Botucatu/SP,-22.8879628,-48.4410712,70,47.25579
1,Botumirim/MG,-16.862778,-43.011111,49,779.26209
1,Botuporã/BA,-13.3744752,-42.5198469,55,542.99536
D1,Botuporã/BA,-13.3744752,-42.5198469,1,9.87264
1,Botuverá/SC,-27.200749,-49.068892,551,10353.25066
D1,Botuverá/SC,-27.200749,-49.068892,3,56.36979
1,Bozano/RS,-28.3669953,-53.7705165,59,2794.88394
1,Braga/RS,-27.617348,-53.740514,79,2385.98611
D1,Braga/RS,-27.617348,-53.740514,2,60.40471
1,Braganey/PR,-24.8179919,-53.118506,127,2359.71758
D1,Braganey/PR,-24.8179919,-53.118506,2,37.16091
1,Bragança Paulista/SP,-22.9520235,-46.5418586,5912,3466.77769
D1,Bragança Paulista/SP,-22.9520235,-46.5418586,104,60.98526
1,Bragança/PA,-1.0573967,-46.7635406,3085,2393.06825
D1,Bragança/PA,-1.0573967,-46.7635406,101,78.34680
1,Branquinha/AL,-9.2478057,-36.0152009,278,2657.74379
D1,Branquinha/AL,-9.2478057,-36.0152009,6,57.36138
1,Brasil Novo/PA,-3.3055853,-52.539198,821,5479.54348
D1,Brasil Novo/PA,-3.3055853,-52.539198,17,113.46192
1,Brasileira/PI,-4.131182,-41.7824969,281,3366.47897
D1,Brasileira/PI,-4.131182,-41.7824969,5,59.90176
1,Brasilândia de Minas/MG,-17.0096469,-46.0087183,578,3451.15835
D1,Brasilândia de Minas/MG,-17.0096469,-46.0087183,3,17.91259
1,Brasilândia do Sul/PR,-24.1975793,-53.527551,121,4680.85106
D1,Brasilândia do Sul/PR,-24.1975793,-53.527551,1,38.68472
1,Brasilândia do Tocantins/TO,-8.3886619,-48.4842729,70,3165.98824
D1,Brasilândia do Tocantins/TO,-8.3886619,-48.4842729,1,45.22840
1,Brasilândia/MS,-21.255575,-52.0365617,237,1999.49380
D1,Brasilândia/MS,-21.255575,-52.0365617,5,42.18341
1,Brasiléia/AC,-11.0010413,-68.7487894,1550,5804.80863
D1,Brasiléia/AC,-11.0010413,-68.7487894,24,89.88091
1,Brasnorte/MT,-12.1227151,-58.0050109,610,3028.79841
D1,Brasnorte/MT,-12.1227151,-58.0050109,6,29.79146
1,Brasília de Minas/MG,-16.2075114,-44.430559,414,1277.58062
D1,Brasília de Minas/MG,-16.2075114,-44.430559,5,15.42972
1,Brasília/DF,-15.7934036,-47.8823172,270171,8843.13662
D1,Brasília/DF,-15.7934036,-47.8823172,4476,146.50677
1,Brazabrantes/GO,-16.4291635,-49.3858216,198,5285.63801
D1,Brazabrantes/GO,-16.4291635,-49.3858216,2,53.39028
1,Brazópolis/MG,-22.4742842,-45.6165577,375,2602.35947
D1,Brazópolis/MG,-22.4742842,-45.6165577,7,48.57738
1,Braço do Norte/SC,-28.2728633,-49.1622712,4748,14015.82241
D1,Braço do Norte/SC,-28.2728633,-49.1622712,40,118.07770
1,Braço do Trombudo/SC,-27.358578,-49.882145,311,8251.52560
D1,Braço do Trombudo/SC,-27.358578,-49.882145,3,79.59671
1,Braúna/SP,-21.5015319,-50.3175246,169,2943.73802
D1,Braúna/SP,-21.5015319,-50.3175246,7,121.92998
1,Braúnas/MG,-19.055556,-42.716111,57,1195.21912
D1,Braúnas/MG,-19.055556,-42.716111,3,62.90627
1,Brejetuba/ES,-20.1465817,-41.2902303,898,7226.20101
D1,Brejetuba/ES,-20.1465817,-41.2902303,2,16.09399
1,Brejinho de Nazaré/TO,-11.0205883,-48.5722906,122,2210.54539
D1,Brejinho de Nazaré/TO,-11.0205883,-48.5722906,5,90.59612
1,Brejinho/PE,-7.3482153,-37.28538,313,4180.02137
D1,Brejinho/PE,-7.3482153,-37.28538,4,53.41880
1,Brejinho/RN,-6.1957907,-35.3583019,489,3824.19645
D1,Brejinho/RN,-6.1957907,-35.3583019,5,39.10221
1,Brejo Alegre/SP,-21.1671191,-50.1850393,148,5122.87989
D1,Brejo Alegre/SP,-21.1671191,-50.1850393,6,207.68432
1,Brejo Grande do Araguaia/PA,-5.7011449,-48.4037308,651,8835.50489
D1,Brejo Grande do Araguaia/PA,-5.7011449,-48.4037308,2,27.14441
1,Brejo Grande/SE,-10.4287358,-36.4667918,231,2765.47348
D1,Brejo Grande/SE,-10.4287358,-36.4667918,9,107.74572
1,Brejo Santo/CE,-7.4909841,-38.9859152,3121,6261.78725
D1,Brejo Santo/CE,-7.4909841,-38.9859152,27,54.17118
1,Brejo da Madre de Deus/PE,-8.1409718,-36.3712527,1185,2313.32357
D1,Brejo da Madre de Deus/PE,-8.1409718,-36.3712527,33,64.42167
1,Brejo de Areia/MA,-4.3316785,-45.5833334,248,2751.27579
D1,Brejo de Areia/MA,-4.3316785,-45.5833334,2,22.18771
1,Brejo do Cruz/PB,-6.32926065,-37.48746163303929,1030,7250.45755
D1,Brejo do Cruz/PB,-6.32926065,-37.48746163303929,12,84.47135
1,Brejo do Piauí/PI,-8.207583,-42.8359849,39,1013.51351
D1,Brejo do Piauí/PI,-8.207583,-42.8359849,3,77.96258
1,Brejo dos Santos/PB,-6.3769367,-37.8243125,129,1995.66832
D1,Brejo dos Santos/PB,-6.3769367,-37.8243125,2,30.94059
1,Brejo/MA,-3.6804397,-42.7529313,705,1923.54915
D1,Brejo/MA,-3.6804397,-42.7529313,18,49.11189
1,Brejolândia/BA,-12.4843845,-43.9611861,126,1186.66416
D1,Brejolândia/BA,-12.4843845,-43.9611861,7,65.92579
1,Brejão/PE,-9.029146,-36.566034,71,790.03004
D1,Brejão/PE,-9.029146,-36.566034,3,33.38155
1,Brejões/BA,-13.1033754,-39.7909837,382,2685.97947
D1,Brejões/BA,-13.1033754,-39.7909837,4,28.12544
1,Breu Branco/PA,-3.7785073,-49.5684795,421,625.25991
D1,Breu Branco/PA,-3.7785073,-49.5684795,27,40.09980
1,Breves/PA,-1.68036,-50.479085,3528,3408.79446
D1,Breves/PA,-1.68036,-50.479085,98,94.68873
1,Britânia/GO,-15.2427599,-51.1602061,272,4692.08211
D1,Britânia/GO,-15.2427599,-51.1602061,1,17.25030
1,Brochier/RS,-29.556766,-51.5963047,111,2174.76489
1,Brodowski/SP,-20.984532,-47.657217,985,3896.82320
D1,Brodowski/SP,-20.984532,-47.657217,26,102.86031
1,Brotas de Macaúbas/BA,-12.0019007,-42.6257506,51,503.45508
1,Brotas/SP,-22.2840884,-48.1267265,269,1091.89804
D1,Brotas/SP,-22.2840884,-48.1267265,8,32.47280
1,Brumadinho/MG,-20.143611,-44.2,1874,4608.27227
D1,Brumadinho/MG,-20.143611,-44.2,24,59.01736
1,Brumado/BA,-14.29507325,-41.659307508575985,4326,6424.59345
D1,Brumado/BA,-14.29507325,-41.659307508575985,38,56.43425
1,Brunópolis/SC,-27.310953,-50.837585,65,2744.93243
1,Brusque/SC,-27.0964628,-48.9136323,14680,10661.70863
D1,Brusque/SC,-27.0964628,-48.9136323,117,84.97411
1,Brás Pires/MG,-20.8483109,-43.2430524,94,2189.61099
D1,Brás Pires/MG,-20.8483109,-43.2430524,4,93.17494
1,Bueno Brandão/MG,-22.441976,-46.3517971,238,2165.40806
D1,Bueno Brandão/MG,-22.441976,-46.3517971,6,54.59012
1,Buenos Aires/PE,-7.7218931,-35.326587,76,576.19409
D1,Buenos Aires/PE,-7.7218931,-35.326587,10,75.81501
1,Buenópolis/MG,-17.8756607,-44.1749365,127,1226.69758
D1,Buenópolis/MG,-17.8756607,-44.1749365,5,48.29518
1,Buerarema/BA,-14.9571177,-39.3008035,844,4610.51022
D1,Buerarema/BA,-14.9571177,-39.3008035,26,142.02994
1,Bugre/MG,-19.4257687,-42.2556,278,6979.66357
D1,Bugre/MG,-19.4257687,-42.2556,8,200.85363
1,Bujari/AC,-9.8309656,-67.9520886,509,4884.83685
D1,Bujari/AC,-9.8309656,-67.9520886,8,76.77543
1,Bujaru/PA,-1.5169239,-48.0410699,802,2725.38825
D1,Bujaru/PA,-1.5169239,-48.0410699,23,78.15951
1,Buri/SP,-23.79849,-48.598924,486,2434.25995
D1,Buri/SP,-23.79849,-48.598924,12,60.10518
1,Buritama/SP,-21.0664017,-50.1448077,1060,6133.90429
D1,Buritama/SP,-21.0664017,-50.1448077,27,156.24096
1,Buriti Alegre/GO,-18.1377879,-49.0404411,444,4681.56896
D1,Buriti Alegre/GO,-18.1377879,-49.0404411,12,126.52889
1,Buriti Bravo/MA,-5.8391884,-43.8367876,1019,4256.65232
D1,Buriti Bravo/MA,-5.8391884,-43.8367876,10,41.77284
1,Buriti de Goiás/GO,-16.180644,-50.4287479,120,4846.52666
D1,Buriti de Goiás/GO,-16.180644,-50.4287479,1,40.38772
1,Buriti do Tocantins/TO,-5.3187439,-48.2256609,314,2731.14726
D1,Buriti do Tocantins/TO,-5.3187439,-48.2256609,1,8.69792
1,Buriti dos Lopes/PI,-3.1776723,-41.8707444,817,4124.80436
D1,Buriti dos Lopes/PI,-3.1776723,-41.8707444,12,60.58464
1,Buriti dos Montes/PI,-5.3136171,-41.0971256,316,3823.81413
D1,Buriti dos Montes/PI,-5.3136171,-41.0971256,2,24.20136
1,Buriti/MA,-3.9430944,-42.9244281,702,2437.66928
D1,Buriti/MA,-3.9430944,-42.9244281,5,17.36232
1,Buriticupu/MA,-4.3227472,-46.4516989,2642,3620.02110
D1,Buriticupu/MA,-4.3227472,-46.4516989,19,26.03346
1,Buritinópolis/GO,-14.4589282,-46.4293104,64,1949.43649
1,Buritirama/BA,-10.7148421,-43.6362327,566,2660.27449
D1,Buritirama/BA,-10.7148421,-43.6362327,12,56.40158
1,Buritirana/MA,-5.5897455,-47.0148915,243,1571.08683
D1,Buritirana/MA,-5.5897455,-47.0148915,9,58.18840
1,Buritis/MG,-15.621389,-46.423889,556,2222.84412
D1,Buritis/MG,-15.621389,-46.423889,6,23.98753
1,Buritis/RO,-10.2054937,-63.8281954,2037,5047.57657
D1,Buritis/RO,-10.2054937,-63.8281954,16,39.64714
1,Buritizal/SP,-20.1933264,-47.7097165,87,1927.33717
D1,Buritizal/SP,-20.1933264,-47.7097165,3,66.45990
1,Buritizeiro/MG,-17.3667765,-44.9647781,480,1706.90943
D1,Buritizeiro/MG,-17.3667765,-44.9647781,13,46.22880
1,Butiá/RS,-30.1256795,-51.9692224,706,3369.60672
D1,Butiá/RS,-30.1256795,-51.9692224,25,119.32035
1,Buíque/PE,-8.6239732,-37.157296,938,1592.01616
D1,Buíque/PE,-8.6239732,-37.157296,13,22.06419
1,Bálsamo/SP,-20.7343722,-49.5807484,717,7845.49732
D1,Bálsamo/SP,-20.7343722,-49.5807484,28,306.37925
0,CASO SEM LOCALIZAÇÃO DEFINIDA/AL,-9.931093434363673,-35.609611600637464,8,0.23971
D0,CASO SEM LOCALIZAÇÃO DEFINIDA/AL,-9.931093434363673,-35.609611600637464,8,0.23971
0,CASO SEM LOCALIZAÇÃO DEFINIDA/BA,-13.415069300066518,-38.14174656569957,7939,53.37838
D0,CASO SEM LOCALIZAÇÃO DEFINIDA/BA,-13.415069300066518,-38.14174656569957,71,0.47737
0,CASO SEM LOCALIZAÇÃO DEFINIDA/CE,-3.3445126297392798,-38.624961942434304,8462,92.66237
D0,CASO SEM LOCALIZAÇÃO DEFINIDA/CE,-3.3445126297392798,-38.624961942434304,1,0.01095
0,CASO SEM LOCALIZAÇÃO DEFINIDA/ES,-20.30989267097039,-39.81745156645774,2237,55.66546
D0,CASO SEM LOCALIZAÇÃO DEFINIDA/ES,-20.30989267097039,-39.81745156645774,75,1.86630
0,CASO SEM LOCALIZAÇÃO DEFINIDA/MG,-19.97049116501593,-43.8852149072783,3765,17.78562
D0,CASO SEM LOCALIZAÇÃO DEFINIDA/MG,-19.97049116501593,-43.8852149072783,119,0.56215
0,CASO SEM LOCALIZAÇÃO DEFINIDA/MT,-15.54791153961863,-56.17143998972475,810,23.24603
D0,CASO SEM LOCALIZAÇÃO DEFINIDA/MT,-15.54791153961863,-56.17143998972475,59,1.69323
0,CASO SEM LOCALIZAÇÃO DEFINIDA/PR,-25.69415946385943,-48.10141676336737,4037,35.30711
D0,CASO SEM LOCALIZAÇÃO DEFINIDA/PR,-25.69415946385943,-48.10141676336737,70,0.61221
D0,CASO SEM LOCALIZAÇÃO DEFINIDA/RN,-5.749310788669161,-34.95302586257457,5,0.14258
0,CASO SEM LOCALIZAÇÃO DEFINIDA/RR,2.813328208465927,-60.663338675861986,1931,318.77259
D0,CASO SEM LOCALIZAÇÃO DEFINIDA/RR,2.813328208465927,-60.663338675861986,7,1.15557
0,CASO SEM LOCALIZAÇÃO DEFINIDA/SC,-27.675643660562308,-48.18313219398259,12112,169.04897
0,CASO SEM LOCALIZAÇÃO DEFINIDA/SP,-24.30968974555485,-46.21366504207253,260,0.56621
1,Caapiranga/AM,-3.3188884,-61.2096404,477,3591.05624
D1,Caapiranga/AM,-3.3188884,-61.2096404,12,90.34104
1,Caaporã/PB,-7.510234,-34.9154114,1187,5406.51332
D1,Caaporã/PB,-7.510234,-34.9154114,19,86.54065
1,Caarapó/MS,-22.6349267,-54.8240903,1594,5210.34224
D1,Caarapó/MS,-22.6349267,-54.8240903,17,55.56827
1,Caatiba/BA,-14.9782759,-40.4092325,467,7197.90382
D1,Caatiba/BA,-14.9782759,-40.4092325,4,61.65228
1,Cabaceiras do Paraguaçu/BA,-12.5377868,-39.1901339,215,1136.90445
D1,Cabaceiras do Paraguaçu/BA,-12.5377868,-39.1901339,1,5.28793
1,Cabaceiras/PB,-7.4899156,-36.2860501,216,3815.58029
1,Cabeceira Grande/MG,-16.0297,-47.0906,97,1388.09388
D1,Cabeceira Grande/MG,-16.0297,-47.0906,2,28.62049
1,Cabeceiras do Piauí/PI,-4.4733665,-42.3098716,271,2549.38852
D1,Cabeceiras do Piauí/PI,-4.4733665,-42.3098716,7,65.85136
1,Cabeceiras/GO,-15.7995459,-46.9264991,112,1391.99602
D1,Cabeceiras/GO,-15.7995459,-46.9264991,3,37.28561
1,Cabedelo/PB,-6.97324,-34.8351609,4554,6622.36247
D1,Cabedelo/PB,-6.97324,-34.8351609,96,139.60184
1,Cabixi/RO,-13.4956065,-60.5424442,364,7016.19121
D1,Cabixi/RO,-13.4956065,-60.5424442,9,173.47726
1,Cabo Frio/RJ,-22.8804369,-42.0189227,6145,2667.35539
D1,Cabo Frio/RJ,-22.8804369,-42.0189227,257,111.55579
1,Cabo Verde/MG,-21.4743338,-46.3964995,179,1271.75844
D1,Cabo Verde/MG,-21.4743338,-46.3964995,3,21.31439
1,Cabo de Santo Agostinho/PE,-8.2838945,-35.0320984,2704,1294.12666
D1,Cabo de Santo Agostinho/PE,-8.2838945,-35.0320984,306,146.45072
1,Cabreúva/SP,-23.3075813,-47.1324417,2054,4073.05320
D1,Cabreúva/SP,-23.3075813,-47.1324417,49,97.16631
1,Cabrobó/PE,-8.5083701,-39.3106961,863,2501.23178
D1,Cabrobó/PE,-8.5083701,-39.3106961,7,20.28809
1,Cabrália Paulista/SP,-22.4562909,-49.3385645,131,3087.43813
1,Cacaulândia/RO,-10.3380043,-62.9007231,196,3126.49545
1,Cacequi/RS,-29.8838059,-54.8273443,107,861.30564
D1,Cacequi/RS,-29.8838059,-54.8273443,2,16.09917
1,Cachoeira Alta/GO,-18.7618269,-50.9432431,823,6497.71041
D1,Cachoeira Alta/GO,-18.7618269,-50.9432431,12,94.74183
1,Cachoeira Dourada/GO,-18.4934204,-49.481062,186,2316.02540
D1,Cachoeira Dourada/GO,-18.4934204,-49.481062,3,37.35525
1,Cachoeira Dourada/MG,-18.517136,-49.5002062,76,2808.57354
1,Cachoeira Grande/MA,-2.9290492,-44.0573223,187,1972.99008
D1,Cachoeira Grande/MA,-2.9290492,-44.0573223,4,42.20300
1,Cachoeira Paulista/SP,-22.666498,-45.015384,656,1953.48560
D1,Cachoeira Paulista/SP,-22.666498,-45.015384,19,56.57961
1,Cachoeira da Prata/MG,-19.524723,-44.453056,168,4678.36257
D1,Cachoeira da Prata/MG,-19.524723,-44.453056,2,55.69479
1,Cachoeira de Goiás/GO,-16.6688414,-50.6435997,26,1937.40686
1,Cachoeira de Minas/MG,-22.3554043,-45.7796324,317,2737.71483
D1,Cachoeira de Minas/MG,-22.3554043,-45.7796324,3,25.90897
1,Cachoeira de Pajeú/MG,-15.965833,-41.496666,293,3103.15611
D1,Cachoeira de Pajeú/MG,-15.965833,-41.496666,3,31.77293
1,Cachoeira do Arari/PA,-1.0143572,-48.9621089,339,1408.74335
D1,Cachoeira do Arari/PA,-1.0143572,-48.9621089,13,54.02261
1,Cachoeira do Piriá/PA,-1.7599443,-46.5446954,542,1566.06663
D1,Cachoeira do Piriá/PA,-1.7599443,-46.5446954,3,8.66827
1,Cachoeira do Sul/RS,-30.0474778,-52.8905413,2305,2815.47350
D1,Cachoeira do Sul/RS,-30.0474778,-52.8905413,30,36.64391
1,Cachoeira dos Índios/PB,-6.9259193,-38.6742159,326,3163.51286
D1,Cachoeira dos Índios/PB,-6.9259193,-38.6742159,10,97.04027
1,Cachoeira/BA,-12.5998256,-38.9665918,657,1957.27947
D1,Cachoeira/BA,-12.5998256,-38.9665918,12,35.74940
1,Cachoeiras de Macacu/RJ,-22.4626861,-42.6534414,1366,2303.42478
D1,Cachoeiras de Macacu/RJ,-22.4626861,-42.6534414,46,77.56775
1,Cachoeirinha/PE,-8.4906364,-36.2338963,325,1585.28852
D1,Cachoeirinha/PE,-8.4906364,-36.2338963,22,107.31184
1,Cachoeirinha/RS,-29.9493353,-51.0898927,6026,4591.58793
D1,Cachoeirinha/RS,-29.9493353,-51.0898927,155,118.10424
1,Cachoeirinha/TO,-6.118647,-47.9208885,113,4947.46060
D1,Cachoeirinha/TO,-6.118647,-47.9208885,2,87.56567
1,Cachoeiro de Itapemirim/ES,-20.848084,-41.11129,14798,7026.95772
D1,Cachoeiro de Itapemirim/ES,-20.848084,-41.11129,285,135.33470
1,Cacimba de Areia/PB,-7.1288513,-37.1575194,19,514.20839
1,Cacimba de Dentro/PB,-6.6425101,-35.7929304,707,4115.72942
D1,Cacimba de Dentro/PB,-6.6425101,-35.7929304,17,98.96379
1,Cacimbas/PB,-7.2125451,-37.0593398,99,1375.19100
D1,Cacimbas/PB,-7.2125451,-37.0593398,5,69.45409
1,Cacimbinhas/AL,-9.401212,-36.991082,363,3333.63945
D1,Cacimbinhas/AL,-9.401212,-36.991082,3,27.55074
1,Cacique Doble/RS,-27.7700117,-51.6616409,179,3527.78873
D1,Cacique Doble/RS,-27.7700117,-51.6616409,1,19.70832
1,Cacoal/RO,-11.4333,-61.4420502,6125,7130.96527
D1,Cacoal/RO,-11.4333,-61.4420502,79,91.97490
1,Caconde/SP,-21.527995,-46.643659,427,2246.30438
D1,Caconde/SP,-21.527995,-46.643659,3,15.78200
1,Caculé/BA,-14.4990734,-42.2233006,338,1451.20433
D1,Caculé/BA,-14.4990734,-42.2233006,4,17.17402
1,Caetanos/BA,-14.3387456,-40.9085971,278,1903.06681
D1,Caetanos/BA,-14.3387456,-40.9085971,2,13.69113
1,Caetanópolis/MG,-19.2947496,-44.4138386,424,3608.81777
D1,Caetanópolis/MG,-19.2947496,-44.4138386,3,25.53409
1,Caetité/BA,-14.0691776,-42.4852428,948,1855.87596
D1,Caetité/BA,-14.0691776,-42.4852428,5,9.78838
1,Caeté/MG,-19.897777,-43.670278,876,1944.63560
D1,Caeté/MG,-19.897777,-43.670278,26,57.71750
1,Caetés/PE,-8.7728788,-36.6255835,878,3037.64185
D1,Caetés/PE,-8.7728788,-36.6255835,10,34.59729
1,Cafarnaum/BA,-11.691399,-41.468823,567,3062.71269
D1,Cafarnaum/BA,-11.691399,-41.468823,10,54.01610
1,Cafeara/PR,-22.78905,-51.714195,116,3926.87881
D1,Cafeara/PR,-22.78905,-51.714195,2,67.70481
1,Cafelândia/PR,-24.6176963,-53.3218057,944,5114.86779
D1,Cafelândia/PR,-24.6176963,-53.3218057,6,32.50975
1,Cafelândia/SP,-21.8054355,-49.6030627,474,2656.50395
D1,Cafelândia/SP,-21.8054355,-49.6030627,14,78.46214
1,Cafezal do Sul/PR,-23.900508,-53.512418,95,2369.66825
D1,Cafezal do Sul/PR,-23.900508,-53.512418,1,24.94388
1,Caiabu/SP,-22.0143038,-51.2356597,44,1049.36799
D1,Caiabu/SP,-22.0143038,-51.2356597,2,47.69855
1,Caiana/MG,-20.695555,-41.924723,64,1155.02617
D1,Caiana/MG,-20.695555,-41.924723,2,36.09457
1,Caiapônia/GO,-16.9538779,-51.8090761,363,1899.82729
D1,Caiapônia/GO,-16.9538779,-51.8090761,5,26.16842
1,Caibaté/RS,-28.290475,-54.645407,28,580.55152
D1,Caibaté/RS,-28.290475,-54.645407,3,62.20195
1,Caibi/SC,-27.0751925,-53.2502133,203,3311.58238
D1,Caibi/SC,-27.0751925,-53.2502133,2,32.62643
1,Caicó/RN,-6.4594544,-37.0971911,6405,9371.84496
D1,Caicó/RN,-6.4594544,-37.0971911,72,105.35095
1,Caieiras/SP,-23.3644621,-46.7484765,3941,3834.59012
D1,Caieiras/SP,-23.3644621,-46.7484765,124,120.65191
1,Cairu/BA,-13.4860505,-39.0455744,758,4113.52906
D1,Cairu/BA,-13.4860505,-39.0455744,8,43.41455
1,Caiuá/SP,-21.8319357,-51.9887179,147,2472.25025
D1,Caiuá/SP,-21.8319357,-51.9887179,2,33.63606
1,Caiçara do Norte/RN,-5.0645017,-36.0561226,133,2027.13001
D1,Caiçara do Norte/RN,-5.0645017,-36.0561226,3,45.72474
1,Caiçara do Rio do Vento/RN,-5.757968,-36.00089,110,2960.96904
D1,Caiçara do Rio do Vento/RN,-5.757968,-36.00089,3,80.75370
1,Caiçara/PB,-6.6146866,-35.4681434,484,6730.63552
D1,Caiçara/PB,-6.6146866,-35.4681434,10,139.06272
1,Caiçara/RS,-27.2750478,-53.4310053,271,5765.95745
D1,Caiçara/RS,-27.2750478,-53.4310053,3,63.82979
1,Cajamar/SP,-23.3561111,-46.8769444,2000,2566.27403
D1,Cajamar/SP,-23.3561111,-46.8769444,86,110.34978
1,Cajapió/MA,-2.8778715,-44.6746871,51,454.70756
D1,Cajapió/MA,-2.8778715,-44.6746871,2,17.83167
1,Cajari/MA,-3.3213076,-45.0118757,132,678.62835
D1,Cajari/MA,-3.3213076,-45.0118757,4,20.56450
1,Cajati/SP,-24.7272376,-48.1077914,2353,8257.87885
D1,Cajati/SP,-24.7272376,-48.1077914,48,168.45652
1,Cajazeiras do Piauí/PI,-6.794271,-42.3935024,24,671.70445
D1,Cajazeiras do Piauí/PI,-6.794271,-42.3935024,1,27.98769
1,Cajazeiras/PB,-6.8897849,-38.5570389,3826,6142.33653
D1,Cajazeiras/PB,-6.8897849,-38.5570389,71,113.98481
1,Cajazeirinhas/PB,-6.961442,-37.7993733,66,2059.28237
1,Cajobi/SP,-20.8776238,-48.8106972,355,3350.32088
D1,Cajobi/SP,-20.8776238,-48.8106972,7,66.06267
1,Cajueiro da Praia/PI,-2.931114,-41.340801,445,5798.80115
D1,Cajueiro da Praia/PI,-2.931114,-41.340801,10,130.31014
1,Cajueiro/AL,-9.399589,-36.1524309,391,1833.01299
D1,Cajueiro/AL,-9.399589,-36.1524309,16,75.00820
1,Cajuri/MG,-20.7901414,-42.7954489,121,3044.79114
1,Cajuru/SP,-21.2759978,-47.3046035,523,1981.58603
D1,Cajuru/SP,-21.2759978,-47.3046035,17,64.41102
1,Caldas Brandão/PB,-7.1027959,-35.3254676,362,5987.42971
D1,Caldas Brandão/PB,-7.1027959,-35.3254676,5,82.69931
1,Caldas Novas/GO,-17.745,-48.625,3671,3939.01026
D1,Caldas Novas/GO,-17.745,-48.625,69,74.03751
1,Caldas/MG,-21.923611,-46.386111,300,2063.13183
D1,Caldas/MG,-21.923611,-46.386111,10,68.77106
1,Caldazinha/GO,-16.7116649,-49.0012601,128,3326.40333
D1,Caldazinha/GO,-16.7116649,-49.0012601,2,51.97505
1,Caldeirão Grande do Piauí/PI,-7.3310393,-40.6374433,178,3079.05207
D1,Caldeirão Grande do Piauí/PI,-7.3310393,-40.6374433,1,17.29805
1,Caldeirão Grande/BA,-11.0208483,-40.3041387,503,3756.25420
D1,Caldeirão Grande/BA,-11.0208483,-40.3041387,3,22.40311
1,Califórnia/PR,-23.6672543,-51.3554556,406,4717.63886
D1,Califórnia/PR,-23.6672543,-51.3554556,8,92.95840
1,Calmon/SC,-26.6023644,-51.0992893,16,479.76012
D1,Calmon/SC,-26.6023644,-51.0992893,2,59.97001
1,Calumbi/PE,-7.9389746,-38.1516871,300,5220.11484
D1,Calumbi/PE,-7.9389746,-38.1516871,2,34.80077
1,Calçado/PE,-8.7413446,-36.3351787,195,1769.83119
D1,Calçado/PE,-8.7413446,-36.3351787,2,18.15211
1,Calçoene/AP,2.4981757,-50.9539503,1513,13382.27490
D1,Calçoene/AP,2.4981757,-50.9539503,9,79.60375
1,Camacan/BA,-15.4166631,-39.4930088,1822,5692.68262
D1,Camacan/BA,-15.4166631,-39.4930088,36,112.47891
1,Camacho/MG,-20.625556,-45.156667,46,1603.34611
1,Camalaú/PB,-7.885031,-36.824191,189,3133.80866
D1,Camalaú/PB,-7.885031,-36.824191,2,33.16200
1,Camamu/BA,-13.9438142,-39.1060917,1118,3159.79877
D1,Camamu/BA,-13.9438142,-39.1060917,26,73.48369
1,Camanducaia/MG,-22.755278,-46.144444,1274,5843.76863
D1,Camanducaia/MG,-22.755278,-46.144444,12,55.04335
1,Camapuã/MS,-19.5291747,-54.0434641,290,2117.87044
D1,Camapuã/MS,-19.5291747,-54.0434641,6,43.81801
1,Camaquã/RS,-30.8524752,-51.8075619,3153,4742.92247
D1,Camaquã/RS,-30.8524752,-51.8075619,38,57.16177
1,Camaragibe/PE,-8.0213832,-34.9810768,2941,1850.86124
D1,Camaragibe/PE,-8.0213832,-34.9810768,227,142.85804
1,Camargo/RS,-28.5865661,-52.2031474,154,5616.33844
D1,Camargo/RS,-28.5865661,-52.2031474,1,36.46973
1,Camaçari/BA,-12.6998188,-38.3260762,8668,2848.48604
D1,Camaçari/BA,-12.6998188,-38.3260762,155,50.93624
1,Cambará do Sul/RS,-29.0489517,-50.145412,260,4058.69497
D1,Cambará do Sul/RS,-29.0489517,-50.145412,2,31.22073
1,Cambará/PR,-23.042273,-50.075281,674,2646.66614
D1,Cambará/PR,-23.042273,-50.075281,9,35.34124
1,Cambira/PR,-23.600265,-51.581045,303,3827.20728
D1,Cambira/PR,-23.600265,-51.581045,6,75.78628
1,Camboriú/SC,-27.0273601,-48.6535657,7445,8748.01716
D1,Camboriú/SC,-27.0273601,-48.6535657,86,101.05164
1,Cambuci/RJ,-21.5749919,-41.9107833,402,2591.20794
D1,Cambuci/RJ,-21.5749919,-41.9107833,7,45.12054
1,Cambuquira/MG,-21.853056,-45.2953619,154,1201.99813
D1,Cambuquira/MG,-21.853056,-45.2953619,7,54.63628
1,Cambuí/MG,-22.6122501,-46.0572137,1141,3827.06111
D1,Cambuí/MG,-22.6122501,-46.0572137,12,40.24955
1,Cambé/PR,-23.2782035,-51.2779583,5534,5155.53237
D1,Cambé/PR,-23.2782035,-51.2779583,65,60.55468
1,Cametá/PA,-2.242949,-49.497885,5717,4102.20717
D1,Cametá/PA,-2.242949,-49.497885,123,88.25809
1,Camocim de São Félix/PE,-8.3616757,-35.7638903,316,1671.95767
D1,Camocim de São Félix/PE,-8.3616757,-35.7638903,11,58.20106
1,Camocim/CE,-2.9009918,-40.8427389,2662,4165.42789
D1,Camocim/CE,-2.9009918,-40.8427389,81,126.74668
1,Campanha/MG,-21.8361108,-45.401986,526,3138.05035
D1,Campanha/MG,-21.8361108,-45.401986,11,65.62463
1,Campanário/MG,-18.2398144,-41.7271768,72,1930.29491
1,Campestre da Serra/RS,-28.7966535,-51.0958149,87,2562.59205
1,Campestre de Goiás/GO,-16.7624179,-49.69497,221,6056.45382
D1,Campestre de Goiás/GO,-16.7624179,-49.69497,4,109.61907
1,Campestre do Maranhão/MA,-6.1729113,-47.3640512,551,3812.35730
D1,Campestre do Maranhão/MA,-6.1729113,-47.3640512,17,117.62264
1,Campestre/AL,-8.8481634,-35.5660033,108,1553.06299
D1,Campestre/AL,-8.8481634,-35.5660033,3,43.14064
1,Campestre/MG,-19.6142116,-43.219378,492,2336.84810
D1,Campestre/MG,-19.6142116,-43.219378,6,28.49815
1,Campina Grande do Sul/PR,-25.3046032,-49.0545355,3026,6926.86277
D1,Campina Grande do Sul/PR,-25.3046032,-49.0545355,55,125.90134
1,Campina Grande/PB,-7.2246743,-35.8771292,16803,4080.30947
D1,Campina Grande/PB,-7.2246743,-35.8771292,502,121.90176
1,Campina Verde/MG,-19.535277,-49.486389,213,1078.37181
D1,Campina Verde/MG,-19.535277,-49.486389,10,50.62778
1,Campina da Lagoa/PR,-24.5937926,-52.8038965,265,1887.06117
D1,Campina da Lagoa/PR,-24.5937926,-52.8038965,7,49.84690
1,Campina das Missões/RS,-27.9883295,-54.8411665,155,2871.43386
D1,Campina das Missões/RS,-27.9883295,-54.8411665,4,74.10152
1,Campina do Monte Alegre/SP,-23.5935653,-48.4801876,164,2707.61103
1,Campina do Simão/PR,-25.1086375,-51.8076658,35,906.97072
D1,Campina do Simão/PR,-25.1086375,-51.8076658,1,25.91345
1,Campinas do Piauí/PI,-7.6593687,-41.8814875,92,1637.01068
D1,Campinas do Piauí/PI,-7.6593687,-41.8814875,1,17.79359
1,Campinas do Sul/RS,-27.7167968,-52.6257885,269,4946.67157
D1,Campinas do Sul/RS,-27.7167968,-52.6257885,2,36.77823
1,Campinas/SP,-22.90556,-47.06083,49825,4104.90430
D1,Campinas/SP,-22.90556,-47.06083,1602,131.98307
1,Campinaçu/GO,-13.7869969,-48.5703841,128,3524.22907
1,Campinorte/GO,-14.3136699,-49.1510931,570,4465.68474
D1,Campinorte/GO,-14.3136699,-49.1510931,9,70.51081
1,Campinápolis/MT,-14.5403731,-52.7970626,518,3061.64667
D1,Campinápolis/MT,-14.5403731,-52.7970626,16,94.56824
1,Campo Alegre de Goiás/GO,-17.6337896,-47.779291,58,749.54769
D1,Campo Alegre de Goiás/GO,-17.6337896,-47.779291,2,25.84647
1,Campo Alegre de Lourdes/BA,-9.5160326,-43.0101338,218,756.41915
D1,Campo Alegre de Lourdes/BA,-9.5160326,-43.0101338,5,17.34906
1,Campo Alegre do Fidalgo/PI,-8.3753852,-41.8364191,54,1065.29888
D1,Campo Alegre do Fidalgo/PI,-8.3753852,-41.8364191,1,19.72776
1,Campo Alegre/AL,-9.7798607,-36.3575793,1706,2965.04858
D1,Campo Alegre/AL,-9.7798607,-36.3575793,34,59.09241
1,Campo Alegre/SC,-26.1941684,-49.2657484,556,4640.68108
D1,Campo Alegre/SC,-26.1941684,-49.2657484,20,166.93097
1,Campo Azul/MG,-16.5078525,-44.8133524,52,1359.83264
1,Campo Belo do Sul/SC,-27.8987563,-50.7586887,381,5480.43728
D1,Campo Belo do Sul/SC,-27.8987563,-50.7586887,8,115.07480
1,Campo Belo/MG,-20.8975,-45.277223,1882,3473.22187
D1,Campo Belo/MG,-20.8975,-45.277223,39,71.97431
1,Campo Bom/RS,-29.674694,-51.060601,5721,8236.63221
D1,Campo Bom/RS,-29.674694,-51.060601,91,131.01443
1,Campo Bonito/PR,-25.0328004,-52.992976,96,2551.15599
D1,Campo Bonito/PR,-25.0328004,-52.992976,2,53.14908
1,Campo Erê/SC,-26.3947432,-53.0790495,520,6177.23925
D1,Campo Erê/SC,-26.3947432,-53.0790495,4,47.51722
1,Campo Florido/MG,-19.760833,-48.572223,258,3120.08707
1,Campo Formoso/BA,-10.51055,-40.320031,2133,2983.75928
D1,Campo Formoso/BA,-10.51055,-40.320031,20,27.97711
1,Campo Grande do Piauí/PI,-7.1327559,-41.0381164,358,6001.67645
D1,Campo Grande do Piauí/PI,-7.1327559,-41.0381164,4,67.05784
1,Campo Grande/AL,-9.9725,-36.74791447368421,252,2634.05456
D1,Campo Grande/AL,-9.9725,-36.74791447368421,7,73.16818
1,Campo Grande/MS,-20.4640173,-54.6162947,67786,7481.13878
D1,Campo Grande/MS,-20.4640173,-54.6162947,1257,138.72763
1,Campo Grande/RN,-5.862063,-37.3134908,184,1902.79214
D1,Campo Grande/RN,-5.862063,-37.3134908,3,31.02378
1,Campo Largo do Piauí/PI,-3.8104731,-42.6288333,234,3200.65654
D1,Campo Largo do Piauí/PI,-3.8104731,-42.6288333,5,68.39010
1,Campo Largo/PR,-25.4597726,-49.5270851,8137,6078.51193
D1,Campo Largo/PR,-25.4597726,-49.5270851,146,109.06510
1,Campo Limpo Paulista/SP,-23.207791,-46.788919,1941,2269.08734
D1,Campo Limpo Paulista/SP,-23.207791,-46.788919,89,104.04367
1,Campo Limpo de Goiás/GO,-16.297101,-49.0894994,139,1750.62972
D1,Campo Limpo de Goiás/GO,-16.297101,-49.0894994,2,25.18892
1,Campo Magro/PR,-25.3691533,-49.4496921,1429,4804.97646
D1,Campo Magro/PR,-25.3691533,-49.4496921,37,124.41157
1,Campo Maior/PI,-4.8339574,-42.1739786,2998,6393.27831
D1,Campo Maior/PI,-4.8339574,-42.1739786,58,123.68584
1,Campo Mourão/PR,-24.046329,-52.37802,4308,4511.56166
D1,Campo Mourão/PR,-24.046329,-52.37802,71,74.35489
1,Campo Novo de Rondônia/RO,-10.5704235,-63.6199511,451,3161.36268
D1,Campo Novo de Rondônia/RO,-10.5704235,-63.6199511,7,49.06771
1,Campo Novo do Parecis/MT,-13.658735,-57.890723,3493,9664.38868
D1,Campo Novo do Parecis/MT,-13.658735,-57.890723,35,96.83756
1,Campo Novo/RS,-28.91500235,-52.331375687737626,80,1828.15356
D1,Campo Novo/RS,-28.91500235,-52.331375687737626,2,45.70384
1,Campo Redondo/RN,-6.2420373,-36.1830606,312,2763.26278
D1,Campo Redondo/RN,-6.2420373,-36.1830606,4,35.42645
1,Campo Verde/MT,-15.5430787,-55.1590511,3140,6864.88850
D1,Campo Verde/MT,-15.5430787,-55.1590511,60,131.17621
1,Campo do Brito/SE,-10.7496246,-37.4942276,1198,6575.91393
D1,Campo do Brito/SE,-10.7496246,-37.4942276,15,82.33615
1,Campo do Meio/MG,-21.1072006,-45.8301735,233,1999.82834
D1,Campo do Meio/MG,-21.1072006,-45.8301735,2,17.16591
1,Campo do Tenente/PR,-25.9814143,-49.684518,246,3057.79988
