type,name,lat,lon,total,total_per_100k_inhabitants
1,Abadia de Goiás/GO,-16.7572644,-49.4412205,761,8495.19982
D1,Abadia de Goiás/GO,-16.7572644,-49.4412205,8,89.30565
1,Abadia dos Dourados/MG,-18.4911191,-47.4063589,110,1570.08279
D1,Abadia dos Dourados/MG,-18.4911191,-47.4063589,1,14.27348
1,Abadiânia/GO,-16.1940946,-48.7067767,190,928.59587
D1,Abadiânia/GO,-16.1940946,-48.7067767,13,63.53551
1,Abaetetuba/PA,-1.721828,-48.878843,5112,3213.47750
D1,Abaetetuba/PA,-1.721828,-48.878843,120,75.43374
1,Abaeté/MG,-19.1566833,-45.4481213,231,993.54839
D1,Abaeté/MG,-19.1566833,-45.4481213,4,17.20430
1,Abaiara/CE,-7.3607808,-39.0487878,151,1273.93909
D1,Abaiara/CE,-7.3607808,-39.0487878,4,33.74673
1,Abaré/BA,-8.7239913,-39.1139689,156,766.69779
1,Abatiá/PR,-23.3052967,-50.3102532,99,1336.39309
D1,Abatiá/PR,-23.3052967,-50.3102532,1,13.49892
1,Abaíra/BA,-13.2503296,-41.6640342,141,1618.82893
D1,Abaíra/BA,-13.2503296,-41.6640342,1,11.48106
1,Abdon Batista/SC,-27.612419,-51.022992,152,5965.46311
D1,Abdon Batista/SC,-27.612419,-51.022992,1,39.24647
1,Abel Figueiredo/PA,-4.953001,-48.3958485,435,5810.84691
D1,Abel Figueiredo/PA,-4.953001,-48.3958485,2,26.71654
1,Abelardo Luz/SC,-26.5705893,-52.3280339,620,3452.11581
D1,Abelardo Luz/SC,-26.5705893,-52.3280339,14,77.95100
1,Abre Campo/MG,-20.2976097,-42.4764741,185,1376.07855
D1,Abre Campo/MG,-20.2976097,-42.4764741,1,7.43826
1,Abreu e Lima/PE,-7.900719,-34.898389,1142,1138.06230
D1,Abreu e Lima/PE,-7.900719,-34.898389,138,137.52417
1,Abreulândia/TO,-9.6221526,-49.1558343,101,3893.60062
D1,Abreulândia/TO,-9.6221526,-49.1558343,4,154.20200
1,Acaiaca/MG,-20.3621646,-43.1444162,85,2128.19229
D1,Acaiaca/MG,-20.3621646,-43.1444162,3,75.11267
1,Acajutiba/BA,-11.6609659,-38.0186381,232,1527.62231
D1,Acajutiba/BA,-11.6609659,-38.0186381,6,39.50747
1,Acarape/CE,-4.2237866,-38.7071663,1945,12935.62118
D1,Acarape/CE,-4.2237866,-38.7071663,14,93.10987
1,Acaraú/CE,-2.8869514,-40.1194713,2758,4370.56288
D1,Acaraú/CE,-2.8869514,-40.1194713,58,91.91176
1,Acari/RN,-6.4364689,-36.6394777,261,2346.91125
D1,Acari/RN,-6.4364689,-36.6394777,7,62.94398
1,Acará/PA,-1.961388,-48.1987043,875,1571.79040
D1,Acará/PA,-1.961388,-48.1987043,16,28.74131
1,Acauã/PI,-8.219542,-41.083059,88,1239.08758
1,Aceguá/RS,-31.8695131,-54.1615593,37,748.68474
1,Acopiara/CE,-6.0936464,-39.4543204,1364,2503.62512
D1,Acopiara/CE,-6.0936464,-39.4543204,56,102.78813
1,Acorizal/MT,-15.2001544,-56.3668953,204,3824.52193
D1,Acorizal/MT,-15.2001544,-56.3668953,7,131.23360
1,Acrelândia/AC,-10.0759167,-67.0526898,556,3589.41252
D1,Acrelândia/AC,-10.0759167,-67.0526898,12,77.46934
1,Acreúna/GO,-17.3959899,-50.3749031,1047,4643.83926
D1,Acreúna/GO,-17.3959899,-50.3749031,27,119.75517
1,Adamantina/SP,-21.6866517,-51.0762975,608,1731.65105
D1,Adamantina/SP,-21.6866517,-51.0762975,16,45.56976
1,Adelândia/GO,-16.4155077,-50.1665834,90,3577.10652
D1,Adelândia/GO,-16.4155077,-50.1665834,2,79.49126
1,Adolfo/SP,-21.2356597,-49.6441918,145,4079.90996
D1,Adolfo/SP,-21.2356597,-49.6441918,5,140.68655
1,Adrianópolis/PR,-24.6557863,-48.9912769,404,6897.72921
D1,Adrianópolis/PR,-24.6557863,-48.9912769,5,85.36794
1,Adustina/BA,-10.5358875,-38.114479,145,846.66589
D1,Adustina/BA,-10.5358875,-38.114479,4,23.35630
1,Afogados da Ingazeira/PE,-7.750429,-37.6356375,1726,4614.47973
D1,Afogados da Ingazeira/PE,-7.750429,-37.6356375,25,66.83777
1,Afonso Bezerra/RN,-5.4745,-36.57625071327935,205,1858.73606
D1,Afonso Bezerra/RN,-5.4745,-36.57625071327935,11,99.73706
1,Afonso Cláudio/ES,-20.077841,-41.12606,1565,5138.72927
D1,Afonso Cláudio/ES,-20.077841,-41.12606,29,95.22246
1,Afonso Cunha/MA,-4.1326105,-43.3230026,152,2310.73275
D1,Afonso Cunha/MA,-4.1326105,-43.3230026,2,30.40438
1,Afrânio/PE,-8.5198919,-41.0070197,389,1963.65472
D1,Afrânio/PE,-8.5198919,-41.0070197,4,20.19182
1,Afuá/PA,-0.1535664,-50.3879223,2479,6265.32211
D1,Afuá/PA,-0.1535664,-50.3879223,11,27.80095
1,Agrestina/PE,-8.4558021,-35.9442663,659,2629.16417
D1,Agrestina/PE,-8.4558021,-35.9442663,33,131.65769
1,Agricolândia/PI,-5.7967843,-42.6605131,69,1344.76710
1,Agrolândia/SC,-27.4122212,-49.8295774,358,3250.70371
D1,Agrolândia/SC,-27.4122212,-49.8295774,6,54.48107
1,Agronômica/SC,-27.2660744,-49.7104753,205,3721.18352
D1,Agronômica/SC,-27.2660744,-49.7104753,6,108.91269
1,Aguanil/MG,-20.9424533,-45.3927152,118,2609.46484
D1,Aguanil/MG,-20.9424533,-45.3927152,3,66.34233
1,Aguaí/SP,-22.0592036,-46.979384,536,1462.56276
D1,Aguaí/SP,-22.0592036,-46.979384,10,27.28662
1,Agudo/RS,-29.6423259,-53.2494005,191,1164.56314
D1,Agudo/RS,-29.6423259,-53.2494005,1,6.09719
1,Agudos do Sul/PR,-25.9890808,-49.3328175,195,2059.13411
D1,Agudos do Sul/PR,-25.9890808,-49.3328175,1,10.55966
1,Agudos/SP,-22.471162,-48.987822,994,2657.68295
D1,Agudos/SP,-22.471162,-48.987822,18,48.12706
1,Aguiar/PB,-7.0928404,-38.1727215,53,941.38544
1,Aguiarnópolis/TO,-6.5600452,-47.4721189,465,6746.95299
D1,Aguiarnópolis/TO,-6.5600452,-47.4721189,9,130.58619
1,Aimorés/MG,-19.4917754,-41.0615603,721,2867.82546
D1,Aimorés/MG,-19.4917754,-41.0615603,11,43.75323
1,Aiquara/BA,-14.126918,-39.8887574,339,7676.63043
D1,Aiquara/BA,-14.126918,-39.8887574,6,135.86957
1,Aiuaba/CE,-6.5710836,-40.1212278,76,434.45950
D1,Aiuaba/CE,-6.5710836,-40.1212278,1,5.71657
1,Aiuruoca/MG,-21.9759554,-44.6036637,31,518.74163
D1,Aiuruoca/MG,-21.9759554,-44.6036637,4,66.93440
1,Ajuricaba/RS,-28.239654,-53.7693013,368,5266.92429
D1,Ajuricaba/RS,-28.239654,-53.7693013,3,42.93688
1,Alagoa Grande/PB,-7.0415212,-35.6285322,1734,6097.26080
D1,Alagoa Grande/PB,-7.0415212,-35.6285322,29,101.97264
1,Alagoa Nova/PB,-7.0653703,-35.76695977336711,451,2155.72869
D1,Alagoa Nova/PB,-7.0653703,-35.76695977336711,10,47.79886
1,Alagoa/MG,-22.1697202,-44.6400042,87,3264.54034
1,Alagoinha do Piauí/PI,-7.0090952,-40.939675,155,2022.17873
D1,Alagoinha do Piauí/PI,-7.0090952,-40.939675,5,65.23157
1,Alagoinha/PB,-6.97063215,-35.51490901897793,1111,7630.49451
D1,Alagoinha/PB,-6.97063215,-35.51490901897793,15,103.02198
1,Alagoinha/PE,-8.50355635,-36.77701174370496,302,2051.90923
D1,Alagoinha/PE,-8.50355635,-36.77701174370496,11,74.73842
1,Alagoinhas/BA,-12.133526,-38.420772,6609,4338.69242
D1,Alagoinhas/BA,-12.133526,-38.420772,97,63.67880
1,Alambari/SP,-23.550338,-47.897971,127,2072.11617
D1,Alambari/SP,-23.550338,-47.897971,4,65.26350
1,Albertina/MG,-20.66164,-43.784039,57,1893.05878
D1,Albertina/MG,-20.66164,-43.784039,5,166.05779
1,Alcantil/PB,-7.7425491,-36.0609604,91,1651.84244
1,Alcinópolis/MS,-18.3264121,-53.7094463,43,793.79730
D1,Alcinópolis/MS,-18.3264121,-53.7094463,2,36.92080
1,Alcobaça/BA,-17.5215875,-39.1965474,868,3859.49311
D1,Alcobaça/BA,-17.5215875,-39.1965474,15,66.69631
1,Alcântara/MA,-2.4038956,-44.4154241,202,913.53111
D1,Alcântara/MA,-2.4038956,-44.4154241,8,36.17945
1,Alcântaras/CE,-3.586247,-40.5457641,575,4880.74017
D1,Alcântaras/CE,-3.586247,-40.5457641,4,33.95298
1,Aldeias Altas/MA,-4.6291957,-43.4708622,947,3539.26075
D1,Aldeias Altas/MA,-4.6291957,-43.4708622,11,41.11074
1,Alecrim/RS,-27.6566142,-54.7653195,57,978.20491
D1,Alecrim/RS,-27.6566142,-54.7653195,2,34.32298
1,Alegre/ES,-20.7625787,-41.5318886,806,2688.90742
D1,Alegre/ES,-20.7625787,-41.5318886,23,76.73061
1,Alegrete do Piauí/PI,-7.2440138,-40.8602296,348,7076.04717
D1,Alegrete do Piauí/PI,-7.2440138,-40.8602296,3,61.00041
1,Alegrete/RS,-29.790166,-55.794862,2033,2783.86372
D1,Alegrete/RS,-29.790166,-55.794862,35,47.92682
1,Alegria/RS,-27.8332103,-54.0574959,166,4919.97629
D1,Alegria/RS,-27.8332103,-54.0574959,1,29.63841
1,Alenquer/PA,-1.946229,-54.738355,1591,2786.73019
D1,Alenquer/PA,-1.946229,-54.738355,30,52.54677
1,Alexandria/RN,-6.414779,-38.0135516,335,2471.77747
D1,Alexandria/RN,-6.414779,-38.0135516,7,51.64908
1,Alexânia/GO,-16.0834049,-48.5077803,1426,5091.03891
D1,Alexânia/GO,-16.0834049,-48.5077803,23,82.11353
1,Alfenas/MG,-21.4297405,-45.9479419,2447,3039.97814
D1,Alfenas/MG,-21.4297405,-45.9479419,63,78.26670
1,Alfredo Chaves/ES,-20.624970400000002,-40.75006690147988,1277,8725.06149
D1,Alfredo Chaves/ES,-20.624970400000002,-40.75006690147988,15,102.48702
1,Alfredo Marcondes/SP,-21.9527,-51.413956,103,2461.75908
D1,Alfredo Marcondes/SP,-21.9527,-51.413956,3,71.70172
1,Alfredo Vasconcelos/MG,-21.145833,-43.776389,75,1074.34465
D1,Alfredo Vasconcelos/MG,-21.145833,-43.776389,2,28.64919
1,Alfredo Wagner/SC,-27.6961513,-49.3326734,410,4065.04065
D1,Alfredo Wagner/SC,-27.6961513,-49.3326734,1,9.91473
1,Algodão de Jandaíra/PB,-6.9040175,-36.0089879,31,1202.94917
1,Alhandra/PB,-7.4304246,-34.9106103,779,3948.90252
D1,Alhandra/PB,-7.4304246,-34.9106103,19,96.31470
1,Aliança do Tocantins/TO,-11.3055927,-48.9409096,197,3684.99813
D1,Aliança do Tocantins/TO,-11.3055927,-48.9409096,3,56.11672
1,Aliança/PE,-7.60398,-35.222696,406,1057.37427
D1,Aliança/PE,-7.60398,-35.222696,30,78.13110
1,Almadina/BA,-14.70466,-39.6381994,382,7118.89676
D1,Almadina/BA,-14.70466,-39.6381994,6,111.81513
1,Almas/TO,-11.5681309,-47.1702803,124,1776.75885
D1,Almas/TO,-11.5681309,-47.1702803,2,28.65740
1,Almeirim/PA,-1.5290377,-52.5788111,271,795.28114
D1,Almeirim/PA,-1.5290377,-52.5788111,18,52.82310
1,Almenara/MG,-16.1740678,-40.6904907,1327,3148.80289
D1,Almenara/MG,-16.1740678,-40.6904907,14,33.22023
1,Almino Afonso/RN,-6.1544208,-37.7649018,91,1932.05945
D1,Almino Afonso/RN,-6.1544208,-37.7649018,3,63.69427
1,Almirante Tamandaré do Sul/RS,-28.1141129,-52.9134874,59,3027.19343
1,Almirante Tamandaré/PR,-25.3133048,-49.2997838,3628,3022.30071
D1,Almirante Tamandaré/PR,-25.3133048,-49.2997838,86,71.64219
1,Aloândia/GO,-17.7277983,-49.4809338,142,7150.05035
D1,Aloândia/GO,-17.7277983,-49.4809338,5,251.76234
1,Alpercata/MG,-18.9803616,-41.9827637,283,3805.80958
D1,Alpercata/MG,-18.9803616,-41.9827637,10,134.48090
1,Alpestre/RS,-27.2512339,-53.0349646,110,1813.08719
D1,Alpestre/RS,-27.2512339,-53.0349646,2,32.96522
1,Alpinópolis/MG,-20.863611,-46.387777,195,977.05181
D1,Alpinópolis/MG,-20.863611,-46.387777,5,25.05261
1,Alta Floresta D'Oeste/RO,-11.9296917,-61.9961284,1229,5407.42696
D1,Alta Floresta D'Oeste/RO,-11.9296917,-61.9961284,16,70.39775
1,Alta Floresta/MT,-9.8715018,-56.0839881,1806,3475.81747
D1,Alta Floresta/MT,-9.8715018,-56.0839881,27,51.96405
1,Altair/SP,-20.5238955,-49.0606135,55,1313.90349
D1,Altair/SP,-20.5238955,-49.0606135,4,95.55662
1,Altamira do Maranhão/MA,-4.1643006,-45.4674574,274,3345.95189
D1,Altamira do Maranhão/MA,-4.1643006,-45.4674574,6,73.26902
1,Altamira do Paraná/PR,-24.799114,-52.7128633,25,1486.32580
D1,Altamira do Paraná/PR,-24.799114,-52.7128633,2,118.90606
1,Altamira/PA,-3.204065,-52.209961,5616,4842.67347
D1,Altamira/PA,-3.204065,-52.209961,132,113.82352
1,Altaneira/CE,-6.9980933,-39.7385742,236,3084.96732
D1,Altaneira/CE,-6.9980933,-39.7385742,6,78.43137
1,Alterosa/MG,-21.249166,-46.143055,34,234.20817
D1,Alterosa/MG,-21.249166,-46.143055,3,20.66543
1,Altinho/PE,-8.4904095,-36.0607494,598,2601.80995
D1,Altinho/PE,-8.4904095,-36.0607494,11,47.85938
1,Altinópolis/SP,-21.021364,-47.3712,253,1561.43924
D1,Altinópolis/SP,-21.021364,-47.3712,8,49.37357
1,Alto Alegre do Maranhão/MA,-4.2055693,-44.4525287,396,1421.49472
D1,Alto Alegre do Maranhão/MA,-4.2055693,-44.4525287,18,64.61340
1,Alto Alegre do Pindaré/MA,-3.6698186,-45.8462153,1575,4930.65773
D1,Alto Alegre do Pindaré/MA,-3.6698186,-45.8462153,24,75.13383
1,Alto Alegre dos Parecis/RO,-12.1314515,-61.856265,248,1870.99208
D1,Alto Alegre dos Parecis/RO,-12.1314515,-61.856265,10,75.44323
1,Alto Alegre/RR,2.98858,-61.307167,833,5416.12484
D1,Alto Alegre/RR,2.98858,-61.307167,18,117.03511
1,Alto Alegre/RS,-31.780844700000003,-52.81311114489171,18,1115.93304
1,Alto Alegre/SP,-21.5820592,-50.1661976,119,2910.95890
D1,Alto Alegre/SP,-21.5820592,-50.1661976,3,73.38552
1,Alto Araguaia/MT,-17.3156528,-53.2169365,451,2326.54114
D1,Alto Araguaia/MT,-17.3156528,-53.2169365,8,41.26902
1,Alto Bela Vista/SC,-27.4320737,-51.905771,36,1869.15888
D1,Alto Bela Vista/SC,-27.4320737,-51.905771,1,51.92108
1,Alto Boa Vista/MT,-11.6723985,-51.3744431,96,1384.08304
D1,Alto Boa Vista/MT,-11.6723985,-51.3744431,3,43.25260
1,Alto Caparaó/MG,-20.4405661,-41.8683799,191,3240.58364
D1,Alto Caparaó/MG,-20.4405661,-41.8683799,4,67.86563
1,Alto Feliz/RS,-29.3785943,-51.3123751,74,2437.41765
1,Alto Garças/MT,-16.9469683,-53.529427,306,2518.31125
D1,Alto Garças/MT,-16.9469683,-53.529427,14,115.21685
1,Alto Horizonte/GO,-14.1954948,-49.3366993,210,3179.40954
D1,Alto Horizonte/GO,-14.1954948,-49.3366993,2,30.28009
1,Alto Jequitibá/MG,-20.423611,-41.966111,277,3336.94736
D1,Alto Jequitibá/MG,-20.423611,-41.966111,5,60.23371
1,Alto Longá/PI,-5.2549051,-42.2072388,279,1945.74238
D1,Alto Longá/PI,-5.2549051,-42.2072388,6,41.84392
1,Alto Paraguai/MT,-14.513712,-56.4936374,337,2937.33113
D1,Alto Paraguai/MT,-14.513712,-56.4936374,9,78.44504
1,Alto Paraná/PR,-23.131247,-52.318893,238,1601.72286
D1,Alto Paraná/PR,-23.131247,-52.318893,1,6.72993
1,Alto Paraíso de Goiás/GO,-14.1304779,-47.5100161,361,4695.62955
1,Alto Paraíso/PR,-23.508137,-53.728537,23,856.61080
1,Alto Paraíso/RO,-9.7240103,-63.3188123,510,2334.41662
D1,Alto Paraíso/RO,-9.7240103,-63.3188123,9,41.19559
1,Alto Parnaíba/MA,-9.112506,-45.9310154,517,4611.13093
D1,Alto Parnaíba/MA,-9.112506,-45.9310154,4,35.67606
1,Alto Piquiri/PR,-24.0239021,-53.4417448,183,1871.54837
D1,Alto Piquiri/PR,-24.0239021,-53.4417448,5,51.13520
1,Alto Rio Doce/MG,-21.0239537,-43.4133507,141,1298.46211
D1,Alto Rio Doce/MG,-21.0239537,-43.4133507,7,64.46266
1,Alto Rio Novo/ES,-19.0577208,-41.0171518,406,5156.21031
D1,Alto Rio Novo/ES,-19.0577208,-41.0171518,14,177.80036
1,Alto Santo/CE,-5.5190371,-38.2719351,519,3018.14375
D1,Alto Santo/CE,-5.5190371,-38.2719351,13,75.59898
1,Alto Taquari/MT,-17.8269099,-53.2831736,524,4706.72775
D1,Alto Taquari/MT,-17.8269099,-53.2831736,6,53.89383
1,Alto do Rodrigues/RN,-5.290868,-36.7616726,667,4528.78870
D1,Alto do Rodrigues/RN,-5.290868,-36.7616726,19,129.00598
1,Altos/PI,-5.0393915,-42.4611694,2189,5390.96170
D1,Altos/PI,-5.0393915,-42.4611694,30,73.88253
1,Altônia/PR,-23.8722004,-53.894037,316,1424.96392
D1,Altônia/PR,-23.8722004,-53.894037,4,18.03752
1,Alumínio/SP,-23.5203479,-47.2575256,393,2094.10135
D1,Alumínio/SP,-23.5203479,-47.2575256,13,69.27053
1,Alvarenga/MG,-19.4175,-41.728334,167,4344.43288
D1,Alvarenga/MG,-19.4175,-41.728334,2,52.02914
1,Alvarães/AM,-3.214786,-64.8143124,1447,8921.08508
D1,Alvarães/AM,-3.214786,-64.8143124,25,154.13070
1,Alvinlândia/SP,-22.4431852,-49.7643596,36,1112.14087
1,Alvinópolis/MG,-20.1105199,-43.0601805,145,955.89689
D1,Alvinópolis/MG,-20.1105199,-43.0601805,1,6.59239
1,Alvorada D'Oeste/RO,-11.346271,-62.284697,218,1545.44166
D1,Alvorada D'Oeste/RO,-11.346271,-62.284697,8,56.71346
1,Alvorada de Minas/MG,-18.7318587,-43.3641479,60,1664.35506
D1,Alvorada de Minas/MG,-18.7318587,-43.3641479,1,27.73925
1,Alvorada do Gurguéia/PI,-8.4465288,-43.8655915,101,1854.91276
D1,Alvorada do Gurguéia/PI,-8.4465288,-43.8655915,4,73.46189
1,Alvorada do Norte/GO,-14.483911,-46.4959897,340,3905.80126
D1,Alvorada do Norte/GO,-14.483911,-46.4959897,1,11.48765
1,Alvorada do Sul/PR,-22.7807269,-51.2307721,181,1573.50256
D1,Alvorada do Sul/PR,-22.7807269,-51.2307721,6,52.16031
1,Alvorada/RS,-29.9981184,-51.0772509,7954,3763.38998
D1,Alvorada/RS,-29.9981184,-51.0772509,225,106.45747
1,Alvorada/TO,-12.478465,-49.124926,572,6812.76798
D1,Alvorada/TO,-12.478465,-49.124926,10,119.10434
1,Além Paraíba/MG,-21.8760576,-42.6810473,897,2533.82673
D1,Além Paraíba/MG,-21.8760576,-42.6810473,23,64.96992
1,Amajari/RR,3.6523869,-61.4194315,592,4489.95070
D1,Amajari/RR,3.6523869,-61.4194315,16,121.35002
1,Amambai/MS,-23.1082701,-55.2284854,1081,2714.30724
D1,Amambai/MS,-23.1082701,-55.2284854,18,45.19661
1,Amaporã/PR,-23.094272,-52.786597,43,679.09033
1,Amapá do Maranhão/MA,-1.6762114,-46.0109669,5,71.37759
1,Amapá/AP,2.0529997,-50.7930003,956,10406.00849
D1,Amapá/AP,2.0529997,-50.7930003,6,65.30968
1,Amaraji/PE,-8.373925,-35.4536527,364,1591.60472
D1,Amaraji/PE,-8.373925,-35.4536527,24,104.94097
1,Amaral Ferrador/RS,-30.8750633,-52.2542051,106,1496.11856
D1,Amaral Ferrador/RS,-30.8750633,-52.2542051,1,14.11433
1,Amaralina/GO,-13.9236199,-49.2962411,15,390.11704
1,Amarante do Maranhão/MA,-5.56913,-46.747284,1156,2770.25570
D1,Amarante do Maranhão/MA,-5.56913,-46.747284,28,67.09962
1,Amarante/PI,-6.2459374,-42.8476238,660,3749.14792
D1,Amarante/PI,-6.2459374,-42.8476238,11,62.48580
1,Amargosa/BA,-13.03793715,-39.60796443875596,785,2096.63203
D1,Amargosa/BA,-13.03793715,-39.60796443875596,16,42.73390
1,Amaturá/AM,-3.3640509,-68.1994689,1035,8819.01840
D1,Amaturá/AM,-3.3640509,-68.1994689,10,85.20791
1,Americana/SP,-22.7392463,-47.3306032,7656,3163.40107
D1,Americana/SP,-22.7392463,-47.3306032,202,83.46487
1,Americano do Brasil/GO,-16.2515808,-49.9806104,157,2547.04737
D1,Americano do Brasil/GO,-16.2515808,-49.9806104,4,64.89293
1,Ametista do Sul/RS,-27.3617341,-53.1826575,136,1837.09307
1,Amontada/CE,-3.3634586,-39.8284791,984,2245.08887
D1,Amontada/CE,-3.3634586,-39.8284791,20,45.63189
1,Amorinópolis/GO,-16.6211308,-51.0949921,94,3062.88693
D1,Amorinópolis/GO,-16.6211308,-51.0949921,1,32.58390
1,Amparo de São Francisco/SE,-10.1299754,-36.9269099,76,3193.27731
D1,Amparo de São Francisco/SE,-10.1299754,-36.9269099,2,84.03361
1,Amparo do Serra/MG,-20.5070255,-42.8028462,56,1197.09277
D1,Amparo do Serra/MG,-20.5070255,-42.8028462,2,42.75331
1,Amparo/PB,-7.56394725,-37.04652873235175,27,1199.46690
1,Amparo/SP,-22.70111,-46.76444,1550,2132.72425
D1,Amparo/SP,-22.70111,-46.76444,36,49.53424
1,Ampére/PR,-25.9168712,-53.4742414,339,1755.47615
D1,Ampére/PR,-25.9168712,-53.4742414,7,36.24877
1,Amélia Rodrigues/BA,-12.4015388,-38.7516971,780,3114.02108
D1,Amélia Rodrigues/BA,-12.4015388,-38.7516971,15,59.88502
1,América Dourada/BA,-11.4515262,-41.4357517,340,2113.11374
D1,América Dourada/BA,-11.4515262,-41.4357517,2,12.43008
1,Américo Brasiliense/SP,-21.7297099,-48.1052092,1033,2517.54728
D1,Américo Brasiliense/SP,-21.7297099,-48.1052092,18,43.86820
1,Américo de Campos/SP,-20.298476,-49.735904,377,6303.29376
D1,Américo de Campos/SP,-20.298476,-49.735904,12,200.63535
1,Anadia/AL,-9.6830208,-36.3052699,530,3024.07851
D1,Anadia/AL,-9.6830208,-36.3052699,9,51.35228
1,Anagé/BA,-14.6134669,-41.1376308,268,1240.33878
D1,Anagé/BA,-14.6134669,-41.1376308,6,27.76878
1,Anahy/PR,-24.6450861,-53.1337957,62,2223.81636
D1,Anahy/PR,-24.6450861,-53.1337957,1,35.86801
1,Anajatuba/MA,-3.26441,-44.6179916,363,1345.04224
D1,Anajatuba/MA,-3.26441,-44.6179916,10,37.05351
1,Anajás/PA,-0.9878802,-49.9390114,954,3213.41956
D1,Anajás/PA,-0.9878802,-49.9390114,11,37.05201
1,Analândia/SP,-22.128917,-47.661939,44,870.25316
D1,Analândia/SP,-22.128917,-47.661939,2,39.55696
1,Anamã/AM,-3.5797356,-61.4049996,1156,8283.17570
D1,Anamã/AM,-3.5797356,-61.4049996,1,7.16538
1,Ananindeua/PA,-1.374035,-48.4016623,10821,2020.55095
D1,Ananindeua/PA,-1.374035,-48.4016623,385,71.88912
1,Ananás/TO,-6.3663053,-48.080238,677,7132.32196
D1,Ananás/TO,-6.3663053,-48.080238,14,147.49263
1,Anapu/PA,-3.4668292,-51.2057035,1083,3785.78670
D1,Anapu/PA,-3.4668292,-51.2057035,23,80.39990
1,Anapurus/MA,-3.6751298,-43.1046001,802,5045.92928
D1,Anapurus/MA,-3.6751298,-43.1046001,6,37.75009
1,Anastácio/MS,-20.4832458,-55.8048448,1052,4168.48278
D1,Anastácio/MS,-20.4832458,-55.8048448,27,106.98577
1,Anaurilândia/MS,-22.185169,-52.719056,81,892.46364
D1,Anaurilândia/MS,-22.185169,-52.719056,2,22.03614
1,Anchieta/ES,-20.8057672,-40.6454564,1927,6471.00306
D1,Anchieta/ES,-20.8057672,-40.6454564,32,107.45828
1,Anchieta/SC,-26.5350527,-53.3293938,119,2141.44322
D1,Anchieta/SC,-26.5350527,-53.3293938,2,35.99064
1,Andaraí/BA,-12.8059674,-41.3322919,262,1995.12641
D1,Andaraí/BA,-12.8059674,-41.3322919,2,15.22997
1,Andirá/PR,-23.0494761,-50.2310027,499,2504.26578
D1,Andirá/PR,-23.0494761,-50.2310027,4,20.07427
1,Andorinha/BA,-10.3445708,-39.8334411,351,2420.18893
D1,Andorinha/BA,-10.3445708,-39.8334411,6,41.37075
1,Andradas/MG,-22.0680484,-46.5688976,695,1678.90617
D1,Andradas/MG,-22.0680484,-46.5688976,19,45.89815
1,Andradina/SP,-20.896505,-51.3742765,2144,3748.12070
D1,Andradina/SP,-20.896505,-51.3742765,75,131.11430
1,Andrelândia/MG,-21.739722,-44.308889,112,917.58152
D1,Andrelândia/MG,-21.739722,-44.308889,1,8.19269
1,André da Rocha/RS,-28.6309124,-51.5733328,47,3499.62770
1,Angatuba/SP,-23.4938938,-48.4110675,407,1597.39393
D1,Angatuba/SP,-23.4938938,-48.4110675,12,47.09761
1,Angelim/PE,-8.8902038,-36.2872987,86,766.07875
D1,Angelim/PE,-8.8902038,-36.2872987,3,26.72368
1,Angelina/SC,-27.5805287,-48.9838759,220,4638.41451
1,Angelândia/MG,-17.7253,-42.2728,19,222.04043
1,Angical do Piauí/PI,-6.0872666,-42.7366138,204,3007.51880
D1,Angical do Piauí/PI,-6.0872666,-42.7366138,5,73.71370
1,Angical/BA,-12.005623,-44.7000236,279,2001.72191
D1,Angical/BA,-12.005623,-44.7000236,4,28.69852
1,Angico/TO,-6.3893733,-47.8656722,168,4863.92588
D1,Angico/TO,-6.3893733,-47.8656722,1,28.95194
1,Angicos/RN,-5.6666344,-36.6009064,187,1597.60786
D1,Angicos/RN,-5.6666344,-36.6009064,6,51.26015
1,Angra dos Reis/RJ,-23.0063966,-44.316326,7997,3862.46402
D1,Angra dos Reis/RJ,-23.0063966,-44.316326,241,116.40038
1,Anguera/BA,-12.1509425,-39.2452469,128,1133.04417
1,Angélica/MS,-22.1588196,-53.7728504,206,1884.37614
D1,Angélica/MS,-22.1588196,-53.7728504,5,45.73729
1,Anhanguera/GO,-18.3338749,-48.220363,18,1551.72414
D1,Anhanguera/GO,-18.3338749,-48.220363,2,172.41379
1,Anhembi/SP,-22.7891096,-48.1316776,33,483.94193
D1,Anhembi/SP,-22.7891096,-48.1316776,1,14.66491
1,Anhumas/SP,-22.2956478,-51.3873401,131,3161.19691
1,Anicuns/GO,-16.4606451,-49.9572265,1007,4581.22924
D1,Anicuns/GO,-16.4606451,-49.9572265,17,77.33952
1,Anita Garibaldi/SC,-27.6855032,-51.1293873,503,7230.12793
D1,Anita Garibaldi/SC,-27.6855032,-51.1293873,2,28.74802
1,Anitápolis/SC,-27.9041185,-49.1287395,150,4646.84015
1,Anori/AM,-3.7435254,-61.6605203,1306,6080.92378
D1,Anori/AM,-3.7435254,-61.6605203,18,83.81059
1,Anta Gorda/RS,-28.9718745,-52.0069187,268,4495.88995
1,Antas/BA,-10.4114649,-38.3308815,564,2895.42584
1,Antonina do Norte/CE,-6.7754187,-39.9879345,77,1043.64326
D1,Antonina do Norte/CE,-6.7754187,-39.9879345,2,27.10762
1,Antonina/PR,-25.4298854,-48.7125431,1129,5958.09805
D1,Antonina/PR,-25.4298854,-48.7125431,32,168.87435
1,Antônio Almeida/PI,-7.2186016,-44.1950248,244,7697.16088
D1,Antônio Almeida/PI,-7.2186016,-44.1950248,3,94.63722
1,Antônio Cardoso/BA,-12.4363122,-39.1200307,127,1087.60812
D1,Antônio Cardoso/BA,-12.4363122,-39.1200307,4,34.25537
1,Antônio Carlos/MG,-21.318334,-43.746666,149,1300.28798
D1,Antônio Carlos/MG,-21.318334,-43.746666,2,17.45353
1,Antônio Carlos/SC,-27.5168462,-48.7684715,752,8730.98804
D1,Antônio Carlos/SC,-27.5168462,-48.7684715,14,162.54499
1,Antônio Dias/MG,-19.6525,-42.872778,135,1455.52561
D1,Antônio Dias/MG,-19.6525,-42.872778,4,43.12668
1,Antônio Gonçalves/BA,-10.5715409,-40.2748824,327,2752.98872
D1,Antônio Gonçalves/BA,-10.5715409,-40.2748824,1,8.41893
1,Antônio João/MS,-22.1892837,-55.9508227,122,1352.54989
D1,Antônio João/MS,-22.1892837,-55.9508227,4,44.34590
1,Antônio Martins/RN,-6.2155812,-37.8890129,76,1062.34275
D1,Antônio Martins/RN,-6.2155812,-37.8890129,1,13.97819
1,Antônio Olinto/PR,-25.9849006,-50.1974516,131,1763.83466
D1,Antônio Olinto/PR,-25.9849006,-50.1974516,1,13.46439
1,Antônio Prado de Minas/MG,-21.0171988,-42.1101106,103,6490.23314
D1,Antônio Prado de Minas/MG,-21.0171988,-42.1101106,2,126.02394
1,Antônio Prado/RS,-28.8567806,-51.2801355,963,7382.13875
D1,Antônio Prado/RS,-28.8567806,-51.2801355,11,84.32350
1,Anápolis/GO,-16.3332828,-48.9525756,16344,4171.81422
D1,Anápolis/GO,-16.3332828,-48.9525756,407,103.88695
1,Anísio de Abreu/PI,-9.185643,-43.04941,196,1972.22781
D1,Anísio de Abreu/PI,-9.185643,-43.04941,1,10.06239
1,Aparecida d'Oeste/SP,-20.4498109,-50.8808706,328,7888.40789
D1,Aparecida d'Oeste/SP,-20.4498109,-50.8808706,9,216.45022
1,Aparecida de Goiânia/GO,-16.8226769,-49.2452546,40014,6780.35605
D1,Aparecida de Goiânia/GO,-16.8226769,-49.2452546,587,99.46691
1,Aparecida do Rio Doce/GO,-18.2980167,-51.1491312,111,4486.66128
D1,Aparecida do Rio Doce/GO,-18.2980167,-51.1491312,3,121.26112
1,Aparecida do Rio Negro/TO,-9.9513491,-47.9773786,114,2351.48515
D1,Aparecida do Rio Negro/TO,-9.9513491,-47.9773786,2,41.25413
1,Aparecida do Taboado/MS,-20.0840304,-51.1013943,1112,4265.60282
D1,Aparecida do Taboado/MS,-20.0840304,-51.1013943,20,76.71948
1,Aparecida/PB,-6.7859598, -38.0831353,542,6440.11407
D1,Aparecida/PB,-6.7859598, -38.0831353,7,83.17490
1,Aparecida/SP,-22.851552,-45.2340924,694,1917.92179
D1,Aparecida/SP,-22.851552,-45.2340924,20,55.27152
1,Aperibé/RJ,-21.6211928,-42.1028167,251,2109.06647
D1,Aperibé/RJ,-21.6211928,-42.1028167,9,75.62390
1,Apiacá/ES,-21.152272,-41.569297,296,3918.45380
D1,Apiacá/ES,-21.152272,-41.569297,5,66.19010
1,Apiacás/MT,-9.5678422,-57.394852,85,826.60702
D1,Apiacás/MT,-9.5678422,-57.394852,1,9.72479
1,Apiaí/SP,-24.5076527,-48.8461582,241,994.79898
D1,Apiaí/SP,-24.5076527,-48.8461582,8,33.02237
1,Apicum-Açu/MA,-1.5279295,-45.082278,199,1142.82433
D1,Apicum-Açu/MA,-1.5279295,-45.082278,3,17.22851
1,Apiúna/SC,-27.0374658,-49.3885037,352,3244.83776
D1,Apiúna/SC,-27.0374658,-49.3885037,8,73.74631
1,Apodi/RN,-5.6631109,-37.796927,3053,8510.34175
D1,Apodi/RN,-5.6631109,-37.796927,43,119.86397
1,Aporá/BA,-11.6599747,-38.0794757,290,1630.31257
D1,Aporá/BA,-11.6599747,-38.0794757,7,39.35237
1,Aporé/GO,-18.9642193,-51.92804,150,3544.42344
D1,Aporé/GO,-18.9642193,-51.92804,3,70.88847
1,Apuarema/BA,-13.8517897,-39.7457126,476,6518.76198
D1,Apuarema/BA,-13.8517897,-39.7457126,7,95.86415
1,Apucarana/PR,-23.5525327,-51.4610764,1635,1200.14093
D1,Apucarana/PR,-23.5525327,-51.4610764,81,59.45652
1,Apuiarés/CE,-3.9460303,-39.4313298,263,1792.52999
D1,Apuiarés/CE,-3.9460303,-39.4313298,11,74.97274
1,Apuí/AM,-7.1940195,-59.8830192,481,2151.25900
D1,Apuí/AM,-7.1940195,-59.8830192,5,22.36236
1,Aquidabã/SE,-10.2837579,-37.0188687,872,4021.95471
D1,Aquidabã/SE,-10.2837579,-37.0188687,18,83.02200
1,Aquidauana/MS,-20.473969,-55.7821375,2632,5480.02249
D1,Aquidauana/MS,-20.473969,-55.7821375,73,151.99151
1,Aquiraz/CE,-3.9063117,-38.387504,1381,1706.30753
D1,Aquiraz/CE,-3.9063117,-38.387504,40,49.42238
1,Arabutã/SC,-27.1587028,-52.1438142,120,2812.28029
D1,Arabutã/SC,-27.1587028,-52.1438142,2,46.87134
1,Aracaju/SE,-10.9162061,-37.0774655,53961,8115.55884
D1,Aracaju/SE,-10.9162061,-37.0774655,888,133.55231
1,Aracati/CE,-4.558259,-37.767894,2236,2982.32744
D1,Aracati/CE,-4.558259,-37.767894,57,76.02534
1,Aracatu/BA,-14.4274236,-41.4604105,382,2928.32503
D1,Aracatu/BA,-14.4274236,-41.4604105,7,53.66041
1,Araci/BA,-11.3356065,-38.9573261,1366,2499.63402
D1,Araci/BA,-11.3356065,-38.9573261,18,32.93808
1,Aracitaba/MG,-21.3425,-43.378611,63,3059.73774
D1,Aracitaba/MG,-21.3425,-43.378611,4,194.26906
1,Aracoiaba/CE,-4.3702577,-38.8084313,887,3342.75485
D1,Aracoiaba/CE,-4.3702577,-38.8084313,16,60.29772
1,Aracruz/ES,-19.8245218,-40.2735025,7147,6932.03752
D1,Aracruz/ES,-19.8245218,-40.2735025,101,97.96219
1,Aragarças/GO,-15.8957166,-52.2514538,932,4597.24757
D1,Aragarças/GO,-15.8957166,-52.2514538,19,93.72071
1,Aragoiânia/GO,-16.9146388,-49.4499148,443,4220.65549
D1,Aragoiânia/GO,-16.9146388,-49.4499148,4,38.10976
1,Aragominas/TO,-7.1654101,-48.525488,311,5426.62712
D1,Aragominas/TO,-7.1654101,-48.525488,5,87.24481
1,Araguacema/TO,-8.8067391,-49.5560969,71,992.31307
D1,Araguacema/TO,-8.8067391,-49.5560969,1,13.97624
1,Araguaiana/MT,-15.729144,-51.834112,60,1929.88099
D1,Araguaiana/MT,-15.729144,-51.834112,2,64.32937
1,Araguainha/MT,-16.857016,-53.031778,5,528.54123
1,Araguanã/MA,-2.9508403,-45.6651986,569,3658.92869
D1,Araguanã/MA,-2.9508403,-45.6651986,4,25.72182
1,Araguanã/TO,-6.5799107,-48.6428482,179,3089.93613
D1,Araguanã/TO,-6.5799107,-48.6428482,9,155.35992
1,Araguapaz/GO,-15.0937927,-50.626417,204,2621.09726
D1,Araguapaz/GO,-15.0937927,-50.626417,7,89.93961
1,Araguari/MG,-18.6511256,-48.1933764,5197,4410.77870
D1,Araguari/MG,-18.6511256,-48.1933764,113,95.90494
1,Araguatins/TO,-5.6522925,-48.1158973,1115,3082.66519
D1,Araguatins/TO,-5.6522925,-48.1158973,30,82.94166
1,Araguaçu/TO,-12.928934,-49.823134,554,6543.04949
D1,Araguaçu/TO,-12.928934,-49.823134,9,106.29503
1,Araguaína/TO,-7.193241,-48.2018597,17743,9675.48437
D1,Araguaína/TO,-7.193241,-48.2018597,239,130.32975
1,Araioses/MA,-2.890914,-41.904993,589,1259.32736
D1,Araioses/MA,-2.890914,-41.904993,10,21.38077
1,Aral Moreira/MS,-22.951141,-55.6268421,209,1694.77781
D1,Aral Moreira/MS,-22.951141,-55.6268421,5,40.54492
1,Aramari/BA,-12.0907897,-38.4985065,219,1910.82803
D1,Aramari/BA,-12.0907897,-38.4985065,5,43.62621
1,Arambaré/RS,-30.9132252,-51.4994625,53,1487.92813
D1,Arambaré/RS,-30.9132252,-51.4994625,1,28.07412
1,Arame/MA,-4.8858769,-46.0102484,956,2917.83665
D1,Arame/MA,-4.8858769,-46.0102484,20,61.04261
1,Aramina/SP,-20.0876144,-47.789201,136,2404.95137
D1,Aramina/SP,-20.0876144,-47.789201,5,88.41733
1,Arandu/SP,-23.1345103,-49.0545651,62,974.07698
D1,Arandu/SP,-23.1345103,-49.0545651,4,62.84368
1,Arantina/MG,-21.911667,-44.255833,28,1004.66451
D1,Arantina/MG,-21.911667,-44.255833,2,71.76175
1,Arapeí/SP,-22.6738889,-44.4477778,19,772.35772
D1,Arapeí/SP,-22.6738889,-44.4477778,1,40.65041
1,Arapiraca/AL,-9.754866,-36.661471,13850,5943.00720
D1,Arapiraca/AL,-9.754866,-36.661471,181,77.66674
1,Arapoema/TO,-7.6575001,-49.0641484,153,2312.57557
D1,Arapoema/TO,-7.6575001,-49.0641484,4,60.45949
1,Araponga/MG,-20.666667,-42.520556,54,638.82645
1,Arapongas/PR,-23.415296,-51.42592,4795,3841.83960
D1,Arapongas/PR,-23.415296,-51.42592,138,110.56806
1,Araporã/MG,-18.4318188,-49.188313,1017,14673.20733
D1,Araporã/MG,-18.4318188,-49.188313,10,144.27932
1,Arapoti/PR,-24.1457957,-49.8224605,761,2689.04594
D1,Arapoti/PR,-24.1457957,-49.8224605,5,17.66784
1,Araputanga/MT,-15.4710868,-58.346796,604,3563.21161
D1,Araputanga/MT,-15.4710868,-58.346796,8,47.19486
1,Arapuá/MG,-19.034444,-46.155556,48,1693.12169
1,Arapuã/PR,-24.3079525,-51.7901941,50,1661.68162
D1,Arapuã/PR,-24.3079525,-51.7901941,1,33.23363
1,Araquari/SC,-26.3703324,-48.7210994,1540,3896.36676
D1,Araquari/SC,-26.3703324,-48.7210994,20,50.60217
1,Arara/PB,-6.8271895,-35.7605703,272,2008.56594
D1,Arara/PB,-6.8271895,-35.7605703,7,51.69104
1,Araranguá/SC,-28.9348832,-49.4858389,5432,7887.66753
D1,Araranguá/SC,-28.9348832,-49.4858389,79,114.71387
1,Araraquara/SP,-21.7886713,-48.1773096,7674,3219.78359
D1,Araraquara/SP,-21.7886713,-48.1773096,85,35.66349
1,Araras/SP,-22.3569477,-47.3838889,5955,4394.63935
D1,Araras/SP,-22.3569477,-47.3838889,88,64.94177
1,Ararendá/CE,-4.7504395,-40.8303611,340,3102.47285
D1,Ararendá/CE,-4.7504395,-40.8303611,9,82.12428
1,Arari/MA,-3.4547602,-44.7772723,369,1232.79433
D1,Arari/MA,-3.4547602,-44.7772723,10,33.40906
1,Araricá/RS,-29.6168543,-50.929121,377,6532.66332
D1,Araricá/RS,-29.6168543,-50.929121,8,138.62416
1,Araripe/CE,-7.212861,-40.1359222,308,1422.37000
D1,Araripe/CE,-7.212861,-40.1359222,5,23.09042
1,Araripina/PE,-7.5768582,-40.5038509,2949,3474.97172
D1,Araripina/PE,-7.5768582,-40.5038509,49,57.73944
1,Araruama/RJ,-22.8733203,-42.3428897,2196,1635.23043
D1,Araruama/RJ,-22.8733203,-42.3428897,88,65.52836
1,Araruna/PB,-6.5321155,-35.7397595,478,2335.92337
D1,Araruna/PB,-6.5321155,-35.7397595,12,58.64243
1,Araruna/PR,-23.9320308,-52.4976047,416,2971.42857
D1,Araruna/PR,-23.9320308,-52.4976047,10,71.42857
1,Arataca/BA,-15.2617424,-39.4122943,281,2563.63470
D1,Arataca/BA,-15.2617424,-39.4122943,9,82.10930
1,Aratiba/RS,-27.3955734,-52.3024325,188,3037.64744
D1,Aratiba/RS,-27.3955734,-52.3024325,4,64.63080
1,Aratuba/CE,-4.4195958,-39.0463737,266,2253.85528
D1,Aratuba/CE,-4.4195958,-39.0463737,2,16.94628
1,Aratuípe/BA,-13.077137,-39.0010786,193,2183.99909
D1,Aratuípe/BA,-13.077137,-39.0010786,6,67.89634
1,Araucária/PR,-25.5861107,-49.4051209,9839,6729.17778
D1,Araucária/PR,-25.5861107,-49.4051209,114,77.96791
1,Arauá/SE,-11.2644014,-37.6181058,411,4131.89907
D1,Arauá/SE,-11.2644014,-37.6181058,9,90.47954
1,Araxá/MG,-19.5928536,-46.940241,3227,3006.41904
D1,Araxá/MG,-19.5928536,-46.940241,42,39.12910
1,Araçagi/PB,-6.8519969,-35.3835602,615,3634.53697
D1,Araçagi/PB,-6.8519969,-35.3835602,6,35.45890
1,Araçariguama/SP,-23.438611,-47.061389,516,2257.21785
D1,Araçariguama/SP,-23.438611,-47.061389,10,43.74453
1,Araçatuba/SP,-21.207992,-50.4390225,9989,5041.66477
D1,Araçatuba/SP,-21.207992,-50.4390225,201,101.44906
1,Araçaí/MG,-19.200833,-44.2475,5,212.40442
1,Araçoiaba da Serra/SP,-23.5045367,-47.6168158,825,2372.32574
D1,Araçoiaba da Serra/SP,-23.5045367,-47.6168158,19,54.63538
1,Araçoiaba/PE,-7.7856903,-35.0898881,194,935.70636
D1,Araçoiaba/PE,-7.7856903,-35.0898881,20,96.46457
1,Araçu/GO,-16.3561579,-49.6815269,135,3872.63339
D1,Araçu/GO,-16.3561579,-49.6815269,4,114.74469
1,Araçuaí/MG,-16.8484451,-42.0661868,202,550.22881
D1,Araçuaí/MG,-16.8484451,-42.0661868,6,16.34343
1,Araçás/BA,-12.2139176,-38.2026159,442,3620.57667
D1,Araçás/BA,-12.2139176,-38.2026159,5,40.95675
1,Araújos/MG,-19.948055,-45.165556,129,1372.19445
D1,Araújos/MG,-19.948055,-45.165556,1,10.63717
1,Arceburgo/MG,-21.364444,-46.939722,179,1644.76707
D1,Arceburgo/MG,-21.364444,-46.939722,3,27.56593
1,Arco-Íris/SP,-21.7741308,-50.4668814,18,1015.22843
1,Arcos/MG,-20.282223,-45.539444,858,2124.81426
D1,Arcos/MG,-20.282223,-45.539444,16,39.62358
1,Arcoverde/PE,-8.415192,-37.057748,2817,3764.93545
D1,Arcoverde/PE,-8.415192,-37.057748,70,93.55537
1,Areado/MG,-21.3582771,-46.1476688,28,184.44108
D1,Areado/MG,-21.3582771,-46.1476688,3,19.76154
1,Areal/RJ,-22.2314922,-43.1056264,322,2541.63707
D1,Areal/RJ,-22.2314922,-43.1056264,10,78.93283
1,Arealva/SP,-22.0301906,-48.9111936,202,2345.29200
D1,Arealva/SP,-22.0301906,-48.9111936,2,23.22071
1,Areia Branca/RN,-4.9506652,-37.1263312,949,3393.28494
D1,Areia Branca/RN,-4.9506652,-37.1263312,56,200.23599
1,Areia Branca/SE,-10.7591455,-37.3148072,871,4661.24371
D1,Areia Branca/SE,-10.7591455,-37.3148072,20,107.03200
1,Areia de Baraúnas/PB,-7.1233949,-36.9446216,13,614.36673
1,Areia/PB,-6.9680243,-35.6994783,586,2586.51130
D1,Areia/PB,-6.9680243,-35.6994783,6,26.48305
1,Areial/PB,-7.0501306,-35.9245244,103,1465.77487
D1,Areial/PB,-7.0501306,-35.9245244,2,28.46165
1,Areias/SP,-22.5800929,-44.6975127,58,1488.70637
1,Areiópolis/SP,-22.6758064,-48.6673653,181,1622.15451
D1,Areiópolis/SP,-22.6758064,-48.6673653,4,35.84872
1,Arenápolis/MT,-14.4610369,-56.8432806,501,5272.57419
D1,Arenápolis/MT,-14.4610369,-56.8432806,7,73.66870
1,Arenópolis/GO,-16.3859286,-51.55937,32,1261.82965
1,Argirita/MG,-21.612761,-42.8371922,107,3957.10059
D1,Argirita/MG,-21.612761,-42.8371922,4,147.92899
1,Aricanduva/MG,-17.8678,-42.5569,13,246.72613
1,Arinos/MG,-15.917223,-46.106111,160,895.75635
D1,Arinos/MG,-15.917223,-46.106111,3,16.79543
1,Aripuanã/MT,-10.175806,-59.4439663,901,3966.71656
D1,Aripuanã/MT,-10.175806,-59.4439663,15,66.03857
1,Ariquemes/RO,-9.9076522,-63.033069,7664,6997.61694
D1,Ariquemes/RO,-9.9076522,-63.033069,125,114.13128
1,Ariranha do Ivaí/PR,-24.3834527,-51.5876772,35,1694.09487
D1,Ariranha do Ivaí/PR,-24.3834527,-51.5876772,1,48.40271
1,Ariranha/SP,-21.18716,-48.790418,203,2079.70495
D1,Ariranha/SP,-21.18716,-48.790418,8,81.95882
1,Armazém/SC,-28.2624996,-49.0190126,592,6758.76242
D1,Armazém/SC,-28.2624996,-49.0190126,6,68.50097
1,Armação dos Búzios/RJ,-22.7597805,-41.8875267,1255,3640.10790
D1,Armação dos Búzios/RJ,-22.7597805,-41.8875267,22,63.81066
1,Arneiroz/CE,-6.3235099,-40.1603859,66,841.40745
D1,Arneiroz/CE,-6.3235099,-40.1603859,6,76.49159
1,Aroazes/PI,-6.1108814,-41.7886137,152,2608.54642
D1,Aroazes/PI,-6.1108814,-41.7886137,5,85.80745
1,Aroeiras do Itaim/PI,-7.2797031,-41.5629681,92,3606.42885
D1,Aroeiras do Itaim/PI,-7.2797031,-41.5629681,1,39.20031
1,Aroeiras/PB,-7.5462904,-35.7080002,278,1454.27914
D1,Aroeiras/PB,-7.5462904,-35.7080002,3,15.69366
1,Arraial do Cabo/RJ,-22.9662839,-42.024427,343,1121.17151
D1,Arraial do Cabo/RJ,-22.9662839,-42.024427,9,29.41849
1,Arraial/PI,-6.6541632,-42.5335332,75,1588.98305
D1,Arraial/PI,-6.6541632,-42.5335332,1,21.18644
1,Arraias/TO,-12.9287788,-46.9437231,162,1537.87735
1,Arroio Grande/RS,-32.2384246,-53.0866661,294,1612.01886
D1,Arroio Grande/RS,-32.2384246,-53.0866661,3,16.44917
1,Arroio Trinta/SC,-26.9301976,-51.334928,193,5438.15159
D1,Arroio Trinta/SC,-26.9301976,-51.334928,1,28.17695
1,Arroio do Meio/RS,-29.4020392,-51.9444993,968,4616.77875
D1,Arroio do Meio/RS,-29.4020392,-51.9444993,9,42.92460
1,Arroio do Padre/RS,-31.4428773,-52.4228985,71,2405.96408
1,Arroio do Sal/RS,-29.549852,-49.8874395,371,3609.30052
D1,Arroio do Sal/RS,-29.549852,-49.8874395,9,87.55716
1,Arroio do Tigre/RS,-29.334158,-53.0888935,193,1438.90256
D1,Arroio do Tigre/RS,-29.334158,-53.0888935,1,7.45545
1,Arroio dos Ratos/RS,-30.0894524,-51.7265541,315,2221.90873
D1,Arroio dos Ratos/RS,-30.0894524,-51.7265541,16,112.85886
1,Artur Nogueira/SP,-22.572737,-47.172679,1423,2571.37694
D1,Artur Nogueira/SP,-22.572737,-47.172679,39,70.47344
1,Aruanã/GO,-14.9162439,-51.0715692,172,1701.28586
D1,Aruanã/GO,-14.9162439,-51.0715692,1,9.89120
1,Arujá/SP,-23.396266,-46.3175449,2813,3085.88479
D1,Arujá/SP,-23.396266,-46.3175449,111,121.76794
1,Arvoredo/SC,-27.0752908,-52.4571847,78,3491.49508
D1,Arvoredo/SC,-27.0752908,-52.4571847,1,44.76276
1,Arvorezinha/RS,-28.87369,-52.17808,295,2830.27919
D1,Arvorezinha/RS,-28.87369,-52.17808,6,57.56500
1,Arês/RN,-6.1969216,-35.1642968,381,2642.71346
D1,Arês/RN,-6.1969216,-35.1642968,10,69.36256
1,Ascurra/SC,-26.9569975,-49.3767752,510,6392.57959
D1,Ascurra/SC,-26.9569975,-49.3767752,2,25.06894
1,Aspásia/SP,-20.160028,-50.728046,51,2805.28053
D1,Aspásia/SP,-20.160028,-50.728046,2,110.01100
1,Assaré/CE,-6.8746791,-39.8741385,880,3748.18979
D1,Assaré/CE,-6.8746791,-39.8741385,12,51.11168
1,Assaí/PR,-23.3736041,-50.8454929,396,2648.12090
D1,Assaí/PR,-23.3736041,-50.8454929,15,100.30761
1,Assis Brasil/AC,-10.9409203,-69.5672108,761,10100.87603
D1,Assis Brasil/AC,-10.9409203,-69.5672108,9,119.45846
1,Assis Chateaubriand/PR,-24.4054826,-53.5120468,1063,3188.36233
D1,Assis Chateaubriand/PR,-24.4054826,-53.5120468,13,38.99220
1,Assis/SP,-22.6620892,-50.420623,2167,2062.10093
D1,Assis/SP,-22.6620892,-50.420623,38,36.16051
1,Assunção do Piauí/PI,-5.8610212,-41.0485091,149,1894.95104
D1,Assunção do Piauí/PI,-5.8610212,-41.0485091,2,25.43558
1,Assunção/PB,-7.073396,-36.7274003,49,1216.18268
1,Astolfo Dutra/MG,-21.3132636,-42.8624102,621,4351.78697
D1,Astolfo Dutra/MG,-21.3132636,-42.8624102,9,63.06938
1,Astorga/PR,-23.2350184,-51.6647074,909,3468.27426
D1,Astorga/PR,-23.2350184,-51.6647074,13,49.60128
1,Atalaia do Norte/AM,-4.3658547,-70.1908742,1594,7814.49162
D1,Atalaia do Norte/AM,-4.3658547,-70.1908742,4,19.60977
1,Atalaia/AL,-9.5029595,-36.0219316,655,1382.87765
D1,Atalaia/AL,-9.5029595,-36.0219316,25,52.78159
1,Atalaia/PR,-23.1513833,-52.0529697,122,3143.51971
D1,Atalaia/PR,-23.1513833,-52.0529697,3,77.29967
1,Atalanta/SC,-27.421916,-49.778863,77,2410.01565
1,Ataléia/MG,-18.04432,-41.1110524,238,1877.26771
D1,Ataléia/MG,-18.04432,-41.1110524,4,31.55072
1,Atibaia/SP,-23.1177393,-46.5547861,3083,2139.66465
D1,Atibaia/SP,-23.1177393,-46.5547861,73,50.66348
1,Atilio Vivacqua/ES,-20.9139369,-41.1947519,706,5832.30070
D1,Atilio Vivacqua/ES,-20.9139369,-41.1947519,14,115.65469
1,Augustinópolis/TO,-5.4662267,-47.8897519,767,4114.14472
D1,Augustinópolis/TO,-5.4662267,-47.8897519,10,53.63944
1,Augusto Corrêa/PA,-1.0229335,-46.6404029,1450,3120.22552
D1,Augusto Corrêa/PA,-1.0229335,-46.6404029,21,45.18947
1,Augusto Pestana/RS,-28.5148413,-53.9906433,76,1151.16631
D1,Augusto Pestana/RS,-28.5148413,-53.9906433,2,30.29385
1,Augusto de Lima/MG,-18.1092963,-44.2651945,94,1937.74479
D1,Augusto de Lima/MG,-18.1092963,-44.2651945,1,20.61431
1,Aurelino Leal/BA,-14.3167137,-39.3256107,580,5133.19763
D1,Aurelino Leal/BA,-14.3167137,-39.3256107,13,115.05443
1,Auriflama/SP,-20.6840418,-50.5554616,684,4484.36373
D1,Auriflama/SP,-20.6840418,-50.5554616,14,91.78522
1,Aurilândia/GO,-16.6772599,-50.4641231,65,2125.57227
D1,Aurilândia/GO,-16.6772599,-50.4641231,1,32.70111
1,Aurora do Pará/PA,-2.1323199,-47.558436,693,2181.09716
D1,Aurora do Pará/PA,-2.1323199,-47.558436,8,25.17861
1,Aurora do Tocantins/TO,-12.71045,-46.407604,58,1533.17473
1,Aurora/CE,-6.9426019,-38.9693765,857,3482.32426
D1,Aurora/CE,-6.9426019,-38.9693765,23,93.45794
1,Aurora/SC,-27.3166417,-49.6368502,204,3589.65335
D1,Aurora/SC,-27.3166417,-49.6368502,4,70.38536
1,Autazes/AM,-3.5833283,-59.1301518,1637,4063.04294
D1,Autazes/AM,-3.5833283,-59.1301518,38,94.31621
1,Avanhandava/SP,-21.4603331,-49.9465156,265,1912.11487
D1,Avanhandava/SP,-21.4603331,-49.9465156,8,57.72422
1,Avaré/SP,-23.1045215,-48.9259103,1278,1400.82427
D1,Avaré/SP,-23.1045215,-48.9259103,21,23.01824
1,Avaí/SP,-22.1564662,-49.3316395,132,2428.25607
D1,Avaí/SP,-22.1564662,-49.3316395,3,55.18764
1,Aveiro/PA,-3.6049239,-55.3310742,452,2755.42551
D1,Aveiro/PA,-3.6049239,-55.3310742,5,30.48037
1,Avelino Lopes/PI,-10.1346855,-43.9489525,168,1483.31273
D1,Avelino Lopes/PI,-10.1346855,-43.9489525,15,132.43864
1,Avelinópolis/GO,-16.4672409,-49.7578661,140,5811.54006
D1,Avelinópolis/GO,-16.4672409,-49.7578661,2,83.02200
1,Axixá do Tocantins/TO,-5.612747,-47.77007,581,5936.44631
D1,Axixá do Tocantins/TO,-5.612747,-47.77007,5,51.08818
1,Axixá/MA,-2.8379465,-44.0561053,142,1165.55857
D1,Axixá/MA,-2.8379465,-44.0561053,3,24.62448
1,Açailândia/MA,-4.9514278,-47.4844564,3733,3300.00619
D1,Açailândia/MA,-4.9514278,-47.4844564,102,90.16893
1,Açu/RN,-5.5836157,-36.9139541,2280,3905.17950
D1,Açu/RN,-5.5836157,-36.9139541,79,135.31104
1,Açucena/MG,-19.073056,-42.546666,153,1633.21947
D1,Açucena/MG,-19.073056,-42.546666,5,53.37319
1,Babaçulândia/TO,-7.2034355,-47.761613,429,4022.12638
D1,Babaçulândia/TO,-7.2034355,-47.761613,4,37.50234
1,Bacabal/MA,-4.2318132,-44.781167,3667,3499.37971
D1,Bacabal/MA,-4.2318132,-44.781167,72,68.70885
1,Bacabeira/MA,-2.9775747,-44.3155943,163,944.81799
D1,Bacabeira/MA,-2.9775747,-44.3155943,3,17.38929
1,Bacuri/MA,-1.728894,-45.1417148,426,2283.69251
D1,Bacuri/MA,-1.728894,-45.1417148,4,21.44312
1,Bacurituba/MA,-2.7082587,-44.7381309,93,1640.21164
1,Bady Bassitt/SP,-20.9178969,-49.4517911,1150,6474.86065
D1,Bady Bassitt/SP,-20.9178969,-49.4517911,23,129.49721
1,Baependi/MG,-21.959162,-44.8899249,212,1104.22418
D1,Baependi/MG,-21.959162,-44.8899249,7,36.46023
1,Bagre/PA,-1.8994498,-50.2103844,483,1541.89944
D1,Bagre/PA,-1.8994498,-50.2103844,10,31.92338
1,Bagé/RS,-31.3314264,-54.1062808,2636,2172.49763
D1,Bagé/RS,-31.3314264,-54.1062808,50,41.20823
1,Baianópolis/BA,-12.3067564,-44.5383591,184,1320.98500
D1,Baianópolis/BA,-12.3067564,-44.5383591,2,14.35853
1,Baixa Grande do Ribeiro/PI,-7.862861,-45.2113289,1549,13272.21318
D1,Baixa Grande do Ribeiro/PI,-7.862861,-45.2113289,14,119.95545
1,Baixa Grande/BA,-11.9630941,-40.1657537,353,1726.24578
D1,Baixa Grande/BA,-11.9630941,-40.1657537,2,9.78043
1,Baixio/CE,-6.7303544,-38.7170095,126,1999.04807
D1,Baixio/CE,-6.7303544,-38.7170095,3,47.59638
1,Baixo Guandu/ES,-19.5138322,-41.0182089,1664,5344.98265
D1,Baixo Guandu/ES,-19.5138322,-41.0182089,31,99.57600
1,Baião/PA,-2.7903479,-49.6702845,427,881.15727
D1,Baião/PA,-2.7903479,-49.6702845,15,30.95400
1,Balbinos/SP,-21.9006253,-49.3583966,256,4314.12201
D1,Balbinos/SP,-21.9006253,-49.3583966,3,50.55612
1,Baldim/MG,-19.2913568,-43.9558262,180,2306.80507
D1,Baldim/MG,-19.2913568,-43.9558262,5,64.07792
1,Baliza/GO,-16.1978119,-52.542789,60,1136.36364
1,Balneário Arroio do Silva/SC,-28.9815269,-49.4189932,940,6999.25540
D1,Balneário Arroio do Silva/SC,-28.9815269,-49.4189932,14,104.24423
1,Balneário Barra do Sul/SC,-26.459842,-48.6061471,768,6959.67377
D1,Balneário Barra do Sul/SC,-26.459842,-48.6061471,10,90.62075
1,Balneário Camboriú/SC,-26.9924395,-48.6339782,14291,9802.05218
D1,Balneário Camboriú/SC,-26.9924395,-48.6339782,141,96.71047
1,Balneário Gaivota/SC,-29.1553098,-49.5808712,663,5888.09947
D1,Balneário Gaivota/SC,-29.1553098,-49.5808712,11,97.69094
1,Balneário Pinhal/RS,-30.2482978,-50.234585,353,2457.70382
D1,Balneário Pinhal/RS,-30.2482978,-50.234585,7,48.73634
1,Balneário Piçarras/SC,-26.7638889,-48.6716667,1916,8059.90241
D1,Balneário Piçarras/SC,-26.7638889,-48.6716667,14,58.89282
1,Balneário Rincão/SC,-28.8235718,-49.2241642,737,5692.87811
D1,Balneário Rincão/SC,-28.8235718,-49.2241642,17,131.31469
1,Balsa Nova/PR,-25.5842234,-49.6312741,431,3292.08677
D1,Balsa Nova/PR,-25.5842234,-49.6312741,9,68.74427
1,Balsas/MA,-7.53214,-46.037163,6974,7269.96007
D1,Balsas/MA,-7.53214,-46.037163,84,87.56476
1,Bambuí/MG,-20.0131996,-45.9777034,103,430.99841
D1,Bambuí/MG,-20.0131996,-45.9777034,1,4.18445
1,Banabuiú/CE,-5.3046404,-38.919766,643,3522.12971
D1,Banabuiú/CE,-5.3046404,-38.919766,4,21.91060
1,Bananal/SP,-22.6828195,-44.3221095,187,1701.08251
D1,Bananal/SP,-22.6828195,-44.3221095,1,9.09670
1,Bananeiras/PB,-6.7537682,-35.6338343,527,2477.78457
D1,Bananeiras/PB,-6.7537682,-35.6338343,2,9.40336
1,Bandeira do Sul/MG,-21.728056,-46.385555,71,1228.79889
D1,Bandeira do Sul/MG,-21.728056,-46.385555,2,34.61405
1,Bandeira/MG,-15.884444,-40.559167,375,7868.23332
D1,Bandeira/MG,-15.884444,-40.559167,4,83.92782
1,Bandeirante/SC,-26.7677402,-53.6397596,30,1132.93051
1,Bandeirantes do Tocantins/TO,-7.7635698,-48.579148,101,2811.80401
D1,Bandeirantes do Tocantins/TO,-7.7635698,-48.579148,2,55.67929
1,Bandeirantes/MS,-19.9179623,-54.3646768,193,2656.20699
D1,Bandeirantes/MS,-19.9179623,-54.3646768,4,55.05092
1,Bandeirantes/PR,-23.107788,-50.370407,1322,4235.68614
D1,Bandeirantes/PR,-23.107788,-50.370407,41,131.36394
1,Bannach/PA,-7.3508505,-50.4064531,121,3709.38075
D1,Bannach/PA,-7.3508505,-50.4064531,2,61.31208
1,Banzaê/BA,-10.5827616,-38.6122305,656,4954.68278
D1,Banzaê/BA,-10.5827616,-38.6122305,4,30.21148
1,Baraúna/PB,-6.643394,-36.2531932,154,3102.33683
1,Baraúna/RN,-5.0775002,-37.61752,629,2188.05441
D1,Baraúna/RN,-5.0775002,-37.61752,15,52.17936
1,Barbacena/MG,-21.2254524,-43.7735087,1657,1198.95227
D1,Barbacena/MG,-21.2254524,-43.7735087,30,21.70704
1,Barbalha/CE,-7.3121067,-39.3036427,2403,3924.67499
D1,Barbalha/CE,-7.3121067,-39.3036427,58,94.72790
1,Barbosa Ferraz/PR,-24.0287182,-52.00811,261,2284.26396
D1,Barbosa Ferraz/PR,-24.0287182,-52.00811,4,35.00788
1,Barbosa/SP,-21.265661,-49.951816,153,2048.74130
D1,Barbosa/SP,-21.265661,-49.951816,2,26.78093
1,Barcarena/PA,-1.5107945,-48.6190679,4618,3635.44758
D1,Barcarena/PA,-1.5107945,-48.6190679,121,95.25534
1,Barcelona/RN,-5.9514918,-35.9260284,41,1026.53981
D1,Barcelona/RN,-5.9514918,-35.9260284,4,100.15023
1,Barcelos/AM,-0.9729214,-62.925635,2981,10785.87452
D1,Barcelos/AM,-0.9729214,-62.925635,28,101.30979
1,Bariri/SP,-22.0746355,-48.7394852,1295,3641.93712
D1,Bariri/SP,-22.0746355,-48.7394852,29,81.55689
1,Barra Bonita/SC,-26.6526364,-53.4419581,43,2604.48213
1,Barra Bonita/SP,-22.490859,-48.558349,1185,3280.18602
D1,Barra Bonita/SP,-22.490859,-48.558349,27,74.73842
1,Barra D'Alcântara/PI,-6.5209258,-42.1071089,49,1239.87854
D1,Barra D'Alcântara/PI,-6.5209258,-42.1071089,1,25.30364
1,Barra Funda/RS,-27.9230048,-53.0401045,187,7330.45864
D1,Barra Funda/RS,-27.9230048,-53.0401045,3,117.60094
1,Barra Longa/MG,-20.2833541,-43.0423516,105,2093.71884
1,Barra Mansa/RJ,-22.5394843,-44.1735129,5457,2952.39486
D1,Barra Mansa/RJ,-22.5394843,-44.1735129,203,109.82887
1,Barra Velha/SC,-26.6338203,-48.6835001,1644,5505.69324
D1,Barra Velha/SC,-26.6338203,-48.6835001,31,103.81782
1,Barra da Estiva/BA,-13.6269662,-41.3278287,728,3570.02746
D1,Barra da Estiva/BA,-13.6269662,-41.3278287,2,9.80777
1,Barra de Guabiraba/PE,-8.4173522,-35.6626669,206,1419.71054
D1,Barra de Guabiraba/PE,-8.4173522,-35.6626669,11,75.80979
1,Barra de Santa Rosa/PB,-6.7218007,-36.0564638,241,1555.13970
D1,Barra de Santa Rosa/PB,-6.7218007,-36.0564638,2,12.90572
1,Barra de Santana/PB,-7.5230865,-35.9988518,179,2143.96934
D1,Barra de Santana/PB,-7.5230865,-35.9988518,3,35.93245
1,Barra de Santo Antônio/AL,-9.4038098,-35.5117693,144,896.19119
D1,Barra de Santo Antônio/AL,-9.4038098,-35.5117693,15,93.35325
1,Barra de São Francisco/ES,-18.7570902,-40.8916119,1671,3715.06703
D1,Barra de São Francisco/ES,-18.7570902,-40.8916119,49,108.93973
1,Barra de São Miguel/AL,-9.8261357,-35.8837777,191,2279.78038
D1,Barra de São Miguel/AL,-9.8261357,-35.8837777,5,59.68011
1,Barra de São Miguel/PB,-7.7528088,-36.3170996,127,2093.98186
D1,Barra de São Miguel/PB,-7.7528088,-36.3170996,1,16.48805
1,Barra do Bugres/MT,-15.0683712,-57.1853688,1187,3361.93956
D1,Barra do Bugres/MT,-15.0683712,-57.1853688,26,73.63979
1,Barra do Chapéu/SP,-24.472203,-49.023784,65,1128.47222
1,Barra do Choça/BA,-14.8638173,-40.5761637,815,2611.42619
D1,Barra do Choça/BA,-14.8638173,-40.5761637,7,22.42943
1,Barra do Corda/MA,-5.496823,-45.248496,4085,4616.23650
D1,Barra do Corda/MA,-5.496823,-45.248496,47,53.11215
1,Barra do Garças/MT,-15.8916033,-52.2615413,3157,5163.98135
D1,Barra do Garças/MT,-15.8916033,-52.2615413,124,202.82980
1,Barra do Guarita/RS,-27.1888016,-53.7147086,63,1934.29536
1,Barra do Jacaré/PR,-23.1151788,-50.1813945,38,1366.41496
1,Barra do Mendes/BA,-11.8053298,-42.057037,477,3448.27586
D1,Barra do Mendes/BA,-11.8053298,-42.057037,6,43.37454
1,Barra do Ouro/TO,-7.7113784,-47.6743925,79,1705.52677
D1,Barra do Ouro/TO,-7.7113784,-47.6743925,5,107.94473
1,Barra do Piraí/RJ,-22.4703403,-43.8263256,1859,1844.90493
D1,Barra do Piraí/RJ,-22.4703403,-43.8263256,85,84.35552
1,Barra do Quaraí/RS,-30.208947,-57.5505128,144,3406.67140
D1,Barra do Quaraí/RS,-30.208947,-57.5505128,1,23.65744
1,Barra do Ribeiro/RS,-30.2930206,-51.301437,277,2043.37563
D1,Barra do Ribeiro/RS,-30.2930206,-51.301437,23,169.66657
1,Barra do Rio Azul/RS,-27.4101581,-52.4117471,20,1208.45921
D1,Barra do Rio Azul/RS,-27.4101581,-52.4117471,1,60.42296
1,Barra do Rocha/BA,-14.2090974,-39.6004395,176,3136.13685
D1,Barra do Rocha/BA,-14.2090974,-39.6004395,2,35.63792
1,Barra do Turvo/SP,-24.756421,-48.5056942,219,2869.49686
D1,Barra do Turvo/SP,-24.756421,-48.5056942,6,78.61635
1,Barra dos Coqueiros/SE,-10.9075694,-37.0386249,2082,6731.32881
D1,Barra dos Coqueiros/SE,-10.9075694,-37.0386249,31,100.22632
1,Barra/BA,-11.0892702,-43.1420453,640,1187.16379
D1,Barra/BA,-11.0892702,-43.1420453,10,18.54943
1,Barracão/PR,-26.252395,-53.6349576,251,2434.05741
D1,Barracão/PR,-26.252395,-53.6349576,5,48.48720
1,Barracão/RS,-27.6728964,-51.4582928,136,2587.51903
D1,Barracão/RS,-27.6728964,-51.4582928,3,57.07763
1,Barras/PI,-4.2446153,-42.2920241,3163,6703.40150
D1,Barras/PI,-4.2446153,-42.2920241,61,129.27837
1,Barreira/CE,-4.2883361,-38.641094,370,1639.12639
D1,Barreira/CE,-4.2883361,-38.641094,21,93.03150
1,Barreiras do Piauí/PI,-9.9224524,-45.4763776,41,1223.15036
D1,Barreiras do Piauí/PI,-9.9224524,-45.4763776,1,29.83294
1,Barreiras/BA,-12.1440031,-44.9967406,7030,4478.42013
D1,Barreiras/BA,-12.1440031,-44.9967406,105,66.88963
1,Barreirinha/AM,-2.798863,-57.067897,1491,4590.09328
D1,Barreirinha/AM,-2.798863,-57.067897,27,83.12040
1,Barreirinhas/MA,-2.7541271,-42.8259693,1357,2146.57450
D1,Barreirinhas/MA,-2.7541271,-42.8259693,26,41.12818
1,Barreiros/PE,-8.8159644,-35.1831905,362,846.50641
D1,Barreiros/PE,-8.8159644,-35.1831905,41,95.87504
1,Barretos/SP,-20.5531437,-48.5697509,5953,4846.41749
D1,Barretos/SP,-20.5531437,-48.5697509,151,122.93113
1,Barrinha/SP,-21.1898849,-48.1550642,826,2489.45148
D1,Barrinha/SP,-21.1898849,-48.1550642,34,102.47137
1,Barro Alto/BA,-11.7618025,-41.9094904,492,3268.23436
D1,Barro Alto/BA,-11.7618025,-41.9094904,3,19.92826
1,Barro Alto/GO,-14.9696025,-48.9190985,620,5434.78261
D1,Barro Alto/GO,-14.9696025,-48.9190985,7,61.36045
1,Barro Duro/PI,-5.8180139,-42.5106589,462,6574.64067
D1,Barro Duro/PI,-5.8180139,-42.5106589,7,99.61577
1,Barro Preto/BA,-14.8068289,-39.4727588,315,5781.93833
D1,Barro Preto/BA,-14.8068289,-39.4727588,6,110.13216
1,Barro/CE,-7.1713587,-38.7742136,476,2091.57219
D1,Barro/CE,-7.1713587,-38.7742136,10,43.94059
1,Barrocas/BA,-11.5165,-39.099282894736845,231,1434.33716
D1,Barrocas/BA,-11.5165,-39.099282894736845,2,12.41850
1,Barrolândia/TO,-9.837246,-48.7264346,239,4229.33994
D1,Barrolândia/TO,-9.837246,-48.7264346,4,70.78393
1,Barroquinha/CE,-3.0200371,-41.1339229,816,5424.08934
D1,Barroquinha/CE,-3.0200371,-41.1339229,20,132.94337
1,Barros Cassal/RS,-29.094938,-52.5832366,228,2038.99124
D1,Barros Cassal/RS,-29.094938,-52.5832366,2,17.88589
1,Barroso/MG,-21.187222,-43.976111,299,1430.82739
D1,Barroso/MG,-21.187222,-43.976111,2,9.57075
1,Barueri/SP,-23.5112184,-46.8764612,11201,4043.94509
D1,Barueri/SP,-23.5112184,-46.8764612,440,158.85509
1,Barão de Antonina/SP,-23.6295651,-49.5632104,25,714.69411
D1,Barão de Antonina/SP,-23.6295651,-49.5632104,1,28.58776
1,Barão de Cocais/MG,-19.9452437,-43.4870298,1026,3121.76718
D1,Barão de Cocais/MG,-19.9452437,-43.4870298,7,21.29861
1,Barão de Cotegipe/RS,-27.6214694,-52.3765316,296,4471.29909
D1,Barão de Cotegipe/RS,-27.6214694,-52.3765316,4,60.42296
1,Barão de Grajaú/MA,-6.7542591,-43.0263477,27,142.67597
D1,Barão de Grajaú/MA,-6.7542591,-43.0263477,1,5.28430
1,Barão de Melgaço/MT,-16.195776,-55.9668049,140,1714.84566
D1,Barão de Melgaço/MT,-16.195776,-55.9668049,6,73.49339
1,Barão de Monte Alto/MG,-21.244722,-42.2375,95,1774.37430
D1,Barão de Monte Alto/MG,-21.244722,-42.2375,3,56.03287
1,Barão do Triunfo/RS,-30.3909877,-51.7375349,150,1994.94614
D1,Barão do Triunfo/RS,-30.3909877,-51.7375349,1,13.29964
1,Barão/RS,-29.372474,-51.494908,185,2982.90874
D1,Barão/RS,-29.372474,-51.494908,3,48.37149
1,Bastos/SP,-21.9222474,-50.7317727,248,1183.60139
D1,Bastos/SP,-21.9222474,-50.7317727,7,33.40810
1,Bataguassu/MS,-21.715899,-52.422058,1302,5581.99357
D1,Bataguassu/MS,-21.715899,-52.422058,10,42.87245
1,Batalha/AL,-9.6733809,-37.1265481,630,3435.48915
D1,Batalha/AL,-9.6733809,-37.1265481,11,59.98473
1,Batalha/PI,-4.022391,-42.0780926,467,1735.73685
D1,Batalha/PI,-4.022391,-42.0780926,11,40.88459
1,Batatais/SP,-20.892867,-47.592149,956,1517.94220
D1,Batatais/SP,-20.892867,-47.592149,34,53.98539
1,Batayporã/MS,-22.2976466,-53.2685608,314,2766.76359
D1,Batayporã/MS,-22.2976466,-53.2685608,5,44.05675
1,Baturité/CE,-4.3290203,-38.8821055,709,1972.67744
D1,Baturité/CE,-4.3290203,-38.8821055,33,91.81714
1,Bauru/SP,-22.3218102,-49.0705863,17828,4700.27446
D1,Bauru/SP,-22.3218102,-49.0705863,291,76.72088
1,Bayeux/PB,-7.1301631,-34.936532,2638,2713.90801
D1,Bayeux/PB,-7.1301631,-34.936532,125,128.59685
1,Baía Formosa/RN,-6.3691885,-35.0063741,197,2113.28041
D1,Baía Formosa/RN,-6.3691885,-35.0063741,6,64.36387
1,Baía da Traição/PB,-6.691258,-34.9371244,907,9971.41601
D1,Baía da Traição/PB,-6.691258,-34.9371244,7,76.95690
1,Bebedouro/SP,-20.949077,-48.479083,1765,2275.80427
D1,Bebedouro/SP,-20.949077,-48.479083,39,50.28689
1,Beberibe/CE,-4.1810469,-38.1298101,1152,2135.35005
D1,Beberibe/CE,-4.1810469,-38.1298101,31,57.46168
1,Bela Cruz/CE,-3.0529129,-40.167582,1331,4067.59978
D1,Bela Cruz/CE,-3.0529129,-40.167582,24,73.34515
1,Bela Vista da Caroba/PR,-25.8792818,-53.6672545,54,1562.04802
D1,Bela Vista da Caroba/PR,-25.8792818,-53.6672545,1,28.92682
1,Bela Vista de Goiás/GO,-16.9692949,-48.9513071,1143,3748.52420
D1,Bela Vista de Goiás/GO,-16.9692949,-48.9513071,21,68.87052
1,Bela Vista de Minas/MG,-19.8289721,-43.0973688,203,1978.17190
D1,Bela Vista de Minas/MG,-19.8289721,-43.0973688,2,19.48938
1,Bela Vista do Maranhão/MA,-3.7416367,-45.2514192,154,1365.36927
D1,Bela Vista do Maranhão/MA,-3.7416367,-45.2514192,8,70.92827
1,Bela Vista do Paraíso/PR,-22.9948493,-51.1907996,363,2357.29593
D1,Bela Vista do Paraíso/PR,-22.9948493,-51.1907996,7,45.45750
1,Bela Vista do Piauí/PI,-7.9716353,-41.8715061,113,2803.97022
D1,Bela Vista do Piauí/PI,-7.9716353,-41.8715061,2,49.62779
1,Bela Vista do Toldo/SC,-26.274625,-50.466354,20,314.36655
D1,Bela Vista do Toldo/SC,-26.274625,-50.466354,1,15.71833
1,Bela Vista/MS,-22.107327,-56.5317344,139,561.95674
D1,Bela Vista/MS,-22.107327,-56.5317344,5,20.21427
1,Belford Roxo/RJ,-22.7667284,-43.4033603,13199,2572.31280
D1,Belford Roxo/RJ,-22.7667284,-43.4033603,372,72.49794
1,Belmiro Braga/MG,-21.9486291,-43.413564,54,1576.64234
D1,Belmiro Braga/MG,-21.9486291,-43.413564,3,87.59124
1,Belmonte/BA,-15.8630837,-38.8792845,624,2662.45680
D1,Belmonte/BA,-15.8630837,-38.8792845,5,21.33379
1,Belmonte/SC,-26.8448262,-53.578916,41,1513.47361
1,Belo Campo/BA,-15.0338286,-41.2585109,190,1110.52662
D1,Belo Campo/BA,-15.0338286,-41.2585109,3,17.53463
1,Belo Horizonte/MG,-19.9227318,-43.9450948,61600,2442.92828
D1,Belo Horizonte/MG,-19.9227318,-43.9450948,1837,72.85161
1,Belo Jardim/PE,-8.3338293,-36.4176419,1382,1802.13074
D1,Belo Jardim/PE,-8.3338293,-36.4176419,41,53.46408
1,Belo Monte/AL,-9.8269944,-37.2787165,186,2771.98212
D1,Belo Monte/AL,-9.8269944,-37.2787165,5,74.51565
1,Belo Oriente/MG,-19.2232523,-42.4807033,1058,3919.38949
D1,Belo Oriente/MG,-19.2232523,-42.4807033,18,66.68148
1,Belo Vale/MG,-20.407778,-44.024167,171,2215.31286
D1,Belo Vale/MG,-20.407778,-44.024167,6,77.73028
1,Belterra/PA,-2.636091,-54.937392,563,3156.00650
D1,Belterra/PA,-2.636091,-54.937392,14,78.47974
1,Belágua/MA,-3.1604031,-43.5085052,279,3706.16366
D1,Belágua/MA,-3.1604031,-43.5085052,1,13.28374
1,Belém de Maria/PE,-8.6242497,-35.8388934,107,882.69262
D1,Belém de Maria/PE,-8.6242497,-35.8388934,3,24.74839
1,Belém do Brejo do Cruz/PB,-6.1880727,-37.5332267,263,3578.71819
D1,Belém do Brejo do Cruz/PB,-6.1880727,-37.5332267,5,68.03647
1,Belém do Piauí/PI,-7.3767305,-40.9712156,172,4795.09339
D1,Belém do Piauí/PI,-7.3767305,-40.9712156,3,83.63535
1,Belém do São Francisco/PE,-8.7517707,-38.9625715,167,805.59575
1,Belém/AL,-9.5715351,-36.492841,70,1633.98693
D1,Belém/AL,-9.5715351,-36.492841,3,70.02801
1,Belém/PA,-1.45056,-48.4682453,55326,3689.28297
D1,Belém/PA,-1.45056,-48.4682453,2423,161.57200
1,Belém/PB,-6.6967586,-35.5369626,1181,6670.43208
D1,Belém/PB,-6.6967586,-35.5369626,18,101.66620
1,Beneditinos/PI,-5.4565671,-42.3605061,366,3494.70066
D1,Beneditinos/PI,-5.4565671,-42.3605061,12,114.58035
1,Benedito Leite/MA,-7.2173453,-44.5523331,203,3600.56758
D1,Benedito Leite/MA,-7.2173453,-44.5523331,2,35.47357
1,Benedito Novo/SC,-26.7840657,-49.3629511,426,3617.83439
D1,Benedito Novo/SC,-26.7840657,-49.3629511,4,33.97028
1,Benevides/PA,-1.3555577,-48.252235,2236,3506.46092
D1,Benevides/PA,-1.3555577,-48.252235,51,79.97742
1,Benjamin Constant do Sul/RS,-27.5105555,-52.6007689,119,6077.63023
1,Benjamin Constant/AM,-4.3782748,-70.0290603,1804,4106.06578
D1,Benjamin Constant/AM,-4.3782748,-70.0290603,46,104.70013
1,Bento Fernandes/RN,-5.6926846,-35.8207423,37,669.68326
D1,Bento Fernandes/RN,-5.6926846,-35.8207423,2,36.19910
1,Bento Gonçalves/RS,-29.1654014,-51.5197627,6697,5498.22254
D1,Bento Gonçalves/RS,-29.1654014,-51.5197627,136,111.65571
1,Bento de Abreu/SP,-21.2707225,-50.8120444,60,1996.67221
1,Bequimão/MA,-2.4495376,-44.7884889,246,1154.98380
D1,Bequimão/MA,-2.4495376,-44.7884889,12,56.34067
1,Berilo/MG,-16.9515764,-42.4643732,9,75.80863
1,Berizal/MG,-15.6118785,-41.7417382,20,419.81528
1,Bernardino Batista/PB,-6.4532173,-38.5495418,155,4383.48416
1,Bernardino de Campos/SP,-23.0140216,-49.4760724,132,1183.00771
D1,Bernardino de Campos/SP,-23.0140216,-49.4760724,4,35.84872
1,Bernardo Sayão/TO,-7.8794244,-48.8968905,115,2585.43165
D1,Bernardo Sayão/TO,-7.8794244,-48.8968905,4,89.92806
1,Bernardo do Mearim/MA,-4.6315929,-44.7617508,140,2305.28569
D1,Bernardo do Mearim/MA,-4.6315929,-44.7617508,3,49.39898
1,Bertioga/SP,-23.848568,-46.139586,2456,3794.63251
D1,Bertioga/SP,-23.848568,-46.139586,52,80.34238
1,Bertolínia/PI,-7.6372159,-43.9540611,549,9969.13020
D1,Bertolínia/PI,-7.6372159,-43.9540611,6,108.95224
1,Bertópolis/MG,-17.063333,-40.573889,181,3928.80399
1,Beruri/AM,-3.9007135,-61.3717319,1094,5444.68223
D1,Beruri/AM,-3.9007135,-61.3717319,13,64.69915
1,Betim/MG,-19.968056,-44.198333,9990,2246.03403
D1,Betim/MG,-19.968056,-44.198333,290,65.20019
1,Betânia do Piauí/PI,-8.1460635,-40.7961387,81,1304.34783
D1,Betânia do Piauí/PI,-8.1460635,-40.7961387,1,16.10306
1,Betânia/PE,-8.2742779,-38.0351767,138,1081.08108
D1,Betânia/PE,-8.2742779,-38.0351767,2,15.66784
1,Bezerros/PE,-8.2372132,-35.7558262,1722,2828.51511
D1,Bezerros/PE,-8.2372132,-35.7558262,72,118.26544
1,Bias Fortes/MG,-21.605833,-43.756944,47,1411.83539
D1,Bias Fortes/MG,-21.605833,-43.756944,2,60.07810
1,Bicas/MG,-21.7213723,-43.0604327,227,1559.70867
D1,Bicas/MG,-21.7213723,-43.0604327,4,27.48385
1,Biguaçu/SC,-27.4961277,-48.6542432,5948,8559.99770
D1,Biguaçu/SC,-27.4961277,-48.6542432,55,79.15264
1,Bilac/SP,-21.403962,-50.47464,168,2069.73020
D1,Bilac/SP,-21.403962,-50.47464,4,49.27929
1,Biquinhas/MG,-18.783611,-45.502222,28,1120.89672
1,Birigui/SP,-21.2908491,-50.34144,4248,3401.58388
D1,Birigui/SP,-21.2908491,-50.34144,116,92.88694
1,Biritiba Mirim/SP,-23.5697765,-46.0407456,558,1694.19480
D1,Biritiba Mirim/SP,-23.5697765,-46.0407456,33,100.19432
1,Biritinga/BA,-11.6227908,-38.8066738,120,750.75075
D1,Biritinga/BA,-11.6227908,-38.8066738,2,12.51251
1,Bituruna/PR,-26.161281,-51.5533319,103,628.04878
D1,Bituruna/PR,-26.161281,-51.5533319,1,6.09756
1,Blumenau/SC,-26.9195567,-49.0658025,25769,7121.36077
D1,Blumenau/SC,-26.9195567,-49.0658025,253,69.91751
1,Boa Esperança do Iguaçu/PR,-25.6362851,-53.2139114,83,3360.32389
1,Boa Esperança do Sul/SP,-21.9930206,-48.3917372,265,1764.54921
D1,Boa Esperança do Sul/SP,-21.9930206,-48.3917372,7,46.61073
1,Boa Esperança/ES,-18.5395472,-40.2904088,514,3405.77790
D1,Boa Esperança/ES,-18.5395472,-40.2904088,18,119.26849
1,Boa Esperança/MG,-21.0901253,-45.5660195,502,1248.16629
D1,Boa Esperança/MG,-21.0901253,-45.5660195,20,49.72774
1,Boa Esperança/PR,-24.2411024,-52.7860277,78,1927.35360
D1,Boa Esperança/PR,-24.2411024,-52.7860277,1,24.70966
1,Boa Hora/PI,-4.4094627,-42.1255341,174,2553.19149
1,Boa Nova/BA,-14.365907,-40.2063056,241,1954.74085
D1,Boa Nova/BA,-14.365907,-40.2063056,4,32.44383
1,Boa Ventura de São Roque/PR,-24.88177,-51.5441292,46,722.70228
1,Boa Ventura/PB,-7.4202462,-38.2156782,144,2713.39740
D1,Boa Ventura/PB,-7.4202462,-38.2156782,3,56.52911
1,Boa Viagem/CE,-5.1261877,-39.7300055,1560,2858.34692
D1,Boa Viagem/CE,-5.1261877,-39.7300055,39,71.45867
1,Boa Vista da Aparecida/PR,-25.4357216,-53.4067721,236,3129.97347
D1,Boa Vista da Aparecida/PR,-25.4357216,-53.4067721,6,79.57560
1,Boa Vista das Missões/RS,-27.6677983,-53.3127622,11,525.81262
1,Boa Vista do Buricá/RS,-27.6687782,-54.1111913,256,3814.06436
D1,Boa Vista do Buricá/RS,-27.6687782,-54.1111913,3,44.69607
1,Boa Vista do Cadeado/RS,-28.5783827,-53.8123759,39,1580.22690
1,Boa Vista do Gurupi/MA,-1.7981168,-46.3071882,14,167.02458
D1,Boa Vista do Gurupi/MA,-1.7981168,-46.3071882,3,35.79098
1,Boa Vista do Incra/RS,-28.8195551,-53.3866624,43,1643.73089
D1,Boa Vista do Incra/RS,-28.8195551,-53.3866624,1,38.22630
1,Boa Vista do Ramos/AM,-2.9716927,-57.5869819,595,3031.69265
D1,Boa Vista do Ramos/AM,-2.9716927,-57.5869819,7,35.66697
1,Boa Vista do Sul/RS,-29.3510488,-51.6779679,102,3671.70626
D1,Boa Vista do Sul/RS,-29.3510488,-51.6779679,1,35.99712
1,Boa Vista do Tupim/BA,-12.6605988,-40.6083594,121,652.95991
D1,Boa Vista do Tupim/BA,-12.6605988,-40.6083594,2,10.79273
1,Boa Vista/PB,-7.2620711,-36.2415161,165,2312.21973
D1,Boa Vista/PB,-7.2620711,-36.2415161,2,28.02691
1,Boa Vista/RR,2.8208478,-60.6719582,51277,12218.93378
D1,Boa Vista/RR,2.8208478,-60.6719582,570,135.82683
1,Boca da Mata/AL,-9.6452054,-36.2116658,1267,4631.52508
D1,Boca da Mata/AL,-9.6452054,-36.2116658,25,91.38763
1,Boca do Acre/AM,-8.7553487,-67.3930873,2016,5820.70160
D1,Boca do Acre/AM,-8.7553487,-67.3930873,18,51.97055
1,Bocaina de Minas/MG,-22.167778,-44.394722,44,864.60994
D1,Bocaina de Minas/MG,-22.167778,-44.394722,2,39.30045
1,Bocaina do Sul/SC,-27.745494,-49.942279,275,7884.17431
D1,Bocaina do Sul/SC,-27.745494,-49.942279,3,86.00917
1,Bocaina/PI,-6.9445939,-41.3224599,173,3840.17758
D1,Bocaina/PI,-6.9445939,-41.3224599,2,44.39512
1,Bocaina/SP,-22.1421831,-48.522276,244,1959.52457
D1,Bocaina/SP,-22.1421831,-48.522276,4,32.12335
1,Bocaiúva do Sul/PR,-25.206591,-49.114131,495,3770.27953
D1,Bocaiúva do Sul/PR,-25.206591,-49.114131,4,30.46691
1,Bocaiúva/MG,-17.1160208,-43.8122678,587,1168.01974
D1,Bocaiúva/MG,-17.1160208,-43.8122678,8,15.91850
1,Bodocó/PE,-7.777592,-39.933797,984,2563.96894
D1,Bodocó/PE,-7.777592,-39.933797,11,28.66225
1,Bodoquena/MS,-20.5508775,-56.6769653,83,1058.94361
D1,Bodoquena/MS,-20.5508775,-56.6769653,1,12.75836
1,Bodó/RN,-5.9866104,-36.4134824,50,2275.83068
1,Bofete/SP,-23.1019554,-48.2610535,181,1518.32900
D1,Bofete/SP,-23.1019554,-48.2610535,4,33.55423
1,Boituva/SP,-23.2838893,-47.6738231,1644,2644.36223
D1,Boituva/SP,-23.2838893,-47.6738231,26,41.82081
1,Bom Conselho/PE,-9.169191,-36.685683,931,1909.07786
D1,Bom Conselho/PE,-9.169191,-36.685683,26,53.31474
1,Bom Despacho/MG,-19.7375242,-45.2517288,1146,2245.82582
D1,Bom Despacho/MG,-19.7375242,-45.2517288,21,41.15388
1,Bom Jardim da Serra/SC,-28.3380324,-49.625588,460,9639.56412
D1,Bom Jardim da Serra/SC,-28.3380324,-49.625588,2,41.91115
1,Bom Jardim de Goiás/GO,-16.2062659,-52.172793,179,2018.26587
D1,Bom Jardim de Goiás/GO,-16.2062659,-52.172793,3,33.82568
1,Bom Jardim de Minas/MG,-21.9476466,-44.1906033,40,619.29091
1,Bom Jardim/MA,-3.54129,-45.606004,998,2386.30386
D1,Bom Jardim/MA,-3.54129,-45.606004,29,69.34149
1,Bom Jardim/PE,-7.7961572,-35.5871696,788,1970.83761
D1,Bom Jardim/PE,-7.7961572,-35.5871696,34,85.03614
1,Bom Jardim/RJ,-22.1515328,-42.4186683,387,1401.36153
D1,Bom Jardim/RJ,-22.1515328,-42.4186683,5,18.10545
1,Bom Jesus da Lapa/BA,-13.250571,-43.410754,1307,1876.20223
D1,Bom Jesus da Lapa/BA,-13.250571,-43.410754,18,25.83905
1,Bom Jesus da Penha/MG,-21.0165299,-46.5226644,116,2733.27050
D1,Bom Jesus da Penha/MG,-21.0165299,-46.5226644,1,23.56268
1,Bom Jesus da Serra/BA,-14.3724084,-40.5047119,140,1425.22651
1,Bom Jesus das Selvas/MA,-4.4878075,-46.8526639,1919,5551.53759
D1,Bom Jesus das Selvas/MA,-4.4878075,-46.8526639,17,49.17985
1,Bom Jesus de Goiás/GO,-18.2174587,-49.739721,1072,4179.66313
D1,Bom Jesus de Goiás/GO,-18.2174587,-49.739721,31,120.86712
1,Bom Jesus do Amparo/MG,-19.7045132,-43.4752911,72,1173.97685
D1,Bom Jesus do Amparo/MG,-19.7045132,-43.4752911,2,32.61047
1,Bom Jesus do Araguaia/MT,-12.1725897,-51.5074425,222,3310.46824
D1,Bom Jesus do Araguaia/MT,-12.1725897,-51.5074425,1,14.91202
1,Bom Jesus do Galho/MG,-19.8283191,-42.3162256,220,1480.28529
D1,Bom Jesus do Galho/MG,-19.8283191,-42.3162256,9,60.55713
1,Bom Jesus do Itabapoana/RJ,-21.1341025,-41.680095,1070,2876.11214
D1,Bom Jesus do Itabapoana/RJ,-21.1341025,-41.680095,23,61.82297
1,Bom Jesus do Norte/ES,-21.1254776,-41.6711646,513,5149.56836
D1,Bom Jesus do Norte/ES,-21.1254776,-41.6711646,10,100.38145
1,Bom Jesus do Oeste/SC,-26.6929713,-53.0967453,43,2010.28518
D1,Bom Jesus do Oeste/SC,-26.6929713,-53.0967453,1,46.75082
1,Bom Jesus do Sul/PR,-26.1922507,-53.6002033,71,2025.09983
D1,Bom Jesus do Sul/PR,-26.1922507,-53.6002033,1,28.52253
1,Bom Jesus do Tocantins/PA,-5.0471796,-48.5978362,419,2447.71585
D1,Bom Jesus do Tocantins/PA,-5.0471796,-48.5978362,4,23.36722
1,Bom Jesus do Tocantins/TO,-8.96306,-48.165043,101,2016.77316
1,Bom Jesus dos Perdões/SP,-23.1353864,-46.4648052,485,1866.46142
D1,Bom Jesus dos Perdões/SP,-23.1353864,-46.4648052,3,11.54512
1,Bom Jesus/PB,-6.8156725,-38.6551841,71,2757.28155
D1,Bom Jesus/PB,-6.8156725,-38.6551841,3,116.50485
1,Bom Jesus/PI,-9.0711644,-44.3583926,1907,7511.71860
D1,Bom Jesus/PI,-9.0711644,-44.3583926,24,94.53657
1,Bom Jesus/RN,-5.9887544,-35.5821149,274,2668.74452
D1,Bom Jesus/RN,-5.9887544,-35.5821149,6,58.43966
1,Bom Jesus/RS,-28.6692723,-50.4346894,347,3068.35264
D1,Bom Jesus/RS,-28.6692723,-50.4346894,8,70.74012
1,Bom Jesus/SC,-26.7350604,-52.3916519,131,4285.24697
D1,Bom Jesus/SC,-26.7350604,-52.3916519,2,65.42362
1,Bom Lugar/MA,-4.3728019,-45.0366054,305,1855.45687
D1,Bom Lugar/MA,-4.3728019,-45.0366054,4,24.33386
1,Bom Princípio do Piauí/PI,-3.1912777,-41.6430185,44,778.62325
D1,Bom Princípio do Piauí/PI,-3.1912777,-41.6430185,3,53.08795
1,Bom Princípio/RS,-29.489788,-51.3566782,600,4209.04946
D1,Bom Princípio/RS,-29.489788,-51.3566782,8,56.12066
1,Bom Progresso/RS,-27.5490948,-53.8655601,21,1105.84518
1,Bom Repouso/MG,-22.4657069,-46.1485376,201,1907.56382
D1,Bom Repouso/MG,-22.4657069,-46.1485376,8,75.92294
1,Bom Retiro do Sul/RS,-29.6000007,-51.9359243,411,3317.19128
D1,Bom Retiro do Sul/RS,-29.6000007,-51.9359243,6,48.42615
1,Bom Retiro/SC,-27.798993,-49.486994,240,2385.68588
D1,Bom Retiro/SC,-27.798993,-49.486994,5,49.70179
1,Bom Sucesso de Itararé/SP,-24.3190016,-49.1446207,22,552.20884
D1,Bom Sucesso de Itararé/SP,-24.3190016,-49.1446207,1,25.10040
1,Bom Sucesso do Sul/PR,-26.0749256,-52.8348629,102,3134.60356
D1,Bom Sucesso do Sul/PR,-26.0749256,-52.8348629,1,30.73141
1,Bom Sucesso/MG,-21.0323516,-44.7598082,83,471.40342
D1,Bom Sucesso/MG,-21.0323516,-44.7598082,1,5.67956
1,Bom Sucesso/PB,-6.4458948,-37.9297662,56,1129.94350
1,Bom Sucesso/PR,-23.7088019,-51.7651297,167,2362.76174
D1,Bom Sucesso/PR,-23.7088019,-51.7651297,2,28.29655
1,Bombinhas/SC,-27.1519159,-48.4875691,2289,11256.45439
D1,Bombinhas/SC,-27.1519159,-48.4875691,17,83.59970
1,Bonfim do Piauí/PI,-9.1648678,-42.8734415,142,2497.80123
D1,Bonfim do Piauí/PI,-9.1648678,-42.8734415,2,35.18030
1,Bonfim/MG,-20.3266626, -44.2386157,115,1676.38484
D1,Bonfim/MG,-20.3266626, -44.2386157,2,29.15452
1,Bonfim/RR,3.3613818,-59.8427241,1341,10679.30238
D1,Bonfim/RR,3.3613818,-59.8427241,14,111.49160
1,Bonfinópolis de Minas/MG,-16.5660011,-45.98645,176,3232.91697
D1,Bonfinópolis de Minas/MG,-16.5660011,-45.98645,9,165.31962
1,Bonfinópolis/GO,-16.6172709,-48.9615701,380,3831.03135
D1,Bonfinópolis/GO,-16.6172709,-48.9615701,10,100.81661
1,Boninal/BA,-12.7095183,-41.8299984,282,1952.09747
D1,Boninal/BA,-12.7095183,-41.8299984,2,13.84466
1,Bonito de Minas/MG,-15.3191266,-44.7544,6,52.77509
1,Bonito de Santa Fé/PB,-7.3143332,-38.5146677,319,2653.46864
D1,Bonito de Santa Fé/PB,-7.3143332,-38.5146677,11,91.49892
1,Bonito/BA,-11.9665473,-41.2649896,399,2363.18408
D1,Bonito/BA,-11.9665473,-41.2649896,3,17.76830
1,Bonito/MS,-21.1264766,-56.4902208,1067,4808.47228
D1,Bonito/MS,-21.1264766,-56.4902208,14,63.09148
1,Bonito/PA,-1.3605722,-47.3049907,293,1772.53479
D1,Bonito/PA,-1.3605722,-47.3049907,9,54.44646
1,Bonito/PE,-8.4721161,-35.7314591,408,1070.38854
D1,Bonito/PE,-8.4721161,-35.7314591,28,73.45804
1,Bonópolis/GO,-13.649331,-49.8329113,87,1936.34543
D1,Bonópolis/GO,-13.649331,-49.8329113,1,22.25684
1,Boqueirão do Leão/RS,-29.30332,-52.4296817,151,1960.52973
D1,Boqueirão do Leão/RS,-29.30332,-52.4296817,3,38.95092
1,Boqueirão do Piauí/PI,-4.4850148,-42.1095161,218,3392.46810
D1,Boqueirão do Piauí/PI,-4.4850148,-42.1095161,1,15.56178
1,Boqueirão/PB,-7.487004,-36.130887,840,4700.61556
D1,Boqueirão/PB,-7.487004,-36.130887,11,61.55568
1,Boquim/SE,-11.1450175,-37.6204228,779,2896.01844
D1,Boquim/SE,-11.1450175,-37.6204228,21,78.06982
1,Boquira/BA,-12.8184859,-42.7270883,256,1190.86384
D1,Boquira/BA,-12.8184859,-42.7270883,4,18.60725
1,Boracéia/SP,-22.195355,-48.7801925,177,3635.99014
D1,Boracéia/SP,-22.195355,-48.7801925,2,41.08463
1,Borba/AM,-4.3934778,-59.5947721,932,2232.44227
D1,Borba/AM,-4.3934778,-59.5947721,23,55.09246
1,Borborema/PB,-6.8066718,-35.5990191,96,1815.77454
D1,Borborema/PB,-6.8066718,-35.5990191,1,18.91432
1,Borborema/SP,-21.6212706,-49.074135,340,2103.43974
D1,Borborema/SP,-21.6212706,-49.074135,11,68.05246
1,Borda da Mata/MG,-22.274167,-46.165278,442,2253.49240
D1,Borda da Mata/MG,-22.274167,-46.165278,18,91.77118
1,Borebi/SP,-22.5700178,-48.9714871,56,2087.21580
D1,Borebi/SP,-22.5700178,-48.9714871,2,74.54342
1,Borrazópolis/PR,-23.9393362,-51.5850786,304,4721.23000
D1,Borrazópolis/PR,-23.9393362,-51.5850786,7,108.71253
1,Borá/SP,-22.2701088,-50.544407,10,1193.31742
1,Bossoroca/RS,-28.7278885,-54.9120278,106,1708.29976
D1,Bossoroca/RS,-28.7278885,-54.9120278,1,16.11604
1,Botelhos/MG,-21.65,-46.394722,186,1244.23038
D1,Botelhos/MG,-21.65,-46.394722,3,20.06823
1,Botucatu/SP,-22.8879628,-48.4410712,3871,2613.24512
D1,Botucatu/SP,-22.8879628,-48.4410712,57,38.47971
1,Botumirim/MG,-16.862778,-43.011111,11,174.93639
1,Botuporã/BA,-13.3744752,-42.5198469,35,345.54250
D1,Botuporã/BA,-13.3744752,-42.5198469,1,9.87264
1,Botuverá/SC,-27.200749,-49.068892,321,6031.56708
1,Bozano/RS,-28.3669953,-53.7705165,49,2321.17480
1,Braga/RS,-27.617348,-53.740514,26,785.26125
1,Braganey/PR,-24.8179919,-53.118506,80,1486.43627
D1,Braganey/PR,-24.8179919,-53.118506,3,55.74136
1,Bragança Paulista/SP,-22.9520235,-46.5418586,5059,2966.58125
D1,Bragança Paulista/SP,-22.9520235,-46.5418586,102,59.81247
1,Bragança/PA,-1.0573967,-46.7635406,2939,2279.81445
D1,Bragança/PA,-1.0573967,-46.7635406,96,74.46825
1,Branquinha/AL,-9.2478057,-36.0152009,276,2638.62333
D1,Branquinha/AL,-9.2478057,-36.0152009,6,57.36138
1,Brasil Novo/PA,-3.3055853,-52.539198,792,5285.99079
D1,Brasil Novo/PA,-3.3055853,-52.539198,16,106.78769
1,Brasileira/PI,-4.131182,-41.7824969,246,2947.16665
D1,Brasileira/PI,-4.131182,-41.7824969,5,59.90176
1,Brasilândia de Minas/MG,-17.0096469,-46.0087183,471,2812.27609
D1,Brasilândia de Minas/MG,-17.0096469,-46.0087183,1,5.97086
1,Brasilândia do Sul/PR,-24.1975793,-53.527551,80,3094.77756
D1,Brasilândia do Sul/PR,-24.1975793,-53.527551,1,38.68472
1,Brasilândia do Tocantins/TO,-8.3886619,-48.4842729,68,3075.53143
D1,Brasilândia do Tocantins/TO,-8.3886619,-48.4842729,1,45.22840
1,Brasilândia/MS,-21.255575,-52.0365617,162,1366.74260
D1,Brasilândia/MS,-21.255575,-52.0365617,4,33.74673
1,Brasiléia/AC,-11.0010413,-68.7487894,1283,4804.88353
D1,Brasiléia/AC,-11.0010413,-68.7487894,21,78.64579
1,Brasnorte/MT,-12.1227151,-58.0050109,359,1782.52234
D1,Brasnorte/MT,-12.1227151,-58.0050109,3,14.89573
1,Brasília de Minas/MG,-16.2075114,-44.430559,338,1043.04891
D1,Brasília de Minas/MG,-16.2075114,-44.430559,5,15.42972
1,Brasília/DF,-15.7934036,-47.8823172,249736,8174.26581
D1,Brasília/DF,-15.7934036,-47.8823172,4223,138.22566
1,Brazabrantes/GO,-16.4291635,-49.3858216,181,4831.82061
D1,Brazabrantes/GO,-16.4291635,-49.3858216,2,53.39028
1,Brazópolis/MG,-22.4742842,-45.6165577,300,2081.88758
D1,Brazópolis/MG,-22.4742842,-45.6165577,5,34.69813
1,Braço do Norte/SC,-28.2728633,-49.1622712,4275,12619.55367
D1,Braço do Norte/SC,-28.2728633,-49.1622712,34,100.36604
1,Braço do Trombudo/SC,-27.358578,-49.882145,263,6977.97824
D1,Braço do Trombudo/SC,-27.358578,-49.882145,3,79.59671
1,Braúna/SP,-21.5015319,-50.3175246,121,2107.64675
D1,Braúna/SP,-21.5015319,-50.3175246,7,121.92998
1,Braúnas/MG,-19.055556,-42.716111,25,524.21891
D1,Braúnas/MG,-19.055556,-42.716111,2,41.93751
1,Brejetuba/ES,-20.1465817,-41.2902303,682,5488.05021
D1,Brejetuba/ES,-20.1465817,-41.2902303,2,16.09399
1,Brejinho de Nazaré/TO,-11.0205883,-48.5722906,117,2119.94927
D1,Brejinho de Nazaré/TO,-11.0205883,-48.5722906,5,90.59612
1,Brejinho/PE,-7.3482153,-37.28538,289,3859.50855
D1,Brejinho/PE,-7.3482153,-37.28538,3,40.06410
1,Brejinho/RN,-6.1957907,-35.3583019,381,2979.58864
D1,Brejinho/RN,-6.1957907,-35.3583019,4,31.28177
1,Brejo Alegre/SP,-21.1671191,-50.1850393,109,3772.93181
D1,Brejo Alegre/SP,-21.1671191,-50.1850393,6,207.68432
1,Brejo Grande do Araguaia/PA,-5.7011449,-48.4037308,583,7912.59501
D1,Brejo Grande do Araguaia/PA,-5.7011449,-48.4037308,2,27.14441
1,Brejo Grande/SE,-10.4287358,-36.4667918,187,2238.71663
D1,Brejo Grande/SE,-10.4287358,-36.4667918,8,95.77397
1,Brejo Santo/CE,-7.4909841,-38.9859152,2848,5714.05642
D1,Brejo Santo/CE,-7.4909841,-38.9859152,26,52.16484
1,Brejo da Madre de Deus/PE,-8.1409718,-36.3712527,1096,2139.58028
D1,Brejo da Madre de Deus/PE,-8.1409718,-36.3712527,31,60.51733
1,Brejo de Areia/MA,-4.3316785,-45.5833334,228,2529.39871
D1,Brejo de Areia/MA,-4.3316785,-45.5833334,2,22.18771
1,Brejo do Cruz/PB,-6.32926065,-37.48746163303929,951,6694.35450
D1,Brejo do Cruz/PB,-6.32926065,-37.48746163303929,11,77.43207
1,Brejo do Piauí/PI,-8.207583,-42.8359849,26,675.67568
D1,Brejo do Piauí/PI,-8.207583,-42.8359849,2,51.97505
1,Brejo dos Santos/PB,-6.3769367,-37.8243125,96,1485.14851
D1,Brejo dos Santos/PB,-6.3769367,-37.8243125,1,15.47030
1,Brejo/MA,-3.6804397,-42.7529313,701,1912.63540
D1,Brejo/MA,-3.6804397,-42.7529313,18,49.11189
1,Brejolândia/BA,-12.4843845,-43.9611861,115,1083.06649
D1,Brejolândia/BA,-12.4843845,-43.9611861,4,37.67188
1,Brejão/PE,-9.029146,-36.566034,48,534.10482
D1,Brejão/PE,-9.029146,-36.566034,2,22.25437
1,Brejões/BA,-13.1033754,-39.7909837,244,1715.65181
D1,Brejões/BA,-13.1033754,-39.7909837,2,14.06272
1,Breu Branco/PA,-3.7785073,-49.5684795,375,556.94172
D1,Breu Branco/PA,-3.7785073,-49.5684795,24,35.64427
1,Breves/PA,-1.68036,-50.479085,3448,3331.49753
D1,Breves/PA,-1.68036,-50.479085,95,91.79010
1,Britânia/GO,-15.2427599,-51.1602061,206,3553.56219
D1,Britânia/GO,-15.2427599,-51.1602061,1,17.25030
1,Brochier/RS,-29.556766,-51.5963047,90,1763.32288
1,Brodowski/SP,-20.984532,-47.657217,754,2982.94893
D1,Brodowski/SP,-20.984532,-47.657217,23,90.99181
1,Brotas de Macaúbas/BA,-12.0019007,-42.6257506,44,434.35341
1,Brotas/SP,-22.2840884,-48.1267265,227,921.41581
D1,Brotas/SP,-22.2840884,-48.1267265,5,20.29550
1,Brumadinho/MG,-20.143611,-44.2,1643,4040.23017
D1,Brumadinho/MG,-20.143611,-44.2,18,44.26302
1,Brumado/BA,-14.29507325,-41.659307508575985,3742,5557.28819
D1,Brumado/BA,-14.29507325,-41.659307508575985,37,54.94913
1,Brunópolis/SC,-27.310953,-50.837585,51,2153.71622
1,Brusque/SC,-27.0964628,-48.9136323,12681,9209.88605
D1,Brusque/SC,-27.0964628,-48.9136323,98,71.17489
1,Brás Pires/MG,-20.8483109,-43.2430524,54,1257.86164
D1,Brás Pires/MG,-20.8483109,-43.2430524,3,69.88120
1,Bueno Brandão/MG,-22.441976,-46.3517971,120,1091.80238
D1,Bueno Brandão/MG,-22.441976,-46.3517971,6,54.59012
1,Buenos Aires/PE,-7.7218931,-35.326587,64,485.21607
D1,Buenos Aires/PE,-7.7218931,-35.326587,9,68.23351
1,Buenópolis/MG,-17.8756607,-44.1749365,102,985.22167
D1,Buenópolis/MG,-17.8756607,-44.1749365,2,19.31807
1,Buerarema/BA,-14.9571177,-39.3008035,717,3916.74861
D1,Buerarema/BA,-14.9571177,-39.3008035,24,131.10456
1,Bugre/MG,-19.4257687,-42.2556,213,5347.72784
D1,Bugre/MG,-19.4257687,-42.2556,4,100.42681
1,Bujari/AC,-9.8309656,-67.9520886,491,4712.09213
D1,Bujari/AC,-9.8309656,-67.9520886,8,76.77543
1,Bujaru/PA,-1.5169239,-48.0410699,728,2473.91851
D1,Bujaru/PA,-1.5169239,-48.0410699,23,78.15951
1,Buri/SP,-23.79849,-48.598924,398,1993.48861
D1,Buri/SP,-23.79849,-48.598924,11,55.09642
1,Buritama/SP,-21.0664017,-50.1448077,794,4594.64151
D1,Buritama/SP,-21.0664017,-50.1448077,17,98.37394
1,Buriti Alegre/GO,-18.1377879,-49.0404411,327,3447.91227
D1,Buriti Alegre/GO,-18.1377879,-49.0404411,9,94.89667
1,Buriti Bravo/MA,-5.8391884,-43.8367876,1010,4219.05677
D1,Buriti Bravo/MA,-5.8391884,-43.8367876,7,29.24099
1,Buriti de Goiás/GO,-16.180644,-50.4287479,110,4442.64943
D1,Buriti de Goiás/GO,-16.180644,-50.4287479,1,40.38772
1,Buriti do Tocantins/TO,-5.3187439,-48.2256609,303,2635.47012
D1,Buriti do Tocantins/TO,-5.3187439,-48.2256609,1,8.69792
1,Buriti dos Lopes/PI,-3.1776723,-41.8707444,814,4109.65820
D1,Buriti dos Lopes/PI,-3.1776723,-41.8707444,12,60.58464
1,Buriti dos Montes/PI,-5.3136171,-41.0971256,303,3666.50532
D1,Buriti dos Montes/PI,-5.3136171,-41.0971256,2,24.20136
1,Buriti/MA,-3.9430944,-42.9244281,701,2434.19682
D1,Buriti/MA,-3.9430944,-42.9244281,4,13.88985
1,Buriticupu/MA,-4.3227472,-46.4516989,2617,3585.76655
D1,Buriticupu/MA,-4.3227472,-46.4516989,13,17.81237
1,Buritinópolis/GO,-14.4589282,-46.4293104,58,1766.67682
1,Buritirama/BA,-10.7148421,-43.6362327,536,2519.27054
D1,Buritirama/BA,-10.7148421,-43.6362327,8,37.60105
1,Buritirana/MA,-5.5897455,-47.0148915,242,1564.62145
D1,Buritirana/MA,-5.5897455,-47.0148915,7,45.25765
1,Buritis/MG,-15.621389,-46.423889,491,1962.97925
D1,Buritis/MG,-15.621389,-46.423889,5,19.98961
1,Buritis/RO,-10.2054937,-63.8281954,1021,2529.98315
D1,Buritis/RO,-10.2054937,-63.8281954,13,32.21330
1,Buritizal/SP,-20.1933264,-47.7097165,73,1617.19096
D1,Buritizal/SP,-20.1933264,-47.7097165,3,66.45990
1,Buritizeiro/MG,-17.3667765,-44.9647781,391,1390.41997
D1,Buritizeiro/MG,-17.3667765,-44.9647781,8,28.44849
1,Butiá/RS,-30.1256795,-51.9692224,609,2906.64376
D1,Butiá/RS,-30.1256795,-51.9692224,24,114.54754
1,Buíque/PE,-8.6239732,-37.157296,788,1337.42935
D1,Buíque/PE,-8.6239732,-37.157296,12,20.36694
1,Bálsamo/SP,-20.7343722,-49.5807484,606,6630.92242
D1,Bálsamo/SP,-20.7343722,-49.5807484,27,295.43714
0,CASO SEM LOCALIZAÇÃO DEFINIDA/AL,-9.931093434363673,-35.609611600637464,8,0.23971
D0,CASO SEM LOCALIZAÇÃO DEFINIDA/AL,-9.931093434363673,-35.609611600637464,8,0.23971
0,CASO SEM LOCALIZAÇÃO DEFINIDA/BA,-13.415069300066518,-38.14174656569957,6848,46.04297
D0,CASO SEM LOCALIZAÇÃO DEFINIDA/BA,-13.415069300066518,-38.14174656569957,64,0.43031
0,CASO SEM LOCALIZAÇÃO DEFINIDA/CE,-3.3445126297392798,-38.624961942434304,5796,63.46858
0,CASO SEM LOCALIZAÇÃO DEFINIDA/ES,-20.30989267097039,-39.81745156645774,3110,77.38917
D0,CASO SEM LOCALIZAÇÃO DEFINIDA/ES,-20.30989267097039,-39.81745156645774,93,2.31421
0,CASO SEM LOCALIZAÇÃO DEFINIDA/GO,-16.701590966270153,-49.164524059025034,979,13.94914
D0,CASO SEM LOCALIZAÇÃO DEFINIDA/GO,-16.701590966270153,-49.164524059025034,23,0.32771
0,CASO SEM LOCALIZAÇÃO DEFINIDA/MG,-19.97049116501593,-43.8852149072783,3035,14.33714
D0,CASO SEM LOCALIZAÇÃO DEFINIDA/MG,-19.97049116501593,-43.8852149072783,98,0.46295
0,CASO SEM LOCALIZAÇÃO DEFINIDA/MT,-15.54791153961863,-56.17143998972475,931,26.71858
D0,CASO SEM LOCALIZAÇÃO DEFINIDA/MT,-15.54791153961863,-56.17143998972475,61,1.75063
0,CASO SEM LOCALIZAÇÃO DEFINIDA/PA,-0.09317078214359542,-48.0050231510481,1086,12.62370
D0,CASO SEM LOCALIZAÇÃO DEFINIDA/PA,-0.09317078214359542,-48.0050231510481,7,0.08137
0,CASO SEM LOCALIZAÇÃO DEFINIDA/PR,-25.69415946385943,-48.10141676336737,3064,26.79737
D0,CASO SEM LOCALIZAÇÃO DEFINIDA/PR,-25.69415946385943,-48.10141676336737,62,0.54224
0,CASO SEM LOCALIZAÇÃO DEFINIDA/RN,-5.749310788669161,-34.95302586257457,23,0.65586
D0,CASO SEM LOCALIZAÇÃO DEFINIDA/RN,-5.749310788669161,-34.95302586257457,4,0.11406
0,CASO SEM LOCALIZAÇÃO DEFINIDA/RR,2.813328208465927,-60.663338675861986,1809,298.63263
D0,CASO SEM LOCALIZAÇÃO DEFINIDA/RR,2.813328208465927,-60.663338675861986,6,0.99049
0,CASO SEM LOCALIZAÇÃO DEFINIDA/SC,-27.675643660562308,-48.18313219398259,9913,138.35720
0,CASO SEM LOCALIZAÇÃO DEFINIDA/SP,-24.30968974555485,-46.21366504207253,210,0.45733
1,Caapiranga/AM,-3.3188884,-61.2096404,395,2973.72581
D1,Caapiranga/AM,-3.3188884,-61.2096404,9,67.75578
1,Caaporã/PB,-7.510234,-34.9154114,1088,4955.59098
D1,Caaporã/PB,-7.510234,-34.9154114,18,81.98588
1,Caarapó/MS,-22.6349267,-54.8240903,1192,3896.31615
D1,Caarapó/MS,-22.6349267,-54.8240903,12,39.22466
1,Caatiba/BA,-14.9782759,-40.4092325,444,6843.40321
D1,Caatiba/BA,-14.9782759,-40.4092325,4,61.65228
1,Cabaceiras do Paraguaçu/BA,-12.5377868,-39.1901339,159,840.78050
D1,Cabaceiras do Paraguaçu/BA,-12.5377868,-39.1901339,1,5.28793
1,Cabaceiras/PB,-7.4899156,-36.2860501,179,3161.98551
1,Cabeceira Grande/MG,-16.0297,-47.0906,71,1016.02748
D1,Cabeceira Grande/MG,-16.0297,-47.0906,2,28.62049
1,Cabeceiras do Piauí/PI,-4.4733665,-42.3098716,246,2314.20508
D1,Cabeceiras do Piauí/PI,-4.4733665,-42.3098716,7,65.85136
1,Cabeceiras/GO,-15.7995459,-46.9264991,90,1118.56823
D1,Cabeceiras/GO,-15.7995459,-46.9264991,3,37.28561
1,Cabedelo/PB,-6.97324,-34.8351609,4041,5876.36512
D1,Cabedelo/PB,-6.97324,-34.8351609,87,126.51417
1,Cabixi/RO,-13.4956065,-60.5424442,172,3315.34310
D1,Cabixi/RO,-13.4956065,-60.5424442,6,115.65150
1,Cabo Frio/RJ,-22.8804369,-42.0189227,4630,2009.74051
D1,Cabo Frio/RJ,-22.8804369,-42.0189227,221,95.92930
1,Cabo Verde/MG,-21.4743338,-46.3964995,103,731.79396
D1,Cabo Verde/MG,-21.4743338,-46.3964995,2,14.20959
1,Cabo de Santo Agostinho/PE,-8.2838945,-35.0320984,2511,1201.75741
D1,Cabo de Santo Agostinho/PE,-8.2838945,-35.0320984,295,141.18616
1,Cabreúva/SP,-23.3075813,-47.1324417,1752,3474.19144
D1,Cabreúva/SP,-23.3075813,-47.1324417,43,85.26840
1,Cabrobó/PE,-8.5083701,-39.3106961,615,1782.45370
D1,Cabrobó/PE,-8.5083701,-39.3106961,6,17.38979
1,Cabrália Paulista/SP,-22.4562909,-49.3385645,107,2521.80061
1,Cacaulândia/RO,-10.3380043,-62.9007231,116,1850.37486
1,Cacequi/RS,-29.8838059,-54.8273443,77,619.81808
D1,Cacequi/RS,-29.8838059,-54.8273443,2,16.09917
1,Cachoeira Alta/GO,-18.7618269,-50.9432431,795,6276.64614
D1,Cachoeira Alta/GO,-18.7618269,-50.9432431,11,86.84668
1,Cachoeira Dourada/GO,-18.4934204,-49.481062,170,2116.79741
D1,Cachoeira Dourada/GO,-18.4934204,-49.481062,2,24.90350
1,Cachoeira Dourada/MG,-18.517136,-49.5002062,19,702.14339
1,Cachoeira Grande/MA,-2.9290492,-44.0573223,187,1972.99008
D1,Cachoeira Grande/MA,-2.9290492,-44.0573223,4,42.20300
1,Cachoeira Paulista/SP,-22.666498,-45.015384,514,1530.62744
D1,Cachoeira Paulista/SP,-22.666498,-45.015384,19,56.57961
1,Cachoeira da Prata/MG,-19.524723,-44.453056,120,3341.68755
D1,Cachoeira da Prata/MG,-19.524723,-44.453056,2,55.69479
1,Cachoeira de Goiás/GO,-16.6688414,-50.6435997,25,1862.89121
1,Cachoeira de Minas/MG,-22.3554043,-45.7796324,240,2072.71785
D1,Cachoeira de Minas/MG,-22.3554043,-45.7796324,3,25.90897
1,Cachoeira de Pajeú/MG,-15.965833,-41.496666,293,3103.15611
D1,Cachoeira de Pajeú/MG,-15.965833,-41.496666,3,31.77293
1,Cachoeira do Arari/PA,-1.0143572,-48.9621089,329,1367.18750
D1,Cachoeira do Arari/PA,-1.0143572,-48.9621089,13,54.02261
1,Cachoeira do Piriá/PA,-1.7599443,-46.5446954,541,1563.17721
D1,Cachoeira do Piriá/PA,-1.7599443,-46.5446954,3,8.66827
1,Cachoeira do Sul/RS,-30.0474778,-52.8905413,1612,1968.99925
D1,Cachoeira do Sul/RS,-30.0474778,-52.8905413,21,25.65073
1,Cachoeira dos Índios/PB,-6.9259193,-38.6742159,309,2998.54440
D1,Cachoeira dos Índios/PB,-6.9259193,-38.6742159,10,97.04027
1,Cachoeira/BA,-12.5998256,-38.9665918,538,1602.76462
D1,Cachoeira/BA,-12.5998256,-38.9665918,12,35.74940
1,Cachoeiras de Macacu/RJ,-22.4626861,-42.6534414,984,1659.27525
D1,Cachoeiras de Macacu/RJ,-22.4626861,-42.6534414,43,72.50898
1,Cachoeirinha/PE,-8.4906364,-36.2338963,303,1477.97668
D1,Cachoeirinha/PE,-8.4906364,-36.2338963,22,107.31184
1,Cachoeirinha/RS,-29.9493353,-51.0898927,5486,4180.12801
D1,Cachoeirinha/RS,-29.9493353,-51.0898927,131,99.81713
1,Cachoeirinha/TO,-6.118647,-47.9208885,41,1795.09632
1,Cachoeiro de Itapemirim/ES,-20.848084,-41.11129,11850,5627.07454
D1,Cachoeiro de Itapemirim/ES,-20.848084,-41.11129,248,117.76494
1,Cacimba de Areia/PB,-7.1288513,-37.1575194,17,460.08119
1,Cacimba de Dentro/PB,-6.6425101,-35.7929304,614,3574.33927
D1,Cacimba de Dentro/PB,-6.6425101,-35.7929304,15,87.32099
1,Cacimbas/PB,-7.2125451,-37.0593398,91,1264.06445
D1,Cacimbas/PB,-7.2125451,-37.0593398,3,41.67245
1,Cacimbinhas/AL,-9.401212,-36.991082,331,3039.76490
D1,Cacimbinhas/AL,-9.401212,-36.991082,3,27.55074
1,Cacique Doble/RS,-27.7700117,-51.6616409,159,3133.62239
1,Cacoal/RO,-11.4333,-61.4420502,3859,4492.79918
D1,Cacoal/RO,-11.4333,-61.4420502,55,64.03316
1,Caconde/SP,-21.527995,-46.643659,302,1588.72113
D1,Caconde/SP,-21.527995,-46.643659,1,5.26067
1,Caculé/BA,-14.4990734,-42.2233006,214,918.80984
D1,Caculé/BA,-14.4990734,-42.2233006,3,12.88051
1,Caetanos/BA,-14.3387456,-40.9085971,249,1704.54545
D1,Caetanos/BA,-14.3387456,-40.9085971,2,13.69113
1,Caetanópolis/MG,-19.2947496,-44.4138386,171,1455.44302
D1,Caetanópolis/MG,-19.2947496,-44.4138386,3,25.53409
1,Caetité/BA,-14.0691776,-42.4852428,619,1211.80087
D1,Caetité/BA,-14.0691776,-42.4852428,5,9.78838
1,Caeté/MG,-19.897777,-43.670278,705,1565.03208
D1,Caeté/MG,-19.897777,-43.670278,23,51.05778
1,Caetés/PE,-8.7728788,-36.6255835,832,2878.49433
D1,Caetés/PE,-8.7728788,-36.6255835,8,27.67783
1,Cafarnaum/BA,-11.691399,-41.468823,442,2387.51148
D1,Cafarnaum/BA,-11.691399,-41.468823,8,43.21288
1,Cafeara/PR,-22.78905,-51.714195,94,3182.12593
D1,Cafeara/PR,-22.78905,-51.714195,2,67.70481
1,Cafelândia/PR,-24.6176963,-53.3218057,667,3614.00087
D1,Cafelândia/PR,-24.6176963,-53.3218057,6,32.50975
1,Cafelândia/SP,-21.8054355,-49.6030627,454,2544.41518
D1,Cafelândia/SP,-21.8054355,-49.6030627,13,72.85770
1,Cafezal do Sul/PR,-23.900508,-53.512418,59,1471.68870
D1,Cafezal do Sul/PR,-23.900508,-53.512418,1,24.94388
1,Caiabu/SP,-22.0143038,-51.2356597,42,1001.66945
D1,Caiabu/SP,-22.0143038,-51.2356597,2,47.69855
1,Caiana/MG,-20.695555,-41.924723,53,956.50605
D1,Caiana/MG,-20.695555,-41.924723,2,36.09457
1,Caiapônia/GO,-16.9538779,-51.8090761,276,1444.49678
D1,Caiapônia/GO,-16.9538779,-51.8090761,4,20.93474
1,Caibaté/RS,-28.290475,-54.645407,19,393.94568
D1,Caibaté/RS,-28.290475,-54.645407,3,62.20195
1,Caibi/SC,-27.0751925,-53.2502133,137,2234.91028
D1,Caibi/SC,-27.0751925,-53.2502133,2,32.62643
1,Caicó/RN,-6.4594544,-37.0971911,4905,7177.03349
D1,Caicó/RN,-6.4594544,-37.0971911,51,74.62359
1,Caieiras/SP,-23.3644621,-46.7484765,3258,3170.03162
D1,Caieiras/SP,-23.3644621,-46.7484765,109,106.05692
1,Cairu/BA,-13.4860505,-39.0455744,662,3592.55440
D1,Cairu/BA,-13.4860505,-39.0455744,8,43.41455
1,Caiuá/SP,-21.8319357,-51.9887179,71,1194.08005
D1,Caiuá/SP,-21.8319357,-51.9887179,2,33.63606
1,Caiçara do Norte/RN,-5.0645017,-36.0561226,126,1920.43896
D1,Caiçara do Norte/RN,-5.0645017,-36.0561226,3,45.72474
1,Caiçara do Rio do Vento/RN,-5.757968,-36.00089,106,2853.29744
D1,Caiçara do Rio do Vento/RN,-5.757968,-36.00089,2,53.83580
1,Caiçara/PB,-6.6146866,-35.4681434,466,6480.32263
D1,Caiçara/PB,-6.6146866,-35.4681434,10,139.06272
1,Caiçara/RS,-27.2750478,-53.4310053,208,4425.53191
D1,Caiçara/RS,-27.2750478,-53.4310053,3,63.82979
1,Cajamar/SP,-23.3561111,-46.8769444,1851,2375.08661
D1,Cajamar/SP,-23.3561111,-46.8769444,84,107.78351
1,Cajapió/MA,-2.8778715,-44.6746871,51,454.70756
D1,Cajapió/MA,-2.8778715,-44.6746871,2,17.83167
1,Cajari/MA,-3.3213076,-45.0118757,132,678.62835
D1,Cajari/MA,-3.3213076,-45.0118757,4,20.56450
1,Cajati/SP,-24.7272376,-48.1077914,2084,7313.82045
D1,Cajati/SP,-24.7272376,-48.1077914,46,161.43750
1,Cajazeiras do Piauí/PI,-6.794271,-42.3935024,22,615.72908
D1,Cajazeiras do Piauí/PI,-6.794271,-42.3935024,1,27.98769
1,Cajazeiras/PB,-6.8897849,-38.5570389,3420,5490.53605
D1,Cajazeiras/PB,-6.8897849,-38.5570389,70,112.37939
1,Cajazeirinhas/PB,-6.961442,-37.7993733,60,1872.07488
1,Cajobi/SP,-20.8776238,-48.8106972,279,2633.06908
D1,Cajobi/SP,-20.8776238,-48.8106972,7,66.06267
1,Cajueiro da Praia/PI,-2.931114,-41.340801,421,5486.05682
D1,Cajueiro da Praia/PI,-2.931114,-41.340801,10,130.31014
1,Cajueiro/AL,-9.399589,-36.1524309,385,1804.88491
D1,Cajueiro/AL,-9.399589,-36.1524309,16,75.00820
1,Cajuri/MG,-20.7901414,-42.7954489,78,1962.75793
1,Cajuru/SP,-21.2759978,-47.3046035,499,1890.65282
D1,Cajuru/SP,-21.2759978,-47.3046035,14,53.04437
1,Caldas Brandão/PB,-7.1027959,-35.3254676,349,5772.41151
D1,Caldas Brandão/PB,-7.1027959,-35.3254676,3,49.61958
1,Caldas Novas/GO,-17.745,-48.625,2997,3215.80325
D1,Caldas Novas/GO,-17.745,-48.625,62,66.52646
1,Caldas/MG,-21.923611,-46.386111,257,1767.41627
D1,Caldas/MG,-21.923611,-46.386111,8,55.01685
1,Caldazinha/GO,-16.7116649,-49.0012601,114,2962.57796
D1,Caldazinha/GO,-16.7116649,-49.0012601,2,51.97505
1,Caldeirão Grande do Piauí/PI,-7.3310393,-40.6374433,160,2767.68725
1,Caldeirão Grande/BA,-11.0208483,-40.3041387,455,3397.80450
D1,Caldeirão Grande/BA,-11.0208483,-40.3041387,3,22.40311
1,Califórnia/PR,-23.6672543,-51.3554556,291,3381.36184
D1,Califórnia/PR,-23.6672543,-51.3554556,6,69.71880
1,Calmon/SC,-26.6023644,-51.0992893,14,419.79010
D1,Calmon/SC,-26.6023644,-51.0992893,2,59.97001
1,Calumbi/PE,-7.9389746,-38.1516871,275,4785.10527
D1,Calumbi/PE,-7.9389746,-38.1516871,2,34.80077
1,Calçado/PE,-8.7413446,-36.3351787,170,1542.92975
D1,Calçado/PE,-8.7413446,-36.3351787,2,18.15211
1,Calçoene/AP,2.4981757,-50.9539503,1420,12559.70281
D1,Calçoene/AP,2.4981757,-50.9539503,7,61.91403
1,Camacan/BA,-15.4166631,-39.4930088,1717,5364.61913
D1,Camacan/BA,-15.4166631,-39.4930088,34,106.23008
1,Camacho/MG,-20.625556,-45.156667,20,697.10701
1,Camalaú/PB,-7.885031,-36.824191,72,1193.83187
D1,Camalaú/PB,-7.885031,-36.824191,1,16.58100
1,Camamu/BA,-13.9438142,-39.1060917,965,2727.37550
D1,Camamu/BA,-13.9438142,-39.1060917,26,73.48369
1,Camanducaia/MG,-22.755278,-46.144444,896,4109.90322
D1,Camanducaia/MG,-22.755278,-46.144444,12,55.04335
1,Camapuã/MS,-19.5291747,-54.0434641,191,1394.87329
D1,Camapuã/MS,-19.5291747,-54.0434641,5,36.51501
1,Camaquã/RS,-30.8524752,-51.8075619,2543,3825.32567
D1,Camaquã/RS,-30.8524752,-51.8075619,33,49.64048
1,Camaragibe/PE,-8.0213832,-34.9810768,2646,1665.20872
D1,Camaragibe/PE,-8.0213832,-34.9810768,218,137.19407
1,Camargo/RS,-28.5865661,-52.2031474,120,4376.36761
D1,Camargo/RS,-28.5865661,-52.2031474,1,36.46973
1,Camaçari/BA,-12.6998188,-38.3260762,7505,2466.29993
D1,Camaçari/BA,-12.6998188,-38.3260762,145,47.65003
1,Cambará do Sul/RS,-29.0489517,-50.145412,234,3652.82548
D1,Cambará do Sul/RS,-29.0489517,-50.145412,1,15.61037
1,Cambará/PR,-23.042273,-50.075281,469,1841.67125
D1,Cambará/PR,-23.042273,-50.075281,9,35.34124
1,Cambira/PR,-23.600265,-51.581045,201,2538.84047
D1,Cambira/PR,-23.600265,-51.581045,6,75.78628
1,Camboriú/SC,-27.0273601,-48.6535657,6502,7639.97415
D1,Camboriú/SC,-27.0273601,-48.6535657,75,88.12643
1,Cambuci/RJ,-21.5749919,-41.9107833,356,2294.70156
D1,Cambuci/RJ,-21.5749919,-41.9107833,7,45.12054
1,Cambuquira/MG,-21.853056,-45.2953619,103,803.93381
D1,Cambuquira/MG,-21.853056,-45.2953619,4,31.22073
1,Cambuí/MG,-22.6122501,-46.0572137,675,2264.03703
D1,Cambuí/MG,-22.6122501,-46.0572137,10,33.54129
1,Cambé/PR,-23.2782035,-51.2779583,3819,3557.82040
D1,Cambé/PR,-23.2782035,-51.2779583,55,51.23858
1,Cametá/PA,-2.242949,-49.497885,5562,3990.98763
D1,Cametá/PA,-2.242949,-49.497885,104,74.62472
1,Camocim de São Félix/PE,-8.3616757,-35.7638903,301,1592.59259
D1,Camocim de São Félix/PE,-8.3616757,-35.7638903,10,52.91005
1,Camocim/CE,-2.9009918,-40.8427389,2528,3955.74820
D1,Camocim/CE,-2.9009918,-40.8427389,81,126.74668
1,Campanha/MG,-21.8361108,-45.401986,361,2153.68094
D1,Campanha/MG,-21.8361108,-45.401986,7,41.76113
1,Campanário/MG,-18.2398144,-41.7271768,31,831.09920
1,Campestre da Serra/RS,-28.7966535,-51.0958149,75,2209.13108
1,Campestre de Goiás/GO,-16.7624179,-49.69497,192,5261.71554
D1,Campestre de Goiás/GO,-16.7624179,-49.69497,2,54.80954
1,Campestre do Maranhão/MA,-6.1729113,-47.3640512,550,3805.43832
D1,Campestre do Maranhão/MA,-6.1729113,-47.3640512,16,110.70366
1,Campestre/AL,-8.8481634,-35.5660033,100,1438.02128
D1,Campestre/AL,-8.8481634,-35.5660033,3,43.14064
1,Campestre/MG,-19.6142116,-43.219378,410,1947.37342
D1,Campestre/MG,-19.6142116,-43.219378,6,28.49815
1,Campina Grande do Sul/PR,-25.3046032,-49.0545355,2382,5452.67254
D1,Campina Grande do Sul/PR,-25.3046032,-49.0545355,39,89.27550
1,Campina Grande/PB,-7.2246743,-35.8771292,15270,3708.04770
D1,Campina Grande/PB,-7.2246743,-35.8771292,440,106.84617
1,Campina Verde/MG,-19.535277,-49.486389,174,880.92345
D1,Campina Verde/MG,-19.535277,-49.486389,9,45.56501
1,Campina da Lagoa/PR,-24.5937926,-52.8038965,198,1409.95514
D1,Campina da Lagoa/PR,-24.5937926,-52.8038965,6,42.72591
1,Campina das Missões/RS,-27.9883295,-54.8411665,106,1963.69026
D1,Campina das Missões/RS,-27.9883295,-54.8411665,4,74.10152
1,Campina do Monte Alegre/SP,-23.5935653,-48.4801876,97,1601.45286
1,Campina do Simão/PR,-25.1086375,-51.8076658,14,362.78829
D1,Campina do Simão/PR,-25.1086375,-51.8076658,1,25.91345
1,Campinas do Piauí/PI,-7.6593687,-41.8814875,79,1405.69395
D1,Campinas do Piauí/PI,-7.6593687,-41.8814875,1,17.79359
1,Campinas do Sul/RS,-27.7167968,-52.6257885,219,4027.21589
D1,Campinas do Sul/RS,-27.7167968,-52.6257885,2,36.77823
1,Campinas/SP,-22.90556,-47.06083,42162,3473.57702
D1,Campinas/SP,-22.90556,-47.06083,1448,119.29556
1,Campinaçu/GO,-13.7869969,-48.5703841,126,3469.16300
1,Campinorte/GO,-14.3136699,-49.1510931,482,3776.24569
D1,Campinorte/GO,-14.3136699,-49.1510931,8,62.67628
1,Campinápolis/MT,-14.5403731,-52.7970626,489,2890.24174
D1,Campinápolis/MT,-14.5403731,-52.7970626,16,94.56824
1,Campo Alegre de Goiás/GO,-17.6337896,-47.779291,45,581.54562
D1,Campo Alegre de Goiás/GO,-17.6337896,-47.779291,1,12.92324
1,Campo Alegre de Lourdes/BA,-9.5160326,-43.0101338,197,683.55309
D1,Campo Alegre de Lourdes/BA,-9.5160326,-43.0101338,5,17.34906
1,Campo Alegre do Fidalgo/PI,-8.3753852,-41.8364191,49,966.66009
D1,Campo Alegre do Fidalgo/PI,-8.3753852,-41.8364191,1,19.72776
1,Campo Alegre/AL,-9.7798607,-36.3575793,1618,2812.10352
D1,Campo Alegre/AL,-9.7798607,-36.3575793,29,50.40235
1,Campo Alegre/SC,-26.1941684,-49.2657484,435,3630.74869
D1,Campo Alegre/SC,-26.1941684,-49.2657484,15,125.19823
1,Campo Azul/MG,-16.5078525,-44.8133524,52,1359.83264
1,Campo Belo do Sul/SC,-27.8987563,-50.7586887,328,4718.06674
D1,Campo Belo do Sul/SC,-27.8987563,-50.7586887,4,57.53740
1,Campo Belo/MG,-20.8975,-45.277223,1387,2559.70177
D1,Campo Belo/MG,-20.8975,-45.277223,31,57.21035
1,Campo Bom/RS,-29.674694,-51.060601,4996,7192.83596
D1,Campo Bom/RS,-29.674694,-51.060601,73,105.09948
1,Campo Bonito/PR,-25.0328004,-52.992976,63,1674.19612
1,Campo Erê/SC,-26.3947432,-53.0790495,436,5179.37752
D1,Campo Erê/SC,-26.3947432,-53.0790495,1,11.87931
1,Campo Florido/MG,-19.760833,-48.572223,236,2854.03314
1,Campo Formoso/BA,-10.51055,-40.320031,1790,2503.95177
D1,Campo Formoso/BA,-10.51055,-40.320031,16,22.38169
1,Campo Grande do Piauí/PI,-7.1327559,-41.0381164,339,5683.15172
D1,Campo Grande do Piauí/PI,-7.1327559,-41.0381164,4,67.05784
1,Campo Grande/AL,-9.9725,-36.74791447368421,239,2498.17080
D1,Campo Grande/AL,-9.9725,-36.74791447368421,7,73.16818
1,Campo Grande/MS,-20.4640173,-54.6162947,59381,6553.52878
D1,Campo Grande/MS,-20.4640173,-54.6162947,1020,112.57135
1,Campo Grande/RN,-5.862063,-37.3134908,181,1871.76836
D1,Campo Grande/RN,-5.862063,-37.3134908,3,31.02378
1,Campo Largo do Piauí/PI,-3.8104731,-42.6288333,228,3118.58843
D1,Campo Largo do Piauí/PI,-3.8104731,-42.6288333,5,68.39010
1,Campo Largo/PR,-25.4597726,-49.5270851,6461,4826.50431
D1,Campo Largo/PR,-25.4597726,-49.5270851,124,92.63064
1,Campo Limpo Paulista/SP,-23.207791,-46.788919,1542,1802.64435
D1,Campo Limpo Paulista/SP,-23.207791,-46.788919,79,92.35337
1,Campo Limpo de Goiás/GO,-16.297101,-49.0894994,122,1536.52393
D1,Campo Limpo de Goiás/GO,-16.297101,-49.0894994,2,25.18892
1,Campo Magro/PR,-25.3691533,-49.4496921,888,2985.87761
D1,Campo Magro/PR,-25.3691533,-49.4496921,28,94.14929
1,Campo Maior/PI,-4.8339574,-42.1739786,2792,5953.98034
D1,Campo Maior/PI,-4.8339574,-42.1739786,56,119.42081
1,Campo Mourão/PR,-24.046329,-52.37802,3104,3250.67024
D1,Campo Mourão/PR,-24.046329,-52.37802,51,53.40985
1,Campo Novo de Rondônia/RO,-10.5704235,-63.6199511,284,1990.74723
D1,Campo Novo de Rondônia/RO,-10.5704235,-63.6199511,7,49.06771
1,Campo Novo do Parecis/MT,-13.658735,-57.890723,3167,8762.41596
D1,Campo Novo do Parecis/MT,-13.658735,-57.890723,30,83.00362
1,Campo Novo/RS,-28.91500235,-52.331375687737626,56,1279.70750
D1,Campo Novo/RS,-28.91500235,-52.331375687737626,1,22.85192
1,Campo Redondo/RN,-6.2420373,-36.1830606,261,2311.57559
D1,Campo Redondo/RN,-6.2420373,-36.1830606,4,35.42645
1,Campo Verde/MT,-15.5430787,-55.1590511,2832,6191.51727
D1,Campo Verde/MT,-15.5430787,-55.1590511,57,124.61740
1,Campo do Brito/SE,-10.7496246,-37.4942276,1051,5769.01965
D1,Campo do Brito/SE,-10.7496246,-37.4942276,13,71.35800
1,Campo do Meio/MG,-21.1072006,-45.8301735,170,1459.10222
D1,Campo do Meio/MG,-21.1072006,-45.8301735,2,17.16591
1,Campo do Tenente/PR,-25.9814143,-49.684518,201,2498.44624
D1,Campo do Tenente/PR,-25.9814143,-49.684518,7,87.01057
1,Campos Altos/MG,-19.696389,-46.171389,200,1285.09927
D1,Campos Altos/MG,-19.696389,-46.171389,6,38.55298
1,Campos Belos/GO,-13.0349839,-46.768112,401,2004.29850
D1,Campos Belos/GO,-13.0349839,-46.768112,8,39.98600
1,Campos Borges/RS,-28.8852198,-52.999098,96,2913.50531
1,Campos Gerais/MG,-21.2333342,-45.7584127,290,1005.47812
D1,Campos Gerais/MG,-21.2333342,-45.7584127,7,24.27016
1,Campos Lindos/TO,-7.9740597,-46.8023881,294,2851.04732
D1,Campos Lindos/TO,-7.9740597,-46.8023881,2,19.39488
1,Campos Novos Paulista/SP,-22.601952,-49.998726,156,3121.87312
D1,Campos Novos Paulista/SP,-22.601952,-49.998726,2,40.02401
1,Campos Novos/SC,-27.3962904,-51.2224397,1941,5309.66189
D1,Campos Novos/SC,-27.3962904,-51.2224397,18,49.23952
1,Campos Sales/CE,-7.0742675,-40.3740367,703,2559.15544
D1,Campos Sales/CE,-7.0742675,-40.3740367,9,32.76301
1,Campos Verdes/GO,-14.2709062,-49.65746,51,2786.88525
D1,Campos Verdes/GO,-14.2709062,-49.65746,2,109.28962
