type,name,lat,lon,total,total_per_100k_inhabitants
1,Abadia de Goiás/GO,-16.7572644,-49.4412205,1035,11553.91829
D1,Abadia de Goiás/GO,-16.7572644,-49.4412205,14,156.28489
1,Abadia dos Dourados/MG,-18.4911191,-47.4063589,307,4381.95832
D1,Abadia dos Dourados/MG,-18.4911191,-47.4063589,7,99.91436
1,Abadiânia/GO,-16.1940946,-48.7067767,273,1334.24564
D1,Abadiânia/GO,-16.1940946,-48.7067767,18,87.97224
1,Abaetetuba/PA,-1.721828,-48.878843,5911,3715.74051
D1,Abaetetuba/PA,-1.721828,-48.878843,129,81.09127
1,Abaeté/MG,-19.1566833,-45.4481213,605,2602.15054
D1,Abaeté/MG,-19.1566833,-45.4481213,14,60.21505
1,Abaiara/CE,-7.3607808,-39.0487878,261,2201.97418
D1,Abaiara/CE,-7.3607808,-39.0487878,6,50.62010
1,Abaré/BA,-8.7239913,-39.1139689,496,2437.70580
D1,Abaré/BA,-8.7239913,-39.1139689,1,4.91473
1,Abatiá/PR,-23.3052967,-50.3102532,292,3941.68467
D1,Abatiá/PR,-23.3052967,-50.3102532,4,53.99568
1,Abaíra/BA,-13.2503296,-41.6640342,240,2755.45350
D1,Abaíra/BA,-13.2503296,-41.6640342,7,80.36739
1,Abdon Batista/SC,-27.612419,-51.022992,191,7496.07535
D1,Abdon Batista/SC,-27.612419,-51.022992,1,39.24647
1,Abel Figueiredo/PA,-4.953001,-48.3958485,652,8709.59124
D1,Abel Figueiredo/PA,-4.953001,-48.3958485,5,66.79134
1,Abelardo Luz/SC,-26.5705893,-52.3280339,1024,5701.55902
D1,Abelardo Luz/SC,-26.5705893,-52.3280339,32,178.17372
1,Abre Campo/MG,-20.2976097,-42.4764741,480,3570.36596
D1,Abre Campo/MG,-20.2976097,-42.4764741,6,44.62957
1,Abreu e Lima/PE,-7.900719,-34.898389,1718,1712.07622
D1,Abreu e Lima/PE,-7.900719,-34.898389,159,158.45176
1,Abreulândia/TO,-9.6221526,-49.1558343,190,7324.59522
D1,Abreulândia/TO,-9.6221526,-49.1558343,4,154.20200
1,Acaiaca/MG,-20.3621646,-43.1444162,120,3004.50676
D1,Acaiaca/MG,-20.3621646,-43.1444162,5,125.18778
1,Acajutiba/BA,-11.6609659,-38.0186381,386,2541.64746
D1,Acajutiba/BA,-11.6609659,-38.0186381,9,59.26121
1,Acarape/CE,-4.2237866,-38.7071663,2107,14013.03538
D1,Acarape/CE,-4.2237866,-38.7071663,15,99.76057
1,Acaraú/CE,-2.8869514,-40.1194713,3388,5368.91481
D1,Acaraú/CE,-2.8869514,-40.1194713,68,107.75862
1,Acari/RN,-6.4364689,-36.6394777,545,4900.63843
D1,Acari/RN,-6.4364689,-36.6394777,8,71.93598
1,Acará/PA,-1.961388,-48.1987043,985,1769.38691
D1,Acará/PA,-1.961388,-48.1987043,18,32.33397
1,Acauã/PI,-8.219542,-41.083059,150,2112.08110
D1,Acauã/PI,-8.219542,-41.083059,1,14.08054
1,Aceguá/RS,-31.8695131,-54.1615593,89,1800.89033
1,Acopiara/CE,-6.0936464,-39.4543204,1833,3364.47569
D1,Acopiara/CE,-6.0936464,-39.4543204,75,137.66267
1,Acorizal/MT,-15.2001544,-56.3668953,316,5924.25947
D1,Acorizal/MT,-15.2001544,-56.3668953,10,187.47657
1,Acrelândia/AC,-10.0759167,-67.0526898,1059,6836.66882
D1,Acrelândia/AC,-10.0759167,-67.0526898,19,122.65978
1,Acreúna/GO,-17.3959899,-50.3749031,1286,5703.89426
D1,Acreúna/GO,-17.3959899,-50.3749031,31,137.49667
1,Adamantina/SP,-21.6866517,-51.0762975,1670,4756.34417
D1,Adamantina/SP,-21.6866517,-51.0762975,39,111.07630
1,Adelândia/GO,-16.4155077,-50.1665834,100,3974.56280
D1,Adelândia/GO,-16.4155077,-50.1665834,2,79.49126
1,Adolfo/SP,-21.2356597,-49.6441918,259,7287.56331
D1,Adolfo/SP,-21.2356597,-49.6441918,6,168.82386
1,Adrianópolis/PR,-24.6557863,-48.9912769,932,15912.58323
D1,Adrianópolis/PR,-24.6557863,-48.9912769,15,256.10381
1,Adustina/BA,-10.5358875,-38.114479,454,2650.94009
D1,Adustina/BA,-10.5358875,-38.114479,8,46.71260
1,Afogados da Ingazeira/PE,-7.750429,-37.6356375,2496,6673.08309
D1,Afogados da Ingazeira/PE,-7.750429,-37.6356375,36,96.24639
1,Afonso Bezerra/RN,-5.4745,-36.57625071327935,294,2665.69952
D1,Afonso Bezerra/RN,-5.4745,-36.57625071327935,11,99.73706
1,Afonso Cláudio/ES,-20.077841,-41.12606,2695,8849.12165
D1,Afonso Cláudio/ES,-20.077841,-41.12606,44,144.47546
1,Afonso Cunha/MA,-4.1326105,-43.3230026,154,2341.13712
D1,Afonso Cunha/MA,-4.1326105,-43.3230026,2,30.40438
1,Afrânio/PE,-8.5198919,-41.0070197,578,2917.71832
D1,Afrânio/PE,-8.5198919,-41.0070197,9,45.43160
1,Afuá/PA,-0.1535664,-50.3879223,2723,6881.99762
D1,Afuá/PA,-0.1535664,-50.3879223,14,35.38302
1,Agrestina/PE,-8.4558021,-35.9442663,871,3474.96509
D1,Agrestina/PE,-8.4558021,-35.9442663,36,143.62657
1,Agricolândia/PI,-5.7967843,-42.6605131,95,1851.49094
1,Agrolândia/SC,-27.4122212,-49.8295774,648,5883.95533
D1,Agrolândia/SC,-27.4122212,-49.8295774,6,54.48107
1,Agronômica/SC,-27.2660744,-49.7104753,349,6335.08804
D1,Agronômica/SC,-27.2660744,-49.7104753,7,127.06480
1,Aguanil/MG,-20.9424533,-45.3927152,270,5970.80938
D1,Aguanil/MG,-20.9424533,-45.3927152,7,154.79876
1,Aguaí/SP,-22.0592036,-46.979384,1241,3386.26937
D1,Aguaí/SP,-22.0592036,-46.979384,27,73.67387
1,Agudo/RS,-29.6423259,-53.2494005,716,4365.58746
D1,Agudo/RS,-29.6423259,-53.2494005,6,36.58314
1,Agudos do Sul/PR,-25.9890808,-49.3328175,383,4044.35058
D1,Agudos do Sul/PR,-25.9890808,-49.3328175,2,21.11932
1,Agudos/SP,-22.471162,-48.987822,1777,4751.20986
D1,Agudos/SP,-22.471162,-48.987822,34,90.90666
1,Aguiar/PB,-7.0928404,-38.1727215,192,3410.30195
D1,Aguiar/PB,-7.0928404,-38.1727215,3,53.28597
1,Aguiarnópolis/TO,-6.5600452,-47.4721189,486,7051.65409
D1,Aguiarnópolis/TO,-6.5600452,-47.4721189,10,145.09576
1,Aimorés/MG,-19.4917754,-41.0615603,1254,4987.86842
D1,Aimorés/MG,-19.4917754,-41.0615603,31,123.30456
1,Aiquara/BA,-14.126918,-39.8887574,415,9397.64493
D1,Aiquara/BA,-14.126918,-39.8887574,9,203.80435
1,Aiuaba/CE,-6.5710836,-40.1212278,233,1331.96136
D1,Aiuaba/CE,-6.5710836,-40.1212278,3,17.14972
1,Aiuruoca/MG,-21.9759554,-44.6036637,78,1305.22088
D1,Aiuruoca/MG,-21.9759554,-44.6036637,5,83.66801
1,Ajuricaba/RS,-28.239654,-53.7693013,547,7828.82496
D1,Ajuricaba/RS,-28.239654,-53.7693013,12,171.74753
1,Alagoa Grande/PB,-7.0415212,-35.6285322,2097,7373.67699
D1,Alagoa Grande/PB,-7.0415212,-35.6285322,41,144.16822
1,Alagoa Nova/PB,-7.0653703,-35.76695977336711,654,3126.04560
D1,Alagoa Nova/PB,-7.0653703,-35.76695977336711,13,62.13852
1,Alagoa/MG,-22.1697202,-44.6400042,207,7767.35460
D1,Alagoa/MG,-22.1697202,-44.6400042,1,37.52345
1,Alagoinha do Piauí/PI,-7.0090952,-40.939675,238,3105.02283
D1,Alagoinha do Piauí/PI,-7.0090952,-40.939675,9,117.41683
1,Alagoinha/PB,-6.97063215,-35.51490901897793,1268,8708.79121
D1,Alagoinha/PB,-6.97063215,-35.51490901897793,16,109.89011
1,Alagoinha/PE,-8.50355635,-36.77701174370496,445,3023.50863
D1,Alagoinha/PE,-8.50355635,-36.77701174370496,13,88.32722
1,Alagoinhas/BA,-12.133526,-38.420772,9510,6243.14796
D1,Alagoinhas/BA,-12.133526,-38.420772,162,106.35015
1,Alambari/SP,-23.550338,-47.897971,239,3899.49421
D1,Alambari/SP,-23.550338,-47.897971,8,130.52700
1,Albertina/MG,-20.66164,-43.784039,141,4682.82962
D1,Albertina/MG,-20.66164,-43.784039,6,199.26935
1,Alcantil/PB,-7.7425491,-36.0609604,166,3013.25104
D1,Alcantil/PB,-7.7425491,-36.0609604,2,36.30423
1,Alcinópolis/MS,-18.3264121,-53.7094463,83,1532.21340
D1,Alcinópolis/MS,-18.3264121,-53.7094463,2,36.92080
1,Alcobaça/BA,-17.5215875,-39.1965474,1094,4864.38417
D1,Alcobaça/BA,-17.5215875,-39.1965474,16,71.14273
1,Alcântara/MA,-2.4038956,-44.4154241,203,918.05355
D1,Alcântara/MA,-2.4038956,-44.4154241,8,36.17945
1,Alcântaras/CE,-3.586247,-40.5457641,810,6875.47746
D1,Alcântaras/CE,-3.586247,-40.5457641,5,42.44122
1,Aldeias Altas/MA,-4.6291957,-43.4708622,973,3636.43159
D1,Aldeias Altas/MA,-4.6291957,-43.4708622,11,41.11074
1,Alecrim/RS,-27.6566142,-54.7653195,177,3037.58366
D1,Alecrim/RS,-27.6566142,-54.7653195,5,85.80745
1,Alegre/ES,-20.7625787,-41.5318886,1356,4523.76981
D1,Alegre/ES,-20.7625787,-41.5318886,32,106.75563
1,Alegrete do Piauí/PI,-7.2440138,-40.8602296,373,7584.38390
D1,Alegrete do Piauí/PI,-7.2440138,-40.8602296,4,81.33388
1,Alegrete/RS,-29.790166,-55.794862,3577,4898.12127
D1,Alegrete/RS,-29.790166,-55.794862,93,127.34841
1,Alegria/RS,-27.8332103,-54.0574959,267,7913.45584
D1,Alegria/RS,-27.8332103,-54.0574959,1,29.63841
1,Alenquer/PA,-1.946229,-54.738355,1925,3371.75086
D1,Alenquer/PA,-1.946229,-54.738355,49,85.82639
1,Alexandria/RN,-6.414779,-38.0135516,891,6574.19022
D1,Alexandria/RN,-6.414779,-38.0135516,9,66.40596
1,Alexânia/GO,-16.0834049,-48.5077803,1846,6590.50339
D1,Alexânia/GO,-16.0834049,-48.5077803,28,99.96430
1,Alfenas/MG,-21.4297405,-45.9479419,4399,5465.00360
D1,Alfenas/MG,-21.4297405,-45.9479419,98,121.74820
1,Alfredo Chaves/ES,-20.624970400000002,-40.75006690147988,1745,11922.65646
D1,Alfredo Chaves/ES,-20.624970400000002,-40.75006690147988,23,157.14676
1,Alfredo Marcondes/SP,-21.9527,-51.413956,167,3991.39579
D1,Alfredo Marcondes/SP,-21.9527,-51.413956,4,95.60229
1,Alfredo Vasconcelos/MG,-21.145833,-43.776389,148,2120.04011
D1,Alfredo Vasconcelos/MG,-21.145833,-43.776389,5,71.62298
1,Alfredo Wagner/SC,-27.6961513,-49.3326734,547,5423.35911
D1,Alfredo Wagner/SC,-27.6961513,-49.3326734,2,19.82947
1,Algodão de Jandaíra/PB,-6.9040175,-36.0089879,76,2949.16570
1,Alhandra/PB,-7.4304246,-34.9106103,997,5053.98692
D1,Alhandra/PB,-7.4304246,-34.9106103,22,111.52228
1,Aliança do Tocantins/TO,-11.3055927,-48.9409096,409,7650.57987
D1,Aliança do Tocantins/TO,-11.3055927,-48.9409096,10,187.05574
1,Aliança/PE,-7.60398,-35.222696,446,1161.54908
D1,Aliança/PE,-7.60398,-35.222696,31,80.73547
1,Almadina/BA,-14.70466,-39.6381994,537,10007.45434
D1,Almadina/BA,-14.70466,-39.6381994,9,167.72270
1,Almas/TO,-11.5681309,-47.1702803,157,2249.60596
D1,Almas/TO,-11.5681309,-47.1702803,3,42.98610
1,Almeirim/PA,-1.5290377,-52.5788111,2425,7116.44559
D1,Almeirim/PA,-1.5290377,-52.5788111,21,61.62695
1,Almenara/MG,-16.1740678,-40.6904907,2599,6167.09774
D1,Almenara/MG,-16.1740678,-40.6904907,27,64.06758
1,Almino Afonso/RN,-6.1544208,-37.7649018,241,5116.77282
D1,Almino Afonso/RN,-6.1544208,-37.7649018,7,148.61996
1,Almirante Tamandaré do Sul/RS,-28.1141129,-52.9134874,131,6721.39559
1,Almirante Tamandaré/PR,-25.3133048,-49.2997838,6127,5104.08944
D1,Almirante Tamandaré/PR,-25.3133048,-49.2997838,166,138.28609
1,Aloândia/GO,-17.7277983,-49.4809338,182,9164.14904
D1,Aloândia/GO,-17.7277983,-49.4809338,6,302.11480
1,Alpercata/MG,-18.9803616,-41.9827637,337,4532.00646
D1,Alpercata/MG,-18.9803616,-41.9827637,12,161.37708
1,Alpestre/RS,-27.2512339,-53.0349646,212,3494.31350
D1,Alpestre/RS,-27.2512339,-53.0349646,4,65.93044
1,Alpinópolis/MG,-20.863611,-46.387777,474,2374.98747
D1,Alpinópolis/MG,-20.863611,-46.387777,7,35.07365
1,Alta Floresta D'Oeste/RO,-11.9296917,-61.9961284,2601,11444.03379
D1,Alta Floresta D'Oeste/RO,-11.9296917,-61.9961284,36,158.39493
1,Alta Floresta/MT,-9.8715018,-56.0839881,5074,9765.39194
D1,Alta Floresta/MT,-9.8715018,-56.0839881,57,109.70188
1,Altair/SP,-20.5238955,-49.0606135,87,2078.35643
D1,Altair/SP,-20.5238955,-49.0606135,5,119.44577
1,Altamira do Maranhão/MA,-4.1643006,-45.4674574,275,3358.16339
D1,Altamira do Maranhão/MA,-4.1643006,-45.4674574,7,85.48052
1,Altamira do Paraná/PR,-24.799114,-52.7128633,70,4161.71225
D1,Altamira do Paraná/PR,-24.799114,-52.7128633,2,118.90606
1,Altamira/PA,-3.204065,-52.209961,9219,7949.53824
D1,Altamira/PA,-3.204065,-52.209961,181,156.07619
1,Altaneira/CE,-6.9980933,-39.7385742,286,3738.56209
D1,Altaneira/CE,-6.9980933,-39.7385742,10,130.71895
1,Alterosa/MG,-21.249166,-46.143055,466,3210.02962
D1,Alterosa/MG,-21.249166,-46.143055,24,165.32341
1,Altinho/PE,-8.4904095,-36.0607494,750,3263.13958
D1,Altinho/PE,-8.4904095,-36.0607494,14,60.91194
1,Altinópolis/SP,-21.021364,-47.3712,511,3153.73696
D1,Altinópolis/SP,-21.021364,-47.3712,15,92.57545
1,Alto Alegre do Maranhão/MA,-4.2055693,-44.4525287,585,2099.93539
D1,Alto Alegre do Maranhão/MA,-4.2055693,-44.4525287,19,68.20303
1,Alto Alegre do Pindaré/MA,-3.6698186,-45.8462153,1682,5265.62940
D1,Alto Alegre do Pindaré/MA,-3.6698186,-45.8462153,26,81.39498
1,Alto Alegre dos Parecis/RO,-12.1314515,-61.856265,695,5243.30441
D1,Alto Alegre dos Parecis/RO,-12.1314515,-61.856265,17,128.25349
1,Alto Alegre/RR,2.98858,-61.307167,1110,7217.16515
D1,Alto Alegre/RR,2.98858,-61.307167,23,149.54486
1,Alto Alegre/RS,-31.780844700000003,-52.81311114489171,78,4835.70986
1,Alto Alegre/SP,-21.5820592,-50.1661976,168,4109.58904
D1,Alto Alegre/SP,-21.5820592,-50.1661976,4,97.84736
1,Alto Araguaia/MT,-17.3156528,-53.2169365,825,4255.86794
D1,Alto Araguaia/MT,-17.3156528,-53.2169365,14,72.22079
1,Alto Bela Vista/SC,-27.4320737,-51.905771,97,5036.34476
D1,Alto Bela Vista/SC,-27.4320737,-51.905771,2,103.84216
1,Alto Boa Vista/MT,-11.6723985,-51.3744431,374,5392.15686
D1,Alto Boa Vista/MT,-11.6723985,-51.3744431,6,86.50519
1,Alto Caparaó/MG,-20.4405661,-41.8683799,268,4546.99695
D1,Alto Caparaó/MG,-20.4405661,-41.8683799,7,118.76485
1,Alto Feliz/RS,-29.3785943,-51.3123751,144,4743.08300
1,Alto Garças/MT,-16.9469683,-53.529427,404,3324.82923
D1,Alto Garças/MT,-16.9469683,-53.529427,19,156.36573
1,Alto Horizonte/GO,-14.1954948,-49.3366993,455,6888.72067
D1,Alto Horizonte/GO,-14.1954948,-49.3366993,3,45.42014
1,Alto Jequitibá/MG,-20.423611,-41.966111,430,5180.09878
D1,Alto Jequitibá/MG,-20.423611,-41.966111,9,108.42067
1,Alto Longá/PI,-5.2549051,-42.2072388,415,2894.20462
D1,Alto Longá/PI,-5.2549051,-42.2072388,11,76.71386
1,Alto Paraguai/MT,-14.513712,-56.4936374,382,3329.55635
D1,Alto Paraguai/MT,-14.513712,-56.4936374,13,113.30951
1,Alto Paraná/PR,-23.131247,-52.318893,554,3728.38011
D1,Alto Paraná/PR,-23.131247,-52.318893,10,67.29928
1,Alto Paraíso de Goiás/GO,-14.1304779,-47.5100161,462,6009.36524
D1,Alto Paraíso de Goiás/GO,-14.1304779,-47.5100161,1,13.00728
1,Alto Paraíso/PR,-23.508137,-53.728537,114,4245.81006
D1,Alto Paraíso/PR,-23.508137,-53.728537,1,37.24395
1,Alto Paraíso/RO,-9.7240103,-63.3188123,1130,5172.33487
D1,Alto Paraíso/RO,-9.7240103,-63.3188123,20,91.54575
1,Alto Parnaíba/MA,-9.112506,-45.9310154,643,5734.92686
D1,Alto Parnaíba/MA,-9.112506,-45.9310154,5,44.59508
1,Alto Piquiri/PR,-24.0239021,-53.4417448,382,3906.72939
D1,Alto Piquiri/PR,-24.0239021,-53.4417448,10,102.27040
1,Alto Rio Doce/MG,-21.0239537,-43.4133507,228,2099.64085
D1,Alto Rio Doce/MG,-21.0239537,-43.4133507,17,156.55217
1,Alto Rio Novo/ES,-19.0577208,-41.0171518,494,6273.81255
D1,Alto Rio Novo/ES,-19.0577208,-41.0171518,17,215.90043
1,Alto Santo/CE,-5.5190371,-38.2719351,662,3849.73250
D1,Alto Santo/CE,-5.5190371,-38.2719351,17,98.86020
1,Alto Taquari/MT,-17.8269099,-53.2831736,826,7419.38381
D1,Alto Taquari/MT,-17.8269099,-53.2831736,12,107.78766
1,Alto do Rodrigues/RN,-5.290868,-36.7616726,987,6701.52091
D1,Alto do Rodrigues/RN,-5.290868,-36.7616726,21,142.58555
1,Altos/PI,-5.0393915,-42.4611694,2956,7279.89164
D1,Altos/PI,-5.0393915,-42.4611694,46,113.28654
1,Altônia/PR,-23.8722004,-53.894037,783,3530.84416
D1,Altônia/PR,-23.8722004,-53.894037,11,49.60317
1,Alumínio/SP,-23.5203479,-47.2575256,784,4177.54569
D1,Alumínio/SP,-23.5203479,-47.2575256,22,117.22705
1,Alvarenga/MG,-19.4175,-41.728334,334,8688.86576
D1,Alvarenga/MG,-19.4175,-41.728334,3,78.04370
1,Alvarães/AM,-3.214786,-64.8143124,2461,15172.62639
D1,Alvarães/AM,-3.214786,-64.8143124,35,215.78298
1,Alvinlândia/SP,-22.4431852,-49.7643596,63,1946.24652
1,Alvinópolis/MG,-20.1105199,-43.0601805,325,2142.52752
D1,Alvinópolis/MG,-20.1105199,-43.0601805,4,26.36957
1,Alvorada D'Oeste/RO,-11.346271,-62.284697,635,4501.63051
D1,Alvorada D'Oeste/RO,-11.346271,-62.284697,14,99.24855
1,Alvorada de Minas/MG,-18.7318587,-43.3641479,154,4271.84466
D1,Alvorada de Minas/MG,-18.7318587,-43.3641479,1,27.73925
1,Alvorada do Gurguéia/PI,-8.4465288,-43.8655915,202,3709.82553
D1,Alvorada do Gurguéia/PI,-8.4465288,-43.8655915,5,91.82736
1,Alvorada do Norte/GO,-14.483911,-46.4959897,485,5571.51063
D1,Alvorada do Norte/GO,-14.483911,-46.4959897,2,22.97530
1,Alvorada do Sul/PR,-22.7807269,-51.2307721,456,3964.18326
D1,Alvorada do Sul/PR,-22.7807269,-51.2307721,10,86.93384
1,Alvorada/RS,-29.9981184,-51.0772509,12843,6076.59260
D1,Alvorada/RS,-29.9981184,-51.0772509,397,187.83830
1,Alvorada/TO,-12.478465,-49.124926,867,10326.34588
D1,Alvorada/TO,-12.478465,-49.124926,12,142.92520
1,Além Paraíba/MG,-21.8760576,-42.6810473,1847,5217.36674
D1,Além Paraíba/MG,-21.8760576,-42.6810473,72,203.38409
1,Amajari/RR,3.6523869,-61.4194315,777,5893.06030
D1,Amajari/RR,3.6523869,-61.4194315,18,136.51877
1,Amambai/MS,-23.1082701,-55.2284854,1842,4625.11927
D1,Amambai/MS,-23.1082701,-55.2284854,35,87.88229
1,Amaporã/PR,-23.094272,-52.786597,127,2005.68541
1,Amapá do Maranhão/MA,-1.6762114,-46.0109669,49,699.50036
1,Amapá/AP,2.0529997,-50.7930003,1119,12180.25471
D1,Amapá/AP,2.0529997,-50.7930003,9,97.96452
1,Amaraji/PE,-8.373925,-35.4536527,399,1744.64364
D1,Amaraji/PE,-8.373925,-35.4536527,25,109.31351
1,Amaral Ferrador/RS,-30.8750633,-52.2542051,163,2300.63514
D1,Amaral Ferrador/RS,-30.8750633,-52.2542051,4,56.45730
1,Amaralina/GO,-13.9236199,-49.2962411,28,728.21847
1,Amarante do Maranhão/MA,-5.56913,-46.747284,1201,2878.09437
D1,Amarante do Maranhão/MA,-5.56913,-46.747284,35,83.87452
1,Amarante/PI,-6.2459374,-42.8476238,1020,5794.13770
D1,Amarante/PI,-6.2459374,-42.8476238,20,113.61054
1,Amargosa/BA,-13.03793715,-39.60796443875596,1873,5002.53733
D1,Amargosa/BA,-13.03793715,-39.60796443875596,33,88.13867
1,Amaturá/AM,-3.3640509,-68.1994689,1832,15610.08862
D1,Amaturá/AM,-3.3640509,-68.1994689,15,127.81186
1,Americana/SP,-22.7392463,-47.3306032,11885,4910.79176
D1,Americana/SP,-22.7392463,-47.3306032,304,125.61049
1,Americano do Brasil/GO,-16.2515808,-49.9806104,282,4574.95133
D1,Americano do Brasil/GO,-16.2515808,-49.9806104,8,129.78585
1,Ametista do Sul/RS,-27.3617341,-53.1826575,362,4889.90950
D1,Ametista do Sul/RS,-27.3617341,-53.1826575,8,108.06430
1,Amontada/CE,-3.3634586,-39.8284791,1303,2972.91747
D1,Amontada/CE,-3.3634586,-39.8284791,24,54.75827
1,Amorinópolis/GO,-16.6211308,-51.0949921,131,4268.49137
D1,Amorinópolis/GO,-16.6211308,-51.0949921,1,32.58390
1,Amparo de São Francisco/SE,-10.1299754,-36.9269099,99,4159.66387
D1,Amparo de São Francisco/SE,-10.1299754,-36.9269099,2,84.03361
1,Amparo do Serra/MG,-20.5070255,-42.8028462,83,1774.26251
D1,Amparo do Serra/MG,-20.5070255,-42.8028462,3,64.12997
1,Amparo/PB,-7.56394725,-37.04652873235175,97,4309.19591
D1,Amparo/PB,-7.56394725,-37.04652873235175,2,88.84940
1,Amparo/SP,-22.70111,-46.76444,3017,4151.24455
D1,Amparo/SP,-22.70111,-46.76444,70,96.31658
1,Ampére/PR,-25.9168712,-53.4742414,739,3826.83445
D1,Ampére/PR,-25.9168712,-53.4742414,18,93.21112
1,Amélia Rodrigues/BA,-12.4015388,-38.7516971,1429,5705.04631
D1,Amélia Rodrigues/BA,-12.4015388,-38.7516971,26,103.80070
1,América Dourada/BA,-11.4515262,-41.4357517,473,2939.71411
D1,América Dourada/BA,-11.4515262,-41.4357517,2,12.43008
1,Américo Brasiliense/SP,-21.7297099,-48.1052092,2575,6275.58978
D1,Américo Brasiliense/SP,-21.7297099,-48.1052092,52,126.73036
1,Américo de Campos/SP,-20.298476,-49.735904,477,7975.25497
D1,Américo de Campos/SP,-20.298476,-49.735904,16,267.51379
1,Anadia/AL,-9.6830208,-36.3052699,845,4821.40819
D1,Anadia/AL,-9.6830208,-36.3052699,16,91.29294
1,Anagé/BA,-14.6134669,-41.1376308,529,2448.28065
D1,Anagé/BA,-14.6134669,-41.1376308,12,55.53756
1,Anahy/PR,-24.6450861,-53.1337957,147,5272.59684
D1,Anahy/PR,-24.6450861,-53.1337957,3,107.60402
1,Anajatuba/MA,-3.26441,-44.6179916,591,2189.86216
D1,Anajatuba/MA,-3.26441,-44.6179916,15,55.58026
1,Anajás/PA,-0.9878802,-49.9390114,1073,3614.25492
D1,Anajás/PA,-0.9878802,-49.9390114,12,40.42037
1,Analândia/SP,-22.128917,-47.661939,207,4094.14557
D1,Analândia/SP,-22.128917,-47.661939,3,59.33544
1,Anamã/AM,-3.5797356,-61.4049996,1522,10905.70364
D1,Anamã/AM,-3.5797356,-61.4049996,4,28.66151
1,Ananindeua/PA,-1.374035,-48.4016623,15068,2813.57192
D1,Ananindeua/PA,-1.374035,-48.4016623,462,86.26694
1,Ananás/TO,-6.3663053,-48.080238,1235,13010.95660
D1,Ananás/TO,-6.3663053,-48.080238,19,200.16856
1,Anapu/PA,-3.4668292,-51.2057035,1161,4058.44723
D1,Anapu/PA,-3.4668292,-51.2057035,24,83.89555
1,Anapurus/MA,-3.6751298,-43.1046001,827,5203.22134
D1,Anapurus/MA,-3.6751298,-43.1046001,10,62.91682
1,Anastácio/MS,-20.4832458,-55.8048448,1519,6018.94044
D1,Anastácio/MS,-20.4832458,-55.8048448,44,174.34719
1,Anaurilândia/MS,-22.185169,-52.719056,210,2313.79462
D1,Anaurilândia/MS,-22.185169,-52.719056,5,55.09035
1,Anchieta/ES,-20.8057672,-40.6454564,3024,10154.80708
D1,Anchieta/ES,-20.8057672,-40.6454564,42,141.03899
1,Anchieta/SC,-26.5350527,-53.3293938,332,5974.44664
D1,Anchieta/SC,-26.5350527,-53.3293938,4,71.98128
1,Andaraí/BA,-12.8059674,-41.3322919,568,4325.31221
D1,Andaraí/BA,-12.8059674,-41.3322919,5,38.07493
1,Andirá/PR,-23.0494761,-50.2310027,1188,5962.05962
D1,Andirá/PR,-23.0494761,-50.2310027,31,155.57563
1,Andorinha/BA,-10.3445708,-39.8334411,579,3992.27746
D1,Andorinha/BA,-10.3445708,-39.8334411,9,62.05613
1,Andradas/MG,-22.0680484,-46.5688976,1836,4435.21113
D1,Andradas/MG,-22.0680484,-46.5688976,41,99.04339
1,Andradina/SP,-20.896505,-51.3742765,3288,5748.05077
D1,Andradina/SP,-20.896505,-51.3742765,116,202.79011
1,Andrelândia/MG,-21.739722,-44.308889,194,1589.38227
D1,Andrelândia/MG,-21.739722,-44.308889,6,49.15615
1,André da Rocha/RS,-28.6309124,-51.5733328,65,4839.91065
1,Angatuba/SP,-23.4938938,-48.4110675,1174,4607.71616
D1,Angatuba/SP,-23.4938938,-48.4110675,25,98.12002
1,Angelim/PE,-8.8902038,-36.2872987,116,1033.31552
D1,Angelim/PE,-8.8902038,-36.2872987,4,35.63157
1,Angelina/SC,-27.5805287,-48.9838759,363,7653.38393
1,Angelândia/MG,-17.7253,-42.2728,80,934.90709
1,Angical do Piauí/PI,-6.0872666,-42.7366138,284,4186.93793
D1,Angical do Piauí/PI,-6.0872666,-42.7366138,6,88.45644
1,Angical/BA,-12.005623,-44.7000236,331,2374.80270
D1,Angical/BA,-12.005623,-44.7000236,5,35.87315
1,Angico/TO,-6.3893733,-47.8656722,189,5471.91662
D1,Angico/TO,-6.3893733,-47.8656722,3,86.85582
1,Angicos/RN,-5.6666344,-36.6009064,377,3220.84579
D1,Angicos/RN,-5.6666344,-36.6009064,9,76.89022
1,Angra dos Reis/RJ,-23.0063966,-44.316326,11264,5440.38948
D1,Angra dos Reis/RJ,-23.0063966,-44.316326,355,171.46114
1,Anguera/BA,-12.1509425,-39.2452469,276,2443.12649
D1,Anguera/BA,-12.1509425,-39.2452469,1,8.85191
1,Angélica/MS,-22.1588196,-53.7728504,465,4253.56751
D1,Angélica/MS,-22.1588196,-53.7728504,8,73.17966
1,Anhanguera/GO,-18.3338749,-48.220363,69,5948.27586
D1,Anhanguera/GO,-18.3338749,-48.220363,6,517.24138
1,Anhembi/SP,-22.7891096,-48.1316776,95,1393.16615
D1,Anhembi/SP,-22.7891096,-48.1316776,2,29.32981
1,Anhumas/SP,-22.2956478,-51.3873401,165,3981.66023
D1,Anhumas/SP,-22.2956478,-51.3873401,1,24.13127
1,Anicuns/GO,-16.4606451,-49.9572265,1832,8334.47068
D1,Anicuns/GO,-16.4606451,-49.9572265,37,168.32719
1,Anita Garibaldi/SC,-27.6855032,-51.1293873,697,10018.68622
D1,Anita Garibaldi/SC,-27.6855032,-51.1293873,5,71.87006
1,Anitápolis/SC,-27.9041185,-49.1287395,227,7032.21809
1,Anori/AM,-3.7435254,-61.6605203,1784,8306.56051
D1,Anori/AM,-3.7435254,-61.6605203,29,135.02817
1,Anta Gorda/RS,-28.9718745,-52.0069187,488,8186.54588
D1,Anta Gorda/RS,-28.9718745,-52.0069187,4,67.10284
1,Antas/BA,-10.4114649,-38.3308815,833,4276.40023
D1,Antas/BA,-10.4114649,-38.3308815,2,10.26747
1,Antonina do Norte/CE,-6.7754187,-39.9879345,112,1518.02657
D1,Antonina do Norte/CE,-6.7754187,-39.9879345,8,108.43047
1,Antonina/PR,-25.4298854,-48.7125431,1610,8496.49058
D1,Antonina/PR,-25.4298854,-48.7125431,41,216.37026
1,Antônio Almeida/PI,-7.2186016,-44.1950248,360,11356.46688
D1,Antônio Almeida/PI,-7.2186016,-44.1950248,9,283.91167
1,Antônio Cardoso/BA,-12.4363122,-39.1200307,265,2269.41852
D1,Antônio Cardoso/BA,-12.4363122,-39.1200307,5,42.81922
1,Antônio Carlos/MG,-21.318334,-43.746666,344,3002.00716
D1,Antônio Carlos/MG,-21.318334,-43.746666,6,52.36059
1,Antônio Carlos/SC,-27.5168462,-48.7684715,1225,14222.68664
D1,Antônio Carlos/SC,-27.5168462,-48.7684715,17,197.37606
1,Antônio Dias/MG,-19.6525,-42.872778,305,3288.40970
D1,Antônio Dias/MG,-19.6525,-42.872778,6,64.69003
1,Antônio Gonçalves/BA,-10.5715409,-40.2748824,520,4377.84139
D1,Antônio Gonçalves/BA,-10.5715409,-40.2748824,5,42.09463
1,Antônio João/MS,-22.1892837,-55.9508227,220,2439.02439
D1,Antônio João/MS,-22.1892837,-55.9508227,4,44.34590
1,Antônio Martins/RN,-6.2155812,-37.8890129,227,3173.05004
D1,Antônio Martins/RN,-6.2155812,-37.8890129,2,27.95639
1,Antônio Olinto/PR,-25.9849006,-50.1974516,209,2814.05682
D1,Antônio Olinto/PR,-25.9849006,-50.1974516,2,26.92877
1,Antônio Prado de Minas/MG,-21.0171988,-42.1101106,139,8758.66415
D1,Antônio Prado de Minas/MG,-21.0171988,-42.1101106,3,189.03592
1,Antônio Prado/RS,-28.8567806,-51.2801355,1322,10134.15102
D1,Antônio Prado/RS,-28.8567806,-51.2801355,12,91.98927
1,Anápolis/GO,-16.3332828,-48.9525756,23076,5890.16060
D1,Anápolis/GO,-16.3332828,-48.9525756,583,148.81104
1,Anísio de Abreu/PI,-9.185643,-43.04941,242,2435.09761
D1,Anísio de Abreu/PI,-9.185643,-43.04941,2,20.12477
1,Aparecida d'Oeste/SP,-20.4498109,-50.8808706,452,10870.61087
D1,Aparecida d'Oeste/SP,-20.4498109,-50.8808706,11,264.55026
1,Aparecida de Goiânia/GO,-16.8226769,-49.2452546,50391,8538.73448
D1,Aparecida de Goiânia/GO,-16.8226769,-49.2452546,811,137.42362
1,Aparecida do Rio Doce/GO,-18.2980167,-51.1491312,143,5780.11318
D1,Aparecida do Rio Doce/GO,-18.2980167,-51.1491312,3,121.26112
1,Aparecida do Rio Negro/TO,-9.9513491,-47.9773786,231,4764.85149
D1,Aparecida do Rio Negro/TO,-9.9513491,-47.9773786,4,82.50825
1,Aparecida do Taboado/MS,-20.0840304,-51.1013943,1661,6371.55242
D1,Aparecida do Taboado/MS,-20.0840304,-51.1013943,25,95.89934
1,Aparecida/PB,-6.7859598, -38.0831353,612,7271.86312
D1,Aparecida/PB,-6.7859598, -38.0831353,9,106.93916
1,Aparecida/SP,-22.851552,-45.2340924,1441,3982.31311
D1,Aparecida/SP,-22.851552,-45.2340924,38,105.01589
1,Aperibé/RJ,-21.6211928,-42.1028167,311,2613.22578
D1,Aperibé/RJ,-21.6211928,-42.1028167,10,84.02655
1,Apiacá/ES,-21.152272,-41.569297,471,6235.10723
D1,Apiacá/ES,-21.152272,-41.569297,13,172.09425
1,Apiacás/MT,-9.5678422,-57.394852,574,5582.02859
D1,Apiacás/MT,-9.5678422,-57.394852,2,19.44958
1,Apiaí/SP,-24.5076527,-48.8461582,729,3009.16371
D1,Apiaí/SP,-24.5076527,-48.8461582,26,107.32271
1,Apicum-Açu/MA,-1.5279295,-45.082278,260,1493.13731
D1,Apicum-Açu/MA,-1.5279295,-45.082278,3,17.22851
1,Apiúna/SC,-27.0374658,-49.3885037,586,5401.91740
D1,Apiúna/SC,-27.0374658,-49.3885037,11,101.40118
1,Apodi/RN,-5.6631109,-37.796927,4312,12019.84724
D1,Apodi/RN,-5.6631109,-37.796927,52,144.95178
1,Aporá/BA,-11.6599747,-38.0794757,373,2096.91927
D1,Aporá/BA,-11.6599747,-38.0794757,11,61.83944
1,Aporé/GO,-18.9642193,-51.92804,208,4914.93384
D1,Aporé/GO,-18.9642193,-51.92804,5,118.14745
1,Apuarema/BA,-13.8517897,-39.7457126,593,8121.06272
D1,Apuarema/BA,-13.8517897,-39.7457126,9,123.25390
1,Apucarana/PR,-23.5525327,-51.4610764,4444,3262.03444
D1,Apucarana/PR,-23.5525327,-51.4610764,148,108.63661
1,Apuiarés/CE,-3.9460303,-39.4313298,454,3094.32933
D1,Apuiarés/CE,-3.9460303,-39.4313298,13,88.60414
1,Apuí/AM,-7.1940195,-59.8830192,935,4181.76126
D1,Apuí/AM,-7.1940195,-59.8830192,19,84.97697
1,Aquidabã/SE,-10.2837579,-37.0188687,1401,6461.87906
D1,Aquidabã/SE,-10.2837579,-37.0188687,22,101.47133
1,Aquidauana/MS,-20.473969,-55.7821375,3499,7285.18187
D1,Aquidauana/MS,-20.473969,-55.7821375,91,189.46886
1,Aquiraz/CE,-3.9063117,-38.387504,2992,3696.79372
D1,Aquiraz/CE,-3.9063117,-38.387504,52,64.24909
1,Arabutã/SC,-27.1587028,-52.1438142,289,6772.90837
D1,Arabutã/SC,-27.1587028,-52.1438142,3,70.30701
1,Aracaju/SE,-10.9162061,-37.0774655,81109,12198.52972
D1,Aracaju/SE,-10.9162061,-37.0774655,1183,177.91935
1,Aracati/CE,-4.558259,-37.767894,3443,4592.19740
D1,Aracati/CE,-4.558259,-37.767894,81,108.03601
1,Aracatu/BA,-14.4274236,-41.4604105,547,4193.17746
D1,Aracatu/BA,-14.4274236,-41.4604105,8,61.32618
1,Araci/BA,-11.3356065,-38.9573261,2884,5277.41180
D1,Araci/BA,-11.3356065,-38.9573261,31,56.72669
1,Aracitaba/MG,-21.3425,-43.378611,70,3399.70860
D1,Aracitaba/MG,-21.3425,-43.378611,7,339.97086
1,Aracoiaba/CE,-4.3702577,-38.8084313,1210,4560.01507
D1,Aracoiaba/CE,-4.3702577,-38.8084313,20,75.37215
1,Aracruz/ES,-19.8245218,-40.2735025,11108,10773.90132
D1,Aracruz/ES,-19.8245218,-40.2735025,154,149.36810
1,Aragarças/GO,-15.8957166,-52.2514538,1559,7690.03108
D1,Aragarças/GO,-15.8957166,-52.2514538,29,143.04740
1,Aragoiânia/GO,-16.9146388,-49.4499148,642,6116.61585
D1,Aragoiânia/GO,-16.9146388,-49.4499148,6,57.16463
1,Aragominas/TO,-7.1654101,-48.525488,416,7258.76810
D1,Aragominas/TO,-7.1654101,-48.525488,7,122.14273
1,Araguacema/TO,-8.8067391,-49.5560969,282,3941.29979
D1,Araguacema/TO,-8.8067391,-49.5560969,5,69.88120
1,Araguaiana/MT,-15.729144,-51.834112,91,2926.98617
D1,Araguaiana/MT,-15.729144,-51.834112,1,32.16468
1,Araguainha/MT,-16.857016,-53.031778,16,1691.33192
1,Araguanã/MA,-2.9508403,-45.6651986,640,4115.49097
D1,Araguanã/MA,-2.9508403,-45.6651986,5,32.15227
1,Araguanã/TO,-6.5799107,-48.6428482,203,3504.22924
D1,Araguanã/TO,-6.5799107,-48.6428482,11,189.88434
1,Araguapaz/GO,-15.0937927,-50.626417,330,4240.01028
D1,Araguapaz/GO,-15.0937927,-50.626417,10,128.48516
1,Araguari/MG,-18.6511256,-48.1933764,9394,7972.84108
D1,Araguari/MG,-18.6511256,-48.1933764,242,205.38935
1,Araguatins/TO,-5.6522925,-48.1158973,1416,3914.84656
D1,Araguatins/TO,-5.6522925,-48.1158973,40,110.58889
1,Araguaçu/TO,-12.928934,-49.823134,676,7983.93764
D1,Araguaçu/TO,-12.928934,-49.823134,13,153.53726
1,Araguaína/TO,-7.193241,-48.2018597,22500,12269.53719
D1,Araguaína/TO,-7.193241,-48.2018597,284,154.86883
1,Araioses/MA,-2.890914,-41.904993,596,1274.29390
D1,Araioses/MA,-2.890914,-41.904993,10,21.38077
1,Aral Moreira/MS,-22.951141,-55.6268421,314,2546.22121
D1,Aral Moreira/MS,-22.951141,-55.6268421,8,64.87188
1,Aramari/BA,-12.0907897,-38.4985065,453,3952.53468
D1,Aramari/BA,-12.0907897,-38.4985065,10,87.25242
1,Arambaré/RS,-30.9132252,-51.4994625,107,3003.93038
D1,Arambaré/RS,-30.9132252,-51.4994625,2,56.14823
1,Arame/MA,-4.8858769,-46.0102484,979,2988.03565
D1,Arame/MA,-4.8858769,-46.0102484,26,79.35539
1,Aramina/SP,-20.0876144,-47.789201,194,3430.59240
D1,Aramina/SP,-20.0876144,-47.789201,7,123.78426
1,Arandu/SP,-23.1345103,-49.0545651,164,2576.59073
D1,Arandu/SP,-23.1345103,-49.0545651,7,109.97643
1,Arantina/MG,-21.911667,-44.255833,58,2081.09078
D1,Arantina/MG,-21.911667,-44.255833,2,71.76175
1,Arapeí/SP,-22.6738889,-44.4477778,153,6219.51220
D1,Arapeí/SP,-22.6738889,-44.4477778,2,81.30081
1,Arapiraca/AL,-9.754866,-36.661471,17893,7677.85039
D1,Arapiraca/AL,-9.754866,-36.661471,258,110.70728
1,Arapoema/TO,-7.6575001,-49.0641484,372,5622.73277
D1,Arapoema/TO,-7.6575001,-49.0641484,5,75.57437
1,Araponga/MG,-20.666667,-42.520556,241,2851.05880
D1,Araponga/MG,-20.666667,-42.520556,2,23.66024
1,Arapongas/PR,-23.415296,-51.42592,7742,6203.02860
D1,Arapongas/PR,-23.415296,-51.42592,248,198.70203
1,Araporã/MG,-18.4318188,-49.188313,1329,19174.72226
D1,Araporã/MG,-18.4318188,-49.188313,17,245.27485
1,Arapoti/PR,-24.1457957,-49.8224605,1806,6381.62544
D1,Arapoti/PR,-24.1457957,-49.8224605,22,77.73852
1,Araputanga/MT,-15.4710868,-58.346796,1196,7055.63094
D1,Araputanga/MT,-15.4710868,-58.346796,26,153.38328
1,Arapuá/MG,-19.034444,-46.155556,87,3068.78307
D1,Arapuá/MG,-19.034444,-46.155556,1,35.27337
1,Arapuã/PR,-24.3079525,-51.7901941,142,4719.17581
D1,Arapuã/PR,-24.3079525,-51.7901941,3,99.70090
1,Araquari/SC,-26.3703324,-48.7210994,2268,5738.28560
D1,Araquari/SC,-26.3703324,-48.7210994,36,91.08390
1,Arara/PB,-6.8271895,-35.7605703,378,2791.31591
D1,Arara/PB,-6.8271895,-35.7605703,11,81.22877
1,Araranguá/SC,-28.9348832,-49.4858389,7133,10357.64590
D1,Araranguá/SC,-28.9348832,-49.4858389,117,169.89269
1,Araraquara/SP,-21.7886713,-48.1773096,12694,5326.02721
D1,Araraquara/SP,-21.7886713,-48.1773096,260,109.08832
1,Araras/SP,-22.3569477,-47.3838889,9489,7002.64195
D1,Araras/SP,-22.3569477,-47.3838889,189,139.47722
1,Ararendá/CE,-4.7504395,-40.8303611,511,4662.83420
D1,Ararendá/CE,-4.7504395,-40.8303611,9,82.12428
1,Arari/MA,-3.4547602,-44.7772723,381,1272.88521
D1,Arari/MA,-3.4547602,-44.7772723,15,50.11359
1,Araricá/RS,-29.6168543,-50.929121,740,12822.73436
D1,Araricá/RS,-29.6168543,-50.929121,16,277.24831
1,Araripe/CE,-7.212861,-40.1359222,605,2793.94107
D1,Araripe/CE,-7.212861,-40.1359222,7,32.32659
1,Araripina/PE,-7.5768582,-40.5038509,4498,5300.24510
D1,Araripina/PE,-7.5768582,-40.5038509,76,89.55505
1,Araruama/RJ,-22.8733203,-42.3428897,3737,2782.72136
D1,Araruama/RJ,-22.8733203,-42.3428897,119,88.61221
1,Araruna/PB,-6.5321155,-35.7397595,547,2673.11733
D1,Araruna/PB,-6.5321155,-35.7397595,15,73.30303
1,Araruna/PR,-23.9320308,-52.4976047,749,5350.00000
D1,Araruna/PR,-23.9320308,-52.4976047,13,92.85714
1,Arataca/BA,-15.2617424,-39.4122943,383,3494.20673
D1,Arataca/BA,-15.2617424,-39.4122943,12,109.47906
1,Aratiba/RS,-27.3955734,-52.3024325,241,3894.00549
D1,Aratiba/RS,-27.3955734,-52.3024325,5,80.78850
1,Aratuba/CE,-4.4195958,-39.0463737,385,3262.15896
D1,Aratuba/CE,-4.4195958,-39.0463737,2,16.94628
1,Aratuípe/BA,-13.077137,-39.0010786,244,2761.11803
D1,Aratuípe/BA,-13.077137,-39.0010786,7,79.21240
1,Araucária/PR,-25.5861107,-49.4051209,15234,10418.97493
D1,Araucária/PR,-25.5861107,-49.4051209,188,128.57866
1,Arauá/SE,-11.2644014,-37.6181058,628,6313.46135
D1,Arauá/SE,-11.2644014,-37.6181058,12,120.63939
1,Araxá/MG,-19.5928536,-46.940241,6611,6159.10637
D1,Araxá/MG,-19.5928536,-46.940241,78,72.66832
1,Araçagi/PB,-6.8519969,-35.3835602,790,4668.75480
D1,Araçagi/PB,-6.8519969,-35.3835602,8,47.27853
1,Araçariguama/SP,-23.438611,-47.061389,842,3683.28959
D1,Araçariguama/SP,-23.438611,-47.061389,23,100.61242
1,Araçatuba/SP,-21.207992,-50.4390225,16365,8259.77015
D1,Araçatuba/SP,-21.207992,-50.4390225,351,177.15731
1,Araçaí/MG,-19.200833,-44.2475,33,1401.86916
1,Araçoiaba da Serra/SP,-23.5045367,-47.6168158,1485,4270.18634
D1,Araçoiaba da Serra/SP,-23.5045367,-47.6168158,33,94.89303
1,Araçoiaba/PE,-7.7856903,-35.0898881,281,1355.32726
D1,Araçoiaba/PE,-7.7856903,-35.0898881,20,96.46457
1,Araçu/GO,-16.3561579,-49.6815269,279,8003.44234
D1,Araçu/GO,-16.3561579,-49.6815269,7,200.80321
1,Araçuaí/MG,-16.8484451,-42.0661868,626,1705.16452
D1,Araçuaí/MG,-16.8484451,-42.0661868,16,43.58248
1,Araçás/BA,-12.2139176,-38.2026159,480,3931.84797
D1,Araçás/BA,-12.2139176,-38.2026159,7,57.33945
1,Araújos/MG,-19.948055,-45.165556,384,4084.67184
D1,Araújos/MG,-19.948055,-45.165556,2,21.27433
1,Arceburgo/MG,-21.364444,-46.939722,406,3730.58899
D1,Arceburgo/MG,-21.364444,-46.939722,7,64.32050
1,Arco-Íris/SP,-21.7741308,-50.4668814,64,3609.70107
D1,Arco-Íris/SP,-21.7741308,-50.4668814,5,282.00790
1,Arcos/MG,-20.282223,-45.539444,2989,7402.17930
D1,Arcos/MG,-20.282223,-45.539444,27,66.86478
1,Arcoverde/PE,-8.415192,-37.057748,4285,5726.92524
D1,Arcoverde/PE,-8.415192,-37.057748,87,116.27596
1,Areado/MG,-21.3582771,-46.1476688,418,2753.44180
D1,Areado/MG,-21.3582771,-46.1476688,8,52.69745
1,Areal/RJ,-22.2314922,-43.1056264,400,3157.31313
D1,Areal/RJ,-22.2314922,-43.1056264,19,149.97237
1,Arealva/SP,-22.0301906,-48.9111936,402,4667.36329
D1,Arealva/SP,-22.0301906,-48.9111936,4,46.44143
1,Areia Branca/RN,-4.9506652,-37.1263312,1501,5367.03973
D1,Areia Branca/RN,-4.9506652,-37.1263312,62,221.68985
1,Areia Branca/SE,-10.7591455,-37.3148072,1119,5988.44054
D1,Areia Branca/SE,-10.7591455,-37.3148072,24,128.43840
1,Areia de Baraúnas/PB,-7.1233949,-36.9446216,30,1417.76938
1,Areia/PB,-6.9680243,-35.6994783,874,3857.69774
D1,Areia/PB,-6.9680243,-35.6994783,15,66.20763
1,Areial/PB,-7.0501306,-35.9245244,165,2348.08595
D1,Areial/PB,-7.0501306,-35.9245244,6,85.38494
1,Areias/SP,-22.5800929,-44.6975127,190,4876.79671
D1,Areias/SP,-22.5800929,-44.6975127,1,25.66735
1,Areiópolis/SP,-22.6758064,-48.6673653,479,4292.88403
D1,Areiópolis/SP,-22.6758064,-48.6673653,6,53.77308
1,Arenápolis/MT,-14.4610369,-56.8432806,930,9787.41318
D1,Arenápolis/MT,-14.4610369,-56.8432806,13,136.81330
1,Arenópolis/GO,-16.3859286,-51.55937,81,3194.00631
D1,Arenópolis/GO,-16.3859286,-51.55937,1,39.43218
1,Argirita/MG,-21.612761,-42.8371922,209,7729.28994
D1,Argirita/MG,-21.612761,-42.8371922,5,184.91124
1,Aricanduva/MG,-17.8678,-42.5569,38,721.19947
1,Arinos/MG,-15.917223,-46.106111,199,1114.09697
D1,Arinos/MG,-15.917223,-46.106111,5,27.99239
1,Aripuanã/MT,-10.175806,-59.4439663,1548,6815.18007
D1,Aripuanã/MT,-10.175806,-59.4439663,23,101.25914
1,Ariquemes/RO,-9.9076522,-63.033069,14264,13023.74844
D1,Ariquemes/RO,-9.9076522,-63.033069,263,240.13221
1,Ariranha do Ivaí/PR,-24.3834527,-51.5876772,94,4549.85479
D1,Ariranha do Ivaí/PR,-24.3834527,-51.5876772,1,48.40271
1,Ariranha/SP,-21.18716,-48.790418,277,2837.82399
D1,Ariranha/SP,-21.18716,-48.790418,13,133.18308
1,Armazém/SC,-28.2624996,-49.0190126,984,11234.15915
D1,Armazém/SC,-28.2624996,-49.0190126,8,91.33463
1,Armação dos Búzios/RJ,-22.7597805,-41.8875267,2963,8594.13522
D1,Armação dos Búzios/RJ,-22.7597805,-41.8875267,28,81.21356
1,Arneiroz/CE,-6.3235099,-40.1603859,113,1440.59153
D1,Arneiroz/CE,-6.3235099,-40.1603859,6,76.49159
1,Aroazes/PI,-6.1108814,-41.7886137,364,6246.78222
D1,Aroazes/PI,-6.1108814,-41.7886137,10,171.61490
1,Aroeiras do Itaim/PI,-7.2797031,-41.5629681,96,3763.23011
D1,Aroeiras do Itaim/PI,-7.2797031,-41.5629681,1,39.20031
1,Aroeiras/PB,-7.5462904,-35.7080002,688,3599.07931
D1,Aroeiras/PB,-7.5462904,-35.7080002,4,20.92488
1,Arraial do Cabo/RJ,-22.9662839,-42.024427,512,1673.58546
D1,Arraial do Cabo/RJ,-22.9662839,-42.024427,10,32.68722
1,Arraial/PI,-6.6541632,-42.5335332,116,2457.62712
D1,Arraial/PI,-6.6541632,-42.5335332,2,42.37288
1,Arraias/TO,-12.9287788,-46.9437231,287,2724.51111
D1,Arraias/TO,-12.9287788,-46.9437231,2,18.98614
1,Arroio Grande/RS,-32.2384246,-53.0866661,815,4468.69174
D1,Arroio Grande/RS,-32.2384246,-53.0866661,19,104.17809
1,Arroio Trinta/SC,-26.9301976,-51.334928,342,9636.51733
D1,Arroio Trinta/SC,-26.9301976,-51.334928,3,84.53085
1,Arroio do Meio/RS,-29.4020392,-51.9444993,1460,6963.32332
D1,Arroio do Meio/RS,-29.4020392,-51.9444993,13,62.00219
1,Arroio do Padre/RS,-31.4428773,-52.4228985,84,2846.49271
D1,Arroio do Padre/RS,-31.4428773,-52.4228985,1,33.88682
1,Arroio do Sal/RS,-29.549852,-49.8874395,685,6664.07238
D1,Arroio do Sal/RS,-29.549852,-49.8874395,18,175.11431
1,Arroio do Tigre/RS,-29.334158,-53.0888935,779,5807.79840
D1,Arroio do Tigre/RS,-29.334158,-53.0888935,9,67.09908
1,Arroio dos Ratos/RS,-30.0894524,-51.7265541,581,4098.18720
D1,Arroio dos Ratos/RS,-30.0894524,-51.7265541,21,148.12725
1,Artur Nogueira/SP,-22.572737,-47.172679,2196,3968.19660
D1,Artur Nogueira/SP,-22.572737,-47.172679,53,95.77159
1,Aruanã/GO,-14.9162439,-51.0715692,325,3214.63897
D1,Aruanã/GO,-14.9162439,-51.0715692,7,69.23838
1,Arujá/SP,-23.396266,-46.3175449,4368,4791.73294
D1,Arujá/SP,-23.396266,-46.3175449,138,151.38717
1,Arvoredo/SC,-27.0752908,-52.4571847,244,10922.11280
D1,Arvoredo/SC,-27.0752908,-52.4571847,3,134.28827
1,Arvorezinha/RS,-28.87369,-52.17808,585,5612.58755
D1,Arvorezinha/RS,-28.87369,-52.17808,15,143.91250
1,Arês/RN,-6.1969216,-35.1642968,543,3766.38690
D1,Arês/RN,-6.1969216,-35.1642968,17,117.91635
1,Ascurra/SC,-26.9569975,-49.3767752,908,11381.29857
D1,Ascurra/SC,-26.9569975,-49.3767752,5,62.67235
1,Aspásia/SP,-20.160028,-50.728046,68,3740.37404
D1,Aspásia/SP,-20.160028,-50.728046,2,110.01100
1,Assaré/CE,-6.8746791,-39.8741385,1051,4476.53122
D1,Assaré/CE,-6.8746791,-39.8741385,22,93.70474
1,Assaí/PR,-23.3736041,-50.8454929,769,5142.43681
D1,Assaí/PR,-23.3736041,-50.8454929,22,147.11783
1,Assis Brasil/AC,-10.9409203,-69.5672108,1237,16418.90098
D1,Assis Brasil/AC,-10.9409203,-69.5672108,15,199.09743
1,Assis Chateaubriand/PR,-24.4054826,-53.5120468,2432,7294.54109
D1,Assis Chateaubriand/PR,-24.4054826,-53.5120468,33,98.98020
1,Assis/SP,-22.6620892,-50.420623,4276,4069.00949
D1,Assis/SP,-22.6620892,-50.420623,83,78.98218
1,Assunção do Piauí/PI,-5.8610212,-41.0485091,206,2619.86519
D1,Assunção do Piauí/PI,-5.8610212,-41.0485091,4,50.87117
1,Assunção/PB,-7.073396,-36.7274003,218,5410.77190
D1,Assunção/PB,-7.073396,-36.7274003,1,24.82005
1,Astolfo Dutra/MG,-21.3132636,-42.8624102,833,5837.42116
D1,Astolfo Dutra/MG,-21.3132636,-42.8624102,13,91.10021
1,Astorga/PR,-23.2350184,-51.6647074,1700,6486.32149
D1,Astorga/PR,-23.2350184,-51.6647074,25,95.38708
1,Atalaia do Norte/AM,-4.3658547,-70.1908742,2442,11971.76194
D1,Atalaia do Norte/AM,-4.3658547,-70.1908742,7,34.31709
1,Atalaia/AL,-9.5029595,-36.0219316,766,1617.22791
D1,Atalaia/AL,-9.5029595,-36.0219316,30,63.33791
1,Atalaia/PR,-23.1513833,-52.0529697,250,6441.63875
D1,Atalaia/PR,-23.1513833,-52.0529697,5,128.83278
1,Atalanta/SC,-27.421916,-49.778863,145,4538.34116
D1,Atalanta/SC,-27.421916,-49.778863,2,62.59781
1,Ataléia/MG,-18.04432,-41.1110524,769,6065.62549
D1,Ataléia/MG,-18.04432,-41.1110524,6,47.32608
1,Atibaia/SP,-23.1177393,-46.5547861,6314,4382.04431
D1,Atibaia/SP,-23.1177393,-46.5547861,125,86.75254
1,Atilio Vivacqua/ES,-20.9139369,-41.1947519,1020,8426.27014
D1,Atilio Vivacqua/ES,-20.9139369,-41.1947519,16,132.17679
1,Augustinópolis/TO,-5.4662267,-47.8897519,1079,5787.69511
D1,Augustinópolis/TO,-5.4662267,-47.8897519,16,85.82310
1,Augusto Corrêa/PA,-1.0229335,-46.6404029,1611,3466.67814
D1,Augusto Corrêa/PA,-1.0229335,-46.6404029,29,62.40451
1,Augusto Pestana/RS,-28.5148413,-53.9906433,231,3498.93972
D1,Augusto Pestana/RS,-28.5148413,-53.9906433,2,30.29385
1,Augusto de Lima/MG,-18.1092963,-44.2651945,132,2721.08844
D1,Augusto de Lima/MG,-18.1092963,-44.2651945,4,82.45723
1,Aurelino Leal/BA,-14.3167137,-39.3256107,760,6726.25896
D1,Aurelino Leal/BA,-14.3167137,-39.3256107,20,177.00681
1,Auriflama/SP,-20.6840418,-50.5554616,1077,7060.90605
D1,Auriflama/SP,-20.6840418,-50.5554616,22,144.23392
1,Aurilândia/GO,-16.6772599,-50.4641231,131,4283.84565
D1,Aurilândia/GO,-16.6772599,-50.4641231,3,98.10334
1,Aurora do Pará/PA,-2.1323199,-47.558436,891,2804.26777
D1,Aurora do Pará/PA,-2.1323199,-47.558436,11,34.62059
1,Aurora do Tocantins/TO,-12.71045,-46.407604,136,3595.03040
D1,Aurora do Tocantins/TO,-12.71045,-46.407604,2,52.86809
1,Aurora/CE,-6.9426019,-38.9693765,1019,4140.59325
D1,Aurora/CE,-6.9426019,-38.9693765,25,101.58472
1,Aurora/SC,-27.3166417,-49.6368502,489,8604.61024
D1,Aurora/SC,-27.3166417,-49.6368502,10,175.96340
1,Autazes/AM,-3.5833283,-59.1301518,2517,6247.20774
D1,Autazes/AM,-3.5833283,-59.1301518,80,198.56044
1,Avanhandava/SP,-21.4603331,-49.9465156,447,3225.34093
D1,Avanhandava/SP,-21.4603331,-49.9465156,17,122.66397
1,Avaré/SP,-23.1045215,-48.9259103,3556,3897.75517
D1,Avaré/SP,-23.1045215,-48.9259103,60,65.76640
1,Avaí/SP,-22.1564662,-49.3316395,169,3108.90361
D1,Avaí/SP,-22.1564662,-49.3316395,3,55.18764
1,Aveiro/PA,-3.6049239,-55.3310742,542,3304.07218
D1,Aveiro/PA,-3.6049239,-55.3310742,6,36.57644
1,Avelino Lopes/PI,-10.1346855,-43.9489525,222,1960.09182
D1,Avelino Lopes/PI,-10.1346855,-43.9489525,17,150.09712
1,Avelinópolis/GO,-16.4672409,-49.7578661,211,8758.82109
D1,Avelinópolis/GO,-16.4672409,-49.7578661,4,166.04400
1,Axixá do Tocantins/TO,-5.612747,-47.77007,648,6621.02789
D1,Axixá do Tocantins/TO,-5.612747,-47.77007,7,71.52345
1,Axixá/MA,-2.8379465,-44.0561053,164,1346.13806
D1,Axixá/MA,-2.8379465,-44.0561053,4,32.83264
1,Açailândia/MA,-4.9514278,-47.4844564,4093,3618.24949
D1,Açailândia/MA,-4.9514278,-47.4844564,129,114.03718
1,Açu/RN,-5.5836157,-36.9139541,3425,5866.33324
D1,Açu/RN,-5.5836157,-36.9139541,96,164.42861
1,Açucena/MG,-19.073056,-42.546666,300,3202.39112
D1,Açucena/MG,-19.073056,-42.546666,10,106.74637
1,Babaçulândia/TO,-7.2034355,-47.761613,515,4828.42678
D1,Babaçulândia/TO,-7.2034355,-47.761613,4,37.50234
1,Bacabal/MA,-4.2318132,-44.781167,3849,3673.06041
D1,Bacabal/MA,-4.2318132,-44.781167,100,95.42895
1,Bacabeira/MA,-2.9775747,-44.3155943,228,1321.58590
D1,Bacabeira/MA,-2.9775747,-44.3155943,4,23.18572
1,Bacuri/MA,-1.728894,-45.1417148,429,2299.77485
D1,Bacuri/MA,-1.728894,-45.1417148,4,21.44312
1,Bacurituba/MA,-2.7082587,-44.7381309,106,1869.48854
D1,Bacurituba/MA,-2.7082587,-44.7381309,1,17.63668
1,Bady Bassitt/SP,-20.9178969,-49.4517911,1815,10219.01920
D1,Bady Bassitt/SP,-20.9178969,-49.4517911,26,146.38815
1,Baependi/MG,-21.959162,-44.8899249,850,4427.31392
D1,Baependi/MG,-21.959162,-44.8899249,10,52.08605
1,Bagre/PA,-1.8994498,-50.2103844,689,2199.52115
D1,Bagre/PA,-1.8994498,-50.2103844,11,35.11572
1,Bagé/RS,-31.3314264,-54.1062808,4651,3833.18910
D1,Bagé/RS,-31.3314264,-54.1062808,105,86.53727
1,Baianópolis/BA,-12.3067564,-44.5383591,237,1701.48611
D1,Baianópolis/BA,-12.3067564,-44.5383591,2,14.35853
1,Baixa Grande do Ribeiro/PI,-7.862861,-45.2113289,1778,15234.34153
D1,Baixa Grande do Ribeiro/PI,-7.862861,-45.2113289,17,145.66018
1,Baixa Grande/BA,-11.9630941,-40.1657537,465,2273.94983
D1,Baixa Grande/BA,-11.9630941,-40.1657537,4,19.56086
1,Baixio/CE,-6.7303544,-38.7170095,199,3157.22672
D1,Baixio/CE,-6.7303544,-38.7170095,5,79.32730
1,Baixo Guandu/ES,-19.5138322,-41.0182089,2550,8190.92895
D1,Baixo Guandu/ES,-19.5138322,-41.0182089,48,154.18219
1,Baião/PA,-2.7903479,-49.6702845,538,1110.21688
D1,Baião/PA,-2.7903479,-49.6702845,21,43.33560
1,Balbinos/SP,-21.9006253,-49.3583966,277,4668.01483
D1,Balbinos/SP,-21.9006253,-49.3583966,3,50.55612
1,Baldim/MG,-19.2913568,-43.9558262,300,3844.67512
D1,Baldim/MG,-19.2913568,-43.9558262,7,89.70909
1,Baliza/GO,-16.1978119,-52.542789,114,2159.09091
D1,Baliza/GO,-16.1978119,-52.542789,3,56.81818
1,Balneário Arroio do Silva/SC,-28.9815269,-49.4189932,1413,10521.22115
D1,Balneário Arroio do Silva/SC,-28.9815269,-49.4189932,30,223.38049
1,Balneário Barra do Sul/SC,-26.459842,-48.6061471,1054,9551.42728
D1,Balneário Barra do Sul/SC,-26.459842,-48.6061471,19,172.17943
1,Balneário Camboriú/SC,-26.9924395,-48.6339782,19920,13662.92628
D1,Balneário Camboriú/SC,-26.9924395,-48.6339782,225,154.32522
1,Balneário Gaivota/SC,-29.1553098,-49.5808712,939,8339.25400
D1,Balneário Gaivota/SC,-29.1553098,-49.5808712,14,124.33393
1,Balneário Pinhal/RS,-30.2482978,-50.234585,621,4323.60927
D1,Balneário Pinhal/RS,-30.2482978,-50.234585,21,146.20901
1,Balneário Piçarras/SC,-26.7638889,-48.6716667,3178,13368.66902
D1,Balneário Piçarras/SC,-26.7638889,-48.6716667,28,117.78563
1,Balneário Rincão/SC,-28.8235718,-49.2241642,1050,8110.61332
D1,Balneário Rincão/SC,-28.8235718,-49.2241642,23,177.66105
1,Balsa Nova/PR,-25.5842234,-49.6312741,854,6523.06752
D1,Balsa Nova/PR,-25.5842234,-49.6312741,12,91.65903
1,Balsas/MA,-7.53214,-46.037163,7687,8013.21811
D1,Balsas/MA,-7.53214,-46.037163,95,99.03158
1,Bambuí/MG,-20.0131996,-45.9777034,580,2426.98134
D1,Bambuí/MG,-20.0131996,-45.9777034,5,20.92225
1,Banabuiú/CE,-5.3046404,-38.919766,778,4261.61262
D1,Banabuiú/CE,-5.3046404,-38.919766,7,38.34356
1,Bananal/SP,-22.6828195,-44.3221095,612,5567.17911
D1,Bananal/SP,-22.6828195,-44.3221095,2,18.19340
1,Bananeiras/PB,-6.7537682,-35.6338343,769,3615.59077
D1,Bananeiras/PB,-6.7537682,-35.6338343,5,23.50839
1,Bandeira do Sul/MG,-21.728056,-46.385555,103,1782.62375
D1,Bandeira do Sul/MG,-21.728056,-46.385555,5,86.53513
1,Bandeira/MG,-15.884444,-40.559167,414,8686.52958
D1,Bandeira/MG,-15.884444,-40.559167,8,167.85564
1,Bandeirante/SC,-26.7677402,-53.6397596,139,5249.24471
D1,Bandeirante/SC,-26.7677402,-53.6397596,1,37.76435
1,Bandeirantes do Tocantins/TO,-7.7635698,-48.579148,252,7015.59020
D1,Bandeirantes do Tocantins/TO,-7.7635698,-48.579148,3,83.51893
1,Bandeirantes/MS,-19.9179623,-54.3646768,380,5229.83760
D1,Bandeirantes/MS,-19.9179623,-54.3646768,6,82.57638
1,Bandeirantes/PR,-23.107788,-50.370407,2046,6555.38112
D1,Bandeirantes/PR,-23.107788,-50.370407,53,169.81193
1,Bannach/PA,-7.3508505,-50.4064531,125,3832.00490
D1,Bannach/PA,-7.3508505,-50.4064531,2,61.31208
1,Banzaê/BA,-10.5827616,-38.6122305,765,5777.94562
D1,Banzaê/BA,-10.5827616,-38.6122305,4,30.21148
1,Baraúna/PB,-6.643394,-36.2531932,198,3988.71878
D1,Baraúna/PB,-6.643394,-36.2531932,2,40.29009
1,Baraúna/RN,-5.0775002,-37.61752,698,2428.07945
D1,Baraúna/RN,-5.0775002,-37.61752,17,59.13661
1,Barbacena/MG,-21.2254524,-43.7735087,3964,2868.22379
D1,Barbacena/MG,-21.2254524,-43.7735087,92,66.56826
1,Barbalha/CE,-7.3121067,-39.3036427,3090,5046.71066
D1,Barbalha/CE,-7.3121067,-39.3036427,59,96.36114
1,Barbosa Ferraz/PR,-24.0287182,-52.00811,539,4717.31140
D1,Barbosa Ferraz/PR,-24.0287182,-52.00811,6,52.51182
1,Barbosa/SP,-21.265661,-49.951816,282,3776.11141
D1,Barbosa/SP,-21.265661,-49.951816,5,66.95233
1,Barcarena/PA,-1.5107945,-48.6190679,6870,5408.29902
D1,Barcarena/PA,-1.5107945,-48.6190679,139,109.42556
1,Barcelona/RN,-5.9514918,-35.9260284,48,1201.80270
D1,Barcelona/RN,-5.9514918,-35.9260284,3,75.11267
1,Barcelos/AM,-0.9729214,-62.925635,3973,14375.13568
D1,Barcelos/AM,-0.9729214,-62.925635,52,188.14675
1,Bariri/SP,-22.0746355,-48.7394852,1911,5374.31802
D1,Bariri/SP,-22.0746355,-48.7394852,63,177.17532
1,Barra Bonita/SC,-26.6526364,-53.4419581,93,5632.94973
D1,Barra Bonita/SC,-26.6526364,-53.4419581,1,60.56935
1,Barra Bonita/SP,-22.490859,-48.558349,2246,6217.12894
D1,Barra Bonita/SP,-22.490859,-48.558349,51,141.17256
1,Barra D'Alcântara/PI,-6.5209258,-42.1071089,89,2252.02429
D1,Barra D'Alcântara/PI,-6.5209258,-42.1071089,3,75.91093
1,Barra Funda/RS,-27.9230048,-53.0401045,317,12426.49941
D1,Barra Funda/RS,-27.9230048,-53.0401045,5,196.00157
1,Barra Longa/MG,-20.2833541,-43.0423516,151,3010.96710
D1,Barra Longa/MG,-20.2833541,-43.0423516,2,39.88036
1,Barra Mansa/RJ,-22.5394843,-44.1735129,10395,5623.99572
D1,Barra Mansa/RJ,-22.5394843,-44.1735129,303,163.93177
1,Barra Velha/SC,-26.6338203,-48.6835001,2785,9326.85867
D1,Barra Velha/SC,-26.6338203,-48.6835001,58,194.23979
1,Barra da Estiva/BA,-13.6269662,-41.3278287,1182,5796.39074
D1,Barra da Estiva/BA,-13.6269662,-41.3278287,8,39.23107
1,Barra de Guabiraba/PE,-8.4173522,-35.6626669,332,2288.07719
D1,Barra de Guabiraba/PE,-8.4173522,-35.6626669,12,82.70159
1,Barra de Santa Rosa/PB,-6.7218007,-36.0564638,627,4045.94438
D1,Barra de Santa Rosa/PB,-6.7218007,-36.0564638,3,19.35859
1,Barra de Santana/PB,-7.5230865,-35.9988518,283,3389.62750
D1,Barra de Santana/PB,-7.5230865,-35.9988518,4,47.90993
1,Barra de Santo Antônio/AL,-9.4038098,-35.5117693,167,1039.33284
D1,Barra de Santo Antônio/AL,-9.4038098,-35.5117693,15,93.35325
1,Barra de São Francisco/ES,-18.7570902,-40.8916119,2612,5807.15445
D1,Barra de São Francisco/ES,-18.7570902,-40.8916119,82,182.30730
1,Barra de São Miguel/AL,-9.8261357,-35.8837777,247,2948.19766
D1,Barra de São Miguel/AL,-9.8261357,-35.8837777,6,71.61614
1,Barra de São Miguel/PB,-7.7528088,-36.3170996,236,3891.17890
D1,Barra de São Miguel/PB,-7.7528088,-36.3170996,1,16.48805
1,Barra do Bugres/MT,-15.0683712,-57.1853688,1816,5143.45597
D1,Barra do Bugres/MT,-15.0683712,-57.1853688,42,118.95658
1,Barra do Chapéu/SP,-24.472203,-49.023784,191,3315.97222
1,Barra do Choça/BA,-14.8638173,-40.5761637,1498,4799.89747
D1,Barra do Choça/BA,-14.8638173,-40.5761637,21,67.28828
1,Barra do Corda/MA,-5.496823,-45.248496,4461,5041.13366
D1,Barra do Corda/MA,-5.496823,-45.248496,48,54.24219
1,Barra do Garças/MT,-15.8916033,-52.2615413,5223,8543.38758
D1,Barra do Garças/MT,-15.8916033,-52.2615413,174,284.61601
1,Barra do Guarita/RS,-27.1888016,-53.7147086,97,2978.20080
D1,Barra do Guarita/RS,-27.1888016,-53.7147086,2,61.40620
1,Barra do Jacaré/PR,-23.1151788,-50.1813945,135,4854.36893
D1,Barra do Jacaré/PR,-23.1151788,-50.1813945,1,35.95829
1,Barra do Mendes/BA,-11.8053298,-42.057037,580,4192.87212
D1,Barra do Mendes/BA,-11.8053298,-42.057037,8,57.83272
1,Barra do Ouro/TO,-7.7113784,-47.6743925,103,2223.66149
D1,Barra do Ouro/TO,-7.7113784,-47.6743925,5,107.94473
1,Barra do Piraí/RJ,-22.4703403,-43.8263256,3734,3705.68854
D1,Barra do Piraí/RJ,-22.4703403,-43.8263256,164,162.75654
1,Barra do Quaraí/RS,-30.208947,-57.5505128,185,4376.62645
D1,Barra do Quaraí/RS,-30.208947,-57.5505128,2,47.31488
1,Barra do Ribeiro/RS,-30.2930206,-51.301437,751,5539.98230
D1,Barra do Ribeiro/RS,-30.2930206,-51.301437,36,265.56506
1,Barra do Rio Azul/RS,-27.4101581,-52.4117471,53,3202.41692
D1,Barra do Rio Azul/RS,-27.4101581,-52.4117471,1,60.42296
1,Barra do Rocha/BA,-14.2090974,-39.6004395,267,4757.66215
D1,Barra do Rocha/BA,-14.2090974,-39.6004395,3,53.45688
1,Barra do Turvo/SP,-24.756421,-48.5056942,327,4284.59119
D1,Barra do Turvo/SP,-24.756421,-48.5056942,10,131.02725
1,Barra dos Coqueiros/SE,-10.9075694,-37.0386249,3821,12353.70191
D1,Barra dos Coqueiros/SE,-10.9075694,-37.0386249,43,139.02360
1,Barra/BA,-11.0892702,-43.1420453,1196,2218.51234
D1,Barra/BA,-11.0892702,-43.1420453,17,31.53404
1,Barracão/PR,-26.252395,-53.6349576,738,7156.71063
D1,Barracão/PR,-26.252395,-53.6349576,13,126.06672
1,Barracão/RS,-27.6728964,-51.4582928,221,4204.71842
D1,Barracão/RS,-27.6728964,-51.4582928,6,114.15525
1,Barras/PI,-4.2446153,-42.2920241,3609,7648.61715
D1,Barras/PI,-4.2446153,-42.2920241,67,141.99428
1,Barreira/CE,-4.2883361,-38.641094,591,2618.17215
D1,Barreira/CE,-4.2883361,-38.641094,24,106.32171
1,Barreiras do Piauí/PI,-9.9224524,-45.4763776,43,1282.81623
D1,Barreiras do Piauí/PI,-9.9224524,-45.4763776,1,29.83294
1,Barreiras/BA,-12.1440031,-44.9967406,9993,6365.98184
D1,Barreiras/BA,-12.1440031,-44.9967406,116,73.89712
1,Barreirinha/AM,-2.798863,-57.067897,2135,6572.66878
D1,Barreirinha/AM,-2.798863,-57.067897,54,166.24080
1,Barreirinhas/MA,-2.7541271,-42.8259693,1468,2322.16018
D1,Barreirinhas/MA,-2.7541271,-42.8259693,29,45.87374
1,Barreiros/PE,-8.8159644,-35.1831905,462,1080.34796
D1,Barreiros/PE,-8.8159644,-35.1831905,43,100.55187
1,Barretos/SP,-20.5531437,-48.5697509,8430,6862.97656
D1,Barretos/SP,-20.5531437,-48.5697509,207,168.52149
1,Barrinha/SP,-21.1898849,-48.1550642,990,2983.72514
D1,Barrinha/SP,-21.1898849,-48.1550642,37,111.51296
1,Barro Alto/BA,-11.7618025,-41.9094904,585,3886.01036
D1,Barro Alto/BA,-11.7618025,-41.9094904,4,26.57101
1,Barro Alto/GO,-14.9696025,-48.9190985,983,8616.76017
D1,Barro Alto/GO,-14.9696025,-48.9190985,9,78.89201
1,Barro Duro/PI,-5.8180139,-42.5106589,488,6944.64209
D1,Barro Duro/PI,-5.8180139,-42.5106589,7,99.61577
1,Barro Preto/BA,-14.8068289,-39.4727588,442,8113.06902
D1,Barro Preto/BA,-14.8068289,-39.4727588,7,128.48752
1,Barro/CE,-7.1713587,-38.7742136,582,2557.34247
D1,Barro/CE,-7.1713587,-38.7742136,14,61.51683
1,Barrocas/BA,-11.5165,-39.099282894736845,542,3365.41447
D1,Barrocas/BA,-11.5165,-39.099282894736845,6,37.25551
1,Barrolândia/TO,-9.837246,-48.7264346,461,8157.84817
D1,Barrolândia/TO,-9.837246,-48.7264346,7,123.87188
1,Barroquinha/CE,-3.0200371,-41.1339229,874,5809.62510
D1,Barroquinha/CE,-3.0200371,-41.1339229,21,139.59053
1,Barros Cassal/RS,-29.094938,-52.5832366,384,3434.09050
D1,Barros Cassal/RS,-29.094938,-52.5832366,3,26.82883
1,Barroso/MG,-21.187222,-43.976111,497,2378.33182
D1,Barroso/MG,-21.187222,-43.976111,9,43.06838
1,Barueri/SP,-23.5112184,-46.8764612,17231,6220.98187
D1,Barueri/SP,-23.5112184,-46.8764612,560,202.17920
1,Barão de Antonina/SP,-23.6295651,-49.5632104,58,1658.09034
D1,Barão de Antonina/SP,-23.6295651,-49.5632104,1,28.58776
1,Barão de Cocais/MG,-19.9452437,-43.4870298,2088,6353.07004
D1,Barão de Cocais/MG,-19.9452437,-43.4870298,19,57.81050
1,Barão de Cotegipe/RS,-27.6214694,-52.3765316,462,6978.85196
D1,Barão de Cotegipe/RS,-27.6214694,-52.3765316,5,75.52870
1,Barão de Grajaú/MA,-6.7542591,-43.0263477,218,1151.97633
D1,Barão de Grajaú/MA,-6.7542591,-43.0263477,1,5.28430
1,Barão de Melgaço/MT,-16.195776,-55.9668049,179,2192.55267
D1,Barão de Melgaço/MT,-16.195776,-55.9668049,8,97.99118
1,Barão de Monte Alto/MG,-21.244722,-42.2375,157,2932.38700
D1,Barão de Monte Alto/MG,-21.244722,-42.2375,7,130.74337
1,Barão do Triunfo/RS,-30.3909877,-51.7375349,281,3737.19910
D1,Barão do Triunfo/RS,-30.3909877,-51.7375349,3,39.89892
1,Barão/RS,-29.372474,-51.494908,345,5562.72170
D1,Barão/RS,-29.372474,-51.494908,6,96.74299
1,Bastos/SP,-21.9222474,-50.7317727,348,1660.86002
D1,Bastos/SP,-21.9222474,-50.7317727,12,57.27104
1,Bataguassu/MS,-21.715899,-52.422058,1746,7485.53055
D1,Bataguassu/MS,-21.715899,-52.422058,17,72.88317
1,Batalha/AL,-9.6733809,-37.1265481,767,4182.57171
D1,Batalha/AL,-9.6733809,-37.1265481,14,76.34420
1,Batalha/PI,-4.022391,-42.0780926,632,2349.00576
D1,Batalha/PI,-4.022391,-42.0780926,18,66.90206
1,Batatais/SP,-20.892867,-47.592149,1677,2662.75008
D1,Batatais/SP,-20.892867,-47.592149,52,82.56589
1,Batayporã/MS,-22.2976466,-53.2685608,535,4714.07172
D1,Batayporã/MS,-22.2976466,-53.2685608,11,96.92484
1,Baturité/CE,-4.3290203,-38.8821055,1243,3458.44579
D1,Baturité/CE,-4.3290203,-38.8821055,38,105.72883
1,Bauru/SP,-22.3218102,-49.0705863,27352,7211.23552
D1,Bauru/SP,-22.3218102,-49.0705863,473,124.70439
1,Bayeux/PB,-7.1301631,-34.936532,4657,4791.00439
D1,Bayeux/PB,-7.1301631,-34.936532,157,161.51765
1,Baía Formosa/RN,-6.3691885,-35.0063741,230,2467.28170
D1,Baía Formosa/RN,-6.3691885,-35.0063741,8,85.81849
1,Baía da Traição/PB,-6.691258,-34.9371244,1054,11587.51099
D1,Baía da Traição/PB,-6.691258,-34.9371244,9,98.94459
1,Bebedouro/SP,-20.949077,-48.479083,2926,3772.80640
D1,Bebedouro/SP,-20.949077,-48.479083,58,74.78564
1,Beberibe/CE,-4.1810469,-38.1298101,1931,3579.30638
D1,Beberibe/CE,-4.1810469,-38.1298101,34,63.02248
1,Bela Cruz/CE,-3.0529129,-40.167582,1948,5953.18135
D1,Bela Cruz/CE,-3.0529129,-40.167582,31,94.73749
1,Bela Vista da Caroba/PR,-25.8792818,-53.6672545,132,3818.33960
D1,Bela Vista da Caroba/PR,-25.8792818,-53.6672545,3,86.78045
1,Bela Vista de Goiás/GO,-16.9692949,-48.9513071,1573,5158.73016
D1,Bela Vista de Goiás/GO,-16.9692949,-48.9513071,31,101.66601
1,Bela Vista de Minas/MG,-19.8289721,-43.0973688,425,4141.49289
D1,Bela Vista de Minas/MG,-19.8289721,-43.0973688,9,87.70220
1,Bela Vista do Maranhão/MA,-3.7416367,-45.2514192,170,1507.22582
D1,Bela Vista do Maranhão/MA,-3.7416367,-45.2514192,9,79.79431
1,Bela Vista do Paraíso/PR,-22.9948493,-51.1907996,1155,7500.48704
D1,Bela Vista do Paraíso/PR,-22.9948493,-51.1907996,28,181.82999
1,Bela Vista do Piauí/PI,-7.9716353,-41.8715061,209,5186.10422
D1,Bela Vista do Piauí/PI,-7.9716353,-41.8715061,6,148.88337
1,Bela Vista do Toldo/SC,-26.274625,-50.466354,55,864.50802
D1,Bela Vista do Toldo/SC,-26.274625,-50.466354,1,15.71833
1,Bela Vista/MS,-22.107327,-56.5317344,425,1718.21306
D1,Bela Vista/MS,-22.107327,-56.5317344,12,48.51425
1,Belford Roxo/RJ,-22.7667284,-43.4033603,17436,3398.04879
D1,Belford Roxo/RJ,-22.7667284,-43.4033603,439,85.55537
1,Belmiro Braga/MG,-21.9486291,-43.413564,89,2598.54015
D1,Belmiro Braga/MG,-21.9486291,-43.413564,3,87.59124
1,Belmonte/BA,-15.8630837,-38.8792845,844,3601.14349
D1,Belmonte/BA,-15.8630837,-38.8792845,11,46.93433
1,Belmonte/SC,-26.8448262,-53.578916,186,6866.00221
D1,Belmonte/SC,-26.8448262,-53.578916,4,147.65596
1,Belo Campo/BA,-15.0338286,-41.2585109,444,2595.12537
D1,Belo Campo/BA,-15.0338286,-41.2585109,4,23.37951
1,Belo Horizonte/MG,-19.9227318,-43.9450948,123982,4916.86905
D1,Belo Horizonte/MG,-19.9227318,-43.9450948,2899,114.96833
1,Belo Jardim/PE,-8.3338293,-36.4176419,1913,2494.55579
D1,Belo Jardim/PE,-8.3338293,-36.4176419,47,61.28809
1,Belo Monte/AL,-9.8269944,-37.2787165,216,3219.07601
D1,Belo Monte/AL,-9.8269944,-37.2787165,6,89.41878
1,Belo Oriente/MG,-19.2232523,-42.4807033,1711,6338.44558
D1,Belo Oriente/MG,-19.2232523,-42.4807033,28,103.72675
1,Belo Vale/MG,-20.407778,-44.024167,329,4262.21013
D1,Belo Vale/MG,-20.407778,-44.024167,6,77.73028
1,Belterra/PA,-2.636091,-54.937392,568,3184.03498
D1,Belterra/PA,-2.636091,-54.937392,14,78.47974
1,Belágua/MA,-3.1604031,-43.5085052,281,3732.73114
D1,Belágua/MA,-3.1604031,-43.5085052,2,26.56748
1,Belém de Maria/PE,-8.6242497,-35.8388934,126,1039.43244
D1,Belém de Maria/PE,-8.6242497,-35.8388934,3,24.74839
1,Belém do Brejo do Cruz/PB,-6.1880727,-37.5332267,473,6436.24983
D1,Belém do Brejo do Cruz/PB,-6.1880727,-37.5332267,5,68.03647
1,Belém do Piauí/PI,-7.3767305,-40.9712156,381,10621.68943
D1,Belém do Piauí/PI,-7.3767305,-40.9712156,6,167.27070
1,Belém do São Francisco/PE,-8.7517707,-38.9625715,339,1635.31114
D1,Belém do São Francisco/PE,-8.7517707,-38.9625715,5,24.11963
1,Belém/AL,-9.5715351,-36.492841,81,1890.75630
D1,Belém/AL,-9.5715351,-36.492841,3,70.02801
1,Belém/PA,-1.45056,-48.4682453,78398,5227.78452
D1,Belém/PA,-1.45056,-48.4682453,3033,202.24840
1,Belém/PB,-6.6967586,-35.5369626,1406,7941.25953
D1,Belém/PB,-6.6967586,-35.5369626,22,124.25868
1,Beneditinos/PI,-5.4565671,-42.3605061,549,5242.05099
D1,Beneditinos/PI,-5.4565671,-42.3605061,19,181.41889
1,Benedito Leite/MA,-7.2173453,-44.5523331,260,4611.56438
D1,Benedito Leite/MA,-7.2173453,-44.5523331,2,35.47357
1,Benedito Novo/SC,-26.7840657,-49.3629511,740,6284.50106
D1,Benedito Novo/SC,-26.7840657,-49.3629511,9,76.43312
1,Benevides/PA,-1.3555577,-48.252235,2648,4152.55300
D1,Benevides/PA,-1.3555577,-48.252235,58,90.95471
1,Benjamin Constant do Sul/RS,-27.5105555,-52.6007689,139,7099.08069
1,Benjamin Constant/AM,-4.3782748,-70.0290603,2464,5608.28497
D1,Benjamin Constant/AM,-4.3782748,-70.0290603,66,150.22192
1,Bento Fernandes/RN,-5.6926846,-35.8207423,61,1104.07240
D1,Bento Fernandes/RN,-5.6926846,-35.8207423,2,36.19910
1,Bento Gonçalves/RS,-29.1654014,-51.5197627,10687,8774.00392
D1,Bento Gonçalves/RS,-29.1654014,-51.5197627,201,165.02057
1,Bento de Abreu/SP,-21.2707225,-50.8120444,165,5490.84859
1,Bequimão/MA,-2.4495376,-44.7884889,265,1244.18987
D1,Bequimão/MA,-2.4495376,-44.7884889,13,61.03573
1,Berilo/MG,-16.9515764,-42.4643732,10,84.23181
1,Berizal/MG,-15.6118785,-41.7417382,79,1658.27036
D1,Berizal/MG,-15.6118785,-41.7417382,1,20.99076
1,Bernardino Batista/PB,-6.4532173,-38.5495418,202,5712.66968
D1,Bernardino Batista/PB,-6.4532173,-38.5495418,1,28.28054
1,Bernardino de Campos/SP,-23.0140216,-49.4760724,288,2581.10773
D1,Bernardino de Campos/SP,-23.0140216,-49.4760724,6,53.77308
1,Bernardo Sayão/TO,-7.8794244,-48.8968905,194,4361.51079
D1,Bernardo Sayão/TO,-7.8794244,-48.8968905,4,89.92806
1,Bernardo do Mearim/MA,-4.6315929,-44.7617508,173,2848.67446
D1,Bernardo do Mearim/MA,-4.6315929,-44.7617508,3,49.39898
1,Bertioga/SP,-23.848568,-46.139586,3380,5222.25484
D1,Bertioga/SP,-23.848568,-46.139586,67,103.51807
1,Bertolínia/PI,-7.6372159,-43.9540611,592,10749.95460
D1,Bertolínia/PI,-7.6372159,-43.9540611,6,108.95224
1,Bertópolis/MG,-17.063333,-40.573889,226,4905.57847
1,Beruri/AM,-3.9007135,-61.3717319,1937,9640.17319
D1,Beruri/AM,-3.9007135,-61.3717319,31,154.28259
1,Betim/MG,-19.968056,-44.198333,18878,4244.30735
D1,Betim/MG,-19.968056,-44.198333,520,116.91068
1,Betânia do Piauí/PI,-8.1460635,-40.7961387,142,2286.63446
D1,Betânia do Piauí/PI,-8.1460635,-40.7961387,2,32.20612
1,Betânia/PE,-8.2742779,-38.0351767,242,1895.80885
D1,Betânia/PE,-8.2742779,-38.0351767,4,31.33568
1,Bezerros/PE,-8.2372132,-35.7558262,2601,4272.33903
D1,Bezerros/PE,-8.2372132,-35.7558262,80,131.40604
1,Bias Fortes/MG,-21.605833,-43.756944,75,2252.92881
D1,Bias Fortes/MG,-21.605833,-43.756944,2,60.07810
1,Bicas/MG,-21.7213723,-43.0604327,664,4562.31964
D1,Bicas/MG,-21.7213723,-43.0604327,20,137.41927
1,Biguaçu/SC,-27.4961277,-48.6542432,8753,12596.78209
D1,Biguaçu/SC,-27.4961277,-48.6542432,106,152.54871
1,Bilac/SP,-21.403962,-50.47464,507,6246.15006
D1,Bilac/SP,-21.403962,-50.47464,10,123.19823
1,Biquinhas/MG,-18.783611,-45.502222,28,1120.89672
1,Birigui/SP,-21.2908491,-50.34144,7832,6271.47010
D1,Birigui/SP,-21.2908491,-50.34144,211,168.95814
1,Biritiba Mirim/SP,-23.5697765,-46.0407456,791,2401.62740
D1,Biritiba Mirim/SP,-23.5697765,-46.0407456,48,145.73719
1,Biritinga/BA,-11.6227908,-38.8066738,251,1570.32032
D1,Biritinga/BA,-11.6227908,-38.8066738,3,18.76877
1,Bituruna/PR,-26.161281,-51.5533319,339,2067.07317
D1,Bituruna/PR,-26.161281,-51.5533319,4,24.39024
1,Blumenau/SC,-26.9195567,-49.0658025,39049,10791.33907
D1,Blumenau/SC,-26.9195567,-49.0658025,360,99.48736
1,Boa Esperança do Iguaçu/PR,-25.6362851,-53.2139114,109,4412.95547
1,Boa Esperança do Sul/SP,-21.9930206,-48.3917372,585,3895.32561
D1,Boa Esperança do Sul/SP,-21.9930206,-48.3917372,10,66.58676
1,Boa Esperança/ES,-18.5395472,-40.2904088,842,5579.11476
D1,Boa Esperança/ES,-18.5395472,-40.2904088,27,178.90273
1,Boa Esperança/MG,-21.0901253,-45.5660195,1451,3607.74758
D1,Boa Esperança/MG,-21.0901253,-45.5660195,41,101.94187
1,Boa Esperança/PR,-24.2411024,-52.7860277,204,5040.77094
D1,Boa Esperança/PR,-24.2411024,-52.7860277,5,123.54831
1,Boa Hora/PI,-4.4094627,-42.1255341,382,5605.28247
D1,Boa Hora/PI,-4.4094627,-42.1255341,5,73.36757
1,Boa Nova/BA,-14.365907,-40.2063056,511,4144.69949
D1,Boa Nova/BA,-14.365907,-40.2063056,9,72.99862
1,Boa Ventura de São Roque/PR,-24.88177,-51.5441292,230,3613.51139
D1,Boa Ventura de São Roque/PR,-24.88177,-51.5441292,4,62.84368
1,Boa Ventura/PB,-7.4202462,-38.2156782,207,3900.50876
D1,Boa Ventura/PB,-7.4202462,-38.2156782,4,75.37215
1,Boa Viagem/CE,-5.1261877,-39.7300055,1992,3649.88915
D1,Boa Viagem/CE,-5.1261877,-39.7300055,50,91.61368
1,Boa Vista da Aparecida/PR,-25.4357216,-53.4067721,464,6153.84615
D1,Boa Vista da Aparecida/PR,-25.4357216,-53.4067721,15,198.93899
1,Boa Vista das Missões/RS,-27.6677983,-53.3127622,67,3202.67686
D1,Boa Vista das Missões/RS,-27.6677983,-53.3127622,1,47.80115
1,Boa Vista do Buricá/RS,-27.6687782,-54.1111913,519,7732.41955
D1,Boa Vista do Buricá/RS,-27.6687782,-54.1111913,5,74.49344
1,Boa Vista do Cadeado/RS,-28.5783827,-53.8123759,110,4457.05024
1,Boa Vista do Gurupi/MA,-1.7981168,-46.3071882,14,167.02458
D1,Boa Vista do Gurupi/MA,-1.7981168,-46.3071882,3,35.79098
1,Boa Vista do Incra/RS,-28.8195551,-53.3866624,114,4357.79817
D1,Boa Vista do Incra/RS,-28.8195551,-53.3866624,1,38.22630
1,Boa Vista do Ramos/AM,-2.9716927,-57.5869819,812,4137.36880
D1,Boa Vista do Ramos/AM,-2.9716927,-57.5869819,11,56.04810
1,Boa Vista do Sul/RS,-29.3510488,-51.6779679,206,7415.40677
D1,Boa Vista do Sul/RS,-29.3510488,-51.6779679,2,71.99424
1,Boa Vista do Tupim/BA,-12.6605988,-40.6083594,159,858.02169
D1,Boa Vista do Tupim/BA,-12.6605988,-40.6083594,4,21.58545
1,Boa Vista/PB,-7.2620711,-36.2415161,339,4750.56054
D1,Boa Vista/PB,-7.2620711,-36.2415161,2,28.02691
1,Boa Vista/RR,2.8208478,-60.6719582,64953,15477.82448
D1,Boa Vista/RR,2.8208478,-60.6719582,948,225.90146
1,Boca da Mata/AL,-9.6452054,-36.2116658,1441,5267.58298
D1,Boca da Mata/AL,-9.6452054,-36.2116658,30,109.66516
1,Boca do Acre/AM,-8.7553487,-67.3930873,2312,6675.32843
D1,Boca do Acre/AM,-8.7553487,-67.3930873,21,60.63231
1,Bocaina de Minas/MG,-22.167778,-44.394722,80,1572.01808
D1,Bocaina de Minas/MG,-22.167778,-44.394722,2,39.30045
1,Bocaina do Sul/SC,-27.745494,-49.942279,321,9202.98165
D1,Bocaina do Sul/SC,-27.745494,-49.942279,3,86.00917
1,Bocaina/PI,-6.9445939,-41.3224599,216,4794.67259
D1,Bocaina/PI,-6.9445939,-41.3224599,3,66.59267
1,Bocaina/SP,-22.1421831,-48.522276,994,7982.65339
D1,Bocaina/SP,-22.1421831,-48.522276,20,160.61677
1,Bocaiúva do Sul/PR,-25.206591,-49.114131,788,6001.98035
D1,Bocaiúva do Sul/PR,-25.206591,-49.114131,4,30.46691
1,Bocaiúva/MG,-17.1160208,-43.8122678,1079,2147.00732
D1,Bocaiúva/MG,-17.1160208,-43.8122678,22,43.77587
1,Bodocó/PE,-7.777592,-39.933797,1373,3577.57048
D1,Bodocó/PE,-7.777592,-39.933797,19,49.50753
1,Bodoquena/MS,-20.5508775,-56.6769653,134,1709.61980
D1,Bodoquena/MS,-20.5508775,-56.6769653,3,38.27507
1,Bodó/RN,-5.9866104,-36.4134824,88,4005.46199
1,Bofete/SP,-23.1019554,-48.2610535,417,3498.02869
D1,Bofete/SP,-23.1019554,-48.2610535,4,33.55423
1,Boituva/SP,-23.2838893,-47.6738231,3136,5044.23355
D1,Boituva/SP,-23.2838893,-47.6738231,50,80.42464
1,Bom Conselho/PE,-9.169191,-36.685683,1179,2417.61847
D1,Bom Conselho/PE,-9.169191,-36.685683,35,71.76984
1,Bom Despacho/MG,-19.7375242,-45.2517288,2209,4328.99585
D1,Bom Despacho/MG,-19.7375242,-45.2517288,43,84.26746
1,Bom Jardim da Serra/SC,-28.3380324,-49.625588,519,10875.94300
D1,Bom Jardim da Serra/SC,-28.3380324,-49.625588,3,62.86672
1,Bom Jardim de Goiás/GO,-16.2062659,-52.172793,446,5028.75183
D1,Bom Jardim de Goiás/GO,-16.2062659,-52.172793,9,101.47705
1,Bom Jardim de Minas/MG,-21.9476466,-44.1906033,152,2353.30547
D1,Bom Jardim de Minas/MG,-21.9476466,-44.1906033,1,15.48227
1,Bom Jardim/MA,-3.54129,-45.606004,1070,2558.46205
D1,Bom Jardim/MA,-3.54129,-45.606004,34,81.29693
1,Bom Jardim/PE,-7.7961572,-35.5871696,906,2265.96303
D1,Bom Jardim/PE,-7.7961572,-35.5871696,39,97.54146
1,Bom Jardim/RJ,-22.1515328,-42.4186683,701,2538.38355
D1,Bom Jardim/RJ,-22.1515328,-42.4186683,15,54.31634
1,Bom Jesus da Lapa/BA,-13.250571,-43.410754,2053,2947.08736
D1,Bom Jesus da Lapa/BA,-13.250571,-43.410754,23,33.01657
1,Bom Jesus da Penha/MG,-21.0165299,-46.5226644,201,4736.09802
D1,Bom Jesus da Penha/MG,-21.0165299,-46.5226644,2,47.12535
1,Bom Jesus da Serra/BA,-14.3724084,-40.5047119,347,3532.52570
D1,Bom Jesus da Serra/BA,-14.3724084,-40.5047119,6,61.08114
1,Bom Jesus das Selvas/MA,-4.4878075,-46.8526639,2154,6231.37675
D1,Bom Jesus das Selvas/MA,-4.4878075,-46.8526639,19,54.96572
1,Bom Jesus de Goiás/GO,-18.2174587,-49.739721,1610,6277.29258
D1,Bom Jesus de Goiás/GO,-18.2174587,-49.739721,48,187.14910
1,Bom Jesus do Amparo/MG,-19.7045132,-43.4752911,105,1712.04957
D1,Bom Jesus do Amparo/MG,-19.7045132,-43.4752911,3,48.91570
1,Bom Jesus do Araguaia/MT,-12.1725897,-51.5074425,393,5860.42350
D1,Bom Jesus do Araguaia/MT,-12.1725897,-51.5074425,2,29.82404
1,Bom Jesus do Galho/MG,-19.8283191,-42.3162256,316,2126.22796
D1,Bom Jesus do Galho/MG,-19.8283191,-42.3162256,11,74.01426
1,Bom Jesus do Itabapoana/RJ,-21.1341025,-41.680095,2064,5547.93968
D1,Bom Jesus do Itabapoana/RJ,-21.1341025,-41.680095,43,115.58208
1,Bom Jesus do Norte/ES,-21.1254776,-41.6711646,735,7378.03654
D1,Bom Jesus do Norte/ES,-21.1254776,-41.6711646,17,170.64846
1,Bom Jesus do Oeste/SC,-26.6929713,-53.0967453,95,4441.32772
D1,Bom Jesus do Oeste/SC,-26.6929713,-53.0967453,2,93.50164
1,Bom Jesus do Sul/PR,-26.1922507,-53.6002033,194,5533.37136
D1,Bom Jesus do Sul/PR,-26.1922507,-53.6002033,3,85.56760
1,Bom Jesus do Tocantins/PA,-5.0471796,-48.5978362,512,2991.00362
D1,Bom Jesus do Tocantins/PA,-5.0471796,-48.5978362,8,46.73443
1,Bom Jesus do Tocantins/TO,-8.96306,-48.165043,115,2296.32588
D1,Bom Jesus do Tocantins/TO,-8.96306,-48.165043,1,19.96805
1,Bom Jesus dos Perdões/SP,-23.1353864,-46.4648052,967,3721.37772
D1,Bom Jesus dos Perdões/SP,-23.1353864,-46.4648052,10,38.48374
1,Bom Jesus/PB,-6.8156725,-38.6551841,94,3650.48544
D1,Bom Jesus/PB,-6.8156725,-38.6551841,3,116.50485
1,Bom Jesus/PI,-9.0711644,-44.3583926,2325,9158.23059
D1,Bom Jesus/PI,-9.0711644,-44.3583926,25,98.47560
1,Bom Jesus/RN,-5.9887544,-35.5821149,520,5064.77062
D1,Bom Jesus/RN,-5.9887544,-35.5821149,10,97.39944
1,Bom Jesus/RS,-28.6692723,-50.4346894,484,4279.77717
D1,Bom Jesus/RS,-28.6692723,-50.4346894,12,106.11018
1,Bom Jesus/SC,-26.7350604,-52.3916519,293,9584.56003
D1,Bom Jesus/SC,-26.7350604,-52.3916519,4,130.84724
1,Bom Lugar/MA,-4.3728019,-45.0366054,339,2062.29468
D1,Bom Lugar/MA,-4.3728019,-45.0366054,6,36.50079
1,Bom Princípio do Piauí/PI,-3.1912777,-41.6430185,65,1150.23890
D1,Bom Princípio do Piauí/PI,-3.1912777,-41.6430185,3,53.08795
1,Bom Princípio/RS,-29.489788,-51.3566782,1115,7821.81691
D1,Bom Princípio/RS,-29.489788,-51.3566782,19,133.28657
1,Bom Progresso/RS,-27.5490948,-53.8655601,50,2632.96472
D1,Bom Progresso/RS,-27.5490948,-53.8655601,1,52.65929
1,Bom Repouso/MG,-22.4657069,-46.1485376,313,2970.48496
D1,Bom Repouso/MG,-22.4657069,-46.1485376,10,94.90367
1,Bom Retiro do Sul/RS,-29.6000007,-51.9359243,763,6158.19209
D1,Bom Retiro do Sul/RS,-29.6000007,-51.9359243,14,112.99435
1,Bom Retiro/SC,-27.798993,-49.486994,483,4801.19284
D1,Bom Retiro/SC,-27.798993,-49.486994,8,79.52286
1,Bom Sucesso de Itararé/SP,-24.3190016,-49.1446207,70,1757.02811
D1,Bom Sucesso de Itararé/SP,-24.3190016,-49.1446207,4,100.40161
1,Bom Sucesso do Sul/PR,-26.0749256,-52.8348629,233,7160.41795
D1,Bom Sucesso do Sul/PR,-26.0749256,-52.8348629,4,122.92563
1,Bom Sucesso/MG,-21.0323516,-44.7598082,252,1431.24894
D1,Bom Sucesso/MG,-21.0323516,-44.7598082,4,22.71824
1,Bom Sucesso/PB,-6.4458948,-37.9297662,134,2703.79338
1,Bom Sucesso/PR,-23.7088019,-51.7651297,423,5984.71986
D1,Bom Sucesso/PR,-23.7088019,-51.7651297,9,127.33447
1,Bombinhas/SC,-27.1519159,-48.4875691,2971,14610.27785
D1,Bombinhas/SC,-27.1519159,-48.4875691,33,162.28178
1,Bonfim do Piauí/PI,-9.1648678,-42.8734415,189,3324.53826
D1,Bonfim do Piauí/PI,-9.1648678,-42.8734415,2,35.18030
1,Bonfim/MG,-20.3266626, -44.2386157,222,3236.15160
D1,Bonfim/MG,-20.3266626, -44.2386157,4,58.30904
1,Bonfim/RR,3.3613818,-59.8427241,1665,13259.53651
D1,Bonfim/RR,3.3613818,-59.8427241,23,183.16477
1,Bonfinópolis de Minas/MG,-16.5660011,-45.98645,285,5235.12123
D1,Bonfinópolis de Minas/MG,-16.5660011,-45.98645,10,183.68846
1,Bonfinópolis/GO,-16.6172709,-48.9615701,410,4133.48120
D1,Bonfinópolis/GO,-16.6172709,-48.9615701,12,120.97994
1,Boninal/BA,-12.7095183,-41.8299984,455,3149.66081
D1,Boninal/BA,-12.7095183,-41.8299984,5,34.61166
1,Bonito de Minas/MG,-15.3191266,-44.7544,14,123.14188
1,Bonito de Santa Fé/PB,-7.3143332,-38.5146677,338,2811.51223
D1,Bonito de Santa Fé/PB,-7.3143332,-38.5146677,11,91.49892
1,Bonito/BA,-11.9665473,-41.2649896,537,3180.52594
D1,Bonito/BA,-11.9665473,-41.2649896,5,29.61384
1,Bonito/MS,-21.1264766,-56.4902208,1616,7282.55971
D1,Bonito/MS,-21.1264766,-56.4902208,23,103.65029
1,Bonito/PA,-1.3605722,-47.3049907,321,1941.92377
D1,Bonito/PA,-1.3605722,-47.3049907,12,72.59528
1,Bonito/PE,-8.4721161,-35.7314591,531,1393.07920
D1,Bonito/PE,-8.4721161,-35.7314591,28,73.45804
1,Bonópolis/GO,-13.649331,-49.8329113,96,2136.65702
D1,Bonópolis/GO,-13.649331,-49.8329113,1,22.25684
1,Boqueirão do Leão/RS,-29.30332,-52.4296817,404,5245.39081
D1,Boqueirão do Leão/RS,-29.30332,-52.4296817,18,233.70553
1,Boqueirão do Piauí/PI,-4.4850148,-42.1095161,355,5524.43200
D1,Boqueirão do Piauí/PI,-4.4850148,-42.1095161,7,108.93246
1,Boqueirão/PB,-7.487004,-36.130887,1076,6021.26469
D1,Boqueirão/PB,-7.487004,-36.130887,17,95.13151
1,Boquim/SE,-11.1450175,-37.6204228,1327,4933.26889
D1,Boquim/SE,-11.1450175,-37.6204228,28,104.09309
1,Boquira/BA,-12.8184859,-42.7270883,351,1632.78597
D1,Boquira/BA,-12.8184859,-42.7270883,5,23.25906
1,Boracéia/SP,-22.195355,-48.7801925,396,8134.75760
D1,Boracéia/SP,-22.195355,-48.7801925,8,164.33854
1,Borba/AM,-4.3934778,-59.5947721,1494,3578.61454
D1,Borba/AM,-4.3934778,-59.5947721,44,105.39427
1,Borborema/PB,-6.8066718,-35.5990191,121,2288.63249
D1,Borborema/PB,-6.8066718,-35.5990191,3,56.74295
1,Borborema/SP,-21.6212706,-49.074135,674,4169.75996
D1,Borborema/SP,-21.6212706,-49.074135,19,117.54516
1,Borda da Mata/MG,-22.274167,-46.165278,807,4114.40808
D1,Borda da Mata/MG,-22.274167,-46.165278,25,127.45998
1,Borebi/SP,-22.5700178,-48.9714871,105,3913.52963
D1,Borebi/SP,-22.5700178,-48.9714871,2,74.54342
1,Borrazópolis/PR,-23.9393362,-51.5850786,443,6879.95030
D1,Borrazópolis/PR,-23.9393362,-51.5850786,12,186.36434
1,Borá/SP,-22.2701088,-50.544407,30,3579.95227
D1,Borá/SP,-22.2701088,-50.544407,1,119.33174
1,Bossoroca/RS,-28.7278885,-54.9120278,138,2224.01289
D1,Bossoroca/RS,-28.7278885,-54.9120278,11,177.27639
1,Botelhos/MG,-21.65,-46.394722,469,3137.33360
D1,Botelhos/MG,-21.65,-46.394722,4,26.75764
1,Botucatu/SP,-22.8879628,-48.4410712,8772,5921.82542
D1,Botucatu/SP,-22.8879628,-48.4410712,118,79.65976
1,Botumirim/MG,-16.862778,-43.011111,113,1797.07379
D1,Botumirim/MG,-16.862778,-43.011111,1,15.90331
1,Botuporã/BA,-13.3744752,-42.5198469,168,1658.60401
D1,Botuporã/BA,-13.3744752,-42.5198469,3,29.61793
1,Botuverá/SC,-27.200749,-49.068892,717,13472.37880
D1,Botuverá/SC,-27.200749,-49.068892,6,112.73957
1,Bozano/RS,-28.3669953,-53.7705165,164,7768.82994
D1,Bozano/RS,-28.3669953,-53.7705165,4,189.48366
1,Braga/RS,-27.617348,-53.740514,103,3110.84265
D1,Braga/RS,-27.617348,-53.740514,3,90.60707
1,Braganey/PR,-24.8179919,-53.118506,254,4719.43515
D1,Braganey/PR,-24.8179919,-53.118506,3,55.74136
1,Bragança Paulista/SP,-22.9520235,-46.5418586,9209,5400.12783
D1,Bragança Paulista/SP,-22.9520235,-46.5418586,183,107.31061
1,Bragança/PA,-1.0573967,-46.7635406,3307,2565.27608
D1,Bragança/PA,-1.0573967,-46.7635406,108,83.77678
1,Branquinha/AL,-9.2478057,-36.0152009,342,3269.59847
D1,Branquinha/AL,-9.2478057,-36.0152009,8,76.48184
1,Brasil Novo/PA,-3.3055853,-52.539198,1026,6847.76080
D1,Brasil Novo/PA,-3.3055853,-52.539198,22,146.83308
1,Brasileira/PI,-4.131182,-41.7824969,342,4097.28046
D1,Brasileira/PI,-4.131182,-41.7824969,6,71.88211
1,Brasilândia de Minas/MG,-17.0096469,-46.0087183,682,4072.12802
D1,Brasilândia de Minas/MG,-17.0096469,-46.0087183,7,41.79604
1,Brasilândia do Sul/PR,-24.1975793,-53.527551,200,7736.94391
D1,Brasilândia do Sul/PR,-24.1975793,-53.527551,2,77.36944
1,Brasilândia do Tocantins/TO,-8.3886619,-48.4842729,91,4115.78471
D1,Brasilândia do Tocantins/TO,-8.3886619,-48.4842729,1,45.22840
1,Brasilândia/MS,-21.255575,-52.0365617,291,2455.07466
D1,Brasilândia/MS,-21.255575,-52.0365617,6,50.62010
1,Brasiléia/AC,-11.0010413,-68.7487894,1958,7332.78406
D1,Brasiléia/AC,-11.0010413,-68.7487894,27,101.11602
1,Brasnorte/MT,-12.1227151,-58.0050109,1021,5069.51341
D1,Brasnorte/MT,-12.1227151,-58.0050109,12,59.58292
1,Brasília de Minas/MG,-16.2075114,-44.430559,550,1697.26894
D1,Brasília de Minas/MG,-16.2075114,-44.430559,5,15.42972
1,Brasília/DF,-15.7934036,-47.8823172,321365,10518.79957
D1,Brasília/DF,-15.7934036,-47.8823172,5176,169.41891
1,Brazabrantes/GO,-16.4291635,-49.3858216,295,7875.06674
D1,Brazabrantes/GO,-16.4291635,-49.3858216,2,53.39028
1,Brazópolis/MG,-22.4742842,-45.6165577,514,3566.96738
D1,Brazópolis/MG,-22.4742842,-45.6165577,18,124.91325
1,Braço do Norte/SC,-28.2728633,-49.1622712,5731,16917.58177
D1,Braço do Norte/SC,-28.2728633,-49.1622712,46,135.78935
1,Braço do Trombudo/SC,-27.358578,-49.882145,414,10984.34598
D1,Braço do Trombudo/SC,-27.358578,-49.882145,3,79.59671
1,Braúna/SP,-21.5015319,-50.3175246,255,4441.73489
D1,Braúna/SP,-21.5015319,-50.3175246,7,121.92998
1,Braúnas/MG,-19.055556,-42.716111,109,2285.59446
D1,Braúnas/MG,-19.055556,-42.716111,3,62.90627
1,Brejetuba/ES,-20.1465817,-41.2902303,1200,9656.39334
D1,Brejetuba/ES,-20.1465817,-41.2902303,6,48.28197
1,Brejinho de Nazaré/TO,-11.0205883,-48.5722906,215,3895.63327
D1,Brejinho de Nazaré/TO,-11.0205883,-48.5722906,7,126.83457
1,Brejinho/PE,-7.3482153,-37.28538,351,4687.50000
D1,Brejinho/PE,-7.3482153,-37.28538,4,53.41880
1,Brejinho/RN,-6.1957907,-35.3583019,645,5044.18550
D1,Brejinho/RN,-6.1957907,-35.3583019,6,46.92266
1,Brejo Alegre/SP,-21.1671191,-50.1850393,196,6784.35445
D1,Brejo Alegre/SP,-21.1671191,-50.1850393,8,276.91243
1,Brejo Grande do Araguaia/PA,-5.7011449,-48.4037308,721,9785.55917
D1,Brejo Grande do Araguaia/PA,-5.7011449,-48.4037308,5,67.86102
1,Brejo Grande/SE,-10.4287358,-36.4667918,244,2921.10619
D1,Brejo Grande/SE,-10.4287358,-36.4667918,9,107.74572
1,Brejo Santo/CE,-7.4909841,-38.9859152,4242,8510.89443
D1,Brejo Santo/CE,-7.4909841,-38.9859152,47,94.29798
1,Brejo da Madre de Deus/PE,-8.1409718,-36.3712527,1445,2820.88824
D1,Brejo da Madre de Deus/PE,-8.1409718,-36.3712527,38,74.18253
1,Brejo de Areia/MA,-4.3316785,-45.5833334,279,3095.18527
D1,Brejo de Areia/MA,-4.3316785,-45.5833334,7,77.65698
1,Brejo do Cruz/PB,-6.32926065,-37.48746163303929,1189,8369.70294
D1,Brejo do Cruz/PB,-6.32926065,-37.48746163303929,15,105.58919
1,Brejo do Piauí/PI,-8.207583,-42.8359849,55,1429.31393
D1,Brejo do Piauí/PI,-8.207583,-42.8359849,3,77.96258
1,Brejo dos Santos/PB,-6.3769367,-37.8243125,287,4439.97525
D1,Brejo dos Santos/PB,-6.3769367,-37.8243125,4,61.88119
1,Brejo/MA,-3.6804397,-42.7529313,728,1986.30324
D1,Brejo/MA,-3.6804397,-42.7529313,18,49.11189
1,Brejolândia/BA,-12.4843845,-43.9611861,128,1205.50009
D1,Brejolândia/BA,-12.4843845,-43.9611861,7,65.92579
1,Brejão/PE,-9.029146,-36.566034,135,1502.16980
D1,Brejão/PE,-9.029146,-36.566034,4,44.50873
1,Brejões/BA,-13.1033754,-39.7909837,456,3206.30010
D1,Brejões/BA,-13.1033754,-39.7909837,7,49.21952
1,Breu Branco/PA,-3.7785073,-49.5684795,465,690.60773
D1,Breu Branco/PA,-3.7785073,-49.5684795,30,44.55534
1,Breves/PA,-1.68036,-50.479085,3599,3477.39548
D1,Breves/PA,-1.68036,-50.479085,102,98.55358
1,Britânia/GO,-15.2427599,-51.1602061,375,6468.86321
D1,Britânia/GO,-15.2427599,-51.1602061,2,34.50060
1,Brochier/RS,-29.556766,-51.5963047,271,5309.56113
1,Brodowski/SP,-20.984532,-47.657217,1372,5427.85932
D1,Brodowski/SP,-20.984532,-47.657217,35,138.46580
1,Brotas de Macaúbas/BA,-12.0019007,-42.6257506,53,523.19842
1,Brotas/SP,-22.2840884,-48.1267265,309,1254.26206
D1,Brotas/SP,-22.2840884,-48.1267265,12,48.70921
1,Brumadinho/MG,-20.143611,-44.2,2289,5628.78080
D1,Brumadinho/MG,-20.143611,-44.2,34,83.60793
1,Brumado/BA,-14.29507325,-41.659307508575985,5987,8891.36408
D1,Brumado/BA,-14.29507325,-41.659307508575985,74,109.89827
1,Brunópolis/SC,-27.310953,-50.837585,147,6207.77027
D1,Brunópolis/SC,-27.310953,-50.837585,3,126.68919
1,Brusque/SC,-27.0964628,-48.9136323,19072,13851.50593
D1,Brusque/SC,-27.0964628,-48.9136323,164,119.10901
1,Brás Pires/MG,-20.8483109,-43.2430524,111,2585.60447
D1,Brás Pires/MG,-20.8483109,-43.2430524,5,116.46867
1,Bueno Brandão/MG,-22.441976,-46.3517971,363,3302.70221
D1,Bueno Brandão/MG,-22.441976,-46.3517971,10,90.98353
1,Buenos Aires/PE,-7.7218931,-35.326587,146,1106.89917
D1,Buenos Aires/PE,-7.7218931,-35.326587,14,106.14102
1,Buenópolis/MG,-17.8756607,-44.1749365,183,1767.60359
D1,Buenópolis/MG,-17.8756607,-44.1749365,6,57.95422
1,Buerarema/BA,-14.9571177,-39.3008035,1102,6019.88419
D1,Buerarema/BA,-14.9571177,-39.3008035,33,180.26876
1,Bugre/MG,-19.4257687,-42.2556,286,7180.51720
D1,Bugre/MG,-19.4257687,-42.2556,9,225.96033
1,Bujari/AC,-9.8309656,-67.9520886,835,8013.43570
D1,Bujari/AC,-9.8309656,-67.9520886,9,86.37236
1,Bujaru/PA,-1.5169239,-48.0410699,960,3262.31012
D1,Bujaru/PA,-1.5169239,-48.0410699,27,91.75247
1,Buri/SP,-23.79849,-48.598924,1112,5569.74706
D1,Buri/SP,-23.79849,-48.598924,22,110.19284
1,Buritama/SP,-21.0664017,-50.1448077,1332,7707.88728
D1,Buritama/SP,-21.0664017,-50.1448077,36,208.32128
1,Buriti Alegre/GO,-18.1377879,-49.0404411,623,6568.95825
D1,Buriti Alegre/GO,-18.1377879,-49.0404411,18,189.79334
1,Buriti Bravo/MA,-5.8391884,-43.8367876,1080,4511.46664
D1,Buriti Bravo/MA,-5.8391884,-43.8367876,10,41.77284
1,Buriti de Goiás/GO,-16.180644,-50.4287479,132,5331.17932
D1,Buriti de Goiás/GO,-16.180644,-50.4287479,1,40.38772
1,Buriti do Tocantins/TO,-5.3187439,-48.2256609,445,3870.57493
D1,Buriti do Tocantins/TO,-5.3187439,-48.2256609,2,17.39584
1,Buriti dos Lopes/PI,-3.1776723,-41.8707444,925,4670.06614
D1,Buriti dos Lopes/PI,-3.1776723,-41.8707444,15,75.73080
1,Buriti dos Montes/PI,-5.3136171,-41.0971256,370,4477.25073
D1,Buriti dos Montes/PI,-5.3136171,-41.0971256,2,24.20136
1,Buriti/MA,-3.9430944,-42.9244281,737,2559.20550
D1,Buriti/MA,-3.9430944,-42.9244281,6,20.83478
1,Buriticupu/MA,-4.3227472,-46.4516989,2693,3689.90039
D1,Buriticupu/MA,-4.3227472,-46.4516989,32,43.84583
1,Buritinópolis/GO,-14.4589282,-46.4293104,97,2954.61468
1,Buritirama/BA,-10.7148421,-43.6362327,618,2904.68133
D1,Buritirama/BA,-10.7148421,-43.6362327,15,70.50197
1,Buritirana/MA,-5.5897455,-47.0148915,252,1629.27523
D1,Buritirana/MA,-5.5897455,-47.0148915,19,122.84218
1,Buritis/MG,-15.621389,-46.423889,806,3222.32439
D1,Buritis/MG,-15.621389,-46.423889,9,35.98129
1,Buritis/RO,-10.2054937,-63.8281954,3699,9165.92328
D1,Buritis/RO,-10.2054937,-63.8281954,38,94.16196
1,Buritizal/SP,-20.1933264,-47.7097165,114,2525.47630
D1,Buritizal/SP,-20.1933264,-47.7097165,4,88.61320
1,Buritizeiro/MG,-17.3667765,-44.9647781,632,2247.43075
D1,Buritizeiro/MG,-17.3667765,-44.9647781,15,53.34092
1,Butiá/RS,-30.1256795,-51.9692224,794,3789.61436
D1,Butiá/RS,-30.1256795,-51.9692224,31,147.95724
1,Buíque/PE,-8.6239732,-37.157296,1446,2454.21681
D1,Buíque/PE,-8.6239732,-37.157296,23,39.03664
1,Bálsamo/SP,-20.7343722,-49.5807484,913,9990.15210
D1,Bálsamo/SP,-20.7343722,-49.5807484,32,350.14772
0,CASO SEM LOCALIZAÇÃO DEFINIDA/AL,-9.931093434363673,-35.609611600637464,796,23.85121
D0,CASO SEM LOCALIZAÇÃO DEFINIDA/AL,-9.931093434363673,-35.609611600637464,22,0.65920
0,CASO SEM LOCALIZAÇÃO DEFINIDA/BA,-13.415069300066518,-38.14174656569957,9559,64.27055
D0,CASO SEM LOCALIZAÇÃO DEFINIDA/BA,-13.415069300066518,-38.14174656569957,159,1.06905
0,CASO SEM LOCALIZAÇÃO DEFINIDA/CE,-3.3445126297392798,-38.624961942434304,10623,116.32621
D0,CASO SEM LOCALIZAÇÃO DEFINIDA/CE,-3.3445126297392798,-38.624961942434304,72,0.78843
0,CASO SEM LOCALIZAÇÃO DEFINIDA/ES,-20.30989267097039,-39.81745156645774,2963,73.73123
D0,CASO SEM LOCALIZAÇÃO DEFINIDA/ES,-20.30989267097039,-39.81745156645774,130,3.23492
0,CASO SEM LOCALIZAÇÃO DEFINIDA/GO,-16.701590966270153,-49.164524059025034,4125,58.77446
D0,CASO SEM LOCALIZAÇÃO DEFINIDA/GO,-16.701590966270153,-49.164524059025034,103,1.46758
0,CASO SEM LOCALIZAÇÃO DEFINIDA/MG,-19.97049116501593,-43.8852149072783,15311,72.32817
D0,CASO SEM LOCALIZAÇÃO DEFINIDA/MG,-19.97049116501593,-43.8852149072783,490,2.31473
0,CASO SEM LOCALIZAÇÃO DEFINIDA/MS,-20.391549234908513,-54.645156949758444,1447,52.06935
D0,CASO SEM LOCALIZAÇÃO DEFINIDA/MS,-20.391549234908513,-54.645156949758444,42,1.51134
0,CASO SEM LOCALIZAÇÃO DEFINIDA/MT,-15.54791153961863,-56.17143998972475,2333,66.95431
D0,CASO SEM LOCALIZAÇÃO DEFINIDA/MT,-15.54791153961863,-56.17143998972475,124,3.55865
0,CASO SEM LOCALIZAÇÃO DEFINIDA/PA,-0.09317078214359542,-48.0050231510481,2424,28.17666
D0,CASO SEM LOCALIZAÇÃO DEFINIDA/PA,-0.09317078214359542,-48.0050231510481,72,0.83693
0,CASO SEM LOCALIZAÇÃO DEFINIDA/PE,-8.121628543819208,-34.57313921302556,2245,23.49046
D0,CASO SEM LOCALIZAÇÃO DEFINIDA/PE,-8.121628543819208,-34.57313921302556,39,0.40807
0,CASO SEM LOCALIZAÇÃO DEFINIDA/PI,-2.683810218391744,-41.470898009352254,1063,32.47560
D0,CASO SEM LOCALIZAÇÃO DEFINIDA/PI,-2.683810218391744,-41.470898009352254,23,0.70267
0,CASO SEM LOCALIZAÇÃO DEFINIDA/PR,-25.69415946385943,-48.10141676336737,5080,44.42906
D0,CASO SEM LOCALIZAÇÃO DEFINIDA/PR,-25.69415946385943,-48.10141676336737,110,0.96205
0,CASO SEM LOCALIZAÇÃO DEFINIDA/RN,-5.749310788669161,-34.95302586257457,1411,40.23550
D0,CASO SEM LOCALIZAÇÃO DEFINIDA/RN,-5.749310788669161,-34.95302586257457,29,0.82695
0,CASO SEM LOCALIZAÇÃO DEFINIDA/RR,2.813328208465927,-60.663338675861986,2816,464.86981
D0,CASO SEM LOCALIZAÇÃO DEFINIDA/RR,2.813328208465927,-60.663338675861986,23,3.79688
0,CASO SEM LOCALIZAÇÃO DEFINIDA/SP,-24.30968974555485,-46.21366504207253,18325,39.90719
D0,CASO SEM LOCALIZAÇÃO DEFINIDA/SP,-24.30968974555485,-46.21366504207253,617,1.34367
0,CASO SEM LOCALIZAÇÃO DEFINIDA/TO,-10.213012114749148,-48.40023803990334,1165,74.06861
D0,CASO SEM LOCALIZAÇÃO DEFINIDA/TO,-10.213012114749148,-48.40023803990334,20,1.27156
1,Caapiranga/AM,-3.3188884,-61.2096404,540,4065.34668
D1,Caapiranga/AM,-3.3188884,-61.2096404,20,150.56840
1,Caaporã/PB,-7.510234,-34.9154114,1338,6094.28376
D1,Caaporã/PB,-7.510234,-34.9154114,22,100.20496
1,Caarapó/MS,-22.6349267,-54.8240903,2206,7210.79986
D1,Caarapó/MS,-22.6349267,-54.8240903,18,58.83699
1,Caatiba/BA,-14.9782759,-40.4092325,569,8770.03699
D1,Caatiba/BA,-14.9782759,-40.4092325,7,107.89149
1,Cabaceiras do Paraguaçu/BA,-12.5377868,-39.1901339,328,1734.44027
D1,Cabaceiras do Paraguaçu/BA,-12.5377868,-39.1901339,2,10.57586
1,Cabaceiras/PB,-7.4899156,-36.2860501,279,4928.45787
D1,Cabaceiras/PB,-7.4899156,-36.2860501,1,17.66472
1,Cabeceira Grande/MG,-16.0297,-47.0906,171,2447.05209
D1,Cabeceira Grande/MG,-16.0297,-47.0906,3,42.93074
1,Cabeceiras do Piauí/PI,-4.4733665,-42.3098716,331,3113.82879
D1,Cabeceiras do Piauí/PI,-4.4733665,-42.3098716,8,75.25870
1,Cabeceiras/GO,-15.7995459,-46.9264991,183,2274.42207
D1,Cabeceiras/GO,-15.7995459,-46.9264991,5,62.14268
1,Cabedelo/PB,-6.97324,-34.8351609,5916,8602.96363
D1,Cabedelo/PB,-6.97324,-34.8351609,121,175.95649
1,Cabixi/RO,-13.4956065,-60.5424442,491,9464.14803
D1,Cabixi/RO,-13.4956065,-60.5424442,10,192.75251
1,Cabo Frio/RJ,-22.8804369,-42.0189227,7812,3390.94879
D1,Cabo Frio/RJ,-22.8804369,-42.0189227,362,157.13306
1,Cabo Verde/MG,-21.4743338,-46.3964995,275,1953.81883
D1,Cabo Verde/MG,-21.4743338,-46.3964995,5,35.52398
1,Cabo de Santo Agostinho/PE,-8.2838945,-35.0320984,3278,1568.84141
D1,Cabo de Santo Agostinho/PE,-8.2838945,-35.0320984,326,156.02267
1,Cabreúva/SP,-23.3075813,-47.1324417,2468,4894.00940
D1,Cabreúva/SP,-23.3075813,-47.1324417,55,109.06423
1,Cabrobó/PE,-8.5083701,-39.3106961,1180,3419.99246
D1,Cabrobó/PE,-8.5083701,-39.3106961,12,34.77958
1,Cabrália Paulista/SP,-22.4562909,-49.3385645,161,3794.48503
D1,Cabrália Paulista/SP,-22.4562909,-49.3385645,2,47.13646
1,Cacaulândia/RO,-10.3380043,-62.9007231,469,7481.25698
D1,Cacaulândia/RO,-10.3380043,-62.9007231,7,111.66055
1,Cacequi/RS,-29.8838059,-54.8273443,137,1102.79321
D1,Cacequi/RS,-29.8838059,-54.8273443,4,32.19834
1,Cachoeira Alta/GO,-18.7618269,-50.9432431,977,7713.56387
D1,Cachoeira Alta/GO,-18.7618269,-50.9432431,13,102.63698
1,Cachoeira Dourada/GO,-18.4934204,-49.481062,254,3162.74437
D1,Cachoeira Dourada/GO,-18.4934204,-49.481062,4,49.80700
1,Cachoeira Dourada/MG,-18.517136,-49.5002062,119,4397.63489
1,Cachoeira Grande/MA,-2.9290492,-44.0573223,195,2057.39608
D1,Cachoeira Grande/MA,-2.9290492,-44.0573223,5,52.75375
1,Cachoeira Paulista/SP,-22.666498,-45.015384,1177,3504.95816
D1,Cachoeira Paulista/SP,-22.666498,-45.015384,26,77.42473
1,Cachoeira da Prata/MG,-19.524723,-44.453056,183,5096.07352
D1,Cachoeira da Prata/MG,-19.524723,-44.453056,2,55.69479
1,Cachoeira de Goiás/GO,-16.6688414,-50.6435997,37,2757.07899
1,Cachoeira de Minas/MG,-22.3554043,-45.7796324,408,3523.62035
D1,Cachoeira de Minas/MG,-22.3554043,-45.7796324,5,43.18162
1,Cachoeira de Pajeú/MG,-15.965833,-41.496666,293,3103.15611
D1,Cachoeira de Pajeú/MG,-15.965833,-41.496666,5,52.95488
1,Cachoeira do Arari/PA,-1.0143572,-48.9621089,349,1450.29920
D1,Cachoeira do Arari/PA,-1.0143572,-48.9621089,14,58.17819
1,Cachoeira do Piriá/PA,-1.7599443,-46.5446954,621,1794.33095
D1,Cachoeira do Piriá/PA,-1.7599443,-46.5446954,3,8.66827
1,Cachoeira do Sul/RS,-30.0474778,-52.8905413,3916,4783.25129
D1,Cachoeira do Sul/RS,-30.0474778,-52.8905413,55,67.18050
1,Cachoeira dos Índios/PB,-6.9259193,-38.6742159,449,4357.10820
D1,Cachoeira dos Índios/PB,-6.9259193,-38.6742159,12,116.44833
1,Cachoeira/BA,-12.5998256,-38.9665918,1016,3026.78226
D1,Cachoeira/BA,-12.5998256,-38.9665918,17,50.64498
1,Cachoeiras de Macacu/RJ,-22.4626861,-42.6534414,2029,3421.41207
D1,Cachoeiras de Macacu/RJ,-22.4626861,-42.6534414,63,106.23409
1,Cachoeirinha/PE,-8.4906364,-36.2338963,339,1653.57787
D1,Cachoeirinha/PE,-8.4906364,-36.2338963,22,107.31184
1,Cachoeirinha/RS,-29.9493353,-51.0898927,8288,6315.14782
D1,Cachoeirinha/RS,-29.9493353,-51.0898927,233,177.53734
1,Cachoeirinha/TO,-6.118647,-47.9208885,116,5078.80911
D1,Cachoeirinha/TO,-6.118647,-47.9208885,2,87.56567
1,Cachoeiro de Itapemirim/ES,-20.848084,-41.11129,18554,8810.52667
D1,Cachoeiro de Itapemirim/ES,-20.848084,-41.11129,362,171.89882
1,Cacimba de Areia/PB,-7.1288513,-37.1575194,23,622.46279
D1,Cacimba de Areia/PB,-7.1288513,-37.1575194,1,27.06360
1,Cacimba de Dentro/PB,-6.6425101,-35.7929304,781,4546.51298
D1,Cacimba de Dentro/PB,-6.6425101,-35.7929304,18,104.78519
1,Cacimbas/PB,-7.2125451,-37.0593398,167,2319.76663
D1,Cacimbas/PB,-7.2125451,-37.0593398,6,83.34491
1,Cacimbinhas/AL,-9.401212,-36.991082,413,3792.81844
D1,Cacimbinhas/AL,-9.401212,-36.991082,5,45.91790
1,Cacique Doble/RS,-27.7700117,-51.6616409,242,4769.41269
D1,Cacique Doble/RS,-27.7700117,-51.6616409,3,59.12495
1,Cacoal/RO,-11.4333,-61.4420502,8432,9816.86517
D1,Cacoal/RO,-11.4333,-61.4420502,128,149.02262
1,Caconde/SP,-21.527995,-46.643659,736,3871.85018
D1,Caconde/SP,-21.527995,-46.643659,6,31.56400
1,Caculé/BA,-14.4990734,-42.2233006,840,3606.54330
D1,Caculé/BA,-14.4990734,-42.2233006,9,38.64154
1,Caetanos/BA,-14.3387456,-40.9085971,432,2957.28368
D1,Caetanos/BA,-14.3387456,-40.9085971,5,34.22782
1,Caetanópolis/MG,-19.2947496,-44.4138386,585,4979.14716
D1,Caetanópolis/MG,-19.2947496,-44.4138386,4,34.04545
1,Caetité/BA,-14.0691776,-42.4852428,1395,2730.95672
D1,Caetité/BA,-14.0691776,-42.4852428,10,19.57675
1,Caeté/MG,-19.897777,-43.670278,1050,2330.89884
D1,Caeté/MG,-19.897777,-43.670278,32,71.03692
1,Caetés/PE,-8.7728788,-36.6255835,948,3279.82286
D1,Caetés/PE,-8.7728788,-36.6255835,11,38.05702
1,Cafarnaum/BA,-11.691399,-41.468823,701,3786.52839
D1,Cafarnaum/BA,-11.691399,-41.468823,11,59.41771
1,Cafeara/PR,-22.78905,-51.714195,185,6262.69465
D1,Cafeara/PR,-22.78905,-51.714195,2,67.70481
1,Cafelândia/PR,-24.6176963,-53.3218057,1168,6328.56524
D1,Cafelândia/PR,-24.6176963,-53.3218057,6,32.50975
1,Cafelândia/SP,-21.8054355,-49.6030627,586,3284.20109
D1,Cafelândia/SP,-21.8054355,-49.6030627,23,128.90209
1,Cafezal do Sul/PR,-23.900508,-53.512418,148,3691.69369
D1,Cafezal do Sul/PR,-23.900508,-53.512418,1,24.94388
1,Caiabu/SP,-22.0143038,-51.2356597,56,1335.55927
D1,Caiabu/SP,-22.0143038,-51.2356597,4,95.39709
1,Caiana/MG,-20.695555,-41.924723,94,1696.44469
D1,Caiana/MG,-20.695555,-41.924723,2,36.09457
1,Caiapônia/GO,-16.9538779,-51.8090761,674,3527.50301
D1,Caiapônia/GO,-16.9538779,-51.8090761,17,88.97263
1,Caibaté/RS,-28.290475,-54.645407,104,2156.33423
D1,Caibaté/RS,-28.290475,-54.645407,4,82.93593
1,Caibi/SC,-27.0751925,-53.2502133,424,6916.80261
D1,Caibi/SC,-27.0751925,-53.2502133,5,81.56607
1,Caicó/RN,-6.4594544,-37.0971911,8176,11963.18570
D1,Caicó/RN,-6.4594544,-37.0971911,95,139.00473
1,Caieiras/SP,-23.3644621,-46.7484765,4941,4807.58939
D1,Caieiras/SP,-23.3644621,-46.7484765,144,140.11189
1,Cairu/BA,-13.4860505,-39.0455744,953,5171.75883
D1,Cairu/BA,-13.4860505,-39.0455744,9,48.84137
1,Caiuá/SP,-21.8319357,-51.9887179,179,3010.42718
D1,Caiuá/SP,-21.8319357,-51.9887179,3,50.45409
1,Caiçara do Norte/RN,-5.0645017,-36.0561226,212,3231.21475
D1,Caiçara do Norte/RN,-5.0645017,-36.0561226,4,60.96632
1,Caiçara do Rio do Vento/RN,-5.757968,-36.00089,148,3983.84926
D1,Caiçara do Rio do Vento/RN,-5.757968,-36.00089,5,134.58950
1,Caiçara/PB,-6.6146866,-35.4681434,525,7300.79266
D1,Caiçara/PB,-6.6146866,-35.4681434,10,139.06272
1,Caiçara/RS,-27.2750478,-53.4310053,346,7361.70213
D1,Caiçara/RS,-27.2750478,-53.4310053,5,106.38298
1,Cajamar/SP,-23.3561111,-46.8769444,2454,3148.81823
D1,Cajamar/SP,-23.3561111,-46.8769444,101,129.59684
1,Cajapió/MA,-2.8778715,-44.6746871,63,561.69757
D1,Cajapió/MA,-2.8778715,-44.6746871,3,26.74750
1,Cajari/MA,-3.3213076,-45.0118757,132,678.62835
D1,Cajari/MA,-3.3213076,-45.0118757,4,20.56450
1,Cajati/SP,-24.7272376,-48.1077914,2643,9275.63698
D1,Cajati/SP,-24.7272376,-48.1077914,56,196.53260
1,Cajazeiras do Piauí/PI,-6.794271,-42.3935024,28,783.65519
D1,Cajazeiras do Piauí/PI,-6.794271,-42.3935024,1,27.98769
1,Cajazeiras/PB,-6.8897849,-38.5570389,5421,8702.98126
D1,Cajazeiras/PB,-6.8897849,-38.5570389,96,154.12031
1,Cajazeirinhas/PB,-6.961442,-37.7993733,103,3213.72855
1,Cajobi/SP,-20.8776238,-48.8106972,511,4822.57456
D1,Cajobi/SP,-20.8776238,-48.8106972,16,151.00038
1,Cajueiro da Praia/PI,-2.931114,-41.340801,452,5890.01824
D1,Cajueiro da Praia/PI,-2.931114,-41.340801,12,156.37217
1,Cajueiro/AL,-9.399589,-36.1524309,449,2104.91773
D1,Cajueiro/AL,-9.399589,-36.1524309,18,84.38423
1,Cajuri/MG,-20.7901414,-42.7954489,198,4982.38551
D1,Cajuri/MG,-20.7901414,-42.7954489,1,25.16356
1,Cajuru/SP,-21.2759978,-47.3046035,555,2102.83030
D1,Cajuru/SP,-21.2759978,-47.3046035,18,68.19990
1,Caldas Brandão/PB,-7.1027959,-35.3254676,394,6516.70526
D1,Caldas Brandão/PB,-7.1027959,-35.3254676,6,99.23917
1,Caldas Novas/GO,-17.745,-48.625,5751,6170.86570
D1,Caldas Novas/GO,-17.745,-48.625,106,113.73879
1,Caldas/MG,-21.923611,-46.386111,428,2943.40142
D1,Caldas/MG,-21.923611,-46.386111,13,89.40238
1,Caldazinha/GO,-16.7116649,-49.0012601,167,4339.91684
D1,Caldazinha/GO,-16.7116649,-49.0012601,2,51.97505
1,Caldeirão Grande do Piauí/PI,-7.3310393,-40.6374433,219,3788.27193
D1,Caldeirão Grande do Piauí/PI,-7.3310393,-40.6374433,2,34.59609
1,Caldeirão Grande/BA,-11.0208483,-40.3041387,531,3965.34986
D1,Caldeirão Grande/BA,-11.0208483,-40.3041387,6,44.80621
1,Califórnia/PR,-23.6672543,-51.3554556,572,6646.52568
D1,Califórnia/PR,-23.6672543,-51.3554556,9,104.57820
1,Calmon/SC,-26.6023644,-51.0992893,20,599.70015
D1,Calmon/SC,-26.6023644,-51.0992893,2,59.97001
1,Calumbi/PE,-7.9389746,-38.1516871,372,6472.94240
D1,Calumbi/PE,-7.9389746,-38.1516871,2,34.80077
1,Calçado/PE,-8.7413446,-36.3351787,267,2423.30732
D1,Calçado/PE,-8.7413446,-36.3351787,2,18.15211
1,Calçoene/AP,2.4981757,-50.9539503,1551,13718.37962
D1,Calçoene/AP,2.4981757,-50.9539503,9,79.60375
1,Camacan/BA,-15.4166631,-39.4930088,2105,6576.89183
D1,Camacan/BA,-15.4166631,-39.4930088,49,153.09629
1,Camacho/MG,-20.625556,-45.156667,49,1707.91216
D1,Camacho/MG,-20.625556,-45.156667,1,34.85535
1,Camalaú/PB,-7.885031,-36.824191,266,4410.54551
D1,Camalaú/PB,-7.885031,-36.824191,5,82.90499
1,Camamu/BA,-13.9438142,-39.1060917,1759,4971.45441
D1,Camamu/BA,-13.9438142,-39.1060917,34,96.09406
1,Camanducaia/MG,-22.755278,-46.144444,2010,9219.76056
D1,Camanducaia/MG,-22.755278,-46.144444,26,119.26058
1,Camapuã/MS,-19.5291747,-54.0434641,437,3191.41167
D1,Camapuã/MS,-19.5291747,-54.0434641,8,58.42401
1,Camaquã/RS,-30.8524752,-51.8075619,3713,5585.30642
D1,Camaquã/RS,-30.8524752,-51.8075619,66,99.28097
1,Camaragibe/PE,-8.0213832,-34.9810768,3542,2229.08892
D1,Camaragibe/PE,-8.0213832,-34.9810768,249,156.70331
1,Camargo/RS,-28.5865661,-52.2031474,254,9263.31145
D1,Camargo/RS,-28.5865661,-52.2031474,2,72.93946
1,Camaçari/BA,-12.6998188,-38.3260762,16564,5443.27674
D1,Camaçari/BA,-12.6998188,-38.3260762,315,103.51559
1,Cambará do Sul/RS,-29.0489517,-50.145412,276,4308.46082
D1,Cambará do Sul/RS,-29.0489517,-50.145412,3,46.83110
1,Cambará/PR,-23.042273,-50.075281,1199,4708.23844
D1,Cambará/PR,-23.042273,-50.075281,13,51.04846
1,Cambira/PR,-23.600265,-51.581045,429,5418.71921
D1,Cambira/PR,-23.600265,-51.581045,10,126.31047
1,Camboriú/SC,-27.0273601,-48.6535657,9614,11296.63357
D1,Camboriú/SC,-27.0273601,-48.6535657,109,128.07708
1,Cambuci/RJ,-21.5749919,-41.9107833,504,3248.67861
D1,Cambuci/RJ,-21.5749919,-41.9107833,10,64.45791
1,Cambuquira/MG,-21.853056,-45.2953619,218,1701.52982
D1,Cambuquira/MG,-21.853056,-45.2953619,7,54.63628
1,Cambuí/MG,-22.6122501,-46.0572137,1559,5229.08701
D1,Cambuí/MG,-22.6122501,-46.0572137,22,73.79084
1,Cambé/PR,-23.2782035,-51.2779583,7635,7112.84598
D1,Cambé/PR,-23.2782035,-51.2779583,115,107.13520
1,Cametá/PA,-2.242949,-49.497885,6120,4391.37797
D1,Cametá/PA,-2.242949,-49.497885,142,101.89145
1,Camocim de São Félix/PE,-8.3616757,-35.7638903,356,1883.59788
D1,Camocim de São Félix/PE,-8.3616757,-35.7638903,11,58.20106
1,Camocim/CE,-2.9009918,-40.8427389,3101,4852.36359
D1,Camocim/CE,-2.9009918,-40.8427389,95,148.65351
1,Campanha/MG,-21.8361108,-45.401986,842,5023.26691
D1,Campanha/MG,-21.8361108,-45.401986,17,101.41988
1,Campanário/MG,-18.2398144,-41.7271768,99,2654.15550
D1,Campanário/MG,-18.2398144,-41.7271768,1,26.80965
1,Campestre da Serra/RS,-28.7966535,-51.0958149,121,3564.06480
1,Campestre de Goiás/GO,-16.7624179,-49.69497,314,8605.09729
D1,Campestre de Goiás/GO,-16.7624179,-49.69497,5,137.02384
1,Campestre do Maranhão/MA,-6.1729113,-47.3640512,739,5113.12530
D1,Campestre do Maranhão/MA,-6.1729113,-47.3640512,24,166.05549
1,Campestre/AL,-8.8481634,-35.5660033,153,2200.17256
D1,Campestre/AL,-8.8481634,-35.5660033,5,71.90106
1,Campestre/MG,-19.6142116,-43.219378,628,2982.80612
D1,Campestre/MG,-19.6142116,-43.219378,7,33.24784
1,Campina Grande do Sul/PR,-25.3046032,-49.0545355,3588,8213.34554
D1,Campina Grande do Sul/PR,-25.3046032,-49.0545355,58,132.76868
1,Campina Grande/PB,-7.2246743,-35.8771292,22188,5387.96087
D1,Campina Grande/PB,-7.2246743,-35.8771292,616,149.58464
1,Campina Verde/MG,-19.535277,-49.486389,434,2197.24585
D1,Campina Verde/MG,-19.535277,-49.486389,16,81.00446
1,Campina da Lagoa/PR,-24.5937926,-52.8038965,538,3831.09022
D1,Campina da Lagoa/PR,-24.5937926,-52.8038965,10,71.20986
1,Campina das Missões/RS,-27.9883295,-54.8411665,323,5983.69767
D1,Campina das Missões/RS,-27.9883295,-54.8411665,6,111.15228
1,Campina do Monte Alegre/SP,-23.5935653,-48.4801876,251,4143.96566
D1,Campina do Monte Alegre/SP,-23.5935653,-48.4801876,1,16.50982
1,Campina do Simão/PR,-25.1086375,-51.8076658,93,2409.95076
D1,Campina do Simão/PR,-25.1086375,-51.8076658,2,51.82690
1,Campinas do Piauí/PI,-7.6593687,-41.8814875,125,2224.19929
D1,Campinas do Piauí/PI,-7.6593687,-41.8814875,1,17.79359
1,Campinas do Sul/RS,-27.7167968,-52.6257885,342,6289.07687
D1,Campinas do Sul/RS,-27.7167968,-52.6257885,5,91.94557
1,Campinas/SP,-22.90556,-47.06083,62572,5155.08423
D1,Campinas/SP,-22.90556,-47.06083,2042,168.23311
1,Campinaçu/GO,-13.7869969,-48.5703841,161,4432.81938
1,Campinorte/GO,-14.3136699,-49.1510931,837,6557.50548
D1,Campinorte/GO,-14.3136699,-49.1510931,16,125.35255
