type,name,lat,lon,total,total_per_100k_inhabitants
1,Abadia de Goiás/GO,-16.7572644,-49.4412205,135,1538.81226
D1,Abadia de Goiás/GO,-16.7572644,-49.4412205,1,11.39861
1,Abadia dos Dourados/MG,-18.4911191,-47.4063589,15,214.62298
1,Abadiânia/GO,-16.1940946,-48.7067767,77,384.19319
D1,Abadiânia/GO,-16.1940946,-48.7067767,7,34.92665
1,Abaetetuba/PA,-1.721828,-48.878843,2566,1627.16078
D1,Abaetetuba/PA,-1.721828,-48.878843,109,69.11946
1,Abaeté/MG,-19.1566833,-45.4481213,26,111.89052
1,Abaiara/CE,-7.3607808,-39.0487878,47,400.44304
D1,Abaiara/CE,-7.3607808,-39.0487878,2,17.04013
1,Abaré/BA,-8.7239913,-39.1139689,33,164.29354
1,Abatiá/PR,-23.3052967,-50.3102532,56,750.97224
1,Abaíra/BA,-13.2503296,-41.6640342,6,68.65774
1,Abdon Batista/SC,-27.612419,-51.022992,65,2536.09052
1,Abel Figueiredo/PA,-4.953001,-48.3958485,131,1762.17380
D1,Abel Figueiredo/PA,-4.953001,-48.3958485,1,13.45171
1,Abelardo Luz/SC,-26.5705893,-52.3280339,110,614.38785
D1,Abelardo Luz/SC,-26.5705893,-52.3280339,3,16.75603
1,Abre Campo/MG,-20.2976097,-42.4764741,17,126.35647
1,Abreu e Lima/PE,-7.900719,-34.898389,592,592.05921
D1,Abreu e Lima/PE,-7.900719,-34.898389,77,77.00770
1,Abreulândia/TO,-9.6221526,-49.1558343,9,348.97247
D1,Abreulândia/TO,-9.6221526,-49.1558343,2,77.54944
1,Acaiaca/MG,-20.3621646,-43.1444162,12,300.45068
D1,Acaiaca/MG,-20.3621646,-43.1444162,1,25.03756
1,Acajutiba/BA,-11.6609659,-38.0186381,57,376.01425
D1,Acajutiba/BA,-11.6609659,-38.0186381,2,13.19348
1,Acarape/CE,-4.2237866,-38.7071663,966,6470.62764
D1,Acarape/CE,-4.2237866,-38.7071663,14,93.77721
1,Acaraú/CE,-2.8869514,-40.1194713,2290,3655.75262
D1,Acaraú/CE,-2.8869514,-40.1194713,52,83.01272
1,Acari/RN,-6.4364689,-36.6394777,42,377.15517
D1,Acari/RN,-6.4364689,-36.6394777,3,26.93966
1,Acará/PA,-1.961388,-48.1987043,644,1158.46090
D1,Acará/PA,-1.961388,-48.1987043,13,23.38508
1,Acauã/PI,-8.219542,-41.083059,19,268.21005
1,Acopiara/CE,-6.0936464,-39.4543204,428,788.64935
D1,Acopiara/CE,-6.0936464,-39.4543204,22,40.53805
1,Acorizal/MT,-15.2001544,-56.3668953,60,1111.31691
D1,Acorizal/MT,-15.2001544,-56.3668953,1,18.52195
1,Acrelândia/AC,-10.0759167,-67.0526898,248,1625.58993
D1,Acrelândia/AC,-10.0759167,-67.0526898,4,26.21919
1,Acreúna/GO,-17.3959899,-50.3749031,151,675.13190
D1,Acreúna/GO,-17.3959899,-50.3749031,3,13.41322
1,Adamantina/SP,-21.6866517,-51.0762975,100,285.16026
D1,Adamantina/SP,-21.6866517,-51.0762975,6,17.10962
1,Adelândia/GO,-16.4155077,-50.1665834,39,1550.07949
1,Adolfo/SP,-21.2356597,-49.6441918,34,954.51993
D1,Adolfo/SP,-21.2356597,-49.6441918,3,84.22235
1,Adrianópolis/PR,-24.6557863,-48.9912769,90,1520.52712
D1,Adrianópolis/PR,-24.6557863,-48.9912769,2,33.78949
1,Adustina/BA,-10.5358875,-38.114479,55,322.76995
D1,Adustina/BA,-10.5358875,-38.114479,1,5.86854
1,Afogados da Ingazeira/PE,-7.750429,-37.6356375,169,453.58168
D1,Afogados da Ingazeira/PE,-7.750429,-37.6356375,5,13.41958
1,Afonso Bezerra/RN,-5.4745,-36.57625071327935,58,525.60036
D1,Afonso Bezerra/RN,-5.4745,-36.57625071327935,5,45.31038
1,Afonso Cláudio/ES,-20.077841,-41.12606,484,1582.42333
D1,Afonso Cláudio/ES,-20.077841,-41.12606,12,39.23364
1,Afonso Cunha/MA,-4.1326105,-43.3230026,128,1961.98651
D1,Afonso Cunha/MA,-4.1326105,-43.3230026,2,30.65604
1,Afrânio/PE,-8.5198919,-41.0070197,92,468.55106
D1,Afrânio/PE,-8.5198919,-41.0070197,1,5.09295
1,Afuá/PA,-0.1535664,-50.3879223,1281,3266.35728
D1,Afuá/PA,-0.1535664,-50.3879223,9,22.94865
1,Agrestina/PE,-8.4558021,-35.9442663,333,1338.15552
D1,Agrestina/PE,-8.4558021,-35.9442663,23,92.42516
1,Agricolândia/PI,-5.7967843,-42.6605131,18,350.26270
1,Agrolândia/SC,-27.4122212,-49.8295774,50,460.23564
D1,Agrolândia/SC,-27.4122212,-49.8295774,2,18.40943
1,Agronômica/SC,-27.2660744,-49.7104753,36,660.79295
D1,Agronômica/SC,-27.2660744,-49.7104753,2,36.71072
1,Aguanil/MG,-20.9424533,-45.3927152,17,378.95675
D1,Aguanil/MG,-20.9424533,-45.3927152,1,22.29157
1,Aguaí/SP,-22.0592036,-46.979384,118,325.02410
D1,Aguaí/SP,-22.0592036,-46.979384,4,11.01777
1,Agudo/RS,-29.6423259,-53.2494005,4,24.29986
1,Agudos do Sul/PR,-25.9890808,-49.3328175,49,522.88977
1,Agudos/SP,-22.471162,-48.987822,232,623.42129
D1,Agudos/SP,-22.471162,-48.987822,3,8.06148
1,Aguiar/PB,-7.0928404,-38.1727215,22,390.07092
1,Aguiarnópolis/TO,-6.5600452,-47.4721189,248,3683.35066
D1,Aguiarnópolis/TO,-6.5600452,-47.4721189,6,89.11332
1,Aimorés/MG,-19.4917754,-41.0615603,150,596.01860
D1,Aimorés/MG,-19.4917754,-41.0615603,1,3.97346
1,Aiquara/BA,-14.126918,-39.8887574,79,1776.87809
D1,Aiquara/BA,-14.126918,-39.8887574,3,67.47638
1,Aiuaba/CE,-6.5710836,-40.1212278,12,68.96948
D1,Aiuaba/CE,-6.5710836,-40.1212278,1,5.74746
1,Aiuruoca/MG,-21.9759554,-44.6036637,1,16.65834
1,Ajuricaba/RS,-28.239654,-53.7693013,4,56.94761
1,Alagoa Grande/PB,-7.0415212,-35.6285322,696,2442.44806
D1,Alagoa Grande/PB,-7.0415212,-35.6285322,16,56.14823
1,Alagoa Nova/PB,-7.0653703,-35.76695977336711,234,1122.35599
D1,Alagoa Nova/PB,-7.0653703,-35.76695977336711,6,28.77836
1,Alagoinha do Piauí/PI,-7.0090952,-40.939675,32,418.24598
1,Alagoinha/PB,-6.97063215,-35.51490901897793,650,4486.16192
D1,Alagoinha/PB,-6.97063215,-35.51490901897793,4,27.60715
1,Alagoinha/PE,-8.50355635,-36.77701174370496,95,649.08445
D1,Alagoinha/PE,-8.50355635,-36.77701174370496,2,13.66494
1,Alagoinhas/BA,-12.133526,-38.420772,1423,938.67912
D1,Alagoinhas/BA,-12.133526,-38.420772,27,17.81050
1,Alambari/SP,-23.550338,-47.897971,33,547.71784
1,Albertina/MG,-20.66164,-43.784039,2,66.51147
1,Alcantil/PB,-7.7425491,-36.0609604,31,564.45739
1,Alcinópolis/MS,-18.3264121,-53.7094463,4,74.86431
D1,Alcinópolis/MS,-18.3264121,-53.7094463,2,37.43215
1,Alcobaça/BA,-17.5215875,-39.1965474,200,890.07566
D1,Alcobaça/BA,-17.5215875,-39.1965474,2,8.90076
1,Alcântara/MA,-2.4038956,-44.4154241,38,171.96905
D1,Alcântara/MA,-2.4038956,-44.4154241,5,22.62751
1,Alcântaras/CE,-3.586247,-40.5457641,358,3056.17210
D1,Alcântaras/CE,-3.586247,-40.5457641,3,25.61038
1,Aldeias Altas/MA,-4.6291957,-43.4708622,387,1458.61601
1,Alecrim/RS,-27.6566142,-54.7653195,3,50.42017
1,Alegre/ES,-20.7625787,-41.5318886,225,747.90586
D1,Alegre/ES,-20.7625787,-41.5318886,12,39.88831
1,Alegrete do Piauí/PI,-7.2440138,-40.8602296,13,264.49644
1,Alegrete/RS,-29.790166,-55.794862,167,226.93609
D1,Alegrete/RS,-29.790166,-55.794862,9,12.23009
1,Alegria/RS,-27.8332103,-54.0574959,16,461.89376
1,Alenquer/PA,-1.946229,-54.738355,886,1560.16130
D1,Alenquer/PA,-1.946229,-54.738355,27,47.54442
1,Alexandria/RN,-6.414779,-38.0135516,26,191.50033
D1,Alexandria/RN,-6.414779,-38.0135516,3,22.09619
1,Alexânia/GO,-16.0834049,-48.5077803,203,734.09757
D1,Alexânia/GO,-16.0834049,-48.5077803,6,21.69747
1,Alfenas/MG,-21.4297405,-45.9479419,160,200.01000
D1,Alfenas/MG,-21.4297405,-45.9479419,10,12.50063
1,Alfredo Chaves/ES,-20.624970400000002,-40.75006690147988,227,1554.68804
D1,Alfredo Chaves/ES,-20.624970400000002,-40.75006690147988,4,27.39538
1,Alfredo Marcondes/SP,-21.9527,-51.413956,23,552.08833
D1,Alfredo Marcondes/SP,-21.9527,-51.413956,1,24.00384
1,Alfredo Vasconcelos/MG,-21.145833,-43.776389,11,159.25872
D1,Alfredo Vasconcelos/MG,-21.145833,-43.776389,1,14.47807
1,Alfredo Wagner/SC,-27.6961513,-49.3326734,23,229.17497
1,Algodão de Jandaíra/PB,-6.9040175,-36.0089879,4,155.82392
1,Alhandra/PB,-7.4304246,-34.9106103,499,2547.47805
D1,Alhandra/PB,-7.4304246,-34.9106103,14,71.47233
1,Aliança do Tocantins/TO,-11.3055927,-48.9409096,16,296.84601
1,Aliança/PE,-7.60398,-35.222696,295,768.50935
D1,Aliança/PE,-7.60398,-35.222696,25,65.12791
1,Almadina/BA,-14.70466,-39.6381994,141,2580.52709
D1,Almadina/BA,-14.70466,-39.6381994,1,18.30161
1,Almas/TO,-11.5681309,-47.1702803,15,212.61517
D1,Almas/TO,-11.5681309,-47.1702803,2,28.34869
1,Almeirim/PA,-1.5290377,-52.5788111,192,562.90129
D1,Almeirim/PA,-1.5290377,-52.5788111,18,52.77200
1,Almenara/MG,-16.1740678,-40.6904907,386,921.32901
D1,Almenara/MG,-16.1740678,-40.6904907,4,9.54745
1,Almino Afonso/RN,-6.1544208,-37.7649018,17,359.02851
1,Almirante Tamandaré do Sul/RS,-28.1141129,-52.9134874,1,50.91650
1,Almirante Tamandaré/PR,-25.3133048,-49.2997838,571,481.35690
D1,Almirante Tamandaré/PR,-25.3133048,-49.2997838,8,6.74405
1,Aloândia/GO,-17.7277983,-49.4809338,4,200.50125
1,Alpercata/MG,-18.9803616,-41.9827637,142,1912.71552
1,Alpestre/RS,-27.2512339,-53.0349646,21,335.57047
1,Alpinópolis/MG,-20.863611,-46.387777,23,115.85151
D1,Alpinópolis/MG,-20.863611,-46.387777,3,15.11107
1,Alta Floresta D'Oeste/RO,-11.9296917,-61.9961284,225,980.60580
D1,Alta Floresta D'Oeste/RO,-11.9296917,-61.9961284,1,4.35825
1,Alta Floresta/MT,-9.8715018,-56.0839881,227,438.37627
D1,Alta Floresta/MT,-9.8715018,-56.0839881,6,11.58704
1,Altair/SP,-20.5238955,-49.0606135,7,168.26923
D1,Altair/SP,-20.5238955,-49.0606135,1,24.03846
1,Altamira do Maranhão/MA,-4.1643006,-45.4674574,219,2694.38976
D1,Altamira do Maranhão/MA,-4.1643006,-45.4674574,5,61.51575
1,Altamira do Paraná/PR,-24.799114,-52.7128633,1,51.49331
1,Altamira/PA,-3.204065,-52.209961,2918,2546.38114
D1,Altamira/PA,-3.204065,-52.209961,83,72.42962
1,Altaneira/CE,-6.9980933,-39.7385742,3,39.54653
1,Alterosa/MG,-21.249166,-46.143055,12,82.95313
1,Altinho/PE,-8.4904095,-36.0607494,315,1371.23455
D1,Altinho/PE,-8.4904095,-36.0607494,5,21.76563
1,Altinópolis/SP,-21.021364,-47.3712,86,531.38903
D1,Altinópolis/SP,-21.021364,-47.3712,3,18.53683
1,Alto Alegre do Maranhão/MA,-4.2055693,-44.4525287,322,1190.25616
D1,Alto Alegre do Maranhão/MA,-4.2055693,-44.4525287,11,40.66092
1,Alto Alegre do Pindaré/MA,-3.6698186,-45.8462153,1187,3718.78818
D1,Alto Alegre do Pindaré/MA,-3.6698186,-45.8462153,3,9.39879
1,Alto Alegre dos Parecis/RO,-12.1314515,-61.856265,73,551.31788
D1,Alto Alegre dos Parecis/RO,-12.1314515,-61.856265,2,15.10460
1,Alto Alegre/RR,2.98858,-61.307167,362,2333.97808
D1,Alto Alegre/RR,2.98858,-61.307167,7,45.13217
1,Alto Alegre/SP,-21.5820592,-50.1661976,13,317.15052
D1,Alto Alegre/SP,-21.5820592,-50.1661976,1,24.39619
1,Alto Araguaia/MT,-17.3156528,-53.2169365,66,346.56585
D1,Alto Araguaia/MT,-17.3156528,-53.2169365,3,15.75299
1,Alto Bela Vista/SC,-27.4320737,-51.905771,6,309.75736
1,Alto Boa Vista/MT,-11.6723985,-51.3744431,38,557.02140
D1,Alto Boa Vista/MT,-11.6723985,-51.3744431,2,29.31692
1,Alto Caparaó/MG,-20.4405661,-41.8683799,9,153.92509
1,Alto Feliz/RS,-29.3785943,-51.3123751,10,330.25099
1,Alto Garças/MT,-16.9469683,-53.529427,95,789.69244
1,Alto Horizonte/GO,-14.1954948,-49.3366993,34,530.09043
1,Alto Jequitibá/MG,-20.423611,-41.966111,32,384.75412
D1,Alto Jequitibá/MG,-20.423611,-41.966111,2,24.04713
1,Alto Longá/PI,-5.2549051,-42.2072388,57,398.48993
D1,Alto Longá/PI,-5.2549051,-42.2072388,2,13.98210
1,Alto Paraguai/MT,-14.513712,-56.4936374,36,317.01303
1,Alto Paraná/PR,-23.131247,-52.318893,21,142.18009
1,Alto Paraíso de Goiás/GO,-14.1304779,-47.5100161,64,839.45435
1,Alto Paraíso/PR,-23.508137,-53.728537,1,36.48304
1,Alto Paraíso/RO,-9.7240103,-63.3188123,137,639.35038
D1,Alto Paraíso/RO,-9.7240103,-63.3188123,4,18.66716
1,Alto Parnaíba/MA,-9.112506,-45.9310154,96,857.90885
D1,Alto Parnaíba/MA,-9.112506,-45.9310154,1,8.93655
1,Alto Piquiri/PR,-24.0239021,-53.4417448,47,477.83652
D1,Alto Piquiri/PR,-24.0239021,-53.4417448,2,20.33347
1,Alto Rio Doce/MG,-21.0239537,-43.4133507,57,518.18182
D1,Alto Rio Doce/MG,-21.0239537,-43.4133507,1,9.09091
1,Alto Rio Novo/ES,-19.0577208,-41.0171518,105,1339.96937
D1,Alto Rio Novo/ES,-19.0577208,-41.0171518,6,76.56968
1,Alto Santo/CE,-5.5190371,-38.2719351,167,973.98810
D1,Alto Santo/CE,-5.5190371,-38.2719351,4,23.32906
1,Alto Taquari/MT,-17.8269099,-53.2831736,12,110.62967
D1,Alto Taquari/MT,-17.8269099,-53.2831736,1,9.21914
1,Alto do Rodrigues/RN,-5.290868,-36.7616726,237,1631.22032
D1,Alto do Rodrigues/RN,-5.290868,-36.7616726,11,75.71065
1,Altos/PI,-5.0393915,-42.4611694,786,1939.59135
D1,Altos/PI,-5.0393915,-42.4611694,10,24.67673
1,Altônia/PR,-23.8722004,-53.894037,28,126.94958
1,Alumínio/SP,-23.5203479,-47.2575256,82,440.19755
D1,Alumínio/SP,-23.5203479,-47.2575256,4,21.47305
1,Alvarenga/MG,-19.4175,-41.728334,111,2841.05452
D1,Alvarenga/MG,-19.4175,-41.728334,1,25.59509
1,Alvarães/AM,-3.214786,-64.8143124,1112,6932.23614
D1,Alvarães/AM,-3.214786,-64.8143124,13,81.04233
1,Alvinlândia/SP,-22.4431852,-49.7643596,9,279.32961
1,Alvinópolis/MG,-20.1105199,-43.0601805,16,105.24239
1,Alvorada D'Oeste/RO,-11.346271,-62.284697,42,291.44404
D1,Alvorada D'Oeste/RO,-11.346271,-62.284697,1,6.93914
1,Alvorada de Minas/MG,-18.7318587,-43.3641479,37,1026.06767
D1,Alvorada de Minas/MG,-18.7318587,-43.3641479,1,27.73156
1,Alvorada do Gurguéia/PI,-8.4465288,-43.8655915,35,645.87562
D1,Alvorada do Gurguéia/PI,-8.4465288,-43.8655915,2,36.90718
1,Alvorada do Norte/GO,-14.483911,-46.4959897,56,646.65127
1,Alvorada do Sul/PR,-22.7807269,-51.2307721,17,149.04436
D1,Alvorada do Sul/PR,-22.7807269,-51.2307721,2,17.53463
1,Alvorada/RS,-29.9981184,-51.0772509,1176,559.18785
D1,Alvorada/RS,-29.9981184,-51.0772509,36,17.11800
1,Alvorada/TO,-12.478465,-49.124926,43,511.17451
D1,Alvorada/TO,-12.478465,-49.124926,1,11.88778
1,Além Paraíba/MG,-21.8760576,-42.6810473,243,687.17833
D1,Além Paraíba/MG,-21.8760576,-42.6810473,9,25.45105
1,Amajari/RR,3.6523869,-61.4194315,238,1859.95624
D1,Amajari/RR,3.6523869,-61.4194315,3,23.44483
1,Amambai/MS,-23.1082701,-55.2284854,69,175.14468
D1,Amambai/MS,-23.1082701,-55.2284854,2,5.07666
1,Amaporã/PR,-23.094272,-52.786597,23,367.58830
1,Amapá do Maranhão/MA,-1.6762114,-46.0109669,3,43.09107
1,Amapá/AP,2.0529997,-50.7930003,383,4204.63278
D1,Amapá/AP,2.0529997,-50.7930003,4,43.91261
1,Amaraji/PE,-8.373925,-35.4536527,125,547.54917
D1,Amaraji/PE,-8.373925,-35.4536527,22,96.36865
1,Amaralina/GO,-13.9236199,-49.2962411,3,78.69885
1,Amarante do Maranhão/MA,-5.56913,-46.747284,685,1653.19175
D1,Amarante do Maranhão/MA,-5.56913,-46.747284,11,26.54760
1,Amarante/PI,-6.2459374,-42.8476238,72,409.13740
D1,Amarante/PI,-6.2459374,-42.8476238,2,11.36493
1,Amargosa/BA,-13.03793715,-39.60796443875596,165,443.06007
D1,Amargosa/BA,-13.03793715,-39.60796443875596,6,16.11128
1,Amaturá/AM,-3.3640509,-68.1994689,491,4256.24133
D1,Amaturá/AM,-3.3640509,-68.1994689,8,69.34813
1,Americana/SP,-22.7392463,-47.3306032,1567,654.01487
D1,Americana/SP,-22.7392463,-47.3306032,61,25.45942
1,Americano do Brasil/GO,-16.2515808,-49.9806104,80,1309.11471
D1,Americano do Brasil/GO,-16.2515808,-49.9806104,1,16.36393
1,Ametista do Sul/RS,-27.3617341,-53.1826575,30,404.91294
1,Amontada/CE,-3.3634586,-39.8284791,714,1643.19249
D1,Amontada/CE,-3.3634586,-39.8284791,16,36.82224
1,Amorinópolis/GO,-16.6211308,-51.0949921,10,319.89763
1,Amparo de São Francisco/SE,-10.1299754,-36.9269099,39,1642.79697
1,Amparo do Serra/MG,-20.5070255,-42.8028462,3,63.65372
1,Amparo/PB,-7.56394725,-37.04652873235175,14,625.55853
1,Amparo/SP,-22.70111,-46.76444,315,436.31830
D1,Amparo/SP,-22.70111,-46.76444,11,15.23651
1,Ampére/PR,-25.9168712,-53.4742414,22,114.87051
D1,Ampére/PR,-25.9168712,-53.4742414,1,5.22139
1,Amélia Rodrigues/BA,-12.4015388,-38.7516971,193,768.86304
D1,Amélia Rodrigues/BA,-12.4015388,-38.7516971,1,3.98375
1,América Dourada/BA,-11.4515262,-41.4357517,83,515.72014
1,Américo Brasiliense/SP,-21.7297099,-48.1052092,203,501.18507
D1,Américo Brasiliense/SP,-21.7297099,-48.1052092,2,4.93778
1,Américo de Campos/SP,-20.298476,-49.735904,90,1507.79025
D1,Américo de Campos/SP,-20.298476,-49.735904,1,16.75322
1,Anadia/AL,-9.6830208,-36.3052699,331,1886.57737
D1,Anadia/AL,-9.6830208,-36.3052699,5,28.49815
1,Anagé/BA,-14.6134669,-41.1376308,55,249.94319
D1,Anagé/BA,-14.6134669,-41.1376308,1,4.54442
1,Anahy/PR,-24.6450861,-53.1337957,21,749.73224
1,Anajatuba/MA,-3.26441,-44.6179916,286,1067.04473
D1,Anajatuba/MA,-3.26441,-44.6179916,6,22.38555
1,Anajás/PA,-0.9878802,-49.9390114,446,1523.38013
D1,Anajás/PA,-0.9878802,-49.9390114,11,37.57216
1,Analândia/SP,-22.128917,-47.661939,18,360.36036
1,Anamã/AM,-3.5797356,-61.4049996,419,3077.71412
1,Ananindeua/PA,-1.374035,-48.4016623,5591,1053.71675
D1,Ananindeua/PA,-1.374035,-48.4016623,343,64.64404
1,Ananás/TO,-6.3663053,-48.080238,83,869.20096
D1,Ananás/TO,-6.3663053,-48.080238,2,20.94460
1,Anapu/PA,-3.4668292,-51.2057035,571,2047.32879
D1,Anapu/PA,-3.4668292,-51.2057035,9,32.26963
1,Anapurus/MA,-3.6751298,-43.1046001,645,4099.92372
D1,Anapurus/MA,-3.6751298,-43.1046001,6,38.13883
1,Anastácio/MS,-20.4832458,-55.8048448,21,83.54884
D1,Anastácio/MS,-20.4832458,-55.8048448,3,11.93555
1,Anaurilândia/MS,-22.185169,-52.719056,22,243.49751
1,Anchieta/ES,-20.8057672,-40.6454564,529,1807.74357
D1,Anchieta/ES,-20.8057672,-40.6454564,15,51.25927
1,Anchieta/SC,-26.5350527,-53.3293938,18,319.26215
1,Andaraí/BA,-12.8059674,-41.3322919,13,98.91197
1,Andirá/PR,-23.0494761,-50.2310027,76,379.41191
D1,Andirá/PR,-23.0494761,-50.2310027,1,4.99226
1,Andorinha/BA,-10.3445708,-39.8334411,28,191.84652
D1,Andorinha/BA,-10.3445708,-39.8334411,1,6.85166
1,Andradas/MG,-22.0680484,-46.5688976,58,141.19824
D1,Andradas/MG,-22.0680484,-46.5688976,1,2.43445
1,Andradina/SP,-20.896505,-51.3742765,116,202.94977
D1,Andradina/SP,-20.896505,-51.3742765,6,10.49740
1,Andrelândia/MG,-21.739722,-44.308889,22,179.97382
1,André da Rocha/RS,-28.6309124,-51.5733328,4,300.07502
1,Angatuba/SP,-23.4938938,-48.4110675,117,463.77041
D1,Angatuba/SP,-23.4938938,-48.4110675,2,7.92770
1,Angelim/PE,-8.8902038,-36.2872987,30,269.05830
D1,Angelim/PE,-8.8902038,-36.2872987,1,8.96861
1,Angelina/SC,-27.5805287,-48.9838759,38,791.50177
1,Angical do Piauí/PI,-6.0872666,-42.7366138,52,766.05775
D1,Angical do Piauí/PI,-6.0872666,-42.7366138,2,29.46376
1,Angical/BA,-12.005623,-44.7000236,13,93.00994
1,Angico/TO,-6.3893733,-47.8656722,16,466.06467
1,Angicos/RN,-5.6666344,-36.6009064,84,717.09066
D1,Angicos/RN,-5.6666344,-36.6009064,3,25.61038
1,Angra dos Reis/RJ,-23.0063966,-44.316326,3524,1729.27350
D1,Angra dos Reis/RJ,-23.0063966,-44.316326,109,53.48774
1,Anguera/BA,-12.1509425,-39.2452469,42,374.29819
1,Angélica/MS,-22.1588196,-53.7728504,25,231.91095
D1,Angélica/MS,-22.1588196,-53.7728504,1,9.27644
1,Anhanguera/GO,-18.3338749,-48.220363,12,1044.38642
D1,Anhanguera/GO,-18.3338749,-48.220363,2,174.06440
1,Anhembi/SP,-22.7891096,-48.1316776,4,59.48840
1,Anhumas/SP,-22.2956478,-51.3873401,13,315.91738
1,Anicuns/GO,-16.4606451,-49.9572265,224,1025.17162
1,Anita Garibaldi/SC,-27.6855032,-51.1293873,71,995.37362
1,Anitápolis/SC,-27.9041185,-49.1287395,11,340.34653
1,Anori/AM,-3.7435254,-61.6605203,709,3374.58353
D1,Anori/AM,-3.7435254,-61.6605203,11,52.35602
1,Anta Gorda/RS,-28.9718745,-52.0069187,16,267.51379
1,Antas/BA,-10.4114649,-38.3308815,50,259.18822
1,Antonina do Norte/CE,-6.7754187,-39.9879345,12,163.19869
1,Antonina/PR,-25.4298854,-48.7125431,80,421.49631
D1,Antonina/PR,-25.4298854,-48.7125431,1,5.26870
1,Antônio Almeida/PI,-7.2186016,-44.1950248,72,2275.60051
D1,Antônio Almeida/PI,-7.2186016,-44.1950248,1,31.60556
1,Antônio Cardoso/BA,-12.4363122,-39.1200307,27,231.10502
1,Antônio Carlos/MG,-21.318334,-43.746666,20,174.74880
1,Antônio Carlos/SC,-27.5168462,-48.7684715,133,1562.31646
D1,Antônio Carlos/SC,-27.5168462,-48.7684715,8,93.97392
1,Antônio Dias/MG,-19.6525,-42.872778,47,504.40009
D1,Antônio Dias/MG,-19.6525,-42.872778,1,10.73192
1,Antônio Gonçalves/BA,-10.5715409,-40.2748824,74,627.22495
D1,Antônio Gonçalves/BA,-10.5715409,-40.2748824,1,8.47601
1,Antônio João/MS,-22.1892837,-55.9508227,28,312.63957
1,Antônio Martins/RN,-6.2155812,-37.8890129,3,41.98740
D1,Antônio Martins/RN,-6.2155812,-37.8890129,1,13.99580
1,Antônio Olinto/PR,-25.9849006,-50.1974516,9,121.06538
1,Antônio Prado/RS,-28.8567806,-51.2801355,30,229.88506
D1,Antônio Prado/RS,-28.8567806,-51.2801355,1,7.66284
1,Anápolis/GO,-16.3332828,-48.9525756,2117,547.13729
D1,Anápolis/GO,-16.3332828,-48.9525756,55,14.21471
1,Anísio de Abreu/PI,-9.185643,-43.04941,82,829.95951
1,Aparecida d'Oeste/SP,-20.4498109,-50.8808706,13,309.81888
1,Aparecida de Goiânia/GO,-16.8226769,-49.2452546,6900,1193.40204
D1,Aparecida de Goiânia/GO,-16.8226769,-49.2452546,125,21.61960
1,Aparecida do Rio Doce/GO,-18.2980167,-51.1491312,27,1091.35004
D1,Aparecida do Rio Doce/GO,-18.2980167,-51.1491312,2,80.84074
1,Aparecida do Rio Negro/TO,-9.9513491,-47.9773786,7,145.98540
1,Aparecida do Taboado/MS,-20.0840304,-51.1013943,110,427.26743
D1,Aparecida do Taboado/MS,-20.0840304,-51.1013943,2,7.76850
1,Aparecida/PB,-6.7859598, -38.0831353,50,599.01761
D1,Aparecida/PB,-6.7859598, -38.0831353,1,11.98035
1,Aparecida/SP,-22.851552,-45.2340924,79,218.49158
1,Aperibé/RJ,-21.6211928,-42.1028167,119,1011.99082
D1,Aperibé/RJ,-21.6211928,-42.1028167,4,34.01650
1,Apiacá/ES,-21.152272,-41.569297,85,1123.29853
D1,Apiacá/ES,-21.152272,-41.569297,2,26.43055
1,Apiacás/MT,-9.5678422,-57.394852,4,39.47498
D1,Apiacás/MT,-9.5678422,-57.394852,1,9.86875
1,Apiaí/SP,-24.5076527,-48.8461582,63,258.47214
D1,Apiaí/SP,-24.5076527,-48.8461582,3,12.30820
1,Apicum-Açu/MA,-1.5279295,-45.082278,197,1142.75770
D1,Apicum-Açu/MA,-1.5279295,-45.082278,3,17.40240
1,Apiúna/SC,-27.0374658,-49.3885037,24,223.40128
1,Apodi/RN,-5.6631109,-37.796927,1097,3060.39894
D1,Apodi/RN,-5.6631109,-37.796927,18,50.21621
1,Aporá/BA,-11.6599747,-38.0794757,54,304.55135
D1,Aporá/BA,-11.6599747,-38.0794757,2,11.27968
1,Apuarema/BA,-13.8517897,-39.7457126,153,2087.31241
1,Apucarana/PR,-23.5525327,-51.4610764,282,208.89508
D1,Apucarana/PR,-23.5525327,-51.4610764,12,8.88915
1,Apuiarés/CE,-3.9460303,-39.4313298,176,1205.47945
D1,Apuiarés/CE,-3.9460303,-39.4313298,11,75.34247
1,Apuí/AM,-7.1940195,-59.8830192,98,446.00191
1,Aquidabã/SE,-10.2837579,-37.0188687,315,1460.83569
D1,Aquidabã/SE,-10.2837579,-37.0188687,7,32.46302
1,Aquidauana/MS,-20.473969,-55.7821375,118,246.49579
D1,Aquidauana/MS,-20.473969,-55.7821375,5,10.44474
1,Aquiraz/CE,-3.9063117,-38.387504,801,997.86972
D1,Aquiraz/CE,-3.9063117,-38.387504,25,31.14450
1,Arabutã/SC,-27.1587028,-52.1438142,44,1031.16944
1,Aracaju/SE,-10.9162061,-37.0774655,25489,3879.52750
D1,Aracaju/SE,-10.9162061,-37.0774655,500,76.10199
1,Aracati/CE,-4.558259,-37.767894,1215,1629.84426
D1,Aracati/CE,-4.558259,-37.767894,46,61.70604
1,Aracatu/BA,-14.4274236,-41.4604105,21,159.87819
1,Araci/BA,-11.3356065,-38.9573261,581,1068.42715
D1,Araci/BA,-11.3356065,-38.9573261,4,7.35578
1,Aracoiaba/CE,-4.3702577,-38.8084313,612,2312.13873
D1,Aracoiaba/CE,-4.3702577,-38.8084313,11,41.55805
1,Aracruz/ES,-19.8245218,-40.2735025,2000,1975.89409
D1,Aracruz/ES,-19.8245218,-40.2735025,45,44.45762
1,Aragarças/GO,-15.8957166,-52.2514538,246,1222.78557
D1,Aragarças/GO,-15.8957166,-52.2514538,3,14.91202
1,Aragoiânia/GO,-16.9146388,-49.4499148,84,814.90105
D1,Aragoiânia/GO,-16.9146388,-49.4499148,1,9.70120
1,Aragominas/TO,-7.1654101,-48.525488,53,920.45849
D1,Aragominas/TO,-7.1654101,-48.525488,2,34.73428
1,Araguacema/TO,-8.8067391,-49.5560969,3,42.33700
1,Araguaiana/MT,-15.729144,-51.834112,11,354.83871
1,Araguainha/MT,-16.857016,-53.031778,1,106.95187
1,Araguanã/MA,-2.9508403,-45.6651986,451,2923.63542
D1,Araguanã/MA,-2.9508403,-45.6651986,2,12.96512
1,Araguanã/TO,-6.5799107,-48.6428482,53,925.11782
D1,Araguanã/TO,-6.5799107,-48.6428482,2,34.91011
1,Araguapaz/GO,-15.0937927,-50.626417,40,514.80051
D1,Araguapaz/GO,-15.0937927,-50.626417,1,12.87001
1,Araguari/MG,-18.6511256,-48.1933764,1249,1065.09078
D1,Araguari/MG,-18.6511256,-48.1933764,25,21.31887
1,Araguatins/TO,-5.6522925,-48.1158973,282,788.56855
D1,Araguatins/TO,-5.6522925,-48.1158973,19,53.13051
1,Araguaçu/TO,-12.928934,-49.823134,161,1890.33697
D1,Araguaçu/TO,-12.928934,-49.823134,3,35.22367
1,Araguaína/TO,-7.193241,-48.2018597,5807,3217.70931
D1,Araguaína/TO,-7.193241,-48.2018597,82,45.43691
1,Araioses/MA,-2.890914,-41.904993,502,1080.96469
D1,Araioses/MA,-2.890914,-41.904993,9,19.37984
1,Aral Moreira/MS,-22.951141,-55.6268421,25,205.77825
D1,Aral Moreira/MS,-22.951141,-55.6268421,1,8.23113
1,Aramari/BA,-12.0907897,-38.4985065,64,561.55129
1,Arambaré/RS,-30.9132252,-51.4994625,8,223.40128
D1,Arambaré/RS,-30.9132252,-51.4994625,1,27.92516
1,Arame/MA,-4.8858769,-46.0102484,264,807.31476
D1,Arame/MA,-4.8858769,-46.0102484,4,12.23204
1,Aramina/SP,-20.0876144,-47.789201,30,533.80783
D1,Aramina/SP,-20.0876144,-47.789201,1,17.79359
1,Arandu/SP,-23.1345103,-49.0545651,14,220.22967
D1,Arandu/SP,-23.1345103,-49.0545651,2,31.46138
1,Arantina/MG,-21.911667,-44.255833,4,143.11270
D1,Arantina/MG,-21.911667,-44.255833,1,35.77818
1,Arapeí/SP,-22.6738889,-44.4477778,1,40.50223
D1,Arapeí/SP,-22.6738889,-44.4477778,1,40.50223
1,Arapiraca/AL,-9.754866,-36.661471,4494,1939.18368
D1,Arapiraca/AL,-9.754866,-36.661471,87,37.54094
1,Arapoema/TO,-7.6575001,-49.0641484,26,391.38943
D1,Arapoema/TO,-7.6575001,-49.0641484,2,30.10688
1,Arapongas/PR,-23.415296,-51.42592,682,554.34986
D1,Arapongas/PR,-23.415296,-51.42592,19,15.44376
1,Araporã/MG,-18.4318188,-49.188313,89,1295.67623
D1,Araporã/MG,-18.4318188,-49.188313,2,29.11632
1,Arapoti/PR,-24.1457957,-49.8224605,121,430.37524
D1,Arapoti/PR,-24.1457957,-49.8224605,1,3.55682
1,Araputanga/MT,-15.4710868,-58.346796,53,315.06361
D1,Araputanga/MT,-15.4710868,-58.346796,2,11.88919
1,Arapuá/MG,-19.034444,-46.155556,17,599.85886
1,Arapuã/PR,-24.3079525,-51.7901941,21,684.48501
D1,Arapuã/PR,-24.3079525,-51.7901941,1,32.59452
1,Araquari/SC,-26.3703324,-48.7210994,358,938.91788
D1,Araquari/SC,-26.3703324,-48.7210994,3,7.86803
1,Arara/PB,-6.8271895,-35.7605703,158,1172.97699
D1,Arara/PB,-6.8271895,-35.7605703,3,22.27171
1,Araranguá/SC,-28.9348832,-49.4858389,328,480.74104
D1,Araranguá/SC,-28.9348832,-49.4858389,6,8.79404
1,Araraquara/SP,-21.7886713,-48.1773096,1580,669.28734
D1,Araraquara/SP,-21.7886713,-48.1773096,16,6.77759
1,Araras/SP,-22.3569477,-47.3838889,1168,870.10936
D1,Araras/SP,-22.3569477,-47.3838889,29,21.60374
1,Ararendá/CE,-4.7504395,-40.8303611,37,338.36305
D1,Ararendá/CE,-4.7504395,-40.8303611,2,18.28989
1,Arari/MA,-3.4547602,-44.7772723,191,639.90887
D1,Arari/MA,-3.4547602,-44.7772723,6,20.10185
1,Araricá/RS,-29.6168543,-50.929121,30,526.50053
D1,Araricá/RS,-29.6168543,-50.929121,2,35.10004
1,Araripe/CE,-7.212861,-40.1359222,139,643.51852
D1,Araripe/CE,-7.212861,-40.1359222,2,9.25926
1,Araripina/PE,-7.5768582,-40.5038509,470,556.75330
D1,Araripina/PE,-7.5768582,-40.5038509,10,11.84581
1,Araruama/RJ,-22.8733203,-42.3428897,524,395.77039
D1,Araruama/RJ,-22.8733203,-42.3428897,41,30.96677
1,Araruna/PB,-6.5321155,-35.7397595,203,999.40922
D1,Araruna/PB,-6.5321155,-35.7397595,5,24.61599
1,Araruna/PR,-23.9320308,-52.4976047,60,429.49177
D1,Araruna/PR,-23.9320308,-52.4976047,3,21.47459
1,Arataca/BA,-15.2617424,-39.4122943,61,553.58925
1,Aratiba/RS,-27.3955734,-52.3024325,22,352.84683
1,Aratuba/CE,-4.4195958,-39.0463737,154,1299.90715
D1,Aratuba/CE,-4.4195958,-39.0463737,1,8.44096
1,Aratuípe/BA,-13.077137,-39.0010786,26,294.61756
D1,Aratuípe/BA,-13.077137,-39.0010786,1,11.33144
1,Araucária/PR,-25.5861107,-49.4051209,1224,850.92775
D1,Araucária/PR,-25.5861107,-49.4051209,19,13.20885
1,Arauá/SE,-11.2644014,-37.6181058,184,1829.75338
D1,Arauá/SE,-11.2644014,-37.6181058,5,49.72156
1,Araxá/MG,-19.5928536,-46.940241,397,373.72092
D1,Araxá/MG,-19.5928536,-46.940241,8,7.53090
1,Araçagi/PB,-6.8519969,-35.3835602,420,2472.47895
D1,Araçagi/PB,-6.8519969,-35.3835602,3,17.66056
1,Araçariguama/SP,-23.438611,-47.061389,124,554.46253
D1,Araçariguama/SP,-23.438611,-47.061389,3,13.41442
1,Araças/BA,-12.2139176,-38.2026159,28,229.94169
1,Araçatuba/SP,-21.207992,-50.4390225,2977,1511.04479
D1,Araçatuba/SP,-21.207992,-50.4390225,72,36.54526
1,Araçaí/MG,-19.200833,-44.2475,4,170.43034
1,Araçoiaba da Serra/SP,-23.5045367,-47.6168158,214,626.72055
D1,Araçoiaba da Serra/SP,-23.5045367,-47.6168158,6,17.57160
1,Araçoiaba/PE,-7.7856903,-35.0898881,72,350.80881
D1,Araçoiaba/PE,-7.7856903,-35.0898881,11,53.59579
1,Araçu/GO,-16.3561579,-49.6815269,10,283.92959
1,Araçuaí/MG,-16.8484451,-42.0661868,18,49.03563
1,Araújos/MG,-19.948055,-45.165556,15,161.75995
1,Arceburgo/MG,-21.364444,-46.939722,18,167.09989
1,Arcos/MG,-20.282223,-45.539444,95,236.95500
D1,Arcos/MG,-20.282223,-45.539444,1,2.49426
1,Arcoverde/PE,-8.415192,-37.057748,495,665.87748
D1,Arcoverde/PE,-8.415192,-37.057748,25,33.63018
1,Areal/RJ,-22.2314922,-43.1056264,117,930.63952
D1,Areal/RJ,-22.2314922,-43.1056264,2,15.90837
1,Arealva/SP,-22.0301906,-48.9111936,40,467.28972
1,Areia Branca/RN,-4.9506652,-37.1263312,646,2325.91632
D1,Areia Branca/RN,-4.9506652,-37.1263312,47,169.22301
1,Areia Branca/SE,-10.7591455,-37.3148072,472,2545.57221
D1,Areia Branca/SE,-10.7591455,-37.3148072,11,59.32478
1,Areia de Baraúnas/PB,-7.1233949,-36.9446216,10,469.92481
1,Areia/PB,-6.9680243,-35.6994783,273,1196.37144
D1,Areia/PB,-6.9680243,-35.6994783,2,8.76463
1,Areial/PB,-7.0501306,-35.9245244,38,543.01229
D1,Areial/PB,-7.0501306,-35.9245244,2,28.57959
1,Areias/SP,-22.5800929,-44.6975127,24,617.60165
1,Areiópolis/SP,-22.6758064,-48.6673653,33,296.52260
D1,Areiópolis/SP,-22.6758064,-48.6673653,3,26.95660
1,Arenápolis/MT,-14.4610369,-56.8432806,70,728.63537
D1,Arenápolis/MT,-14.4610369,-56.8432806,1,10.40908
1,Arenópolis/GO,-16.3859286,-51.55937,1,38.28484
1,Argirita/MG,-21.612761,-42.8371922,3,110.01100
D1,Argirita/MG,-21.612761,-42.8371922,1,36.67033
1,Aricanduva/MG,-17.8678,-42.5569,1,19.11680
1,Arinos/MG,-15.917223,-46.106111,40,223.77622
1,Aripuanã/MT,-10.175806,-59.4439663,89,398.13904
D1,Aripuanã/MT,-10.175806,-59.4439663,2,8.94694
1,Ariquemes/RO,-9.9076522,-63.033069,2234,2071.14581
D1,Ariquemes/RO,-9.9076522,-63.033069,37,34.30277
1,Ariranha/SP,-21.18716,-48.790418,66,682.66446
D1,Ariranha/SP,-21.18716,-48.790418,1,10.34340
1,Armazém/SC,-28.2624996,-49.0190126,78,899.23911
D1,Armazém/SC,-28.2624996,-49.0190126,1,11.52871
1,Armação dos Búzios/RJ,-22.7597805,-41.8875267,238,702.68674
D1,Armação dos Búzios/RJ,-22.7597805,-41.8875267,9,26.57219
1,Arneiroz/CE,-6.3235099,-40.1603859,40,510.20408
D1,Arneiroz/CE,-6.3235099,-40.1603859,2,25.51020
1,Aroazes/PI,-6.1108814,-41.7886137,26,445.58698
D1,Aroazes/PI,-6.1108814,-41.7886137,1,17.13796
1,Aroeiras do Itaim/PI,-7.2797031,-41.5629681,7,274.40220
1,Aroeiras/PB,-7.5462904,-35.7080002,147,767.50379
1,Arraial do Cabo/RJ,-22.9662839,-42.024427,108,355.86016
D1,Arraial do Cabo/RJ,-22.9662839,-42.024427,5,16.47501
1,Arraias/TO,-12.9287788,-46.9437231,13,123.02451
1,Arroio Grande/RS,-32.2384246,-53.0866661,7,38.26600
1,Arroio Trinta/SC,-26.9301976,-51.334928,32,901.40845
1,Arroio do Meio/RS,-29.4020392,-51.9444993,207,994.95314
1,Arroio do Sal/RS,-29.549852,-49.8874395,33,327.86885
D1,Arroio do Sal/RS,-29.549852,-49.8874395,2,19.87084
1,Arroio do Tigre/RS,-29.334158,-53.0888935,2,14.95551
1,Arroio dos Ratos/RS,-30.0894524,-51.7265541,47,332.13200
D1,Arroio dos Ratos/RS,-30.0894524,-51.7265541,4,28.26655
1,Artur Nogueira/SP,-22.572737,-47.172679,215,395.16248
D1,Artur Nogueira/SP,-22.572737,-47.172679,3,5.51390
1,Aruanã/GO,-14.9162439,-51.0715692,23,232.91139
1,Arujá/SP,-23.396266,-46.3175449,924,1028.67830
D1,Arujá/SP,-23.396266,-46.3175449,55,61.23085
1,Arvoredo/SC,-27.0752908,-52.4571847,26,1160.71429
D1,Arvoredo/SC,-27.0752908,-52.4571847,1,44.64286
1,Arvorezinha/RS,-28.87369,-52.17808,16,153.49194
D1,Arvorezinha/RS,-28.87369,-52.17808,1,9.59325
1,Arês/RN,-6.1969216,-35.1642968,176,1230.25304
D1,Arês/RN,-6.1969216,-35.1642968,3,20.97022
1,Ascurra/SC,-26.9569975,-49.3767752,42,529.36728
D1,Ascurra/SC,-26.9569975,-49.3767752,1,12.60398
1,Aspásia/SP,-20.160028,-50.728046,23,1262.34907
1,Assaré/CE,-6.8746791,-39.8741385,181,772.94273
D1,Assaré/CE,-6.8746791,-39.8741385,4,17.08161
1,Assaí/PR,-23.3736041,-50.8454929,50,330.70970
D1,Assaí/PR,-23.3736041,-50.8454929,7,46.29936
1,Assis Brasil/AC,-10.9409203,-69.5672108,265,3572.87313
D1,Assis Brasil/AC,-10.9409203,-69.5672108,5,67.41270
1,Assis Chateaubriand/PR,-24.4054826,-53.5120468,190,569.51022
D1,Assis Chateaubriand/PR,-24.4054826,-53.5120468,4,11.98969
1,Assis/SP,-22.6620892,-50.420623,524,501.98302
D1,Assis/SP,-22.6620892,-50.420623,17,16.28571
1,Assunção do Piauí/PI,-5.8610212,-41.0485091,102,1300.02549
D1,Assunção do Piauí/PI,-5.8610212,-41.0485091,1,12.74535
1,Assunção/PB,-7.073396,-36.7274003,36,902.25564
1,Astolfo Dutra/MG,-21.3132636,-42.8624102,58,409.05565
D1,Astolfo Dutra/MG,-21.3132636,-42.8624102,2,14.10537
1,Astorga/PR,-23.2350184,-51.6647074,105,402.12937
D1,Astorga/PR,-23.2350184,-51.6647074,2,7.65961
1,Atalaia do Norte/AM,-4.3658547,-70.1908742,704,3533.95914
D1,Atalaia do Norte/AM,-4.3658547,-70.1908742,4,20.07931
1,Atalaia/AL,-9.5029595,-36.0219316,466,987.60199
D1,Atalaia/AL,-9.5029595,-36.0219316,13,27.55113
1,Atalaia/PR,-23.1513833,-52.0529697,24,616.64954
1,Atalanta/SC,-27.421916,-49.778863,11,342.67913
1,Ataléia/MG,-18.04432,-41.1110524,52,404.10320
D1,Ataléia/MG,-18.04432,-41.1110524,4,31.08486
1,Atibaia/SP,-23.1177393,-46.5547861,526,368.44797
D1,Atibaia/SP,-23.1177393,-46.5547861,25,17.51179
1,Atilio Vivacqua/ES,-20.9139369,-41.1947519,184,1541.55496
D1,Atilio Vivacqua/ES,-20.9139369,-41.1947519,2,16.75603
1,Augustinópolis/TO,-5.4662267,-47.8897519,370,2009.55898
D1,Augustinópolis/TO,-5.4662267,-47.8897519,5,27.15620
1,Augusto Corrêa/PA,-1.0229335,-46.6404029,976,2121.83138
D1,Augusto Corrêa/PA,-1.0229335,-46.6404029,20,43.48015
1,Augusto de Lima/MG,-18.1092963,-44.2651945,17,349.14767
1,Aurelino Leal/BA,-14.3167137,-39.3256107,271,2350.18645
D1,Aurelino Leal/BA,-14.3167137,-39.3256107,2,17.34455
1,Auriflama/SP,-20.6840418,-50.5554616,144,948.05451
D1,Auriflama/SP,-20.6840418,-50.5554616,6,39.50227
1,Aurilândia/GO,-16.6772599,-50.4641231,15,480.76923
1,Aurora do Pará/PA,-2.1323199,-47.558436,512,1633.79922
D1,Aurora do Pará/PA,-2.1323199,-47.558436,7,22.33710
1,Aurora do Tocantins/TO,-12.71045,-46.407604,14,372.63774
1,Aurora/CE,-6.9426019,-38.9693765,134,543.52235
D1,Aurora/CE,-6.9426019,-38.9693765,6,24.33682
1,Aurora/SC,-27.3166417,-49.6368502,37,651.52316
1,Autazes/AM,-3.5833283,-59.1301518,1140,2881.33451
D1,Autazes/AM,-3.5833283,-59.1301518,35,88.46202
1,Avanhandava/SP,-21.4603331,-49.9465156,20,146.53088
D1,Avanhandava/SP,-21.4603331,-49.9465156,2,14.65309
1,Avaré/SP,-23.1045215,-48.9259103,220,242.67829
D1,Avaré/SP,-23.1045215,-48.9259103,11,12.13391
1,Avaí/SP,-22.1564662,-49.3316395,24,444.19767
1,Aveiro/PA,-3.6049239,-55.3310742,283,1726.87332
D1,Aveiro/PA,-3.6049239,-55.3310742,4,24.40810
1,Avelino Lopes/PI,-10.1346855,-43.9489525,9,79.72362
D1,Avelino Lopes/PI,-10.1346855,-43.9489525,1,8.85818
1,Avelinópolis/GO,-16.4672409,-49.7578661,22,910.21928
D1,Avelinópolis/GO,-16.4672409,-49.7578661,1,41.37360
1,Axixá do Tocantins/TO,-5.612747,-47.77007,112,1148.01148
D1,Axixá do Tocantins/TO,-5.612747,-47.77007,3,30.75031
1,Axixá/MA,-2.8379465,-44.0561053,108,890.35449
D1,Axixá/MA,-2.8379465,-44.0561053,2,16.48805
1,Açailândia/MA,-4.9514278,-47.4844564,2778,2470.54115
D1,Açailândia/MA,-4.9514278,-47.4844564,67,59.58469
1,Açu/RN,-5.5836157,-36.9139541,771,1328.92083
D1,Açu/RN,-5.5836157,-36.9139541,39,67.22168
1,Açucena/MG,-19.073056,-42.546666,30,316.78986
D1,Açucena/MG,-19.073056,-42.546666,1,10.55966
1,Babaçulândia/TO,-7.2034355,-47.761613,46,431.35784
1,Bacabal/MA,-4.2318132,-44.781167,2936,2797.54929
D1,Bacabal/MA,-4.2318132,-44.781167,37,35.25522
1,Bacabeira/MA,-2.9775747,-44.3155943,130,762.23981
D1,Bacabeira/MA,-2.9775747,-44.3155943,1,5.86338
1,Bacuri/MA,-1.728894,-45.1417148,383,2061.13443
D1,Bacuri/MA,-1.728894,-45.1417148,2,10.76310
1,Bacurituba/MA,-2.7082587,-44.7381309,22,389.79447
1,Bady Bassitt/SP,-20.9178969,-49.4517911,263,1502.68541
D1,Bady Bassitt/SP,-20.9178969,-49.4517911,11,62.84996
1,Baependi/MG,-21.959162,-44.8899249,18,94.00460
1,Bagre/PA,-1.8994498,-50.2103844,234,762.88593
D1,Bagre/PA,-1.8994498,-50.2103844,9,29.34177
1,Bagé/RS,-31.3314264,-54.1062808,277,228.65539
D1,Bagé/RS,-31.3314264,-54.1062808,1,0.82547
1,Baianópolis/BA,-12.3067564,-44.5383591,9,64.85552
1,Baixa Grande do Ribeiro/PI,-7.862861,-45.2113289,242,2088.72777
D1,Baixa Grande do Ribeiro/PI,-7.862861,-45.2113289,4,34.52443
1,Baixa Grande/BA,-11.9630941,-40.1657537,8,39.08540
1,Baixio/CE,-6.7303544,-38.7170095,26,413.48601
1,Baixo Guandu/ES,-19.5138322,-41.0182089,390,1258.14569
D1,Baixo Guandu/ES,-19.5138322,-41.0182089,10,32.26015
1,Baião/PA,-2.7903479,-49.6702845,256,539.56076
D1,Baião/PA,-2.7903479,-49.6702845,13,27.39957
1,Balbinos/SP,-21.9006253,-49.3583966,13,226.67829
1,Baldim/MG,-19.2913568,-43.9558262,11,140.55712
D1,Baldim/MG,-19.2913568,-43.9558262,1,12.77792
1,Baliza/GO,-16.1978119,-52.542789,5,97.31413
1,Balneário Arroio do Silva/SC,-28.9815269,-49.4189932,88,673.24612
D1,Balneário Arroio do Silva/SC,-28.9815269,-49.4189932,3,22.95157
1,Balneário Barra do Sul/SC,-26.459842,-48.6061471,128,1185.73414
1,Balneário Camboriú/SC,-26.9924395,-48.6339782,3461,2432.27099
D1,Balneário Camboriú/SC,-26.9924395,-48.6339782,32,22.48849
1,Balneário Gaivota/SC,-29.1553098,-49.5808712,31,282.35723
D1,Balneário Gaivota/SC,-29.1553098,-49.5808712,3,27.32489
1,Balneário Pinhal/RS,-30.2482978,-50.234585,18,127.94996
1,Balneário Piçarras/SC,-26.7638889,-48.6716667,224,967.72800
D1,Balneário Piçarras/SC,-26.7638889,-48.6716667,1,4.32021
1,Balneário Rincão/SC,-28.8235718,-49.2241642,74,579.93730
D1,Balneário Rincão/SC,-28.8235718,-49.2241642,4,31.34796
1,Balsa Nova/PR,-25.5842234,-49.6312741,134,1035.46867
D1,Balsa Nova/PR,-25.5842234,-49.6312741,2,15.45476
1,Balsas/MA,-7.53214,-46.037163,2014,2122.52469
D1,Balsas/MA,-7.53214,-46.037163,13,13.70051
1,Bambuí/MG,-20.0131996,-45.9777034,19,79.73478
1,Banabuiú/CE,-5.3046404,-38.919766,369,2027.80678
D1,Banabuiú/CE,-5.3046404,-38.919766,2,10.99082
1,Bananal/SP,-22.6828195,-44.3221095,44,402.01005
1,Bananeiras/PB,-6.7537682,-35.6338343,118,553.52284
D1,Bananeiras/PB,-6.7537682,-35.6338343,1,4.69087
1,Bandeira do Sul/MG,-21.728056,-46.385555,3,52.21023
1,Bandeira/MG,-15.884444,-40.559167,198,4129.30136
D1,Bandeira/MG,-15.884444,-40.559167,1,20.85506
1,Bandeirante/SC,-26.7677402,-53.6397596,1,37.34130
1,Bandeirantes do Tocantins/TO,-7.7635698,-48.579148,18,506.61413
1,Bandeirantes/MS,-19.9179623,-54.3646768,29,427.22451
1,Bandeirantes/PR,-23.107788,-50.370407,131,417.63637
D1,Bandeirantes/PR,-23.107788,-50.370407,4,12.75226
1,Bannach/PA,-7.3508505,-50.4064531,67,2038.95313
D1,Bannach/PA,-7.3508505,-50.4064531,3,91.29641
1,Banzaê/BA,-10.5827616,-38.6122305,70,529.14052
1,Baraúna/PB,-6.643394,-36.2531932,123,2514.30908
1,Baraúna/RN,-5.0775002,-37.61752,282,993.86763
D1,Baraúna/RN,-5.0775002,-37.61752,10,35.24353
1,Barbacena/MG,-21.2254524,-43.7735087,481,350.29458
D1,Barbacena/MG,-21.2254524,-43.7735087,7,5.09784
1,Barbalha/CE,-7.3121067,-39.3036427,783,1288.23152
D1,Barbalha/CE,-7.3121067,-39.3036427,33,54.29328
1,Barbosa Ferraz/PR,-24.0287182,-52.00811,57,492.73859
D1,Barbosa Ferraz/PR,-24.0287182,-52.00811,2,17.28907
1,Barbosa/SP,-21.265661,-49.951816,27,364.76628
1,Barcarena/PA,-1.5107945,-48.6190679,3041,2439.04395
D1,Barcarena/PA,-1.5107945,-48.6190679,103,82.61149
1,Barcelona/RN,-5.9514918,-35.9260284,25,625.31266
1,Barcelos/AM,-0.9729214,-62.925635,2015,7326.73987
D1,Barcelos/AM,-0.9729214,-62.925635,24,87.26638
1,Bariri/SP,-22.0746355,-48.7394852,167,473.57078
D1,Bariri/SP,-22.0746355,-48.7394852,7,19.85027
1,Barra Bonita/SP,-22.490859,-48.558349,249,689.25428
D1,Barra Bonita/SP,-22.490859,-48.558349,6,16.60854
1,Barra D'Alcântara/PI,-6.5209258,-42.1071089,5,126.55024
1,Barra Funda/RS,-27.9230048,-53.0401045,6,236.31351
1,Barra Longa/MG,-20.2833541,-43.0423516,56,1091.40518
1,Barra Mansa/RJ,-22.5394843,-44.1735129,739,400.73314
D1,Barra Mansa/RJ,-22.5394843,-44.1735129,49,26.57094
1,Barra Velha/SC,-26.6338203,-48.6835001,189,647.97038
D1,Barra Velha/SC,-26.6338203,-48.6835001,1,3.42841
1,Barra da Estiva/BA,-13.6269662,-41.3278287,7,33.98388
1,Barra de Guabiraba/PE,-8.4173522,-35.6626669,133,924.57421
D1,Barra de Guabiraba/PE,-8.4173522,-35.6626669,9,62.56517
1,Barra de Santa Rosa/PB,-6.7218007,-36.0564638,39,253.51014
D1,Barra de Santa Rosa/PB,-6.7218007,-36.0564638,1,6.50026
1,Barra de Santana/PB,-7.5230865,-35.9988518,73,873.31020
D1,Barra de Santana/PB,-7.5230865,-35.9988518,2,23.92631
1,Barra de Santo Antônio/AL,-9.4038098,-35.5117693,108,677.88099
D1,Barra de Santo Antônio/AL,-9.4038098,-35.5117693,7,43.93673
1,Barra de São Francisco/ES,-18.7570902,-40.8916119,292,653.97536
D1,Barra de São Francisco/ES,-18.7570902,-40.8916119,10,22.39642
1,Barra de São Miguel/AL,-9.8261357,-35.8837777,118,1417.92838
D1,Barra de São Miguel/AL,-9.8261357,-35.8837777,5,60.08171
1,Barra de São Miguel/PB,-7.7528088,-36.3170996,33,546.71968
D1,Barra de São Miguel/PB,-7.7528088,-36.3170996,1,16.56726
1,Barra do Bugres/MT,-15.0683712,-57.1853688,86,245.95321
D1,Barra do Bugres/MT,-15.0683712,-57.1853688,3,8.57976
1,Barra do Chapéu/SP,-24.472203,-49.023784,24,419.28721
1,Barra do Choça/BA,-14.8638173,-40.5761637,238,753.09306
D1,Barra do Choça/BA,-14.8638173,-40.5761637,2,6.32851
1,Barra do Corda/MA,-5.496823,-45.248496,2378,2695.77835
D1,Barra do Corda/MA,-5.496823,-45.248496,19,21.53902
1,Barra do Garças/MT,-15.8916033,-52.2615413,385,631.02341
D1,Barra do Garças/MT,-15.8916033,-52.2615413,33,54.08772
1,Barra do Guarita/RS,-27.1888016,-53.7147086,1,30.78818
1,Barra do Jacaré/PR,-23.1151788,-50.1813945,1,35.95829
1,Barra do Mendes/BA,-11.8053298,-42.057037,5,36.06203
1,Barra do Ouro/TO,-7.7113784,-47.6743925,13,283.16271
D1,Barra do Ouro/TO,-7.7113784,-47.6743925,3,65.34524
1,Barra do Piraí/RJ,-22.4703403,-43.8263256,593,590.79044
D1,Barra do Piraí/RJ,-22.4703403,-43.8263256,27,26.89940
1,Barra do Quaraí/RS,-30.208947,-57.5505128,4,94.89917
1,Barra do Ribeiro/RS,-30.2930206,-51.301437,45,333.55570
D1,Barra do Ribeiro/RS,-30.2930206,-51.301437,3,22.23705
1,Barra do Rio Azul/RS,-27.4101581,-52.4117471,2,118.34320
1,Barra do Rocha/BA,-14.2090974,-39.6004395,22,385.01925
1,Barra do Turvo/SP,-24.756421,-48.5056942,27,352.52644
D1,Barra do Turvo/SP,-24.756421,-48.5056942,2,26.11307
1,Barra dos Coqueiros/SE,-10.9075694,-37.0386249,846,2782.25409
D1,Barra dos Coqueiros/SE,-10.9075694,-37.0386249,13,42.75331
1,Barra/BA,-11.0892702,-43.1420453,59,110.11983
D1,Barra/BA,-11.0892702,-43.1420453,1,1.86644
1,Barracão/PR,-26.252395,-53.6349576,20,194.64720
D1,Barracão/PR,-26.252395,-53.6349576,1,9.73236
1,Barracão/RS,-27.6728964,-51.4582928,23,436.01896
D1,Barracão/RS,-27.6728964,-51.4582928,1,18.95735
1,Barras/PI,-4.2446153,-42.2920241,1265,2687.71512
D1,Barras/PI,-4.2446153,-42.2920241,25,53.11690
1,Barreira/CE,-4.2883361,-38.641094,299,1333.33333
D1,Barreira/CE,-4.2883361,-38.641094,19,84.72687
1,Barreiras do Piauí/PI,-9.9224524,-45.4763776,2,59.73716
1,Barreiras/BA,-12.1440031,-44.9967406,1086,698.66636
D1,Barreiras/BA,-12.1440031,-44.9967406,12,7.72007
1,Barreirinha/AM,-2.798863,-57.067897,747,2331.38791
D1,Barreirinha/AM,-2.798863,-57.067897,8,24.96801
1,Barreirinhas/MA,-2.7541271,-42.8259693,404,646.11054
D1,Barreirinhas/MA,-2.7541271,-42.8259693,19,30.38639
1,Barreiros/PE,-8.8159644,-35.1831905,257,602.45200
D1,Barreiros/PE,-8.8159644,-35.1831905,37,86.73434
1,Barretos/SP,-20.5531437,-48.5697509,1780,1457.84534
D1,Barretos/SP,-20.5531437,-48.5697509,68,55.69297
1,Barrinha/SP,-21.1898849,-48.1550642,240,731.43972
D1,Barrinha/SP,-21.1898849,-48.1550642,10,30.47665
1,Barro Alto/BA,-11.7618025,-41.9094904,9,60.27728
1,Barro Alto/GO,-14.9696025,-48.9190985,65,582.07218
1,Barro Duro/PI,-5.8180139,-42.5106589,116,1649.60182
D1,Barro Duro/PI,-5.8180139,-42.5106589,2,28.44141
1,Barro Preto/BA,-14.8068289,-39.4727588,125,2235.73600
D1,Barro Preto/BA,-14.8068289,-39.4727588,3,53.65766
1,Barro/CE,-7.1713587,-38.7742136,60,264.55026
D1,Barro/CE,-7.1713587,-38.7742136,7,30.86420
1,Barrocas/BA,-11.5165,-39.099282894736845,53,331.70610
1,Barrolândia/TO,-9.837246,-48.7264346,44,781.25000
D1,Barrolândia/TO,-9.837246,-48.7264346,1,17.75568
1,Barroquinha/CE,-3.0200371,-41.1339229,677,4508.22401
D1,Barroquinha/CE,-3.0200371,-41.1339229,16,106.54591
1,Barros Cassal/RS,-29.094938,-52.5832366,2,17.85874
D1,Barros Cassal/RS,-29.094938,-52.5832366,1,8.92937
1,Barroso/MG,-21.187222,-43.976111,85,408.45747
1,Barueri/SP,-23.5112184,-46.8764612,2919,1064.62131
D1,Barueri/SP,-23.5112184,-46.8764612,265,96.65113
1,Barão de Antonina/SP,-23.6295651,-49.5632104,10,288.26751
1,Barão de Cocais/MG,-19.9452437,-43.4870298,201,618.74711
1,Barão de Cotegipe/RS,-27.6214694,-52.3765316,66,996.52725
D1,Barão de Cotegipe/RS,-27.6214694,-52.3765316,3,45.29669
1,Barão de Grajaú/MA,-6.7542591,-43.0263477,14,74.38895
D1,Barão de Grajaú/MA,-6.7542591,-43.0263477,1,5.31350
1,Barão de Melgaço/MT,-16.195776,-55.9668049,50,583.83933
D1,Barão de Melgaço/MT,-16.195776,-55.9668049,1,11.67679
1,Barão de Monte Alto/MG,-21.244722,-42.2375,23,426.16268
1,Barão do Triunfo/RS,-30.3909877,-51.7375349,15,200.34727
1,Barão/RS,-29.372474,-51.494908,24,388.91590
D1,Barão/RS,-29.372474,-51.494908,1,16.20483
1,Bastos/SP,-21.9222474,-50.7317727,27,128.85983
1,Bataguassu/MS,-21.715899,-52.422058,522,2267.19944
D1,Bataguassu/MS,-21.715899,-52.422058,1,4.34329
1,Batalha/AL,-9.6733809,-37.1265481,287,1574.15533
D1,Batalha/AL,-9.6733809,-37.1265481,6,32.90917
1,Batalha/PI,-4.022391,-42.0780926,230,856.38753
D1,Batalha/PI,-4.022391,-42.0780926,7,26.06397
1,Batatais/SP,-20.892867,-47.592149,116,185.57625
D1,Batatais/SP,-20.892867,-47.592149,9,14.39816
1,Batayporã/MS,-22.2976466,-53.2685608,58,511.96046
D1,Batayporã/MS,-22.2976466,-53.2685608,3,26.48071
1,Baturité/CE,-4.3290203,-38.8821055,495,1384.61538
D1,Baturité/CE,-4.3290203,-38.8821055,27,75.52448
1,Bauru/SP,-22.3218102,-49.0705863,3022,801.97867
D1,Bauru/SP,-22.3218102,-49.0705863,59,15.65743
1,Bayeux/PB,-7.1301631,-34.936532,1296,1337.73741
D1,Bayeux/PB,-7.1301631,-34.936532,69,71.22213
1,Baía Formosa/RN,-6.3691885,-35.0063741,73,787.40157
D1,Baía Formosa/RN,-6.3691885,-35.0063741,3,32.35897
1,Baía da Traição/PB,-6.691258,-34.9371244,400,4447.90393
D1,Baía da Traição/PB,-6.691258,-34.9371244,4,44.47904
1,Bebedouro/SP,-20.949077,-48.479083,213,274.85290
D1,Bebedouro/SP,-20.949077,-48.479083,17,21.93662
1,Beberibe/CE,-4.1810469,-38.1298101,596,1112.50070
D1,Beberibe/CE,-4.1810469,-38.1298101,29,54.13175
1,Bela Cruz/CE,-3.0529129,-40.167582,1071,3286.18330
D1,Bela Cruz/CE,-3.0529129,-40.167582,15,46.02498
1,Bela Vista da Caroba/PR,-25.8792818,-53.6672545,10,284.81914
1,Bela Vista de Goiás/GO,-16.9692949,-48.9513071,213,710.59216
D1,Bela Vista de Goiás/GO,-16.9692949,-48.9513071,3,10.00834
1,Bela Vista de Minas/MG,-19.8289721,-43.0973688,15,146.27011
D1,Bela Vista de Minas/MG,-19.8289721,-43.0973688,1,9.75134
1,Bela Vista do Maranhão/MA,-3.7416367,-45.2514192,112,999.19707
D1,Bela Vista do Maranhão/MA,-3.7416367,-45.2514192,2,17.84280
1,Bela Vista do Paraíso/PR,-22.9948493,-51.1907996,42,272.78041
D1,Bela Vista do Paraíso/PR,-22.9948493,-51.1907996,3,19.48432
1,Bela Vista do Piauí/PI,-7.9716353,-41.8715061,4,99.62640
1,Bela Vista do Toldo/SC,-26.274625,-50.466354,3,47.34101
1,Bela Vista/MS,-22.107327,-56.5317344,12,48.72305
1,Belford Roxo/RJ,-22.7667284,-43.4033603,2013,394.00594
D1,Belford Roxo/RJ,-22.7667284,-43.4033603,204,39.92907
1,Belmiro Braga/MG,-21.9486291,-43.413564,11,320.79323
D1,Belmiro Braga/MG,-21.9486291,-43.413564,2,58.32604
1,Belmonte/BA,-15.8630837,-38.8792845,199,853.05213
D1,Belmonte/BA,-15.8630837,-38.8792845,1,4.28669
1,Belmonte/SC,-26.8448262,-53.578916,1,36.95492
1,Belo Campo/BA,-15.0338286,-41.2585109,3,17.43071
1,Belo Horizonte/MG,-19.9227318,-43.9450948,16100,640.90571
D1,Belo Horizonte/MG,-19.9227318,-43.9450948,432,17.19697
1,Belo Jardim/PE,-8.3338293,-36.4176419,526,688.13040
D1,Belo Jardim/PE,-8.3338293,-36.4176419,21,27.47289
1,Belo Monte/AL,-9.8269944,-37.2787165,25,372.91169
D1,Belo Monte/AL,-9.8269944,-37.2787165,2,29.83294
1,Belo Oriente/MG,-19.2232523,-42.4807033,203,760.29963
D1,Belo Oriente/MG,-19.2232523,-42.4807033,6,22.47191
1,Belo Vale/MG,-20.407778,-44.024167,41,531.43227
D1,Belo Vale/MG,-20.407778,-44.024167,1,12.96176
1,Belterra/PA,-2.636091,-54.937392,131,738.77735
D1,Belterra/PA,-2.636091,-54.937392,7,39.47665
1,Belágua/MA,-3.1604031,-43.5085052,158,2115.41036
D1,Belágua/MA,-3.1604031,-43.5085052,1,13.38867
1,Belém de Maria/PE,-8.6242497,-35.8388934,48,397.58138
D1,Belém de Maria/PE,-8.6242497,-35.8388934,1,8.28295
1,Belém do Brejo do Cruz/PB,-6.1880727,-37.5332267,17,231.54454
1,Belém do Piauí/PI,-7.3767305,-40.9712156,15,420.63937
D1,Belém do Piauí/PI,-7.3767305,-40.9712156,1,28.04262
1,Belém do São Francisco/PE,-8.7517707,-38.9625715,18,86.83487
1,Belém/AL,-9.5715351,-36.492841,43,989.87109
D1,Belém/AL,-9.5715351,-36.492841,1,23.02026
1,Belém/PA,-1.45056,-48.4682453,24466,1638.99393
D1,Belém/PA,-1.45056,-48.4682453,2046,137.06293
1,Belém/PB,-6.6967586,-35.5369626,641,3626.38606
D1,Belém/PB,-6.6967586,-35.5369626,8,45.25911
1,Beneditinos/PI,-5.4565671,-42.3605061,118,1127.35263
D1,Beneditinos/PI,-5.4565671,-42.3605061,4,38.21534
1,Benedito Leite/MA,-7.2173453,-44.5523331,49,870.02841
1,Benedito Novo/SC,-26.7840657,-49.3629511,49,420.52866
1,Benevides/PA,-1.3555577,-48.252235,1387,2210.81658
D1,Benevides/PA,-1.3555577,-48.252235,51,81.29174
1,Benjamin Constant do Sul/RS,-27.5105555,-52.6007689,31,1554.66399
1,Benjamin Constant/AM,-4.3782748,-70.0290603,1519,3533.87307
D1,Benjamin Constant/AM,-4.3782748,-70.0290603,35,81.42565
1,Bento Fernandes/RN,-5.6926846,-35.8207423,20,363.83482
D1,Bento Fernandes/RN,-5.6926846,-35.8207423,1,18.19174
1,Bento Gonçalves/RS,-29.1654014,-51.5197627,2011,1669.51699
D1,Bento Gonçalves/RS,-29.1654014,-51.5197627,59,48.98135
1,Bento de Abreu/SP,-21.2707225,-50.8120444,19,637.58389
1,Bequimão/MA,-2.4495376,-44.7884889,197,925.75188
D1,Bequimão/MA,-2.4495376,-44.7884889,10,46.99248
1,Berilo/MG,-16.9515764,-42.4643732,5,41.90412
1,Bernardino Batista/PB,-6.4532173,-38.5495418,6,171.37961
1,Bernardino de Campos/SP,-23.0140216,-49.4760724,38,340.86832
1,Bernardo Sayão/TO,-7.8794244,-48.8968905,16,358.82485
1,Bernardo do Mearim/MA,-4.6315929,-44.7617508,48,794.30746
D1,Bernardo do Mearim/MA,-4.6315929,-44.7617508,2,33.09614
1,Bertioga/SP,-23.848568,-46.139586,953,1506.74319
D1,Bertioga/SP,-23.848568,-46.139586,24,37.94526
1,Bertolínia/PI,-7.6372159,-43.9540611,48,872.56862
1,Bertópolis/MG,-17.063333,-40.573889,1,21.72024
1,Beruri/AM,-3.9007135,-61.3717319,521,2647.49225
D1,Beruri/AM,-3.9007135,-61.3717319,7,35.57091
1,Betim/MG,-19.968056,-44.198333,2174,494.83316
D1,Betim/MG,-19.968056,-44.198333,70,15.93299
1,Betânia do Piauí/PI,-8.1460635,-40.7961387,4,64.46414
1,Betânia/PE,-8.2742779,-38.0351767,24,188.69408
D1,Betânia/PE,-8.2742779,-38.0351767,1,7.86225
1,Bezerros/PE,-8.2372132,-35.7558262,457,751.66946
D1,Bezerros/PE,-8.2372132,-35.7558262,29,47.69894
1,Bias Fortes/MG,-21.605833,-43.756944,11,325.54010
1,Bicas/MG,-21.7213723,-43.0604327,33,227.68042
1,Biguaçu/SC,-27.4961277,-48.6542432,702,1025.10185
D1,Biguaçu/SC,-27.4961277,-48.6542432,11,16.06285
1,Bilac/SP,-21.403962,-50.47464,27,336.07170
D1,Bilac/SP,-21.403962,-50.47464,1,12.44710
1,Biquinhas/MG,-18.783611,-45.502222,2,79.52286
1,Birigui/SP,-21.2908491,-50.34144,738,596.90386
D1,Birigui/SP,-21.2908491,-50.34144,26,21.02913
1,Biritiba-Mirim/SP,-23.5697765,-46.0407456,107,328.24100
D1,Biritiba-Mirim/SP,-23.5697765,-46.0407456,10,30.67673
1,Biritinga/BA,-11.6227908,-38.8066738,22,137.68071
1,Bituruna/PR,-26.161281,-51.5533319,30,183.04961
1,Blumenau/SC,-26.9195567,-49.0658025,4189,1172.73565
D1,Blumenau/SC,-26.9195567,-49.0658025,34,9.51850
1,Boa Esperança do Iguaçu/PR,-25.6362851,-53.2139114,1,39.95206
1,Boa Esperança do Sul/SP,-21.9930206,-48.3917372,37,247.93942
D1,Boa Esperança do Sul/SP,-21.9930206,-48.3917372,1,6.70107
1,Boa Esperança/ES,-18.5395472,-40.2904088,246,1635.96462
D1,Boa Esperança/ES,-18.5395472,-40.2904088,11,73.15289
1,Boa Esperança/MG,-21.0901253,-45.5660195,66,164.47778
D1,Boa Esperança/MG,-21.0901253,-45.5660195,6,14.95253
1,Boa Esperança/PR,-24.2411024,-52.7860277,26,633.37393
1,Boa Hora/PI,-4.4094627,-42.1255341,66,973.30777
1,Boa Nova/BA,-14.365907,-40.2063056,9,71.24199
1,Boa Ventura/PB,-7.4202462,-38.2156782,2,37.27171
1,Boa Viagem/CE,-5.1261877,-39.7300055,206,378.18983
D1,Boa Viagem/CE,-5.1261877,-39.7300055,14,25.70222
1,Boa Vista da Aparecida/PR,-25.4357216,-53.4067721,64,843.10368
D1,Boa Vista da Aparecida/PR,-25.4357216,-53.4067721,1,13.17349
1,Boa Vista das Missões/RS,-27.6677983,-53.3127622,3,142.99333
1,Boa Vista do Cadeado/RS,-28.5783827,-53.8123759,3,121.45749
1,Boa Vista do Gurupi/MA,-1.7981168,-46.3071882,13,139.98062
D1,Boa Vista do Gurupi/MA,-1.7981168,-46.3071882,2,21.53548
1,Boa Vista do Incra/RS,-28.8195551,-53.3866624,8,307.33769
1,Boa Vista do Ramos/AM,-2.9716927,-57.5869819,281,1463.00828
D1,Boa Vista do Ramos/AM,-2.9716927,-57.5869819,2,10.41287
1,Boa Vista do Sul/RS,-29.3510488,-51.6779679,16,574.91915
D1,Boa Vista do Sul/RS,-29.3510488,-51.6779679,1,35.93245
1,Boa Vista do Tupim/BA,-12.6605988,-40.6083594,18,96.89922
1,Boa Vista/PB,-7.2620711,-36.2415161,63,893.49029
D1,Boa Vista/PB,-7.2620711,-36.2415161,1,14.18239
1,Boa Vista/RR,2.8208478,-60.6719582,20724,5191.21371
D1,Boa Vista/RR,2.8208478,-60.6719582,368,92.18137
1,Boca da Mata/AL,-9.6452054,-36.2116658,881,3229.35376
D1,Boca da Mata/AL,-9.6452054,-36.2116658,15,54.98332
1,Boca do Acre/AM,-8.7553487,-67.3930873,809,2358.05060
D1,Boca do Acre/AM,-8.7553487,-67.3930873,11,32.06249
1,Bocaina de Minas/MG,-22.167778,-44.394722,6,117.87819
1,Bocaina do Sul/SC,-27.745494,-49.942279,3,86.35579
1,Bocaina/PI,-6.9445939,-41.3224599,62,1377.77778
1,Bocaina/SP,-22.1421831,-48.522276,81,656.98759
D1,Bocaina/SP,-22.1421831,-48.522276,3,24.33287
1,Bocaiúva do Sul/PR,-25.206591,-49.114131,76,587.14462
D1,Bocaiúva do Sul/PR,-25.206591,-49.114131,1,7.72559
1,Bocaiúva/MG,-17.1160208,-43.8122678,80,160.06723
D1,Bocaiúva/MG,-17.1160208,-43.8122678,2,4.00168
1,Bodocó/PE,-7.777592,-39.933797,109,285.74425
D1,Bodocó/PE,-7.777592,-39.933797,5,13.10753
1,Bodoquena/MS,-20.5508775,-56.6769653,3,38.09524
1,Bodó/RN,-5.9866104,-36.4134824,3,134.95277
1,Bofete/SP,-23.1019554,-48.2610535,64,545.60955
D1,Bofete/SP,-23.1019554,-48.2610535,3,25.57545
1,Boituva/SP,-23.2838893,-47.6738231,430,704.95270
D1,Boituva/SP,-23.2838893,-47.6738231,13,21.31252
1,Bom Conselho/PE,-9.169191,-36.685683,333,685.83433
D1,Bom Conselho/PE,-9.169191,-36.685683,12,24.71475
1,Bom Despacho/MG,-19.7375242,-45.2517288,140,276.65250
D1,Bom Despacho/MG,-19.7375242,-45.2517288,2,3.95218
1,Bom Jardim da Serra/SC,-28.3380324,-49.625588,1,21.08370
1,Bom Jardim de Goiás/GO,-16.2062659,-52.172793,48,542.92501
D1,Bom Jardim de Goiás/GO,-16.2062659,-52.172793,1,11.31094
1,Bom Jardim de Minas/MG,-21.9476466,-44.1906033,3,46.33920
1,Bom Jardim/MA,-3.54129,-45.606004,666,1599.80783
D1,Bom Jardim/MA,-3.54129,-45.606004,16,38.43382
1,Bom Jardim/PE,-7.7961572,-35.5871696,275,701.81707
D1,Bom Jardim/PE,-7.7961572,-35.5871696,21,53.59330
1,Bom Jardim/RJ,-22.1515328,-42.4186683,70,255.04627
D1,Bom Jardim/RJ,-22.1515328,-42.4186683,2,7.28704
1,Bom Jesus da Lapa/BA,-13.250571,-43.410754,107,154.74056
1,Bom Jesus da Penha/MG,-21.0165299,-46.5226644,1,23.71354
1,Bom Jesus da Serra/BA,-14.3724084,-40.5047119,60,607.28745
1,Bom Jesus das Selvas/MA,-4.4878075,-46.8526639,1184,3479.48748
D1,Bom Jesus das Selvas/MA,-4.4878075,-46.8526639,7,20.57129
1,Bom Jesus de Goiás/GO,-18.2174587,-49.739721,114,452.09391
D1,Bom Jesus de Goiás/GO,-18.2174587,-49.739721,1,3.96574
1,Bom Jesus do Amparo/MG,-19.7045132,-43.4752911,10,164.39257
1,Bom Jesus do Araguaia/MT,-12.1725897,-51.5074425,33,501.51976
1,Bom Jesus do Galho/MG,-19.8283191,-42.3162256,25,167.39203
D1,Bom Jesus do Galho/MG,-19.8283191,-42.3162256,4,26.78273
1,Bom Jesus do Itabapoana/RJ,-21.1341025,-41.680095,358,965.06362
D1,Bom Jesus do Itabapoana/RJ,-21.1341025,-41.680095,3,8.08713
1,Bom Jesus do Norte/ES,-21.1254776,-41.6711646,175,1761.27214
D1,Bom Jesus do Norte/ES,-21.1254776,-41.6711646,3,30.19324
1,Bom Jesus do Oeste/SC,-26.6929713,-53.0967453,1,46.68534
1,Bom Jesus do Sul/PR,-26.1922507,-53.6002033,6,169.44366
D1,Bom Jesus do Sul/PR,-26.1922507,-53.6002033,1,28.24061
1,Bom Jesus do Tocantins/PA,-5.0471796,-48.5978362,170,1001.11890
1,Bom Jesus do Tocantins/TO,-8.96306,-48.165043,22,449.53004
1,Bom Jesus dos Perdões/SP,-23.1353864,-46.4648052,69,271.14115
1,Bom Jesus/PB,-6.8156725,-38.6551841,8,312.37798
1,Bom Jesus/PI,-9.0711644,-44.3583926,548,2176.41686
D1,Bom Jesus/PI,-9.0711644,-44.3583926,7,27.80095
1,Bom Jesus/RN,-5.9887544,-35.5821149,89,871.69442
D1,Bom Jesus/RN,-5.9887544,-35.5821149,1,9.79432
1,Bom Jesus/RS,-28.6692723,-50.4346894,69,607.98308
1,Bom Jesus/SC,-26.7350604,-52.3916519,48,1594.68439
1,Bom Lugar/MA,-4.3728019,-45.0366054,170,1043.32883
1,Bom Princípio do Piauí/PI,-3.1912777,-41.6430185,29,515.09769
D1,Bom Princípio do Piauí/PI,-3.1912777,-41.6430185,2,35.52398
1,Bom Princípio/RS,-29.489788,-51.3566782,170,1209.53397
1,Bom Progresso/RS,-27.5490948,-53.8655601,10,514.93306
1,Bom Repouso/MG,-22.4657069,-46.1485376,11,104.29506
1,Bom Retiro do Sul/RS,-29.6000007,-51.9359243,124,1005.84036
D1,Bom Retiro do Sul/RS,-29.6000007,-51.9359243,1,8.11162
1,Bom Retiro/SC,-27.798993,-49.486994,6,60.20470
1,Bom Sucesso de Itararé/SP,-24.3190016,-49.1446207,2,50.58169
1,Bom Sucesso/MG,-21.0323516,-44.7598082,21,119.29785
D1,Bom Sucesso/MG,-21.0323516,-44.7598082,1,5.68085
1,Bom Sucesso/PB,-6.4458948,-37.9297662,10,201.00503
1,Bom Sucesso/PR,-23.7088019,-51.7651297,14,199.08987
D1,Bom Sucesso/PR,-23.7088019,-51.7651297,1,14.22071
1,Bombinhas/SC,-27.1519159,-48.4875691,769,3889.92868
D1,Bombinhas/SC,-27.1519159,-48.4875691,1,5.05842
1,Bonfim do Piauí/PI,-9.1648678,-42.8734415,27,476.19048
1,Bonfim/MG,-20.3266626, -44.2386157,17,247.52475
D1,Bonfim/MG,-20.3266626, -44.2386157,1,14.56028
1,Bonfim/RR,3.3613818,-59.8427241,291,2345.07213
D1,Bonfim/RR,3.3613818,-59.8427241,6,48.35200
1,Bonfinópolis de Minas/MG,-16.5660011,-45.98645,55,1001.27435
D1,Bonfinópolis de Minas/MG,-16.5660011,-45.98645,2,36.40998
1,Bonfinópolis/GO,-16.6172709,-48.9615701,103,1061.19926
D1,Bonfinópolis/GO,-16.6172709,-48.9615701,2,20.60581
1,Boninal/BA,-12.7095183,-41.8299984,5,34.79955
1,Bonito de Minas/MG,-15.3191266,-44.7544,4,35.61888
1,Bonito de Santa Fé/PB,-7.3143332,-38.5146677,9,75.52236
D1,Bonito de Santa Fé/PB,-7.3143332,-38.5146677,1,8.39137
1,Bonito/BA,-11.9665473,-41.2649896,14,83.51229
D1,Bonito/BA,-11.9665473,-41.2649896,1,5.96516
1,Bonito/MS,-21.1264766,-56.4902208,105,477.79396
1,Bonito/PA,-1.3605722,-47.3049907,211,1295.59131
D1,Bonito/PA,-1.3605722,-47.3049907,7,42.98170
1,Bonito/PE,-8.4721161,-35.7314591,182,477.26438
D1,Bonito/PE,-8.4721161,-35.7314591,20,52.44664
1,Bonópolis/GO,-13.649331,-49.8329113,2,45.40295
1,Boqueirão do Leão/RS,-29.30332,-52.4296817,3,38.89033
1,Boqueirão do Piauí/PI,-4.4850148,-42.1095161,68,1061.33916
D1,Boqueirão do Piauí/PI,-4.4850148,-42.1095161,1,15.60793
1,Boqueirão/PB,-7.487004,-36.130887,257,1443.49584
D1,Boqueirão/PB,-7.487004,-36.130887,4,22.46686
1,Boquim/SE,-11.1450175,-37.6204228,247,921.09189
D1,Boquim/SE,-11.1450175,-37.6204228,8,29.83294
1,Boquira/BA,-12.8184859,-42.7270883,17,79.04036
1,Boracéia/SP,-22.195355,-48.7801925,22,456.14763
1,Borba/AM,-4.3934778,-59.5947721,631,1533.00454
D1,Borba/AM,-4.3934778,-59.5947721,22,53.44865
1,Borborema/PB,-6.8066718,-35.5990191,8,152.00456
1,Borborema/SP,-21.6212706,-49.074135,44,274.21164
1,Borda da Mata/MG,-22.274167,-46.165278,58,298.78426
D1,Borda da Mata/MG,-22.274167,-46.165278,3,15.45436
1,Borebi/SP,-22.5700178,-48.9714871,15,565.39766
D1,Borebi/SP,-22.5700178,-48.9714871,1,37.69318
1,Borrazópolis/PR,-23.9393362,-51.5850786,5,75.84951
1,Borá/SP,-22.2701088,-50.544407,1,119.47431
1,Bossoroca/RS,-28.7278885,-54.9120278,5,79.63051
1,Botelhos/MG,-21.65,-46.394722,22,146.95077
D1,Botelhos/MG,-21.65,-46.394722,1,6.67958
1,Botucatu/SP,-22.8879628,-48.4410712,1071,731.07299
D1,Botucatu/SP,-22.8879628,-48.4410712,23,15.69998
1,Botuporã/BA,-13.3744752,-42.5198469,3,29.38008
1,Botuverá/SC,-27.200749,-49.068892,55,1048.41784
1,Bozano/RS,-28.3669953,-53.7705165,1,47.10316
1,Braga/RS,-27.617348,-53.740514,3,89.47211
1,Braganey/PR,-24.8179919,-53.118506,33,608.07076
D1,Braganey/PR,-24.8179919,-53.118506,1,18.42639
1,Bragança Paulista/SP,-22.9520235,-46.5418586,974,577.46579
D1,Bragança Paulista/SP,-22.9520235,-46.5418586,23,13.63626
1,Bragança/PA,-1.0573967,-46.7635406,1991,1559.29389
D1,Bragança/PA,-1.0573967,-46.7635406,94,73.61809
1,Branquinha/AL,-9.2478057,-36.0152009,102,971.98399
D1,Branquinha/AL,-9.2478057,-36.0152009,5,47.64627
1,Brasil Novo/PA,-3.3055853,-52.539198,465,3082.32799
D1,Brasil Novo/PA,-3.3055853,-52.539198,8,53.02930
1,Brasileira/PI,-4.131182,-41.7824969,49,588.30592
1,Brasilândia de Minas/MG,-17.0096469,-46.0087183,33,199.54045
1,Brasilândia do Sul/PR,-24.1975793,-53.527551,13,490.38099
1,Brasilândia do Tocantins/TO,-8.3886619,-48.4842729,2,90.86779
1,Brasilândia/MS,-21.255575,-52.0365617,51,429.58221
D1,Brasilândia/MS,-21.255575,-52.0365617,2,16.84636
1,Brasiléia/AC,-11.0010413,-68.7487894,638,2427.88644
D1,Brasiléia/AC,-11.0010413,-68.7487894,9,34.24918
1,Brasnorte/MT,-12.1227151,-58.0050109,14,71.08403
1,Brasília de Minas/MG,-16.2075114,-44.430559,21,64.92101
1,Brasília/DF,-15.7934036,-47.8823172,93254,3092.72675
D1,Brasília/DF,-15.7934036,-47.8823172,1270,42.11898
1,Brazabrantes/GO,-16.4291635,-49.3858216,38,1026.19498
1,Brazópolis/MG,-22.4742842,-45.6165577,10,69.16108
1,Braço do Norte/SC,-28.2728633,-49.1622712,756,2260.08969
D1,Braço do Norte/SC,-28.2728633,-49.1622712,6,17.93722
1,Braço do Trombudo/SC,-27.358578,-49.882145,16,427.46460
1,Braúna/SP,-21.5015319,-50.3175246,41,721.06929
D1,Braúna/SP,-21.5015319,-50.3175246,4,70.34822
1,Braúnas/MG,-19.055556,-42.716111,10,208.28994
D1,Braúnas/MG,-19.055556,-42.716111,1,20.82899
1,Brejetuba/ES,-20.1465817,-41.2902303,280,2257.33634
1,Brejinho de Nazaré/TO,-11.0205883,-48.5722906,30,545.75223
D1,Brejinho de Nazaré/TO,-11.0205883,-48.5722906,2,36.38348
1,Brejinho/PE,-7.3482153,-37.28538,30,400.69454
1,Brejinho/RN,-6.1957907,-35.3583019,116,913.45775
D1,Brejinho/RN,-6.1957907,-35.3583019,3,23.62391
1,Brejo Alegre/SP,-21.1671191,-50.1850393,9,314.13613
1,Brejo Grande do Araguaia/PA,-5.7011449,-48.4037308,74,1002.71003
D1,Brejo Grande do Araguaia/PA,-5.7011449,-48.4037308,1,13.55014
1,Brejo Grande/SE,-10.4287358,-36.4667918,34,409.19485
D1,Brejo Grande/SE,-10.4287358,-36.4667918,3,36.10543
1,Brejo Santo/CE,-7.4909841,-38.9859152,439,887.28096
D1,Brejo Santo/CE,-7.4909841,-38.9859152,9,18.19027
1,Brejo da Madre de Deus/PE,-8.1409718,-36.3712527,551,1085.88546
D1,Brejo da Madre de Deus/PE,-8.1409718,-36.3712527,13,25.61980
1,Brejo de Areia/MA,-4.3316785,-45.5833334,111,1208.09752
D1,Brejo de Areia/MA,-4.3316785,-45.5833334,1,10.88376
1,Brejo do Cruz/PB,-6.32926065,-37.48746163303929,200,1416.23000
D1,Brejo do Cruz/PB,-6.32926065,-37.48746163303929,4,28.32460
1,Brejo do Piauí/PI,-8.207583,-42.8359849,4,103.22581
1,Brejo dos Santos/PB,-6.3769367,-37.8243125,17,263.60676
1,Brejo/MA,-3.6804397,-42.7529313,564,1549.57826
D1,Brejo/MA,-3.6804397,-42.7529313,17,46.70715
1,Brejão/PE,-9.029146,-36.566034,13,144.55688
1,Brejões/BA,-13.1033754,-39.7909837,18,125.91815
1,Breu Branco/PA,-3.7785073,-49.5684795,253,383.06635
D1,Breu Branco/PA,-3.7785073,-49.5684795,19,28.76783
1,Breves/PA,-1.68036,-50.479085,1536,1495.60374
D1,Breves/PA,-1.68036,-50.479085,77,74.97493
1,Britânia/GO,-15.2427599,-51.1602061,7,121.12822
1,Brochier/RS,-29.556766,-51.5963047,20,394.16634
1,Brodowski/SP,-20.984532,-47.657217,191,765.86872
D1,Brodowski/SP,-20.984532,-47.657217,4,16.03914
1,Brotas/SP,-22.2840884,-48.1267265,30,122.93570
1,Brumadinho/MG,-20.143611,-44.2,426,1062.26467
D1,Brumadinho/MG,-20.143611,-44.2,2,4.98716
1,Brumado/BA,-14.29507325,-41.659307508575985,404,601.23521
D1,Brumado/BA,-14.29507325,-41.659307508575985,3,4.46462
1,Brunópolis/SC,-27.310953,-50.837585,12,495.86777
1,Brusque/SC,-27.0964628,-48.9136323,1621,1203.20955
D1,Brusque/SC,-27.0964628,-48.9136323,19,14.10301
1,Brás Pires/MG,-20.8483109,-43.2430524,4,92.31479
1,Bueno Brandão/MG,-22.441976,-46.3517971,16,145.44132
D1,Bueno Brandão/MG,-22.441976,-46.3517971,3,27.27025
1,Buenos Aires/PE,-7.7218931,-35.326587,36,273.66021
D1,Buenos Aires/PE,-7.7218931,-35.326587,3,22.80502
1,Buenópolis/MG,-17.8756607,-44.1749365,80,771.82827
D1,Buenópolis/MG,-17.8756607,-44.1749365,1,9.64785
1,Buerarema/BA,-14.9571177,-39.3008035,219,1193.52553
D1,Buerarema/BA,-14.9571177,-39.3008035,9,49.04899
1,Bugre/MG,-19.4257687,-42.2556,13,326.46911
1,Bujari/AC,-9.8309656,-67.9520886,297,2893.04500
D1,Bujari/AC,-9.8309656,-67.9520886,5,48.70446
1,Bujaru/PA,-1.5169239,-48.0410699,234,803.24042
D1,Bujaru/PA,-1.5169239,-48.0410699,22,75.51833
1,Buri/SP,-23.79849,-48.598924,85,427.60841
D1,Buri/SP,-23.79849,-48.598924,4,20.12275
1,Buritama/SP,-21.0664017,-50.1448077,104,606.62622
D1,Buritama/SP,-21.0664017,-50.1448077,5,29.16472
1,Buriti Alegre/GO,-18.1377879,-49.0404411,147,1554.07548
1,Buriti Bravo/MA,-5.8391884,-43.8367876,119,498.24150
1,Buriti de Goiás/GO,-16.180644,-50.4287479,18,723.47267
1,Buriti do Tocantins/TO,-5.3187439,-48.2256609,136,1198.44907
1,Buriti dos Lopes/PI,-3.1776723,-41.8707444,543,2745.05839
D1,Buriti dos Lopes/PI,-3.1776723,-41.8707444,10,50.55356
1,Buriti dos Montes/PI,-5.3136171,-41.0971256,7,84.91024
D1,Buriti dos Montes/PI,-5.3136171,-41.0971256,1,12.13003
1,Buriti/MA,-3.9430944,-42.9244281,315,1098.40296
1,Buriticupu/MA,-4.3227472,-46.4516989,1750,2418.53009
D1,Buriticupu/MA,-4.3227472,-46.4516989,4,5.52807
1,Buritinópolis/GO,-14.4589282,-46.4293104,18,546.78007
1,Buritirama/BA,-10.7148421,-43.6362327,61,288.08917
D1,Buritirama/BA,-10.7148421,-43.6362327,1,4.72277
1,Buritirana/MA,-5.5897455,-47.0148915,209,1354.50421
D1,Buritirana/MA,-5.5897455,-47.0148915,6,38.88529
1,Buritis/MG,-15.621389,-46.423889,123,495.14915
D1,Buritis/MG,-15.621389,-46.423889,1,4.02560
1,Buritis/RO,-10.2054937,-63.8281954,225,567.40808
D1,Buritis/RO,-10.2054937,-63.8281954,4,10.08725
1,Buritizal/SP,-20.1933264,-47.7097165,27,602.54407
1,Buritizeiro/MG,-17.3667765,-44.9647781,82,292.27260
D1,Buritizeiro/MG,-17.3667765,-44.9647781,3,10.69290
1,Butiá/RS,-30.1256795,-51.9692224,87,415.45294
D1,Butiá/RS,-30.1256795,-51.9692224,2,9.55064
1,Buíque/PE,-8.6239732,-37.157296,142,243.24232
D1,Buíque/PE,-8.6239732,-37.157296,4,6.85190
1,Bálsamo/SP,-20.7343722,-49.5807484,103,1135.86237
D1,Bálsamo/SP,-20.7343722,-49.5807484,2,22.05558
0,CASO SEM LOCALIZAÇÃO DEFINIDA/AC,-9.884083190922777,-67.85119819780795,236,26.75934
D0,CASO SEM LOCALIZAÇÃO DEFINIDA/AC,-9.884083190922777,-67.85119819780795,6,0.68032
0,CASO SEM LOCALIZAÇÃO DEFINIDA/AL,-9.931093434363673,-35.609611600637464,134,4.01515
D0,CASO SEM LOCALIZAÇÃO DEFINIDA/AL,-9.931093434363673,-35.609611600637464,7,0.20975
0,CASO SEM LOCALIZAÇÃO DEFINIDA/BA,-13.415069300066518,-38.14174656569957,4405,29.61730
D0,CASO SEM LOCALIZAÇÃO DEFINIDA/BA,-13.415069300066518,-38.14174656569957,39,0.26222
0,CASO SEM LOCALIZAÇÃO DEFINIDA/CE,-3.3445126297392798,-38.624961942434304,3401,37.24235
D0,CASO SEM LOCALIZAÇÃO DEFINIDA/CE,-3.3445126297392798,-38.624961942434304,20,0.21901
0,CASO SEM LOCALIZAÇÃO DEFINIDA/ES,-20.30989267097039,-39.81745156645774,707,17.59297
D0,CASO SEM LOCALIZAÇÃO DEFINIDA/ES,-20.30989267097039,-39.81745156645774,11,0.27372
0,CASO SEM LOCALIZAÇÃO DEFINIDA/GO,-16.701590966270153,-49.164524059025034,820,11.68365
D0,CASO SEM LOCALIZAÇÃO DEFINIDA/GO,-16.701590966270153,-49.164524059025034,25,0.35621
0,CASO SEM LOCALIZAÇÃO DEFINIDA/MG,-19.97049116501593,-43.8852149072783,3774,17.82813
D0,CASO SEM LOCALIZAÇÃO DEFINIDA/MG,-19.97049116501593,-43.8852149072783,118,0.55742
0,CASO SEM LOCALIZAÇÃO DEFINIDA/MS,-20.391549234908513,-54.645156949758444,712,25.62086
D0,CASO SEM LOCALIZAÇÃO DEFINIDA/MS,-20.391549234908513,-54.645156949758444,11,0.39583
0,CASO SEM LOCALIZAÇÃO DEFINIDA/MT,-15.54791153961863,-56.17143998972475,13928,399.71692
D0,CASO SEM LOCALIZAÇÃO DEFINIDA/MT,-15.54791153961863,-56.17143998972475,496,14.23461
0,CASO SEM LOCALIZAÇÃO DEFINIDA/PA,-0.09317078214359542,-48.0050231510481,1671,19.42376
D0,CASO SEM LOCALIZAÇÃO DEFINIDA/PA,-0.09317078214359542,-48.0050231510481,43,0.49983
0,CASO SEM LOCALIZAÇÃO DEFINIDA/PB,-7.1049355696146606,-34.68696690234351,1446,35.98692
D0,CASO SEM LOCALIZAÇÃO DEFINIDA/PB,-7.1049355696146606,-34.68696690234351,35,0.87105
0,CASO SEM LOCALIZAÇÃO DEFINIDA/PE,-8.121628543819208,-34.57313921302556,3715,38.87174
D0,CASO SEM LOCALIZAÇÃO DEFINIDA/PE,-8.121628543819208,-34.57313921302556,135,1.41257
0,CASO SEM LOCALIZAÇÃO DEFINIDA/PR,-25.69415946385943,-48.10141676336737,4990,43.64193
D0,CASO SEM LOCALIZAÇÃO DEFINIDA/PR,-25.69415946385943,-48.10141676336737,131,1.14571
0,CASO SEM LOCALIZAÇÃO DEFINIDA/RN,-5.749310788669161,-34.95302586257457,785,22.38474
D0,CASO SEM LOCALIZAÇÃO DEFINIDA/RN,-5.749310788669161,-34.95302586257457,24,0.68437
0,CASO SEM LOCALIZAÇÃO DEFINIDA/RO,-8.681174926655274,-63.9216949899276,793,44.62012
D0,CASO SEM LOCALIZAÇÃO DEFINIDA/RO,-8.681174926655274,-63.9216949899276,17,0.95655
0,CASO SEM LOCALIZAÇÃO DEFINIDA/RR,2.813328208465927,-60.663338675861986,1965,324.38536
D0,CASO SEM LOCALIZAÇÃO DEFINIDA/RR,2.813328208465927,-60.663338675861986,16,2.64131
0,CASO SEM LOCALIZAÇÃO DEFINIDA/SC,-27.675643660562308,-48.18313219398259,1065,14.86436
0,CASO SEM LOCALIZAÇÃO DEFINIDA/SE,-11.03002091978736,-36.89283180376513,1735,75.47758
D0,CASO SEM LOCALIZAÇÃO DEFINIDA/SE,-11.03002091978736,-36.89283180376513,37,1.60961
0,CASO SEM LOCALIZAÇÃO DEFINIDA/SP,-24.30968974555485,-46.21366504207253,16355,35.61703
D0,CASO SEM LOCALIZAÇÃO DEFINIDA/SP,-24.30968974555485,-46.21366504207253,311,0.67728
0,CASO SEM LOCALIZAÇÃO DEFINIDA/TO,-10.213012114749148,-48.40023803990334,1497,95.17658
D0,CASO SEM LOCALIZAÇÃO DEFINIDA/TO,-10.213012114749148,-48.40023803990334,14,0.89009
1,Caapiranga/AM,-3.3188884,-61.2096404,224,1712.40731
D1,Caapiranga/AM,-3.3188884,-61.2096404,4,30.57870
1,Caaporã/PB,-7.510234,-34.9154114,873,3999.45025
D1,Caaporã/PB,-7.510234,-34.9154114,11,50.39399
1,Caarapó/MS,-22.6349267,-54.8240903,147,487.17439
1,Caatiba/BA,-14.9782759,-40.4092325,83,1228.17402
1,Cabaceiras do Paraguaçu/BA,-12.5377868,-39.1901339,32,170.14941
D1,Cabaceiras do Paraguaçu/BA,-12.5377868,-39.1901339,1,5.31717
1,Cabaceiras/PB,-7.4899156,-36.2860501,49,873.28462
1,Cabeceira Grande/MG,-16.0297,-47.0906,11,158.29616
1,Cabeceiras do Piauí/PI,-4.4733665,-42.3098716,147,1388.62649
D1,Cabeceiras do Piauí/PI,-4.4733665,-42.3098716,1,9.44644
1,Cabeceiras/GO,-15.7995459,-46.9264991,7,87.57663
D1,Cabeceiras/GO,-15.7995459,-46.9264991,1,12.51095
1,Cabedelo/PB,-6.97324,-34.8351609,2233,3296.62218
D1,Cabedelo/PB,-6.97324,-34.8351609,37,54.62383
1,Cabixi/RO,-13.4956065,-60.5424442,37,696.53614
D1,Cabixi/RO,-13.4956065,-60.5424442,3,56.47590
1,Cabo Frio/RJ,-22.8804369,-42.0189227,1281,565.50050
D1,Cabo Frio/RJ,-22.8804369,-42.0189227,66,29.13586
1,Cabo Verde/MG,-21.4743338,-46.3964995,4,28.41918
1,Cabo de Santo Agostinho/PE,-8.2838945,-35.0320984,1317,636.08439
D1,Cabo de Santo Agostinho/PE,-8.2838945,-35.0320984,197,95.14702
1,Cabreúva/SP,-23.3075813,-47.1324417,539,1084.35432
D1,Cabreúva/SP,-23.3075813,-47.1324417,31,62.36546
1,Cabrobó/PE,-8.5083701,-39.3106961,257,751.00085
D1,Cabrobó/PE,-8.5083701,-39.3106961,2,5.84436
1,Cabrália Paulista/SP,-22.4562909,-49.3385645,48,1125.70356
1,Cacaulândia/RO,-10.3380043,-62.9007231,20,321.02729
1,Cacequi/RS,-29.8838059,-54.8273443,9,71.65035
1,Cachoeira Alta/GO,-18.7618269,-50.9432431,131,1049.34316
D1,Cachoeira Alta/GO,-18.7618269,-50.9432431,2,16.02051
1,Cachoeira Dourada/GO,-18.4934204,-49.481062,16,198.33891
1,Cachoeira Dourada/MG,-18.517136,-49.5002062,3,111.44131
1,Cachoeira Grande/MA,-2.9290492,-44.0573223,145,1537.48277
D1,Cachoeira Grande/MA,-2.9290492,-44.0573223,3,31.80999
1,Cachoeira Paulista/SP,-22.666498,-45.015384,90,270.05131
D1,Cachoeira Paulista/SP,-22.666498,-45.015384,6,18.00342
1,Cachoeira da Prata/MG,-19.524723,-44.453056,9,249.79184
1,Cachoeira de Goiás/GO,-16.6688414,-50.6435997,1,74.01925
1,Cachoeira de Minas/MG,-22.3554043,-45.7796324,26,225.16671
1,Cachoeira de Pajeú/MG,-15.965833,-41.496666,11,116.87208
1,Cachoeira do Arari/PA,-1.0143572,-48.9621089,247,1039.25611
D1,Cachoeira do Arari/PA,-1.0143572,-48.9621089,10,42.07515
1,Cachoeira do Piriá/PA,-1.7599443,-46.5446954,395,1165.19174
D1,Cachoeira do Piriá/PA,-1.7599443,-46.5446954,1,2.94985
1,Cachoeira do Sul/RS,-30.0474778,-52.8905413,170,206.81014
D1,Cachoeira do Sul/RS,-30.0474778,-52.8905413,1,1.21653
1,Cachoeira dos Índios/PB,-6.9259193,-38.6742159,58,566.18508
D1,Cachoeira dos Índios/PB,-6.9259193,-38.6742159,3,29.28544
1,Cachoeira/BA,-12.5998256,-38.9665918,246,734.98656
D1,Cachoeira/BA,-12.5998256,-38.9665918,5,14.93875
1,Cachoeiras de Macacu/RJ,-22.4626861,-42.6534414,430,729.59262
D1,Cachoeiras de Macacu/RJ,-22.4626861,-42.6534414,23,39.02472
1,Cachoeirinha/PE,-8.4906364,-36.2338963,231,1133.46418
D1,Cachoeirinha/PE,-8.4906364,-36.2338963,14,68.69480
1,Cachoeirinha/RS,-29.9493353,-51.0898927,1008,773.64095
D1,Cachoeirinha/RS,-29.9493353,-51.0898927,17,13.04752
1,Cachoeirinha/TO,-6.118647,-47.9208885,10,439.56044
1,Cachoeiro de Itapemirim/ES,-20.848084,-41.11129,2947,1410.23678
D1,Cachoeiro de Itapemirim/ES,-20.848084,-41.11129,97,46.41770
1,Cacimba de Areia/PB,-7.1288513,-37.1575194,7,190.11407
1,Cacimba de Dentro/PB,-6.6425101,-35.7929304,138,802.93245
D1,Cacimba de Dentro/PB,-6.6425101,-35.7929304,1,5.81835
1,Cacimbas/PB,-7.2125451,-37.0593398,41,571.58790
D1,Cacimbas/PB,-7.2125451,-37.0593398,1,13.94117
1,Cacimbinhas/AL,-9.401212,-36.991082,95,874.93093
D1,Cacimbinhas/AL,-9.401212,-36.991082,2,18.41960
1,Cacique Doble/RS,-27.7700117,-51.6616409,29,572.55676
1,Cacoal/RO,-11.4333,-61.4420502,645,755.63210
D1,Cacoal/RO,-11.4333,-61.4420502,11,12.88675
1,Caconde/SP,-21.527995,-46.643659,31,163.28681
1,Caculé/BA,-14.4990734,-42.2233006,8,34.52741
D1,Caculé/BA,-14.4990734,-42.2233006,1,4.31593
1,Caetanos/BA,-14.3387456,-40.9085971,10,68.76633
1,Caetanópolis/MG,-19.2947496,-44.4138386,20,172.05781
1,Caetité/BA,-14.0691776,-42.4852428,71,139.28396
D1,Caetité/BA,-14.0691776,-42.4852428,1,1.96175
1,Caeté/MG,-19.897777,-43.670278,126,281.76573
D1,Caeté/MG,-19.897777,-43.670278,1,2.23624
1,Caetés/PE,-8.7728788,-36.6255835,219,762.03069
D1,Caetés/PE,-8.7728788,-36.6255835,5,17.39796
1,Cafarnaum/BA,-11.691399,-41.468823,95,515.26821
1,Cafeara/PR,-22.78905,-51.714195,25,852.07907
1,Cafelândia/PR,-24.6176963,-53.3218057,63,347.68212
D1,Cafelândia/PR,-24.6176963,-53.3218057,1,5.51876
1,Cafelândia/SP,-21.8054355,-49.6030627,128,720.43676
D1,Cafelândia/SP,-21.8054355,-49.6030627,2,11.25682
1,Cafezal do Sul/PR,-23.900508,-53.512418,5,123.63996
1,Caiabu/SP,-22.0143038,-51.2356597,20,477.21308
D1,Caiabu/SP,-22.0143038,-51.2356597,2,47.72131
1,Caiana/MG,-20.695555,-41.924723,12,218.34061
D1,Caiana/MG,-20.695555,-41.924723,1,18.19505
1,Caiapônia/GO,-16.9538779,-51.8090761,10,52.87368
1,Caibaté/RS,-28.290475,-54.645407,1,20.63558
1,Caibi/SC,-27.0751925,-53.2502133,25,406.63630
D1,Caibi/SC,-27.0751925,-53.2502133,1,16.26545
1,Caicó/RN,-6.4594544,-37.0971911,738,1086.06075
D1,Caicó/RN,-6.4594544,-37.0971911,14,20.60278
1,Caieiras/SP,-23.3644621,-46.7484765,1017,1002.26668
D1,Caieiras/SP,-23.3644621,-46.7484765,62,61.10180
1,Cairu/BA,-13.4860505,-39.0455744,115,632.70246
D1,Cairu/BA,-13.4860505,-39.0455744,3,16.50528
1,Caiuá/SP,-21.8319357,-51.9887179,11,187.26592
1,Caiçara do Norte/RN,-5.0645017,-36.0561226,74,1129.94350
D1,Caiçara do Norte/RN,-5.0645017,-36.0561226,2,30.53901
1,Caiçara do Rio do Vento/RN,-5.757968,-36.00089,59,1601.52009
D1,Caiçara do Rio do Vento/RN,-5.757968,-36.00089,1,27.14441
1,Caiçara/PB,-6.6146866,-35.4681434,350,4860.43605
D1,Caiçara/PB,-6.6146866,-35.4681434,3,41.66088
1,Caiçara/RS,-27.2750478,-53.4310053,15,316.25553
1,Cajamar/SP,-23.3561111,-46.8769444,883,1149.72461
D1,Cajamar/SP,-23.3561111,-46.8769444,53,69.00952
1,Cajapió/MA,-2.8778715,-44.6746871,5,44.73472
D1,Cajapió/MA,-2.8778715,-44.6746871,2,17.89389
1,Cajari/MA,-3.3213076,-45.0118757,120,619.22700
D1,Cajari/MA,-3.3213076,-45.0118757,1,5.16022
1,Cajati/SP,-24.7272376,-48.1077914,354,1239.97338
D1,Cajati/SP,-24.7272376,-48.1077914,3,10.50825
1,Cajazeiras do Piauí/PI,-6.794271,-42.3935024,4,112.39112
1,Cajazeiras/PB,-6.8897849,-38.5570389,1020,1645.34706
D1,Cajazeiras/PB,-6.8897849,-38.5570389,24,38.71405
1,Cajazeirinhas/PB,-6.961442,-37.7993733,13,407.14062
1,Cajobi/SP,-20.8776238,-48.8106972,44,417.37811
D1,Cajobi/SP,-20.8776238,-48.8106972,3,28.45760
1,Cajueiro da Praia/PI,-2.931114,-41.340801,176,2303.06203
D1,Cajueiro da Praia/PI,-2.931114,-41.340801,4,52.34232
1,Cajueiro/AL,-9.399589,-36.1524309,163,766.55380
D1,Cajueiro/AL,-9.399589,-36.1524309,10,47.02784
1,Cajuri/MG,-20.7901414,-42.7954489,32,802.60848
1,Cajuru/SP,-21.2759978,-47.3046035,115,439.48485
D1,Cajuru/SP,-21.2759978,-47.3046035,2,7.64321
1,Caldas Brandão/PB,-7.1027959,-35.3254676,138,2294.64583
D1,Caldas Brandão/PB,-7.1027959,-35.3254676,2,33.25574
1,Caldas Novas/GO,-17.745,-48.625,290,318.11500
D1,Caldas Novas/GO,-17.745,-48.625,5,5.48474
1,Caldas/MG,-21.923611,-46.386111,24,165.74586
1,Caldazinha/GO,-16.7116649,-49.0012601,15,394.32177
1,Caldeirão Grande do Piauí/PI,-7.3310393,-40.6374433,28,484.76454
1,Caldeirão Grande/BA,-11.0208483,-40.3041387,61,457.71742
D1,Caldeirão Grande/BA,-11.0208483,-40.3041387,1,7.50356
1,Califórnia/PR,-23.6672543,-51.3554556,28,326.72112
D1,Califórnia/PR,-23.6672543,-51.3554556,2,23.33722
1,Calmon/SC,-26.6023644,-51.0992893,3,89.65929
1,Calumbi/PE,-7.9389746,-38.1516871,46,800.00000
D1,Calumbi/PE,-7.9389746,-38.1516871,1,17.39130
1,Calçado/PE,-8.7413446,-36.3351787,36,325.70343
D1,Calçado/PE,-8.7413446,-36.3351787,1,9.04732
1,Calçoene/AP,2.4981757,-50.9539503,811,7295.13358
D1,Calçoene/AP,2.4981757,-50.9539503,5,44.97616
1,Camacan/BA,-15.4166631,-39.4930088,722,2257.09641
D1,Camacan/BA,-15.4166631,-39.4930088,14,43.76641
1,Camalaú/PB,-7.885031,-36.824191,1,16.63063
1,Camamu/BA,-13.9438142,-39.1060917,602,1704.60981
D1,Camamu/BA,-13.9438142,-39.1060917,8,22.65262
1,Camanducaia/MG,-22.755278,-46.144444,170,780.89113
D1,Camanducaia/MG,-22.755278,-46.144444,2,9.18695
1,Camapuã/MS,-19.5291747,-54.0434641,18,131.28145
D1,Camapuã/MS,-19.5291747,-54.0434641,1,7.29341
1,Camaquã/RS,-30.8524752,-51.8075619,213,321.45606
D1,Camaquã/RS,-30.8524752,-51.8075619,7,10.56428
1,Camaragibe/PE,-8.0213832,-34.9810768,1524,965.60813
D1,Camaragibe/PE,-8.0213832,-34.9810768,139,88.07056
1,Camargo/RS,-28.5865661,-52.2031474,23,841.56604
1,Camaçari/BA,-12.6998188,-38.3260762,3472,1160.69160
D1,Camaçari/BA,-12.6998188,-38.3260762,53,17.71793
1,Cambará do Sul/RS,-29.0489517,-50.145412,25,388.74203
1,Cambará/PR,-23.042273,-50.075281,68,268.13880
D1,Cambará/PR,-23.042273,-50.075281,1,3.94322
1,Cambira/PR,-23.600265,-51.581045,5,63.57279
1,Camboriú/SC,-27.0273601,-48.6535657,1105,1331.50177
D1,Camboriú/SC,-27.0273601,-48.6535657,20,24.09958
1,Cambuci/RJ,-21.5749919,-41.9107833,93,599.80651
D1,Cambuci/RJ,-21.5749919,-41.9107833,1,6.44953
1,Cambuquira/MG,-21.853056,-45.2953619,7,54.62775
1,Cambuí/MG,-22.6122501,-46.0572137,89,301.17424
D1,Cambuí/MG,-22.6122501,-46.0572137,2,6.76796
1,Cambé/PR,-23.2782035,-51.2779583,348,326.65934
D1,Cambé/PR,-23.2782035,-51.2779583,12,11.26412
1,Cametá/PA,-2.242949,-49.497885,4256,3086.51824
D1,Cametá/PA,-2.242949,-49.497885,84,60.91812
1,Camocim de São Félix/PE,-8.3616757,-35.7638903,99,527.57794
D1,Camocim de São Félix/PE,-8.3616757,-35.7638903,4,21.31628
1,Camocim/CE,-2.9009918,-40.8427389,2113,3319.14359
D1,Camocim/CE,-2.9009918,-40.8427389,73,114.66989
1,Campanha/MG,-21.8361108,-45.401986,14,84.00840
D1,Campanha/MG,-21.8361108,-45.401986,1,6.00060
1,Campanário/MG,-18.2398144,-41.7271768,2,53.74899
1,Campestre da Serra/RS,-28.7966535,-51.0958149,18,531.28689
1,Campestre de Goiás/GO,-16.7624179,-49.69497,9,247.93388
1,Campestre do Maranhão/MA,-6.1729113,-47.3640512,225,1565.32628
D1,Campestre do Maranhão/MA,-6.1729113,-47.3640512,1,6.95701
1,Campestre/AL,-8.8481634,-35.5660033,53,764.12918
D1,Campestre/AL,-8.8481634,-35.5660033,3,43.25260
1,Campestre/MG,-19.6142116,-43.219378,39,185.22916
1,Campina Grande do Sul/PR,-25.3046032,-49.0545355,322,743.85511
D1,Campina Grande do Sul/PR,-25.3046032,-49.0545355,9,20.79098
1,Campina Grande/PB,-7.2246743,-35.8771292,9767,2383.75910
D1,Campina Grande/PB,-7.2246743,-35.8771292,217,52.96158
1,Campina Verde/MG,-19.535277,-49.486389,51,258.29324
D1,Campina Verde/MG,-19.535277,-49.486389,1,5.06457
1,Campina da Lagoa/PR,-24.5937926,-52.8038965,10,70.41262
D1,Campina da Lagoa/PR,-24.5937926,-52.8038965,1,7.04126
1,Campina das Missões/RS,-27.9883295,-54.8411665,1,18.26818
1,Campina do Monte Alegre/SP,-23.5935653,-48.4801876,63,1045.81673
1,Campina do Simão/PR,-25.1086375,-51.8076658,3,77.18034
1,Campinas do Piauí/PI,-7.6593687,-41.8814875,15,267.23677
1,Campinas do Sul/RS,-27.7167968,-52.6257885,22,403.37367
1,Campinas/SP,-22.90556,-47.06083,15166,1259.55818
D1,Campinas/SP,-22.90556,-47.06083,618,51.32579
1,Campinorte/GO,-14.3136699,-49.1510931,45,356.40741
1,Campinápolis/MT,-14.5403731,-52.7970626,68,425.53191
D1,Campinápolis/MT,-14.5403731,-52.7970626,6,37.54693
1,Campo Alegre de Goiás/GO,-17.6337896,-47.779291,3,39.53090
1,Campo Alegre de Lourdes/BA,-9.5160326,-43.0101338,65,225.71012
D1,Campo Alegre de Lourdes/BA,-9.5160326,-43.0101338,2,6.94493
1,Campo Alegre do Fidalgo/PI,-8.3753852,-41.8364191,6,118.92963
D1,Campo Alegre do Fidalgo/PI,-8.3753852,-41.8364191,1,19.82161
1,Campo Alegre/AL,-9.7798607,-36.3575793,941,1649.05455
D1,Campo Alegre/AL,-9.7798607,-36.3575793,15,26.28674
1,Campo Alegre/SC,-26.1941684,-49.2657484,22,183.67006
D1,Campo Alegre/SC,-26.1941684,-49.2657484,1,8.34864
1,Campo Belo do Sul/SC,-27.8987563,-50.7586887,5,71.26568
1,Campo Belo/MG,-20.8975,-45.277223,304,562.66079
D1,Campo Belo/MG,-20.8975,-45.277223,8,14.80686
1,Campo Bom/RS,-29.674694,-51.060601,539,807.95059
D1,Campo Bom/RS,-29.674694,-51.060601,21,31.47859
1,Campo Bonito/PR,-25.0328004,-52.992976,37,965.30133
1,Campo Erê/SC,-26.3947432,-53.0790495,47,551.25498
1,Campo Florido/MG,-19.760833,-48.572223,26,318.97927
1,Campo Formoso/BA,-10.51055,-40.320031,485,681.12238
D1,Campo Formoso/BA,-10.51055,-40.320031,4,5.61750
1,Campo Grande do Piauí/PI,-7.1327559,-41.0381164,49,824.49941
D1,Campo Grande do Piauí/PI,-7.1327559,-41.0381164,1,16.82652
1,Campo Grande/AL,-9.9725,-36.74791447368421,147,1537.97866
D1,Campo Grande/AL,-9.9725,-36.74791447368421,1,10.46244
1,Campo Grande/MS,-20.4640173,-54.6162947,7919,883.83472
D1,Campo Grande/MS,-20.4640173,-54.6162947,86,9.59841
1,Campo Largo do Piauí/PI,-3.8104731,-42.6288333,78,1071.57577
D1,Campo Largo do Piauí/PI,-3.8104731,-42.6288333,4,54.95260
1,Campo Largo/PR,-25.4597726,-49.5270851,1224,927.25868
D1,Campo Largo/PR,-25.4597726,-49.5270851,24,18.18154
1,Campo Limpo Paulista/SP,-23.207791,-46.788919,537,634.37685
D1,Campo Limpo Paulista/SP,-23.207791,-46.788919,39,46.07206
1,Campo Limpo de Goiás/GO,-16.297101,-49.0894994,11,141.22480
1,Campo Magro/PR,-25.3691533,-49.4496921,152,518.45283
D1,Campo Magro/PR,-25.3691533,-49.4496921,3,10.23262
1,Campo Maior/PI,-4.8339574,-42.1739786,1423,3038.45579
D1,Campo Maior/PI,-4.8339574,-42.1739786,27,57.65166
1,Campo Mourão/PR,-24.046329,-52.37802,469,494.41803
D1,Campo Mourão/PR,-24.046329,-52.37802,10,10.54196
1,Campo Novo de Rondônia/RO,-10.5704235,-63.6199511,79,558.73824
D1,Campo Novo de Rondônia/RO,-10.5704235,-63.6199511,3,21.21791
1,Campo Novo do Parecis/MT,-13.658735,-57.890723,365,1032.23982
D1,Campo Novo do Parecis/MT,-13.658735,-57.890723,8,22.62443
1,Campo Novo/RS,-28.91500235,-52.331375687737626,12,267.61820
1,Campo Redondo/RN,-6.2420373,-36.1830606,113,1007.39948
D1,Campo Redondo/RN,-6.2420373,-36.1830606,2,17.83008
1,Campo Verde/MT,-15.5430787,-55.1590511,521,1182.98858
D1,Campo Verde/MT,-15.5430787,-55.1590511,8,18.16489
1,Campo do Brito/SE,-10.7496246,-37.4942276,201,1109.94533
D1,Campo do Brito/SE,-10.7496246,-37.4942276,4,22.08846
1,Campo do Meio/MG,-21.1072006,-45.8301735,5,42.90004
1,Campo do Tenente/PR,-25.9814143,-49.684518,42,526.91005
D1,Campo do Tenente/PR,-25.9814143,-49.684518,3,37.63643
1,Campos Altos/MG,-19.696389,-46.171389,50,323.39435
D1,Campos Altos/MG,-19.696389,-46.171389,2,12.93577
1,Campos Belos/GO,-13.0349839,-46.768112,56,281.59099
D1,Campos Belos/GO,-13.0349839,-46.768112,1,5.02841
1,Campos Borges/RS,-28.8852198,-52.999098,1,30.12048
1,Campos Gerais/MG,-21.2333342,-45.7584127,56,194.62014
D1,Campos Gerais/MG,-21.2333342,-45.7584127,2,6.95072
1,Campos Lindos/TO,-7.9740597,-46.8023881,11,108.73863
1,Campos Novos Paulista/SP,-22.601952,-49.998726,10,201.40987
1,Campos Novos/SC,-27.3962904,-51.2224397,253,698.04657
D1,Campos Novos/SC,-27.3962904,-51.2224397,2,5.51815
1,Campos Sales/CE,-7.0742675,-40.3740367,218,794.86619
D1,Campos Sales/CE,-7.0742675,-40.3740367,3,10.93853
1,Campos Verdes/GO,-14.2709062,-49.65746,12,560.48575
1,Campos de Júlio/MT,-13.7223646,-59.2645296,127,1842.98360
D1,Campos de Júlio/MT,-13.7223646,-59.2645296,2,29.02336
1,Campos do Jordão/SP,-22.7395263,-45.5912829,252,483.79665
D1,Campos do Jordão/SP,-22.7395263,-45.5912829,2,3.83966
1,Campos dos Goytacazes/RJ,-21.7558619,-41.3326895,2719,535.71288
D1,Campos dos Goytacazes/RJ,-21.7558619,-41.3326895,189,37.23786
1,Camutanga/PE,-7.4092965,-35.2738166,129,1508.59549
D1,Camutanga/PE,-7.4092965,-35.2738166,4,46.77815
1,Cana Verde/MG,-21.021308,-45.1817881,51,910.22666
D1,Cana Verde/MG,-21.021308,-45.1817881,1,17.84758
1,Canabrava do Norte/MT,-11.0516481,-51.8301897,28,590.34366
D1,Canabrava do Norte/MT,-11.0516481,-51.8301897,1,21.08370
1,Cananéia/SP,-25.0104609,-47.9315628,77,614.03509
D1,Cananéia/SP,-25.0104609,-47.9315628,3,23.92344
1,Canapi/AL,-9.1173572,-37.6011704,30,169.28112
D1,Canapi/AL,-9.1173572,-37.6011704,3,16.92811
1,Canarana/BA,-11.6870151,-41.7683675,58,221.57702
1,Canarana/MT,-13.5564602,-52.2691167,142,658.04718
D1,Canarana/MT,-13.5564602,-52.2691167,3,13.90241
1,Canas/SP,-22.7029347,-45.0526508,6,116.77696
1,Canavieiras/BA,-15.61621745,-39.08485321304444,90,289.39837
D1,Canavieiras/BA,-15.61621745,-39.08485321304444,3,9.64661
1,Canaã dos Carajás/PA,-6.5296837,-49.8516592,2560,6903.06054
D1,Canaã dos Carajás/PA,-6.5296837,-49.8516592,34,91.68127
1,Candeal/BA,-11.8053441,-39.1206515,30,363.28409
1,Candeias do Jamari/RO,-8.7949939,-63.7018851,857,3210.57955
D1,Candeias do Jamari/RO,-8.7949939,-63.7018851,16,59.94081
1,Candeias/BA,-12.6693806,-38.5406462,1357,1558.40875
D1,Candeias/BA,-12.6693806,-38.5406462,30,34.45266
1,Candeias/MG,-20.7676161,-45.2763777,43,288.86202
D1,Candeias/MG,-20.7676161,-45.2763777,2,13.43544
1,Candelária/RS,-29.668391,-52.789495,34,108.40108
1,Candiba/BA,-14.4125032,-42.8714102,18,125.70710
1,Candiota/RS,-31.5451894,-53.719538,30,313.02170
1,Candói/PR,-25.5711951,-52.051107,28,175.22999
1,Canela/RS,-29.3624657,-50.8134204,83,184.45264
D1,Canela/RS,-29.3624657,-50.8134204,3,6.66696
1,Canelinha/SC,-27.2660341,-48.7666708,187,1527.77778
D1,Canelinha/SC,-27.2660341,-48.7666708,2,16.33987
1,Canguaretama/RN,-6.3751942,-35.137463,180,525.14879
D1,Canguaretama/RN,-6.3751942,-35.137463,15,43.76240
1,Canguçu/RS,-31.398276,-52.6773522,55,98.13543
D1,Canguçu/RS,-31.398276,-52.6773522,2,3.56856
1,Canhoba/SE,-10.1373681,-36.9710796,35,873.25349
1,Canhotinho/PE,-8.876519,-36.197935,147,592.64635
D1,Canhotinho/PE,-8.876519,-36.197935,9,36.28447
1,Canindé de São Francisco/SE,-9.6597475,-37.7904456,139,464.88294
D1,Canindé de São Francisco/SE,-9.6597475,-37.7904456,5,16.72241
1,Canindé/CE,-4.3547946,-39.3108516,1645,2136.44687
D1,Canindé/CE,-4.3547946,-39.3108516,57,74.02886
1,Canitar/SP,-23.0066616,-49.7840632,10,191.71779
1,Canoas/RS,-29.9216045,-51.1799525,1364,393.51905
D1,Canoas/RS,-29.9216045,-51.1799525,67,19.32975
1,Canoinhas/SC,-26.176591,-50.395001,211,387.86052
D1,Canoinhas/SC,-26.176591,-50.395001,3,5.51460
1,Cansanção/BA,-10.6671448,-39.498199,91,261.23902
D1,Cansanção/BA,-10.6671448,-39.498199,2,5.74152
1,Cantagalo/PR,-25.3735238,-52.1238114,41,307.87715
D1,Cantagalo/PR,-25.3735238,-52.1238114,1,7.50920
1,Cantagalo/RJ,-21.9811325,-42.3682522,41,203.25203
D1,Cantagalo/RJ,-21.9811325,-42.3682522,1,4.95737
1,Cantanhede/MA,-3.6355005,-44.3778738,378,1718.57240
D1,Cantanhede/MA,-3.6355005,-44.3778738,3,13.63946
1,Canto do Buriti/PI,-8.1112473,-42.944844,193,910.93595
D1,Canto do Buriti/PI,-8.1112473,-42.944844,2,9.43975
1,Cantá/RR,2.60994,-60.605827,649,3539.67821
D1,Cantá/RR,2.60994,-60.605827,7,38.17835
1,Canudos do Vale/RS,-29.3240418,-52.2348494,4,233.10023
1,Canudos/BA,-9.8948692,-39.0266244,67,401.96784
D1,Canudos/BA,-9.8948692,-39.0266244,2,11.99904
1,Canutama/AM,-6.5330019,-64.3834966,174,1113.31499
1,Canápolis/MG,-18.7228793,-49.2016329,46,378.60082
1,Capanema/PA,-1.1933054,-47.1828679,996,1442.91364
D1,Capanema/PA,-1.1933054,-47.1828679,62,89.81993
1,Capanema/PR,-25.6704878,-53.8083036,154,805.27086
1,Caparaó/MG,-20.5232726,-41.9049984,14,257.44759
D1,Caparaó/MG,-20.5232726,-41.9049984,2,36.77823
1,Capela Nova/MG,-20.9236773,-43.6179487,2,42.98302
1,Capela de Santana/RS,-29.6926603,-51.3206659,23,192.62982
1,Capela do Alto Alegre/BA,-11.6703944,-39.8362745,72,618.71616
1,Capela do Alto/SP,-23.4704798,-47.7352309,141,680.96204
D1,Capela do Alto/SP,-23.4704798,-47.7352309,1,4.82952
1,Capela/AL,-9.415041,-36.082583,474,2779.56958
D1,Capela/AL,-9.415041,-36.082583,4,23.45628
1,Capela/SE,-10.50494,-37.0552566,497,1452.66419
D1,Capela/SE,-10.50494,-37.0552566,13,37.99725
1,Capelinha/MG,-17.693889,-42.518611,15,39.69934
1,Capetinga/MG,-20.6193382,-47.0577418,9,130.05780
1,Capim Branco/MG,-19.548333,-44.133056,22,225.54849
1,Capim Grosso/BA,-11.3793228,-40.0112095,351,1144.73942
D1,Capim Grosso/BA,-11.3793228,-40.0112095,4,13.04546
1,Capim/PB,-6.9174091,-35.1720326,137,2100.26062
D1,Capim/PB,-6.9174091,-35.1720326,4,61.32148
1,Capinzal do Norte/MA,-4.7304006,-44.3249063,298,2725.44357
1,Capinzal/SC,-27.3440651,-51.6110403,281,1229.86695
D1,Capinzal/SC,-27.3440651,-51.6110403,2,8.75350
1,Capinópolis/MG,-18.682778,-49.569723,104,643.04705
1,Capistrano/CE,-4.4644692,-38.8956734,464,2615.85297
D1,Capistrano/CE,-4.4644692,-38.8956734,10,56.37614
1,Capitão Andrade/MG,-19.0675,-41.859722,15,274.32334
1,Capitão Enéas/MG,-16.3236018,-43.7154584,28,183.79940
D1,Capitão Enéas/MG,-16.3236018,-43.7154584,3,19.69279
1,Capitão Gervásio Oliveira/PI,-8.4954657,-41.8169342,11,268.29268
1,Capitão Leônidas Marques/PR,-25.481645,-53.611238,60,380.22814
1,Capitão Poço/PA,-1.7447162,-47.0638495,612,1127.00956
D1,Capitão Poço/PA,-1.7447162,-47.0638495,31,57.08709
1,Capitão de Campos/PI,-4.4584198,-41.9415301,90,788.29815
1,Capitão/RS,-29.2718294,-51.9869716,17,616.61226
1,Capitólio/MG,-20.6142437,-46.0487652,11,127.43281
D1,Capitólio/MG,-20.6142437,-46.0487652,2,23.16960
1,Capivari de Baixo/SC,-28.449773,-48.963144,327,1314.78429
D1,Capivari de Baixo/SC,-28.449773,-48.963144,1,4.02075
1,Capivari do Sul/RS,-30.1437605,-50.5129169,3,64.37768
1,Capivari/SP,-22.995144,-47.50715,347,622.22063
D1,Capivari/SP,-22.995144,-47.50715,2,3.58629
1,Capixaba/AC,-10.5741345,-67.6759719,199,1696.07091
D1,Capixaba/AC,-10.5741345,-67.6759719,7,59.66079
1,Capoeiras/PE,-8.7386788,-36.6268109,136,678.37191
D1,Capoeiras/PE,-8.7386788,-36.6268109,3,14.96409
1,Caputira/MG,-20.171945,-42.270278,6,64.53001
1,Capão Bonito do Sul/RS,-28.1287941,-51.393771,1,60.45949
1,Capão Bonito/SP,-24.0048759,-48.3489848,218,462.47189
D1,Capão Bonito/SP,-24.0048759,-48.3489848,14,29.70003
1,Capão da Canoa/RS,-29.7542937,-50.0215684,149,280.87240
D1,Capão da Canoa/RS,-29.7542937,-50.0215684,4,7.54020
1,Capão do Cipó/RS,-28.9317296,-54.5555783,3,82.16927
1,Capão do Leão/RS,-31.766133,-52.5013148,28,110.43622
D1,Capão do Leão/RS,-31.766133,-52.5013148,1,3.94415
1,Caracaraí/RR,1.827598,-61.125389,391,1783.27100
D1,Caracaraí/RR,1.827598,-61.125389,6,27.36477
1,Caracol/MS,-22.0169949,-57.0298349,18,294.31001
1,Caracol/PI,-9.2804898,-43.3284924,91,833.63870
1,Caraguatatuba/SP,-23.62028,-45.41306,702,577.62565
D1,Caraguatatuba/SP,-23.62028,-45.41306,47,38.67294
1,Carambeí/PR,-24.9513298,-50.1171293,109,465.51356
D1,Carambeí/PR,-24.9513298,-50.1171293,4,17.08307
1,Caranaíba/MG,-20.8736914,-43.7379458,6,188.50141
D1,Caranaíba/MG,-20.8736914,-43.7379458,1,31.41690
1,Carandaí/MG,-20.9523934,-43.8043903,68,266.65621
D1,Carandaí/MG,-20.9523934,-43.8043903,3,11.76424
1,Carangola/MG,-20.733056,-42.029445,223,675.75758
D1,Carangola/MG,-20.733056,-42.029445,3,9.09091
1,Carapebus/RJ,-22.1869969,-41.6633764,190,1165.57266
D1,Carapebus/RJ,-22.1869969,-41.6633764,4,24.53837
1,Carapicuíba/SP,-23.5234673,-46.8406808,3561,888.19162
D1,Carapicuíba/SP,-23.5234673,-46.8406808,208,51.87977
1,Caratinga/MG,-19.7900887,-42.140533,641,696.26991
D1,Caratinga/MG,-19.7900887,-42.140533,16,17.37959
1,Carauari/AM,-4.8766426,-66.8961433,777,2746.16526
D1,Carauari/AM,-4.8766426,-66.8961433,7,24.74023
1,Caravelas/BA,-17.7296514,-39.2660082,127,576.85320
1,Carazinho/RS,-28.2981634,-52.7942363,233,375.14088
D1,Carazinho/RS,-28.2981634,-52.7942363,8,12.88037
1,Caraá/RS,-29.7900698,-50.4302307,47,568.31923
D1,Caraá/RS,-29.7900698,-50.4302307,1,12.09190
1,Caraí/MG,-17.1884104,-41.6976554,46,194.21575
D1,Caraí/MG,-17.1884104,-41.6976554,1,4.22208
1,Caraíbas/BA,-14.72496,-41.2566163,7,78.20355
1,Caraúbas do Piauí/PI,-3.4757229,-41.8431178,86,1465.57601
D1,Caraúbas do Piauí/PI,-3.4757229,-41.8431178,1,17.04158
1,Caraúbas/PB,-7.7273231,-36.4923357,31,744.83421
1,Caraúbas/RN,-5.7889323,-37.5548751,237,1156.49246
D1,Caraúbas/RN,-5.7889323,-37.5548751,3,14.63915
1,Carbonita/MG,-17.5308667,-43.0136207,6,63.79585
1,Cardeal da Silva/BA,-11.9428154,-37.9494462,11,118.34320
D1,Cardeal da Silva/BA,-11.9428154,-37.9494462,1,10.75847
1,Cardoso Moreira/RJ,-21.4894916,-41.6152776,183,1427.12314
D1,Cardoso Moreira/RJ,-21.4894916,-41.6152776,1,7.79849
1,Cardoso/SP,-20.080447,-49.9139767,52,421.87246
D1,Cardoso/SP,-20.080447,-49.9139767,2,16.22586
1,Careaçu/MG,-22.0440585,-45.6949091,25,369.98668
1,Careiro da Várzea/AM,-3.197024,-59.8259104,127,420.18197
D1,Careiro da Várzea/AM,-3.197024,-59.8259104,4,13.23408
1,Careiro/AM,-3.8185277,-60.3616505,1075,2838.73353
D1,Careiro/AM,-3.8185277,-60.3616505,16,42.25092
1,Cariacica/ES,-20.263202,-40.416549,8542,2240.31892
D1,Cariacica/ES,-20.263202,-40.416549,323,84.71353
1,Caridade do Piauí/PI,-7.7331063,-40.9883665,10,197.35544
1,Caridade/CE,-4.2316487,-39.1946515,291,1290.63734
D1,Caridade/CE,-4.2316487,-39.1946515,14,62.09252
1,Carinhanha/BA,-14.298524,-43.772349,27,93.04570
1,Carira/SE,-10.358303,-37.701473,473,2142.01612
D1,Carira/SE,-10.358303,-37.701473,10,45.28575
1,Cariri do Tocantins/TO,-11.8882727,-49.1604216,71,1620.26472
D1,Cariri do Tocantins/TO,-11.8882727,-49.1604216,1,22.82063
1,Caririaçu/CE,-7.0417053,-39.2835527,356,1320.22993
D1,Caririaçu/CE,-7.0417053,-39.2835527,5,18.54256
1,Cariré/CE,-3.948584,-40.476028,557,3019.29748
D1,Cariré/CE,-3.948584,-40.476028,14,75.88899
1,Cariús/CE,-6.5348688,-39.4966658,204,1090.96743
D1,Cariús/CE,-6.5348688,-39.4966658,2,10.69576
1,Carlos Barbosa/RS,-29.2978372,-51.5005613,348,1166.49348
D1,Carlos Barbosa/RS,-29.2978372,-51.5005613,7,23.46395
1,Carlos Chagas/MG,-21.744351,-43.3908675,149,790.99644
D1,Carlos Chagas/MG,-21.744351,-43.3908675,2,10.61740
1,Carlópolis/PR,-23.4224762,-49.7194008,72,502.79330
1,Carmo da Cachoeira/MG,-21.460556,-45.223334,5,41.08463
1,Carmo da Mata/MG,-20.558334,-44.8703774,9,78.42454
1,Carmo de Minas/MG,-22.1216655,-45.1323836,10,67.29928
1,Carmo do Cajuru/MG,-20.184444,-44.770834,87,387.04511
D1,Carmo do Cajuru/MG,-20.184444,-44.770834,3,13.34638
1,Carmo do Paranaíba/MG,-18.9992327,-46.306916,111,365.98635
D1,Carmo do Paranaíba/MG,-18.9992327,-46.306916,3,9.89152
1,Carmo do Rio Claro/MG,-20.973315,-46.1186754,31,146.05418
D1,Carmo do Rio Claro/MG,-20.973315,-46.1186754,1,4.71143
1,Carmo do Rio Verde/GO,-15.3549139,-49.707975,33,327.31601
1,Carmo/RJ,-21.9341749,-42.6091737,91,481.60889
D1,Carmo/RJ,-21.9341749,-42.6091737,2,10.58481
1,Carmolândia/TO,-7.033804,-48.3951295,16,620.15504
D1,Carmolândia/TO,-7.033804,-48.3951295,1,38.75969
1,Carmésia/MG,-19.0854535,-43.1392003,5,189.96960
1,Carmópolis de Minas/MG,-20.541224,-44.6350611,138,712.99406
D1,Carmópolis de Minas/MG,-20.541224,-44.6350611,4,20.66649
1,Carmópolis/SE,-10.64835,-36.98493,209,1256.46267
D1,Carmópolis/SE,-10.64835,-36.98493,6,36.07070
1,Carnaubais/RN,-5.3383681,-36.8335566,89,827.21443
D1,Carnaubais/RN,-5.3383681,-36.8335566,4,37.17818
1,Carnaubal/CE,-4.1611842,-40.9412317,279,1584.68704
D1,Carnaubal/CE,-4.1611842,-40.9412317,3,17.03965
1,Carnaubeira da Penha/PE,-8.3192809,-38.7435891,20,154.65512
D1,Carnaubeira da Penha/PE,-8.3192809,-38.7435891,1,7.73276
1,Carnaíba/PE,-7.805964,-37.7947314,75,383.61209
D1,Carnaíba/PE,-7.805964,-37.7947314,6,30.68897
1,Carnaúba dos Dantas/RN,-6.5560588,-36.5930811,28,342.29829
D1,Carnaúba dos Dantas/RN,-6.5560588,-36.5930811,3,36.67482
1,Carneirinho/MG,-19.6975,-50.688055,17,169.54224
1,Carneiros/AL,-9.4832948,-37.3757121,40,440.48012
1,Caroebe/RR,0.8812315,-59.6932274,653,6421.47704
D1,Caroebe/RR,0.8812315,-59.6932274,2,19.66762
1,Carolina/MA,-7.3313437,-47.4738762,197,809.96629
D1,Carolina/MA,-7.3313437,-47.4738762,1,4.11150
1,Carpina/PE,-7.8459151,-35.2538861,311,371.82721
D1,Carpina/PE,-7.8459151,-35.2538861,44,52.60578
1,Carrancas/MG,-21.4910462,-44.6436151,5,123.54831
1,Carrapateira/PB,-7.0395225,-38.3432281,28,1053.02745
1,Carrasco Bonito/TO,-5.3205734,-48.0376667,42,1025.64103
1,Caruaru/PE,-8.2829702,-35.9722852,3297,912.99797
D1,Caruaru/PE,-8.2829702,-35.9722852,208,57.59890
1,Carutapera/MA,-1.2016638,-46.0205618,254,1066.91309
D1,Carutapera/MA,-1.2016638,-46.0205618,15,63.00668
1,Carvalhópolis/MG,-21.7773461,-45.8412117,2,55.88153
1,Casa Branca/SP,-21.7743137,-47.0852175,58,190.91508
D1,Casa Branca/SP,-21.7743137,-47.0852175,1,3.29164
1,Casa Nova/BA,-9.1736775,-40.9734475,232,322.36102
D1,Casa Nova/BA,-9.1736775,-40.9734475,5,6.94744
1,Casca/RS,-28.5634054,-51.9741902,26,287.89724
D1,Casca/RS,-28.5634054,-51.9741902,1,11.07297
1,Cascalho Rico/MG,-18.579344,-47.875774,15,487.80488
D1,Cascalho Rico/MG,-18.579344,-47.875774,1,32.52033
1,Cascavel/CE,-4.129666,-38.241178,1173,1635.00272
D1,Cascavel/CE,-4.129666,-38.241178,83,115.69073
1,Cascavel/PR,-24.9554996,-53.4560544,4305,1310.68582
D1,Cascavel/PR,-24.9554996,-53.4560544,91,27.70555
1,Caseara/TO,-9.273159,-49.9576837,8,149.00354
D1,Caseara/TO,-9.273159,-49.9576837,1,18.62544
1,Caseiros/RS,-28.2721149,-51.6873536,12,374.76577
1,Casimiro de Abreu/RJ,-22.4809932,-42.2039976,546,1235.74144
D1,Casimiro de Abreu/RJ,-22.4809932,-42.2039976,12,27.15915
1,Casinhas/PE,-7.744698,-35.7250923,33,230.10948
D1,Casinhas/PE,-7.744698,-35.7250923,3,20.91904
1,Casserengue/PB,-6.779538,-35.817875,182,2437.06481
D1,Casserengue/PB,-6.779538,-35.817875,4,53.56186
1,Cassilândia/MS,-19.1128242,-51.7345354,43,195.99799
D1,Cassilândia/MS,-19.1128242,-51.7345354,3,13.67428
1,Castanhal/PA,-1.2927031,-47.9223903,1780,886.48509
D1,Castanhal/PA,-1.2927031,-47.9223903,178,88.64851
1,Castanheira/MT,-11.1391946,-58.6088547,13,148.92886
1,Castanheiras/RO,-11.4277212,-61.9486802,26,851.90039
1,Castelo do Piauí/PI,-5.3230426,-41.5546185,45,228.24102
D1,Castelo do Piauí/PI,-5.3230426,-41.5546185,3,15.21607
1,Castelo/ES,-20.6034476,-41.2033505,665,1771.72697
D1,Castelo/ES,-20.6034476,-41.2033505,18,47.95652
1,Castelândia/GO,-18.089062,-50.220798,6,174.67249
1,Castilho/SP,-20.8695636,-51.4877792,61,290.39322
D1,Castilho/SP,-20.8695636,-51.4877792,1,4.76054
1,Castro Alves/BA,-12.7616941,-39.4281088,134,510.20408
D1,Castro Alves/BA,-12.7616941,-39.4281088,3,11.42248
1,Castro/PR,-24.794072,-49.9972914,230,321.75032
1,Cataguases/MG,-21.387426,-42.6957219,188,250.25625
D1,Cataguases/MG,-21.387426,-42.6957219,13,17.30495
1,Catalão/GO,-18.1702546,-47.9447082,534,490.70509
D1,Catalão/GO,-18.1702546,-47.9447082,16,14.70277
1,Catanduva/SP,-21.1331035,-48.9712817,924,758.23472
D1,Catanduva/SP,-21.1331035,-48.9712817,39,32.00341
1,Catanduvas/PR,-25.2043528,-53.154826,61,598.68486
1,Catanduvas/SC,-27.0689719,-51.660158,67,616.88611
1,Catarina/CE,-6.1341578,-39.8795321,80,386.51077
D1,Catarina/CE,-6.1341578,-39.8795321,2,9.66277
1,Catas Altas da Noruega/MG,-20.690277,-43.4975,17,466.90470
1,Catas Altas/MG,-20.0744,-43.4075,30,558.03571
1,Catende/PE,-8.6900588,-35.748470825,457,1065.46675
D1,Catende/PE,-8.6900588,-35.748470825,28,65.28024
1,Catiguá/SP,-21.0491485,-49.0578923,65,832.90620
D1,Catiguá/SP,-21.0491485,-49.0578923,3,38.44182
1,Catingueira/PB,-7.120081,-37.60638,17,344.68775
D1,Catingueira/PB,-7.120081,-37.60638,2,40.55150
1,Catolândia/BA,-12.315088,-44.8616434,5,139.78194
