type,name,lat,lon,total,total_per_100k_inhabitants
1,Abadia de Goiás/GO,-16.7572644,-49.4412205,1535,17135.52132
D1,Abadia de Goiás/GO,-16.7572644,-49.4412205,36,401.87542
1,Abadia dos Dourados/MG,-18.4911191,-47.4063589,456,6508.70682
D1,Abadia dos Dourados/MG,-18.4911191,-47.4063589,14,199.82872
1,Abadiânia/GO,-16.1940946,-48.7067767,451,2204.19334
D1,Abadiânia/GO,-16.1940946,-48.7067767,38,185.71917
1,Abaetetuba/PA,-1.721828,-48.878843,8895,5591.52628
D1,Abaetetuba/PA,-1.721828,-48.878843,219,137.66658
1,Abaeté/MG,-19.1566833,-45.4481213,1369,5888.17204
D1,Abaeté/MG,-19.1566833,-45.4481213,31,133.33333
1,Abaiara/CE,-7.3607808,-39.0487878,586,4943.89606
D1,Abaiara/CE,-7.3607808,-39.0487878,15,126.55024
1,Abaré/BA,-8.7239913,-39.1139689,984,4836.09377
D1,Abaré/BA,-8.7239913,-39.1139689,11,54.06202
1,Abatiá/PR,-23.3052967,-50.3102532,1073,14484.34125
D1,Abatiá/PR,-23.3052967,-50.3102532,18,242.98056
1,Abaíra/BA,-13.2503296,-41.6640342,289,3318.02526
D1,Abaíra/BA,-13.2503296,-41.6640342,12,137.77268
1,Abdon Batista/SC,-27.612419,-51.022992,425,16679.74882
D1,Abdon Batista/SC,-27.612419,-51.022992,4,156.98587
1,Abel Figueiredo/PA,-4.953001,-48.3958485,1007,13451.77665
D1,Abel Figueiredo/PA,-4.953001,-48.3958485,10,133.58269
1,Abelardo Luz/SC,-26.5705893,-52.3280339,1589,8847.43875
D1,Abelardo Luz/SC,-26.5705893,-52.3280339,57,317.37194
1,Abre Campo/MG,-20.2976097,-42.4764741,1217,9052.36537
D1,Abre Campo/MG,-20.2976097,-42.4764741,16,119.01220
1,Abreu e Lima/PE,-7.900719,-34.898389,3224,3212.88342
D1,Abreu e Lima/PE,-7.900719,-34.898389,231,230.20350
1,Abreulândia/TO,-9.6221526,-49.1558343,277,10678.48882
D1,Abreulândia/TO,-9.6221526,-49.1558343,6,231.30301
1,Acaiaca/MG,-20.3621646,-43.1444162,229,5733.60040
D1,Acaiaca/MG,-20.3621646,-43.1444162,11,275.41312
1,Acajutiba/BA,-11.6609659,-38.0186381,540,3555.67261
D1,Acajutiba/BA,-11.6609659,-38.0186381,17,111.93784
1,Acarape/CE,-4.2237866,-38.7071663,2788,18542.16547
D1,Acarape/CE,-4.2237866,-38.7071663,27,179.56903
1,Acaraú/CE,-2.8869514,-40.1194713,5040,7986.81542
D1,Acaraú/CE,-2.8869514,-40.1194713,110,174.31542
1,Acari/RN,-6.4364689,-36.6394777,1107,9954.14081
D1,Acari/RN,-6.4364689,-36.6394777,18,161.85595
1,Acará/PA,-1.961388,-48.1987043,1329,2387.32508
D1,Acará/PA,-1.961388,-48.1987043,32,57.48262
1,Acauã/PI,-8.219542,-41.083059,200,2816.10814
D1,Acauã/PI,-8.219542,-41.083059,1,14.08054
1,Aceguá/RS,-31.8695131,-54.1615593,362,7324.96965
D1,Aceguá/RS,-31.8695131,-54.1615593,7,141.64306
1,Acopiara/CE,-6.0936464,-39.4543204,3822,7015.28973
D1,Acopiara/CE,-6.0936464,-39.4543204,140,256.97032
1,Acorizal/MT,-15.2001544,-56.3668953,507,9505.06187
D1,Acorizal/MT,-15.2001544,-56.3668953,19,356.20547
1,Acrelândia/AC,-10.0759167,-67.0526898,1718,11091.02647
D1,Acrelândia/AC,-10.0759167,-67.0526898,37,238.86378
1,Acreúna/GO,-17.3959899,-50.3749031,2246,9961.85576
D1,Acreúna/GO,-17.3959899,-50.3749031,50,221.76883
1,Adamantina/SP,-21.6866517,-51.0762975,3533,10062.37362
D1,Adamantina/SP,-21.6866517,-51.0762975,115,327.53268
1,Adelândia/GO,-16.4155077,-50.1665834,215,8545.31002
D1,Adelândia/GO,-16.4155077,-50.1665834,4,158.98251
1,Adolfo/SP,-21.2356597,-49.6441918,546,15362.97130
D1,Adolfo/SP,-21.2356597,-49.6441918,15,422.05965
1,Adrianópolis/PR,-24.6557863,-48.9912769,1384,23629.84463
D1,Adrianópolis/PR,-24.6557863,-48.9912769,29,495.13403
1,Adustina/BA,-10.5358875,-38.114479,1037,6055.12087
D1,Adustina/BA,-10.5358875,-38.114479,24,140.13780
1,Afogados da Ingazeira/PE,-7.750429,-37.6356375,5113,13669.66100
D1,Afogados da Ingazeira/PE,-7.750429,-37.6356375,72,192.49278
1,Afonso Bezerra/RN,-5.4745,-36.57625071327935,783,7099.46505
D1,Afonso Bezerra/RN,-5.4745,-36.57625071327935,18,163.20609
1,Afonso Cláudio/ES,-20.077841,-41.12606,3439,11292.07027
D1,Afonso Cláudio/ES,-20.077841,-41.12606,59,193.72845
1,Afonso Cunha/MA,-4.1326105,-43.3230026,244,3709.33414
D1,Afonso Cunha/MA,-4.1326105,-43.3230026,2,30.40438
1,Afrânio/PE,-8.5198919,-41.0070197,941,4750.12620
D1,Afrânio/PE,-8.5198919,-41.0070197,15,75.71933
1,Afuá/PA,-0.1535664,-50.3879223,3034,7668.00617
D1,Afuá/PA,-0.1535664,-50.3879223,16,40.43774
1,Agrestina/PE,-8.4558021,-35.9442663,1718,6854.17913
D1,Agrestina/PE,-8.4558021,-35.9442663,63,251.34650
1,Agricolândia/PI,-5.7967843,-42.6605131,494,9627.75287
D1,Agricolândia/PI,-5.7967843,-42.6605131,6,116.93627
1,Agrolândia/SC,-27.4122212,-49.8295774,1621,14718.96849
D1,Agrolândia/SC,-27.4122212,-49.8295774,27,245.16481
1,Agronômica/SC,-27.2660744,-49.7104753,654,11871.48303
D1,Agronômica/SC,-27.2660744,-49.7104753,13,235.97749
1,Aguanil/MG,-20.9424533,-45.3927152,643,14219.37196
D1,Aguanil/MG,-20.9424533,-45.3927152,8,176.91287
1,Aguaí/SP,-22.0592036,-46.979384,3277,8941.82493
D1,Aguaí/SP,-22.0592036,-46.979384,98,267.40886
1,Agudo/RS,-29.6423259,-53.2494005,1738,10596.91482
D1,Agudo/RS,-29.6423259,-53.2494005,29,176.81849
1,Agudos do Sul/PR,-25.9890808,-49.3328175,707,7465.68110
D1,Agudos do Sul/PR,-25.9890808,-49.3328175,25,263.99155
1,Agudos/SP,-22.471162,-48.987822,4072,10887.40943
D1,Agudos/SP,-22.471162,-48.987822,102,272.71998
1,Aguiar/PB,-7.0928404,-38.1727215,525,9325.04440
D1,Aguiar/PB,-7.0928404,-38.1727215,5,88.80995
1,Aguiarnópolis/TO,-6.5600452,-47.4721189,651,9445.73418
D1,Aguiarnópolis/TO,-6.5600452,-47.4721189,13,188.62449
1,Aimorés/MG,-19.4917754,-41.0615603,2006,7978.99845
D1,Aimorés/MG,-19.4917754,-41.0615603,69,274.45209
1,Aiquara/BA,-14.126918,-39.8887574,492,11141.30435
D1,Aiquara/BA,-14.126918,-39.8887574,12,271.73913
1,Aiuaba/CE,-6.5710836,-40.1212278,799,4567.54130
D1,Aiuaba/CE,-6.5710836,-40.1212278,11,62.88230
1,Aiuruoca/MG,-21.9759554,-44.6036637,310,5187.41633
D1,Aiuruoca/MG,-21.9759554,-44.6036637,9,150.60241
1,Ajuricaba/RS,-28.239654,-53.7693013,1046,14970.65980
D1,Ajuricaba/RS,-28.239654,-53.7693013,29,415.05653
1,Alagoa Grande/PB,-7.0415212,-35.6285322,4082,14353.52861
D1,Alagoa Grande/PB,-7.0415212,-35.6285322,70,246.14086
1,Alagoa Nova/PB,-7.0653703,-35.76695977336711,1221,5836.24110
D1,Alagoa Nova/PB,-7.0653703,-35.76695977336711,20,95.59772
1,Alagoa/MG,-22.1697202,-44.6400042,444,16660.41276
D1,Alagoa/MG,-22.1697202,-44.6400042,6,225.14071
1,Alagoinha do Piauí/PI,-7.0090952,-40.939675,360,4696.67319
D1,Alagoinha do Piauí/PI,-7.0090952,-40.939675,10,130.46314
1,Alagoinha/PB,-6.97063215,-35.51490901897793,2038,13997.25275
D1,Alagoinha/PB,-6.97063215,-35.51490901897793,24,164.83516
1,Alagoinha/PE,-8.50355635,-36.77701174370496,1290,8764.77782
D1,Alagoinha/PE,-8.50355635,-36.77701174370496,25,169.86004
1,Alagoinhas/BA,-12.133526,-38.420772,14035,9213.73099
D1,Alagoinhas/BA,-12.133526,-38.420772,297,194.97528
1,Alambari/SP,-23.550338,-47.897971,597,9740.57758
D1,Alambari/SP,-23.550338,-47.897971,11,179.47463
1,Albertina/MG,-20.66164,-43.784039,243,8070.40850
D1,Albertina/MG,-20.66164,-43.784039,9,298.90402
1,Alcantil/PB,-7.7425491,-36.0609604,537,9747.68561
D1,Alcantil/PB,-7.7425491,-36.0609604,6,108.91269
1,Alcinópolis/MS,-18.3264121,-53.7094463,354,6534.98246
D1,Alcinópolis/MS,-18.3264121,-53.7094463,9,166.14362
1,Alcobaça/BA,-17.5215875,-39.1965474,1527,6789.68430
D1,Alcobaça/BA,-17.5215875,-39.1965474,29,128.94620
1,Alcântara/MA,-2.4038956,-44.4154241,323,1460.74530
D1,Alcântara/MA,-2.4038956,-44.4154241,19,85.92619
1,Alcântaras/CE,-3.586247,-40.5457641,1730,14684.66174
D1,Alcântaras/CE,-3.586247,-40.5457641,22,186.74136
1,Aldeias Altas/MA,-4.6291957,-43.4708622,976,3647.64361
D1,Aldeias Altas/MA,-4.6291957,-43.4708622,14,52.32276
1,Alecrim/RS,-27.6566142,-54.7653195,311,5337.22327
D1,Alecrim/RS,-27.6566142,-54.7653195,12,205.93788
1,Alegre/ES,-20.7625787,-41.5318886,2569,8570.47540
D1,Alegre/ES,-20.7625787,-41.5318886,56,186.82235
1,Alegrete do Piauí/PI,-7.2440138,-40.8602296,512,10410.73607
D1,Alegrete do Piauí/PI,-7.2440138,-40.8602296,6,122.00081
1,Alegrete/RS,-29.790166,-55.794862,10188,13950.81339
D1,Alegrete/RS,-29.790166,-55.794862,280,383.41458
1,Alegria/RS,-27.8332103,-54.0574959,393,11647.89567
D1,Alegria/RS,-27.8332103,-54.0574959,3,88.91523
1,Alenquer/PA,-1.946229,-54.738355,3539,6198.76690
D1,Alenquer/PA,-1.946229,-54.738355,138,241.71513
1,Alexandria/RN,-6.414779,-38.0135516,1726,12735.18778
D1,Alexandria/RN,-6.414779,-38.0135516,28,206.59633
1,Alexânia/GO,-16.0834049,-48.5077803,3154,11260.26419
D1,Alexânia/GO,-16.0834049,-48.5077803,80,285.61228
1,Alfenas/MG,-21.4297405,-45.9479419,9701,12051.82995
D1,Alfenas/MG,-21.4297405,-45.9479419,179,222.37682
1,Alfredo Chaves/ES,-20.624970400000002,-40.75006690147988,2445,16705.38398
D1,Alfredo Chaves/ES,-20.624970400000002,-40.75006690147988,35,239.13638
1,Alfredo Marcondes/SP,-21.9527,-51.413956,250,5975.14340
D1,Alfredo Marcondes/SP,-21.9527,-51.413956,12,286.80688
1,Alfredo Vasconcelos/MG,-21.145833,-43.776389,564,8079.07177
D1,Alfredo Vasconcelos/MG,-21.145833,-43.776389,13,186.21974
1,Alfredo Wagner/SC,-27.6961513,-49.3326734,1046,10370.81103
D1,Alfredo Wagner/SC,-27.6961513,-49.3326734,7,69.40313
1,Algodão de Jandaíra/PB,-6.9040175,-36.0089879,221,8575.86341
D1,Algodão de Jandaíra/PB,-6.9040175,-36.0089879,1,38.80481
1,Alhandra/PB,-7.4304246,-34.9106103,2350,11912.60709
D1,Alhandra/PB,-7.4304246,-34.9106103,36,182.49100
1,Aliança do Tocantins/TO,-11.3055927,-48.9409096,631,11803.21736
D1,Aliança do Tocantins/TO,-11.3055927,-48.9409096,20,374.11149
1,Aliança/PE,-7.60398,-35.222696,656,1708.46681
D1,Aliança/PE,-7.60398,-35.222696,60,156.26221
1,Almadina/BA,-14.70466,-39.6381994,633,11796.49646
D1,Almadina/BA,-14.70466,-39.6381994,9,167.72270
1,Almas/TO,-11.5681309,-47.1702803,236,3381.57329
D1,Almas/TO,-11.5681309,-47.1702803,5,71.64350
1,Almeirim/PA,-1.5290377,-52.5788111,3692,10834.60500
D1,Almeirim/PA,-1.5290377,-52.5788111,44,129.12314
1,Almenara/MG,-16.1740678,-40.6904907,4185,9930.47481
D1,Almenara/MG,-16.1740678,-40.6904907,46,109.15217
1,Almino Afonso/RN,-6.1544208,-37.7649018,507,10764.33121
D1,Almino Afonso/RN,-6.1544208,-37.7649018,13,276.00849
1,Almirante Tamandaré do Sul/RS,-28.1141129,-52.9134874,327,16777.83479
D1,Almirante Tamandaré do Sul/RS,-28.1141129,-52.9134874,5,256.54182
1,Almirante Tamandaré/PR,-25.3133048,-49.2997838,10118,8428.78683
D1,Almirante Tamandaré/PR,-25.3133048,-49.2997838,365,304.06278
1,Aloândia/GO,-17.7277983,-49.4809338,283,14249.74824
D1,Aloândia/GO,-17.7277983,-49.4809338,10,503.52467
1,Alpercata/MG,-18.9803616,-41.9827637,482,6481.97956
D1,Alpercata/MG,-18.9803616,-41.9827637,19,255.51372
1,Alpestre/RS,-27.2512339,-53.0349646,468,7713.86188
D1,Alpestre/RS,-27.2512339,-53.0349646,10,164.82611
1,Alpinópolis/MG,-20.863611,-46.387777,1384,6934.56258
D1,Alpinópolis/MG,-20.863611,-46.387777,37,185.38932
1,Alta Floresta D'Oeste/RO,-11.9296917,-61.9961284,3935,17313.44597
D1,Alta Floresta D'Oeste/RO,-11.9296917,-61.9961284,65,285.99085
1,Alta Floresta/MT,-9.8715018,-56.0839881,8985,17292.48061
D1,Alta Floresta/MT,-9.8715018,-56.0839881,131,252.12187
1,Altair/SP,-20.5238955,-49.0606135,266,6354.51505
D1,Altair/SP,-20.5238955,-49.0606135,12,286.66985
1,Altamira do Maranhão/MA,-4.1643006,-45.4674574,319,3895.46953
D1,Altamira do Maranhão/MA,-4.1643006,-45.4674574,11,134.32654
1,Altamira do Paraná/PR,-24.799114,-52.7128633,227,13495.83829
D1,Altamira do Paraná/PR,-24.799114,-52.7128633,10,594.53032
1,Altamira/PA,-3.204065,-52.209961,13764,11868.68905
D1,Altamira/PA,-3.204065,-52.209961,290,250.06683
1,Altaneira/CE,-6.9980933,-39.7385742,649,8483.66013
D1,Altaneira/CE,-6.9980933,-39.7385742,15,196.07843
1,Alterosa/MG,-21.249166,-46.143055,707,4870.15224
D1,Alterosa/MG,-21.249166,-46.143055,33,227.31969
1,Altinho/PE,-8.4904095,-36.0607494,1276,5551.68813
D1,Altinho/PE,-8.4904095,-36.0607494,27,117.47302
1,Altinópolis/SP,-21.021364,-47.3712,827,5103.99309
D1,Altinópolis/SP,-21.021364,-47.3712,42,259.21126
1,Alto Alegre do Maranhão/MA,-4.2055693,-44.4525287,1229,4411.65913
D1,Alto Alegre do Maranhão/MA,-4.2055693,-44.4525287,25,89.74083
1,Alto Alegre do Pindaré/MA,-3.6698186,-45.8462153,2116,6624.29953
D1,Alto Alegre do Pindaré/MA,-3.6698186,-45.8462153,46,144.00651
1,Alto Alegre dos Parecis/RO,-12.1314515,-61.856265,1457,10992.07846
D1,Alto Alegre dos Parecis/RO,-12.1314515,-61.856265,44,331.95021
1,Alto Alegre/RR,2.98858,-61.307167,1447,9408.32250
D1,Alto Alegre/RR,2.98858,-61.307167,35,227.56827
1,Alto Alegre/RS,-31.780844700000003,-52.81311114489171,203,12585.24489
D1,Alto Alegre/RS,-31.780844700000003,-52.81311114489171,1,61.99628
1,Alto Alegre/SP,-21.5820592,-50.1661976,367,8977.49511
D1,Alto Alegre/SP,-21.5820592,-50.1661976,20,489.23679
1,Alto Araguaia/MT,-17.3156528,-53.2169365,1424,7345.88599
D1,Alto Araguaia/MT,-17.3156528,-53.2169365,26,134.12432
1,Alto Bela Vista/SC,-27.4320737,-51.905771,198,10280.37383
D1,Alto Bela Vista/SC,-27.4320737,-51.905771,3,155.76324
1,Alto Boa Vista/MT,-11.6723985,-51.3744431,789,11375.43253
D1,Alto Boa Vista/MT,-11.6723985,-51.3744431,16,230.68051
1,Alto Caparaó/MG,-20.4405661,-41.8683799,399,6769.59620
D1,Alto Caparaó/MG,-20.4405661,-41.8683799,9,152.69766
1,Alto Feliz/RS,-29.3785943,-51.3123751,279,9189.72332
D1,Alto Feliz/RS,-29.3785943,-51.3123751,2,65.87615
1,Alto Garças/MT,-16.9469683,-53.529427,926,7620.77195
D1,Alto Garças/MT,-16.9469683,-53.529427,40,329.19101
1,Alto Horizonte/GO,-14.1954948,-49.3366993,893,13520.06056
D1,Alto Horizonte/GO,-14.1954948,-49.3366993,11,166.54050
1,Alto Jequitibá/MG,-20.423611,-41.966111,799,9625.34634
D1,Alto Jequitibá/MG,-20.423611,-41.966111,11,132.51415
1,Alto Longá/PI,-5.2549051,-42.2072388,647,4512.16961
D1,Alto Longá/PI,-5.2549051,-42.2072388,14,97.63582
1,Alto Paraguai/MT,-14.513712,-56.4936374,895,7800.92391
D1,Alto Paraguai/MT,-14.513712,-56.4936374,28,244.05125
1,Alto Paraná/PR,-23.131247,-52.318893,1206,8116.29316
D1,Alto Paraná/PR,-23.131247,-52.318893,26,174.97813
1,Alto Paraíso de Goiás/GO,-14.1304779,-47.5100161,655,8519.77107
D1,Alto Paraíso de Goiás/GO,-14.1304779,-47.5100161,8,104.05827
1,Alto Paraíso/PR,-23.508137,-53.728537,295,10986.96462
D1,Alto Paraíso/PR,-23.508137,-53.728537,5,186.21974
1,Alto Paraíso/RO,-9.7240103,-63.3188123,1819,8326.08596
D1,Alto Paraíso/RO,-9.7240103,-63.3188123,48,219.70980
1,Alto Parnaíba/MA,-9.112506,-45.9310154,895,7982.51873
D1,Alto Parnaíba/MA,-9.112506,-45.9310154,11,98.10917
1,Alto Piquiri/PR,-24.0239021,-53.4417448,1006,10288.40254
D1,Alto Piquiri/PR,-24.0239021,-53.4417448,25,255.67601
1,Alto Rio Doce/MG,-21.0239537,-43.4133507,486,4475.55023
D1,Alto Rio Doce/MG,-21.0239537,-43.4133507,27,248.64168
1,Alto Rio Novo/ES,-19.0577208,-41.0171518,717,9105.91821
D1,Alto Rio Novo/ES,-19.0577208,-41.0171518,22,279.40056
1,Alto Santo/CE,-5.5190371,-38.2719351,1885,10961.85159
D1,Alto Santo/CE,-5.5190371,-38.2719351,32,186.08979
1,Alto Taquari/MT,-17.8269099,-53.2831736,1489,13374.65194
D1,Alto Taquari/MT,-17.8269099,-53.2831736,27,242.52223
1,Alto do Rodrigues/RN,-5.290868,-36.7616726,2504,17001.62955
D1,Alto do Rodrigues/RN,-5.290868,-36.7616726,40,271.59153
1,Altos/PI,-5.0393915,-42.4611694,4427,10902.59820
D1,Altos/PI,-5.0393915,-42.4611694,89,219.18483
1,Altônia/PR,-23.8722004,-53.894037,1292,5826.11833
D1,Altônia/PR,-23.8722004,-53.894037,27,121.75325
1,Alumínio/SP,-23.5203479,-47.2575256,1506,8024.72425
D1,Alumínio/SP,-23.5203479,-47.2575256,44,234.45409
1,Alvarenga/MG,-19.4175,-41.728334,501,13033.29865
D1,Alvarenga/MG,-19.4175,-41.728334,4,104.05827
1,Alvarães/AM,-3.214786,-64.8143124,2893,17836.00493
D1,Alvarães/AM,-3.214786,-64.8143124,46,283.60049
1,Alvinlândia/SP,-22.4431852,-49.7643596,140,4324.99228
D1,Alvinlândia/SP,-22.4431852,-49.7643596,9,278.03522
1,Alvinópolis/MG,-20.1105199,-43.0601805,695,4581.71270
D1,Alvinópolis/MG,-20.1105199,-43.0601805,22,145.03263
1,Alvorada D'Oeste/RO,-11.346271,-62.284697,1128,7996.59719
D1,Alvorada D'Oeste/RO,-11.346271,-62.284697,29,205.58628
1,Alvorada de Minas/MG,-18.7318587,-43.3641479,274,7600.55479
D1,Alvorada de Minas/MG,-18.7318587,-43.3641479,3,83.21775
1,Alvorada do Gurguéia/PI,-8.4465288,-43.8655915,425,7805.32599
D1,Alvorada do Gurguéia/PI,-8.4465288,-43.8655915,10,183.65473
1,Alvorada do Norte/GO,-14.483911,-46.4959897,769,8834.00345
D1,Alvorada do Norte/GO,-14.483911,-46.4959897,8,91.90121
1,Alvorada do Sul/PR,-22.7807269,-51.2307721,843,7328.52299
D1,Alvorada do Sul/PR,-22.7807269,-51.2307721,25,217.33461
1,Alvorada/RS,-29.9981184,-51.0772509,20593,9743.46115
D1,Alvorada/RS,-29.9981184,-51.0772509,741,350.59995
1,Alvorada/TO,-12.478465,-49.124926,1193,14209.14721
D1,Alvorada/TO,-12.478465,-49.124926,20,238.20867
1,Além Paraíba/MG,-21.8760576,-42.6810473,3196,9027.99356
D1,Além Paraíba/MG,-21.8760576,-42.6810473,145,409.59295
1,Amajari/RR,3.6523869,-61.4194315,1038,7872.58248
D1,Amajari/RR,3.6523869,-61.4194315,20,151.68752
1,Amambai/MS,-23.1082701,-55.2284854,3136,7874.25300
D1,Amambai/MS,-23.1082701,-55.2284854,81,203.38472
1,Amaporã/PR,-23.094272,-52.786597,404,6380.29059
D1,Amaporã/PR,-23.094272,-52.786597,7,110.54959
1,Amapá do Maranhão/MA,-1.6762114,-46.0109669,172,2455.38901
D1,Amapá do Maranhão/MA,-1.6762114,-46.0109669,4,57.10207
1,Amapá/AP,2.0529997,-50.7930003,1363,14836.18156
D1,Amapá/AP,2.0529997,-50.7930003,10,108.84946
1,Amaraji/PE,-8.373925,-35.4536527,616,2693.48491
D1,Amaraji/PE,-8.373925,-35.4536527,39,170.52908
1,Amaral Ferrador/RS,-30.8750633,-52.2542051,298,4206.06916
D1,Amaral Ferrador/RS,-30.8750633,-52.2542051,8,112.91461
1,Amaralina/GO,-13.9236199,-49.2962411,108,2808.84265
D1,Amaralina/GO,-13.9236199,-49.2962411,2,52.01560
1,Amarante do Maranhão/MA,-5.56913,-46.747284,1585,3798.31772
D1,Amarante do Maranhão/MA,-5.56913,-46.747284,55,131.80282
1,Amarante/PI,-6.2459374,-42.8476238,1545,8776.41445
D1,Amarante/PI,-6.2459374,-42.8476238,35,198.81845
1,Amargosa/BA,-13.03793715,-39.60796443875596,2960,7905.77175
D1,Amargosa/BA,-13.03793715,-39.60796443875596,54,144.22692
1,Amaturá/AM,-3.3640509,-68.1994689,2357,20083.50375
D1,Amaturá/AM,-3.3640509,-68.1994689,17,144.85344
1,Americana/SP,-22.7392463,-47.3306032,23700,9792.66005
D1,Americana/SP,-22.7392463,-47.3306032,731,302.04365
1,Americano do Brasil/GO,-16.2515808,-49.9806104,787,12767.68332
D1,Americano do Brasil/GO,-16.2515808,-49.9806104,22,356.91110
1,Ametista do Sul/RS,-27.3617341,-53.1826575,796,10752.39768
D1,Ametista do Sul/RS,-27.3617341,-53.1826575,20,270.16075
1,Amontada/CE,-3.3634586,-39.8284791,2908,6634.87645
D1,Amontada/CE,-3.3634586,-39.8284791,55,125.48769
1,Amorinópolis/GO,-16.6211308,-51.0949921,289,9416.74813
D1,Amorinópolis/GO,-16.6211308,-51.0949921,5,162.91952
1,Amparo de São Francisco/SE,-10.1299754,-36.9269099,254,10672.26891
D1,Amparo de São Francisco/SE,-10.1299754,-36.9269099,5,210.08403
1,Amparo do Serra/MG,-20.5070255,-42.8028462,159,3398.88841
D1,Amparo do Serra/MG,-20.5070255,-42.8028462,9,192.38991
1,Amparo/PB,-7.56394725,-37.04652873235175,167,7418.92492
D1,Amparo/PB,-7.56394725,-37.04652873235175,4,177.69880
1,Amparo/SP,-22.70111,-46.76444,6697,9214.74469
D1,Amparo/SP,-22.70111,-46.76444,134,184.37745
1,Ampére/PR,-25.9168712,-53.4742414,2231,11553.00088
D1,Ampére/PR,-25.9168712,-53.4742414,54,279.63337
1,Amélia Rodrigues/BA,-12.4015388,-38.7516971,2310,9222.29320
D1,Amélia Rodrigues/BA,-12.4015388,-38.7516971,46,183.64740
1,América Dourada/BA,-11.4515262,-41.4357517,943,5860.78310
D1,América Dourada/BA,-11.4515262,-41.4357517,13,80.79553
1,Américo Brasiliense/SP,-21.7297099,-48.1052092,3949,9624.19575
D1,Américo Brasiliense/SP,-21.7297099,-48.1052092,89,216.90388
1,Américo de Campos/SP,-20.298476,-49.735904,1051,17572.31232
D1,Américo de Campos/SP,-20.298476,-49.735904,32,535.02759
1,Anadia/AL,-9.6830208,-36.3052699,1438,8204.95264
D1,Anadia/AL,-9.6830208,-36.3052699,29,165.46845
1,Anagé/BA,-14.6134669,-41.1376308,921,4262.50752
D1,Anagé/BA,-14.6134669,-41.1376308,23,106.44698
1,Anahy/PR,-24.6450861,-53.1337957,357,12804.87805
D1,Anahy/PR,-24.6450861,-53.1337957,9,322.81205
1,Anajatuba/MA,-3.26441,-44.6179916,973,3605.30606
D1,Anajatuba/MA,-3.26441,-44.6179916,24,88.92841
1,Anajás/PA,-0.9878802,-49.9390114,1360,4580.97548
D1,Anajás/PA,-0.9878802,-49.9390114,22,74.10402
1,Analândia/SP,-22.128917,-47.661939,324,6408.22785
D1,Analândia/SP,-22.128917,-47.661939,4,79.11392
1,Anamã/AM,-3.5797356,-61.4049996,1814,12997.99369
D1,Anamã/AM,-3.5797356,-61.4049996,9,64.48839
1,Ananindeua/PA,-1.374035,-48.4016623,24762,4623.68382
D1,Ananindeua/PA,-1.374035,-48.4016623,810,151.24723
1,Ananás/TO,-6.3663053,-48.080238,1591,16761.48335
D1,Ananás/TO,-6.3663053,-48.080238,25,263.37969
1,Anapu/PA,-3.4668292,-51.2057035,1645,5750.34083
D1,Anapu/PA,-3.4668292,-51.2057035,38,132.83462
1,Anapurus/MA,-3.6751298,-43.1046001,831,5228.38807
D1,Anapurus/MA,-3.6751298,-43.1046001,14,88.08355
1,Anastácio/MS,-20.4832458,-55.8048448,2474,9803.06693
D1,Anastácio/MS,-20.4832458,-55.8048448,72,285.29540
1,Anaurilândia/MS,-22.185169,-52.719056,550,6059.93830
D1,Anaurilândia/MS,-22.185169,-52.719056,15,165.27104
1,Anchieta/ES,-20.8057672,-40.6454564,4838,16246.34810
D1,Anchieta/ES,-20.8057672,-40.6454564,87,292.15219
1,Anchieta/SC,-26.5350527,-53.3293938,661,11894.90732
D1,Anchieta/SC,-26.5350527,-53.3293938,9,161.95789
1,Andaraí/BA,-12.8059674,-41.3322919,917,6982.94243
D1,Andaraí/BA,-12.8059674,-41.3322919,10,76.14986
1,Andirá/PR,-23.0494761,-50.2310027,2429,12190.10338
D1,Andirá/PR,-23.0494761,-50.2310027,80,401.48550
1,Andorinha/BA,-10.3445708,-39.8334411,925,6377.99076
D1,Andorinha/BA,-10.3445708,-39.8334411,17,117.21713
1,Andradas/MG,-22.0680484,-46.5688976,3855,9312.49396
D1,Andradas/MG,-22.0680484,-46.5688976,112,270.55754
1,Andradina/SP,-20.896505,-51.3742765,6285,10987.37806
D1,Andradina/SP,-20.896505,-51.3742765,257,449.28499
1,Andrelândia/MG,-21.739722,-44.308889,206,1687.69458
D1,Andrelândia/MG,-21.739722,-44.308889,13,106.50500
1,André da Rocha/RS,-28.6309124,-51.5733328,117,8711.83917
D1,André da Rocha/RS,-28.6309124,-51.5733328,1,74.46016
1,Angatuba/SP,-23.4938938,-48.4110675,2850,11185.68233
D1,Angatuba/SP,-23.4938938,-48.4110675,70,274.73606
1,Angelim/PE,-8.8902038,-36.2872987,223,1986.46000
D1,Angelim/PE,-8.8902038,-36.2872987,11,97.98682
1,Angelina/SC,-27.5805287,-48.9838759,523,11026.77630
D1,Angelina/SC,-27.5805287,-48.9838759,2,42.16740
1,Angelândia/MG,-17.7253,-42.2728,189,2208.71801
D1,Angelândia/MG,-17.7253,-42.2728,1,11.68634
1,Angical do Piauí/PI,-6.0872666,-42.7366138,851,12546.07106
D1,Angical do Piauí/PI,-6.0872666,-42.7366138,12,176.91287
1,Angical/BA,-12.005623,-44.7000236,697,5000.71746
D1,Angical/BA,-12.005623,-44.7000236,15,107.61946
1,Angico/TO,-6.3893733,-47.8656722,236,6832.65779
D1,Angico/TO,-6.3893733,-47.8656722,4,115.80776
1,Angicos/RN,-5.6666344,-36.6009064,1073,9167.02264
D1,Angicos/RN,-5.6666344,-36.6009064,22,187.95387
1,Angra dos Reis/RJ,-23.0063966,-44.316326,14180,6848.78577
D1,Angra dos Reis/RJ,-23.0063966,-44.316326,492,237.63065
1,Anguera/BA,-12.1509425,-39.2452469,484,4284.32327
D1,Anguera/BA,-12.1509425,-39.2452469,2,17.70382
1,Angélica/MS,-22.1588196,-53.7728504,1319,12065.49579
D1,Angélica/MS,-22.1588196,-53.7728504,19,173.80168
1,Anhanguera/GO,-18.3338749,-48.220363,91,7844.82759
D1,Anhanguera/GO,-18.3338749,-48.220363,6,517.24138
1,Anhembi/SP,-22.7891096,-48.1316776,287,4208.82827
D1,Anhembi/SP,-22.7891096,-48.1316776,6,87.98944
1,Anhumas/SP,-22.2956478,-51.3873401,221,5333.01158
D1,Anhumas/SP,-22.2956478,-51.3873401,7,168.91892
1,Anicuns/GO,-16.4606451,-49.9572265,2991,13607.20622
D1,Anicuns/GO,-16.4606451,-49.9572265,64,291.16055
1,Anita Garibaldi/SC,-27.6855032,-51.1293873,1184,17018.82996
D1,Anita Garibaldi/SC,-27.6855032,-51.1293873,10,143.74012
1,Anitápolis/SC,-27.9041185,-49.1287395,337,10439.90087
D1,Anitápolis/SC,-27.9041185,-49.1287395,4,123.91574
1,Anori/AM,-3.7435254,-61.6605203,1889,8795.45560
D1,Anori/AM,-3.7435254,-61.6605203,31,144.34046
1,Anta Gorda/RS,-28.9718745,-52.0069187,619,10384.16373
D1,Anta Gorda/RS,-28.9718745,-52.0069187,4,67.10284
1,Antas/BA,-10.4114649,-38.3308815,1312,6735.45870
D1,Antas/BA,-10.4114649,-38.3308815,12,61.60481
1,Antonina do Norte/CE,-6.7754187,-39.9879345,783,10612.63215
D1,Antonina do Norte/CE,-6.7754187,-39.9879345,26,352.39902
1,Antonina/PR,-25.4298854,-48.7125431,2531,13356.90538
D1,Antonina/PR,-25.4298854,-48.7125431,66,348.30334
1,Antônio Almeida/PI,-7.2186016,-44.1950248,406,12807.57098
D1,Antônio Almeida/PI,-7.2186016,-44.1950248,10,315.45741
1,Antônio Cardoso/BA,-12.4363122,-39.1200307,552,4727.24159
D1,Antônio Cardoso/BA,-12.4363122,-39.1200307,11,94.20228
1,Antônio Carlos/MG,-21.318334,-43.746666,727,6344.35815
D1,Antônio Carlos/MG,-21.318334,-43.746666,16,139.62824
1,Antônio Carlos/SC,-27.5168462,-48.7684715,1619,18797.16707
D1,Antônio Carlos/SC,-27.5168462,-48.7684715,25,290.25891
1,Antônio Dias/MG,-19.6525,-42.872778,574,6188.67925
D1,Antônio Dias/MG,-19.6525,-42.872778,25,269.54178
1,Antônio Gonçalves/BA,-10.5715409,-40.2748824,887,7467.58714
D1,Antônio Gonçalves/BA,-10.5715409,-40.2748824,9,75.77033
1,Antônio João/MS,-22.1892837,-55.9508227,540,5986.69623
D1,Antônio João/MS,-22.1892837,-55.9508227,16,177.38359
1,Antônio Martins/RN,-6.2155812,-37.8890129,671,9379.36819
D1,Antônio Martins/RN,-6.2155812,-37.8890129,6,83.86916
1,Antônio Olinto/PR,-25.9849006,-50.1974516,521,7014.94547
D1,Antônio Olinto/PR,-25.9849006,-50.1974516,13,175.03703
1,Antônio Prado de Minas/MG,-21.0171988,-42.1101106,161,10144.92754
D1,Antônio Prado de Minas/MG,-21.0171988,-42.1101106,5,315.05986
1,Antônio Prado/RS,-28.8567806,-51.2801355,2664,20421.61748
D1,Antônio Prado/RS,-28.8567806,-51.2801355,30,229.97317
1,Anápolis/GO,-16.3332828,-48.9525756,40484,10333.56136
D1,Anápolis/GO,-16.3332828,-48.9525756,1493,381.08900
1,Anísio de Abreu/PI,-9.185643,-43.04941,290,2918.09217
D1,Anísio de Abreu/PI,-9.185643,-43.04941,12,120.74864
1,Aparecida d'Oeste/SP,-20.4498109,-50.8808706,744,17893.21789
D1,Aparecida d'Oeste/SP,-20.4498109,-50.8808706,15,360.75036
1,Aparecida de Goiânia/GO,-16.8226769,-49.2452546,70051,11870.11350
D1,Aparecida de Goiânia/GO,-16.8226769,-49.2452546,1484,251.46320
1,Aparecida do Rio Doce/GO,-18.2980167,-51.1491312,242,9781.72999
D1,Aparecida do Rio Doce/GO,-18.2980167,-51.1491312,3,121.26112
1,Aparecida do Rio Negro/TO,-9.9513491,-47.9773786,362,7466.99670
D1,Aparecida do Rio Negro/TO,-9.9513491,-47.9773786,11,226.89769
1,Aparecida do Taboado/MS,-20.0840304,-51.1013943,3584,13748.12996
D1,Aparecida do Taboado/MS,-20.0840304,-51.1013943,57,218.65050
1,Aparecida/PB,-6.7859598, -38.0831353,942,11192.96578
D1,Aparecida/PB,-6.7859598, -38.0831353,13,154.46768
1,Aparecida/SP,-22.851552,-45.2340924,2325,6425.31436
D1,Aparecida/SP,-22.851552,-45.2340924,96,265.30330
1,Aperibé/RJ,-21.6211928,-42.1028167,609,5117.21704
D1,Aperibé/RJ,-21.6211928,-42.1028167,27,226.87169
1,Apiacá/ES,-21.152272,-41.569297,848,11225.84061
D1,Apiacá/ES,-21.152272,-41.569297,33,436.85465
1,Apiacás/MT,-9.5678422,-57.394852,1817,17669.94068
D1,Apiacás/MT,-9.5678422,-57.394852,17,165.32140
1,Apiaí/SP,-24.5076527,-48.8461582,1526,6299.01758
D1,Apiaí/SP,-24.5076527,-48.8461582,75,309.58474
1,Apicum-Açu/MA,-1.5279295,-45.082278,517,2969.04611
D1,Apicum-Açu/MA,-1.5279295,-45.082278,5,28.71418
1,Apiúna/SC,-27.0374658,-49.3885037,840,7743.36283
D1,Apiúna/SC,-27.0374658,-49.3885037,16,147.49263
1,Apodi/RN,-5.6631109,-37.796927,6434,17934.99470
D1,Apodi/RN,-5.6631109,-37.796927,95,264.81574
1,Aporá/BA,-11.6599747,-38.0794757,593,3333.70812
D1,Aporá/BA,-11.6599747,-38.0794757,19,106.81358
1,Aporé/GO,-18.9642193,-51.92804,364,8601.13422
D1,Aporé/GO,-18.9642193,-51.92804,10,236.29490
1,Apuarema/BA,-13.8517897,-39.7457126,706,9668.58395
D1,Apuarema/BA,-13.8517897,-39.7457126,9,123.25390
1,Apucarana/PR,-23.5525327,-51.4610764,10315,7571.53134
D1,Apucarana/PR,-23.5525327,-51.4610764,418,306.82502
1,Apuiarés/CE,-3.9460303,-39.4313298,1261,8594.60196
D1,Apuiarés/CE,-3.9460303,-39.4313298,25,170.39258
1,Apuí/AM,-7.1940195,-59.8830192,1433,6409.05228
D1,Apuí/AM,-7.1940195,-59.8830192,31,138.64663
1,Aquidabã/SE,-10.2837579,-37.0188687,2321,10705.22577
D1,Aquidabã/SE,-10.2837579,-37.0188687,39,179.88100
1,Aquidauana/MS,-20.473969,-55.7821375,5388,11218.22232
D1,Aquidauana/MS,-20.473969,-55.7821375,148,308.14716
1,Aquiraz/CE,-3.9063117,-38.387504,6543,8084.26515
D1,Aquiraz/CE,-3.9063117,-38.387504,89,109.96479
1,Arabutã/SC,-27.1587028,-52.1438142,419,9819.54535
D1,Arabutã/SC,-27.1587028,-52.1438142,8,187.48535
1,Aracaju/SE,-10.9162061,-37.0774655,123166,18523.76569
D1,Aracaju/SE,-10.9162061,-37.0774655,2365,355.68831
1,Aracati/CE,-4.558259,-37.767894,7897,10532.84428
D1,Aracati/CE,-4.558259,-37.767894,163,217.40580
1,Aracatu/BA,-14.4274236,-41.4604105,808,6193.94404
D1,Aracatu/BA,-14.4274236,-41.4604105,17,130.31813
1,Araci/BA,-11.3356065,-38.9573261,3555,6505.27009
D1,Araci/BA,-11.3356065,-38.9573261,48,87.83487
1,Aracitaba/MG,-21.3425,-43.378611,87,4225.35211
D1,Aracitaba/MG,-21.3425,-43.378611,8,388.53813
1,Aracoiaba/CE,-4.3702577,-38.8084313,4178,15745.24213
D1,Aracoiaba/CE,-4.3702577,-38.8084313,33,124.36405
1,Aracruz/ES,-19.8245218,-40.2735025,16268,15778.70244
D1,Aracruz/ES,-19.8245218,-40.2735025,225,218.23261
1,Aragarças/GO,-15.8957166,-52.2514538,2753,13579.63794
D1,Aragarças/GO,-15.8957166,-52.2514538,61,300.89281
1,Aragoiânia/GO,-16.9146388,-49.4499148,1050,10003.81098
D1,Aragoiânia/GO,-16.9146388,-49.4499148,22,209.60366
1,Aragominas/TO,-7.1654101,-48.525488,543,9474.78625
D1,Aragominas/TO,-7.1654101,-48.525488,9,157.04066
1,Araguacema/TO,-8.8067391,-49.5560969,683,9545.77219
D1,Araguacema/TO,-8.8067391,-49.5560969,13,181.69113
1,Araguaiana/MT,-15.729144,-51.834112,365,11740.10936
D1,Araguaiana/MT,-15.729144,-51.834112,6,192.98810
1,Araguainha/MT,-16.857016,-53.031778,29,3065.53911
D1,Araguainha/MT,-16.857016,-53.031778,1,105.70825
1,Araguanã/MA,-2.9508403,-45.6651986,808,5195.80734
D1,Araguanã/MA,-2.9508403,-45.6651986,5,32.15227
1,Araguanã/TO,-6.5799107,-48.6428482,564,9735.88814
D1,Araguanã/TO,-6.5799107,-48.6428482,14,241.67098
1,Araguapaz/GO,-15.0937927,-50.626417,657,8441.47501
D1,Araguapaz/GO,-15.0937927,-50.626417,24,308.36438
1,Araguari/MG,-18.6511256,-48.1933764,16108,13671.12243
D1,Araguari/MG,-18.6511256,-48.1933764,406,344.57882
1,Araguatins/TO,-5.6522925,-48.1158973,2422,6696.15704
D1,Araguatins/TO,-5.6522925,-48.1158973,64,176.94222
1,Araguaçu/TO,-12.928934,-49.823134,855,10098.02764
D1,Araguaçu/TO,-12.928934,-49.823134,20,236.21117
1,Araguaína/TO,-7.193241,-48.2018597,34692,18917.99041
D1,Araguaína/TO,-7.193241,-48.2018597,485,264.47669
1,Araioses/MA,-2.890914,-41.904993,666,1423.95929
D1,Araioses/MA,-2.890914,-41.904993,14,29.93308
1,Aral Moreira/MS,-22.951141,-55.6268421,535,4338.30684
D1,Aral Moreira/MS,-22.951141,-55.6268421,13,105.41680
1,Aramari/BA,-12.0907897,-38.4985065,624,5444.55109
D1,Aramari/BA,-12.0907897,-38.4985065,12,104.70291
1,Arambaré/RS,-30.9132252,-51.4994625,189,5306.00786
D1,Arambaré/RS,-30.9132252,-51.4994625,8,224.59293
1,Arame/MA,-4.8858769,-46.0102484,1562,4767.42766
D1,Arame/MA,-4.8858769,-46.0102484,41,125.13735
1,Aramina/SP,-20.0876144,-47.789201,328,5800.17683
D1,Aramina/SP,-20.0876144,-47.789201,17,300.61892
1,Arandu/SP,-23.1345103,-49.0545651,576,9049.48940
D1,Arandu/SP,-23.1345103,-49.0545651,13,204.24195
1,Arantina/MG,-21.911667,-44.255833,156,5597.41658
D1,Arantina/MG,-21.911667,-44.255833,4,143.52350
1,Arapeí/SP,-22.6738889,-44.4477778,225,9146.34146
D1,Arapeí/SP,-22.6738889,-44.4477778,3,121.95122
1,Arapiraca/AL,-9.754866,-36.661471,29935,12845.04842
D1,Arapiraca/AL,-9.754866,-36.661471,480,205.96704
1,Arapoema/TO,-7.6575001,-49.0641484,494,7466.74728
D1,Arapoema/TO,-7.6575001,-49.0641484,11,166.26360
1,Araponga/MG,-20.666667,-42.520556,588,6956.11026
D1,Araponga/MG,-20.666667,-42.520556,9,106.47108
1,Arapongas/PR,-23.415296,-51.42592,13902,11138.53057
D1,Arapongas/PR,-23.415296,-51.42592,513,411.02476
1,Araporã/MG,-18.4318188,-49.188313,1929,27831.48175
D1,Araporã/MG,-18.4318188,-49.188313,28,403.98211
1,Arapoti/PR,-24.1457957,-49.8224605,3071,10851.59011
D1,Arapoti/PR,-24.1457957,-49.8224605,56,197.87986
1,Araputanga/MT,-15.4710868,-58.346796,1988,11727.92166
D1,Araputanga/MT,-15.4710868,-58.346796,54,318.56528
1,Arapuá/MG,-19.034444,-46.155556,278,9805.99647
D1,Arapuá/MG,-19.034444,-46.155556,2,70.54674
1,Arapuã/PR,-24.3079525,-51.7901941,220,7311.39914
D1,Arapuã/PR,-24.3079525,-51.7901941,6,199.40179
1,Araquari/SC,-26.3703324,-48.7210994,3626,9174.17265
D1,Araquari/SC,-26.3703324,-48.7210994,76,192.28823
1,Arara/PB,-6.8271895,-35.7605703,1012,7473.04682
D1,Arara/PB,-6.8271895,-35.7605703,28,206.76414
1,Araranguá/SC,-28.9348832,-49.4858389,10668,15490.72851
D1,Araranguá/SC,-28.9348832,-49.4858389,239,347.04575
1,Araraquara/SP,-21.7886713,-48.1773096,22611,9486.90730
D1,Araraquara/SP,-21.7886713,-48.1773096,457,191.74369
1,Araras/SP,-22.3569477,-47.3838889,16371,12081.38385
D1,Araras/SP,-22.3569477,-47.3838889,363,267.88482
1,Ararendá/CE,-4.7504395,-40.8303611,1322,12063.14445
D1,Ararendá/CE,-4.7504395,-40.8303611,21,191.62332
1,Arari/MA,-3.4547602,-44.7772723,863,2883.20192
D1,Arari/MA,-3.4547602,-44.7772723,31,103.56809
1,Araricá/RS,-29.6168543,-50.929121,998,17293.36337
D1,Araricá/RS,-29.6168543,-50.929121,24,415.87247
1,Araripe/CE,-7.212861,-40.1359222,1337,6174.37887
D1,Araripe/CE,-7.212861,-40.1359222,20,92.36169
1,Araripina/PE,-7.5768582,-40.5038509,6981,8226.10294
D1,Araripina/PE,-7.5768582,-40.5038509,151,177.93175
1,Araruama/RJ,-22.8733203,-42.3428897,6256,4658.47066
D1,Araruama/RJ,-22.8733203,-42.3428897,424,315.72755
1,Araruna/PB,-6.5321155,-35.7397595,677,3308.41030
D1,Araruna/PB,-6.5321155,-35.7397595,16,78.18990
1,Araruna/PR,-23.9320308,-52.4976047,2066,14757.14286
D1,Araruna/PR,-23.9320308,-52.4976047,36,257.14286
1,Arataca/BA,-15.2617424,-39.4122943,789,7198.24834
D1,Arataca/BA,-15.2617424,-39.4122943,15,136.84883
1,Aratiba/RS,-27.3955734,-52.3024325,370,5978.34868
D1,Aratiba/RS,-27.3955734,-52.3024325,7,113.10389
1,Aratuba/CE,-4.4195958,-39.0463737,1547,13107.94781
D1,Aratuba/CE,-4.4195958,-39.0463737,8,67.78512
1,Aratuípe/BA,-13.077137,-39.0010786,466,5273.28279
D1,Aratuípe/BA,-13.077137,-39.0010786,11,124.47663
1,Araucária/PR,-25.5861107,-49.4051209,26176,17902.52643
D1,Araucária/PR,-25.5861107,-49.4051209,420,287.25019
1,Arauá/SE,-11.2644014,-37.6181058,1248,12546.49643
D1,Arauá/SE,-11.2644014,-37.6181058,20,201.06565
1,Araxá/MG,-19.5928536,-46.940241,13413,12496.15696
D1,Araxá/MG,-19.5928536,-46.940241,215,200.30372
1,Araçagi/PB,-6.8519969,-35.3835602,1575,9307.96052
D1,Araçagi/PB,-6.8519969,-35.3835602,24,141.83559
1,Araçariguama/SP,-23.438611,-47.061389,1884,8241.46982
D1,Araçariguama/SP,-23.438611,-47.061389,62,271.21610
1,Araçatuba/SP,-21.207992,-50.4390225,26866,13559.85242
D1,Araçatuba/SP,-21.207992,-50.4390225,804,405.79622
1,Araçaí/MG,-19.200833,-44.2475,72,3058.62362
D1,Araçaí/MG,-19.200833,-44.2475,1,42.48088
1,Araçoiaba da Serra/SP,-23.5045367,-47.6168158,2823,8117.66736
D1,Araçoiaba da Serra/SP,-23.5045367,-47.6168158,74,212.79043
1,Araçoiaba/PE,-7.7856903,-35.0898881,665,3207.44707
D1,Araçoiaba/PE,-7.7856903,-35.0898881,31,149.52009
1,Araçu/GO,-16.3561579,-49.6815269,443,12707.97476
D1,Araçu/GO,-16.3561579,-49.6815269,17,487.66495
1,Araçuaí/MG,-16.8484451,-42.0661868,1794,4886.68555
D1,Araçuaí/MG,-16.8484451,-42.0661868,46,125.29963
1,Araçás/BA,-12.2139176,-38.2026159,689,5643.84010
D1,Araçás/BA,-12.2139176,-38.2026159,13,106.48755
1,Araújos/MG,-19.948055,-45.165556,808,8594.83034
D1,Araújos/MG,-19.948055,-45.165556,13,138.28316
1,Arceburgo/MG,-21.364444,-46.939722,1212,11136.63512
D1,Arceburgo/MG,-21.364444,-46.939722,33,303.22521
1,Arco-Íris/SP,-21.7741308,-50.4668814,147,8291.03215
D1,Arco-Íris/SP,-21.7741308,-50.4668814,8,451.21263
1,Arcos/MG,-20.282223,-45.539444,5242,12981.67410
D1,Arcos/MG,-20.282223,-45.539444,111,274.88856
1,Arcoverde/PE,-8.415192,-37.057748,6232,8329.10107
D1,Arcoverde/PE,-8.415192,-37.057748,130,173.74569
1,Areado/MG,-21.3582771,-46.1476688,1119,7371.05593
D1,Areado/MG,-21.3582771,-46.1476688,23,151.50517
1,Areal/RJ,-22.2314922,-43.1056264,1366,10782.22433
D1,Areal/RJ,-22.2314922,-43.1056264,48,378.87758
1,Arealva/SP,-22.0301906,-48.9111936,965,11203.99396
D1,Arealva/SP,-22.0301906,-48.9111936,17,197.37606
1,Areia Branca/RN,-4.9506652,-37.1263312,2833,10129.79583
D1,Areia Branca/RN,-4.9506652,-37.1263312,95,339.68606
1,Areia Branca/SE,-10.7591455,-37.3148072,2081,11136.67987
D1,Areia Branca/SE,-10.7591455,-37.3148072,47,251.52521
1,Areia de Baraúnas/PB,-7.1233949,-36.9446216,207,9782.60870
D1,Areia de Baraúnas/PB,-7.1233949,-36.9446216,4,189.03592
1,Areia/PB,-6.9680243,-35.6994783,1791,7905.19068
D1,Areia/PB,-6.9680243,-35.6994783,30,132.41525
1,Areial/PB,-7.0501306,-35.9245244,362,5151.55828
D1,Areial/PB,-7.0501306,-35.9245244,12,170.76989
1,Areias/SP,-22.5800929,-44.6975127,336,8624.22998
D1,Areias/SP,-22.5800929,-44.6975127,1,25.66735
1,Areiópolis/SP,-22.6758064,-48.6673653,1331,11928.66105
D1,Areiópolis/SP,-22.6758064,-48.6673653,19,170.28141
1,Arenápolis/MT,-14.4610369,-56.8432806,1820,19153.86234
D1,Arenápolis/MT,-14.4610369,-56.8432806,34,357.81941
1,Arenópolis/GO,-16.3859286,-51.55937,241,9503.15457
D1,Arenópolis/GO,-16.3859286,-51.55937,8,315.45741
1,Argirita/MG,-21.612761,-42.8371922,265,9800.29586
D1,Argirita/MG,-21.612761,-42.8371922,7,258.87574
1,Aricanduva/MG,-17.8678,-42.5569,130,2467.26134
1,Arinos/MG,-15.917223,-46.106111,752,4210.05487
D1,Arinos/MG,-15.917223,-46.106111,23,128.76498
1,Aripuanã/MT,-10.175806,-59.4439663,2943,12956.76675
D1,Aripuanã/MT,-10.175806,-59.4439663,43,189.31056
1,Ariquemes/RO,-9.9076522,-63.033069,22042,20125.45310
D1,Ariquemes/RO,-9.9076522,-63.033069,475,433.69886
1,Ariranha do Ivaí/PR,-24.3834527,-51.5876772,191,9244.91772
D1,Ariranha do Ivaí/PR,-24.3834527,-51.5876772,4,193.61084
1,Ariranha/SP,-21.18716,-48.790418,925,9476.48806
D1,Ariranha/SP,-21.18716,-48.790418,23,235.63160
1,Armazém/SC,-28.2624996,-49.0190126,1408,16074.89439
D1,Armazém/SC,-28.2624996,-49.0190126,30,342.50485
1,Armação dos Búzios/RJ,-22.7597805,-41.8875267,4535,13153.69667
D1,Armação dos Búzios/RJ,-22.7597805,-41.8875267,57,165.32761
1,Arneiroz/CE,-6.3235099,-40.1603859,658,8388.57726
D1,Arneiroz/CE,-6.3235099,-40.1603859,16,203.97756
1,Aroazes/PI,-6.1108814,-41.7886137,590,10125.27887
D1,Aroazes/PI,-6.1108814,-41.7886137,12,205.93788
1,Aroeiras do Itaim/PI,-7.2797031,-41.5629681,127,4978.43983
D1,Aroeiras do Itaim/PI,-7.2797031,-41.5629681,2,78.40063
1,Aroeiras/PB,-7.5462904,-35.7080002,1783,9327.26512
D1,Aroeiras/PB,-7.5462904,-35.7080002,13,68.00586
1,Arraial do Cabo/RJ,-22.9662839,-42.024427,729,2382.89805
D1,Arraial do Cabo/RJ,-22.9662839,-42.024427,39,127.48014
1,Arraial/PI,-6.6541632,-42.5335332,159,3368.64407
D1,Arraial/PI,-6.6541632,-42.5335332,3,63.55932
1,Arraias/TO,-12.9287788,-46.9437231,1016,9644.95918
D1,Arraias/TO,-12.9287788,-46.9437231,9,85.43763
1,Arroio Grande/RS,-32.2384246,-53.0866661,1962,10757.75853
D1,Arroio Grande/RS,-32.2384246,-53.0866661,53,290.60204
1,Arroio Trinta/SC,-26.9301976,-51.334928,606,17075.23246
D1,Arroio Trinta/SC,-26.9301976,-51.334928,13,366.30037
1,Arroio do Meio/RS,-29.4020392,-51.9444993,3090,14737.44456
D1,Arroio do Meio/RS,-29.4020392,-51.9444993,45,214.62298
1,Arroio do Padre/RS,-31.4428773,-52.4228985,230,7793.96815
D1,Arroio do Padre/RS,-31.4428773,-52.4228985,3,101.66045
1,Arroio do Sal/RS,-29.549852,-49.8874395,1136,11051.65872
D1,Arroio do Sal/RS,-29.549852,-49.8874395,38,369.68577
1,Arroio do Tigre/RS,-29.334158,-53.0888935,1231,9177.66346
D1,Arroio do Tigre/RS,-29.334158,-53.0888935,20,149.10907
1,Arroio dos Ratos/RS,-30.0894524,-51.7265541,1029,7258.23517
D1,Arroio dos Ratos/RS,-30.0894524,-51.7265541,35,246.87875
1,Artur Nogueira/SP,-22.572737,-47.172679,4923,8895.91615
D1,Artur Nogueira/SP,-22.572737,-47.172679,125,225.87640
1,Aruanã/GO,-14.9162439,-51.0715692,558,5519.28783
D1,Aruanã/GO,-14.9162439,-51.0715692,14,138.47676
1,Arujá/SP,-23.396266,-46.3175449,7529,8259.37668
D1,Arujá/SP,-23.396266,-46.3175449,302,331.29655
1,Arvoredo/SC,-27.0752908,-52.4571847,309,13831.69203
D1,Arvoredo/SC,-27.0752908,-52.4571847,4,179.05103
1,Arvorezinha/RS,-28.87369,-52.17808,851,8164.63590
D1,Arvorezinha/RS,-28.87369,-52.17808,27,259.04250
1,Arês/RN,-6.1969216,-35.1642968,1123,7789.41527
D1,Arês/RN,-6.1969216,-35.1642968,24,166.47014
1,Ascurra/SC,-26.9569975,-49.3767752,1180,14790.67435
D1,Ascurra/SC,-26.9569975,-49.3767752,10,125.34470
1,Aspásia/SP,-20.160028,-50.728046,191,10506.05061
D1,Aspásia/SP,-20.160028,-50.728046,6,330.03300
1,Assaré/CE,-6.8746791,-39.8741385,2228,9489.73507
D1,Assaré/CE,-6.8746791,-39.8741385,42,178.89088
1,Assaí/PR,-23.3736041,-50.8454929,1355,9061.12077
D1,Assaí/PR,-23.3736041,-50.8454929,44,294.23566
1,Assis Brasil/AC,-10.9409203,-69.5672108,1771,23506.76931
D1,Assis Brasil/AC,-10.9409203,-69.5672108,24,318.55588
1,Assis Chateaubriand/PR,-24.4054826,-53.5120468,4536,13605.27894
D1,Assis Chateaubriand/PR,-24.4054826,-53.5120468,102,305.93881
1,Assis/SP,-22.6620892,-50.420623,10927,10398.05114
D1,Assis/SP,-22.6620892,-50.420623,383,364.45992
1,Assunção do Piauí/PI,-5.8610212,-41.0485091,335,4260.46038
D1,Assunção do Piauí/PI,-5.8610212,-41.0485091,8,101.74234
1,Assunção/PB,-7.073396,-36.7274003,404,10027.30206
D1,Assunção/PB,-7.073396,-36.7274003,5,124.10027
1,Astolfo Dutra/MG,-21.3132636,-42.8624102,1324,9278.20603
D1,Astolfo Dutra/MG,-21.3132636,-42.8624102,24,168.18500
1,Astorga/PR,-23.2350184,-51.6647074,3289,12549.12435
D1,Astorga/PR,-23.2350184,-51.6647074,80,305.23866
1,Atalaia do Norte/AM,-4.3658547,-70.1908742,2807,13761.15305
D1,Atalaia do Norte/AM,-4.3658547,-70.1908742,10,49.02441
1,Atalaia/AL,-9.5029595,-36.0219316,1194,2520.84873
D1,Atalaia/AL,-9.5029595,-36.0219316,49,103.45192
1,Atalaia/PR,-23.1513833,-52.0529697,440,11337.28421
D1,Atalaia/PR,-23.1513833,-52.0529697,19,489.56455
1,Atalanta/SC,-27.421916,-49.778863,466,14585.28951
D1,Atalanta/SC,-27.421916,-49.778863,11,344.28795
1,Ataléia/MG,-18.04432,-41.1110524,1137,8968.29153
D1,Ataléia/MG,-18.04432,-41.1110524,8,63.10144
1,Atibaia/SP,-23.1177393,-46.5547861,11234,7796.62429
D1,Atibaia/SP,-23.1177393,-46.5547861,254,176.28116
1,Atilio Vivacqua/ES,-20.9139369,-41.1947519,1513,12498.96737
D1,Atilio Vivacqua/ES,-20.9139369,-41.1947519,28,231.30938
1,Augustinópolis/TO,-5.4662267,-47.8897519,1535,8233.65338
D1,Augustinópolis/TO,-5.4662267,-47.8897519,27,144.82648
1,Augusto Corrêa/PA,-1.0229335,-46.6404029,2001,4305.91121
D1,Augusto Corrêa/PA,-1.0229335,-46.6404029,46,98.98646
1,Augusto Pestana/RS,-28.5148413,-53.9906433,744,11269.31233
D1,Augusto Pestana/RS,-28.5148413,-53.9906433,13,196.91003
1,Augusto de Lima/MG,-18.1092963,-44.2651945,276,5689.54855
D1,Augusto de Lima/MG,-18.1092963,-44.2651945,10,206.14306
1,Aurelino Leal/BA,-14.3167137,-39.3256107,1007,8912.29312
D1,Aurelino Leal/BA,-14.3167137,-39.3256107,29,256.65988
1,Auriflama/SP,-20.6840418,-50.5554616,1950,12784.37029
D1,Auriflama/SP,-20.6840418,-50.5554616,68,445.81394
1,Aurilândia/GO,-16.6772599,-50.4641231,212,6932.63571
D1,Aurilândia/GO,-16.6772599,-50.4641231,7,228.90778
1,Aurora do Pará/PA,-2.1323199,-47.558436,1692,5325.27618
D1,Aurora do Pará/PA,-2.1323199,-47.558436,15,47.20990
1,Aurora do Tocantins/TO,-12.71045,-46.407604,219,5789.05630
D1,Aurora do Tocantins/TO,-12.71045,-46.407604,5,132.17024
1,Aurora/CE,-6.9426019,-38.9693765,1738,7062.16985
D1,Aurora/CE,-6.9426019,-38.9693765,37,150.34539
1,Aurora/SC,-27.3166417,-49.6368502,830,14604.96217
D1,Aurora/SC,-27.3166417,-49.6368502,15,263.94510
1,Autazes/AM,-3.5833283,-59.1301518,2874,7133.28369
D1,Autazes/AM,-3.5833283,-59.1301518,95,235.79052
1,Avanhandava/SP,-21.4603331,-49.9465156,1045,7540.22657
D1,Avanhandava/SP,-21.4603331,-49.9465156,40,288.62111
1,Avaré/SP,-23.1045215,-48.9259103,10547,11560.63662
D1,Avaré/SP,-23.1045215,-48.9259103,242,265.25780
1,Avaí/SP,-22.1564662,-49.3316395,464,8535.68801
D1,Avaí/SP,-22.1564662,-49.3316395,12,220.75055
1,Aveiro/PA,-3.6049239,-55.3310742,821,5004.87686
D1,Aveiro/PA,-3.6049239,-55.3310742,13,79.24896
1,Avelino Lopes/PI,-10.1346855,-43.9489525,433,3823.06198
D1,Avelino Lopes/PI,-10.1346855,-43.9489525,19,167.75561
1,Avelinópolis/GO,-16.4672409,-49.7578661,310,12868.41013
D1,Avelinópolis/GO,-16.4672409,-49.7578661,14,581.15401
1,Axixá do Tocantins/TO,-5.612747,-47.77007,1029,10513.94707
D1,Axixá do Tocantins/TO,-5.612747,-47.77007,19,194.13508
1,Axixá/MA,-2.8379465,-44.0561053,192,1575.96651
D1,Axixá/MA,-2.8379465,-44.0561053,7,57.45711
1,Açailândia/MA,-4.9514278,-47.4844564,5461,4827.57401
D1,Açailândia/MA,-4.9514278,-47.4844564,213,188.29395
1,Açu/RN,-5.5836157,-36.9139541,7923,13570.49877
D1,Açu/RN,-5.5836157,-36.9139541,147,251.78131
1,Açucena/MG,-19.073056,-42.546666,792,8454.31255
D1,Açucena/MG,-19.073056,-42.546666,33,352.26302
1,Babaçulândia/TO,-7.2034355,-47.761613,834,7819.23870
D1,Babaçulândia/TO,-7.2034355,-47.761613,5,46.87793
1,Bacabal/MA,-4.2318132,-44.781167,5337,5093.04323
D1,Bacabal/MA,-4.2318132,-44.781167,184,175.58927
1,Bacabeira/MA,-2.9775747,-44.3155943,385,2231.62532
D1,Bacabeira/MA,-2.9775747,-44.3155943,8,46.37144
1,Bacuri/MA,-1.728894,-45.1417148,598,3205.74676
D1,Bacuri/MA,-1.728894,-45.1417148,4,21.44312
1,Bacurituba/MA,-2.7082587,-44.7381309,117,2063.49206
D1,Bacurituba/MA,-2.7082587,-44.7381309,1,17.63668
1,Bady Bassitt/SP,-20.9178969,-49.4517911,3786,21316.36732
D1,Bady Bassitt/SP,-20.9178969,-49.4517911,74,416.64321
1,Baependi/MG,-21.959162,-44.8899249,1497,7797.28111
D1,Baependi/MG,-21.959162,-44.8899249,12,62.50326
1,Bagre/PA,-1.8994498,-50.2103844,916,2924.18196
D1,Bagre/PA,-1.8994498,-50.2103844,12,38.30806
1,Bagé/RS,-31.3314264,-54.1062808,10915,8995.75555
D1,Bagé/RS,-31.3314264,-54.1062808,282,232.41439
1,Baianópolis/BA,-12.3067564,-44.5383591,859,6166.98973
D1,Baianópolis/BA,-12.3067564,-44.5383591,14,100.50973
1,Baixa Grande do Ribeiro/PI,-7.862861,-45.2113289,2591,22200.32559
D1,Baixa Grande do Ribeiro/PI,-7.862861,-45.2113289,31,265.61563
1,Baixa Grande/BA,-11.9630941,-40.1657537,828,4049.09776
D1,Baixa Grande/BA,-11.9630941,-40.1657537,13,63.57279
1,Baixio/CE,-6.7303544,-38.7170095,636,10090.43313
D1,Baixio/CE,-6.7303544,-38.7170095,12,190.38553
1,Baixo Guandu/ES,-19.5138322,-41.0182089,3607,11586.14930
D1,Baixo Guandu/ES,-19.5138322,-41.0182089,72,231.27329
1,Baião/PA,-2.7903479,-49.6702845,755,1558.01812
D1,Baião/PA,-2.7903479,-49.6702845,34,70.16241
1,Balbinos/SP,-21.9006253,-49.3583966,352,5931.91776
D1,Balbinos/SP,-21.9006253,-49.3583966,4,67.40816
1,Baldim/MG,-19.2913568,-43.9558262,645,8266.05152
D1,Baldim/MG,-19.2913568,-43.9558262,19,243.49609
1,Baliza/GO,-16.1978119,-52.542789,355,6723.48485
D1,Baliza/GO,-16.1978119,-52.542789,9,170.45455
1,Balneário Arroio do Silva/SC,-28.9815269,-49.4189932,2074,15443.03797
D1,Balneário Arroio do Silva/SC,-28.9815269,-49.4189932,57,424.42293
1,Balneário Barra do Sul/SC,-26.459842,-48.6061471,1425,12913.45718
D1,Balneário Barra do Sul/SC,-26.459842,-48.6061471,41,371.54508
1,Balneário Camboriú/SC,-26.9924395,-48.6339782,24698,16940.10810
D1,Balneário Camboriú/SC,-26.9924395,-48.6339782,371,254.46514
1,Balneário Gaivota/SC,-29.1553098,-49.5808712,1299,11536.41208
D1,Balneário Gaivota/SC,-29.1553098,-49.5808712,34,301.95382
1,Balneário Pinhal/RS,-30.2482978,-50.234585,720,5012.88032
D1,Balneário Pinhal/RS,-30.2482978,-50.234585,46,320.26735
1,Balneário Piçarras/SC,-26.7638889,-48.6716667,4921,20700.82450
D1,Balneário Piçarras/SC,-26.7638889,-48.6716667,55,231.36463
1,Balneário Rincão/SC,-28.8235718,-49.2241642,1435,11084.50487
D1,Balneário Rincão/SC,-28.8235718,-49.2241642,44,339.87332
1,Balsa Nova/PR,-25.5842234,-49.6312741,1641,12534.37214
D1,Balsa Nova/PR,-25.5842234,-49.6312741,28,213.87107
1,Balsas/MA,-7.53214,-46.037163,10299,10736.06521
D1,Balsas/MA,-7.53214,-46.037163,198,206.40265
1,Bambuí/MG,-20.0131996,-45.9777034,1728,7230.73061
D1,Bambuí/MG,-20.0131996,-45.9777034,25,104.61126
1,Banabuiú/CE,-5.3046404,-38.919766,2289,12538.34356
D1,Banabuiú/CE,-5.3046404,-38.919766,20,109.55302
1,Bananal/SP,-22.6828195,-44.3221095,964,8769.21677
D1,Bananal/SP,-22.6828195,-44.3221095,3,27.29009
1,Bananeiras/PB,-6.7537682,-35.6338343,1474,6930.27411
D1,Bananeiras/PB,-6.7537682,-35.6338343,25,117.54196
1,Bandeira do Sul/MG,-21.728056,-46.385555,599,10366.90897
D1,Bandeira do Sul/MG,-21.728056,-46.385555,14,242.29837
1,Bandeira/MG,-15.884444,-40.559167,458,9609.73563
D1,Bandeira/MG,-15.884444,-40.559167,9,188.83760
1,Bandeirante/SC,-26.7677402,-53.6397596,396,14954.68278
D1,Bandeirante/SC,-26.7677402,-53.6397596,4,151.05740
1,Bandeirantes do Tocantins/TO,-7.7635698,-48.579148,474,13195.99109
D1,Bandeirantes do Tocantins/TO,-7.7635698,-48.579148,8,222.71715
1,Bandeirantes/MS,-19.9179623,-54.3646768,595,8188.82466
D1,Bandeirantes/MS,-19.9179623,-54.3646768,11,151.39004
1,Bandeirantes/PR,-23.107788,-50.370407,5125,16420.49277
D1,Bandeirantes/PR,-23.107788,-50.370407,133,426.13181
1,Bannach/PA,-7.3508505,-50.4064531,648,19865.11343
D1,Bannach/PA,-7.3508505,-50.4064531,3,91.96812
1,Banzaê/BA,-10.5827616,-38.6122305,1149,8678.24773
D1,Banzaê/BA,-10.5827616,-38.6122305,8,60.42296
1,Baraúna/PB,-6.643394,-36.2531932,686,13819.50040
D1,Baraúna/PB,-6.643394,-36.2531932,9,181.30540
1,Baraúna/RN,-5.0775002,-37.61752,1595,5548.40505
D1,Baraúna/RN,-5.0775002,-37.61752,26,90.44422
1,Barbacena/MG,-21.2254524,-43.7735087,8398,6076.52456
D1,Barbacena/MG,-21.2254524,-43.7735087,267,193.19267
1,Barbalha/CE,-7.3121067,-39.3036427,6744,11014.56850
D1,Barbalha/CE,-7.3121067,-39.3036427,150,244.98595
1,Barbosa Ferraz/PR,-24.0287182,-52.00811,1218,10659.89848
D1,Barbosa Ferraz/PR,-24.0287182,-52.00811,32,280.06301
1,Barbosa/SP,-21.265661,-49.951816,658,8810.92662
D1,Barbosa/SP,-21.265661,-49.951816,13,174.07606
1,Barcarena/PA,-1.5107945,-48.6190679,11475,9033.51256
D1,Barcarena/PA,-1.5107945,-48.6190679,222,174.76599
1,Barcelona/RN,-5.9514918,-35.9260284,143,3580.37056
D1,Barcelona/RN,-5.9514918,-35.9260284,5,125.18778
1,Barcelos/AM,-0.9729214,-62.925635,4388,15876.69151
D1,Barcelos/AM,-0.9729214,-62.925635,60,217.09241
1,Bariri/SP,-22.0746355,-48.7394852,2997,8428.48304
D1,Bariri/SP,-22.0746355,-48.7394852,121,340.28911
1,Barra Bonita/SC,-26.6526364,-53.4419581,186,11265.89945
D1,Barra Bonita/SC,-26.6526364,-53.4419581,2,121.13870
1,Barra Bonita/SP,-22.490859,-48.558349,3391,9386.59137
D1,Barra Bonita/SP,-22.490859,-48.558349,97,268.50468
1,Barra D'Alcântara/PI,-6.5209258,-42.1071089,151,3820.85020
D1,Barra D'Alcântara/PI,-6.5209258,-42.1071089,4,101.21457
1,Barra Funda/RS,-27.9230048,-53.0401045,588,23049.78440
D1,Barra Funda/RS,-27.9230048,-53.0401045,14,548.80439
1,Barra Longa/MG,-20.2833541,-43.0423516,402,8015.95214
D1,Barra Longa/MG,-20.2833541,-43.0423516,9,179.46162
1,Barra Mansa/RJ,-22.5394843,-44.1735129,15633,8457.90524
D1,Barra Mansa/RJ,-22.5394843,-44.1735129,596,322.45324
1,Barra Velha/SC,-26.6338203,-48.6835001,4325,14484.25988
D1,Barra Velha/SC,-26.6338203,-48.6835001,107,358.33891
1,Barra da Estiva/BA,-13.6269662,-41.3278287,2553,12519.61554
D1,Barra da Estiva/BA,-13.6269662,-41.3278287,27,132.40486
1,Barra de Guabiraba/PE,-8.4173522,-35.6626669,438,3018.60786
D1,Barra de Guabiraba/PE,-8.4173522,-35.6626669,15,103.37698
1,Barra de Santa Rosa/PB,-6.7218007,-36.0564638,1698,10956.95941
D1,Barra de Santa Rosa/PB,-6.7218007,-36.0564638,12,77.43434
1,Barra de Santana/PB,-7.5230865,-35.9988518,594,7114.62451
D1,Barra de Santana/PB,-7.5230865,-35.9988518,7,83.84238
1,Barra de Santo Antônio/AL,-9.4038098,-35.5117693,454,2825.49166
D1,Barra de Santo Antônio/AL,-9.4038098,-35.5117693,32,199.15360
1,Barra de São Francisco/ES,-18.7570902,-40.8916119,4841,10762.80042
D1,Barra de São Francisco/ES,-18.7570902,-40.8916119,194,431.31239
1,Barra de São Miguel/AL,-9.8261357,-35.8837777,606,7233.22989
D1,Barra de São Miguel/AL,-9.8261357,-35.8837777,8,95.48818
1,Barra de São Miguel/PB,-7.7528088,-36.3170996,602,9925.80379
D1,Barra de São Miguel/PB,-7.7528088,-36.3170996,6,98.92828
1,Barra do Bugres/MT,-15.0683712,-57.1853688,3219,9117.17223
D1,Barra do Bugres/MT,-15.0683712,-57.1853688,77,218.08706
1,Barra do Chapéu/SP,-24.472203,-49.023784,383,6649.30556
D1,Barra do Chapéu/SP,-24.472203,-49.023784,3,52.08333
1,Barra do Choça/BA,-14.8638173,-40.5761637,2160,6921.08046
D1,Barra do Choça/BA,-14.8638173,-40.5761637,31,99.33032
1,Barra do Corda/MA,-5.496823,-45.248496,5802,6556.52488
D1,Barra do Corda/MA,-5.496823,-45.248496,58,65.54265
1,Barra do Garças/MT,-15.8916033,-52.2615413,9124,14924.34775
D1,Barra do Garças/MT,-15.8916033,-52.2615413,314,513.61740
1,Barra do Guarita/RS,-27.1888016,-53.7147086,113,3469.45041
D1,Barra do Guarita/RS,-27.1888016,-53.7147086,7,214.92171
1,Barra do Jacaré/PR,-23.1151788,-50.1813945,256,9205.32183
D1,Barra do Jacaré/PR,-23.1151788,-50.1813945,6,215.74973
1,Barra do Mendes/BA,-11.8053298,-42.057037,756,5465.19193
D1,Barra do Mendes/BA,-11.8053298,-42.057037,13,93.97817
1,Barra do Ouro/TO,-7.7113784,-47.6743925,162,3497.40933
D1,Barra do Ouro/TO,-7.7113784,-47.6743925,6,129.53368
1,Barra do Piraí/RJ,-22.4703403,-43.8263256,6288,6240.32393
D1,Barra do Piraí/RJ,-22.4703403,-43.8263256,363,360.24771
1,Barra do Quaraí/RS,-30.208947,-57.5505128,429,10149.04187
D1,Barra do Quaraí/RS,-30.208947,-57.5505128,6,141.94464
1,Barra do Ribeiro/RS,-30.2930206,-51.301437,1087,8018.58955
D1,Barra do Ribeiro/RS,-30.2930206,-51.301437,49,361.46356
1,Barra do Rio Azul/RS,-27.4101581,-52.4117471,104,6283.98792
D1,Barra do Rio Azul/RS,-27.4101581,-52.4117471,1,60.42296
1,Barra do Rocha/BA,-14.2090974,-39.6004395,392,6985.03207
D1,Barra do Rocha/BA,-14.2090974,-39.6004395,7,124.73272
1,Barra do Turvo/SP,-24.756421,-48.5056942,599,7848.53249
D1,Barra do Turvo/SP,-24.756421,-48.5056942,18,235.84906
1,Barra dos Coqueiros/SE,-10.9075694,-37.0386249,6950,22470.09376
D1,Barra dos Coqueiros/SE,-10.9075694,-37.0386249,93,300.67895
1,Barra/BA,-11.0892702,-43.1420453,2148,3984.41848
D1,Barra/BA,-11.0892702,-43.1420453,46,85.32740
1,Barracão/PR,-26.252395,-53.6349576,1333,12926.68735
D1,Barracão/PR,-26.252395,-53.6349576,35,339.41040
1,Barracão/RS,-27.6728964,-51.4582928,458,8713.85084
D1,Barracão/RS,-27.6728964,-51.4582928,16,304.41400
1,Barras/PI,-4.2446153,-42.2920241,4991,10577.51404
D1,Barras/PI,-4.2446153,-42.2920241,93,197.09653
1,Barreira/CE,-4.2883361,-38.641094,1537,6809.01963
D1,Barreira/CE,-4.2883361,-38.641094,46,203.78328
1,Barreiras do Piauí/PI,-9.9224524,-45.4763776,79,2356.80191
D1,Barreiras do Piauí/PI,-9.9224524,-45.4763776,2,59.66587
1,Barreiras/BA,-12.1440031,-44.9967406,18906,12043.95604
D1,Barreiras/BA,-12.1440031,-44.9967406,305,194.29846
1,Barreirinha/AM,-2.798863,-57.067897,2434,7493.15026
D1,Barreirinha/AM,-2.798863,-57.067897,63,193.94760
1,Barreirinhas/MA,-2.7541271,-42.8259693,2254,3565.49662
D1,Barreirinhas/MA,-2.7541271,-42.8259693,39,61.69227
1,Barreiros/PE,-8.8159644,-35.1831905,785,1835.65616
D1,Barreiros/PE,-8.8159644,-35.1831905,61,142.64334
1,Barretos/SP,-20.5531437,-48.5697509,15885,12932.19249
D1,Barretos/SP,-20.5531437,-48.5697509,499,406.24262
1,Barrinha/SP,-21.1898849,-48.1550642,1640,4942.73659
D1,Barrinha/SP,-21.1898849,-48.1550642,67,201.92887
1,Barro Alto/BA,-11.7618025,-41.9094904,914,6071.47602
D1,Barro Alto/BA,-11.7618025,-41.9094904,13,86.35579
1,Barro Alto/GO,-14.9696025,-48.9190985,1331,11667.25105
D1,Barro Alto/GO,-14.9696025,-48.9190985,18,157.78401
1,Barro Duro/PI,-5.8180139,-42.5106589,696,9904.65348
D1,Barro Duro/PI,-5.8180139,-42.5106589,11,156.53906
1,Barro Preto/BA,-14.8068289,-39.4727588,595,10921.43906
D1,Barro Preto/BA,-14.8068289,-39.4727588,10,183.55360
1,Barro/CE,-7.1713587,-38.7742136,1751,7693.99772
D1,Barro/CE,-7.1713587,-38.7742136,44,193.33861
1,Barrocas/BA,-11.5165,-39.099282894736845,786,4880.47190
D1,Barrocas/BA,-11.5165,-39.099282894736845,23,142.81279
1,Barrolândia/TO,-9.837246,-48.7264346,752,13307.37922
D1,Barrolândia/TO,-9.837246,-48.7264346,20,353.91966
1,Barroquinha/CE,-3.0200371,-41.1339229,1270,8441.90375
D1,Barroquinha/CE,-3.0200371,-41.1339229,25,166.17921
1,Barros Cassal/RS,-29.094938,-52.5832366,741,6626.72152
D1,Barros Cassal/RS,-29.094938,-52.5832366,12,107.31533
1,Barroso/MG,-21.187222,-43.976111,2003,9585.10791
D1,Barroso/MG,-21.187222,-43.976111,53,253.62492
1,Barueri/SP,-23.5112184,-46.8764612,30312,10943.67143
D1,Barueri/SP,-23.5112184,-46.8764612,1051,379.44704
1,Barão de Antonina/SP,-23.6295651,-49.5632104,455,13007.43282
D1,Barão de Antonina/SP,-23.6295651,-49.5632104,8,228.70212
1,Barão de Cocais/MG,-19.9452437,-43.4870298,3818,11616.86850
D1,Barão de Cocais/MG,-19.9452437,-43.4870298,65,197.77277
1,Barão de Cotegipe/RS,-27.6214694,-52.3765316,762,11510.57402
D1,Barão de Cotegipe/RS,-27.6214694,-52.3765316,9,135.95166
1,Barão de Grajaú/MA,-6.7542591,-43.0263477,477,2520.60875
D1,Barão de Grajaú/MA,-6.7542591,-43.0263477,2,10.56859
1,Barão de Melgaço/MT,-16.195776,-55.9668049,372,4556.58991
D1,Barão de Melgaço/MT,-16.195776,-55.9668049,15,183.73346
1,Barão de Monte Alto/MG,-21.244722,-42.2375,333,6219.64886
D1,Barão de Monte Alto/MG,-21.244722,-42.2375,12,224.13149
1,Barão do Triunfo/RS,-30.3909877,-51.7375349,465,6184.33302
D1,Barão do Triunfo/RS,-30.3909877,-51.7375349,6,79.79785
1,Barão/RS,-29.372474,-51.494908,664,10706.22380
D1,Barão/RS,-29.372474,-51.494908,9,145.11448
1,Bastos/SP,-21.9222474,-50.7317727,1587,7574.09440
D1,Bastos/SP,-21.9222474,-50.7317727,37,176.58569
1,Bataguassu/MS,-21.715899,-52.422058,3401,14580.92176
D1,Bataguassu/MS,-21.715899,-52.422058,44,188.63880
1,Batalha/AL,-9.6733809,-37.1265481,1117,6091.17679
D1,Batalha/AL,-9.6733809,-37.1265481,19,103.60999
1,Batalha/PI,-4.022391,-42.0780926,1159,4307.74949
D1,Batalha/PI,-4.022391,-42.0780926,32,118.93700
1,Batatais/SP,-20.892867,-47.592149,4014,6373.45189
D1,Batatais/SP,-20.892867,-47.592149,159,252.46110
1,Batayporã/MS,-22.2976466,-53.2685608,1064,9375.27535
D1,Batayporã/MS,-22.2976466,-53.2685608,23,202.66103
1,Baturité/CE,-4.3290203,-38.8821055,4163,11582.87193
D1,Baturité/CE,-4.3290203,-38.8821055,83,230.93403
1,Bauru/SP,-22.3218102,-49.0705863,48342,12745.15749
D1,Bauru/SP,-22.3218102,-49.0705863,1115,293.96489
1,Bayeux/PB,-7.1301631,-34.936532,7661,7881.44399
D1,Bayeux/PB,-7.1301631,-34.936532,240,246.90596
1,Baía Formosa/RN,-6.3691885,-35.0063741,495,5310.01931
D1,Baía Formosa/RN,-6.3691885,-35.0063741,8,85.81849
1,Baía da Traição/PB,-6.691258,-34.9371244,1289,14171.06420
D1,Baía da Traição/PB,-6.691258,-34.9371244,12,131.92612
1,Bebedouro/SP,-20.949077,-48.479083,3978,5129.26310
D1,Bebedouro/SP,-20.949077,-48.479083,158,203.72639
1,Beberibe/CE,-4.1810469,-38.1298101,5186,9612.78244
D1,Beberibe/CE,-4.1810469,-38.1298101,109,202.04267
1,Bela Cruz/CE,-3.0529129,-40.167582,3482,10641.15885
D1,Bela Cruz/CE,-3.0529129,-40.167582,70,213.92335
1,Bela Vista da Caroba/PR,-25.8792818,-53.6672545,193,5582.87533
D1,Bela Vista da Caroba/PR,-25.8792818,-53.6672545,6,173.56089
1,Bela Vista de Goiás/GO,-16.9692949,-48.9513071,2677,8779.35196
D1,Bela Vista de Goiás/GO,-16.9692949,-48.9513071,69,226.28886
1,Bela Vista de Minas/MG,-19.8289721,-43.0973688,833,8117.32606
D1,Bela Vista de Minas/MG,-19.8289721,-43.0973688,22,214.38316
1,Bela Vista do Maranhão/MA,-3.7416367,-45.2514192,221,1959.39356
D1,Bela Vista do Maranhão/MA,-3.7416367,-45.2514192,18,159.58862
1,Bela Vista do Paraíso/PR,-22.9948493,-51.1907996,1968,12780.05065
D1,Bela Vista do Paraíso/PR,-22.9948493,-51.1907996,65,422.10533
1,Bela Vista do Piauí/PI,-7.9716353,-41.8715061,263,6526.05459
D1,Bela Vista do Piauí/PI,-7.9716353,-41.8715061,6,148.88337
1,Bela Vista do Toldo/SC,-26.274625,-50.466354,80,1257.46621
D1,Bela Vista do Toldo/SC,-26.274625,-50.466354,3,47.15498
1,Bela Vista/MS,-22.107327,-56.5317344,1032,4172.22559
D1,Bela Vista/MS,-22.107327,-56.5317344,31,125.32848
1,Belford Roxo/RJ,-22.7667284,-43.4033603,20716,4037.27798
D1,Belford Roxo/RJ,-22.7667284,-43.4033603,737,143.63168
1,Belmiro Braga/MG,-21.9486291,-43.413564,198,5781.02190
D1,Belmiro Braga/MG,-21.9486291,-43.413564,3,87.59124
1,Belmonte/BA,-15.8630837,-38.8792845,1164,4966.50595
D1,Belmonte/BA,-15.8630837,-38.8792845,23,98.13543
1,Belmonte/SC,-26.8448262,-53.578916,321,11849.39092
D1,Belmonte/SC,-26.8448262,-53.578916,5,184.56995
1,Belo Campo/BA,-15.0338286,-41.2585109,940,5494.18435
D1,Belo Campo/BA,-15.0338286,-41.2585109,14,81.82828
1,Belo Horizonte/MG,-19.9227318,-43.9450948,246909,9791.89900
D1,Belo Horizonte/MG,-19.9227318,-43.9450948,5955,236.16295
1,Belo Jardim/PE,-8.3338293,-36.4176419,4033,5259.03999
D1,Belo Jardim/PE,-8.3338293,-36.4176419,121,157.78424
1,Belo Monte/AL,-9.8269944,-37.2787165,510,7600.59613
D1,Belo Monte/AL,-9.8269944,-37.2787165,9,134.12817
1,Belo Oriente/MG,-19.2232523,-42.4807033,2637,9768.83752
D1,Belo Oriente/MG,-19.2232523,-42.4807033,67,248.20330
1,Belo Vale/MG,-20.407778,-44.024167,956,12385.02397
D1,Belo Vale/MG,-20.407778,-44.024167,10,129.55046
1,Belterra/PA,-2.636091,-54.937392,1466,8217.94944
D1,Belterra/PA,-2.636091,-54.937392,27,151.35378
1,Belágua/MA,-3.1604031,-43.5085052,411,5459.61743
D1,Belágua/MA,-3.1604031,-43.5085052,4,53.13496
1,Belém de Maria/PE,-8.6242497,-35.8388934,274,2260.35308
D1,Belém de Maria/PE,-8.6242497,-35.8388934,6,49.49678
1,Belém do Brejo do Cruz/PB,-6.1880727,-37.5332267,530,7211.86556
D1,Belém do Brejo do Cruz/PB,-6.1880727,-37.5332267,5,68.03647
1,Belém do Piauí/PI,-7.3767305,-40.9712156,471,13130.74993
D1,Belém do Piauí/PI,-7.3767305,-40.9712156,7,195.14915
1,Belém do São Francisco/PE,-8.7517707,-38.9625715,966,4659.91317
D1,Belém do São Francisco/PE,-8.7517707,-38.9625715,11,53.06319
1,Belém/AL,-9.5715351,-36.492841,125,2917.83380
D1,Belém/AL,-9.5715351,-36.492841,7,163.39869
1,Belém/PA,-1.45056,-48.4682453,104216,6949.39656
D1,Belém/PA,-1.45056,-48.4682453,4990,332.74630
1,Belém/PB,-6.6967586,-35.5369626,2239,12646.14516
D1,Belém/PB,-6.6967586,-35.5369626,45,254.16549
1,Beneditinos/PI,-5.4565671,-42.3605061,1259,12021.38833
D1,Beneditinos/PI,-5.4565671,-42.3605061,38,362.83777
1,Benedito Leite/MA,-7.2173453,-44.5523331,314,5569.35083
D1,Benedito Leite/MA,-7.2173453,-44.5523331,2,35.47357
1,Benedito Novo/SC,-26.7840657,-49.3629511,1040,8832.27176
D1,Benedito Novo/SC,-26.7840657,-49.3629511,19,161.35881
1,Benevides/PA,-1.3555577,-48.252235,3982,6244.51135
D1,Benevides/PA,-1.3555577,-48.252235,102,159.95484
1,Benjamin Constant do Sul/RS,-27.5105555,-52.6007689,173,8835.54648
1,Benjamin Constant/AM,-4.3782748,-70.0290603,2703,6152.27040
D1,Benjamin Constant/AM,-4.3782748,-70.0290603,87,198.01980
1,Bento Fernandes/RN,-5.6926846,-35.8207423,163,2950.22624
D1,Bento Fernandes/RN,-5.6926846,-35.8207423,3,54.29864
1,Bento Gonçalves/RS,-29.1654014,-51.5197627,19069,15655.60783
D1,Bento Gonçalves/RS,-29.1654014,-51.5197627,343,281.60226
1,Bento de Abreu/SP,-21.2707225,-50.8120444,343,11414.30948
D1,Bento de Abreu/SP,-21.2707225,-50.8120444,2,66.55574
1,Bequimão/MA,-2.4495376,-44.7884889,280,1314.61571
D1,Bequimão/MA,-2.4495376,-44.7884889,22,103.29123
1,Berilo/MG,-16.9515764,-42.4643732,153,1288.74663
D1,Berilo/MG,-16.9515764,-42.4643732,1,8.42318
1,Berizal/MG,-15.6118785,-41.7417382,228,4785.89421
D1,Berizal/MG,-15.6118785,-41.7417382,1,20.99076
1,Bernardino Batista/PB,-6.4532173,-38.5495418,283,8003.39367
D1,Bernardino Batista/PB,-6.4532173,-38.5495418,1,28.28054
1,Bernardino de Campos/SP,-23.0140216,-49.4760724,807,7232.47894
D1,Bernardino de Campos/SP,-23.0140216,-49.4760724,25,224.05449
1,Bernardo Sayão/TO,-7.8794244,-48.8968905,624,14028.77698
D1,Bernardo Sayão/TO,-7.8794244,-48.8968905,12,269.78417
1,Bernardo do Mearim/MA,-4.6315929,-44.7617508,294,4841.09995
D1,Bernardo do Mearim/MA,-4.6315929,-44.7617508,6,98.79796
1,Bertioga/SP,-23.848568,-46.139586,5722,8840.75213
D1,Bertioga/SP,-23.848568,-46.139586,158,244.11724
1,Bertolínia/PI,-7.6372159,-43.9540611,875,15888.86871
D1,Bertolínia/PI,-7.6372159,-43.9540611,11,199.74578
1,Bertópolis/MG,-17.063333,-40.573889,468,10158.45453
D1,Bertópolis/MG,-17.063333,-40.573889,2,43.41220
1,Beruri/AM,-3.9007135,-61.3717319,2268,11287.51306
D1,Beruri/AM,-3.9007135,-61.3717319,34,169.21316
1,Betim/MG,-19.968056,-44.198333,30105,6768.45390
D1,Betim/MG,-19.968056,-44.198333,1237,278.11252
1,Betânia do Piauí/PI,-8.1460635,-40.7961387,173,2785.82931
D1,Betânia do Piauí/PI,-8.1460635,-40.7961387,2,32.20612
1,Betânia/PE,-8.2742779,-38.0351767,504,3948.29612
D1,Betânia/PE,-8.2742779,-38.0351767,17,133.17665
1,Bezerros/PE,-8.2372132,-35.7558262,3827,6286.13666
D1,Bezerros/PE,-8.2372132,-35.7558262,120,197.10907
1,Bias Fortes/MG,-21.605833,-43.756944,112,3364.37369
D1,Bias Fortes/MG,-21.605833,-43.756944,3,90.11715
1,Bicas/MG,-21.7213723,-43.0604327,1416,9729.28405
D1,Bicas/MG,-21.7213723,-43.0604327,43,295.45142
1,Biguaçu/SC,-27.4961277,-48.6542432,11106,15983.07573
D1,Biguaçu/SC,-27.4961277,-48.6542432,163,234.57963
1,Bilac/SP,-21.403962,-50.47464,867,10681.28619
D1,Bilac/SP,-21.403962,-50.47464,17,209.43698
1,Biquinhas/MG,-18.783611,-45.502222,120,4803.84307
D1,Biquinhas/MG,-18.783611,-45.502222,1,40.03203
1,Birigui/SP,-21.2908491,-50.34144,15846,12688.67660
D1,Birigui/SP,-21.2908491,-50.34144,534,427.60023
1,Biritiba Mirim/SP,-23.5697765,-46.0407456,1435,4356.93466
D1,Biritiba Mirim/SP,-23.5697765,-46.0407456,99,300.58295
1,Biritinga/BA,-11.6227908,-38.8066738,543,3397.14715
D1,Biritinga/BA,-11.6227908,-38.8066738,7,43.79379
1,Bituruna/PR,-26.161281,-51.5533319,1286,7841.46341
D1,Bituruna/PR,-26.161281,-51.5533319,16,97.56098
1,Blumenau/SC,-26.9195567,-49.0658025,53269,14721.08994
D1,Blumenau/SC,-26.9195567,-49.0658025,582,160.83790
1,Boa Esperança do Iguaçu/PR,-25.6362851,-53.2139114,175,7085.02024
1,Boa Esperança do Sul/SP,-21.9930206,-48.3917372,1528,10174.45732
D1,Boa Esperança do Sul/SP,-21.9930206,-48.3917372,18,119.85617
1,Boa Esperança/ES,-18.5395472,-40.2904088,1625,10767.29393
D1,Boa Esperança/ES,-18.5395472,-40.2904088,43,284.91916
1,Boa Esperança/MG,-21.0901253,-45.5660195,4625,11499.54002
D1,Boa Esperança/MG,-21.0901253,-45.5660195,129,320.74393
1,Boa Esperança/PR,-24.2411024,-52.7860277,415,10254.50951
D1,Boa Esperança/PR,-24.2411024,-52.7860277,17,420.06425
1,Boa Hora/PI,-4.4094627,-42.1255341,552,8099.77990
D1,Boa Hora/PI,-4.4094627,-42.1255341,6,88.04109
1,Boa Nova/BA,-14.365907,-40.2063056,959,7778.40863
D1,Boa Nova/BA,-14.365907,-40.2063056,18,145.99724
1,Boa Ventura de São Roque/PR,-24.88177,-51.5441292,499,7839.74863
D1,Boa Ventura de São Roque/PR,-24.88177,-51.5441292,6,94.26551
1,Boa Ventura/PB,-7.4202462,-38.2156782,640,12059.54400
D1,Boa Ventura/PB,-7.4202462,-38.2156782,10,188.43037
1,Boa Viagem/CE,-5.1261877,-39.7300055,4146,7596.60663
D1,Boa Viagem/CE,-5.1261877,-39.7300055,103,188.72419
1,Boa Vista da Aparecida/PR,-25.4357216,-53.4067721,984,13050.39788
D1,Boa Vista da Aparecida/PR,-25.4357216,-53.4067721,31,411.14058
1,Boa Vista das Missões/RS,-27.6677983,-53.3127622,240,11472.27533
D1,Boa Vista das Missões/RS,-27.6677983,-53.3127622,7,334.60803
1,Boa Vista do Buricá/RS,-27.6687782,-54.1111913,836,12455.30393
D1,Boa Vista do Buricá/RS,-27.6687782,-54.1111913,10,148.98689
1,Boa Vista do Cadeado/RS,-28.5783827,-53.8123759,202,8184.76499
D1,Boa Vista do Cadeado/RS,-28.5783827,-53.8123759,3,121.55592
1,Boa Vista do Gurupi/MA,-1.7981168,-46.3071882,15,178.95490
D1,Boa Vista do Gurupi/MA,-1.7981168,-46.3071882,4,47.72131
1,Boa Vista do Incra/RS,-28.8195551,-53.3866624,294,11238.53211
D1,Boa Vista do Incra/RS,-28.8195551,-53.3866624,4,152.90520
1,Boa Vista do Ramos/AM,-2.9716927,-57.5869819,969,4937.32803
D1,Boa Vista do Ramos/AM,-2.9716927,-57.5869819,12,61.14338
1,Boa Vista do Sul/RS,-29.3510488,-51.6779679,313,11267.09863
D1,Boa Vista do Sul/RS,-29.3510488,-51.6779679,4,143.98848
1,Boa Vista do Tupim/BA,-12.6605988,-40.6083594,280,1510.98160
D1,Boa Vista do Tupim/BA,-12.6605988,-40.6083594,8,43.17090
1,Boa Vista/PB,-7.2620711,-36.2415161,799,11196.74888
D1,Boa Vista/PB,-7.2620711,-36.2415161,14,196.18834
1,Boa Vista/RR,2.8208478,-60.6719582,89309,21281.68101
D1,Boa Vista/RR,2.8208478,-60.6719582,1388,330.75024
1,Boca da Mata/AL,-9.6452054,-36.2116658,1856,6784.61763
D1,Boca da Mata/AL,-9.6452054,-36.2116658,45,164.49773
1,Boca do Acre/AM,-8.7553487,-67.3930873,2665,7694.52866
D1,Boca do Acre/AM,-8.7553487,-67.3930873,26,75.06857
1,Bocaina de Minas/MG,-22.167778,-44.394722,187,3674.59226
D1,Bocaina de Minas/MG,-22.167778,-44.394722,7,137.55158
1,Bocaina do Sul/SC,-27.745494,-49.942279,385,11037.84404
D1,Bocaina do Sul/SC,-27.745494,-49.942279,3,86.00917
1,Bocaina/PI,-6.9445939,-41.3224599,290,6437.29190
D1,Bocaina/PI,-6.9445939,-41.3224599,6,133.18535
1,Bocaina/SP,-22.1421831,-48.522276,1278,10263.41150
D1,Bocaina/SP,-22.1421831,-48.522276,33,265.01767
1,Bocaiúva do Sul/PR,-25.206591,-49.114131,2015,15347.70356
D1,Bocaiúva do Sul/PR,-25.206591,-49.114131,17,129.48435
1,Bocaiúva/MG,-17.1160208,-43.8122678,2421,4817.33524
D1,Bocaiúva/MG,-17.1160208,-43.8122678,61,121.37854
1,Bodocó/PE,-7.777592,-39.933797,1969,5130.54354
D1,Bodocó/PE,-7.777592,-39.933797,33,85.98676
1,Bodoquena/MS,-20.5508775,-56.6769653,549,7004.33784
D1,Bodoquena/MS,-20.5508775,-56.6769653,16,204.13371
1,Bodó/RN,-5.9866104,-36.4134824,188,8557.12335
1,Bofete/SP,-23.1019554,-48.2610535,852,7147.05142
D1,Bofete/SP,-23.1019554,-48.2610535,15,125.82837
1,Boituva/SP,-23.2838893,-47.6738231,6238,10033.77835
D1,Boituva/SP,-23.2838893,-47.6738231,177,284.70323
1,Bom Conselho/PE,-9.169191,-36.685683,2213,4537.90473
D1,Bom Conselho/PE,-9.169191,-36.685683,66,135.33742
1,Bom Despacho/MG,-19.7375242,-45.2517288,4827,9459.51242
D1,Bom Despacho/MG,-19.7375242,-45.2517288,85,166.57521
1,Bom Jardim da Serra/SC,-28.3380324,-49.625588,636,13327.74518
D1,Bom Jardim da Serra/SC,-28.3380324,-49.625588,4,83.82230
1,Bom Jardim de Goiás/GO,-16.2062659,-52.172793,898,10125.15503
D1,Bom Jardim de Goiás/GO,-16.2062659,-52.172793,15,169.12842
1,Bom Jardim de Minas/MG,-21.9476466,-44.1906033,476,7369.56185
D1,Bom Jardim de Minas/MG,-21.9476466,-44.1906033,3,46.44682
1,Bom Jardim/MA,-3.54129,-45.606004,1423,3402.51542
D1,Bom Jardim/MA,-3.54129,-45.606004,50,119.55430
1,Bom Jardim/PE,-7.7961572,-35.5871696,1779,4449.39099
D1,Bom Jardim/PE,-7.7961572,-35.5871696,69,172.57334
1,Bom Jardim/RJ,-22.1515328,-42.4186683,1682,6090.67207
D1,Bom Jardim/RJ,-22.1515328,-42.4186683,44,159.32793
1,Bom Jesus da Lapa/BA,-13.250571,-43.410754,5890,8455.11183
D1,Bom Jesus da Lapa/BA,-13.250571,-43.410754,83,119.14674
1,Bom Jesus da Penha/MG,-21.0165299,-46.5226644,657,15480.67861
D1,Bom Jesus da Penha/MG,-21.0165299,-46.5226644,17,400.56550
1,Bom Jesus da Serra/BA,-14.3724084,-40.5047119,449,4570.90502
D1,Bom Jesus da Serra/BA,-14.3724084,-40.5047119,9,91.62170
1,Bom Jesus das Selvas/MA,-4.4878075,-46.8526639,3341,9665.28770
D1,Bom Jesus das Selvas/MA,-4.4878075,-46.8526639,24,69.43038
1,Bom Jesus de Goiás/GO,-18.2174587,-49.739721,2857,11139.27012
D1,Bom Jesus de Goiás/GO,-18.2174587,-49.739721,110,428.88334
1,Bom Jesus do Amparo/MG,-19.7045132,-43.4752911,250,4076.30850
D1,Bom Jesus do Amparo/MG,-19.7045132,-43.4752911,7,114.13664
1,Bom Jesus do Araguaia/MT,-12.1725897,-51.5074425,1049,15642.70802
D1,Bom Jesus do Araguaia/MT,-12.1725897,-51.5074425,16,238.59231
1,Bom Jesus do Galho/MG,-19.8283191,-42.3162256,734,4938.77002
D1,Bom Jesus do Galho/MG,-19.8283191,-42.3162256,33,222.04279
1,Bom Jesus do Itabapoana/RJ,-21.1341025,-41.680095,3535,9501.92189
D1,Bom Jesus do Itabapoana/RJ,-21.1341025,-41.680095,89,239.22802
1,Bom Jesus do Norte/ES,-21.1254776,-41.6711646,1111,11152.37904
D1,Bom Jesus do Norte/ES,-21.1254776,-41.6711646,28,281.06806
1,Bom Jesus do Oeste/SC,-26.6929713,-53.0967453,182,8508.64890
D1,Bom Jesus do Oeste/SC,-26.6929713,-53.0967453,6,280.50491
1,Bom Jesus do Sul/PR,-26.1922507,-53.6002033,494,14090.13120
D1,Bom Jesus do Sul/PR,-26.1922507,-53.6002033,6,171.13520
1,Bom Jesus do Tocantins/PA,-5.0471796,-48.5978362,763,4457.29641
D1,Bom Jesus do Tocantins/PA,-5.0471796,-48.5978362,25,146.04510
1,Bom Jesus do Tocantins/TO,-8.96306,-48.165043,135,2695.68690
D1,Bom Jesus do Tocantins/TO,-8.96306,-48.165043,3,59.90415
1,Bom Jesus dos Perdões/SP,-23.1353864,-46.4648052,2094,8058.49529
D1,Bom Jesus dos Perdões/SP,-23.1353864,-46.4648052,23,88.51260
1,Bom Jesus/PB,-6.8156725,-38.6551841,176,6834.95146
D1,Bom Jesus/PB,-6.8156725,-38.6551841,3,116.50485
1,Bom Jesus/PI,-9.0711644,-44.3583926,3630,14298.65679
D1,Bom Jesus/PI,-9.0711644,-44.3583926,42,165.43900
1,Bom Jesus/RN,-5.9887544,-35.5821149,926,9019.18769
D1,Bom Jesus/RN,-5.9887544,-35.5821149,16,155.83910
1,Bom Jesus/RS,-28.6692723,-50.4346894,966,8541.86931
D1,Bom Jesus/RS,-28.6692723,-50.4346894,21,185.69281
1,Bom Jesus/SC,-26.7350604,-52.3916519,454,14851.16127
D1,Bom Jesus/SC,-26.7350604,-52.3916519,9,294.40628
1,Bom Lugar/MA,-4.3728019,-45.0366054,500,3041.73257
D1,Bom Lugar/MA,-4.3728019,-45.0366054,7,42.58426
1,Bom Princípio do Piauí/PI,-3.1912777,-41.6430185,138,2442.04566
D1,Bom Princípio do Piauí/PI,-3.1912777,-41.6430185,13,230.04778
1,Bom Princípio/RS,-29.489788,-51.3566782,2026,14212.55700
D1,Bom Princípio/RS,-29.489788,-51.3566782,28,196.42231
1,Bom Progresso/RS,-27.5490948,-53.8655601,184,9689.31016
D1,Bom Progresso/RS,-27.5490948,-53.8655601,3,157.97788
1,Bom Repouso/MG,-22.4657069,-46.1485376,1057,10031.31821
D1,Bom Repouso/MG,-22.4657069,-46.1485376,23,218.27845
1,Bom Retiro do Sul/RS,-29.6000007,-51.9359243,1045,8434.22115
D1,Bom Retiro do Sul/RS,-29.6000007,-51.9359243,30,242.13075
1,Bom Retiro/SC,-27.798993,-49.486994,851,8459.24453
D1,Bom Retiro/SC,-27.798993,-49.486994,18,178.92644
1,Bom Sucesso de Itararé/SP,-24.3190016,-49.1446207,219,5496.98795
D1,Bom Sucesso de Itararé/SP,-24.3190016,-49.1446207,6,150.60241
1,Bom Sucesso do Sul/PR,-26.0749256,-52.8348629,529,16256.91457
D1,Bom Sucesso do Sul/PR,-26.0749256,-52.8348629,9,276.58267
1,Bom Sucesso/MG,-21.0323516,-44.7598082,1127,6400.86329
D1,Bom Sucesso/MG,-21.0323516,-44.7598082,20,113.59119
1,Bom Sucesso/PB,-6.4458948,-37.9297662,497,10028.24859
D1,Bom Sucesso/PB,-6.4458948,-37.9297662,4,80.71025
1,Bom Sucesso/PR,-23.7088019,-51.7651297,1229,17388.22864
D1,Bom Sucesso/PR,-23.7088019,-51.7651297,19,268.81720
1,Bombinhas/SC,-27.1519159,-48.4875691,3477,17098.59848
D1,Bombinhas/SC,-27.1519159,-48.4875691,60,295.05778
1,Bonfim do Piauí/PI,-9.1648678,-42.8734415,447,7862.79683
D1,Bonfim do Piauí/PI,-9.1648678,-42.8734415,7,123.13105
1,Bonfim/MG,-20.3266626, -44.2386157,446,6501.45773
D1,Bonfim/MG,-20.3266626, -44.2386157,14,204.08163
1,Bonfim/RR,3.3613818,-59.8427241,2329,18547.42375
D1,Bonfim/RR,3.3613818,-59.8427241,26,207.05583
1,Bonfinópolis de Minas/MG,-16.5660011,-45.98645,521,9570.16899
D1,Bonfinópolis de Minas/MG,-16.5660011,-45.98645,14,257.16385
1,Bonfinópolis/GO,-16.6172709,-48.9615701,465,4687.97258
D1,Bonfinópolis/GO,-16.6172709,-48.9615701,23,231.87821
1,Boninal/BA,-12.7095183,-41.8299984,635,4395.68047
D1,Boninal/BA,-12.7095183,-41.8299984,7,48.45632
1,Bonito de Minas/MG,-15.3191266,-44.7544,85,747.64711
1,Bonito de Santa Fé/PB,-7.3143332,-38.5146677,492,4092.49709
D1,Bonito de Santa Fé/PB,-7.3143332,-38.5146677,11,91.49892
1,Bonito/BA,-11.9665473,-41.2649896,875,5182.42123
D1,Bonito/BA,-11.9665473,-41.2649896,13,76.99597
1,Bonito/MS,-21.1264766,-56.4902208,3009,13560.16224
D1,Bonito/MS,-21.1264766,-56.4902208,66,297.43128
1,Bonito/PA,-1.3605722,-47.3049907,396,2395.64428
D1,Bonito/PA,-1.3605722,-47.3049907,14,84.69449
1,Bonito/PE,-8.4721161,-35.7314591,1017,2668.10085
D1,Bonito/PE,-8.4721161,-35.7314591,41,107.56355
1,Bonópolis/GO,-13.649331,-49.8329113,206,4584.90986
D1,Bonópolis/GO,-13.649331,-49.8329113,2,44.51369
1,Boqueirão do Leão/RS,-29.30332,-52.4296817,604,7842.11893
D1,Boqueirão do Leão/RS,-29.30332,-52.4296817,31,402.49286
1,Boqueirão do Piauí/PI,-4.4850148,-42.1095161,719,11188.92001
D1,Boqueirão do Piauí/PI,-4.4850148,-42.1095161,10,155.61780
1,Boqueirão/PB,-7.487004,-36.130887,1993,11152.77001
D1,Boqueirão/PB,-7.487004,-36.130887,37,207.05092
1,Boquim/SE,-11.1450175,-37.6204228,2632,9784.75036
D1,Boquim/SE,-11.1450175,-37.6204228,65,241.64467
1,Boquira/BA,-12.8184859,-42.7270883,689,3205.09839
D1,Boquira/BA,-12.8184859,-42.7270883,12,55.82174
1,Boracéia/SP,-22.195355,-48.7801925,942,19350.86278
D1,Boracéia/SP,-22.195355,-48.7801925,22,451.93098
1,Borba/AM,-4.3934778,-59.5947721,2312,5537.98984
D1,Borba/AM,-4.3934778,-59.5947721,69,165.27738
1,Borborema/PB,-6.8066718,-35.5990191,385,7282.01248
D1,Borborema/PB,-6.8066718,-35.5990191,13,245.88614
1,Borborema/SP,-21.6212706,-49.074135,1635,10115.07053
D1,Borborema/SP,-21.6212706,-49.074135,52,321.70255
1,Borda da Mata/MG,-22.274167,-46.165278,1765,8998.67442
D1,Borda da Mata/MG,-22.274167,-46.165278,46,234.52636
1,Borebi/SP,-22.5700178,-48.9714871,264,9839.73164
D1,Borebi/SP,-22.5700178,-48.9714871,3,111.81513
1,Borrazópolis/PR,-23.9393362,-51.5850786,830,12890.20034
D1,Borrazópolis/PR,-23.9393362,-51.5850786,27,419.31977
1,Borá/SP,-22.2701088,-50.544407,125,14916.46778
D1,Borá/SP,-22.2701088,-50.544407,1,119.33174
1,Bossoroca/RS,-28.7278885,-54.9120278,425,6849.31507
D1,Bossoroca/RS,-28.7278885,-54.9120278,22,354.55278
1,Botelhos/MG,-21.65,-46.394722,1751,11713.15807
D1,Botelhos/MG,-21.65,-46.394722,26,173.92468
1,Botucatu/SP,-22.8879628,-48.4410712,17233,11633.70013
D1,Botucatu/SP,-22.8879628,-48.4410712,282,190.37332
1,Botumirim/MG,-16.862778,-43.011111,236,3753.18066
D1,Botumirim/MG,-16.862778,-43.011111,4,63.61323
1,Botuporã/BA,-13.3744752,-42.5198469,239,2359.56165
D1,Botuporã/BA,-13.3744752,-42.5198469,3,29.61793
1,Botuverá/SC,-27.200749,-49.068892,919,17267.94438
D1,Botuverá/SC,-27.200749,-49.068892,9,169.10936
1,Bozano/RS,-28.3669953,-53.7705165,256,12126.95405
D1,Bozano/RS,-28.3669953,-53.7705165,7,331.59640
1,Braga/RS,-27.617348,-53.740514,360,10872.84808
D1,Braga/RS,-27.617348,-53.740514,9,271.82120
1,Braganey/PR,-24.8179919,-53.118506,536,9959.12300
D1,Braganey/PR,-24.8179919,-53.118506,7,130.06317
1,Bragança Paulista/SP,-22.9520235,-46.5418586,18270,10713.46895
D1,Bragança Paulista/SP,-22.9520235,-46.5418586,488,286.16162
1,Bragança/PA,-1.0573967,-46.7635406,4152,3220.75182
D1,Bragança/PA,-1.0573967,-46.7635406,144,111.70238
1,Branquinha/AL,-9.2478057,-36.0152009,586,5602.29446
D1,Branquinha/AL,-9.2478057,-36.0152009,12,114.72275
1,Brasil Novo/PA,-3.3055853,-52.539198,1927,12861.24274
D1,Brasil Novo/PA,-3.3055853,-52.539198,42,280.31769
1,Brasileira/PI,-4.131182,-41.7824969,619,7415.83803
D1,Brasileira/PI,-4.131182,-41.7824969,15,179.70528
1,Brasilândia de Minas/MG,-17.0096469,-46.0087183,1336,7977.07189
D1,Brasilândia de Minas/MG,-17.0096469,-46.0087183,22,131.35897
1,Brasilândia do Sul/PR,-24.1975793,-53.527551,404,15628.62669
D1,Brasilândia do Sul/PR,-24.1975793,-53.527551,9,348.16248
1,Brasilândia do Tocantins/TO,-8.3886619,-48.4842729,246,11126.18725
D1,Brasilândia do Tocantins/TO,-8.3886619,-48.4842729,6,271.37042
1,Brasilândia/MS,-21.255575,-52.0365617,1250,10545.85337
D1,Brasilândia/MS,-21.255575,-52.0365617,23,194.04370
1,Brasiléia/AC,-11.0010413,-68.7487894,2950,11047.86158
D1,Brasiléia/AC,-11.0010413,-68.7487894,42,157.29159
1,Brasnorte/MT,-12.1227151,-58.0050109,2017,10014.89573
D1,Brasnorte/MT,-12.1227151,-58.0050109,38,188.67925
1,Brasília de Minas/MG,-16.2075114,-44.430559,1250,3857.42941
D1,Brasília de Minas/MG,-16.2075114,-44.430559,8,24.68755
1,Brasília/DF,-15.7934036,-47.8823172,439528,14386.46691
D1,Brasília/DF,-15.7934036,-47.8823172,9420,308.33193
1,Brazabrantes/GO,-16.4291635,-49.3858216,496,13240.79018
D1,Brazabrantes/GO,-16.4291635,-49.3858216,3,80.08542
1,Brazópolis/MG,-22.4742842,-45.6165577,845,5863.98334
D1,Brazópolis/MG,-22.4742842,-45.6165577,31,215.12838
1,Braço do Norte/SC,-28.2728633,-49.1622712,8473,25011.80777
D1,Braço do Norte/SC,-28.2728633,-49.1622712,106,312.90589
1,Braço do Trombudo/SC,-27.358578,-49.882145,692,18360.30777
D1,Braço do Trombudo/SC,-27.358578,-49.882145,6,159.19342
1,Braúna/SP,-21.5015319,-50.3175246,598,10416.30378
D1,Braúna/SP,-21.5015319,-50.3175246,23,400.62707
1,Braúnas/MG,-19.055556,-42.716111,240,5032.50157
D1,Braúnas/MG,-19.055556,-42.716111,9,188.71881
1,Brejetuba/ES,-20.1465817,-41.2902303,1669,13430.43373
D1,Brejetuba/ES,-20.1465817,-41.2902303,14,112.65792
1,Brejinho de Nazaré/TO,-11.0205883,-48.5722906,633,11469.46911
D1,Brejinho de Nazaré/TO,-11.0205883,-48.5722906,15,271.78837
1,Brejinho/PE,-7.3482153,-37.28538,669,8934.29487
D1,Brejinho/PE,-7.3482153,-37.28538,21,280.44872
1,Brejinho/RN,-6.1957907,-35.3583019,1492,11668.10041
D1,Brejinho/RN,-6.1957907,-35.3583019,15,117.30664
1,Brejo Alegre/SP,-21.1671191,-50.1850393,369,12772.58567
D1,Brejo Alegre/SP,-21.1671191,-50.1850393,13,449.98269
1,Brejo Grande do Araguaia/PA,-5.7011449,-48.4037308,837,11359.93485
D1,Brejo Grande do Araguaia/PA,-5.7011449,-48.4037308,4,54.28882
1,Brejo Grande/SE,-10.4287358,-36.4667918,454,5435.17299
D1,Brejo Grande/SE,-10.4287358,-36.4667918,14,167.60445
1,Brejo Santo/CE,-7.4909841,-38.9859152,8315,16682.71739
D1,Brejo Santo/CE,-7.4909841,-38.9859152,154,308.97637
1,Brejo da Madre de Deus/PE,-8.1409718,-36.3712527,2224,4341.63006
D1,Brejo da Madre de Deus/PE,-8.1409718,-36.3712527,50,97.60859
1,Brejo de Areia/MA,-4.3316785,-45.5833334,315,3494.56401
D1,Brejo de Areia/MA,-4.3316785,-45.5833334,10,110.93854
1,Brejo do Cruz/PB,-6.32926065,-37.48746163303929,1855,13057.86287
D1,Brejo do Cruz/PB,-6.32926065,-37.48746163303929,23,161.90342
1,Brejo do Piauí/PI,-8.207583,-42.8359849,153,3976.09148
D1,Brejo do Piauí/PI,-8.207583,-42.8359849,4,103.95010
1,Brejo dos Santos/PB,-6.3769367,-37.8243125,741,11463.49010
D1,Brejo dos Santos/PB,-6.3769367,-37.8243125,8,123.76238
1,Brejo/MA,-3.6804397,-42.7529313,917,2501.97812
D1,Brejo/MA,-3.6804397,-42.7529313,20,54.56877
1,Brejolândia/BA,-12.4843845,-43.9611861,144,1356.18761
D1,Brejolândia/BA,-12.4843845,-43.9611861,11,103.59766
1,Brejão/PE,-9.029146,-36.566034,474,5274.28508
D1,Brejão/PE,-9.029146,-36.566034,9,100.14465
1,Brejões/BA,-13.1033754,-39.7909837,805,5660.24469
D1,Brejões/BA,-13.1033754,-39.7909837,11,77.34496
1,Breu Branco/PA,-3.7785073,-49.5684795,848,1259.43088
D1,Breu Branco/PA,-3.7785073,-49.5684795,45,66.83301
1,Breves/PA,-1.68036,-50.479085,4053,3916.05554
D1,Breves/PA,-1.68036,-50.479085,118,114.01297
1,Britânia/GO,-15.2427599,-51.1602061,637,10988.44230
D1,Britânia/GO,-15.2427599,-51.1602061,6,103.50181
1,Brochier/RS,-29.556766,-51.5963047,497,9737.46082
D1,Brochier/RS,-29.556766,-51.5963047,5,97.96238
1,Brodowski/SP,-20.984532,-47.657217,2659,10519.44455
D1,Brodowski/SP,-20.984532,-47.657217,71,280.88776
1,Brotas de Macaúbas/BA,-12.0019007,-42.6257506,142,1401.77690
D1,Brotas de Macaúbas/BA,-12.0019007,-42.6257506,7,69.10168
1,Brotas/SP,-22.2840884,-48.1267265,1554,6307.84218
D1,Brotas/SP,-22.2840884,-48.1267265,50,202.95503
1,Brumadinho/MG,-20.143611,-44.2,3716,9137.85472
D1,Brumadinho/MG,-20.143611,-44.2,79,194.26548
1,Brumado/BA,-14.29507325,-41.659307508575985,9275,13774.41152
D1,Brumado/BA,-14.29507325,-41.659307508575985,188,279.20101
1,Brunópolis/SC,-27.310953,-50.837585,270,11402.02703
D1,Brunópolis/SC,-27.310953,-50.837585,8,337.83784
1,Brusque/SC,-27.0964628,-48.9136323,27830,20212.21739
D1,Brusque/SC,-27.0964628,-48.9136323,288,209.16704
1,Brás Pires/MG,-20.8483109,-43.2430524,251,5846.72723
D1,Brás Pires/MG,-20.8483109,-43.2430524,7,163.05614
1,Bueno Brandão/MG,-22.441976,-46.3517971,878,7988.35411
D1,Bueno Brandão/MG,-22.441976,-46.3517971,28,254.75389
1,Buenos Aires/PE,-7.7218931,-35.326587,365,2767.24792
D1,Buenos Aires/PE,-7.7218931,-35.326587,24,181.95603
1,Buenópolis/MG,-17.8756607,-44.1749365,305,2946.00599
D1,Buenópolis/MG,-17.8756607,-44.1749365,11,106.24940
1,Buerarema/BA,-14.9571177,-39.3008035,1344,7341.85513
D1,Buerarema/BA,-14.9571177,-39.3008035,44,240.35835
1,Bugre/MG,-19.4257687,-42.2556,370,9289.48029
D1,Bugre/MG,-19.4257687,-42.2556,13,326.38715
1,Bujari/AC,-9.8309656,-67.9520886,1139,10930.90211
D1,Bujari/AC,-9.8309656,-67.9520886,17,163.14779
1,Bujaru/PA,-1.5169239,-48.0410699,1430,4859.48279
D1,Bujaru/PA,-1.5169239,-48.0410699,38,129.13311
1,Buri/SP,-23.79849,-48.598924,2505,12546.95718
D1,Buri/SP,-23.79849,-48.598924,80,400.70123
1,Buritama/SP,-21.0664017,-50.1448077,2376,13749.20433
D1,Buritama/SP,-21.0664017,-50.1448077,66,381.92234
1,Buriti Alegre/GO,-18.1377879,-49.0404411,996,10501.89793
D1,Buriti Alegre/GO,-18.1377879,-49.0404411,31,326.86630
1,Buriti Bravo/MA,-5.8391884,-43.8367876,1648,6884.16392
D1,Buriti Bravo/MA,-5.8391884,-43.8367876,17,71.01383
1,Buriti de Goiás/GO,-16.180644,-50.4287479,234,9450.72698
D1,Buriti de Goiás/GO,-16.180644,-50.4287479,8,323.10178
1,Buriti do Tocantins/TO,-5.3187439,-48.2256609,1044,9080.62973
D1,Buriti do Tocantins/TO,-5.3187439,-48.2256609,18,156.56258
1,Buriti dos Lopes/PI,-3.1776723,-41.8707444,1294,6533.04387
D1,Buriti dos Lopes/PI,-3.1776723,-41.8707444,34,171.65649
1,Buriti dos Montes/PI,-5.3136171,-41.0971256,676,8180.05808
D1,Buriti dos Montes/PI,-5.3136171,-41.0971256,8,96.80542
1,Buriti/MA,-3.9430944,-42.9244281,845,2934.23154
D1,Buriti/MA,-3.9430944,-42.9244281,8,27.77971
1,Buriticupu/MA,-4.3227472,-46.4516989,3532,4839.48317
D1,Buriticupu/MA,-4.3227472,-46.4516989,57,78.10038
1,Buritinópolis/GO,-14.4589282,-46.4293104,188,5726.46969
D1,Buritinópolis/GO,-14.4589282,-46.4293104,3,91.37984
1,Buritirama/BA,-10.7148421,-43.6362327,848,3985.71160
D1,Buritirama/BA,-10.7148421,-43.6362327,23,108.10303
1,Buritirana/MA,-5.5897455,-47.0148915,448,2896.48930
D1,Buritirana/MA,-5.5897455,-47.0148915,24,155.16907
1,Buritis/MG,-15.621389,-46.423889,1809,7232.23924
D1,Buritis/MG,-15.621389,-46.423889,36,143.92516
1,Buritis/RO,-10.2054937,-63.8281954,4747,11762.81098
D1,Buritis/RO,-10.2054937,-63.8281954,74,183.36802
1,Buritizal/SP,-20.1933264,-47.7097165,313,6933.98316
D1,Buritizal/SP,-20.1933264,-47.7097165,10,221.53301
1,Buritizeiro/MG,-17.3667765,-44.9647781,1400,4978.48583
D1,Buritizeiro/MG,-17.3667765,-44.9647781,32,113.79396
1,Butiá/RS,-30.1256795,-51.9692224,2219,10590.87438
D1,Butiá/RS,-30.1256795,-51.9692224,55,262.50477
1,Buíque/PE,-8.6239732,-37.157296,2464,4182.01259
D1,Buíque/PE,-8.6239732,-37.157296,44,74.67880
1,Bálsamo/SP,-20.7343722,-49.5807484,1703,18634.42390
D1,Bálsamo/SP,-20.7343722,-49.5807484,63,689.35332
0,CASO SEM LOCALIZAÇÃO DEFINIDA/BA,-13.415069300066518,-38.14174656569957,10944,73.58269
D0,CASO SEM LOCALIZAÇÃO DEFINIDA/BA,-13.415069300066518,-38.14174656569957,270,1.81536
0,CASO SEM LOCALIZAÇÃO DEFINIDA/CE,-3.3445126297392798,-38.624961942434304,10683,116.98323
0,CASO SEM LOCALIZAÇÃO DEFINIDA/ES,-20.30989267097039,-39.81745156645774,4231,105.28411
D0,CASO SEM LOCALIZAÇÃO DEFINIDA/ES,-20.30989267097039,-39.81745156645774,212,5.27540
0,CASO SEM LOCALIZAÇÃO DEFINIDA/MG,-19.97049116501593,-43.8852149072783,4266,20.15231
D0,CASO SEM LOCALIZAÇÃO DEFINIDA/MG,-19.97049116501593,-43.8852149072783,331,1.56362
0,CASO SEM LOCALIZAÇÃO DEFINIDA/MT,-15.54791153961863,-56.17143998972475,2900,83.22653
D0,CASO SEM LOCALIZAÇÃO DEFINIDA/MT,-15.54791153961863,-56.17143998972475,218,6.25634
0,CASO SEM LOCALIZAÇÃO DEFINIDA/PR,-25.69415946385943,-48.10141676336737,10508,91.90169
D0,CASO SEM LOCALIZAÇÃO DEFINIDA/PR,-25.69415946385943,-48.10141676336737,381,3.33218
0,CASO SEM LOCALIZAÇÃO DEFINIDA/RR,2.813328208465927,-60.663338675861986,2632,434.49479
D0,CASO SEM LOCALIZAÇÃO DEFINIDA/RR,2.813328208465927,-60.663338675861986,15,2.47622
0,CASO SEM LOCALIZAÇÃO DEFINIDA/SP,-24.30968974555485,-46.21366504207253,952,2.07321
1,Caapiranga/AM,-3.3188884,-61.2096404,677,5096.74019
D1,Caapiranga/AM,-3.3188884,-61.2096404,22,165.62524
1,Caaporã/PB,-7.510234,-34.9154114,2032,9255.29492
D1,Caaporã/PB,-7.510234,-34.9154114,32,145.75268
1,Caarapó/MS,-22.6349267,-54.8240903,4042,13212.17272
D1,Caarapó/MS,-22.6349267,-54.8240903,54,176.51097
1,Caatiba/BA,-14.9782759,-40.4092325,923,14226.26387
D1,Caatiba/BA,-14.9782759,-40.4092325,12,184.95684
1,Cabaceiras do Paraguaçu/BA,-12.5377868,-39.1901339,653,3453.01676
D1,Cabaceiras do Paraguaçu/BA,-12.5377868,-39.1901339,5,26.43964
1,Cabaceiras/PB,-7.4899156,-36.2860501,416,7348.52500
D1,Cabaceiras/PB,-7.4899156,-36.2860501,4,70.65889
1,Cabeceira Grande/MG,-16.0297,-47.0906,434,6210.64682
D1,Cabeceira Grande/MG,-16.0297,-47.0906,6,85.86148
1,Cabeceiras do Piauí/PI,-4.4733665,-42.3098716,647,6086.54751
D1,Cabeceiras do Piauí/PI,-4.4733665,-42.3098716,14,131.70273
1,Cabeceiras/GO,-15.7995459,-46.9264991,353,4387.27318
D1,Cabeceiras/GO,-15.7995459,-46.9264991,16,198.85657
1,Cabedelo/PB,-6.97324,-34.8351609,9241,13438.13166
D1,Cabedelo/PB,-6.97324,-34.8351609,197,286.47462
1,Cabixi/RO,-13.4956065,-60.5424442,836,16114.10948
D1,Cabixi/RO,-13.4956065,-60.5424442,20,385.50501
1,Cabo Frio/RJ,-22.8804369,-42.0189227,13486,5853.85757
D1,Cabo Frio/RJ,-22.8804369,-42.0189227,711,308.62322
1,Cabo Verde/MG,-21.4743338,-46.3964995,672,4774.42274
D1,Cabo Verde/MG,-21.4743338,-46.3964995,9,63.94316
1,Cabo de Santo Agostinho/PE,-8.2838945,-35.0320984,8802,4212.61199
D1,Cabo de Santo Agostinho/PE,-8.2838945,-35.0320984,490,234.51260
1,Cabreúva/SP,-23.3075813,-47.1324417,3824,7582.93839
D1,Cabreúva/SP,-23.3075813,-47.1324417,96,190.36665
1,Cabrobó/PE,-8.5083701,-39.3106961,2327,6744.34107
D1,Cabrobó/PE,-8.5083701,-39.3106961,27,78.25406
1,Cabrália Paulista/SP,-22.4562909,-49.3385645,411,9686.54254
D1,Cabrália Paulista/SP,-22.4562909,-49.3385645,7,164.97761
1,Cacaulândia/RO,-10.3380043,-62.9007231,839,13383.31472
D1,Cacaulândia/RO,-10.3380043,-62.9007231,11,175.46658
1,Cacequi/RS,-29.8838059,-54.8273443,727,5852.04862
D1,Cacequi/RS,-29.8838059,-54.8273443,10,80.49585
1,Cachoeira Alta/GO,-18.7618269,-50.9432431,1571,12403.28438
D1,Cachoeira Alta/GO,-18.7618269,-50.9432431,24,189.48366
1,Cachoeira Dourada/GO,-18.4934204,-49.481062,601,7483.50143
D1,Cachoeira Dourada/GO,-18.4934204,-49.481062,26,323.74549
1,Cachoeira Dourada/MG,-18.517136,-49.5002062,162,5986.69623
D1,Cachoeira Dourada/MG,-18.517136,-49.5002062,2,73.90983
1,Cachoeira Grande/MA,-2.9290492,-44.0573223,319,3365.68896
D1,Cachoeira Grande/MA,-2.9290492,-44.0573223,8,84.40599
1,Cachoeira Paulista/SP,-22.666498,-45.015384,2479,7382.15062
D1,Cachoeira Paulista/SP,-22.666498,-45.015384,40,119.11498
1,Cachoeira da Prata/MG,-19.524723,-44.453056,226,6293.51156
D1,Cachoeira da Prata/MG,-19.524723,-44.453056,11,306.32136
1,Cachoeira de Goiás/GO,-16.6688414,-50.6435997,83,6184.79881
D1,Cachoeira de Goiás/GO,-16.6688414,-50.6435997,2,149.03130
1,Cachoeira de Minas/MG,-22.3554043,-45.7796324,852,7358.14837
D1,Cachoeira de Minas/MG,-22.3554043,-45.7796324,15,129.54487
1,Cachoeira de Pajeú/MG,-15.965833,-41.496666,512,5422.57996
D1,Cachoeira de Pajeú/MG,-15.965833,-41.496666,10,105.90976
1,Cachoeira do Arari/PA,-1.0143572,-48.9621089,496,2061.17021
D1,Cachoeira do Arari/PA,-1.0143572,-48.9621089,23,95.57846
1,Cachoeira do Piriá/PA,-1.7599443,-46.5446954,918,2652.48924
D1,Cachoeira do Piriá/PA,-1.7599443,-46.5446954,6,17.33653
1,Cachoeira do Sul/RS,-30.0474778,-52.8905413,10500,12825.36736
D1,Cachoeira do Sul/RS,-30.0474778,-52.8905413,186,227.19222
1,Cachoeira dos Índios/PB,-6.9259193,-38.6742159,872,8461.91169
D1,Cachoeira dos Índios/PB,-6.9259193,-38.6742159,14,135.85638
1,Cachoeira/BA,-12.5998256,-38.9665918,1642,4891.70912
D1,Cachoeira/BA,-12.5998256,-38.9665918,27,80.43614
1,Cachoeiras de Macacu/RJ,-22.4626861,-42.6534414,3064,5166.68634
D1,Cachoeiras de Macacu/RJ,-22.4626861,-42.6534414,96,161.88051
1,Cachoeirinha/PE,-8.4906364,-36.2338963,620,3024.24272
D1,Cachoeirinha/PE,-8.4906364,-36.2338963,32,156.08995
1,Cachoeirinha/RS,-29.9493353,-51.0898927,14625,11143.70619
D1,Cachoeirinha/RS,-29.9493353,-51.0898927,432,329.16794
1,Cachoeirinha/TO,-6.118647,-47.9208885,119,5210.15762
D1,Cachoeirinha/TO,-6.118647,-47.9208885,2,87.56567
1,Cachoeiro de Itapemirim/ES,-20.848084,-41.11129,26835,12742.83082
D1,Cachoeiro de Itapemirim/ES,-20.848084,-41.11129,569,270.19455
1,Cacimba de Areia/PB,-7.1288513,-37.1575194,55,1488.49797
D1,Cacimba de Areia/PB,-7.1288513,-37.1575194,4,108.25440
1,Cacimba de Dentro/PB,-6.6425101,-35.7929304,1161,6758.64478
D1,Cacimba de Dentro/PB,-6.6425101,-35.7929304,34,197.92758
1,Cacimbas/PB,-7.2125451,-37.0593398,243,3375.46882
D1,Cacimbas/PB,-7.2125451,-37.0593398,8,111.12655
1,Cacimbinhas/AL,-9.401212,-36.991082,782,7181.55937
D1,Cacimbinhas/AL,-9.401212,-36.991082,10,91.83580
1,Cacique Doble/RS,-27.7700117,-51.6616409,530,10445.40796
D1,Cacique Doble/RS,-27.7700117,-51.6616409,11,216.79149
1,Cacoal/RO,-11.4333,-61.4420502,13911,16195.73190
D1,Cacoal/RO,-11.4333,-61.4420502,292,339.95785
1,Caconde/SP,-21.527995,-46.643659,1356,7133.46310
D1,Caconde/SP,-21.527995,-46.643659,36,189.38398
1,Caculé/BA,-14.4990734,-42.2233006,2052,8810.27006
D1,Caculé/BA,-14.4990734,-42.2233006,14,60.10905
1,Caetanos/BA,-14.3387456,-40.9085971,675,4620.75575
D1,Caetanos/BA,-14.3387456,-40.9085971,10,68.45564
1,Caetanópolis/MG,-19.2947496,-44.4138386,997,8485.82858
D1,Caetanópolis/MG,-19.2947496,-44.4138386,16,136.18180
1,Caetité/BA,-14.0691776,-42.4852428,2973,5820.16797
D1,Caetité/BA,-14.0691776,-42.4852428,37,72.43398
1,Caeté/MG,-19.897777,-43.670278,1990,4417.60828
D1,Caeté/MG,-19.897777,-43.670278,67,148.73354
1,Caetés/PE,-8.7728788,-36.6255835,1586,5487.12981
D1,Caetés/PE,-8.7728788,-36.6255835,22,76.11403
1,Cafarnaum/BA,-11.691399,-41.468823,907,4899.25998
D1,Cafarnaum/BA,-11.691399,-41.468823,22,118.83541
1,Cafeara/PR,-22.78905,-51.714195,395,13371.69939
D1,Cafeara/PR,-22.78905,-51.714195,11,372.37644
1,Cafelândia/PR,-24.6176963,-53.3218057,2442,13231.46944
D1,Cafelândia/PR,-24.6176963,-53.3218057,25,135.45730
1,Cafelândia/SP,-21.8054355,-49.6030627,764,4281.79118
D1,Cafelândia/SP,-21.8054355,-49.6030627,36,201.75979
1,Cafezal do Sul/PR,-23.900508,-53.512418,428,10675.97905
D1,Cafezal do Sul/PR,-23.900508,-53.512418,4,99.77551
1,Caiabu/SP,-22.0143038,-51.2356597,295,7035.53542
D1,Caiabu/SP,-22.0143038,-51.2356597,7,166.94491
1,Caiana/MG,-20.695555,-41.924723,147,2652.95073
D1,Caiana/MG,-20.695555,-41.924723,7,126.33099
1,Caiapônia/GO,-16.9538779,-51.8090761,1267,6631.07762
D1,Caiapônia/GO,-16.9538779,-51.8090761,36,188.41262
1,Caibaté/RS,-28.290475,-54.645407,354,7339.82998
D1,Caibaté/RS,-28.290475,-54.645407,7,145.13788
1,Caibi/SC,-27.0751925,-53.2502133,636,10375.20392
D1,Caibi/SC,-27.0751925,-53.2502133,13,212.07178
1,Caicó/RN,-6.4594544,-37.0971911,11704,17125.38226
D1,Caicó/RN,-6.4594544,-37.0971911,139,203.38586
1,Caieiras/SP,-23.3644621,-46.7484765,8473,8244.22282
D1,Caieiras/SP,-23.3644621,-46.7484765,298,289.95378
1,Cairu/BA,-13.4860505,-39.0455744,1462,7934.00988
D1,Cairu/BA,-13.4860505,-39.0455744,16,86.82911
1,Caiuá/SP,-21.8319357,-51.9887179,376,6323.57888
D1,Caiuá/SP,-21.8319357,-51.9887179,8,134.54423
1,Caiçara do Norte/RN,-5.0645017,-36.0561226,525,8001.82899
D1,Caiçara do Norte/RN,-5.0645017,-36.0561226,11,167.65737
1,Caiçara do Rio do Vento/RN,-5.757968,-36.00089,359,9663.52624
D1,Caiçara do Rio do Vento/RN,-5.757968,-36.00089,8,215.34320
1,Caiçara/PB,-6.6146866,-35.4681434,796,11069.39230
D1,Caiçara/PB,-6.6146866,-35.4681434,14,194.68780
1,Caiçara/RS,-27.2750478,-53.4310053,619,13170.21277
D1,Caiçara/RS,-27.2750478,-53.4310053,9,191.48936
1,Cajamar/SP,-23.3561111,-46.8769444,4756,6102.59964
D1,Cajamar/SP,-23.3561111,-46.8769444,227,291.27210
1,Cajapió/MA,-2.8778715,-44.6746871,163,1453.28103
D1,Cajapió/MA,-2.8778715,-44.6746871,6,53.49501
1,Cajari/MA,-3.3213076,-45.0118757,253,1300.70433
D1,Cajari/MA,-3.3213076,-45.0118757,8,41.12899
1,Cajati/SP,-24.7272376,-48.1077914,3440,12072.71706
D1,Cajati/SP,-24.7272376,-48.1077914,100,350.95108
1,Cajazeiras do Piauí/PI,-6.794271,-42.3935024,74,2071.08872
D1,Cajazeiras do Piauí/PI,-6.794271,-42.3935024,1,27.98769
1,Cajazeiras/PB,-6.8897849,-38.5570389,9412,15110.21208
D1,Cajazeiras/PB,-6.8897849,-38.5570389,144,231.18047
1,Cajazeirinhas/PB,-6.961442,-37.7993733,189,5897.03588
D1,Cajazeirinhas/PB,-6.961442,-37.7993733,1,31.20125
1,Cajobi/SP,-20.8776238,-48.8106972,1014,9569.64892
D1,Cajobi/SP,-20.8776238,-48.8106972,31,292.56323
1,Cajueiro da Praia/PI,-2.931114,-41.340801,477,6215.79359
D1,Cajueiro da Praia/PI,-2.931114,-41.340801,20,260.62028
1,Cajueiro/AL,-9.399589,-36.1524309,620,2906.56791
D1,Cajueiro/AL,-9.399589,-36.1524309,29,135.95237
1,Cajuri/MG,-20.7901414,-42.7954489,413,10392.55159
D1,Cajuri/MG,-20.7901414,-42.7954489,3,75.49069
1,Cajuru/SP,-21.2759978,-47.3046035,1839,6967.75660
D1,Cajuru/SP,-21.2759978,-47.3046035,39,147.76645
1,Caldas Brandão/PB,-7.1027959,-35.3254676,586,9692.35858
D1,Caldas Brandão/PB,-7.1027959,-35.3254676,10,165.39861
1,Caldas Novas/GO,-17.745,-48.625,9266,9942.48680
D1,Caldas Novas/GO,-17.745,-48.625,220,236.06163
1,Caldas/MG,-21.923611,-46.386111,953,6553.88213
D1,Caldas/MG,-21.923611,-46.386111,34,233.82161
1,Caldazinha/GO,-16.7116649,-49.0012601,320,8316.00832
D1,Caldazinha/GO,-16.7116649,-49.0012601,8,207.90021
1,Caldeirão Grande do Piauí/PI,-7.3310393,-40.6374433,405,7005.70835
D1,Caldeirão Grande do Piauí/PI,-7.3310393,-40.6374433,2,34.59609
1,Caldeirão Grande/BA,-11.0208483,-40.3041387,568,4241.65484
D1,Caldeirão Grande/BA,-11.0208483,-40.3041387,6,44.80621
1,Califórnia/PR,-23.6672543,-51.3554556,1262,14664.18778
D1,Califórnia/PR,-23.6672543,-51.3554556,34,395.07320
1,Calmon/SC,-26.6023644,-51.0992893,38,1139.43028
D1,Calmon/SC,-26.6023644,-51.0992893,6,179.91004
1,Calumbi/PE,-7.9389746,-38.1516871,733,12754.48060
D1,Calumbi/PE,-7.9389746,-38.1516871,5,87.00191
1,Calçado/PE,-8.7413446,-36.3351787,502,4556.18080
D1,Calçado/PE,-8.7413446,-36.3351787,6,54.45634
1,Calçoene/AP,2.4981757,-50.9539503,1670,14770.91810
D1,Calçoene/AP,2.4981757,-50.9539503,10,88.44861
1,Camacan/BA,-15.4166631,-39.4930088,2957,9238.89271
D1,Camacan/BA,-15.4166631,-39.4930088,81,253.07755
1,Camacho/MG,-20.625556,-45.156667,113,3938.65458
D1,Camacho/MG,-20.625556,-45.156667,2,69.71070
1,Camalaú/PB,-7.885031,-36.824191,443,7345.38219
D1,Camalaú/PB,-7.885031,-36.824191,7,116.06699
1,Camamu/BA,-13.9438142,-39.1060917,2416,6828.33079
D1,Camamu/BA,-13.9438142,-39.1060917,56,158.27257
1,Camanducaia/MG,-22.755278,-46.144444,3234,14834.18192
D1,Camanducaia/MG,-22.755278,-46.144444,65,298.15146
1,Camapuã/MS,-19.5291747,-54.0434641,874,6382.82334
D1,Camapuã/MS,-19.5291747,-54.0434641,30,219.09005
1,Camaquã/RS,-30.8524752,-51.8075619,6965,10477.15034
D1,Camaquã/RS,-30.8524752,-51.8075619,142,213.60450
1,Camaragibe/PE,-8.0213832,-34.9810768,7178,4517.33491
D1,Camaragibe/PE,-8.0213832,-34.9810768,409,257.39621
1,Camargo/RS,-28.5865661,-52.2031474,438,15973.74179
D1,Camargo/RS,-28.5865661,-52.2031474,6,218.81838
1,Camaçari/BA,-12.6998188,-38.3260762,24097,7918.77806
D1,Camaçari/BA,-12.6998188,-38.3260762,609,200.13013
1,Cambará do Sul/RS,-29.0489517,-50.145412,294,4589.44739
D1,Cambará do Sul/RS,-29.0489517,-50.145412,10,156.10365
1,Cambará/PR,-23.042273,-50.075281,2881,11313.12338
D1,Cambará/PR,-23.042273,-50.075281,52,204.19383
1,Cambira/PR,-23.600265,-51.581045,1039,13123.65795
D1,Cambira/PR,-23.600265,-51.581045,26,328.40722
1,Camboriú/SC,-27.0273601,-48.6535657,12649,14862.81652
D1,Camboriú/SC,-27.0273601,-48.6535657,158,185.65302
1,Cambuci/RJ,-21.5749919,-41.9107833,968,6239.52559
D1,Cambuci/RJ,-21.5749919,-41.9107833,33,212.71110
1,Cambuquira/MG,-21.853056,-45.2953619,793,6189.50983
D1,Cambuquira/MG,-21.853056,-45.2953619,23,179.51920
1,Cambuí/MG,-22.6122501,-46.0572137,3782,12685.31562
D1,Cambuí/MG,-22.6122501,-46.0572137,59,197.89361
1,Cambé/PR,-23.2782035,-51.2779583,11658,10860.71492
D1,Cambé/PR,-23.2782035,-51.2779583,249,231.97101
1,Cametá/PA,-2.242949,-49.497885,9001,6458.62633
D1,Cametá/PA,-2.242949,-49.497885,247,177.23372
1,Camocim de São Félix/PE,-8.3616757,-35.7638903,538,2846.56085
D1,Camocim de São Félix/PE,-8.3616757,-35.7638903,18,95.23810
1,Camocim/CE,-2.9009918,-40.8427389,6223,9737.58743
D1,Camocim/CE,-2.9009918,-40.8427389,162,253.49336
1,Campanha/MG,-21.8361108,-45.401986,1928,11502.20737
D1,Campanha/MG,-21.8361108,-45.401986,34,202.83976
1,Campanário/MG,-18.2398144,-41.7271768,240,6434.31635
D1,Campanário/MG,-18.2398144,-41.7271768,5,134.04826
1,Campestre da Serra/RS,-28.7966535,-51.0958149,261,7687.77614
D1,Campestre da Serra/RS,-28.7966535,-51.0958149,2,58.91016
1,Campestre de Goiás/GO,-16.7624179,-49.69497,516,14140.86051
D1,Campestre de Goiás/GO,-16.7624179,-49.69497,14,383.66676
1,Campestre do Maranhão/MA,-6.1729113,-47.3640512,1085,7507.09195
D1,Campestre do Maranhão/MA,-6.1729113,-47.3640512,44,304.43507
1,Campestre/AL,-8.8481634,-35.5660033,260,3738.85534
D1,Campestre/AL,-8.8481634,-35.5660033,6,86.28128
1,Campestre/MG,-19.6142116,-43.219378,1845,8763.18039
D1,Campestre/MG,-19.6142116,-43.219378,40,189.98765
1,Campina Grande do Sul/PR,-25.3046032,-49.0545355,5333,12207.85167
