type,name,lat,lon,total,total_per_100k_inhabitants
1,Abadia de Goiás/GO,-16.7572644,-49.4412205,517,5893.08104
D1,Abadia de Goiás/GO,-16.7572644,-49.4412205,7,79.79027
1,Abadia dos Dourados/MG,-18.4911191,-47.4063589,72,1030.19030
D1,Abadia dos Dourados/MG,-18.4911191,-47.4063589,1,14.30820
1,Abadiânia/GO,-16.1940946,-48.7067767,121,603.73216
D1,Abadiânia/GO,-16.1940946,-48.7067767,9,44.90570
1,Abaetetuba/PA,-1.721828,-48.878843,3186,2020.31732
D1,Abaetetuba/PA,-1.721828,-48.878843,115,72.92420
1,Abaeté/MG,-19.1566833,-45.4481213,47,202.26363
D1,Abaeté/MG,-19.1566833,-45.4481213,1,4.30348
1,Abaiara/CE,-7.3607808,-39.0487878,74,630.48479
D1,Abaiara/CE,-7.3607808,-39.0487878,2,17.04013
1,Abaré/BA,-8.7239913,-39.1139689,88,438.11610
1,Abatiá/PR,-23.3052967,-50.3102532,69,925.30508
1,Abaíra/BA,-13.2503296,-41.6640342,12,137.31548
1,Abdon Batista/SC,-27.612419,-51.022992,121,4721.03004
1,Abel Figueiredo/PA,-4.953001,-48.3958485,354,4761.90476
D1,Abel Figueiredo/PA,-4.953001,-48.3958485,1,13.45171
1,Abelardo Luz/SC,-26.5705893,-52.3280339,330,1843.16354
D1,Abelardo Luz/SC,-26.5705893,-52.3280339,5,27.92672
1,Abre Campo/MG,-20.2976097,-42.4764741,67,497.99316
1,Abreu e Lima/PE,-7.900719,-34.898389,842,842.08421
D1,Abreu e Lima/PE,-7.900719,-34.898389,98,98.00980
1,Abreulândia/TO,-9.6221526,-49.1558343,70,2714.23032
D1,Abreulândia/TO,-9.6221526,-49.1558343,3,116.32416
1,Acaiaca/MG,-20.3621646,-43.1444162,28,701.05158
D1,Acaiaca/MG,-20.3621646,-43.1444162,1,25.03756
1,Acajutiba/BA,-11.6609659,-38.0186381,129,850.97962
D1,Acajutiba/BA,-11.6609659,-38.0186381,3,19.79022
1,Acarape/CE,-4.2237866,-38.7071663,1707,11434.12151
D1,Acarape/CE,-4.2237866,-38.7071663,14,93.77721
1,Acaraú/CE,-2.8869514,-40.1194713,2659,4244.82368
D1,Acaraú/CE,-2.8869514,-40.1194713,57,90.99472
1,Acari/RN,-6.4364689,-36.6394777,98,880.02874
D1,Acari/RN,-6.4364689,-36.6394777,8,71.83908
1,Acará/PA,-1.961388,-48.1987043,778,1399.50711
D1,Acará/PA,-1.961388,-48.1987043,14,25.18393
1,Acauã/PI,-8.219542,-41.083059,38,536.42010
1,Aceguá/RS,-31.8695131,-54.1615593,1,20.40400
1,Acopiara/CE,-6.0936464,-39.4543204,824,1518.33425
D1,Acopiara/CE,-6.0936464,-39.4543204,33,60.80708
1,Acorizal/MT,-15.2001544,-56.3668953,177,3278.38489
D1,Acorizal/MT,-15.2001544,-56.3668953,6,111.13169
1,Acrelândia/AC,-10.0759167,-67.0526898,457,2995.54274
D1,Acrelândia/AC,-10.0759167,-67.0526898,9,58.99318
1,Acreúna/GO,-17.3959899,-50.3749031,493,2204.23858
D1,Acreúna/GO,-17.3959899,-50.3749031,12,53.65287
1,Adamantina/SP,-21.6866517,-51.0762975,347,989.50610
D1,Adamantina/SP,-21.6866517,-51.0762975,9,25.66442
1,Adelândia/GO,-16.4155077,-50.1665834,65,2583.46582
D1,Adelândia/GO,-16.4155077,-50.1665834,1,39.74563
1,Adolfo/SP,-21.2356597,-49.6441918,112,3144.30095
D1,Adolfo/SP,-21.2356597,-49.6441918,4,112.29646
1,Adrianópolis/PR,-24.6557863,-48.9912769,173,2922.79101
D1,Adrianópolis/PR,-24.6557863,-48.9912769,4,67.57898
1,Adustina/BA,-10.5358875,-38.114479,87,510.56338
D1,Adustina/BA,-10.5358875,-38.114479,1,5.86854
1,Afogados da Ingazeira/PE,-7.750429,-37.6356375,599,1607.66526
D1,Afogados da Ingazeira/PE,-7.750429,-37.6356375,11,29.52307
1,Afonso Bezerra/RN,-5.4745,-36.57625071327935,133,1205.25600
D1,Afonso Bezerra/RN,-5.4745,-36.57625071327935,8,72.49660
1,Afonso Cláudio/ES,-20.077841,-41.12606,881,2880.40280
D1,Afonso Cláudio/ES,-20.077841,-41.12606,18,58.85045
1,Afonso Cunha/MA,-4.1326105,-43.3230026,152,2329.85898
D1,Afonso Cunha/MA,-4.1326105,-43.3230026,2,30.65604
1,Afrânio/PE,-8.5198919,-41.0070197,194,988.03158
D1,Afrânio/PE,-8.5198919,-41.0070197,2,10.18589
1,Afuá/PA,-0.1535664,-50.3879223,2155,5494.92580
D1,Afuá/PA,-0.1535664,-50.3879223,11,28.04835
1,Agrestina/PE,-8.4558021,-35.9442663,569,2286.51798
D1,Agrestina/PE,-8.4558021,-35.9442663,32,128.59152
1,Agricolândia/PI,-5.7967843,-42.6605131,61,1187.00136
1,Agrolândia/SC,-27.4122212,-49.8295774,177,1629.23417
D1,Agrolândia/SC,-27.4122212,-49.8295774,5,46.02356
1,Agronômica/SC,-27.2660744,-49.7104753,84,1541.85022
D1,Agronômica/SC,-27.2660744,-49.7104753,3,55.06608
1,Aguanil/MG,-20.9424533,-45.3927152,35,780.20508
D1,Aguanil/MG,-20.9424533,-45.3927152,3,66.87472
1,Aguaí/SP,-22.0592036,-46.979384,281,773.99807
D1,Aguaí/SP,-22.0592036,-46.979384,6,16.52665
1,Agudo/RS,-29.6423259,-53.2494005,27,164.02406
1,Agudos do Sul/PR,-25.9890808,-49.3328175,77,821.68392
1,Agudos/SP,-22.471162,-48.987822,602,1617.67077
D1,Agudos/SP,-22.471162,-48.987822,12,32.24593
1,Aguiar/PB,-7.0928404,-38.1727215,23,407.80142
1,Aguiarnópolis/TO,-6.5600452,-47.4721189,409,6074.55815
D1,Aguiarnópolis/TO,-6.5600452,-47.4721189,8,118.81776
1,Aimorés/MG,-19.4917754,-41.0615603,306,1215.87794
D1,Aimorés/MG,-19.4917754,-41.0615603,6,23.84074
1,Aiquara/BA,-14.126918,-39.8887574,161,3621.23257
D1,Aiquara/BA,-14.126918,-39.8887574,3,67.47638
1,Aiuaba/CE,-6.5710836,-40.1212278,30,172.42370
D1,Aiuaba/CE,-6.5710836,-40.1212278,1,5.74746
1,Aiuruoca/MG,-21.9759554,-44.6036637,4,66.63335
D1,Aiuruoca/MG,-21.9759554,-44.6036637,1,16.65834
1,Ajuricaba/RS,-28.239654,-53.7693013,94,1338.26879
1,Alagoa Grande/PB,-7.0415212,-35.6285322,1283,4502.38630
D1,Alagoa Grande/PB,-7.0415212,-35.6285322,27,94.75014
1,Alagoa Nova/PB,-7.0653703,-35.76695977336711,345,1654.75562
D1,Alagoa Nova/PB,-7.0653703,-35.76695977336711,9,43.16754
1,Alagoa/MG,-22.1697202,-44.6400042,21,785.34031
1,Alagoinha do Piauí/PI,-7.0090952,-40.939675,97,1267.80813
D1,Alagoinha do Piauí/PI,-7.0090952,-40.939675,1,13.07019
1,Alagoinha/PB,-6.97063215,-35.51490901897793,1002,6915.59114
D1,Alagoinha/PB,-6.97063215,-35.51490901897793,12,82.82145
1,Alagoinha/PE,-8.50355635,-36.77701174370496,193,1318.66630
D1,Alagoinha/PE,-8.50355635,-36.77701174370496,6,40.99481
1,Alagoinhas/BA,-12.133526,-38.420772,5310,3502.73094
D1,Alagoinhas/BA,-12.133526,-38.420772,67,44.19642
1,Alambari/SP,-23.550338,-47.897971,70,1161.82573
D1,Alambari/SP,-23.550338,-47.897971,1,16.59751
1,Albertina/MG,-20.66164,-43.784039,22,731.62621
D1,Albertina/MG,-20.66164,-43.784039,1,33.25574
1,Alcantil/PB,-7.7425491,-36.0609604,67,1219.95630
1,Alcinópolis/MS,-18.3264121,-53.7094463,12,224.59293
D1,Alcinópolis/MS,-18.3264121,-53.7094463,2,37.43215
1,Alcobaça/BA,-17.5215875,-39.1965474,478,2127.28082
D1,Alcobaça/BA,-17.5215875,-39.1965474,6,26.70227
1,Alcântara/MA,-2.4038956,-44.4154241,198,896.04924
D1,Alcântara/MA,-2.4038956,-44.4154241,7,31.67851
1,Alcântaras/CE,-3.586247,-40.5457641,483,4123.27130
D1,Alcântaras/CE,-3.586247,-40.5457641,4,34.14717
1,Aldeias Altas/MA,-4.6291957,-43.4708622,916,3452.43480
D1,Aldeias Altas/MA,-4.6291957,-43.4708622,4,15.07613
1,Alecrim/RS,-27.6566142,-54.7653195,16,268.90756
1,Alegre/ES,-20.7625787,-41.5318886,349,1160.08510
D1,Alegre/ES,-20.7625787,-41.5318886,16,53.18442
1,Alegrete do Piauí/PI,-7.2440138,-40.8602296,161,3275.68667
1,Alegrete/RS,-29.790166,-55.794862,570,774.57229
D1,Alegrete/RS,-29.790166,-55.794862,15,20.38348
1,Alegria/RS,-27.8332103,-54.0574959,51,1472.28637
1,Alenquer/PA,-1.946229,-54.738355,1360,2394.82998
D1,Alenquer/PA,-1.946229,-54.738355,30,52.82713
1,Alexandria/RN,-6.414779,-38.0135516,147,1082.71341
D1,Alexandria/RN,-6.414779,-38.0135516,4,29.46159
1,Alexânia/GO,-16.0834049,-48.5077803,983,3554.76802
D1,Alexânia/GO,-16.0834049,-48.5077803,12,43.39493
1,Alfenas/MG,-21.4297405,-45.9479419,846,1057.55288
D1,Alfenas/MG,-21.4297405,-45.9479419,28,35.00175
1,Alfredo Chaves/ES,-20.624970400000002,-40.75006690147988,461,3157.31799
D1,Alfredo Chaves/ES,-20.624970400000002,-40.75006690147988,7,47.94192
1,Alfredo Marcondes/SP,-21.9527,-51.413956,49,1176.18819
D1,Alfredo Marcondes/SP,-21.9527,-51.413956,2,48.00768
1,Alfredo Vasconcelos/MG,-21.145833,-43.776389,17,246.12712
D1,Alfredo Vasconcelos/MG,-21.145833,-43.776389,1,14.47807
1,Alfredo Wagner/SC,-27.6961513,-49.3326734,189,1883.22041
D1,Alfredo Wagner/SC,-27.6961513,-49.3326734,1,9.96413
1,Algodão de Jandaíra/PB,-6.9040175,-36.0089879,27,1051.81145
1,Alhandra/PB,-7.4304246,-34.9106103,656,3348.98918
D1,Alhandra/PB,-7.4304246,-34.9106103,17,86.78783
1,Aliança do Tocantins/TO,-11.3055927,-48.9409096,138,2560.29685
D1,Aliança do Tocantins/TO,-11.3055927,-48.9409096,2,37.10575
1,Aliança/PE,-7.60398,-35.222696,364,948.26239
D1,Aliança/PE,-7.60398,-35.222696,28,72.94326
1,Almadina/BA,-14.70466,-39.6381994,339,6204.24597
D1,Almadina/BA,-14.70466,-39.6381994,6,109.80966
1,Almas/TO,-11.5681309,-47.1702803,79,1119.77321
D1,Almas/TO,-11.5681309,-47.1702803,2,28.34869
1,Almeirim/PA,-1.5290377,-52.5788111,256,750.53505
D1,Almeirim/PA,-1.5290377,-52.5788111,18,52.77200
1,Almenara/MG,-16.1740678,-40.6904907,732,1747.18350
D1,Almenara/MG,-16.1740678,-40.6904907,10,23.86863
1,Almino Afonso/RN,-6.1544208,-37.7649018,40,844.77297
1,Almirante Tamandaré do Sul/RS,-28.1141129,-52.9134874,10,509.16497
1,Almirante Tamandaré/PR,-25.3133048,-49.2997838,1581,1332.79381
D1,Almirante Tamandaré/PR,-25.3133048,-49.2997838,51,42.99335
1,Aloândia/GO,-17.7277983,-49.4809338,92,4611.52882
D1,Aloândia/GO,-17.7277983,-49.4809338,4,200.50125
1,Alpercata/MG,-18.9803616,-41.9827637,177,2384.15948
D1,Alpercata/MG,-18.9803616,-41.9827637,5,67.34914
1,Alpestre/RS,-27.2512339,-53.0349646,42,671.14094
1,Alpinópolis/MG,-20.863611,-46.387777,83,418.07284
D1,Alpinópolis/MG,-20.863611,-46.387777,4,20.14809
1,Alta Floresta D'Oeste/RO,-11.9296917,-61.9961284,732,3190.23752
D1,Alta Floresta D'Oeste/RO,-11.9296917,-61.9961284,10,43.58248
1,Alta Floresta/MT,-9.8715018,-56.0839881,1241,2396.58569
D1,Alta Floresta/MT,-9.8715018,-56.0839881,21,40.55463
1,Altair/SP,-20.5238955,-49.0606135,39,937.50000
D1,Altair/SP,-20.5238955,-49.0606135,2,48.07692
1,Altamira do Maranhão/MA,-4.1643006,-45.4674574,273,3358.75984
D1,Altamira do Maranhão/MA,-4.1643006,-45.4674574,5,61.51575
1,Altamira do Paraná/PR,-24.799114,-52.7128633,13,669.41298
D1,Altamira do Paraná/PR,-24.799114,-52.7128633,1,51.49331
1,Altamira/PA,-3.204065,-52.209961,4155,3625.84429
D1,Altamira/PA,-3.204065,-52.209961,117,102.09959
1,Altaneira/CE,-6.9980933,-39.7385742,22,290.00791
1,Alterosa/MG,-21.249166,-46.143055,13,89.86589
D1,Alterosa/MG,-21.249166,-46.143055,1,6.91276
1,Altinho/PE,-8.4904095,-36.0607494,483,2102.55964
D1,Altinho/PE,-8.4904095,-36.0607494,10,43.53126
1,Altinópolis/SP,-21.021364,-47.3712,212,1309.93574
D1,Altinópolis/SP,-21.021364,-47.3712,7,43.25260
1,Alto Alegre do Maranhão/MA,-4.2055693,-44.4525287,360,1330.72118
D1,Alto Alegre do Maranhão/MA,-4.2055693,-44.4525287,12,44.35737
1,Alto Alegre do Pindaré/MA,-3.6698186,-45.8462153,1452,4549.01469
D1,Alto Alegre do Pindaré/MA,-3.6698186,-45.8462153,19,59.52567
1,Alto Alegre dos Parecis/RO,-12.1314515,-61.856265,197,1487.80304
D1,Alto Alegre dos Parecis/RO,-12.1314515,-61.856265,9,67.97070
1,Alto Alegre/RR,2.98858,-61.307167,604,3894.26177
D1,Alto Alegre/RR,2.98858,-61.307167,14,90.26435
1,Alto Alegre/RS,-31.780844700000003,-52.81311114489171,13,793.65079
1,Alto Alegre/SP,-21.5820592,-50.1661976,64,1561.35643
D1,Alto Alegre/SP,-21.5820592,-50.1661976,2,48.79239
1,Alto Araguaia/MT,-17.3156528,-53.2169365,335,1759.08423
D1,Alto Araguaia/MT,-17.3156528,-53.2169365,5,26.25499
1,Alto Bela Vista/SC,-27.4320737,-51.905771,23,1187.40320
1,Alto Boa Vista/MT,-11.6723985,-51.3744431,83,1216.65201
D1,Alto Boa Vista/MT,-11.6723985,-51.3744431,3,43.97537
1,Alto Caparaó/MG,-20.4405661,-41.8683799,20,342.05576
1,Alto Feliz/RS,-29.3785943,-51.3123751,33,1089.82827
1,Alto Garças/MT,-16.9469683,-53.529427,242,2011.63757
D1,Alto Garças/MT,-16.9469683,-53.529427,10,83.12552
1,Alto Horizonte/GO,-14.1954948,-49.3366993,156,2432.17961
D1,Alto Horizonte/GO,-14.1954948,-49.3366993,1,15.59089
1,Alto Jequitibá/MG,-20.423611,-41.966111,67,805.57893
D1,Alto Jequitibá/MG,-20.423611,-41.966111,3,36.07070
1,Alto Longá/PI,-5.2549051,-42.2072388,159,1111.57718
D1,Alto Longá/PI,-5.2549051,-42.2072388,5,34.95526
1,Alto Paraguai/MT,-14.513712,-56.4936374,226,1990.13737
D1,Alto Paraguai/MT,-14.513712,-56.4936374,5,44.02959
1,Alto Paraná/PR,-23.131247,-52.318893,89,602.57278
D1,Alto Paraná/PR,-23.131247,-52.318893,1,6.77048
1,Alto Paraíso de Goiás/GO,-14.1304779,-47.5100161,159,2085.51941
1,Alto Paraíso/PR,-23.508137,-53.728537,5,182.41518
1,Alto Paraíso/RO,-9.7240103,-63.3188123,359,1675.37801
D1,Alto Paraíso/RO,-9.7240103,-63.3188123,8,37.33433
1,Alto Parnaíba/MA,-9.112506,-45.9310154,285,2546.91689
D1,Alto Parnaíba/MA,-9.112506,-45.9310154,2,17.87310
1,Alto Piquiri/PR,-24.0239021,-53.4417448,114,1159.00773
D1,Alto Piquiri/PR,-24.0239021,-53.4417448,4,40.66694
1,Alto Rio Doce/MG,-21.0239537,-43.4133507,69,627.27273
D1,Alto Rio Doce/MG,-21.0239537,-43.4133507,1,9.09091
1,Alto Rio Novo/ES,-19.0577208,-41.0171518,176,2246.04390
D1,Alto Rio Novo/ES,-19.0577208,-41.0171518,10,127.61613
1,Alto Santo/CE,-5.5190371,-38.2719351,429,2502.04129
D1,Alto Santo/CE,-5.5190371,-38.2719351,10,58.32264
1,Alto Taquari/MT,-17.8269099,-53.2831736,273,2516.82493
D1,Alto Taquari/MT,-17.8269099,-53.2831736,6,55.31483
1,Alto do Rodrigues/RN,-5.290868,-36.7616726,368,2532.86530
D1,Alto do Rodrigues/RN,-5.290868,-36.7616726,17,117.00736
1,Altos/PI,-5.0393915,-42.4611694,1430,3528.77307
D1,Altos/PI,-5.0393915,-42.4611694,23,56.75649
1,Altônia/PR,-23.8722004,-53.894037,182,825.17229
D1,Altônia/PR,-23.8722004,-53.894037,2,9.06783
1,Alumínio/SP,-23.5203479,-47.2575256,225,1207.85914
D1,Alumínio/SP,-23.5203479,-47.2575256,6,32.20958
1,Alvarenga/MG,-19.4175,-41.728334,131,3352.95623
D1,Alvarenga/MG,-19.4175,-41.728334,1,25.59509
1,Alvarães/AM,-3.214786,-64.8143124,1218,7593.04283
D1,Alvarães/AM,-3.214786,-64.8143124,14,87.27635
1,Alvinlândia/SP,-22.4431852,-49.7643596,25,775.91558
1,Alvinópolis/MG,-20.1105199,-43.0601805,65,427.54719
D1,Alvinópolis/MG,-20.1105199,-43.0601805,1,6.57765
1,Alvorada D'Oeste/RO,-11.346271,-62.284697,125,867.39296
D1,Alvorada D'Oeste/RO,-11.346271,-62.284697,7,48.57401
1,Alvorada de Minas/MG,-18.7318587,-43.3641479,56,1552.96728
D1,Alvorada de Minas/MG,-18.7318587,-43.3641479,1,27.73156
1,Alvorada do Gurguéia/PI,-8.4465288,-43.8655915,43,793.50434
D1,Alvorada do Gurguéia/PI,-8.4465288,-43.8655915,2,36.90718
1,Alvorada do Norte/GO,-14.483911,-46.4959897,184,2124.71132
D1,Alvorada do Norte/GO,-14.483911,-46.4959897,1,11.54734
1,Alvorada do Sul/PR,-22.7807269,-51.2307721,56,490.96967
D1,Alvorada do Sul/PR,-22.7807269,-51.2307721,4,35.06926
1,Alvorada/RS,-29.9981184,-51.0772509,3400,1616.69956
D1,Alvorada/RS,-29.9981184,-51.0772509,123,58.48648
1,Alvorada/TO,-12.478465,-49.124926,507,6027.10414
D1,Alvorada/TO,-12.478465,-49.124926,7,83.21446
1,Além Paraíba/MG,-21.8760576,-42.6810473,420,1187.71563
D1,Além Paraíba/MG,-21.8760576,-42.6810473,13,36.76263
1,Amajari/RR,3.6523869,-61.4194315,359,2805.56424
D1,Amajari/RR,3.6523869,-61.4194315,8,62.51954
1,Amambai/MS,-23.1082701,-55.2284854,194,492.43578
D1,Amambai/MS,-23.1082701,-55.2284854,4,10.15332
1,Amaporã/PR,-23.094272,-52.786597,26,415.53460
1,Amapá do Maranhão/MA,-1.6762114,-46.0109669,3,43.09107
1,Amapá/AP,2.0529997,-50.7930003,709,7783.51081
D1,Amapá/AP,2.0529997,-50.7930003,4,43.91261
1,Amaraji/PE,-8.373925,-35.4536527,164,718.38451
D1,Amaraji/PE,-8.373925,-35.4536527,24,105.12944
1,Amaral Ferrador/RS,-30.8750633,-52.2542051,33,469.35002
D1,Amaral Ferrador/RS,-30.8750633,-52.2542051,1,14.22273
1,Amaralina/GO,-13.9236199,-49.2962411,5,131.16474
1,Amarante do Maranhão/MA,-5.56913,-46.747284,1039,2507.54193
D1,Amarante do Maranhão/MA,-5.56913,-46.747284,20,48.26837
1,Amarante/PI,-6.2459374,-42.8476238,360,2045.68701
D1,Amarante/PI,-6.2459374,-42.8476238,8,45.45971
1,Amargosa/BA,-13.03793715,-39.60796443875596,368,988.15821
D1,Amargosa/BA,-13.03793715,-39.60796443875596,10,26.85213
1,Amaturá/AM,-3.3640509,-68.1994689,695,6024.61859
D1,Amaturá/AM,-3.3640509,-68.1994689,10,86.68516
1,Americana/SP,-22.7392463,-47.3306032,4902,2045.93547
D1,Americana/SP,-22.7392463,-47.3306032,149,62.18776
1,Americano do Brasil/GO,-16.2515808,-49.9806104,137,2241.85894
D1,Americano do Brasil/GO,-16.2515808,-49.9806104,3,49.09180
1,Ametista do Sul/RS,-27.3617341,-53.1826575,77,1039.27656
1,Amontada/CE,-3.3634586,-39.8284791,807,1857.22176
D1,Amontada/CE,-3.3634586,-39.8284791,20,46.02780
1,Amorinópolis/GO,-16.6211308,-51.0949921,46,1471.52911
1,Amparo de São Francisco/SE,-10.1299754,-36.9269099,72,3032.85594
1,Amparo do Serra/MG,-20.5070255,-42.8028462,11,233.39699
D1,Amparo do Serra/MG,-20.5070255,-42.8028462,1,21.21791
1,Amparo/PB,-7.56394725,-37.04652873235175,18,804.28954
1,Amparo/SP,-22.70111,-46.76444,970,1343.58335
D1,Amparo/SP,-22.70111,-46.76444,25,34.62844
1,Ampére/PR,-25.9168712,-53.4742414,98,511.69591
D1,Ampére/PR,-25.9168712,-53.4742414,3,15.66416
1,Amélia Rodrigues/BA,-12.4015388,-38.7516971,382,1521.79109
D1,Amélia Rodrigues/BA,-12.4015388,-38.7516971,5,19.91873
1,América Dourada/BA,-11.4515262,-41.4357517,97,602.70908
1,Américo Brasiliense/SP,-21.7297099,-48.1052092,547,1350.48390
D1,Américo Brasiliense/SP,-21.7297099,-48.1052092,10,24.68892
1,Américo de Campos/SP,-20.298476,-49.735904,293,4908.69492
D1,Américo de Campos/SP,-20.298476,-49.735904,8,134.02580
1,Anadia/AL,-9.6830208,-36.3052699,465,2650.32773
D1,Anadia/AL,-9.6830208,-36.3052699,7,39.89741
1,Anagé/BA,-14.6134669,-41.1376308,100,454.44217
D1,Anagé/BA,-14.6134669,-41.1376308,3,13.63327
1,Anahy/PR,-24.6450861,-53.1337957,28,999.64298
1,Anajatuba/MA,-3.26441,-44.6179916,337,1257.32194
D1,Anajatuba/MA,-3.26441,-44.6179916,8,29.84741
1,Anajás/PA,-0.9878802,-49.9390114,563,1923.01124
D1,Anajás/PA,-0.9878802,-49.9390114,12,40.98781
1,Analândia/SP,-22.128917,-47.661939,36,720.72072
D1,Analândia/SP,-22.128917,-47.661939,2,40.04004
1,Anamã/AM,-3.5797356,-61.4049996,753,5531.07096
D1,Anamã/AM,-3.5797356,-61.4049996,1,7.34538
1,Ananindeua/PA,-1.374035,-48.4016623,7346,1384.47563
D1,Ananindeua/PA,-1.374035,-48.4016623,364,68.60184
1,Ananás/TO,-6.3663053,-48.080238,274,2869.41041
D1,Ananás/TO,-6.3663053,-48.080238,11,115.19531
1,Anapu/PA,-3.4668292,-51.2057035,935,3352.45608
D1,Anapu/PA,-3.4668292,-51.2057035,21,75.29580
1,Anapurus/MA,-3.6751298,-43.1046001,710,4513.09433
D1,Anapurus/MA,-3.6751298,-43.1046001,6,38.13883
1,Anastácio/MS,-20.4832458,-55.8048448,585,2327.43187
D1,Anastácio/MS,-20.4832458,-55.8048448,18,71.61329
1,Anaurilândia/MS,-22.185169,-52.719056,30,332.04206
1,Anchieta/ES,-20.8057672,-40.6454564,874,2986.70676
D1,Anchieta/ES,-20.8057672,-40.6454564,21,71.76298
1,Anchieta/SC,-26.5350527,-53.3293938,31,549.84037
D1,Anchieta/SC,-26.5350527,-53.3293938,1,17.73679
1,Andaraí/BA,-12.8059674,-41.3322919,37,281.51868
1,Andirá/PR,-23.0494761,-50.2310027,238,1188.15835
D1,Andirá/PR,-23.0494761,-50.2310027,4,19.96905
1,Andorinha/BA,-10.3445708,-39.8334411,64,438.50634
D1,Andorinha/BA,-10.3445708,-39.8334411,2,13.70332
1,Andradas/MG,-22.0680484,-46.5688976,296,720.59790
D1,Andradas/MG,-22.0680484,-46.5688976,11,26.77898
1,Andradina/SP,-20.896505,-51.3742765,951,1663.83820
D1,Andradina/SP,-20.896505,-51.3742765,21,36.74091
1,Andrelândia/MG,-21.739722,-44.308889,68,556.28272
1,André da Rocha/RS,-28.6309124,-51.5733328,21,1575.39385
1,Angatuba/SP,-23.4938938,-48.4110675,284,1125.73331
D1,Angatuba/SP,-23.4938938,-48.4110675,7,27.74695
1,Angelim/PE,-8.8902038,-36.2872987,69,618.83408
D1,Angelim/PE,-8.8902038,-36.2872987,2,17.93722
1,Angelina/SC,-27.5805287,-48.9838759,93,1937.09644
1,Angelândia/MG,-17.7253,-42.2728,14,164.31925
1,Angical do Piauí/PI,-6.0872666,-42.7366138,103,1517.38362
D1,Angical do Piauí/PI,-6.0872666,-42.7366138,3,44.19564
1,Angical/BA,-12.005623,-44.7000236,137,980.18173
D1,Angical/BA,-12.005623,-44.7000236,2,14.30922
1,Angico/TO,-6.3893733,-47.8656722,65,1893.38771
1,Angicos/RN,-5.6666344,-36.6009064,98,836.60577
D1,Angicos/RN,-5.6666344,-36.6009064,4,34.14717
1,Angra dos Reis/RJ,-23.0063966,-44.316326,5383,2641.50943
D1,Angra dos Reis/RJ,-23.0063966,-44.316326,177,86.85625
1,Anguera/BA,-12.1509425,-39.2452469,60,534.71170
1,Angélica/MS,-22.1588196,-53.7728504,90,834.87941
D1,Angélica/MS,-22.1588196,-53.7728504,3,27.82931
1,Anhanguera/GO,-18.3338749,-48.220363,14,1218.45083
D1,Anhanguera/GO,-18.3338749,-48.220363,2,174.06440
1,Anhembi/SP,-22.7891096,-48.1316776,20,297.44200
1,Anhumas/SP,-22.2956478,-51.3873401,57,1385.17618
1,Anicuns/GO,-16.4606451,-49.9572265,651,2979.40503
D1,Anicuns/GO,-16.4606451,-49.9572265,9,41.18993
1,Anita Garibaldi/SC,-27.6855032,-51.1293873,242,3392.68190
D1,Anita Garibaldi/SC,-27.6855032,-51.1293873,1,14.01935
1,Anitápolis/SC,-27.9041185,-49.1287395,55,1701.73267
1,Anori/AM,-3.7435254,-61.6605203,769,3660.16183
D1,Anori/AM,-3.7435254,-61.6605203,11,52.35602
1,Anta Gorda/RS,-28.9718745,-52.0069187,76,1270.69052
1,Antas/BA,-10.4114649,-38.3308815,242,1254.47100
1,Antonina do Norte/CE,-6.7754187,-39.9879345,45,611.99510
1,Antonina/PR,-25.4298854,-48.7125431,348,1833.50896
D1,Antonina/PR,-25.4298854,-48.7125431,7,36.88093
1,Antônio Almeida/PI,-7.2186016,-44.1950248,215,6795.19595
D1,Antônio Almeida/PI,-7.2186016,-44.1950248,1,31.60556
1,Antônio Cardoso/BA,-12.4363122,-39.1200307,53,453.65060
1,Antônio Carlos/MG,-21.318334,-43.746666,61,532.98384
D1,Antônio Carlos/MG,-21.318334,-43.746666,1,8.73744
1,Antônio Carlos/SC,-27.5168462,-48.7684715,283,3324.32750
D1,Antônio Carlos/SC,-27.5168462,-48.7684715,11,129.21414
1,Antônio Dias/MG,-19.6525,-42.872778,90,965.87250
D1,Antônio Dias/MG,-19.6525,-42.872778,2,21.46383
1,Antônio Gonçalves/BA,-10.5715409,-40.2748824,163,1381.59010
D1,Antônio Gonçalves/BA,-10.5715409,-40.2748824,1,8.47601
1,Antônio João/MS,-22.1892837,-55.9508227,60,669.94194
1,Antônio Martins/RN,-6.2155812,-37.8890129,8,111.96641
D1,Antônio Martins/RN,-6.2155812,-37.8890129,2,27.99160
1,Antônio Olinto/PR,-25.9849006,-50.1974516,73,981.97471
D1,Antônio Olinto/PR,-25.9849006,-50.1974516,1,13.45171
1,Antônio Prado de Minas/MG,-21.0171988,-42.1101106,9,563.20401
1,Antônio Prado/RS,-28.8567806,-51.2801355,447,3425.28736
D1,Antônio Prado/RS,-28.8567806,-51.2801355,9,68.96552
1,Anápolis/GO,-16.3332828,-48.9525756,9044,2337.41597
D1,Anápolis/GO,-16.3332828,-48.9525756,240,62.02785
1,Anísio de Abreu/PI,-9.185643,-43.04941,96,971.65992
1,Aparecida d'Oeste/SP,-20.4498109,-50.8808706,95,2264.06101
D1,Aparecida d'Oeste/SP,-20.4498109,-50.8808706,1,23.83222
1,Aparecida de Goiânia/GO,-16.8226769,-49.2452546,27754,4800.24352
D1,Aparecida de Goiânia/GO,-16.8226769,-49.2452546,428,74.02552
1,Aparecida do Rio Doce/GO,-18.2980167,-51.1491312,81,3274.05012
D1,Aparecida do Rio Doce/GO,-18.2980167,-51.1491312,2,80.84074
1,Aparecida do Rio Negro/TO,-9.9513491,-47.9773786,44,917.62252
1,Aparecida do Taboado/MS,-20.0840304,-51.1013943,808,3138.47349
D1,Aparecida do Taboado/MS,-20.0840304,-51.1013943,17,66.03224
1,Aparecida/PB,-6.7859598, -38.0831353,121,1449.62262
D1,Aparecida/PB,-6.7859598, -38.0831353,3,35.94106
1,Aparecida/SP,-22.851552,-45.2340924,360,995.65783
D1,Aparecida/SP,-22.851552,-45.2340924,10,27.65716
1,Aperibé/RJ,-21.6211928,-42.1028167,191,1624.28778
D1,Aperibé/RJ,-21.6211928,-42.1028167,7,59.52887
1,Apiacá/ES,-21.152272,-41.569297,164,2167.30541
D1,Apiacá/ES,-21.152272,-41.569297,4,52.86111
1,Apiacás/MT,-9.5678422,-57.394852,45,444.09356
D1,Apiacás/MT,-9.5678422,-57.394852,1,9.86875
1,Apiaí/SP,-24.5076527,-48.8461582,144,590.79347
D1,Apiaí/SP,-24.5076527,-48.8461582,5,20.51366
1,Apicum-Açu/MA,-1.5279295,-45.082278,197,1142.75770
D1,Apicum-Açu/MA,-1.5279295,-45.082278,3,17.40240
1,Apiúna/SC,-27.0374658,-49.3885037,85,791.21288
D1,Apiúna/SC,-27.0374658,-49.3885037,3,27.92516
1,Apodi/RN,-5.6631109,-37.796927,2040,5691.17032
D1,Apodi/RN,-5.6631109,-37.796927,31,86.48347
1,Aporá/BA,-11.6599747,-38.0794757,187,1054.65005
D1,Aporá/BA,-11.6599747,-38.0794757,4,22.55936
1,Aporé/GO,-18.9642193,-51.92804,29,690.80515
D1,Aporé/GO,-18.9642193,-51.92804,2,47.64173
1,Apuarema/BA,-13.8517897,-39.7457126,309,4215.55252
D1,Apuarema/BA,-13.8517897,-39.7457126,5,68.21282
1,Apucarana/PR,-23.5525327,-51.4610764,776,574.83185
D1,Apucarana/PR,-23.5525327,-51.4610764,33,24.44517
1,Apuiarés/CE,-3.9460303,-39.4313298,234,1602.73973
D1,Apuiarés/CE,-3.9460303,-39.4313298,11,75.34247
1,Apuí/AM,-7.1940195,-59.8830192,213,969.37150
D1,Apuí/AM,-7.1940195,-59.8830192,1,4.55104
1,Aquidabã/SE,-10.2837579,-37.0188687,559,2592.40365
D1,Aquidabã/SE,-10.2837579,-37.0188687,14,64.92603
1,Aquidauana/MS,-20.473969,-55.7821375,1842,3847.84107
D1,Aquidauana/MS,-20.473969,-55.7821375,51,106.53632
1,Aquiraz/CE,-3.9063117,-38.387504,997,1242.04258
D1,Aquiraz/CE,-3.9063117,-38.387504,33,41.11074
1,Arabutã/SC,-27.1587028,-52.1438142,74,1734.23951
D1,Arabutã/SC,-27.1587028,-52.1438142,1,23.43567
1,Aracaju/SE,-10.9162061,-37.0774655,34458,5244.64508
D1,Aracaju/SE,-10.9162061,-37.0774655,716,108.97806
1,Aracati/CE,-4.558259,-37.767894,1777,2383.73107
D1,Aracati/CE,-4.558259,-37.767894,52,69.75465
1,Aracatu/BA,-14.4274236,-41.4604105,39,296.91663
D1,Aracatu/BA,-14.4274236,-41.4604105,1,7.61325
1,Araci/BA,-11.3356065,-38.9573261,1081,1987.89974
D1,Araci/BA,-11.3356065,-38.9573261,12,22.06734
1,Aracoiaba/CE,-4.3702577,-38.8084313,767,2897.72942
D1,Aracoiaba/CE,-4.3702577,-38.8084313,14,52.89206
1,Aracruz/ES,-19.8245218,-40.2735025,3771,3725.54831
D1,Aracruz/ES,-19.8245218,-40.2735025,72,71.13219
1,Aragarças/GO,-15.8957166,-52.2514538,666,3310.46824
D1,Aragarças/GO,-15.8957166,-52.2514538,15,74.56010
1,Aragoiânia/GO,-16.9146388,-49.4499148,310,3007.37291
D1,Aragoiânia/GO,-16.9146388,-49.4499148,4,38.80481
1,Aragominas/TO,-7.1654101,-48.525488,191,3317.12400
D1,Aragominas/TO,-7.1654101,-48.525488,2,34.73428
1,Araguacema/TO,-8.8067391,-49.5560969,51,719.72904
1,Araguaiana/MT,-15.729144,-51.834112,39,1258.06452
1,Araguainha/MT,-16.857016,-53.031778,2,213.90374
1,Araguanã/MA,-2.9508403,-45.6651986,535,3468.17062
D1,Araguanã/MA,-2.9508403,-45.6651986,2,12.96512
1,Araguanã/TO,-6.5799107,-48.6428482,168,2932.44894
D1,Araguanã/TO,-6.5799107,-48.6428482,8,139.64043
1,Araguapaz/GO,-15.0937927,-50.626417,139,1788.93179
D1,Araguapaz/GO,-15.0937927,-50.626417,5,64.35006
1,Araguari/MG,-18.6511256,-48.1933764,2886,2461.05042
D1,Araguari/MG,-18.6511256,-48.1933764,73,62.25110
1,Araguatins/TO,-5.6522925,-48.1158973,860,2404.85445
D1,Araguatins/TO,-5.6522925,-48.1158973,24,67.11222
1,Araguaçu/TO,-12.928934,-49.823134,434,5095.69097
D1,Araguaçu/TO,-12.928934,-49.823134,7,82.18856
1,Araguaína/TO,-7.193241,-48.2018597,14764,8180.86108
D1,Araguaína/TO,-7.193241,-48.2018597,192,106.38887
1,Araioses/MA,-2.890914,-41.904993,582,1253.22997
D1,Araioses/MA,-2.890914,-41.904993,10,21.53316
1,Aral Moreira/MS,-22.951141,-55.6268421,69,567.94798
D1,Aral Moreira/MS,-22.951141,-55.6268421,2,16.46226
1,Aramari/BA,-12.0907897,-38.4985065,119,1044.13442
D1,Aramari/BA,-12.0907897,-38.4985065,1,8.77424
1,Arambaré/RS,-30.9132252,-51.4994625,16,446.80257
D1,Arambaré/RS,-30.9132252,-51.4994625,1,27.92516
1,Arame/MA,-4.8858769,-46.0102484,923,2822.54365
D1,Arame/MA,-4.8858769,-46.0102484,10,30.58010
1,Aramina/SP,-20.0876144,-47.789201,100,1779.35943
D1,Aramina/SP,-20.0876144,-47.789201,5,88.96797
1,Arandu/SP,-23.1345103,-49.0545651,35,550.57417
D1,Arandu/SP,-23.1345103,-49.0545651,2,31.46138
1,Arantina/MG,-21.911667,-44.255833,17,608.22898
D1,Arantina/MG,-21.911667,-44.255833,1,35.77818
1,Arapeí/SP,-22.6738889,-44.4477778,5,202.51114
D1,Arapeí/SP,-22.6738889,-44.4477778,1,40.50223
1,Arapiraca/AL,-9.754866,-36.661471,11307,4879.02756
D1,Arapiraca/AL,-9.754866,-36.661471,140,60.41071
1,Arapoema/TO,-7.6575001,-49.0641484,98,1475.23709
D1,Arapoema/TO,-7.6575001,-49.0641484,3,45.16032
1,Araponga/MG,-20.666667,-42.520556,1,11.84975
1,Arapongas/PR,-23.415296,-51.42592,2603,2115.79572
D1,Arapongas/PR,-23.415296,-51.42592,89,72.34184
1,Araporã/MG,-18.4318188,-49.188313,497,7235.40544
D1,Araporã/MG,-18.4318188,-49.188313,6,87.34896
1,Arapoti/PR,-24.1457957,-49.8224605,218,775.38680
D1,Arapoti/PR,-24.1457957,-49.8224605,1,3.55682
1,Araputanga/MT,-15.4710868,-58.346796,528,3138.74688
D1,Araputanga/MT,-15.4710868,-58.346796,7,41.61217
1,Arapuá/MG,-19.034444,-46.155556,30,1058.57445
1,Arapuã/PR,-24.3079525,-51.7901941,41,1336.37549
D1,Arapuã/PR,-24.3079525,-51.7901941,1,32.59452
1,Araquari/SC,-26.3703324,-48.7210994,820,2150.59404
D1,Araquari/SC,-26.3703324,-48.7210994,13,34.09478
1,Arara/PB,-6.8271895,-35.7605703,226,1677.80252
D1,Arara/PB,-6.8271895,-35.7605703,6,44.54343
1,Araranguá/SC,-28.9348832,-49.4858389,2043,2994.37181
D1,Araranguá/SC,-28.9348832,-49.4858389,41,60.09263
1,Araraquara/SP,-21.7886713,-48.1773096,4189,1774.45864
D1,Araraquara/SP,-21.7886713,-48.1773096,42,17.79118
1,Araras/SP,-22.3569477,-47.3838889,3285,2447.18257
D1,Araras/SP,-22.3569477,-47.3838889,64,47.67723
1,Ararendá/CE,-4.7504395,-40.8303611,97,887.05990
D1,Ararendá/CE,-4.7504395,-40.8303611,2,18.28989
1,Arari/MA,-3.4547602,-44.7772723,204,683.46288
D1,Arari/MA,-3.4547602,-44.7772723,9,30.15277
1,Araricá/RS,-29.6168543,-50.929121,80,1404.00140
D1,Araricá/RS,-29.6168543,-50.929121,5,87.75009
1,Araripe/CE,-7.212861,-40.1359222,200,925.92593
D1,Araripe/CE,-7.212861,-40.1359222,2,9.25926
1,Araripina/PE,-7.5768582,-40.5038509,1895,2244.78192
D1,Araripina/PE,-7.5768582,-40.5038509,36,42.64493
1,Araruama/RJ,-22.8733203,-42.3428897,1284,969.78852
D1,Araruama/RJ,-22.8733203,-42.3428897,63,47.58308
1,Araruna/PB,-6.5321155,-35.7397595,252,1240.64592
D1,Araruna/PB,-6.5321155,-35.7397595,8,39.38558
1,Araruna/PR,-23.9320308,-52.4976047,181,1295.63350
D1,Araruna/PR,-23.9320308,-52.4976047,7,50.10737
1,Arataca/BA,-15.2617424,-39.4122943,197,1787.82104
D1,Arataca/BA,-15.2617424,-39.4122943,3,27.22570
1,Aratiba/RS,-27.3955734,-52.3024325,40,641.53970
D1,Aratiba/RS,-27.3955734,-52.3024325,2,32.07698
1,Aratuba/CE,-4.4195958,-39.0463737,240,2025.82932
D1,Aratuba/CE,-4.4195958,-39.0463737,2,16.88191
1,Aratuípe/BA,-13.077137,-39.0010786,113,1280.45326
D1,Aratuípe/BA,-13.077137,-39.0010786,5,56.65722
1,Araucária/PR,-25.5861107,-49.4051209,3711,2579.89614
D1,Araucária/PR,-25.5861107,-49.4051209,58,40.32174
1,Arauá/SE,-11.2644014,-37.6181058,312,3102.62530
D1,Arauá/SE,-11.2644014,-37.6181058,8,79.55449
1,Araxá/MG,-19.5928536,-46.940241,1267,1192.70632
D1,Araxá/MG,-19.5928536,-46.940241,23,21.65134
1,Araçagi/PB,-6.8519969,-35.3835602,504,2966.97475
D1,Araçagi/PB,-6.8519969,-35.3835602,6,35.32113
1,Araçariguama/SP,-23.438611,-47.061389,345,1542.65784
D1,Araçariguama/SP,-23.438611,-47.061389,8,35.77178
1,Araças/BA,-12.2139176,-38.2026159,150,1231.83050
D1,Araças/BA,-12.2139176,-38.2026159,1,8.21220
1,Araçatuba/SP,-21.207992,-50.4390225,6018,3054.57425
D1,Araçatuba/SP,-21.207992,-50.4390225,137,69.53750
1,Araçaí/MG,-19.200833,-44.2475,4,170.43034
1,Araçoiaba da Serra/SP,-23.5045367,-47.6168158,593,1736.66022
D1,Araçoiaba da Serra/SP,-23.5045367,-47.6168158,10,29.28601
1,Araçoiaba/PE,-7.7856903,-35.0898881,155,755.21341
D1,Araçoiaba/PE,-7.7856903,-35.0898881,17,82.82986
1,Araçu/GO,-16.3561579,-49.6815269,68,1930.72118
D1,Araçu/GO,-16.3561579,-49.6815269,2,56.78592
1,Araçuaí/MG,-16.8484451,-42.0661868,73,198.86673
1,Araújos/MG,-19.948055,-45.165556,50,539.19983
D1,Araújos/MG,-19.948055,-45.165556,1,10.78400
1,Arceburgo/MG,-21.364444,-46.939722,44,408.46639
D1,Arceburgo/MG,-21.364444,-46.939722,1,9.28333
1,Arco-Íris/SP,-21.7741308,-50.4668814,10,558.34729
1,Arcos/MG,-20.282223,-45.539444,336,838.07243
D1,Arcos/MG,-20.282223,-45.539444,5,12.47132
1,Arcoverde/PE,-8.415192,-37.057748,1454,1955.93102
D1,Arcoverde/PE,-8.415192,-37.057748,50,67.26035
1,Areado/MG,-21.3582771,-46.1476688,6,39.81420
1,Areal/RJ,-22.2314922,-43.1056264,208,1654.47025
D1,Areal/RJ,-22.2314922,-43.1056264,8,63.63347
1,Arealva/SP,-22.0301906,-48.9111936,106,1238.31776
D1,Arealva/SP,-22.0301906,-48.9111936,1,11.68224
1,Areia Branca/RN,-4.9506652,-37.1263312,812,2923.59761
D1,Areia Branca/RN,-4.9506652,-37.1263312,50,180.02448
1,Areia Branca/SE,-10.7591455,-37.3148072,714,3850.71729
D1,Areia Branca/SE,-10.7591455,-37.3148072,17,91.68375
1,Areia de Baraúnas/PB,-7.1233949,-36.9446216,11,516.91729
1,Areia/PB,-6.9680243,-35.6994783,491,2151.71568
D1,Areia/PB,-6.9680243,-35.6994783,5,21.91156
1,Areial/PB,-7.0501306,-35.9245244,62,885.96742
D1,Areial/PB,-7.0501306,-35.9245244,2,28.57959
1,Areias/SP,-22.5800929,-44.6975127,55,1415.33711
1,Areiópolis/SP,-22.6758064,-48.6673653,99,889.56780
D1,Areiópolis/SP,-22.6758064,-48.6673653,3,26.95660
1,Arenápolis/MT,-14.4610369,-56.8432806,355,3695.22223
D1,Arenápolis/MT,-14.4610369,-56.8432806,4,41.63631
1,Arenópolis/GO,-16.3859286,-51.55937,30,1148.54518
1,Argirita/MG,-21.612761,-42.8371922,21,770.07701
D1,Argirita/MG,-21.612761,-42.8371922,1,36.67033
1,Aricanduva/MG,-17.8678,-42.5569,1,19.11680
1,Arinos/MG,-15.917223,-46.106111,79,441.95804
D1,Arinos/MG,-15.917223,-46.106111,1,5.59441
1,Aripuanã/MT,-10.175806,-59.4439663,565,2527.51185
D1,Aripuanã/MT,-10.175806,-59.4439663,14,62.62861
1,Ariquemes/RO,-9.9076522,-63.033069,5217,4836.69099
D1,Ariquemes/RO,-9.9076522,-63.033069,87,80.65787
1,Ariranha do Ivaí/PR,-24.3834527,-51.5876772,20,948.76660
D1,Ariranha do Ivaí/PR,-24.3834527,-51.5876772,1,47.43833
1,Ariranha/SP,-21.18716,-48.790418,135,1396.35912
D1,Ariranha/SP,-21.18716,-48.790418,6,62.06041
1,Armazém/SC,-28.2624996,-49.0190126,255,2939.82015
D1,Armazém/SC,-28.2624996,-49.0190126,5,57.64353
1,Armação dos Búzios/RJ,-22.7597805,-41.8875267,453,1337.46678
D1,Armação dos Búzios/RJ,-22.7597805,-41.8875267,13,38.38205
1,Arneiroz/CE,-6.3235099,-40.1603859,45,573.97959
D1,Arneiroz/CE,-6.3235099,-40.1603859,4,51.02041
1,Aroazes/PI,-6.1108814,-41.7886137,61,1045.41560
D1,Aroazes/PI,-6.1108814,-41.7886137,3,51.41388
1,Aroeiras do Itaim/PI,-7.2797031,-41.5629681,75,2940.02352
D1,Aroeiras do Itaim/PI,-7.2797031,-41.5629681,1,39.20031
1,Aroeiras/PB,-7.5462904,-35.7080002,218,1138.20289
D1,Aroeiras/PB,-7.5462904,-35.7080002,1,5.22111
1,Arraial do Cabo/RJ,-22.9662839,-42.024427,184,606.28027
D1,Arraial do Cabo/RJ,-22.9662839,-42.024427,6,19.77001
1,Arraial/PI,-6.6541632,-42.5335332,23,486.56653
1,Arraias/TO,-12.9287788,-46.9437231,112,1059.90347
1,Arroio Grande/RS,-32.2384246,-53.0866661,99,541.19062
D1,Arroio Grande/RS,-32.2384246,-53.0866661,1,5.46657
1,Arroio Trinta/SC,-26.9301976,-51.334928,63,1774.64789
1,Arroio do Meio/RS,-29.4020392,-51.9444993,408,1961.06705
D1,Arroio do Meio/RS,-29.4020392,-51.9444993,1,4.80654
1,Arroio do Padre/RS,-31.4428773,-52.4228985,6,204.29009
1,Arroio do Sal/RS,-29.549852,-49.8874395,83,824.63984
D1,Arroio do Sal/RS,-29.549852,-49.8874395,3,29.80626
1,Arroio do Tigre/RS,-29.334158,-53.0888935,27,201.89935
1,Arroio dos Ratos/RS,-30.0894524,-51.7265541,132,932.79627
D1,Arroio dos Ratos/RS,-30.0894524,-51.7265541,10,70.66638
1,Artur Nogueira/SP,-22.572737,-47.172679,873,1604.54345
D1,Artur Nogueira/SP,-22.572737,-47.172679,18,33.08337
1,Aruanã/GO,-14.9162439,-51.0715692,117,1184.81013
1,Arujá/SP,-23.396266,-46.3175449,1790,1992.78589
D1,Arujá/SP,-23.396266,-46.3175449,75,83.49662
1,Arvoredo/SC,-27.0752908,-52.4571847,49,2187.50000
D1,Arvoredo/SC,-27.0752908,-52.4571847,1,44.64286
1,Arvorezinha/RS,-28.87369,-52.17808,85,815.42594
D1,Arvorezinha/RS,-28.87369,-52.17808,5,47.96623
1,Arês/RN,-6.1969216,-35.1642968,216,1509.85600
D1,Arês/RN,-6.1969216,-35.1642968,9,62.91067
1,Ascurra/SC,-26.9569975,-49.3767752,141,1777.16158
D1,Ascurra/SC,-26.9569975,-49.3767752,2,25.20797
1,Aspásia/SP,-20.160028,-50.728046,40,2195.38968
1,Assaré/CE,-6.8746791,-39.8741385,324,1383.61020
D1,Assaré/CE,-6.8746791,-39.8741385,8,34.16321
1,Assaí/PR,-23.3736041,-50.8454929,263,1739.53304
D1,Assaí/PR,-23.3736041,-50.8454929,11,72.75613
1,Assis Brasil/AC,-10.9409203,-69.5672108,584,7873.80342
D1,Assis Brasil/AC,-10.9409203,-69.5672108,9,121.34286
1,Assis Chateaubriand/PR,-24.4054826,-53.5120468,464,1390.80391
D1,Assis Chateaubriand/PR,-24.4054826,-53.5120468,6,17.98453
1,Assis/SP,-22.6620892,-50.420623,1187,1137.12567
D1,Assis/SP,-22.6620892,-50.420623,23,22.03361
1,Assunção do Piauí/PI,-5.8610212,-41.0485091,129,1644.14989
D1,Assunção do Piauí/PI,-5.8610212,-41.0485091,2,25.49070
1,Assunção/PB,-7.073396,-36.7274003,46,1152.88221
1,Astolfo Dutra/MG,-21.3132636,-42.8624102,136,959.16496
D1,Astolfo Dutra/MG,-21.3132636,-42.8624102,3,21.15805
1,Astorga/PR,-23.2350184,-51.6647074,394,1508.94259
D1,Astorga/PR,-23.2350184,-51.6647074,6,22.97882
1,Atalaia do Norte/AM,-4.3658547,-70.1908742,981,4924.45158
D1,Atalaia do Norte/AM,-4.3658547,-70.1908742,4,20.07931
1,Atalaia/AL,-9.5029595,-36.0219316,583,1235.56215
D1,Atalaia/AL,-9.5029595,-36.0219316,19,40.26703
1,Atalaia/PR,-23.1513833,-52.0529697,85,2183.96711
D1,Atalaia/PR,-23.1513833,-52.0529697,1,25.69373
1,Atalanta/SC,-27.421916,-49.778863,38,1183.80062
1,Ataléia/MG,-18.04432,-41.1110524,107,831.52005
D1,Ataléia/MG,-18.04432,-41.1110524,4,31.08486
1,Atibaia/SP,-23.1177393,-46.5547861,1729,1211.11508
D1,Atibaia/SP,-23.1177393,-46.5547861,53,37.12499
1,Atilio Vivacqua/ES,-20.9139369,-41.1947519,346,2898.79357
D1,Atilio Vivacqua/ES,-20.9139369,-41.1947519,6,50.26810
1,Augustinópolis/TO,-5.4662267,-47.8897519,637,3459.70020
D1,Augustinópolis/TO,-5.4662267,-47.8897519,8,43.44992
1,Augusto Corrêa/PA,-1.0229335,-46.6404029,1281,2784.90369
D1,Augusto Corrêa/PA,-1.0229335,-46.6404029,20,43.48015
1,Augusto Pestana/RS,-28.5148413,-53.9906433,9,135.11485
1,Augusto de Lima/MG,-18.1092963,-44.2651945,35,718.83344
1,Aurelino Leal/BA,-14.3167137,-39.3256107,398,3451.56535
D1,Aurelino Leal/BA,-14.3167137,-39.3256107,7,60.70592
1,Auriflama/SP,-20.6840418,-50.5554616,321,2113.37152
D1,Auriflama/SP,-20.6840418,-50.5554616,9,59.25341
1,Aurilândia/GO,-16.6772599,-50.4641231,57,1826.92308
1,Aurora do Pará/PA,-2.1323199,-47.558436,630,2010.33889
D1,Aurora do Pará/PA,-2.1323199,-47.558436,7,22.33710
1,Aurora do Tocantins/TO,-12.71045,-46.407604,32,851.74341
1,Aurora/CE,-6.9426019,-38.9693765,359,1456.15316
D1,Aurora/CE,-6.9426019,-38.9693765,15,60.84205
1,Aurora/SC,-27.3166417,-49.6368502,73,1285.43758
1,Autazes/AM,-3.5833283,-59.1301518,1298,3280.67737
D1,Autazes/AM,-3.5833283,-59.1301518,36,90.98951
1,Avanhandava/SP,-21.4603331,-49.9465156,170,1245.51249
D1,Avanhandava/SP,-21.4603331,-49.9465156,3,21.97963
1,Avaré/SP,-23.1045215,-48.9259103,623,687.22078
D1,Avaré/SP,-23.1045215,-48.9259103,17,18.75241
1,Avaí/SP,-22.1564662,-49.3316395,79,1462.15066
D1,Avaí/SP,-22.1564662,-49.3316395,1,18.50824
1,Aveiro/PA,-3.6049239,-55.3310742,432,2636.07518
D1,Aveiro/PA,-3.6049239,-55.3310742,5,30.51013
1,Avelino Lopes/PI,-10.1346855,-43.9489525,29,256.88724
D1,Avelino Lopes/PI,-10.1346855,-43.9489525,4,35.43272
1,Avelinópolis/GO,-16.4672409,-49.7578661,93,3847.74514
D1,Avelinópolis/GO,-16.4672409,-49.7578661,1,41.37360
1,Axixá do Tocantins/TO,-5.612747,-47.77007,340,3485.03485
D1,Axixá do Tocantins/TO,-5.612747,-47.77007,3,30.75031
1,Axixá/MA,-2.8379465,-44.0561053,138,1137.67519
D1,Axixá/MA,-2.8379465,-44.0561053,3,24.73207
1,Açailândia/MA,-4.9514278,-47.4844564,3321,2953.44391
D1,Açailândia/MA,-4.9514278,-47.4844564,84,74.70319
1,Açu/RN,-5.5836157,-36.9139541,1516,2613.02722
D1,Açu/RN,-5.5836157,-36.9139541,55,94.79980
1,Açucena/MG,-19.073056,-42.546666,72,760.29567
D1,Açucena/MG,-19.073056,-42.546666,2,21.11932
1,Babaçulândia/TO,-7.2034355,-47.761613,226,2119.27982
D1,Babaçulândia/TO,-7.2034355,-47.761613,2,18.75469
1,Bacabal/MA,-4.2318132,-44.781167,3315,3158.67707
D1,Bacabal/MA,-4.2318132,-44.781167,53,50.50072
1,Bacabeira/MA,-2.9775747,-44.3155943,152,891.23424
D1,Bacabeira/MA,-2.9775747,-44.3155943,2,11.72677
1,Bacuri/MA,-1.728894,-45.1417148,416,2238.72565
D1,Bacuri/MA,-1.728894,-45.1417148,3,16.14466
1,Bacurituba/MA,-2.7082587,-44.7381309,52,921.33239
1,Bady Bassitt/SP,-20.9178969,-49.4517911,755,4313.79271
D1,Bady Bassitt/SP,-20.9178969,-49.4517911,20,114.27265
1,Baependi/MG,-21.959162,-44.8899249,74,386.46334
D1,Baependi/MG,-21.959162,-44.8899249,1,5.22248
1,Bagre/PA,-1.8994498,-50.2103844,382,1245.39497
D1,Bagre/PA,-1.8994498,-50.2103844,10,32.60196
1,Bagé/RS,-31.3314264,-54.1062808,958,790.80095
D1,Bagé/RS,-31.3314264,-54.1062808,12,9.90565
1,Baianópolis/BA,-12.3067564,-44.5383591,84,605.31815
D1,Baianópolis/BA,-12.3067564,-44.5383591,1,7.20617
1,Baixa Grande do Ribeiro/PI,-7.862861,-45.2113289,1191,10279.64785
D1,Baixa Grande do Ribeiro/PI,-7.862861,-45.2113289,9,77.67996
1,Baixa Grande/BA,-11.9630941,-40.1657537,33,161.22728
D1,Baixa Grande/BA,-11.9630941,-40.1657537,2,9.77135
1,Baixio/CE,-6.7303544,-38.7170095,96,1526.71756
D1,Baixio/CE,-6.7303544,-38.7170095,1,15.90331
1,Baixo Guandu/ES,-19.5138322,-41.0182089,730,2354.99064
D1,Baixo Guandu/ES,-19.5138322,-41.0182089,18,58.06826
1,Baião/PA,-2.7903479,-49.6702845,378,796.69519
D1,Baião/PA,-2.7903479,-49.6702845,14,29.50723
1,Balbinos/SP,-21.9006253,-49.3583966,93,1621.62162
D1,Balbinos/SP,-21.9006253,-49.3583966,3,52.31037
1,Baldim/MG,-19.2913568,-43.9558262,36,460.00511
D1,Baldim/MG,-19.2913568,-43.9558262,5,63.88960
1,Baliza/GO,-16.1978119,-52.542789,20,389.25652
1,Balneário Arroio do Silva/SC,-28.9815269,-49.4189932,400,3060.20962
D1,Balneário Arroio do Silva/SC,-28.9815269,-49.4189932,6,45.90314
1,Balneário Barra do Sul/SC,-26.459842,-48.6061471,481,4455.76656
D1,Balneário Barra do Sul/SC,-26.459842,-48.6061471,6,55.58129
1,Balneário Camboriú/SC,-26.9924395,-48.6339782,7065,4965.03742
D1,Balneário Camboriú/SC,-26.9924395,-48.6339782,89,62.54612
1,Balneário Gaivota/SC,-29.1553098,-49.5808712,166,1511.97741
D1,Balneário Gaivota/SC,-29.1553098,-49.5808712,7,63.75808
1,Balneário Pinhal/RS,-30.2482978,-50.234585,139,988.05800
D1,Balneário Pinhal/RS,-30.2482978,-50.234585,2,14.21666
1,Balneário Piçarras/SC,-26.7638889,-48.6716667,785,3391.36821
D1,Balneário Piçarras/SC,-26.7638889,-48.6716667,9,38.88193
1,Balneário Rincão/SC,-28.8235718,-49.2241642,377,2954.54545
D1,Balneário Rincão/SC,-28.8235718,-49.2241642,10,78.36991
1,Balsa Nova/PR,-25.5842234,-49.6312741,212,1638.20416
D1,Balsa Nova/PR,-25.5842234,-49.6312741,5,38.63689
1,Balsas/MA,-7.53214,-46.037163,6174,6506.68690
D1,Balsas/MA,-7.53214,-46.037163,54,56.90980
1,Bambuí/MG,-20.0131996,-45.9777034,46,193.04209
1,Banabuiú/CE,-5.3046404,-38.919766,550,3022.47623
D1,Banabuiú/CE,-5.3046404,-38.919766,4,21.98165
1,Bananal/SP,-22.6828195,-44.3221095,138,1260.84970
D1,Bananal/SP,-22.6828195,-44.3221095,1,9.13659
1,Bananeiras/PB,-6.7537682,-35.6338343,412,1932.63908
D1,Bananeiras/PB,-6.7537682,-35.6338343,2,9.38174
1,Bandeira do Sul/MG,-21.728056,-46.385555,27,469.89210
1,Bandeira/MG,-15.884444,-40.559167,198,4129.30136
D1,Bandeira/MG,-15.884444,-40.559167,1,20.85506
1,Bandeirante/SC,-26.7677402,-53.6397596,10,373.41299
1,Bandeirantes do Tocantins/TO,-7.7635698,-48.579148,46,1294.68055
D1,Bandeirantes do Tocantins/TO,-7.7635698,-48.579148,1,28.14523
1,Bandeirantes/MS,-19.9179623,-54.3646768,69,1016.49971
1,Bandeirantes/PR,-23.107788,-50.370407,755,2406.98824
D1,Bandeirantes/PR,-23.107788,-50.370407,19,60.57321
1,Bannach/PA,-7.3508505,-50.4064531,112,3408.39927
D1,Bannach/PA,-7.3508505,-50.4064531,2,60.86427
1,Banzaê/BA,-10.5827616,-38.6122305,245,1851.99184
1,Baraúna/PB,-6.643394,-36.2531932,140,2861.81521
1,Baraúna/RN,-5.0775002,-37.61752,504,1776.27405
D1,Baraúna/RN,-5.0775002,-37.61752,13,45.81659
1,Barbacena/MG,-21.2254524,-43.7735087,806,586.98011
D1,Barbacena/MG,-21.2254524,-43.7735087,14,10.19568
1,Barbalha/CE,-7.3121067,-39.3036427,1948,3204.94891
D1,Barbalha/CE,-7.3121067,-39.3036427,53,87.19830
1,Barbosa Ferraz/PR,-24.0287182,-52.00811,153,1322.61411
D1,Barbosa Ferraz/PR,-24.0287182,-52.00811,4,34.57815
1,Barbosa/SP,-21.265661,-49.951816,107,1445.55526
D1,Barbosa/SP,-21.265661,-49.951816,1,13.50986
1,Barcarena/PA,-1.5107945,-48.6190679,4407,3534.64870
D1,Barcarena/PA,-1.5107945,-48.6190679,109,87.42380
1,Barcelona/RN,-5.9514918,-35.9260284,33,825.41271
D1,Barcelona/RN,-5.9514918,-35.9260284,2,50.02501
1,Barcelos/AM,-0.9729214,-62.925635,2596,9439.31350
D1,Barcelos/AM,-0.9729214,-62.925635,25,90.90248
1,Bariri/SP,-22.0746355,-48.7394852,675,1914.13339
D1,Bariri/SP,-22.0746355,-48.7394852,15,42.53630
1,Barra Bonita/SC,-26.6526364,-53.4419581,3,178.89088
1,Barra Bonita/SP,-22.490859,-48.558349,756,2092.67564
D1,Barra Bonita/SP,-22.490859,-48.558349,18,49.82561
1,Barra D'Alcântara/PI,-6.5209258,-42.1071089,12,303.72058
D1,Barra D'Alcântara/PI,-6.5209258,-42.1071089,1,25.31005
1,Barra Funda/RS,-27.9230048,-53.0401045,99,3899.17290
D1,Barra Funda/RS,-27.9230048,-53.0401045,3,118.15675
1,Barra Longa/MG,-20.2833541,-43.0423516,63,1227.83083
1,Barra Mansa/RJ,-22.5394843,-44.1735129,2658,1441.33787
D1,Barra Mansa/RJ,-22.5394843,-44.1735129,151,81.88187
1,Barra Velha/SC,-26.6338203,-48.6835001,739,2533.59846
D1,Barra Velha/SC,-26.6338203,-48.6835001,16,54.85464
1,Barra da Estiva/BA,-13.6269662,-41.3278287,10,48.54840
1,Barra de Guabiraba/PE,-8.4173522,-35.6626669,187,1299.96524
D1,Barra de Guabiraba/PE,-8.4173522,-35.6626669,11,76.46854
1,Barra de Santa Rosa/PB,-6.7218007,-36.0564638,102,663.02652
D1,Barra de Santa Rosa/PB,-6.7218007,-36.0564638,1,6.50026
1,Barra de Santana/PB,-7.5230865,-35.9988518,94,1124.53643
D1,Barra de Santana/PB,-7.5230865,-35.9988518,3,35.88946
1,Barra de Santo Antônio/AL,-9.4038098,-35.5117693,130,815.96786
D1,Barra de Santo Antônio/AL,-9.4038098,-35.5117693,11,69.04343
1,Barra de São Francisco/ES,-18.7570902,-40.8916119,789,1767.07727
D1,Barra de São Francisco/ES,-18.7570902,-40.8916119,27,60.47032
1,Barra de São Miguel/AL,-9.8261357,-35.8837777,144,1730.35328
D1,Barra de São Miguel/AL,-9.8261357,-35.8837777,5,60.08171
1,Barra de São Miguel/PB,-7.7528088,-36.3170996,64,1060.30484
D1,Barra de São Miguel/PB,-7.7528088,-36.3170996,1,16.56726
1,Barra do Bugres/MT,-15.0683712,-57.1853688,897,2565.34920
D1,Barra do Bugres/MT,-15.0683712,-57.1853688,20,57.19842
1,Barra do Chapéu/SP,-24.472203,-49.023784,47,821.10412
1,Barra do Choça/BA,-14.8638173,-40.5761637,409,1294.18093
D1,Barra do Choça/BA,-14.8638173,-40.5761637,5,15.82128
1,Barra do Corda/MA,-5.496823,-45.248496,3788,4294.20034
D1,Barra do Corda/MA,-5.496823,-45.248496,33,37.40988
1,Barra do Garças/MT,-15.8916033,-52.2615413,2195,3597.65292
D1,Barra do Garças/MT,-15.8916033,-52.2615413,94,154.06805
1,Barra do Guarita/RS,-27.1888016,-53.7147086,57,1754.92611
1,Barra do Jacaré/PR,-23.1151788,-50.1813945,15,539.37433
1,Barra do Mendes/BA,-11.8053298,-42.057037,17,122.61089
1,Barra do Ouro/TO,-7.7113784,-47.6743925,50,1089.08734
D1,Barra do Ouro/TO,-7.7113784,-47.6743925,4,87.12699
1,Barra do Piraí/RJ,-22.4703403,-43.8263256,1086,1081.95349
D1,Barra do Piraí/RJ,-22.4703403,-43.8263256,54,53.79879
1,Barra do Quaraí/RS,-30.208947,-57.5505128,64,1518.38671
D1,Barra do Quaraí/RS,-30.208947,-57.5505128,1,23.72479
1,Barra do Ribeiro/RS,-30.2930206,-51.301437,115,852.42013
D1,Barra do Ribeiro/RS,-30.2930206,-51.301437,13,96.36054
1,Barra do Rio Azul/RS,-27.4101581,-52.4117471,7,414.20118
1,Barra do Rocha/BA,-14.2090974,-39.6004395,101,1767.58838
1,Barra do Turvo/SP,-24.756421,-48.5056942,101,1318.71001
D1,Barra do Turvo/SP,-24.756421,-48.5056942,4,52.22614
1,Barra dos Coqueiros/SE,-10.9075694,-37.0386249,1150,3782.02388
D1,Barra dos Coqueiros/SE,-10.9075694,-37.0386249,22,72.35176
1,Barra/BA,-11.0892702,-43.1420453,216,403.15055
D1,Barra/BA,-11.0892702,-43.1420453,5,9.33219
1,Barracão/PR,-26.252395,-53.6349576,81,788.32117
D1,Barracão/PR,-26.252395,-53.6349576,2,19.46472
1,Barracão/RS,-27.6728964,-51.4582928,75,1421.80095
D1,Barracão/RS,-27.6728964,-51.4582928,3,56.87204
1,Barras/PI,-4.2446153,-42.2920241,2543,5403.05103
D1,Barras/PI,-4.2446153,-42.2920241,54,114.73250
1,Barreira/CE,-4.2883361,-38.641094,324,1444.81605
D1,Barreira/CE,-4.2883361,-38.641094,19,84.72687
1,Barreiras do Piauí/PI,-9.9224524,-45.4763776,27,806.45161
1,Barreiras/BA,-12.1440031,-44.9967406,4528,2913.03984
D1,Barreiras/BA,-12.1440031,-44.9967406,73,46.96376
1,Barreirinha/AM,-2.798863,-57.067897,964,3008.64517
D1,Barreirinha/AM,-2.798863,-57.067897,12,37.45201
1,Barreirinhas/MA,-2.7541271,-42.8259693,914,1461.74514
D1,Barreirinhas/MA,-2.7541271,-42.8259693,23,36.78352
1,Barreiros/PE,-8.8159644,-35.1831905,328,768.88816
D1,Barreiros/PE,-8.8159644,-35.1831905,41,96.11102
1,Barretos/SP,-20.5531437,-48.5697509,4050,3317.00765
D1,Barretos/SP,-20.5531437,-48.5697509,120,98.28171
1,Barrinha/SP,-21.1898849,-48.1550642,671,2044.98354
D1,Barrinha/SP,-21.1898849,-48.1550642,25,76.19164
1,Barro Alto/BA,-11.7618025,-41.9094904,64,428.63840
D1,Barro Alto/BA,-11.7618025,-41.9094904,1,6.69748
1,Barro Alto/GO,-14.9696025,-48.9190985,322,2883.49602
D1,Barro Alto/GO,-14.9696025,-48.9190985,3,26.86487
1,Barro Duro/PI,-5.8180139,-42.5106589,418,5944.25484
D1,Barro Duro/PI,-5.8180139,-42.5106589,6,85.32423
1,Barro Preto/BA,-14.8068289,-39.4727588,235,4203.18369
D1,Barro Preto/BA,-14.8068289,-39.4727588,5,89.42944
1,Barro/CE,-7.1713587,-38.7742136,223,983.24515
D1,Barro/CE,-7.1713587,-38.7742136,9,39.68254
1,Barrocas/BA,-11.5165,-39.099282894736845,131,819.87733
1,Barrolândia/TO,-9.837246,-48.7264346,111,1970.88068
D1,Barrolândia/TO,-9.837246,-48.7264346,1,17.75568
1,Barroquinha/CE,-3.0200371,-41.1339229,765,5094.22654
D1,Barroquinha/CE,-3.0200371,-41.1339229,17,113.20503
1,Barros Cassal/RS,-29.094938,-52.5832366,21,187.51674
D1,Barros Cassal/RS,-29.094938,-52.5832366,1,8.92937
1,Barroso/MG,-21.187222,-43.976111,145,696.78039
D1,Barroso/MG,-21.187222,-43.976111,2,9.61076
1,Barueri/SP,-23.5112184,-46.8764612,6254,2280.96666
D1,Barueri/SP,-23.5112184,-46.8764612,357,130.20548
1,Barão de Antonina/SP,-23.6295651,-49.5632104,20,576.53502
1,Barão de Cocais/MG,-19.9452437,-43.4870298,453,1394.48976
D1,Barão de Cocais/MG,-19.9452437,-43.4870298,3,9.23503
1,Barão de Cotegipe/RS,-27.6214694,-52.3765316,111,1675.97765
D1,Barão de Cotegipe/RS,-27.6214694,-52.3765316,3,45.29669
1,Barão de Grajaú/MA,-6.7542591,-43.0263477,18,95.64293
D1,Barão de Grajaú/MA,-6.7542591,-43.0263477,1,5.31350
1,Barão de Melgaço/MT,-16.195776,-55.9668049,102,1191.03223
D1,Barão de Melgaço/MT,-16.195776,-55.9668049,4,46.70715
1,Barão de Monte Alto/MG,-21.244722,-42.2375,54,1000.55586
D1,Barão de Monte Alto/MG,-21.244722,-42.2375,2,37.05762
1,Barão do Triunfo/RS,-30.3909877,-51.7375349,91,1215.44010
D1,Barão do Triunfo/RS,-30.3909877,-51.7375349,1,13.35648
1,Barão/RS,-29.372474,-51.494908,69,1118.13320
D1,Barão/RS,-29.372474,-51.494908,2,32.40966
1,Bastos/SP,-21.9222474,-50.7317727,64,305.44552
D1,Bastos/SP,-21.9222474,-50.7317727,2,9.54517
1,Bataguassu/MS,-21.715899,-52.422058,780,3387.76928
D1,Bataguassu/MS,-21.715899,-52.422058,7,30.40306
1,Batalha/AL,-9.6733809,-37.1265481,570,3126.37122
D1,Batalha/AL,-9.6733809,-37.1265481,7,38.39403
1,Batalha/PI,-4.022391,-42.0780926,411,1530.32729
D1,Batalha/PI,-4.022391,-42.0780926,9,33.51082
1,Batatais/SP,-20.892867,-47.592149,612,979.07468
D1,Batatais/SP,-20.892867,-47.592149,20,31.99590
1,Batayporã/MS,-22.2976466,-53.2685608,143,1262.24733
D1,Batayporã/MS,-22.2976466,-53.2685608,3,26.48071
1,Baturité/CE,-4.3290203,-38.8821055,575,1608.39161
D1,Baturité/CE,-4.3290203,-38.8821055,31,86.71329
1,Bauru/SP,-22.3218102,-49.0705863,9408,2496.69602
D1,Bauru/SP,-22.3218102,-49.0705863,176,46.70690
1,Bayeux/PB,-7.1301631,-34.936532,1834,1893.06358
D1,Bayeux/PB,-7.1301631,-34.936532,103,106.31709
1,Baía Formosa/RN,-6.3691885,-35.0063741,89,959.98274
D1,Baía Formosa/RN,-6.3691885,-35.0063741,5,53.93161
1,Baía da Traição/PB,-6.691258,-34.9371244,673,7483.59835
D1,Baía da Traição/PB,-6.691258,-34.9371244,6,66.71856
1,Bebedouro/SP,-20.949077,-48.479083,1011,1304.58346
D1,Bebedouro/SP,-20.949077,-48.479083,23,29.67895
1,Beberibe/CE,-4.1810469,-38.1298101,786,1467.15696
D1,Beberibe/CE,-4.1810469,-38.1298101,29,54.13175
1,Bela Cruz/CE,-3.0529129,-40.167582,1195,3666.65644
D1,Bela Cruz/CE,-3.0529129,-40.167582,23,70.57163
1,Bela Vista da Caroba/PR,-25.8792818,-53.6672545,18,512.67445
1,Bela Vista de Goiás/GO,-16.9692949,-48.9513071,751,2505.42118
D1,Bela Vista de Goiás/GO,-16.9692949,-48.9513071,11,36.69725
1,Bela Vista de Minas/MG,-19.8289721,-43.0973688,50,487.56704
D1,Bela Vista de Minas/MG,-19.8289721,-43.0973688,1,9.75134
1,Bela Vista do Maranhão/MA,-3.7416367,-45.2514192,127,1133.01811
D1,Bela Vista do Maranhão/MA,-3.7416367,-45.2514192,4,35.68561
1,Bela Vista do Paraíso/PR,-22.9948493,-51.1907996,160,1039.16347
D1,Bela Vista do Paraíso/PR,-22.9948493,-51.1907996,4,25.97909
1,Bela Vista do Piauí/PI,-7.9716353,-41.8715061,39,971.35741
D1,Bela Vista do Piauí/PI,-7.9716353,-41.8715061,1,24.90660
1,Bela Vista do Toldo/SC,-26.274625,-50.466354,6,94.68203
1,Bela Vista/MS,-22.107327,-56.5317344,44,178.65118
D1,Bela Vista/MS,-22.107327,-56.5317344,2,8.12051
1,Belford Roxo/RJ,-22.7667284,-43.4033603,9124,1785.84710
D1,Belford Roxo/RJ,-22.7667284,-43.4033603,284,55.58752
1,Belmiro Braga/MG,-21.9486291,-43.413564,14,408.28230
D1,Belmiro Braga/MG,-21.9486291,-43.413564,2,58.32604
1,Belmonte/BA,-15.8630837,-38.8792845,450,1929.01235
D1,Belmonte/BA,-15.8630837,-38.8792845,3,12.86008
1,Belmonte/SC,-26.8448262,-53.578916,5,184.77458
1,Belo Campo/BA,-15.0338286,-41.2585109,53,307.94259
D1,Belo Campo/BA,-15.0338286,-41.2585109,1,5.81024
1,Belo Horizonte/MG,-19.9227318,-43.9450948,38978,1551.62874
D1,Belo Horizonte/MG,-19.9227318,-43.9450948,1153,45.89840
1,Belo Jardim/PE,-8.3338293,-36.4176419,1107,1448.21361
D1,Belo Jardim/PE,-8.3338293,-36.4176419,35,45.78814
1,Belo Monte/AL,-9.8269944,-37.2787165,155,2312.05251
D1,Belo Monte/AL,-9.8269944,-37.2787165,3,44.74940
1,Belo Oriente/MG,-19.2232523,-42.4807033,546,2044.94382
D1,Belo Oriente/MG,-19.2232523,-42.4807033,10,37.45318
1,Belo Vale/MG,-20.407778,-44.024167,77,998.05574
D1,Belo Vale/MG,-20.407778,-44.024167,2,25.92353
1,Belterra/PA,-2.636091,-54.937392,359,2024.58831
D1,Belterra/PA,-2.636091,-54.937392,14,78.95330
1,Belágua/MA,-3.1604031,-43.5085052,252,3373.94564
D1,Belágua/MA,-3.1604031,-43.5085052,1,13.38867
1,Belém de Maria/PE,-8.6242497,-35.8388934,94,778.59687
D1,Belém de Maria/PE,-8.6242497,-35.8388934,3,24.84884
1,Belém do Brejo do Cruz/PB,-6.1880727,-37.5332267,97,1321.16589
D1,Belém do Brejo do Cruz/PB,-6.1880727,-37.5332267,2,27.24053
1,Belém do Piauí/PI,-7.3767305,-40.9712156,97,2720.13460
D1,Belém do Piauí/PI,-7.3767305,-40.9712156,3,84.12787
1,Belém do São Francisco/PE,-8.7517707,-38.9625715,125,603.01992
1,Belém/AL,-9.5715351,-36.492841,54,1243.09392
D1,Belém/AL,-9.5715351,-36.492841,1,23.02026
1,Belém/PA,-1.45056,-48.4682453,35956,2408.71683
D1,Belém/PA,-1.45056,-48.4682453,2167,145.16880
1,Belém/PB,-6.6967586,-35.5369626,1082,6121.29441
D1,Belém/PB,-6.6967586,-35.5369626,15,84.86083
1,Beneditinos/PI,-5.4565671,-42.3605061,257,2455.33582
D1,Beneditinos/PI,-5.4565671,-42.3605061,8,76.43069
1,Benedito Leite/MA,-7.2173453,-44.5523331,183,3249.28977
1,Benedito Novo/SC,-26.7840657,-49.3629511,147,1261.58599
D1,Benedito Novo/SC,-26.7840657,-49.3629511,2,17.16444
1,Benevides/PA,-1.3555577,-48.252235,1484,2365.43029
D1,Benevides/PA,-1.3555577,-48.252235,51,81.29174
1,Benjamin Constant do Sul/RS,-27.5105555,-52.6007689,94,4714.14243
1,Benjamin Constant/AM,-4.3782748,-70.0290603,1577,3668.80700
D1,Benjamin Constant/AM,-4.3782748,-70.0290603,40,93.05788
1,Bento Fernandes/RN,-5.6926846,-35.8207423,27,491.17701
D1,Bento Fernandes/RN,-5.6926846,-35.8207423,2,36.38348
1,Bento Gonçalves/RS,-29.1654014,-51.5197627,3580,2972.08893
D1,Bento Gonçalves/RS,-29.1654014,-51.5197627,110,91.32117
1,Bento de Abreu/SP,-21.2707225,-50.8120444,39,1308.72483
1,Bequimão/MA,-2.4495376,-44.7884889,234,1099.62406
D1,Bequimão/MA,-2.4495376,-44.7884889,11,51.69173
1,Berilo/MG,-16.9515764,-42.4643732,5,41.90412
1,Berizal/MG,-15.6118785,-41.7417382,7,147.83527
1,Bernardino Batista/PB,-6.4532173,-38.5495418,42,1199.65724
1,Bernardino de Campos/SP,-23.0140216,-49.4760724,96,861.14101
D1,Bernardino de Campos/SP,-23.0140216,-49.4760724,3,26.91066
1,Bernardo Sayão/TO,-7.8794244,-48.8968905,39,874.63557
D1,Bernardo Sayão/TO,-7.8794244,-48.8968905,3,67.27966
1,Bernardo do Mearim/MA,-4.6315929,-44.7617508,78,1290.74963
D1,Bernardo do Mearim/MA,-4.6315929,-44.7617508,3,49.64422
1,Bertioga/SP,-23.848568,-46.139586,1769,2796.88216
D1,Bertioga/SP,-23.848568,-46.139586,40,63.24211
1,Bertolínia/PI,-7.6372159,-43.9540611,339,6162.51591
D1,Bertolínia/PI,-7.6372159,-43.9540611,4,72.71405
1,Bertópolis/MG,-17.063333,-40.573889,24,521.28584
1,Beruri/AM,-3.9007135,-61.3717319,801,4070.32878
D1,Beruri/AM,-3.9007135,-61.3717319,10,50.81559
1,Betim/MG,-19.968056,-44.198333,5609,1276.68776
D1,Betim/MG,-19.968056,-44.198333,192,43.70192
1,Betânia do Piauí/PI,-8.1460635,-40.7961387,29,467.36503
D1,Betânia do Piauí/PI,-8.1460635,-40.7961387,1,16.11604
1,Betânia/PE,-8.2742779,-38.0351767,66,518.90872
D1,Betânia/PE,-8.2742779,-38.0351767,2,15.72451
1,Bezerros/PE,-8.2372132,-35.7558262,1057,1738.54403
D1,Bezerros/PE,-8.2372132,-35.7558262,49,80.59476
1,Bias Fortes/MG,-21.605833,-43.756944,14,414.32376
1,Bicas/MG,-21.7213723,-43.0604327,64,441.56203
D1,Bicas/MG,-21.7213723,-43.0604327,1,6.89941
1,Biguaçu/SC,-27.4961277,-48.6542432,2007,2930.73991
D1,Biguaçu/SC,-27.4961277,-48.6542432,33,48.18855
1,Bilac/SP,-21.403962,-50.47464,85,1058.00349
D1,Bilac/SP,-21.403962,-50.47464,2,24.89420
1,Biquinhas/MG,-18.783611,-45.502222,28,1113.32008
1,Birigui/SP,-21.2908491,-50.34144,1971,1594.17008
D1,Birigui/SP,-21.2908491,-50.34144,66,53.38165
1,Biritiba-Mirim/SP,-23.5697765,-46.0407456,381,1168.78336
D1,Biritiba-Mirim/SP,-23.5697765,-46.0407456,23,70.55648
1,Biritinga/BA,-11.6227908,-38.8066738,77,481.88247
D1,Biritinga/BA,-11.6227908,-38.8066738,1,6.25821
1,Bituruna/PR,-26.161281,-51.5533319,41,250.16780
D1,Bituruna/PR,-26.161281,-51.5533319,1,6.10165
1,Blumenau/SC,-26.9195567,-49.0658025,11511,3222.57341
D1,Blumenau/SC,-26.9195567,-49.0658025,151,42.27335
1,Boa Esperança do Iguaçu/PR,-25.6362851,-53.2139114,37,1478.22613
1,Boa Esperança do Sul/SP,-21.9930206,-48.3917372,163,1092.27367
D1,Boa Esperança do Sul/SP,-21.9930206,-48.3917372,6,40.20639
1,Boa Esperança/ES,-18.5395472,-40.2904088,359,2387.44430
D1,Boa Esperança/ES,-18.5395472,-40.2904088,15,99.75394
1,Boa Esperança/MG,-21.0901253,-45.5660195,171,426.14698
D1,Boa Esperança/MG,-21.0901253,-45.5660195,10,24.92088
1,Boa Esperança/PR,-24.2411024,-52.7860277,35,852.61876
1,Boa Hora/PI,-4.4094627,-42.1255341,97,1430.46748
1,Boa Nova/BA,-14.365907,-40.2063056,130,1029.05090
D1,Boa Nova/BA,-14.365907,-40.2063056,3,23.74733
1,Boa Ventura de São Roque/PR,-24.88177,-51.5441292,3,46.97041
1,Boa Ventura/PB,-7.4202462,-38.2156782,46,857.24935
1,Boa Viagem/CE,-5.1261877,-39.7300055,1003,1841.38058
D1,Boa Viagem/CE,-5.1261877,-39.7300055,25,45.89682
1,Boa Vista da Aparecida/PR,-25.4357216,-53.4067721,128,1686.20735
D1,Boa Vista da Aparecida/PR,-25.4357216,-53.4067721,3,39.52048
1,Boa Vista das Missões/RS,-27.6677983,-53.3127622,3,142.99333
1,Boa Vista do Buricá/RS,-27.6687782,-54.1111913,80,1191.89511
1,Boa Vista do Cadeado/RS,-28.5783827,-53.8123759,5,202.42915
1,Boa Vista do Gurupi/MA,-1.7981168,-46.3071882,13,139.98062
D1,Boa Vista do Gurupi/MA,-1.7981168,-46.3071882,3,32.30322
1,Boa Vista do Incra/RS,-28.8195551,-53.3866624,10,384.17211
1,Boa Vista do Ramos/AM,-2.9716927,-57.5869819,356,1853.49091
D1,Boa Vista do Ramos/AM,-2.9716927,-57.5869819,2,10.41287
1,Boa Vista do Sul/RS,-29.3510488,-51.6779679,59,2120.01437
D1,Boa Vista do Sul/RS,-29.3510488,-51.6779679,1,35.93245
1,Boa Vista do Tupim/BA,-12.6605988,-40.6083594,98,527.56245
D1,Boa Vista do Tupim/BA,-12.6605988,-40.6083594,1,5.38329
1,Boa Vista/PB,-7.2620711,-36.2415161,134,1900.43965
D1,Boa Vista/PB,-7.2620711,-36.2415161,1,14.18239
1,Boa Vista/RR,2.8208478,-60.6719582,35653,8930.82139
D1,Boa Vista/RR,2.8208478,-60.6719582,477,119.48509
1,Boca da Mata/AL,-9.6452054,-36.2116658,1246,4567.28126
D1,Boca da Mata/AL,-9.6452054,-36.2116658,21,76.97665
1,Boca do Acre/AM,-8.7553487,-67.3930873,1288,3754.22642
D1,Boca do Acre/AM,-8.7553487,-67.3930873,13,37.89204
1,Bocaina de Minas/MG,-22.167778,-44.394722,12,235.75639
1,Bocaina do Sul/SC,-27.745494,-49.942279,28,805.98733
D1,Bocaina do Sul/SC,-27.745494,-49.942279,2,57.57052
1,Bocaina/PI,-6.9445939,-41.3224599,127,2822.22222
D1,Bocaina/PI,-6.9445939,-41.3224599,1,22.22222
1,Bocaina/SP,-22.1421831,-48.522276,116,940.87112
D1,Bocaina/SP,-22.1421831,-48.522276,3,24.33287
1,Bocaiúva do Sul/PR,-25.206591,-49.114131,205,1583.74536
D1,Bocaiúva do Sul/PR,-25.206591,-49.114131,2,15.45117
1,Bocaiúva/MG,-17.1160208,-43.8122678,276,552.23194
D1,Bocaiúva/MG,-17.1160208,-43.8122678,3,6.00252
1,Bodocó/PE,-7.777592,-39.933797,253,663.24123
D1,Bodocó/PE,-7.777592,-39.933797,8,20.97205
1,Bodoquena/MS,-20.5508775,-56.6769653,25,317.46032
D1,Bodoquena/MS,-20.5508775,-56.6769653,1,12.69841
1,Bodó/RN,-5.9866104,-36.4134824,9,404.85830
1,Bofete/SP,-23.1019554,-48.2610535,138,1176.47059
D1,Bofete/SP,-23.1019554,-48.2610535,3,25.57545
1,Boituva/SP,-23.2838893,-47.6738231,901,1477.12183
D1,Boituva/SP,-23.2838893,-47.6738231,16,26.23080
1,Bom Conselho/PE,-9.169191,-36.685683,693,1427.27685
D1,Bom Conselho/PE,-9.169191,-36.685683,23,47.36994
1,Bom Despacho/MG,-19.7375242,-45.2517288,513,1013.73382
D1,Bom Despacho/MG,-19.7375242,-45.2517288,13,25.68916
1,Bom Jardim da Serra/SC,-28.3380324,-49.625588,102,2150.53763
D1,Bom Jardim da Serra/SC,-28.3380324,-49.625588,1,21.08370
1,Bom Jardim de Goiás/GO,-16.2062659,-52.172793,140,1583.53127
D1,Bom Jardim de Goiás/GO,-16.2062659,-52.172793,2,22.62188
1,Bom Jardim de Minas/MG,-21.9476466,-44.1906033,10,154.46401
1,Bom Jardim/MA,-3.54129,-45.606004,911,2188.32573
D1,Bom Jardim/MA,-3.54129,-45.606004,23,55.24862
1,Bom Jardim/PE,-7.7961572,-35.5871696,684,1745.61045
D1,Bom Jardim/PE,-7.7961572,-35.5871696,31,79.11392
1,Bom Jardim/RJ,-22.1515328,-42.4186683,180,655.83327
D1,Bom Jardim/RJ,-22.1515328,-42.4186683,4,14.57407
1,Bom Jesus da Lapa/BA,-13.250571,-43.410754,401,579.91554
D1,Bom Jesus da Lapa/BA,-13.250571,-43.410754,2,2.89235
1,Bom Jesus da Penha/MG,-21.0165299,-46.5226644,79,1873.36969
1,Bom Jesus da Serra/BA,-14.3724084,-40.5047119,102,1032.38866
1,Bom Jesus das Selvas/MA,-4.4878075,-46.8526639,1629,4787.23404
D1,Bom Jesus das Selvas/MA,-4.4878075,-46.8526639,10,29.38756
1,Bom Jesus de Goiás/GO,-18.2174587,-49.739721,828,3283.62944
D1,Bom Jesus de Goiás/GO,-18.2174587,-49.739721,15,59.48604
1,Bom Jesus do Amparo/MG,-19.7045132,-43.4752911,23,378.10291
D1,Bom Jesus do Amparo/MG,-19.7045132,-43.4752911,1,16.43926
1,Bom Jesus do Araguaia/MT,-12.1725897,-51.5074425,107,1626.13982
1,Bom Jesus do Galho/MG,-19.8283191,-42.3162256,114,763.30767
D1,Bom Jesus do Galho/MG,-19.8283191,-42.3162256,6,40.17409
1,Bom Jesus do Itabapoana/RJ,-21.1341025,-41.680095,774,2086.47833
D1,Bom Jesus do Itabapoana/RJ,-21.1341025,-41.680095,21,56.60988
1,Bom Jesus do Norte/ES,-21.1254776,-41.6711646,308,3099.83897
D1,Bom Jesus do Norte/ES,-21.1254776,-41.6711646,7,70.45089
1,Bom Jesus do Oeste/SC,-26.6929713,-53.0967453,23,1073.76284
D1,Bom Jesus do Oeste/SC,-26.6929713,-53.0967453,1,46.68534
1,Bom Jesus do Sul/PR,-26.1922507,-53.6002033,14,395.36854
D1,Bom Jesus do Sul/PR,-26.1922507,-53.6002033,1,28.24061
1,Bom Jesus do Tocantins/PA,-5.0471796,-48.5978362,380,2237.79518
D1,Bom Jesus do Tocantins/PA,-5.0471796,-48.5978362,3,17.66680
1,Bom Jesus do Tocantins/TO,-8.96306,-48.165043,77,1573.35513
1,Bom Jesus dos Perdões/SP,-23.1353864,-46.4648052,306,1202.45206
D1,Bom Jesus dos Perdões/SP,-23.1353864,-46.4648052,1,3.92958
1,Bom Jesus/PB,-6.8156725,-38.6551841,34,1327.60640
D1,Bom Jesus/PB,-6.8156725,-38.6551841,1,39.04725
1,Bom Jesus/PI,-9.0711644,-44.3583926,1263,5016.08483
D1,Bom Jesus/PI,-9.0711644,-44.3583926,12,47.65876
1,Bom Jesus/RN,-5.9887544,-35.5821149,117,1145.93536
D1,Bom Jesus/RN,-5.9887544,-35.5821149,4,39.17728
1,Bom Jesus/RS,-28.6692723,-50.4346894,122,1074.98458
1,Bom Jesus/SC,-26.7350604,-52.3916519,91,3023.25581
1,Bom Lugar/MA,-4.3728019,-45.0366054,285,1749.11010
D1,Bom Lugar/MA,-4.3728019,-45.0366054,2,12.27446
1,Bom Princípio do Piauí/PI,-3.1912777,-41.6430185,41,728.24156
D1,Bom Princípio do Piauí/PI,-3.1912777,-41.6430185,3,53.28597
1,Bom Princípio/RS,-29.489788,-51.3566782,336,2390.60832
D1,Bom Princípio/RS,-29.489788,-51.3566782,2,14.22981
1,Bom Progresso/RS,-27.5490948,-53.8655601,14,720.90628
1,Bom Repouso/MG,-22.4657069,-46.1485376,73,692.13995
D1,Bom Repouso/MG,-22.4657069,-46.1485376,4,37.92548
1,Bom Retiro do Sul/RS,-29.6000007,-51.9359243,197,1597.98832
D1,Bom Retiro do Sul/RS,-29.6000007,-51.9359243,3,24.33485
1,Bom Retiro/SC,-27.798993,-49.486994,92,923.13867
D1,Bom Retiro/SC,-27.798993,-49.486994,4,40.13646
1,Bom Sucesso de Itararé/SP,-24.3190016,-49.1446207,6,151.74507
1,Bom Sucesso do Sul/PR,-26.0749256,-52.8348629,12,367.64706
1,Bom Sucesso/MG,-21.0323516,-44.7598082,35,198.82974
D1,Bom Sucesso/MG,-21.0323516,-44.7598082,1,5.68085
1,Bom Sucesso/PB,-6.4458948,-37.9297662,24,482.41206
1,Bom Sucesso/PR,-23.7088019,-51.7651297,101,1436.29124
D1,Bom Sucesso/PR,-23.7088019,-51.7651297,1,14.22071
1,Bombinhas/SC,-27.1519159,-48.4875691,1166,5898.12332
D1,Bombinhas/SC,-27.1519159,-48.4875691,8,40.46740
1,Bonfim do Piauí/PI,-9.1648678,-42.8734415,69,1216.93122
D1,Bonfim do Piauí/PI,-9.1648678,-42.8734415,1,17.63668
1,Bonfim/MG,-20.3266626, -44.2386157,66,960.97845
D1,Bonfim/MG,-20.3266626, -44.2386157,2,29.12056
1,Bonfim/RR,3.3613818,-59.8427241,763,6148.76299
D1,Bonfim/RR,3.3613818,-59.8427241,12,96.70401
1,Bonfinópolis de Minas/MG,-16.5660011,-45.98645,92,1674.85891
D1,Bonfinópolis de Minas/MG,-16.5660011,-45.98645,3,54.61496
1,Bonfinópolis/GO,-16.6172709,-48.9615701,245,2524.21183
D1,Bonfinópolis/GO,-16.6172709,-48.9615701,6,61.81743
1,Boninal/BA,-12.7095183,-41.8299984,9,62.63920
D1,Boninal/BA,-12.7095183,-41.8299984,1,6.95991
1,Bonito de Minas/MG,-15.3191266,-44.7544,5,44.52360
1,Bonito de Santa Fé/PB,-7.3143332,-38.5146677,83,696.48401
D1,Bonito de Santa Fé/PB,-7.3143332,-38.5146677,2,16.78275
1,Bonito/BA,-11.9665473,-41.2649896,44,262.46719
D1,Bonito/BA,-11.9665473,-41.2649896,2,11.93033
1,Bonito/MS,-21.1264766,-56.4902208,484,2202.40262
D1,Bonito/MS,-21.1264766,-56.4902208,7,31.85293
1,Bonito/PA,-1.3605722,-47.3049907,255,1565.76200
D1,Bonito/PA,-1.3605722,-47.3049907,8,49.12195
1,Bonito/PE,-8.4721161,-35.7314591,328,860.12482
D1,Bonito/PE,-8.4721161,-35.7314591,25,65.55829
1,Bonópolis/GO,-13.649331,-49.8329113,38,862.65607
D1,Bonópolis/GO,-13.649331,-49.8329113,1,22.70148
1,Boqueirão do Leão/RS,-29.30332,-52.4296817,75,972.25823
D1,Boqueirão do Leão/RS,-29.30332,-52.4296817,2,25.92689
1,Boqueirão do Piauí/PI,-4.4850148,-42.1095161,139,2169.50211
D1,Boqueirão do Piauí/PI,-4.4850148,-42.1095161,1,15.60793
1,Boqueirão/PB,-7.487004,-36.130887,396,2224.21928
D1,Boqueirão/PB,-7.487004,-36.130887,7,39.31701
1,Boquim/SE,-11.1450175,-37.6204228,593,2211.36635
D1,Boquim/SE,-11.1450175,-37.6204228,15,55.93675
1,Boquira/BA,-12.8184859,-42.7270883,36,167.37958
1,Boracéia/SP,-22.195355,-48.7801925,85,1762.38855
D1,Boracéia/SP,-22.195355,-48.7801925,1,20.73398
1,Borba/AM,-4.3934778,-59.5947721,710,1724.93380
D1,Borba/AM,-4.3934778,-59.5947721,23,55.87814
1,Borborema/PB,-6.8066718,-35.5990191,47,893.02679
1,Borborema/SP,-21.6212706,-49.074135,203,1265.11280
D1,Borborema/SP,-21.6212706,-49.074135,3,18.69625
1,Borda da Mata/MG,-22.274167,-46.165278,267,1375.43787
D1,Borda da Mata/MG,-22.274167,-46.165278,15,77.27179
1,Borebi/SP,-22.5700178,-48.9714871,42,1583.11346
D1,Borebi/SP,-22.5700178,-48.9714871,1,37.69318
1,Borrazópolis/PR,-23.9393362,-51.5850786,57,864.68447
D1,Borrazópolis/PR,-23.9393362,-51.5850786,1,15.16990
1,Borá/SP,-22.2701088,-50.544407,3,358.42294
1,Bossoroca/RS,-28.7278885,-54.9120278,72,1146.67941
D1,Bossoroca/RS,-28.7278885,-54.9120278,1,15.92610
1,Botelhos/MG,-21.65,-46.394722,50,333.97903
D1,Botelhos/MG,-21.65,-46.394722,1,6.67958
1,Botucatu/SP,-22.8879628,-48.4410712,2255,1539.28067
D1,Botucatu/SP,-22.8879628,-48.4410712,41,27.98692
1,Botuporã/BA,-13.3744752,-42.5198469,5,48.96680
D1,Botuporã/BA,-13.3744752,-42.5198469,1,9.79336
1,Botuverá/SC,-27.200749,-49.068892,156,2973.69424
1,Bozano/RS,-28.3669953,-53.7705165,7,329.72209
1,Braga/RS,-27.617348,-53.740514,17,507.00865
1,Braganey/PR,-24.8179919,-53.118506,54,995.02488
D1,Braganey/PR,-24.8179919,-53.118506,2,36.85277
1,Bragança Paulista/SP,-22.9520235,-46.5418586,2869,1700.97470
D1,Bragança Paulista/SP,-22.9520235,-46.5418586,68,40.31589
1,Bragança/PA,-1.0573967,-46.7635406,2320,1816.95722
D1,Bragança/PA,-1.0573967,-46.7635406,93,72.83492
1,Branquinha/AL,-9.2478057,-36.0152009,261,2487.13551
D1,Branquinha/AL,-9.2478057,-36.0152009,6,57.17553
1,Brasil Novo/PA,-3.3055853,-52.539198,732,4852.18083
D1,Brasil Novo/PA,-3.3055853,-52.539198,16,106.05860
1,Brasileira/PI,-4.131182,-41.7824969,116,1392.72422
D1,Brasileira/PI,-4.131182,-41.7824969,1,12.00624
1,Brasilândia de Minas/MG,-17.0096469,-46.0087183,248,1499.57673
D1,Brasilândia de Minas/MG,-17.0096469,-46.0087183,1,6.04668
1,Brasilândia do Sul/PR,-24.1975793,-53.527551,34,1282.53489
1,Brasilândia do Tocantins/TO,-8.3886619,-48.4842729,51,2317.12858
D1,Brasilândia do Tocantins/TO,-8.3886619,-48.4842729,1,45.43389
1,Brasilândia/MS,-21.255575,-52.0365617,102,859.16442
D1,Brasilândia/MS,-21.255575,-52.0365617,3,25.26954
1,Brasiléia/AC,-11.0010413,-68.7487894,1155,4395.31167
D1,Brasiléia/AC,-11.0010413,-68.7487894,20,76.10929
1,Brasnorte/MT,-12.1227151,-58.0050109,273,1386.13861
D1,Brasnorte/MT,-12.1227151,-58.0050109,1,5.07743
1,Brasília de Minas/MG,-16.2075114,-44.430559,106,327.69654
D1,Brasília de Minas/MG,-16.2075114,-44.430559,2,6.18295
1,Brasília/DF,-15.7934036,-47.8823172,186052,6170.33046
D1,Brasília/DF,-15.7934036,-47.8823172,3148,104.40200
1,Brazabrantes/GO,-16.4291635,-49.3858216,70,1890.35917
D1,Brazabrantes/GO,-16.4291635,-49.3858216,2,54.01026
1,Brazópolis/MG,-22.4742842,-45.6165577,258,1784.35576
D1,Brazópolis/MG,-22.4742842,-45.6165577,3,20.74832
1,Braço do Norte/SC,-28.2728633,-49.1622712,2234,6678.62481
D1,Braço do Norte/SC,-28.2728633,-49.1622712,17,50.82212
1,Braço do Trombudo/SC,-27.358578,-49.882145,51,1362.54341
D1,Braço do Trombudo/SC,-27.358578,-49.882145,1,26.71654
1,Braúna/SP,-21.5015319,-50.3175246,82,1442.13859
D1,Braúna/SP,-21.5015319,-50.3175246,7,123.10939
1,Braúnas/MG,-19.055556,-42.716111,16,333.26390
D1,Braúnas/MG,-19.055556,-42.716111,2,41.65799
1,Brejetuba/ES,-20.1465817,-41.2902303,456,3676.23347
1,Brejinho de Nazaré/TO,-11.0205883,-48.5722906,75,1364.38057
D1,Brejinho de Nazaré/TO,-11.0205883,-48.5722906,4,72.76696
1,Brejinho/PE,-7.3482153,-37.28538,94,1255.50955
D1,Brejinho/PE,-7.3482153,-37.28538,1,13.35648
1,Brejinho/RN,-6.1957907,-35.3583019,152,1196.94464
D1,Brejinho/RN,-6.1957907,-35.3583019,3,23.62391
1,Brejo Alegre/SP,-21.1671191,-50.1850393,55,1919.72077
D1,Brejo Alegre/SP,-21.1671191,-50.1850393,3,104.71204
1,Brejo Grande do Araguaia/PA,-5.7011449,-48.4037308,458,6205.96206
D1,Brejo Grande do Araguaia/PA,-5.7011449,-48.4037308,2,27.10027
1,Brejo Grande/SE,-10.4287358,-36.4667918,171,2058.00939
D1,Brejo Grande/SE,-10.4287358,-36.4667918,7,84.24600
1,Brejo Santo/CE,-7.4909841,-38.9859152,1539,3110.53621
D1,Brejo Santo/CE,-7.4909841,-38.9859152,22,44.46510
1,Brejo da Madre de Deus/PE,-8.1409718,-36.3712527,950,1872.21631
D1,Brejo da Madre de Deus/PE,-8.1409718,-36.3712527,23,45.32734
1,Brejo de Areia/MA,-4.3316785,-45.5833334,204,2220.28733
D1,Brejo de Areia/MA,-4.3316785,-45.5833334,2,21.76752
1,Brejo do Cruz/PB,-6.32926065,-37.48746163303929,511,3618.46764
D1,Brejo do Cruz/PB,-6.32926065,-37.48746163303929,8,56.64920
1,Brejo do Piauí/PI,-8.207583,-42.8359849,13,335.48387
1,Brejo dos Santos/PB,-6.3769367,-37.8243125,65,1007.90820
1,Brejo/MA,-3.6804397,-42.7529313,685,1882.02324
D1,Brejo/MA,-3.6804397,-42.7529313,18,49.45463
1,Brejolândia/BA,-12.4843845,-43.9611861,5,47.36194
D1,Brejolândia/BA,-12.4843845,-43.9611861,1,9.47239
1,Brejão/PE,-9.029146,-36.566034,30,333.59279
D1,Brejão/PE,-9.029146,-36.566034,2,22.23952
1,Brejões/BA,-13.1033754,-39.7909837,54,377.75446
D1,Brejões/BA,-13.1033754,-39.7909837,1,6.99545
1,Breu Branco/PA,-3.7785073,-49.5684795,301,455.74297
D1,Breu Branco/PA,-3.7785073,-49.5684795,21,31.79602
1,Breves/PA,-1.68036,-50.479085,2450,2385.56587
D1,Breves/PA,-1.68036,-50.479085,87,84.71193
1,Britânia/GO,-15.2427599,-51.1602061,142,2457.17252
D1,Britânia/GO,-15.2427599,-51.1602061,1,17.30403
1,Brochier/RS,-29.556766,-51.5963047,34,670.08277
1,Brodowski/SP,-20.984532,-47.657217,486,1948.75496
D1,Brodowski/SP,-20.984532,-47.657217,18,72.17611
1,Brotas de Macaúbas/BA,-12.0019007,-42.6257506,3,29.32265
1,Brotas/SP,-22.2840884,-48.1267265,126,516.32996
D1,Brotas/SP,-22.2840884,-48.1267265,2,8.19571
1,Brumadinho/MG,-20.143611,-44.2,980,2443.70745
D1,Brumadinho/MG,-20.143611,-44.2,11,27.42937
1,Brumado/BA,-14.29507325,-41.659307508575985,1314,1955.50264
D1,Brumado/BA,-14.29507325,-41.659307508575985,15,22.32309
1,Brunópolis/SC,-27.310953,-50.837585,28,1157.02479
1,Brusque/SC,-27.0964628,-48.9136323,5515,4093.58461
D1,Brusque/SC,-27.0964628,-48.9136323,55,40.82451
1,Brás Pires/MG,-20.8483109,-43.2430524,8,184.62959
1,Bueno Brandão/MG,-22.441976,-46.3517971,60,545.40496
D1,Bueno Brandão/MG,-22.441976,-46.3517971,4,36.36033
1,Buenos Aires/PE,-7.7218931,-35.326587,53,402.88864
D1,Buenos Aires/PE,-7.7218931,-35.326587,8,60.81338
1,Buenópolis/MG,-17.8756607,-44.1749365,88,849.01110
D1,Buenópolis/MG,-17.8756607,-44.1749365,2,19.29571
1,Buerarema/BA,-14.9571177,-39.3008035,498,2714.04436
D1,Buerarema/BA,-14.9571177,-39.3008035,16,87.19821
1,Bugre/MG,-19.4257687,-42.2556,41,1029.63335
D1,Bugre/MG,-19.4257687,-42.2556,2,50.22602
1,Bujari/AC,-9.8309656,-67.9520886,373,3633.35282
D1,Bujari/AC,-9.8309656,-67.9520886,7,68.18625
1,Bujaru/PA,-1.5169239,-48.0410699,640,2196.89688
D1,Bujaru/PA,-1.5169239,-48.0410699,23,78.95098
1,Buri/SP,-23.79849,-48.598924,265,1333.13211
D1,Buri/SP,-23.79849,-48.598924,6,30.18412
1,Buritama/SP,-21.0664017,-50.1448077,281,1639.05740
D1,Buritama/SP,-21.0664017,-50.1448077,11,64.16239
1,Buriti Alegre/GO,-18.1377879,-49.0404411,222,2346.97114
D1,Buriti Alegre/GO,-18.1377879,-49.0404411,6,63.43165
1,Buriti Bravo/MA,-5.8391884,-43.8367876,418,1750.12561
D1,Buriti Bravo/MA,-5.8391884,-43.8367876,1,4.18690
1,Buriti de Goiás/GO,-16.180644,-50.4287479,88,3536.97749
D1,Buriti de Goiás/GO,-16.180644,-50.4287479,1,40.19293
1,Buriti do Tocantins/TO,-5.3187439,-48.2256609,222,1956.29186
1,Buriti dos Lopes/PI,-3.1776723,-41.8707444,739,3735.90819
D1,Buriti dos Lopes/PI,-3.1776723,-41.8707444,12,60.66427
1,Buriti dos Montes/PI,-5.3136171,-41.0971256,38,460.94129
D1,Buriti dos Montes/PI,-5.3136171,-41.0971256,1,12.13003
1,Buriti/MA,-3.9430944,-42.9244281,616,2147.98800
D1,Buriti/MA,-3.9430944,-42.9244281,1,3.48699
1,Buriticupu/MA,-4.3227472,-46.4516989,2314,3197.98778
D1,Buriticupu/MA,-4.3227472,-46.4516989,4,5.52807
1,Buritinópolis/GO,-14.4589282,-46.4293104,42,1275.82017
1,Buritirama/BA,-10.7148421,-43.6362327,225,1062.62397
D1,Buritirama/BA,-10.7148421,-43.6362327,5,23.61387
1,Buritirana/MA,-5.5897455,-47.0148915,236,1529.48801
D1,Buritirana/MA,-5.5897455,-47.0148915,6,38.88529
1,Buritis/MG,-15.621389,-46.423889,332,1336.50014
D1,Buritis/MG,-15.621389,-46.423889,2,8.05121
1,Buritis/RO,-10.2054937,-63.8281954,689,1737.52963
D1,Buritis/RO,-10.2054937,-63.8281954,8,20.17451
1,Buritizal/SP,-20.1933264,-47.7097165,55,1227.40460
D1,Buritizal/SP,-20.1933264,-47.7097165,3,66.94934
1,Buritizeiro/MG,-17.3667765,-44.9647781,228,812.66039
D1,Buritizeiro/MG,-17.3667765,-44.9647781,5,17.82150
1,Butiá/RS,-30.1256795,-51.9692224,197,940.73826
D1,Butiá/RS,-30.1256795,-51.9692224,12,57.30385
1,Buíque/PE,-8.6239732,-37.157296,425,728.01398
D1,Buíque/PE,-8.6239732,-37.157296,6,10.27784
1,Bálsamo/SP,-20.7343722,-49.5807484,451,4973.53330
D1,Bálsamo/SP,-20.7343722,-49.5807484,18,198.50022
0,CASO SEM LOCALIZAÇÃO DEFINIDA/AC,-9.884083190922777,-67.85119819780795,291,32.99563
D0,CASO SEM LOCALIZAÇÃO DEFINIDA/AC,-9.884083190922777,-67.85119819780795,3,0.34016
0,CASO SEM LOCALIZAÇÃO DEFINIDA/AL,-9.931093434363673,-35.609611600637464,559,16.74978
D0,CASO SEM LOCALIZAÇÃO DEFINIDA/AL,-9.931093434363673,-35.609611600637464,13,0.38953
0,CASO SEM LOCALIZAÇÃO DEFINIDA/AM,-3.07518492149711,-60.16169212873594,726,17.51678
D0,CASO SEM LOCALIZAÇÃO DEFINIDA/AM,-3.07518492149711,-60.16169212873594,17,0.41017
0,CASO SEM LOCALIZAÇÃO DEFINIDA/AP,2.677150600275196,-50.477785111870624,229,27.07717
D0,CASO SEM LOCALIZAÇÃO DEFINIDA/AP,2.677150600275196,-50.477785111870624,2,0.23648
0,CASO SEM LOCALIZAÇÃO DEFINIDA/BA,-13.415069300066518,-38.14174656569957,7096,47.71041
D0,CASO SEM LOCALIZAÇÃO DEFINIDA/BA,-13.415069300066518,-38.14174656569957,94,0.63202
0,CASO SEM LOCALIZAÇÃO DEFINIDA/CE,-3.3445126297392798,-38.624961942434304,3463,37.92127
D0,CASO SEM LOCALIZAÇÃO DEFINIDA/CE,-3.3445126297392798,-38.624961942434304,26,0.28471
0,CASO SEM LOCALIZAÇÃO DEFINIDA/ES,-20.30989267097039,-39.81745156645774,2564,63.80252
D0,CASO SEM LOCALIZAÇÃO DEFINIDA/ES,-20.30989267097039,-39.81745156645774,42,1.04513
0,CASO SEM LOCALIZAÇÃO DEFINIDA/GO,-16.701590966270153,-49.164524059025034,3107,44.26964
D0,CASO SEM LOCALIZAÇÃO DEFINIDA/GO,-16.701590966270153,-49.164524059025034,57,0.81216
0,CASO SEM LOCALIZAÇÃO DEFINIDA/MA,-2.171256551718846,-43.98946796681719,777,10.98205
D0,CASO SEM LOCALIZAÇÃO DEFINIDA/MA,-2.171256551718846,-43.98946796681719,9,0.12721
0,CASO SEM LOCALIZAÇÃO DEFINIDA/MG,-19.97049116501593,-43.8852149072783,12802,60.47582
D0,CASO SEM LOCALIZAÇÃO DEFINIDA/MG,-19.97049116501593,-43.8852149072783,381,1.79982
0,CASO SEM LOCALIZAÇÃO DEFINIDA/MS,-20.391549234908513,-54.645156949758444,1763,63.44041
D0,CASO SEM LOCALIZAÇÃO DEFINIDA/MS,-20.391549234908513,-54.645156949758444,31,1.11551
0,CASO SEM LOCALIZAÇÃO DEFINIDA/MT,-15.54791153961863,-56.17143998972475,1297,37.22235
D0,CASO SEM LOCALIZAÇÃO DEFINIDA/MT,-15.54791153961863,-56.17143998972475,49,1.40624
0,CASO SEM LOCALIZAÇÃO DEFINIDA/PA,-0.09317078214359542,-48.0050231510481,1281,14.89039
D0,CASO SEM LOCALIZAÇÃO DEFINIDA/PA,-0.09317078214359542,-48.0050231510481,13,0.15111
0,CASO SEM LOCALIZAÇÃO DEFINIDA/PB,-7.1049355696146606,-34.68696690234351,3466,86.25910
D0,CASO SEM LOCALIZAÇÃO DEFINIDA/PB,-7.1049355696146606,-34.68696690234351,82,2.04075
0,CASO SEM LOCALIZAÇÃO DEFINIDA/PE,-8.121628543819208,-34.57313921302556,677,7.08376
D0,CASO SEM LOCALIZAÇÃO DEFINIDA/PE,-8.121628543819208,-34.57313921302556,30,0.31390
0,CASO SEM LOCALIZAÇÃO DEFINIDA/PR,-25.69415946385943,-48.10141676336737,5161,45.13748
D0,CASO SEM LOCALIZAÇÃO DEFINIDA/PR,-25.69415946385943,-48.10141676336737,141,1.23317
0,CASO SEM LOCALIZAÇÃO DEFINIDA/RJ,-23.210238986465157,-43.12864305824042,1129,6.53926
D0,CASO SEM LOCALIZAÇÃO DEFINIDA/RJ,-23.210238986465157,-43.12864305824042,113,0.65451
0,CASO SEM LOCALIZAÇÃO DEFINIDA/RN,-5.749310788669161,-34.95302586257457,1173,33.44879
D0,CASO SEM LOCALIZAÇÃO DEFINIDA/RN,-5.749310788669161,-34.95302586257457,24,0.68437
0,CASO SEM LOCALIZAÇÃO DEFINIDA/RO,-8.681174926655274,-63.9216949899276,1039,58.46193
D0,CASO SEM LOCALIZAÇÃO DEFINIDA/RO,-8.681174926655274,-63.9216949899276,15,0.84401
0,CASO SEM LOCALIZAÇÃO DEFINIDA/RR,2.813328208465927,-60.663338675861986,1747,288.39757
D0,CASO SEM LOCALIZAÇÃO DEFINIDA/RR,2.813328208465927,-60.663338675861986,3,0.49524
0,CASO SEM LOCALIZAÇÃO DEFINIDA/RS,-30.50647488532064,-49.906261466443524,1951,17.14827
D0,CASO SEM LOCALIZAÇÃO DEFINIDA/RS,-30.50647488532064,-49.906261466443524,43,0.37795
0,CASO SEM LOCALIZAÇÃO DEFINIDA/SC,-27.675643660562308,-48.18313219398259,8165,113.96011
D0,CASO SEM LOCALIZAÇÃO DEFINIDA/SC,-27.675643660562308,-48.18313219398259,15,0.20936
0,CASO SEM LOCALIZAÇÃO DEFINIDA/SE,-11.03002091978736,-36.89283180376513,280,12.18082
D0,CASO SEM LOCALIZAÇÃO DEFINIDA/SE,-11.03002091978736,-36.89283180376513,12,0.52204
0,CASO SEM LOCALIZAÇÃO DEFINIDA/SP,-24.30968974555485,-46.21366504207253,6724,14.64316
D0,CASO SEM LOCALIZAÇÃO DEFINIDA/SP,-24.30968974555485,-46.21366504207253,226,0.49217
0,CASO SEM LOCALIZAÇÃO DEFINIDA/TO,-10.213012114749148,-48.40023803990334,514,32.67920
D0,CASO SEM LOCALIZAÇÃO DEFINIDA/TO,-10.213012114749148,-48.40023803990334,13,0.82652
1,Caapiranga/AM,-3.3188884,-61.2096404,311,2377.49408
D1,Caapiranga/AM,-3.3188884,-61.2096404,7,53.51273
1,Caaporã/PB,-7.510234,-34.9154114,977,4475.90251
D1,Caaporã/PB,-7.510234,-34.9154114,16,73.30035
1,Caarapó/MS,-22.6349267,-54.8240903,435,1441.63850
D1,Caarapó/MS,-22.6349267,-54.8240903,2,6.62822
1,Caatiba/BA,-14.9782759,-40.4092325,260,3847.29210
1,Cabaceiras do Paraguaçu/BA,-12.5377868,-39.1901339,67,356.25033
D1,Cabaceiras do Paraguaçu/BA,-12.5377868,-39.1901339,1,5.31717
1,Cabaceiras/PB,-7.4899156,-36.2860501,106,1889.14632
1,Cabeceira Grande/MG,-16.0297,-47.0906,43,618.79407
D1,Cabeceira Grande/MG,-16.0297,-47.0906,1,14.39056
1,Cabeceiras do Piauí/PI,-4.4733665,-42.3098716,217,2049.87720
D1,Cabeceiras do Piauí/PI,-4.4733665,-42.3098716,5,47.23219
1,Cabeceiras/GO,-15.7995459,-46.9264991,63,788.18967
D1,Cabeceiras/GO,-15.7995459,-46.9264991,3,37.53284
1,Cabedelo/PB,-6.97324,-34.8351609,2903,4285.75647
D1,Cabedelo/PB,-6.97324,-34.8351609,65,95.96079
1,Cabixi/RO,-13.4956065,-60.5424442,94,1769.57831
D1,Cabixi/RO,-13.4956065,-60.5424442,5,94.12651
1,Cabo Frio/RJ,-22.8804369,-42.0189227,2458,1085.08995
D1,Cabo Frio/RJ,-22.8804369,-42.0189227,143,63.12769
1,Cabo Verde/MG,-21.4743338,-46.3964995,35,248.66785
1,Cabo de Santo Agostinho/PE,-8.2838945,-35.0320984,1895,915.24671
D1,Cabo de Santo Agostinho/PE,-8.2838945,-35.0320984,248,119.77899
1,Cabreúva/SP,-23.3075813,-47.1324417,1146,2305.51029
D1,Cabreúva/SP,-23.3075813,-47.1324417,40,80.47156
1,Cabrobó/PE,-8.5083701,-39.3106961,388,1133.80673
D1,Cabrobó/PE,-8.5083701,-39.3106961,4,11.68873
1,Cabrália Paulista/SP,-22.4562909,-49.3385645,93,2181.05066
1,Cacaulândia/RO,-10.3380043,-62.9007231,79,1268.05778
1,Cacequi/RS,-29.8838059,-54.8273443,30,238.83449
1,Cachoeira Alta/GO,-18.7618269,-50.9432431,592,4742.06985
D1,Cachoeira Alta/GO,-18.7618269,-50.9432431,8,64.08202
1,Cachoeira Dourada/GO,-18.4934204,-49.481062,79,979.29838
D1,Cachoeira Dourada/GO,-18.4934204,-49.481062,1,12.39618
1,Cachoeira Dourada/MG,-18.517136,-49.5002062,12,445.76523
1,Cachoeira Grande/MA,-2.9290492,-44.0573223,173,1834.37599
D1,Cachoeira Grande/MA,-2.9290492,-44.0573223,4,42.41332
1,Cachoeira Paulista/SP,-22.666498,-45.015384,328,984.18700
D1,Cachoeira Paulista/SP,-22.666498,-45.015384,12,36.00684
1,Cachoeira da Prata/MG,-19.524723,-44.453056,37,1026.92201
D1,Cachoeira da Prata/MG,-19.524723,-44.453056,1,27.75465
1,Cachoeira de Goiás/GO,-16.6688414,-50.6435997,14,1036.26943
1,Cachoeira de Minas/MG,-22.3554043,-45.7796324,121,1047.89123
1,Cachoeira de Pajeú/MG,-15.965833,-41.496666,203,2156.82108
D1,Cachoeira de Pajeú/MG,-15.965833,-41.496666,2,21.24947
1,Cachoeira do Arari/PA,-1.0143572,-48.9621089,283,1190.72664
D1,Cachoeira do Arari/PA,-1.0143572,-48.9621089,12,50.49018
1,Cachoeira do Piriá/PA,-1.7599443,-46.5446954,500,1474.92625
D1,Cachoeira do Piriá/PA,-1.7599443,-46.5446954,3,8.84956
1,Cachoeira do Sul/RS,-30.0474778,-52.8905413,535,650.84366
D1,Cachoeira do Sul/RS,-30.0474778,-52.8905413,5,6.08265
1,Cachoeira dos Índios/PB,-6.9259193,-38.6742159,104,1015.22843
D1,Cachoeira dos Índios/PB,-6.9259193,-38.6742159,6,58.57087
1,Cachoeira/BA,-12.5998256,-38.9665918,433,1293.69585
D1,Cachoeira/BA,-12.5998256,-38.9665918,9,26.88975
1,Cachoeiras de Macacu/RJ,-22.4626861,-42.6534414,593,1006.15912
D1,Cachoeiras de Macacu/RJ,-22.4626861,-42.6534414,31,52.59854
1,Cachoeirinha/PE,-8.4906364,-36.2338963,268,1315.01472
D1,Cachoeirinha/PE,-8.4906364,-36.2338963,20,98.13543
1,Cachoeirinha/RS,-29.9493353,-51.0898927,2616,2007.78246
D1,Cachoeirinha/RS,-29.9493353,-51.0898927,60,46.05006
1,Cachoeirinha/TO,-6.118647,-47.9208885,24,1054.94505
1,Cachoeiro de Itapemirim/ES,-20.848084,-41.11129,5627,2692.70524
D1,Cachoeiro de Itapemirim/ES,-20.848084,-41.11129,169,80.87208
1,Cacimba de Areia/PB,-7.1288513,-37.1575194,10,271.59153
1,Cacimba de Dentro/PB,-6.6425101,-35.7929304,339,1972.42102
D1,Cacimba de Dentro/PB,-6.6425101,-35.7929304,7,40.72846
1,Cacimbas/PB,-7.2125451,-37.0593398,54,752.82309
D1,Cacimbas/PB,-7.2125451,-37.0593398,1,13.94117
1,Cacimbinhas/AL,-9.401212,-36.991082,258,2376.12820
D1,Cacimbinhas/AL,-9.401212,-36.991082,3,27.62940
1,Cacique Doble/RS,-27.7700117,-51.6616409,88,1737.41362
1,Cacoal/RO,-11.4333,-61.4420502,2178,2551.57628
D1,Cacoal/RO,-11.4333,-61.4420502,32,37.48872
1,Caconde/SP,-21.527995,-46.643659,91,479.32578
1,Caculé/BA,-14.4990734,-42.2233006,79,340.95814
D1,Caculé/BA,-14.4990734,-42.2233006,2,8.63185
1,Caetanos/BA,-14.3387456,-40.9085971,97,667.03342
1,Caetanópolis/MG,-19.2947496,-44.4138386,72,619.40812
D1,Caetanópolis/MG,-19.2947496,-44.4138386,1,8.60289
1,Caetité/BA,-14.0691776,-42.4852428,161,315.84110
D1,Caetité/BA,-14.0691776,-42.4852428,4,7.84698
1,Caeté/MG,-19.897777,-43.670278,380,849.76967
D1,Caeté/MG,-19.897777,-43.670278,10,22.36236
1,Caetés/PE,-8.7728788,-36.6255835,519,1805.90835
D1,Caetés/PE,-8.7728788,-36.6255835,6,20.87755
1,Cafarnaum/BA,-11.691399,-41.468823,217,1176.98107
D1,Cafarnaum/BA,-11.691399,-41.468823,3,16.27163
1,Cafeara/PR,-22.78905,-51.714195,51,1738.24131
1,Cafelândia/PR,-24.6176963,-53.3218057,228,1258.27815
D1,Cafelândia/PR,-24.6176963,-53.3218057,1,5.51876
1,Cafelândia/SP,-21.8054355,-49.6030627,252,1418.35988
D1,Cafelândia/SP,-21.8054355,-49.6030627,2,11.25682
1,Cafezal do Sul/PR,-23.900508,-53.512418,28,692.38378
1,Caiabu/SP,-22.0143038,-51.2356597,35,835.12288
D1,Caiabu/SP,-22.0143038,-51.2356597,2,47.72131
1,Caiana/MG,-20.695555,-41.924723,16,291.12082
D1,Caiana/MG,-20.695555,-41.924723,2,36.39010
1,Caiapônia/GO,-16.9538779,-51.8090761,156,824.82948
D1,Caiapônia/GO,-16.9538779,-51.8090761,1,5.28737
1,Caibaté/RS,-28.290475,-54.645407,2,41.27115
1,Caibi/SC,-27.0751925,-53.2502133,41,666.88354
D1,Caibi/SC,-27.0751925,-53.2502133,2,32.53090
1,Caicó/RN,-6.4594544,-37.0971911,2507,3689.36897
D1,Caicó/RN,-6.4594544,-37.0971911,30,44.14881
1,Caieiras/SP,-23.3644621,-46.7484765,2077,2046.91042
D1,Caieiras/SP,-23.3644621,-46.7484765,95,93.62373
1,Cairu/BA,-13.4860505,-39.0455744,220,1210.38732
D1,Cairu/BA,-13.4860505,-39.0455744,5,27.50880
1,Caiuá/SP,-21.8319357,-51.9887179,55,936.32959
D1,Caiuá/SP,-21.8319357,-51.9887179,1,17.02417
1,Caiçara do Norte/RN,-5.0645017,-36.0561226,87,1328.44709
D1,Caiçara do Norte/RN,-5.0645017,-36.0561226,3,45.80852
1,Caiçara do Rio do Vento/RN,-5.757968,-36.00089,61,1655.80890
D1,Caiçara do Rio do Vento/RN,-5.757968,-36.00089,1,27.14441
1,Caiçara/PB,-6.6146866,-35.4681434,452,6276.90599
D1,Caiçara/PB,-6.6146866,-35.4681434,8,111.09568
1,Caiçara/RS,-27.2750478,-53.4310053,47,990.93401
D1,Caiçara/RS,-27.2750478,-53.4310053,2,42.16740
1,Cajamar/SP,-23.3561111,-46.8769444,1517,1975.23470
D1,Cajamar/SP,-23.3561111,-46.8769444,76,98.95704
1,Cajapió/MA,-2.8778715,-44.6746871,5,44.73472
D1,Cajapió/MA,-2.8778715,-44.6746871,2,17.89389
1,Cajari/MA,-3.3213076,-45.0118757,131,675.98947
D1,Cajari/MA,-3.3213076,-45.0118757,4,20.64090
1,Cajati/SP,-24.7272376,-48.1077914,1511,5292.65473
D1,Cajati/SP,-24.7272376,-48.1077914,25,87.56874
1,Cajazeiras do Piauí/PI,-6.794271,-42.3935024,9,252.88002
1,Cajazeiras/PB,-6.8897849,-38.5570389,1817,2930.97608
D1,Cajazeiras/PB,-6.8897849,-38.5570389,43,69.36267
1,Cajazeirinhas/PB,-6.961442,-37.7993733,34,1064.82931
1,Cajobi/SP,-20.8776238,-48.8106972,189,1792.82869
D1,Cajobi/SP,-20.8776238,-48.8106972,6,56.91520
1,Cajueiro da Praia/PI,-2.931114,-41.340801,302,3951.84507
D1,Cajueiro da Praia/PI,-2.931114,-41.340801,8,104.68464
1,Cajueiro/AL,-9.399589,-36.1524309,297,1396.72686
D1,Cajueiro/AL,-9.399589,-36.1524309,12,56.43341
1,Cajuri/MG,-20.7901414,-42.7954489,50,1254.07575
1,Cajuru/SP,-21.2759978,-47.3046035,463,1769.40421
D1,Cajuru/SP,-21.2759978,-47.3046035,9,34.39447
1,Caldas Brandão/PB,-7.1027959,-35.3254676,319,5304.28999
D1,Caldas Brandão/PB,-7.1027959,-35.3254676,2,33.25574
1,Caldas Novas/GO,-17.745,-48.625,1441,1580.70249
D1,Caldas Novas/GO,-17.745,-48.625,38,41.68404
1,Caldas/MG,-21.923611,-46.386111,102,704.41989
D1,Caldas/MG,-21.923611,-46.386111,2,13.81215
1,Caldazinha/GO,-16.7116649,-49.0012601,70,1840.16824
D1,Caldazinha/GO,-16.7116649,-49.0012601,1,26.28812
1,Caldeirão Grande do Piauí/PI,-7.3310393,-40.6374433,126,2181.44044
1,Caldeirão Grande/BA,-11.0208483,-40.3041387,122,915.43483
D1,Caldeirão Grande/BA,-11.0208483,-40.3041387,1,7.50356
1,Califórnia/PR,-23.6672543,-51.3554556,80,933.48891
D1,Califórnia/PR,-23.6672543,-51.3554556,2,23.33722
1,Calmon/SC,-26.6023644,-51.0992893,9,268.97788
1,Calumbi/PE,-7.9389746,-38.1516871,171,2973.91304
D1,Calumbi/PE,-7.9389746,-38.1516871,1,17.39130
1,Calçado/PE,-8.7413446,-36.3351787,60,542.83905
D1,Calçado/PE,-8.7413446,-36.3351787,1,9.04732
1,Calçoene/AP,2.4981757,-50.9539503,1158,10416.47927
D1,Calçoene/AP,2.4981757,-50.9539503,5,44.97616
1,Camacan/BA,-15.4166631,-39.4930088,1392,4351.63186
D1,Camacan/BA,-15.4166631,-39.4930088,29,90.65900
1,Camalaú/PB,-7.885031,-36.824191,30,498.91901
1,Camamu/BA,-13.9438142,-39.1060917,812,2299.24114
D1,Camamu/BA,-13.9438142,-39.1060917,15,42.47367
1,Camanducaia/MG,-22.755278,-46.144444,482,2214.05604
D1,Camanducaia/MG,-22.755278,-46.144444,9,41.34130
1,Camapuã/MS,-19.5291747,-54.0434641,44,320.91022
D1,Camapuã/MS,-19.5291747,-54.0434641,1,7.29341
1,Camaquã/RS,-30.8524752,-51.8075619,1047,1580.11500
D1,Camaquã/RS,-30.8524752,-51.8075619,19,28.67448
1,Camaragibe/PE,-8.0213832,-34.9810768,2061,1305.85194
D1,Camaragibe/PE,-8.0213832,-34.9810768,175,110.88020
1,Camargo/RS,-28.5865661,-52.2031474,33,1207.46432
1,Camaçari/BA,-12.6998188,-38.3260762,5970,1995.77444
D1,Camaçari/BA,-12.6998188,-38.3260762,109,36.43876
1,Cambará do Sul/RS,-29.0489517,-50.145412,65,1010.72928
1,Cambará/PR,-23.042273,-50.075281,260,1025.23659
D1,Cambará/PR,-23.042273,-50.075281,4,15.77287
1,Cambira/PR,-23.600265,-51.581045,75,953.59186
D1,Cambira/PR,-23.600265,-51.581045,2,25.42912
1,Camboriú/SC,-27.0273601,-48.6535657,2661,3206.44905
D1,Camboriú/SC,-27.0273601,-48.6535657,42,50.60912
1,Cambuci/RJ,-21.5749919,-41.9107833,193,1244.75975
D1,Cambuci/RJ,-21.5749919,-41.9107833,5,32.24766
1,Cambuquira/MG,-21.853056,-45.2953619,24,187.29515
D1,Cambuquira/MG,-21.853056,-45.2953619,1,7.80396
1,Cambuí/MG,-22.6122501,-46.0572137,345,1167.47318
D1,Cambuí/MG,-22.6122501,-46.0572137,6,20.30388
1,Cambé/PR,-23.2782035,-51.2779583,1715,1609.82982
D1,Cambé/PR,-23.2782035,-51.2779583,29,27.22161
1,Cametá/PA,-2.242949,-49.497885,4777,3464.35565
D1,Cametá/PA,-2.242949,-49.497885,96,69.62071
1,Camocim de São Félix/PE,-8.3616757,-35.7638903,209,1113.77565
D1,Camocim de São Félix/PE,-8.3616757,-35.7638903,7,37.30349
1,Camocim/CE,-2.9009918,-40.8427389,2328,3656.86998
D1,Camocim/CE,-2.9009918,-40.8427389,81,127.23646
1,Campanha/MG,-21.8361108,-45.401986,133,798.07981
D1,Campanha/MG,-21.8361108,-45.401986,4,24.00240
1,Campanário/MG,-18.2398144,-41.7271768,15,403.11744
1,Campestre da Serra/RS,-28.7966535,-51.0958149,40,1180.63754
1,Campestre de Goiás/GO,-16.7624179,-49.69497,134,3691.46006
D1,Campestre de Goiás/GO,-16.7624179,-49.69497,2,55.09642
1,Campestre do Maranhão/MA,-6.1729113,-47.3640512,473,3290.66370
D1,Campestre do Maranhão/MA,-6.1729113,-47.3640512,7,48.69904
1,Campestre/AL,-8.8481634,-35.5660033,94,1355.24798
D1,Campestre/AL,-8.8481634,-35.5660033,3,43.25260
1,Campestre/MG,-19.6142116,-43.219378,117,555.68749
D1,Campestre/MG,-19.6142116,-43.219378,4,18.99786
1,Campina Grande do Sul/PR,-25.3046032,-49.0545355,916,2116.05988
D1,Campina Grande do Sul/PR,-25.3046032,-49.0545355,21,48.51229
1,Campina Grande/PB,-7.2246743,-35.8771292,12646,3086.41523
D1,Campina Grande/PB,-7.2246743,-35.8771292,359,87.61846
1,Campina Verde/MG,-19.535277,-49.486389,124,628.00709
D1,Campina Verde/MG,-19.535277,-49.486389,4,20.25829
1,Campina da Lagoa/PR,-24.5937926,-52.8038965,39,274.60921
D1,Campina da Lagoa/PR,-24.5937926,-52.8038965,2,14.08252
1,Campina das Missões/RS,-27.9883295,-54.8411665,34,621.11801
D1,Campina das Missões/RS,-27.9883295,-54.8411665,3,54.80453
1,Campina do Monte Alegre/SP,-23.5935653,-48.4801876,73,1211.81939
1,Campina do Simão/PR,-25.1086375,-51.8076658,5,128.63391
D1,Campina do Simão/PR,-25.1086375,-51.8076658,1,25.72678
1,Campinas do Piauí/PI,-7.6593687,-41.8814875,38,676.99982
D1,Campinas do Piauí/PI,-7.6593687,-41.8814875,1,17.81578
1,Campinas do Sul/RS,-27.7167968,-52.6257885,82,1503.48368
D1,Campinas do Sul/RS,-27.7167968,-52.6257885,2,36.67033
1,Campinas/SP,-22.90556,-47.06083,30545,2536.80632
D1,Campinas/SP,-22.90556,-47.06083,1196,99.32953
1,Campinaçu/GO,-13.7869969,-48.5703841,120,3296.70330
1,Campinorte/GO,-14.3136699,-49.1510931,349,2764.13749
D1,Campinorte/GO,-14.3136699,-49.1510931,8,63.36132
1,Campinápolis/MT,-14.5403731,-52.7970626,405,2534.41802
D1,Campinápolis/MT,-14.5403731,-52.7970626,15,93.86733
1,Campo Alegre de Goiás/GO,-17.6337896,-47.779291,12,158.12360
1,Campo Alegre de Lourdes/BA,-9.5160326,-43.0101338,116,402.80575
D1,Campo Alegre de Lourdes/BA,-9.5160326,-43.0101338,3,10.41739
1,Campo Alegre do Fidalgo/PI,-8.3753852,-41.8364191,14,277.50248
D1,Campo Alegre do Fidalgo/PI,-8.3753852,-41.8364191,1,19.82161
1,Campo Alegre/AL,-9.7798607,-36.3575793,1348,2362.30132
D1,Campo Alegre/AL,-9.7798607,-36.3575793,28,49.06857
1,Campo Alegre/SC,-26.1941684,-49.2657484,168,1402.57138
D1,Campo Alegre/SC,-26.1941684,-49.2657484,5,41.74320
1,Campo Azul/MG,-16.5078525,-44.8133524,8,209.58868
1,Campo Belo do Sul/SC,-27.8987563,-50.7586887,81,1154.50399
D1,Campo Belo do Sul/SC,-27.8987563,-50.7586887,1,14.25314
1,Campo Belo/MG,-20.8975,-45.277223,885,1638.00922
D1,Campo Belo/MG,-20.8975,-45.277223,14,25.91201
1,Campo Bom/RS,-29.674694,-51.060601,2160,3237.79830
D1,Campo Bom/RS,-29.674694,-51.060601,42,62.95719
1,Campo Bonito/PR,-25.0328004,-52.992976,51,1330.55048
1,Campo Erê/SC,-26.3947432,-53.0790495,89,1043.86582
1,Campo Florido/MG,-19.760833,-48.572223,152,1864.80186
1,Campo Formoso/BA,-10.51055,-40.320031,1013,1422.63292
D1,Campo Formoso/BA,-10.51055,-40.320031,12,16.85251
1,Campo Grande do Piauí/PI,-7.1327559,-41.0381164,111,1867.74356
D1,Campo Grande do Piauí/PI,-7.1327559,-41.0381164,1,16.82652
1,Campo Grande/AL,-9.9725,-36.74791447368421,199,2082.02553
D1,Campo Grande/AL,-9.9725,-36.74791447368421,5,52.31220
1,Campo Grande/MS,-20.4640173,-54.6162947,28134,3140.01844
D1,Campo Grande/MS,-20.4640173,-54.6162947,498,55.58147
1,Campo Largo do Piauí/PI,-3.8104731,-42.6288333,220,3022.39319
D1,Campo Largo do Piauí/PI,-3.8104731,-42.6288333,5,68.69075
1,Campo Largo/PR,-25.4597726,-49.5270851,2853,2161.33089
D1,Campo Largo/PR,-25.4597726,-49.5270851,72,54.54463
1,Campo Limpo Paulista/SP,-23.207791,-46.788919,1185,1399.88187
D1,Campo Limpo Paulista/SP,-23.207791,-46.788919,66,77.96810
1,Campo Limpo de Goiás/GO,-16.297101,-49.0894994,21,269.61099
D1,Campo Limpo de Goiás/GO,-16.297101,-49.0894994,2,25.67724
1,Campo Magro/PR,-25.3691533,-49.4496921,500,1705.43693
D1,Campo Magro/PR,-25.3691533,-49.4496921,11,37.51961
1,Campo Maior/PI,-4.8339574,-42.1739786,2290,4889.71452
D1,Campo Maior/PI,-4.8339574,-42.1739786,43,91.81560
1,Campo Mourão/PR,-24.046329,-52.37802,969,1021.51615
D1,Campo Mourão/PR,-24.046329,-52.37802,37,39.00526
1,Campo Novo de Rondônia/RO,-10.5704235,-63.6199511,148,1046.75012
D1,Campo Novo de Rondônia/RO,-10.5704235,-63.6199511,5,35.36318
1,Campo Novo do Parecis/MT,-13.658735,-57.890723,2594,7335.97285
D1,Campo Novo do Parecis/MT,-13.658735,-57.890723,26,73.52941
1,Campo Novo/RS,-28.91500235,-52.331375687737626,19,423.72881
D1,Campo Novo/RS,-28.91500235,-52.331375687737626,1,22.30152
1,Campo Redondo/RN,-6.2420373,-36.1830606,232,2068.28920
D1,Campo Redondo/RN,-6.2420373,-36.1830606,3,26.74512
1,Campo Verde/MT,-15.5430787,-55.1590511,2088,4741.03676
D1,Campo Verde/MT,-15.5430787,-55.1590511,40,90.82446
1,Campo do Brito/SE,-10.7496246,-37.4942276,661,3650.11873
D1,Campo do Brito/SE,-10.7496246,-37.4942276,12,66.26539
1,Campo do Meio/MG,-21.1072006,-45.8301735,58,497.64050
1,Campo do Tenente/PR,-25.9814143,-49.684518,71,890.72889
D1,Campo do Tenente/PR,-25.9814143,-49.684518,3,37.63643
1,Campos Altos/MG,-19.696389,-46.171389,137,886.10051
D1,Campos Altos/MG,-19.696389,-46.171389,6,38.80732
1,Campos Belos/GO,-13.0349839,-46.768112,276,1387.84130
D1,Campos Belos/GO,-13.0349839,-46.768112,5,25.14205
1,Campos Borges/RS,-28.8852198,-52.999098,17,512.04819
1,Campos Gerais/MG,-21.2333342,-45.7584127,106,368.38813
D1,Campos Gerais/MG,-21.2333342,-45.7584127,3,10.42608
1,Campos Lindos/TO,-7.9740597,-46.8023881,268,2649.26849
D1,Campos Lindos/TO,-7.9740597,-46.8023881,2,19.77066
1,Campos Novos Paulista/SP,-22.601952,-49.998726,64,1289.02316
D1,Campos Novos Paulista/SP,-22.601952,-49.998726,1,20.14099
1,Campos Novos/SC,-27.3962904,-51.2224397,1350,3724.75444
D1,Campos Novos/SC,-27.3962904,-51.2224397,15,41.38616
1,Campos Sales/CE,-7.0742675,-40.3740367,364,1327.20776
D1,Campos Sales/CE,-7.0742675,-40.3740367,7,25.52323
1,Campos Verdes/GO,-14.2709062,-49.65746,35,1634.75012
D1,Campos Verdes/GO,-14.2709062,-49.65746,1,46.70715
1,Campos de Júlio/MT,-13.7223646,-59.2645296,384,5572.48585
D1,Campos de Júlio/MT,-13.7223646,-59.2645296,5,72.55841
1,Campos do Jordão/SP,-22.7395263,-45.5912829,697,1338.12010
D1,Campos do Jordão/SP,-22.7395263,-45.5912829,19,36.47673
1,Campos dos Goytacazes/RJ,-21.7558619,-41.3326895,5511,1085.80863
D1,Campos dos Goytacazes/RJ,-21.7558619,-41.3326895,363,71.52033
1,Camutanga/PE,-7.4092965,-35.2738166,153,1789.26441
D1,Camutanga/PE,-7.4092965,-35.2738166,7,81.86177
1,Cana Verde/MG,-21.021308,-45.1817881,86,1534.89202
D1,Cana Verde/MG,-21.021308,-45.1817881,2,35.69516
1,Canabrava do Norte/MT,-11.0516481,-51.8301897,56,1180.68733
D1,Canabrava do Norte/MT,-11.0516481,-51.8301897,2,42.16740
1,Cananéia/SP,-25.0104609,-47.9315628,180,1435.40670
D1,Cananéia/SP,-25.0104609,-47.9315628,7,55.82137
1,Canapi/AL,-9.1173572,-37.6011704,64,361.13305
D1,Canapi/AL,-9.1173572,-37.6011704,3,16.92811
1,Canarana/BA,-11.6870151,-41.7683675,120,458.43521
D1,Canarana/BA,-11.6870151,-41.7683675,1,3.82029
1,Canarana/MT,-13.5564602,-52.2691167,681,3155.84596
D1,Canarana/MT,-13.5564602,-52.2691167,13,60.24376
1,Canas/SP,-22.7029347,-45.0526508,48,934.21565
D1,Canas/SP,-22.7029347,-45.0526508,2,38.92565
1,Canavieira/PI,-7.6924041,-43.7190063,10,253.16456
D1,Canavieira/PI,-7.6924041,-43.7190063,1,25.31646
1,Canavieiras/BA,-15.61621745,-39.08485321304444,215,691.34056
D1,Canavieiras/BA,-15.61621745,-39.08485321304444,12,38.58645
1,Canaã dos Carajás/PA,-6.5296837,-49.8516592,3832,10333.01874
D1,Canaã dos Carajás/PA,-6.5296837,-49.8516592,45,121.34286
1,Canaã/MG,-20.685555,-42.62,1,21.91541
1,Candeal/BA,-11.8053441,-39.1206515,90,1089.85226
1,Candeias do Jamari/RO,-8.7949939,-63.7018851,1392,5214.85034
D1,Candeias do Jamari/RO,-8.7949939,-63.7018851,26,97.40381
1,Candeias/BA,-12.6693806,-38.5406462,2273,2610.36336
D1,Candeias/BA,-12.6693806,-38.5406462,57,65.46006
1,Candeias/MG,-20.7676161,-45.2763777,82,550.85315
D1,Candeias/MG,-20.7676161,-45.2763777,3,20.15316
1,Candelária/RS,-29.668391,-52.789495,149,475.05181
D1,Candelária/RS,-29.668391,-52.789495,3,9.56480
1,Candiba/BA,-14.4125032,-42.8714102,30,209.51184
1,Candiota/RS,-31.5451894,-53.719538,81,845.15860
D1,Candiota/RS,-31.5451894,-53.719538,1,10.43406
1,Candói/PR,-25.5711951,-52.051107,75,469.36604
1,Canela/RS,-29.3624657,-50.8134204,619,1375.61669
D1,Canela/RS,-29.3624657,-50.8134204,20,44.44642
1,Canelinha/SC,-27.2660341,-48.7666708,520,4248.36601
D1,Canelinha/SC,-27.2660341,-48.7666708,8,65.35948
1,Canguaretama/RN,-6.3751942,-35.137463,300,875.24799
D1,Canguaretama/RN,-6.3751942,-35.137463,17,49.59739
1,Canguçu/RS,-31.398276,-52.6773522,191,340.79757
D1,Canguçu/RS,-31.398276,-52.6773522,6,10.70568
1,Canhoba/SE,-10.1373681,-36.9710796,90,2245.50898
1,Canhotinho/PE,-8.876519,-36.197935,397,1600.54830
D1,Canhotinho/PE,-8.876519,-36.197935,15,60.47412
1,Canindé de São Francisco/SE,-9.6597475,-37.7904456,409,1367.89298
D1,Canindé de São Francisco/SE,-9.6597475,-37.7904456,8,26.75585
1,Canindé/CE,-4.3547946,-39.3108516,1923,2497.49990
D1,Canindé/CE,-4.3547946,-39.3108516,74,96.10764
1,Canitar/SP,-23.0066616,-49.7840632,39,747.69939
D1,Canitar/SP,-23.0066616,-49.7840632,1,19.17178
1,Canoas/RS,-29.9216045,-51.1799525,6457,1862.86842
D1,Canoas/RS,-29.9216045,-51.1799525,255,73.56844
1,Canoinhas/SC,-26.176591,-50.395001,532,977.92320
D1,Canoinhas/SC,-26.176591,-50.395001,9,16.54381
1,Cansanção/BA,-10.6671448,-39.498199,161,462.19211
D1,Cansanção/BA,-10.6671448,-39.498199,4,11.48303
1,Cantagalo/PR,-25.3735238,-52.1238114,65,488.09792
D1,Cantagalo/PR,-25.3735238,-52.1238114,1,7.50920
1,Cantagalo/RJ,-21.9811325,-42.3682522,201,996.43070
D1,Cantagalo/RJ,-21.9811325,-42.3682522,2,9.91473
1,Cantanhede/MA,-3.6355005,-44.3778738,381,1732.21187
D1,Cantanhede/MA,-3.6355005,-44.3778738,4,18.18595
1,Canto do Buriti/PI,-8.1112473,-42.944844,319,1505.64025
