type,name,lat,lon,total,total_per_100k_inhabitants
1,Abadia de Goiás/GO,-16.7572644,-49.4412205,692,7724.93860
D1,Abadia de Goiás/GO,-16.7572644,-49.4412205,7,78.14244
1,Abadia dos Dourados/MG,-18.4911191,-47.4063589,104,1484.44191
D1,Abadia dos Dourados/MG,-18.4911191,-47.4063589,1,14.27348
1,Abadiânia/GO,-16.1940946,-48.7067767,177,865.06036
D1,Abadiânia/GO,-16.1940946,-48.7067767,13,63.53551
1,Abaetetuba/PA,-1.721828,-48.878843,3506,2203.92255
D1,Abaetetuba/PA,-1.721828,-48.878843,117,73.54790
1,Abaeté/MG,-19.1566833,-45.4481213,99,425.80645
D1,Abaeté/MG,-19.1566833,-45.4481213,3,12.90323
1,Abaiara/CE,-7.3607808,-39.0487878,110,928.03510
D1,Abaiara/CE,-7.3607808,-39.0487878,3,25.31005
1,Abaré/BA,-8.7239913,-39.1139689,120,589.76753
1,Abatiá/PR,-23.3052967,-50.3102532,92,1241.90065
D1,Abatiá/PR,-23.3052967,-50.3102532,1,13.49892
1,Abaíra/BA,-13.2503296,-41.6640342,102,1171.06774
D1,Abaíra/BA,-13.2503296,-41.6640342,1,11.48106
1,Abdon Batista/SC,-27.612419,-51.022992,144,5651.49137
1,Abel Figueiredo/PA,-4.953001,-48.3958485,409,5463.53193
D1,Abel Figueiredo/PA,-4.953001,-48.3958485,2,26.71654
1,Abelardo Luz/SC,-26.5705893,-52.3280339,499,2778.39644
D1,Abelardo Luz/SC,-26.5705893,-52.3280339,7,38.97550
1,Abre Campo/MG,-20.2976097,-42.4764741,120,892.59149
D1,Abre Campo/MG,-20.2976097,-42.4764741,1,7.43826
1,Abreu e Lima/PE,-7.900719,-34.898389,943,939.74847
D1,Abreu e Lima/PE,-7.900719,-34.898389,125,124.56899
1,Abreulândia/TO,-9.6221526,-49.1558343,94,3623.74711
D1,Abreulândia/TO,-9.6221526,-49.1558343,4,154.20200
1,Acaiaca/MG,-20.3621646,-43.1444162,63,1577.36605
D1,Acaiaca/MG,-20.3621646,-43.1444162,2,50.07511
1,Acajutiba/BA,-11.6609659,-38.0186381,204,1343.25410
D1,Acajutiba/BA,-11.6609659,-38.0186381,5,32.92289
1,Acarape/CE,-4.2237866,-38.7071663,1928,12822.55919
D1,Acarape/CE,-4.2237866,-38.7071663,15,99.76057
1,Acaraú/CE,-2.8869514,-40.1194713,2701,4280.23580
D1,Acaraú/CE,-2.8869514,-40.1194713,58,91.91176
1,Acari/RN,-6.4364689,-36.6394777,151,1357.79157
D1,Acari/RN,-6.4364689,-36.6394777,7,62.94398
1,Acará/PA,-1.961388,-48.1987043,855,1535.86377
D1,Acará/PA,-1.961388,-48.1987043,15,26.94498
1,Acauã/PI,-8.219542,-41.083059,56,788.51028
1,Aceguá/RS,-31.8695131,-54.1615593,21,424.92918
1,Acopiara/CE,-6.0936464,-39.4543204,1300,2386.15297
D1,Acopiara/CE,-6.0936464,-39.4543204,49,89.93961
1,Acorizal/MT,-15.2001544,-56.3668953,198,3712.03600
D1,Acorizal/MT,-15.2001544,-56.3668953,7,131.23360
1,Acrelândia/AC,-10.0759167,-67.0526898,503,3247.25629
D1,Acrelândia/AC,-10.0759167,-67.0526898,11,71.01356
1,Acreúna/GO,-17.3959899,-50.3749031,1003,4448.68269
D1,Acreúna/GO,-17.3959899,-50.3749031,25,110.88441
1,Adamantina/SP,-21.6866517,-51.0762975,502,1429.75136
D1,Adamantina/SP,-21.6866517,-51.0762975,13,37.02543
1,Adelândia/GO,-16.4155077,-50.1665834,87,3457.86963
D1,Adelândia/GO,-16.4155077,-50.1665834,2,79.49126
1,Adolfo/SP,-21.2356597,-49.6441918,134,3770.39955
D1,Adolfo/SP,-21.2356597,-49.6441918,5,140.68655
1,Adrianópolis/PR,-24.6557863,-48.9912769,185,3158.61362
D1,Adrianópolis/PR,-24.6557863,-48.9912769,4,68.29435
1,Adustina/BA,-10.5358875,-38.114479,119,694.84994
D1,Adustina/BA,-10.5358875,-38.114479,2,11.67815
1,Afogados da Ingazeira/PE,-7.750429,-37.6356375,1337,3574.48401
D1,Afogados da Ingazeira/PE,-7.750429,-37.6356375,19,50.79671
1,Afonso Bezerra/RN,-5.4745,-36.57625071327935,173,1568.59189
D1,Afonso Bezerra/RN,-5.4745,-36.57625071327935,11,99.73706
1,Afonso Cláudio/ES,-20.077841,-41.12606,1178,3868.00197
D1,Afonso Cláudio/ES,-20.077841,-41.12606,20,65.67066
1,Afonso Cunha/MA,-4.1326105,-43.3230026,152,2310.73275
D1,Afonso Cunha/MA,-4.1326105,-43.3230026,2,30.40438
1,Afrânio/PE,-8.5198919,-41.0070197,241,1216.55729
D1,Afrânio/PE,-8.5198919,-41.0070197,2,10.09591
1,Afuá/PA,-0.1535664,-50.3879223,2277,5754.79566
D1,Afuá/PA,-0.1535664,-50.3879223,11,27.80095
1,Agrestina/PE,-8.4558021,-35.9442663,602,2401.75544
D1,Agrestina/PE,-8.4558021,-35.9442663,33,131.65769
1,Agricolândia/PI,-5.7967843,-42.6605131,65,1266.80959
1,Agrolândia/SC,-27.4122212,-49.8295774,218,1979.47880
D1,Agrolândia/SC,-27.4122212,-49.8295774,6,54.48107
1,Agronômica/SC,-27.2660744,-49.7104753,124,2250.86223
D1,Agronômica/SC,-27.2660744,-49.7104753,3,54.45634
1,Aguanil/MG,-20.9424533,-45.3927152,97,2145.06855
D1,Aguanil/MG,-20.9424533,-45.3927152,3,66.34233
1,Aguaí/SP,-22.0592036,-46.979384,376,1025.97686
D1,Aguaí/SP,-22.0592036,-46.979384,7,19.10063
1,Agudo/RS,-29.6423259,-53.2494005,89,542.64984
D1,Agudo/RS,-29.6423259,-53.2494005,1,6.09719
1,Agudos do Sul/PR,-25.9890808,-49.3328175,104,1098.20486
D1,Agudos do Sul/PR,-25.9890808,-49.3328175,1,10.55966
1,Agudos/SP,-22.471162,-48.987822,835,2232.56063
D1,Agudos/SP,-22.471162,-48.987822,17,45.45333
1,Aguiar/PB,-7.0928404,-38.1727215,44,781.52753
1,Aguiarnópolis/TO,-6.5600452,-47.4721189,439,6369.70400
D1,Aguiarnópolis/TO,-6.5600452,-47.4721189,9,130.58619
1,Aimorés/MG,-19.4917754,-41.0615603,464,1845.59087
D1,Aimorés/MG,-19.4917754,-41.0615603,8,31.82053
1,Aiquara/BA,-14.126918,-39.8887574,305,6906.70290
D1,Aiquara/BA,-14.126918,-39.8887574,4,90.57971
1,Aiuaba/CE,-6.5710836,-40.1212278,66,377.29377
D1,Aiuaba/CE,-6.5710836,-40.1212278,1,5.71657
1,Aiuruoca/MG,-21.9759554,-44.6036637,20,334.67202
D1,Aiuruoca/MG,-21.9759554,-44.6036637,4,66.93440
1,Ajuricaba/RS,-28.239654,-53.7693013,302,4322.31287
D1,Ajuricaba/RS,-28.239654,-53.7693013,2,28.62459
1,Alagoa Grande/PB,-7.0415212,-35.6285322,1678,5900.34811
D1,Alagoa Grande/PB,-7.0415212,-35.6285322,29,101.97264
1,Alagoa Nova/PB,-7.0653703,-35.76695977336711,408,1950.19359
D1,Alagoa Nova/PB,-7.0653703,-35.76695977336711,10,47.79886
1,Alagoa/MG,-22.1697202,-44.6400042,28,1050.65666
1,Alagoinha do Piauí/PI,-7.0090952,-40.939675,123,1604.69667
D1,Alagoinha do Piauí/PI,-7.0090952,-40.939675,4,52.18526
1,Alagoinha/PB,-6.97063215,-35.51490901897793,1079,7410.71429
D1,Alagoinha/PB,-6.97063215,-35.51490901897793,12,82.41758
1,Alagoinha/PE,-8.50355635,-36.77701174370496,226,1535.53472
D1,Alagoinha/PE,-8.50355635,-36.77701174370496,10,67.94401
1,Alagoinhas/BA,-12.133526,-38.420772,5871,3854.20838
D1,Alagoinhas/BA,-12.133526,-38.420772,88,57.77045
1,Alambari/SP,-23.550338,-47.897971,89,1452.11291
D1,Alambari/SP,-23.550338,-47.897971,4,65.26350
1,Albertina/MG,-20.66164,-43.784039,51,1693.78944
D1,Albertina/MG,-20.66164,-43.784039,4,132.84623
1,Alcantil/PB,-7.7425491,-36.0609604,81,1470.32129
1,Alcinópolis/MS,-18.3264121,-53.7094463,25,461.51006
D1,Alcinópolis/MS,-18.3264121,-53.7094463,2,36.92080
1,Alcobaça/BA,-17.5215875,-39.1965474,741,3294.79769
D1,Alcobaça/BA,-17.5215875,-39.1965474,13,57.80347
1,Alcântara/MA,-2.4038956,-44.4154241,202,913.53111
D1,Alcântara/MA,-2.4038956,-44.4154241,8,36.17945
1,Alcântaras/CE,-3.586247,-40.5457641,551,4677.02232
D1,Alcântaras/CE,-3.586247,-40.5457641,4,33.95298
1,Aldeias Altas/MA,-4.6291957,-43.4708622,943,3524.31140
D1,Aldeias Altas/MA,-4.6291957,-43.4708622,10,37.37340
1,Alecrim/RS,-27.6566142,-54.7653195,22,377.55277
D1,Alecrim/RS,-27.6566142,-54.7653195,1,17.16149
1,Alegre/ES,-20.7625787,-41.5318886,497,1658.04837
D1,Alegre/ES,-20.7625787,-41.5318886,21,70.05838
1,Alegrete do Piauí/PI,-7.2440138,-40.8602296,331,6730.37820
D1,Alegrete do Piauí/PI,-7.2440138,-40.8602296,2,40.66694
1,Alegrete/RS,-29.790166,-55.794862,1428,1955.41436
D1,Alegrete/RS,-29.790166,-55.794862,20,27.38676
1,Alegria/RS,-27.8332103,-54.0574959,81,2400.71132
1,Alenquer/PA,-1.946229,-54.738355,1521,2664.12107
D1,Alenquer/PA,-1.946229,-54.738355,30,52.54677
1,Alexandria/RN,-6.414779,-38.0135516,225,1660.14904
D1,Alexandria/RN,-6.414779,-38.0135516,5,36.89220
1,Alexânia/GO,-16.0834049,-48.5077803,1304,4655.48019
D1,Alexânia/GO,-16.0834049,-48.5077803,21,74.97322
1,Alfenas/MG,-21.4297405,-45.9479419,2174,2700.82242
D1,Alfenas/MG,-21.4297405,-45.9479419,58,72.05506
1,Alfredo Chaves/ES,-20.624970400000002,-40.75006690147988,688,4700.73791
D1,Alfredo Chaves/ES,-20.624970400000002,-40.75006690147988,7,47.82728
1,Alfredo Marcondes/SP,-21.9527,-51.413956,73,1744.74187
D1,Alfredo Marcondes/SP,-21.9527,-51.413956,3,71.70172
1,Alfredo Vasconcelos/MG,-21.145833,-43.776389,18,257.84272
D1,Alfredo Vasconcelos/MG,-21.145833,-43.776389,1,14.32460
1,Alfredo Wagner/SC,-27.6961513,-49.3326734,226,2240.72972
D1,Alfredo Wagner/SC,-27.6961513,-49.3326734,1,9.91473
1,Algodão de Jandaíra/PB,-6.9040175,-36.0089879,31,1202.94917
1,Alhandra/PB,-7.4304246,-34.9106103,722,3659.95843
D1,Alhandra/PB,-7.4304246,-34.9106103,19,96.31470
1,Aliança do Tocantins/TO,-11.3055927,-48.9409096,183,3423.12009
D1,Aliança do Tocantins/TO,-11.3055927,-48.9409096,3,56.11672
1,Aliança/PE,-7.60398,-35.222696,399,1039.14368
D1,Aliança/PE,-7.60398,-35.222696,30,78.13110
1,Almadina/BA,-14.70466,-39.6381994,366,6820.72307
D1,Almadina/BA,-14.70466,-39.6381994,7,130.45099
1,Almas/TO,-11.5681309,-47.1702803,93,1332.56914
D1,Almas/TO,-11.5681309,-47.1702803,2,28.65740
1,Almeirim/PA,-1.5290377,-52.5788111,267,783.54267
D1,Almeirim/PA,-1.5290377,-52.5788111,18,52.82310
1,Almenara/MG,-16.1740678,-40.6904907,938,2225.75517
D1,Almenara/MG,-16.1740678,-40.6904907,11,26.10161
1,Almino Afonso/RN,-6.1544208,-37.7649018,54,1146.49682
1,Almirante Tamandaré do Sul/RS,-28.1141129,-52.9134874,33,1693.17599
1,Almirante Tamandaré/PR,-25.3133048,-49.2997838,2435,2028.47360
D1,Almirante Tamandaré/PR,-25.3133048,-49.2997838,65,54.14817
1,Aloândia/GO,-17.7277983,-49.4809338,139,6998.99295
D1,Aloândia/GO,-17.7277983,-49.4809338,5,251.76234
1,Alpercata/MG,-18.9803616,-41.9827637,194,2608.92953
D1,Alpercata/MG,-18.9803616,-41.9827637,7,94.13663
1,Alpestre/RS,-27.2512339,-53.0349646,61,1005.43926
D1,Alpestre/RS,-27.2512339,-53.0349646,2,32.96522
1,Alpinópolis/MG,-20.863611,-46.387777,136,681.43101
D1,Alpinópolis/MG,-20.863611,-46.387777,4,20.04209
1,Alta Floresta D'Oeste/RO,-11.9296917,-61.9961284,938,4127.06793
D1,Alta Floresta D'Oeste/RO,-11.9296917,-61.9961284,13,57.19817
1,Alta Floresta/MT,-9.8715018,-56.0839881,1621,3119.76751
D1,Alta Floresta/MT,-9.8715018,-56.0839881,26,50.03945
1,Altair/SP,-20.5238955,-49.0606135,51,1218.34687
D1,Altair/SP,-20.5238955,-49.0606135,3,71.66746
1,Altamira do Maranhão/MA,-4.1643006,-45.4674574,274,3345.95189
D1,Altamira do Maranhão/MA,-4.1643006,-45.4674574,6,73.26902
1,Altamira do Paraná/PR,-24.799114,-52.7128633,19,1129.60761
D1,Altamira do Paraná/PR,-24.799114,-52.7128633,2,118.90606
1,Altamira/PA,-3.204065,-52.209961,4912,4235.61469
D1,Altamira/PA,-3.204065,-52.209961,126,108.64973
1,Altaneira/CE,-6.9980933,-39.7385742,156,2039.21569
D1,Altaneira/CE,-6.9980933,-39.7385742,2,26.14379
1,Alterosa/MG,-21.249166,-46.143055,27,185.98884
D1,Alterosa/MG,-21.249166,-46.143055,2,13.77695
1,Altinho/PE,-8.4904095,-36.0607494,536,2332.05708
D1,Altinho/PE,-8.4904095,-36.0607494,11,47.85938
1,Altinópolis/SP,-21.021364,-47.3712,240,1481.20718
D1,Altinópolis/SP,-21.021364,-47.3712,8,49.37357
1,Alto Alegre do Maranhão/MA,-4.2055693,-44.4525287,392,1407.13619
D1,Alto Alegre do Maranhão/MA,-4.2055693,-44.4525287,13,46.66523
1,Alto Alegre do Pindaré/MA,-3.6698186,-45.8462153,1504,4708.38681
D1,Alto Alegre do Pindaré/MA,-3.6698186,-45.8462153,24,75.13383
1,Alto Alegre dos Parecis/RO,-12.1314515,-61.856265,218,1644.66239
D1,Alto Alegre dos Parecis/RO,-12.1314515,-61.856265,9,67.89891
1,Alto Alegre/RR,2.98858,-61.307167,742,4824.44733
D1,Alto Alegre/RR,2.98858,-61.307167,17,110.53316
1,Alto Alegre/RS,-31.780844700000003,-52.81311114489171,16,991.94048
1,Alto Alegre/SP,-21.5820592,-50.1661976,78,1908.02348
D1,Alto Alegre/SP,-21.5820592,-50.1661976,3,73.38552
1,Alto Araguaia/MT,-17.3156528,-53.2169365,432,2228.52721
D1,Alto Araguaia/MT,-17.3156528,-53.2169365,8,41.26902
1,Alto Bela Vista/SC,-27.4320737,-51.905771,32,1661.47456
D1,Alto Bela Vista/SC,-27.4320737,-51.905771,1,51.92108
1,Alto Boa Vista/MT,-11.6723985,-51.3744431,94,1355.24798
D1,Alto Boa Vista/MT,-11.6723985,-51.3744431,3,43.25260
1,Alto Caparaó/MG,-20.4405661,-41.8683799,34,576.85782
D1,Alto Caparaó/MG,-20.4405661,-41.8683799,1,16.96641
1,Alto Feliz/RS,-29.3785943,-51.3123751,43,1416.33729
1,Alto Garças/MT,-16.9469683,-53.529427,292,2403.09440
D1,Alto Garças/MT,-16.9469683,-53.529427,12,98.75730
1,Alto Horizonte/GO,-14.1954948,-49.3366993,204,3088.56927
D1,Alto Horizonte/GO,-14.1954948,-49.3366993,2,30.28009
1,Alto Jequitibá/MG,-20.423611,-41.966111,112,1349.23503
D1,Alto Jequitibá/MG,-20.423611,-41.966111,4,48.18697
1,Alto Longá/PI,-5.2549051,-42.2072388,225,1569.14708
D1,Alto Longá/PI,-5.2549051,-42.2072388,6,41.84392
1,Alto Paraguai/MT,-14.513712,-56.4936374,320,2789.15715
D1,Alto Paraguai/MT,-14.513712,-56.4936374,9,78.44504
1,Alto Paraná/PR,-23.131247,-52.318893,181,1218.11697
D1,Alto Paraná/PR,-23.131247,-52.318893,1,6.72993
1,Alto Paraíso de Goiás/GO,-14.1304779,-47.5100161,318,4136.31634
1,Alto Paraíso/PR,-23.508137,-53.728537,12,446.92737
1,Alto Paraíso/RO,-9.7240103,-63.3188123,390,1785.14212
D1,Alto Paraíso/RO,-9.7240103,-63.3188123,8,36.61830
1,Alto Parnaíba/MA,-9.112506,-45.9310154,394,3514.09204
D1,Alto Parnaíba/MA,-9.112506,-45.9310154,4,35.67606
1,Alto Piquiri/PR,-24.0239021,-53.4417448,122,1247.69892
D1,Alto Piquiri/PR,-24.0239021,-53.4417448,4,40.90816
1,Alto Rio Doce/MG,-21.0239537,-43.4133507,78,718.29819
D1,Alto Rio Doce/MG,-21.0239537,-43.4133507,2,18.41790
1,Alto Rio Novo/ES,-19.0577208,-41.0171518,231,2933.70587
D1,Alto Rio Novo/ES,-19.0577208,-41.0171518,12,152.40030
1,Alto Santo/CE,-5.5190371,-38.2719351,483,2808.79274
D1,Alto Santo/CE,-5.5190371,-38.2719351,13,75.59898
1,Alto Taquari/MT,-17.8269099,-53.2831736,413,3709.69191
D1,Alto Taquari/MT,-17.8269099,-53.2831736,6,53.89383
1,Alto do Rodrigues/RN,-5.290868,-36.7616726,525,3564.63878
D1,Alto do Rodrigues/RN,-5.290868,-36.7616726,18,122.21619
1,Altos/PI,-5.0393915,-42.4611694,1903,4686.61495
D1,Altos/PI,-5.0393915,-42.4611694,29,71.41978
1,Altônia/PR,-23.8722004,-53.894037,213,960.49784
D1,Altônia/PR,-23.8722004,-53.894037,3,13.52814
1,Alumínio/SP,-23.5203479,-47.2575256,294,1566.57963
D1,Alumínio/SP,-23.5203479,-47.2575256,9,47.95652
1,Alvarenga/MG,-19.4175,-41.728334,136,3537.98127
D1,Alvarenga/MG,-19.4175,-41.728334,1,26.01457
1,Alvarães/AM,-3.214786,-64.8143124,1333,8218.24908
D1,Alvarães/AM,-3.214786,-64.8143124,18,110.97411
1,Alvinlândia/SP,-22.4431852,-49.7643596,27,834.10565
1,Alvinópolis/MG,-20.1105199,-43.0601805,76,501.02182
D1,Alvinópolis/MG,-20.1105199,-43.0601805,1,6.59239
1,Alvorada D'Oeste/RO,-11.346271,-62.284697,161,1141.35829
D1,Alvorada D'Oeste/RO,-11.346271,-62.284697,7,49.62427
1,Alvorada de Minas/MG,-18.7318587,-43.3641479,60,1664.35506
D1,Alvorada de Minas/MG,-18.7318587,-43.3641479,1,27.73925
1,Alvorada do Gurguéia/PI,-8.4465288,-43.8655915,76,1395.77594
D1,Alvorada do Gurguéia/PI,-8.4465288,-43.8655915,4,73.46189
1,Alvorada do Norte/GO,-14.483911,-46.4959897,294,3377.36933
D1,Alvorada do Norte/GO,-14.483911,-46.4959897,1,11.48765
1,Alvorada do Sul/PR,-22.7807269,-51.2307721,140,1217.07381
D1,Alvorada do Sul/PR,-22.7807269,-51.2307721,5,43.46692
1,Alvorada/RS,-29.9981184,-51.0772509,5798,2743.29081
D1,Alvorada/RS,-29.9981184,-51.0772509,185,87.53170
1,Alvorada/TO,-12.478465,-49.124926,551,6562.64888
D1,Alvorada/TO,-12.478465,-49.124926,10,119.10434
1,Além Paraíba/MG,-21.8760576,-42.6810473,596,1683.56826
D1,Além Paraíba/MG,-21.8760576,-42.6810473,19,53.67080
1,Amajari/RR,3.6523869,-61.4194315,508,3852.86310
D1,Amajari/RR,3.6523869,-61.4194315,16,121.35002
1,Amambai/MS,-23.1082701,-55.2284854,357,896.39934
D1,Amambai/MS,-23.1082701,-55.2284854,6,15.06554
1,Amaporã/PR,-23.094272,-52.786597,35,552.74795
1,Amapá do Maranhão/MA,-1.6762114,-46.0109669,5,71.37759
1,Amapá/AP,2.0529997,-50.7930003,816,8882.11603
D1,Amapá/AP,2.0529997,-50.7930003,4,43.53978
1,Amaraji/PE,-8.373925,-35.4536527,319,1394.84040
D1,Amaraji/PE,-8.373925,-35.4536527,24,104.94097
1,Amaral Ferrador/RS,-30.8750633,-52.2542051,37,522.23006
D1,Amaral Ferrador/RS,-30.8750633,-52.2542051,1,14.11433
1,Amaralina/GO,-13.9236199,-49.2962411,16,416.12484
1,Amarante do Maranhão/MA,-5.56913,-46.747284,1152,2760.67004
D1,Amarante do Maranhão/MA,-5.56913,-46.747284,27,64.70320
1,Amarante/PI,-6.2459374,-42.8476238,521,2959.55465
D1,Amarante/PI,-6.2459374,-42.8476238,9,51.12474
1,Amargosa/BA,-13.03793715,-39.60796443875596,538,1436.92743
D1,Amargosa/BA,-13.03793715,-39.60796443875596,15,40.06303
1,Amaturá/AM,-3.3640509,-68.1994689,1017,8665.64417
D1,Amaturá/AM,-3.3640509,-68.1994689,10,85.20791
1,Americana/SP,-22.7392463,-47.3306032,5891,2434.11647
D1,Americana/SP,-22.7392463,-47.3306032,176,72.72186
1,Americano do Brasil/GO,-16.2515808,-49.9806104,147,2384.81506
D1,Americano do Brasil/GO,-16.2515808,-49.9806104,3,48.66970
1,Ametista do Sul/RS,-27.3617341,-53.1826575,88,1188.70728
1,Amontada/CE,-3.3634586,-39.8284791,845,1927.94725
D1,Amontada/CE,-3.3634586,-39.8284791,20,45.63189
1,Amorinópolis/GO,-16.6211308,-51.0949921,59,1922.45031
1,Amparo de São Francisco/SE,-10.1299754,-36.9269099,75,3151.26050
D1,Amparo de São Francisco/SE,-10.1299754,-36.9269099,2,84.03361
1,Amparo do Serra/MG,-20.5070255,-42.8028462,13,277.89654
D1,Amparo do Serra/MG,-20.5070255,-42.8028462,1,21.37666
1,Amparo/PB,-7.56394725,-37.04652873235175,20,888.49400
1,Amparo/SP,-22.70111,-46.76444,1314,1807.99978
D1,Amparo/SP,-22.70111,-46.76444,35,48.15829
1,Ampére/PR,-25.9168712,-53.4742414,199,1030.50075
D1,Ampére/PR,-25.9168712,-53.4742414,4,20.71358
1,Amélia Rodrigues/BA,-12.4015388,-38.7516971,616,2459.27819
D1,Amélia Rodrigues/BA,-12.4015388,-38.7516971,12,47.90802
1,América Dourada/BA,-11.4515262,-41.4357517,176,1093.84711
1,Américo Brasiliense/SP,-21.7297099,-48.1052092,853,2078.86528
D1,Américo Brasiliense/SP,-21.7297099,-48.1052092,15,36.55683
1,Américo de Campos/SP,-20.298476,-49.735904,338,5651.22889
D1,Américo de Campos/SP,-20.298476,-49.735904,12,200.63535
1,Anadia/AL,-9.6830208,-36.3052699,509,2904.25653
D1,Anadia/AL,-9.6830208,-36.3052699,8,45.64647
1,Anagé/BA,-14.6134669,-41.1376308,174,805.29458
D1,Anagé/BA,-14.6134669,-41.1376308,4,18.51252
1,Anahy/PR,-24.6450861,-53.1337957,42,1506.45624
1,Anajatuba/MA,-3.26441,-44.6179916,349,1293.16733
D1,Anajatuba/MA,-3.26441,-44.6179916,10,37.05351
1,Anajás/PA,-0.9878802,-49.9390114,660,2223.12045
D1,Anajás/PA,-0.9878802,-49.9390114,11,37.05201
1,Analândia/SP,-22.128917,-47.661939,40,791.13924
D1,Analândia/SP,-22.128917,-47.661939,2,39.55696
1,Anamã/AM,-3.5797356,-61.4049996,921,6599.31212
D1,Anamã/AM,-3.5797356,-61.4049996,1,7.16538
1,Ananindeua/PA,-1.374035,-48.4016623,9430,1760.81651
D1,Ananindeua/PA,-1.374035,-48.4016623,373,69.64842
1,Ananás/TO,-6.3663053,-48.080238,449,4730.29920
D1,Ananás/TO,-6.3663053,-48.080238,11,115.88706
1,Anapu/PA,-3.4668292,-51.2057035,1042,3642.46513
D1,Anapu/PA,-3.4668292,-51.2057035,23,80.39990
1,Anapurus/MA,-3.6751298,-43.1046001,771,4850.88713
D1,Anapurus/MA,-3.6751298,-43.1046001,6,37.75009
1,Anastácio/MS,-20.4832458,-55.8048448,820,3249.19761
D1,Anastácio/MS,-20.4832458,-55.8048448,23,91.13603
1,Anaurilândia/MS,-22.185169,-52.719056,42,462.75892
D1,Anaurilândia/MS,-22.185169,-52.719056,1,11.01807
1,Anchieta/ES,-20.8057672,-40.6454564,1241,4167.36626
D1,Anchieta/ES,-20.8057672,-40.6454564,24,80.59371
1,Anchieta/SC,-26.5350527,-53.3293938,42,755.80349
D1,Anchieta/SC,-26.5350527,-53.3293938,1,17.99532
1,Andaraí/BA,-12.8059674,-41.3322919,49,373.13433
1,Andirá/PR,-23.0494761,-50.2310027,321,1610.96055
D1,Andirá/PR,-23.0494761,-50.2310027,4,20.07427
1,Andorinha/BA,-10.3445708,-39.8334411,132,910.15652
D1,Andorinha/BA,-10.3445708,-39.8334411,2,13.79025
1,Andradas/MG,-22.0680484,-46.5688976,538,1299.64248
D1,Andradas/MG,-22.0680484,-46.5688976,18,43.48246
1,Andradina/SP,-20.896505,-51.3742765,1691,2956.19034
D1,Andradina/SP,-20.896505,-51.3742765,54,94.40229
1,Andrelândia/MG,-21.739722,-44.308889,70,573.48845
1,André da Rocha/RS,-28.6309124,-51.5733328,36,2680.56590
1,Angatuba/SP,-23.4938938,-48.4110675,350,1373.68029
D1,Angatuba/SP,-23.4938938,-48.4110675,9,35.32321
1,Angelim/PE,-8.8902038,-36.2872987,79,703.72350
D1,Angelim/PE,-8.8902038,-36.2872987,3,26.72368
1,Angelina/SC,-27.5805287,-48.9838759,123,2593.29538
1,Angelândia/MG,-17.7253,-42.2728,19,222.04043
1,Angical do Piauí/PI,-6.0872666,-42.7366138,181,2668.43580
D1,Angical do Piauí/PI,-6.0872666,-42.7366138,4,58.97096
1,Angical/BA,-12.005623,-44.7000236,253,1815.18152
D1,Angical/BA,-12.005623,-44.7000236,4,28.69852
1,Angico/TO,-6.3893733,-47.8656722,72,2084.53966
D1,Angico/TO,-6.3893733,-47.8656722,1,28.95194
1,Angicos/RN,-5.6666344,-36.6009064,129,1102.09312
D1,Angicos/RN,-5.6666344,-36.6009064,5,42.71679
1,Angra dos Reis/RJ,-23.0063966,-44.316326,6689,3230.71424
D1,Angra dos Reis/RJ,-23.0063966,-44.316326,215,103.84266
1,Anguera/BA,-12.1509425,-39.2452469,104,920.59839
1,Angélica/MS,-22.1588196,-53.7728504,149,1362.97109
D1,Angélica/MS,-22.1588196,-53.7728504,4,36.58983
1,Anhanguera/GO,-18.3338749,-48.220363,18,1551.72414
D1,Anhanguera/GO,-18.3338749,-48.220363,2,172.41379
1,Anhembi/SP,-22.7891096,-48.1316776,24,351.95777
1,Anhumas/SP,-22.2956478,-51.3873401,99,2388.99614
1,Anicuns/GO,-16.4606451,-49.9572265,828,3766.88959
D1,Anicuns/GO,-16.4606451,-49.9572265,18,81.88890
1,Anita Garibaldi/SC,-27.6855032,-51.1293873,306,4398.44761
D1,Anita Garibaldi/SC,-27.6855032,-51.1293873,1,14.37401
1,Anitápolis/SC,-27.9041185,-49.1287395,62,1920.69393
1,Anori/AM,-3.7435254,-61.6605203,1078,5019.32300
D1,Anori/AM,-3.7435254,-61.6605203,14,65.18601
1,Anta Gorda/RS,-28.9718745,-52.0069187,92,1543.36521
1,Antas/BA,-10.4114649,-38.3308815,456,2340.98260
1,Antonina do Norte/CE,-6.7754187,-39.9879345,57,772.56709
1,Antonina/PR,-25.4298854,-48.7125431,791,4174.36276
D1,Antonina/PR,-25.4298854,-48.7125431,20,105.54647
1,Antônio Almeida/PI,-7.2186016,-44.1950248,238,7507.88644
D1,Antônio Almeida/PI,-7.2186016,-44.1950248,2,63.09148
1,Antônio Cardoso/BA,-12.4363122,-39.1200307,82,702.23516
D1,Antônio Cardoso/BA,-12.4363122,-39.1200307,3,25.69153
1,Antônio Carlos/MG,-21.318334,-43.746666,78,680.68767
D1,Antônio Carlos/MG,-21.318334,-43.746666,2,17.45353
1,Antônio Carlos/SC,-27.5168462,-48.7684715,573,6652.73424
D1,Antônio Carlos/SC,-27.5168462,-48.7684715,12,139.32428
1,Antônio Dias/MG,-19.6525,-42.872778,124,1336.92722
D1,Antônio Dias/MG,-19.6525,-42.872778,4,43.12668
1,Antônio Gonçalves/BA,-10.5715409,-40.2748824,211,1776.39333
D1,Antônio Gonçalves/BA,-10.5715409,-40.2748824,1,8.41893
1,Antônio João/MS,-22.1892837,-55.9508227,74,820.39911
D1,Antônio João/MS,-22.1892837,-55.9508227,1,11.08647
1,Antônio Martins/RN,-6.2155812,-37.8890129,46,642.99692
D1,Antônio Martins/RN,-6.2155812,-37.8890129,1,13.97819
1,Antônio Olinto/PR,-25.9849006,-50.1974516,110,1481.08254
D1,Antônio Olinto/PR,-25.9849006,-50.1974516,1,13.46439
1,Antônio Prado de Minas/MG,-21.0171988,-42.1101106,13,819.15564
D1,Antônio Prado de Minas/MG,-21.0171988,-42.1101106,1,63.01197
1,Antônio Prado/RS,-28.8567806,-51.2801355,741,5680.33729
D1,Antônio Prado/RS,-28.8567806,-51.2801355,11,84.32350
1,Anápolis/GO,-16.3332828,-48.9525756,14325,3656.46345
D1,Anápolis/GO,-16.3332828,-48.9525756,377,96.22944
1,Anísio de Abreu/PI,-9.185643,-43.04941,148,1489.23325
D1,Anísio de Abreu/PI,-9.185643,-43.04941,1,10.06239
1,Aparecida d'Oeste/SP,-20.4498109,-50.8808706,302,7263.10726
D1,Aparecida d'Oeste/SP,-20.4498109,-50.8808706,8,192.40019
1,Aparecida de Goiânia/GO,-16.8226769,-49.2452546,38202,6473.31338
D1,Aparecida de Goiânia/GO,-16.8226769,-49.2452546,562,95.23067
1,Aparecida do Rio Doce/GO,-18.2980167,-51.1491312,103,4163.29830
D1,Aparecida do Rio Doce/GO,-18.2980167,-51.1491312,2,80.84074
1,Aparecida do Rio Negro/TO,-9.9513491,-47.9773786,66,1361.38614
D1,Aparecida do Rio Negro/TO,-9.9513491,-47.9773786,1,20.62706
1,Aparecida do Taboado/MS,-20.0840304,-51.1013943,1073,4115.99985
D1,Aparecida do Taboado/MS,-20.0840304,-51.1013943,20,76.71948
1,Aparecida/PB,-6.7859598, -38.0831353,407,4836.02662
D1,Aparecida/PB,-6.7859598, -38.0831353,6,71.29278
1,Aparecida/SP,-22.851552,-45.2340924,598,1652.61849
D1,Aparecida/SP,-22.851552,-45.2340924,18,49.74437
1,Aperibé/RJ,-21.6211928,-42.1028167,210,1764.55760
D1,Aperibé/RJ,-21.6211928,-42.1028167,7,58.81859
1,Apiacá/ES,-21.152272,-41.569297,208,2753.50808
D1,Apiacá/ES,-21.152272,-41.569297,5,66.19010
1,Apiacás/MT,-9.5678422,-57.394852,65,632.11125
D1,Apiacás/MT,-9.5678422,-57.394852,1,9.72479
1,Apiaí/SP,-24.5076527,-48.8461582,163,672.83084
D1,Apiaí/SP,-24.5076527,-48.8461582,6,24.76678
1,Apicum-Açu/MA,-1.5279295,-45.082278,199,1142.82433
D1,Apicum-Açu/MA,-1.5279295,-45.082278,3,17.22851
1,Apiúna/SC,-27.0374658,-49.3885037,207,1908.18584
D1,Apiúna/SC,-27.0374658,-49.3885037,5,46.09145
1,Apodi/RN,-5.6631109,-37.796927,2773,7729.83219
D1,Apodi/RN,-5.6631109,-37.796927,39,108.71383
1,Aporá/BA,-11.6599747,-38.0794757,231,1298.62829
D1,Aporá/BA,-11.6599747,-38.0794757,6,33.73060
1,Aporé/GO,-18.9642193,-51.92804,142,3355.38752
D1,Aporé/GO,-18.9642193,-51.92804,3,70.88847
1,Apuarema/BA,-13.8517897,-39.7457126,465,6368.11832
D1,Apuarema/BA,-13.8517897,-39.7457126,7,95.86415
1,Apucarana/PR,-23.5525327,-51.4610764,1400,1027.64361
D1,Apucarana/PR,-23.5525327,-51.4610764,52,38.16962
1,Apuiarés/CE,-3.9460303,-39.4313298,252,1717.55725
D1,Apuiarés/CE,-3.9460303,-39.4313298,11,74.97274
1,Apuí/AM,-7.1940195,-59.8830192,338,1511.69551
D1,Apuí/AM,-7.1940195,-59.8830192,4,17.88989
1,Aquidabã/SE,-10.2837579,-37.0188687,717,3307.04303
D1,Aquidabã/SE,-10.2837579,-37.0188687,17,78.40967
1,Aquidauana/MS,-20.473969,-55.7821375,2172,4522.26780
D1,Aquidauana/MS,-20.473969,-55.7821375,64,133.25283
1,Aquiraz/CE,-3.9063117,-38.387504,1170,1445.60450
D1,Aquiraz/CE,-3.9063117,-38.387504,35,43.24458
1,Arabutã/SC,-27.1587028,-52.1438142,85,1992.03187
D1,Arabutã/SC,-27.1587028,-52.1438142,2,46.87134
1,Aracaju/SE,-10.9162061,-37.0774655,40118,6033.61668
D1,Aracaju/SE,-10.9162061,-37.0774655,833,125.28049
1,Aracati/CE,-4.558259,-37.767894,1933,2578.19273
D1,Aracati/CE,-4.558259,-37.767894,53,70.69023
1,Aracatu/BA,-14.4274236,-41.4604105,144,1103.87122
D1,Aracatu/BA,-14.4274236,-41.4604105,1,7.66577
1,Araci/BA,-11.3356065,-38.9573261,1275,2333.11375
D1,Araci/BA,-11.3356065,-38.9573261,15,27.44840
1,Aracitaba/MG,-21.3425,-43.378611,9,437.10539
D1,Aracitaba/MG,-21.3425,-43.378611,1,48.56727
1,Aracoiaba/CE,-4.3702577,-38.8084313,830,3127.94422
D1,Aracoiaba/CE,-4.3702577,-38.8084313,15,56.52911
1,Aracruz/ES,-19.8245218,-40.2735025,5056,4903.92916
D1,Aracruz/ES,-19.8245218,-40.2735025,83,80.50358
1,Aragarças/GO,-15.8957166,-52.2514538,831,4099.04799
D1,Aragarças/GO,-15.8957166,-52.2514538,19,93.72071
1,Aragoiânia/GO,-16.9146388,-49.4499148,412,3925.30488
D1,Aragoiânia/GO,-16.9146388,-49.4499148,4,38.10976
1,Aragominas/TO,-7.1654101,-48.525488,234,4083.05706
D1,Aragominas/TO,-7.1654101,-48.525488,3,52.34689
1,Araguacema/TO,-8.8067391,-49.5560969,57,796.64570
D1,Araguacema/TO,-8.8067391,-49.5560969,1,13.97624
1,Araguaiana/MT,-15.729144,-51.834112,60,1929.88099
D1,Araguaiana/MT,-15.729144,-51.834112,2,64.32937
1,Araguainha/MT,-16.857016,-53.031778,4,422.83298
1,Araguanã/MA,-2.9508403,-45.6651986,548,3523.88914
D1,Araguanã/MA,-2.9508403,-45.6651986,2,12.86091
1,Araguanã/TO,-6.5799107,-48.6428482,173,2986.36285
D1,Araguanã/TO,-6.5799107,-48.6428482,8,138.09770
1,Araguapaz/GO,-15.0937927,-50.626417,195,2505.46062
D1,Araguapaz/GO,-15.0937927,-50.626417,6,77.09110
1,Araguari/MG,-18.6511256,-48.1933764,4644,3941.43857
D1,Araguari/MG,-18.6511256,-48.1933764,103,87.41778
1,Araguatins/TO,-5.6522925,-48.1158973,1025,2833.84020
D1,Araguatins/TO,-5.6522925,-48.1158973,29,80.17694
1,Araguaçu/TO,-12.928934,-49.823134,535,6318.64887
D1,Araguaçu/TO,-12.928934,-49.823134,9,106.29503
1,Araguaína/TO,-7.193241,-48.2018597,16429,8958.94340
D1,Araguaína/TO,-7.193241,-48.2018597,232,126.51256
1,Araioses/MA,-2.890914,-41.904993,589,1259.32736
D1,Araioses/MA,-2.890914,-41.904993,10,21.38077
1,Aral Moreira/MS,-22.951141,-55.6268421,145,1175.80279
D1,Aral Moreira/MS,-22.951141,-55.6268421,3,24.32695
1,Aramari/BA,-12.0907897,-38.4985065,178,1553.09310
D1,Aramari/BA,-12.0907897,-38.4985065,3,26.17573
1,Arambaré/RS,-30.9132252,-51.4994625,34,954.51993
D1,Arambaré/RS,-30.9132252,-51.4994625,1,28.07412
1,Arame/MA,-4.8858769,-46.0102484,951,2902.57600
D1,Arame/MA,-4.8858769,-46.0102484,16,48.83409
1,Aramina/SP,-20.0876144,-47.789201,133,2351.90097
D1,Aramina/SP,-20.0876144,-47.789201,5,88.41733
1,Arandu/SP,-23.1345103,-49.0545651,54,848.38963
D1,Arandu/SP,-23.1345103,-49.0545651,3,47.13276
1,Arantina/MG,-21.911667,-44.255833,22,789.37926
D1,Arantina/MG,-21.911667,-44.255833,1,35.88088
1,Arapeí/SP,-22.6738889,-44.4477778,7,284.55285
D1,Arapeí/SP,-22.6738889,-44.4477778,1,40.65041
1,Arapiraca/AL,-9.754866,-36.661471,12672,5437.52977
D1,Arapiraca/AL,-9.754866,-36.661471,169,72.51756
1,Arapoema/TO,-7.6575001,-49.0641484,140,2116.08222
D1,Arapoema/TO,-7.6575001,-49.0641484,3,45.34462
1,Araponga/MG,-20.666667,-42.520556,6,70.98072
1,Arapongas/PR,-23.415296,-51.42592,3679,2947.68047
D1,Arapongas/PR,-23.415296,-51.42592,114,91.33884
1,Araporã/MG,-18.4318188,-49.188313,975,14067.23417
D1,Araporã/MG,-18.4318188,-49.188313,9,129.85139
1,Arapoti/PR,-24.1457957,-49.8224605,394,1392.22615
D1,Arapoti/PR,-24.1457957,-49.8224605,2,7.06714
1,Araputanga/MT,-15.4710868,-58.346796,586,3457.02318
D1,Araputanga/MT,-15.4710868,-58.346796,7,41.29550
1,Arapuá/MG,-19.034444,-46.155556,36,1269.84127
1,Arapuã/PR,-24.3079525,-51.7901941,49,1628.44799
D1,Arapuã/PR,-24.3079525,-51.7901941,1,33.23363
1,Araquari/SC,-26.3703324,-48.7210994,1081,2735.04706
D1,Araquari/SC,-26.3703324,-48.7210994,16,40.48173
1,Arara/PB,-6.8271895,-35.7605703,240,1772.26407
D1,Arara/PB,-6.8271895,-35.7605703,7,51.69104
1,Araranguá/SC,-28.9348832,-49.4858389,3300,4791.84515
D1,Araranguá/SC,-28.9348832,-49.4858389,51,74.05579
1,Araraquara/SP,-21.7886713,-48.1773096,6211,2605.95203
D1,Araraquara/SP,-21.7886713,-48.1773096,73,30.62864
1,Araras/SP,-22.3569477,-47.3838889,5335,3937.09504
D1,Araras/SP,-22.3569477,-47.3838889,84,61.98987
1,Ararendá/CE,-4.7504395,-40.8303611,261,2381.60416
D1,Ararendá/CE,-4.7504395,-40.8303611,4,36.49968
1,Arari/MA,-3.4547602,-44.7772723,275,918.74916
D1,Arari/MA,-3.4547602,-44.7772723,10,33.40906
1,Araricá/RS,-29.6168543,-50.929121,161,2789.81112
D1,Araricá/RS,-29.6168543,-50.929121,6,103.96812
1,Araripe/CE,-7.212861,-40.1359222,248,1145.28494
D1,Araripe/CE,-7.212861,-40.1359222,4,18.47234
1,Araripina/PE,-7.5768582,-40.5038509,2511,2958.85181
D1,Araripina/PE,-7.5768582,-40.5038509,44,51.84766
1,Araruama/RJ,-22.8733203,-42.3428897,1941,1445.34711
D1,Araruama/RJ,-22.8733203,-42.3428897,80,59.57124
1,Araruna/PB,-6.5321155,-35.7397595,290,1417.19201
D1,Araruna/PB,-6.5321155,-35.7397595,8,39.09495
1,Araruna/PR,-23.9320308,-52.4976047,249,1778.57143
D1,Araruna/PR,-23.9320308,-52.4976047,9,64.28571
1,Arataca/BA,-15.2617424,-39.4122943,259,2362.92309
D1,Arataca/BA,-15.2617424,-39.4122943,9,82.10930
1,Aratiba/RS,-27.3955734,-52.3024325,44,710.93876
D1,Aratiba/RS,-27.3955734,-52.3024325,2,32.31540
1,Aratuba/CE,-4.4195958,-39.0463737,259,2194.54330
D1,Aratuba/CE,-4.4195958,-39.0463737,2,16.94628
1,Aratuípe/BA,-13.077137,-39.0010786,162,1833.20131
D1,Aratuípe/BA,-13.077137,-39.0010786,6,67.89634
1,Araucária/PR,-25.5861107,-49.4051209,6427,4395.61191
D1,Araucária/PR,-25.5861107,-49.4051209,81,55.39825
1,Arauá/SE,-11.2644014,-37.6181058,327,3287.42334
D1,Arauá/SE,-11.2644014,-37.6181058,9,90.47954
1,Araxá/MG,-19.5928536,-46.940241,2747,2559.22934
D1,Araxá/MG,-19.5928536,-46.940241,40,37.26581
1,Araçagi/PB,-6.8519969,-35.3835602,562,3321.31671
D1,Araçagi/PB,-6.8519969,-35.3835602,6,35.45890
1,Araçariguama/SP,-23.438611,-47.061389,439,1920.38495
D1,Araçariguama/SP,-23.438611,-47.061389,9,39.37008
1,Araçatuba/SP,-21.207992,-50.4390225,8112,4094.30220
D1,Araçatuba/SP,-21.207992,-50.4390225,182,91.85934
1,Araçaí/MG,-19.200833,-44.2475,5,212.40442
1,Araçoiaba da Serra/SP,-23.5045367,-47.6168158,692,1989.87808
D1,Araçoiaba da Serra/SP,-23.5045367,-47.6168158,14,40.25765
1,Araçoiaba/PE,-7.7856903,-35.0898881,172,829.59533
D1,Araçoiaba/PE,-7.7856903,-35.0898881,20,96.46457
1,Araçu/GO,-16.3561579,-49.6815269,86,2467.01090
D1,Araçu/GO,-16.3561579,-49.6815269,3,86.05852
1,Araçuaí/MG,-16.8484451,-42.0661868,130,354.10765
D1,Araçuaí/MG,-16.8484451,-42.0661868,2,5.44781
1,Araçás/BA,-12.2139176,-38.2026159,288,2359.10878
D1,Araçás/BA,-12.2139176,-38.2026159,5,40.95675
1,Araújos/MG,-19.948055,-45.165556,89,946.70780
D1,Araújos/MG,-19.948055,-45.165556,1,10.63717
1,Arceburgo/MG,-21.364444,-46.939722,109,1001.56207
D1,Arceburgo/MG,-21.364444,-46.939722,2,18.37729
1,Arco-Íris/SP,-21.7741308,-50.4668814,12,676.81895
1,Arcos/MG,-20.282223,-45.539444,596,1475.97821
D1,Arcos/MG,-20.282223,-45.539444,14,34.67063
1,Arcoverde/PE,-8.415192,-37.057748,2231,2981.74334
D1,Arcoverde/PE,-8.415192,-37.057748,59,78.85381
1,Areado/MG,-21.3582771,-46.1476688,27,177.85390
D1,Areado/MG,-21.3582771,-46.1476688,3,19.76154
1,Areal/RJ,-22.2314922,-43.1056264,295,2328.51843
D1,Areal/RJ,-22.2314922,-43.1056264,9,71.03955
1,Arealva/SP,-22.0301906,-48.9111936,149,1729.94311
D1,Arealva/SP,-22.0301906,-48.9111936,2,23.22071
1,Areia Branca/RN,-4.9506652,-37.1263312,860,3075.05274
D1,Areia Branca/RN,-4.9506652,-37.1263312,52,185.93342
1,Areia Branca/SE,-10.7591455,-37.3148072,785,4201.00610
D1,Areia Branca/SE,-10.7591455,-37.3148072,19,101.68040
1,Areia de Baraúnas/PB,-7.1233949,-36.9446216,13,614.36673
1,Areia/PB,-6.9680243,-35.6994783,539,2379.06073
D1,Areia/PB,-6.9680243,-35.6994783,5,22.06921
1,Areial/PB,-7.0501306,-35.9245244,98,1394.62075
D1,Areial/PB,-7.0501306,-35.9245244,2,28.46165
1,Areias/SP,-22.5800929,-44.6975127,57,1463.03901
1,Areiópolis/SP,-22.6758064,-48.6673653,142,1272.62950
D1,Areiópolis/SP,-22.6758064,-48.6673653,4,35.84872
1,Arenápolis/MT,-14.4610369,-56.8432806,436,4588.50768
D1,Arenápolis/MT,-14.4610369,-56.8432806,6,63.14460
1,Arenópolis/GO,-16.3859286,-51.55937,32,1261.82965
1,Argirita/MG,-21.612761,-42.8371922,76,2810.65089
D1,Argirita/MG,-21.612761,-42.8371922,3,110.94675
1,Aricanduva/MG,-17.8678,-42.5569,3,56.93680
1,Arinos/MG,-15.917223,-46.106111,130,727.80204
D1,Arinos/MG,-15.917223,-46.106111,3,16.79543
1,Aripuanã/MT,-10.175806,-59.4439663,834,3671.74430
D1,Aripuanã/MT,-10.175806,-59.4439663,15,66.03857
1,Ariquemes/RO,-9.9076522,-63.033069,6194,5655.43311
D1,Ariquemes/RO,-9.9076522,-63.033069,104,94.95722
1,Ariranha do Ivaí/PR,-24.3834527,-51.5876772,26,1258.47047
D1,Ariranha do Ivaí/PR,-24.3834527,-51.5876772,1,48.40271
1,Ariranha/SP,-21.18716,-48.790418,186,1905.54246
D1,Ariranha/SP,-21.18716,-48.790418,7,71.71396
1,Armazém/SC,-28.2624996,-49.0190126,398,4543.89771
D1,Armazém/SC,-28.2624996,-49.0190126,5,57.08414
1,Armação dos Búzios/RJ,-22.7597805,-41.8875267,596,1728.68869
D1,Armação dos Búzios/RJ,-22.7597805,-41.8875267,17,49.30823
1,Arneiroz/CE,-6.3235099,-40.1603859,62,790.41305
D1,Arneiroz/CE,-6.3235099,-40.1603859,4,50.99439
1,Aroazes/PI,-6.1108814,-41.7886137,129,2213.83216
D1,Aroazes/PI,-6.1108814,-41.7886137,4,68.64596
1,Aroeiras do Itaim/PI,-7.2797031,-41.5629681,91,3567.22854
D1,Aroeiras do Itaim/PI,-7.2797031,-41.5629681,1,39.20031
1,Aroeiras/PB,-7.5462904,-35.7080002,245,1281.64888
D1,Aroeiras/PB,-7.5462904,-35.7080002,1,5.23122
1,Arraial do Cabo/RJ,-22.9662839,-42.024427,257,840.06145
D1,Arraial do Cabo/RJ,-22.9662839,-42.024427,6,19.61233
1,Arraial/PI,-6.6541632,-42.5335332,62,1313.55932
D1,Arraial/PI,-6.6541632,-42.5335332,1,21.18644
1,Arraias/TO,-12.9287788,-46.9437231,151,1433.45358
1,Arroio Grande/RS,-32.2384246,-53.0866661,152,833.42472
D1,Arroio Grande/RS,-32.2384246,-53.0866661,2,10.96611
1,Arroio Trinta/SC,-26.9301976,-51.334928,113,3183.99549
1,Arroio do Meio/RS,-29.4020392,-51.9444993,677,3228.88348
D1,Arroio do Meio/RS,-29.4020392,-51.9444993,2,9.53880
1,Arroio do Padre/RS,-31.4428773,-52.4228985,21,711.62318
1,Arroio do Sal/RS,-29.549852,-49.8874395,166,1614.94309
D1,Arroio do Sal/RS,-29.549852,-49.8874395,5,48.64286
1,Arroio do Tigre/RS,-29.334158,-53.0888935,51,380.22814
D1,Arroio do Tigre/RS,-29.334158,-53.0888935,1,7.45545
1,Arroio dos Ratos/RS,-30.0894524,-51.7265541,229,1615.29237
D1,Arroio dos Ratos/RS,-30.0894524,-51.7265541,13,91.69782
1,Artur Nogueira/SP,-22.572737,-47.172679,1254,2265.99205
D1,Artur Nogueira/SP,-22.572737,-47.172679,30,54.21034
1,Aruanã/GO,-14.9162439,-51.0715692,159,1572.70030
D1,Aruanã/GO,-14.9162439,-51.0715692,1,9.89120
1,Arujá/SP,-23.396266,-46.3175449,2439,2675.60363
D1,Arujá/SP,-23.396266,-46.3175449,97,106.40982
1,Arvoredo/SC,-27.0752908,-52.4571847,73,3267.68129
D1,Arvoredo/SC,-27.0752908,-52.4571847,1,44.76276
1,Arvorezinha/RS,-28.87369,-52.17808,198,1899.64502
D1,Arvorezinha/RS,-28.87369,-52.17808,5,47.97083
1,Arês/RN,-6.1969216,-35.1642968,249,1727.12770
D1,Arês/RN,-6.1969216,-35.1642968,9,62.42630
1,Ascurra/SC,-26.9569975,-49.3767752,220,2757.58335
D1,Ascurra/SC,-26.9569975,-49.3767752,2,25.06894
1,Aspásia/SP,-20.160028,-50.728046,49,2695.26953
D1,Aspásia/SP,-20.160028,-50.728046,2,110.01100
1,Assaré/CE,-6.8746791,-39.8741385,579,2466.13851
D1,Assaré/CE,-6.8746791,-39.8741385,8,34.07445
1,Assaí/PR,-23.3736041,-50.8454929,368,2460.88003
D1,Assaí/PR,-23.3736041,-50.8454929,12,80.24609
1,Assis Brasil/AC,-10.9409203,-69.5672108,731,9702.68118
D1,Assis Brasil/AC,-10.9409203,-69.5672108,9,119.45846
1,Assis Chateaubriand/PR,-24.4054826,-53.5120468,627,1880.62388
D1,Assis Chateaubriand/PR,-24.4054826,-53.5120468,8,23.99520
1,Assis/SP,-22.6620892,-50.420623,1703,1620.56201
D1,Assis/SP,-22.6620892,-50.420623,28,26.64459
1,Assunção do Piauí/PI,-5.8610212,-41.0485091,135,1716.90195
D1,Assunção do Piauí/PI,-5.8610212,-41.0485091,2,25.43558
1,Assunção/PB,-7.073396,-36.7274003,47,1166.54257
1,Astolfo Dutra/MG,-21.3132636,-42.8624102,253,1772.95025
D1,Astolfo Dutra/MG,-21.3132636,-42.8624102,4,28.03083
1,Astorga/PR,-23.2350184,-51.6647074,559,2132.85513
D1,Astorga/PR,-23.2350184,-51.6647074,9,34.33935
1,Atalaia do Norte/AM,-4.3658547,-70.1908742,1468,7196.78400
D1,Atalaia do Norte/AM,-4.3658547,-70.1908742,4,19.60977
1,Atalaia/AL,-9.5029595,-36.0219316,631,1332.20733
D1,Atalaia/AL,-9.5029595,-36.0219316,23,48.55906
1,Atalaia/PR,-23.1513833,-52.0529697,99,2550.88895
D1,Atalaia/PR,-23.1513833,-52.0529697,3,77.29967
1,Atalanta/SC,-27.421916,-49.778863,55,1721.43975
1,Ataléia/MG,-18.04432,-41.1110524,189,1490.77142
D1,Ataléia/MG,-18.04432,-41.1110524,4,31.55072
1,Atibaia/SP,-23.1177393,-46.5547861,2581,1791.26645
D1,Atibaia/SP,-23.1177393,-46.5547861,66,45.80534
1,Atilio Vivacqua/ES,-20.9139369,-41.1947519,399,3296.15861
D1,Atilio Vivacqua/ES,-20.9139369,-41.1947519,9,74.34944
1,Augustinópolis/TO,-5.4662267,-47.8897519,727,3899.58698
D1,Augustinópolis/TO,-5.4662267,-47.8897519,10,53.63944
1,Augusto Corrêa/PA,-1.0229335,-46.6404029,1401,3014.78341
D1,Augusto Corrêa/PA,-1.0229335,-46.6404029,21,45.18947
1,Augusto Pestana/RS,-28.5148413,-53.9906433,53,802.78703
D1,Augusto Pestana/RS,-28.5148413,-53.9906433,1,15.14693
1,Augusto de Lima/MG,-18.1092963,-44.2651945,40,824.57225
1,Aurelino Leal/BA,-14.3167137,-39.3256107,488,4318.96628
D1,Aurelino Leal/BA,-14.3167137,-39.3256107,11,97.35375
1,Auriflama/SP,-20.6840418,-50.5554616,538,3527.17498
D1,Auriflama/SP,-20.6840418,-50.5554616,14,91.78522
1,Aurilândia/GO,-16.6772599,-50.4641231,65,2125.57227
D1,Aurilândia/GO,-16.6772599,-50.4641231,1,32.70111
1,Aurora do Pará/PA,-2.1323199,-47.558436,682,2146.47657
D1,Aurora do Pará/PA,-2.1323199,-47.558436,8,25.17861
1,Aurora do Tocantins/TO,-12.71045,-46.407604,57,1506.74068
1,Aurora/CE,-6.9426019,-38.9693765,628,2551.80821
D1,Aurora/CE,-6.9426019,-38.9693765,20,81.26778
1,Aurora/SC,-27.3166417,-49.6368502,110,1935.59740
D1,Aurora/SC,-27.3166417,-49.6368502,1,17.59634
1,Autazes/AM,-3.5833283,-59.1301518,1442,3579.05187
D1,Autazes/AM,-3.5833283,-59.1301518,37,91.83420
1,Avanhandava/SP,-21.4603331,-49.9465156,251,1811.09748
D1,Avanhandava/SP,-21.4603331,-49.9465156,8,57.72422
1,Avaré/SP,-23.1045215,-48.9259103,962,1054.45458
D1,Avaré/SP,-23.1045215,-48.9259103,20,21.92213
1,Avaí/SP,-22.1564662,-49.3316395,119,2189.10964
D1,Avaí/SP,-22.1564662,-49.3316395,3,55.18764
1,Aveiro/PA,-3.6049239,-55.3310742,447,2724.94514
D1,Aveiro/PA,-3.6049239,-55.3310742,5,30.48037
1,Avelino Lopes/PI,-10.1346855,-43.9489525,74,653.36394
D1,Avelino Lopes/PI,-10.1346855,-43.9489525,7,61.80470
1,Avelinópolis/GO,-16.4672409,-49.7578661,110,4566.21005
D1,Avelinópolis/GO,-16.4672409,-49.7578661,1,41.51100
1,Axixá do Tocantins/TO,-5.612747,-47.77007,523,5343.82344
D1,Axixá do Tocantins/TO,-5.612747,-47.77007,4,40.87054
1,Axixá/MA,-2.8379465,-44.0561053,142,1165.55857
D1,Axixá/MA,-2.8379465,-44.0561053,3,24.62448
1,Açailândia/MA,-4.9514278,-47.4844564,3579,3163.86878
D1,Açailândia/MA,-4.9514278,-47.4844564,94,83.09686
1,Açu/RN,-5.5836157,-36.9139541,1862,3189.22993
D1,Açu/RN,-5.5836157,-36.9139541,73,125.03426
1,Açucena/MG,-19.073056,-42.546666,118,1259.60717
D1,Açucena/MG,-19.073056,-42.546666,4,42.69855
1,Babaçulândia/TO,-7.2034355,-47.761613,418,3918.99494
D1,Babaçulândia/TO,-7.2034355,-47.761613,4,37.50234
1,Bacabal/MA,-4.2318132,-44.781167,3556,3393.45357
D1,Bacabal/MA,-4.2318132,-44.781167,68,64.89169
1,Bacabeira/MA,-2.9775747,-44.3155943,154,892.65013
D1,Bacabeira/MA,-2.9775747,-44.3155943,3,17.38929
1,Bacuri/MA,-1.728894,-45.1417148,425,2278.33173
D1,Bacuri/MA,-1.728894,-45.1417148,3,16.08234
1,Bacurituba/MA,-2.7082587,-44.7381309,70,1234.56790
1,Bady Bassitt/SP,-20.9178969,-49.4517911,1024,5765.44114
D1,Bady Bassitt/SP,-20.9178969,-49.4517911,22,123.86690
1,Baependi/MG,-21.959162,-44.8899249,166,864.62837
D1,Baependi/MG,-21.959162,-44.8899249,6,31.25163
1,Bagre/PA,-1.8994498,-50.2103844,439,1401.43655
D1,Bagre/PA,-1.8994498,-50.2103844,10,31.92338
1,Bagé/RS,-31.3314264,-54.1062808,1739,1433.22207
D1,Bagé/RS,-31.3314264,-54.1062808,21,17.30745
1,Baianópolis/BA,-12.3067564,-44.5383591,154,1105.60701
D1,Baianópolis/BA,-12.3067564,-44.5383591,2,14.35853
1,Baixa Grande do Ribeiro/PI,-7.862861,-45.2113289,1442,12355.41085
D1,Baixa Grande do Ribeiro/PI,-7.862861,-45.2113289,13,111.38720
1,Baixa Grande/BA,-11.9630941,-40.1657537,82,400.99760
D1,Baixa Grande/BA,-11.9630941,-40.1657537,2,9.78043
1,Baixio/CE,-6.7303544,-38.7170095,109,1729.33524
D1,Baixio/CE,-6.7303544,-38.7170095,3,47.59638
1,Baixo Guandu/ES,-19.5138322,-41.0182089,1065,3420.91738
D1,Baixo Guandu/ES,-19.5138322,-41.0182089,22,70.66684
1,Baião/PA,-2.7903479,-49.6702845,416,858.45767
D1,Baião/PA,-2.7903479,-49.6702845,15,30.95400
1,Balbinos/SP,-21.9006253,-49.3583966,253,4263.56589
D1,Balbinos/SP,-21.9006253,-49.3583966,3,50.55612
1,Baldim/MG,-19.2913568,-43.9558262,110,1409.71421
D1,Baldim/MG,-19.2913568,-43.9558262,5,64.07792
1,Baliza/GO,-16.1978119,-52.542789,36,681.81818
1,Balneário Arroio do Silva/SC,-28.9815269,-49.4189932,583,4341.02755
D1,Balneário Arroio do Silva/SC,-28.9815269,-49.4189932,8,59.56813
1,Balneário Barra do Sul/SC,-26.459842,-48.6061471,527,4775.71364
D1,Balneário Barra do Sul/SC,-26.459842,-48.6061471,8,72.49660
1,Balneário Camboriú/SC,-26.9924395,-48.6339782,10757,7378.11737
D1,Balneário Camboriú/SC,-26.9924395,-48.6339782,102,69.96077
1,Balneário Gaivota/SC,-29.1553098,-49.5808712,357,3170.51510
D1,Balneário Gaivota/SC,-29.1553098,-49.5808712,8,71.04796
1,Balneário Pinhal/RS,-30.2482978,-50.234585,321,2234.90914
D1,Balneário Pinhal/RS,-30.2482978,-50.234585,5,34.81167
1,Balneário Piçarras/SC,-26.7638889,-48.6716667,1236,5199.39425
D1,Balneário Piçarras/SC,-26.7638889,-48.6716667,10,42.06630
1,Balneário Rincão/SC,-28.8235718,-49.2241642,481,3715.43334
D1,Balneário Rincão/SC,-28.8235718,-49.2241642,10,77.24394
1,Balsa Nova/PR,-25.5842234,-49.6312741,280,2138.71066
D1,Balsa Nova/PR,-25.5842234,-49.6312741,8,61.10602
1,Balsas/MA,-7.53214,-46.037163,6600,6880.08840
D1,Balsas/MA,-7.53214,-46.037163,82,85.47989
1,Bambuí/MG,-20.0131996,-45.9777034,86,359.86275
D1,Bambuí/MG,-20.0131996,-45.9777034,1,4.18445
1,Banabuiú/CE,-5.3046404,-38.919766,600,3286.59071
D1,Banabuiú/CE,-5.3046404,-38.919766,4,21.91060
1,Bananal/SP,-22.6828195,-44.3221095,147,1337.21459
D1,Bananal/SP,-22.6828195,-44.3221095,1,9.09670
1,Bananeiras/PB,-6.7537682,-35.6338343,474,2228.59561
D1,Bananeiras/PB,-6.7537682,-35.6338343,2,9.40336
1,Bandeira do Sul/MG,-21.728056,-46.385555,54,934.57944
D1,Bandeira do Sul/MG,-21.728056,-46.385555,1,17.30703
1,Bandeira/MG,-15.884444,-40.559167,199,4175.40915
D1,Bandeira/MG,-15.884444,-40.559167,1,20.98196
1,Bandeirante/SC,-26.7677402,-53.6397596,19,717.52266
1,Bandeirantes do Tocantins/TO,-7.7635698,-48.579148,85,2366.36971
D1,Bandeirantes do Tocantins/TO,-7.7635698,-48.579148,1,27.83964
1,Bandeirantes/MS,-19.9179623,-54.3646768,86,1183.59483
D1,Bandeirantes/MS,-19.9179623,-54.3646768,1,13.76273
1,Bandeirantes/PR,-23.107788,-50.370407,1081,3463.52248
D1,Bandeirantes/PR,-23.107788,-50.370407,38,121.75195
1,Bannach/PA,-7.3508505,-50.4064531,112,3433.47639
D1,Bannach/PA,-7.3508505,-50.4064531,2,61.31208
1,Banzaê/BA,-10.5827616,-38.6122305,584,4410.87613
D1,Banzaê/BA,-10.5827616,-38.6122305,2,15.10574
1,Baraúna/PB,-6.643394,-36.2531932,143,2880.74134
1,Baraúna/RN,-5.0775002,-37.61752,550,1913.24312
D1,Baraúna/RN,-5.0775002,-37.61752,14,48.70073
1,Barbacena/MG,-21.2254524,-43.7735087,1228,888.54158
D1,Barbacena/MG,-21.2254524,-43.7735087,22,15.91850
1,Barbalha/CE,-7.3121067,-39.3036427,2263,3696.02143
D1,Barbalha/CE,-7.3121067,-39.3036427,57,93.09466
1,Barbosa Ferraz/PR,-24.0287182,-52.00811,198,1732.88990
D1,Barbosa Ferraz/PR,-24.0287182,-52.00811,4,35.00788
1,Barbosa/SP,-21.265661,-49.951816,129,1727.37011
D1,Barbosa/SP,-21.265661,-49.951816,1,13.39047
1,Barcarena/PA,-1.5107945,-48.6190679,4521,3559.08586
D1,Barcarena/PA,-1.5107945,-48.6190679,115,90.53193
1,Barcelona/RN,-5.9514918,-35.9260284,36,901.35203
D1,Barcelona/RN,-5.9514918,-35.9260284,3,75.11267
1,Barcelos/AM,-0.9729214,-62.925635,2823,10214.19784
D1,Barcelos/AM,-0.9729214,-62.925635,27,97.69158
1,Bariri/SP,-22.0746355,-48.7394852,1152,3239.77727
D1,Bariri/SP,-22.0746355,-48.7394852,29,81.55689
1,Barra Bonita/SC,-26.6526364,-53.4419581,5,302.84676
1,Barra Bonita/SP,-22.490859,-48.558349,1082,2995.07280
D1,Barra Bonita/SP,-22.490859,-48.558349,25,69.20224
1,Barra D'Alcântara/PI,-6.5209258,-42.1071089,19,480.76923
D1,Barra D'Alcântara/PI,-6.5209258,-42.1071089,1,25.30364
1,Barra Funda/RS,-27.9230048,-53.0401045,132,5174.44140
D1,Barra Funda/RS,-27.9230048,-53.0401045,3,117.60094
1,Barra Longa/MG,-20.2833541,-43.0423516,91,1814.55633
1,Barra Mansa/RJ,-22.5394843,-44.1735129,4093,2214.43141
D1,Barra Mansa/RJ,-22.5394843,-44.1735129,185,100.09035
1,Barra Velha/SC,-26.6338203,-48.6835001,1185,3968.51976
D1,Barra Velha/SC,-26.6338203,-48.6835001,19,63.63027
1,Barra da Estiva/BA,-13.6269662,-41.3278287,165,809.14084
1,Barra de Guabiraba/PE,-8.4173522,-35.6626669,196,1350.79256
D1,Barra de Guabiraba/PE,-8.4173522,-35.6626669,11,75.80979
1,Barra de Santa Rosa/PB,-6.7218007,-36.0564638,133,858.23063
D1,Barra de Santa Rosa/PB,-6.7218007,-36.0564638,1,6.45286
1,Barra de Santana/PB,-7.5230865,-35.9988518,103,1233.68068
D1,Barra de Santana/PB,-7.5230865,-35.9988518,2,23.95496
1,Barra de Santo Antônio/AL,-9.4038098,-35.5117693,136,846.40279
D1,Barra de Santo Antônio/AL,-9.4038098,-35.5117693,14,87.12970
1,Barra de São Francisco/ES,-18.7570902,-40.8916119,1153,2563.41848
D1,Barra de São Francisco/ES,-18.7570902,-40.8916119,41,91.15365
1,Barra de São Miguel/AL,-9.8261357,-35.8837777,163,1945.57174
D1,Barra de São Miguel/AL,-9.8261357,-35.8837777,5,59.68011
1,Barra de São Miguel/PB,-7.7528088,-36.3170996,77,1269.57955
D1,Barra de São Miguel/PB,-7.7528088,-36.3170996,1,16.48805
1,Barra do Bugres/MT,-15.0683712,-57.1853688,1094,3098.53570
D1,Barra do Bugres/MT,-15.0683712,-57.1853688,22,62.31059
1,Barra do Chapéu/SP,-24.472203,-49.023784,51,885.41667
1,Barra do Choça/BA,-14.8638173,-40.5761637,564,1807.17101
D1,Barra do Choça/BA,-14.8638173,-40.5761637,6,19.22522
1,Barra do Corda/MA,-5.496823,-45.248496,4073,4602.67595
D1,Barra do Corda/MA,-5.496823,-45.248496,45,50.85205
1,Barra do Garças/MT,-15.8916033,-52.2615413,2672,4370.65511
D1,Barra do Garças/MT,-15.8916033,-52.2615413,116,189.74401
1,Barra do Guarita/RS,-27.1888016,-53.7147086,62,1903.59226
1,Barra do Jacaré/PR,-23.1151788,-50.1813945,27,970.87379
1,Barra do Mendes/BA,-11.8053298,-42.057037,51,368.68358
1,Barra do Ouro/TO,-7.7113784,-47.6743925,79,1705.52677
D1,Barra do Ouro/TO,-7.7113784,-47.6743925,5,107.94473
1,Barra do Piraí/RJ,-22.4703403,-43.8263256,1337,1326.86277
D1,Barra do Piraí/RJ,-22.4703403,-43.8263256,67,66.49200
1,Barra do Quaraí/RS,-30.208947,-57.5505128,116,2744.26307
D1,Barra do Quaraí/RS,-30.208947,-57.5505128,1,23.65744
1,Barra do Ribeiro/RS,-30.2930206,-51.301437,191,1408.97020
D1,Barra do Ribeiro/RS,-30.2930206,-51.301437,16,118.02892
1,Barra do Rio Azul/RS,-27.4101581,-52.4117471,17,1027.19033
1,Barra do Rocha/BA,-14.2090974,-39.6004395,125,2227.36992
D1,Barra do Rocha/BA,-14.2090974,-39.6004395,1,17.81896
1,Barra do Turvo/SP,-24.756421,-48.5056942,179,2345.38784
D1,Barra do Turvo/SP,-24.756421,-48.5056942,5,65.51363
1,Barra dos Coqueiros/SE,-10.9075694,-37.0386249,1469,4749.43421
D1,Barra dos Coqueiros/SE,-10.9075694,-37.0386249,27,87.29389
1,Barra/BA,-11.0892702,-43.1420453,447,829.15971
D1,Barra/BA,-11.0892702,-43.1420453,8,14.83955
1,Barracão/PR,-26.252395,-53.6349576,119,1153.99535
D1,Barracão/PR,-26.252395,-53.6349576,2,19.39488
1,Barracão/RS,-27.6728964,-51.4582928,89,1693.30289
D1,Barracão/RS,-27.6728964,-51.4582928,3,57.07763
1,Barras/PI,-4.2446153,-42.2920241,2991,6338.87888
D1,Barras/PI,-4.2446153,-42.2920241,57,120.80110
1,Barreira/CE,-4.2883361,-38.641094,354,1568.24525
D1,Barreira/CE,-4.2883361,-38.641094,19,84.17136
1,Barreiras do Piauí/PI,-9.9224524,-45.4763776,32,954.65394
D1,Barreiras do Piauí/PI,-9.9224524,-45.4763776,1,29.83294
1,Barreiras/BA,-12.1440031,-44.9967406,6074,3869.40596
D1,Barreiras/BA,-12.1440031,-44.9967406,96,61.15624
1,Barreirinha/AM,-2.798863,-57.067897,1375,4232.98341
D1,Barreirinha/AM,-2.798863,-57.067897,25,76.96333
1,Barreirinhas/MA,-2.7541271,-42.8259693,1295,2048.49961
D1,Barreirinhas/MA,-2.7541271,-42.8259693,24,37.96447
1,Barreiros/PE,-8.8159644,-35.1831905,346,809.09176
D1,Barreiros/PE,-8.8159644,-35.1831905,41,95.87504
1,Barretos/SP,-20.5531437,-48.5697509,5522,4495.53459
D1,Barretos/SP,-20.5531437,-48.5697509,152,123.74525
1,Barrinha/SP,-21.1898849,-48.1550642,786,2368.89693
D1,Barrinha/SP,-21.1898849,-48.1550642,32,96.44364
1,Barro Alto/BA,-11.7618025,-41.9094904,158,1049.55494
D1,Barro Alto/BA,-11.7618025,-41.9094904,1,6.64275
1,Barro Alto/GO,-14.9696025,-48.9190985,584,5119.21459
D1,Barro Alto/GO,-14.9696025,-48.9190985,7,61.36045
1,Barro Duro/PI,-5.8180139,-42.5106589,457,6503.48655
D1,Barro Duro/PI,-5.8180139,-42.5106589,7,99.61577
1,Barro Preto/BA,-14.8068289,-39.4727588,279,5121.14537
D1,Barro Preto/BA,-14.8068289,-39.4727588,6,110.13216
1,Barro/CE,-7.1713587,-38.7742136,419,1841.11082
D1,Barro/CE,-7.1713587,-38.7742136,9,39.54653
1,Barrocas/BA,-11.5165,-39.099282894736845,176,1092.82831
1,Barrolândia/TO,-9.837246,-48.7264346,231,4087.77208
D1,Barrolândia/TO,-9.837246,-48.7264346,4,70.78393
1,Barroquinha/CE,-3.0200371,-41.1339229,803,5337.67615
D1,Barroquinha/CE,-3.0200371,-41.1339229,20,132.94337
1,Barros Cassal/RS,-29.094938,-52.5832366,61,545.51959
D1,Barros Cassal/RS,-29.094938,-52.5832366,1,8.94294
1,Barroso/MG,-21.187222,-43.976111,199,952.28980
D1,Barroso/MG,-21.187222,-43.976111,2,9.57075
1,Barueri/SP,-23.5112184,-46.8764612,8618,3111.39352
D1,Barueri/SP,-23.5112184,-46.8764612,405,146.21889
1,Barão de Antonina/SP,-23.6295651,-49.5632104,25,714.69411
D1,Barão de Antonina/SP,-23.6295651,-49.5632104,1,28.58776
1,Barão de Cocais/MG,-19.9452437,-43.4870298,863,2625.81391
D1,Barão de Cocais/MG,-19.9452437,-43.4870298,6,18.25595
1,Barão de Cotegipe/RS,-27.6214694,-52.3765316,176,2658.61027
D1,Barão de Cotegipe/RS,-27.6214694,-52.3765316,3,45.31722
1,Barão de Grajaú/MA,-6.7542591,-43.0263477,19,100.40161
D1,Barão de Grajaú/MA,-6.7542591,-43.0263477,1,5.28430
1,Barão de Melgaço/MT,-16.195776,-55.9668049,133,1629.10338
D1,Barão de Melgaço/MT,-16.195776,-55.9668049,6,73.49339
1,Barão de Monte Alto/MG,-21.244722,-42.2375,65,1214.04557
D1,Barão de Monte Alto/MG,-21.244722,-42.2375,3,56.03287
1,Barão do Triunfo/RS,-30.3909877,-51.7375349,128,1702.35404
D1,Barão do Triunfo/RS,-30.3909877,-51.7375349,1,13.29964
1,Barão/RS,-29.372474,-51.494908,102,1644.63076
D1,Barão/RS,-29.372474,-51.494908,2,32.24766
1,Bastos/SP,-21.9222474,-50.7317727,190,906.79139
D1,Bastos/SP,-21.9222474,-50.7317727,6,28.63552
1,Bataguassu/MS,-21.715899,-52.422058,941,4034.29796
D1,Bataguassu/MS,-21.715899,-52.422058,7,30.01072
1,Batalha/AL,-9.6733809,-37.1265481,608,3315.51969
D1,Batalha/AL,-9.6733809,-37.1265481,11,59.98473
1,Batalha/PI,-4.022391,-42.0780926,446,1657.68445
D1,Batalha/PI,-4.022391,-42.0780926,10,37.16781
1,Batatais/SP,-20.892867,-47.592149,803,1275.00794
D1,Batatais/SP,-20.892867,-47.592149,23,36.51953
1,Batayporã/MS,-22.2976466,-53.2685608,248,2185.21456
D1,Batayporã/MS,-22.2976466,-53.2685608,5,44.05675
1,Baturité/CE,-4.3290203,-38.8821055,630,1752.87276
D1,Baturité/CE,-4.3290203,-38.8821055,32,89.03481
1,Bauru/SP,-22.3218102,-49.0705863,15278,4027.97808
D1,Bauru/SP,-22.3218102,-49.0705863,261,68.81151
1,Bayeux/PB,-7.1301631,-34.936532,2465,2535.92996
D1,Bayeux/PB,-7.1301631,-34.936532,121,124.48175
1,Baía Formosa/RN,-6.3691885,-35.0063741,189,2027.46192
D1,Baía Formosa/RN,-6.3691885,-35.0063741,6,64.36387
1,Baía da Traição/PB,-6.691258,-34.9371244,832,9146.87775
D1,Baía da Traição/PB,-6.691258,-34.9371244,7,76.95690
1,Bebedouro/SP,-20.949077,-48.479083,1508,1944.42654
D1,Bebedouro/SP,-20.949077,-48.479083,33,42.55045
1,Beberibe/CE,-4.1810469,-38.1298101,962,1783.16558
D1,Beberibe/CE,-4.1810469,-38.1298101,30,55.60807
1,Bela Cruz/CE,-3.0529129,-40.167582,1258,3844.50828
D1,Bela Cruz/CE,-3.0529129,-40.167582,24,73.34515
1,Bela Vista da Caroba/PR,-25.8792818,-53.6672545,33,954.58490
1,Bela Vista de Goiás/GO,-16.9692949,-48.9513071,1002,3286.10783
D1,Bela Vista de Goiás/GO,-16.9692949,-48.9513071,17,55.75233
1,Bela Vista de Minas/MG,-19.8289721,-43.0973688,107,1042.68174
D1,Bela Vista de Minas/MG,-19.8289721,-43.0973688,1,9.74469
1,Bela Vista do Maranhão/MA,-3.7416367,-45.2514192,134,1188.04859
D1,Bela Vista do Maranhão/MA,-3.7416367,-45.2514192,8,70.92827
1,Bela Vista do Paraíso/PR,-22.9948493,-51.1907996,224,1454.63991
D1,Bela Vista do Paraíso/PR,-22.9948493,-51.1907996,5,32.46964
1,Bela Vista do Piauí/PI,-7.9716353,-41.8715061,53,1315.13648
D1,Bela Vista do Piauí/PI,-7.9716353,-41.8715061,1,24.81390
1,Bela Vista do Toldo/SC,-26.274625,-50.466354,9,141.46495
1,Bela Vista/MS,-22.107327,-56.5317344,79,319.38549
D1,Bela Vista/MS,-22.107327,-56.5317344,4,16.17142
1,Belford Roxo/RJ,-22.7667284,-43.4033603,11367,2215.27992
D1,Belford Roxo/RJ,-22.7667284,-43.4033603,345,67.23600
1,Belmiro Braga/MG,-21.9486291,-43.413564,26,759.12409
D1,Belmiro Braga/MG,-21.9486291,-43.413564,3,87.59124
1,Belmonte/BA,-15.8630837,-38.8792845,503,2146.17912
D1,Belmonte/BA,-15.8630837,-38.8792845,4,17.06703
1,Belmonte/SC,-26.8448262,-53.578916,6,221.48394
1,Belo Campo/BA,-15.0338286,-41.2585109,126,736.45450
D1,Belo Campo/BA,-15.0338286,-41.2585109,2,11.68975
1,Belo Horizonte/MG,-19.9227318,-43.9450948,52352,2076.17177
D1,Belo Horizonte/MG,-19.9227318,-43.9450948,1618,64.16653
1,Belo Jardim/PE,-8.3338293,-36.4176419,1355,1766.92269
D1,Belo Jardim/PE,-8.3338293,-36.4176419,41,53.46408
1,Belo Monte/AL,-9.8269944,-37.2787165,175,2608.04769
D1,Belo Monte/AL,-9.8269944,-37.2787165,4,59.61252
1,Belo Oriente/MG,-19.2232523,-42.4807033,805,2982.14418
D1,Belo Oriente/MG,-19.2232523,-42.4807033,11,40.74980
1,Belo Vale/MG,-20.407778,-44.024167,108,1399.14497
D1,Belo Vale/MG,-20.407778,-44.024167,3,38.86514
1,Belterra/PA,-2.636091,-54.937392,560,3139.18942
D1,Belterra/PA,-2.636091,-54.937392,14,78.47974
1,Belágua/MA,-3.1604031,-43.5085052,272,3613.17747
D1,Belágua/MA,-3.1604031,-43.5085052,1,13.28374
1,Belém de Maria/PE,-8.6242497,-35.8388934,99,816.69691
D1,Belém de Maria/PE,-8.6242497,-35.8388934,3,24.74839
1,Belém do Brejo do Cruz/PB,-6.1880727,-37.5332267,148,2013.87944
D1,Belém do Brejo do Cruz/PB,-6.1880727,-37.5332267,2,27.21459
1,Belém do Piauí/PI,-7.3767305,-40.9712156,133,3707.83384
D1,Belém do Piauí/PI,-7.3767305,-40.9712156,3,83.63535
1,Belém do São Francisco/PE,-8.7517707,-38.9625715,145,699.46937
1,Belém/AL,-9.5715351,-36.492841,59,1377.21755
D1,Belém/AL,-9.5715351,-36.492841,2,46.68534
1,Belém/PA,-1.45056,-48.4682453,48060,3204.76701
D1,Belém/PA,-1.45056,-48.4682453,2290,152.70321
1,Belém/PB,-6.6967586,-35.5369626,1133,6399.32223
D1,Belém/PB,-6.6967586,-35.5369626,17,96.01807
1,Beneditinos/PI,-5.4565671,-42.3605061,331,3160.50797
D1,Beneditinos/PI,-5.4565671,-42.3605061,10,95.48362
1,Benedito Leite/MA,-7.2173453,-44.5523331,201,3565.09400
D1,Benedito Leite/MA,-7.2173453,-44.5523331,2,35.47357
1,Benedito Novo/SC,-26.7840657,-49.3629511,234,1987.26115
D1,Benedito Novo/SC,-26.7840657,-49.3629511,2,16.98514
1,Benevides/PA,-1.3555577,-48.252235,2080,3261.82411
D1,Benevides/PA,-1.3555577,-48.252235,48,75.27286
1,Benjamin Constant do Sul/RS,-27.5105555,-52.6007689,107,5464.75996
1,Benjamin Constant/AM,-4.3782748,-70.0290603,1678,3819.27848
D1,Benjamin Constant/AM,-4.3782748,-70.0290603,45,102.42404
1,Bento Fernandes/RN,-5.6926846,-35.8207423,35,633.48416
D1,Bento Fernandes/RN,-5.6926846,-35.8207423,2,36.19910
1,Bento Gonçalves/RS,-29.1654014,-51.5197627,4842,3975.27155
D1,Bento Gonçalves/RS,-29.1654014,-51.5197627,122,100.16174
1,Bento de Abreu/SP,-21.2707225,-50.8120444,43,1430.94842
1,Bequimão/MA,-2.4495376,-44.7884889,235,1103.33818
D1,Bequimão/MA,-2.4495376,-44.7884889,12,56.34067
1,Berilo/MG,-16.9515764,-42.4643732,6,50.53908
1,Berizal/MG,-15.6118785,-41.7417382,8,167.92611
1,Bernardino Batista/PB,-6.4532173,-38.5495418,133,3761.31222
1,Bernardino de Campos/SP,-23.0140216,-49.4760724,122,1093.38591
D1,Bernardino de Campos/SP,-23.0140216,-49.4760724,3,26.88654
1,Bernardo Sayão/TO,-7.8794244,-48.8968905,67,1506.29496
D1,Bernardo Sayão/TO,-7.8794244,-48.8968905,3,67.44604
1,Bernardo do Mearim/MA,-4.6315929,-44.7617508,140,2305.28569
D1,Bernardo do Mearim/MA,-4.6315929,-44.7617508,3,49.39898
1,Bertioga/SP,-23.848568,-46.139586,2128,3287.85748
D1,Bertioga/SP,-23.848568,-46.139586,49,75.70724
1,Bertolínia/PI,-7.6372159,-43.9540611,516,9369.89286
D1,Bertolínia/PI,-7.6372159,-43.9540611,6,108.95224
1,Bertópolis/MG,-17.063333,-40.573889,87,1888.43065
1,Beruri/AM,-3.9007135,-61.3717319,1032,5136.11706
D1,Beruri/AM,-3.9007135,-61.3717319,12,59.72229
1,Betim/MG,-19.968056,-44.198333,7701,1731.40221
D1,Betim/MG,-19.968056,-44.198333,245,55.08292
1,Betânia do Piauí/PI,-8.1460635,-40.7961387,67,1078.90499
D1,Betânia do Piauí/PI,-8.1460635,-40.7961387,1,16.10306
1,Betânia/PE,-8.2742779,-38.0351767,117,916.56874
D1,Betânia/PE,-8.2742779,-38.0351767,2,15.66784
1,Bezerros/PE,-8.2372132,-35.7558262,1315,2159.98686
D1,Bezerros/PE,-8.2372132,-35.7558262,69,113.33771
1,Bias Fortes/MG,-21.605833,-43.756944,19,570.74196
D1,Bias Fortes/MG,-21.605833,-43.756944,1,30.03905
1,Bicas/MG,-21.7213723,-43.0604327,78,535.93514
D1,Bicas/MG,-21.7213723,-43.0604327,1,6.87096
1,Biguaçu/SC,-27.4961277,-48.6542432,4296,6182.54037
D1,Biguaçu/SC,-27.4961277,-48.6542432,40,57.56555
1,Bilac/SP,-21.403962,-50.47464,124,1527.65800
D1,Bilac/SP,-21.403962,-50.47464,2,24.63965
1,Biquinhas/MG,-18.783611,-45.502222,28,1120.89672
1,Birigui/SP,-21.2908491,-50.34144,3157,2527.96618
D1,Birigui/SP,-21.2908491,-50.34144,99,79.27420
1,Biritiba Mirim/SP,-23.5697765,-46.0407456,508,1542.38523
D1,Biritiba Mirim/SP,-23.5697765,-46.0407456,31,94.12193
1,Biritinga/BA,-11.6227908,-38.8066738,102,638.13814
D1,Biritinga/BA,-11.6227908,-38.8066738,1,6.25626
1,Bituruna/PR,-26.161281,-51.5533319,64,390.24390
D1,Bituruna/PR,-26.161281,-51.5533319,1,6.09756
1,Blumenau/SC,-26.9195567,-49.0658025,18746,5180.52811
D1,Blumenau/SC,-26.9195567,-49.0658025,177,48.91462
1,Boa Esperança do Iguaçu/PR,-25.6362851,-53.2139114,43,1740.89069
1,Boa Esperança do Sul/SP,-21.9930206,-48.3917372,226,1504.86083
D1,Boa Esperança do Sul/SP,-21.9930206,-48.3917372,6,39.95206
1,Boa Esperança/ES,-18.5395472,-40.2904088,412,2729.92314
D1,Boa Esperança/ES,-18.5395472,-40.2904088,16,106.01643
1,Boa Esperança/MG,-21.0901253,-45.5660195,428,1064.17365
D1,Boa Esperança/MG,-21.0901253,-45.5660195,20,49.72774
1,Boa Esperança/PR,-24.2411024,-52.7860277,41,1013.09612
1,Boa Hora/PI,-4.4094627,-42.1255341,144,2112.98606
1,Boa Nova/BA,-14.365907,-40.2063056,233,1889.85319
D1,Boa Nova/BA,-14.365907,-40.2063056,4,32.44383
1,Boa Ventura de São Roque/PR,-24.88177,-51.5441292,10,157.10919
1,Boa Ventura/PB,-7.4202462,-38.2156782,141,2656.86829
D1,Boa Ventura/PB,-7.4202462,-38.2156782,3,56.52911
1,Boa Viagem/CE,-5.1261877,-39.7300055,1449,2654.96455
D1,Boa Viagem/CE,-5.1261877,-39.7300055,37,67.79413
1,Boa Vista da Aparecida/PR,-25.4357216,-53.4067721,150,1989.38992
D1,Boa Vista da Aparecida/PR,-25.4357216,-53.4067721,4,53.05040
1,Boa Vista das Missões/RS,-27.6677983,-53.3127622,6,286.80688
1,Boa Vista do Buricá/RS,-27.6687782,-54.1111913,152,2264.60072
1,Boa Vista do Cadeado/RS,-28.5783827,-53.8123759,18,729.33549
1,Boa Vista do Gurupi/MA,-1.7981168,-46.3071882,14,167.02458
D1,Boa Vista do Gurupi/MA,-1.7981168,-46.3071882,3,35.79098
1,Boa Vista do Incra/RS,-28.8195551,-53.3866624,25,955.65749
1,Boa Vista do Ramos/AM,-2.9716927,-57.5869819,479,2440.63997
D1,Boa Vista do Ramos/AM,-2.9716927,-57.5869819,5,25.47641
1,Boa Vista do Sul/RS,-29.3510488,-51.6779679,73,2627.78978
D1,Boa Vista do Sul/RS,-29.3510488,-51.6779679,1,35.99712
1,Boa Vista do Tupim/BA,-12.6605988,-40.6083594,112,604.39264
D1,Boa Vista do Tupim/BA,-12.6605988,-40.6083594,2,10.79273
1,Boa Vista/PB,-7.2620711,-36.2415161,151,2116.03139
D1,Boa Vista/PB,-7.2620711,-36.2415161,1,14.01345
1,Boa Vista/RR,2.8208478,-60.6719582,46252,11021.51306
D1,Boa Vista/RR,2.8208478,-60.6719582,525,125.10366
1,Boca da Mata/AL,-9.6452054,-36.2116658,1256,4591.31452
D1,Boca da Mata/AL,-9.6452054,-36.2116658,25,91.38763
1,Boca do Acre/AM,-8.7553487,-67.3930873,1497,4322.21741
D1,Boca do Acre/AM,-8.7553487,-67.3930873,14,40.42154
1,Bocaina de Minas/MG,-22.167778,-44.394722,15,294.75339
D1,Bocaina de Minas/MG,-22.167778,-44.394722,2,39.30045
1,Bocaina do Sul/SC,-27.745494,-49.942279,86,2465.59633
D1,Bocaina do Sul/SC,-27.745494,-49.942279,2,57.33945
1,Bocaina/PI,-6.9445939,-41.3224599,154,3418.42397
D1,Bocaina/PI,-6.9445939,-41.3224599,2,44.39512
1,Bocaina/SP,-22.1421831,-48.522276,200,1606.16768
D1,Bocaina/SP,-22.1421831,-48.522276,3,24.09252
1,Bocaiúva do Sul/PR,-25.206591,-49.114131,278,2117.44992
D1,Bocaiúva do Sul/PR,-25.206591,-49.114131,3,22.85018
1,Bocaiúva/MG,-17.1160208,-43.8122678,479,953.12003
D1,Bocaiúva/MG,-17.1160208,-43.8122678,7,13.92869
1,Bodocó/PE,-7.777592,-39.933797,335,872.89593
D1,Bodocó/PE,-7.777592,-39.933797,8,20.84528
1,Bodoquena/MS,-20.5508775,-56.6769653,64,816.53483
D1,Bodoquena/MS,-20.5508775,-56.6769653,1,12.75836
1,Bodó/RN,-5.9866104,-36.4134824,26,1183.43195
1,Bofete/SP,-23.1019554,-48.2610535,165,1384.11207
D1,Bofete/SP,-23.1019554,-48.2610535,4,33.55423
1,Boituva/SP,-23.2838893,-47.6738231,1326,2132.86151
D1,Boituva/SP,-23.2838893,-47.6738231,22,35.38684
1,Bom Conselho/PE,-9.169191,-36.685683,817,1675.31322
D1,Bom Conselho/PE,-9.169191,-36.685683,24,49.21361
1,Bom Despacho/MG,-19.7375242,-45.2517288,819,1605.00118
D1,Bom Despacho/MG,-19.7375242,-45.2517288,19,37.23446
1,Bom Jardim da Serra/SC,-28.3380324,-49.625588,306,6412.40570
D1,Bom Jardim da Serra/SC,-28.3380324,-49.625588,1,20.95557
1,Bom Jardim de Goiás/GO,-16.2062659,-52.172793,176,1984.44018
D1,Bom Jardim de Goiás/GO,-16.2062659,-52.172793,3,33.82568
1,Bom Jardim de Minas/MG,-21.9476466,-44.1906033,14,216.75182
1,Bom Jardim/MA,-3.54129,-45.606004,990,2367.17517
D1,Bom Jardim/MA,-3.54129,-45.606004,29,69.34149
1,Bom Jardim/PE,-7.7961572,-35.5871696,733,1833.27914
D1,Bom Jardim/PE,-7.7961572,-35.5871696,32,80.03401
1,Bom Jardim/RJ,-22.1515328,-42.4186683,230,832.85052
D1,Bom Jardim/RJ,-22.1515328,-42.4186683,5,18.10545
1,Bom Jesus da Lapa/BA,-13.250571,-43.410754,1027,1474.26143
D1,Bom Jesus da Lapa/BA,-13.250571,-43.410754,13,18.66154
1,Bom Jesus da Penha/MG,-21.0165299,-46.5226644,98,2309.14232
D1,Bom Jesus da Penha/MG,-21.0165299,-46.5226644,1,23.56268
1,Bom Jesus da Serra/BA,-14.3724084,-40.5047119,106,1079.10007
1,Bom Jesus das Selvas/MA,-4.4878075,-46.8526639,1866,5398.21217
D1,Bom Jesus das Selvas/MA,-4.4878075,-46.8526639,16,46.28692
1,Bom Jesus de Goiás/GO,-18.2174587,-49.739721,1025,3996.41298
D1,Bom Jesus de Goiás/GO,-18.2174587,-49.739721,29,113.06925
1,Bom Jesus do Amparo/MG,-19.7045132,-43.4752911,39,635.90413
D1,Bom Jesus do Amparo/MG,-19.7045132,-43.4752911,2,32.61047
1,Bom Jesus do Araguaia/MT,-12.1725897,-51.5074425,182,2713.98747
1,Bom Jesus do Galho/MG,-19.8283191,-42.3162256,152,1022.74256
D1,Bom Jesus do Galho/MG,-19.8283191,-42.3162256,6,40.37142
1,Bom Jesus do Itabapoana/RJ,-21.1341025,-41.680095,933,2507.86227
D1,Bom Jesus do Itabapoana/RJ,-21.1341025,-41.680095,23,61.82297
1,Bom Jesus do Norte/ES,-21.1254776,-41.6711646,368,3694.03734
D1,Bom Jesus do Norte/ES,-21.1254776,-41.6711646,8,80.30516
1,Bom Jesus do Oeste/SC,-26.6929713,-53.0967453,28,1309.02291
D1,Bom Jesus do Oeste/SC,-26.6929713,-53.0967453,1,46.75082
1,Bom Jesus do Sul/PR,-26.1922507,-53.6002033,31,884.19852
D1,Bom Jesus do Sul/PR,-26.1922507,-53.6002033,1,28.52253
1,Bom Jesus do Tocantins/PA,-5.0471796,-48.5978362,408,2383.45601
D1,Bom Jesus do Tocantins/PA,-5.0471796,-48.5978362,4,23.36722
1,Bom Jesus do Tocantins/TO,-8.96306,-48.165043,101,2016.77316
1,Bom Jesus dos Perdões/SP,-23.1353864,-46.4648052,390,1500.86588
D1,Bom Jesus dos Perdões/SP,-23.1353864,-46.4648052,3,11.54512
1,Bom Jesus/PB,-6.8156725,-38.6551841,56,2174.75728
D1,Bom Jesus/PB,-6.8156725,-38.6551841,1,38.83495
1,Bom Jesus/PI,-9.0711644,-44.3583926,1811,7133.57230
D1,Bom Jesus/PI,-9.0711644,-44.3583926,24,94.53657
1,Bom Jesus/RN,-5.9887544,-35.5821149,188,1831.10938
D1,Bom Jesus/RN,-5.9887544,-35.5821149,5,48.69972
1,Bom Jesus/RS,-28.6692723,-50.4346894,172,1520.91255
D1,Bom Jesus/RS,-28.6692723,-50.4346894,1,8.84251
1,Bom Jesus/SC,-26.7350604,-52.3916519,98,3205.75728
D1,Bom Jesus/SC,-26.7350604,-52.3916519,3,98.13543
1,Bom Lugar/MA,-4.3728019,-45.0366054,305,1855.45687
D1,Bom Lugar/MA,-4.3728019,-45.0366054,3,18.25040
1,Bom Princípio do Piauí/PI,-3.1912777,-41.6430185,43,760.92727
D1,Bom Princípio do Piauí/PI,-3.1912777,-41.6430185,3,53.08795
1,Bom Princípio/RS,-29.489788,-51.3566782,440,3086.63627
D1,Bom Princípio/RS,-29.489788,-51.3566782,5,35.07541
1,Bom Progresso/RS,-27.5490948,-53.8655601,14,737.23012
1,Bom Repouso/MG,-22.4657069,-46.1485376,106,1005.97893
D1,Bom Repouso/MG,-22.4657069,-46.1485376,5,47.45184
1,Bom Retiro do Sul/RS,-29.6000007,-51.9359243,264,2130.75061
D1,Bom Retiro do Sul/RS,-29.6000007,-51.9359243,4,32.28410
1,Bom Retiro/SC,-27.798993,-49.486994,110,1093.43936
D1,Bom Retiro/SC,-27.798993,-49.486994,5,49.70179
1,Bom Sucesso de Itararé/SP,-24.3190016,-49.1446207,9,225.90361
D1,Bom Sucesso de Itararé/SP,-24.3190016,-49.1446207,1,25.10040
1,Bom Sucesso do Sul/PR,-26.0749256,-52.8348629,22,676.09096
1,Bom Sucesso/MG,-21.0323516,-44.7598082,58,329.41444
D1,Bom Sucesso/MG,-21.0323516,-44.7598082,1,5.67956
1,Bom Sucesso/PB,-6.4458948,-37.9297662,38,766.74738
1,Bom Sucesso/PR,-23.7088019,-51.7651297,135,1910.01698
D1,Bom Sucesso/PR,-23.7088019,-51.7651297,2,28.29655
1,Bombinhas/SC,-27.1519159,-48.4875691,1425,7007.62233
D1,Bombinhas/SC,-27.1519159,-48.4875691,11,54.09393
1,Bonfim do Piauí/PI,-9.1648678,-42.8734415,102,1794.19525
D1,Bonfim do Piauí/PI,-9.1648678,-42.8734415,2,35.18030
1,Bonfim/MG,-20.3266626, -44.2386157,76,1107.87172
D1,Bonfim/MG,-20.3266626, -44.2386157,2,29.15452
1,Bonfim/RR,3.3613818,-59.8427241,1221,9723.66011
D1,Bonfim/RR,3.3613818,-59.8427241,14,111.49160
1,Bonfinópolis de Minas/MG,-16.5660011,-45.98645,164,3012.49082
D1,Bonfinópolis de Minas/MG,-16.5660011,-45.98645,6,110.21308
1,Bonfinópolis/GO,-16.6172709,-48.9615701,376,3790.70471
D1,Bonfinópolis/GO,-16.6172709,-48.9615701,9,90.73495
1,Boninal/BA,-12.7095183,-41.8299984,24,166.13595
D1,Boninal/BA,-12.7095183,-41.8299984,1,6.92233
1,Bonito de Minas/MG,-15.3191266,-44.7544,6,52.77509
1,Bonito de Santa Fé/PB,-7.3143332,-38.5146677,209,1738.47945
D1,Bonito de Santa Fé/PB,-7.3143332,-38.5146677,9,74.86275
1,Bonito/BA,-11.9665473,-41.2649896,111,657.42715
D1,Bonito/BA,-11.9665473,-41.2649896,2,11.84553
1,Bonito/MS,-21.1264766,-56.4902208,670,3019.37810
D1,Bonito/MS,-21.1264766,-56.4902208,9,40.55881
1,Bonito/PA,-1.3605722,-47.3049907,278,1681.79068
D1,Bonito/PA,-1.3605722,-47.3049907,9,54.44646
1,Bonito/PE,-8.4721161,-35.7314591,376,986.43650
D1,Bonito/PE,-8.4721161,-35.7314591,28,73.45804
1,Bonópolis/GO,-13.649331,-49.8329113,82,1825.06121
D1,Bonópolis/GO,-13.649331,-49.8329113,1,22.25684
1,Boqueirão do Leão/RS,-29.30332,-52.4296817,126,1635.93872
D1,Boqueirão do Leão/RS,-29.30332,-52.4296817,2,25.96728
1,Boqueirão do Piauí/PI,-4.4850148,-42.1095161,162,2521.00840
D1,Boqueirão do Piauí/PI,-4.4850148,-42.1095161,1,15.56178
1,Boqueirão/PB,-7.487004,-36.130887,729,4079.46279
D1,Boqueirão/PB,-7.487004,-36.130887,8,44.76777
1,Boquim/SE,-11.1450175,-37.6204228,676,2513.10458
D1,Boquim/SE,-11.1450175,-37.6204228,19,70.63460
1,Boquira/BA,-12.8184859,-42.7270883,53,246.54603
D1,Boquira/BA,-12.8184859,-42.7270883,1,4.65181
1,Boracéia/SP,-22.195355,-48.7801925,139,2855.38209
D1,Boracéia/SP,-22.195355,-48.7801925,2,41.08463
1,Borba/AM,-4.3934778,-59.5947721,752,1801.28389
D1,Borba/AM,-4.3934778,-59.5947721,23,55.09246
1,Borborema/PB,-6.8066718,-35.5990191,58,1097.03045
1,Borborema/SP,-21.6212706,-49.074135,307,1899.28236
D1,Borborema/SP,-21.6212706,-49.074135,10,61.86587
1,Borda da Mata/MG,-22.274167,-46.165278,399,2034.26124
D1,Borda da Mata/MG,-22.274167,-46.165278,18,91.77118
1,Borebi/SP,-22.5700178,-48.9714871,49,1826.31383
D1,Borebi/SP,-22.5700178,-48.9714871,2,74.54342
1,Borrazópolis/PR,-23.9393362,-51.5850786,167,2593.57043
D1,Borrazópolis/PR,-23.9393362,-51.5850786,3,46.59109
1,Borá/SP,-22.2701088,-50.544407,5,596.65871
1,Bossoroca/RS,-28.7278885,-54.9120278,88,1418.21112
D1,Bossoroca/RS,-28.7278885,-54.9120278,1,16.11604
1,Botelhos/MG,-21.65,-46.394722,123,822.79751
D1,Botelhos/MG,-21.65,-46.394722,1,6.68941
1,Botucatu/SP,-22.8879628,-48.4410712,2943,1986.76838
D1,Botucatu/SP,-22.8879628,-48.4410712,52,35.10430
1,Botumirim/MG,-16.862778,-43.011111,6,95.41985
1,Botuporã/BA,-13.3744752,-42.5198469,12,118.47171
D1,Botuporã/BA,-13.3744752,-42.5198469,1,9.87264
1,Botuverá/SC,-27.200749,-49.068892,204,3833.14543
1,Bozano/RS,-28.3669953,-53.7705165,39,1847.46566
1,Braga/RS,-27.617348,-53.740514,21,634.24947
1,Braganey/PR,-24.8179919,-53.118506,58,1077.66630
D1,Braganey/PR,-24.8179919,-53.118506,2,37.16091
1,Bragança Paulista/SP,-22.9520235,-46.5418586,4502,2639.95825
D1,Bragança Paulista/SP,-22.9520235,-46.5418586,89,52.18931
1,Bragança/PA,-1.0573967,-46.7635406,2705,2098.29809
D1,Bragança/PA,-1.0573967,-46.7635406,96,74.46825
1,Branquinha/AL,-9.2478057,-36.0152009,272,2600.38241
D1,Branquinha/AL,-9.2478057,-36.0152009,6,57.36138
1,Brasil Novo/PA,-3.3055853,-52.539198,782,5219.24848
D1,Brasil Novo/PA,-3.3055853,-52.539198,16,106.78769
1,Brasileira/PI,-4.131182,-41.7824969,223,2671.61855
D1,Brasileira/PI,-4.131182,-41.7824969,2,23.96070
1,Brasilândia de Minas/MG,-17.0096469,-46.0087183,364,2173.39384
D1,Brasilândia de Minas/MG,-17.0096469,-46.0087183,1,5.97086
1,Brasilândia do Sul/PR,-24.1975793,-53.527551,43,1663.44294
D1,Brasilândia do Sul/PR,-24.1975793,-53.527551,1,38.68472
1,Brasilândia do Tocantins/TO,-8.3886619,-48.4842729,53,2397.10538
D1,Brasilândia do Tocantins/TO,-8.3886619,-48.4842729,1,45.22840
1,Brasilândia/MS,-21.255575,-52.0365617,118,995.52856
D1,Brasilândia/MS,-21.255575,-52.0365617,4,33.74673
1,Brasiléia/AC,-11.0010413,-68.7487894,1218,4561.45607
D1,Brasiléia/AC,-11.0010413,-68.7487894,19,71.15572
1,Brasnorte/MT,-12.1227151,-58.0050109,331,1643.49553
D1,Brasnorte/MT,-12.1227151,-58.0050109,1,4.96524
1,Brasília de Minas/MG,-16.2075114,-44.430559,211,651.13408
D1,Brasília de Minas/MG,-16.2075114,-44.430559,5,15.42972
1,Brasília/DF,-15.7934036,-47.8823172,223658,7320.69041
D1,Brasília/DF,-15.7934036,-47.8823172,3867,126.57320
1,Brazabrantes/GO,-16.4291635,-49.3858216,136,3630.53924
D1,Brazabrantes/GO,-16.4291635,-49.3858216,2,53.39028
1,Brazópolis/MG,-22.4742842,-45.6165577,278,1929.21582
D1,Brazópolis/MG,-22.4742842,-45.6165577,3,20.81888
1,Braço do Norte/SC,-28.2728633,-49.1622712,2828,8348.09305
D1,Braço do Norte/SC,-28.2728633,-49.1622712,22,64.94273
1,Braço do Trombudo/SC,-27.358578,-49.882145,99,2626.69143
D1,Braço do Trombudo/SC,-27.358578,-49.882145,2,53.06447
1,Braúna/SP,-21.5015319,-50.3175246,113,1968.29821
D1,Braúna/SP,-21.5015319,-50.3175246,7,121.92998
1,Braúnas/MG,-19.055556,-42.716111,17,356.46886
D1,Braúnas/MG,-19.055556,-42.716111,2,41.93751
1,Brejetuba/ES,-20.1465817,-41.2902303,582,4683.35077
D1,Brejetuba/ES,-20.1465817,-41.2902303,1,8.04699
1,Brejinho de Nazaré/TO,-11.0205883,-48.5722906,94,1703.20710
D1,Brejinho de Nazaré/TO,-11.0205883,-48.5722906,4,72.47690
1,Brejinho/PE,-7.3482153,-37.28538,186,2483.97436
D1,Brejinho/PE,-7.3482153,-37.28538,2,26.70940
1,Brejinho/RN,-6.1957907,-35.3583019,243,1900.36756
D1,Brejinho/RN,-6.1957907,-35.3583019,3,23.46133
1,Brejo Alegre/SP,-21.1671191,-50.1850393,101,3496.01938
D1,Brejo Alegre/SP,-21.1671191,-50.1850393,6,207.68432
1,Brejo Grande do Araguaia/PA,-5.7011449,-48.4037308,517,7016.82953
D1,Brejo Grande do Araguaia/PA,-5.7011449,-48.4037308,2,27.14441
1,Brejo Grande/SE,-10.4287358,-36.4667918,173,2071.11218
D1,Brejo Grande/SE,-10.4287358,-36.4667918,7,83.80223
1,Brejo Santo/CE,-7.4909841,-38.9859152,2032,4076.88295
D1,Brejo Santo/CE,-7.4909841,-38.9859152,25,50.15850
1,Brejo da Madre de Deus/PE,-8.1409718,-36.3712527,1061,2071.25427
D1,Brejo da Madre de Deus/PE,-8.1409718,-36.3712527,29,56.61298
1,Brejo de Areia/MA,-4.3316785,-45.5833334,206,2285.33393
D1,Brejo de Areia/MA,-4.3316785,-45.5833334,2,22.18771
1,Brejo do Cruz/PB,-6.32926065,-37.48746163303929,636,4476.98156
D1,Brejo do Cruz/PB,-6.32926065,-37.48746163303929,9,63.35351
1,Brejo do Piauí/PI,-8.207583,-42.8359849,25,649.68815
1,Brejo dos Santos/PB,-6.3769367,-37.8243125,77,1191.21287
1,Brejo/MA,-3.6804397,-42.7529313,698,1904.45008
D1,Brejo/MA,-3.6804397,-42.7529313,18,49.11189
1,Brejolândia/BA,-12.4843845,-43.9611861,9,84.76173
D1,Brejolândia/BA,-12.4843845,-43.9611861,2,18.83594
1,Brejão/PE,-9.029146,-36.566034,38,422.83298
D1,Brejão/PE,-9.029146,-36.566034,2,22.25437
1,Brejões/BA,-13.1033754,-39.7909837,110,773.44959
D1,Brejões/BA,-13.1033754,-39.7909837,1,7.03136
1,Breu Branco/PA,-3.7785073,-49.5684795,325,482.68283
D1,Breu Branco/PA,-3.7785073,-49.5684795,21,31.18874
1,Breves/PA,-1.68036,-50.479085,2930,2830.99993
D1,Breves/PA,-1.68036,-50.479085,87,84.06041
1,Britânia/GO,-15.2427599,-51.1602061,188,3243.05675
D1,Britânia/GO,-15.2427599,-51.1602061,1,17.25030
1,Brochier/RS,-29.556766,-51.5963047,53,1038.40125
1,Brodowski/SP,-20.984532,-47.657217,638,2524.03371
D1,Brodowski/SP,-20.984532,-47.657217,22,87.03565
1,Brotas de Macaúbas/BA,-12.0019007,-42.6257506,4,39.48667
1,Brotas/SP,-22.2840884,-48.1267265,163,661.63338
D1,Brotas/SP,-22.2840884,-48.1267265,4,16.23640
1,Brumadinho/MG,-20.143611,-44.2,1276,3137.75636
D1,Brumadinho/MG,-20.143611,-44.2,15,36.88585
1,Brumado/BA,-14.29507325,-41.659307508575985,2845,4225.14294
D1,Brumado/BA,-14.29507325,-41.659307508575985,33,49.00869
1,Brunópolis/SC,-27.310953,-50.837585,35,1478.04054
1,Brusque/SC,-27.0964628,-48.9136323,8167,5931.48327
D1,Brusque/SC,-27.0964628,-48.9136323,60,43.57647
1,Brás Pires/MG,-20.8483109,-43.2430524,8,186.34987
D1,Brás Pires/MG,-20.8483109,-43.2430524,1,23.29373
1,Bueno Brandão/MG,-22.441976,-46.3517971,85,773.36002
D1,Bueno Brandão/MG,-22.441976,-46.3517971,6,54.59012
1,Buenos Aires/PE,-7.7218931,-35.326587,59,447.30857
D1,Buenos Aires/PE,-7.7218931,-35.326587,8,60.65201
1,Buenópolis/MG,-17.8756607,-44.1749365,92,888.63131
D1,Buenópolis/MG,-17.8756607,-44.1749365,2,19.31807
1,Buerarema/BA,-14.9571177,-39.3008035,567,3097.34513
D1,Buerarema/BA,-14.9571177,-39.3008035,23,125.64187
1,Bugre/MG,-19.4257687,-42.2556,69,1732.36254
D1,Bugre/MG,-19.4257687,-42.2556,1,25.10670
1,Bujari/AC,-9.8309656,-67.9520886,428,4107.48560
D1,Bujari/AC,-9.8309656,-67.9520886,7,67.17850
1,Bujaru/PA,-1.5169239,-48.0410699,675,2293.81181
D1,Bujaru/PA,-1.5169239,-48.0410699,23,78.15951
1,Buri/SP,-23.79849,-48.598924,320,1602.80491
D1,Buri/SP,-23.79849,-48.598924,10,50.08765
1,Buritama/SP,-21.0664017,-50.1448077,492,2847.05746
D1,Buritama/SP,-21.0664017,-50.1448077,15,86.80053
1,Buriti Alegre/GO,-18.1377879,-49.0404411,278,2931.25264
D1,Buriti Alegre/GO,-18.1377879,-49.0404411,8,84.35259
1,Buriti Bravo/MA,-5.8391884,-43.8367876,895,3738.66912
D1,Buriti Bravo/MA,-5.8391884,-43.8367876,3,12.53185
1,Buriti de Goiás/GO,-16.180644,-50.4287479,101,4079.15994
D1,Buriti de Goiás/GO,-16.180644,-50.4287479,1,40.38772
1,Buriti do Tocantins/TO,-5.3187439,-48.2256609,273,2374.53249
1,Buriti dos Lopes/PI,-3.1776723,-41.8707444,802,4049.07356
D1,Buriti dos Lopes/PI,-3.1776723,-41.8707444,12,60.58464
1,Buriti dos Montes/PI,-5.3136171,-41.0971256,149,1803.00097
D1,Buriti dos Montes/PI,-5.3136171,-41.0971256,1,12.10068
1,Buriti/MA,-3.9430944,-42.9244281,678,2354.33016
D1,Buriti/MA,-3.9430944,-42.9244281,2,6.94493
1,Buriticupu/MA,-4.3227472,-46.4516989,2567,3517.25744
D1,Buriticupu/MA,-4.3227472,-46.4516989,7,9.59127
1,Buritinópolis/GO,-14.4589282,-46.4293104,56,1705.75693
1,Buritirama/BA,-10.7148421,-43.6362327,387,1818.95093
D1,Buritirama/BA,-10.7148421,-43.6362327,7,32.90092
1,Buritirana/MA,-5.5897455,-47.0148915,241,1558.15607
D1,Buritirana/MA,-5.5897455,-47.0148915,6,38.79227
1,Buritis/MG,-15.621389,-46.423889,435,1739.09567
D1,Buritis/MG,-15.621389,-46.423889,3,11.99376
1,Buritis/RO,-10.2054937,-63.8281954,838,2076.51898
D1,Buritis/RO,-10.2054937,-63.8281954,11,27.25741
1,Buritizal/SP,-20.1933264,-47.7097165,66,1462.11786
D1,Buritizal/SP,-20.1933264,-47.7097165,3,66.45990
1,Buritizeiro/MG,-17.3667765,-44.9647781,335,1191.28054
D1,Buritizeiro/MG,-17.3667765,-44.9647781,7,24.89243
1,Butiá/RS,-30.1256795,-51.9692224,407,1942.53532
D1,Butiá/RS,-30.1256795,-51.9692224,20,95.45628
1,Buíque/PE,-8.6239732,-37.157296,611,1037.01692
D1,Buíque/PE,-8.6239732,-37.157296,9,15.27521
1,Bálsamo/SP,-20.7343722,-49.5807484,567,6204.17989
D1,Bálsamo/SP,-20.7343722,-49.5807484,25,273.55291
0,CASO SEM LOCALIZAÇÃO DEFINIDA/AL,-9.931093434363673,-35.609611600637464,8,0.23971
D0,CASO SEM LOCALIZAÇÃO DEFINIDA/AL,-9.931093434363673,-35.609611600637464,8,0.23971
0,CASO SEM LOCALIZAÇÃO DEFINIDA/BA,-13.415069300066518,-38.14174656569957,5669,38.11589
D0,CASO SEM LOCALIZAÇÃO DEFINIDA/BA,-13.415069300066518,-38.14174656569957,57,0.38324
0,CASO SEM LOCALIZAÇÃO DEFINIDA/CE,-3.3445126297392798,-38.624961942434304,4081,44.68862
D0,CASO SEM LOCALIZAÇÃO DEFINIDA/CE,-3.3445126297392798,-38.624961942434304,2,0.02190
0,CASO SEM LOCALIZAÇÃO DEFINIDA/ES,-20.30989267097039,-39.81745156645774,1519,37.79876
D0,CASO SEM LOCALIZAÇÃO DEFINIDA/ES,-20.30989267097039,-39.81745156645774,39,0.97048
0,CASO SEM LOCALIZAÇÃO DEFINIDA/GO,-16.701590966270153,-49.164524059025034,28,0.39895
D0,CASO SEM LOCALIZAÇÃO DEFINIDA/GO,-16.701590966270153,-49.164524059025034,1,0.01425
0,CASO SEM LOCALIZAÇÃO DEFINIDA/MG,-19.97049116501593,-43.8852149072783,2836,13.39708
D0,CASO SEM LOCALIZAÇÃO DEFINIDA/MG,-19.97049116501593,-43.8852149072783,83,0.39209
0,CASO SEM LOCALIZAÇÃO DEFINIDA/MT,-15.54791153961863,-56.17143998972475,798,22.90164
D0,CASO SEM LOCALIZAÇÃO DEFINIDA/MT,-15.54791153961863,-56.17143998972475,56,1.60713
0,CASO SEM LOCALIZAÇÃO DEFINIDA/PA,-0.09317078214359542,-48.0050231510481,265,3.08037
D0,CASO SEM LOCALIZAÇÃO DEFINIDA/PA,-0.09317078214359542,-48.0050231510481,6,0.06974
0,CASO SEM LOCALIZAÇÃO DEFINIDA/PI,-2.683810218391744,-41.470898009352254,185,5.65191
D0,CASO SEM LOCALIZAÇÃO DEFINIDA/PI,-2.683810218391744,-41.470898009352254,5,0.15275
0,CASO SEM LOCALIZAÇÃO DEFINIDA/PR,-25.69415946385943,-48.10141676336737,2555,22.34572
D0,CASO SEM LOCALIZAÇÃO DEFINIDA/PR,-25.69415946385943,-48.10141676336737,52,0.45479
D0,CASO SEM LOCALIZAÇÃO DEFINIDA/RN,-5.749310788669161,-34.95302586257457,8,0.22812
0,CASO SEM LOCALIZAÇÃO DEFINIDA/RR,2.813328208465927,-60.663338675861986,1665,274.86088
D0,CASO SEM LOCALIZAÇÃO DEFINIDA/RR,2.813328208465927,-60.663338675861986,5,0.82541
0,CASO SEM LOCALIZAÇÃO DEFINIDA/SC,-27.675643660562308,-48.18313219398259,8026,112.02006
0,CASO SEM LOCALIZAÇÃO DEFINIDA/SP,-24.30968974555485,-46.21366504207253,199,0.43337
1,Caapiranga/AM,-3.3188884,-61.2096404,373,2808.10058
D1,Caapiranga/AM,-3.3188884,-61.2096404,9,67.75578
1,Caaporã/PB,-7.510234,-34.9154114,1024,4664.08563
D1,Caaporã/PB,-7.510234,-34.9154114,18,81.98588
1,Caarapó/MS,-22.6349267,-54.8240903,717,2343.67339
D1,Caarapó/MS,-22.6349267,-54.8240903,4,13.07489
1,Caatiba/BA,-14.9782759,-40.4092325,415,6396.42417
D1,Caatiba/BA,-14.9782759,-40.4092325,3,46.23921
1,Cabaceiras do Paraguaçu/BA,-12.5377868,-39.1901339,111,586.95997
D1,Cabaceiras do Paraguaçu/BA,-12.5377868,-39.1901339,1,5.28793
1,Cabaceiras/PB,-7.4899156,-36.2860501,139,2455.39657
1,Cabeceira Grande/MG,-16.0297,-47.0906,48,686.89181
D1,Cabeceira Grande/MG,-16.0297,-47.0906,2,28.62049
1,Cabeceiras do Piauí/PI,-4.4733665,-42.3098716,237,2229.53904
D1,Cabeceiras do Piauí/PI,-4.4733665,-42.3098716,7,65.85136
1,Cabeceiras/GO,-15.7995459,-46.9264991,77,956.99727
D1,Cabeceiras/GO,-15.7995459,-46.9264991,3,37.28561
1,Cabedelo/PB,-6.97324,-34.8351609,3562,5179.81008
D1,Cabedelo/PB,-6.97324,-34.8351609,83,120.69743
1,Cabixi/RO,-13.4956065,-60.5424442,141,2717.81033
D1,Cabixi/RO,-13.4956065,-60.5424442,5,96.37625
1,Cabo Frio/RJ,-22.8804369,-42.0189227,3360,1458.47260
D1,Cabo Frio/RJ,-22.8804369,-42.0189227,181,78.56653
1,Cabo Verde/MG,-21.4743338,-46.3964995,57,404.97336
D1,Cabo Verde/MG,-21.4743338,-46.3964995,1,7.10480
1,Cabo de Santo Agostinho/PE,-8.2838945,-35.0320984,2279,1090.72287
D1,Cabo de Santo Agostinho/PE,-8.2838945,-35.0320984,278,133.05000
1,Cabreúva/SP,-23.3075813,-47.1324417,1277,2532.27310
D1,Cabreúva/SP,-23.3075813,-47.1324417,41,81.30243
1,Cabrobó/PE,-8.5083701,-39.3106961,445,1289.74292
D1,Cabrobó/PE,-8.5083701,-39.3106961,5,14.49149
1,Cabrália Paulista/SP,-22.4562909,-49.3385645,102,2403.95946
1,Cacaulândia/RO,-10.3380043,-62.9007231,86,1371.82964
1,Cacequi/RS,-29.8838059,-54.8273443,57,458.82637
D1,Cacequi/RS,-29.8838059,-54.8273443,2,16.09917
1,Cachoeira Alta/GO,-18.7618269,-50.9432431,778,6142.42855
D1,Cachoeira Alta/GO,-18.7618269,-50.9432431,11,86.84668
1,Cachoeira Dourada/GO,-18.4934204,-49.481062,143,1780.60017
D1,Cachoeira Dourada/GO,-18.4934204,-49.481062,2,24.90350
1,Cachoeira Dourada/MG,-18.517136,-49.5002062,19,702.14339
1,Cachoeira Grande/MA,-2.9290492,-44.0573223,185,1951.88858
D1,Cachoeira Grande/MA,-2.9290492,-44.0573223,4,42.20300
1,Cachoeira Paulista/SP,-22.666498,-45.015384,426,1268.57449
D1,Cachoeira Paulista/SP,-22.666498,-45.015384,16,47.64599
1,Cachoeira da Prata/MG,-19.524723,-44.453056,76,2116.40212
D1,Cachoeira da Prata/MG,-19.524723,-44.453056,2,55.69479
1,Cachoeira de Goiás/GO,-16.6688414,-50.6435997,25,1862.89121
1,Cachoeira de Minas/MG,-22.3554043,-45.7796324,224,1934.53666
D1,Cachoeira de Minas/MG,-22.3554043,-45.7796324,3,25.90897
1,Cachoeira de Pajeú/MG,-15.965833,-41.496666,209,2213.51409
D1,Cachoeira de Pajeú/MG,-15.965833,-41.496666,2,21.18195
1,Cachoeira do Arari/PA,-1.0143572,-48.9621089,321,1333.94282
D1,Cachoeira do Arari/PA,-1.0143572,-48.9621089,13,54.02261
1,Cachoeira do Piriá/PA,-1.7599443,-46.5446954,537,1551.61952
D1,Cachoeira do Piriá/PA,-1.7599443,-46.5446954,3,8.66827
1,Cachoeira do Sul/RS,-30.0474778,-52.8905413,825,1007.70744
D1,Cachoeira do Sul/RS,-30.0474778,-52.8905413,7,8.55024
1,Cachoeira dos Índios/PB,-6.9259193,-38.6742159,258,2503.63901
D1,Cachoeira dos Índios/PB,-6.9259193,-38.6742159,8,77.63222
1,Cachoeira/BA,-12.5998256,-38.9665918,470,1400.18471
D1,Cachoeira/BA,-12.5998256,-38.9665918,11,32.77028
1,Cachoeiras de Macacu/RJ,-22.4626861,-42.6534414,781,1316.96541
D1,Cachoeiras de Macacu/RJ,-22.4626861,-42.6534414,39,65.76396
1,Cachoeirinha/PE,-8.4906364,-36.2338963,288,1404.80952
D1,Cachoeirinha/PE,-8.4906364,-36.2338963,22,107.31184
1,Cachoeirinha/RS,-29.9493353,-51.0898927,4397,3350.35050
D1,Cachoeirinha/RS,-29.9493353,-51.0898927,110,83.81591
1,Cachoeirinha/TO,-6.118647,-47.9208885,28,1225.91944
1,Cachoeiro de Itapemirim/ES,-20.848084,-41.11129,8095,3843.98045
D1,Cachoeiro de Itapemirim/ES,-20.848084,-41.11129,199,94.49686
1,Cacimba de Areia/PB,-7.1288513,-37.1575194,13,351.82679
1,Cacimba de Dentro/PB,-6.6425101,-35.7929304,397,2311.09559
D1,Cacimba de Dentro/PB,-6.6425101,-35.7929304,9,52.39260
1,Cacimbas/PB,-7.2125451,-37.0593398,67,930.68482
D1,Cacimbas/PB,-7.2125451,-37.0593398,2,27.78164
1,Cacimbinhas/AL,-9.401212,-36.991082,299,2745.89035
D1,Cacimbinhas/AL,-9.401212,-36.991082,3,27.55074
1,Cacique Doble/RS,-27.7700117,-51.6616409,101,1990.54001
1,Cacoal/RO,-11.4333,-61.4420502,2749,3200.49364
D1,Cacoal/RO,-11.4333,-61.4420502,37,43.07685
1,Caconde/SP,-21.527995,-46.643659,201,1057.39387
D1,Caconde/SP,-21.527995,-46.643659,1,5.26067
1,Caculé/BA,-14.4990734,-42.2233006,105,450.81791
D1,Caculé/BA,-14.4990734,-42.2233006,2,8.58701
1,Caetanos/BA,-14.3387456,-40.9085971,195,1334.88499
D1,Caetanos/BA,-14.3387456,-40.9085971,1,6.84556
1,Caetanópolis/MG,-19.2947496,-44.4138386,130,1106.47715
D1,Caetanópolis/MG,-19.2947496,-44.4138386,3,25.53409
1,Caetité/BA,-14.0691776,-42.4852428,329,644.07510
D1,Caetité/BA,-14.0691776,-42.4852428,5,9.78838
1,Caeté/MG,-19.897777,-43.670278,546,1212.06740
D1,Caeté/MG,-19.897777,-43.670278,20,44.39807
1,Caetés/PE,-8.7728788,-36.6255835,738,2553.27982
D1,Caetés/PE,-8.7728788,-36.6255835,8,27.67783
1,Cafarnaum/BA,-11.691399,-41.468823,308,1663.69578
D1,Cafarnaum/BA,-11.691399,-41.468823,4,21.60644
1,Cafeara/PR,-22.78905,-51.714195,77,2606.63507
D1,Cafeara/PR,-22.78905,-51.714195,1,33.85240
1,Cafelândia/PR,-24.6176963,-53.3218057,369,1999.34980
D1,Cafelândia/PR,-24.6176963,-53.3218057,1,5.41829
1,Cafelândia/SP,-21.8054355,-49.6030627,400,2241.77549
D1,Cafelândia/SP,-21.8054355,-49.6030627,12,67.25326
1,Cafezal do Sul/PR,-23.900508,-53.512418,33,823.14792
D1,Cafezal do Sul/PR,-23.900508,-53.512418,1,24.94388
1,Caiabu/SP,-22.0143038,-51.2356597,40,953.97090
D1,Caiabu/SP,-22.0143038,-51.2356597,2,47.69855
1,Caiana/MG,-20.695555,-41.924723,18,324.85111
D1,Caiana/MG,-20.695555,-41.924723,2,36.09457
1,Caiapônia/GO,-16.9538779,-51.8090761,245,1282.25258
D1,Caiapônia/GO,-16.9538779,-51.8090761,3,15.70105
1,Caibaté/RS,-28.290475,-54.645407,9,186.60585
D1,Caibaté/RS,-28.290475,-54.645407,1,20.73398
1,Caibi/SC,-27.0751925,-53.2502133,79,1288.74388
D1,Caibi/SC,-27.0751925,-53.2502133,2,32.62643
1,Caicó/RN,-6.4594544,-37.0971911,3324,4863.70221
D1,Caicó/RN,-6.4594544,-37.0971911,41,59.99151
1,Caieiras/SP,-23.3644621,-46.7484765,2658,2586.23206
D1,Caieiras/SP,-23.3644621,-46.7484765,104,101.19192
1,Cairu/BA,-13.4860505,-39.0455744,490,2659.14148
D1,Cairu/BA,-13.4860505,-39.0455744,6,32.56092
1,Caiuá/SP,-21.8319357,-51.9887179,61,1025.89976
D1,Caiuá/SP,-21.8319357,-51.9887179,1,16.81803
1,Caiçara do Norte/RN,-5.0645017,-36.0561226,118,1798.50633
D1,Caiçara do Norte/RN,-5.0645017,-36.0561226,3,45.72474
1,Caiçara do Rio do Vento/RN,-5.757968,-36.00089,88,2368.77524
D1,Caiçara do Rio do Vento/RN,-5.757968,-36.00089,1,26.91790
1,Caiçara/PB,-6.6146866,-35.4681434,462,6424.69754
D1,Caiçara/PB,-6.6146866,-35.4681434,10,139.06272
1,Caiçara/RS,-27.2750478,-53.4310053,126,2680.85106
D1,Caiçara/RS,-27.2750478,-53.4310053,3,63.82979
1,Cajamar/SP,-23.3561111,-46.8769444,1686,2163.36900
D1,Cajamar/SP,-23.3561111,-46.8769444,78,100.08469
1,Cajapió/MA,-2.8778715,-44.6746871,49,436.87589
D1,Cajapió/MA,-2.8778715,-44.6746871,2,17.83167
1,Cajari/MA,-3.3213076,-45.0118757,132,678.62835
D1,Cajari/MA,-3.3213076,-45.0118757,4,20.56450
1,Cajati/SP,-24.7272376,-48.1077914,1905,6685.61802
D1,Cajati/SP,-24.7272376,-48.1077914,35,122.83288
1,Cajazeiras do Piauí/PI,-6.794271,-42.3935024,14,391.82760
D1,Cajazeiras do Piauí/PI,-6.794271,-42.3935024,1,27.98769
1,Cajazeiras/PB,-6.8897849,-38.5570389,2956,4745.62122
D1,Cajazeiras/PB,-6.8897849,-38.5570389,57,91.50893
1,Cajazeirinhas/PB,-6.961442,-37.7993733,39,1216.84867
1,Cajobi/SP,-20.8776238,-48.8106972,236,2227.25557
D1,Cajobi/SP,-20.8776238,-48.8106972,7,66.06267
1,Cajueiro da Praia/PI,-2.931114,-41.340801,382,4977.84728
D1,Cajueiro da Praia/PI,-2.931114,-41.340801,10,130.31014
1,Cajueiro/AL,-9.399589,-36.1524309,371,1739.25273
D1,Cajueiro/AL,-9.399589,-36.1524309,15,70.32019
1,Cajuri/MG,-20.7901414,-42.7954489,65,1635.63161
1,Cajuru/SP,-21.2759978,-47.3046035,495,1875.49729
D1,Cajuru/SP,-21.2759978,-47.3046035,14,53.04437
1,Caldas Brandão/PB,-7.1027959,-35.3254676,336,5557.39332
D1,Caldas Brandão/PB,-7.1027959,-35.3254676,2,33.07972
1,Caldas Novas/GO,-17.745,-48.625,2336,2506.54535
D1,Caldas Novas/GO,-17.745,-48.625,55,59.01541
1,Caldas/MG,-21.923611,-46.386111,163,1120.96830
D1,Caldas/MG,-21.923611,-46.386111,4,27.50842
1,Caldazinha/GO,-16.7116649,-49.0012601,108,2806.65281
D1,Caldazinha/GO,-16.7116649,-49.0012601,2,51.97505
1,Caldeirão Grande do Piauí/PI,-7.3310393,-40.6374433,131,2266.04394
1,Caldeirão Grande/BA,-11.0208483,-40.3041387,184,1374.05720
D1,Caldeirão Grande/BA,-11.0208483,-40.3041387,2,14.93540
1,Califórnia/PR,-23.6672543,-51.3554556,151,1754.58982
D1,Califórnia/PR,-23.6672543,-51.3554556,4,46.47920
1,Calmon/SC,-26.6023644,-51.0992893,13,389.80510
D1,Calmon/SC,-26.6023644,-51.0992893,2,59.97001
1,Calumbi/PE,-7.9389746,-38.1516871,201,3497.47694
D1,Calumbi/PE,-7.9389746,-38.1516871,2,34.80077
1,Calçado/PE,-8.7413446,-36.3351787,121,1098.20294
D1,Calçado/PE,-8.7413446,-36.3351787,2,18.15211
1,Calçoene/AP,2.4981757,-50.9539503,1238,10949.93809
D1,Calçoene/AP,2.4981757,-50.9539503,5,44.22431
1,Camacan/BA,-15.4166631,-39.4930088,1576,4924.07674
D1,Camacan/BA,-15.4166631,-39.4930088,32,99.98125
1,Camacho/MG,-20.625556,-45.156667,6,209.13210
1,Camalaú/PB,-7.885031,-36.824191,33,547.17294
1,Camamu/BA,-13.9438142,-39.1060917,856,2419.30925
D1,Camamu/BA,-13.9438142,-39.1060917,25,70.65740
1,Camanducaia/MG,-22.755278,-46.144444,676,3100.77519
D1,Camanducaia/MG,-22.755278,-46.144444,11,50.45640
1,Camapuã/MS,-19.5291747,-54.0434641,87,635.36113
D1,Camapuã/MS,-19.5291747,-54.0434641,3,21.90900
1,Camaquã/RS,-30.8524752,-51.8075619,1827,2748.27763
D1,Camaquã/RS,-30.8524752,-51.8075619,26,39.11068
1,Camaragibe/PE,-8.0213832,-34.9810768,2366,1488.99615
D1,Camaragibe/PE,-8.0213832,-34.9810768,210,132.15942
1,Camargo/RS,-28.5865661,-52.2031474,89,3245.80598
D1,Camargo/RS,-28.5865661,-52.2031474,1,36.46973
1,Camaçari/BA,-12.6998188,-38.3260762,6786,2230.02149
D1,Camaçari/BA,-12.6998188,-38.3260762,136,44.69244
1,Cambará do Sul/RS,-29.0489517,-50.145412,110,1717.14018
1,Cambará/PR,-23.042273,-50.075281,337,1323.33307
D1,Cambará/PR,-23.042273,-50.075281,8,31.41443
1,Cambira/PR,-23.600265,-51.581045,115,1452.57042
D1,Cambira/PR,-23.600265,-51.581045,4,50.52419
1,Camboriú/SC,-27.0273601,-48.6535657,4383,5150.10869
D1,Camboriú/SC,-27.0273601,-48.6535657,54,63.45103
1,Cambuci/RJ,-21.5749919,-41.9107833,234,1508.31507
D1,Cambuci/RJ,-21.5749919,-41.9107833,7,45.12054
1,Cambuquira/MG,-21.853056,-45.2953619,52,405.86950
D1,Cambuquira/MG,-21.853056,-45.2953619,3,23.41555
1,Cambuí/MG,-22.6122501,-46.0572137,456,1529.48279
D1,Cambuí/MG,-22.6122501,-46.0572137,9,30.18716
1,Cambé/PR,-23.2782035,-51.2779583,2611,2432.43495
D1,Cambé/PR,-23.2782035,-51.2779583,42,39.12764
1,Cametá/PA,-2.242949,-49.497885,5185,3720.47301
D1,Cametá/PA,-2.242949,-49.497885,100,71.75454
1,Camocim de São Félix/PE,-8.3616757,-35.7638903,269,1423.28042
D1,Camocim de São Félix/PE,-8.3616757,-35.7638903,9,47.61905
1,Camocim/CE,-2.9009918,-40.8427389,2408,3767.97534
D1,Camocim/CE,-2.9009918,-40.8427389,81,126.74668
1,Campanha/MG,-21.8361108,-45.401986,219,1306.52667
D1,Campanha/MG,-21.8361108,-45.401986,7,41.76113
1,Campanário/MG,-18.2398144,-41.7271768,24,643.43164
1,Campestre da Serra/RS,-28.7966535,-51.0958149,50,1472.75405
1,Campestre de Goiás/GO,-16.7624179,-49.69497,180,4932.85832
D1,Campestre de Goiás/GO,-16.7624179,-49.69497,2,54.80954
1,Campestre do Maranhão/MA,-6.1729113,-47.3640512,539,3729.32955
D1,Campestre do Maranhão/MA,-6.1729113,-47.3640512,15,103.78468
1,Campestre/AL,-8.8481634,-35.5660033,96,1380.50043
D1,Campestre/AL,-8.8481634,-35.5660033,3,43.14064
1,Campestre/MG,-19.6142116,-43.219378,287,1363.16139
D1,Campestre/MG,-19.6142116,-43.219378,4,18.99877
1,Campina Grande do Sul/PR,-25.3046032,-49.0545355,1453,3326.08447
D1,Campina Grande do Sul/PR,-25.3046032,-49.0545355,26,59.51700
1,Campina Grande/PB,-7.2246743,-35.8771292,14265,3464.00134
D1,Campina Grande/PB,-7.2246743,-35.8771292,413,100.28970
1,Campina Verde/MG,-19.535277,-49.486389,162,820.17011
D1,Campina Verde/MG,-19.535277,-49.486389,7,35.43945
1,Campina da Lagoa/PR,-24.5937926,-52.8038965,68,484.22702
D1,Campina da Lagoa/PR,-24.5937926,-52.8038965,3,21.36296
1,Campina das Missões/RS,-27.9883295,-54.8411665,63,1167.09893
D1,Campina das Missões/RS,-27.9883295,-54.8411665,4,74.10152
1,Campina do Monte Alegre/SP,-23.5935653,-48.4801876,87,1436.35463
1,Campina do Simão/PR,-25.1086375,-51.8076658,7,181.39414
D1,Campina do Simão/PR,-25.1086375,-51.8076658,1,25.91345
1,Campinas do Piauí/PI,-7.6593687,-41.8814875,45,800.71174
D1,Campinas do Piauí/PI,-7.6593687,-41.8814875,1,17.79359
1,Campinas do Sul/RS,-27.7167968,-52.6257885,108,1986.02427
D1,Campinas do Sul/RS,-27.7167968,-52.6257885,2,36.77823
1,Campinas/SP,-22.90556,-47.06083,35966,2963.11065
D1,Campinas/SP,-22.90556,-47.06083,1355,111.63362
1,Campinaçu/GO,-13.7869969,-48.5703841,118,3248.89868
1,Campinorte/GO,-14.3136699,-49.1510931,421,3298.33908
D1,Campinorte/GO,-14.3136699,-49.1510931,7,54.84174
1,Campinápolis/MT,-14.5403731,-52.7970626,467,2760.21041
D1,Campinápolis/MT,-14.5403731,-52.7970626,15,88.65772
1,Campo Alegre de Goiás/GO,-17.6337896,-47.779291,39,504.00620
D1,Campo Alegre de Goiás/GO,-17.6337896,-47.779291,1,12.92324
1,Campo Alegre de Lourdes/BA,-9.5160326,-43.0101338,158,548.23040
D1,Campo Alegre de Lourdes/BA,-9.5160326,-43.0101338,4,13.87925
1,Campo Alegre do Fidalgo/PI,-8.3753852,-41.8364191,16,315.64411
D1,Campo Alegre do Fidalgo/PI,-8.3753852,-41.8364191,1,19.72776
1,Campo Alegre/AL,-9.7798607,-36.3575793,1481,2573.99586
D1,Campo Alegre/AL,-9.7798607,-36.3575793,28,48.66434
1,Campo Alegre/SC,-26.1941684,-49.2657484,218,1819.54762
D1,Campo Alegre/SC,-26.1941684,-49.2657484,6,50.07929
1,Campo Azul/MG,-16.5078525,-44.8133524,30,784.51883
1,Campo Belo do Sul/SC,-27.8987563,-50.7586887,155,2229.57422
D1,Campo Belo do Sul/SC,-27.8987563,-50.7586887,1,14.38435
1,Campo Belo/MG,-20.8975,-45.277223,1284,2369.61577
D1,Campo Belo/MG,-20.8975,-45.277223,31,57.21035
1,Campo Bom/RS,-29.674694,-51.060601,3345,4815.85994
D1,Campo Bom/RS,-29.674694,-51.060601,55,79.18454
1,Campo Bonito/PR,-25.0328004,-52.992976,58,1541.32341
1,Campo Erê/SC,-26.3947432,-53.0790495,140,1663.10287
1,Campo Florido/MG,-19.760833,-48.572223,232,2805.65969
1,Campo Formoso/BA,-10.51055,-40.320031,1171,1638.06007
D1,Campo Formoso/BA,-10.51055,-40.320031,13,18.18512
1,Campo Grande do Piauí/PI,-7.1327559,-41.0381164,322,5398.15591
D1,Campo Grande do Piauí/PI,-7.1327559,-41.0381164,4,67.05784
1,Campo Grande/AL,-9.9725,-36.74791447368421,225,2351.83443
D1,Campo Grande/AL,-9.9725,-36.74791447368421,7,73.16818
1,Campo Grande/MS,-20.4640173,-54.6162947,41789,4612.00408
D1,Campo Grande/MS,-20.4640173,-54.6162947,739,81.55905
1,Campo Grande/RN,-5.862063,-37.3134908,128,1323.68149
D1,Campo Grande/RN,-5.862063,-37.3134908,2,20.68252
1,Campo Largo do Piauí/PI,-3.8104731,-42.6288333,227,3104.91041
D1,Campo Largo do Piauí/PI,-3.8104731,-42.6288333,5,68.39010
1,Campo Largo/PR,-25.4597726,-49.5270851,4194,3133.00713
D1,Campo Largo/PR,-25.4597726,-49.5270851,93,69.47298
1,Campo Limpo Paulista/SP,-23.207791,-46.788919,1433,1675.22007
D1,Campo Limpo Paulista/SP,-23.207791,-46.788919,72,84.17016
1,Campo Limpo de Goiás/GO,-16.297101,-49.0894994,103,1297.22922
D1,Campo Limpo de Goiás/GO,-16.297101,-49.0894994,2,25.18892
1,Campo Magro/PR,-25.3691533,-49.4496921,649,2182.24613
D1,Campo Magro/PR,-25.3691533,-49.4496921,14,47.07465
1,Campo Maior/PI,-4.8339574,-42.1739786,2593,5529.60996
D1,Campo Maior/PI,-4.8339574,-42.1739786,55,117.28829
1,Campo Mourão/PR,-24.046329,-52.37802,1880,1968.83378
D1,Campo Mourão/PR,-24.046329,-52.37802,43,45.03184
1,Campo Novo de Rondônia/RO,-10.5704235,-63.6199511,183,1282.77022
D1,Campo Novo de Rondônia/RO,-10.5704235,-63.6199511,6,42.05804
1,Campo Novo do Parecis/MT,-13.658735,-57.890723,2989,8269.92779
D1,Campo Novo do Parecis/MT,-13.658735,-57.890723,30,83.00362
1,Campo Novo/RS,-28.91500235,-52.331375687737626,44,1005.48446
D1,Campo Novo/RS,-28.91500235,-52.331375687737626,1,22.85192
1,Campo Redondo/RN,-6.2420373,-36.1830606,235,2081.30369
D1,Campo Redondo/RN,-6.2420373,-36.1830606,4,35.42645
1,Campo Verde/MT,-15.5430787,-55.1590511,2616,5719.28290
D1,Campo Verde/MT,-15.5430787,-55.1590511,51,111.49978
1,Campo do Brito/SE,-10.7496246,-37.4942276,791,4341.85970
D1,Campo do Brito/SE,-10.7496246,-37.4942276,12,65.86892
1,Campo do Meio/MG,-21.1072006,-45.8301735,162,1390.43859
D1,Campo do Meio/MG,-21.1072006,-45.8301735,2,17.16591
1,Campo do Tenente/PR,-25.9814143,-49.684518,162,2013.67309
D1,Campo do Tenente/PR,-25.9814143,-49.684518,6,74.58048
1,Campos Altos/MG,-19.696389,-46.171389,165,1060.20690
D1,Campos Altos/MG,-19.696389,-46.171389,6,38.55298
1,Campos Belos/GO,-13.0349839,-46.768112,362,1809.36672
D1,Campos Belos/GO,-13.0349839,-46.768112,7,34.98775
1,Campos Borges/RS,-28.8852198,-52.999098,39,1183.61153
1,Campos Gerais/MG,-21.2333342,-45.7584127,234,811.31683
D1,Campos Gerais/MG,-21.2333342,-45.7584127,7,24.27016
1,Campos Lindos/TO,-7.9740597,-46.8023881,292,2831.65244
D1,Campos Lindos/TO,-7.9740597,-46.8023881,2,19.39488
1,Campos Novos Paulista/SP,-22.601952,-49.998726,121,2421.45287
D1,Campos Novos Paulista/SP,-22.601952,-49.998726,2,40.02401
1,Campos Novos/SC,-27.3962904,-51.2224397,1573,4302.98720
D1,Campos Novos/SC,-27.3962904,-51.2224397,16,43.76846
1,Campos Sales/CE,-7.0742675,-40.3740367,583,2122.31525
D1,Campos Sales/CE,-7.0742675,-40.3740367,8,29.12268
1,Campos Verdes/GO,-14.2709062,-49.65746,43,2349.72678
D1,Campos Verdes/GO,-14.2709062,-49.65746,1,54.64481
1,Campos de Júlio/MT,-13.7223646,-59.2645296,435,6152.75813
D1,Campos de Júlio/MT,-13.7223646,-59.2645296,6,84.86563
1,Campos do Jordão/SP,-22.7395263,-45.5912829,1054,2011.25847
D1,Campos do Jordão/SP,-22.7395263,-45.5912829,31,59.15466
1,Campos dos Goytacazes/RJ,-21.7558619,-41.3326895,9011,1762.82553
D1,Campos dos Goytacazes/RJ,-21.7558619,-41.3326895,458,89.59872
1,Camutanga/PE,-7.4092965,-35.2738166,205,2391.50723
D1,Camutanga/PE,-7.4092965,-35.2738166,7,81.66122
1,Cana Verde/MG,-21.021308,-45.1817881,94,1680.37183
D1,Cana Verde/MG,-21.021308,-45.1817881,2,35.75259
1,Canabrava do Norte/MT,-11.0516481,-51.8301897,64,1353.63790
D1,Canabrava do Norte/MT,-11.0516481,-51.8301897,2,42.30118
1,Cananéia/SP,-25.0104609,-47.9315628,217,1730.32454
D1,Cananéia/SP,-25.0104609,-47.9315628,9,71.76461
1,Canapi/AL,-9.1173572,-37.6011704,68,383.76884
D1,Canapi/AL,-9.1173572,-37.6011704,3,16.93098
1,Canarana/BA,-11.6870151,-41.7683675,420,1595.44160
D1,Canarana/BA,-11.6870151,-41.7683675,5,18.99335
1,Canarana/MT,-13.5564602,-52.2691167,808,3699.29494
D1,Canarana/MT,-13.5564602,-52.2691167,16,73.25337
1,Canas/SP,-22.7029347,-45.0526508,52,999.23136
D1,Canas/SP,-22.7029347,-45.0526508,2,38.43198
1,Canavieira/PI,-7.6924041,-43.7190063,17,431.03448
D1,Canavieira/PI,-7.6924041,-43.7190063,1,25.35497
1,Canavieiras/BA,-15.61621745,-39.08485321304444,352,1138.93742
D1,Canavieiras/BA,-15.61621745,-39.08485321304444,20,64.71235
1,Canaã dos Carajás/PA,-6.5296837,-49.8516592,4293,11266.82938
D1,Canaã dos Carajás/PA,-6.5296837,-49.8516592,46,120.72540
1,Canaã/MG,-20.685555,-42.62,3,65.96306
1,Candeal/BA,-11.8053441,-39.1206515,183,2236.89036
1,Candeias do Jamari/RO,-8.7949939,-63.7018851,1611,5882.13816
D1,Candeias do Jamari/RO,-8.7949939,-63.7018851,32,116.83949
1,Candeias/BA,-12.6693806,-38.5406462,2781,3179.81202
D1,Candeias/BA,-12.6693806,-38.5406462,63,72.03458
