type,name,lat,lon,total,total_per_100k_inhabitants
1,Abadia de Goiás/GO,-16.7572644,-49.4412205,1197,13362.35767
D1,Abadia de Goiás/GO,-16.7572644,-49.4412205,19,212.10092
1,Abadia dos Dourados/MG,-18.4911191,-47.4063589,340,4852.98316
D1,Abadia dos Dourados/MG,-18.4911191,-47.4063589,12,171.28176
1,Abadiânia/GO,-16.1940946,-48.7067767,306,1495.52808
D1,Abadiânia/GO,-16.1940946,-48.7067767,24,117.29632
1,Abaetetuba/PA,-1.721828,-48.878843,6340,3985.41614
D1,Abaetetuba/PA,-1.721828,-48.878843,154,96.80664
1,Abaeté/MG,-19.1566833,-45.4481213,845,3634.40860
D1,Abaeté/MG,-19.1566833,-45.4481213,18,77.41935
1,Abaiara/CE,-7.3607808,-39.0487878,347,2927.52890
D1,Abaiara/CE,-7.3607808,-39.0487878,7,59.05678
1,Abaré/BA,-8.7239913,-39.1139689,628,3086.45009
D1,Abaré/BA,-8.7239913,-39.1139689,3,14.74419
1,Abatiá/PR,-23.3052967,-50.3102532,446,6020.51836
D1,Abatiá/PR,-23.3052967,-50.3102532,7,94.49244
1,Abaíra/BA,-13.2503296,-41.6640342,244,2801.37773
D1,Abaíra/BA,-13.2503296,-41.6640342,9,103.32951
1,Abdon Batista/SC,-27.612419,-51.022992,261,10243.32810
D1,Abdon Batista/SC,-27.612419,-51.022992,2,78.49294
1,Abel Figueiredo/PA,-4.953001,-48.3958485,776,10366.01656
D1,Abel Figueiredo/PA,-4.953001,-48.3958485,6,80.14961
1,Abelardo Luz/SC,-26.5705893,-52.3280339,1167,6497.77283
D1,Abelardo Luz/SC,-26.5705893,-52.3280339,38,211.58129
1,Abre Campo/MG,-20.2976097,-42.4764741,802,5965.48646
D1,Abre Campo/MG,-20.2976097,-42.4764741,10,74.38262
1,Abreu e Lima/PE,-7.900719,-34.898389,2081,2073.82457
D1,Abreu e Lima/PE,-7.900719,-34.898389,175,174.39659
1,Abreulândia/TO,-9.6221526,-49.1558343,224,8635.31226
D1,Abreulândia/TO,-9.6221526,-49.1558343,5,192.75251
1,Acaiaca/MG,-20.3621646,-43.1444162,193,4832.24837
D1,Acaiaca/MG,-20.3621646,-43.1444162,6,150.22534
1,Acajutiba/BA,-11.6609659,-38.0186381,460,3028.90630
D1,Acajutiba/BA,-11.6609659,-38.0186381,13,85.59953
1,Acarape/CE,-4.2237866,-38.7071663,2304,15323.22426
D1,Acarape/CE,-4.2237866,-38.7071663,18,119.71269
1,Acaraú/CE,-2.8869514,-40.1194713,4134,6551.09026
D1,Acaraú/CE,-2.8869514,-40.1194713,88,139.45233
1,Acari/RN,-6.4364689,-36.6394777,743,6681.05386
D1,Acari/RN,-6.4364689,-36.6394777,10,89.91997
1,Acará/PA,-1.961388,-48.1987043,1074,1929.26045
D1,Acará/PA,-1.961388,-48.1987043,24,43.11197
1,Acauã/PI,-8.219542,-41.083059,175,2464.09462
D1,Acauã/PI,-8.219542,-41.083059,1,14.08054
1,Aceguá/RS,-31.8695131,-54.1615593,257,5200.32376
D1,Aceguá/RS,-31.8695131,-54.1615593,2,40.46945
1,Acopiara/CE,-6.0936464,-39.4543204,2302,4225.32626
D1,Acopiara/CE,-6.0936464,-39.4543204,96,176.20822
1,Acorizal/MT,-15.2001544,-56.3668953,418,7836.52043
D1,Acorizal/MT,-15.2001544,-56.3668953,15,281.21485
1,Acrelândia/AC,-10.0759167,-67.0526898,1388,8960.61975
D1,Acrelândia/AC,-10.0759167,-67.0526898,23,148.48289
1,Acreúna/GO,-17.3959899,-50.3749031,1471,6524.43892
D1,Acreúna/GO,-17.3959899,-50.3749031,38,168.54431
1,Adamantina/SP,-21.6866517,-51.0762975,2191,6240.20962
D1,Adamantina/SP,-21.6866517,-51.0762975,59,168.03851
1,Adelândia/GO,-16.4155077,-50.1665834,108,4292.52782
D1,Adelândia/GO,-16.4155077,-50.1665834,2,79.49126
1,Adolfo/SP,-21.2356597,-49.6441918,351,9876.19584
D1,Adolfo/SP,-21.2356597,-49.6441918,9,253.23579
1,Adrianópolis/PR,-24.6557863,-48.9912769,1034,17654.08912
D1,Adrianópolis/PR,-24.6557863,-48.9912769,21,358.54533
1,Adustina/BA,-10.5358875,-38.114479,525,3065.51442
D1,Adustina/BA,-10.5358875,-38.114479,9,52.55168
1,Afogados da Ingazeira/PE,-7.750429,-37.6356375,3229,8632.76655
D1,Afogados da Ingazeira/PE,-7.750429,-37.6356375,46,122.98150
1,Afonso Bezerra/RN,-5.4745,-36.57625071327935,381,3454.52897
D1,Afonso Bezerra/RN,-5.4745,-36.57625071327935,11,99.73706
1,Afonso Cláudio/ES,-20.077841,-41.12606,2985,9801.34625
D1,Afonso Cláudio/ES,-20.077841,-41.12606,48,157.60959
1,Afonso Cunha/MA,-4.1326105,-43.3230026,155,2356.33931
D1,Afonso Cunha/MA,-4.1326105,-43.3230026,2,30.40438
1,Afrânio/PE,-8.5198919,-41.0070197,643,3245.83544
D1,Afrânio/PE,-8.5198919,-41.0070197,11,55.52751
1,Afuá/PA,-0.1535664,-50.3879223,2801,7079.13160
D1,Afuá/PA,-0.1535664,-50.3879223,14,35.38302
1,Agrestina/PE,-8.4558021,-35.9442663,1076,4292.83862
D1,Agrestina/PE,-8.4558021,-35.9442663,39,155.59545
1,Agricolândia/PI,-5.7967843,-42.6605131,225,4385.11011
D1,Agricolândia/PI,-5.7967843,-42.6605131,3,58.46813
1,Agrolândia/SC,-27.4122212,-49.8295774,861,7818.03323
D1,Agrolândia/SC,-27.4122212,-49.8295774,11,99.88196
1,Agronômica/SC,-27.2660744,-49.7104753,426,7732.80087
D1,Agronômica/SC,-27.2660744,-49.7104753,9,163.36903
1,Aguanil/MG,-20.9424533,-45.3927152,350,7739.93808
D1,Aguanil/MG,-20.9424533,-45.3927152,7,154.79876
1,Aguaí/SP,-22.0592036,-46.979384,1711,4668.74045
D1,Aguaí/SP,-22.0592036,-46.979384,40,109.14647
1,Agudo/RS,-29.6423259,-53.2494005,920,5609.41406
D1,Agudo/RS,-29.6423259,-53.2494005,12,73.16627
1,Agudos do Sul/PR,-25.9890808,-49.3328175,424,4477.29673
D1,Agudos do Sul/PR,-25.9890808,-49.3328175,7,73.91763
1,Agudos/SP,-22.471162,-48.987822,2270,6069.35643
D1,Agudos/SP,-22.471162,-48.987822,52,139.03372
1,Aguiar/PB,-7.0928404,-38.1727215,256,4547.06927
D1,Aguiar/PB,-7.0928404,-38.1727215,3,53.28597
1,Aguiarnópolis/TO,-6.5600452,-47.4721189,505,7327.33604
D1,Aguiarnópolis/TO,-6.5600452,-47.4721189,11,159.60534
1,Aimorés/MG,-19.4917754,-41.0615603,1596,6348.19617
D1,Aimorés/MG,-19.4917754,-41.0615603,39,155.12509
1,Aiquara/BA,-14.126918,-39.8887574,434,9827.89855
D1,Aiquara/BA,-14.126918,-39.8887574,9,203.80435
1,Aiuaba/CE,-6.5710836,-40.1212278,320,1829.30315
D1,Aiuaba/CE,-6.5710836,-40.1212278,9,51.44915
1,Aiuruoca/MG,-21.9759554,-44.6036637,79,1321.95448
D1,Aiuruoca/MG,-21.9759554,-44.6036637,6,100.40161
1,Ajuricaba/RS,-28.239654,-53.7693013,622,8902.24703
D1,Ajuricaba/RS,-28.239654,-53.7693013,22,314.87047
1,Alagoa Grande/PB,-7.0415212,-35.6285322,2384,8382.85453
D1,Alagoa Grande/PB,-7.0415212,-35.6285322,45,158.23341
1,Alagoa Nova/PB,-7.0653703,-35.76695977336711,687,3283.78185
D1,Alagoa Nova/PB,-7.0653703,-35.76695977336711,13,62.13852
1,Alagoa/MG,-22.1697202,-44.6400042,269,10093.80863
D1,Alagoa/MG,-22.1697202,-44.6400042,4,150.09381
1,Alagoinha do Piauí/PI,-7.0090952,-40.939675,249,3248.53229
D1,Alagoinha do Piauí/PI,-7.0090952,-40.939675,9,117.41683
1,Alagoinha/PB,-6.97063215,-35.51490901897793,1325,9100.27473
D1,Alagoinha/PB,-6.97063215,-35.51490901897793,21,144.23077
1,Alagoinha/PE,-8.50355635,-36.77701174370496,472,3206.95747
D1,Alagoinha/PE,-8.50355635,-36.77701174370496,13,88.32722
1,Alagoinhas/BA,-12.133526,-38.420772,10411,6834.63864
D1,Alagoinhas/BA,-12.133526,-38.420772,195,128.01407
1,Alambari/SP,-23.550338,-47.897971,403,6575.29776
D1,Alambari/SP,-23.550338,-47.897971,9,146.84288
1,Albertina/MG,-20.66164,-43.784039,170,5645.96480
D1,Albertina/MG,-20.66164,-43.784039,6,199.26935
1,Alcantil/PB,-7.7425491,-36.0609604,247,4483.57234
D1,Alcantil/PB,-7.7425491,-36.0609604,6,108.91269
1,Alcinópolis/MS,-18.3264121,-53.7094463,147,2713.67916
D1,Alcinópolis/MS,-18.3264121,-53.7094463,6,110.76241
1,Alcobaça/BA,-17.5215875,-39.1965474,1173,5215.65140
D1,Alcobaça/BA,-17.5215875,-39.1965474,17,75.58915
1,Alcântara/MA,-2.4038956,-44.4154241,208,940.66570
D1,Alcântara/MA,-2.4038956,-44.4154241,11,49.74674
1,Alcântaras/CE,-3.586247,-40.5457641,1060,8997.53841
D1,Alcântaras/CE,-3.586247,-40.5457641,11,93.37068
1,Aldeias Altas/MA,-4.6291957,-43.4708622,975,3643.90627
D1,Aldeias Altas/MA,-4.6291957,-43.4708622,13,48.58542
1,Alecrim/RS,-27.6566142,-54.7653195,229,3929.98112
D1,Alecrim/RS,-27.6566142,-54.7653195,9,154.45341
1,Alegre/ES,-20.7625787,-41.5318886,1649,5501.25104
D1,Alegre/ES,-20.7625787,-41.5318886,37,123.43620
1,Alegrete do Piauí/PI,-7.2440138,-40.8602296,424,8621.39081
D1,Alegrete do Piauí/PI,-7.2440138,-40.8602296,5,101.66734
1,Alegrete/RS,-29.790166,-55.794862,5925,8113.32640
D1,Alegrete/RS,-29.790166,-55.794862,185,253.32749
1,Alegria/RS,-27.8332103,-54.0574959,291,8624.77771
D1,Alegria/RS,-27.8332103,-54.0574959,1,29.63841
1,Alenquer/PA,-1.946229,-54.738355,2286,4004.06362
D1,Alenquer/PA,-1.946229,-54.738355,71,124.36068
1,Alexandria/RN,-6.414779,-38.0135516,1016,7496.49524
D1,Alexandria/RN,-6.414779,-38.0135516,12,88.54128
1,Alexânia/GO,-16.0834049,-48.5077803,2417,8629.06105
D1,Alexânia/GO,-16.0834049,-48.5077803,47,167.79722
1,Alfenas/MG,-21.4297405,-45.9479419,5451,6771.93331
D1,Alfenas/MG,-21.4297405,-45.9479419,125,155.29108
1,Alfredo Chaves/ES,-20.624970400000002,-40.75006690147988,1970,13459.96174
D1,Alfredo Chaves/ES,-20.624970400000002,-40.75006690147988,24,163.97923
1,Alfredo Marcondes/SP,-21.9527,-51.413956,197,4708.41300
D1,Alfredo Marcondes/SP,-21.9527,-51.413956,8,191.20459
1,Alfredo Vasconcelos/MG,-21.145833,-43.776389,233,3337.63071
D1,Alfredo Vasconcelos/MG,-21.145833,-43.776389,6,85.94757
1,Alfredo Wagner/SC,-27.6961513,-49.3326734,603,5978.58418
D1,Alfredo Wagner/SC,-27.6961513,-49.3326734,5,49.57367
1,Algodão de Jandaíra/PB,-6.9040175,-36.0089879,90,3492.43306
1,Alhandra/PB,-7.4304246,-34.9106103,1294,6559.53769
D1,Alhandra/PB,-7.4304246,-34.9106103,24,121.66067
1,Aliança do Tocantins/TO,-11.3055927,-48.9409096,484,9053.49794
D1,Aliança do Tocantins/TO,-11.3055927,-48.9409096,16,299.28919
1,Aliança/PE,-7.60398,-35.222696,487,1268.32825
D1,Aliança/PE,-7.60398,-35.222696,38,98.96607
1,Almadina/BA,-14.70466,-39.6381994,577,10752.88856
D1,Almadina/BA,-14.70466,-39.6381994,9,167.72270
1,Almas/TO,-11.5681309,-47.1702803,177,2536.17997
D1,Almas/TO,-11.5681309,-47.1702803,4,57.31480
1,Almeirim/PA,-1.5290377,-52.5788111,3236,9496.41977
D1,Almeirim/PA,-1.5290377,-52.5788111,30,88.03850
1,Almenara/MG,-16.1740678,-40.6904907,3137,7443.70358
D1,Almenara/MG,-16.1740678,-40.6904907,30,71.18620
1,Almino Afonso/RN,-6.1544208,-37.7649018,342,7261.14650
D1,Almino Afonso/RN,-6.1544208,-37.7649018,10,212.31423
1,Almirante Tamandaré do Sul/RS,-28.1141129,-52.9134874,162,8311.95485
D1,Almirante Tamandaré do Sul/RS,-28.1141129,-52.9134874,1,51.30836
1,Almirante Tamandaré/PR,-25.3133048,-49.2997838,7385,6152.06471
D1,Almirante Tamandaré/PR,-25.3133048,-49.2997838,262,218.25876
1,Aloândia/GO,-17.7277983,-49.4809338,186,9365.55891
D1,Aloândia/GO,-17.7277983,-49.4809338,6,302.11480
1,Alpercata/MG,-18.9803616,-41.9827637,407,5473.37278
D1,Alpercata/MG,-18.9803616,-41.9827637,13,174.82517
1,Alpestre/RS,-27.2512339,-53.0349646,261,4301.96143
D1,Alpestre/RS,-27.2512339,-53.0349646,7,115.37828
1,Alpinópolis/MG,-20.863611,-46.387777,716,3587.53382
D1,Alpinópolis/MG,-20.863611,-46.387777,13,65.13679
1,Alta Floresta D'Oeste/RO,-11.9296917,-61.9961284,3145,13837.55720
D1,Alta Floresta D'Oeste/RO,-11.9296917,-61.9961284,47,206.79338
1,Alta Floresta/MT,-9.8715018,-56.0839881,6454,12421.33220
D1,Alta Floresta/MT,-9.8715018,-56.0839881,87,167.43971
1,Altair/SP,-20.5238955,-49.0606135,126,3010.03344
D1,Altair/SP,-20.5238955,-49.0606135,7,167.22408
1,Altamira do Maranhão/MA,-4.1643006,-45.4674574,279,3407.00940
D1,Altamira do Maranhão/MA,-4.1643006,-45.4674574,8,97.69203
1,Altamira do Paraná/PR,-24.799114,-52.7128633,100,5945.30321
D1,Altamira do Paraná/PR,-24.799114,-52.7128633,3,178.35910
1,Altamira/PA,-3.204065,-52.209961,11489,9906.95789
D1,Altamira/PA,-3.204065,-52.209961,234,201.77806
1,Altaneira/CE,-6.9980933,-39.7385742,314,4104.57516
D1,Altaneira/CE,-6.9980933,-39.7385742,10,130.71895
1,Alterosa/MG,-21.249166,-46.143055,501,3451.12627
D1,Alterosa/MG,-21.249166,-46.143055,25,172.21189
1,Altinho/PE,-8.4904095,-36.0607494,856,3724.32997
D1,Altinho/PE,-8.4904095,-36.0607494,17,73.96450
1,Altinópolis/SP,-21.021364,-47.3712,650,4011.60279
D1,Altinópolis/SP,-21.021364,-47.3712,21,129.60563
1,Alto Alegre do Maranhão/MA,-4.2055693,-44.4525287,757,2717.35229
D1,Alto Alegre do Maranhão/MA,-4.2055693,-44.4525287,22,78.97193
1,Alto Alegre do Pindaré/MA,-3.6698186,-45.8462153,1725,5400.24418
D1,Alto Alegre do Pindaré/MA,-3.6698186,-45.8462153,35,109.57017
1,Alto Alegre dos Parecis/RO,-12.1314515,-61.856265,1007,7597.13316
D1,Alto Alegre dos Parecis/RO,-12.1314515,-61.856265,20,150.88646
1,Alto Alegre/RR,2.98858,-61.307167,1173,7626.78804
D1,Alto Alegre/RR,2.98858,-61.307167,26,169.05072
1,Alto Alegre/RS,-31.780844700000003,-52.81311114489171,129,7997.52015
1,Alto Alegre/SP,-21.5820592,-50.1661976,198,4843.44423
D1,Alto Alegre/SP,-21.5820592,-50.1661976,8,195.69472
1,Alto Araguaia/MT,-17.3156528,-53.2169365,949,4895.53779
D1,Alto Araguaia/MT,-17.3156528,-53.2169365,19,98.01393
1,Alto Bela Vista/SC,-27.4320737,-51.905771,114,5919.00312
D1,Alto Bela Vista/SC,-27.4320737,-51.905771,2,103.84216
1,Alto Boa Vista/MT,-11.6723985,-51.3744431,477,6877.16263
D1,Alto Boa Vista/MT,-11.6723985,-51.3744431,9,129.75779
1,Alto Caparaó/MG,-20.4405661,-41.8683799,321,5446.21649
D1,Alto Caparaó/MG,-20.4405661,-41.8683799,7,118.76485
1,Alto Feliz/RS,-29.3785943,-51.3123751,167,5500.65876
1,Alto Garças/MT,-16.9469683,-53.529427,515,4238.33429
D1,Alto Garças/MT,-16.9469683,-53.529427,21,172.82528
1,Alto Horizonte/GO,-14.1954948,-49.3366993,598,9053.74716
D1,Alto Horizonte/GO,-14.1954948,-49.3366993,6,90.84027
1,Alto Jequitibá/MG,-20.423611,-41.966111,501,6035.41742
D1,Alto Jequitibá/MG,-20.423611,-41.966111,9,108.42067
1,Alto Longá/PI,-5.2549051,-42.2072388,494,3445.14959
D1,Alto Longá/PI,-5.2549051,-42.2072388,13,90.66183
1,Alto Paraguai/MT,-14.513712,-56.4936374,594,5177.37296
D1,Alto Paraguai/MT,-14.513712,-56.4936374,19,165.60621
1,Alto Paraná/PR,-23.131247,-52.318893,641,4313.88384
D1,Alto Paraná/PR,-23.131247,-52.318893,14,94.21899
1,Alto Paraíso de Goiás/GO,-14.1304779,-47.5100161,497,6464.62019
D1,Alto Paraíso de Goiás/GO,-14.1304779,-47.5100161,5,65.03642
1,Alto Paraíso/PR,-23.508137,-53.728537,152,5661.08007
D1,Alto Paraíso/PR,-23.508137,-53.728537,2,74.48790
1,Alto Paraíso/RO,-9.7240103,-63.3188123,1509,6907.12684
D1,Alto Paraíso/RO,-9.7240103,-63.3188123,34,155.62777
1,Alto Parnaíba/MA,-9.112506,-45.9310154,660,5886.55012
D1,Alto Parnaíba/MA,-9.112506,-45.9310154,5,44.59508
1,Alto Piquiri/PR,-24.0239021,-53.4417448,456,4663.53037
D1,Alto Piquiri/PR,-24.0239021,-53.4417448,11,112.49744
1,Alto Rio Doce/MG,-21.0239537,-43.4133507,271,2495.62575
D1,Alto Rio Doce/MG,-21.0239537,-43.4133507,22,202.59692
1,Alto Rio Novo/ES,-19.0577208,-41.0171518,630,8001.01600
D1,Alto Rio Novo/ES,-19.0577208,-41.0171518,21,266.70053
1,Alto Santo/CE,-5.5190371,-38.2719351,756,4396.37125
D1,Alto Santo/CE,-5.5190371,-38.2719351,17,98.86020
1,Alto Taquari/MT,-17.8269099,-53.2831736,1258,11299.73951
D1,Alto Taquari/MT,-17.8269099,-53.2831736,22,197.61071
1,Alto do Rodrigues/RN,-5.290868,-36.7616726,1249,8480.44541
D1,Alto do Rodrigues/RN,-5.290868,-36.7616726,25,169.74470
1,Altos/PI,-5.0393915,-42.4611694,3498,8614.70262
D1,Altos/PI,-5.0393915,-42.4611694,65,160.07881
1,Altônia/PR,-23.8722004,-53.894037,819,3693.18182
D1,Altônia/PR,-23.8722004,-53.894037,14,63.13131
1,Alumínio/SP,-23.5203479,-47.2575256,1044,5562.95625
D1,Alumínio/SP,-23.5203479,-47.2575256,31,165.18357
1,Alvarenga/MG,-19.4175,-41.728334,348,9053.06972
D1,Alvarenga/MG,-19.4175,-41.728334,4,104.05827
1,Alvarães/AM,-3.214786,-64.8143124,2668,16448.82861
D1,Alvarães/AM,-3.214786,-64.8143124,38,234.27867
1,Alvinlândia/SP,-22.4431852,-49.7643596,108,3336.42261
D1,Alvinlândia/SP,-22.4431852,-49.7643596,1,30.89280
1,Alvinópolis/MG,-20.1105199,-43.0601805,466,3072.05485
D1,Alvinópolis/MG,-20.1105199,-43.0601805,12,79.10871
1,Alvorada D'Oeste/RO,-11.346271,-62.284697,790,5600.45371
D1,Alvorada D'Oeste/RO,-11.346271,-62.284697,20,141.78364
1,Alvorada de Minas/MG,-18.7318587,-43.3641479,227,6296.80999
D1,Alvorada de Minas/MG,-18.7318587,-43.3641479,1,27.73925
1,Alvorada do Gurguéia/PI,-8.4465288,-43.8655915,233,4279.15519
D1,Alvorada do Gurguéia/PI,-8.4465288,-43.8655915,6,110.19284
1,Alvorada do Norte/GO,-14.483911,-46.4959897,563,6467.54739
D1,Alvorada do Norte/GO,-14.483911,-46.4959897,2,22.97530
1,Alvorada do Sul/PR,-22.7807269,-51.2307721,622,5407.28506
D1,Alvorada do Sul/PR,-22.7807269,-51.2307721,15,130.40077
1,Alvorada/RS,-29.9981184,-51.0772509,15601,7381.52466
D1,Alvorada/RS,-29.9981184,-51.0772509,588,278.20886
1,Alvorada/TO,-12.478465,-49.124926,971,11565.03097
D1,Alvorada/TO,-12.478465,-49.124926,17,202.47737
1,Além Paraíba/MG,-21.8760576,-42.6810473,2479,7002.62704
D1,Além Paraíba/MG,-21.8760576,-42.6810473,112,316.37524
1,Amajari/RR,3.6523869,-61.4194315,823,6241.94160
D1,Amajari/RR,3.6523869,-61.4194315,18,136.51877
1,Amambai/MS,-23.1082701,-55.2284854,2014,5056.99794
D1,Amambai/MS,-23.1082701,-55.2284854,37,92.90413
1,Amaporã/PR,-23.094272,-52.786597,203,3205.93809
1,Amapá do Maranhão/MA,-1.6762114,-46.0109669,78,1113.49036
D1,Amapá do Maranhão/MA,-1.6762114,-46.0109669,1,14.27552
1,Amapá/AP,2.0529997,-50.7930003,1208,13149.01491
D1,Amapá/AP,2.0529997,-50.7930003,10,108.84946
1,Amaraji/PE,-8.373925,-35.4536527,417,1823.34937
D1,Amaraji/PE,-8.373925,-35.4536527,28,122.43113
1,Amaral Ferrador/RS,-30.8750633,-52.2542051,190,2681.72195
D1,Amaral Ferrador/RS,-30.8750633,-52.2542051,4,56.45730
1,Amaralina/GO,-13.9236199,-49.2962411,46,1196.35891
1,Amarante do Maranhão/MA,-5.56913,-46.747284,1357,3251.93511
D1,Amarante do Maranhão/MA,-5.56913,-46.747284,48,115.02792
1,Amarante/PI,-6.2459374,-42.8476238,1186,6737.10520
D1,Amarante/PI,-6.2459374,-42.8476238,27,153.37423
1,Amargosa/BA,-13.03793715,-39.60796443875596,2156,5758.39321
D1,Amargosa/BA,-13.03793715,-39.60796443875596,43,114.84736
1,Amaturá/AM,-3.3640509,-68.1994689,2187,18634.96933
D1,Amaturá/AM,-3.3640509,-68.1994689,17,144.85344
1,Americana/SP,-22.7392463,-47.3306032,14384,5943.35958
D1,Americana/SP,-22.7392463,-47.3306032,415,171.47485
1,Americano do Brasil/GO,-16.2515808,-49.9806104,361,5856.58663
D1,Americano do Brasil/GO,-16.2515808,-49.9806104,14,227.12524
1,Ametista do Sul/RS,-27.3617341,-53.1826575,495,6686.47845
D1,Ametista do Sul/RS,-27.3617341,-53.1826575,11,148.58841
1,Amontada/CE,-3.3634586,-39.8284791,1726,3938.03190
D1,Amontada/CE,-3.3634586,-39.8284791,32,73.01102
1,Amorinópolis/GO,-16.6211308,-51.0949921,144,4692.08211
D1,Amorinópolis/GO,-16.6211308,-51.0949921,1,32.58390
1,Amparo de São Francisco/SE,-10.1299754,-36.9269099,124,5210.08403
D1,Amparo de São Francisco/SE,-10.1299754,-36.9269099,3,126.05042
1,Amparo do Serra/MG,-20.5070255,-42.8028462,99,2116.28901
D1,Amparo do Serra/MG,-20.5070255,-42.8028462,3,64.12997
1,Amparo/PB,-7.56394725,-37.04652873235175,150,6663.70502
D1,Amparo/PB,-7.56394725,-37.04652873235175,4,177.69880
1,Amparo/SP,-22.70111,-46.76444,3651,5023.59756
D1,Amparo/SP,-22.70111,-46.76444,106,145.85082
1,Ampére/PR,-25.9168712,-53.4742414,893,4624.30739
D1,Ampére/PR,-25.9168712,-53.4742414,26,134.63829
1,Amélia Rodrigues/BA,-12.4015388,-38.7516971,1714,6842.86171
D1,Amélia Rodrigues/BA,-12.4015388,-38.7516971,35,139.73172
1,América Dourada/BA,-11.4515262,-41.4357517,561,3486.63766
D1,América Dourada/BA,-11.4515262,-41.4357517,2,12.43008
1,Américo Brasiliense/SP,-21.7297099,-48.1052092,2911,7094.46286
D1,Américo Brasiliense/SP,-21.7297099,-48.1052092,64,155.97582
1,Américo de Campos/SP,-20.298476,-49.735904,577,9647.21618
D1,Américo de Campos/SP,-20.298476,-49.735904,18,300.95302
1,Anadia/AL,-9.6830208,-36.3052699,1014,5785.68983
D1,Anadia/AL,-9.6830208,-36.3052699,20,114.11617
1,Anagé/BA,-14.6134669,-41.1376308,644,2980.51557
D1,Anagé/BA,-14.6134669,-41.1376308,15,69.42195
1,Anahy/PR,-24.6450861,-53.1337957,239,8572.45337
D1,Anahy/PR,-24.6450861,-53.1337957,4,143.47202
1,Anajatuba/MA,-3.26441,-44.6179916,697,2582.62932
D1,Anajatuba/MA,-3.26441,-44.6179916,17,62.99096
1,Anajás/PA,-0.9878802,-49.9390114,1264,4257.61250
D1,Anajás/PA,-0.9878802,-49.9390114,14,47.15710
1,Analândia/SP,-22.128917,-47.661939,238,4707.27848
D1,Analândia/SP,-22.128917,-47.661939,3,59.33544
1,Anamã/AM,-3.5797356,-61.4049996,1654,11851.53339
D1,Anamã/AM,-3.5797356,-61.4049996,7,50.15764
1,Ananindeua/PA,-1.374035,-48.4016623,17621,3290.28078
D1,Ananindeua/PA,-1.374035,-48.4016623,602,112.40843
1,Ananás/TO,-6.3663053,-48.080238,1346,14180.36241
D1,Ananás/TO,-6.3663053,-48.080238,20,210.70375
1,Anapu/PA,-3.4668292,-51.2057035,1268,4432.48156
D1,Anapu/PA,-3.4668292,-51.2057035,29,101.37379
1,Anapurus/MA,-3.6751298,-43.1046001,828,5209.51302
D1,Anapurus/MA,-3.6751298,-43.1046001,11,69.20851
1,Anastácio/MS,-20.4832458,-55.8048448,1608,6371.59726
D1,Anastácio/MS,-20.4832458,-55.8048448,50,198.12181
1,Anaurilândia/MS,-22.185169,-52.719056,258,2842.66197
D1,Anaurilândia/MS,-22.185169,-52.719056,8,88.14456
1,Anchieta/ES,-20.8057672,-40.6454564,3890,13062.89667
D1,Anchieta/ES,-20.8057672,-40.6454564,56,188.05198
1,Anchieta/SC,-26.5350527,-53.3293938,388,6982.18463
D1,Anchieta/SC,-26.5350527,-53.3293938,6,107.97193
1,Andaraí/BA,-12.8059674,-41.3322919,606,4614.68169
D1,Andaraí/BA,-12.8059674,-41.3322919,5,38.07493
1,Andirá/PR,-23.0494761,-50.2310027,1368,6865.40199
D1,Andirá/PR,-23.0494761,-50.2310027,48,240.89130
1,Andorinha/BA,-10.3445708,-39.8334411,651,4488.72647
D1,Andorinha/BA,-10.3445708,-39.8334411,9,62.05613
1,Andradas/MG,-22.0680484,-46.5688976,2336,5643.05730
D1,Andradas/MG,-22.0680484,-46.5688976,58,140.11016
1,Andradina/SP,-20.896505,-51.3742765,4228,7391.34995
D1,Andradina/SP,-20.896505,-51.3742765,163,284.95507
1,Andrelândia/MG,-21.739722,-44.308889,206,1687.69458
D1,Andrelândia/MG,-21.739722,-44.308889,7,57.34884
1,André da Rocha/RS,-28.6309124,-51.5733328,90,6701.41474
1,Angatuba/SP,-23.4938938,-48.4110675,1991,7814.27843
D1,Angatuba/SP,-23.4938938,-48.4110675,49,192.31524
1,Angelim/PE,-8.8902038,-36.2872987,123,1095.67076
D1,Angelim/PE,-8.8902038,-36.2872987,4,35.63157
1,Angelina/SC,-27.5805287,-48.9838759,429,9044.90829
D1,Angelina/SC,-27.5805287,-48.9838759,1,21.08370
1,Angelândia/MG,-17.7253,-42.2728,80,934.90709
1,Angical do Piauí/PI,-6.0872666,-42.7366138,359,5292.64337
D1,Angical do Piauí/PI,-6.0872666,-42.7366138,8,117.94191
1,Angical/BA,-12.005623,-44.7000236,389,2790.93127
D1,Angical/BA,-12.005623,-44.7000236,10,71.74631
1,Angico/TO,-6.3893733,-47.8656722,200,5790.38796
D1,Angico/TO,-6.3893733,-47.8656722,3,86.85582
1,Angicos/RN,-5.6666344,-36.6009064,481,4109.35498
D1,Angicos/RN,-5.6666344,-36.6009064,13,111.06365
1,Angra dos Reis/RJ,-23.0063966,-44.316326,11858,5727.28502
D1,Angra dos Reis/RJ,-23.0063966,-44.316326,373,180.15494
1,Anguera/BA,-12.1509425,-39.2452469,302,2673.27609
D1,Anguera/BA,-12.1509425,-39.2452469,1,8.85191
1,Angélica/MS,-22.1588196,-53.7728504,581,5314.67252
D1,Angélica/MS,-22.1588196,-53.7728504,11,100.62203
1,Anhanguera/GO,-18.3338749,-48.220363,85,7327.58621
D1,Anhanguera/GO,-18.3338749,-48.220363,6,517.24138
1,Anhembi/SP,-22.7891096,-48.1316776,118,1730.45901
D1,Anhembi/SP,-22.7891096,-48.1316776,2,29.32981
1,Anhumas/SP,-22.2956478,-51.3873401,177,4271.23552
D1,Anhumas/SP,-22.2956478,-51.3873401,4,96.52510
1,Anicuns/GO,-16.4606451,-49.9572265,2163,9840.31664
D1,Anicuns/GO,-16.4606451,-49.9572265,52,236.56795
1,Anita Garibaldi/SC,-27.6855032,-51.1293873,793,11398.59135
D1,Anita Garibaldi/SC,-27.6855032,-51.1293873,6,86.24407
1,Anitápolis/SC,-27.9041185,-49.1287395,296,9169.76456
D1,Anitápolis/SC,-27.9041185,-49.1287395,1,30.97893
1,Anori/AM,-3.7435254,-61.6605203,1821,8478.83783
D1,Anori/AM,-3.7435254,-61.6605203,31,144.34046
1,Anta Gorda/RS,-28.9718745,-52.0069187,517,8673.04144
D1,Anta Gorda/RS,-28.9718745,-52.0069187,4,67.10284
1,Antas/BA,-10.4114649,-38.3308815,1003,5149.13497
D1,Antas/BA,-10.4114649,-38.3308815,5,25.66867
1,Antonina do Norte/CE,-6.7754187,-39.9879345,222,3008.94551
D1,Antonina do Norte/CE,-6.7754187,-39.9879345,12,162.64570
1,Antonina/PR,-25.4298854,-48.7125431,1894,9995.25041
D1,Antonina/PR,-25.4298854,-48.7125431,49,258.58884
1,Antônio Almeida/PI,-7.2186016,-44.1950248,399,12586.75079
D1,Antônio Almeida/PI,-7.2186016,-44.1950248,10,315.45741
1,Antônio Cardoso/BA,-12.4363122,-39.1200307,305,2611.97225
D1,Antônio Cardoso/BA,-12.4363122,-39.1200307,8,68.51075
1,Antônio Carlos/MG,-21.318334,-43.746666,398,3473.25247
D1,Antônio Carlos/MG,-21.318334,-43.746666,7,61.08735
1,Antônio Carlos/SC,-27.5168462,-48.7684715,1428,16579.58899
D1,Antônio Carlos/SC,-27.5168462,-48.7684715,19,220.59677
1,Antônio Dias/MG,-19.6525,-42.872778,428,4614.55526
D1,Antônio Dias/MG,-19.6525,-42.872778,16,172.50674
1,Antônio Gonçalves/BA,-10.5715409,-40.2748824,575,4840.88230
D1,Antônio Gonçalves/BA,-10.5715409,-40.2748824,5,42.09463
1,Antônio João/MS,-22.1892837,-55.9508227,251,2782.70510
D1,Antônio João/MS,-22.1892837,-55.9508227,5,55.43237
1,Antônio Martins/RN,-6.2155812,-37.8890129,273,3816.04697
D1,Antônio Martins/RN,-6.2155812,-37.8890129,3,41.93458
1,Antônio Olinto/PR,-25.9849006,-50.1974516,268,3608.45563
D1,Antônio Olinto/PR,-25.9849006,-50.1974516,6,80.78632
1,Antônio Prado de Minas/MG,-21.0171988,-42.1101106,149,9388.78387
D1,Antônio Prado de Minas/MG,-21.0171988,-42.1101106,5,315.05986
1,Antônio Prado/RS,-28.8567806,-51.2801355,1602,12280.56727
D1,Antônio Prado/RS,-28.8567806,-51.2801355,16,122.65236
1,Anápolis/GO,-16.3332828,-48.9525756,28404,7250.13528
D1,Anápolis/GO,-16.3332828,-48.9525756,754,192.45888
1,Anísio de Abreu/PI,-9.185643,-43.04941,263,2646.40773
D1,Anísio de Abreu/PI,-9.185643,-43.04941,4,40.24955
1,Aparecida d'Oeste/SP,-20.4498109,-50.8808706,546,13131.31313
D1,Aparecida d'Oeste/SP,-20.4498109,-50.8808706,11,264.55026
1,Aparecida de Goiânia/GO,-16.8226769,-49.2452546,56635,9596.77775
D1,Aparecida de Goiânia/GO,-16.8226769,-49.2452546,1050,177.92207
1,Aparecida do Rio Doce/GO,-18.2980167,-51.1491312,180,7275.66694
D1,Aparecida do Rio Doce/GO,-18.2980167,-51.1491312,4,161.68149
1,Aparecida do Rio Negro/TO,-9.9513491,-47.9773786,275,5672.44224
D1,Aparecida do Rio Negro/TO,-9.9513491,-47.9773786,5,103.13531
1,Aparecida do Taboado/MS,-20.0840304,-51.1013943,2091,8021.02114
D1,Aparecida do Taboado/MS,-20.0840304,-51.1013943,32,122.75116
1,Aparecida/PB,-6.7859598, -38.0831353,646,7675.85551
D1,Aparecida/PB,-6.7859598, -38.0831353,10,118.82129
1,Aparecida/SP,-22.851552,-45.2340924,1961,5419.37267
D1,Aparecida/SP,-22.851552,-45.2340924,60,165.81456
1,Aperibé/RJ,-21.6211928,-42.1028167,385,3235.02227
D1,Aperibé/RJ,-21.6211928,-42.1028167,16,134.44248
1,Apiacá/ES,-21.152272,-41.569297,590,7810.43156
D1,Apiacá/ES,-21.152272,-41.569297,21,277.99841
1,Apiacás/MT,-9.5678422,-57.394852,914,8888.45668
D1,Apiacás/MT,-9.5678422,-57.394852,8,77.79831
1,Apiaí/SP,-24.5076527,-48.8461582,913,3768.67828
D1,Apiaí/SP,-24.5076527,-48.8461582,39,160.98407
1,Apicum-Açu/MA,-1.5279295,-45.082278,349,2004.24970
D1,Apicum-Açu/MA,-1.5279295,-45.082278,3,17.22851
1,Apiúna/SC,-27.0374658,-49.3885037,685,6314.52802
D1,Apiúna/SC,-27.0374658,-49.3885037,14,129.05605
1,Apodi/RN,-5.6631109,-37.796927,4448,12398.95189
D1,Apodi/RN,-5.6631109,-37.796927,58,161.67698
1,Aporá/BA,-11.6599747,-38.0794757,436,2451.09062
D1,Aporá/BA,-11.6599747,-38.0794757,14,78.70474
1,Aporé/GO,-18.9642193,-51.92804,285,6734.40454
D1,Aporé/GO,-18.9642193,-51.92804,6,141.77694
1,Apuarema/BA,-13.8517897,-39.7457126,609,8340.18077
D1,Apuarema/BA,-13.8517897,-39.7457126,9,123.25390
1,Apucarana/PR,-23.5525327,-51.4610764,5483,4024.69281
D1,Apucarana/PR,-23.5525327,-51.4610764,177,129.92351
1,Apuiarés/CE,-3.9460303,-39.4313298,725,4941.38495
D1,Apuiarés/CE,-3.9460303,-39.4313298,13,88.60414
1,Apuí/AM,-7.1940195,-59.8830192,1133,5067.31070
D1,Apuí/AM,-7.1940195,-59.8830192,24,107.33933
1,Aquidabã/SE,-10.2837579,-37.0188687,1562,7204.46474
D1,Aquidabã/SE,-10.2837579,-37.0188687,25,115.30833
1,Aquidauana/MS,-20.473969,-55.7821375,3825,7963.93845
D1,Aquidauana/MS,-20.473969,-55.7821375,105,218.61792
1,Aquiraz/CE,-3.9063117,-38.387504,4187,5173.28721
D1,Aquiraz/CE,-3.9063117,-38.387504,67,82.78248
1,Arabutã/SC,-27.1587028,-52.1438142,362,8483.71221
D1,Arabutã/SC,-27.1587028,-52.1438142,5,117.17835
1,Aracaju/SE,-10.9162061,-37.0774655,92851,13964.48832
D1,Aracaju/SE,-10.9162061,-37.0774655,1510,227.09909
1,Aracati/CE,-4.558259,-37.767894,4405,5875.29176
D1,Aracati/CE,-4.558259,-37.767894,90,120.04001
1,Aracatu/BA,-14.4274236,-41.4604105,667,5113.07014
D1,Aracatu/BA,-14.4274236,-41.4604105,12,91.98927
1,Araci/BA,-11.3356065,-38.9573261,3121,5711.09647
D1,Araci/BA,-11.3356065,-38.9573261,39,71.36583
1,Aracitaba/MG,-21.3425,-43.378611,73,3545.41039
D1,Aracitaba/MG,-21.3425,-43.378611,7,339.97086
1,Aracoiaba/CE,-4.3702577,-38.8084313,1927,7262.10665
D1,Aracoiaba/CE,-4.3702577,-38.8084313,23,86.67797
1,Aracruz/ES,-19.8245218,-40.2735025,12343,11971.75585
D1,Aracruz/ES,-19.8245218,-40.2735025,169,163.91694
1,Aragarças/GO,-15.8957166,-52.2514538,1732,8543.38282
D1,Aragarças/GO,-15.8957166,-52.2514538,39,192.37409
1,Aragoiânia/GO,-16.9146388,-49.4499148,819,7802.97256
D1,Aragoiânia/GO,-16.9146388,-49.4499148,10,95.27439
1,Aragominas/TO,-7.1654101,-48.525488,439,7660.09422
D1,Aragominas/TO,-7.1654101,-48.525488,8,139.59169
1,Araguacema/TO,-8.8067391,-49.5560969,372,5199.16143
D1,Araguacema/TO,-8.8067391,-49.5560969,11,153.73864
1,Araguaiana/MT,-15.729144,-51.834112,134,4310.06755
D1,Araguaiana/MT,-15.729144,-51.834112,2,64.32937
1,Araguainha/MT,-16.857016,-53.031778,21,2219.87315
1,Araguanã/MA,-2.9508403,-45.6651986,695,4469.16597
D1,Araguanã/MA,-2.9508403,-45.6651986,5,32.15227
1,Araguanã/TO,-6.5799107,-48.6428482,284,4902.46850
D1,Araguanã/TO,-6.5799107,-48.6428482,12,207.14656
1,Araguapaz/GO,-15.0937927,-50.626417,407,5229.34601
D1,Araguapaz/GO,-15.0937927,-50.626417,18,231.27329
1,Araguari/MG,-18.6511256,-48.1933764,10855,9212.81562
D1,Araguari/MG,-18.6511256,-48.1933764,306,259.70719
1,Araguatins/TO,-5.6522925,-48.1158973,1627,4498.20293
D1,Araguatins/TO,-5.6522925,-48.1158973,45,124.41250
1,Araguaçu/TO,-12.928934,-49.823134,724,8550.84445
D1,Araguaçu/TO,-12.928934,-49.823134,16,188.96894
1,Araguaína/TO,-7.193241,-48.2018597,25310,13801.86606
D1,Araguaína/TO,-7.193241,-48.2018597,335,182.67978
1,Araioses/MA,-2.890914,-41.904993,611,1306.36506
D1,Araioses/MA,-2.890914,-41.904993,12,25.65692
1,Aral Moreira/MS,-22.951141,-55.6268421,333,2700.29192
D1,Aral Moreira/MS,-22.951141,-55.6268421,8,64.87188
1,Aramari/BA,-12.0907897,-38.4985065,503,4388.79679
D1,Aramari/BA,-12.0907897,-38.4985065,11,95.97766
1,Arambaré/RS,-30.9132252,-51.4994625,139,3902.30208
D1,Arambaré/RS,-30.9132252,-51.4994625,4,112.29646
1,Arame/MA,-4.8858769,-46.0102484,999,3049.07826
D1,Arame/MA,-4.8858769,-46.0102484,30,91.56391
1,Aramina/SP,-20.0876144,-47.789201,226,3996.46331
D1,Aramina/SP,-20.0876144,-47.789201,8,141.46773
1,Arandu/SP,-23.1345103,-49.0545651,234,3676.35507
D1,Arandu/SP,-23.1345103,-49.0545651,7,109.97643
1,Arantina/MG,-21.911667,-44.255833,76,2726.94654
D1,Arantina/MG,-21.911667,-44.255833,3,107.64263
1,Arapeí/SP,-22.6738889,-44.4477778,176,7154.47154
D1,Arapeí/SP,-22.6738889,-44.4477778,2,81.30081
1,Arapiraca/AL,-9.754866,-36.661471,20218,8675.50322
D1,Arapiraca/AL,-9.754866,-36.661471,313,134.30767
1,Arapoema/TO,-7.6575001,-49.0641484,400,6045.94921
D1,Arapoema/TO,-7.6575001,-49.0641484,5,75.57437
1,Araponga/MG,-20.666667,-42.520556,318,3761.97800
D1,Araponga/MG,-20.666667,-42.520556,4,47.32048
1,Arapongas/PR,-23.415296,-51.42592,8913,7141.25471
D1,Arapongas/PR,-23.415296,-51.42592,335,268.40798
1,Araporã/MG,-18.4318188,-49.188313,1498,21613.04285
D1,Araporã/MG,-18.4318188,-49.188313,18,259.70278
1,Arapoti/PR,-24.1457957,-49.8224605,2041,7212.01413
D1,Arapoti/PR,-24.1457957,-49.8224605,30,106.00707
1,Araputanga/MT,-15.4710868,-58.346796,1400,8259.09976
D1,Araputanga/MT,-15.4710868,-58.346796,32,188.77942
1,Arapuá/MG,-19.034444,-46.155556,114,4021.16402
D1,Arapuá/MG,-19.034444,-46.155556,1,35.27337
1,Arapuã/PR,-24.3079525,-51.7901941,166,5516.78298
D1,Arapuã/PR,-24.3079525,-51.7901941,5,166.16816
1,Araquari/SC,-26.3703324,-48.7210994,2739,6929.96660
D1,Araquari/SC,-26.3703324,-48.7210994,52,131.56563
1,Arara/PB,-6.8271895,-35.7605703,520,3839.90548
D1,Arara/PB,-6.8271895,-35.7605703,15,110.76650
1,Araranguá/SC,-28.9348832,-49.4858389,8112,11779.22663
D1,Araranguá/SC,-28.9348832,-49.4858389,162,235.23603
1,Araraquara/SP,-21.7886713,-48.1773096,14843,6227.68410
D1,Araraquara/SP,-21.7886713,-48.1773096,324,135.94082
1,Araras/SP,-22.3569477,-47.3838889,12061,8900.71288
D1,Araras/SP,-22.3569477,-47.3838889,259,191.13545
1,Ararendá/CE,-4.7504395,-40.8303611,609,5557.07638
D1,Ararendá/CE,-4.7504395,-40.8303611,12,109.49904
1,Arari/MA,-3.4547602,-44.7772723,422,1409.86235
D1,Arari/MA,-3.4547602,-44.7772723,17,56.79540
1,Araricá/RS,-29.6168543,-50.929121,902,15629.87351
D1,Araricá/RS,-29.6168543,-50.929121,24,415.87247
1,Araripe/CE,-7.212861,-40.1359222,657,3034.08146
D1,Araripe/CE,-7.212861,-40.1359222,9,41.56276
1,Araripina/PE,-7.5768582,-40.5038509,5258,6195.79563
D1,Araripina/PE,-7.5768582,-40.5038509,106,124.90573
1,Araruama/RJ,-22.8733203,-42.3428897,4317,3214.61282
D1,Araruama/RJ,-22.8733203,-42.3428897,197,146.69417
1,Araruna/PB,-6.5321155,-35.7397595,588,2873.47896
D1,Araruna/PB,-6.5321155,-35.7397595,16,78.18990
1,Araruna/PR,-23.9320308,-52.4976047,919,6564.28571
D1,Araruna/PR,-23.9320308,-52.4976047,18,128.57143
1,Arataca/BA,-15.2617424,-39.4122943,444,4050.72530
D1,Arataca/BA,-15.2617424,-39.4122943,12,109.47906
1,Aratiba/RS,-27.3955734,-52.3024325,332,5364.35612
D1,Aratiba/RS,-27.3955734,-52.3024325,5,80.78850
1,Aratuba/CE,-4.4195958,-39.0463737,812,6880.18980
D1,Aratuba/CE,-4.4195958,-39.0463737,5,42.36570
1,Aratuípe/BA,-13.077137,-39.0010786,283,3202.44427
D1,Aratuípe/BA,-13.077137,-39.0010786,7,79.21240
1,Araucária/PR,-25.5861107,-49.4051209,18352,12551.46566
D1,Araucária/PR,-25.5861107,-49.4051209,263,179.87334
1,Arauá/SE,-11.2644014,-37.6181058,775,7791.29386
D1,Arauá/SE,-11.2644014,-37.6181058,13,130.69267
1,Araxá/MG,-19.5928536,-46.940241,8151,7593.83996
D1,Araxá/MG,-19.5928536,-46.940241,120,111.79742
1,Araçagi/PB,-6.8519969,-35.3835602,909,5372.02293
D1,Araçagi/PB,-6.8519969,-35.3835602,12,70.91779
1,Araçariguama/SP,-23.438611,-47.061389,1038,4540.68241
D1,Araçariguama/SP,-23.438611,-47.061389,30,131.23360
1,Araçatuba/SP,-21.207992,-50.4390225,20322,10256.95380
D1,Araçatuba/SP,-21.207992,-50.4390225,540,272.54970
1,Araçaí/MG,-19.200833,-44.2475,49,2081.56330
1,Araçoiaba da Serra/SP,-23.5045367,-47.6168158,1843,5299.63193
D1,Araçoiaba da Serra/SP,-23.5045367,-47.6168158,39,112.14631
1,Araçoiaba/PE,-7.7856903,-35.0898881,335,1615.78160
D1,Araçoiaba/PE,-7.7856903,-35.0898881,22,106.11103
1,Araçu/GO,-16.3561579,-49.6815269,358,10269.65003
D1,Araçu/GO,-16.3561579,-49.6815269,11,315.54791
1,Araçuaí/MG,-16.8484451,-42.0661868,1042,2838.30900
D1,Araçuaí/MG,-16.8484451,-42.0661868,19,51.75419
1,Araçás/BA,-12.2139176,-38.2026159,518,4243.11927
D1,Araçás/BA,-12.2139176,-38.2026159,7,57.33945
1,Araújos/MG,-19.948055,-45.165556,533,5669.60962
D1,Araújos/MG,-19.948055,-45.165556,5,53.18583
1,Arceburgo/MG,-21.364444,-46.939722,537,4934.30120
D1,Arceburgo/MG,-21.364444,-46.939722,13,119.45236
1,Arco-Íris/SP,-21.7741308,-50.4668814,74,4173.71686
D1,Arco-Íris/SP,-21.7741308,-50.4668814,5,282.00790
1,Arcos/MG,-20.282223,-45.539444,3954,9791.97623
D1,Arcos/MG,-20.282223,-45.539444,51,126.30015
1,Arcoverde/PE,-8.415192,-37.057748,4541,6069.07059
D1,Arcoverde/PE,-8.415192,-37.057748,91,121.62198
1,Areado/MG,-21.3582771,-46.1476688,465,3063.03933
D1,Areado/MG,-21.3582771,-46.1476688,13,85.63336
1,Areal/RJ,-22.2314922,-43.1056264,643,5075.38085
D1,Areal/RJ,-22.2314922,-43.1056264,34,268.37162
1,Arealva/SP,-22.0301906,-48.9111936,536,6223.15105
D1,Arealva/SP,-22.0301906,-48.9111936,8,92.88285
1,Areia Branca/RN,-4.9506652,-37.1263312,1811,6475.48897
D1,Areia Branca/RN,-4.9506652,-37.1263312,76,271.74885
1,Areia Branca/SE,-10.7591455,-37.3148072,1276,6828.64176
D1,Areia Branca/SE,-10.7591455,-37.3148072,29,155.19640
1,Areia de Baraúnas/PB,-7.1233949,-36.9446216,72,3402.64650
D1,Areia de Baraúnas/PB,-7.1233949,-36.9446216,3,141.77694
1,Areia/PB,-6.9680243,-35.6994783,1002,4422.66949
D1,Areia/PB,-6.9680243,-35.6994783,20,88.27684
1,Areial/PB,-7.0501306,-35.9245244,220,3130.78127
D1,Areial/PB,-7.0501306,-35.9245244,6,85.38494
1,Areias/SP,-22.5800929,-44.6975127,222,5698.15195
D1,Areias/SP,-22.5800929,-44.6975127,1,25.66735
1,Areiópolis/SP,-22.6758064,-48.6673653,758,6793.33214
D1,Areiópolis/SP,-22.6758064,-48.6673653,9,80.65962
1,Arenápolis/MT,-14.4610369,-56.8432806,1153,12134.28752
D1,Arenápolis/MT,-14.4610369,-56.8432806,19,199.95790
1,Arenópolis/GO,-16.3859286,-51.55937,157,6190.85174
D1,Arenópolis/GO,-16.3859286,-51.55937,6,236.59306
1,Argirita/MG,-21.612761,-42.8371922,241,8912.72189
D1,Argirita/MG,-21.612761,-42.8371922,5,184.91124
1,Aricanduva/MG,-17.8678,-42.5569,75,1423.42000
1,Arinos/MG,-15.917223,-46.106111,350,1959.46702
D1,Arinos/MG,-15.917223,-46.106111,10,55.98477
1,Aripuanã/MT,-10.175806,-59.4439663,1930,8496.96223
D1,Aripuanã/MT,-10.175806,-59.4439663,36,158.49256
1,Ariquemes/RO,-9.9076522,-63.033069,17302,15797.59503
D1,Ariquemes/RO,-9.9076522,-63.033069,369,336.91553
1,Ariranha do Ivaí/PR,-24.3834527,-51.5876772,127,6147.14424
D1,Ariranha do Ivaí/PR,-24.3834527,-51.5876772,2,96.80542
1,Ariranha/SP,-21.18716,-48.790418,370,3790.59523
D1,Ariranha/SP,-21.18716,-48.790418,13,133.18308
1,Armazém/SC,-28.2624996,-49.0190126,1275,14556.45622
D1,Armazém/SC,-28.2624996,-49.0190126,24,274.00388
1,Armação dos Búzios/RJ,-22.7597805,-41.8875267,3516,10198.10308
D1,Armação dos Búzios/RJ,-22.7597805,-41.8875267,33,95.71598
1,Arneiroz/CE,-6.3235099,-40.1603859,247,3148.90362
D1,Arneiroz/CE,-6.3235099,-40.1603859,10,127.48598
1,Aroazes/PI,-6.1108814,-41.7886137,495,8494.93736
D1,Aroazes/PI,-6.1108814,-41.7886137,12,205.93788
1,Aroeiras do Itaim/PI,-7.2797031,-41.5629681,97,3802.43042
D1,Aroeiras do Itaim/PI,-7.2797031,-41.5629681,1,39.20031
1,Aroeiras/PB,-7.5462904,-35.7080002,816,4268.67546
D1,Aroeiras/PB,-7.5462904,-35.7080002,5,26.15610
1,Arraial do Cabo/RJ,-22.9662839,-42.024427,553,1807.60305
D1,Arraial do Cabo/RJ,-22.9662839,-42.024427,14,45.76210
1,Arraial/PI,-6.6541632,-42.5335332,134,2838.98305
D1,Arraial/PI,-6.6541632,-42.5335332,2,42.37288
1,Arraias/TO,-12.9287788,-46.9437231,391,3711.79039
D1,Arraias/TO,-12.9287788,-46.9437231,3,28.47921
1,Arroio Grande/RS,-32.2384246,-53.0866661,1009,5532.40487
D1,Arroio Grande/RS,-32.2384246,-53.0866661,42,230.28841
1,Arroio Trinta/SC,-26.9301976,-51.334928,386,10876.30318
D1,Arroio Trinta/SC,-26.9301976,-51.334928,7,197.23866
1,Arroio do Meio/RS,-29.4020392,-51.9444993,2478,11818.57204
D1,Arroio do Meio/RS,-29.4020392,-51.9444993,27,128.77379
1,Arroio do Padre/RS,-31.4428773,-52.4228985,119,4032.53135
D1,Arroio do Padre/RS,-31.4428773,-52.4228985,1,33.88682
1,Arroio do Sal/RS,-29.549852,-49.8874395,869,8454.12978
D1,Arroio do Sal/RS,-29.549852,-49.8874395,27,262.67147
1,Arroio do Tigre/RS,-29.334158,-53.0888935,914,6814.28465
D1,Arroio do Tigre/RS,-29.334158,-53.0888935,17,126.74271
1,Arroio dos Ratos/RS,-30.0894524,-51.7265541,743,5240.88312
D1,Arroio dos Ratos/RS,-30.0894524,-51.7265541,28,197.50300
1,Artur Nogueira/SP,-22.572737,-47.172679,2946,5323.45501
D1,Artur Nogueira/SP,-22.572737,-47.172679,73,131.91182
1,Aruanã/GO,-14.9162439,-51.0715692,353,3491.59248
D1,Aruanã/GO,-14.9162439,-51.0715692,10,98.91197
1,Arujá/SP,-23.396266,-46.3175449,5316,5831.69696
D1,Arujá/SP,-23.396266,-46.3175449,201,220.49870
1,Arvoredo/SC,-27.0752908,-52.4571847,258,11548.79141
D1,Arvoredo/SC,-27.0752908,-52.4571847,3,134.28827
1,Arvorezinha/RS,-28.87369,-52.17808,650,6236.20839
D1,Arvorezinha/RS,-28.87369,-52.17808,20,191.88333
1,Arês/RN,-6.1969216,-35.1642968,672,4661.16390
D1,Arês/RN,-6.1969216,-35.1642968,18,124.85260
1,Ascurra/SC,-26.9569975,-49.3767752,970,12158.43570
D1,Ascurra/SC,-26.9569975,-49.3767752,7,87.74129
1,Aspásia/SP,-20.160028,-50.728046,78,4290.42904
D1,Aspásia/SP,-20.160028,-50.728046,3,165.01650
1,Assaré/CE,-6.8746791,-39.8741385,1147,4885.42465
D1,Assaré/CE,-6.8746791,-39.8741385,24,102.22336
1,Assaí/PR,-23.3736041,-50.8454929,1054,7048.28140
D1,Assaí/PR,-23.3736041,-50.8454929,31,207.30239
1,Assis Brasil/AC,-10.9409203,-69.5672108,1371,18197.50465
D1,Assis Brasil/AC,-10.9409203,-69.5672108,19,252.19007
1,Assis Chateaubriand/PR,-24.4054826,-53.5120468,2881,8641.27175
D1,Assis Chateaubriand/PR,-24.4054826,-53.5120468,60,179.96401
1,Assis/SP,-22.6620892,-50.420623,6338,6031.19320
D1,Assis/SP,-22.6620892,-50.420623,193,183.65735
1,Assunção do Piauí/PI,-5.8610212,-41.0485091,267,3395.65052
D1,Assunção do Piauí/PI,-5.8610212,-41.0485091,6,76.30675
1,Assunção/PB,-7.073396,-36.7274003,253,6279.47381
D1,Assunção/PB,-7.073396,-36.7274003,2,49.64011
1,Astolfo Dutra/MG,-21.3132636,-42.8624102,980,6867.55431
D1,Astolfo Dutra/MG,-21.3132636,-42.8624102,15,105.11563
1,Astorga/PR,-23.2350184,-51.6647074,2233,8519.97405
D1,Astorga/PR,-23.2350184,-51.6647074,47,179.32771
1,Atalaia do Norte/AM,-4.3658547,-70.1908742,2637,12927.73801
D1,Atalaia do Norte/AM,-4.3658547,-70.1908742,8,39.21953
1,Atalaia/AL,-9.5029595,-36.0219316,956,2018.36799
D1,Atalaia/AL,-9.5029595,-36.0219316,39,82.33928
1,Atalaia/PR,-23.1513833,-52.0529697,315,8116.46483
D1,Atalaia/PR,-23.1513833,-52.0529697,15,386.49833
1,Atalanta/SC,-27.421916,-49.778863,219,6854.46009
D1,Atalanta/SC,-27.421916,-49.778863,3,93.89671
1,Ataléia/MG,-18.04432,-41.1110524,957,7548.50923
D1,Ataléia/MG,-18.04432,-41.1110524,7,55.21376
1,Atibaia/SP,-23.1177393,-46.5547861,8059,5593.10977
D1,Atibaia/SP,-23.1177393,-46.5547861,197,136.72200
1,Atilio Vivacqua/ES,-20.9139369,-41.1947519,1213,10020.65262
D1,Atilio Vivacqua/ES,-20.9139369,-41.1947519,19,156.95993
1,Augustinópolis/TO,-5.4662267,-47.8897519,1274,6833.66411
D1,Augustinópolis/TO,-5.4662267,-47.8897519,19,101.91493
1,Augusto Corrêa/PA,-1.0229335,-46.6404029,1768,3804.52325
D1,Augusto Corrêa/PA,-1.0229335,-46.6404029,30,64.55639
1,Augusto Pestana/RS,-28.5148413,-53.9906433,295,4468.34293
D1,Augusto Pestana/RS,-28.5148413,-53.9906433,5,75.73463
1,Augusto de Lima/MG,-18.1092963,-44.2651945,183,3772.41806
D1,Augusto de Lima/MG,-18.1092963,-44.2651945,6,123.68584
1,Aurelino Leal/BA,-14.3167137,-39.3256107,795,7036.02089
D1,Aurelino Leal/BA,-14.3167137,-39.3256107,22,194.70750
1,Auriflama/SP,-20.6840418,-50.5554616,1489,9762.01403
D1,Auriflama/SP,-20.6840418,-50.5554616,46,301.58002
1,Aurilândia/GO,-16.6772599,-50.4641231,166,5428.38457
D1,Aurilândia/GO,-16.6772599,-50.4641231,4,130.80445
1,Aurora do Pará/PA,-2.1323199,-47.558436,1005,3163.06298
D1,Aurora do Pará/PA,-2.1323199,-47.558436,12,37.76792
1,Aurora do Tocantins/TO,-12.71045,-46.407604,149,3938.67301
D1,Aurora do Tocantins/TO,-12.71045,-46.407604,2,52.86809
1,Aurora/CE,-6.9426019,-38.9693765,1135,4611.94636
D1,Aurora/CE,-6.9426019,-38.9693765,28,113.77489
1,Aurora/SC,-27.3166417,-49.6368502,603,10610.59300
D1,Aurora/SC,-27.3166417,-49.6368502,12,211.15608
1,Autazes/AM,-3.5833283,-59.1301518,2685,6664.18466
D1,Autazes/AM,-3.5833283,-59.1301518,86,213.45247
1,Avanhandava/SP,-21.4603331,-49.9465156,513,3701.56577
D1,Avanhandava/SP,-21.4603331,-49.9465156,22,158.74161
1,Avaré/SP,-23.1045215,-48.9259103,5078,5566.02946
D1,Avaré/SP,-23.1045215,-48.9259103,109,119.47562
1,Avaí/SP,-22.1564662,-49.3316395,238,4378.21928
D1,Avaí/SP,-22.1564662,-49.3316395,4,73.58352
1,Aveiro/PA,-3.6049239,-55.3310742,566,3450.37796
D1,Aveiro/PA,-3.6049239,-55.3310742,8,48.76859
1,Avelino Lopes/PI,-10.1346855,-43.9489525,275,2428.04167
D1,Avelino Lopes/PI,-10.1346855,-43.9489525,17,150.09712
1,Avelinópolis/GO,-16.4672409,-49.7578661,239,9921.12910
D1,Avelinópolis/GO,-16.4672409,-49.7578661,11,456.62100
1,Axixá do Tocantins/TO,-5.612747,-47.77007,946,9665.88331
D1,Axixá do Tocantins/TO,-5.612747,-47.77007,15,153.26453
1,Axixá/MA,-2.8379465,-44.0561053,189,1551.34203
D1,Axixá/MA,-2.8379465,-44.0561053,4,32.83264
1,Açailândia/MA,-4.9514278,-47.4844564,4460,3942.68085
D1,Açailândia/MA,-4.9514278,-47.4844564,156,137.90543
1,Açu/RN,-5.5836157,-36.9139541,4153,7113.25021
D1,Açu/RN,-5.5836157,-36.9139541,114,195.25898
1,Açucena/MG,-19.073056,-42.546666,582,6212.63877
D1,Açucena/MG,-19.073056,-42.546666,17,181.46883
1,Babaçulândia/TO,-7.2034355,-47.761613,545,5109.69436
D1,Babaçulândia/TO,-7.2034355,-47.761613,4,37.50234
1,Bacabal/MA,-4.2318132,-44.781167,4181,3989.88453
D1,Bacabal/MA,-4.2318132,-44.781167,129,123.10335
1,Bacabeira/MA,-2.9775747,-44.3155943,295,1709.94667
D1,Bacabeira/MA,-2.9775747,-44.3155943,5,28.98215
1,Bacuri/MA,-1.728894,-45.1417148,429,2299.77485
D1,Bacuri/MA,-1.728894,-45.1417148,4,21.44312
1,Bacurituba/MA,-2.7082587,-44.7381309,111,1957.67196
D1,Bacurituba/MA,-2.7082587,-44.7381309,1,17.63668
1,Bady Bassitt/SP,-20.9178969,-49.4517911,2132,12003.82861
D1,Bady Bassitt/SP,-20.9178969,-49.4517911,40,225.21254
1,Baependi/MG,-21.959162,-44.8899249,981,5109.64113
D1,Baependi/MG,-21.959162,-44.8899249,10,52.08605
1,Bagre/PA,-1.8994498,-50.2103844,792,2528.33200
D1,Bagre/PA,-1.8994498,-50.2103844,11,35.11572
1,Bagé/RS,-31.3314264,-54.1062808,6304,5195.53303
D1,Bagé/RS,-31.3314264,-54.1062808,153,126.09717
1,Baianópolis/BA,-12.3067564,-44.5383591,318,2283.00668
D1,Baianópolis/BA,-12.3067564,-44.5383591,2,14.35853
1,Baixa Grande do Ribeiro/PI,-7.862861,-45.2113289,1861,15945.50595
D1,Baixa Grande do Ribeiro/PI,-7.862861,-45.2113289,19,162.79668
1,Baixa Grande/BA,-11.9630941,-40.1657537,575,2811.87344
D1,Baixa Grande/BA,-11.9630941,-40.1657537,6,29.34129
1,Baixio/CE,-6.7303544,-38.7170095,292,4632.71458
D1,Baixio/CE,-6.7303544,-38.7170095,8,126.92369
1,Baixo Guandu/ES,-19.5138322,-41.0182089,2994,9617.11422
D1,Baixo Guandu/ES,-19.5138322,-41.0182089,63,202.36413
1,Baião/PA,-2.7903479,-49.6702845,624,1287.68650
D1,Baião/PA,-2.7903479,-49.6702845,21,43.33560
1,Balbinos/SP,-21.9006253,-49.3583966,292,4920.79542
D1,Balbinos/SP,-21.9006253,-49.3583966,3,50.55612
1,Baldim/MG,-19.2913568,-43.9558262,390,4998.07766
D1,Baldim/MG,-19.2913568,-43.9558262,7,89.70909
1,Baliza/GO,-16.1978119,-52.542789,168,3181.81818
D1,Baliza/GO,-16.1978119,-52.542789,6,113.63636
1,Balneário Arroio do Silva/SC,-28.9815269,-49.4189932,1603,11935.96426
D1,Balneário Arroio do Silva/SC,-28.9815269,-49.4189932,34,253.16456
1,Balneário Barra do Sul/SC,-26.459842,-48.6061471,1198,10856.36611
D1,Balneário Barra do Sul/SC,-26.459842,-48.6061471,24,217.48981
1,Balneário Camboriú/SC,-26.9924395,-48.6339782,21476,14730.17092
D1,Balneário Camboriú/SC,-26.9924395,-48.6339782,306,209.88230
1,Balneário Gaivota/SC,-29.1553098,-49.5808712,1054,9360.56838
D1,Balneário Gaivota/SC,-29.1553098,-49.5808712,22,195.38188
1,Balneário Pinhal/RS,-30.2482978,-50.234585,646,4497.66762
D1,Balneário Pinhal/RS,-30.2482978,-50.234585,32,222.79468
1,Balneário Piçarras/SC,-26.7638889,-48.6716667,3755,15795.89433
D1,Balneário Piçarras/SC,-26.7638889,-48.6716667,37,155.64530
1,Balneário Rincão/SC,-28.8235718,-49.2241642,1186,9161.13085
D1,Balneário Rincão/SC,-28.8235718,-49.2241642,32,247.18060
1,Balsa Nova/PR,-25.5842234,-49.6312741,1082,8264.58906
D1,Balsa Nova/PR,-25.5842234,-49.6312741,20,152.76505
1,Balsas/MA,-7.53214,-46.037163,7944,8281.12458
D1,Balsas/MA,-7.53214,-46.037163,105,109.45595
1,Bambuí/MG,-20.0131996,-45.9777034,950,3975.22805
D1,Bambuí/MG,-20.0131996,-45.9777034,10,41.84451
1,Banabuiú/CE,-5.3046404,-38.919766,924,5061.34969
D1,Banabuiú/CE,-5.3046404,-38.919766,7,38.34356
1,Bananal/SP,-22.6828195,-44.3221095,644,5858.27345
D1,Bananal/SP,-22.6828195,-44.3221095,2,18.19340
1,Bananeiras/PB,-6.7537682,-35.6338343,881,4142.17876
D1,Bananeiras/PB,-6.7537682,-35.6338343,11,51.71846
1,Bandeira do Sul/MG,-21.728056,-46.385555,147,2544.13292
D1,Bandeira do Sul/MG,-21.728056,-46.385555,5,86.53513
1,Bandeira/MG,-15.884444,-40.559167,442,9274.02434
D1,Bandeira/MG,-15.884444,-40.559167,9,188.83760
1,Bandeirante/SC,-26.7677402,-53.6397596,191,7212.99094
D1,Bandeirante/SC,-26.7677402,-53.6397596,2,75.52870
1,Bandeirantes do Tocantins/TO,-7.7635698,-48.579148,268,7461.02450
D1,Bandeirantes do Tocantins/TO,-7.7635698,-48.579148,4,111.35857
1,Bandeirantes/MS,-19.9179623,-54.3646768,420,5780.34682
D1,Bandeirantes/MS,-19.9179623,-54.3646768,7,96.33911
1,Bandeirantes/PR,-23.107788,-50.370407,2433,7795.32857
D1,Bandeirantes/PR,-23.107788,-50.370407,66,211.46391
1,Bannach/PA,-7.3508505,-50.4064531,527,16155.73268
D1,Bannach/PA,-7.3508505,-50.4064531,2,61.31208
1,Banzaê/BA,-10.5827616,-38.6122305,801,6049.84894
D1,Banzaê/BA,-10.5827616,-38.6122305,7,52.87009
1,Baraúna/PB,-6.643394,-36.2531932,213,4290.89444
D1,Baraúna/PB,-6.643394,-36.2531932,3,60.43513
1,Baraúna/RN,-5.0775002,-37.61752,753,2619.40376
D1,Baraúna/RN,-5.0775002,-37.61752,18,62.61523
1,Barbacena/MG,-21.2254524,-43.7735087,4817,3485.42734
D1,Barbacena/MG,-21.2254524,-43.7735087,136,98.40526
1,Barbalha/CE,-7.3121067,-39.3036427,3448,5631.41047
D1,Barbalha/CE,-7.3121067,-39.3036427,64,104.52734
1,Barbosa Ferraz/PR,-24.0287182,-52.00811,600,5251.18152
D1,Barbosa Ferraz/PR,-24.0287182,-52.00811,14,122.52757
1,Barbosa/SP,-21.265661,-49.951816,325,4351.90145
D1,Barbosa/SP,-21.265661,-49.951816,8,107.12373
1,Barcarena/PA,-1.5107945,-48.6190679,8535,6719.04398
D1,Barcarena/PA,-1.5107945,-48.6190679,163,128.31918
1,Barcelona/RN,-5.9514918,-35.9260284,52,1301.95293
D1,Barcelona/RN,-5.9514918,-35.9260284,3,75.11267
1,Barcelos/AM,-0.9729214,-62.925635,4037,14606.70092
D1,Barcelos/AM,-0.9729214,-62.925635,56,202.61958
1,Bariri/SP,-22.0746355,-48.7394852,2148,6040.83469
D1,Bariri/SP,-22.0746355,-48.7394852,83,233.42145
1,Barra Bonita/SC,-26.6526364,-53.4419581,119,7207.75288
D1,Barra Bonita/SC,-26.6526364,-53.4419581,1,60.56935
1,Barra Bonita/SP,-22.490859,-48.558349,2456,6798.42773
D1,Barra Bonita/SP,-22.490859,-48.558349,62,171.62155
1,Barra D'Alcântara/PI,-6.5209258,-42.1071089,102,2580.97166
D1,Barra D'Alcântara/PI,-6.5209258,-42.1071089,3,75.91093
1,Barra Funda/RS,-27.9230048,-53.0401045,376,14739.31791
D1,Barra Funda/RS,-27.9230048,-53.0401045,7,274.40220
1,Barra Longa/MG,-20.2833541,-43.0423516,212,4227.31805
D1,Barra Longa/MG,-20.2833541,-43.0423516,6,119.64108
1,Barra Mansa/RJ,-22.5394843,-44.1735129,12183,6591.35544
D1,Barra Mansa/RJ,-22.5394843,-44.1735129,355,192.06527
1,Barra Velha/SC,-26.6338203,-48.6835001,3257,10907.56865
D1,Barra Velha/SC,-26.6338203,-48.6835001,67,224.38044
1,Barra da Estiva/BA,-13.6269662,-41.3278287,1292,6335.81797
D1,Barra da Estiva/BA,-13.6269662,-41.3278287,9,44.13495
1,Barra de Guabiraba/PE,-8.4173522,-35.6626669,338,2329.42798
D1,Barra de Guabiraba/PE,-8.4173522,-35.6626669,13,89.59338
1,Barra de Santa Rosa/PB,-6.7218007,-36.0564638,669,4316.96457
D1,Barra de Santa Rosa/PB,-6.7218007,-36.0564638,4,25.81145
1,Barra de Santana/PB,-7.5230865,-35.9988518,303,3629.17715
D1,Barra de Santana/PB,-7.5230865,-35.9988518,4,47.90993
1,Barra de Santo Antônio/AL,-9.4038098,-35.5117693,248,1543.44038
D1,Barra de Santo Antônio/AL,-9.4038098,-35.5117693,18,112.02390
1,Barra de São Francisco/ES,-18.7570902,-40.8916119,4013,8921.94135
D1,Barra de São Francisco/ES,-18.7570902,-40.8916119,152,337.93548
1,Barra de São Miguel/AL,-9.8261357,-35.8837777,300,3580.80688
D1,Barra de São Miguel/AL,-9.8261357,-35.8837777,6,71.61614
1,Barra de São Miguel/PB,-7.7528088,-36.3170996,303,4995.87799
D1,Barra de São Miguel/PB,-7.7528088,-36.3170996,4,65.95218
1,Barra do Bugres/MT,-15.0683712,-57.1853688,2093,5928.00295
D1,Barra do Bugres/MT,-15.0683712,-57.1853688,47,133.11808
1,Barra do Chapéu/SP,-24.472203,-49.023784,213,3697.91667
D1,Barra do Chapéu/SP,-24.472203,-49.023784,1,17.36111
1,Barra do Choça/BA,-14.8638173,-40.5761637,1677,5373.44997
D1,Barra do Choça/BA,-14.8638173,-40.5761637,26,83.30930
1,Barra do Corda/MA,-5.496823,-45.248496,4853,5484.11156
D1,Barra do Corda/MA,-5.496823,-45.248496,48,54.24219
1,Barra do Garças/MT,-15.8916033,-52.2615413,5850,9568.98667
D1,Barra do Garças/MT,-15.8916033,-52.2615413,205,335.32346
1,Barra do Guarita/RS,-27.1888016,-53.7147086,105,3223.82561
D1,Barra do Guarita/RS,-27.1888016,-53.7147086,3,92.10930
1,Barra do Jacaré/PR,-23.1151788,-50.1813945,144,5177.99353
D1,Barra do Jacaré/PR,-23.1151788,-50.1813945,1,35.95829
1,Barra do Mendes/BA,-11.8053298,-42.057037,592,4279.62120
D1,Barra do Mendes/BA,-11.8053298,-42.057037,9,65.06181
1,Barra do Ouro/TO,-7.7113784,-47.6743925,113,2439.55095
D1,Barra do Ouro/TO,-7.7113784,-47.6743925,5,107.94473
1,Barra do Piraí/RJ,-22.4703403,-43.8263256,4288,4255.48807
D1,Barra do Piraí/RJ,-22.4703403,-43.8263256,209,207.41535
1,Barra do Quaraí/RS,-30.208947,-57.5505128,198,4684.17317
D1,Barra do Quaraí/RS,-30.208947,-57.5505128,2,47.31488
1,Barra do Ribeiro/RS,-30.2930206,-51.301437,925,6823.54677
D1,Barra do Ribeiro/RS,-30.2930206,-51.301437,45,331.95633
1,Barra do Rio Azul/RS,-27.4101581,-52.4117471,63,3806.64653
D1,Barra do Rio Azul/RS,-27.4101581,-52.4117471,1,60.42296
1,Barra do Rocha/BA,-14.2090974,-39.6004395,327,5826.79971
D1,Barra do Rocha/BA,-14.2090974,-39.6004395,4,71.27584
1,Barra do Turvo/SP,-24.756421,-48.5056942,369,4834.90566
D1,Barra do Turvo/SP,-24.756421,-48.5056942,10,131.02725
1,Barra dos Coqueiros/SE,-10.9075694,-37.0386249,4942,15978.01487
D1,Barra dos Coqueiros/SE,-10.9075694,-37.0386249,60,193.98642
1,Barra/BA,-11.0892702,-43.1420453,1411,2617.32517
D1,Barra/BA,-11.0892702,-43.1420453,26,48.22853
1,Barracão/PR,-26.252395,-53.6349576,886,8591.93173
D1,Barracão/PR,-26.252395,-53.6349576,24,232.73856
1,Barracão/RS,-27.6728964,-51.4582928,282,5365.29680
D1,Barracão/RS,-27.6728964,-51.4582928,7,133.18113
1,Barras/PI,-4.2446153,-42.2920241,3919,8305.60559
D1,Barras/PI,-4.2446153,-42.2920241,77,163.18745
1,Barreira/CE,-4.2883361,-38.641094,906,4013.64462
D1,Barreira/CE,-4.2883361,-38.641094,28,124.04200
1,Barreiras do Piauí/PI,-9.9224524,-45.4763776,58,1730.31026
D1,Barreiras do Piauí/PI,-9.9224524,-45.4763776,1,29.83294
1,Barreiras/BA,-12.1440031,-44.9967406,10999,7006.84822
D1,Barreiras/BA,-12.1440031,-44.9967406,148,94.28253
1,Barreirinha/AM,-2.798863,-57.067897,2255,6942.09279
D1,Barreirinha/AM,-2.798863,-57.067897,60,184.71200
1,Barreirinhas/MA,-2.7541271,-42.8259693,1637,2589.49333
D1,Barreirinhas/MA,-2.7541271,-42.8259693,31,49.03744
1,Barreiros/PE,-8.8159644,-35.1831905,609,1424.09503
D1,Barreiros/PE,-8.8159644,-35.1831905,46,107.56711
1,Barretos/SP,-20.5531437,-48.5697509,9837,8008.43422
D1,Barretos/SP,-20.5531437,-48.5697509,265,215.74007
1,Barrinha/SP,-21.1898849,-48.1550642,1161,3499.09584
D1,Barrinha/SP,-21.1898849,-48.1550642,45,135.62387
1,Barro Alto/BA,-11.7618025,-41.9094904,614,4078.65019
D1,Barro Alto/BA,-11.7618025,-41.9094904,8,53.14202
1,Barro Alto/GO,-14.9696025,-48.9190985,1161,10177.06872
D1,Barro Alto/GO,-14.9696025,-48.9190985,13,113.95512
1,Barro Duro/PI,-5.8180139,-42.5106589,536,7627.72165
D1,Barro Duro/PI,-5.8180139,-42.5106589,7,99.61577
1,Barro Preto/BA,-14.8068289,-39.4727588,495,9085.90308
D1,Barro Preto/BA,-14.8068289,-39.4727588,7,128.48752
1,Barro/CE,-7.1713587,-38.7742136,640,2812.19791
D1,Barro/CE,-7.1713587,-38.7742136,16,70.30495
1,Barrocas/BA,-11.5165,-39.099282894736845,644,3998.75815
D1,Barrocas/BA,-11.5165,-39.099282894736845,16,99.34803
1,Barrolândia/TO,-9.837246,-48.7264346,632,11183.86126
D1,Barrolândia/TO,-9.837246,-48.7264346,15,265.43975
1,Barroquinha/CE,-3.0200371,-41.1339229,914,6075.51183
D1,Barroquinha/CE,-3.0200371,-41.1339229,23,152.88487
1,Barros Cassal/RS,-29.094938,-52.5832366,451,4033.26775
D1,Barros Cassal/RS,-29.094938,-52.5832366,6,53.65766
1,Barroso/MG,-21.187222,-43.976111,665,3182.27497
D1,Barroso/MG,-21.187222,-43.976111,13,62.20989
1,Barueri/SP,-23.5112184,-46.8764612,21029,7592.19011
D1,Barueri/SP,-23.5112184,-46.8764612,747,269.69262
1,Barão de Antonina/SP,-23.6295651,-49.5632104,137,3916.52373
D1,Barão de Antonina/SP,-23.6295651,-49.5632104,3,85.76329
1,Barão de Cocais/MG,-19.9452437,-43.4870298,2933,8924.11611
D1,Barão de Cocais/MG,-19.9452437,-43.4870298,45,136.91961
1,Barão de Cotegipe/RS,-27.6214694,-52.3765316,527,7960.72508
D1,Barão de Cotegipe/RS,-27.6214694,-52.3765316,6,90.63444
1,Barão de Grajaú/MA,-6.7542591,-43.0263477,276,1458.46544
D1,Barão de Grajaú/MA,-6.7542591,-43.0263477,2,10.56859
1,Barão de Melgaço/MT,-16.195776,-55.9668049,258,3160.21558
D1,Barão de Melgaço/MT,-16.195776,-55.9668049,11,134.73787
1,Barão de Monte Alto/MG,-21.244722,-42.2375,190,3548.74860
D1,Barão de Monte Alto/MG,-21.244722,-42.2375,7,130.74337
1,Barão do Triunfo/RS,-30.3909877,-51.7375349,355,4721.37252
D1,Barão do Triunfo/RS,-30.3909877,-51.7375349,4,53.19856
1,Barão/RS,-29.372474,-51.494908,455,7336.34312
D1,Barão/RS,-29.372474,-51.494908,7,112.86682
1,Bastos/SP,-21.9222474,-50.7317727,466,2224.02520
D1,Bastos/SP,-21.9222474,-50.7317727,18,85.90655
1,Bataguassu/MS,-21.715899,-52.422058,1927,8261.52197
D1,Bataguassu/MS,-21.715899,-52.422058,21,90.03215
1,Batalha/AL,-9.6733809,-37.1265481,849,4629.73061
D1,Batalha/AL,-9.6733809,-37.1265481,15,81.79736
1,Batalha/PI,-4.022391,-42.0780926,798,2965.99145
D1,Batalha/PI,-4.022391,-42.0780926,28,104.06988
1,Batatais/SP,-20.892867,-47.592149,1970,3127.97714
D1,Batatais/SP,-20.892867,-47.592149,74,117.49762
1,Batayporã/MS,-22.2976466,-53.2685608,588,5181.07322
D1,Batayporã/MS,-22.2976466,-53.2685608,11,96.92484
1,Baturité/CE,-4.3290203,-38.8821055,1890,5258.61829
D1,Baturité/CE,-4.3290203,-38.8821055,49,136.33455
1,Bauru/SP,-22.3218102,-49.0705863,31570,8323.29283
D1,Bauru/SP,-22.3218102,-49.0705863,678,178.75174
1,Bayeux/PB,-7.1301631,-34.936532,5660,5822.86555
D1,Bayeux/PB,-7.1301631,-34.936532,201,206.78374
1,Baía Formosa/RN,-6.3691885,-35.0063741,248,2660.37331
D1,Baía Formosa/RN,-6.3691885,-35.0063741,8,85.81849
1,Baía da Traição/PB,-6.691258,-34.9371244,1098,12071.24011
D1,Baía da Traição/PB,-6.691258,-34.9371244,10,109.93843
1,Bebedouro/SP,-20.949077,-48.479083,3191,4114.49939
D1,Bebedouro/SP,-20.949077,-48.479083,77,99.28438
1,Beberibe/CE,-4.1810469,-38.1298101,2784,5160.42929
D1,Beberibe/CE,-4.1810469,-38.1298101,70,129.75217
1,Bela Cruz/CE,-3.0529129,-40.167582,2417,7386.46782
D1,Bela Cruz/CE,-3.0529129,-40.167582,45,137.52216
1,Bela Vista da Caroba/PR,-25.8792818,-53.6672545,155,4483.65635
D1,Bela Vista da Caroba/PR,-25.8792818,-53.6672545,4,115.70726
1,Bela Vista de Goiás/GO,-16.9692949,-48.9513071,1963,6437.75417
D1,Bela Vista de Goiás/GO,-16.9692949,-48.9513071,45,147.57969
1,Bela Vista de Minas/MG,-19.8289721,-43.0973688,546,5320.60027
D1,Bela Vista de Minas/MG,-19.8289721,-43.0973688,9,87.70220
1,Bela Vista do Maranhão/MA,-3.7416367,-45.2514192,185,1640.21633
D1,Bela Vista do Maranhão/MA,-3.7416367,-45.2514192,13,115.25844
1,Bela Vista do Paraíso/PR,-22.9948493,-51.1907996,1515,9838.30119
D1,Bela Vista do Paraíso/PR,-22.9948493,-51.1907996,45,292.22677
1,Bela Vista do Piauí/PI,-7.9716353,-41.8715061,221,5483.87097
D1,Bela Vista do Piauí/PI,-7.9716353,-41.8715061,6,148.88337
1,Bela Vista do Toldo/SC,-26.274625,-50.466354,58,911.66300
D1,Bela Vista do Toldo/SC,-26.274625,-50.466354,1,15.71833
1,Bela Vista/MS,-22.107327,-56.5317344,631,2551.04103
D1,Bela Vista/MS,-22.107327,-56.5317344,17,68.72852
1,Belford Roxo/RJ,-22.7667284,-43.4033603,18418,3589.42777
D1,Belford Roxo/RJ,-22.7667284,-43.4033603,489,95.29972
1,Belmiro Braga/MG,-21.9486291,-43.413564,148,4321.16788
D1,Belmiro Braga/MG,-21.9486291,-43.413564,3,87.59124
1,Belmonte/BA,-15.8630837,-38.8792845,871,3716.34595
D1,Belmonte/BA,-15.8630837,-38.8792845,15,64.00137
1,Belmonte/SC,-26.8448262,-53.578916,203,7493.54005
D1,Belmonte/SC,-26.8448262,-53.578916,4,147.65596
1,Belo Campo/BA,-15.0338286,-41.2585109,566,3308.20036
D1,Belo Campo/BA,-15.0338286,-41.2585109,7,40.91414
1,Belo Horizonte/MG,-19.9227318,-43.9450948,158533,6287.09008
D1,Belo Horizonte/MG,-19.9227318,-43.9450948,3702,146.81364
1,Belo Jardim/PE,-8.3338293,-36.4176419,2391,3117.86874
D1,Belo Jardim/PE,-8.3338293,-36.4176419,71,92.58414
1,Belo Monte/AL,-9.8269944,-37.2787165,235,3502.23547
D1,Belo Monte/AL,-9.8269944,-37.2787165,6,89.41878
1,Belo Oriente/MG,-19.2232523,-42.4807033,2143,7938.80122
D1,Belo Oriente/MG,-19.2232523,-42.4807033,44,162.99919
1,Belo Vale/MG,-20.407778,-44.024167,466,6037.05143
D1,Belo Vale/MG,-20.407778,-44.024167,8,103.64037
1,Belterra/PA,-2.636091,-54.937392,1064,5964.45989
D1,Belterra/PA,-2.636091,-54.937392,19,106.50821
1,Belágua/MA,-3.1604031,-43.5085052,283,3759.29862
D1,Belágua/MA,-3.1604031,-43.5085052,3,39.85122
1,Belém de Maria/PE,-8.6242497,-35.8388934,166,1369.41099
D1,Belém de Maria/PE,-8.6242497,-35.8388934,4,32.99786
1,Belém do Brejo do Cruz/PB,-6.1880727,-37.5332267,485,6599.53735
D1,Belém do Brejo do Cruz/PB,-6.1880727,-37.5332267,5,68.03647
1,Belém do Piauí/PI,-7.3767305,-40.9712156,406,11318.65068
D1,Belém do Piauí/PI,-7.3767305,-40.9712156,7,195.14915
1,Belém do São Francisco/PE,-8.7517707,-38.9625715,475,2291.36517
D1,Belém do São Francisco/PE,-8.7517707,-38.9625715,7,33.76749
1,Belém/AL,-9.5715351,-36.492841,89,2077.49767
D1,Belém/AL,-9.5715351,-36.492841,3,70.02801
1,Belém/PA,-1.45056,-48.4682453,91082,6073.58695
D1,Belém/PA,-1.45056,-48.4682453,4002,266.86387
1,Belém/PB,-6.6967586,-35.5369626,1650,9319.40130
D1,Belém/PB,-6.6967586,-35.5369626,30,169.44366
1,Beneditinos/PI,-5.4565671,-42.3605061,686,6550.17664
D1,Beneditinos/PI,-5.4565671,-42.3605061,25,238.70906
1,Benedito Leite/MA,-7.2173453,-44.5523331,276,4895.35296
D1,Benedito Leite/MA,-7.2173453,-44.5523331,2,35.47357
1,Benedito Novo/SC,-26.7840657,-49.3629511,881,7481.95329
D1,Benedito Novo/SC,-26.7840657,-49.3629511,12,101.91083
1,Benevides/PA,-1.3555577,-48.252235,3181,4988.39543
D1,Benevides/PA,-1.3555577,-48.252235,74,116.04567
1,Benjamin Constant do Sul/RS,-27.5105555,-52.6007689,152,7763.02349
1,Benjamin Constant/AM,-4.3782748,-70.0290603,2641,6011.15284
D1,Benjamin Constant/AM,-4.3782748,-70.0290603,77,175.25891
1,Bento Fernandes/RN,-5.6926846,-35.8207423,81,1466.06335
D1,Bento Fernandes/RN,-5.6926846,-35.8207423,2,36.19910
1,Bento Gonçalves/RS,-29.1654014,-51.5197627,13296,10915.98729
D1,Bento Gonçalves/RS,-29.1654014,-51.5197627,243,199.50248
1,Bento de Abreu/SP,-21.2707225,-50.8120444,230,7653.91015
1,Bequimão/MA,-2.4495376,-44.7884889,270,1267.66515
D1,Bequimão/MA,-2.4495376,-44.7884889,16,75.12090
1,Berilo/MG,-16.9515764,-42.4643732,10,84.23181
D1,Berilo/MG,-16.9515764,-42.4643732,1,8.42318
1,Berizal/MG,-15.6118785,-41.7417382,101,2120.06717
D1,Berizal/MG,-15.6118785,-41.7417382,1,20.99076
1,Bernardino Batista/PB,-6.4532173,-38.5495418,220,6221.71946
1,Bernardino de Campos/SP,-23.0140216,-49.4760724,325,2912.70837
D1,Bernardino de Campos/SP,-23.0140216,-49.4760724,7,62.73526
1,Bernardo Sayão/TO,-7.8794244,-48.8968905,335,7531.47482
D1,Bernardo Sayão/TO,-7.8794244,-48.8968905,6,134.89209
1,Bernardo do Mearim/MA,-4.6315929,-44.7617508,207,3408.52956
D1,Bernardo do Mearim/MA,-4.6315929,-44.7617508,5,82.33163
1,Bertioga/SP,-23.848568,-46.139586,3982,6152.37242
D1,Bertioga/SP,-23.848568,-46.139586,100,154.50458
1,Bertolínia/PI,-7.6372159,-43.9540611,688,12493.19048
D1,Bertolínia/PI,-7.6372159,-43.9540611,6,108.95224
1,Bertópolis/MG,-17.063333,-40.573889,252,5469.93705
1,Beruri/AM,-3.9007135,-61.3717319,2032,10112.97467
D1,Beruri/AM,-3.9007135,-61.3717319,31,154.28259
1,Betim/MG,-19.968056,-44.198333,23453,5272.89651
D1,Betim/MG,-19.968056,-44.198333,719,161.65150
1,Betânia do Piauí/PI,-8.1460635,-40.7961387,152,2447.66506
D1,Betânia do Piauí/PI,-8.1460635,-40.7961387,2,32.20612
1,Betânia/PE,-8.2742779,-38.0351767,269,2107.32472
D1,Betânia/PE,-8.2742779,-38.0351767,6,47.00353
1,Bezerros/PE,-8.2372132,-35.7558262,2974,4885.01971
D1,Bezerros/PE,-8.2372132,-35.7558262,87,142.90407
1,Bias Fortes/MG,-21.605833,-43.756944,98,2943.82698
D1,Bias Fortes/MG,-21.605833,-43.756944,2,60.07810
1,Bicas/MG,-21.7213723,-43.0604327,850,5840.31881
D1,Bicas/MG,-21.7213723,-43.0604327,22,151.16119
1,Biguaçu/SC,-27.4961277,-48.6542432,9847,14171.19995
D1,Biguaçu/SC,-27.4961277,-48.6542432,144,207.23599
1,Bilac/SP,-21.403962,-50.47464,692,8525.31724
D1,Bilac/SP,-21.403962,-50.47464,12,147.83787
1,Biquinhas/MG,-18.783611,-45.502222,76,3042.43395
1,Birigui/SP,-21.2908491,-50.34144,10262,8217.29138
D1,Birigui/SP,-21.2908491,-50.34144,304,243.42785
1,Biritiba Mirim/SP,-23.5697765,-46.0407456,905,2747.75322
D1,Biritiba Mirim/SP,-23.5697765,-46.0407456,60,182.17148
1,Biritinga/BA,-11.6227908,-38.8066738,270,1689.18919
D1,Biritinga/BA,-11.6227908,-38.8066738,6,37.53754
1,Bituruna/PR,-26.161281,-51.5533319,507,3091.46341
D1,Bituruna/PR,-26.161281,-51.5533319,8,48.78049
1,Blumenau/SC,-26.9195567,-49.0658025,42741,11811.63726
D1,Blumenau/SC,-26.9195567,-49.0658025,451,124.63556
1,Boa Esperança do Iguaçu/PR,-25.6362851,-53.2139114,120,4858.29960
1,Boa Esperança do Sul/SP,-21.9930206,-48.3917372,667,4441.33706
D1,Boa Esperança do Sul/SP,-21.9930206,-48.3917372,11,73.24544
1,Boa Esperança/ES,-18.5395472,-40.2904088,1007,6672.40922
D1,Boa Esperança/ES,-18.5395472,-40.2904088,32,212.03287
1,Boa Esperança/MG,-21.0901253,-45.5660195,2387,5935.00584
D1,Boa Esperança/MG,-21.0901253,-45.5660195,60,149.18322
1,Boa Esperança/PR,-24.2411024,-52.7860277,239,5905.60909
D1,Boa Esperança/PR,-24.2411024,-52.7860277,6,148.25797
1,Boa Hora/PI,-4.4094627,-42.1255341,440,6456.34629
D1,Boa Hora/PI,-4.4094627,-42.1255341,5,73.36757
1,Boa Nova/BA,-14.365907,-40.2063056,661,5361.34317
D1,Boa Nova/BA,-14.365907,-40.2063056,11,89.22054
1,Boa Ventura de São Roque/PR,-24.88177,-51.5441292,279,4383.34643
D1,Boa Ventura de São Roque/PR,-24.88177,-51.5441292,5,78.55460
1,Boa Ventura/PB,-7.4202462,-38.2156782,239,4503.48596
D1,Boa Ventura/PB,-7.4202462,-38.2156782,4,75.37215
1,Boa Viagem/CE,-5.1261877,-39.7300055,2386,4371.80497
D1,Boa Viagem/CE,-5.1261877,-39.7300055,59,108.10415
1,Boa Vista da Aparecida/PR,-25.4357216,-53.4067721,556,7374.00531
D1,Boa Vista da Aparecida/PR,-25.4357216,-53.4067721,17,225.46419
1,Boa Vista das Missões/RS,-27.6677983,-53.3127622,90,4302.10325
D1,Boa Vista das Missões/RS,-27.6677983,-53.3127622,2,95.60229
1,Boa Vista do Buricá/RS,-27.6687782,-54.1111913,560,8343.26579
D1,Boa Vista do Buricá/RS,-27.6687782,-54.1111913,8,119.18951
1,Boa Vista do Cadeado/RS,-28.5783827,-53.8123759,136,5510.53485
D1,Boa Vista do Cadeado/RS,-28.5783827,-53.8123759,2,81.03728
1,Boa Vista do Gurupi/MA,-1.7981168,-46.3071882,14,167.02458
D1,Boa Vista do Gurupi/MA,-1.7981168,-46.3071882,3,35.79098
1,Boa Vista do Incra/RS,-28.8195551,-53.3866624,155,5925.07645
D1,Boa Vista do Incra/RS,-28.8195551,-53.3866624,2,76.45260
1,Boa Vista do Ramos/AM,-2.9716927,-57.5869819,822,4188.32161
D1,Boa Vista do Ramos/AM,-2.9716927,-57.5869819,11,56.04810
1,Boa Vista do Sul/RS,-29.3510488,-51.6779679,247,8891.28870
D1,Boa Vista do Sul/RS,-29.3510488,-51.6779679,2,71.99424
1,Boa Vista do Tupim/BA,-12.6605988,-40.6083594,165,890.39987
D1,Boa Vista do Tupim/BA,-12.6605988,-40.6083594,4,21.58545
1,Boa Vista/PB,-7.2620711,-36.2415161,493,6908.63229
D1,Boa Vista/PB,-7.2620711,-36.2415161,7,98.09417
1,Boa Vista/RR,2.8208478,-60.6719582,70111,16706.93813
D1,Boa Vista/RR,2.8208478,-60.6719582,1085,258.54756
1,Boca da Mata/AL,-9.6452054,-36.2116658,1522,5563.67890
D1,Boca da Mata/AL,-9.6452054,-36.2116658,37,135.25369
1,Boca do Acre/AM,-8.7553487,-67.3930873,2431,7018.91151
D1,Boca do Acre/AM,-8.7553487,-67.3930873,22,63.51956
1,Bocaina de Minas/MG,-22.167778,-44.394722,107,2102.57418
D1,Bocaina de Minas/MG,-22.167778,-44.394722,2,39.30045
1,Bocaina do Sul/SC,-27.745494,-49.942279,350,10034.40367
D1,Bocaina do Sul/SC,-27.745494,-49.942279,3,86.00917
1,Bocaina/PI,-6.9445939,-41.3224599,218,4839.06770
D1,Bocaina/PI,-6.9445939,-41.3224599,3,66.59267
1,Bocaina/SP,-22.1421831,-48.522276,1073,8617.08962
D1,Bocaina/SP,-22.1421831,-48.522276,24,192.74012
1,Bocaiúva do Sul/PR,-25.206591,-49.114131,976,7433.92490
D1,Bocaiúva do Sul/PR,-25.206591,-49.114131,8,60.93381
1,Bocaiúva/MG,-17.1160208,-43.8122678,1603,3189.66890
D1,Bocaiúva/MG,-17.1160208,-43.8122678,36,71.63324
1,Bodocó/PE,-7.777592,-39.933797,1488,3877.22132
D1,Bodocó/PE,-7.777592,-39.933797,22,57.32451
1,Bodoquena/MS,-20.5508775,-56.6769653,241,3074.76397
D1,Bodoquena/MS,-20.5508775,-56.6769653,4,51.03343
1,Bodó/RN,-5.9866104,-36.4134824,94,4278.56168
1,Bofete/SP,-23.1019554,-48.2610535,500,4194.27900
D1,Bofete/SP,-23.1019554,-48.2610535,10,83.88558
1,Boituva/SP,-23.2838893,-47.6738231,3886,6250.60318
D1,Boituva/SP,-23.2838893,-47.6738231,79,127.07093
1,Bom Conselho/PE,-9.169191,-36.685683,1208,2477.08491
D1,Bom Conselho/PE,-9.169191,-36.685683,41,84.07325
1,Bom Despacho/MG,-19.7375242,-45.2517288,2570,5036.45058
D1,Bom Despacho/MG,-19.7375242,-45.2517288,57,111.70338
1,Bom Jardim da Serra/SC,-28.3380324,-49.625588,536,11232.18776
D1,Bom Jardim da Serra/SC,-28.3380324,-49.625588,3,62.86672
1,Bom Jardim de Goiás/GO,-16.2062659,-52.172793,552,6223.92603
D1,Bom Jardim de Goiás/GO,-16.2062659,-52.172793,11,124.02751
1,Bom Jardim de Minas/MG,-21.9476466,-44.1906033,234,3622.85183
D1,Bom Jardim de Minas/MG,-21.9476466,-44.1906033,1,15.48227
1,Bom Jardim/MA,-3.54129,-45.606004,1116,2668.45201
D1,Bom Jardim/MA,-3.54129,-45.606004,39,93.25236
1,Bom Jardim/PE,-7.7961572,-35.5871696,984,2461.04594
D1,Bom Jardim/PE,-7.7961572,-35.5871696,45,112.54783
1,Bom Jardim/RJ,-22.1515328,-42.4186683,878,3179.31634
D1,Bom Jardim/RJ,-22.1515328,-42.4186683,22,79.66396
1,Bom Jesus da Lapa/BA,-13.250571,-43.410754,2673,3837.09914
D1,Bom Jesus da Lapa/BA,-13.250571,-43.410754,38,54.54911
1,Bom Jesus da Penha/MG,-21.0165299,-46.5226644,277,6526.86145
D1,Bom Jesus da Penha/MG,-21.0165299,-46.5226644,8,188.50141
1,Bom Jesus da Serra/BA,-14.3724084,-40.5047119,400,4072.07574
D1,Bom Jesus da Serra/BA,-14.3724084,-40.5047119,7,71.26133
1,Bom Jesus das Selvas/MA,-4.4878075,-46.8526639,2306,6671.10250
D1,Bom Jesus das Selvas/MA,-4.4878075,-46.8526639,21,60.75158
1,Bom Jesus de Goiás/GO,-18.2174587,-49.739721,2253,8784.31067
D1,Bom Jesus de Goiás/GO,-18.2174587,-49.739721,84,327.51092
1,Bom Jesus do Amparo/MG,-19.7045132,-43.4752911,157,2559.92173
D1,Bom Jesus do Amparo/MG,-19.7045132,-43.4752911,5,81.52617
1,Bom Jesus do Araguaia/MT,-12.1725897,-51.5074425,695,10363.85327
D1,Bom Jesus do Araguaia/MT,-12.1725897,-51.5074425,13,193.85625
1,Bom Jesus do Galho/MG,-19.8283191,-42.3162256,485,3263.35621
D1,Bom Jesus do Galho/MG,-19.8283191,-42.3162256,16,107.65711
1,Bom Jesus do Itabapoana/RJ,-21.1341025,-41.680095,2434,6542.48313
D1,Bom Jesus do Itabapoana/RJ,-21.1341025,-41.680095,65,174.71709
1,Bom Jesus do Norte/ES,-21.1254776,-41.6711646,812,8150.97370
D1,Bom Jesus do Norte/ES,-21.1254776,-41.6711646,20,200.76290
1,Bom Jesus do Oeste/SC,-26.6929713,-53.0967453,119,5563.34736
D1,Bom Jesus do Oeste/SC,-26.6929713,-53.0967453,3,140.25245
1,Bom Jesus do Sul/PR,-26.1922507,-53.6002033,221,6303.47975
D1,Bom Jesus do Sul/PR,-26.1922507,-53.6002033,3,85.56760
1,Bom Jesus do Tocantins/PA,-5.0471796,-48.5978362,651,3803.01437
D1,Bom Jesus do Tocantins/PA,-5.0471796,-48.5978362,19,110.99428
1,Bom Jesus do Tocantins/TO,-8.96306,-48.165043,115,2296.32588
D1,Bom Jesus do Tocantins/TO,-8.96306,-48.165043,1,19.96805
1,Bom Jesus dos Perdões/SP,-23.1353864,-46.4648052,1349,5191.45661
D1,Bom Jesus dos Perdões/SP,-23.1353864,-46.4648052,21,80.81586
1,Bom Jesus/PB,-6.8156725,-38.6551841,108,4194.17476
D1,Bom Jesus/PB,-6.8156725,-38.6551841,3,116.50485
1,Bom Jesus/PI,-9.0711644,-44.3583926,2553,10056.32804
D1,Bom Jesus/PI,-9.0711644,-44.3583926,28,110.29267
1,Bom Jesus/RN,-5.9887544,-35.5821149,589,5736.82673
D1,Bom Jesus/RN,-5.9887544,-35.5821149,11,107.13938
1,Bom Jesus/RS,-28.6692723,-50.4346894,529,4677.69034
D1,Bom Jesus/RS,-28.6692723,-50.4346894,13,114.95269
1,Bom Jesus/SC,-26.7350604,-52.3916519,317,10369.64344
D1,Bom Jesus/SC,-26.7350604,-52.3916519,6,196.27085
1,Bom Lugar/MA,-4.3728019,-45.0366054,384,2336.05061
D1,Bom Lugar/MA,-4.3728019,-45.0366054,7,42.58426
1,Bom Princípio do Piauí/PI,-3.1912777,-41.6430185,100,1769.59830
D1,Bom Princípio do Piauí/PI,-3.1912777,-41.6430185,9,159.26385
1,Bom Princípio/RS,-29.489788,-51.3566782,1272,8923.18485
D1,Bom Princípio/RS,-29.489788,-51.3566782,23,161.34690
1,Bom Progresso/RS,-27.5490948,-53.8655601,101,5318.58873
D1,Bom Progresso/RS,-27.5490948,-53.8655601,1,52.65929
1,Bom Repouso/MG,-22.4657069,-46.1485376,432,4099.83866
D1,Bom Repouso/MG,-22.4657069,-46.1485376,12,113.88441
1,Bom Retiro do Sul/RS,-29.6000007,-51.9359243,878,7086.35997
D1,Bom Retiro do Sul/RS,-29.6000007,-51.9359243,21,169.49153
1,Bom Retiro/SC,-27.798993,-49.486994,570,5666.00398
D1,Bom Retiro/SC,-27.798993,-49.486994,13,129.22465
1,Bom Sucesso de Itararé/SP,-24.3190016,-49.1446207,110,2761.04418
D1,Bom Sucesso de Itararé/SP,-24.3190016,-49.1446207,5,125.50201
1,Bom Sucesso do Sul/PR,-26.0749256,-52.8348629,268,8236.01721
D1,Bom Sucesso do Sul/PR,-26.0749256,-52.8348629,5,153.65704
1,Bom Sucesso/MG,-21.0323516,-44.7598082,380,2158.23252
D1,Bom Sucesso/MG,-21.0323516,-44.7598082,4,22.71824
1,Bom Sucesso/PB,-6.4458948,-37.9297662,164,3309.12026
D1,Bom Sucesso/PB,-6.4458948,-37.9297662,2,40.35513
1,Bom Sucesso/PR,-23.7088019,-51.7651297,559,7908.88512
D1,Bom Sucesso/PR,-23.7088019,-51.7651297,11,155.63101
1,Bombinhas/SC,-27.1519159,-48.4875691,3174,15608.55668
D1,Bombinhas/SC,-27.1519159,-48.4875691,45,221.29334
1,Bonfim do Piauí/PI,-9.1648678,-42.8734415,230,4045.73439
D1,Bonfim do Piauí/PI,-9.1648678,-42.8734415,5,87.95075
1,Bonfim/MG,-20.3266626, -44.2386157,312,4548.10496
D1,Bonfim/MG,-20.3266626, -44.2386157,10,145.77259
1,Bonfim/RR,3.3613818,-59.8427241,1973,15712.35168
D1,Bonfim/RR,3.3613818,-59.8427241,24,191.12845
1,Bonfinópolis de Minas/MG,-16.5660011,-45.98645,337,6190.30125
D1,Bonfinópolis de Minas/MG,-16.5660011,-45.98645,10,183.68846
1,Bonfinópolis/GO,-16.6172709,-48.9615701,427,4304.86944
D1,Bonfinópolis/GO,-16.6172709,-48.9615701,16,161.30658
1,Boninal/BA,-12.7095183,-41.8299984,556,3848.81628
D1,Boninal/BA,-12.7095183,-41.8299984,7,48.45632
1,Bonito de Minas/MG,-15.3191266,-44.7544,43,378.22148
1,Bonito de Santa Fé/PB,-7.3143332,-38.5146677,368,3061.05473
D1,Bonito de Santa Fé/PB,-7.3143332,-38.5146677,11,91.49892
1,Bonito/BA,-11.9665473,-41.2649896,600,3553.66027
D1,Bonito/BA,-11.9665473,-41.2649896,6,35.53660
1,Bonito/MS,-21.1264766,-56.4902208,2031,9152.77152
D1,Bonito/MS,-21.1264766,-56.4902208,39,175.75484
1,Bonito/PA,-1.3605722,-47.3049907,342,2068.96552
D1,Bonito/PA,-1.3605722,-47.3049907,12,72.59528
1,Bonito/PE,-8.4721161,-35.7314591,574,1505.88976
D1,Bonito/PE,-8.4721161,-35.7314591,31,81.32854
1,Bonópolis/GO,-13.649331,-49.8329113,115,2559.53706
D1,Bonópolis/GO,-13.649331,-49.8329113,1,22.25684
1,Boqueirão do Leão/RS,-29.30332,-52.4296817,542,7037.13321
D1,Boqueirão do Leão/RS,-29.30332,-52.4296817,28,363.54194
1,Boqueirão do Piauí/PI,-4.4850148,-42.1095161,416,6473.70059
D1,Boqueirão do Piauí/PI,-4.4850148,-42.1095161,7,108.93246
1,Boqueirão/PB,-7.487004,-36.130887,1200,6715.16508
D1,Boqueirão/PB,-7.487004,-36.130887,22,123.11136
1,Boquim/SE,-11.1450175,-37.6204228,1561,5803.18971
D1,Boquim/SE,-11.1450175,-37.6204228,33,122.68114
1,Boquira/BA,-12.8184859,-42.7270883,429,1995.62730
D1,Boquira/BA,-12.8184859,-42.7270883,7,32.56268
1,Boracéia/SP,-22.195355,-48.7801925,728,14954.80690
D1,Boracéia/SP,-22.195355,-48.7801925,16,328.67707
1,Borba/AM,-4.3934778,-59.5947721,1619,3878.03009
D1,Borba/AM,-4.3934778,-59.5947721,50,119.76622
1,Borborema/PB,-6.8066718,-35.5990191,188,3555.89181
D1,Borborema/PB,-6.8066718,-35.5990191,3,56.74295
1,Borborema/SP,-21.6212706,-49.074135,837,5178.17372
D1,Borborema/SP,-21.6212706,-49.074135,26,160.85127
1,Borda da Mata/MG,-22.274167,-46.165278,974,4965.84073
D1,Borda da Mata/MG,-22.274167,-46.165278,28,142.75517
1,Borebi/SP,-22.5700178,-48.9714871,122,4547.14871
D1,Borebi/SP,-22.5700178,-48.9714871,2,74.54342
1,Borrazópolis/PR,-23.9393362,-51.5850786,474,7361.39152
D1,Borrazópolis/PR,-23.9393362,-51.5850786,13,201.89470
1,Borá/SP,-22.2701088,-50.544407,44,5250.59666
D1,Borá/SP,-22.2701088,-50.544407,1,119.33174
1,Bossoroca/RS,-28.7278885,-54.9120278,321,5173.24738
D1,Bossoroca/RS,-28.7278885,-54.9120278,18,290.08864
1,Botelhos/MG,-21.65,-46.394722,1009,6749.61536
D1,Botelhos/MG,-21.65,-46.394722,7,46.82587
1,Botucatu/SP,-22.8879628,-48.4410712,10660,7196.38156
D1,Botucatu/SP,-22.8879628,-48.4410712,177,119.48964
1,Botumirim/MG,-16.862778,-43.011111,151,2401.39949
D1,Botumirim/MG,-16.862778,-43.011111,2,31.80662
1,Botuporã/BA,-13.3744752,-42.5198469,177,1747.45779
D1,Botuporã/BA,-13.3744752,-42.5198469,3,29.61793
1,Botuverá/SC,-27.200749,-49.068892,780,14656.14431
D1,Botuverá/SC,-27.200749,-49.068892,7,131.52950
1,Bozano/RS,-28.3669953,-53.7705165,195,9237.32828
D1,Bozano/RS,-28.3669953,-53.7705165,7,331.59640
1,Braga/RS,-27.617348,-53.740514,125,3775.29447
D1,Braga/RS,-27.617348,-53.740514,4,120.80942
1,Braganey/PR,-24.8179919,-53.118506,284,5276.84876
D1,Braganey/PR,-24.8179919,-53.118506,7,130.06317
1,Bragança Paulista/SP,-22.9520235,-46.5418586,10474,6141.91975
D1,Bragança Paulista/SP,-22.9520235,-46.5418586,255,149.53118
1,Bragança/PA,-1.0573967,-46.7635406,3334,2586.22027
D1,Bragança/PA,-1.0573967,-46.7635406,109,84.55249
1,Branquinha/AL,-9.2478057,-36.0152009,427,4082.21797
D1,Branquinha/AL,-9.2478057,-36.0152009,9,86.04207
1,Brasil Novo/PA,-3.3055853,-52.539198,1252,8356.13696
D1,Brasil Novo/PA,-3.3055853,-52.539198,24,160.18154
1,Brasileira/PI,-4.131182,-41.7824969,421,5043.72829
D1,Brasileira/PI,-4.131182,-41.7824969,8,95.84282
1,Brasilândia de Minas/MG,-17.0096469,-46.0087183,813,4854.31096
D1,Brasilândia de Minas/MG,-17.0096469,-46.0087183,9,53.73776
1,Brasilândia do Sul/PR,-24.1975793,-53.527551,297,11489.36170
D1,Brasilândia do Sul/PR,-24.1975793,-53.527551,7,270.79304
1,Brasilândia do Tocantins/TO,-8.3886619,-48.4842729,118,5336.95161
D1,Brasilândia do Tocantins/TO,-8.3886619,-48.4842729,1,45.22840
1,Brasilândia/MS,-21.255575,-52.0365617,578,4876.40260
D1,Brasilândia/MS,-21.255575,-52.0365617,11,92.80351
1,Brasiléia/AC,-11.0010413,-68.7487894,2261,8467.53052
D1,Brasiléia/AC,-11.0010413,-68.7487894,30,112.35113
1,Brasnorte/MT,-12.1227151,-58.0050109,1570,7795.43198
D1,Brasnorte/MT,-12.1227151,-58.0050109,22,109.23535
1,Brasília de Minas/MG,-16.2075114,-44.430559,754,2326.80142
D1,Brasília de Minas/MG,-16.2075114,-44.430559,5,15.42972
1,Brasília/DF,-15.7934036,-47.8823172,362379,11861.25456
D1,Brasília/DF,-15.7934036,-47.8823172,6972,228.20491
1,Brazabrantes/GO,-16.4291635,-49.3858216,334,8916.17726
D1,Brazabrantes/GO,-16.4291635,-49.3858216,3,80.08542
1,Brazópolis/MG,-22.4742842,-45.6165577,584,4052.74115
D1,Brazópolis/MG,-22.4742842,-45.6165577,23,159.61138
1,Braço do Norte/SC,-28.2728633,-49.1622712,6718,19831.14890
D1,Braço do Norte/SC,-28.2728633,-49.1622712,66,194.82820
1,Braço do Trombudo/SC,-27.358578,-49.882145,513,13611.03741
D1,Braço do Trombudo/SC,-27.358578,-49.882145,4,106.12895
1,Braúna/SP,-21.5015319,-50.3175246,336,5852.63891
D1,Braúna/SP,-21.5015319,-50.3175246,14,243.85995
1,Braúnas/MG,-19.055556,-42.716111,163,3417.90732
D1,Braúnas/MG,-19.055556,-42.716111,5,104.84378
1,Brejetuba/ES,-20.1465817,-41.2902303,1359,10935.86545
D1,Brejetuba/ES,-20.1465817,-41.2902303,12,96.56393
1,Brejinho de Nazaré/TO,-11.0205883,-48.5722906,334,6051.82098
D1,Brejinho de Nazaré/TO,-11.0205883,-48.5722906,7,126.83457
1,Brejinho/PE,-7.3482153,-37.28538,443,5916.13248
D1,Brejinho/PE,-7.3482153,-37.28538,9,120.19231
1,Brejinho/RN,-6.1957907,-35.3583019,767,5998.27950
D1,Brejinho/RN,-6.1957907,-35.3583019,8,62.56354
1,Brejo Alegre/SP,-21.1671191,-50.1850393,252,8722.74143
D1,Brejo Alegre/SP,-21.1671191,-50.1850393,10,346.14053
1,Brejo Grande do Araguaia/PA,-5.7011449,-48.4037308,726,9853.42020
D1,Brejo Grande do Araguaia/PA,-5.7011449,-48.4037308,4,54.28882
1,Brejo Grande/SE,-10.4287358,-36.4667918,287,3435.89130
D1,Brejo Grande/SE,-10.4287358,-36.4667918,11,131.68921
1,Brejo Santo/CE,-7.4909841,-38.9859152,6021,12080.17335
D1,Brejo Santo/CE,-7.4909841,-38.9859152,92,184.58328
1,Brejo da Madre de Deus/PE,-8.1409718,-36.3712527,1599,3121.52269
D1,Brejo da Madre de Deus/PE,-8.1409718,-36.3712527,43,83.94339
1,Brejo de Areia/MA,-4.3316785,-45.5833334,281,3117.37298
D1,Brejo de Areia/MA,-4.3316785,-45.5833334,8,88.75083
1,Brejo do Cruz/PB,-6.32926065,-37.48746163303929,1231,8665.35267
D1,Brejo do Cruz/PB,-6.32926065,-37.48746163303929,19,133.74630
1,Brejo do Piauí/PI,-8.207583,-42.8359849,58,1507.27651
D1,Brejo do Piauí/PI,-8.207583,-42.8359849,3,77.96258
1,Brejo dos Santos/PB,-6.3769367,-37.8243125,332,5136.13861
D1,Brejo dos Santos/PB,-6.3769367,-37.8243125,4,61.88119
1,Brejo/MA,-3.6804397,-42.7529313,767,2092.71234
D1,Brejo/MA,-3.6804397,-42.7529313,18,49.11189
1,Brejolândia/BA,-12.4843845,-43.9611861,129,1214.91806
D1,Brejolândia/BA,-12.4843845,-43.9611861,8,75.34376
1,Brejão/PE,-9.029146,-36.566034,160,1780.34939
D1,Brejão/PE,-9.029146,-36.566034,5,55.63592
1,Brejões/BA,-13.1033754,-39.7909837,512,3600.05625
D1,Brejões/BA,-13.1033754,-39.7909837,7,49.21952
1,Breu Branco/PA,-3.7785073,-49.5684795,549,815.36268
D1,Breu Branco/PA,-3.7785073,-49.5684795,31,46.04052
1,Breves/PA,-1.68036,-50.479085,3710,3584.64497
D1,Breves/PA,-1.68036,-50.479085,103,99.51979
1,Britânia/GO,-15.2427599,-51.1602061,410,7072.62377
D1,Britânia/GO,-15.2427599,-51.1602061,3,51.75091
1,Brochier/RS,-29.556766,-51.5963047,334,6543.88715
D1,Brochier/RS,-29.556766,-51.5963047,1,19.59248
1,Brodowski/SP,-20.984532,-47.657217,1620,6408.98841
D1,Brodowski/SP,-20.984532,-47.657217,43,170.11512
1,Brotas de Macaúbas/BA,-12.0019007,-42.6257506,57,562.68509
D1,Brotas de Macaúbas/BA,-12.0019007,-42.6257506,1,9.87167
1,Brotas/SP,-22.2840884,-48.1267265,373,1514.04449
D1,Brotas/SP,-22.2840884,-48.1267265,21,85.24111
1,Brumadinho/MG,-20.143611,-44.2,2637,6484.53253
D1,Brumadinho/MG,-20.143611,-44.2,49,120.49378
1,Brumado/BA,-14.29507325,-41.659307508575985,7573,11246.75132
D1,Brumado/BA,-14.29507325,-41.659307508575985,135,200.49009
1,Brunópolis/SC,-27.310953,-50.837585,160,6756.75676
D1,Brunópolis/SC,-27.310953,-50.837585,4,168.91892
1,Brusque/SC,-27.0964628,-48.9136323,21261,15441.32066
D1,Brusque/SC,-27.0964628,-48.9136323,211,153.24390
1,Brás Pires/MG,-20.8483109,-43.2430524,147,3424.17890
D1,Brás Pires/MG,-20.8483109,-43.2430524,5,116.46867
1,Bueno Brandão/MG,-22.441976,-46.3517971,510,4640.16013
D1,Bueno Brandão/MG,-22.441976,-46.3517971,15,136.47530
1,Buenos Aires/PE,-7.7218931,-35.326587,179,1357.08870
D1,Buenos Aires/PE,-7.7218931,-35.326587,17,128.88552
1,Buenópolis/MG,-17.8756607,-44.1749365,255,2463.05419
D1,Buenópolis/MG,-17.8756607,-44.1749365,7,67.61325
1,Buerarema/BA,-14.9571177,-39.3008035,1203,6571.61586
D1,Buerarema/BA,-14.9571177,-39.3008035,36,196.65683
1,Bugre/MG,-19.4257687,-42.2556,341,8561.38589
D1,Bugre/MG,-19.4257687,-42.2556,10,251.06703
1,Bujari/AC,-9.8309656,-67.9520886,1020,9788.86756
D1,Bujari/AC,-9.8309656,-67.9520886,12,115.16315
1,Bujaru/PA,-1.5169239,-48.0410699,1190,4043.90526
D1,Bujaru/PA,-1.5169239,-48.0410699,31,105.34543
1,Buri/SP,-23.79849,-48.598924,1864,9336.33859
D1,Buri/SP,-23.79849,-48.598924,39,195.34185
1,Buritama/SP,-21.0664017,-50.1448077,1667,9646.43250
D1,Buritama/SP,-21.0664017,-50.1448077,46,266.18830
1,Buriti Alegre/GO,-18.1377879,-49.0404411,735,7749.89456
D1,Buriti Alegre/GO,-18.1377879,-49.0404411,26,274.14593
1,Buriti Bravo/MA,-5.8391884,-43.8367876,1140,4762.10368
D1,Buriti Bravo/MA,-5.8391884,-43.8367876,11,45.95012
1,Buriti de Goiás/GO,-16.180644,-50.4287479,171,6906.30048
D1,Buriti de Goiás/GO,-16.180644,-50.4287479,5,201.93861
1,Buriti do Tocantins/TO,-5.3187439,-48.2256609,592,5149.16935
D1,Buriti do Tocantins/TO,-5.3187439,-48.2256609,5,43.48961
1,Buriti dos Lopes/PI,-3.1776723,-41.8707444,1080,5452.61776
D1,Buriti dos Lopes/PI,-3.1776723,-41.8707444,22,111.07184
1,Buriti dos Montes/PI,-5.3136171,-41.0971256,492,5953.53340
D1,Buriti dos Montes/PI,-5.3136171,-41.0971256,6,72.60407
1,Buriti/MA,-3.9430944,-42.9244281,743,2580.04028
D1,Buriti/MA,-3.9430944,-42.9244281,7,24.30724
1,Buriticupu/MA,-4.3227472,-46.4516989,2855,3911.86989
D1,Buriticupu/MA,-4.3227472,-46.4516989,35,47.95637
1,Buritinópolis/GO,-14.4589282,-46.4293104,129,3929.33293
1,Buritirama/BA,-10.7148421,-43.6362327,703,3304.19252
D1,Buritirama/BA,-10.7148421,-43.6362327,15,70.50197
1,Buritirana/MA,-5.5897455,-47.0148915,281,1816.77119
D1,Buritirana/MA,-5.5897455,-47.0148915,22,142.23831
1,Buritis/MG,-15.621389,-46.423889,1141,4561.62795
D1,Buritis/MG,-15.621389,-46.423889,19,75.96050
1,Buritis/RO,-10.2054937,-63.8281954,4035,9998.51323
D1,Buritis/RO,-10.2054937,-63.8281954,55,136.28705
1,Buritizal/SP,-20.1933264,-47.7097165,184,4076.20735
D1,Buritizal/SP,-20.1933264,-47.7097165,5,110.76650
1,Buritizeiro/MG,-17.3667765,-44.9647781,822,2923.08239
D1,Buritizeiro/MG,-17.3667765,-44.9647781,22,78.23335
1,Butiá/RS,-30.1256795,-51.9692224,1415,6753.53188
D1,Butiá/RS,-30.1256795,-51.9692224,43,205.23100
1,Buíque/PE,-8.6239732,-37.157296,1666,2827.61079
D1,Buíque/PE,-8.6239732,-37.157296,31,52.61461
1,Bálsamo/SP,-20.7343722,-49.5807484,1184,12955.46559
D1,Bálsamo/SP,-20.7343722,-49.5807484,44,481.45311
0,CASO SEM LOCALIZAÇÃO DEFINIDA/AL,-9.931093434363673,-35.609611600637464,2,0.05993
D0,CASO SEM LOCALIZAÇÃO DEFINIDA/AL,-9.931093434363673,-35.609611600637464,2,0.05993
0,CASO SEM LOCALIZAÇÃO DEFINIDA/BA,-13.415069300066518,-38.14174656569957,13700,92.11283
D0,CASO SEM LOCALIZAÇÃO DEFINIDA/BA,-13.415069300066518,-38.14174656569957,288,1.93639
0,CASO SEM LOCALIZAÇÃO DEFINIDA/CE,-3.3445126297392798,-38.624961942434304,8068,88.34791
0,CASO SEM LOCALIZAÇÃO DEFINIDA/ES,-20.30989267097039,-39.81745156645774,3334,82.96318
D0,CASO SEM LOCALIZAÇÃO DEFINIDA/ES,-20.30989267097039,-39.81745156645774,153,3.80725
0,CASO SEM LOCALIZAÇÃO DEFINIDA/GO,-16.701590966270153,-49.164524059025034,3949,56.26675
D0,CASO SEM LOCALIZAÇÃO DEFINIDA/GO,-16.701590966270153,-49.164524059025034,220,3.13464
0,CASO SEM LOCALIZAÇÃO DEFINIDA/MG,-19.97049116501593,-43.8852149072783,14072,66.47522
D0,CASO SEM LOCALIZAÇÃO DEFINIDA/MG,-19.97049116501593,-43.8852149072783,691,3.26424
0,CASO SEM LOCALIZAÇÃO DEFINIDA/MS,-20.391549234908513,-54.645156949758444,1099,39.54680
D0,CASO SEM LOCALIZAÇÃO DEFINIDA/MS,-20.391549234908513,-54.645156949758444,50,1.79922
0,CASO SEM LOCALIZAÇÃO DEFINIDA/MT,-15.54791153961863,-56.17143998972475,2054,58.94734
D0,CASO SEM LOCALIZAÇÃO DEFINIDA/MT,-15.54791153961863,-56.17143998972475,152,4.36222
0,CASO SEM LOCALIZAÇÃO DEFINIDA/PA,-0.09317078214359542,-48.0050231510481,2673,31.07104
D0,CASO SEM LOCALIZAÇÃO DEFINIDA/PA,-0.09317078214359542,-48.0050231510481,112,1.30189
0,CASO SEM LOCALIZAÇÃO DEFINIDA/PI,-2.683810218391744,-41.470898009352254,1634,49.92016
D0,CASO SEM LOCALIZAÇÃO DEFINIDA/PI,-2.683810218391744,-41.470898009352254,26,0.79432
0,CASO SEM LOCALIZAÇÃO DEFINIDA/PR,-25.69415946385943,-48.10141676336737,5491,48.02362
D0,CASO SEM LOCALIZAÇÃO DEFINIDA/PR,-25.69415946385943,-48.10141676336737,121,1.05825
0,CASO SEM LOCALIZAÇÃO DEFINIDA/RN,-5.749310788669161,-34.95302586257457,1731,49.36050
D0,CASO SEM LOCALIZAÇÃO DEFINIDA/RN,-5.749310788669161,-34.95302586257457,39,1.11211
0,CASO SEM LOCALIZAÇÃO DEFINIDA/RR,2.813328208465927,-60.663338675861986,2892,477.41601
D0,CASO SEM LOCALIZAÇÃO DEFINIDA/RR,2.813328208465927,-60.663338675861986,19,3.13655
0,CASO SEM LOCALIZAÇÃO DEFINIDA/SP,-24.30968974555485,-46.21366504207253,18537,40.36887
D0,CASO SEM LOCALIZAÇÃO DEFINIDA/SP,-24.30968974555485,-46.21366504207253,1060,2.30841
0,CASO SEM LOCALIZAÇÃO DEFINIDA/TO,-10.213012114749148,-48.40023803990334,1033,65.67629
D0,CASO SEM LOCALIZAÇÃO DEFINIDA/TO,-10.213012114749148,-48.40023803990334,18,1.14441
1,Caapiranga/AM,-3.3188884,-61.2096404,546,4110.51720
D1,Caapiranga/AM,-3.3188884,-61.2096404,20,150.56840
1,Caaporã/PB,-7.510234,-34.9154114,1456,6631.74675
D1,Caaporã/PB,-7.510234,-34.9154114,25,113.86928
1,Caarapó/MS,-22.6349267,-54.8240903,2516,8224.10355
D1,Caarapó/MS,-22.6349267,-54.8240903,23,75.18060
1,Caatiba/BA,-14.9782759,-40.4092325,637,9818.12577
D1,Caatiba/BA,-14.9782759,-40.4092325,6,92.47842
1,Cabaceiras do Paraguaçu/BA,-12.5377868,-39.1901339,398,2104.59521
D1,Cabaceiras do Paraguaçu/BA,-12.5377868,-39.1901339,4,21.15171
1,Cabaceiras/PB,-7.4899156,-36.2860501,298,5264.08762
D1,Cabaceiras/PB,-7.4899156,-36.2860501,1,17.66472
1,Cabeceira Grande/MG,-16.0297,-47.0906,240,3434.45907
D1,Cabeceira Grande/MG,-16.0297,-47.0906,4,57.24098
1,Cabeceiras do Piauí/PI,-4.4733665,-42.3098716,405,3809.97178
D1,Cabeceiras do Piauí/PI,-4.4733665,-42.3098716,9,84.66604
1,Cabeceiras/GO,-15.7995459,-46.9264991,242,3007.70569
D1,Cabeceiras/GO,-15.7995459,-46.9264991,9,111.85682
1,Cabedelo/PB,-6.97324,-34.8351609,6993,10169.12182
D1,Cabedelo/PB,-6.97324,-34.8351609,156,226.85300
1,Cabixi/RO,-13.4956065,-60.5424442,607,11700.07710
D1,Cabixi/RO,-13.4956065,-60.5424442,13,250.57826
1,Cabo Frio/RJ,-22.8804369,-42.0189227,9233,4007.76116
D1,Cabo Frio/RJ,-22.8804369,-42.0189227,430,186.64977
1,Cabo Verde/MG,-21.4743338,-46.3964995,311,2209.59147
D1,Cabo Verde/MG,-21.4743338,-46.3964995,5,35.52398
1,Cabo de Santo Agostinho/PE,-8.2838945,-35.0320984,4028,1927.78926
D1,Cabo de Santo Agostinho/PE,-8.2838945,-35.0320984,369,176.60234
1,Cabreúva/SP,-23.3075813,-47.1324417,2855,5661.42497
D1,Cabreúva/SP,-23.3075813,-47.1324417,62,122.94513
1,Cabrobó/PE,-8.5083701,-39.3106961,1328,3848.94067
D1,Cabrobó/PE,-8.5083701,-39.3106961,15,43.47448
1,Cabrália Paulista/SP,-22.4562909,-49.3385645,205,4831.48716
D1,Cabrália Paulista/SP,-22.4562909,-49.3385645,2,47.13646
1,Cacaulândia/RO,-10.3380043,-62.9007231,696,11102.24916
D1,Cacaulândia/RO,-10.3380043,-62.9007231,8,127.61206
1,Cacequi/RS,-29.8838059,-54.8273443,156,1255.73533
D1,Cacequi/RS,-29.8838059,-54.8273443,4,32.19834
1,Cachoeira Alta/GO,-18.7618269,-50.9432431,1051,8297.80515
D1,Cachoeira Alta/GO,-18.7618269,-50.9432431,14,110.53213
1,Cachoeira Dourada/GO,-18.4934204,-49.481062,369,4594.69555
D1,Cachoeira Dourada/GO,-18.4934204,-49.481062,11,136.96924
1,Cachoeira Dourada/MG,-18.517136,-49.5002062,123,4545.45455
D1,Cachoeira Dourada/MG,-18.517136,-49.5002062,2,73.90983
1,Cachoeira Grande/MA,-2.9290492,-44.0573223,209,2205.10656
D1,Cachoeira Grande/MA,-2.9290492,-44.0573223,5,52.75375
1,Cachoeira Paulista/SP,-22.666498,-45.015384,1682,5008.78473
D1,Cachoeira Paulista/SP,-22.666498,-45.015384,28,83.38048
1,Cachoeira da Prata/MG,-19.524723,-44.453056,204,5680.86884
D1,Cachoeira da Prata/MG,-19.524723,-44.453056,3,83.54219
1,Cachoeira de Goiás/GO,-16.6688414,-50.6435997,50,3725.78241
1,Cachoeira de Minas/MG,-22.3554043,-45.7796324,481,4154.07203
D1,Cachoeira de Minas/MG,-22.3554043,-45.7796324,6,51.81795
1,Cachoeira de Pajeú/MG,-15.965833,-41.496666,293,3103.15611
D1,Cachoeira de Pajeú/MG,-15.965833,-41.496666,7,74.13684
1,Cachoeira do Arari/PA,-1.0143572,-48.9621089,352,1462.76596
D1,Cachoeira do Arari/PA,-1.0143572,-48.9621089,15,62.33378
1,Cachoeira do Piriá/PA,-1.7599443,-46.5446954,676,1953.24915
D1,Cachoeira do Piriá/PA,-1.7599443,-46.5446954,3,8.66827
1,Cachoeira do Sul/RS,-30.0474778,-52.8905413,5671,6926.91984
D1,Cachoeira do Sul/RS,-30.0474778,-52.8905413,86,105.04587
1,Cachoeira dos Índios/PB,-6.9259193,-38.6742159,521,5055.79816
D1,Cachoeira dos Índios/PB,-6.9259193,-38.6742159,13,126.15235
1,Cachoeira/BA,-12.5998256,-38.9665918,1133,3375.33887
D1,Cachoeira/BA,-12.5998256,-38.9665918,17,50.64498
1,Cachoeiras de Macacu/RJ,-22.4626861,-42.6534414,2219,3741.80058
D1,Cachoeiras de Macacu/RJ,-22.4626861,-42.6534414,70,118.03787
1,Cachoeirinha/PE,-8.4906364,-36.2338963,368,1795.03439
D1,Cachoeirinha/PE,-8.4906364,-36.2338963,22,107.31184
1,Cachoeirinha/RS,-29.9493353,-51.0898927,10493,7995.27583
D1,Cachoeirinha/RS,-29.9493353,-51.0898927,323,246.11399
1,Cachoeirinha/TO,-6.118647,-47.9208885,116,5078.80911
D1,Cachoeirinha/TO,-6.118647,-47.9208885,2,87.56567
1,Cachoeiro de Itapemirim/ES,-20.848084,-41.11129,21020,9981.52800
D1,Cachoeiro de Itapemirim/ES,-20.848084,-41.11129,417,198.01604
1,Cacimba de Areia/PB,-7.1288513,-37.1575194,27,730.71719
D1,Cacimba de Areia/PB,-7.1288513,-37.1575194,1,27.06360
1,Cacimba de Dentro/PB,-6.6425101,-35.7929304,831,4837.58295
D1,Cacimba de Dentro/PB,-6.6425101,-35.7929304,21,122.24939
1,Cacimbas/PB,-7.2125451,-37.0593398,191,2653.14627
D1,Cacimbas/PB,-7.2125451,-37.0593398,6,83.34491
1,Cacimbinhas/AL,-9.401212,-36.991082,482,4426.48544
D1,Cacimbinhas/AL,-9.401212,-36.991082,6,55.10148
1,Cacique Doble/RS,-27.7700117,-51.6616409,314,6188.41151
D1,Cacique Doble/RS,-27.7700117,-51.6616409,5,98.54158
1,Cacoal/RO,-11.4333,-61.4420502,10334,12031.24818
D1,Cacoal/RO,-11.4333,-61.4420502,176,204.90610
1,Caconde/SP,-21.527995,-46.643659,885,4655.68941
D1,Caconde/SP,-21.527995,-46.643659,10,52.60666
1,Caculé/BA,-14.4990734,-42.2233006,1202,5160.79172
D1,Caculé/BA,-14.4990734,-42.2233006,11,47.22854
1,Caetanos/BA,-14.3387456,-40.9085971,504,3450.16429
D1,Caetanos/BA,-14.3387456,-40.9085971,7,47.91895
1,Caetanópolis/MG,-19.2947496,-44.4138386,703,5983.48796
D1,Caetanópolis/MG,-19.2947496,-44.4138386,6,51.06818
1,Caetité/BA,-14.0691776,-42.4852428,1800,3523.81512
D1,Caetité/BA,-14.0691776,-42.4852428,13,25.44978
1,Caeté/MG,-19.897777,-43.670278,1353,3003.52965
D1,Caeté/MG,-19.897777,-43.670278,37,82.13644
1,Caetés/PE,-8.7728788,-36.6255835,1027,3553.14143
D1,Caetés/PE,-8.7728788,-36.6255835,13,44.97647
1,Cafarnaum/BA,-11.691399,-41.468823,740,3997.19116
D1,Cafarnaum/BA,-11.691399,-41.468823,15,81.02415
1,Cafeara/PR,-22.78905,-51.714195,212,7176.70955
D1,Cafeara/PR,-22.78905,-51.714195,6,203.11442
1,Cafelândia/PR,-24.6176963,-53.3218057,1298,7032.94322
D1,Cafelândia/PR,-24.6176963,-53.3218057,9,48.76463
1,Cafelândia/SP,-21.8054355,-49.6030627,629,3525.19195
D1,Cafelândia/SP,-21.8054355,-49.6030627,29,162.52872
1,Cafezal do Sul/PR,-23.900508,-53.512418,194,4839.11200
D1,Cafezal do Sul/PR,-23.900508,-53.512418,2,49.88775
1,Caiabu/SP,-22.0143038,-51.2356597,63,1502.50417
D1,Caiabu/SP,-22.0143038,-51.2356597,4,95.39709
1,Caiana/MG,-20.695555,-41.924723,112,2021.29579
D1,Caiana/MG,-20.695555,-41.924723,2,36.09457
1,Caiapônia/GO,-16.9538779,-51.8090761,855,4474.79981
D1,Caiapônia/GO,-16.9538779,-51.8090761,27,141.30947
1,Caibaté/RS,-28.290475,-54.645407,197,4084.59465
D1,Caibaté/RS,-28.290475,-54.645407,7,145.13788
1,Caibi/SC,-27.0751925,-53.2502133,510,8319.73899
D1,Caibi/SC,-27.0751925,-53.2502133,9,146.81892
1,Caicó/RN,-6.4594544,-37.0971911,8601,12585.04894
D1,Caicó/RN,-6.4594544,-37.0971911,102,149.24718
1,Caieiras/SP,-23.3644621,-46.7484765,5868,5709.55972
D1,Caieiras/SP,-23.3644621,-46.7484765,194,188.76186
1,Cairu/BA,-13.4860505,-39.0455744,995,5399.68524
D1,Cairu/BA,-13.4860505,-39.0455744,9,48.84137
1,Caiuá/SP,-21.8319357,-51.9887179,220,3699.96636
D1,Caiuá/SP,-21.8319357,-51.9887179,4,67.27212
1,Caiçara do Norte/RN,-5.0645017,-36.0561226,270,4115.22634
D1,Caiçara do Norte/RN,-5.0645017,-36.0561226,9,137.17421
1,Caiçara do Rio do Vento/RN,-5.757968,-36.00089,192,5168.23688
D1,Caiçara do Rio do Vento/RN,-5.757968,-36.00089,7,188.42530
1,Caiçara/PB,-6.6146866,-35.4681434,584,8121.26269
D1,Caiçara/PB,-6.6146866,-35.4681434,13,180.78153
1,Caiçara/RS,-27.2750478,-53.4310053,398,8468.08511
D1,Caiçara/RS,-27.2750478,-53.4310053,7,148.93617
1,Cajamar/SP,-23.3561111,-46.8769444,3200,4106.03844
D1,Cajamar/SP,-23.3561111,-46.8769444,124,159.10899
1,Cajapió/MA,-2.8778715,-44.6746871,68,606.27675
D1,Cajapió/MA,-2.8778715,-44.6746871,3,26.74750
1,Cajari/MA,-3.3213076,-45.0118757,145,745.46296
D1,Cajari/MA,-3.3213076,-45.0118757,5,25.70562
1,Cajati/SP,-24.7272376,-48.1077914,2754,9665.19267
D1,Cajati/SP,-24.7272376,-48.1077914,64,224.60869
1,Cajazeiras do Piauí/PI,-6.794271,-42.3935024,34,951.58130
D1,Cajazeiras do Piauí/PI,-6.794271,-42.3935024,1,27.98769
1,Cajazeiras/PB,-6.8897849,-38.5570389,6144,9863.69985
D1,Cajazeiras/PB,-6.8897849,-38.5570389,110,176.59619
1,Cajazeirinhas/PB,-6.961442,-37.7993733,107,3338.53354
1,Cajobi/SP,-20.8776238,-48.8106972,617,5822.95206
D1,Cajobi/SP,-20.8776238,-48.8106972,21,198.18800
1,Cajueiro da Praia/PI,-2.931114,-41.340801,464,6046.39041
D1,Cajueiro da Praia/PI,-2.931114,-41.340801,13,169.40318
1,Cajueiro/AL,-9.399589,-36.1524309,470,2203.36599
D1,Cajueiro/AL,-9.399589,-36.1524309,18,84.38423
1,Cajuri/MG,-20.7901414,-42.7954489,247,6215.40010
D1,Cajuri/MG,-20.7901414,-42.7954489,1,25.16356
1,Cajuru/SP,-21.2759978,-47.3046035,594,2250.59675
D1,Cajuru/SP,-21.2759978,-47.3046035,20,75.77767
1,Caldas Brandão/PB,-7.1027959,-35.3254676,439,7260.99901
D1,Caldas Brandão/PB,-7.1027959,-35.3254676,6,99.23917
1,Caldas Novas/GO,-17.745,-48.625,6639,7123.69630
D1,Caldas Novas/GO,-17.745,-48.625,157,168.46217
1,Caldas/MG,-21.923611,-46.386111,541,3720.51441
D1,Caldas/MG,-21.923611,-46.386111,16,110.03370
1,Caldazinha/GO,-16.7116649,-49.0012601,196,5093.55509
D1,Caldazinha/GO,-16.7116649,-49.0012601,3,77.96258
1,Caldeirão Grande do Piauí/PI,-7.3310393,-40.6374433,261,4514.78983
D1,Caldeirão Grande do Piauí/PI,-7.3310393,-40.6374433,2,34.59609
1,Caldeirão Grande/BA,-11.0208483,-40.3041387,536,4002.68837
D1,Caldeirão Grande/BA,-11.0208483,-40.3041387,6,44.80621
1,Califórnia/PR,-23.6672543,-51.3554556,708,8226.81850
D1,Califórnia/PR,-23.6672543,-51.3554556,14,162.67720
1,Calmon/SC,-26.6023644,-51.0992893,25,749.62519
D1,Calmon/SC,-26.6023644,-51.0992893,3,89.95502
1,Calumbi/PE,-7.9389746,-38.1516871,402,6994.95389
D1,Calumbi/PE,-7.9389746,-38.1516871,2,34.80077
1,Calçado/PE,-8.7413446,-36.3351787,303,2750.04538
D1,Calçado/PE,-8.7413446,-36.3351787,2,18.15211
1,Calçoene/AP,2.4981757,-50.9539503,1585,14019.10490
D1,Calçoene/AP,2.4981757,-50.9539503,9,79.60375
1,Camacan/BA,-15.4166631,-39.4930088,2294,7167.40611
D1,Camacan/BA,-15.4166631,-39.4930088,50,156.22071
1,Camacho/MG,-20.625556,-45.156667,49,1707.91216
D1,Camacho/MG,-20.625556,-45.156667,1,34.85535
1,Camalaú/PB,-7.885031,-36.824191,328,5438.56740
D1,Camalaú/PB,-7.885031,-36.824191,5,82.90499
1,Camamu/BA,-13.9438142,-39.1060917,1879,5310.60991
D1,Camamu/BA,-13.9438142,-39.1060917,37,104.57295
1,Camanducaia/MG,-22.755278,-46.144444,2130,9770.19403
D1,Camanducaia/MG,-22.755278,-46.144444,41,188.06477
1,Camapuã/MS,-19.5291747,-54.0434641,533,3892.49982
D1,Camapuã/MS,-19.5291747,-54.0434641,18,131.45403
1,Camaquã/RS,-30.8524752,-51.8075619,5387,8103.43271
D1,Camaquã/RS,-30.8524752,-51.8075619,100,150.42570
1,Camaragibe/PE,-8.0213832,-34.9810768,4128,2597.87664
D1,Camaragibe/PE,-8.0213832,-34.9810768,276,173.69524
1,Camargo/RS,-28.5865661,-52.2031474,270,9846.82713
D1,Camargo/RS,-28.5865661,-52.2031474,5,182.34865
1,Camaçari/BA,-12.6998188,-38.3260762,19439,6388.06186
D1,Camaçari/BA,-12.6998188,-38.3260762,477,156.75217
1,Cambará do Sul/RS,-29.0489517,-50.145412,288,4495.78520
D1,Cambará do Sul/RS,-29.0489517,-50.145412,6,93.66219
1,Cambará/PR,-23.042273,-50.075281,1719,6750.17671
D1,Cambará/PR,-23.042273,-50.075281,28,109.95052
1,Cambira/PR,-23.600265,-51.581045,568,7174.43476
D1,Cambira/PR,-23.600265,-51.581045,13,164.20361
1,Camboriú/SC,-27.0273601,-48.6535657,10574,12424.65190
D1,Camboriú/SC,-27.0273601,-48.6535657,136,159.80260
1,Cambuci/RJ,-21.5749919,-41.9107833,649,4183.31829
D1,Cambuci/RJ,-21.5749919,-41.9107833,19,122.47003
1,Cambuquira/MG,-21.853056,-45.2953619,352,2747.42429
D1,Cambuquira/MG,-21.853056,-45.2953619,10,78.05183
1,Cambuí/MG,-22.6122501,-46.0572137,2135,7161.06527
D1,Cambuí/MG,-22.6122501,-46.0572137,33,110.68625
1,Cambé/PR,-23.2782035,-51.2779583,8491,7910.30454
D1,Cambé/PR,-23.2782035,-51.2779583,155,144.39962
1,Cametá/PA,-2.242949,-49.497885,6672,4787.46305
D1,Cametá/PA,-2.242949,-49.497885,168,120.54763
1,Camocim de São Félix/PE,-8.3616757,-35.7638903,383,2026.45503
D1,Camocim de São Félix/PE,-8.3616757,-35.7638903,12,63.49206
1,Camocim/CE,-2.9009918,-40.8427389,3928,6146.43153
D1,Camocim/CE,-2.9009918,-40.8427389,120,187.77286
1,Campanha/MG,-21.8361108,-45.401986,996,5942.01169
D1,Campanha/MG,-21.8361108,-45.401986,21,125.28338
1,Campanário/MG,-18.2398144,-41.7271768,167,4477.21180
D1,Campanário/MG,-18.2398144,-41.7271768,1,26.80965
1,Campestre da Serra/RS,-28.7966535,-51.0958149,134,3946.98085
1,Campestre de Goiás/GO,-16.7624179,-49.69497,382,10468.62154
D1,Campestre de Goiás/GO,-16.7624179,-49.69497,9,246.64292
1,Campestre do Maranhão/MA,-6.1729113,-47.3640512,832,5756.59033
D1,Campestre do Maranhão/MA,-6.1729113,-47.3640512,35,242.16426
1,Campestre/AL,-8.8481634,-35.5660033,231,3321.82916
D1,Campestre/AL,-8.8481634,-35.5660033,6,86.28128
1,Campestre/MG,-19.6142116,-43.219378,748,3552.76907
D1,Campestre/MG,-19.6142116,-43.219378,15,71.24537
1,Campina Grande do Sul/PR,-25.3046032,-49.0545355,3934,9005.37942
D1,Campina Grande do Sul/PR,-25.3046032,-49.0545355,68,155.65984
1,Campina Grande/PB,-7.2246743,-35.8771292,25257,6133.21289
D1,Campina Grande/PB,-7.2246743,-35.8771292,722,175.32485
1,Campina Verde/MG,-19.535277,-49.486389,732,3705.95383
D1,Campina Verde/MG,-19.535277,-49.486389,22,111.38113
1,Campina da Lagoa/PR,-24.5937926,-52.8038965,690,4913.48003
D1,Campina da Lagoa/PR,-24.5937926,-52.8038965,18,128.17774
