type,name,lat,lon,total,total_per_100k_inhabitants
1,Abadia dos Dourados/MG,-18.4911191,-47.4063589,1,14.30820
1,Abaetetuba/PA,-1.721828,-48.878843,67,42.48627
D1,Abaetetuba/PA,-1.721828,-48.878843,1,0.63412
1,Abaeté/MG,-19.1566833,-45.4481213,2,8.60696
1,Abatiá/PR,-23.3052967,-50.3102532,1,13.41022
1,Abaíra/BA,-13.2503296,-41.6640342,4,45.77183
1,Abel Figueiredo/PA,-4.953001,-48.3958485,1,13.45171
1,Abreu e Lima/PE,-7.900719,-34.898389,114,114.01140
D1,Abreu e Lima/PE,-7.900719,-34.898389,4,4.00040
1,Abreulândia/TO,-9.6221526,-49.1558343,1,38.77472
1,Acajutiba/BA,-11.6609659,-38.0186381,1,6.59674
1,Acarape/CE,-4.2237866,-38.7071663,9,60.28535
D1,Acarape/CE,-4.2237866,-38.7071663,1,6.69837
1,Acaraú/CE,-2.8869514,-40.1194713,118,188.37503
D1,Acaraú/CE,-2.8869514,-40.1194713,1,1.59640
1,Acari/RN,-6.4364689,-36.6394777,2,17.95977
1,Acará/PA,-1.961388,-48.1987043,4,7.19541
D1,Acará/PA,-1.961388,-48.1987043,1,1.79885
1,Acopiara/CE,-6.0936464,-39.4543204,8,14.74111
D1,Acopiara/CE,-6.0936464,-39.4543204,1,1.84264
1,Acrelândia/AC,-10.0759167,-67.0526898,28,183.53435
D1,Acrelândia/AC,-10.0759167,-67.0526898,1,6.55480
1,Adamantina/SP,-21.6866517,-51.0762975,11,31.36763
1,Adolfo/SP,-21.2356597,-49.6441918,1,28.07412
1,Adustina/BA,-10.5358875,-38.114479,1,5.86854
D1,Adustina/BA,-10.5358875,-38.114479,1,5.86854
1,Afogados da Ingazeira/PE,-7.750429,-37.6356375,3,8.05175
1,Afonso Bezerra/RN,-5.4745,-36.57625071327935,1,9.06208
1,Afonso Cláudio/ES,-20.077841,-41.12606,22,71.92833
D1,Afonso Cláudio/ES,-20.077841,-41.12606,3,9.80841
1,Afrânio/PE,-8.5198919,-41.0070197,1,5.09295
1,Afuá/PA,-0.1535664,-50.3879223,4,10.19940
1,Agrestina/PE,-8.4558021,-35.9442663,1,4.01849
D1,Agrestina/PE,-8.4558021,-35.9442663,1,4.01849
1,Aguaí/SP,-22.0592036,-46.979384,15,41.31662
D1,Aguaí/SP,-22.0592036,-46.979384,3,8.26332
1,Agudos do Sul/PR,-25.9890808,-49.3328175,1,10.67122
1,Agudos/SP,-22.471162,-48.987822,20,53.74321
D1,Agudos/SP,-22.471162,-48.987822,1,2.68716
1,Aguiarnópolis/TO,-6.5600452,-47.4721189,2,29.70444
D1,Aguiarnópolis/TO,-6.5600452,-47.4721189,1,14.85222
1,Aimorés/MG,-19.4917754,-41.0615603,3,11.92037
1,Aiquara/BA,-14.126918,-39.8887574,3,67.47638
1,Aiuaba/CE,-6.5710836,-40.1212278,1,5.74746
1,Ajuricaba/RS,-28.239654,-53.7693013,1,14.23690
1,Alagoa Grande/PB,-7.0415212,-35.6285322,6,21.05559
1,Alagoa Nova/PB,-7.0653703,-35.76695977336711,1,4.79639
1,Alagoinha/PB,-6.97063215,-35.51490901897793,3,20.70536
1,Alagoinha/PE,-8.50355635,-36.77701174370496,2,13.66494
1,Alagoinhas/BA,-12.133526,-38.420772,9,5.93683
1,Alambari/SP,-23.550338,-47.897971,3,49.79253
1,Alcinópolis/MS,-18.3264121,-53.7094463,1,18.71608
1,Alcântara/MA,-2.4038956,-44.4154241,1,4.52550
1,Alcântaras/CE,-3.586247,-40.5457641,14,119.51511
D1,Alcântaras/CE,-3.586247,-40.5457641,1,8.53679
1,Aldeias Altas/MA,-4.6291957,-43.4708622,1,3.76903
1,Alegre/ES,-20.7625787,-41.5318886,3,9.97208
1,Alegrete/RS,-29.790166,-55.794862,3,4.07670
1,Alenquer/PA,-1.946229,-54.738355,7,12.32633
1,Alexandria/RN,-6.414779,-38.0135516,5,36.82699
D1,Alexandria/RN,-6.414779,-38.0135516,1,7.36540
1,Alexânia/GO,-16.0834049,-48.5077803,1,3.61624
1,Alfenas/MG,-21.4297405,-45.9479419,7,8.75044
1,Alfredo Chaves/ES,-20.624970400000002,-40.75006690147988,23,157.52346
1,Alfredo Vasconcelos/MG,-21.145833,-43.776389,1,14.47807
1,Alhandra/PB,-7.4304246,-34.9106103,24,122.52399
D1,Alhandra/PB,-7.4304246,-34.9106103,3,15.31550
1,Aliança do Tocantins/TO,-11.3055927,-48.9409096,1,18.55288
1,Aliança/PE,-7.60398,-35.222696,14,36.47163
D1,Aliança/PE,-7.60398,-35.222696,5,13.02558
1,Almadina/BA,-14.70466,-39.6381994,1,18.30161
1,Almeirim/PA,-1.5290377,-52.5788111,2,5.86356
D1,Almeirim/PA,-1.5290377,-52.5788111,1,2.93178
1,Almenara/MG,-16.1740678,-40.6904907,6,14.32118
1,Almirante Tamandaré/PR,-25.3133048,-49.2997838,12,10.11608
1,Aloândia/GO,-17.7277983,-49.4809338,1,50.12531
1,Alpercata/MG,-18.9803616,-41.9827637,1,13.46983
1,Alpestre/RS,-27.2512339,-53.0349646,7,111.85682
1,Alpinópolis/MG,-20.863611,-46.387777,1,5.03702
1,Alta Floresta D'Oeste/RO,-11.9296917,-61.9961284,2,8.71650
1,Alta Floresta/MT,-9.8715018,-56.0839881,2,3.86235
1,Altamira do Maranhão/MA,-4.1643006,-45.4674574,1,12.30315
D1,Altamira do Maranhão/MA,-4.1643006,-45.4674574,1,12.30315
1,Altamira/PA,-3.204065,-52.209961,39,34.03320
D1,Altamira/PA,-3.204065,-52.209961,1,0.87265
1,Alterosa/MG,-21.249166,-46.143055,1,6.91276
1,Altinho/PE,-8.4904095,-36.0607494,3,13.05938
1,Alto Alegre do Maranhão/MA,-4.2055693,-44.4525287,14,51.75027
1,Alto Alegre do Pindaré/MA,-3.6698186,-45.8462153,20,62.65860
1,Alto Alegre dos Parecis/RO,-12.1314515,-61.856265,4,30.20920
1,Alto Alegre/RR,2.98858,-61.307167,12,77.36944
D1,Alto Alegre/RR,2.98858,-61.307167,1,6.44745
1,Alto Alegre/SP,-21.5820592,-50.1661976,1,24.39619
1,Alto Bela Vista/SC,-27.4320737,-51.905771,2,103.25245
1,Alto Jequitibá/MG,-20.423611,-41.966111,2,24.04713
1,Alto Paraná/PR,-23.131247,-52.318893,6,40.62288
1,Alto Paraíso de Goiás/GO,-14.1304779,-47.5100161,1,13.11647
1,Alto Paraíso/RO,-9.7240103,-63.3188123,2,9.33358
1,Alto Rio Doce/MG,-21.0239537,-43.4133507,1,9.09091
1,Alto Santo/CE,-5.5190371,-38.2719351,7,40.82585
D1,Alto Santo/CE,-5.5190371,-38.2719351,1,5.83226
1,Alto do Rodrigues/RN,-5.290868,-36.7616726,4,27.53114
D1,Alto do Rodrigues/RN,-5.290868,-36.7616726,1,6.88279
1,Altos/PI,-5.0393915,-42.4611694,10,24.67673
1,Alvarães/AM,-3.214786,-64.8143124,2,12.46805
1,Alvorada D'Oeste/RO,-11.346271,-62.284697,4,27.75657
1,Alvorada do Gurguéia/PI,-8.4465288,-43.8655915,1,18.45359
1,Alvorada do Sul/PR,-22.7807269,-51.2307721,2,17.53463
1,Alvorada/RS,-29.9981184,-51.0772509,15,7.13250
D1,Alvorada/RS,-29.9981184,-51.0772509,2,0.95100
1,Alvorada/TO,-12.478465,-49.124926,1,11.88778
1,Além Paraíba/MG,-21.8760576,-42.6810473,8,22.62315
1,Amajari/RR,3.6523869,-61.4194315,5,39.07471
1,Amaporã/PR,-23.094272,-52.786597,16,255.71360
1,Amapá do Maranhão/MA,-1.6762114,-46.0109669,2,28.72738
1,Amapá/AP,2.0529997,-50.7930003,2,21.95631
1,Amaraji/PE,-8.373925,-35.4536527,8,35.04315
D1,Amaraji/PE,-8.373925,-35.4536527,3,13.14118
1,Amarante do Maranhão/MA,-5.56913,-46.747284,10,24.13419
1,Amarante/PI,-6.2459374,-42.8476238,3,17.04739
1,Amaturá/AM,-3.3640509,-68.1994689,87,754.16089
D1,Amaturá/AM,-3.3640509,-68.1994689,2,17.33703
1,Americana/SP,-22.7392463,-47.3306032,58,24.20731
D1,Americana/SP,-22.7392463,-47.3306032,4,1.66947
1,Ametista do Sul/RS,-27.3617341,-53.1826575,1,13.49710
1,Amontada/CE,-3.3634586,-39.8284791,7,16.10973
D1,Amontada/CE,-3.3634586,-39.8284791,2,4.60278
1,Amparo/SP,-22.70111,-46.76444,14,19.39192
D1,Amparo/SP,-22.70111,-46.76444,1,1.38514
1,Ampére/PR,-25.9168712,-53.4742414,3,15.66416
1,Amélia Rodrigues/BA,-12.4015388,-38.7516971,4,15.93499
1,Américo Brasiliense/SP,-21.7297099,-48.1052092,12,29.62670
1,Américo de Campos/SP,-20.298476,-49.735904,2,33.50645
1,Anadia/AL,-9.6830208,-36.3052699,2,11.39926
D1,Anadia/AL,-9.6830208,-36.3052699,1,5.69963
1,Anajatuba/MA,-3.26441,-44.6179916,24,89.54222
D1,Anajatuba/MA,-3.26441,-44.6179916,2,7.46185
1,Anajás/PA,-0.9878802,-49.9390114,1,3.41565
1,Anamã/AM,-3.5797356,-61.4049996,8,58.76304
1,Ananindeua/PA,-1.374035,-48.4016623,705,132.86895
D1,Ananindeua/PA,-1.374035,-48.4016623,46,8.66946
1,Ananás/TO,-6.3663053,-48.080238,1,10.47230
1,Anapu/PA,-3.4668292,-51.2057035,10,35.85515
1,Anapurus/MA,-3.6751298,-43.1046001,10,63.56471
1,Anchieta/ES,-20.8057672,-40.6454564,23,78.59755
1,Andradina/SP,-20.896505,-51.3742765,20,34.99134
D1,Andradina/SP,-20.896505,-51.3742765,1,1.74957
1,Angatuba/SP,-23.4938938,-48.4110675,2,7.92770
D1,Angatuba/SP,-23.4938938,-48.4110675,1,3.96385
1,Angical do Piauí/PI,-6.0872666,-42.7366138,3,44.19564
1,Angra dos Reis/RJ,-23.0063966,-44.316326,118,57.90416
D1,Angra dos Reis/RJ,-23.0063966,-44.316326,6,2.94428
1,Anhanguera/GO,-18.3338749,-48.220363,1,87.03220
1,Anhembi/SP,-22.7891096,-48.1316776,3,44.61630
1,Anita Garibaldi/SC,-27.6855032,-51.1293873,1,14.01935
1,Anori/AM,-3.7435254,-61.6605203,87,414.08853
D1,Anori/AM,-3.7435254,-61.6605203,1,4.75964
1,Anta Gorda/RS,-28.9718745,-52.0069187,2,33.43922
1,Antonina do Norte/CE,-6.7754187,-39.9879345,1,13.59989
1,Antônio Carlos/SC,-27.5168462,-48.7684715,18,211.44133
D1,Antônio Carlos/SC,-27.5168462,-48.7684715,4,46.98696
1,Antônio Prado/RS,-28.8567806,-51.2801355,1,7.66284
1,Anápolis/GO,-16.3332828,-48.9525756,49,12.66402
D1,Anápolis/GO,-16.3332828,-48.9525756,1,0.25845
1,Anísio de Abreu/PI,-9.185643,-43.04941,8,80.97166
1,Aparecida de Goiânia/GO,-16.8226769,-49.2452546,72,12.45289
D1,Aparecida de Goiânia/GO,-16.8226769,-49.2452546,3,0.51887
1,Aparecida/SP,-22.851552,-45.2340924,2,5.53143
1,Aperibé/RJ,-21.6211928,-42.1028167,3,25.51237
1,Apiacá/ES,-21.152272,-41.569297,3,39.64583
1,Apiaí/SP,-24.5076527,-48.8461582,1,4.10273
1,Apicum-Açu/MA,-1.5279295,-45.082278,8,46.40640
1,Apodi/RN,-5.6631109,-37.796927,37,103.22221
D1,Apodi/RN,-5.6631109,-37.796927,2,5.57958
1,Apucarana/PR,-23.5525327,-51.4610764,25,18.51907
D1,Apucarana/PR,-23.5525327,-51.4610764,2,1.48153
1,Apuiarés/CE,-3.9460303,-39.4313298,10,68.49315
1,Apuí/AM,-7.1940195,-59.8830192,9,40.95936
1,Aquidabã/SE,-10.2837579,-37.0188687,1,4.63757
1,Aquiraz/CE,-3.9063117,-38.387504,109,135.79001
D1,Aquiraz/CE,-3.9063117,-38.387504,2,2.49156
1,Arabutã/SC,-27.1587028,-52.1438142,14,328.09937
1,Aracaju/SE,-10.9162061,-37.0774655,1112,169.25084
D1,Aracaju/SE,-10.9162061,-37.0774655,13,1.97865
1,Aracati/CE,-4.558259,-37.767894,37,49.63312
D1,Aracati/CE,-4.558259,-37.767894,2,2.68287
1,Aracatu/BA,-14.4274236,-41.4604105,2,15.22649
1,Araci/BA,-11.3356065,-38.9573261,1,1.83895
D1,Araci/BA,-11.3356065,-38.9573261,1,1.83895
1,Aracoiaba/CE,-4.3702577,-38.8084313,20,75.56009
1,Aracruz/ES,-19.8245218,-40.2735025,38,37.54199
D1,Aracruz/ES,-19.8245218,-40.2735025,3,2.96384
1,Aragoiânia/GO,-16.9146388,-49.4499148,2,19.40241
1,Araguanã/MA,-2.9508403,-45.6651986,4,25.93025
1,Araguari/MG,-18.6511256,-48.1933764,11,9.38030
D1,Araguari/MG,-18.6511256,-48.1933764,1,0.85275
1,Araguatins/TO,-5.6522925,-48.1158973,7,19.57440
1,Araguaína/TO,-7.193241,-48.2018597,194,107.49709
1,Araioses/MA,-2.890914,-41.904993,1,2.15332
1,Arame/MA,-4.8858769,-46.0102484,1,3.05801
1,Arandu/SP,-23.1345103,-49.0545651,10,157.30691
D1,Arandu/SP,-23.1345103,-49.0545651,2,31.46138
1,Arapiraca/AL,-9.754866,-36.661471,40,17.26020
D1,Arapiraca/AL,-9.754866,-36.661471,5,2.15753
1,Arapongas/PR,-23.415296,-51.42592,18,14.63093
D1,Arapongas/PR,-23.415296,-51.42592,1,0.81283
1,Araquari/SC,-26.3703324,-48.7210994,12,31.47211
1,Araranguá/SC,-28.9348832,-49.4858389,10,14.65674
1,Araraquara/SP,-21.7886713,-48.1773096,104,44.05436
D1,Araraquara/SP,-21.7886713,-48.1773096,4,1.69440
1,Araras/SP,-22.3569477,-47.3838889,37,27.56340
D1,Araras/SP,-22.3569477,-47.3838889,2,1.48991
1,Ararendá/CE,-4.7504395,-40.8303611,1,9.14495
D1,Ararendá/CE,-4.7504395,-40.8303611,1,9.14495
1,Arari/MA,-3.4547602,-44.7772723,23,77.05709
D1,Arari/MA,-3.4547602,-44.7772723,1,3.35031
1,Araripe/CE,-7.212861,-40.1359222,1,4.62963
1,Araripina/PE,-7.5768582,-40.5038509,1,1.18458
1,Araruama/RJ,-22.8733203,-42.3428897,50,37.76435
D1,Araruama/RJ,-22.8733203,-42.3428897,2,1.51057
1,Araruna/PR,-23.9320308,-52.4976047,15,107.37294
D1,Araruna/PR,-23.9320308,-52.4976047,1,7.15820
1,Arataca/BA,-15.2617424,-39.4122943,2,18.15047
1,Aratuba/CE,-4.4195958,-39.0463737,2,16.88191
1,Araucária/PR,-25.5861107,-49.4051209,11,7.64723
1,Arauá/SE,-11.2644014,-37.6181058,1,9.94431
1,Araxá/MG,-19.5928536,-46.940241,8,7.53090
D1,Araxá/MG,-19.5928536,-46.940241,1,0.94136
1,Araçagi/PB,-6.8519969,-35.3835602,4,23.54742
1,Araçariguama/SP,-23.438611,-47.061389,5,22.35736
D1,Araçariguama/SP,-23.438611,-47.061389,1,4.47147
1,Araçatuba/SP,-21.207992,-50.4390225,90,45.68157
D1,Araçatuba/SP,-21.207992,-50.4390225,3,1.52272
1,Araçoiaba da Serra/SP,-23.5045367,-47.6168158,9,26.35741
1,Araçoiaba/PE,-7.7856903,-35.0898881,9,43.85110
D1,Araçoiaba/PE,-7.7856903,-35.0898881,2,9.74469
1,Arceburgo/MG,-21.364444,-46.939722,3,27.84998
1,Arcos/MG,-20.282223,-45.539444,7,17.45984
1,Arcoverde/PE,-8.415192,-37.057748,31,41.70142
D1,Arcoverde/PE,-8.415192,-37.057748,5,6.72604
1,Areal/RJ,-22.2314922,-43.1056264,5,39.77092
1,Arealva/SP,-22.0301906,-48.9111936,1,11.68224
1,Areia Branca/RN,-4.9506652,-37.1263312,36,129.61763
D1,Areia Branca/RN,-4.9506652,-37.1263312,1,3.60049
1,Areia Branca/SE,-10.7591455,-37.3148072,5,26.96581
1,Areia/PB,-6.9680243,-35.6994783,3,13.14694
1,Areiópolis/SP,-22.6758064,-48.6673653,6,53.91320
1,Aripuanã/MT,-10.175806,-59.4439663,3,13.42042
D1,Aripuanã/MT,-10.175806,-59.4439663,1,4.47347
1,Ariquemes/RO,-9.9076522,-63.033069,120,111.25224
1,Armazém/SC,-28.2624996,-49.0190126,21,242.10284
1,Armação dos Búzios/RJ,-22.7597805,-41.8875267,20,59.04931
1,Arneiroz/CE,-6.3235099,-40.1603859,15,191.32653
1,Aroazes/PI,-6.1108814,-41.7886137,1,17.13796
1,Arraial do Cabo/RJ,-22.9662839,-42.024427,15,49.42502
D1,Arraial do Cabo/RJ,-22.9662839,-42.024427,2,6.59000
1,Arroio do Meio/RS,-29.4020392,-51.9444993,30,144.19611
1,Arroio do Sal/RS,-29.549852,-49.8874395,3,29.80626
D1,Arroio do Sal/RS,-29.549852,-49.8874395,1,9.93542
1,Arroio dos Ratos/RS,-30.0894524,-51.7265541,4,28.26655
1,Artur Nogueira/SP,-22.572737,-47.172679,6,11.02779
1,Arujá/SP,-23.396266,-46.3175449,110,122.46170
D1,Arujá/SP,-23.396266,-46.3175449,5,5.56644
1,Arvoredo/SC,-27.0752908,-52.4571847,2,89.28571
1,Arvorezinha/RS,-28.87369,-52.17808,1,9.59325
1,Arês/RN,-6.1969216,-35.1642968,1,6.99007
1,Assaré/CE,-6.8746791,-39.8741385,1,4.27040
1,Assaí/PR,-23.3736041,-50.8454929,1,6.61419
1,Assis Brasil/AC,-10.9409203,-69.5672108,1,13.48254
1,Assis Chateaubriand/PR,-24.4054826,-53.5120468,16,47.95876
1,Assis/SP,-22.6620892,-50.420623,23,22.03361
D1,Assis/SP,-22.6620892,-50.420623,3,2.87395
1,Astolfo Dutra/MG,-21.3132636,-42.8624102,1,7.05268
1,Atalaia do Norte/AM,-4.3658547,-70.1908742,1,5.01983
1,Atalaia/AL,-9.5029595,-36.0219316,8,16.95454
1,Atibaia/SP,-23.1177393,-46.5547861,42,29.41980
D1,Atibaia/SP,-23.1177393,-46.5547861,2,1.40094
1,Augustinópolis/TO,-5.4662267,-47.8897519,4,21.72496
D1,Augustinópolis/TO,-5.4662267,-47.8897519,2,10.86248
1,Augusto Corrêa/PA,-1.0229335,-46.6404029,24,52.17618
D1,Augusto Corrêa/PA,-1.0229335,-46.6404029,2,4.34802
1,Aurelino Leal/BA,-14.3167137,-39.3256107,1,8.67227
1,Aurora do Pará/PA,-2.1323199,-47.558436,15,47.86521
1,Aurora/CE,-6.9426019,-38.9693765,1,4.05614
D1,Aurora/CE,-6.9426019,-38.9693765,1,4.05614
1,Aurora/SC,-27.3166417,-49.6368502,1,17.60873
1,Autazes/AM,-3.5833283,-59.1301518,152,384.17794
D1,Autazes/AM,-3.5833283,-59.1301518,16,40.43978
1,Avanhandava/SP,-21.4603331,-49.9465156,1,7.32654
1,Avaré/SP,-23.1045215,-48.9259103,29,31.98941
D1,Avaré/SP,-23.1045215,-48.9259103,2,2.20617
1,Avaí/SP,-22.1564662,-49.3316395,2,37.01647
1,Avelinópolis/GO,-16.4672409,-49.7578661,1,41.37360
1,Axixá do Tocantins/TO,-5.612747,-47.77007,3,30.75031
1,Axixá/MA,-2.8379465,-44.0561053,5,41.22012
1,Açailândia/MA,-4.9514278,-47.4844564,73,64.92063
1,Açu/RN,-5.5836157,-36.9139541,55,94.79980
D1,Açu/RN,-5.5836157,-36.9139541,3,5.17090
1,Bacabal/MA,-4.2318132,-44.781167,69,65.74622
D1,Bacabal/MA,-4.2318132,-44.781167,1,0.95284
1,Bacabeira/MA,-2.9775747,-44.3155943,35,205.21841
D1,Bacabeira/MA,-2.9775747,-44.3155943,1,5.86338
1,Bady Bassitt/SP,-20.9178969,-49.4517911,9,51.42269
D1,Bady Bassitt/SP,-20.9178969,-49.4517911,1,5.71363
1,Bagre/PA,-1.8994498,-50.2103844,5,16.30098
1,Bagé/RS,-31.3314264,-54.1062808,29,23.93865
1,Baixa Grande do Ribeiro/PI,-7.862861,-45.2113289,3,25.89332
D1,Baixa Grande do Ribeiro/PI,-7.862861,-45.2113289,1,8.63111
1,Baixo Guandu/ES,-19.5138322,-41.0182089,9,29.03413
1,Baião/PA,-2.7903479,-49.6702845,16,33.72255
D1,Baião/PA,-2.7903479,-49.6702845,2,4.21532
1,Balneário Arroio do Silva/SC,-28.9815269,-49.4189932,6,45.90314
D1,Balneário Arroio do Silva/SC,-28.9815269,-49.4189932,1,7.65052
1,Balneário Barra do Sul/SC,-26.459842,-48.6061471,3,27.79064
1,Balneário Camboriú/SC,-26.9924395,-48.6339782,125,87.84567
D1,Balneário Camboriú/SC,-26.9924395,-48.6339782,2,1.40553
1,Balneário Gaivota/SC,-29.1553098,-49.5808712,8,72.86638
D1,Balneário Gaivota/SC,-29.1553098,-49.5808712,1,9.10830
1,Balneário Piçarras/SC,-26.7638889,-48.6716667,8,34.56171
1,Balneário Rincão/SC,-28.8235718,-49.2241642,2,15.67398
1,Balsa Nova/PR,-25.5842234,-49.6312741,5,38.63689
1,Balsas/MA,-7.53214,-46.037163,42,44.26318
1,Banabuiú/CE,-5.3046404,-38.919766,22,120.89905
1,Bananal/SP,-22.6828195,-44.3221095,2,18.27318
1,Bananeiras/PB,-6.7537682,-35.6338343,1,4.69087
1,Bandeirantes do Tocantins/TO,-7.7635698,-48.579148,1,28.14523
1,Bandeirantes/PR,-23.107788,-50.370407,3,9.56419
D1,Bandeirantes/PR,-23.107788,-50.370407,1,3.18806
1,Bannach/PA,-7.3508505,-50.4064531,4,121.72855
D1,Bannach/PA,-7.3508505,-50.4064531,1,30.43214
1,Baraúna/RN,-5.0775002,-37.61752,7,24.67047
1,Barbacena/MG,-21.2254524,-43.7735087,17,12.38047
D1,Barbacena/MG,-21.2254524,-43.7735087,2,1.45653
1,Barbalha/CE,-7.3121067,-39.3036427,8,13.16201
1,Barcarena/PA,-1.5107945,-48.6190679,46,36.89445
D1,Barcarena/PA,-1.5107945,-48.6190679,5,4.01027
1,Barcelona/RN,-5.9514918,-35.9260284,1,25.01251
1,Barcelos/AM,-0.9729214,-62.925635,24,87.26638
D1,Barcelos/AM,-0.9729214,-62.925635,3,10.90830
1,Bariri/SP,-22.0746355,-48.7394852,1,2.83575
1,Barra Bonita/SP,-22.490859,-48.558349,8,22.14472
D1,Barra Bonita/SP,-22.490859,-48.558349,1,2.76809
1,Barra Mansa/RJ,-22.5394843,-44.1735129,70,37.95848
D1,Barra Mansa/RJ,-22.5394843,-44.1735129,1,0.54226
1,Barra Velha/SC,-26.6338203,-48.6835001,5,17.14207
1,Barra de Santo Antônio/AL,-9.4038098,-35.5117693,1,6.27668
1,Barra de São Francisco/ES,-18.7570902,-40.8916119,8,17.91713
D1,Barra de São Francisco/ES,-18.7570902,-40.8916119,1,2.23964
1,Barra de São Miguel/AL,-9.8261357,-35.8837777,5,60.08171
1,Barra de São Miguel/PB,-7.7528088,-36.3170996,1,16.56726
1,Barra do Choça/BA,-14.8638173,-40.5761637,4,12.65703
1,Barra do Corda/MA,-5.496823,-45.248496,24,27.20718
D1,Barra do Corda/MA,-5.496823,-45.248496,1,1.13363
1,Barra do Garças/MT,-15.8916033,-52.2615413,17,27.86337
D1,Barra do Garças/MT,-15.8916033,-52.2615413,1,1.63902
1,Barra do Piraí/RJ,-22.4703403,-43.8263256,35,34.86959
D1,Barra do Piraí/RJ,-22.4703403,-43.8263256,3,2.98882
1,Barra do Rocha/BA,-14.2090974,-39.6004395,3,52.50263
1,Barra do Turvo/SP,-24.756421,-48.5056942,2,26.11307
1,Barra dos Coqueiros/SE,-10.9075694,-37.0386249,34,111.81636
1,Barra/BA,-11.0892702,-43.1420453,2,3.73288
1,Barracão/PR,-26.252395,-53.6349576,1,9.73236
1,Barras/PI,-4.2446153,-42.2920241,8,16.99741
1,Barreira/CE,-4.2883361,-38.641094,4,17.83724
D1,Barreira/CE,-4.2883361,-38.641094,1,4.45931
1,Barreiras/BA,-12.1440031,-44.9967406,2,1.28668
1,Barreirinha/AM,-2.798863,-57.067897,32,99.87204
D1,Barreirinha/AM,-2.798863,-57.067897,1,3.12100
1,Barreirinhas/MA,-2.7541271,-42.8259693,27,43.18066
1,Barreiros/PE,-8.8159644,-35.1831905,1,2.34417
1,Barretos/SP,-20.5531437,-48.5697509,67,54.87395
D1,Barretos/SP,-20.5531437,-48.5697509,4,3.27606
1,Barrinha/SP,-21.1898849,-48.1550642,1,3.04767
1,Barro Alto/GO,-14.9696025,-48.9190985,1,8.95496
1,Barro Preto/BA,-14.8068289,-39.4727588,3,53.65766
1,Barro/CE,-7.1713587,-38.7742136,2,8.81834
1,Barrolândia/TO,-9.837246,-48.7264346,1,17.75568
1,Barroquinha/CE,-3.0200371,-41.1339229,7,46.61384
1,Barros Cassal/RS,-29.094938,-52.5832366,1,8.92937
1,Barueri/SP,-23.5112184,-46.8764612,507,184.91367
D1,Barueri/SP,-23.5112184,-46.8764612,44,16.04773
1,Barão de Grajaú/MA,-6.7542591,-43.0263477,1,5.31350
1,Bataguassu/MS,-21.715899,-52.422058,2,8.68659
1,Batalha/AL,-9.6733809,-37.1265481,3,16.45459
D1,Batalha/AL,-9.6733809,-37.1265481,1,5.48486
1,Batalha/PI,-4.022391,-42.0780926,5,18.61712
1,Batatais/SP,-20.892867,-47.592149,2,3.19959
D1,Batatais/SP,-20.892867,-47.592149,1,1.59980
1,Batayporã/MS,-22.2976466,-53.2685608,6,52.96143
D1,Batayporã/MS,-22.2976466,-53.2685608,2,17.65381
1,Baturité/CE,-4.3290203,-38.8821055,23,64.33566
D1,Baturité/CE,-4.3290203,-38.8821055,2,5.59441
1,Bauru/SP,-22.3218102,-49.0705863,166,44.05310
D1,Bauru/SP,-22.3218102,-49.0705863,10,2.65380
1,Bayeux/PB,-7.1301631,-34.936532,64,66.06111
D1,Bayeux/PB,-7.1301631,-34.936532,6,6.19323
1,Baía Formosa/RN,-6.3691885,-35.0063741,1,10.78632
1,Baía da Traição/PB,-6.691258,-34.9371244,4,44.47904
1,Bebedouro/SP,-20.949077,-48.479083,8,10.32311
1,Beberibe/CE,-4.1810469,-38.1298101,28,52.26513
D1,Beberibe/CE,-4.1810469,-38.1298101,3,5.59984
1,Bela Cruz/CE,-3.0529129,-40.167582,42,128.86993
D1,Bela Cruz/CE,-3.0529129,-40.167582,1,3.06833
1,Bela Vista de Goiás/GO,-16.9692949,-48.9513071,9,30.02502
1,Bela Vista de Minas/MG,-19.8289721,-43.0973688,1,9.75134
1,Bela Vista do Maranhão/MA,-3.7416367,-45.2514192,9,80.29262
1,Bela Vista/MS,-22.107327,-56.5317344,2,8.12051
1,Belford Roxo/RJ,-22.7667284,-43.4033603,293,57.34910
D1,Belford Roxo/RJ,-22.7667284,-43.4033603,31,6.06765
1,Belmiro Braga/MG,-21.9486291,-43.413564,3,87.48906
D1,Belmiro Braga/MG,-21.9486291,-43.413564,1,29.16302
1,Belmonte/BA,-15.8630837,-38.8792845,2,8.57339
D1,Belmonte/BA,-15.8630837,-38.8792845,1,4.28669
1,Belo Horizonte/MG,-19.9227318,-43.9450948,973,38.73300
D1,Belo Horizonte/MG,-19.9227318,-43.9450948,26,1.03500
1,Belo Jardim/PE,-8.3338293,-36.4176419,10,13.08233
D1,Belo Jardim/PE,-8.3338293,-36.4176419,1,1.30823
1,Belo Oriente/MG,-19.2232523,-42.4807033,1,3.74532
1,Belo Vale/MG,-20.407778,-44.024167,1,12.96176
D1,Belo Vale/MG,-20.407778,-44.024167,1,12.96176
1,Belterra/PA,-2.636091,-54.937392,2,11.27904
1,Belágua/MA,-3.1604031,-43.5085052,6,80.33204
1,Belém de Maria/PE,-8.6242497,-35.8388934,1,8.28295
D1,Belém de Maria/PE,-8.6242497,-35.8388934,1,8.28295
1,Belém/PA,-1.45056,-48.4682453,3441,230.51492
D1,Belém/PA,-1.45056,-48.4682453,317,21.23605
1,Beneditinos/PI,-5.4565671,-42.3605061,1,9.55384
1,Benedito Novo/SC,-26.7840657,-49.3629511,3,25.74665
1,Benevides/PA,-1.3555577,-48.252235,59,94.04339
D1,Benevides/PA,-1.3555577,-48.252235,7,11.15769
1,Benjamin Constant/AM,-4.3782748,-70.0290603,66,153.54551
D1,Benjamin Constant/AM,-4.3782748,-70.0290603,7,16.28513
1,Bento Fernandes/RN,-5.6926846,-35.8207423,2,36.38348
1,Bento Gonçalves/RS,-29.1654014,-51.5197627,126,104.60425
D1,Bento Gonçalves/RS,-29.1654014,-51.5197627,3,2.49058
1,Bequimão/MA,-2.4495376,-44.7884889,11,51.69173
1,Bernardino de Campos/SP,-23.0140216,-49.4760724,1,8.97022
1,Bertioga/SP,-23.848568,-46.139586,3,4.74316
D1,Bertioga/SP,-23.848568,-46.139586,2,3.16211
1,Bertolínia/PI,-7.6372159,-43.9540611,1,18.17851
1,Beruri/AM,-3.9007135,-61.3717319,33,167.69145
D1,Beruri/AM,-3.9007135,-61.3717319,3,15.24468
1,Betim/MG,-19.968056,-44.198333,27,6.14558
D1,Betim/MG,-19.968056,-44.198333,1,0.22761
1,Betânia do Piauí/PI,-8.1460635,-40.7961387,1,16.11604
1,Betânia/PE,-8.2742779,-38.0351767,4,31.44901
1,Bezerros/PE,-8.2372132,-35.7558262,3,4.93437
1,Bicas/MG,-21.7213723,-43.0604327,1,6.89941
1,Biguaçu/SC,-27.4961277,-48.6542432,8,11.68207
1,Bilac/SP,-21.403962,-50.47464,1,12.44710
1,Birigui/SP,-21.2908491,-50.34144,41,33.16133
1,Biritiba-Mirim/SP,-23.5697765,-46.0407456,15,46.01509
1,Blumenau/SC,-26.9195567,-49.0658025,296,82.86697
D1,Blumenau/SC,-26.9195567,-49.0658025,2,0.55991
1,Boa Esperança/ES,-18.5395472,-40.2904088,1,6.65026
1,Boa Esperança/MG,-21.0901253,-45.5660195,11,27.41296
1,Boa Hora/PI,-4.4094627,-42.1255341,1,14.74709
1,Boa Viagem/CE,-5.1261877,-39.7300055,18,33.04571
D1,Boa Viagem/CE,-5.1261877,-39.7300055,2,3.67175
1,Boa Vista da Aparecida/PR,-25.4357216,-53.4067721,1,13.17349
1,Boa Vista do Gurupi/MA,-1.7981168,-46.3071882,4,43.07096
1,Boa Vista do Ramos/AM,-2.9716927,-57.5869819,11,57.27079
1,Boa Vista do Sul/RS,-29.3510488,-51.6779679,6,215.59468
D1,Boa Vista do Sul/RS,-29.3510488,-51.6779679,1,35.93245
1,Boa Vista do Tupim/BA,-12.6605988,-40.6083594,1,5.38329
1,Boa Vista/RR,2.8208478,-60.6719582,970,242.97806
D1,Boa Vista/RR,2.8208478,-60.6719582,17,4.25838
1,Boca da Mata/AL,-9.6452054,-36.2116658,6,21.99333
1,Boca do Acre/AM,-8.7553487,-67.3930873,97,282.73289
1,Bocaina/SP,-22.1421831,-48.522276,8,64.88766
1,Boituva/SP,-23.2838893,-47.6738231,20,32.78850
D1,Boituva/SP,-23.2838893,-47.6738231,1,1.63942
1,Bom Conselho/PE,-9.169191,-36.685683,3,6.17869
D1,Bom Conselho/PE,-9.169191,-36.685683,1,2.05956
1,Bom Despacho/MG,-19.7375242,-45.2517288,2,3.95218
1,Bom Jardim/MA,-3.54129,-45.606004,3,7.20634
1,Bom Jardim/PE,-7.7961572,-35.5871696,11,28.07268
D1,Bom Jardim/PE,-7.7961572,-35.5871696,5,12.76031
1,Bom Jardim/RJ,-22.1515328,-42.4186683,9,32.79166
D1,Bom Jardim/RJ,-22.1515328,-42.4186683,2,7.28704
1,Bom Jesus das Selvas/MA,-4.4878075,-46.8526639,2,5.87751
1,Bom Jesus de Goiás/GO,-18.2174587,-49.739721,3,11.89721
1,Bom Jesus do Itabapoana/RJ,-21.1341025,-41.680095,17,45.82704
D1,Bom Jesus do Itabapoana/RJ,-21.1341025,-41.680095,1,2.69571
1,Bom Jesus do Norte/ES,-21.1254776,-41.6711646,12,120.77295
1,Bom Jesus do Tocantins/PA,-5.0471796,-48.5978362,4,23.55574
1,Bom Jesus dos Perdões/SP,-23.1353864,-46.4648052,3,11.78875
1,Bom Jesus/PB,-6.8156725,-38.6551841,1,39.04725
1,Bom Jesus/PI,-9.0711644,-44.3583926,9,35.74407
1,Bom Jesus/RN,-5.9887544,-35.5821149,1,9.79432
1,Bom Jesus/RS,-28.6692723,-50.4346894,1,8.81135
1,Bom Lugar/MA,-4.3728019,-45.0366054,1,6.13723
1,Bom Princípio do Piauí/PI,-3.1912777,-41.6430185,1,17.76199
D1,Bom Princípio do Piauí/PI,-3.1912777,-41.6430185,1,17.76199
1,Bom Princípio/RS,-29.489788,-51.3566782,4,28.45962
1,Bom Repouso/MG,-22.4657069,-46.1485376,3,28.44411
1,Bom Retiro do Sul/RS,-29.6000007,-51.9359243,13,105.45101
1,Bombinhas/SC,-27.1519159,-48.4875691,1,5.05842
1,Bonfim do Piauí/PI,-9.1648678,-42.8734415,1,17.63668
1,Bonfim/MG,-20.3266626, -44.2386157,1,14.56028
D1,Bonfim/MG,-20.3266626, -44.2386157,1,14.56028
1,Bonfim/RR,3.3613818,-59.8427241,17,136.99734
1,Bonito/MS,-21.1264766,-56.4902208,2,9.10084
1,Bonito/PA,-1.3605722,-47.3049907,16,98.24389
1,Bonito/PE,-8.4721161,-35.7314591,6,15.73399
D1,Bonito/PE,-8.4721161,-35.7314591,3,7.86700
1,Boqueirão/PB,-7.487004,-36.130887,1,5.61672
D1,Boqueirão/PB,-7.487004,-36.130887,1,5.61672
1,Boquim/SE,-11.1450175,-37.6204228,4,14.91647
1,Borba/AM,-4.3934778,-59.5947721,22,53.44865
D1,Borba/AM,-4.3934778,-59.5947721,1,2.42948
1,Borborema/PB,-6.8066718,-35.5990191,1,19.00057
1,Borborema/SP,-21.6212706,-49.074135,1,6.23208
1,Borda da Mata/MG,-22.274167,-46.165278,2,10.30291
1,Borebi/SP,-22.5700178,-48.9714871,3,113.07953
1,Botelhos/MG,-21.65,-46.394722,4,26.71832
1,Botucatu/SP,-22.8879628,-48.4410712,95,64.84774
D1,Botucatu/SP,-22.8879628,-48.4410712,5,3.41304
1,Botuverá/SC,-27.200749,-49.068892,5,95.31071
1,Bragança Paulista/SP,-22.9520235,-46.5418586,101,59.88095
D1,Bragança Paulista/SP,-22.9520235,-46.5418586,10,5.92881
1,Bragança/PA,-1.0573967,-46.7635406,109,85.36566
D1,Bragança/PA,-1.0573967,-46.7635406,10,7.83171
1,Branquinha/AL,-9.2478057,-36.0152009,1,9.52925
1,Brasilândia/MS,-21.255575,-52.0365617,11,92.65499
1,Brasiléia/AC,-11.0010413,-68.7487894,1,3.80546
1,Brasília de Minas/MG,-16.2075114,-44.430559,5,15.45738
1,Brasília/DF,-15.7934036,-47.8823172,2682,88.94732
D1,Brasília/DF,-15.7934036,-47.8823172,39,1.29342
1,Brazópolis/MG,-22.4742842,-45.6165577,4,27.66443
1,Braço do Norte/SC,-28.2728633,-49.1622712,102,304.93274
D1,Braço do Norte/SC,-28.2728633,-49.1622712,2,5.97907
1,Brejetuba/ES,-20.1465817,-41.2902303,2,16.12383
1,Brejinho/RN,-6.1957907,-35.3583019,1,7.87464
1,Brejo Alegre/SP,-21.1671191,-50.1850393,1,34.90401
1,Brejo Santo/CE,-7.4909841,-38.9859152,9,18.19027
1,Brejo da Madre de Deus/PE,-8.1409718,-36.3712527,1,1.97075
1,Brejo do Cruz/PB,-6.32926065,-37.48746163303929,1,7.08115
D1,Brejo do Cruz/PB,-6.32926065,-37.48746163303929,1,7.08115
1,Brejo/MA,-3.6804397,-42.7529313,6,16.48488
1,Breu Branco/PA,-3.7785073,-49.5684795,1,1.51410
1,Breves/PA,-1.68036,-50.479085,187,182.08197
D1,Breves/PA,-1.68036,-50.479085,29,28.23731
1,Britânia/GO,-15.2427599,-51.1602061,2,34.60806
1,Brodowski/SP,-20.984532,-47.657217,11,44.10762
1,Brumadinho/MG,-20.143611,-44.2,9,22.44221
1,Brumado/BA,-14.29507325,-41.659307508575985,8,11.90565
1,Brusque/SC,-27.0964628,-48.9136323,58,43.05130
1,Bueno Brandão/MG,-22.441976,-46.3517971,1,9.09008
D1,Bueno Brandão/MG,-22.441976,-46.3517971,1,9.09008
1,Buenos Aires/PE,-7.7218931,-35.326587,2,15.20334
D1,Buenos Aires/PE,-7.7218931,-35.326587,1,7.60167
1,Buerarema/BA,-14.9571177,-39.3008035,19,103.54788
D1,Buerarema/BA,-14.9571177,-39.3008035,3,16.34966
1,Bujari/AC,-9.8309656,-67.9520886,4,38.96357
1,Bujaru/PA,-1.5169239,-48.0410699,34,116.71015
D1,Bujaru/PA,-1.5169239,-48.0410699,3,10.29795
1,Buritama/SP,-21.0664017,-50.1448077,7,40.83061
1,Buriti Bravo/MA,-5.8391884,-43.8367876,2,8.37381
1,Buriti dos Lopes/PI,-3.1776723,-41.8707444,2,10.11071
D1,Buriti dos Lopes/PI,-3.1776723,-41.8707444,1,5.05536
1,Buriti/MA,-3.9430944,-42.9244281,10,34.86994
1,Buriticupu/MA,-4.3227472,-46.4516989,24,33.16841
1,Buritirana/MA,-5.5897455,-47.0148915,5,32.40441
1,Buritis/RO,-10.2054937,-63.8281954,3,7.56544
1,Buíque/PE,-8.6239732,-37.157296,2,3.42595
0,CASO SEM LOCALIZAÇÃO DEFINIDA/AC,-9.884083190922777,-67.85119819780795,112,12.69935
0,CASO SEM LOCALIZAÇÃO DEFINIDA/AL,-9.931093434363673,-35.609611600637464,99,2.96642
D0,CASO SEM LOCALIZAÇÃO DEFINIDA/AL,-9.931093434363673,-35.609611600637464,2,0.05993
0,CASO SEM LOCALIZAÇÃO DEFINIDA/AM,-3.07518492149711,-60.16169212873594,674,16.26214
0,CASO SEM LOCALIZAÇÃO DEFINIDA/AP,2.677150600275196,-50.477785111870624,120,14.18891
0,CASO SEM LOCALIZAÇÃO DEFINIDA/BA,-13.415069300066518,-38.14174656569957,397,2.66925
D0,CASO SEM LOCALIZAÇÃO DEFINIDA/BA,-13.415069300066518,-38.14174656569957,2,0.01345
0,CASO SEM LOCALIZAÇÃO DEFINIDA/CE,-3.3445126297392798,-38.624961942434304,948,10.38099
0,CASO SEM LOCALIZAÇÃO DEFINIDA/ES,-20.30989267097039,-39.81745156645774,356,8.85870
D0,CASO SEM LOCALIZAÇÃO DEFINIDA/ES,-20.30989267097039,-39.81745156645774,1,0.02488
0,CASO SEM LOCALIZAÇÃO DEFINIDA/GO,-16.701590966270153,-49.164524059025034,40,0.56993
0,CASO SEM LOCALIZAÇÃO DEFINIDA/MG,-19.97049116501593,-43.8852149072783,56,0.26454
0,CASO SEM LOCALIZAÇÃO DEFINIDA/MS,-20.391549234908513,-54.645156949758444,16,0.57575
0,CASO SEM LOCALIZAÇÃO DEFINIDA/MT,-15.54791153961863,-56.17143998972475,13,0.37308
D0,CASO SEM LOCALIZAÇÃO DEFINIDA/MT,-15.54791153961863,-56.17143998972475,1,0.02870
0,CASO SEM LOCALIZAÇÃO DEFINIDA/PA,-0.09317078214359542,-48.0050231510481,238,2.76652
0,CASO SEM LOCALIZAÇÃO DEFINIDA/PB,-7.1049355696146606,-34.68696690234351,185,4.60414
0,CASO SEM LOCALIZAÇÃO DEFINIDA/PE,-8.121628543819208,-34.57313921302556,1667,17.44258
D0,CASO SEM LOCALIZAÇÃO DEFINIDA/PE,-8.121628543819208,-34.57313921302556,130,1.36025
0,CASO SEM LOCALIZAÇÃO DEFINIDA/PR,-25.69415946385943,-48.10141676336737,50,0.43729
D0,CASO SEM LOCALIZAÇÃO DEFINIDA/PR,-25.69415946385943,-48.10141676336737,3,0.02624
0,CASO SEM LOCALIZAÇÃO DEFINIDA/RJ,-23.210238986465157,-43.12864305824042,145,0.83985
0,CASO SEM LOCALIZAÇÃO DEFINIDA/RN,-5.749310788669161,-34.95302586257457,10,0.28516
D0,CASO SEM LOCALIZAÇÃO DEFINIDA/RN,-5.749310788669161,-34.95302586257457,2,0.05703
0,CASO SEM LOCALIZAÇÃO DEFINIDA/RO,-8.681174926655274,-63.9216949899276,41,2.30697
D0,CASO SEM LOCALIZAÇÃO DEFINIDA/RO,-8.681174926655274,-63.9216949899276,2,0.11253
0,CASO SEM LOCALIZAÇÃO DEFINIDA/RR,2.813328208465927,-60.663338675861986,110,18.15898
0,CASO SEM LOCALIZAÇÃO DEFINIDA/RS,-30.50647488532064,-49.906261466443524,34,0.29884
0,CASO SEM LOCALIZAÇÃO DEFINIDA/SC,-27.675643660562308,-48.18313219398259,80,1.11657
0,CASO SEM LOCALIZAÇÃO DEFINIDA/SP,-24.30968974555485,-46.21366504207253,1040,2.26486
0,CASO SEM LOCALIZAÇÃO DEFINIDA/TO,-10.213012114749148,-48.40023803990334,194,12.33417
1,Caapiranga/AM,-3.3188884,-61.2096404,10,76.44675
1,Caaporã/PB,-7.510234,-34.9154114,39,178.66960
1,Cabedelo/PB,-6.97324,-34.8351609,83,122.53455
D1,Cabedelo/PB,-6.97324,-34.8351609,5,7.38160
1,Cabo Frio/RJ,-22.8804369,-42.0189227,108,47.67686
D1,Cabo Frio/RJ,-22.8804369,-42.0189227,5,2.20726
1,Cabo de Santo Agostinho/PE,-8.2838945,-35.0320984,171,82.58954
D1,Cabo de Santo Agostinho/PE,-8.2838945,-35.0320984,29,14.00641
1,Cabreúva/SP,-23.3075813,-47.1324417,7,14.08252
1,Cabrobó/PE,-8.5083701,-39.3106961,1,2.92218
1,Cachoeira Grande/MA,-2.9290492,-44.0573223,5,53.01665
D1,Cachoeira Grande/MA,-2.9290492,-44.0573223,2,21.20666
1,Cachoeira Paulista/SP,-22.666498,-45.015384,5,15.00285
1,Cachoeira do Arari/PA,-1.0143572,-48.9621089,15,63.11272
D1,Cachoeira do Arari/PA,-1.0143572,-48.9621089,3,12.62254
1,Cachoeira do Piriá/PA,-1.7599443,-46.5446954,1,2.94985
1,Cachoeira do Sul/RS,-30.0474778,-52.8905413,4,4.86612
1,Cachoeira/BA,-12.5998256,-38.9665918,3,8.96325
1,Cachoeiras de Macacu/RJ,-22.4626861,-42.6534414,30,50.90181
D1,Cachoeiras de Macacu/RJ,-22.4626861,-42.6534414,3,5.09018
1,Cachoeirinha/PE,-8.4906364,-36.2338963,8,39.25417
1,Cachoeirinha/RS,-29.9493353,-51.0898927,24,18.42002
1,Cachoeiro de Itapemirim/ES,-20.848084,-41.11129,32,15.31306
1,Cacimbinhas/AL,-9.401212,-36.991082,1,9.20980
D1,Cacimbinhas/AL,-9.401212,-36.991082,1,9.20980
1,Cacoal/RO,-11.4333,-61.4420502,6,7.02914
1,Caconde/SP,-21.527995,-46.643659,1,5.26732
1,Caetanos/BA,-14.3387456,-40.9085971,2,13.75327
1,Caetanópolis/MG,-19.2947496,-44.4138386,2,17.20578
1,Caeté/MG,-19.897777,-43.670278,4,8.94494
1,Caetés/PE,-8.7728788,-36.6255835,6,20.87755
1,Caiabu/SP,-22.0143038,-51.2356597,1,23.86065
D1,Caiabu/SP,-22.0143038,-51.2356597,1,23.86065
1,Caicó/RN,-6.4594544,-37.0971911,3,4.41488
1,Caieiras/SP,-23.3644621,-46.7484765,141,138.95733
D1,Caieiras/SP,-23.3644621,-46.7484765,15,14.78269
1,Caiçara/PB,-6.6146866,-35.4681434,1,13.88696
1,Cajamar/SP,-23.3561111,-46.8769444,89,115.88391
D1,Cajamar/SP,-23.3561111,-46.8769444,11,14.32273
1,Cajapió/MA,-2.8778715,-44.6746871,1,8.94694
1,Cajari/MA,-3.3213076,-45.0118757,6,30.96135
1,Cajati/SP,-24.7272376,-48.1077914,7,24.51925
1,Cajazeiras/PB,-6.8897849,-38.5570389,18,29.03554
D1,Cajazeiras/PB,-6.8897849,-38.5570389,1,1.61309
1,Cajazeirinhas/PB,-6.961442,-37.7993733,1,31.31851
1,Cajobi/SP,-20.8776238,-48.8106972,2,18.97173
1,Cajuru/SP,-21.2759978,-47.3046035,3,11.46482
1,Caldas Novas/GO,-17.745,-48.625,2,2.19390
1,Caldas/MG,-21.923611,-46.386111,2,13.81215
1,Caldeirão Grande/BA,-11.0208483,-40.3041387,2,15.00713
1,Calçoene/AP,2.4981757,-50.9539503,4,35.98093
1,Camacan/BA,-15.4166631,-39.4930088,7,21.88321
1,Camamu/BA,-13.9438142,-39.1060917,2,5.66316
1,Camanducaia/MG,-22.755278,-46.144444,8,36.74782
1,Camaquã/RS,-30.8524752,-51.8075619,1,1.50918
1,Camaragibe/PE,-8.0213832,-34.9810768,348,220.49320
D1,Camaragibe/PE,-8.0213832,-34.9810768,26,16.47363
1,Camaçari/BA,-12.6998188,-38.3260762,68,22.73244
D1,Camaçari/BA,-12.6998188,-38.3260762,3,1.00290
1,Camboriú/SC,-27.0273601,-48.6535657,76,91.57840
D1,Camboriú/SC,-27.0273601,-48.6535657,3,3.61494
1,Cambuquira/MG,-21.853056,-45.2953619,2,15.60793
1,Cambuí/MG,-22.6122501,-46.0572137,19,64.29562
1,Cambé/PR,-23.2782035,-51.2779583,10,9.38676
D1,Cambé/PR,-23.2782035,-51.2779583,1,0.93868
1,Cametá/PA,-2.242949,-49.497885,148,107.33193
D1,Cametá/PA,-2.242949,-49.497885,12,8.70259
1,Camocim de São Félix/PE,-8.3616757,-35.7638903,5,26.64535
1,Camocim/CE,-2.9009918,-40.8427389,11,17.27902
1,Campestre da Serra/RS,-28.7966535,-51.0958149,1,29.51594
1,Campestre de Goiás/GO,-16.7624179,-49.69497,1,27.54821
1,Campestre/AL,-8.8481634,-35.5660033,1,14.41753
1,Campina Grande do Sul/PR,-25.3046032,-49.0545355,11,25.41120
D1,Campina Grande do Sul/PR,-25.3046032,-49.0545355,1,2.31011
1,Campina Grande/PB,-7.2246743,-35.8771292,100,24.40626
D1,Campina Grande/PB,-7.2246743,-35.8771292,3,0.73219
1,Campina da Lagoa/PR,-24.5937926,-52.8038965,1,7.04126
D1,Campina da Lagoa/PR,-24.5937926,-52.8038965,1,7.04126
1,Campinas do Sul/RS,-27.7167968,-52.6257885,3,55.00550
1,Campinas/SP,-22.90556,-47.06083,595,49.41561
D1,Campinas/SP,-22.90556,-47.06083,25,2.07629
1,Campinorte/GO,-14.3136699,-49.1510931,1,7.92016
1,Campo Alegre de Lourdes/BA,-9.5160326,-43.0101338,4,13.88985
1,Campo Alegre/AL,-9.7798607,-36.3575793,3,5.25735
D1,Campo Alegre/AL,-9.7798607,-36.3575793,1,1.75245
1,Campo Belo/MG,-20.8975,-45.277223,4,7.40343
1,Campo Bom/RS,-29.674694,-51.060601,4,5.99592
1,Campo Erê/SC,-26.3947432,-53.0790495,1,11.72883
1,Campo Formoso/BA,-10.51055,-40.320031,1,1.40438
1,Campo Grande/AL,-9.9725,-36.74791447368421,1,10.46244
1,Campo Grande/MS,-20.4640173,-54.6162947,152,16.96463
D1,Campo Grande/MS,-20.4640173,-54.6162947,4,0.44644
1,Campo Largo/PR,-25.4597726,-49.5270851,23,17.42398
D1,Campo Largo/PR,-25.4597726,-49.5270851,2,1.51513
1,Campo Limpo Paulista/SP,-23.207791,-46.788919,26,30.71471
D1,Campo Limpo Paulista/SP,-23.207791,-46.788919,3,3.54400
1,Campo Magro/PR,-25.3691533,-49.4496921,2,6.82175
1,Campo Maior/PI,-4.8339574,-42.1739786,20,42.70493
1,Campo Mourão/PR,-24.046329,-52.37802,43,45.33044
D1,Campo Mourão/PR,-24.046329,-52.37802,4,4.21678
1,Campo Novo de Rondônia/RO,-10.5704235,-63.6199511,1,7.07264
D1,Campo Novo de Rondônia/RO,-10.5704235,-63.6199511,1,7.07264
1,Campo Novo do Parecis/MT,-13.658735,-57.890723,1,2.82805
1,Campo Redondo/RN,-6.2420373,-36.1830606,2,17.83008
1,Campo do Brito/SE,-10.7496246,-37.4942276,1,5.52212
1,Campo do Tenente/PR,-25.9814143,-49.684518,1,12.54548
1,Campos Altos/MG,-19.696389,-46.171389,1,6.46789
1,Campos Belos/GO,-13.0349839,-46.768112,9,45.25569
D1,Campos Belos/GO,-13.0349839,-46.768112,1,5.02841
1,Campos Gerais/MG,-21.2333342,-45.7584127,2,6.95072
1,Campos Sales/CE,-7.0742675,-40.3740367,5,18.23088
1,Campos do Jordão/SP,-22.7395263,-45.5912829,4,7.67931
1,Campos dos Goytacazes/RJ,-21.7558619,-41.3326895,144,28.37170
D1,Campos dos Goytacazes/RJ,-21.7558619,-41.3326895,4,0.78810
1,Cana Verde/MG,-21.021308,-45.1817881,4,71.39033
1,Cananéia/SP,-25.0104609,-47.9315628,11,87.71930
D1,Cananéia/SP,-25.0104609,-47.9315628,2,15.94896
1,Canapi/AL,-9.1173572,-37.6011704,1,5.64270
1,Canarana/BA,-11.6870151,-41.7683675,2,7.64059
1,Canarana/MT,-13.5564602,-52.2691167,2,9.26827
1,Canas/SP,-22.7029347,-45.0526508,1,19.46283
1,Canavieiras/BA,-15.61621745,-39.08485321304444,17,54.66414
1,Canaã dos Carajás/PA,-6.5296837,-49.8516592,15,40.44762
D1,Canaã dos Carajás/PA,-6.5296837,-49.8516592,2,5.39302
1,Candeias do Jamari/RO,-8.7949939,-63.7018851,5,18.73150
1,Candeias/BA,-12.6693806,-38.5406462,27,31.00740
1,Candelária/RS,-29.668391,-52.789495,3,9.56480
1,Candiota/RS,-31.5451894,-53.719538,1,10.43406
1,Canelinha/SC,-27.2660341,-48.7666708,1,8.16993
1,Canguaretama/RN,-6.3751942,-35.137463,28,81.68981
D1,Canguaretama/RN,-6.3751942,-35.137463,5,14.58747
1,Canguçu/RS,-31.398276,-52.6773522,2,3.56856
1,Canindé de São Francisco/SE,-9.6597475,-37.7904456,2,6.68896
1,Canindé/CE,-4.3547946,-39.3108516,99,128.57644
1,Canoas/RS,-29.9216045,-51.1799525,38,10.96314
D1,Canoas/RS,-29.9216045,-51.1799525,2,0.57701
1,Canoinhas/SC,-26.176591,-50.395001,2,3.67640
1,Cansanção/BA,-10.6671448,-39.498199,1,2.87076
1,Cantagalo/RJ,-21.9811325,-42.3682522,2,9.91473
1,Cantanhede/MA,-3.6355005,-44.3778738,11,50.01137
1,Canto do Buriti/PI,-8.1112473,-42.944844,2,9.43975
D1,Canto do Buriti/PI,-8.1112473,-42.944844,1,4.71988
1,Cantá/RR,2.60994,-60.605827,18,98.17289
1,Canudos do Vale/RS,-29.3240418,-52.2348494,3,174.82517
1,Canutama/AM,-6.5330019,-64.3834966,19,121.56888
1,Capanema/PA,-1.1933054,-47.1828679,72,104.30701
D1,Capanema/PA,-1.1933054,-47.1828679,6,8.69225
1,Capela do Alto/SP,-23.4704798,-47.7352309,4,19.31807
1,Capela/AL,-9.415041,-36.082583,2,11.72814
1,Capela/SE,-10.50494,-37.0552566,4,11.69146
1,Capelinha/MG,-17.693889,-42.518611,1,2.64662
1,Capim Grosso/BA,-11.3793228,-40.0112095,3,9.78410
D1,Capim Grosso/BA,-11.3793228,-40.0112095,3,9.78410
1,Capim/PB,-6.9174091,-35.1720326,1,15.33037
1,Capinzal do Norte/MA,-4.7304006,-44.3249063,2,18.29157
1,Capinópolis/MG,-18.682778,-49.569723,1,6.18314
1,Capistrano/CE,-4.4644692,-38.8956734,10,56.37614
D1,Capistrano/CE,-4.4644692,-38.8956734,2,11.27523
1,Capitão Poço/PA,-1.7447162,-47.0638495,8,14.73215
1,Capitólio/MG,-20.6142437,-46.0487652,1,11.58480
D1,Capitólio/MG,-20.6142437,-46.0487652,1,11.58480
1,Capivari de Baixo/SC,-28.449773,-48.963144,15,60.31121
1,Capixaba/AC,-10.5741345,-67.6759719,1,8.52297
1,Capoeiras/PE,-8.7386788,-36.6268109,2,9.97606
1,Capão Bonito/SP,-24.0048759,-48.3489848,8,16.97145
D1,Capão Bonito/SP,-24.0048759,-48.3489848,3,6.36429
1,Capão da Canoa/RS,-29.7542937,-50.0215684,7,13.19535
1,Capão do Leão/RS,-31.766133,-52.5013148,1,3.94415
1,Caracaraí/RR,1.827598,-61.125389,6,27.36477
1,Caracol/PI,-9.2804898,-43.3284924,1,9.16086
1,Caraguatatuba/SP,-23.62028,-45.41306,65,53.48386
D1,Caraguatatuba/SP,-23.62028,-45.41306,4,3.29131
1,Carandaí/MG,-20.9523934,-43.8043903,1,3.92141
1,Carangola/MG,-20.733056,-42.029445,6,18.18182
1,Carapebus/RJ,-22.1869969,-41.6633764,6,36.80756
1,Carapicuíba/SP,-23.5234673,-46.8406808,378,94.28150
D1,Carapicuíba/SP,-23.5234673,-46.8406808,19,4.73902
1,Caratinga/MG,-19.7900887,-42.140533,7,7.60357
1,Carauari/AM,-4.8766426,-66.8961433,121,427.65251
D1,Carauari/AM,-4.8766426,-66.8961433,1,3.53432
1,Carazinho/RS,-28.2981634,-52.7942363,18,28.98084
1,Caraúbas/RN,-5.7889323,-37.5548751,6,29.27829
1,Cardoso Moreira/RJ,-21.4894916,-41.6152776,1,7.79849
1,Careiro da Várzea/AM,-3.197024,-59.8259104,25,82.71299
1,Careiro/AM,-3.8185277,-60.3616505,190,501.72965
D1,Careiro/AM,-3.8185277,-60.3616505,5,13.20341
1,Cariacica/ES,-20.263202,-40.416549,595,156.05125
D1,Cariacica/ES,-20.263202,-40.416549,20,5.24542
1,Caridade/CE,-4.2316487,-39.1946515,9,39.91662
D1,Caridade/CE,-4.2316487,-39.1946515,2,8.87036
1,Carira/SE,-10.358303,-37.701473,2,9.05715
1,Cariri do Tocantins/TO,-11.8882727,-49.1604216,17,387.95071
1,Caririaçu/CE,-7.0417053,-39.2835527,3,11.12553
1,Cariré/CE,-3.948584,-40.476028,12,65.04770
1,Cariús/CE,-6.5348688,-39.4966658,2,10.69576
D1,Cariús/CE,-6.5348688,-39.4966658,1,5.34788
1,Carlos Barbosa/RS,-29.2978372,-51.5005613,33,110.61576
D1,Carlos Barbosa/RS,-29.2978372,-51.5005613,1,3.35199
1,Carlos Chagas/MG,-21.744351,-43.3908675,1,5.30870
1,Carmo da Cachoeira/MG,-21.460556,-45.223334,1,8.21693
1,Carmo da Mata/MG,-20.558334,-44.8703774,1,8.71384
1,Carmo do Cajuru/MG,-20.184444,-44.770834,5,22.24397
D1,Carmo do Cajuru/MG,-20.184444,-44.770834,1,4.44879
1,Carmo do Rio Verde/GO,-15.3549139,-49.707975,3,29.75600
1,Carmo/RJ,-21.9341749,-42.6091737,3,15.87722
1,Carmópolis de Minas/MG,-20.541224,-44.6350611,4,20.66649
1,Carmópolis/SE,-10.64835,-36.98493,2,12.02357
1,Carnaubais/RN,-5.3383681,-36.8335566,1,9.29454
1,Carnaubal/CE,-4.1611842,-40.9412317,7,39.75917
1,Carnaubeira da Penha/PE,-8.3192809,-38.7435891,1,7.73276
1,Carnaíba/PE,-7.805964,-37.7947314,2,10.22966
D1,Carnaíba/PE,-7.805964,-37.7947314,2,10.22966
1,Carnaúba dos Dantas/RN,-6.5560588,-36.5930811,1,12.22494
D1,Carnaúba dos Dantas/RN,-6.5560588,-36.5930811,1,12.22494
1,Caroebe/RR,0.8812315,-59.6932274,16,157.34094
1,Carpina/PE,-7.8459151,-35.2538861,24,28.69406
D1,Carpina/PE,-7.8459151,-35.2538861,2,2.39117
1,Caruaru/PE,-8.2829702,-35.9722852,53,14.67664
D1,Caruaru/PE,-8.2829702,-35.9722852,7,1.93842
1,Carutapera/MA,-1.2016638,-46.0205618,10,42.00445
D1,Carutapera/MA,-1.2016638,-46.0205618,3,12.60134
1,Cascavel/CE,-4.129666,-38.241178,72,100.35822
D1,Cascavel/CE,-4.129666,-38.241178,5,6.96932
1,Cascavel/PR,-24.9554996,-53.4560544,91,27.70555
D1,Cascavel/PR,-24.9554996,-53.4560544,4,1.21783
1,Caseiros/RS,-28.2721149,-51.6873536,1,31.23048
1,Casimiro de Abreu/RJ,-22.4809932,-42.2039976,30,67.89788
D1,Casimiro de Abreu/RJ,-22.4809932,-42.2039976,2,4.52653
1,Casserengue/PB,-6.779538,-35.817875,1,13.39047
1,Castanhal/PA,-1.2927031,-47.9223903,196,97.61296
D1,Castanhal/PA,-1.2927031,-47.9223903,21,10.45853
1,Castelo do Piauí/PI,-5.3230426,-41.5546185,4,20.28809
1,Castelo/ES,-20.6034476,-41.2033505,10,26.64251
D1,Castelo/ES,-20.6034476,-41.2033505,1,2.66425
1,Castilho/SP,-20.8695636,-51.4877792,3,14.28163
1,Castro Alves/BA,-12.7616941,-39.4281088,9,34.26744
1,Castro/PR,-24.794072,-49.9972914,3,4.19674
1,Cataguases/MG,-21.387426,-42.6957219,6,7.98690
D1,Cataguases/MG,-21.387426,-42.6957219,1,1.33115
1,Catalão/GO,-18.1702546,-47.9447082,2,1.83785
1,Catanduva/SP,-21.1331035,-48.9712817,29,23.79741
D1,Catanduva/SP,-21.1331035,-48.9712817,3,2.46180
1,Catanduvas/SC,-27.0689719,-51.660158,8,73.65804
1,Catarina/CE,-6.1341578,-39.8795321,2,9.66277
1,Catende/PE,-8.6900588,-35.748470825,7,16.32006
D1,Catende/PE,-8.6900588,-35.748470825,2,4.66287
1,Catingueira/PB,-7.120081,-37.60638,1,20.27575
1,Catu/BA,-12.351274,-38.379108,5,9.14010
D1,Catu/BA,-12.351274,-38.379108,1,1.82802
1,Catuji/MG,-17.3024568,-41.5168387,3,47.53605
1,Catunda/CE,-4.6494224,-40.2002603,1,9.66931
1,Caturaí/GO,-16.4473559,-49.4919149,1,19.72387
1,Caucaia/CE,-3.7300563,-38.6593082,653,180.68622
D1,Caucaia/CE,-3.7300563,-38.6593082,29,8.02435
1,Caxambu do Sul/SC,-27.1615046,-52.8796675,2,54.91488
1,Caxias do Sul/RS,-29.1684796,-51.1793861,65,12.72250
D1,Caxias do Sul/RS,-29.1684796,-51.1793861,1,0.19573
1,Caxias/MA,-4.8654201,-43.353664,47,28.50558
1,Caçador/SC,-26.77567,-51.0120041,12,15.26815
D1,Caçador/SC,-26.77567,-51.0120041,1,1.27235
1,Caçapava do Sul/RS,-30.5113286,-53.4916761,1,2.97407
1,Caçapava/SP,-23.099204,-45.707645,12,12.73034
D1,Caçapava/SP,-23.099204,-45.707645,1,1.06086
1,Ceará-Mirim/RN,-5.633588,-35.4248407,15,20.40900
D1,Ceará-Mirim/RN,-5.633588,-35.4248407,2,2.72120
1,Cedral/SP,-20.9028433,-49.2699665,1,10.82603
1,Cedro de São João/SE,-10.2506778,-36.8816067,6,101.74665
1,Cedro/CE,-6.6065382,-39.0599487,2,7.82564
1,Cedro/PE,-7.7186318,-39.2363385,1,8.46955
1,Centralina/MG,-18.5843349,-49.1954739,1,9.66184
D1,Centralina/MG,-18.5843349,-49.1954739,1,9.66184
1,Centro Novo do Maranhão/MA,-2.1361032,-46.1248528,4,18.49968
D1,Centro Novo do Maranhão/MA,-2.1361032,-46.1248528,1,4.62492
1,Centro do Guilherme/MA,-2.4511749,-46.039127,2,14.86105
1,Ceres/GO,-15.3103568,-49.6032054,4,18.02533
1,Cerqueira César/SP,-23.0353135,-49.1650519,1,5.00375
1,Cerro Corá/RN,-6.0412685,-36.3464694,1,8.94534
D1,Cerro Corá/RN,-6.0412685,-36.3464694,1,8.94534
1,Cerro Grande do Sul/RS,-30.5962963,-51.7517196,1,8.17060
D1,Cerro Grande do Sul/RS,-30.5962963,-51.7517196,1,8.17060
1,Chapada dos Guimarães/MT,-15.464343,-55.749857,3,15.18834
1,Chapada/RS,-28.0587829,-53.0657459,2,21.57730
1,Chapadinha/MA,-3.7416803,-43.3548006,154,193.28522
1,Chapadão do Sul/MS,-18.7949051,-52.6199512,9,35.68879
1,Chapecó/SC,-27.0922364,-52.6166878,286,129.78350
1,Charqueada/SP,-22.50958,-47.775468,10,58.17336
D1,Charqueada/SP,-22.50958,-47.775468,1,5.81734
1,Charqueadas/RS,-29.955012,-51.6249195,2,4.90328
1,Chaval/CE,-3.0339874,-41.2438452,1,7.65169
1,Chavantes/SP,-23.0406405,-49.7071698,1,8.05283
1,Chaves/PA,-0.164154,-49.987006,3,12.64915
1,Chopinzinho/PR,-25.8566167,-52.5294107,1,5.19373
1,Chorozinho/CE,-4.3010895,-38.4976923,29,143.11094
D1,Chorozinho/CE,-4.3010895,-38.4976923,1,4.93486
1,Choró/CE,-4.8435726,-39.1393071,9,66.56312
1,Chã Grande/PE,-8.238271,-35.457148,32,147.47903
D1,Chã Grande/PE,-8.238271,-35.457148,1,4.60872
1,Chã de Alegria/PE,-7.9959409,-35.2134636,16,118.36070
D1,Chã de Alegria/PE,-7.9959409,-35.2134636,1,7.39754
1,Cianorte/PR,-23.662036,-52.6103989,24,29.04866
D1,Cianorte/PR,-23.662036,-52.6103989,1,1.21036
1,Cidade Ocidental/GO,-16.1000758,-47.9445014,7,9.80722
1,Cidreira/RS,-30.1657063,-50.218331,2,12.30466
D1,Cidreira/RS,-30.1657063,-50.218331,1,6.15233
1,Ciríaco/RS,-28.3429139,-51.8763682,1,21.06594
1,Cláudio/MG,-20.4448485,-44.7655217,1,3.49443
1,Coaraci/BA,-14.6407979,-39.5496765,20,117.69552
D1,Coaraci/BA,-14.6407979,-39.5496765,1,5.88478
1,Coari/AM,-4.0885957,-63.1431166,227,266.75441
D1,Coari/AM,-4.0885957,-63.1431166,30,35.25389
1,Cocal de Telha/PI,-4.5553648,-41.9722429,1,20.44572
1,Cocal do Sul/SC,-28.6007346,-49.3248697,3,17.98130
D1,Cocal do Sul/SC,-28.6007346,-49.3248697,1,5.99377
1,Cocal dos Alves/PI,-3.59964,-41.444741,1,16.25223
1,Cocal/PI,-3.4691882,-41.555851,1,3.59881
D1,Cocal/PI,-3.4691882,-41.555851,1,3.59881
1,Codajás/AM,-3.8413202,-62.0603444,7,24.44390
D1,Codajás/AM,-3.8413202,-62.0603444,1,3.49199
1,Codó/MA,-4.455623,-43.892354,110,89.53353
1,Coelho Neto/MA,-4.2535154,-43.0149321,32,64.73147
1,Coité do Nóia/AL,-9.633484,-36.584493,1,9.35191
1,Coivaras/PI,-5.0927005,-42.2052489,1,24.87562
1,Colares/PA,-0.936423,-48.280254,5,41.37360
D1,Colares/PA,-0.936423,-48.280254,1,8.27472
1,Colatina/ES,-19.5346732,-40.6287836,44,35.91866
1,Colina/SP,-20.711443,-48.53867,2,10.82954
1,Colinas do Tocantins/TO,-8.0612688,-48.4716768,4,11.29178
1,Colinas/MA,-6.0332631,-44.2528542,20,48.56962
1,Colinas/RS,-29.3866023,-51.8697911,8,328.13782
1,Colombo/PR,-25.2925439,-49.2243472,21,8.61623
1,Colorado/PR,-22.8385097,-51.9730135,1,4.16458
1,Colônia Leopoldina/AL,-8.918058,-35.721414,1,4.60872
1,Colônia do Gurguéia/PI,-8.183697,-43.793999,2,30.84516
D1,Colônia do Gurguéia/PI,-8.183697,-43.793999,1,15.42258
1,Colônia do Piauí/PI,-7.2320268,-42.1777122,1,13.06165
1,Comercinho/MG,-16.2965093,-41.7930954,1,14.43210
1,Conceição da Barra/ES,-18.5841421,-39.7371844,1,3.21926
1,Conceição das Alagoas/MG,-19.9194009,-48.3803414,2,7.17026
1,Conceição de Macabu/RJ,-22.0849986,-41.8679947,4,17.22060
1,Conceição do Araguaia/PA,-8.2696905,-49.2676864,22,45.96356
1,Conceição do Castelo/ES,-20.3601311,-41.2470343,3,23.57934
1,Conceição do Coité/BA,-11.5629384,-39.2839543,5,7.50616
1,Conceição do Jacuípe/BA,-12.326831,-38.768433,2,6.03264
1,Conceição do Lago-Açu/MA,-3.8410056,-44.8930565,12,73.90528
1,Conchal/SP,-22.337512,-47.172927,2,7.13012
1,Conchas/SP,-23.0133538,-48.0077595,1,5.58784
D1,Conchas/SP,-23.0133538,-48.0077595,1,5.58784
1,Concórdia do Pará/PA,-1.9924056,-47.9450474,34,102.04694
1,Concórdia/SC,-27.2312011,-52.0231024,132,176.84651
D1,Concórdia/SC,-27.2312011,-52.0231024,3,4.01924
1,Condado/PB,-6.9092101,-37.5966375,11,165.31410
1,Condado/PE,-7.587868,-35.09994,14,52.98815
D1,Condado/PE,-7.587868,-35.09994,1,3.78487
1,Conde/BA,-11.8129758,-37.6138705,1,3.87042
1,Conde/PB,-7.2600359,-34.9053524,20,81.07013
D1,Conde/PB,-7.2600359,-34.9053524,1,4.05351
1,Confresa/MT,-10.643695,-51.569873,6,19.39676
1,Congo/PB,-7.80963435,-36.641233278035656,2,41.78855
D1,Congo/PB,-7.80963435,-36.641233278035656,1,20.89427
1,Congonhal/MG,-22.1532505,-46.0404698,1,8.36820
1,Conquista D'Oeste/MT,-14.5381171,-59.5443775,1,24.76474
1,Conselheiro Lafaiete/MG,-20.6596107,-43.785743,19,14.77576
1,Contagem/MG,-19.9132749,-44.0840953,73,10.99638
D1,Contagem/MG,-19.9132749,-44.0840953,3,0.45191
1,Contenda/PR,-25.678811,-49.535044,2,10.76195
1,Coqueiro Seco/AL,-9.637147,-35.799377,1,17.10864
1,Coração de Maria/BA,-12.2484345,-38.7499274,2,8.84760
1,Cordeiro/RJ,-22.0287681,-42.3607442,4,18.24318
1,Cordeirópolis/SP,-22.4768324,-47.4550551,13,53.00065
1,Coreaú/CE,-3.5519794,-40.6528409,76,328.49239
1,Coremas/PB,-7.0175897,-37.9465062,3,19.42376
1,Cornélio Procópio/PR,-23.1825218,-50.6499263,1,2.09008
1,Coroados/SP,-21.3554634,-50.2853589,2,33.01420
1,Coroatá/MA,-4.1282283,-44.1360269,37,56.66503
1,Coromandel/MG,-18.473889,-47.200278,7,25.02324
1,Coronel Bicaco/RS,-27.7174002,-53.705821,1,13.65188
1,Coronel Fabriciano/MG,-19.5200067,-42.6282686,6,5.46175
1,Coronel Freitas/SC,-26.9058932,-52.7028055,1,10.01904
1,Coronel João Pessoa/RN,-6.2607103,-38.4424915,1,20.35831
1,Correntes/PE,-9.1295585,-36.3287438,2,10.98479
D1,Correntes/PE,-9.1295585,-36.3287438,1,5.49239
1,Cortês/PE,-8.4724921,-35.5431197,5,39.75195
D1,Cortês/PE,-8.4724921,-35.5431197,1,7.95039
1,Corumbaíba/GO,-18.1348982,-48.564223,1,10.28489
1,Corumbá/MS,-19.0016365,-57.6534316,5,4.48692
1,Coruripe/AL,-10.1249963,-36.1760623,23,40.39836
D1,Coruripe/AL,-10.1249963,-36.1760623,1,1.75645
1,Cosmorama/SP,-20.475472,-49.782747,2,27.37101
1,Cosmópolis/SP,-22.6437398,-47.1972086,6,8.30427
1,Cotia/SP,-23.603889,-46.918889,253,101.52081
D1,Cotia/SP,-23.603889,-46.918889,22,8.82790
1,Cotriguaçu/MT,-9.9034364,-58.5658915,1,5.06329
1,Couto Magalhães/TO,-8.360583,-49.1773955,7,125.26843
1,Couto de Magalhães de Minas/MG,-18.073016,-43.4718628,1,22.67574
1,Coxilha/RS,-28.1254442,-52.2979903,1,36.28447
1,Coxim/MS,-18.504915,-54.7450251,3,8.94374
1,Coxixola/PB,-7.6272915,-36.606013,3,156.16866
1,Crateús/CE,-5.1782451,-40.6696545,30,39.96057
D1,Crateús/CE,-5.1782451,-40.6696545,2,2.66404
1,Crato/CE,-7.2369112,-39.4149236,16,12.10993
1,Cravinhos/SP,-21.340278,-47.729444,10,28.33503
D1,Cravinhos/SP,-21.340278,-47.729444,1,2.83350
1,Cravolândia/BA,-13.3576247,-39.8153954,2,37.39017
1,Craíbas/AL,-9.6168038,-36.7684669,1,4.12899
1,Criciúma/SC,-28.6789941,-49.3695627,209,97.12528
D1,Criciúma/SC,-28.6789941,-49.3695627,4,1.85886
1,Cristalina/GO,-16.7676079,-47.6131281,2,3.39000
D1,Cristalina/GO,-16.7676079,-47.6131281,1,1.69500
1,Cristalândia/TO,-10.59848,-49.194202,1,13.71930
1,Cristinápolis/SE,-11.4757019,-37.7555212,4,22.37887
1,Croatá/CE,-4.4156199,-40.9048081,1,5.53618
1,Cruz Alta/RS,-28.645056,-53.6058047,2,3.31680
1,Cruz das Almas/BA,-12.6722649,-39.1053665,4,6.32521
1,Cruz do Espírito Santo/PB,-7.139022,-35.085721,17,98.15809
D1,Cruz do Espírito Santo/PB,-7.139022,-35.085721,1,5.77401
1,Cruz/CE,-2.918128,-40.175981,13,52.36235
1,Cruzeiro do Sul/AC,-7.6307956,-72.6703869,46,52.05033
1,Cruzeiro do Sul/PR,-22.9623678,-52.1625688,6,134.25822
1,Cruzeiro do Sul/RS,-29.5139742,-51.9917068,11,89.08325
D1,Cruzeiro do Sul/RS,-29.5139742,-51.9917068,2,16.19695
1,Cruzeiro/SP,-22.5783685,-44.9642044,10,12.15983
D1,Cruzeiro/SP,-22.5783685,-44.9642044,2,2.43197
1,Cubatão/SP,-23.8857982,-46.4241869,92,70.38751
D1,Cubatão/SP,-23.8857982,-46.4241869,5,3.82541
1,Cuiabá/MT,-15.5986686,-56.0991301,183,29.87526
D1,Cuiabá/MT,-15.5986686,-56.0991301,2,0.32651
1,Cuitegi/PB,-6.8962776,-35.5228851,4,58.79759
1,Cujubim/RO,-9.3687919,-62.5832107,1,3.96589
D1,Cujubim/RO,-9.3687919,-62.5832107,1,3.96589
1,Cunha Porã/SC,-26.8927163,-53.1716516,1,9.02039
1,Cunha/SP,-23.07753,-44.9567436,1,4.64102
1,Cupira/PE,-8.6053148,-35.9530366,3,12.44452
D1,Cupira/PE,-8.6053148,-35.9530366,1,4.14817
1,Curaçá/BA,-8.9925655,-39.9053169,12,34.58213
1,Curionópolis/PA,-6.0990443,-49.6059039,7,39.04289
D1,Curionópolis/PA,-6.0990443,-49.6059039,2,11.15511
1,Curitiba/PR,-25.4295963,-49.2712724,541,27.98606
D1,Curitiba/PR,-25.4295963,-49.2712724,29,1.50018
1,Currais Novos/RN,-6.2626676,-36.5173039,6,13.39704
1,Curralinho/PA,-1.8137876,-49.7980165,13,37.73804
D1,Curralinho/PA,-1.8137876,-49.7980165,1,2.90293
1,Cururupu/MA,-1.824255,-44.872996,9,27.52714
D1,Cururupu/MA,-1.824255,-44.872996,1,3.05857
1,Curuá/PA,-1.887754,-55.116842,1,6.94782
1,Curuçá/PA,-0.7276792,-47.856568,28,69.88469
D1,Curuçá/PA,-0.7276792,-47.856568,3,7.48765
1,Curvelo/MG,-18.7571926,-44.4305993,8,9.98390
1,Curvelândia/MT,-15.6108629,-57.9188924,3,57.48228
1,Custódia/PE,-8.0861426,-37.6401873,12,32.33543
D1,Custódia/PE,-8.0861426,-37.6401873,2,5.38924
1,Cutias/AP,0.9708625,-50.8000608,13,217.28230
1,Cáceres/MT,-16.0658939,-57.6852775,13,13.77469
D1,Cáceres/MT,-16.0658939,-57.6852775,1,1.05959
1,Cândido Mendes/MA,-1.4531117,-45.7273136,12,59.47071
1,Cândido Mota/SP,-22.7434964,-50.38924,2,6.39386
1,Céu Azul/PR,-25.1484973,-53.8494214,5,42.49894
1,Darcinópolis/TO,-6.7085964,-47.7524283,3,49.20453
1,Davinópolis/MA,-5.5265775,-47.3942217,5,38.73567
D1,Davinópolis/MA,-5.5265775,-47.3942217,1,7.74713
1,Delmiro Gouveia/AL,-9.3841161,-37.997756,1,1.92249
D1,Delmiro Gouveia/AL,-9.3841161,-37.997756,1,1.92249
1,Demerval Lobão/PI,-5.3640643,-42.673993,6,43.42477
1,Deputado Irapuan Pinheiro/CE,-5.9173532,-39.2672104,4,41.55844
1,Derrubadas/RS,-27.2657279,-53.8618488,1,35.65062
1,Diadema/SP,-23.681347,-46.62052,441,104.03790
D1,Diadema/SP,-23.681347,-46.62052,32,7.54924
1,Dianópolis/TO,-11.624008,-46.819787,1,4.51692
1,Dias d'Ávila/BA,-12.6107233,-38.3028518,11,13.56534
1,Dionísio/MG,-19.841944,-42.776945,5,64.69142
1,Divina Pastora/SE,-10.6783231,-37.1482727,2,38.92565
1,Divino de São Lourenço/ES,-20.6201409,-41.6834749,1,23.23420
1,Divino/MG,-20.6151497,-42.1474733,1,5.01731
1,Divinolândia/SP,-21.6604584,-46.7371151,1,8.97183
1,Divinésia/MG,-20.990277,-43.003889,1,29.26544
1,Divinópolis/MG,-20.1434559,-44.89125,108,45.33434
D1,Divinópolis/MG,-20.1434559,-44.89125,1,0.41976
1,Divisa Nova/MG,-21.5126801,-46.1926626,1,16.63617
1,Dobrada/SP,-21.5180904,-48.3938897,3,33.59839
1,Dois Córregos/SP,-22.3697554,-48.3845315,1,3.66099
1,Dois Irmãos/RS,-29.58356,-51.089776,3,9.18246
1,Dois Vizinhos/PR,-25.7464681,-53.0554369,1,2.46057
1,Dom Eliseu/PA,-4.2928111,-47.5559083,13,21.76862
D1,Dom Eliseu/PA,-4.2928111,-47.5559083,1,1.67451
1,Dom Feliciano/RS,-30.70214,-52.1080845,1,6.48761
1,Dom Pedrito/RS,-30.983755,-54.6746483,2,5.20007
D1,Dom Pedrito/RS,-30.983755,-54.6746483,1,2.60004
1,Dom Pedro/MA,-5.0389999,-44.4377854,3,12.84797
1,Domingos Martins/ES,-20.3646483,-40.6585797,38,112.25997
1,Dourados/MS,-22.2206145,-54.812208,17,7.62506
D1,Dourados/MS,-22.2206145,-54.812208,1,0.44853
1,Doutor Maurício Cardoso/RS,-27.5067264,-54.3626756,1,21.98285
D1,Doutor Maurício Cardoso/RS,-27.5067264,-54.3626756,1,21.98285
1,Doutor Ricardo/RS,-29.0901549,-51.9894847,1,50.42864
1,Dracena/SP,-21.4835523,-51.5334408,17,36.33022
D1,Dracena/SP,-21.4835523,-51.5334408,2,4.27414
1,Duartina/SP,-22.414562,-49.408355,1,8.03536
1,Dumont/SP,-21.2391417,-47.9747665,1,10.13377
1,Duque Bacelar/MA,-4.1542795,-42.946096,1,8.81135
1,Duque de Caxias/RJ,-22.7896225,-43.309929,733,79.70892
D1,Duque de Caxias/RJ,-22.7896225,-43.309929,104,11.30931
1,Dário Meira/BA,-14.4332181,-39.9028712,2,18.67414
1,Ecoporanga/ES,-18.3720918,-40.8321351,1,4.36243
D1,Ecoporanga/ES,-18.3720918,-40.8321351,1,4.36243
1,Eirunepé/AM,-6.6567654,-69.866161,13,36.85539
1,Eldorado do Carajás/PA,-6.1029246,-49.3572487,1,2.95788
1,Eldorado do Sul/RS,-29.9984639,-51.3091977,3,7.26656
D1,Eldorado do Sul/RS,-29.9984639,-51.3091977,1,2.42219
1,Eldorado/SP,-24.522583,-48.1093489,3,19.36233
D1,Eldorado/SP,-24.522583,-48.1093489,1,6.45411
1,Elesbão Veloso/PI,-6.2032654,-42.1376937,4,27.39351
1,Elias Fausto/SP,-23.0416538,-47.3718002,1,5.62683
1,Elói Mendes/MG,-21.6094466,-45.5660211,3,10.68528
1,Embu das Artes/SP,-23.6495294,-46.8528497,224,81.83366
D1,Embu das Artes/SP,-23.6495294,-46.8528497,23,8.40256
1,Embu-Guaçu/SP,-23.8317997,-46.8156204,48,69.17922
D1,Embu-Guaçu/SP,-23.8317997,-46.8156204,5,7.20617
1,Encantado/RS,-29.2392716,-51.8744817,20,88.08245
1,Encanto/RN,-6.1107477,-38.3050953,11,195.10465
D1,Encanto/RN,-6.1107477,-38.3050953,2,35.47357
1,Encruzilhada do Sul/RS,-30.53619325,-52.51564721101029,3,11.59331
D1,Encruzilhada do Sul/RS,-30.53619325,-52.51564721101029,1,3.86444
1,Engenheiro Coelho/SP,-22.4896659,-47.2119005,8,38.51153
1,Engenheiro Paulo de Frontin/RJ,-22.5504556,-43.6783403,2,14.28367
1,Epitaciolândia/AC,-11.0289439,-68.7411519,2,10.86307
1,Erechim/RS,-27.6350143,-52.2737288,15,14.16939
D1,Erechim/RS,-27.6350143,-52.2737288,1,0.94463
1,Ererê/CE,-6.0311304,-38.3482173,5,69.46374
1,Ernestina/RS,-28.498434,-52.5702451,2,63.13131
1,Escada/PE,-8.3594071,-35.2232683,20,29.03811
D1,Escada/PE,-8.3594071,-35.2232683,1,1.45191
1,Esmeraldas/MG,-19.7613111,-44.3145945,4,5.66958
1,Espera Feliz/MG,-20.6494192,-41.9080693,5,20.03928
1,Esperantina/PI,-3.8950963,-42.2370595,33,83.04603
1,Esperantinópolis/MA,-4.8751875,-44.8801032,1,5.80013
D1,Esperantinópolis/MA,-4.8751875,-44.8801032,1,5.80013
1,Esperança/PB,-7.018517,-35.852193,4,12.11864
1,Espigão D'Oeste/RO,-11.532175,-61.0130935,2,6.17780
1,Espinosa/MG,-14.9232007,-42.8093337,1,3.16286
D1,Espinosa/MG,-14.9232007,-42.8093337,1,3.16286
1,Espumoso/RS,-28.7256962,-52.8453751,8,51.32153
1,Espírito Santo do Dourado/MG,-22.046666,-45.950833,1,21.31287
1,Espírito Santo do Pinhal/SP,-22.190871,-46.74767,2,4.51162
1,Estação/RS,-27.9128965,-52.2606058,3,50.35247
1,Esteio/RS,-29.8511627,-51.1778852,13,15.62462
1,Estiva Gerbi/SP,-22.2754831,-46.9525448,1,8.84643
1,Estiva/MG,-22.4638686,-46.0182101,4,35.22987
1,Estreito/MA,-6.5583016,-47.4432212,24,57.21642
1,Estrela Dalva/MG,-21.741666,-42.460833,1,42.68032
1,Estrela d'Oeste/SP,-20.2860692,-50.3986216,1,11.87790
1,Estrela/RS,-29.5010545,-51.962226,35,102.59116
D1,Estrela/RS,-29.5010545,-51.962226,1,2.93118
1,Estância Velha/RS,-29.6529666,-51.1719687,5,9.99560
1,Estância/SE,-11.2682255,-37.4378341,52,75.16189
1,Euclides da Cunha/BA,-10.5060835,-39.0129875,1,1.65057
1,Eugênio de Castro/RS,-28.5286033,-54.1475172,1,41.73623
1,Eunápolis/BA,-16.3722412,-39.575704,30,26.45969
1,Eusébio/CE,-3.8889838,-38.4546585,231,430.82547
D1,Eusébio/CE,-3.8889838,-38.4546585,7,13.05532
1,Extrema/MG,-22.8549109,-46.3190079,46,126.98413
D1,Extrema/MG,-22.8549109,-46.3190079,3,8.28157
1,Extremoz/RN,-5.7092903,-35.3058914,31,108.45608
1,Faina/GO,-15.4458005,-50.3633826,1,15.08978
1,Faria Lemos/MG,-20.8051202,-42.0127393,1,30.85467
1,Farias Brito/CE,-6.9272823,-39.5714222,2,10.28278
D1,Farias Brito/CE,-6.9272823,-39.5714222,1,5.14139
1,Faro/PA,-1.1091625500000002,-57.800250715708856,1,13.90047
1,Farroupilha/RS,-29.22647,-51.3468188,29,40.09346
D1,Farroupilha/RS,-29.22647,-51.3468188,4,5.53013
1,Fartura do Piauí/PI,-9.4839171,-42.7906894,1,18.84304
1,Fartura/SP,-23.390039,-49.5109023,6,37.41581
1,Faxinal dos Guedes/SC,-26.8476897,-52.2604154,8,74.99766
1,Faxinal/PR,-24.001065,-51.3223237,2,11.59353
1,Fazenda Rio Grande/PR,-25.645841,-49.3126653,25,24.94786
D1,Fazenda Rio Grande/PR,-25.645841,-49.3126653,3,2.99374
1,Fazenda Vilanova/RS,-29.588511,-51.821714,1,22.06045
1,Feijó/AC,-8.1648652,-70.3539579,1,2.87522
1,Feira Nova/PE,-7.9481471,-35.3871681,8,36.14839
1,Feira de Santana/BA,-12.2578934,-38.9598047,112,18.21517
D1,Feira de Santana/BA,-12.2578934,-38.9598047,1,0.16264
1,Felipe Guerra/RN,-5.5979694,-37.6961704,6,100.25063
1,Feliz/RS,-29.4508908,-51.307713,2,14.76342
1,Fernando Falcão/MA,-6.1512461,-44.9022436,2,19.30502
1,Fernando Pedroza/RN,-5.6972558,-36.5316864,1,32.74394
1,Fernando de Noronha/PE,-3.8561012,-32.4248189,28,914.73375
1,Fernandópolis/SP,-20.2825647,-50.2500762,13,18.80896
1,Ferraz de Vasconcelos/SP,-23.541056,-46.37097,154,79.26867
D1,Ferraz de Vasconcelos/SP,-23.541056,-46.37097,14,7.20624
1,Ferreira Gomes/AP,0.8580838,-51.1814,4,51.41388
D1,Ferreira Gomes/AP,0.8580838,-51.1814,1,12.85347
1,Ferreiros/PE,-7.449667,-35.2426004,6,49.49270
D1,Ferreiros/PE,-7.449667,-35.2426004,2,16.49757
1,Ferros/MG,-19.234984,-43.019542,5,50.91650
1,Fervedouro/MG,-20.7292242,-42.2785942,1,9.08595
1,Figueirópolis/TO,-12.1347916,-49.1737141,1,19.00057
1,Flexeiras/AL,-9.2788679,-35.7235246,1,7.81861
1,Flores da Cunha/RS,-29.030129,-51.1833349,1,3.25256
1,Flores/PE,-7.862025,-37.9742806,1,4.42008
1,Floresta Azul/BA,-14.8602238,-39.6561384,2,18.81645
1,Floresta/PE,-8.5998918,-38.5706775,2,6.08402
D1,Floresta/PE,-8.5998918,-38.5706775,2,6.08402
1,Floresta/PR,-23.6144046,-52.0819003,2,29.52465
1,Floriano Peixoto/RS,-27.8603248,-52.0856015,3,169.87542
1,Floriano/PI,-6.7726534,-43.0070616,17,28.36406
1,Florianópolis/SC,-27.5973002,-48.5496098,387,77.24967
D1,Florianópolis/SC,-27.5973002,-48.5496098,6,1.19767
1,Flórida Paulista/SP,-21.614061,-51.1729548,1,6.83060
1,Fonte Boa/AM,-2.55,-66.91321428571428,29,164.68851
D1,Fonte Boa/AM,-2.55,-66.91321428571428,1,5.67891
1,Formiga/MG,-20.4648425,-45.4266753,6,8.86486
1,Formosa/GO,-15.5492443,-47.3301212,6,4.93352
1,Formoso do Araguaia/TO,-11.8059989,-49.5257153,1,5.42299
1,Forquilha/CE,-3.799447,-40.263405,4,16.51664
1,Forquilhinha/SC,-28.7487602,-49.4737661,3,11.19695
1,Fortaleza dos Nogueiras/MA,-6.9643779,-46.1703933,2,15.83406
1,Fortaleza/CE,-3.7304512,-38.5217989,10995,411.89926
D1,Fortaleza/CE,-3.7304512,-38.5217989,809,30.30709
1,Fortim/CE,-4.451256,-37.798056,5,30.33981
1,Foz do Iguaçu/PR,-25.5401479,-54.5858139,60,23.20796
D1,Foz do Iguaçu/PR,-25.5401479,-54.5858139,2,0.77360
1,Fraiburgo/SC,-27.023288,-50.919978,6,16.46407
1,Franca/SP,-20.5381768,-47.4009795,25,7.07840
D1,Franca/SP,-20.5381768,-47.4009795,1,0.28314
1,Francinópolis/PI,-6.3962771,-42.2635654,3,56.09574
1,Francisco Ayres/PI,-6.6217571,-42.6941944,1,22.99908
1,Francisco Beltrão/PR,-26.0790979,-53.0533527,9,9.88001
1,Francisco Morato/SP,-23.2817308,-46.7448996,122,69.37968
D1,Francisco Morato/SP,-23.2817308,-46.7448996,12,6.82423
1,Francisco Santos/PI,-6.9944754,-41.1345548,1,10.73077
1,Franco da Rocha/SP,-23.3328038,-46.724446,183,118.45504
D1,Franco da Rocha/SP,-23.3328038,-46.724446,17,11.00402
1,Frecheirinha/CE,-3.755572,-40.818019,8,56.85048
1,Frederico Westphalen/RS,-27.35711,-53.3964117,1,3.19356
1,Frei Miguelinho/PE,-7.9433019,-35.920939,16,103.51297
D1,Frei Miguelinho/PE,-7.9433019,-35.920939,2,12.93912
1,Frei Paulo/SE,-10.549956,-37.5356071,2,12.96933
D1,Frei Paulo/SE,-10.549956,-37.5356071,1,6.48466
1,Fronteira/MG,-20.286111,-49.202778,1,5.52395
1,Fronteiras/PI,-7.088607,-40.6147253,2,17.20430
1,Frutal/MG,-20.0220064,-48.9280076,5,8.40393
1,Fundão/ES,-19.9332174,-40.4049674,45,209.21475
D1,Fundão/ES,-19.9332174,-40.4049674,5,23.24608
1,Fátima/TO,-10.7575656,-48.9031328,1,26.07562
1,Gameleira/PE,-8.579803,-35.384573,3,9.66121
D1,Gameleira/PE,-8.579803,-35.384573,1,3.22040
1,Gandu/BA,-13.7448138,-39.4844732,3,9.25840
D1,Gandu/BA,-13.7448138,-39.4844732,1,3.08613
1,Garanhuns/PE,-8.8905889,-36.4930896,23,16.45349
D1,Garanhuns/PE,-8.8905889,-36.4930896,4,2.86148
1,Gararu/SE,-9.9688996,-37.0827962,1,8.61772
D1,Gararu/SE,-9.9688996,-37.0827962,1,8.61772
1,Garibaldi/RS,-29.2562253,-51.5269167,33,94.09752
D1,Garibaldi/RS,-29.2562253,-51.5269167,3,8.55432
1,Garopaba/SC,-28.0274798,-48.6240197,2,8.66626
1,Garrafão do Norte/PA,-1.9282256,-47.0513157,18,69.05547
1,Garuva/SC,-26.0294904,-48.8545202,1,5.51116
1,Garça/SP,-22.2125766,-49.6547994,6,13.51656
1,Gaspar/SC,-26.9307306,-48.9566824,26,37.33540
D1,Gaspar/SC,-26.9307306,-48.9566824,1,1.43598
1,Gastão Vidigal/SP,-20.7952902,-50.1905016,1,20.79867
1,General Carneiro/PR,-26.422982,-51.3146691,1,7.29395
1,General Câmara/RS,-29.9058172,-51.7626264,2,23.85212
1,General Sampaio/CE,-4.0503563,-39.4484058,6,78.76083
D1,General Sampaio/CE,-4.0503563,-39.4484058,1,13.12680
1,Getulina/SP,-21.7988557,-49.9288096,1,8.76501
1,Getúlio Vargas/RS,-27.8871493,-52.2257967,4,24.67308
1,Glorinha/RS,-29.8790534,-50.7869437,1,12.34873
1,Glória do Goitá/PE,-7.999959,-35.2866116,20,65.35093
D1,Glória do Goitá/PE,-7.999959,-35.2866116,8,26.14037
1,Goiana/PE,-7.560603,-34.99591,56,70.21239
D1,Goiana/PE,-7.560603,-34.99591,7,8.77655
1,Goiandira/GO,-18.1357087,-48.0866307,3,53.57143
D1,Goiandira/GO,-18.1357087,-48.0866307,1,17.85714
1,Goianinha/RN,-6.2663538,-35.2092447,2,7.59648
1,Goianira/GO,-16.5001973,-49.4254788,3,6.77369
1,Goianá/MG,-21.5375,-43.2014,2,50.42864
1,Goianésia do Pará/PA,-3.8380998,-49.0977992,10,24.70661
1,Goianésia/GO,-15.3118269,-49.1162001,27,38.52520
D1,Goianésia/GO,-15.3118269,-49.1162001,3,4.28058
1,Goiatuba/GO,-18.0154577,-49.3640591,7,20.53087
1,Goioerê/PR,-24.1851885,-53.0250623,5,17.31062
1,Goiânia/GO,-16.680882,-49.2532691,550,36.27698
D1,Goiânia/GO,-16.680882,-49.2532691,23,1.51704
1,Gongogi/BA,-14.3240248,-39.4665106,5,70.14590
D1,Gongogi/BA,-14.3240248,-39.4665106,2,28.05836
1,Governador Celso Ramos/SC,-27.317161,-48.557608,21,145.11782
1,Governador Edison Lobão/MA,-5.7456705,-47.363091,7,38.25973
1,Governador Jorge Teixeira/RO,-10.6140224,-62.7326412,4,51.49994
1,Governador Mangabeira/BA,-12.6038648,-39.0372154,1,4.82579
1,Governador Newton Bello/MA,-3.4285914,-45.6714297,1,9.82318
1,Governador Nunes Freire/MA,-2.1303959,-45.8900498,2,7.81953
1,Governador Valadares/MG,-18.8539497,-41.9458753,37,13.21972
D1,Governador Valadares/MG,-18.8539497,-41.9458753,3,1.07187
1,Graccho Cardoso/SE,-10.238671100000001,-37.20556291018945,1,17.18804
1,Grajaú/MA,-5.8154034,-46.1361454,4,5.75316
1,Granito/PE,-7.7145682,-39.6164505,1,13.35827
1,Granja/CE,-3.1212057,-40.8284124,12,21.91861
1,Gravatal/SC,-28.3300703,-49.0362296,22,191.28771
D1,Gravatal/SC,-28.3300703,-49.0362296,1,8.69490
1,Gravataí/RS,-29.9440222,-50.9930938,24,8.52518
D1,Gravataí/RS,-29.9440222,-50.9930938,1,0.35522
1,Gravatá/PE,-8.1993049,-35.5631137,17,20.22028
D1,Gravatá/PE,-8.1993049,-35.5631137,2,2.37886
1,Graça/CE,-4.0453849,-40.7527195,10,69.44927
1,Groaíras/CE,-3.9157768,-40.3855093,17,153.59595
1,Grossos/RN,-4.9843455,-37.1511253,3,28.89338
D1,Grossos/RN,-4.9843455,-37.1511253,1,9.63113
1,Grão Pará/SC,-28.1856937,-49.2163956,1,15.22302
1,Guabiruba/SC,-27.0864326,-48.9781319,5,20.98019
1,Guairaçá/PR,-22.9352304,-52.6865101,5,75.97630
D1,Guairaçá/PR,-22.9352304,-52.6865101,1,15.19526
1,Guaiçara/SP,-21.619537,-49.801287,2,16.43655
1,Guaiúba/CE,-4.0412656,-38.6369079,27,103.59116
1,Guajará-Mirim/RO,-10.7804239,-65.3327825,9,19.49149
D1,Guajará-Mirim/RO,-10.7804239,-65.3327825,4,8.66288
1,Guamaré/RN,-5.1075294,-36.3196635,10,63.86104
1,Guapiaçu/SP,-20.79663,-49.2253917,3,13.98341
1,Guapimirim/RJ,-22.5266308,-42.9790687,21,34.70099
D1,Guapimirim/RJ,-22.5266308,-42.9790687,4,6.60971
1,Guapó/GO,-16.8308602,-49.5343721,1,7.03779
1,Guarabira/PB,-6.8513982,-35.4915582,73,124.08002
1,Guaraci/PR,-22.970394,-51.6479769,5,90.87605
1,Guaraciaba do Norte/CE,-4.1632924,-40.7495985,6,14.76305
1,Guaramiranga/CE,-4.2615431,-38.9339337,6,115.54015
1,Guaramirim/SC,-26.468753,-49.002628,6,13.38718
1,Guaraniaçu/PR,-25.10035,-52.867811,6,48.10776
1,Guaranésia/MG,-21.3024827,-46.7956962,1,5.25735
1,Guarapari/ES,-20.6718755,-40.4984617,67,53.66053
D1,Guarapari/ES,-20.6718755,-40.4984617,3,2.40271
1,Guarapuava/PR,-25.3950986,-51.4622016,15,8.26428
1,Guaraqueçaba/PR,-25.2983566,-48.3290185,1,13.09586
1,Guararapes/SP,-21.2537115,-50.6441746,11,33.39506
1,Guararema/SP,-23.4133724,-46.0379249,20,67.11860
D1,Guararema/SP,-23.4133724,-46.0379249,1,3.35593
1,Guaratinga/BA,-16.5802498,-39.7808088,1,4.79777
1,Guaratinguetá/SP,-22.8057839,-45.1908926,5,4.10516
1,Guaratuba/PR,-25.8806192,-48.5750905,4,10.79127
1,Guaraçaí/SP,-21.031027,-51.2064201,2,24.02980
1,Guaraí/TO,-8.835429,-48.511432,10,38.57578
1,Guareí/SP,-23.3718195,-48.184685,2,10.79914
1,Guariba/SP,-21.35938,-48.23158,6,14.96073
1,Guarujá/SP,-23.9927768,-46.2558332,252,78.63720
D1,Guarujá/SP,-23.9927768,-46.2558332,14,4.36873
1,Guarulhos/SP,-23.4430602,-46.524459,1063,77.07467
D1,Guarulhos/SP,-23.4430602,-46.524459,121,8.77332
1,Guará/SP,-20.4290496,-47.8250067,1,4.71254
D1,Guará/SP,-20.4290496,-47.8250067,1,4.71254
1,Guatambú/SC,-27.1333139,-52.7852104,5,106.29252
1,Guaxupé/MG,-21.3087615,-46.7190609,3,5.77845
1,Guaçuí/ES,-20.7726679,-41.6750657,15,48.59559
1,Guaíba/RS,-30.1130731,-51.329442,5,5.09461
1,Guaíra/PR,-24.0851924,-54.2567519,14,42.27181
D1,Guaíra/PR,-24.0851924,-54.2567519,3,9.05824
1,Guaíra/SP,-20.3245873,-48.3148818,2,4.90316
1,Guia Lopes da Laguna/MS,-21.5375346,-55.96134153440401,20,202.12228
1,Guimarânia/MG,-18.8442251,-46.7925141,1,12.43936
1,Guimarães/MA,-2.127551,-44.60199,1,8.31255
1,Gurinhém/PB,-7.1244757,-35.424854,4,28.31057
1,Gurupi/TO,-11.72794,-49.068046,22,25.39038
1,Gurupá/PA,-1.406325,-51.6427456,2,5.99233
1,Guzolândia/SP,-20.6491637,-50.6622974,1,18.98614
1,Gália/SP,-22.2936976,-49.5516228,1,15.27184
1,Harmonia/RS,-29.549989,-51.422308,5,102.75380
1,Herval d'Oeste/SC,-27.17361,-51.4903659,7,30.96523
1,Hidrolândia/CE,-4.4084745,-40.4065472,6,30.03304
1,Holambra/SP,-22.6332028,-47.0545305,8,53.58339
1,Horizonte/CE,-4.0964618,-38.4965574,107,158.90224
D1,Horizonte/CE,-4.0964618,-38.4965574,3,4.45520
1,Horizontina/RS,-27.627931,-54.3090256,3,15.52072
1,Hortolândia/SP,-22.85833,-47.22,68,29.45623
D1,Hortolândia/SP,-22.85833,-47.22,8,3.46544
1,Humaitá/AM,-7.5099404,-63.0248674,6,10.89325
1,Humberto de Campos/MA,-2.598282,-43.464877,10,34.82258
1,Iacanga/SP,-21.8928341,-49.0226082,1,8.53971
1,Ibaiti/PR,-23.8452962,-50.1905666,2,6.37674
1,Ibaretama/CE,-4.8194345,-38.8208476,5,37.44477
D1,Ibaretama/CE,-4.8194345,-38.8208476,1,7.48895
1,Ibateguara/AL,-8.9737196,-35.9279963,1,6.40369
D1,Ibateguara/AL,-8.9737196,-35.9279963,1,6.40369
1,Ibaté/SP,-21.9554092,-47.9989614,5,14.24339
1,Ibema/PR,-25.1192916,-53.0071928,11,173.17380
1,Ibiapina/CE,-3.9228792,-40.8890296,2,8.00096
1,Ibiaí/MG,-16.861111,-44.913889,1,11.91185
1,Ibicaraí/BA,-14.8625311,-39.5890865,3,13.83190
1,Ibicaré/SC,-27.088141,-51.368101,1,31.23048
1,Ibicuitinga/CE,-4.9751759,-38.6368754,27,215.56886
D1,Ibicuitinga/CE,-4.9751759,-38.6368754,1,7.98403
1,Ibimirim/PE,-8.5379259,-37.6941375,7,23.94390
D1,Ibimirim/PE,-8.5379259,-37.6941375,2,6.84112
1,Ibiporã/PR,-23.265941,-51.052243,2,3.66582
1,Ibirajuba/PE,-8.5795521,-36.178045,1,12.88328
1,Ibirapitanga/BA,-14.1615686,-39.369522,1,4.27807
1,Ibirapuitã/RS,-28.6226503,-52.5170577,14,348.86618
D1,Ibirapuitã/RS,-28.6226503,-52.5170577,1,24.91901
1,Ibirarema/SP,-22.8138003,-50.0737669,1,12.89823
1,Ibirataia/BA,-14.0689024,-39.6394008,7,45.71578
D1,Ibirataia/BA,-14.0689024,-39.6394008,1,6.53083
1,Ibiraçu/ES,-19.8309496,-40.3686594,5,40.06731
1,Ibirité/MG,-20.0214251,-44.0621506,12,6.65912
1,Ibirá/SP,-21.0815104,-49.2424619,4,32.27628
1,Ibitinga/SP,-21.75623,-48.831903,3,4.99725
1,Ibitirama/ES,-20.539374,-41.664695,1,11.24986
1,Ibiúna/SP,-23.6548363,-47.2210116,9,11.41003
D1,Ibiúna/SP,-23.6548363,-47.2210116,1,1.26778
1,Ibotirama/BA,-12.1829519,-43.2181138,1,3.71374
1,Icapuí/CE,-4.7158474,-37.3535365,15,75.24832
1,Icaraí de Minas/MG,-16.2176592,-44.9023441,1,8.34028
1,Icatu/MA,-2.772065,-44.050061,1,3.68827
D1,Icatu/MA,-2.772065,-44.050061,1,3.68827
1,Iconha/ES,-20.7935003,-40.8108852,4,28.86003
1,Icó/CE,-6.4003992,-38.8575946,9,13.23179
1,Iepê/SP,-22.660165,-51.077881,2,24.51281
D1,Iepê/SP,-22.660165,-51.077881,1,12.25640
1,Igaracy/PB,-7.1819802,-38.1487395,1,16.34788
1,Igarapava/SP,-20.0411471,-47.7477444,2,6.57203
1,Igarapé do Meio/MA,-3.6397814,-45.1872837,10,70.53678
1,Igarapé-Açu/PA,-1.128244,-47.6199021,25,64.42137
D1,Igarapé-Açu/PA,-1.128244,-47.6199021,4,10.30742
1,Igarapé-Miri/PA,-1.9785213,-48.9634826,31,49.44336
D1,Igarapé-Miri/PA,-1.9785213,-48.9634826,2,3.18989
1,Igarapé/MG,-20.0687726,-44.3016306,4,9.29260
1,Igarassu/PE,-7.8354423,-34.9061125,102,87.16533
D1,Igarassu/PE,-7.8354423,-34.9061125,12,10.25474
1,Igaratá/SP,-23.2063475,-46.156934,17,178.30921
1,Igaraçu do Tietê/SP,-22.509044,-48.559672,7,28.36994
1,Iguaba Grande/RJ,-22.8388498,-42.2286746,24,84.77570
D1,Iguaba Grande/RJ,-22.8388498,-42.2286746,4,14.12928
1,Iguape/SP,-24.7042692,-47.5563733,17,55.09285
1,Iguaracy/PE,-7.8363415,-37.5140407,2,16.35590
1,Iguatu/CE,-6.361934,-39.2972233,53,51.70833
D1,Iguatu/CE,-6.361934,-39.2972233,7,6.82940
1,Ijuí/RS,-28.388048,-53.91996,3,3.59389
1,Ilha Comprida/SP,-24.7445292,-47.5525529,18,161.20365
D1,Ilha Comprida/SP,-24.7445292,-47.5525529,1,8.95576
1,Ilha Grande/PI,-2.8520082,-41.8166904,1,10.60895
D1,Ilha Grande/PI,-2.8520082,-41.8166904,1,10.60895
1,Ilha Solteira/SP,-20.4281001,-51.3410871,4,14.98913
1,Ilha de Itamaracá/PE,-7.747664,-34.830319,18,68.55054
1,Ilhabela/SP,-23.816628,-45.368685,9,25.73635
1,Ilhota/SC,-26.9022824,-48.8284968,5,35.25099
1,Ilhéus/BA,-14.792599,-39.0453843,290,178.65173
D1,Ilhéus/BA,-14.792599,-39.0453843,12,7.39249
1,Ilicínea/MG,-20.9390196,-45.8263558,1,8.08081
1,Imaculada/PB,-7.3871724,-37.5116814,3,25.38286
1,Imbaú/PR,-24.447597,-50.7557188,2,15.25437
1,Imbituba/SC,-28.241827,-48.6643444,28,62.42615
1,Imbé de Minas/MG,-19.5989453,-41.9694294,1,14.48646
1,Imbé/RS,-29.975269,-50.128068,1,4.38596
1,Imigrante/RS,-29.354229,-51.7773242,8,256.41026
1,Imperatriz/MA,-5.5269279,-47.478115,457,176.66479
D1,Imperatriz/MA,-5.5269279,-47.478115,20,7.73150
1,Inajá/PE,-8.9011209,-37.8244194,1,4.30163
1,Indaial/SC,-26.900011,-49.2370602,20,28.80807
D1,Indaial/SC,-26.900011,-49.2370602,2,2.88081
1,Indaiatuba/SP,-23.09028,-47.21806,36,14.30689
D1,Indaiatuba/SP,-23.09028,-47.21806,8,3.17931
1,Independência/CE,-5.3958538,-40.3108896,4,15.28001
D1,Independência/CE,-5.3958538,-40.3108896,1,3.82000
1,Indiana/SP,-22.1748508,-51.2534615,3,61.41249
1,Indiaroba/SE,-11.5250972,-37.5075262,3,16.70658
1,Inhangapi/PA,-1.4283738,-47.9108608,10,85.38980
1,Inhapi/AL,-9.222095,-37.7480654,1,5.43922
1,Inhuma/PI,-6.6694502,-41.7096008,1,6.53253
1,Inhumas/GO,-16.3610569,-49.500111,4,7.56630
1,Inácio Martins/PR,-25.570395,-51.076925,1,8.98876
1,Inúbia Paulista/SP,-21.7705076,-50.9614046,1,25.05638
1,Ipaba/MG,-19.411389,-42.42,3,16.12296
1,Ipameri/GO,-17.7215439,-48.158118,1,3.70576
1,Ipanguaçu/RN,-5.5090713,-36.8594421,11,71.00897
D1,Ipanguaçu/RN,-5.5090713,-36.8594421,2,12.91072
1,Ipaporanga/CE,-4.903227,-40.760079,8,69.00716
1,Ipatinga/MG,-19.4777807,-42.5270802,23,8.73164
1,Ipaumirim/CE,-6.7883197,-38.7172034,2,16.04750
1,Iperó/SP,-23.3508977,-47.687611,2,5.38604
1,Ipiaçu/MG,-18.6934499,-49.9439567,1,23.69107
D1,Ipiaçu/MG,-18.6934499,-49.9439567,1,23.69107
1,Ipiaú/BA,-14.1318211,-39.7373177,113,246.33227
D1,Ipiaú/BA,-14.1318211,-39.7373177,2,4.35986
1,Ipiguá/SP,-20.657282,-49.3881146,1,18.54599
1,Ipira/SC,-27.4053188,-51.7734648,3,67.47638
1,Ipiranga do Norte/MT,-12.2408004,-56.1531011,3,39.12873
1,Ipiranga do Piauí/PI,-6.8240832,-41.7377279,1,10.19264
1,Ipirá/BA,-12.1578337,-39.7416605,4,6.71197
1,Ipixuna do Pará/PA,-2.5592139,-47.4965462,21,32.78535
1,Ipojuca/PE,-8.3980773,-35.0611068,44,45.73614
D1,Ipojuca/PE,-8.3980773,-35.0611068,5,5.19729
1,Iporá/GO,-16.4407981,-51.1181188,1,3.17148
D1,Iporá/GO,-16.4407981,-51.1181188,1,3.17148
1,Ipu/CE,-4.3239824,-40.7097463,7,16.68096
1,Ipubi/PE,-7.6535334,-40.1494078,9,29.16964
1,Ipueiras/CE,-4.5427141,-40.7168461,6,15.72080
D1,Ipueiras/CE,-4.5427141,-40.7168461,1,2.62013
1,Ipuiúna/MG,-22.0993203,-46.1896557,1,9.92162
1,Ipumirim/SC,-27.0762287,-52.135736,26,342.42065
1,Ipuã/SP,-20.4441839,-48.012504,5,30.47108
1,Iracema/CE,-5.8106219,-38.3028294,9,62.95027
D1,Iracema/CE,-5.8106219,-38.3028294,1,6.99447
1,Iracemápolis/SP,-22.583234,-47.522963,13,53.64143
1,Iranduba/AM,-3.2758203,-60.1867429,236,488.65330
D1,Iranduba/AM,-3.2758203,-60.1867429,15,31.05847
1,Irani/SC,-27.0230476,-51.9010675,32,307.13120
1,Irapuru/SP,-21.5691828,-51.3494606,5,60.28454
D1,Irapuru/SP,-21.5691828,-51.3494606,1,12.05691
1,Irati/SC,-26.6577742,-52.8929851,1,51.81347
1,Irauçuba/CE,-3.7466828,-39.7840904,22,91.07468
1,Irecê/BA,-11.3034853,-41.8557902,3,4.11145
1,Iretama/PR,-24.4212538,-52.1023538,2,19.66762
D1,Iretama/PR,-24.4212538,-52.1023538,1,9.83381
1,Irituia/PA,-1.7709543,-47.4399687,12,36.86636
D1,Irituia/PA,-1.7709543,-47.4399687,1,3.07220
1,Irupi/ES,-20.3469751,-41.639688,3,22.42655
1,Itabaiana/PB,-7.331674,-35.331723,7,28.59828
1,Itabaiana/SE,-10.6856197,-37.4270517,43,45.06062
1,Itabaianinha/SE,-11.2760142,-37.78666,15,35.77562
D1,Itabaianinha/SE,-11.2760142,-37.78666,1,2.38504
1,Itabela/BA,-16.5743392,-39.561961,1,3.26968
1,Itaberaba/BA,-12.524182,-40.305897,2,3.10130
1,Itabira/MG,-19.6186264,-43.2267011,12,9.99500
D1,Itabira/MG,-19.6186264,-43.2267011,1,0.83292
1,Itabirito/MG,-20.2519724,-43.8029171,1,1.92771
1,Itaboraí/RJ,-22.7496231,-42.8557428,285,118.45780
D1,Itaboraí/RJ,-22.7496231,-42.8557428,19,7.89719
1,Itabuna/BA,-14.7869879,-39.2788778,323,151.48460
D1,Itabuna/BA,-14.7869879,-39.2788778,6,2.81396
1,Itacarambi/MG,-15.1,-44.092222,1,5.50873
1,Itacaré/BA,-14.2781298,-38.9951418,4,14.13627
1,Itacoatiara/AM,-3.1477898,-58.4461041,204,201.30851
D1,Itacoatiara/AM,-3.1477898,-58.4461041,24,23.68335
1,Itagi/BA,-14.1627902,-40.0069366,2,16.19302
1,Itagibá/BA,-14.2891521,-39.8452592,10,68.59181
D1,Itagibá/BA,-14.2891521,-39.8452592,1,6.85918
1,Itaguara/MG,-20.391389,-44.488055,3,22.45845
1,Itaguaru/GO,-15.7613695,-49.6337242,2,38.18980
1,Itaguaí/RJ,-22.8629597,-43.775322,67,50.36874
D1,Itaguaí/RJ,-22.8629597,-43.775322,11,8.26950
1,Itaitinga/CE,-3.965768,-38.529763,116,305.42391
D1,Itaitinga/CE,-3.965768,-38.529763,8,21.06372
1,Itaituba/PA,-4.2625218,-55.9878139,10,9.87684
D1,Itaituba/PA,-4.2625218,-55.9878139,1,0.98768
1,Itaiçaba/CE,-4.68054,-37.8239968,1,12.77629
1,Itaiópolis/SC,-26.3391899,-49.9071983,1,4.61489
1,Itajaí/SC,-26.9117879,-48.6669852,127,57.84928
D1,Itajaí/SC,-26.9117879,-48.6669852,3,1.36652
1,Itajobi/SP,-21.312294,-49.0596336,10,65.52221
D1,Itajobi/SP,-21.312294,-49.0596336,1,6.55222
1,Itajubá/MG,-22.4238234,-45.4524156,13,13.42019
1,Itajuípe/BA,-14.6744381,-39.3759427,12,58.56230
1,Itajá/RN,-5.6374673,-36.8713272,4,52.99417
1,Italva/RJ,-21.4214056,-41.6907956,3,19.72776
1,Itamaraju/BA,-17.0363103,-39.527994,1,1.55072
1,Itambacuri/MG,-18.0391974,-41.6751876,1,4.30830
1,Itambé/PE,-7.4108509,-35.10967,3,8.23113
1,Itamonte/MG,-22.2830726,-44.8695785,2,12.83779
1,Itanhandu/MG,-22.2957913,-44.9366732,6,39.13639
1,Itanhaém/SP,-24.1848847,-46.7921572,20,19.64328
D1,Itanhaém/SP,-24.1848847,-46.7921572,2,1.96433
1,Itaobim/MG,-16.5614934,-41.502275,1,4.74789
1,Itaocara/RJ,-21.6725236,-42.0798658,9,38.73633
D1,Itaocara/RJ,-21.6725236,-42.0798658,2,8.60807
1,Itapajé/CE,-3.6841324,-39.5851265,17,32.27337
1,Itaparica/BA,-12.8936023,-38.6798141,3,13.49649
1,Itapebi/BA,-15.9691891,-39.5320541,5,48.73769
1,Itapecerica da Serra/SP,-23.7176303,-46.8492435,187,106.43566
D1,Itapecerica da Serra/SP,-23.7176303,-46.8492435,12,6.83010
1,Itapecerica/MG,-20.472778,-45.125556,13,59.73716
1,Itapecuru Mirim/MA,-3.3973569,-44.3560724,18,26.39180
1,Itapema/SC,-27.09472,-48.6137778,21,32.15336
D1,Itapema/SC,-27.09472,-48.6137778,1,1.53111
1,Itapemirim/ES,-21.0105534,-40.8351239,10,29.11378
1,Itaperuna/RJ,-21.2048,-41.88801,15,14.53150
1,Itaperuçu/PR,-25.21926,-49.345427,6,20.95411
1,Itapetim/PE,-7.377514,-37.1887321,2,14.68860
D1,Itapetim/PE,-7.377514,-37.1887321,1,7.34430
1,Itapetinga/BA,-15.2454478,-40.2460053,9,11.81924
D1,Itapetinga/BA,-15.2454478,-40.2460053,2,2.62650
1,Itapetininga/SP,-23.588607,-48.048326,35,21.35435
D1,Itapetininga/SP,-23.588607,-48.048326,2,1.22025
1,Itapeva/MG,-22.7071665,-46.23015850595238,5,51.10907
D1,Itapeva/MG,-22.7071665,-46.23015850595238,1,10.22181
1,Itapeva/SP,-23.9849105,-48.8803886,19,20.13693
1,Itapevi/SP,-23.54888,-46.933889,189,79.51199
D1,Itapevi/SP,-23.54888,-46.933889,25,10.51746
1,Itapipoca/CE,-3.499329,-39.583571,193,149.19835
D1,Itapipoca/CE,-3.499329,-39.583571,10,7.73048
1,Itapira/SP,-22.436111,-46.821667,21,28.08500
D1,Itapira/SP,-22.436111,-46.821667,3,4.01214
1,Itapiranga/AM,-2.7461205,-58.025377,19,207.69567
D1,Itapiranga/AM,-2.7461205,-58.025377,1,10.93135
1,Itapiranga/SC,-27.1719977,-53.7118734,1,5.92698
1,Itapissuma/PE,-7.767983,-34.897136,24,90.05291
D1,Itapissuma/PE,-7.767983,-34.897136,4,15.00882
1,Itapitanga/BA,-14.4213865,-39.5664662,1,9.69650
1,Itapiúna/CE,-4.5654191,-38.9211537,16,78.50064
D1,Itapiúna/CE,-4.5654191,-38.9211537,1,4.90629
1,Itaporanga d'Ajuda/SE,-10.9961671,-37.3045841,9,26.19630
D1,Itaporanga d'Ajuda/SE,-10.9961671,-37.3045841,1,2.91070
1,Itaporanga/PB,-7.3040747,-38.1505782,2,8.09979
1,Itapororoca/PB,-6.8283007,-35.244782,4,21.43163
D1,Itapororoca/PB,-6.8283007,-35.244782,1,5.35791
1,Itapura/SP,-20.6435211,-51.5084479,2,40.76641
1,Itapuã do Oeste/RO,-9.189646,-63.1910097,1,9.56206
1,Itapuí/SP,-22.2346755,-48.7189744,3,21.44082
1,Itapé/BA,-14.8970856,-39.4246637,2,22.82844
D1,Itapé/BA,-14.8970856,-39.4246637,1,11.41422
1,Itaquaquecetuba/SP,-23.4754492,-46.3514033,220,59.32782
D1,Itaquaquecetuba/SP,-23.4754492,-46.3514033,28,7.55081
1,Itaquitinga/PE,-7.6642569,-35.1023615,7,41.28576
D1,Itaquitinga/PE,-7.6642569,-35.1023615,2,11.79593
1,Itarantim/BA,-15.6520917,-40.0599067,1,5.06406
1,Itararé/SP,-24.1145368,-49.3352464,3,5.94024
1,Itarema/CE,-2.9224558,-39.9129042,32,76.50744
1,Itariri/SP,-24.2900711,-47.176151,11,63.08786
1,Itatiaia/RJ,-22.4955278,-44.5633108,4,12.57664
1,Itatiaiuçu/MG,-20.1975724,-44.4224889,2,17.94366
1,Itatiba/SP,-22.9965861,-46.8412042,14,11.58384
D1,Itatiba/SP,-22.9965861,-46.8412042,2,1.65483
1,Itatim/BA,-12.7073174,-39.6974476,5,34.51370
1,Itatinga/SP,-23.1042417,-48.6134874,2,9.66324
1,Itatira/CE,-4.5305423,-39.621054,12,55.43493
D1,Itatira/CE,-4.5305423,-39.621054,2,9.23916
1,Itaubal/AP,0.6027524,-50.6998737,6,109.03144
1,Itaueira/PI,-7.5991089,-43.0278778,1,9.07523
D1,Itaueira/PI,-7.5991089,-43.0278778,1,9.07523
1,Itaú de Minas/MG,-20.739722,-46.752222,1,6.20810
1,Itaúna do Sul/PR,-22.7302304,-52.8854393,1,34.90401
1,Itaúna/MG,-20.075556,-44.576389,2,2.14560
1,Itinga do Maranhão/MA,-4.452925,-47.5253727,17,65.38462
1,Itirapina/SP,-22.2884106,-47.81616583161232,1,5.50752
1,Itobi/SP,-21.730853,-46.9743,1,12.75348
1,Itororó/BA,-15.1155552,-40.0638651,4,19.62516
1,Itu/SP,-23.2638828,-47.298892,24,13.79794
D1,Itu/SP,-23.2638828,-47.298892,3,1.72474
1,Ituberá/BA,-13.7360764,-39.1481058,2,6.99252
1,Ituiutaba/MG,-18.9691887,-49.4639335,3,2.86612
1,Itumbiara/GO,-18.4135862,-49.2172596,18,17.18508
1,Itumirim/MG,-21.317223,-44.870556,1,16.60302
1,Itupeva/SP,-23.1531055,-47.0580347,10,16.32600
D1,Itupeva/SP,-23.1531055,-47.0580347,2,3.26520
1,Itupiranga/PA,-5.1337224,-49.3321988,1,1.87726
1,Ituporanga/SC,-27.4096219,-49.6014812,2,7.97257
D1,Ituporanga/SC,-27.4096219,-49.6014812,1,3.98629
1,Ituverava/SP,-20.3366604,-47.7797924,1,2.39097
1,Itá/SC,-27.275006,-52.3381725,7,113.47058
1,Ivaiporã/PR,-24.2433517,-51.6719268,7,21.88594
D1,Ivaiporã/PR,-24.2433517,-51.6719268,2,6.25313
1,Ivaí/PR,-25.0069795,-50.8568896,1,7.20513
1,Ivoti/RS,-29.5934057,-51.1599403,5,20.58206
D1,Ivoti/RS,-29.5934057,-51.1599403,1,4.11641
1,Içara/SC,-28.7116553,-49.2971441,14,24.81346
1,Iúna/ES,-20.3427029,-41.5360386,2,6.85848
D1,Iúna/ES,-20.3427029,-41.5360386,1,3.42924
1,Jaboatão dos Guararapes/PE,-8.1752476,-34.9468716,979,139.39951
D1,Jaboatão dos Guararapes/PE,-8.1752476,-34.9468716,94,13.38463
1,Jaborandi/SP,-20.6921079,-48.4144076,3,43.29629
1,Jaborá/SC,-27.1743246,-51.7348631,7,177.84553
1,Jaboticabal/SP,-21.252037,-48.325223,19,24.59133
D1,Jaboticabal/SP,-21.252037,-48.325223,5,6.47140
1,Jaboticatubas/MG,-19.521667,-43.745277,2,9.92901
1,Jacareacanga/PA,-6.2196518,-57.758625,1,12.13740
1,Jacarezinho/PR,-23.159115,-49.973889,1,2.53949
1,Jacareí/SP,-23.30528,-45.96583,56,23.96624
D1,Jacareí/SP,-23.30528,-45.96583,4,1.71187
1,Jaci/SP,-20.8844434,-49.5710544,17,240.55469
1,Jaciara/MT,-15.9520115,-54.9762106,10,36.00230
1,Jacobina/BA,-11.1851561,-40.5112434,3,3.72587
1,Jacundá/PA,-4.446173,-49.115272,9,15.21427
1,Jacupiranga/SP,-24.703773,-48.0060639,3,16.79167
1,Jaguapitã/PR,-23.1102516,-51.5327741,1,7.34214
1,Jaguaquara/BA,-13.5294974,-39.9693081,5,9.18729
1,Jaguarari/BA,-10.2596039,-40.1965284,2,5.95770
1,Jaguaretama/CE,-5.6092417,-38.7630077,10,55.06002
1,Jaguari/RS,-29.498143,-54.6931868,1,9.21829
1,Jaguaribara/CE,-5.454494,-38.4679295,11,96.48276
D1,Jaguaribara/CE,-5.454494,-38.4679295,1,8.77116
1,Jaguaribe/CE,-5.8854585,-38.6212957,22,63.43348
D1,Jaguaribe/CE,-5.8854585,-38.6212957,3,8.65002
1,Jaguariúna/SP,-22.70374,-46.985062,21,36.52936
1,Jaguaruana/CE,-4.831508,-37.780997,8,23.73535
D1,Jaguaruana/CE,-4.831508,-37.780997,1,2.96692
1,Jaguaruna/SC,-28.6237365,-49.0288664,7,34.95805
1,Jales/SP,-20.2671767,-50.5492435,5,10.18185
1,Jambeiro/SP,-23.2556416,-45.6919926,1,15.14693
1,Janaúba/MG,-15.8019291,-43.309246,3,4.18714
1,Jandira/SP,-23.5282044,-46.9019554,104,83.24195
D1,Jandira/SP,-23.5282044,-46.9019554,7,5.60282
1,Jangada/MT,-15.2369949,-56.4902844,3,35.67606
1,Januário Cicco/RN,-6.158053,-35.602085,1,9.82222
1,Japeri/RJ,-22.6427642,-43.6533831,49,46.77001
D1,Japeri/RJ,-22.6427642,-43.6533831,2,1.90898
1,Japoatã/SE,-10.3467864,-36.799878,1,7.44380
1,Japurá/PR,-23.469273,-52.55572,1,10.61008
1,Jaqueira/PE,-8.7276422,-35.7948925,2,17.15854
D1,Jaqueira/PE,-8.7276422,-35.7948925,2,17.15854
1,Jaraguá do Sul/SC,-26.4897432,-49.0778063,36,20.25921
D1,Jaraguá do Sul/SC,-26.4897432,-49.0778063,1,0.56276
1,Jaraguá/GO,-15.7528866,-49.3344033,7,13.85837
1,Jaramataia/AL,-9.6597307,-37.0015482,1,17.33102
1,Jardim/CE,-7.5838966,-39.279713,1,3.67999
1,Jardim/MS,-21.479941,-56.148902,4,15.32743
1,Jardinópolis/SP,-21.0255126,-47.7706807,8,18.02614
D1,Jardinópolis/SP,-21.0255126,-47.7706807,1,2.25327
1,Jarinu/SP,-23.0949584,-46.7148636,5,16.64226
D1,Jarinu/SP,-23.0949584,-46.7148636,3,9.98535
1,Jaru/RO,-10.431826,-62.478769,16,30.90295
1,Jataizinho/PR,-23.257815,-50.977748,2,15.88815
1,Jataí/GO,-17.8783829,-51.7204241,28,27.75520
1,Jataúba/PE,-7.9860545,-36.4980118,1,5.83090
D1,Jataúba/PE,-7.9860545,-36.4980118,1,5.83090
1,Jateí/MS,-22.4815624,-54.307006,1,24.83238
1,Jatobá/PE,-9.1832353,-38.2672047,2,13.51717
1,Jaçanã/RN,-6.4290483,-36.2035537,3,32.84791
1,Jaú/SP,-22.293585,-48.559193,60,39.93291
D1,Jaú/SP,-22.293585,-48.559193,1,0.66555
1,Jeceaba/MG,-20.5353816,-43.983346,1,20.35831
1,Jequitinhonha/MG,-16.433333,-41.003056,1,3.93840
D1,Jequitinhonha/MG,-16.433333,-41.003056,1,3.93840
1,Jequiá da Praia/AL,-10.0092595,-36.0232787,3,25.90674
1,Jequié/BA,-13.8604033,-40.0719627,70,44.88158
D1,Jequié/BA,-13.8604033,-40.0719627,2,1.28233
1,Jerônimo Monteiro/ES,-20.7882214,-41.3921464,2,16.40420
1,Jesúpolis/GO,-15.9545513,-49.3748004,2,80.32129
1,Ji-Paraná/RO,-10.8778148,-61.9277854,47,36.44287
D1,Ji-Paraná/RO,-10.8778148,-61.9277854,3,2.32614
1,Jijoca de Jericoacoara/CE,-2.8986278,-40.4506081,13,65.60355
1,Jitaúna/BA,-14.017019,-39.8889976,1,8.95576
D1,Jitaúna/BA,-14.017019,-39.8889976,1,8.95576
1,Joanópolis/SP,-22.930004,-46.275208,3,22.69289
1,Joaquim Gomes/AL,-9.1372894,-35.7518862,3,12.50365
D1,Joaquim Gomes/AL,-9.1372894,-35.7518862,1,4.16788
1,Joaquim Nabuco/PE,-8.6233192,-35.5264107,2,12.48206
1,Joaçaba/SC,-27.1737204,-51.5065214,18,59.76492
1,Joca Claudino/PB,-6.4832147,-38.478874,1,37.93627
1,Joinville/SC,-26.3044898,-48.8486726,263,44.54109
D1,Joinville/SC,-26.3044898,-48.8486726,6,1.01615
1,Joselândia/MA,-4.9860047,-44.696953,2,12.37011
1,José Bonifácio/SP,-23.564090999999998,-46.434766582997995,3,8.10482
1,José de Freitas/PI,-4.7578357,-42.5763777,5,12.75250
1,João Alfredo/PE,-7.8608755,-35.591575,8,23.65324
1,João Câmara/RN,-5.5349637,-35.8150811,3,8.58246
1,João Lisboa/MA,-5.44363,-47.406388,15,63.47326
1,João Monlevade/MG,-19.809444,-43.173334,17,21.27393
1,João Neiva/ES,-19.756346,-40.3848345,11,65.99472
1,João Pessoa/PB,-7.1215981,-34.882028,1114,137.69831
D1,João Pessoa/PB,-7.1215981,-34.882028,54,6.67478
1,Juatuba/MG,-19.954001,-44.3407921,1,3.71113
1,Juazeirinho/PB,-7.0688282,-36.5803059,1,5.50327
1,Juazeiro do Norte/CE,-7.2153453,-39.3153336,25,9.11720
D1,Juazeiro do Norte/CE,-7.2153453,-39.3153336,2,0.72938
1,Juazeiro/BA,-9.4336959,-40.5068201,9,4.15307
D1,Juazeiro/BA,-9.4336959,-40.5068201,1,0.46145
1,Jucati/PE,-8.7065829,-36.4870496,1,8.75350
1,Jucás/CE,-6.5224934,-39.5247183,5,20.13450
1,Juiz de Fora/MG,-21.7609533,-43.3501129,317,55.72421
D1,Juiz de Fora/MG,-21.7609533,-43.3501129,13,2.28522
1,Junco do Maranhão/MA,-1.8799132,-46.0726685,8,233.10023
1,Junco do Seridó/PB,-6.9922083,-36.7143267,3,41.95804
D1,Junco do Seridó/PB,-6.9922083,-36.7143267,1,13.98601
1,Jundiaí/SP,-23.1887866,-46.8845122,250,59.67128
D1,Jundiaí/SP,-23.1887866,-46.8845122,20,4.77370
1,Junqueiro/AL,-9.9201549,-36.474737,11,44.48578
1,Junqueirópolis/SP,-21.5109531,-51.4351505,10,48.35824
1,Jupi/PE,-8.7114677,-36.417448,2,13.48072
1,Juquitiba/SP,-23.932346,-47.0714217,7,22.26180
D1,Juquitiba/SP,-23.932346,-47.0714217,1,3.18026
1,Juquiá/SP,-24.3172209,-47.6355618,2,10.63151
1,Jurema/PE,-8.7189103,-36.137365,3,19.50839
1,Juripiranga/PB,-7.3743307,-35.2396,4,37.18855
1,Juruti/PA,-2.1571381,-56.0900977,10,17.25834
D1,Juruti/PA,-2.1571381,-56.0900977,2,3.45167
1,Juruá/AM,-3.4746666,-66.0622335,1,6.79717
1,Jussara/PR,-23.621931,-52.46931,1,14.25923
D1,Jussara/PR,-23.621931,-52.46931,1,14.25923
1,Jussari/BA,-15.1882453,-39.493597,1,17.14384
1,Jussiape/BA,-13.517671,-41.5918853,1,16.16554
1,Jutaí/AM,-2.7471478,-66.7721255,18,125.72466
D1,Jutaí/AM,-2.7471478,-66.7721255,1,6.98470
1,Júlio Borges/PI,-10.3273669,-44.2397326,2,35.54292
D1,Júlio Borges/PI,-10.3273669,-44.2397326,1,17.77146
1,Ladário/MS,-19.008842,-57.5972924,4,17.14457
1,Lagarto/SE,-10.9141791,-37.6715308,18,17.24006
D1,Lagarto/SE,-10.9141791,-37.6715308,1,0.95778
1,Lages/SC,-27.8165664,-50.325883,36,22.85076
1,Lago da Pedra/MA,-4.5627272,-45.1298628,26,51.72482
D1,Lago da Pedra/MA,-4.5627272,-45.1298628,2,3.97883
1,Lago dos Rodrigues/MA,-4.6119168,-44.9800419,1,11.27015
1,Lagoa Salgada/RN,-6.122954,-35.472394,1,12.12856
1,Lagoa Santa/MG,-19.6357376,-43.8966132,6,9.29843
1,Lagoa Seca/PB,-7.157099,-35.8542023,2,7.27193
D1,Lagoa Seca/PB,-7.157099,-35.8542023,1,3.63597
1,Lagoa Vermelha/RS,-28.2094378,-51.5270315,1,3.59622
1,Lagoa da Canoa/AL,-9.8294012,-36.7395617,1,5.60161
D1,Lagoa da Canoa/AL,-9.8294012,-36.7395617,1,5.60161
1,Lagoa da Prata/MG,-20.022778,-45.5440462,20,38.33988
1,Lagoa de Itaenga/PE,-7.9335596,-35.2919789,5,23.33287
D1,Lagoa de Itaenga/PE,-7.9335596,-35.2919789,1,4.66657
1,Lagoa de Pedras/RN,-6.1527678,-35.4368516,1,13.25557
D1,Lagoa de Pedras/RN,-6.1527678,-35.4368516,1,13.25557
1,Lagoa do Barro do Piauí/PI,-8.4798938,-41.5295775,1,21.48228
1,Lagoa do Carro/PE,-7.843834,-35.310783,18,99.60711
D1,Lagoa do Carro/PE,-7.843834,-35.310783,2,11.06746
1,Lagoa do Ouro/PE,-9.1245839,-36.459656,1,7.60746
1,Lagoa dos Gatos/PE,-8.6537614,-35.9045124,2,12.27747
D1,Lagoa dos Gatos/PE,-8.6537614,-35.9045124,1,6.13874
1,Laguna/SC,-28.483118,-48.7811993,11,24.01013
1,Laje/BA,-13.1809956,-39.4222968,3,12.58389
1,Lajeado Novo/MA,-6.1898777,-47.0325965,1,13.24503
1,Lajeado/RS,-29.4671522,-51.9624046,181,215.44028
D1,Lajeado/RS,-29.4671522,-51.9624046,8,9.52222
1,Lajedo do Tabocal/BA,-13.49316205,-40.281038132391984,5,58.39757
1,Lajedo/PE,-8.657914,-36.329336,3,7.44639
D1,Lajedo/PE,-8.657914,-36.329336,1,2.48213
1,Lajes Pintadas/RN,-6.1497352,-36.1166085,4,84.05127
1,Lajes/RN,-5.7014079,-36.246219,1,8.86761
1,Lajinha/MG,-20.1520595,-41.6240623,1,5.01932
1,Lambari D'Oeste/MT,-15.3188455,-58.0046244,1,16.33720
1,Lambari/MG,-21.9754009,-45.3505415,9,43.24013
1,Lapa/PR,-25.76709,-49.716777,4,8.30513
1,Laranja da Terra/ES,-19.8989653,-41.0584617,1,9.13492
1,Laranjal Paulista/SP,-23.050564,-47.837549,5,17.53402
D1,Laranjal Paulista/SP,-23.050564,-47.837549,2,7.01361
1,Laranjal do Jari/AP,-0.8419994,-52.516,168,333.26721
D1,Laranjal do Jari/AP,-0.8419994,-52.516,10,19.83733
1,Laranjeiras/SE,-10.8040231,-37.1658336,5,16.76390
1,Lauro de Freitas/BA,-12.89242,-38.3127691,103,51.90486
D1,Lauro de Freitas/BA,-12.89242,-38.3127691,4,2.01572
1,Lavras da Mangabeira/CE,-6.7519554,-38.9634019,5,15.86899
D1,Lavras da Mangabeira/CE,-6.7519554,-38.9634019,1,3.17380
1,Lavras/MG,-21.2425512,-44.9991978,9,8.67278
1,Lavrinhas/SP,-22.570047,-44.902359,2,27.54821
D1,Lavrinhas/SP,-22.570047,-44.902359,1,13.77410
1,Lavínia/SP,-21.1676933,-51.0434733,2,16.69449
1,Leme/SP,-22.185833,-47.39,12,11.60643
D1,Leme/SP,-22.185833,-47.39,3,2.90161
1,Lençóis Paulista/SP,-22.6029897,-48.8031367,13,18.99696
D1,Lençóis Paulista/SP,-22.6029897,-48.8031367,1,1.46130
1,Leopoldina/MG,-21.5314282,-42.6403534,9,17.11450
1,Leópolis/PR,-23.0789091,-50.7501808,1,25.29084
1,Licínio de Almeida/BA,-14.684215,-42.509527,1,8.07233
1,Lima Campos/MA,-4.5179809,-44.4671291,17,142.94123
1,Lima Duarte/MG,-21.842777,-43.792777,1,5.98874
1,Limeira/SP,-22.5615068,-47.401766,60,19.60054
D1,Limeira/SP,-22.5615068,-47.401766,1,0.32668
1,Limoeiro de Anadia/AL,-9.7389667,-36.5015847,2,6.98446
D1,Limoeiro de Anadia/AL,-9.7389667,-36.5015847,1,3.49223
1,Limoeiro do Ajuru/PA,-1.8866440500000001,-49.495701348909165,12,41.47227
D1,Limoeiro do Ajuru/PA,-1.8866440500000001,-49.495701348909165,2,6.91204
1,Limoeiro do Norte/CE,-5.1455607,-38.0984936,35,58.78401
D1,Limoeiro do Norte/CE,-5.1455607,-38.0984936,2,3.35909
1,Limoeiro/PE,-7.872599,-35.440154,25,44.44444
D1,Limoeiro/PE,-7.872599,-35.440154,6,10.66667
1,Lindóia do Sul/SC,-27.0524132,-52.0831626,46,1008.10870
1,Lindóia/SP,-22.523056,-46.65,3,37.59398
1,Linhares/ES,-19.3816944,-40.0612213,57,32.84261
D1,Linhares/ES,-19.3816944,-40.0612213,1,0.57619
1,Lins/SP,-21.6741873,-49.7518932,22,28.20043
D1,Lins/SP,-21.6741873,-49.7518932,4,5.12735
1,Livramento de Nossa Senhora/BA,-13.6505468,-41.8412103,2,4.37331
1,Lizarda/TO,-9.5955336,-46.675218,1,26.73797
D1,Lizarda/TO,-9.5955336,-46.675218,1,26.73797
1,Loanda/PR,-22.9320944,-53.1352452,2,8.66326
1,Londrina/PR,-23.3112878,-51.1595023,112,19.65833
D1,Londrina/PR,-23.3112878,-51.1595023,14,2.45729
1,Lorena/SP,-22.7367652,-45.1070876,12,13.52783
D1,Lorena/SP,-22.7367652,-45.1070876,1,1.12732
1,Louveira/SP,-23.08639,-46.95056,24,49.09481
D1,Louveira/SP,-23.08639,-46.95056,2,4.09123
1,Lucas do Rio Verde/MT,-13.0655935,-55.9198356,19,28.99258
D1,Lucas do Rio Verde/MT,-13.0655935,-55.9198356,1,1.52593
1,Lucena/PB,-6.8984018,-34.8711915,11,84.09786
1,Lucélia/SP,-21.7211293,-51.0188,14,64.37670
D1,Lucélia/SP,-21.7211293,-51.0188,3,13.79501
1,Luzilândia/PI,-3.4648887,-42.3689528,2,7.84745
D1,Luzilândia/PI,-3.4648887,-42.3689528,1,3.92372
1,Luziânia/GO,-16.2535456,-47.9500276,13,6.24103
D1,Luziânia/GO,-16.2535456,-47.9500276,3,1.44024
1,Luís Correia/PI,-2.8818164,-41.6658458,3,9.89740
1,Luís Domingues/MA,-1.3284412,-45.8975062,4,57.54568
1,Luís Eduardo Magalhães/BA,-12.0869117,-45.7834163,3,3.42783
1,Luís Gomes/RN,-6.4141793,-38.3872939,1,9.88533
1,Lábrea/AM,-7.2613683,-64.7924505,22,47.75446
1,Macambira/SE,-10.6657963,-37.5396488,1,14.45296
1,Macaparana/PE,-7.54122565,-35.449102477927944,7,27.58512
D1,Macaparana/PE,-7.54122565,-35.449102477927944,2,7.88146
1,Macapá/AP,0.0401529,-51.0569588,1707,339.14334
D1,Macapá/AP,0.0401529,-51.0569588,43,8.54315
1,Macatuba/SP,-22.50022,-48.710229,2,11.65297
1,Macau/RN,-5.1133665,-36.6349957,1,3.14327
1,Macaé/RJ,-22.3712958,-41.7866922,106,41.29784
D1,Macaé/RJ,-22.3712958,-41.7866922,14,5.45443
1,Macaíba/RN,-5.8561372,-35.3523774,26,32.18140
D1,Macaíba/RN,-5.8561372,-35.3523774,3,3.71324
1,Maceió/AL,-9.6476843,-35.7339264,1675,164.38523
D1,Maceió/AL,-9.6476843,-35.7339264,73,7.16425
1,Machadinho/RS,-27.5658904,-51.6677057,1,18.36547
1,Machado/MG,-21.6762861,-45.9211696,2,4.74687
1,Machados/PE,-7.6876999,-35.5126635,5,31.07907
D1,Machados/PE,-7.6876999,-35.5126635,1,6.21581
1,Macuco/RJ,-21.9849747,-42.2539464,1,17.86033
1,Madalena/CE,-4.8542961,-39.5766436,16,81.25540
1,Madre de Deus/BA,-12.7424741,-38.6152913,1,4.74091
1,Mafra/SC,-26.1150943,-49.8035982,2,3.55290
1,Magalhães Barata/PA,-0.8346168,-47.62963129677816,2,23.39729
1,Magalhães de Almeida/MA,-3.392319,-42.211743,10,50.43882
1,Magé/RJ,-22.6604221,-43.0426162,196,79.97682
D1,Magé/RJ,-22.6604221,-43.0426162,12,4.89654
1,Mairinque/SP,-23.5401247,-47.1846323,11,23.32980
1,Mairiporã/SP,-23.3186111,-46.5866667,51,50.90887
D1,Mairiporã/SP,-23.3186111,-46.5866667,5,4.99107
1,Major Isidoro/AL,-9.5326559,-36.9862043,1,5.04948
1,Malhada dos Bois/SE,-10.3450779,-36.9206659,1,27.15915
1,Malhador/SE,-10.6588623,-37.3085558,4,31.70074
1,Mallet/PR,-25.885098,-50.8267494,1,7.33676
1,Mamanguape/PB,-6.833698,-35.121316,6,13.36839
1,Mamonas/MG,-15.0477099,-42.9499586,1,15.28351
1,Manacapuru/AM,-3.2996768,-60.6213528,890,913.97353
D1,Manacapuru/AM,-3.2996768,-60.6213528,48,49.29295
1,Manaquiri/AM,-3.4305885,-60.4593078,35,109.01729
D1,Manaquiri/AM,-3.4305885,-60.4593078,2,6.22956
1,Manaus/AM,-3.1316333,-59.9825041,6743,308.92039
D1,Manaus/AM,-3.1316333,-59.9825041,660,30.23691
1,Mandaguari/PR,-23.5224849,-51.6787511,1,2.90698
1,Mandaguaçu/PR,-23.3485076,-52.0966215,2,8.76463
1,Mandirituba/PR,-25.7772457,-49.3279107,4,14.88704
1,Mangaratiba/RJ,-22.9600193,-44.04111,20,44.97616
D1,Mangaratiba/RJ,-22.9600193,-44.04111,2,4.49762
1,Manhuaçu/MG,-20.2574434,-42.0340769,6,6.64975
1,Manicoré/AM,-5.804618,-61.289483,11,19.73059
D1,Manicoré/AM,-5.804618,-61.289483,2,3.58738
1,Manoel Emídio/PI,-8.0054022,-43.8730321,1,18.69508
1,Manoel Ribas/PR,-24.5177239,-51.6685729,1,7.40631
D1,Manoel Ribas/PR,-24.5177239,-51.6685729,1,7.40631
1,Mantena/MG,-18.7809937,-40.9808279,2,7.23484
1,Mar de Espanha/MG,-21.866945,-43.01,7,54.62775
1,Mara Rosa/GO,-14.0148159,-49.1776521,3,31.56898
D1,Mara Rosa/GO,-14.0148159,-49.1776521,1,10.52299
1,Marabá/PA,-5.3462821,-49.1007401,95,34.00764
D1,Marabá/PA,-5.3462821,-49.1007401,22,7.87545
1,Maracajá/SC,-28.8628566,-49.449388,1,13.71178
1,Maracanaú/CE,-3.8779438,-38.6247697,332,145.68688
D1,Maracanaú/CE,-3.8779438,-38.6247697,37,16.23619
1,Maracanã/PA,-0.7666582,-47.4537818,28,95.00221
D1,Maracanã/PA,-0.7666582,-47.4537818,1,3.39294
1,Maracaçumé/MA,-2.049177,-45.958734,14,65.43585
1,Maracás/BA,-13.4408898,-40.433052,2,9.59969
1,Maragogi/AL,-9.0118278,-35.222512,11,33.63503
D1,Maragogi/AL,-9.0118278,-35.222512,1,3.05773
1,Maragogipe/BA,-12.7766206,-38.9174729,6,13.42973
1,Maraial/PE,-8.7823791,-35.8113151,1,8.81446
1,Maranguape/CE,-3.8922967,-38.6835427,144,111.64695
D1,Maranguape/CE,-3.8922967,-38.6835427,18,13.95587
1,Maranhãozinho/MA,-2.2429316,-45.8588977,5,30.74085
1,Marapanim/PA,-0.7134493,-47.6985381,17,59.99435
D1,Marapanim/PA,-0.7134493,-47.6985381,2,7.05816
1,Marapoama/SP,-21.2574769,-49.1314719,1,32.99241
1,Marataízes/ES,-21.0443673,-40.8272204,55,142.86085
D1,Marataízes/ES,-21.0443673,-40.8272204,1,2.59747
1,Maratá/RS,-29.549349,-51.5546411,4,148.64363
1,Marau/RS,-28.4493053,-52.2002156,115,260.41077
D1,Marau/RS,-28.4493053,-52.2002156,3,6.79332
