type,name,lat,lon,total,total_per_100k_inhabitants
1,Abaetetuba/PA,-1.721828,-48.878843,35,22.19432
1,Abaeté/MG,-19.1566833,-45.4481213,1,4.30348
1,Abaíra/BA,-13.2503296,-41.6640342,1,11.44296
1,Abreu e Lima/PE,-7.900719,-34.898389,72,72.00720
D1,Abreu e Lima/PE,-7.900719,-34.898389,4,4.00040
1,Acajutiba/BA,-11.6609659,-38.0186381,1,6.59674
1,Acarape/CE,-4.2237866,-38.7071663,4,26.79349
D1,Acarape/CE,-4.2237866,-38.7071663,1,6.69837
1,Acaraú/CE,-2.8869514,-40.1194713,31,49.48835
D1,Acaraú/CE,-2.8869514,-40.1194713,1,1.59640
1,Acari/RN,-6.4364689,-36.6394777,2,17.95977
1,Acará/PA,-1.961388,-48.1987043,2,3.59770
D1,Acará/PA,-1.961388,-48.1987043,1,1.79885
1,Acopiara/CE,-6.0936464,-39.4543204,7,12.89847
D1,Acopiara/CE,-6.0936464,-39.4543204,1,1.84264
1,Acrelândia/AC,-10.0759167,-67.0526898,13,85.21238
1,Adamantina/SP,-21.6866517,-51.0762975,5,14.25801
1,Adolfo/SP,-21.2356597,-49.6441918,1,28.07412
1,Adustina/BA,-10.5358875,-38.114479,1,5.86854
D1,Adustina/BA,-10.5358875,-38.114479,1,5.86854
1,Afogados da Ingazeira/PE,-7.750429,-37.6356375,2,5.36783
1,Afonso Cláudio/ES,-20.077841,-41.12606,10,32.69470
D1,Afonso Cláudio/ES,-20.077841,-41.12606,2,6.53894
1,Afrânio/PE,-8.5198919,-41.0070197,1,5.09295
1,Afuá/PA,-0.1535664,-50.3879223,1,2.54985
1,Agrestina/PE,-8.4558021,-35.9442663,1,4.01849
D1,Agrestina/PE,-8.4558021,-35.9442663,1,4.01849
1,Aguaí/SP,-22.0592036,-46.979384,14,38.56218
D1,Aguaí/SP,-22.0592036,-46.979384,2,5.50888
1,Agudos/SP,-22.471162,-48.987822,15,40.30741
D1,Agudos/SP,-22.471162,-48.987822,1,2.68716
1,Aiquara/BA,-14.126918,-39.8887574,1,22.49213
1,Ajuricaba/RS,-28.239654,-53.7693013,1,14.23690
1,Alagoa Grande/PB,-7.0415212,-35.6285322,2,7.01853
1,Alagoa Nova/PB,-7.0653703,-35.76695977336711,1,4.79639
1,Alagoinha/PE,-8.50355635,-36.77701174370496,1,6.83247
1,Alagoinhas/BA,-12.133526,-38.420772,8,5.27718
1,Alambari/SP,-23.550338,-47.897971,1,16.59751
1,Alcinópolis/MS,-18.3264121,-53.7094463,1,18.71608
1,Alcântara/MA,-2.4038956,-44.4154241,1,4.52550
1,Alcântaras/CE,-3.586247,-40.5457641,11,93.90473
D1,Alcântaras/CE,-3.586247,-40.5457641,1,8.53679
1,Aldeias Altas/MA,-4.6291957,-43.4708622,1,3.76903
1,Alegre/ES,-20.7625787,-41.5318886,2,6.64805
1,Alegrete/RS,-29.790166,-55.794862,1,1.35890
1,Alenquer/PA,-1.946229,-54.738355,4,7.04362
1,Alexandria/RN,-6.414779,-38.0135516,4,29.46159
D1,Alexandria/RN,-6.414779,-38.0135516,1,7.36540
1,Alfenas/MG,-21.4297405,-45.9479419,6,7.50038
1,Alfredo Chaves/ES,-20.624970400000002,-40.75006690147988,19,130.12807
1,Alhandra/PB,-7.4304246,-34.9106103,4,20.42067
D1,Alhandra/PB,-7.4304246,-34.9106103,1,5.10517
1,Aliança/PE,-7.60398,-35.222696,9,23.44605
D1,Aliança/PE,-7.60398,-35.222696,3,7.81535
1,Almadina/BA,-14.70466,-39.6381994,1,18.30161
1,Almeirim/PA,-1.5290377,-52.5788111,2,5.86356
D1,Almeirim/PA,-1.5290377,-52.5788111,1,2.93178
1,Almenara/MG,-16.1740678,-40.6904907,5,11.93431
1,Almirante Tamandaré/PR,-25.3133048,-49.2997838,7,5.90105
1,Aloândia/GO,-17.7277983,-49.4809338,1,50.12531
1,Alpercata/MG,-18.9803616,-41.9827637,1,13.46983
1,Alta Floresta/MT,-9.8715018,-56.0839881,2,3.86235
1,Altamira do Maranhão/MA,-4.1643006,-45.4674574,1,12.30315
D1,Altamira do Maranhão/MA,-4.1643006,-45.4674574,1,12.30315
1,Altamira/PA,-3.204065,-52.209961,14,12.21704
1,Alterosa/MG,-21.249166,-46.143055,1,6.91276
1,Altinho/PE,-8.4904095,-36.0607494,2,8.70625
1,Alto Alegre do Maranhão/MA,-4.2055693,-44.4525287,2,7.39290
1,Alto Alegre do Pindaré/MA,-3.6698186,-45.8462153,10,31.32930
1,Alto Alegre/RR,2.98858,-61.307167,5,32.23727
D1,Alto Alegre/RR,2.98858,-61.307167,1,6.44745
1,Alto Paraná/PR,-23.131247,-52.318893,6,40.62288
1,Alto Paraíso/RO,-9.7240103,-63.3188123,1,4.66679
1,Alto Santo/CE,-5.5190371,-38.2719351,6,34.99358
D1,Alto Santo/CE,-5.5190371,-38.2719351,1,5.83226
1,Alto do Rodrigues/RN,-5.290868,-36.7616726,2,13.76557
D1,Alto do Rodrigues/RN,-5.290868,-36.7616726,1,6.88279
1,Altos/PI,-5.0393915,-42.4611694,7,17.27371
1,Alvorada do Gurguéia/PI,-8.4465288,-43.8655915,1,18.45359
1,Alvorada/RS,-29.9981184,-51.0772509,13,6.18150
D1,Alvorada/RS,-29.9981184,-51.0772509,1,0.47550
1,Além Paraíba/MG,-21.8760576,-42.6810473,7,19.79526
1,Amaporã/PR,-23.094272,-52.786597,14,223.74940
1,Amapá/AP,2.0529997,-50.7930003,2,21.95631
1,Amaraji/PE,-8.373925,-35.4536527,4,17.52157
D1,Amaraji/PE,-8.373925,-35.4536527,2,8.76079
1,Amarante do Maranhão/MA,-5.56913,-46.747284,2,4.82684
1,Amaturá/AM,-3.3640509,-68.1994689,25,216.71290
1,Americana/SP,-22.7392463,-47.3306032,53,22.12048
D1,Americana/SP,-22.7392463,-47.3306032,3,1.25210
1,Amontada/CE,-3.3634586,-39.8284791,3,6.90417
D1,Amontada/CE,-3.3634586,-39.8284791,1,2.30139
1,Amparo/SP,-22.70111,-46.76444,9,12.46624
1,Amélia Rodrigues/BA,-12.4015388,-38.7516971,4,15.93499
1,Américo Brasiliense/SP,-21.7297099,-48.1052092,9,22.22003
1,Anadia/AL,-9.6830208,-36.3052699,1,5.69963
D1,Anadia/AL,-9.6830208,-36.3052699,1,5.69963
1,Anajatuba/MA,-3.26441,-44.6179916,10,37.30926
D1,Anajatuba/MA,-3.26441,-44.6179916,1,3.73093
1,Anamã/AM,-3.5797356,-61.4049996,1,7.34538
1,Ananindeua/PA,-1.374035,-48.4016623,384,72.37117
D1,Ananindeua/PA,-1.374035,-48.4016623,12,2.26160
1,Anapu/PA,-3.4668292,-51.2057035,7,25.09860
1,Anchieta/ES,-20.8057672,-40.6454564,10,34.17285
1,Andradina/SP,-20.896505,-51.3742765,11,19.24524
1,Angatuba/SP,-23.4938938,-48.4110675,2,7.92770
D1,Angatuba/SP,-23.4938938,-48.4110675,1,3.96385
1,Angical do Piauí/PI,-6.0872666,-42.7366138,1,14.73188
1,Angra dos Reis/RJ,-23.0063966,-44.316326,48,23.55424
1,Anhanguera/GO,-18.3338749,-48.220363,1,87.03220
1,Anhembi/SP,-22.7891096,-48.1316776,3,44.61630
1,Anita Garibaldi/SC,-27.6855032,-51.1293873,1,14.01935
1,Anori/AM,-3.7435254,-61.6605203,37,176.10662
1,Anta Gorda/RS,-28.9718745,-52.0069187,2,33.43922
1,Antonina do Norte/CE,-6.7754187,-39.9879345,1,13.59989
1,Antônio Carlos/SC,-27.5168462,-48.7684715,12,140.96088
D1,Antônio Carlos/SC,-27.5168462,-48.7684715,3,35.24022
1,Anápolis/GO,-16.3332828,-48.9525756,44,11.37177
1,Anísio de Abreu/PI,-9.185643,-43.04941,4,40.48583
1,Aparecida de Goiânia/GO,-16.8226769,-49.2452546,54,9.33967
D1,Aparecida de Goiânia/GO,-16.8226769,-49.2452546,2,0.34591
1,Aparecida/SP,-22.851552,-45.2340924,1,2.76572
1,Aperibé/RJ,-21.6211928,-42.1028167,2,17.00825
1,Apiacá/ES,-21.152272,-41.569297,3,39.64583
1,Apiaí/SP,-24.5076527,-48.8461582,1,4.10273
1,Apicum-Açu/MA,-1.5279295,-45.082278,1,5.80080
1,Apodi/RN,-5.6631109,-37.796927,15,41.84684
D1,Apodi/RN,-5.6631109,-37.796927,1,2.78979
1,Apucarana/PR,-23.5525327,-51.4610764,16,11.85220
D1,Apucarana/PR,-23.5525327,-51.4610764,2,1.48153
1,Apuiarés/CE,-3.9460303,-39.4313298,2,13.69863
1,Aquidabã/SE,-10.2837579,-37.0188687,1,4.63757
1,Aquiraz/CE,-3.9063117,-38.387504,64,79.72991
D1,Aquiraz/CE,-3.9063117,-38.387504,2,2.49156
1,Arabutã/SC,-27.1587028,-52.1438142,9,210.92102
1,Aracaju/SE,-10.9162061,-37.0774655,297,45.20458
D1,Aracaju/SE,-10.9162061,-37.0774655,7,1.06543
1,Aracati/CE,-4.558259,-37.767894,16,21.46297
D1,Aracati/CE,-4.558259,-37.767894,1,1.34144
1,Aracatu/BA,-14.4274236,-41.4604105,2,15.22649
1,Araci/BA,-11.3356065,-38.9573261,1,1.83895
D1,Araci/BA,-11.3356065,-38.9573261,1,1.83895
1,Aracoiaba/CE,-4.3702577,-38.8084313,12,45.33605
1,Aracruz/ES,-19.8245218,-40.2735025,21,20.74689
D1,Aracruz/ES,-19.8245218,-40.2735025,1,0.98795
1,Aragoiânia/GO,-16.9146388,-49.4499148,2,19.40241
1,Araguanã/MA,-2.9508403,-45.6651986,3,19.44769
1,Araguari/MG,-18.6511256,-48.1933764,7,5.96928
D1,Araguari/MG,-18.6511256,-48.1933764,1,0.85275
1,Araguatins/TO,-5.6522925,-48.1158973,1,2.79634
1,Araguaína/TO,-7.193241,-48.2018597,75,41.55815
1,Arandu/SP,-23.1345103,-49.0545651,10,157.30691
D1,Arandu/SP,-23.1345103,-49.0545651,2,31.46138
1,Arapiraca/AL,-9.754866,-36.661471,21,9.06161
1,Arapongas/PR,-23.415296,-51.42592,14,11.37962
D1,Arapongas/PR,-23.415296,-51.42592,1,0.81283
1,Araquari/SC,-26.3703324,-48.7210994,2,5.24535
1,Araranguá/SC,-28.9348832,-49.4858389,8,11.72539
1,Araraquara/SP,-21.7886713,-48.1773096,72,30.49917
D1,Araraquara/SP,-21.7886713,-48.1773096,3,1.27080
1,Araras/SP,-22.3569477,-47.3838889,19,14.15418
D1,Araras/SP,-22.3569477,-47.3838889,2,1.48991
1,Ararendá/CE,-4.7504395,-40.8303611,1,9.14495
D1,Ararendá/CE,-4.7504395,-40.8303611,1,9.14495
1,Arari/MA,-3.4547602,-44.7772723,14,46.90432
D1,Arari/MA,-3.4547602,-44.7772723,1,3.35031
1,Araripe/CE,-7.212861,-40.1359222,1,4.62963
1,Araruama/RJ,-22.8733203,-42.3428897,33,24.92447
D1,Araruama/RJ,-22.8733203,-42.3428897,1,0.75529
1,Araruna/PR,-23.9320308,-52.4976047,15,107.37294
D1,Araruna/PR,-23.9320308,-52.4976047,1,7.15820
1,Arataca/BA,-15.2617424,-39.4122943,2,18.15047
1,Araucária/PR,-25.5861107,-49.4051209,8,5.56162
1,Araxá/MG,-19.5928536,-46.940241,3,2.82409
D1,Araxá/MG,-19.5928536,-46.940241,1,0.94136
1,Araçagi/PB,-6.8519969,-35.3835602,1,5.88685
1,Araçariguama/SP,-23.438611,-47.061389,3,13.41442
D1,Araçariguama/SP,-23.438611,-47.061389,1,4.47147
1,Araçatuba/SP,-21.207992,-50.4390225,71,36.03768
D1,Araçatuba/SP,-21.207992,-50.4390225,2,1.01515
1,Araçoiaba da Serra/SP,-23.5045367,-47.6168158,4,11.71440
1,Araçoiaba/PE,-7.7856903,-35.0898881,5,24.36172
D1,Araçoiaba/PE,-7.7856903,-35.0898881,1,4.87234
1,Arceburgo/MG,-21.364444,-46.939722,1,9.28333
1,Arcos/MG,-20.282223,-45.539444,7,17.45984
1,Arcoverde/PE,-8.415192,-37.057748,14,18.83290
D1,Arcoverde/PE,-8.415192,-37.057748,4,5.38083
1,Areal/RJ,-22.2314922,-43.1056264,3,23.86255
1,Arealva/SP,-22.0301906,-48.9111936,1,11.68224
1,Areia Branca/RN,-4.9506652,-37.1263312,11,39.60539
1,Areia Branca/SE,-10.7591455,-37.3148072,1,5.39316
1,Areia/PB,-6.9680243,-35.6994783,1,4.38231
1,Areiópolis/SP,-22.6758064,-48.6673653,4,35.94213
1,Aripuanã/MT,-10.175806,-59.4439663,2,8.94694
D1,Aripuanã/MT,-10.175806,-59.4439663,1,4.47347
1,Ariquemes/RO,-9.9076522,-63.033069,69,63.97004
1,Armazém/SC,-28.2624996,-49.0190126,9,103.75836
1,Armação dos Búzios/RJ,-22.7597805,-41.8875267,11,32.47712
1,Arneiroz/CE,-6.3235099,-40.1603859,9,114.79592
1,Aroazes/PI,-6.1108814,-41.7886137,1,17.13796
1,Arraial do Cabo/RJ,-22.9662839,-42.024427,8,26.36001
D1,Arraial do Cabo/RJ,-22.9662839,-42.024427,1,3.29500
1,Arroio do Meio/RS,-29.4020392,-51.9444993,12,57.67844
1,Arroio do Sal/RS,-29.549852,-49.8874395,2,19.87084
D1,Arroio do Sal/RS,-29.549852,-49.8874395,1,9.93542
1,Arroio dos Ratos/RS,-30.0894524,-51.7265541,3,21.19992
1,Artur Nogueira/SP,-22.572737,-47.172679,2,3.67593
1,Arujá/SP,-23.396266,-46.3175449,62,69.02387
D1,Arujá/SP,-23.396266,-46.3175449,2,2.22658
1,Arvorezinha/RS,-28.87369,-52.17808,1,9.59325
1,Arês/RN,-6.1969216,-35.1642968,1,6.99007
1,Assaí/PR,-23.3736041,-50.8454929,1,6.61419
1,Assis Brasil/AC,-10.9409203,-69.5672108,1,13.48254
1,Assis Chateaubriand/PR,-24.4054826,-53.5120468,16,47.95876
1,Assis/SP,-22.6620892,-50.420623,15,14.36974
D1,Assis/SP,-22.6620892,-50.420623,2,1.91597
1,Atalaia do Norte/AM,-4.3658547,-70.1908742,1,5.01983
1,Atalaia/AL,-9.5029595,-36.0219316,1,2.11932
1,Atibaia/SP,-23.1177393,-46.5547861,35,24.51650
D1,Atibaia/SP,-23.1177393,-46.5547861,1,0.70047
1,Augustinópolis/TO,-5.4662267,-47.8897519,2,10.86248
1,Augusto Corrêa/PA,-1.0229335,-46.6404029,12,26.08809
D1,Augusto Corrêa/PA,-1.0229335,-46.6404029,1,2.17401
1,Aurelino Leal/BA,-14.3167137,-39.3256107,1,8.67227
1,Aurora do Pará/PA,-2.1323199,-47.558436,5,15.95507
1,Aurora/SC,-27.3166417,-49.6368502,1,17.60873
1,Autazes/AM,-3.5833283,-59.1301518,79,199.67143
D1,Autazes/AM,-3.5833283,-59.1301518,7,17.69240
1,Avaré/SP,-23.1045215,-48.9259103,22,24.26783
D1,Avaré/SP,-23.1045215,-48.9259103,1,1.10308
1,Avaí/SP,-22.1564662,-49.3316395,1,18.50824
1,Avelinópolis/GO,-16.4672409,-49.7578661,1,41.37360
1,Axixá do Tocantins/TO,-5.612747,-47.77007,1,10.25010
1,Axixá/MA,-2.8379465,-44.0561053,1,8.24402
1,Açailândia/MA,-4.9514278,-47.4844564,24,21.34377
1,Açu/RN,-5.5836157,-36.9139541,35,60.32715
D1,Açu/RN,-5.5836157,-36.9139541,2,3.44727
1,Bacabal/MA,-4.2318132,-44.781167,34,32.39669
D1,Bacabal/MA,-4.2318132,-44.781167,1,0.95284
1,Bacabeira/MA,-2.9775747,-44.3155943,15,87.95075
D1,Bacabeira/MA,-2.9775747,-44.3155943,1,5.86338
1,Bady Bassitt/SP,-20.9178969,-49.4517911,2,11.42727
1,Bagre/PA,-1.8994498,-50.2103844,3,9.78059
1,Bagé/RS,-31.3314264,-54.1062808,29,23.93865
1,Baião/PA,-2.7903479,-49.6702845,3,6.32298
1,Balneário Arroio do Silva/SC,-28.9815269,-49.4189932,4,30.60210
D1,Balneário Arroio do Silva/SC,-28.9815269,-49.4189932,1,7.65052
1,Balneário Barra do Sul/SC,-26.459842,-48.6061471,2,18.52710
1,Balneário Camboriú/SC,-26.9924395,-48.6339782,95,66.76271
D1,Balneário Camboriú/SC,-26.9924395,-48.6339782,2,1.40553
1,Balneário Gaivota/SC,-29.1553098,-49.5808712,7,63.75808
D1,Balneário Gaivota/SC,-29.1553098,-49.5808712,1,9.10830
1,Balneário Piçarras/SC,-26.7638889,-48.6716667,6,25.92129
1,Balsa Nova/PR,-25.5842234,-49.6312741,5,38.63689
1,Balsas/MA,-7.53214,-46.037163,13,13.70051
1,Banabuiú/CE,-5.3046404,-38.919766,7,38.46788
1,Bandeirantes do Tocantins/TO,-7.7635698,-48.579148,1,28.14523
1,Bandeirantes/PR,-23.107788,-50.370407,3,9.56419
D1,Bandeirantes/PR,-23.107788,-50.370407,1,3.18806
1,Bannach/PA,-7.3508505,-50.4064531,3,91.29641
1,Baraúna/RN,-5.0775002,-37.61752,4,14.09741
1,Barbacena/MG,-21.2254524,-43.7735087,7,5.09784
1,Barbalha/CE,-7.3121067,-39.3036427,5,8.22625
1,Barcarena/PA,-1.5107945,-48.6190679,28,22.45749
D1,Barcarena/PA,-1.5107945,-48.6190679,1,0.80205
1,Barcelona/RN,-5.9514918,-35.9260284,1,25.01251
1,Barcelos/AM,-0.9729214,-62.925635,3,10.90830
D1,Barcelos/AM,-0.9729214,-62.925635,1,3.63610
1,Bariri/SP,-22.0746355,-48.7394852,1,2.83575
1,Barra Bonita/SP,-22.490859,-48.558349,8,22.14472
D1,Barra Bonita/SP,-22.490859,-48.558349,1,2.76809
1,Barra Mansa/RJ,-22.5394843,-44.1735129,34,18.43698
D1,Barra Mansa/RJ,-22.5394843,-44.1735129,1,0.54226
1,Barra Velha/SC,-26.6338203,-48.6835001,1,3.42841
1,Barra de Santo Antônio/AL,-9.4038098,-35.5117693,1,6.27668
1,Barra de São Francisco/ES,-18.7570902,-40.8916119,1,2.23964
1,Barra de São Miguel/AL,-9.8261357,-35.8837777,4,48.06537
1,Barra de São Miguel/PB,-7.7528088,-36.3170996,1,16.56726
1,Barra do Choça/BA,-14.8638173,-40.5761637,2,6.32851
1,Barra do Garças/MT,-15.8916033,-52.2615413,4,6.55609
D1,Barra do Garças/MT,-15.8916033,-52.2615413,1,1.63902
1,Barra do Piraí/RJ,-22.4703403,-43.8263256,19,18.92920
D1,Barra do Piraí/RJ,-22.4703403,-43.8263256,3,2.98882
1,Barra do Rocha/BA,-14.2090974,-39.6004395,3,52.50263
1,Barra do Turvo/SP,-24.756421,-48.5056942,1,13.05653
1,Barra dos Coqueiros/SE,-10.9075694,-37.0386249,11,36.17588
1,Barra/BA,-11.0892702,-43.1420453,2,3.73288
1,Barracão/PR,-26.252395,-53.6349576,1,9.73236
1,Barras/PI,-4.2446153,-42.2920241,3,6.37403
1,Barreira/CE,-4.2883361,-38.641094,1,4.45931
1,Barreiras/BA,-12.1440031,-44.9967406,1,0.64334
1,Barreirinhas/MA,-2.7541271,-42.8259693,6,9.59570
1,Barretos/SP,-20.5531437,-48.5697509,52,42.58874
D1,Barretos/SP,-20.5531437,-48.5697509,3,2.45704
1,Barro Alto/GO,-14.9696025,-48.9190985,1,8.95496
1,Barro Preto/BA,-14.8068289,-39.4727588,3,53.65766
1,Barroquinha/CE,-3.0200371,-41.1339229,2,13.31824
1,Barueri/SP,-23.5112184,-46.8764612,314,114.52247
D1,Barueri/SP,-23.5112184,-46.8764612,15,5.47082
1,Bataguassu/MS,-21.715899,-52.422058,2,8.68659
1,Batalha/AL,-9.6733809,-37.1265481,2,10.96972
1,Batatais/SP,-20.892867,-47.592149,2,3.19959
D1,Batatais/SP,-20.892867,-47.592149,1,1.59980
1,Batayporã/MS,-22.2976466,-53.2685608,6,52.96143
D1,Batayporã/MS,-22.2976466,-53.2685608,2,17.65381
1,Baturité/CE,-4.3290203,-38.8821055,7,19.58042
1,Bauru/SP,-22.3218102,-49.0705863,117,31.04947
D1,Bauru/SP,-22.3218102,-49.0705863,7,1.85766
1,Bayeux/PB,-7.1301631,-34.936532,39,40.25599
D1,Bayeux/PB,-7.1301631,-34.936532,3,3.09661
1,Baía Formosa/RN,-6.3691885,-35.0063741,1,10.78632
1,Bebedouro/SP,-20.949077,-48.479083,6,7.74234
1,Beberibe/CE,-4.1810469,-38.1298101,16,29.86579
1,Bela Cruz/CE,-3.0529129,-40.167582,16,49.09331
D1,Bela Cruz/CE,-3.0529129,-40.167582,1,3.06833
1,Bela Vista de Goiás/GO,-16.9692949,-48.9513071,3,10.00834
1,Bela Vista do Maranhão/MA,-3.7416367,-45.2514192,5,44.60701
1,Belford Roxo/RJ,-22.7667284,-43.4033603,178,34.84007
D1,Belford Roxo/RJ,-22.7667284,-43.4033603,10,1.95731
1,Belmiro Braga/MG,-21.9486291,-43.413564,2,58.32604
D1,Belmiro Braga/MG,-21.9486291,-43.413564,1,29.16302
1,Belmonte/BA,-15.8630837,-38.8792845,2,8.57339
D1,Belmonte/BA,-15.8630837,-38.8792845,1,4.28669
1,Belo Horizonte/MG,-19.9227318,-43.9450948,610,24.28276
D1,Belo Horizonte/MG,-19.9227318,-43.9450948,20,0.79616
1,Belo Jardim/PE,-8.3338293,-36.4176419,7,9.15763
D1,Belo Jardim/PE,-8.3338293,-36.4176419,1,1.30823
1,Belo Oriente/MG,-19.2232523,-42.4807033,1,3.74532
1,Belo Vale/MG,-20.407778,-44.024167,1,12.96176
D1,Belo Vale/MG,-20.407778,-44.024167,1,12.96176
1,Belém/PA,-1.45056,-48.4682453,1792,120.04730
D1,Belém/PA,-1.45056,-48.4682453,156,10.45055
1,Benevides/PA,-1.3555577,-48.252235,36,57.38241
D1,Benevides/PA,-1.3555577,-48.252235,5,7.96978
1,Benjamin Constant/AM,-4.3782748,-70.0290603,31,72.11986
D1,Benjamin Constant/AM,-4.3782748,-70.0290603,1,2.32645
1,Bento Fernandes/RN,-5.6926846,-35.8207423,2,36.38348
1,Bento Gonçalves/RS,-29.1654014,-51.5197627,64,53.13232
D1,Bento Gonçalves/RS,-29.1654014,-51.5197627,2,1.66038
1,Bequimão/MA,-2.4495376,-44.7884889,6,28.19549
1,Beruri/AM,-3.9007135,-61.3717319,11,55.89715
D1,Beruri/AM,-3.9007135,-61.3717319,1,5.08156
1,Betim/MG,-19.968056,-44.198333,18,4.09705
D1,Betim/MG,-19.968056,-44.198333,1,0.22761
1,Betânia do Piauí/PI,-8.1460635,-40.7961387,1,16.11604
1,Betânia/PE,-8.2742779,-38.0351767,4,31.44901
1,Bezerros/PE,-8.2372132,-35.7558262,1,1.64479
1,Bicas/MG,-21.7213723,-43.0604327,1,6.89941
1,Biguaçu/SC,-27.4961277,-48.6542432,8,11.68207
1,Bilac/SP,-21.403962,-50.47464,1,12.44710
1,Birigui/SP,-21.2908491,-50.34144,21,16.98507
1,Biritiba-Mirim/SP,-23.5697765,-46.0407456,8,24.54138
1,Blumenau/SC,-26.9195567,-49.0658025,194,54.31146
1,Boa Esperança/ES,-18.5395472,-40.2904088,1,6.65026
1,Boa Esperança/MG,-21.0901253,-45.5660195,9,22.42879
1,Boa Viagem/CE,-5.1261877,-39.7300055,1,1.83587
1,Boa Vista da Aparecida/PR,-25.4357216,-53.4067721,1,13.17349
1,Boa Vista do Sul/RS,-29.3510488,-51.6779679,1,35.93245
1,Boa Vista/RR,2.8208478,-60.6719582,462,115.72769
D1,Boa Vista/RR,2.8208478,-60.6719582,6,1.50296
1,Boca da Mata/AL,-9.6452054,-36.2116658,1,3.66555
1,Boca do Acre/AM,-8.7553487,-67.3930873,21,61.21021
1,Bocaina/SP,-22.1421831,-48.522276,3,24.33287
1,Boituva/SP,-23.2838893,-47.6738231,13,21.31252
1,Bom Conselho/PE,-9.169191,-36.685683,2,4.11913
D1,Bom Conselho/PE,-9.169191,-36.685683,1,2.05956
1,Bom Despacho/MG,-19.7375242,-45.2517288,1,1.97609
1,Bom Jardim/MA,-3.54129,-45.606004,2,4.80423
1,Bom Jardim/PE,-7.7961572,-35.5871696,10,25.52062
D1,Bom Jardim/PE,-7.7961572,-35.5871696,5,12.76031
1,Bom Jardim/RJ,-22.1515328,-42.4186683,8,29.14815
D1,Bom Jardim/RJ,-22.1515328,-42.4186683,1,3.64352
1,Bom Jesus de Goiás/GO,-18.2174587,-49.739721,3,11.89721
1,Bom Jesus do Itabapoana/RJ,-21.1341025,-41.680095,12,32.34850
D1,Bom Jesus do Itabapoana/RJ,-21.1341025,-41.680095,1,2.69571
1,Bom Jesus do Norte/ES,-21.1254776,-41.6711646,9,90.57971
1,Bom Jesus do Tocantins/PA,-5.0471796,-48.5978362,1,5.88893
1,Bom Jesus dos Perdões/SP,-23.1353864,-46.4648052,2,7.85916
1,Bom Jesus/PB,-6.8156725,-38.6551841,1,39.04725
1,Bom Jesus/PI,-9.0711644,-44.3583926,2,7.94313
1,Bom Lugar/MA,-4.3728019,-45.0366054,1,6.13723
1,Bom Princípio do Piauí/PI,-3.1912777,-41.6430185,1,17.76199
D1,Bom Princípio do Piauí/PI,-3.1912777,-41.6430185,1,17.76199
1,Bom Repouso/MG,-22.4657069,-46.1485376,2,18.96274
1,Bom Retiro do Sul/RS,-29.6000007,-51.9359243,6,48.66970
1,Bonfim do Piauí/PI,-9.1648678,-42.8734415,1,17.63668
1,Bonfim/MG,-20.3266626, -44.2386157,1,14.56028
D1,Bonfim/MG,-20.3266626, -44.2386157,1,14.56028
1,Bonfim/RR,3.3613818,-59.8427241,5,40.29334
1,Bonito/PA,-1.3605722,-47.3049907,3,18.42073
1,Bonito/PE,-8.4721161,-35.7314591,4,10.48933
D1,Bonito/PE,-8.4721161,-35.7314591,2,5.24466
1,Boqueirão/PB,-7.487004,-36.130887,1,5.61672
D1,Boqueirão/PB,-7.487004,-36.130887,1,5.61672
1,Borba/AM,-4.3934778,-59.5947721,6,14.57691
D1,Borba/AM,-4.3934778,-59.5947721,1,2.42948
1,Borborema/SP,-21.6212706,-49.074135,1,6.23208
1,Borda da Mata/MG,-22.274167,-46.165278,2,10.30291
1,Borebi/SP,-22.5700178,-48.9714871,3,113.07953
1,Botelhos/MG,-21.65,-46.394722,3,20.03874
1,Botucatu/SP,-22.8879628,-48.4410712,73,49.83037
D1,Botucatu/SP,-22.8879628,-48.4410712,4,2.73043
1,Botuverá/SC,-27.200749,-49.068892,4,76.24857
1,Bragança Paulista/SP,-22.9520235,-46.5418586,74,43.87317
D1,Bragança Paulista/SP,-22.9520235,-46.5418586,10,5.92881
1,Bragança/PA,-1.0573967,-46.7635406,42,32.89319
D1,Bragança/PA,-1.0573967,-46.7635406,4,3.13268
1,Branquinha/AL,-9.2478057,-36.0152009,1,9.52925
1,Brasília de Minas/MG,-16.2075114,-44.430559,6,18.54886
1,Brasília/DF,-15.7934036,-47.8823172,1571,52.10150
D1,Brasília/DF,-15.7934036,-47.8823172,30,0.99494
1,Braço do Norte/SC,-28.2728633,-49.1622712,92,275.03737
D1,Braço do Norte/SC,-28.2728633,-49.1622712,2,5.97907
1,Brejetuba/ES,-20.1465817,-41.2902303,1,8.06192
1,Brejinho/RN,-6.1957907,-35.3583019,1,7.87464
1,Brejo Santo/CE,-7.4909841,-38.9859152,3,6.06342
1,Brejo do Cruz/PB,-6.32926065,-37.48746163303929,1,7.08115
D1,Brejo do Cruz/PB,-6.32926065,-37.48746163303929,1,7.08115
1,Brejo/MA,-3.6804397,-42.7529313,2,5.49496
1,Breves/PA,-1.68036,-50.479085,42,40.89541
D1,Breves/PA,-1.68036,-50.479085,8,7.78960
1,Brodowski/SP,-20.984532,-47.657217,9,36.08805
1,Brumado/BA,-14.29507325,-41.659307508575985,8,11.90565
1,Brusque/SC,-27.0964628,-48.9136323,44,32.65961
1,Bueno Brandão/MG,-22.441976,-46.3517971,1,9.09008
1,Buerarema/BA,-14.9571177,-39.3008035,10,54.49888
1,Bujari/AC,-9.8309656,-67.9520886,2,19.48178
1,Bujaru/PA,-1.5169239,-48.0410699,8,27.46121
D1,Bujaru/PA,-1.5169239,-48.0410699,1,3.43265
1,Buritama/SP,-21.0664017,-50.1448077,5,29.16472
1,Buriti dos Lopes/PI,-3.1776723,-41.8707444,1,5.05536
D1,Buriti dos Lopes/PI,-3.1776723,-41.8707444,1,5.05536
1,Buriticupu/MA,-4.3227472,-46.4516989,1,1.38202
1,Buritis/RO,-10.2054937,-63.8281954,3,7.56544
0,CASO SEM LOCALIZAÇÃO DEFINIDA/AL,-9.931093434363673,-35.609611600637464,11,0.32960
D0,CASO SEM LOCALIZAÇÃO DEFINIDA/AL,-9.931093434363673,-35.609611600637464,2,0.05993
0,CASO SEM LOCALIZAÇÃO DEFINIDA/AM,-3.07518492149711,-60.16169212873594,339,8.17932
0,CASO SEM LOCALIZAÇÃO DEFINIDA/AP,2.677150600275196,-50.477785111870624,66,7.80390
0,CASO SEM LOCALIZAÇÃO DEFINIDA/BA,-13.415069300066518,-38.14174656569957,145,0.97492
D0,CASO SEM LOCALIZAÇÃO DEFINIDA/BA,-13.415069300066518,-38.14174656569957,1,0.00672
0,CASO SEM LOCALIZAÇÃO DEFINIDA/CE,-3.3445126297392798,-38.624961942434304,270,2.95661
D0,CASO SEM LOCALIZAÇÃO DEFINIDA/CE,-3.3445126297392798,-38.624961942434304,1,0.01095
0,CASO SEM LOCALIZAÇÃO DEFINIDA/ES,-20.30989267097039,-39.81745156645774,339,8.43567
D0,CASO SEM LOCALIZAÇÃO DEFINIDA/ES,-20.30989267097039,-39.81745156645774,4,0.09954
0,CASO SEM LOCALIZAÇÃO DEFINIDA/GO,-16.701590966270153,-49.164524059025034,38,0.54144
D0,CASO SEM LOCALIZAÇÃO DEFINIDA/GO,-16.701590966270153,-49.164524059025034,1,0.01425
0,CASO SEM LOCALIZAÇÃO DEFINIDA/MG,-19.97049116501593,-43.8852149072783,112,0.52908
0,CASO SEM LOCALIZAÇÃO DEFINIDA/MS,-20.391549234908513,-54.645156949758444,5,0.17992
0,CASO SEM LOCALIZAÇÃO DEFINIDA/MT,-15.54791153961863,-56.17143998972475,7,0.20089
D0,CASO SEM LOCALIZAÇÃO DEFINIDA/MT,-15.54791153961863,-56.17143998972475,1,0.02870
0,CASO SEM LOCALIZAÇÃO DEFINIDA/PA,-0.09317078214359542,-48.0050231510481,101,1.17403
0,CASO SEM LOCALIZAÇÃO DEFINIDA/PE,-8.121628543819208,-34.57313921302556,474,4.95968
D0,CASO SEM LOCALIZAÇÃO DEFINIDA/PE,-8.121628543819208,-34.57313921302556,39,0.40807
0,CASO SEM LOCALIZAÇÃO DEFINIDA/PR,-25.69415946385943,-48.10141676336737,17,0.14868
D0,CASO SEM LOCALIZAÇÃO DEFINIDA/PR,-25.69415946385943,-48.10141676336737,3,0.02624
0,CASO SEM LOCALIZAÇÃO DEFINIDA/RN,-5.749310788669161,-34.95302586257457,188,5.36093
D0,CASO SEM LOCALIZAÇÃO DEFINIDA/RN,-5.749310788669161,-34.95302586257457,1,0.02852
0,CASO SEM LOCALIZAÇÃO DEFINIDA/RO,-8.681174926655274,-63.9216949899276,87,4.89527
D0,CASO SEM LOCALIZAÇÃO DEFINIDA/RO,-8.681174926655274,-63.9216949899276,3,0.16880
0,CASO SEM LOCALIZAÇÃO DEFINIDA/RR,2.813328208465927,-60.663338675861986,149,24.59716
D0,CASO SEM LOCALIZAÇÃO DEFINIDA/RR,2.813328208465927,-60.663338675861986,1,0.16508
0,CASO SEM LOCALIZAÇÃO DEFINIDA/SC,-27.675643660562308,-48.18313219398259,42,0.58620
0,CASO SEM LOCALIZAÇÃO DEFINIDA/SE,-11.03002091978736,-36.89283180376513,64,2.78419
1,Caapiranga/AM,-3.3188884,-61.2096404,3,22.93403
1,Caaporã/PB,-7.510234,-34.9154114,3,13.74382
1,Cabedelo/PB,-6.97324,-34.8351609,29,42.81328
D1,Cabedelo/PB,-6.97324,-34.8351609,3,4.42896
1,Cabo Frio/RJ,-22.8804369,-42.0189227,49,21.63117
D1,Cabo Frio/RJ,-22.8804369,-42.0189227,3,1.32436
1,Cabo de Santo Agostinho/PE,-8.2838945,-35.0320984,81,39.12136
D1,Cabo de Santo Agostinho/PE,-8.2838945,-35.0320984,15,7.24470
1,Cabreúva/SP,-23.3075813,-47.1324417,3,6.03537
1,Cabrobó/PE,-8.5083701,-39.3106961,1,2.92218
1,Cachoeira Grande/MA,-2.9290492,-44.0573223,5,53.01665
D1,Cachoeira Grande/MA,-2.9290492,-44.0573223,2,21.20666
1,Cachoeira Paulista/SP,-22.666498,-45.015384,3,9.00171
1,Cachoeira do Arari/PA,-1.0143572,-48.9621089,8,33.66012
D1,Cachoeira do Arari/PA,-1.0143572,-48.9621089,2,8.41503
1,Cachoeira do Sul/RS,-30.0474778,-52.8905413,2,2.43306
1,Cachoeira/BA,-12.5998256,-38.9665918,1,2.98775
1,Cachoeiras de Macacu/RJ,-22.4626861,-42.6534414,18,30.54109
D1,Cachoeiras de Macacu/RJ,-22.4626861,-42.6534414,1,1.69673
1,Cachoeirinha/PE,-8.4906364,-36.2338963,8,39.25417
1,Cachoeirinha/RS,-29.9493353,-51.0898927,17,13.04752
1,Cachoeiro de Itapemirim/ES,-20.848084,-41.11129,11,5.26386
1,Cacoal/RO,-11.4333,-61.4420502,1,1.17152
1,Caconde/SP,-21.527995,-46.643659,1,5.26732
1,Caetanos/BA,-14.3387456,-40.9085971,1,6.87663
1,Caetanópolis/MG,-19.2947496,-44.4138386,1,8.60289
1,Caeté/MG,-19.897777,-43.670278,3,6.70871
1,Caetés/PE,-8.7728788,-36.6255835,3,10.43878
1,Caiabu/SP,-22.0143038,-51.2356597,1,23.86065
D1,Caiabu/SP,-22.0143038,-51.2356597,1,23.86065
1,Caicó/RN,-6.4594544,-37.0971911,1,1.47163
1,Caieiras/SP,-23.3644621,-46.7484765,99,97.56578
D1,Caieiras/SP,-23.3644621,-46.7484765,11,10.84064
1,Caiçara/PB,-6.6146866,-35.4681434,1,13.88696
1,Cajamar/SP,-23.3561111,-46.8769444,50,65.10332
D1,Cajamar/SP,-23.3561111,-46.8769444,7,9.11446
1,Cajapió/MA,-2.8778715,-44.6746871,1,8.94694
1,Cajati/SP,-24.7272376,-48.1077914,5,17.51375
1,Cajazeiras/PB,-6.8897849,-38.5570389,13,20.97011
D1,Cajazeiras/PB,-6.8897849,-38.5570389,1,1.61309
1,Cajobi/SP,-20.8776238,-48.8106972,1,9.48587
1,Cajuru/SP,-21.2759978,-47.3046035,2,7.64321
1,Caldas Novas/GO,-17.745,-48.625,1,1.09695
1,Caldeirão Grande/BA,-11.0208483,-40.3041387,2,15.00713
1,Calçoene/AP,2.4981757,-50.9539503,1,8.99523
1,Camacan/BA,-15.4166631,-39.4930088,5,15.63086
1,Camamu/BA,-13.9438142,-39.1060917,1,2.83158
1,Camanducaia/MG,-22.755278,-46.144444,2,9.18695
1,Camaquã/RS,-30.8524752,-51.8075619,1,1.50918
1,Camaragibe/PE,-8.0213832,-34.9810768,231,146.36186
D1,Camaragibe/PE,-8.0213832,-34.9810768,18,11.40482
1,Camaçari/BA,-12.6998188,-38.3260762,44,14.70923
D1,Camaçari/BA,-12.6998188,-38.3260762,1,0.33430
1,Camboriú/SC,-27.0273601,-48.6535657,67,80.73359
D1,Camboriú/SC,-27.0273601,-48.6535657,3,3.61494
1,Cambuquira/MG,-21.853056,-45.2953619,2,15.60793
1,Cambuí/MG,-22.6122501,-46.0572137,12,40.60776
1,Cambé/PR,-23.2782035,-51.2779583,7,6.57073
1,Cametá/PA,-2.242949,-49.497885,11,7.97737
D1,Cametá/PA,-2.242949,-49.497885,2,1.45043
1,Camocim de São Félix/PE,-8.3616757,-35.7638903,3,15.98721
1,Camocim/CE,-2.9009918,-40.8427389,1,1.57082
1,Campestre da Serra/RS,-28.7966535,-51.0958149,1,29.51594
1,Campestre de Goiás/GO,-16.7624179,-49.69497,1,27.54821
1,Campina Grande do Sul/PR,-25.3046032,-49.0545355,6,13.86065
D1,Campina Grande do Sul/PR,-25.3046032,-49.0545355,1,2.31011
1,Campina Grande/PB,-7.2246743,-35.8771292,53,12.93532
D1,Campina Grande/PB,-7.2246743,-35.8771292,2,0.48813
1,Campina da Lagoa/PR,-24.5937926,-52.8038965,1,7.04126
D1,Campina da Lagoa/PR,-24.5937926,-52.8038965,1,7.04126
1,Campinas do Sul/RS,-27.7167968,-52.6257885,1,18.33517
1,Campinas/SP,-22.90556,-47.06083,372,30.89514
D1,Campinas/SP,-22.90556,-47.06083,19,1.57798
1,Campinorte/GO,-14.3136699,-49.1510931,1,7.92016
1,Campo Alegre de Lourdes/BA,-9.5160326,-43.0101338,3,10.41739
1,Campo Alegre/AL,-9.7798607,-36.3575793,1,1.75245
1,Campo Belo/MG,-20.8975,-45.277223,3,5.55257
1,Campo Bom/RS,-29.674694,-51.060601,4,5.99592
1,Campo Formoso/BA,-10.51055,-40.320031,1,1.40438
1,Campo Grande/MS,-20.4640173,-54.6162947,134,14.95566
D1,Campo Grande/MS,-20.4640173,-54.6162947,2,0.22322
1,Campo Largo/PR,-25.4597726,-49.5270851,18,13.63616
D1,Campo Largo/PR,-25.4597726,-49.5270851,2,1.51513
1,Campo Limpo Paulista/SP,-23.207791,-46.788919,20,23.62670
D1,Campo Limpo Paulista/SP,-23.207791,-46.788919,2,2.36267
1,Campo Magro/PR,-25.3691533,-49.4496921,1,3.41087
1,Campo Maior/PI,-4.8339574,-42.1739786,7,14.94673
1,Campo Mourão/PR,-24.046329,-52.37802,41,43.22205
D1,Campo Mourão/PR,-24.046329,-52.37802,4,4.21678
1,Campo Novo do Parecis/MT,-13.658735,-57.890723,1,2.82805
1,Campo Redondo/RN,-6.2420373,-36.1830606,1,8.91504
1,Campo do Tenente/PR,-25.9814143,-49.684518,1,12.54548
1,Campos Altos/MG,-19.696389,-46.171389,1,6.46789
1,Campos Gerais/MG,-21.2333342,-45.7584127,1,3.47536
1,Campos Sales/CE,-7.0742675,-40.3740367,3,10.93853
1,Campos do Jordão/SP,-22.7395263,-45.5912829,3,5.75948
1,Campos dos Goytacazes/RJ,-21.7558619,-41.3326895,65,12.80667
D1,Campos dos Goytacazes/RJ,-21.7558619,-41.3326895,2,0.39405
1,Cananéia/SP,-25.0104609,-47.9315628,6,47.84689
D1,Cananéia/SP,-25.0104609,-47.9315628,1,7.97448
1,Canarana/BA,-11.6870151,-41.7683675,2,7.64059
1,Canarana/MT,-13.5564602,-52.2691167,2,9.26827
1,Canavieiras/BA,-15.61621745,-39.08485321304444,11,35.37091
1,Canaã dos Carajás/PA,-6.5296837,-49.8516592,4,10.78603
D1,Canaã dos Carajás/PA,-6.5296837,-49.8516592,1,2.69651
1,Candeias do Jamari/RO,-8.7949939,-63.7018851,3,11.23890
1,Candeias/BA,-12.6693806,-38.5406462,17,19.52318
1,Candelária/RS,-29.668391,-52.789495,2,6.37653
1,Candiota/RS,-31.5451894,-53.719538,1,10.43406
1,Canelinha/SC,-27.2660341,-48.7666708,1,8.16993
1,Canguaretama/RN,-6.3751942,-35.137463,14,40.84491
D1,Canguaretama/RN,-6.3751942,-35.137463,3,8.75248
1,Canguçu/RS,-31.398276,-52.6773522,2,3.56856
1,Canindé de São Francisco/SE,-9.6597475,-37.7904456,1,3.34448
1,Canindé/CE,-4.3547946,-39.3108516,24,31.17005
1,Canoas/RS,-29.9216045,-51.1799525,28,8.07810
D1,Canoas/RS,-29.9216045,-51.1799525,2,0.57701
1,Cansanção/BA,-10.6671448,-39.498199,1,2.87076
1,Cantagalo/RJ,-21.9811325,-42.3682522,1,4.95737
1,Cantanhede/MA,-3.6355005,-44.3778738,3,13.63946
1,Canto do Buriti/PI,-8.1112473,-42.944844,1,4.71988
D1,Canto do Buriti/PI,-8.1112473,-42.944844,1,4.71988
1,Cantá/RR,2.60994,-60.605827,5,27.27025
1,Canutama/AM,-6.5330019,-64.3834966,2,12.79672
1,Capanema/PA,-1.1933054,-47.1828679,33,47.80738
D1,Capanema/PA,-1.1933054,-47.1828679,3,4.34613
1,Capela do Alto/SP,-23.4704798,-47.7352309,2,9.65904
1,Capela/AL,-9.415041,-36.082583,2,11.72814
1,Capela/SE,-10.50494,-37.0552566,1,2.92287
1,Capim Grosso/BA,-11.3793228,-40.0112095,2,6.52273
D1,Capim Grosso/BA,-11.3793228,-40.0112095,1,3.26137
1,Capistrano/CE,-4.4644692,-38.8956734,4,22.55046
D1,Capistrano/CE,-4.4644692,-38.8956734,2,11.27523
1,Capitão Poço/PA,-1.7447162,-47.0638495,3,5.52456
1,Capitólio/MG,-20.6142437,-46.0487652,1,11.58480
D1,Capitólio/MG,-20.6142437,-46.0487652,1,11.58480
1,Capivari de Baixo/SC,-28.449773,-48.963144,9,36.18672
1,Capoeiras/PE,-8.7386788,-36.6268109,2,9.97606
1,Capão Bonito/SP,-24.0048759,-48.3489848,5,10.60715
D1,Capão Bonito/SP,-24.0048759,-48.3489848,1,2.12143
1,Capão da Canoa/RS,-29.7542937,-50.0215684,7,13.19535
1,Capão do Leão/RS,-31.766133,-52.5013148,1,3.94415
1,Caracaraí/RR,1.827598,-61.125389,1,4.56080
1,Caracol/PI,-9.2804898,-43.3284924,1,9.16086
1,Caraguatatuba/SP,-23.62028,-45.41306,33,27.15334
D1,Caraguatatuba/SP,-23.62028,-45.41306,4,3.29131
1,Carangola/MG,-20.733056,-42.029445,1,3.03030
1,Carapebus/RJ,-22.1869969,-41.6633764,5,30.67296
1,Carapicuíba/SP,-23.5234673,-46.8406808,240,59.86127
D1,Carapicuíba/SP,-23.5234673,-46.8406808,11,2.74364
1,Carauari/AM,-4.8766426,-66.8961433,67,236.79932
D1,Carauari/AM,-4.8766426,-66.8961433,1,3.53432
1,Carazinho/RS,-28.2981634,-52.7942363,14,22.54065
1,Caraúbas/RN,-5.7889323,-37.5548751,2,9.75943
1,Careiro da Várzea/AM,-3.197024,-59.8259104,15,49.62779
1,Careiro/AM,-3.8185277,-60.3616505,98,258.78687
D1,Careiro/AM,-3.8185277,-60.3616505,3,7.92205
1,Cariacica/ES,-20.263202,-40.416549,316,82.87764
D1,Cariacica/ES,-20.263202,-40.416549,9,2.36044
1,Caridade/CE,-4.2316487,-39.1946515,6,26.61108
D1,Caridade/CE,-4.2316487,-39.1946515,1,4.43518
1,Carira/SE,-10.358303,-37.701473,1,4.52858
1,Cariri do Tocantins/TO,-11.8882727,-49.1604216,2,45.64126
1,Caririaçu/CE,-7.0417053,-39.2835527,1,3.70851
1,Cariré/CE,-3.948584,-40.476028,5,27.10321
1,Cariús/CE,-6.5348688,-39.4966658,1,5.34788
D1,Cariús/CE,-6.5348688,-39.4966658,1,5.34788
1,Carlos Barbosa/RS,-29.2978372,-51.5005613,18,60.33587
1,Carlos Chagas/MG,-21.744351,-43.3908675,1,5.30870
1,Carlópolis/PR,-23.4224762,-49.7194008,1,6.98324
1,Carmo da Cachoeira/MG,-21.460556,-45.223334,1,8.21693
1,Carmo do Cajuru/MG,-20.184444,-44.770834,4,17.79518
1,Carmo do Rio Verde/GO,-15.3549139,-49.707975,3,29.75600
1,Carnaubais/RN,-5.3383681,-36.8335566,1,9.29454
1,Carnaubal/CE,-4.1611842,-40.9412317,1,5.67988
1,Carnaubeira da Penha/PE,-8.3192809,-38.7435891,1,7.73276
1,Carnaíba/PE,-7.805964,-37.7947314,2,10.22966
D1,Carnaíba/PE,-7.805964,-37.7947314,2,10.22966
1,Carnaúba dos Dantas/RN,-6.5560588,-36.5930811,1,12.22494
D1,Carnaúba dos Dantas/RN,-6.5560588,-36.5930811,1,12.22494
1,Caroebe/RR,0.8812315,-59.6932274,2,19.66762
1,Carpina/PE,-7.8459151,-35.2538861,13,15.54262
D1,Carpina/PE,-7.8459151,-35.2538861,1,1.19559
1,Caruaru/PE,-8.2829702,-35.9722852,27,7.47678
D1,Caruaru/PE,-8.2829702,-35.9722852,3,0.83075
1,Cascavel/CE,-4.129666,-38.241178,23,32.05888
D1,Cascavel/CE,-4.129666,-38.241178,2,2.78773
1,Cascavel/PR,-24.9554996,-53.4560544,85,25.87881
D1,Cascavel/PR,-24.9554996,-53.4560544,4,1.21783
1,Casimiro de Abreu/RJ,-22.4809932,-42.2039976,23,52.05504
1,Casserengue/PB,-6.779538,-35.817875,1,13.39047
1,Castanhal/PA,-1.2927031,-47.9223903,102,50.79858
D1,Castanhal/PA,-1.2927031,-47.9223903,7,3.48618
1,Castelo do Piauí/PI,-5.3230426,-41.5546185,3,15.21607
1,Castelo/ES,-20.6034476,-41.2033505,5,13.32126
1,Castilho/SP,-20.8695636,-51.4877792,2,9.52109
1,Castro Alves/BA,-12.7616941,-39.4281088,1,3.80749
1,Castro/PR,-24.794072,-49.9972914,2,2.79783
1,Cataguases/MG,-21.387426,-42.6957219,4,5.32460
D1,Cataguases/MG,-21.387426,-42.6957219,1,1.33115
1,Catalão/GO,-18.1702546,-47.9447082,1,0.91892
1,Catanduva/SP,-21.1331035,-48.9712817,17,13.95021
D1,Catanduva/SP,-21.1331035,-48.9712817,3,2.46180
1,Catanduvas/SC,-27.0689719,-51.660158,6,55.24353
1,Catarina/CE,-6.1341578,-39.8795321,1,4.83138
1,Catende/PE,-8.6900588,-35.748470825,4,9.32575
D1,Catende/PE,-8.6900588,-35.748470825,1,2.33144
1,Catingueira/PB,-7.120081,-37.60638,1,20.27575
1,Catu/BA,-12.351274,-38.379108,5,9.14010
D1,Catu/BA,-12.351274,-38.379108,1,1.82802
1,Catuji/MG,-17.3024568,-41.5168387,3,47.53605
1,Caucaia/CE,-3.7300563,-38.6593082,301,83.28722
D1,Caucaia/CE,-3.7300563,-38.6593082,15,4.15053
1,Caxias do Sul/RS,-29.1684796,-51.1793861,53,10.37373
1,Caxias/MA,-4.8654201,-43.353664,26,15.76904
1,Caçador/SC,-26.77567,-51.0120041,10,12.72346
1,Caçapava/SP,-23.099204,-45.707645,11,11.66948
1,Ceará-Mirim/RN,-5.633588,-35.4248407,12,16.32720
D1,Ceará-Mirim/RN,-5.633588,-35.4248407,2,2.72120
1,Cedral/SP,-20.9028433,-49.2699665,1,10.82603
1,Cedro/PE,-7.7186318,-39.2363385,1,8.46955
1,Centralina/MG,-18.5843349,-49.1954739,1,9.66184
D1,Centralina/MG,-18.5843349,-49.1954739,1,9.66184
1,Centro Novo do Maranhão/MA,-2.1361032,-46.1248528,2,9.24984
D1,Centro Novo do Maranhão/MA,-2.1361032,-46.1248528,1,4.62492
1,Ceres/GO,-15.3103568,-49.6032054,4,18.02533
1,Cerro Corá/RN,-6.0412685,-36.3464694,1,8.94534
D1,Cerro Corá/RN,-6.0412685,-36.3464694,1,8.94534
1,Cerro Grande do Sul/RS,-30.5962963,-51.7517196,1,8.17060
1,Chapada/RS,-28.0587829,-53.0657459,2,21.57730
1,Chapadinha/MA,-3.7416803,-43.3548006,32,40.16316
1,Chapadão do Sul/MS,-18.7949051,-52.6199512,9,35.68879
1,Chapecó/SC,-27.0922364,-52.6166878,54,24.50458
1,Charqueada/SP,-22.50958,-47.775468,4,23.26934
D1,Charqueada/SP,-22.50958,-47.775468,1,5.81734
1,Charqueadas/RS,-29.955012,-51.6249195,2,4.90328
1,Chavantes/SP,-23.0406405,-49.7071698,1,8.05283
1,Chopinzinho/PR,-25.8566167,-52.5294107,1,5.19373
1,Chorozinho/CE,-4.3010895,-38.4976923,6,29.60916
1,Choró/CE,-4.8435726,-39.1393071,3,22.18771
1,Chã Grande/PE,-8.238271,-35.457148,18,82.95695
1,Chã de Alegria/PE,-7.9959409,-35.2134636,11,81.37298
D1,Chã de Alegria/PE,-7.9959409,-35.2134636,1,7.39754
1,Cianorte/PR,-23.662036,-52.6103989,21,25.41757
D1,Cianorte/PR,-23.662036,-52.6103989,1,1.21036
1,Cidade Ocidental/GO,-16.1000758,-47.9445014,6,8.40619
1,Cidreira/RS,-30.1657063,-50.218331,2,12.30466
D1,Cidreira/RS,-30.1657063,-50.218331,1,6.15233
1,Ciríaco/RS,-28.3429139,-51.8763682,1,21.06594
1,Coaraci/BA,-14.6407979,-39.5496765,13,76.50209
1,Coari/AM,-4.0885957,-63.1431166,105,123.38860
D1,Coari/AM,-4.0885957,-63.1431166,8,9.40104
1,Cocal do Sul/SC,-28.6007346,-49.3248697,2,11.98753
D1,Cocal do Sul/SC,-28.6007346,-49.3248697,1,5.99377
1,Codajás/AM,-3.8413202,-62.0603444,4,13.96794
1,Codó/MA,-4.455623,-43.892354,5,4.06971
1,Coelho Neto/MA,-4.2535154,-43.0149321,4,8.09143
1,Colares/PA,-0.936423,-48.280254,2,16.54944
D1,Colares/PA,-0.936423,-48.280254,1,8.27472
1,Colatina/ES,-19.5346732,-40.6287836,25,20.40833
1,Colina/SP,-20.711443,-48.53867,1,5.41477
1,Colinas do Tocantins/TO,-8.0612688,-48.4716768,2,5.64589
1,Colinas/MA,-6.0332631,-44.2528542,11,26.71329
1,Colinas/RS,-29.3866023,-51.8697911,2,82.03445
1,Colombo/PR,-25.2925439,-49.2243472,13,5.33386
1,Colônia Leopoldina/AL,-8.918058,-35.721414,1,4.60872
1,Colônia do Gurguéia/PI,-8.183697,-43.793999,2,30.84516
1,Conceição das Alagoas/MG,-19.9194009,-48.3803414,2,7.17026
1,Conceição de Macabu/RJ,-22.0849986,-41.8679947,2,8.61030
1,Conceição do Araguaia/PA,-8.2696905,-49.2676864,2,4.17851
1,Conceição do Coité/BA,-11.5629384,-39.2839543,2,3.00246
1,Conceição do Jacuípe/BA,-12.326831,-38.768433,1,3.01632
1,Conceição do Lago-Açu/MA,-3.8410056,-44.8930565,2,12.31755
1,Conchal/SP,-22.337512,-47.172927,1,3.56506
1,Conchas/SP,-23.0133538,-48.0077595,1,5.58784
D1,Conchas/SP,-23.0133538,-48.0077595,1,5.58784
1,Concórdia do Pará/PA,-1.9924056,-47.9450474,4,12.00552
1,Concórdia/SC,-27.2312011,-52.0231024,74,99.14122
D1,Concórdia/SC,-27.2312011,-52.0231024,1,1.33975
1,Condado/PE,-7.587868,-35.09994,8,30.27894
1,Conde/BA,-11.8129758,-37.6138705,1,3.87042
1,Conde/PB,-7.2600359,-34.9053524,16,64.85610
D1,Conde/PB,-7.2600359,-34.9053524,1,4.05351
1,Confresa/MT,-10.643695,-51.569873,3,9.69838
1,Congo/PB,-7.80963435,-36.641233278035656,1,20.89427
1,Conquista D'Oeste/MT,-14.5381171,-59.5443775,1,24.76474
1,Conselheiro Lafaiete/MG,-20.6596107,-43.785743,14,10.88740
1,Contagem/MG,-19.9132749,-44.0840953,56,8.43558
D1,Contagem/MG,-19.9132749,-44.0840953,3,0.45191
1,Contenda/PR,-25.678811,-49.535044,1,5.38097
1,Coração de Maria/BA,-12.2484345,-38.7499274,1,4.42380
1,Cordeiro/RJ,-22.0287681,-42.3607442,1,4.56080
1,Cordeirópolis/SP,-22.4768324,-47.4550551,1,4.07697
1,Coreaú/CE,-3.5519794,-40.6528409,13,56.18949
1,Coremas/PB,-7.0175897,-37.9465062,1,6.47459
1,Cornélio Procópio/PR,-23.1825218,-50.6499263,1,2.09008
1,Coroados/SP,-21.3554634,-50.2853589,1,16.50710
1,Coromandel/MG,-18.473889,-47.200278,7,25.02324
1,Coronel Bicaco/RS,-27.7174002,-53.705821,1,13.65188
1,Coronel Fabriciano/MG,-19.5200067,-42.6282686,6,5.46175
1,Coronel João Pessoa/RN,-6.2607103,-38.4424915,1,20.35831
1,Correntes/PE,-9.1295585,-36.3287438,2,10.98479
1,Cortês/PE,-8.4724921,-35.5431197,1,7.95039
1,Corumbá/MS,-19.0016365,-57.6534316,5,4.48692
1,Coruripe/AL,-10.1249963,-36.1760623,2,3.51290
1,Cosmorama/SP,-20.475472,-49.782747,2,27.37101
1,Cosmópolis/SP,-22.6437398,-47.1972086,1,1.38404
1,Cotia/SP,-23.603889,-46.918889,181,72.62951
D1,Cotia/SP,-23.603889,-46.918889,19,7.62409
1,Couto Magalhães/TO,-8.360583,-49.1773955,4,71.58196
1,Coxim/MS,-18.504915,-54.7450251,1,2.98125
1,Coxixola/PB,-7.6272915,-36.606013,2,104.11244
1,Crateús/CE,-5.1782451,-40.6696545,16,21.31231
D1,Crateús/CE,-5.1782451,-40.6696545,2,2.66404
1,Crato/CE,-7.2369112,-39.4149236,8,6.05496
1,Cravinhos/SP,-21.340278,-47.729444,8,22.66803
D1,Cravinhos/SP,-21.340278,-47.729444,1,2.83350
1,Cravolândia/BA,-13.3576247,-39.8153954,2,37.39017
1,Criciúma/SC,-28.6789941,-49.3695627,121,56.23042
D1,Criciúma/SC,-28.6789941,-49.3695627,4,1.85886
1,Cristinápolis/SE,-11.4757019,-37.7555212,1,5.59472
1,Croatá/CE,-4.4156199,-40.9048081,1,5.53618
1,Cruz Alta/RS,-28.645056,-53.6058047,1,1.65840
1,Cruz das Almas/BA,-12.6722649,-39.1053665,4,6.32521
1,Cruz do Espírito Santo/PB,-7.139022,-35.085721,3,17.32202
1,Cruz/CE,-2.918128,-40.175981,3,12.08362
1,Cruzeiro do Sul/AC,-7.6307956,-72.6703869,12,13.57835
1,Cruzeiro do Sul/PR,-22.9623678,-52.1625688,5,111.88185
1,Cruzeiro do Sul/RS,-29.5139742,-51.9917068,4,32.39391
1,Cruzeiro/SP,-22.5783685,-44.9642044,6,7.29590
D1,Cruzeiro/SP,-22.5783685,-44.9642044,2,2.43197
1,Cubatão/SP,-23.8857982,-46.4241869,39,29.83819
1,Cuiabá/MT,-15.5986686,-56.0991301,138,22.52888
D1,Cuiabá/MT,-15.5986686,-56.0991301,1,0.16325
1,Cujubim/RO,-9.3687919,-62.5832107,1,3.96589
D1,Cujubim/RO,-9.3687919,-62.5832107,1,3.96589
1,Cumaru/PE,-8.0065285,-35.6991651,1,9.16926
1,Cupira/PE,-8.6053148,-35.9530366,2,8.29635
1,Curaçá/BA,-8.9925655,-39.9053169,12,34.58213
1,Curionópolis/PA,-6.0990443,-49.6059039,1,5.57756
D1,Curionópolis/PA,-6.0990443,-49.6059039,1,5.57756
1,Curitiba/PR,-25.4295963,-49.2712724,453,23.43380
D1,Curitiba/PR,-25.4295963,-49.2712724,23,1.18980
1,Currais Novos/RN,-6.2626676,-36.5173039,8,17.86272
1,Curralinho/PA,-1.8137876,-49.7980165,5,14.51463
1,Cururupu/MA,-1.824255,-44.872996,4,12.23429
D1,Cururupu/MA,-1.824255,-44.872996,1,3.05857
1,Curuçá/PA,-0.7276792,-47.856568,11,27.45470
1,Curvelo/MG,-18.7571926,-44.4305993,1,1.24799
1,Curvelândia/MT,-15.6108629,-57.9188924,1,19.16076
1,Custódia/PE,-8.0861426,-37.6401873,4,10.77848
D1,Custódia/PE,-8.0861426,-37.6401873,2,5.38924
1,Cáceres/MT,-16.0658939,-57.6852775,8,8.47673
D1,Cáceres/MT,-16.0658939,-57.6852775,1,1.05959
1,Céu Azul/PR,-25.1484973,-53.8494214,4,33.99915
1,Davinópolis/MA,-5.5265775,-47.3942217,2,15.49427
D1,Davinópolis/MA,-5.5265775,-47.3942217,1,7.74713
1,Delmiro Gouveia/AL,-9.3841161,-37.997756,1,1.92249
1,Demerval Lobão/PI,-5.3640643,-42.673993,4,28.94984
1,Deputado Irapuan Pinheiro/CE,-5.9173532,-39.2672104,2,20.77922
1,Derrubadas/RS,-27.2657279,-53.8618488,1,35.65062
1,Diadema/SP,-23.681347,-46.62052,316,74.54870
D1,Diadema/SP,-23.681347,-46.62052,23,5.42601
1,Dianópolis/TO,-11.624008,-46.819787,1,4.51692
1,Dias d'Ávila/BA,-12.6107233,-38.3028518,7,8.63249
1,Divinésia/MG,-20.990277,-43.003889,1,29.26544
1,Divinópolis/MG,-20.1434559,-44.89125,75,31.48218
D1,Divinópolis/MG,-20.1434559,-44.89125,1,0.41976
1,Divisa Nova/MG,-21.5126801,-46.1926626,1,16.63617
1,Dobrada/SP,-21.5180904,-48.3938897,1,11.19946
1,Dois Irmãos/RS,-29.58356,-51.089776,3,9.18246
1,Dois Vizinhos/PR,-25.7464681,-53.0554369,1,2.46057
1,Dom Eliseu/PA,-4.2928111,-47.5559083,1,1.67451
1,Dom Pedrito/RS,-30.983755,-54.6746483,2,5.20007
D1,Dom Pedrito/RS,-30.983755,-54.6746483,1,2.60004
1,Domingos Martins/ES,-20.3646483,-40.6585797,18,53.17578
1,Dourados/MS,-22.2206145,-54.812208,13,5.83093
D1,Dourados/MS,-22.2206145,-54.812208,1,0.44853
1,Dracena/SP,-21.4835523,-51.5334408,8,17.09657
D1,Dracena/SP,-21.4835523,-51.5334408,2,4.27414
1,Duartina/SP,-22.414562,-49.408355,1,8.03536
1,Duque Bacelar/MA,-4.1542795,-42.946096,1,8.81135
1,Duque de Caxias/RJ,-22.7896225,-43.309929,437,47.52087
D1,Duque de Caxias/RJ,-22.7896225,-43.309929,81,8.80822
1,Dário Meira/BA,-14.4332181,-39.9028712,2,18.67414
1,Eirunepé/AM,-6.6567654,-69.866161,1,2.83503
1,Eldorado do Sul/RS,-29.9984639,-51.3091977,3,7.26656
1,Eldorado/SP,-24.522583,-48.1093489,2,12.90822
D1,Eldorado/SP,-24.522583,-48.1093489,1,6.45411
1,Elesbão Veloso/PI,-6.2032654,-42.1376937,1,6.84838
1,Elias Fausto/SP,-23.0416538,-47.3718002,1,5.62683
1,Embu das Artes/SP,-23.6495294,-46.8528497,126,46.03143
D1,Embu das Artes/SP,-23.6495294,-46.8528497,13,4.74927
1,Embu-Guaçu/SP,-23.8317997,-46.8156204,33,47.56071
D1,Embu-Guaçu/SP,-23.8317997,-46.8156204,4,5.76493
1,Encantado/RS,-29.2392716,-51.8744817,8,35.23298
1,Encanto/RN,-6.1107477,-38.3050953,10,177.36786
D1,Encanto/RN,-6.1107477,-38.3050953,1,17.73679
1,Encruzilhada do Sul/RS,-30.53619325,-52.51564721101029,2,7.72887
D1,Encruzilhada do Sul/RS,-30.53619325,-52.51564721101029,1,3.86444
1,Engenheiro Coelho/SP,-22.4896659,-47.2119005,8,38.51153
1,Erechim/RS,-27.6350143,-52.2737288,8,7.55701
1,Ererê/CE,-6.0311304,-38.3482173,2,27.78550
1,Ernestina/RS,-28.498434,-52.5702451,1,31.56566
1,Escada/PE,-8.3594071,-35.2232683,7,10.16334
1,Esmeraldas/MG,-19.7613111,-44.3145945,1,1.41739
1,Espera Feliz/MG,-20.6494192,-41.9080693,5,20.03928
1,Esperantina/PI,-3.8950963,-42.2370595,15,37.74819
1,Esperantinópolis/MA,-4.8751875,-44.8801032,1,5.80013
D1,Esperantinópolis/MA,-4.8751875,-44.8801032,1,5.80013
1,Esperança/PB,-7.018517,-35.852193,2,6.05932
1,Espinosa/MG,-14.9232007,-42.8093337,1,3.16286
D1,Espinosa/MG,-14.9232007,-42.8093337,1,3.16286
1,Espumoso/RS,-28.7256962,-52.8453751,4,25.66076
1,Espírito Santo do Dourado/MG,-22.046666,-45.950833,1,21.31287
1,Espírito Santo do Pinhal/SP,-22.190871,-46.74767,1,2.25581
1,Esteio/RS,-29.8511627,-51.1778852,13,15.62462
1,Estiva Gerbi/SP,-22.2754831,-46.9525448,1,8.84643
1,Estiva/MG,-22.4638686,-46.0182101,2,17.61494
1,Estreito/MA,-6.5583016,-47.4432212,5,11.92009
1,Estrela d'Oeste/SP,-20.2860692,-50.3986216,1,11.87790
1,Estrela/RS,-29.5010545,-51.962226,14,41.03646
D1,Estrela/RS,-29.5010545,-51.962226,1,2.93118
1,Estância Velha/RS,-29.6529666,-51.1719687,5,9.99560
1,Estância/SE,-11.2682255,-37.4378341,32,46.25347
1,Euclides da Cunha/BA,-10.5060835,-39.0129875,1,1.65057
1,Eunápolis/BA,-16.3722412,-39.575704,20,17.63980
1,Eusébio/CE,-3.8889838,-38.4546585,77,143.60849
D1,Eusébio/CE,-3.8889838,-38.4546585,7,13.05532
1,Extrema/MG,-22.8549109,-46.3190079,27,74.53416
D1,Extrema/MG,-22.8549109,-46.3190079,1,2.76052
1,Extremoz/RN,-5.7092903,-35.3058914,15,52.47875
1,Faina/GO,-15.4458005,-50.3633826,1,15.08978
1,Faria Lemos/MG,-20.8051202,-42.0127393,1,30.85467
1,Farias Brito/CE,-6.9272823,-39.5714222,1,5.14139
D1,Farias Brito/CE,-6.9272823,-39.5714222,1,5.14139
1,Farroupilha/RS,-29.22647,-51.3468188,15,20.73800
1,Fartura do Piauí/PI,-9.4839171,-42.7906894,2,37.68607
1,Fartura/SP,-23.390039,-49.5109023,6,37.41581
1,Faxinal dos Guedes/SC,-26.8476897,-52.2604154,2,18.74941
1,Faxinal/PR,-24.001065,-51.3223237,1,5.79677
1,Fazenda Rio Grande/PR,-25.645841,-49.3126653,21,20.95620
D1,Fazenda Rio Grande/PR,-25.645841,-49.3126653,1,0.99791
1,Feira Nova/PE,-7.9481471,-35.3871681,4,18.07419
1,Feira de Santana/BA,-12.2578934,-38.9598047,87,14.14929
D1,Feira de Santana/BA,-12.2578934,-38.9598047,1,0.16264
1,Feliz/RS,-29.4508908,-51.307713,2,14.76342
1,Fernando Pedroza/RN,-5.6972558,-36.5316864,1,32.74394
1,Fernando de Noronha/PE,-3.8561012,-32.4248189,28,914.73375
1,Fernandópolis/SP,-20.2825647,-50.2500762,10,14.46843
1,Ferraz de Vasconcelos/SP,-23.541056,-46.37097,98,50.44370
D1,Ferraz de Vasconcelos/SP,-23.541056,-46.37097,6,3.08839
1,Ferreiros/PE,-7.449667,-35.2426004,2,16.49757
1,Ferros/MG,-19.234984,-43.019542,5,50.91650
1,Flores da Cunha/RS,-29.030129,-51.1833349,1,3.25256
1,Flores/PE,-7.862025,-37.9742806,1,4.42008
1,Floresta Azul/BA,-14.8602238,-39.6561384,2,18.81645
1,Floresta/PR,-23.6144046,-52.0819003,2,29.52465
1,Floriano Peixoto/RS,-27.8603248,-52.0856015,1,56.62514
1,Floriano/PI,-6.7726534,-43.0070616,7,11.67932
1,Florianópolis/SC,-27.5973002,-48.5496098,320,63.87570
D1,Florianópolis/SC,-27.5973002,-48.5496098,5,0.99806
1,Fonte Boa/AM,-2.55,-66.91321428571428,5,28.39457
1,Formiga/MG,-20.4648425,-45.4266753,2,2.95495
1,Formosa/GO,-15.5492443,-47.3301212,4,3.28901
1,Forquilha/CE,-3.799447,-40.263405,2,8.25832
1,Forquilhinha/SC,-28.7487602,-49.4737661,1,3.73232
1,Fortaleza/CE,-3.7304512,-38.5217989,6082,227.84641
D1,Fortaleza/CE,-3.7304512,-38.5217989,413,15.47198
1,Fortim/CE,-4.451256,-37.798056,1,6.06796
1,Foz do Iguaçu/PR,-25.5401479,-54.5858139,48,18.56637
D1,Foz do Iguaçu/PR,-25.5401479,-54.5858139,2,0.77360
1,Fraiburgo/SC,-27.023288,-50.919978,2,5.48802
1,Franca/SP,-20.5381768,-47.4009795,22,6.22899
D1,Franca/SP,-20.5381768,-47.4009795,1,0.28314
1,Francinópolis/PI,-6.3962771,-42.2635654,2,37.39716
1,Francisco Ayres/PI,-6.6217571,-42.6941944,1,22.99908
1,Francisco Beltrão/PR,-26.0790979,-53.0533527,5,5.48890
1,Francisco Morato/SP,-23.2817308,-46.7448996,87,49.47567
D1,Francisco Morato/SP,-23.2817308,-46.7448996,6,3.41212
1,Franco da Rocha/SP,-23.3328038,-46.724446,144,93.21052
D1,Franco da Rocha/SP,-23.3328038,-46.724446,13,8.41484
1,Frecheirinha/CE,-3.755572,-40.818019,2,14.21262
1,Frei Miguelinho/PE,-7.9433019,-35.920939,6,38.81736
D1,Frei Miguelinho/PE,-7.9433019,-35.920939,2,12.93912
1,Frutal/MG,-20.0220064,-48.9280076,5,8.40393
1,Fundão/ES,-19.9332174,-40.4049674,23,106.93198
D1,Fundão/ES,-19.9332174,-40.4049674,1,4.64922
1,Gameleira/PE,-8.579803,-35.384573,1,3.22040
D1,Gameleira/PE,-8.579803,-35.384573,1,3.22040
1,Gandu/BA,-13.7448138,-39.4844732,2,6.17227
1,Garanhuns/PE,-8.8905889,-36.4930896,12,8.58443
D1,Garanhuns/PE,-8.8905889,-36.4930896,3,2.14611
1,Garibaldi/RS,-29.2562253,-51.5269167,23,65.58312
D1,Garibaldi/RS,-29.2562253,-51.5269167,1,2.85144
1,Garopaba/SC,-28.0274798,-48.6240197,2,8.66626
1,Garrafão do Norte/PA,-1.9282256,-47.0513157,4,15.34566
1,Garuva/SC,-26.0294904,-48.8545202,1,5.51116
1,Garça/SP,-22.2125766,-49.6547994,4,9.01104
1,Gaspar/SC,-26.9307306,-48.9566824,20,28.71954
D1,Gaspar/SC,-26.9307306,-48.9566824,1,1.43598
1,General Sampaio/CE,-4.0503563,-39.4484058,2,26.25361
1,Getúlio Vargas/RS,-27.8871493,-52.2257967,1,6.16827
1,Glorinha/RS,-29.8790534,-50.7869437,1,12.34873
1,Glória do Goitá/PE,-7.999959,-35.2866116,14,45.74565
D1,Glória do Goitá/PE,-7.999959,-35.2866116,4,13.07019
1,Goiana/PE,-7.560603,-34.99591,28,35.10620
D1,Goiana/PE,-7.560603,-34.99591,6,7.52276
1,Goiandira/GO,-18.1357087,-48.0866307,3,53.57143
D1,Goiandira/GO,-18.1357087,-48.0866307,1,17.85714
1,Goianira/GO,-16.5001973,-49.4254788,1,2.25790
1,Goianá/MG,-21.5375,-43.2014,2,50.42864
1,Goianésia do Pará/PA,-3.8380998,-49.0977992,4,9.88264
1,Goianésia/GO,-15.3118269,-49.1162001,28,39.95206
D1,Goianésia/GO,-15.3118269,-49.1162001,3,4.28058
1,Goiatuba/GO,-18.0154577,-49.3640591,2,5.86596
1,Goioerê/PR,-24.1851885,-53.0250623,4,13.84850
1,Goiânia/GO,-16.680882,-49.2532691,457,30.14287
D1,Goiânia/GO,-16.680882,-49.2532691,12,0.79150
1,Gongogi/BA,-14.3240248,-39.4665106,4,56.11672
D1,Gongogi/BA,-14.3240248,-39.4665106,2,28.05836
1,Governador Celso Ramos/SC,-27.317161,-48.557608,5,34.55186
1,Governador Edison Lobão/MA,-5.7456705,-47.363091,1,5.46568
1,Governador Jorge Teixeira/RO,-10.6140224,-62.7326412,3,38.62495
1,Governador Newton Bello/MA,-3.4285914,-45.6714297,1,9.82318
1,Governador Nunes Freire/MA,-2.1303959,-45.8900498,2,7.81953
1,Governador Valadares/MG,-18.8539497,-41.9458753,25,8.93224
D1,Governador Valadares/MG,-18.8539497,-41.9458753,3,1.07187
1,Granito/PE,-7.7145682,-39.6164505,1,13.35827
1,Granja/CE,-3.1212057,-40.8284124,5,9.13275
1,Gravatal/SC,-28.3300703,-49.0362296,17,147.81323
1,Gravataí/RS,-29.9440222,-50.9930938,21,7.45953
D1,Gravataí/RS,-29.9440222,-50.9930938,1,0.35522
1,Gravatá/PE,-8.1993049,-35.5631137,10,11.89428
1,Graça/CE,-4.0453849,-40.7527195,5,34.72463
1,Groaíras/CE,-3.9157768,-40.3855093,7,63.24539
1,Guabiruba/SC,-27.0864326,-48.9781319,4,16.78416
1,Guairaçá/PR,-22.9352304,-52.6865101,3,45.58578
D1,Guairaçá/PR,-22.9352304,-52.6865101,1,15.19526
1,Guaiúba/CE,-4.0412656,-38.6369079,4,15.34684
1,Guajará-Mirim/RO,-10.7804239,-65.3327825,4,8.66288
D1,Guajará-Mirim/RO,-10.7804239,-65.3327825,1,2.16572
1,Guamaré/RN,-5.1075294,-36.3196635,4,25.54442
1,Guapimirim/RJ,-22.5266308,-42.9790687,11,18.17671
D1,Guapimirim/RJ,-22.5266308,-42.9790687,2,3.30486
1,Guapó/GO,-16.8308602,-49.5343721,1,7.03779
1,Guarabira/PB,-6.8513982,-35.4915582,10,16.99726
1,Guaraci/PR,-22.970394,-51.6479769,3,54.52563
1,Guaraciaba do Norte/CE,-4.1632924,-40.7495985,5,12.30254
1,Guaramiranga/CE,-4.2615431,-38.9339337,4,77.02677
1,Guaramirim/SC,-26.468753,-49.002628,1,2.23120
1,Guaraniaçu/PR,-25.10035,-52.867811,5,40.08980
1,Guaranésia/MG,-21.3024827,-46.7956962,1,5.25735
1,Guarapari/ES,-20.6718755,-40.4984617,38,30.43433
D1,Guarapari/ES,-20.6718755,-40.4984617,2,1.60181
1,Guarapuava/PR,-25.3950986,-51.4622016,11,6.06047
1,Guararapes/SP,-21.2537115,-50.6441746,6,18.21549
1,Guararema/SP,-23.4133724,-46.0379249,5,16.77965
D1,Guararema/SP,-23.4133724,-46.0379249,1,3.35593
1,Guaratinga/BA,-16.5802498,-39.7808088,1,4.79777
1,Guaratinguetá/SP,-22.8057839,-45.1908926,3,2.46309
1,Guaratuba/PR,-25.8806192,-48.5750905,2,5.39563
1,Guaraí/TO,-8.835429,-48.511432,7,27.00305
1,Guariba/SP,-21.35938,-48.23158,1,2.49345
1,Guarujá/SP,-23.9927768,-46.2558332,175,54.60917
D1,Guarujá/SP,-23.9927768,-46.2558332,7,2.18437
1,Guarulhos/SP,-23.4430602,-46.524459,804,58.29542
D1,Guarulhos/SP,-23.4430602,-46.524459,75,5.43801
1,Guará/SP,-20.4290496,-47.8250067,1,4.71254
D1,Guará/SP,-20.4290496,-47.8250067,1,4.71254
1,Guaxupé/MG,-21.3087615,-46.7190609,3,5.77845
1,Guaçuí/ES,-20.7726679,-41.6750657,8,25.91765
1,Guaíba/RS,-30.1130731,-51.329442,3,3.05676
1,Guaíra/PR,-24.0851924,-54.2567519,13,39.25239
D1,Guaíra/PR,-24.0851924,-54.2567519,2,6.03883
1,Guaíra/SP,-20.3245873,-48.3148818,2,4.90316
1,Guimarânia/MG,-18.8442251,-46.7925141,1,12.43936
1,Guimarães/MA,-2.127551,-44.60199,1,8.31255
1,Gurinhém/PB,-7.1244757,-35.424854,1,7.07764
1,Gurupi/TO,-11.72794,-49.068046,4,4.61643
1,Guzolândia/SP,-20.6491637,-50.6622974,1,18.98614
1,Harmonia/RS,-29.549989,-51.422308,5,102.75380
1,Herval d'Oeste/SC,-27.17361,-51.4903659,2,8.84721
1,Hidrolândia/CE,-4.4084745,-40.4065472,2,10.01101
1,Holambra/SP,-22.6332028,-47.0545305,2,13.39585
1,Horizonte/CE,-4.0964618,-38.4965574,38,56.43257
D1,Horizonte/CE,-4.0964618,-38.4965574,2,2.97014
1,Horizontina/RS,-27.627931,-54.3090256,1,5.17357
1,Hortolândia/SP,-22.85833,-47.22,30,12.99540
D1,Hortolândia/SP,-22.85833,-47.22,2,0.86636
1,Humaitá/AM,-7.5099404,-63.0248674,2,3.63108
1,Humberto de Campos/MA,-2.598282,-43.464877,2,6.96452
1,Ibaiti/PR,-23.8452962,-50.1905666,1,3.18837
1,Ibaretama/CE,-4.8194345,-38.8208476,1,7.48895
D1,Ibaretama/CE,-4.8194345,-38.8208476,1,7.48895
1,Ibateguara/AL,-8.9737196,-35.9279963,1,6.40369
D1,Ibateguara/AL,-8.9737196,-35.9279963,1,6.40369
1,Ibaté/SP,-21.9554092,-47.9989614,1,2.84868
1,Ibema/PR,-25.1192916,-53.0071928,11,173.17380
1,Ibiapina/CE,-3.9228792,-40.8890296,1,4.00048
1,Ibiaí/MG,-16.861111,-44.913889,1,11.91185
1,Ibicaraí/BA,-14.8625311,-39.5890865,3,13.83190
1,Ibicaré/SC,-27.088141,-51.368101,1,31.23048
1,Ibicuitinga/CE,-4.9751759,-38.6368754,4,31.93613
D1,Ibicuitinga/CE,-4.9751759,-38.6368754,1,7.98403
1,Ibimirim/PE,-8.5379259,-37.6941375,1,3.42056
1,Ibiporã/PR,-23.265941,-51.052243,1,1.83291
1,Ibirajuba/PE,-8.5795521,-36.178045,1,12.88328
1,Ibirapuitã/RS,-28.6226503,-52.5170577,4,99.67605
1,Ibirataia/BA,-14.0689024,-39.6394008,6,39.18495
1,Ibiraçu/ES,-19.8309496,-40.3686594,2,16.02693
1,Ibirité/MG,-20.0214251,-44.0621506,11,6.10419
1,Ibirá/SP,-21.0815104,-49.2424619,2,16.13814
1,Ibitinga/SP,-21.75623,-48.831903,1,1.66575
1,Ibitirama/ES,-20.539374,-41.664695,1,11.24986
1,Ibiúna/SP,-23.6548363,-47.2210116,7,8.87446
1,Ibotirama/BA,-12.1829519,-43.2181138,1,3.71374
1,Icapuí/CE,-4.7158474,-37.3535365,8,40.13244
1,Icaraí de Minas/MG,-16.2176592,-44.9023441,1,8.34028
1,Iconha/ES,-20.7935003,-40.8108852,1,7.21501
1,Icó/CE,-6.4003992,-38.8575946,6,8.82119
1,Iepê/SP,-22.660165,-51.077881,1,12.25640
D1,Iepê/SP,-22.660165,-51.077881,1,12.25640
1,Igaracy/PB,-7.1819802,-38.1487395,1,16.34788
1,Igarapava/SP,-20.0411471,-47.7477444,1,3.28601
1,Igarapé-Açu/PA,-1.128244,-47.6199021,18,46.38338
D1,Igarapé-Açu/PA,-1.128244,-47.6199021,1,2.57685
1,Igarapé-Miri/PA,-1.9785213,-48.9634826,6,9.56968
D1,Igarapé-Miri/PA,-1.9785213,-48.9634826,1,1.59495
1,Igarassu/PE,-7.8354423,-34.9061125,67,57.25566
D1,Igarassu/PE,-7.8354423,-34.9061125,10,8.54562
1,Igaratá/SP,-23.2063475,-46.156934,7,73.42144
1,Igaraçu do Tietê/SP,-22.509044,-48.559672,3,12.15855
1,Iguaba Grande/RJ,-22.8388498,-42.2286746,18,63.58177
D1,Iguaba Grande/RJ,-22.8388498,-42.2286746,4,14.12928
1,Iguape/SP,-24.7042692,-47.5563733,8,25.92605
1,Iguaracy/PE,-7.8363415,-37.5140407,1,8.17795
1,Iguatu/CE,-6.361934,-39.2972233,32,31.22012
D1,Iguatu/CE,-6.361934,-39.2972233,5,4.87814
1,Ijuí/RS,-28.388048,-53.91996,1,1.19796
1,Ilha Comprida/SP,-24.7445292,-47.5525529,14,125.38062
D1,Ilha Comprida/SP,-24.7445292,-47.5525529,1,8.95576
1,Ilha Grande/PI,-2.8520082,-41.8166904,1,10.60895
1,Ilha Solteira/SP,-20.4281001,-51.3410871,3,11.24185
1,Ilha de Itamaracá/PE,-7.747664,-34.830319,9,34.27527
1,Ilhabela/SP,-23.816628,-45.368685,5,14.29797
1,Ilhota/SC,-26.9022824,-48.8284968,4,28.20079
1,Ilhéus/BA,-14.792599,-39.0453843,217,133.68078
D1,Ilhéus/BA,-14.792599,-39.0453843,5,3.08020
1,Imaculada/PB,-7.3871724,-37.5116814,1,8.46095
1,Imbaú/PR,-24.447597,-50.7557188,2,15.25437
1,Imbituba/SC,-28.241827,-48.6643444,21,46.81961
1,Imbé de Minas/MG,-19.5989453,-41.9694294,1,14.48646
1,Imbé/RS,-29.975269,-50.128068,1,4.38596
1,Imperatriz/MA,-5.5269279,-47.478115,165,63.78488
D1,Imperatriz/MA,-5.5269279,-47.478115,8,3.09260
1,Inajá/PE,-8.9011209,-37.8244194,1,4.30163
1,Indaial/SC,-26.900011,-49.2370602,11,15.84444
D1,Indaial/SC,-26.900011,-49.2370602,1,1.44040
1,Indaiatuba/SP,-23.09028,-47.21806,28,11.12758
D1,Indaiatuba/SP,-23.09028,-47.21806,4,1.58965
1,Independência/CE,-5.3958538,-40.3108896,3,11.46000
D1,Independência/CE,-5.3958538,-40.3108896,1,3.82000
1,Indiaroba/SE,-11.5250972,-37.5075262,2,11.13772
1,Inhangapi/PA,-1.4283738,-47.9108608,4,34.15592
1,Inhuma/PI,-6.6694502,-41.7096008,1,6.53253
1,Inhumas/GO,-16.3610569,-49.500111,3,5.67472
1,Ipaba/MG,-19.411389,-42.42,2,10.74864
1,Ipameri/GO,-17.7215439,-48.158118,1,3.70576
1,Ipanguaçu/RN,-5.5090713,-36.8594421,8,51.64289
D1,Ipanguaçu/RN,-5.5090713,-36.8594421,1,6.45536
1,Ipaporanga/CE,-4.903227,-40.760079,2,17.25179
1,Ipatinga/MG,-19.4777807,-42.5270802,17,6.45382
1,Ipaumirim/CE,-6.7883197,-38.7172034,1,8.02375
1,Ipiaçu/MG,-18.6934499,-49.9439567,1,23.69107
D1,Ipiaçu/MG,-18.6934499,-49.9439567,1,23.69107
1,Ipiaú/BA,-14.1318211,-39.7373177,17,37.05884
D1,Ipiaú/BA,-14.1318211,-39.7373177,2,4.35986
1,Ipiranga do Norte/MT,-12.2408004,-56.1531011,3,39.12873
1,Ipirá/BA,-12.1578337,-39.7416605,4,6.71197
1,Ipixuna do Pará/PA,-2.5592139,-47.4965462,5,7.80604
1,Ipojuca/PE,-8.3980773,-35.0611068,26,27.02590
D1,Ipojuca/PE,-8.3980773,-35.0611068,3,3.11837
1,Ipu/CE,-4.3239824,-40.7097463,2,4.76599
1,Ipubi/PE,-7.6535334,-40.1494078,8,25.92857
1,Ipueiras/CE,-4.5427141,-40.7168461,5,13.10067
D1,Ipueiras/CE,-4.5427141,-40.7168461,1,2.62013
1,Ipuiúna/MG,-22.0993203,-46.1896557,1,9.92162
1,Ipumirim/SC,-27.0762287,-52.135736,14,184.38035
1,Iracema/CE,-5.8106219,-38.3028294,3,20.98342
1,Iranduba/AM,-3.2758203,-60.1867429,144,298.16134
D1,Iranduba/AM,-3.2758203,-60.1867429,10,20.70565
1,Irani/SC,-27.0230476,-51.9010675,16,153.56560
1,Irati/SC,-26.6577742,-52.8929851,1,51.81347
1,Irecê/BA,-11.3034853,-41.8557902,1,1.37048
1,Iretama/PR,-24.4212538,-52.1023538,2,19.66762
D1,Iretama/PR,-24.4212538,-52.1023538,1,9.83381
1,Irituia/PA,-1.7709543,-47.4399687,6,18.43318
1,Irupi/ES,-20.3469751,-41.639688,1,7.47552
1,Itabaiana/PB,-7.331674,-35.331723,2,8.17094
1,Itabaiana/SE,-10.6856197,-37.4270517,14,14.67090
1,Itabaianinha/SE,-11.2760142,-37.78666,9,21.46537
D1,Itabaianinha/SE,-11.2760142,-37.78666,1,2.38504
1,Itabela/BA,-16.5743392,-39.561961,1,3.26968
1,Itaberaba/BA,-12.524182,-40.305897,1,1.55065
1,Itabira/MG,-19.6186264,-43.2267011,10,8.32917
D1,Itabira/MG,-19.6186264,-43.2267011,1,0.83292
1,Itaboraí/RJ,-22.7496231,-42.8557428,229,95.18188
D1,Itaboraí/RJ,-22.7496231,-42.8557428,10,4.15641
1,Itabuna/BA,-14.7869879,-39.2788778,197,92.39153
D1,Itabuna/BA,-14.7869879,-39.2788778,3,1.40698
1,Itacaré/BA,-14.2781298,-38.9951418,2,7.06814
1,Itacoatiara/AM,-3.1477898,-58.4461041,127,125.32441
D1,Itacoatiara/AM,-3.1477898,-58.4461041,10,9.86806
1,Itagi/BA,-14.1627902,-40.0069366,1,8.09651
1,Itagibá/BA,-14.2891521,-39.8452592,8,54.87345
D1,Itagibá/BA,-14.2891521,-39.8452592,1,6.85918
1,Itaguara/MG,-20.391389,-44.488055,2,14.97230
1,Itaguaru/GO,-15.7613695,-49.6337242,2,38.18980
1,Itaguaí/RJ,-22.8629597,-43.775322,44,33.07798
D1,Itaguaí/RJ,-22.8629597,-43.775322,5,3.75886
1,Itaitinga/CE,-3.965768,-38.529763,49,129.01527
D1,Itaitinga/CE,-3.965768,-38.529763,3,7.89889
1,Itaituba/PA,-4.2625218,-55.9878139,9,8.88915
1,Itaiçaba/CE,-4.68054,-37.8239968,1,12.77629
1,Itajaí/SC,-26.9117879,-48.6669852,85,38.71802
D1,Itajaí/SC,-26.9117879,-48.6669852,3,1.36652
1,Itajobi/SP,-21.312294,-49.0596336,6,39.31333
D1,Itajobi/SP,-21.312294,-49.0596336,1,6.55222
1,Itajubá/MG,-22.4238234,-45.4524156,10,10.32322
1,Itajuípe/BA,-14.6744381,-39.3759427,11,53.68210
1,Itajá/RN,-5.6374673,-36.8713272,1,13.24854
1,Italva/RJ,-21.4214056,-41.6907956,1,6.57592
1,Itamaraju/BA,-17.0363103,-39.527994,1,1.55072
1,Itambé/PE,-7.4108509,-35.10967,1,2.74371
1,Itamonte/MG,-22.2830726,-44.8695785,2,12.83779
1,Itanhandu/MG,-22.2957913,-44.9366732,5,32.61366
1,Itanhaém/SP,-24.1848847,-46.7921572,17,16.69679
D1,Itanhaém/SP,-24.1848847,-46.7921572,2,1.96433
1,Itaobim/MG,-16.5614934,-41.502275,1,4.74789
1,Itaocara/RJ,-21.6725236,-42.0798658,2,8.60807
1,Itapajé/CE,-3.6841324,-39.5851265,2,3.79687
1,Itaparica/BA,-12.8936023,-38.6798141,1,4.49883
1,Itapebi/BA,-15.9691891,-39.5320541,5,48.73769
1,Itapecerica da Serra/SP,-23.7176303,-46.8492435,133,75.70023
D1,Itapecerica da Serra/SP,-23.7176303,-46.8492435,8,4.55340
1,Itapecerica/MG,-20.472778,-45.125556,8,36.76133
1,Itapecuru Mirim/MA,-3.3973569,-44.3560724,3,4.39863
1,Itapema/SC,-27.09472,-48.6137778,18,27.56002
D1,Itapema/SC,-27.09472,-48.6137778,1,1.53111
1,Itapemirim/ES,-21.0105534,-40.8351239,4,11.64551
1,Itaperuna/RJ,-21.2048,-41.88801,3,2.90630
1,Itaperuçu/PR,-25.21926,-49.345427,1,3.49235
1,Itapetim/PE,-7.377514,-37.1887321,1,7.34430
D1,Itapetim/PE,-7.377514,-37.1887321,1,7.34430
1,Itapetinga/BA,-15.2454478,-40.2460053,8,10.50599
D1,Itapetinga/BA,-15.2454478,-40.2460053,2,2.62650
1,Itapetininga/SP,-23.588607,-48.048326,18,10.98224
D1,Itapetininga/SP,-23.588607,-48.048326,1,0.61012
1,Itapeva/MG,-22.7071665,-46.23015850595238,2,20.44363
1,Itapeva/SP,-23.9849105,-48.8803886,11,11.65822
1,Itapevi/SP,-23.54888,-46.933889,124,52.16660
D1,Itapevi/SP,-23.54888,-46.933889,15,6.31048
1,Itapipoca/CE,-3.499329,-39.583571,58,44.83681
D1,Itapipoca/CE,-3.499329,-39.583571,3,2.31915
1,Itapira/SP,-22.436111,-46.821667,18,24.07286
D1,Itapira/SP,-22.436111,-46.821667,3,4.01214
1,Itapiranga/AM,-2.7461205,-58.025377,12,131.17621
D1,Itapiranga/AM,-2.7461205,-58.025377,1,10.93135
1,Itapiranga/SC,-27.1719977,-53.7118734,1,5.92698
1,Itapissuma/PE,-7.767983,-34.897136,7,26.26543
D1,Itapissuma/PE,-7.767983,-34.897136,2,7.50441
1,Itapiúna/CE,-4.5654191,-38.9211537,7,34.34403
1,Itaporanga d'Ajuda/SE,-10.9961671,-37.3045841,3,8.73210
D1,Itaporanga d'Ajuda/SE,-10.9961671,-37.3045841,1,2.91070
1,Itapororoca/PB,-6.8283007,-35.244782,4,21.43163
1,Itapuã do Oeste/RO,-9.189646,-63.1910097,1,9.56206
1,Itapé/BA,-14.8970856,-39.4246637,1,11.41422
D1,Itapé/BA,-14.8970856,-39.4246637,1,11.41422
1,Itaquaquecetuba/SP,-23.4754492,-46.3514033,138,37.21472
D1,Itaquaquecetuba/SP,-23.4754492,-46.3514033,17,4.58442
1,Itaquitinga/PE,-7.6642569,-35.1023615,3,17.69390
D1,Itaquitinga/PE,-7.6642569,-35.1023615,1,5.89797
1,Itarantim/BA,-15.6520917,-40.0599067,1,5.06406
1,Itararé/SP,-24.1145368,-49.3352464,3,5.94024
1,Itarema/CE,-2.9224558,-39.9129042,5,11.95429
1,Itariri/SP,-24.2900711,-47.176151,3,17.20578
1,Itatiaia/RJ,-22.4955278,-44.5633108,3,9.43248
1,Itatiaiuçu/MG,-20.1975724,-44.4224889,2,17.94366
1,Itatiba/SP,-22.9965861,-46.8412042,9,7.44676
D1,Itatiba/SP,-22.9965861,-46.8412042,1,0.82742
1,Itatim/BA,-12.7073174,-39.6974476,4,27.61096
1,Itatinga/SP,-23.1042417,-48.6134874,1,4.83162
1,Itatira/CE,-4.5305423,-39.621054,3,13.85873
D1,Itatira/CE,-4.5305423,-39.621054,1,4.61958
1,Itaubal/AP,0.6027524,-50.6998737,3,54.51572
1,Itaueira/PI,-7.5991089,-43.0278778,1,9.07523
D1,Itaueira/PI,-7.5991089,-43.0278778,1,9.07523
1,Itaí/SP,-23.4172598,-49.0935788,1,3.68664
1,Itaúna do Sul/PR,-22.7302304,-52.8854393,1,34.90401
1,Itaúna/MG,-20.075556,-44.576389,1,1.07280
1,Itirapina/SP,-22.2884106,-47.81616583161232,1,5.50752
1,Itororó/BA,-15.1155552,-40.0638651,4,19.62516
1,Itu/SP,-23.2638828,-47.298892,20,11.49828
D1,Itu/SP,-23.2638828,-47.298892,3,1.72474
1,Ituberá/BA,-13.7360764,-39.1481058,1,3.49626
1,Ituiutaba/MG,-18.9691887,-49.4639335,2,1.91075
1,Itumbiara/GO,-18.4135862,-49.2172596,10,9.54727
1,Itupeva/SP,-23.1531055,-47.0580347,4,6.53040
D1,Itupeva/SP,-23.1531055,-47.0580347,1,1.63260
1,Ituporanga/SC,-27.4096219,-49.6014812,3,11.95886
D1,Ituporanga/SC,-27.4096219,-49.6014812,1,3.98629
1,Ituverava/SP,-20.3366604,-47.7797924,1,2.39097
1,Itá/SC,-27.275006,-52.3381725,3,48.63025
1,Ivaiporã/PR,-24.2433517,-51.6719268,7,21.88594
D1,Ivaiporã/PR,-24.2433517,-51.6719268,2,6.25313
1,Ivaí/PR,-25.0069795,-50.8568896,1,7.20513
1,Ivoti/RS,-29.5934057,-51.1599403,5,20.58206
D1,Ivoti/RS,-29.5934057,-51.1599403,1,4.11641
1,Içara/SC,-28.7116553,-49.2971441,8,14.17912
1,Jaboatão dos Guararapes/PE,-8.1752476,-34.9468716,592,84.29470
D1,Jaboatão dos Guararapes/PE,-8.1752476,-34.9468716,61,8.68577
1,Jaborandi/SP,-20.6921079,-48.4144076,2,28.86419
1,Jaborá/SC,-27.1743246,-51.7348631,4,101.62602
1,Jaboticabal/SP,-21.252037,-48.325223,17,22.00277
D1,Jaboticabal/SP,-21.252037,-48.325223,4,5.17712
1,Jaboticatubas/MG,-19.521667,-43.745277,2,9.92901
1,Jacarezinho/PR,-23.159115,-49.973889,1,2.53949
1,Jacareí/SP,-23.30528,-45.96583,33,14.12296
D1,Jacareí/SP,-23.30528,-45.96583,1,0.42797
1,Jaci/SP,-20.8844434,-49.5710544,12,169.80331
1,Jaciara/MT,-15.9520115,-54.9762106,6,21.60138
1,Jacundá/PA,-4.446173,-49.115272,4,6.76190
1,Jacupiranga/SP,-24.703773,-48.0060639,1,5.59722
1,Jaguapitã/PR,-23.1102516,-51.5327741,1,7.34214
1,Jaguaquara/BA,-13.5294974,-39.9693081,5,9.18729
1,Jaguarari/BA,-10.2596039,-40.1965284,1,2.97885
1,Jaguaretama/CE,-5.6092417,-38.7630077,7,38.54201
1,Jaguari/RS,-29.498143,-54.6931868,1,9.21829
1,Jaguaribara/CE,-5.454494,-38.4679295,6,52.62696
1,Jaguaribe/CE,-5.8854585,-38.6212957,14,40.36676
D1,Jaguaribe/CE,-5.8854585,-38.6212957,2,5.76668
1,Jaguariúna/SP,-22.70374,-46.985062,15,26.09240
1,Jaguaruana/CE,-4.831508,-37.780997,4,11.86768
1,Jaguaruna/SC,-28.6237365,-49.0288664,6,29.96404
1,Jales/SP,-20.2671767,-50.5492435,4,8.14548
1,Janaúba/MG,-15.8019291,-43.309246,3,4.18714
1,Jandira/SP,-23.5282044,-46.9019554,47,37.61896
D1,Jandira/SP,-23.5282044,-46.9019554,5,4.00202
1,Jangada/MT,-15.2369949,-56.4902844,2,23.78404
1,Japeri/RJ,-22.6427642,-43.6533831,32,30.54368
D1,Japeri/RJ,-22.6427642,-43.6533831,2,1.90898
1,Japoatã/SE,-10.3467864,-36.799878,1,7.44380
1,Japurá/PR,-23.469273,-52.55572,1,10.61008
1,Jaqueira/PE,-8.7276422,-35.7948925,1,8.57927
1,Jaraguá do Sul/SC,-26.4897432,-49.0778063,17,9.56685
1,Jaraguá/GO,-15.7528866,-49.3344033,2,3.95953
1,Jardim/CE,-7.5838966,-39.279713,1,3.67999
1,Jardinópolis/SP,-21.0255126,-47.7706807,6,13.51960
D1,Jardinópolis/SP,-21.0255126,-47.7706807,1,2.25327
1,Jarinu/SP,-23.0949584,-46.7148636,1,3.32845
D1,Jarinu/SP,-23.0949584,-46.7148636,1,3.32845
1,Jaru/RO,-10.431826,-62.478769,3,5.79430
1,Jataizinho/PR,-23.257815,-50.977748,2,15.88815
1,Jataí/GO,-17.8783829,-51.7204241,7,6.93880
1,Jataúba/PE,-7.9860545,-36.4980118,1,5.83090
1,Jatobá/PE,-9.1832353,-38.2672047,1,6.75858
1,Jaçanã/RN,-6.4290483,-36.2035537,3,32.84791
1,Jaú/SP,-22.293585,-48.559193,24,15.97317
1,Jeceaba/MG,-20.5353816,-43.983346,1,20.35831
1,Jequié/BA,-13.8604033,-40.0719627,28,17.95263
1,Jerônimo Monteiro/ES,-20.7882214,-41.3921464,2,16.40420
1,Jesúpolis/GO,-15.9545513,-49.3748004,1,40.16064
1,Ji-Paraná/RO,-10.8778148,-61.9277854,29,22.48602
D1,Ji-Paraná/RO,-10.8778148,-61.9277854,2,1.55076
1,Joanópolis/SP,-22.930004,-46.275208,2,15.12859
1,Joaquim Gomes/AL,-9.1372894,-35.7518862,1,4.16788
1,Joaçaba/SC,-27.1737204,-51.5065214,16,53.12438
1,Joinville/SC,-26.3044898,-48.8486726,174,29.46825
D1,Joinville/SC,-26.3044898,-48.8486726,5,0.84679
1,José Bonifácio/SP,-23.564090999999998,-46.434766582997995,3,8.10482
1,José de Freitas/PI,-4.7578357,-42.5763777,1,2.55050
1,João Alfredo/PE,-7.8608755,-35.591575,7,20.69659
1,João Câmara/RN,-5.5349637,-35.8150811,2,5.72164
1,João Monlevade/MG,-19.809444,-43.173334,5,6.25704
1,João Neiva/ES,-19.756346,-40.3848345,6,35.99712
1,João Pessoa/PB,-7.1215981,-34.882028,614,75.89476
D1,João Pessoa/PB,-7.1215981,-34.882028,36,4.44986
1,Juatuba/MG,-19.954001,-44.3407921,1,3.71113
1,Juazeiro do Norte/CE,-7.2153453,-39.3153336,12,4.37626
1,Juazeiro/BA,-9.4336959,-40.5068201,9,4.15307
D1,Juazeiro/BA,-9.4336959,-40.5068201,1,0.46145
1,Jucati/PE,-8.7065829,-36.4870496,1,8.75350
1,Jucás/CE,-6.5224934,-39.5247183,4,16.10760
1,Juiz de Fora/MG,-21.7609533,-43.3501129,152,26.71950
D1,Juiz de Fora/MG,-21.7609533,-43.3501129,6,1.05472
1,Junco do Maranhão/MA,-1.8799132,-46.0726685,2,58.27506
1,Junco do Seridó/PB,-6.9922083,-36.7143267,3,41.95804
D1,Junco do Seridó/PB,-6.9922083,-36.7143267,1,13.98601
1,Jundiaí/SP,-23.1887866,-46.8845122,152,36.28014
D1,Jundiaí/SP,-23.1887866,-46.8845122,15,3.58028
1,Junqueiro/AL,-9.9201549,-36.474737,6,24.26497
1,Junqueirópolis/SP,-21.5109531,-51.4351505,2,9.67165
1,Jupi/PE,-8.7114677,-36.417448,1,6.74036
1,Juquitiba/SP,-23.932346,-47.0714217,5,15.90128
D1,Juquitiba/SP,-23.932346,-47.0714217,3,9.54077
1,Juquiá/SP,-24.3172209,-47.6355618,1,5.31576
1,Jurema/PE,-8.7189103,-36.137365,2,13.00559
1,Juruti/PA,-2.1571381,-56.0900977,5,8.62917
D1,Juruti/PA,-2.1571381,-56.0900977,2,3.45167
1,Juruá/AM,-3.4746666,-66.0622335,1,6.79717
1,Jussara/PR,-23.621931,-52.46931,1,14.25923
D1,Jussara/PR,-23.621931,-52.46931,1,14.25923
1,Jussari/BA,-15.1882453,-39.493597,1,17.14384
1,Jutaí/AM,-2.7471478,-66.7721255,3,20.95411
1,Ladário/MS,-19.008842,-57.5972924,3,12.85843
1,Lagarto/SE,-10.9141791,-37.6715308,8,7.66225
1,Lages/SC,-27.8165664,-50.325883,29,18.40756
1,Lago da Pedra/MA,-4.5627272,-45.1298628,6,11.93650
D1,Lago da Pedra/MA,-4.5627272,-45.1298628,1,1.98942
1,Lagoa Salgada/RN,-6.122954,-35.472394,1,12.12856
1,Lagoa Santa/MG,-19.6357376,-43.8966132,6,9.29843
1,Lagoa Seca/PB,-7.157099,-35.8542023,3,10.90790
1,Lagoa da Canoa/AL,-9.8294012,-36.7395617,1,5.60161
D1,Lagoa da Canoa/AL,-9.8294012,-36.7395617,1,5.60161
1,Lagoa da Prata/MG,-20.022778,-45.5440462,18,34.50589
1,Lagoa de Itaenga/PE,-7.9335596,-35.2919789,3,13.99972
D1,Lagoa de Itaenga/PE,-7.9335596,-35.2919789,1,4.66657
1,Lagoa de Pedras/RN,-6.1527678,-35.4368516,1,13.25557
D1,Lagoa de Pedras/RN,-6.1527678,-35.4368516,1,13.25557
1,Lagoa do Barro do Piauí/PI,-8.4798938,-41.5295775,1,21.48228
1,Lagoa do Carro/PE,-7.843834,-35.310783,10,55.33728
D1,Lagoa do Carro/PE,-7.843834,-35.310783,2,11.06746
1,Lagoa do Ouro/PE,-9.1245839,-36.459656,1,7.60746
1,Lagoa dos Gatos/PE,-8.6537614,-35.9045124,2,12.27747
D1,Lagoa dos Gatos/PE,-8.6537614,-35.9045124,1,6.13874
1,Laguna/SC,-28.483118,-48.7811993,8,17.46191
1,Laje/BA,-13.1809956,-39.4222968,1,4.19463
1,Lajeado/RS,-29.4671522,-51.9624046,101,120.21806
D1,Lajeado/RS,-29.4671522,-51.9624046,5,5.95139
1,Lajedo do Tabocal/BA,-13.49316205,-40.281038132391984,1,11.67951
1,Lajedo/PE,-8.657914,-36.329336,1,2.48213
1,Lajes Pintadas/RN,-6.1497352,-36.1166085,2,42.02564
1,Lambari D'Oeste/MT,-15.3188455,-58.0046244,1,16.33720
1,Lapa/PR,-25.76709,-49.716777,3,6.22885
1,Laranjal Paulista/SP,-23.050564,-47.837549,5,17.53402
D1,Laranjal Paulista/SP,-23.050564,-47.837549,2,7.01361
1,Laranjal do Jari/AP,-0.8419994,-52.516,52,103.15414
D1,Laranjal do Jari/AP,-0.8419994,-52.516,4,7.93493
1,Laranjeiras/SE,-10.8040231,-37.1658336,2,6.70556
1,Lauro de Freitas/BA,-12.89242,-38.3127691,57,28.72405
D1,Lauro de Freitas/BA,-12.89242,-38.3127691,4,2.01572
1,Lavras da Mangabeira/CE,-6.7519554,-38.9634019,1,3.17380
1,Lavras/MG,-21.2425512,-44.9991978,7,6.74549
1,Lavrinhas/SP,-22.570047,-44.902359,2,27.54821
D1,Lavrinhas/SP,-22.570047,-44.902359,1,13.77410
1,Leme/SP,-22.185833,-47.39,7,6.77042
D1,Leme/SP,-22.185833,-47.39,3,2.90161
1,Lençóis Paulista/SP,-22.6029897,-48.8031367,5,7.30652
D1,Lençóis Paulista/SP,-22.6029897,-48.8031367,1,1.46130
1,Leopoldina/MG,-21.5314282,-42.6403534,3,5.70483
1,Leópolis/PR,-23.0789091,-50.7501808,1,25.29084
1,Licínio de Almeida/BA,-14.684215,-42.509527,1,8.07233
1,Lima Campos/MA,-4.5179809,-44.4671291,1,8.40831
1,Limeira/SP,-22.5615068,-47.401766,35,11.43365
D1,Limeira/SP,-22.5615068,-47.401766,1,0.32668
1,Limoeiro de Anadia/AL,-9.7389667,-36.5015847,1,3.49223
D1,Limoeiro de Anadia/AL,-9.7389667,-36.5015847,1,3.49223
1,Limoeiro do Ajuru/PA,-1.8866440500000001,-49.495701348909165,6,20.73613
D1,Limoeiro do Ajuru/PA,-1.8866440500000001,-49.495701348909165,2,6.91204
1,Limoeiro do Norte/CE,-5.1455607,-38.0984936,20,33.59086
D1,Limoeiro do Norte/CE,-5.1455607,-38.0984936,2,3.35909
1,Limoeiro/PE,-7.872599,-35.440154,19,33.77778
D1,Limoeiro/PE,-7.872599,-35.440154,4,7.11111
1,Lindóia do Sul/SC,-27.0524132,-52.0831626,17,372.56191
1,Lindóia/SP,-22.523056,-46.65,3,37.59398
1,Linhares/ES,-19.3816944,-40.0612213,39,22.47126
D1,Linhares/ES,-19.3816944,-40.0612213,1,0.57619
1,Lins/SP,-21.6741873,-49.7518932,20,25.63675
D1,Lins/SP,-21.6741873,-49.7518932,3,3.84551
1,Livramento de Nossa Senhora/BA,-13.6505468,-41.8412103,1,2.18665
1,Londrina/PR,-23.3112878,-51.1595023,104,18.25416
D1,Londrina/PR,-23.3112878,-51.1595023,13,2.28177
1,Lorena/SP,-22.7367652,-45.1070876,7,7.89124
1,Louveira/SP,-23.08639,-46.95056,10,20.45617
D1,Louveira/SP,-23.08639,-46.95056,1,2.04562
1,Lucas do Rio Verde/MT,-13.0655935,-55.9198356,8,12.20740
D1,Lucas do Rio Verde/MT,-13.0655935,-55.9198356,1,1.52593
1,Lucena/PB,-6.8984018,-34.8711915,4,30.58104
1,Lucélia/SP,-21.7211293,-51.0188,7,32.18835
D1,Lucélia/SP,-21.7211293,-51.0188,2,9.19667
1,Lupionópolis/PR,-22.7558205,-51.6575301,1,20.32520
1,Luzilândia/PI,-3.4648887,-42.3689528,2,7.84745
1,Luziânia/GO,-16.2535456,-47.9500276,13,6.24103
D1,Luziânia/GO,-16.2535456,-47.9500276,3,1.44024
1,Luís Correia/PI,-2.8818164,-41.6658458,3,9.89740
1,Luís Eduardo Magalhães/BA,-12.0869117,-45.7834163,2,2.28522
1,Luís Gomes/RN,-6.4141793,-38.3872939,1,9.88533
1,Lábrea/AM,-7.2613683,-64.7924505,20,43.41314
1,Macambira/SE,-10.6657963,-37.5396488,1,14.45296
1,Macaparana/PE,-7.54122565,-35.449102477927944,5,19.70366
D1,Macaparana/PE,-7.54122565,-35.449102477927944,2,7.88146
1,Macapá/AP,0.0401529,-51.0569588,857,170.26704
D1,Macapá/AP,0.0401529,-51.0569588,27,5.36431
1,Macatuba/SP,-22.50022,-48.710229,2,11.65297
1,Macaé/RJ,-22.3712958,-41.7866922,47,18.31131
D1,Macaé/RJ,-22.3712958,-41.7866922,10,3.89602
1,Macaíba/RN,-5.8561372,-35.3523774,17,21.04169
D1,Macaíba/RN,-5.8561372,-35.3523774,1,1.23775
1,Maceió/AL,-9.6476843,-35.7339264,1008,98.92556
D1,Maceió/AL,-9.6476843,-35.7339264,38,3.72934
1,Machado/MG,-21.6762861,-45.9211696,2,4.74687
1,Machados/PE,-7.6876999,-35.5126635,4,24.86325
D1,Machados/PE,-7.6876999,-35.5126635,1,6.21581
1,Madalena/CE,-4.8542961,-39.5766436,3,15.23539
1,Mafra/SC,-26.1150943,-49.8035982,2,3.55290
1,Magalhães de Almeida/MA,-3.392319,-42.211743,1,5.04388
1,Magé/RJ,-22.6604221,-43.0426162,113,46.10909
D1,Magé/RJ,-22.6604221,-43.0426162,5,2.04023
1,Mairinque/SP,-23.5401247,-47.1846323,7,14.84624
1,Mairiporã/SP,-23.3186111,-46.5866667,32,31.94282
D1,Mairiporã/SP,-23.3186111,-46.5866667,4,3.99285
1,Mamanguape/PB,-6.833698,-35.121316,1,2.22806
1,Manacapuru/AM,-3.2996768,-60.6213528,488,501.14503
D1,Manacapuru/AM,-3.2996768,-60.6213528,29,29.78116
1,Manaquiri/AM,-3.4305885,-60.4593078,14,43.60691
D1,Manaquiri/AM,-3.4305885,-60.4593078,2,6.22956
1,Manaus/AM,-3.1316333,-59.9825041,3491,159.93491
D1,Manaus/AM,-3.1316333,-59.9825041,357,16.35542
1,Mandaguari/PR,-23.5224849,-51.6787511,1,2.90698
1,Mandaguaçu/PR,-23.3485076,-52.0966215,2,8.76463
1,Mandirituba/PR,-25.7772457,-49.3279107,4,14.88704
1,Mangaratiba/RJ,-22.9600193,-44.04111,7,15.74166
D1,Mangaratiba/RJ,-22.9600193,-44.04111,2,4.49762
1,Manhuaçu/MG,-20.2574434,-42.0340769,3,3.32487
1,Manicoré/AM,-5.804618,-61.289483,5,8.96845
D1,Manicoré/AM,-5.804618,-61.289483,1,1.79369
1,Manoel Emídio/PI,-8.0054022,-43.8730321,1,18.69508
1,Manoel Ribas/PR,-24.5177239,-51.6685729,1,7.40631
D1,Manoel Ribas/PR,-24.5177239,-51.6685729,1,7.40631
1,Marabá/PA,-5.3462821,-49.1007401,42,15.03496
D1,Marabá/PA,-5.3462821,-49.1007401,6,2.14785
1,Maracajá/SC,-28.8628566,-49.449388,1,13.71178
1,Maracanaú/CE,-3.8779438,-38.6247697,161,70.64936
D1,Maracanaú/CE,-3.8779438,-38.6247697,15,6.58224
1,Maracanã/PA,-0.7666582,-47.4537818,10,33.92936
D1,Maracanã/PA,-0.7666582,-47.4537818,1,3.39294
1,Maracaçumé/MA,-2.049177,-45.958734,2,9.34798
1,Maracás/BA,-13.4408898,-40.433052,1,4.79985
1,Maragogi/AL,-9.0118278,-35.222512,5,15.28865
D1,Maragogi/AL,-9.0118278,-35.222512,1,3.05773
1,Maragogipe/BA,-12.7766206,-38.9174729,5,11.19144
1,Maranguape/CE,-3.8922967,-38.6835427,71,55.04815
D1,Maranguape/CE,-3.8922967,-38.6835427,9,6.97793
1,Marapanim/PA,-0.7134493,-47.6985381,8,28.23264
D1,Marapanim/PA,-0.7134493,-47.6985381,1,3.52908
1,Marataízes/ES,-21.0443673,-40.8272204,15,38.96205
1,Maratá/RS,-29.549349,-51.5546411,3,111.48272
1,Marau/RS,-28.4493053,-52.2002156,74,167.56867
D1,Marau/RS,-28.4493053,-52.2002156,1,2.26444
1,Maraã/AM,-1.8535579,-65.5897749,16,87.79631
1,Maraú/BA,-14.103022,-39.0144322,1,4.86145
1,Marcelino Ramos/RS,-27.4622708,-51.9081009,1,22.71695
1,Marco/CE,-3.1221945,-40.1514585,2,7.30967
1,Marechal Cândido Rondon/PR,-24.5570477,-54.0571457,2,3.77758
1,Marechal Deodoro/AL,-9.709715,-35.896731,33,63.58259
D1,Marechal Deodoro/AL,-9.709715,-35.896731,2,3.85349
1,Marechal Floriano/ES,-20.4124966,-40.6749858,2,11.98035
1,Mari/PB,-7.0580611,-35.3184163,1,4.57938
D1,Mari/PB,-7.0580611,-35.3184163,1,4.57938
1,Mariana/MG,-20.3781468,-43.4174862,17,27.99552
D1,Mariana/MG,-20.3781468,-43.4174862,1,1.64680
1,Maribondo/AL,-9.5808649,-36.3040574,2,15.07841
D1,Maribondo/AL,-9.5808649,-36.3040574,1,7.53920
1,Maricá/RJ,-22.9196772,-42.8184375,73,45.28339
D1,Maricá/RJ,-22.9196772,-42.8184375,9,5.58288
1,Marilena/PR,-22.7358333,-53.04,6,84.79367
1,Maringá/PR,-23.425269,-51.9382078,60,14.16210
D1,Maringá/PR,-23.425269,-51.9382078,5,1.18017
1,Maripá de Minas/MG,-21.6975,-42.959167,1,33.63606
1,Marituba/PA,-1.3595306,-48.3361504,48,36.49607
D1,Marituba/PA,-1.3595306,-48.3361504,2,1.52067
1,Marizópolis/PB,-6.8440704,-38.3473088,3,45.33777
D1,Marizópolis/PB,-6.8440704,-38.3473088,1,15.11259
1,Mariópolis/PR,-26.3517858,-52.5491536,2,30.25719
1,Marliéria/MG,-19.711867,-42.7343059,4,99.03441
1,Martinho Campos/MG,-19.331945,-45.236666,1,7.46938
D1,Martinho Campos/MG,-19.331945,-45.236666,1,7.46938
1,Martinópolis/SP,-22.146153,-51.170949,3,11.33744
1,Maruim/SE,-10.7372604,-37.0817469,2,11.61913
1,Marumbi/PR,-23.7070343,-51.6408276,2,42.74418
1,Marília/SP,-22.217108,-49.95006,14,5.86063
D1,Marília/SP,-22.217108,-49.95006,1,0.41862
1,Massapê/CE,-3.5239058,-40.3423107,8,20.65209
D1,Massapê/CE,-3.5239058,-40.3423107,1,2.58151
1,Massaranduba/SC,-26.610868,-49.005351,1,5.91156
D1,Massaranduba/SC,-26.610868,-49.005351,1,5.91156
1,Mata Roma/MA,-3.6210147,-43.1156951,4,23.76849
1,Mata de São João/BA,-12.530685,-38.300898,1,2.14671
1,Matinha/MA,-3.102212,-45.032208,7,29.95293
1,Matinhos/PR,-25.8187344,-48.5342813,2,5.76037
1,Mato Castelhano/RS,-28.2782729,-52.1948111,1,39.37008
1,Matozinhos/MG,-19.5576547,-44.0816035,1,2.64410
1,Matriz de Camaragibe/AL,-9.154373,-35.524302,1,4.05811
D1,Matriz de Camaragibe/AL,-9.154373,-35.524302,1,4.05811
1,Matão/SP,-21.6033611,-48.3660603,5,6.01178
1,Mauriti/CE,-7.3870095,-38.7737751,2,4.16997
1,Mauá/SP,-23.6669527,-46.4616922,241,50.96086
D1,Mauá/SP,-23.6669527,-46.4616922,22,4.65203
1,Maués/AM,-3.3795798,-57.7196072,105,164.30639
D1,Maués/AM,-3.3795798,-57.7196072,8,12.51858
1,Mazagão/AP,-0.1160565,-51.2861759,13,60.09615
1,Medeiros Neto/BA,-17.3714581,-40.2224736,1,4.40762
1,Medianeira/PR,-25.2954233,-54.0940666,6,12.98758
1,Meleiro/SC,-28.8303183,-49.6349851,1,14.25517
1,Melgaço/PA,-1.803202,-50.714927,3,10.84834
D1,Melgaço/PA,-1.803202,-50.714927,1,3.61611
1,Mendes/RJ,-22.5269113,-43.7332604,3,16.11690
1,Meruoca/CE,-3.5390209,-40.4546107,1,6.64143
1,Mesquita/RJ,-22.783092,-43.4293599,164,93.12732
D1,Mesquita/RJ,-22.783092,-43.4293599,13,7.38204
1,Miguel Alves/PI,-4.1730384,-42.8955677,14,41.46919
1,Miguel Pereira/RJ,-22.4539417,-43.4691978,8,31.32587
D1,Miguel Pereira/RJ,-22.4539417,-43.4691978,1,3.91573
1,Miguelópolis/SP,-20.179612,-48.030997,1,4.49924
1,Milagres do Maranhão/MA,-3.5815605,-42.6080355,3,35.44423
1,Milagres/CE,-7.3106846,-38.9447146,2,7.26956
1,Milhã/CE,-5.6834601,-39.1970885,2,15.20334
1,Mimoso do Sul/ES,-21.0628724,-41.3640478,2,7.64731
1,Minas Novas/MG,-17.2175833,-42.5943681,1,3.17622
1,Minas do Leão/RS,-30.1334499,-52.0455962,2,24.76780
1,Mineiros do Tietê/SP,-22.4133188,-48.450554,5,38.73567
D1,Mineiros do Tietê/SP,-22.4133188,-48.450554,1,7.74713
1,Mineiros/GO,-17.5653879,-52.5536721,4,5.98793
1,Miracatu/SP,-24.2839078,-47.4535128,5,25.27934
D1,Miracatu/SP,-24.2839078,-47.4535128,2,10.11173
1,Miracema/RJ,-21.4123651,-42.1965147,1,3.67999
1,Mirador/PR,-23.257015,-52.7756432,2,90.37506
1,Miranda do Norte/MA,-3.5653459,-44.5809128,4,14.09394
1,Miranda/MS,-20.2401082,-56.3844728,1,3.56977
1,Mirandópolis/SP,-21.1328313,-51.1029422,6,20.29495
D1,Mirandópolis/SP,-21.1328313,-51.1029422,2,6.76498
1,Mirante/BA,-14.2401367,-40.7661915,1,11.57273
1,Mirassol d'Oeste/MT,-15.675947,-58.0951397,8,28.84026
D1,Mirassol d'Oeste/MT,-15.675947,-58.0951397,1,3.60503
1,Mirassol/SP,-20.8141411,-49.507449,6,10.02942
1,Miraíma/CE,-3.568674,-39.966267,1,7.23694
D1,Miraíma/CE,-3.568674,-39.966267,1,7.23694
1,Mirinzal/MA,-2.0664539,-44.7837348,4,26.73439
D1,Mirinzal/MA,-2.0664539,-44.7837348,1,6.68360
1,Missão Velha/CE,-7.248491,-39.1434843,1,2.82542
1,Mocajuba/PA,-2.583098,-49.504224,4,12.84687
1,Mococa/SP,-21.464731,-47.002405,5,7.25847
D1,Mococa/SP,-21.464731,-47.002405,1,1.45169
1,Moema/MG,-19.8435409,-45.4106241,1,13.30318
1,Mogi Guaçu/SP,-22.372222,-46.9425,25,16.45950
D1,Mogi Guaçu/SP,-22.372222,-46.9425,1,0.65838
1,Mogi Mirim/SP,-22.433009,-46.9581629,4,4.29235
1,Mogi das Cruzes/SP,-23.5234284,-46.1926671,271,60.78387
D1,Mogi das Cruzes/SP,-23.5234284,-46.1926671,21,4.71019
1,Moju/PA,-1.889926,-48.766765,3,3.65435
D1,Moju/PA,-1.889926,-48.766765,1,1.21812
1,Mombaça/CE,-5.7450899,-39.6293519,6,13.69957
D1,Mombaça/CE,-5.7450899,-39.6293519,1,2.28326
1,Mongaguá/SP,-24.0959454,-46.6234361,11,19.39967
D1,Mongaguá/SP,-24.0959454,-46.6234361,1,1.76361
1,Monsenhor Tabosa/CE,-4.7879512,-40.063949,3,17.40745
1,Montanha/ES,-18.1256742,-40.366795,1,5.30983
1,Montanhas/RN,-6.4866542,-35.2853577,1,8.88810
1,Monte Alegre/PA,-1.9989108,-54.0727694,5,8.61594
1,Monte Alegre/RN,-6.069901,-35.333635,4,17.81658
1,Monte Alto/SP,-21.265545,-48.497066,14,27.72387
D1,Monte Alto/SP,-21.265545,-48.497066,1,1.98028
1,Monte Azul Paulista/SP,-20.90649,-48.638717,1,5.26094
1,Monte Azul/MG,-15.1531999,-42.8711742,1,4.79524
1,Monte Belo do Sul/RS,-29.1636205,-51.6347449,1,39.24647
D1,Monte Belo do Sul/RS,-29.1636205,-51.6347449,1,39.24647
1,Monte Carmelo/MG,-18.7260939,-47.4958859,5,10.45828
1,Monte Mor/SP,-22.945043,-47.312182,6,10.03814
D1,Monte Mor/SP,-22.945043,-47.312182,2,3.34605
1,Monteiro/PB,-7.8920179,-37.1232051,1,3.01005
1,Montenegro/RS,-29.6826112,-51.4687455,3,4.59671
1,Montes Claros/MG,-16.7273538,-43.8717676,16,3.90872
D1,Montes Claros/MG,-16.7273538,-43.8717676,1,0.24430
1,Montividiu/GO,-17.4439339,-51.172815,1,7.46491
1,Monção/MA,-3.4842036,-45.2515472,4,11.96387
1,Morada Nova/CE,-5.1076699,-38.3727852,5,8.07885
1,Moreno/PE,-8.108706,-35.08354,35,55.74669
D1,Moreno/PE,-8.108706,-35.08354,1,1.59276
1,Morpará/BA,-11.5628341,-43.2768414,4,46.95387
1,Morretes/PR,-25.4770051,-48.8321911,2,12.19066
1,Morrinhos/GO,-17.7333689,-49.105908,1,2.16750
1,Morro Agudo/SP,-20.7276692,-48.052795,2,6.06649
1,Morro Cabeça no Tempo/PI,-9.7236848,-43.9037699,1,22.06531
1,Morro da Fumaça/SC,-28.6522275,-49.2133979,6,33.71544
1,Morro da Garça/MG,-18.5435188,-44.6030199,1,40.61738
D1,Morro da Garça/MG,-18.5435188,-44.6030199,1,40.61738
1,Morros/MA,-2.8652201,-44.0390477,3,15.43766
D1,Morros/MA,-2.8652201,-44.0390477,1,5.14589
1,Morungaba/SP,-22.88,-46.79167,7,51.38746
1,Mossoró/RN,-5.1904332,-37.3443872,174,58.51139
D1,Mossoró/RN,-5.1904332,-37.3443872,14,4.70781
1,Muaná/PA,-1.5317443,-49.2223565,1,2.47838
1,Mucajaí/RR,2.4486084,-60.9199986,1,5.60130
1,Mucambo/CE,-3.9043285,-40.7454425,1,6.87900
1,Mucugê/BA,-13.0053,-41.370271,4,44.14037
1,Mulungu/CE,-5.8359648,-39.3777574,4,36.95833
1,Mundo Novo/MS,-23.9378876,-54.2859489,2,10.88969
1,Munhoz/MG,-22.613056,-46.360556,3,49.75950
1,Muniz Freire/ES,-20.4636068,-41.4137007,1,5.72574
1,Muriaé/MG,-21.130556,-42.366389,10,9.19430
1,Muribeca/SE,-10.4227085,-36.9567299,1,13.11475
1,Murici/AL,-9.306823,-35.942798,20,70.83156
D1,Murici/AL,-9.306823,-35.942798,1,3.54158
1,Mutum/MG,-19.817223,-41.438333,1,3.70659
1,Muzambinho/MG,-21.3727087,-46.51927,1,4.86169
1,Muçum/RS,-29.1666714,-51.8747726,2,40.37142
1,Mário Campos/MG,-20.0511,-44.1858,2,12.97353
D1,Mário Campos/MG,-20.0511,-44.1858,1,6.48677
1,Mâncio Lima/AC,-7.6145911,-72.905264,2,10.53907
1,Mãe do Rio/PA,-2.0458692,-47.5522076,5,16.62400
1,Nanuque/MG,-17.8391113,-40.3537221,2,4.90798
D1,Nanuque/MG,-17.8391113,-40.3537221,1,2.45399
1,Natal/RN,-5.805398,-35.2080905,567,64.13142
D1,Natal/RN,-5.805398,-35.2080905,12,1.35728
1,Navegantes/SC,-26.8898813,-48.6495828,38,46.64007
1,Naviraí/MS,-23.0622152,-54.2018319,1,1.82222
1,Nazareno/MG,-21.2134896,-44.649049590000004,1,11.61710
1,Nazaré Paulista/SP,-23.1819309,-46.3992986,5,26.99201
D1,Nazaré Paulista/SP,-23.1819309,-46.3992986,1,5.39840
1,Nazaré da Mata/PE,-7.7452689,-35.2286396,8,24.63737
D1,Nazaré da Mata/PE,-7.7452689,-35.2286396,1,3.07967
1,Nazária/PI,-5.3512851,-42.8152823,2,23.33722
1,Nerópolis/GO,-16.4069816,-49.219438,5,16.75042
1,Nhamundá/AM,-2.1921521,-56.7111308,1,4.72300
1,Nhandeara/SP,-20.6942747,-50.0406162,1,8.71232
1,Nicolau Vergueiro/RS,-28.5361987,-52.4631712,1,59.45303
1,Nilo Peçanha/BA,-13.6015675,-39.1043356,1,7.14439
D1,Nilo Peçanha/BA,-13.6015675,-39.1043356,1,7.14439
1,Nilópolis/RJ,-22.8080114,-43.4138222,82,50.46620
D1,Nilópolis/RJ,-22.8080114,-43.4138222,6,3.69265
1,Niquelândia/GO,-14.4648655,-48.4572244,1,2.15573
1,Niterói/RJ,-22.8832371,-43.1154552,406,79.05231
D1,Niterói/RJ,-22.8832371,-43.1154552,26,5.06246
1,Nossa Senhora da Glória/SE,-10.2188811,-37.4199759,3,8.12480
1,Nossa Senhora do Socorro/SE,-10.8553115,-37.1264863,27,14.70364
D1,Nossa Senhora do Socorro/SE,-10.8553115,-37.1264863,2,1.08916
1,Nova Andradina/MS,-22.2477565,-53.3480621,11,20.23026
1,Nova Bréscia/RS,-29.2158737,-52.0290188,1,30.03003
1,Nova Cruz/RN,-6.482111,-35.4332326,2,5.35576
1,Nova Esperança do Piriá/PA,-2.2663093,-46.9661622,8,37.43916
1,Nova Esperança/PR,-23.1818437,-52.1999852,5,17.91858
1,Nova Friburgo/RJ,-22.2800004,-42.5325303,57,29.90070
D1,Nova Friburgo/RJ,-22.2800004,-42.5325303,5,2.62287
1,Nova Fátima/PR,-23.433056,-50.5618055,1,12.26542
1,Nova Glória/GO,-15.1481798,-49.577239,1,12.24890
1,Nova Guataporanga/SP,-21.3330061,-51.6465874,1,43.17789
1,Nova Iguaçu/RJ,-22.7592175,-43.4508728,403,49.07883
D1,Nova Iguaçu/RJ,-22.7592175,-43.4508728,38,4.62778
1,Nova Ipixuna/PA,-4.916221,-49.082194,3,17.98777
1,Nova Lima/MG,-19.9854089,-43.8470691,55,57.96246
1,Nova Londrina/PR,-22.7633621,-52.9875908,4,30.27322
1,Nova Monte Verde/MT,-9.9796694,-57.467331,1,10.89562
1,Nova Mutum/MT,-13.8255015,-56.0849262,2,4.40742
1,Nova Odessa/SP,-22.783186,-47.294059,7,11.63293
D1,Nova Odessa/SP,-22.783186,-47.294059,1,1.66185
1,Nova Olinda do Maranhão/MA,-2.8043732,-45.7013215,1,4.77829
1,Nova Olinda do Norte/AM,-3.8926889,-59.0953046,8,21.40296
1,Nova Olinda/CE,-7.0934174,-39.6789815,6,38.54802
1,Nova Olinda/TO,-7.631712,-48.425232,1,8.46095
1,Nova Palma/RS,-29.4711081,-53.4693751,1,15.35627
1,Nova Prata/RS,-28.784398,-51.6105402,3,11.00635
1,Nova Serrana/MG,-19.875834,-44.984166,4,3.89510
D1,Nova Serrana/MG,-19.875834,-44.984166,1,0.97378
1,Nova Soure/BA,-11.2409332,-38.4774123,1,3.71099
1,Nova Timboteua/PA,-1.2052428,-47.3935775,4,26.03658
1,Nova Trento/SC,-27.2862616,-48.9302652,1,6.87332
1,Nova Veneza/GO,-16.3709074,-49.3212061,1,10.14919
1,Nova Veneza/SC,-28.637371,-49.4997634,6,39.56218
1,Nova Venécia/ES,-18.7063456,-40.3969786,5,9.97805
D1,Nova Venécia/ES,-18.7063456,-40.3969786,1,1.99561
1,Novo Airão/AM,-2.6260236,-60.9434406,4,20.56132
D1,Novo Airão/AM,-2.6260236,-60.9434406,1,5.14033
1,Novo Aripuanã/AM,-5.125929,-60.373179,7,27.29683
1,Novo Cruzeiro/MG,-19.4730937,-42.537897,2,6.38345
D1,Novo Cruzeiro/MG,-19.4730937,-42.537897,1,3.19173
1,Novo Gama/GO,-16.0496528,-48.0304615,3,2.59267
1,Novo Hamburgo/RS,-29.6905705,-51.1429035,32,12.96870
D1,Novo Hamburgo/RS,-29.6905705,-51.1429035,2,0.81054
1,Novo Horizonte do Oeste/RO,-11.7105311,-61.9993277,1,11.71234
1,Novo Horizonte/SP,-21.4674564,-49.2235377,3,7.30780
1,Novo Lino/AL,-8.941905,-35.664001,1,7.88022
1,Novo Oriente/CE,-5.5350339,-40.7748902,2,6.99130
1,Novo Progresso/PA,-7.0374884,-55.4185904,2,7.76337
1,Não-Me-Toque/RS,-28.4575507,-52.8196547,6,34.04448
1,Nísia Floresta/RN,-6.0902674,-35.2085026,8,28.98341
D1,Nísia Floresta/RN,-6.0902674,-35.2085026,1,3.62293
1,Ocara/CE,-4.4910653,-38.5964829,10,38.90596
D1,Ocara/CE,-4.4910653,-38.5964829,1,3.89060
1,Oeiras do Pará/PA,-2.0040813,-49.8596065,16,49.21260
D1,Oeiras do Pará/PA,-2.0040813,-49.8596065,1,3.07579
1,Oeiras/PI,-7.0109909,-42.1299376,6,16.20352
1,Oiapoque/AP,3.8432128,-51.8350798,24,88.00880
D1,Oiapoque/AP,3.8432128,-51.8350798,1,3.66703
1,Olho d'Água das Cunhãs/MA,-4.140311,-45.1184685,1,5.12689
1,Olho d'Água das Flores/AL,-9.5318374,-37.2939052,1,4.61084
1,Olinda/PE,-7.9986401,-34.8459552,617,157.20466
D1,Olinda/PE,-7.9986401,-34.8459552,43,10.95592
1,Oliveira dos Brejinhos/BA,-12.3193308,-42.8914271,1,4.58190
1,Olímpia/SP,-20.736634,-48.910625,5,9.12875
1,Orleans/SC,-28.3572698,-49.2872434,12,52.37430
1,Orlândia/SP,-20.720278,-47.886667,4,9.08513
1,Orobó/PE,-7.74562,-35.6019195,1,4.18690
1,Orocó/PE,-8.6147294,-39.6036682,1,6.67067
1,Orós/CE,-6.2427541,-38.9141151,1,4.66701
1,Osasco/SP,-23.5324859,-46.7916801,828,118.55365
D1,Osasco/SP,-23.5324859,-46.7916801,85,12.17036
1,Osório/RS,-29.8890328,-50.2730224,2,4.34839
1,Ouricuri/PE,-7.884432,-40.0833221,2,2.87940
1,Ourilândia do Norte/PA,-6.748975,-51.0788476,2,6.09162
1,Ourinhos/SP,-22.9777918,-49.868204,19,16.73390
D1,Ourinhos/SP,-22.9777918,-49.868204,3,2.64219
1,Ouro Branco/RN,-6.703294,-36.9429599,1,20.78138
1,Ouro Fino/MG,-22.283056,-46.369167,3,8.91822
D1,Ouro Fino/MG,-22.283056,-46.369167,1,2.97274
1,Ouro Preto do Oeste/RO,-10.7223354,-62.2533413,7,19.42556
1,Ourém/PA,-1.5489964,-47.1174572,5,28.02376
1,Pacajus/CE,-4.171073,-38.464988,23,31.85463
D1,Pacajus/CE,-4.171073,-38.464988,2,2.76997
1,Pacajá/PA,-3.8354195,-50.6399248,2,4.19234
1,Pacaraima/RR,4.4791253,-61.1471016,17,97.69553
1,Pacatuba/CE,-3.9841,-38.6180383,50,59.92904
D1,Pacatuba/CE,-3.9841,-38.6180383,3,3.59574
1,Pacatuba/SE,-10.4506594,-36.6473212,2,13.86194
1,Pacoti/CE,-4.2253561,-38.9208352,3,24.46782
D1,Pacoti/CE,-4.2253561,-38.9208352,1,8.15594
1,Paiçandu/PR,-23.4575884,-52.048988,1,2.42242
1,Palestina/AL,-9.6727944,-37.328509,1,19.95610
1,Palhoça/SC,-27.6447774,-48.6646323,29,16.88039
D1,Palhoça/SC,-27.6447774,-48.6646323,1,0.58208
1,Palma Sola/SC,-26.3482487,-53.2775974,1,13.47164
1,Palmares/PE,-8.684226,-35.589032,10,15.81028
D1,Palmares/PE,-8.684226,-35.589032,3,4.74308
1,Palmas/PR,-26.483868,-51.988812,1,1.96132
1,Palmas/TO,-10.1835604,-48.3337793,66,22.06421
D1,Palmas/TO,-10.1835604,-48.3337793,2,0.66861
1,Palmeira das Missões/RS,-27.9010519,-53.3135927,2,6.00546
1,Palmeira dos Índios/AL,-9.4112877,-36.6293905,12,16.38941
1,Palmeira/PR,-25.4269718,-49.9987787,2,5.90371
1,Palmeirais/PI,-5.9761427,-43.0637158,2,13.75610
1,Palmeiras/BA,-12.5151234,-41.5746054,1,11.08770
1,Palmital/SP,-22.786384,-50.2198965,1,4.50025
1,Palmitos/SC,-27.0711023,-53.1596594,1,6.18467
1,Palotina/PR,-24.2839929,-53.8405463,2,6.28022
1,Panelas/PE,-8.661211,-36.012539,2,7.55458
D1,Panelas/PE,-8.661211,-36.012539,1,3.77729
1,Papanduva/SC,-26.4065885,-50.1457369,2,10.35197
1,Paracambi/RJ,-22.6109158,-43.7096912,30,57.40858
D1,Paracambi/RJ,-22.6109158,-43.7096912,3,5.74086
1,Paracatu/MG,-17.2174056,-46.8707514,17,18.24857
1,Paracuru/CE,-3.41436,-39.030028,4,11.40381
1,Paragominas/PA,-2.99564,-47.3548942,30,26.51465
D1,Paragominas/PA,-2.99564,-47.3548942,3,2.65146
1,Paraibuna/SP,-23.3864203,-45.6626797,2,10.97574
1,Paraipaba/CE,-3.437987,-39.147868,15,45.80992
1,Paraisópolis/MG,-22.5541683,-45.7800024,4,18.97263
D1,Paraisópolis/MG,-22.5541683,-45.7800024,2,9.48632
1,Paramirim/BA,-13.4437218,-42.2419768,2,9.25626
1,Paranacity/PR,-22.9304971,-52.1523164,5,43.58438
1,Paranaguá/PR,-25.5121904,-48.5251854,16,10.32684
D1,Paranaguá/PR,-25.5121904,-48.5251854,2,1.29086
1,Paranaiguara/GO,-18.9137048,-50.6536307,1,9.94332
1,Paranapanema/SP,-23.390161,-48.720868,2,9.90246
1,Paranapoema/PR,-22.6561084,-52.0865163,1,31.22073
1,Paranavaí/PR,-23.08165,-52.461724,36,40.73596
D1,Paranavaí/PR,-23.08165,-52.461724,2,2.26311
1,Paranaíba/MS,-19.6751971,-51.1874986,2,4.74518
D1,Paranaíba/MS,-19.6751971,-51.1874986,1,2.37259
1,Paraty/RJ,-23.2196461,-44.7154196,7,16.21684
D1,Paraty/RJ,-23.2196461,-44.7154196,1,2.31669
1,Parauapebas/PA,-6.0696846,-49.8903283,78,37.45085
D1,Parauapebas/PA,-6.0696846,-49.8903283,6,2.88083
1,Paraí/RS,-28.5966772,-51.7851426,2,26.11989
1,Paraíba do Sul/RJ,-22.1636384,-43.2916915,10,22.58101
D1,Paraíba do Sul/RJ,-22.1636384,-43.2916915,1,2.25810
1,Paraíso das Águas/MS,-19.0219279,-53.0122646,1,18.00180
1,Paraíso do Norte/PR,-23.2841185,-52.6024125,1,7.23066
1,Paraíso do Tocantins/TO,-10.1752474,-48.886759,3,5.85343
D1,Paraíso do Tocantins/TO,-10.1752474,-48.886759,1,1.95114
1,Paraúna/GO,-16.9495937,-50.4473008,3,27.30251
D1,Paraúna/GO,-16.9495937,-50.4473008,1,9.10084
1,Pareci Novo/RS,-29.6386722,-51.3961969,1,26.06203
1,Parintins/AM,-2.6344567,-56.7319324,179,156.64243
D1,Parintins/AM,-2.6344567,-56.7319324,13,11.37627
1,Paripueira/AL,-9.463133,-35.551977,1,7.58956
D1,Paripueira/AL,-9.463133,-35.551977,1,7.58956
1,Pariquera-Açu/SP,-24.7146891,-47.8802361,29,147.59772
D1,Pariquera-Açu/SP,-24.7146891,-47.8802361,1,5.08958
1,Parisi/SP,-20.3039424,-50.0135808,1,46.27487
1,Parnamirim/RN,-5.9153334,-35.2679913,116,44.36472
D1,Parnamirim/RN,-5.9153334,-35.2679913,4,1.52982
1,Parnaíba/PI,-2.9147515,-41.7661953,26,16.98481
D1,Parnaíba/PI,-2.9147515,-41.7661953,3,1.95979
1,Pará de Minas/MG,-19.8599637,-44.6075313,5,5.32090
1,Passa e Fica/RN,-6.4356697,-35.6434459,1,7.53182
1,Passira/PE,-7.976317,-35.5817327,8,27.65009
1,Passo Fundo/RS,-28.2616138,-52.4089048,161,79.20305
D1,Passo Fundo/RS,-28.2616138,-52.4089048,13,6.39528
1,Passos/MG,-20.719162,-46.6094507,1,0.87200
1,Pato Branco/PR,-26.2295984,-52.6712474,14,16.89169
D1,Pato Branco/PR,-26.2295984,-52.6712474,1,1.20655
1,Patos de Minas/MG,-18.6041453,-46.5096698,15,9.83684
D1,Patos de Minas/MG,-18.6041453,-46.5096698,1,0.65579
1,Patos/PB,-7.0258285,-37.2766817,21,19.51582
D1,Patos/PB,-7.0258285,-37.2766817,3,2.78797
1,Patrocínio/MG,-18.9408294,-46.9926624,19,20.93502
D1,Patrocínio/MG,-18.9408294,-46.9926624,1,1.10184
1,Paty do Alferes/RJ,-22.4272703,-43.4219523,4,14.40455
1,Pau dos Ferros/RN,-6.1124964,-38.2062628,7,23.03086
1,Paudalho/PE,-7.90287,-35.171639,39,69.01922
D1,Paudalho/PE,-7.90287,-35.171639,7,12.38806
1,Paulino Neves/MA,-2.7227359,-42.5397648,1,6.23636
1,Paulista/PE,-7.9340069,-34.868407,445,134.12745
D1,Paulista/PE,-7.9340069,-34.868407,28,8.43948
1,Paulistânia/SP,-22.5769873,-49.4028157,2,109.11075
1,Paulo Afonso/BA,-9.3991006,-38.226711,7,5.94318
1,Paulo Jacinto/AL,-9.3679179,-36.3672411,1,13.22052
1,Paulo Lopes/SC,-27.964968,-48.6830299,2,26.68802
1,Paulínia/SP,-22.7630391,-47.1532213,19,17.36365
D1,Paulínia/SP,-22.7630391,-47.1532213,1,0.91388
1,Paço do Lumiar/MA,-2.5210576,-44.1063031,106,86.74517
D1,Paço do Lumiar/MA,-2.5210576,-44.1063031,8,6.54681
1,Peabiru/PR,-23.9142123,-52.3455598,2,14.28980
1,Pederneiras/SP,-22.351086,-48.778113,2,4.28385
D1,Pederneiras/SP,-22.351086,-48.778113,1,2.14192
1,Pedra Bela/SP,-22.7950193,-46.4431811,1,16.41228
1,Pedra Branca do Amapari/AP,0.7771833,-51.9523218,4,24.23949
1,Pedra Branca/CE,-5.455674,-39.7166286,14,32.36396
D1,Pedra Branca/CE,-5.455674,-39.7166286,2,4.62342
1,Pedra/PE,-8.4995589,-36.944377,7,30.95017
1,Pedras Grandes/SC,-28.4357866,-49.1864128,4,100.60362
D1,Pedras Grandes/SC,-28.4357866,-49.1864128,1,25.15091
1,Pedras de Fogo/PB,-7.3988977,-35.112176,6,21.08370
1,Pedreiras/MA,-4.5687989,-44.6003029,6,15.29481
1,Pedrinhas Paulista/SP,-22.815725,-50.792359,2,64.66214
D1,Pedrinhas Paulista/SP,-22.815725,-50.792359,1,32.33107
1,Pedro Canário/ES,-18.2998272,-39.9558844,3,11.45738
1,Pedro II/PI,-4.425845,-41.448184,3,7.74353
D1,Pedro II/PI,-4.425845,-41.448184,1,2.58118
1,Pedro Leopoldo/MG,-19.617778,-44.043055,1,1.55623
1,Pedro de Toledo/SP,-24.2769071,-47.23393,2,17.65069
1,Peixe-Boi/PA,-1.193824,-47.324031,1,12.38083
1,Peixoto de Azevedo/MT,-10.2429203,-54.9919857,2,5.71821
1,Pelotas/RS,-31.7699736,-52.3410161,20,5.84104
1,Pendências/RN,-5.2572092,-36.7182487,1,6.60982
1,Penedo/AL,-10.2872341,-36.5819262,1,1.57028
1,Penha/SC,-26.775418,-48.6465251,7,21.51794
D1,Penha/SC,-26.775418,-48.6465251,1,3.07399
1,Pentecoste/CE,-3.7952282,-39.2713219,7,18.54256
D1,Pentecoste/CE,-3.7952282,-39.2713219,1,2.64894
1,Penápolis/SP,-21.4192406,-50.0765588,2,3.15423
D1,Penápolis/SP,-21.4192406,-50.0765588,1,1.57711
1,Perdões/MG,-21.0919737,-45.0903543,7,32.72557
1,Pereiro/CE,-6.046269,-38.4604192,4,24.52934
1,Peritiba/SC,-27.3736365,-51.9050311,3,107.64263
1,Peritoró/MA,-4.3723643,-44.3317455,1,4.31109
1,Peruíbe/SP,-24.3218105,-46.9977452,22,32.21838
D1,Peruíbe/SP,-24.3218105,-46.9977452,1,1.46447
1,Pescaria Brava/SC,-28.3845591,-48.8658054,1,9.90982
1,Pesqueira/PE,-8.3579952,-36.6971741,2,2.96758
1,Petrolina/PE,-9.3817334,-40.4968875,19,5.44187
1,Petrópolis/RJ,-22.519963,-43.192613,94,30.69979
D1,Petrópolis/RJ,-22.519963,-43.192613,9,2.93934
1,Piaçabuçu/AL,-10.4066897,-36.433654,2,11.21894
1,Picos/PI,-7.0823544,-41.4685053,28,35.79556
D1,Picos/PI,-7.0823544,-41.4685053,1,1.27841
1,Piedade/SP,-23.7074096,-47.4252319,10,18.06750
1,Pilar do Sul/SP,-23.8121684,-47.7201865,4,13.70567
1,Pilar/AL,-9.6016711,-35.9511275,5,14.24055
1,Pilar/PB,-7.264034,-35.252326,1,8.39137
1,Pilõezinhos/PB,-6.8427437,-35.5308348,1,20.09646
1,Pimenta Bueno/RO,-11.6767868,-61.1863902,1,2.72777
1,Pimenteiras/PI,-6.2366098,-41.4192948,1,8.24606
1,Pindamonhangaba/SP,-22.9340165,-45.462938,11,6.53486
D1,Pindamonhangaba/SP,-22.9340165,-45.462938,1,0.59408
1,Pindorama/SP,-21.1853,-48.90861,6,35.19268
1,Pindoretama/CE,-4.0265183,-38.3066829,11,53.48374
D1,Pindoretama/CE,-4.0265183,-38.3066829,2,9.72432
1,Pinhais/PR,-25.4443488,-49.1900307,24,18.16022
D1,Pinhais/PR,-25.4443488,-49.1900307,2,1.51335
1,Pinhal de São Bento/PR,-26.0326418,-53.4837511,1,36.61662
1,Pinhalzinho/SP,-22.7824349,-46.5901718,1,6.57592
1,Pinheiral/RJ,-22.5129436,-44.001435,8,31.80156
1,Pinheiro/MA,-2.5270459,-45.0866463,17,20.38687
1,Pinheiros/ES,-18.4127047,-40.217534,4,14.78907
D1,Pinheiros/ES,-18.4127047,-40.217534,1,3.69727
1,Pinhão/PR,-25.6960895,-51.6566366,2,6.17455
1,Pio IX/PI,-6.8351921,-40.6148654,1,5.42741
1,Piquerobi/SP,-21.8856652,-51.7296404,2,54.17118
1,Piracaia/SP,-23.052545,-46.359374,4,14.65040
D1,Piracaia/SP,-23.052545,-46.359374,1,3.66260
1,Piracicaba/SP,-22.72528,-47.64917,90,22.26940
D1,Piracicaba/SP,-22.72528,-47.64917,9,2.22694
1,Piracuruca/PI,-3.9304804,-41.7150099,8,27.78646
D1,Piracuruca/PI,-3.9304804,-41.7150099,2,6.94662
1,Piraju/SP,-23.1897822,-49.3840493,11,36.90532
1,Pirajuí/SP,-21.9957877,-49.4549675,1,3.92280
1,Pirapetinga/MG,-21.656903,-42.345955,1,9.30060
1,Pirapora do Bom Jesus/SP,-23.3972146,-47.0025661,16,84.67849
1,Pirapora/MG,-17.3493765,-44.9507904,2,3.54434
