type,name,lat,lon,total,total_per_100k_inhabitants
1,Abadia de Goiás/GO,-16.7572644,-49.4412205,100,1139.86094
1,Abadia dos Dourados/MG,-18.4911191,-47.4063589,5,71.54099
1,Abadiânia/GO,-16.1940946,-48.7067767,68,339.28750
D1,Abadiânia/GO,-16.1940946,-48.7067767,4,19.95809
1,Abaetetuba/PA,-1.721828,-48.878843,2465,1563.11431
D1,Abaetetuba/PA,-1.721828,-48.878843,106,67.21709
1,Abaeté/MG,-19.1566833,-45.4481213,22,94.67659
1,Abaiara/CE,-7.3607808,-39.0487878,27,230.04175
D1,Abaiara/CE,-7.3607808,-39.0487878,1,8.52006
1,Abaré/BA,-8.7239913,-39.1139689,7,34.85014
1,Abatiá/PR,-23.3052967,-50.3102532,53,710.74159
1,Abaíra/BA,-13.2503296,-41.6640342,5,57.21478
1,Abdon Batista/SC,-27.612419,-51.022992,49,1911.82208
1,Abel Figueiredo/PA,-4.953001,-48.3958485,101,1358.62255
D1,Abel Figueiredo/PA,-4.953001,-48.3958485,1,13.45171
1,Abelardo Luz/SC,-26.5705893,-52.3280339,88,491.51028
D1,Abelardo Luz/SC,-26.5705893,-52.3280339,3,16.75603
1,Abre Campo/MG,-20.2976097,-42.4764741,10,74.32734
1,Abreu e Lima/PE,-7.900719,-34.898389,535,535.05351
D1,Abreu e Lima/PE,-7.900719,-34.898389,66,66.00660
1,Abreulândia/TO,-9.6221526,-49.1558343,7,271.42303
D1,Abreulândia/TO,-9.6221526,-49.1558343,2,77.54944
1,Acaiaca/MG,-20.3621646,-43.1444162,12,300.45068
D1,Acaiaca/MG,-20.3621646,-43.1444162,1,25.03756
1,Acajutiba/BA,-11.6609659,-38.0186381,42,277.06313
D1,Acajutiba/BA,-11.6609659,-38.0186381,2,13.19348
1,Acarape/CE,-4.2237866,-38.7071663,765,5124.25481
D1,Acarape/CE,-4.2237866,-38.7071663,14,93.77721
1,Acaraú/CE,-2.8869514,-40.1194713,2000,3192.79705
D1,Acaraú/CE,-2.8869514,-40.1194713,47,75.03073
1,Acari/RN,-6.4364689,-36.6394777,40,359.19540
D1,Acari/RN,-6.4364689,-36.6394777,3,26.93966
1,Acará/PA,-1.961388,-48.1987043,605,1088.30566
D1,Acará/PA,-1.961388,-48.1987043,13,23.38508
1,Acauã/PI,-8.219542,-41.083059,16,225.86110
1,Acopiara/CE,-6.0936464,-39.4543204,361,665.19256
D1,Acopiara/CE,-6.0936464,-39.4543204,19,35.01013
1,Acorizal/MT,-15.2001544,-56.3668953,60,1111.31691
D1,Acorizal/MT,-15.2001544,-56.3668953,1,18.52195
1,Acrelândia/AC,-10.0759167,-67.0526898,227,1487.93917
D1,Acrelândia/AC,-10.0759167,-67.0526898,3,19.66439
1,Acreúna/GO,-17.3959899,-50.3749031,114,509.70223
D1,Acreúna/GO,-17.3959899,-50.3749031,2,8.94214
1,Adamantina/SP,-21.6866517,-51.0762975,83,236.68302
D1,Adamantina/SP,-21.6866517,-51.0762975,5,14.25801
1,Adelândia/GO,-16.4155077,-50.1665834,38,1510.33386
1,Adolfo/SP,-21.2356597,-49.6441918,27,758.00112
D1,Adolfo/SP,-21.2356597,-49.6441918,2,56.14823
1,Adrianópolis/PR,-24.6557863,-48.9912769,65,1098.15847
D1,Adrianópolis/PR,-24.6557863,-48.9912769,2,33.78949
1,Adustina/BA,-10.5358875,-38.114479,54,316.90141
D1,Adustina/BA,-10.5358875,-38.114479,1,5.86854
1,Afogados da Ingazeira/PE,-7.750429,-37.6356375,141,378.43206
D1,Afogados da Ingazeira/PE,-7.750429,-37.6356375,4,10.73566
1,Afonso Bezerra/RN,-5.4745,-36.57625071327935,56,507.47621
D1,Afonso Bezerra/RN,-5.4745,-36.57625071327935,5,45.31038
1,Afonso Cláudio/ES,-20.077841,-41.12606,448,1464.72242
D1,Afonso Cláudio/ES,-20.077841,-41.12606,10,32.69470
1,Afonso Cunha/MA,-4.1326105,-43.3230026,121,1854.69037
D1,Afonso Cunha/MA,-4.1326105,-43.3230026,1,15.32802
1,Afrânio/PE,-8.5198919,-41.0070197,67,341.22740
D1,Afrânio/PE,-8.5198919,-41.0070197,1,5.09295
1,Afuá/PA,-0.1535664,-50.3879223,1080,2753.83752
D1,Afuá/PA,-0.1535664,-50.3879223,8,20.39880
1,Agrestina/PE,-8.4558021,-35.9442663,277,1113.12035
D1,Agrestina/PE,-8.4558021,-35.9442663,21,84.38819
1,Agricolândia/PI,-5.7967843,-42.6605131,14,272.42654
1,Agrolândia/SC,-27.4122212,-49.8295774,33,303.75552
D1,Agrolândia/SC,-27.4122212,-49.8295774,2,18.40943
1,Agronômica/SC,-27.2660744,-49.7104753,20,367.10720
D1,Agronômica/SC,-27.2660744,-49.7104753,2,36.71072
1,Aguanil/MG,-20.9424533,-45.3927152,10,222.91574
1,Aguaí/SP,-22.0592036,-46.979384,94,258.91750
D1,Aguaí/SP,-22.0592036,-46.979384,4,11.01777
1,Agudo/RS,-29.6423259,-53.2494005,2,12.14993
1,Agudos do Sul/PR,-25.9890808,-49.3328175,40,426.84879
1,Agudos/SP,-22.471162,-48.987822,166,446.06868
D1,Agudos/SP,-22.471162,-48.987822,3,8.06148
1,Aguiar/PB,-7.0928404,-38.1727215,19,336.87943
1,Aguiarnópolis/TO,-6.5600452,-47.4721189,222,3297.19293
D1,Aguiarnópolis/TO,-6.5600452,-47.4721189,5,74.26110
1,Aimorés/MG,-19.4917754,-41.0615603,127,504.62908
1,Aiquara/BA,-14.126918,-39.8887574,47,1057.13000
D1,Aiquara/BA,-14.126918,-39.8887574,1,22.49213
1,Aiuaba/CE,-6.5710836,-40.1212278,10,57.47457
D1,Aiuaba/CE,-6.5710836,-40.1212278,1,5.74746
1,Aiuruoca/MG,-21.9759554,-44.6036637,1,16.65834
1,Ajuricaba/RS,-28.239654,-53.7693013,3,42.71071
1,Alagoa Grande/PB,-7.0415212,-35.6285322,594,2084.50309
D1,Alagoa Grande/PB,-7.0415212,-35.6285322,11,38.60191
1,Alagoa Nova/PB,-7.0653703,-35.76695977336711,217,1040.81731
D1,Alagoa Nova/PB,-7.0653703,-35.76695977336711,6,28.77836
1,Alagoinha do Piauí/PI,-7.0090952,-40.939675,28,365.96523
1,Alagoinha/PB,-6.97063215,-35.51490901897793,605,4175.58148
D1,Alagoinha/PB,-6.97063215,-35.51490901897793,3,20.70536
1,Alagoinha/PE,-8.50355635,-36.77701174370496,83,567.09483
D1,Alagoinha/PE,-8.50355635,-36.77701174370496,2,13.66494
1,Alagoinhas/BA,-12.133526,-38.420772,904,596.32180
D1,Alagoinhas/BA,-12.133526,-38.420772,17,11.21402
1,Alambari/SP,-23.550338,-47.897971,31,514.52282
1,Albertina/MG,-20.66164,-43.784039,2,66.51147
1,Alcantil/PB,-7.7425491,-36.0609604,26,473.41588
1,Alcinópolis/MS,-18.3264121,-53.7094463,2,37.43215
D1,Alcinópolis/MS,-18.3264121,-53.7094463,1,18.71608
1,Alcobaça/BA,-17.5215875,-39.1965474,144,640.85447
D1,Alcobaça/BA,-17.5215875,-39.1965474,1,4.45038
1,Alcântara/MA,-2.4038956,-44.4154241,36,162.91804
D1,Alcântara/MA,-2.4038956,-44.4154241,5,22.62751
1,Alcântaras/CE,-3.586247,-40.5457641,321,2740.31074
D1,Alcântaras/CE,-3.586247,-40.5457641,3,25.61038
1,Aldeias Altas/MA,-4.6291957,-43.4708622,183,689.73315
1,Alecrim/RS,-27.6566142,-54.7653195,2,33.61345
1,Alegre/ES,-20.7625787,-41.5318886,177,588.35261
D1,Alegre/ES,-20.7625787,-41.5318886,10,33.24026
1,Alegrete do Piauí/PI,-7.2440138,-40.8602296,8,162.76704
1,Alegrete/RS,-29.790166,-55.794862,116,157.63225
D1,Alegrete/RS,-29.790166,-55.794862,6,8.15339
1,Alegria/RS,-27.8332103,-54.0574959,11,317.55196
1,Alenquer/PA,-1.946229,-54.738355,719,1266.09026
D1,Alenquer/PA,-1.946229,-54.738355,24,42.26171
1,Alexandria/RN,-6.414779,-38.0135516,25,184.13493
D1,Alexandria/RN,-6.414779,-38.0135516,2,14.73079
1,Alexânia/GO,-16.0834049,-48.5077803,116,419.48432
D1,Alexânia/GO,-16.0834049,-48.5077803,5,18.08122
1,Alfenas/MG,-21.4297405,-45.9479419,97,121.25606
D1,Alfenas/MG,-21.4297405,-45.9479419,1,1.25006
1,Alfredo Chaves/ES,-20.624970400000002,-40.75006690147988,202,1383.46689
D1,Alfredo Chaves/ES,-20.624970400000002,-40.75006690147988,4,27.39538
1,Alfredo Marcondes/SP,-21.9527,-51.413956,6,144.02304
D1,Alfredo Marcondes/SP,-21.9527,-51.413956,1,24.00384
1,Alfredo Vasconcelos/MG,-21.145833,-43.776389,11,159.25872
D1,Alfredo Vasconcelos/MG,-21.145833,-43.776389,1,14.47807
1,Alfredo Wagner/SC,-27.6961513,-49.3326734,14,139.49781
1,Algodão de Jandaíra/PB,-6.9040175,-36.0089879,4,155.82392
1,Alhandra/PB,-7.4304246,-34.9106103,453,2312.64039
D1,Alhandra/PB,-7.4304246,-34.9106103,13,66.36716
1,Aliança do Tocantins/TO,-11.3055927,-48.9409096,12,222.63451
1,Aliança/PE,-7.60398,-35.222696,277,721.61726
D1,Aliança/PE,-7.60398,-35.222696,22,57.31256
1,Almadina/BA,-14.70466,-39.6381994,63,1153.00146
D1,Almadina/BA,-14.70466,-39.6381994,1,18.30161
1,Almas/TO,-11.5681309,-47.1702803,11,155.91779
D1,Almas/TO,-11.5681309,-47.1702803,1,14.17434
1,Almeirim/PA,-1.5290377,-52.5788111,163,477.87974
D1,Almeirim/PA,-1.5290377,-52.5788111,17,49.84022
1,Almenara/MG,-16.1740678,-40.6904907,294,701.73764
D1,Almenara/MG,-16.1740678,-40.6904907,1,2.38686
1,Almino Afonso/RN,-6.1544208,-37.7649018,15,316.78986
1,Almirante Tamandaré/PR,-25.3133048,-49.2997838,387,326.24365
D1,Almirante Tamandaré/PR,-25.3133048,-49.2997838,5,4.21503
1,Aloândia/GO,-17.7277983,-49.4809338,2,100.25063
1,Alpercata/MG,-18.9803616,-41.9827637,91,1225.75431
1,Alpestre/RS,-27.2512339,-53.0349646,15,239.69319
1,Alpinópolis/MG,-20.863611,-46.387777,10,50.37022
D1,Alpinópolis/MG,-20.863611,-46.387777,3,15.11107
1,Alta Floresta D'Oeste/RO,-11.9296917,-61.9961284,161,701.67793
D1,Alta Floresta D'Oeste/RO,-11.9296917,-61.9961284,1,4.35825
1,Alta Floresta/MT,-9.8715018,-56.0839881,227,438.37627
D1,Alta Floresta/MT,-9.8715018,-56.0839881,6,11.58704
1,Altair/SP,-20.5238955,-49.0606135,6,144.23077
D1,Altair/SP,-20.5238955,-49.0606135,1,24.03846
1,Altamira do Maranhão/MA,-4.1643006,-45.4674574,185,2276.08268
D1,Altamira do Maranhão/MA,-4.1643006,-45.4674574,5,61.51575
1,Altamira do Paraná/PR,-24.799114,-52.7128633,1,51.49331
1,Altamira/PA,-3.204065,-52.209961,2544,2220.01152
D1,Altamira/PA,-3.204065,-52.209961,66,57.59464
1,Altaneira/CE,-6.9980933,-39.7385742,3,39.54653
1,Alterosa/MG,-21.249166,-46.143055,12,82.95313
1,Altinho/PE,-8.4904095,-36.0607494,270,1175.34390
D1,Altinho/PE,-8.4904095,-36.0607494,5,21.76563
1,Altinópolis/SP,-21.021364,-47.3712,44,271.87346
D1,Altinópolis/SP,-21.021364,-47.3712,2,12.35788
1,Alto Alegre do Maranhão/MA,-4.2055693,-44.4525287,321,1186.55972
D1,Alto Alegre do Maranhão/MA,-4.2055693,-44.4525287,11,40.66092
1,Alto Alegre do Pindaré/MA,-3.6698186,-45.8462153,1186,3715.65525
D1,Alto Alegre do Pindaré/MA,-3.6698186,-45.8462153,3,9.39879
1,Alto Alegre dos Parecis/RO,-12.1314515,-61.856265,60,453.13798
D1,Alto Alegre dos Parecis/RO,-12.1314515,-61.856265,1,7.55230
1,Alto Alegre/RR,2.98858,-61.307167,332,2140.55448
D1,Alto Alegre/RR,2.98858,-61.307167,7,45.13217
1,Alto Alegre/SP,-21.5820592,-50.1661976,10,243.96194
D1,Alto Alegre/SP,-21.5820592,-50.1661976,1,24.39619
1,Alto Araguaia/MT,-17.3156528,-53.2169365,66,346.56585
D1,Alto Araguaia/MT,-17.3156528,-53.2169365,3,15.75299
1,Alto Bela Vista/SC,-27.4320737,-51.905771,6,309.75736
1,Alto Boa Vista/MT,-11.6723985,-51.3744431,38,557.02140
D1,Alto Boa Vista/MT,-11.6723985,-51.3744431,2,29.31692
1,Alto Caparaó/MG,-20.4405661,-41.8683799,7,119.71951
1,Alto Feliz/RS,-29.3785943,-51.3123751,9,297.22589
1,Alto Garças/MT,-16.9469683,-53.529427,95,789.69244
1,Alto Horizonte/GO,-14.1954948,-49.3366993,32,498.90864
1,Alto Jequitibá/MG,-20.423611,-41.966111,25,300.58915
D1,Alto Jequitibá/MG,-20.423611,-41.966111,1,12.02357
1,Alto Longá/PI,-5.2549051,-42.2072388,51,356.54362
D1,Alto Longá/PI,-5.2549051,-42.2072388,2,13.98210
1,Alto Paraguai/MT,-14.513712,-56.4936374,36,317.01303
1,Alto Paraná/PR,-23.131247,-52.318893,19,128.63913
1,Alto Paraíso de Goiás/GO,-14.1304779,-47.5100161,59,773.87198
1,Alto Paraíso/PR,-23.508137,-53.728537,1,36.48304
1,Alto Paraíso/RO,-9.7240103,-63.3188123,103,480.67948
D1,Alto Paraíso/RO,-9.7240103,-63.3188123,4,18.66716
1,Alto Parnaíba/MA,-9.112506,-45.9310154,92,822.16265
D1,Alto Parnaíba/MA,-9.112506,-45.9310154,1,8.93655
1,Alto Piquiri/PR,-24.0239021,-53.4417448,23,233.83489
D1,Alto Piquiri/PR,-24.0239021,-53.4417448,1,10.16673
1,Alto Rio Doce/MG,-21.0239537,-43.4133507,57,518.18182
D1,Alto Rio Doce/MG,-21.0239537,-43.4133507,1,9.09091
1,Alto Rio Novo/ES,-19.0577208,-41.0171518,84,1071.97550
D1,Alto Rio Novo/ES,-19.0577208,-41.0171518,5,63.80807
1,Alto Santo/CE,-5.5190371,-38.2719351,143,834.01376
D1,Alto Santo/CE,-5.5190371,-38.2719351,4,23.32906
1,Alto Taquari/MT,-17.8269099,-53.2831736,12,110.62967
D1,Alto Taquari/MT,-17.8269099,-53.2831736,1,9.21914
1,Alto do Rodrigues/RN,-5.290868,-36.7616726,220,1514.21295
D1,Alto do Rodrigues/RN,-5.290868,-36.7616726,9,61.94508
1,Altos/PI,-5.0393915,-42.4611694,625,1542.29592
D1,Altos/PI,-5.0393915,-42.4611694,8,19.74139
1,Altônia/PR,-23.8722004,-53.894037,20,90.67827
1,Alumínio/SP,-23.5203479,-47.2575256,67,359.67361
D1,Alumínio/SP,-23.5203479,-47.2575256,4,21.47305
1,Alvarenga/MG,-19.4175,-41.728334,107,2738.67417
D1,Alvarenga/MG,-19.4175,-41.728334,1,25.59509
1,Alvarães/AM,-3.214786,-64.8143124,1075,6701.57721
D1,Alvarães/AM,-3.214786,-64.8143124,13,81.04233
1,Alvinlândia/SP,-22.4431852,-49.7643596,3,93.10987
1,Alvinópolis/MG,-20.1105199,-43.0601805,13,85.50944
1,Alvorada D'Oeste/RO,-11.346271,-62.284697,30,208.17431
D1,Alvorada D'Oeste/RO,-11.346271,-62.284697,1,6.93914
1,Alvorada de Minas/MG,-18.7318587,-43.3641479,28,776.48364
D1,Alvorada de Minas/MG,-18.7318587,-43.3641479,1,27.73156
1,Alvorada do Gurguéia/PI,-8.4465288,-43.8655915,14,258.35025
1,Alvorada do Norte/GO,-14.483911,-46.4959897,32,369.51501
1,Alvorada do Sul/PR,-22.7807269,-51.2307721,13,113.97510
D1,Alvorada do Sul/PR,-22.7807269,-51.2307721,2,17.53463
1,Alvorada/RS,-29.9981184,-51.0772509,787,374.21840
D1,Alvorada/RS,-29.9981184,-51.0772509,19,9.03450
1,Alvorada/TO,-12.478465,-49.124926,25,297.19448
1,Além Paraíba/MG,-21.8760576,-42.6810473,218,616.48097
D1,Além Paraíba/MG,-21.8760576,-42.6810473,10,28.27894
1,Amajari/RR,3.6523869,-61.4194315,203,1586.43326
D1,Amajari/RR,3.6523869,-61.4194315,3,23.44483
1,Amambai/MS,-23.1082701,-55.2284854,43,109.14814
D1,Amambai/MS,-23.1082701,-55.2284854,2,5.07666
1,Amaporã/PR,-23.094272,-52.786597,22,351.60620
1,Amapá do Maranhão/MA,-1.6762114,-46.0109669,3,43.09107
1,Amapá/AP,2.0529997,-50.7930003,363,3985.06971
D1,Amapá/AP,2.0529997,-50.7930003,4,43.91261
1,Amaraji/PE,-8.373925,-35.4536527,118,516.88642
D1,Amaraji/PE,-8.373925,-35.4536527,18,78.84708
1,Amaralina/GO,-13.9236199,-49.2962411,3,78.69885
1,Amarante do Maranhão/MA,-5.56913,-46.747284,598,1443.22433
D1,Amarante do Maranhão/MA,-5.56913,-46.747284,11,26.54760
1,Amarante/PI,-6.2459374,-42.8476238,26,147.74406
D1,Amarante/PI,-6.2459374,-42.8476238,2,11.36493
1,Amargosa/BA,-13.03793715,-39.60796443875596,98,263.15083
D1,Amargosa/BA,-13.03793715,-39.60796443875596,3,8.05564
1,Amaturá/AM,-3.3640509,-68.1994689,472,4091.53953
D1,Amaturá/AM,-3.3640509,-68.1994689,8,69.34813
1,Americana/SP,-22.7392463,-47.3306032,1151,480.38999
D1,Americana/SP,-22.7392463,-47.3306032,46,19.19890
1,Americano do Brasil/GO,-16.2515808,-49.9806104,59,965.47210
D1,Americano do Brasil/GO,-16.2515808,-49.9806104,1,16.36393
1,Ametista do Sul/RS,-27.3617341,-53.1826575,24,323.93035
1,Amontada/CE,-3.3634586,-39.8284791,699,1608.67164
D1,Amontada/CE,-3.3634586,-39.8284791,16,36.82224
1,Amorinópolis/GO,-16.6211308,-51.0949921,3,95.96929
1,Amparo de São Francisco/SE,-10.1299754,-36.9269099,22,926.70598
1,Amparo do Serra/MG,-20.5070255,-42.8028462,3,63.65372
1,Amparo/PB,-7.56394725,-37.04652873235175,13,580.87578
1,Amparo/SP,-22.70111,-46.76444,230,318.58162
D1,Amparo/SP,-22.70111,-46.76444,9,12.46624
1,Ampére/PR,-25.9168712,-53.4742414,9,46.99248
D1,Ampére/PR,-25.9168712,-53.4742414,1,5.22139
1,Amélia Rodrigues/BA,-12.4015388,-38.7516971,147,585.61071
D1,Amélia Rodrigues/BA,-12.4015388,-38.7516971,1,3.98375
1,América Dourada/BA,-11.4515262,-41.4357517,75,466.01218
1,Américo Brasiliense/SP,-21.7297099,-48.1052092,171,422.18053
D1,Américo Brasiliense/SP,-21.7297099,-48.1052092,2,4.93778
1,Américo de Campos/SP,-20.298476,-49.735904,61,1021.94672
1,Anadia/AL,-9.6830208,-36.3052699,301,1715.58849
D1,Anadia/AL,-9.6830208,-36.3052699,3,17.09889
1,Anagé/BA,-14.6134669,-41.1376308,30,136.33265
D1,Anagé/BA,-14.6134669,-41.1376308,1,4.54442
1,Anahy/PR,-24.6450861,-53.1337957,16,571.22456
1,Anajatuba/MA,-3.26441,-44.6179916,265,988.69530
D1,Anajatuba/MA,-3.26441,-44.6179916,6,22.38555
1,Anajás/PA,-0.9878802,-49.9390114,440,1502.88622
D1,Anajás/PA,-0.9878802,-49.9390114,11,37.57216
1,Analândia/SP,-22.128917,-47.661939,12,240.24024
1,Anamã/AM,-3.5797356,-61.4049996,377,2769.20817
1,Ananindeua/PA,-1.374035,-48.4016623,4956,934.04046
D1,Ananindeua/PA,-1.374035,-48.4016623,339,63.89018
1,Ananás/TO,-6.3663053,-48.080238,64,670.22725
D1,Ananás/TO,-6.3663053,-48.080238,1,10.47230
1,Anapu/PA,-3.4668292,-51.2057035,566,2029.40122
D1,Anapu/PA,-3.4668292,-51.2057035,7,25.09860
1,Anapurus/MA,-3.6751298,-43.1046001,659,4188.91431
D1,Anapurus/MA,-3.6751298,-43.1046001,6,38.13883
1,Anastácio/MS,-20.4832458,-55.8048448,10,39.78516
D1,Anastácio/MS,-20.4832458,-55.8048448,2,7.95703
1,Anaurilândia/MS,-22.185169,-52.719056,8,88.54455
1,Anchieta/ES,-20.8057672,-40.6454564,420,1435.25954
D1,Anchieta/ES,-20.8057672,-40.6454564,14,47.84198
1,Anchieta/SC,-26.5350527,-53.3293938,9,159.63107
1,Andaraí/BA,-12.8059674,-41.3322919,9,68.47752
1,Andirá/PR,-23.0494761,-50.2310027,59,294.54346
D1,Andirá/PR,-23.0494761,-50.2310027,1,4.99226
1,Andorinha/BA,-10.3445708,-39.8334411,25,171.29154
D1,Andorinha/BA,-10.3445708,-39.8334411,1,6.85166
1,Andradas/MG,-22.0680484,-46.5688976,36,87.64029
D1,Andradas/MG,-22.0680484,-46.5688976,1,2.43445
1,Andradina/SP,-20.896505,-51.3742765,84,146.96363
D1,Andradina/SP,-20.896505,-51.3742765,5,8.74783
1,Andrelândia/MG,-21.739722,-44.308889,17,139.07068
1,André da Rocha/RS,-28.6309124,-51.5733328,4,300.07502
1,Angatuba/SP,-23.4938938,-48.4110675,104,412.24037
D1,Angatuba/SP,-23.4938938,-48.4110675,2,7.92770
1,Angelim/PE,-8.8902038,-36.2872987,25,224.21525
D1,Angelim/PE,-8.8902038,-36.2872987,1,8.96861
1,Angelina/SC,-27.5805287,-48.9838759,23,479.06686
1,Angical do Piauí/PI,-6.0872666,-42.7366138,39,574.54331
D1,Angical do Piauí/PI,-6.0872666,-42.7366138,2,29.46376
1,Angical/BA,-12.005623,-44.7000236,3,21.46383
1,Angico/TO,-6.3893733,-47.8656722,10,291.29042
1,Angicos/RN,-5.6666344,-36.6009064,81,691.48028
D1,Angicos/RN,-5.6666344,-36.6009064,2,17.07359
1,Angra dos Reis/RJ,-23.0063966,-44.316326,2545,1248.86523
D1,Angra dos Reis/RJ,-23.0063966,-44.316326,93,45.63633
1,Anguera/BA,-12.1509425,-39.2452469,36,320.82702
1,Angélica/MS,-22.1588196,-53.7728504,14,129.87013
1,Anhanguera/GO,-18.3338749,-48.220363,3,261.09661
1,Anhembi/SP,-22.7891096,-48.1316776,3,44.61630
1,Anhumas/SP,-22.2956478,-51.3873401,9,218.71203
1,Anicuns/GO,-16.4606451,-49.9572265,175,800.91533
1,Anita Garibaldi/SC,-27.6855032,-51.1293873,35,490.67713
1,Anitápolis/SC,-27.9041185,-49.1287395,7,216.58416
1,Anori/AM,-3.7435254,-61.6605203,709,3374.58353
D1,Anori/AM,-3.7435254,-61.6605203,11,52.35602
1,Anta Gorda/RS,-28.9718745,-52.0069187,12,200.63535
1,Antas/BA,-10.4114649,-38.3308815,25,129.59411
1,Antonina do Norte/CE,-6.7754187,-39.9879345,12,163.19869
1,Antonina/PR,-25.4298854,-48.7125431,61,321.39094
D1,Antonina/PR,-25.4298854,-48.7125431,1,5.26870
1,Antônio Almeida/PI,-7.2186016,-44.1950248,39,1232.61694
1,Antônio Cardoso/BA,-12.4363122,-39.1200307,16,136.95113
1,Antônio Carlos/MG,-21.318334,-43.746666,17,148.53648
1,Antônio Carlos/SC,-27.5168462,-48.7684715,96,1127.68707
D1,Antônio Carlos/SC,-27.5168462,-48.7684715,4,46.98696
1,Antônio Dias/MG,-19.6525,-42.872778,32,343.42134
D1,Antônio Dias/MG,-19.6525,-42.872778,1,10.73192
1,Antônio Gonçalves/BA,-10.5715409,-40.2748824,40,339.04052
1,Antônio João/MS,-22.1892837,-55.9508227,3,33.49710
1,Antônio Martins/RN,-6.2155812,-37.8890129,3,41.98740
D1,Antônio Martins/RN,-6.2155812,-37.8890129,1,13.99580
1,Antônio Olinto/PR,-25.9849006,-50.1974516,9,121.06538
1,Antônio Prado/RS,-28.8567806,-51.2801355,16,122.60536
1,Anápolis/GO,-16.3332828,-48.9525756,1481,382.76350
D1,Anápolis/GO,-16.3332828,-48.9525756,33,8.52883
1,Anísio de Abreu/PI,-9.185643,-43.04941,73,738.86640
1,Aparecida d'Oeste/SP,-20.4498109,-50.8808706,12,285.98665
1,Aparecida de Goiânia/GO,-16.8226769,-49.2452546,4354,753.05399
D1,Aparecida de Goiânia/GO,-16.8226769,-49.2452546,95,16.43090
1,Aparecida do Rio Doce/GO,-18.2980167,-51.1491312,26,1050.92967
D1,Aparecida do Rio Doce/GO,-18.2980167,-51.1491312,2,80.84074
1,Aparecida do Rio Negro/TO,-9.9513491,-47.9773786,4,83.42023
1,Aparecida do Taboado/MS,-20.0840304,-51.1013943,53,205.86522
D1,Aparecida do Taboado/MS,-20.0840304,-51.1013943,1,3.88425
1,Aparecida/PB,-6.7859598, -38.0831353,37,443.27303
D1,Aparecida/PB,-6.7859598, -38.0831353,1,11.98035
1,Aparecida/SP,-22.851552,-45.2340924,45,124.45723
1,Aperibé/RJ,-21.6211928,-42.1028167,107,909.94132
D1,Aperibé/RJ,-21.6211928,-42.1028167,3,25.51237
1,Apiacá/ES,-21.152272,-41.569297,69,911.85410
D1,Apiacá/ES,-21.152272,-41.569297,2,26.43055
1,Apiacás/MT,-9.5678422,-57.394852,4,39.47498
D1,Apiacás/MT,-9.5678422,-57.394852,1,9.86875
1,Apiaí/SP,-24.5076527,-48.8461582,52,213.34209
D1,Apiaí/SP,-24.5076527,-48.8461582,2,8.20546
1,Apicum-Açu/MA,-1.5279295,-45.082278,197,1142.75770
D1,Apicum-Açu/MA,-1.5279295,-45.082278,3,17.40240
1,Apiúna/SC,-27.0374658,-49.3885037,17,158.24258
1,Apodi/RN,-5.6631109,-37.796927,954,2661.45906
D1,Apodi/RN,-5.6631109,-37.796927,15,41.84684
1,Aporá/BA,-11.6599747,-38.0794757,44,248.15295
D1,Aporá/BA,-11.6599747,-38.0794757,2,11.27968
1,Apuarema/BA,-13.8517897,-39.7457126,105,1432.46930
1,Apucarana/PR,-23.5525327,-51.4610764,220,162.96779
D1,Apucarana/PR,-23.5525327,-51.4610764,11,8.14839
1,Apuiarés/CE,-3.9460303,-39.4313298,154,1054.79452
D1,Apuiarés/CE,-3.9460303,-39.4313298,10,68.49315
1,Apuí/AM,-7.1940195,-59.8830192,78,354.98111
1,Aquidabã/SE,-10.2837579,-37.0188687,255,1182.58127
D1,Aquidabã/SE,-10.2837579,-37.0188687,6,27.82544
1,Aquidauana/MS,-20.473969,-55.7821375,14,29.24526
D1,Aquidauana/MS,-20.473969,-55.7821375,1,2.08895
1,Aquiraz/CE,-3.9063117,-38.387504,771,960.49632
D1,Aquiraz/CE,-3.9063117,-38.387504,25,31.14450
1,Arabutã/SC,-27.1587028,-52.1438142,44,1031.16944
1,Aracaju/SE,-10.9162061,-37.0774655,21549,3279.84378
D1,Aracaju/SE,-10.9162061,-37.0774655,433,65.90433
1,Aracati/CE,-4.558259,-37.767894,894,1199.24343
D1,Aracati/CE,-4.558259,-37.767894,40,53.65742
1,Aracatu/BA,-14.4274236,-41.4604105,19,144.65169
1,Araci/BA,-11.3356065,-38.9573261,451,829.36428
D1,Araci/BA,-11.3356065,-38.9573261,3,5.51684
1,Aracoiaba/CE,-4.3702577,-38.8084313,529,1998.56436
D1,Aracoiaba/CE,-4.3702577,-38.8084313,10,37.78004
1,Aracruz/ES,-19.8245218,-40.2735025,1587,1567.87196
D1,Aracruz/ES,-19.8245218,-40.2735025,40,39.51788
1,Aragarças/GO,-15.8957166,-52.2514538,113,561.68605
D1,Aragarças/GO,-15.8957166,-52.2514538,2,9.94135
1,Aragoiânia/GO,-16.9146388,-49.4499148,44,426.85293
D1,Aragoiânia/GO,-16.9146388,-49.4499148,1,9.70120
1,Aragominas/TO,-7.1654101,-48.525488,47,816.25564
1,Araguacema/TO,-8.8067391,-49.5560969,2,28.22467
1,Araguaiana/MT,-15.729144,-51.834112,11,354.83871
1,Araguainha/MT,-16.857016,-53.031778,1,106.95187
1,Araguanã/MA,-2.9508403,-45.6651986,426,2761.57137
D1,Araguanã/MA,-2.9508403,-45.6651986,2,12.96512
1,Araguanã/TO,-6.5799107,-48.6428482,38,663.29202
D1,Araguanã/TO,-6.5799107,-48.6428482,2,34.91011
1,Araguapaz/GO,-15.0937927,-50.626417,4,51.48005
D1,Araguapaz/GO,-15.0937927,-50.626417,1,12.87001
1,Araguari/MG,-18.6511256,-48.1933764,964,822.05565
D1,Araguari/MG,-18.6511256,-48.1933764,20,17.05510
1,Araguatins/TO,-5.6522925,-48.1158973,271,757.80879
D1,Araguatins/TO,-5.6522925,-48.1158973,18,50.33416
1,Araguaçu/TO,-12.928934,-49.823134,134,1573.32394
D1,Araguaçu/TO,-12.928934,-49.823134,1,11.74122
1,Araguaína/TO,-7.193241,-48.2018597,5129,2842.02361
D1,Araguaína/TO,-7.193241,-48.2018597,76,42.11226
1,Araioses/MA,-2.890914,-41.904993,470,1012.05857
D1,Araioses/MA,-2.890914,-41.904993,8,17.22653
1,Aral Moreira/MS,-22.951141,-55.6268421,18,148.16034
1,Aramari/BA,-12.0907897,-38.4985065,16,140.38782
1,Arambaré/RS,-30.9132252,-51.4994625,2,55.85032
D1,Arambaré/RS,-30.9132252,-51.4994625,1,27.92516
1,Arame/MA,-4.8858769,-46.0102484,169,516.80377
D1,Arame/MA,-4.8858769,-46.0102484,4,12.23204
1,Aramina/SP,-20.0876144,-47.789201,17,302.49110
D1,Aramina/SP,-20.0876144,-47.789201,1,17.79359
1,Arandu/SP,-23.1345103,-49.0545651,14,220.22967
D1,Arandu/SP,-23.1345103,-49.0545651,2,31.46138
1,Arantina/MG,-21.911667,-44.255833,4,143.11270
D1,Arantina/MG,-21.911667,-44.255833,1,35.77818
1,Arapeí/SP,-22.6738889,-44.4477778,1,40.50223
D1,Arapeí/SP,-22.6738889,-44.4477778,1,40.50223
1,Arapiraca/AL,-9.754866,-36.661471,4158,1794.19798
D1,Arapiraca/AL,-9.754866,-36.661471,67,28.91084
1,Arapoema/TO,-7.6575001,-49.0641484,20,301.06879
D1,Arapoema/TO,-7.6575001,-49.0641484,2,30.10688
1,Arapongas/PR,-23.415296,-51.42592,393,319.44207
D1,Arapongas/PR,-23.415296,-51.42592,12,9.75396
1,Araporã/MG,-18.4318188,-49.188313,73,1062.74567
D1,Araporã/MG,-18.4318188,-49.188313,2,29.11632
1,Arapoti/PR,-24.1457957,-49.8224605,96,341.45474
D1,Arapoti/PR,-24.1457957,-49.8224605,1,3.55682
1,Araputanga/MT,-15.4710868,-58.346796,53,315.06361
D1,Araputanga/MT,-15.4710868,-58.346796,2,11.88919
1,Arapuá/MG,-19.034444,-46.155556,17,599.85886
1,Arapuã/PR,-24.3079525,-51.7901941,11,358.53977
D1,Arapuã/PR,-24.3079525,-51.7901941,1,32.59452
1,Araquari/SC,-26.3703324,-48.7210994,189,495.68570
D1,Araquari/SC,-26.3703324,-48.7210994,1,2.62268
1,Arara/PB,-6.8271895,-35.7605703,138,1024.49889
D1,Arara/PB,-6.8271895,-35.7605703,3,22.27171
1,Araranguá/SC,-28.9348832,-49.4858389,191,279.94372
D1,Araranguá/SC,-28.9348832,-49.4858389,4,5.86270
1,Araraquara/SP,-21.7886713,-48.1773096,1307,553.64465
D1,Araraquara/SP,-21.7886713,-48.1773096,15,6.35399
1,Araras/SP,-22.3569477,-47.3838889,689,513.27513
D1,Araras/SP,-22.3569477,-47.3838889,24,17.87896
1,Ararendá/CE,-4.7504395,-40.8303611,21,192.04390
D1,Ararendá/CE,-4.7504395,-40.8303611,2,18.28989
1,Arari/MA,-3.4547602,-44.7772723,177,593.00456
D1,Arari/MA,-3.4547602,-44.7772723,4,13.40123
1,Araricá/RS,-29.6168543,-50.929121,18,315.90032
D1,Araricá/RS,-29.6168543,-50.929121,2,35.10004
1,Araripe/CE,-7.212861,-40.1359222,107,495.37037
D1,Araripe/CE,-7.212861,-40.1359222,1,4.62963
1,Araripina/PE,-7.5768582,-40.5038509,317,375.51233
D1,Araripina/PE,-7.5768582,-40.5038509,8,9.47665
1,Araruama/RJ,-22.8733203,-42.3428897,424,320.24169
D1,Araruama/RJ,-22.8733203,-42.3428897,39,29.45619
1,Araruna/PB,-6.5321155,-35.7397595,170,836.94368
D1,Araruna/PB,-6.5321155,-35.7397595,5,24.61599
1,Araruna/PR,-23.9320308,-52.4976047,49,350.75161
D1,Araruna/PR,-23.9320308,-52.4976047,3,21.47459
1,Arataca/BA,-15.2617424,-39.4122943,10,90.75234
1,Aratiba/RS,-27.3955734,-52.3024325,11,176.42342
1,Aratuba/CE,-4.4195958,-39.0463737,131,1105.76517
D1,Aratuba/CE,-4.4195958,-39.0463737,1,8.44096
1,Aratuípe/BA,-13.077137,-39.0010786,8,90.65156
D1,Aratuípe/BA,-13.077137,-39.0010786,1,11.33144
1,Araucária/PR,-25.5861107,-49.4051209,861,598.56927
D1,Araucária/PR,-25.5861107,-49.4051209,11,7.64723
1,Arauá/SE,-11.2644014,-37.6181058,134,1332.53779
D1,Arauá/SE,-11.2644014,-37.6181058,5,49.72156
1,Araxá/MG,-19.5928536,-46.940241,321,302.17737
D1,Araxá/MG,-19.5928536,-46.940241,6,5.64818
1,Araçagi/PB,-6.8519969,-35.3835602,368,2166.36251
D1,Araçagi/PB,-6.8519969,-35.3835602,2,11.77371
1,Araçariguama/SP,-23.438611,-47.061389,110,491.86192
D1,Araçariguama/SP,-23.438611,-47.061389,2,8.94294
1,Araças/BA,-12.2139176,-38.2026159,14,114.97085
1,Araçatuba/SP,-21.207992,-50.4390225,1629,826.83640
D1,Araçatuba/SP,-21.207992,-50.4390225,44,22.33321
1,Araçaí/MG,-19.200833,-44.2475,1,42.60758
1,Araçoiaba da Serra/SP,-23.5045367,-47.6168158,141,412.93270
D1,Araçoiaba da Serra/SP,-23.5045367,-47.6168158,4,11.71440
1,Araçoiaba/PE,-7.7856903,-35.0898881,69,336.19178
D1,Araçoiaba/PE,-7.7856903,-35.0898881,11,53.59579
1,Araçu/GO,-16.3561579,-49.6815269,8,227.14367
1,Araçuaí/MG,-16.8484451,-42.0661868,15,40.86303
1,Araújos/MG,-19.948055,-45.165556,12,129.40796
1,Arceburgo/MG,-21.364444,-46.939722,10,92.83327
1,Arcos/MG,-20.282223,-45.539444,84,209.51811
D1,Arcos/MG,-20.282223,-45.539444,1,2.49426
1,Arcoverde/PE,-8.415192,-37.057748,415,558.26092
D1,Arcoverde/PE,-8.415192,-37.057748,24,32.28497
1,Areal/RJ,-22.2314922,-43.1056264,102,811.32676
D1,Areal/RJ,-22.2314922,-43.1056264,2,15.90837
1,Arealva/SP,-22.0301906,-48.9111936,9,105.14019
1,Areia Branca/RN,-4.9506652,-37.1263312,609,2192.69821
D1,Areia Branca/RN,-4.9506652,-37.1263312,43,154.82106
1,Areia Branca/SE,-10.7591455,-37.3148072,351,1892.99968
D1,Areia Branca/SE,-10.7591455,-37.3148072,11,59.32478
1,Areia de Baraúnas/PB,-7.1233949,-36.9446216,6,281.95489
1,Areia/PB,-6.9680243,-35.6994783,217,950.96192
D1,Areia/PB,-6.9680243,-35.6994783,1,4.38231
1,Areial/PB,-7.0501306,-35.9245244,37,528.72249
D1,Areial/PB,-7.0501306,-35.9245244,2,28.57959
1,Areias/SP,-22.5800929,-44.6975127,4,102.93361
1,Areiópolis/SP,-22.6758064,-48.6673653,25,224.63833
D1,Areiópolis/SP,-22.6758064,-48.6673653,3,26.95660
1,Arenápolis/MT,-14.4610369,-56.8432806,70,728.63537
D1,Arenápolis/MT,-14.4610369,-56.8432806,1,10.40908
1,Arenópolis/GO,-16.3859286,-51.55937,1,38.28484
1,Argirita/MG,-21.612761,-42.8371922,1,36.67033
D1,Argirita/MG,-21.612761,-42.8371922,1,36.67033
1,Aricanduva/MG,-17.8678,-42.5569,1,19.11680
1,Arinos/MG,-15.917223,-46.106111,34,190.20979
1,Aripuanã/MT,-10.175806,-59.4439663,89,398.13904
D1,Aripuanã/MT,-10.175806,-59.4439663,2,8.94694
1,Ariquemes/RO,-9.9076522,-63.033069,1748,1620.57425
D1,Ariquemes/RO,-9.9076522,-63.033069,30,27.81306
1,Ariranha/SP,-21.18716,-48.790418,59,610.26065
1,Armazém/SC,-28.2624996,-49.0190126,55,634.07886
1,Armação dos Búzios/RJ,-22.7597805,-41.8875267,188,555.06348
D1,Armação dos Búzios/RJ,-22.7597805,-41.8875267,8,23.61972
1,Arneiroz/CE,-6.3235099,-40.1603859,37,471.93878
D1,Arneiroz/CE,-6.3235099,-40.1603859,2,25.51020
1,Aroazes/PI,-6.1108814,-41.7886137,19,325.62125
D1,Aroazes/PI,-6.1108814,-41.7886137,1,17.13796
1,Aroeiras do Itaim/PI,-7.2797031,-41.5629681,4,156.80125
1,Aroeiras/PB,-7.5462904,-35.7080002,125,652.63927
1,Arraial do Cabo/RJ,-22.9662839,-42.024427,88,289.96013
D1,Arraial do Cabo/RJ,-22.9662839,-42.024427,5,16.47501
1,Arraias/TO,-12.9287788,-46.9437231,11,104.09766
1,Arroio Grande/RS,-32.2384246,-53.0866661,7,38.26600
1,Arroio Trinta/SC,-26.9301976,-51.334928,30,845.07042
1,Arroio do Meio/RS,-29.4020392,-51.9444993,170,817.11127
1,Arroio do Sal/RS,-29.549852,-49.8874395,14,139.09588
D1,Arroio do Sal/RS,-29.549852,-49.8874395,2,19.87084
1,Arroio do Tigre/RS,-29.334158,-53.0888935,3,22.43326
1,Arroio dos Ratos/RS,-30.0894524,-51.7265541,31,219.06579
D1,Arroio dos Ratos/RS,-30.0894524,-51.7265541,2,14.13328
1,Artur Nogueira/SP,-22.572737,-47.172679,137,251.80121
D1,Artur Nogueira/SP,-22.572737,-47.172679,2,3.67593
1,Aruanã/GO,-14.9162439,-51.0715692,13,131.64557
1,Arujá/SP,-23.396266,-46.3175449,709,789.32134
D1,Arujá/SP,-23.396266,-46.3175449,47,52.32455
1,Arvoredo/SC,-27.0752908,-52.4571847,27,1205.35714
D1,Arvoredo/SC,-27.0752908,-52.4571847,1,44.64286
1,Arvorezinha/RS,-28.87369,-52.17808,11,105.52571
D1,Arvorezinha/RS,-28.87369,-52.17808,1,9.59325
1,Arês/RN,-6.1969216,-35.1642968,143,999.58060
D1,Arês/RN,-6.1969216,-35.1642968,1,6.99007
1,Ascurra/SC,-26.9569975,-49.3767752,30,378.11949
1,Aspásia/SP,-20.160028,-50.728046,20,1097.69484
1,Assaré/CE,-6.8746791,-39.8741385,137,585.04505
D1,Assaré/CE,-6.8746791,-39.8741385,3,12.81121
1,Assaí/PR,-23.3736041,-50.8454929,31,205.04002
D1,Assaí/PR,-23.3736041,-50.8454929,7,46.29936
1,Assis Brasil/AC,-10.9409203,-69.5672108,227,3060.53661
D1,Assis Brasil/AC,-10.9409203,-69.5672108,5,67.41270
1,Assis Chateaubriand/PR,-24.4054826,-53.5120468,149,446.61591
D1,Assis Chateaubriand/PR,-24.4054826,-53.5120468,2,5.99484
1,Assis/SP,-22.6620892,-50.420623,348,333.37804
D1,Assis/SP,-22.6620892,-50.420623,14,13.41176
1,Assunção do Piauí/PI,-5.8610212,-41.0485091,73,930.41040
D1,Assunção do Piauí/PI,-5.8610212,-41.0485091,1,12.74535
1,Assunção/PB,-7.073396,-36.7274003,30,751.87970
1,Astolfo Dutra/MG,-21.3132636,-42.8624102,36,253.89661
D1,Astolfo Dutra/MG,-21.3132636,-42.8624102,2,14.10537
1,Astorga/PR,-23.2350184,-51.6647074,54,206.80939
D1,Astorga/PR,-23.2350184,-51.6647074,2,7.65961
1,Atalaia do Norte/AM,-4.3658547,-70.1908742,641,3217.70995
D1,Atalaia do Norte/AM,-4.3658547,-70.1908742,4,20.07931
1,Atalaia/AL,-9.5029595,-36.0219316,451,955.81223
D1,Atalaia/AL,-9.5029595,-36.0219316,12,25.43181
1,Atalaia/PR,-23.1513833,-52.0529697,4,102.77492
1,Atalanta/SC,-27.421916,-49.778863,7,218.06854
1,Ataléia/MG,-18.04432,-41.1110524,45,349.70469
D1,Ataléia/MG,-18.04432,-41.1110524,2,15.54243
1,Atibaia/SP,-23.1177393,-46.5547861,360,252.16971
D1,Atibaia/SP,-23.1177393,-46.5547861,14,9.80660
1,Atilio Vivacqua/ES,-20.9139369,-41.1947519,151,1265.08043
D1,Atilio Vivacqua/ES,-20.9139369,-41.1947519,2,16.75603
1,Augustinópolis/TO,-5.4662267,-47.8897519,329,1786.87812
D1,Augustinópolis/TO,-5.4662267,-47.8897519,4,21.72496
1,Augusto Corrêa/PA,-1.0229335,-46.6404029,880,1913.12666
D1,Augusto Corrêa/PA,-1.0229335,-46.6404029,18,39.13214
1,Augusto de Lima/MG,-18.1092963,-44.2651945,16,328.60957
1,Aurelino Leal/BA,-14.3167137,-39.3256107,196,1699.76585
D1,Aurelino Leal/BA,-14.3167137,-39.3256107,1,8.67227
1,Auriflama/SP,-20.6840418,-50.5554616,86,566.19922
D1,Auriflama/SP,-20.6840418,-50.5554616,4,26.33485
1,Aurilândia/GO,-16.6772599,-50.4641231,15,480.76923
1,Aurora do Pará/PA,-2.1323199,-47.558436,399,1273.21463
D1,Aurora do Pará/PA,-2.1323199,-47.558436,7,22.33710
1,Aurora do Tocantins/TO,-12.71045,-46.407604,13,346.02076
1,Aurora/CE,-6.9426019,-38.9693765,103,417.78210
D1,Aurora/CE,-6.9426019,-38.9693765,6,24.33682
1,Aurora/SC,-27.3166417,-49.6368502,20,352.17468
1,Autazes/AM,-3.5833283,-59.1301518,1104,2790.34500
D1,Autazes/AM,-3.5833283,-59.1301518,32,80.87957
1,Avanhandava/SP,-21.4603331,-49.9465156,13,95.24507
1,Avaré/SP,-23.1045215,-48.9259103,163,179.80255
D1,Avaré/SP,-23.1045215,-48.9259103,10,11.03083
1,Avaí/SP,-22.1564662,-49.3316395,18,333.14825
1,Aveiro/PA,-3.6049239,-55.3310742,227,1385.15987
D1,Aveiro/PA,-3.6049239,-55.3310742,4,24.40810
1,Avelino Lopes/PI,-10.1346855,-43.9489525,6,53.14908
D1,Avelino Lopes/PI,-10.1346855,-43.9489525,1,8.85818
1,Avelinópolis/GO,-16.4672409,-49.7578661,22,910.21928
1,Axixá do Tocantins/TO,-5.612747,-47.77007,108,1107.01107
D1,Axixá do Tocantins/TO,-5.612747,-47.77007,3,30.75031
1,Axixá/MA,-2.8379465,-44.0561053,91,750.20610
D1,Axixá/MA,-2.8379465,-44.0561053,2,16.48805
1,Açailândia/MA,-4.9514278,-47.4844564,2729,2426.96429
D1,Açailândia/MA,-4.9514278,-47.4844564,62,55.13807
1,Açu/RN,-5.5836157,-36.9139541,623,1073.82319
D1,Açu/RN,-5.5836157,-36.9139541,31,53.43261
1,Açucena/MG,-19.073056,-42.546666,28,295.67054
D1,Açucena/MG,-19.073056,-42.546666,1,10.55966
1,Babaçulândia/TO,-7.2034355,-47.761613,37,346.96174
1,Bacabal/MA,-4.2318132,-44.781167,2697,2569.81963
D1,Bacabal/MA,-4.2318132,-44.781167,33,31.44384
1,Bacabeira/MA,-2.9775747,-44.3155943,128,750.51305
D1,Bacabeira/MA,-2.9775747,-44.3155943,1,5.86338
1,Bacuri/MA,-1.728894,-45.1417148,374,2012.70046
D1,Bacuri/MA,-1.728894,-45.1417148,2,10.76310
1,Bacurituba/MA,-2.7082587,-44.7381309,21,372.07654
1,Bady Bassitt/SP,-20.9178969,-49.4517911,182,1039.88116
D1,Bady Bassitt/SP,-20.9178969,-49.4517911,8,45.70906
1,Baependi/MG,-21.959162,-44.8899249,8,41.77982
1,Bagre/PA,-1.8994498,-50.2103844,204,665.08004
D1,Bagre/PA,-1.8994498,-50.2103844,8,26.08157
1,Bagé/RS,-31.3314264,-54.1062808,183,151.06114
D1,Bagé/RS,-31.3314264,-54.1062808,1,0.82547
1,Baianópolis/BA,-12.3067564,-44.5383591,3,21.61851
1,Baixa Grande do Ribeiro/PI,-7.862861,-45.2113289,151,1303.29708
D1,Baixa Grande do Ribeiro/PI,-7.862861,-45.2113289,3,25.89332
1,Baixa Grande/BA,-11.9630941,-40.1657537,3,14.65703
1,Baixio/CE,-6.7303544,-38.7170095,17,270.35623
1,Baixo Guandu/ES,-19.5138322,-41.0182089,301,971.03039
D1,Baixo Guandu/ES,-19.5138322,-41.0182089,9,29.03413
1,Baião/PA,-2.7903479,-49.6702845,244,514.26885
D1,Baião/PA,-2.7903479,-49.6702845,13,27.39957
1,Baldim/MG,-19.2913568,-43.9558262,8,102.22336
1,Baliza/GO,-16.1978119,-52.542789,1,19.46283
1,Balneário Arroio do Silva/SC,-28.9815269,-49.4189932,72,550.83773
D1,Balneário Arroio do Silva/SC,-28.9815269,-49.4189932,1,7.65052
1,Balneário Barra do Sul/SC,-26.459842,-48.6061471,68,629.92126
1,Balneário Camboriú/SC,-26.9924395,-48.6339782,2931,2059.80533
D1,Balneário Camboriú/SC,-26.9924395,-48.6339782,27,18.97467
1,Balneário Gaivota/SC,-29.1553098,-49.5808712,20,182.16595
D1,Balneário Gaivota/SC,-29.1553098,-49.5808712,3,27.32489
1,Balneário Pinhal/RS,-30.2482978,-50.234585,18,127.94996
1,Balneário Piçarras/SC,-26.7638889,-48.6716667,167,721.47579
D1,Balneário Piçarras/SC,-26.7638889,-48.6716667,1,4.32021
1,Balneário Rincão/SC,-28.8235718,-49.2241642,32,250.78370
D1,Balneário Rincão/SC,-28.8235718,-49.2241642,2,15.67398
1,Balsa Nova/PR,-25.5842234,-49.6312741,114,880.92110
D1,Balsa Nova/PR,-25.5842234,-49.6312741,2,15.45476
1,Balsas/MA,-7.53214,-46.037163,1633,1720.99445
D1,Balsas/MA,-7.53214,-46.037163,10,10.53885
1,Bambuí/MG,-20.0131996,-45.9777034,8,33.57254
1,Banabuiú/CE,-5.3046404,-38.919766,323,1775.01786
D1,Banabuiú/CE,-5.3046404,-38.919766,1,5.49541
1,Bananal/SP,-22.6828195,-44.3221095,15,137.04888
1,Bananeiras/PB,-6.7537682,-35.6338343,105,492.54151
D1,Bananeiras/PB,-6.7537682,-35.6338343,1,4.69087
1,Bandeira do Sul/MG,-21.728056,-46.385555,1,17.40341
1,Bandeira/MG,-15.884444,-40.559167,196,4087.59124
D1,Bandeira/MG,-15.884444,-40.559167,1,20.85506
1,Bandeirante/SC,-26.7677402,-53.6397596,1,37.34130
1,Bandeirantes do Tocantins/TO,-7.7635698,-48.579148,15,422.17844
1,Bandeirantes/MS,-19.9179623,-54.3646768,15,220.97820
1,Bandeirantes/PR,-23.107788,-50.370407,81,258.23317
D1,Bandeirantes/PR,-23.107788,-50.370407,3,9.56419
1,Bannach/PA,-7.3508505,-50.4064531,66,2008.52100
D1,Bannach/PA,-7.3508505,-50.4064531,3,91.29641
1,Banzaê/BA,-10.5827616,-38.6122305,34,257.01111
1,Baraúna/PB,-6.643394,-36.2531932,120,2452.98446
1,Baraúna/RN,-5.0775002,-37.61752,248,874.03961
D1,Baraúna/RN,-5.0775002,-37.61752,10,35.24353
1,Barbacena/MG,-21.2254524,-43.7735087,429,312.42490
D1,Barbacena/MG,-21.2254524,-43.7735087,9,6.55437
1,Barbalha/CE,-7.3121067,-39.3036427,588,967.40758
D1,Barbalha/CE,-7.3121067,-39.3036427,23,37.84077
1,Barbosa Ferraz/PR,-24.0287182,-52.00811,23,198.82434
D1,Barbosa Ferraz/PR,-24.0287182,-52.00811,1,8.64454
1,Barbosa/SP,-21.265661,-49.951816,11,148.60848
1,Barcarena/PA,-1.5107945,-48.6190679,2531,2029.99679
D1,Barcarena/PA,-1.5107945,-48.6190679,103,82.61149
1,Barcelona/RN,-5.9514918,-35.9260284,22,550.27514
1,Barcelos/AM,-0.9729214,-62.925635,1645,5981.38317
D1,Barcelos/AM,-0.9729214,-62.925635,24,87.26638
1,Bariri/SP,-22.0746355,-48.7394852,114,323.27586
D1,Bariri/SP,-22.0746355,-48.7394852,3,8.50726
1,Barra Bonita/SP,-22.490859,-48.558349,197,545.31362
D1,Barra Bonita/SP,-22.490859,-48.558349,5,13.84045
1,Barra D'Alcântara/PI,-6.5209258,-42.1071089,1,25.31005
1,Barra Funda/RS,-27.9230048,-53.0401045,2,78.77117
1,Barra Longa/MG,-20.2833541,-43.0423516,55,1071.91581
1,Barra Mansa/RJ,-22.5394843,-44.1735129,698,378.50031
D1,Barra Mansa/RJ,-22.5394843,-44.1735129,37,20.06377
1,Barra Velha/SC,-26.6338203,-48.6835001,139,476.54964
1,Barra da Estiva/BA,-13.6269662,-41.3278287,4,19.41936
1,Barra de Guabiraba/PE,-8.4173522,-35.6626669,121,841.15398
D1,Barra de Guabiraba/PE,-8.4173522,-35.6626669,8,55.61349
1,Barra de Santa Rosa/PB,-6.7218007,-36.0564638,32,208.00832
D1,Barra de Santa Rosa/PB,-6.7218007,-36.0564638,1,6.50026
1,Barra de Santana/PB,-7.5230865,-35.9988518,71,849.38390
D1,Barra de Santana/PB,-7.5230865,-35.9988518,2,23.92631
1,Barra de Santo Antônio/AL,-9.4038098,-35.5117693,102,640.22094
D1,Barra de Santo Antônio/AL,-9.4038098,-35.5117693,7,43.93673
1,Barra de São Francisco/ES,-18.7570902,-40.8916119,254,568.86898
D1,Barra de São Francisco/ES,-18.7570902,-40.8916119,8,17.91713
1,Barra de São Miguel/AL,-9.8261357,-35.8837777,109,1309.78130
D1,Barra de São Miguel/AL,-9.8261357,-35.8837777,5,60.08171
1,Barra de São Miguel/PB,-7.7528088,-36.3170996,19,314.77800
D1,Barra de São Miguel/PB,-7.7528088,-36.3170996,1,16.56726
1,Barra do Bugres/MT,-15.0683712,-57.1853688,86,245.95321
D1,Barra do Bugres/MT,-15.0683712,-57.1853688,3,8.57976
1,Barra do Chapéu/SP,-24.472203,-49.023784,14,244.58421
1,Barra do Choça/BA,-14.8638173,-40.5761637,180,569.56618
D1,Barra do Choça/BA,-14.8638173,-40.5761637,2,6.32851
1,Barra do Corda/MA,-5.496823,-45.248496,2086,2364.75763
D1,Barra do Corda/MA,-5.496823,-45.248496,18,20.40539
1,Barra do Garças/MT,-15.8916033,-52.2615413,385,631.02341
D1,Barra do Garças/MT,-15.8916033,-52.2615413,33,54.08772
1,Barra do Guarita/RS,-27.1888016,-53.7147086,11,338.66995
1,Barra do Jacaré/PR,-23.1151788,-50.1813945,1,35.95829
1,Barra do Mendes/BA,-11.8053298,-42.057037,3,21.63722
1,Barra do Ouro/TO,-7.7113784,-47.6743925,11,239.59922
D1,Barra do Ouro/TO,-7.7113784,-47.6743925,3,65.34524
1,Barra do Piraí/RJ,-22.4703403,-43.8263256,537,534.99910
D1,Barra do Piraí/RJ,-22.4703403,-43.8263256,27,26.89940
1,Barra do Ribeiro/RS,-30.2930206,-51.301437,34,252.01987
D1,Barra do Ribeiro/RS,-30.2930206,-51.301437,3,22.23705
1,Barra do Rio Azul/RS,-27.4101581,-52.4117471,2,118.34320
1,Barra do Rocha/BA,-14.2090974,-39.6004395,12,210.01050
1,Barra do Turvo/SP,-24.756421,-48.5056942,18,235.01763
D1,Barra do Turvo/SP,-24.756421,-48.5056942,1,13.05653
1,Barra dos Coqueiros/SE,-10.9075694,-37.0386249,754,2479.69218
D1,Barra dos Coqueiros/SE,-10.9075694,-37.0386249,11,36.17588
1,Barra/BA,-11.0892702,-43.1420453,38,70.92463
1,Barracão/PR,-26.252395,-53.6349576,20,194.64720
1,Barracão/RS,-27.6728964,-51.4582928,18,341.23223
D1,Barracão/RS,-27.6728964,-51.4582928,1,18.95735
1,Barras/PI,-4.2446153,-42.2920241,956,2031.19024
D1,Barras/PI,-4.2446153,-42.2920241,20,42.49352
1,Barreira/CE,-4.2883361,-38.641094,286,1275.36232
D1,Barreira/CE,-4.2883361,-38.641094,17,75.80825
1,Barreiras do Piauí/PI,-9.9224524,-45.4763776,2,59.73716
1,Barreiras/BA,-12.1440031,-44.9967406,701,450.98077
D1,Barreiras/BA,-12.1440031,-44.9967406,8,5.14671
1,Barreirinha/AM,-2.798863,-57.067897,725,2262.72588
D1,Barreirinha/AM,-2.798863,-57.067897,8,24.96801
1,Barreirinhas/MA,-2.7541271,-42.8259693,385,615.72416
D1,Barreirinhas/MA,-2.7541271,-42.8259693,18,28.78710
1,Barreiros/PE,-8.8159644,-35.1831905,240,562.60109
D1,Barreiros/PE,-8.8159644,-35.1831905,36,84.39016
1,Barretos/SP,-20.5531437,-48.5697509,1466,1200.67487
D1,Barretos/SP,-20.5531437,-48.5697509,56,45.86480
1,Barrinha/SP,-21.1898849,-48.1550642,163,496.76947
D1,Barrinha/SP,-21.1898849,-48.1550642,8,24.38132
1,Barro Alto/BA,-11.7618025,-41.9094904,5,33.48738
1,Barro Alto/GO,-14.9696025,-48.9190985,48,429.83792
1,Barro Duro/PI,-5.8180139,-42.5106589,76,1080.77361
D1,Barro Duro/PI,-5.8180139,-42.5106589,1,14.22071
1,Barro Preto/BA,-14.8068289,-39.4727588,92,1645.50170
D1,Barro Preto/BA,-14.8068289,-39.4727588,3,53.65766
1,Barro/CE,-7.1713587,-38.7742136,41,180.77601
D1,Barro/CE,-7.1713587,-38.7742136,7,30.86420
1,Barrocas/BA,-11.5165,-39.099282894736845,44,275.37865
1,Barrolândia/TO,-9.837246,-48.7264346,39,692.47159
D1,Barrolândia/TO,-9.837246,-48.7264346,1,17.75568
1,Barroquinha/CE,-3.0200371,-41.1339229,631,4201.90451
D1,Barroquinha/CE,-3.0200371,-41.1339229,11,73.25032
1,Barros Cassal/RS,-29.094938,-52.5832366,2,17.85874
D1,Barros Cassal/RS,-29.094938,-52.5832366,1,8.92937
1,Barroso/MG,-21.187222,-43.976111,44,211.43681
1,Barueri/SP,-23.5112184,-46.8764612,2635,961.04048
D1,Barueri/SP,-23.5112184,-46.8764612,245,89.35670
1,Barão de Antonina/SP,-23.6295651,-49.5632104,10,288.26751
1,Barão de Cocais/MG,-19.9452437,-43.4870298,163,501.77005
1,Barão de Cotegipe/RS,-27.6214694,-52.3765316,63,951.23056
D1,Barão de Cotegipe/RS,-27.6214694,-52.3765316,2,30.19780
1,Barão de Grajaú/MA,-6.7542591,-43.0263477,13,69.07545
D1,Barão de Grajaú/MA,-6.7542591,-43.0263477,1,5.31350
1,Barão de Melgaço/MT,-16.195776,-55.9668049,50,583.83933
D1,Barão de Melgaço/MT,-16.195776,-55.9668049,1,11.67679
1,Barão de Monte Alto/MG,-21.244722,-42.2375,15,277.93218
1,Barão do Triunfo/RS,-30.3909877,-51.7375349,7,93.49539
1,Barão/RS,-29.372474,-51.494908,10,162.04829
D1,Barão/RS,-29.372474,-51.494908,1,16.20483
1,Bastos/SP,-21.9222474,-50.7317727,20,95.45173
1,Bataguassu/MS,-21.715899,-52.422058,321,1394.19736
1,Batalha/AL,-9.6733809,-37.1265481,242,1327.33655
D1,Batalha/AL,-9.6733809,-37.1265481,6,32.90917
1,Batalha/PI,-4.022391,-42.0780926,194,722.34427
D1,Batalha/PI,-4.022391,-42.0780926,5,18.61712
1,Batatais/SP,-20.892867,-47.592149,91,145.58137
D1,Batatais/SP,-20.892867,-47.592149,1,1.59980
1,Batayporã/MS,-22.2976466,-53.2685608,47,414.86451
D1,Batayporã/MS,-22.2976466,-53.2685608,3,26.48071
1,Baturité/CE,-4.3290203,-38.8821055,466,1303.49650
D1,Baturité/CE,-4.3290203,-38.8821055,25,69.93007
1,Bauru/SP,-22.3218102,-49.0705863,2097,556.50208
D1,Bauru/SP,-22.3218102,-49.0705863,45,11.94210
1,Bayeux/PB,-7.1301631,-34.936532,1122,1158.13377
D1,Bayeux/PB,-7.1301631,-34.936532,59,60.90008
1,Baía Formosa/RN,-6.3691885,-35.0063741,57,614.82041
D1,Baía Formosa/RN,-6.3691885,-35.0063741,2,21.57265
1,Baía da Traição/PB,-6.691258,-34.9371244,320,3558.32314
D1,Baía da Traição/PB,-6.691258,-34.9371244,4,44.47904
1,Bebedouro/SP,-20.949077,-48.479083,161,207.75266
D1,Bebedouro/SP,-20.949077,-48.479083,8,10.32311
1,Beberibe/CE,-4.1810469,-38.1298101,494,922.10628
D1,Beberibe/CE,-4.1810469,-38.1298101,26,48.53191
1,Bela Cruz/CE,-3.0529129,-40.167582,1020,3129.69838
D1,Bela Cruz/CE,-3.0529129,-40.167582,14,42.95664
1,Bela Vista da Caroba/PR,-25.8792818,-53.6672545,3,85.44574
1,Bela Vista de Goiás/GO,-16.9692949,-48.9513071,153,510.42535
D1,Bela Vista de Goiás/GO,-16.9692949,-48.9513071,3,10.00834
1,Bela Vista de Minas/MG,-19.8289721,-43.0973688,11,107.26475
D1,Bela Vista de Minas/MG,-19.8289721,-43.0973688,1,9.75134
1,Bela Vista do Maranhão/MA,-3.7416367,-45.2514192,112,999.19707
D1,Bela Vista do Maranhão/MA,-3.7416367,-45.2514192,2,17.84280
1,Bela Vista do Paraíso/PR,-22.9948493,-51.1907996,30,194.84315
D1,Bela Vista do Paraíso/PR,-22.9948493,-51.1907996,3,19.48432
1,Bela Vista do Piauí/PI,-7.9716353,-41.8715061,1,24.90660
1,Bela Vista do Toldo/SC,-26.274625,-50.466354,2,31.56068
1,Bela Vista/MS,-22.107327,-56.5317344,11,44.66280
1,Belford Roxo/RJ,-22.7667284,-43.4033603,1628,318.64961
D1,Belford Roxo/RJ,-22.7667284,-43.4033603,193,37.77603
1,Belmiro Braga/MG,-21.9486291,-43.413564,10,291.63021
D1,Belmiro Braga/MG,-21.9486291,-43.413564,2,58.32604
1,Belmonte/BA,-15.8630837,-38.8792845,151,647.29081
D1,Belmonte/BA,-15.8630837,-38.8792845,1,4.28669
1,Belmonte/SC,-26.8448262,-53.578916,1,36.95492
1,Belo Campo/BA,-15.0338286,-41.2585109,1,5.81024
1,Belo Horizonte/MG,-19.9227318,-43.9450948,12123,482.59006
D1,Belo Horizonte/MG,-19.9227318,-43.9450948,296,11.78311
1,Belo Jardim/PE,-8.3338293,-36.4176419,446,583.47179
D1,Belo Jardim/PE,-8.3338293,-36.4176419,17,22.23996
1,Belo Monte/AL,-9.8269944,-37.2787165,18,268.49642
D1,Belo Monte/AL,-9.8269944,-37.2787165,1,14.91647
1,Belo Oriente/MG,-19.2232523,-42.4807033,168,629.21348
D1,Belo Oriente/MG,-19.2232523,-42.4807033,6,22.47191
1,Belo Vale/MG,-20.407778,-44.024167,31,401.81465
D1,Belo Vale/MG,-20.407778,-44.024167,1,12.96176
1,Belterra/PA,-2.636091,-54.937392,104,586.51026
D1,Belterra/PA,-2.636091,-54.937392,7,39.47665
1,Belágua/MA,-3.1604031,-43.5085052,158,2115.41036
D1,Belágua/MA,-3.1604031,-43.5085052,1,13.38867
1,Belém de Maria/PE,-8.6242497,-35.8388934,40,331.31782
1,Belém do Brejo do Cruz/PB,-6.1880727,-37.5332267,14,190.68374
1,Belém do Piauí/PI,-7.3767305,-40.9712156,12,336.51150
D1,Belém do Piauí/PI,-7.3767305,-40.9712156,1,28.04262
1,Belém do São Francisco/PE,-8.7517707,-38.9625715,12,57.88991
1,Belém/AL,-9.5715351,-36.492841,39,897.79006
D1,Belém/AL,-9.5715351,-36.492841,1,23.02026
1,Belém/PA,-1.45056,-48.4682453,22666,1518.41071
D1,Belém/PA,-1.45056,-48.4682453,2003,134.18233
1,Belém/PB,-6.6967586,-35.5369626,512,2896.58294
D1,Belém/PB,-6.6967586,-35.5369626,6,33.94433
1,Beneditinos/PI,-5.4565671,-42.3605061,54,515.90714
D1,Beneditinos/PI,-5.4565671,-42.3605061,3,28.66151
1,Benedito Leite/MA,-7.2173453,-44.5523331,28,497.15909
1,Benedito Novo/SC,-26.7840657,-49.3629511,33,283.21318
1,Benevides/PA,-1.3555577,-48.252235,1370,2183.71934
D1,Benevides/PA,-1.3555577,-48.252235,51,81.29174
1,Benjamin Constant do Sul/RS,-27.5105555,-52.6007689,28,1404.21264
1,Benjamin Constant/AM,-4.3782748,-70.0290603,1478,3438.48874
D1,Benjamin Constant/AM,-4.3782748,-70.0290603,28,65.14052
1,Bento Fernandes/RN,-5.6926846,-35.8207423,18,327.45134
D1,Bento Fernandes/RN,-5.6926846,-35.8207423,1,18.19174
1,Bento Gonçalves/RS,-29.1654014,-51.5197627,1677,1392.23272
D1,Bento Gonçalves/RS,-29.1654014,-51.5197627,48,39.84924
1,Bento de Abreu/SP,-21.2707225,-50.8120444,9,302.01342
1,Bequimão/MA,-2.4495376,-44.7884889,181,850.56391
D1,Bequimão/MA,-2.4495376,-44.7884889,10,46.99248
1,Berilo/MG,-16.9515764,-42.4643732,5,41.90412
1,Bernardino Batista/PB,-6.4532173,-38.5495418,3,85.68980
1,Bernardino de Campos/SP,-23.0140216,-49.4760724,35,313.95766
1,Bernardo Sayão/TO,-7.8794244,-48.8968905,11,246.69208
1,Bernardo do Mearim/MA,-4.6315929,-44.7617508,48,794.30746
D1,Bernardo do Mearim/MA,-4.6315929,-44.7617508,2,33.09614
1,Bertioga/SP,-23.848568,-46.139586,771,1218.99160
D1,Bertioga/SP,-23.848568,-46.139586,19,30.04000
1,Bertolínia/PI,-7.6372159,-43.9540611,31,563.53390
1,Beruri/AM,-3.9007135,-61.3717319,491,2495.04548
D1,Beruri/AM,-3.9007135,-61.3717319,7,35.57091
1,Betim/MG,-19.968056,-44.198333,1560,355.07807
D1,Betim/MG,-19.968056,-44.198333,50,11.38071
1,Betânia do Piauí/PI,-8.1460635,-40.7961387,4,64.46414
1,Betânia/PE,-8.2742779,-38.0351767,22,172.96957
D1,Betânia/PE,-8.2742779,-38.0351767,1,7.86225
1,Bezerros/PE,-8.2372132,-35.7558262,345,567.45288
D1,Bezerros/PE,-8.2372132,-35.7558262,26,42.76456
1,Bias Fortes/MG,-21.605833,-43.756944,5,147.97277
1,Bicas/MG,-21.7213723,-43.0604327,29,200.08279
1,Biguaçu/SC,-27.4961277,-48.6542432,481,702.38460
D1,Biguaçu/SC,-27.4961277,-48.6542432,8,11.68207
1,Bilac/SP,-21.403962,-50.47464,13,161.81230
1,Biquinhas/MG,-18.783611,-45.502222,2,79.52286
1,Birigui/SP,-21.2908491,-50.34144,463,374.48034
D1,Birigui/SP,-21.2908491,-50.34144,19,15.36744
1,Biritiba-Mirim/SP,-23.5697765,-46.0407456,93,285.29358
D1,Biritiba-Mirim/SP,-23.5697765,-46.0407456,8,24.54138
1,Biritinga/BA,-11.6227908,-38.8066738,10,62.58214
1,Bituruna/PR,-26.161281,-51.5533319,29,176.94795
1,Blumenau/SC,-26.9195567,-49.0658025,3051,854.14573
D1,Blumenau/SC,-26.9195567,-49.0658025,16,4.47930
1,Boa Esperança do Sul/SP,-21.9930206,-48.3917372,28,187.62983
D1,Boa Esperança do Sul/SP,-21.9930206,-48.3917372,1,6.70107
1,Boa Esperança/ES,-18.5395472,-40.2904088,203,1350.00333
D1,Boa Esperança/ES,-18.5395472,-40.2904088,8,53.20210
1,Boa Esperança/MG,-21.0901253,-45.5660195,59,147.03317
D1,Boa Esperança/MG,-21.0901253,-45.5660195,5,12.46044
1,Boa Esperança/PR,-24.2411024,-52.7860277,17,414.12911
1,Boa Hora/PI,-4.4094627,-42.1255341,45,663.61894
1,Boa Nova/BA,-14.365907,-40.2063056,3,23.74733
1,Boa Ventura/PB,-7.4202462,-38.2156782,2,37.27171
1,Boa Viagem/CE,-5.1261877,-39.7300055,179,328.62126
D1,Boa Viagem/CE,-5.1261877,-39.7300055,13,23.86635
1,Boa Vista da Aparecida/PR,-25.4357216,-53.4067721,40,526.93980
D1,Boa Vista da Aparecida/PR,-25.4357216,-53.4067721,1,13.17349
1,Boa Vista das Missões/RS,-27.6677983,-53.3127622,2,95.32888
1,Boa Vista do Gurupi/MA,-1.7981168,-46.3071882,13,139.98062
D1,Boa Vista do Gurupi/MA,-1.7981168,-46.3071882,2,21.53548
1,Boa Vista do Incra/RS,-28.8195551,-53.3866624,2,76.83442
1,Boa Vista do Ramos/AM,-2.9716927,-57.5869819,258,1343.26027
D1,Boa Vista do Ramos/AM,-2.9716927,-57.5869819,2,10.41287
1,Boa Vista do Sul/RS,-29.3510488,-51.6779679,14,503.05426
D1,Boa Vista do Sul/RS,-29.3510488,-51.6779679,1,35.93245
1,Boa Vista do Tupim/BA,-12.6605988,-40.6083594,9,48.44961
1,Boa Vista/PB,-7.2620711,-36.2415161,61,865.12551
D1,Boa Vista/PB,-7.2620711,-36.2415161,1,14.18239
1,Boa Vista/RR,2.8208478,-60.6719582,17581,4403.91470
D1,Boa Vista/RR,2.8208478,-60.6719582,324,81.15968
1,Boca da Mata/AL,-9.6452054,-36.2116658,712,2609.87500
D1,Boca da Mata/AL,-9.6452054,-36.2116658,13,47.65221
1,Boca do Acre/AM,-8.7553487,-67.3930873,726,2116.12452
D1,Boca do Acre/AM,-8.7553487,-67.3930873,11,32.06249
1,Bocaina de Minas/MG,-22.167778,-44.394722,5,98.23183
1,Bocaina do Sul/SC,-27.745494,-49.942279,1,28.78526
1,Bocaina/PI,-6.9445939,-41.3224599,46,1022.22222
1,Bocaina/SP,-22.1421831,-48.522276,62,502.87939
D1,Bocaina/SP,-22.1421831,-48.522276,3,24.33287
1,Bocaiúva do Sul/PR,-25.206591,-49.114131,51,394.00494
D1,Bocaiúva do Sul/PR,-25.206591,-49.114131,1,7.72559
1,Bocaiúva/MG,-17.1160208,-43.8122678,75,150.06303
D1,Bocaiúva/MG,-17.1160208,-43.8122678,2,4.00168
1,Bodocó/PE,-7.777592,-39.933797,73,191.37000
D1,Bodocó/PE,-7.777592,-39.933797,3,7.86452
1,Bodoquena/MS,-20.5508775,-56.6769653,3,38.09524
1,Bodó/RN,-5.9866104,-36.4134824,3,134.95277
1,Bofete/SP,-23.1019554,-48.2610535,59,502.98380
D1,Bofete/SP,-23.1019554,-48.2610535,3,25.57545
1,Boituva/SP,-23.2838893,-47.6738231,340,557.40446
D1,Boituva/SP,-23.2838893,-47.6738231,9,14.75482
1,Bom Conselho/PE,-9.169191,-36.685683,250,514.89064
D1,Bom Conselho/PE,-9.169191,-36.685683,11,22.65519
1,Bom Despacho/MG,-19.7375242,-45.2517288,107,211.44156
D1,Bom Despacho/MG,-19.7375242,-45.2517288,2,3.95218
1,Bom Jardim da Serra/SC,-28.3380324,-49.625588,2,42.16740
1,Bom Jardim de Goiás/GO,-16.2062659,-52.172793,28,316.70625
1,Bom Jardim de Minas/MG,-21.9476466,-44.1906033,3,46.33920
1,Bom Jardim/MA,-3.54129,-45.606004,601,1443.67043
D1,Bom Jardim/MA,-3.54129,-45.606004,15,36.03171
1,Bom Jardim/PE,-7.7961572,-35.5871696,199,507.86035
D1,Bom Jardim/PE,-7.7961572,-35.5871696,14,35.72887
1,Bom Jardim/RJ,-22.1515328,-42.4186683,69,251.40275
D1,Bom Jardim/RJ,-22.1515328,-42.4186683,2,7.28704
1,Bom Jesus da Lapa/BA,-13.250571,-43.410754,79,114.24770
1,Bom Jesus da Serra/BA,-14.3724084,-40.5047119,48,485.82996
1,Bom Jesus das Selvas/MA,-4.4878075,-46.8526639,922,2709.53333
D1,Bom Jesus das Selvas/MA,-4.4878075,-46.8526639,4,11.75503
1,Bom Jesus de Goiás/GO,-18.2174587,-49.739721,67,265.70431
D1,Bom Jesus de Goiás/GO,-18.2174587,-49.739721,1,3.96574
1,Bom Jesus do Amparo/MG,-19.7045132,-43.4752911,8,131.51406
1,Bom Jesus do Araguaia/MT,-12.1725897,-51.5074425,33,501.51976
1,Bom Jesus do Galho/MG,-19.8283191,-42.3162256,12,80.34818
D1,Bom Jesus do Galho/MG,-19.8283191,-42.3162256,3,20.08704
1,Bom Jesus do Itabapoana/RJ,-21.1341025,-41.680095,184,496.01035
D1,Bom Jesus do Itabapoana/RJ,-21.1341025,-41.680095,3,8.08713
1,Bom Jesus do Norte/ES,-21.1254776,-41.6711646,145,1459.33977
D1,Bom Jesus do Norte/ES,-21.1254776,-41.6711646,3,30.19324
1,Bom Jesus do Sul/PR,-26.1922507,-53.6002033,4,112.96244
D1,Bom Jesus do Sul/PR,-26.1922507,-53.6002033,1,28.24061
1,Bom Jesus do Tocantins/PA,-5.0471796,-48.5978362,148,871.56233
1,Bom Jesus do Tocantins/TO,-8.96306,-48.165043,15,306.49775
1,Bom Jesus dos Perdões/SP,-23.1353864,-46.4648052,53,208.26784
1,Bom Jesus/PB,-6.8156725,-38.6551841,6,234.28348
1,Bom Jesus/PI,-9.0711644,-44.3583926,441,1751.45955
D1,Bom Jesus/PI,-9.0711644,-44.3583926,5,19.85782
1,Bom Jesus/RN,-5.9887544,-35.5821149,80,783.54554
D1,Bom Jesus/RN,-5.9887544,-35.5821149,1,9.79432
1,Bom Jesus/RS,-28.6692723,-50.4346894,62,546.30364
1,Bom Jesus/SC,-26.7350604,-52.3916519,37,1229.23588
1,Bom Lugar/MA,-4.3728019,-45.0366054,148,908.30981
1,Bom Princípio do Piauí/PI,-3.1912777,-41.6430185,19,337.47780
D1,Bom Princípio do Piauí/PI,-3.1912777,-41.6430185,1,17.76199
1,Bom Princípio/RS,-29.489788,-51.3566782,120,853.78869
1,Bom Progresso/RS,-27.5490948,-53.8655601,8,411.94645
1,Bom Repouso/MG,-22.4657069,-46.1485376,10,94.81369
1,Bom Retiro do Sul/RS,-29.6000007,-51.9359243,84,681.37573
D1,Bom Retiro do Sul/RS,-29.6000007,-51.9359243,1,8.11162
1,Bom Retiro/SC,-27.798993,-49.486994,2,20.06823
1,Bom Sucesso de Itararé/SP,-24.3190016,-49.1446207,1,25.29084
1,Bom Sucesso/MG,-21.0323516,-44.7598082,16,90.89360
1,Bom Sucesso/PB,-6.4458948,-37.9297662,7,140.70352
1,Bom Sucesso/PR,-23.7088019,-51.7651297,3,42.66212
D1,Bom Sucesso/PR,-23.7088019,-51.7651297,1,14.22071
1,Bombinhas/SC,-27.1519159,-48.4875691,479,2422.98548
1,Bonfim do Piauí/PI,-9.1648678,-42.8734415,17,299.82363
1,Bonfim/MG,-20.3266626, -44.2386157,16,232.96447
D1,Bonfim/MG,-20.3266626, -44.2386157,1,14.56028
1,Bonfim/RR,3.3613818,-59.8427241,241,1942.13877
D1,Bonfim/RR,3.3613818,-59.8427241,5,40.29334
1,Bonfinópolis de Minas/MG,-16.5660011,-45.98645,42,764.60950
D1,Bonfinópolis de Minas/MG,-16.5660011,-45.98645,1,18.20499
1,Bonfinópolis/GO,-16.6172709,-48.9615701,76,783.02081
D1,Bonfinópolis/GO,-16.6172709,-48.9615701,2,20.60581
1,Boninal/BA,-12.7095183,-41.8299984,5,34.79955
1,Bonito de Minas/MG,-15.3191266,-44.7544,4,35.61888
1,Bonito de Santa Fé/PB,-7.3143332,-38.5146677,9,75.52236
D1,Bonito de Santa Fé/PB,-7.3143332,-38.5146677,1,8.39137
1,Bonito/MS,-21.1264766,-56.4902208,98,445.94103
1,Bonito/PA,-1.3605722,-47.3049907,198,1215.76814
D1,Bonito/PA,-1.3605722,-47.3049907,7,42.98170
1,Bonito/PE,-8.4721161,-35.7314591,154,403.83909
D1,Bonito/PE,-8.4721161,-35.7314591,19,49.82430
1,Boqueirão do Leão/RS,-29.30332,-52.4296817,3,38.89033
1,Boqueirão do Piauí/PI,-4.4850148,-42.1095161,52,811.61230
D1,Boqueirão do Piauí/PI,-4.4850148,-42.1095161,1,15.60793
1,Boqueirão/PB,-7.487004,-36.130887,200,1123.34307
D1,Boqueirão/PB,-7.487004,-36.130887,2,11.23343
1,Boquim/SE,-11.1450175,-37.6204228,172,641.40811
D1,Boquim/SE,-11.1450175,-37.6204228,8,29.83294
1,Boquira/BA,-12.8184859,-42.7270883,15,69.74149
1,Boracéia/SP,-22.195355,-48.7801925,19,393.94568
1,Borba/AM,-4.3934778,-59.5947721,584,1418.81878
D1,Borba/AM,-4.3934778,-59.5947721,20,48.58968
1,Borborema/PB,-6.8066718,-35.5990191,7,133.00399
1,Borborema/SP,-21.6212706,-49.074135,37,230.58706
1,Borda da Mata/MG,-22.274167,-46.165278,22,113.33196
1,Borebi/SP,-22.5700178,-48.9714871,12,452.31813
D1,Borebi/SP,-22.5700178,-48.9714871,1,37.69318
1,Borá/SP,-22.2701088,-50.544407,1,119.47431
1,Bossoroca/RS,-28.7278885,-54.9120278,3,47.77831
1,Botelhos/MG,-21.65,-46.394722,20,133.59161
D1,Botelhos/MG,-21.65,-46.394722,1,6.67958
1,Botucatu/SP,-22.8879628,-48.4410712,885,604.10793
D1,Botucatu/SP,-22.8879628,-48.4410712,18,12.28694
1,Botuporã/BA,-13.3744752,-42.5198469,2,19.58672
1,Botuverá/SC,-27.200749,-49.068892,29,552.80213
1,Braga/RS,-27.617348,-53.740514,3,89.47211
1,Braganey/PR,-24.8179919,-53.118506,32,589.64437
D1,Braganey/PR,-24.8179919,-53.118506,1,18.42639
1,Bragança Paulista/SP,-22.9520235,-46.5418586,806,477.86184
D1,Bragança Paulista/SP,-22.9520235,-46.5418586,20,11.85761
1,Bragança/PA,-1.0573967,-46.7635406,1955,1531.09973
D1,Bragança/PA,-1.0573967,-46.7635406,86,67.35272
1,Branquinha/AL,-9.2478057,-36.0152009,99,943.39623
D1,Branquinha/AL,-9.2478057,-36.0152009,4,38.11702
1,Brasil Novo/PA,-3.3055853,-52.539198,377,2499.00570
D1,Brasil Novo/PA,-3.3055853,-52.539198,6,39.77197
1,Brasileira/PI,-4.131182,-41.7824969,42,504.26222
1,Brasilândia de Minas/MG,-17.0096469,-46.0087183,33,199.54045
1,Brasilândia do Sul/PR,-24.1975793,-53.527551,6,226.32969
1,Brasilândia do Tocantins/TO,-8.3886619,-48.4842729,2,90.86779
1,Brasilândia/MS,-21.255575,-52.0365617,45,379.04313
D1,Brasilândia/MS,-21.255575,-52.0365617,2,16.84636
1,Brasiléia/AC,-11.0010413,-68.7487894,534,2032.11812
D1,Brasiléia/AC,-11.0010413,-68.7487894,8,30.44372
1,Brasnorte/MT,-12.1227151,-58.0050109,14,71.08403
1,Brasília de Minas/MG,-16.2075114,-44.430559,17,52.55511
1,Brasília/DF,-15.7934036,-47.8823172,75381,2499.97678
D1,Brasília/DF,-15.7934036,-47.8823172,1001,33.19771
1,Brazabrantes/GO,-16.4291635,-49.3858216,25,675.12827
1,Brazópolis/MG,-22.4742842,-45.6165577,8,55.32886
1,Braço do Norte/SC,-28.2728633,-49.1622712,537,1605.38117
D1,Braço do Norte/SC,-28.2728633,-49.1622712,3,8.96861
1,Braço do Trombudo/SC,-27.358578,-49.882145,10,267.16538
1,Braúna/SP,-21.5015319,-50.3175246,29,510.02462
D1,Braúna/SP,-21.5015319,-50.3175246,4,70.34822
1,Braúnas/MG,-19.055556,-42.716111,6,124.97396
D1,Braúnas/MG,-19.055556,-42.716111,1,20.82899
1,Brejetuba/ES,-20.1465817,-41.2902303,212,1709.12609
1,Brejinho de Nazaré/TO,-11.0205883,-48.5722906,24,436.60178
D1,Brejinho de Nazaré/TO,-11.0205883,-48.5722906,1,18.19174
1,Brejinho/PE,-7.3482153,-37.28538,29,387.33805
1,Brejinho/RN,-6.1957907,-35.3583019,97,763.83967
D1,Brejinho/RN,-6.1957907,-35.3583019,3,23.62391
1,Brejo Alegre/SP,-21.1671191,-50.1850393,7,244.32810
1,Brejo Grande do Araguaia/PA,-5.7011449,-48.4037308,55,745.25745
1,Brejo Grande/SE,-10.4287358,-36.4667918,33,397.15971
D1,Brejo Grande/SE,-10.4287358,-36.4667918,1,12.03514
1,Brejo Santo/CE,-7.4909841,-38.9859152,309,624.53261
D1,Brejo Santo/CE,-7.4909841,-38.9859152,5,10.10571
1,Brejo da Madre de Deus/PE,-8.1409718,-36.3712527,454,894.72232
D1,Brejo da Madre de Deus/PE,-8.1409718,-36.3712527,13,25.61980
1,Brejo de Areia/MA,-4.3316785,-45.5833334,106,1153.67871
D1,Brejo de Areia/MA,-4.3316785,-45.5833334,1,10.88376
1,Brejo do Cruz/PB,-6.32926065,-37.48746163303929,165,1168.38975
D1,Brejo do Cruz/PB,-6.32926065,-37.48746163303929,1,7.08115
1,Brejo do Piauí/PI,-8.207583,-42.8359849,3,77.41935
1,Brejo dos Santos/PB,-6.3769367,-37.8243125,15,232.59420
1,Brejo/MA,-3.6804397,-42.7529313,512,1406.70934
D1,Brejo/MA,-3.6804397,-42.7529313,15,41.21219
1,Brejão/PE,-9.029146,-36.566034,11,122.31736
1,Brejões/BA,-13.1033754,-39.7909837,11,76.94998
1,Breu Branco/PA,-3.7785073,-49.5684795,241,364.89719
D1,Breu Branco/PA,-3.7785073,-49.5684795,16,24.22554
1,Breves/PA,-1.68036,-50.479085,1461,1422.57622
D1,Breves/PA,-1.68036,-50.479085,75,73.02753
1,Britânia/GO,-15.2427599,-51.1602061,7,121.12822
1,Brochier/RS,-29.556766,-51.5963047,20,394.16634
1,Brodowski/SP,-20.984532,-47.657217,127,509.24255
D1,Brodowski/SP,-20.984532,-47.657217,2,8.01957
1,Brotas/SP,-22.2840884,-48.1267265,18,73.76142
1,Brumadinho/MG,-20.143611,-44.2,348,867.76550
D1,Brumadinho/MG,-20.143611,-44.2,2,4.98716
1,Brumado/BA,-14.29507325,-41.659307508575985,281,418.18588
D1,Brumado/BA,-14.29507325,-41.659307508575985,3,4.46462
1,Brunópolis/SC,-27.310953,-50.837585,10,413.22314
1,Brusque/SC,-27.0964628,-48.9136323,894,663.58380
D1,Brusque/SC,-27.0964628,-48.9136323,7,5.19585
1,Brás Pires/MG,-20.8483109,-43.2430524,4,92.31479
1,Bueno Brandão/MG,-22.441976,-46.3517971,13,118.17108
D1,Bueno Brandão/MG,-22.441976,-46.3517971,3,27.27025
1,Buenos Aires/PE,-7.7218931,-35.326587,36,273.66021
D1,Buenos Aires/PE,-7.7218931,-35.326587,3,22.80502
1,Buenópolis/MG,-17.8756607,-44.1749365,78,752.53256
D1,Buenópolis/MG,-17.8756607,-44.1749365,1,9.64785
1,Buerarema/BA,-14.9571177,-39.3008035,162,882.88190
D1,Buerarema/BA,-14.9571177,-39.3008035,9,49.04899
1,Bugre/MG,-19.4257687,-42.2556,9,226.01708
1,Bujari/AC,-9.8309656,-67.9520886,270,2630.04091
D1,Bujari/AC,-9.8309656,-67.9520886,4,38.96357
1,Bujaru/PA,-1.5169239,-48.0410699,229,786.07717
D1,Bujaru/PA,-1.5169239,-48.0410699,22,75.51833
1,Buri/SP,-23.79849,-48.598924,59,296.81054
D1,Buri/SP,-23.79849,-48.598924,4,20.12275
1,Buritama/SP,-21.0664017,-50.1448077,66,384.97434
D1,Buritama/SP,-21.0664017,-50.1448077,4,23.33178
1,Buriti Alegre/GO,-18.1377879,-49.0404411,134,1416.64024
1,Buriti Bravo/MA,-5.8391884,-43.8367876,79,330.76537
1,Buriti de Goiás/GO,-16.180644,-50.4287479,16,643.08682
1,Buriti do Tocantins/TO,-5.3187439,-48.2256609,113,995.77018
1,Buriti dos Lopes/PI,-3.1776723,-41.8707444,410,2072.69602
D1,Buriti dos Lopes/PI,-3.1776723,-41.8707444,8,40.44285
1,Buriti dos Montes/PI,-5.3136171,-41.0971256,6,72.78020
D1,Buriti dos Montes/PI,-5.3136171,-41.0971256,1,12.13003
1,Buriti/MA,-3.9430944,-42.9244281,278,969.38420
1,Buriticupu/MA,-4.3227472,-46.4516989,1534,2120.01437
D1,Buriticupu/MA,-4.3227472,-46.4516989,4,5.52807
1,Buritinópolis/GO,-14.4589282,-46.4293104,4,121.50668
1,Buritirama/BA,-10.7148421,-43.6362327,52,245.58421
1,Buritirana/MA,-5.5897455,-47.0148915,209,1354.50421
D1,Buritirana/MA,-5.5897455,-47.0148915,6,38.88529
1,Buritis/MG,-15.621389,-46.423889,42,169.07532
1,Buritis/RO,-10.2054937,-63.8281954,192,484.18823
D1,Buritis/RO,-10.2054937,-63.8281954,4,10.08725
1,Buritizal/SP,-20.1933264,-47.7097165,7,156.21513
1,Buritizeiro/MG,-17.3667765,-44.9647781,63,224.55090
D1,Buritizeiro/MG,-17.3667765,-44.9647781,2,7.12860
1,Butiá/RS,-30.1256795,-51.9692224,60,286.51927
D1,Butiá/RS,-30.1256795,-51.9692224,1,4.77532
1,Buíque/PE,-8.6239732,-37.157296,97,166.15848
D1,Buíque/PE,-8.6239732,-37.157296,3,5.13892
1,Bálsamo/SP,-20.7343722,-49.5807484,57,628.58403
D1,Bálsamo/SP,-20.7343722,-49.5807484,2,22.05558
0,CASO SEM LOCALIZAÇÃO DEFINIDA/AC,-9.884083190922777,-67.85119819780795,193,21.88370
D0,CASO SEM LOCALIZAÇÃO DEFINIDA/AC,-9.884083190922777,-67.85119819780795,10,1.13387
0,CASO SEM LOCALIZAÇÃO DEFINIDA/AL,-9.931093434363673,-35.609611600637464,124,3.71552
D0,CASO SEM LOCALIZAÇÃO DEFINIDA/AL,-9.931093434363673,-35.609611600637464,7,0.20975
0,CASO SEM LOCALIZAÇÃO DEFINIDA/BA,-13.415069300066518,-38.14174656569957,3444,23.15595
D0,CASO SEM LOCALIZAÇÃO DEFINIDA/BA,-13.415069300066518,-38.14174656569957,11,0.07396
0,CASO SEM LOCALIZAÇÃO DEFINIDA/CE,-3.3445126297392798,-38.624961942434304,4186,45.83842
D0,CASO SEM LOCALIZAÇÃO DEFINIDA/CE,-3.3445126297392798,-38.624961942434304,104,1.13884
0,CASO SEM LOCALIZAÇÃO DEFINIDA/ES,-20.30989267097039,-39.81745156645774,603,15.00504
D0,CASO SEM LOCALIZAÇÃO DEFINIDA/ES,-20.30989267097039,-39.81745156645774,8,0.19907
0,CASO SEM LOCALIZAÇÃO DEFINIDA/GO,-16.701590966270153,-49.164524059025034,188,2.67869
0,CASO SEM LOCALIZAÇÃO DEFINIDA/MG,-19.97049116501593,-43.8852149072783,490,2.31473
D0,CASO SEM LOCALIZAÇÃO DEFINIDA/MG,-19.97049116501593,-43.8852149072783,21,0.09920
0,CASO SEM LOCALIZAÇÃO DEFINIDA/MT,-15.54791153961863,-56.17143998972475,1878,53.89635
D0,CASO SEM LOCALIZAÇÃO DEFINIDA/MT,-15.54791153961863,-56.17143998972475,137,3.93174
0,CASO SEM LOCALIZAÇÃO DEFINIDA/PB,-7.1049355696146606,-34.68696690234351,5,0.12444
0,CASO SEM LOCALIZAÇÃO DEFINIDA/PE,-8.121628543819208,-34.57313921302556,1563,16.35438
D0,CASO SEM LOCALIZAÇÃO DEFINIDA/PE,-8.121628543819208,-34.57313921302556,98,1.02542
0,CASO SEM LOCALIZAÇÃO DEFINIDA/PR,-25.69415946385943,-48.10141676336737,4029,35.23714
D0,CASO SEM LOCALIZAÇÃO DEFINIDA/PR,-25.69415946385943,-48.10141676336737,128,1.11947
0,CASO SEM LOCALIZAÇÃO DEFINIDA/RN,-5.749310788669161,-34.95302586257457,446,12.71796
D0,CASO SEM LOCALIZAÇÃO DEFINIDA/RN,-5.749310788669161,-34.95302586257457,36,1.02656
0,CASO SEM LOCALIZAÇÃO DEFINIDA/RO,-8.681174926655274,-63.9216949899276,389,21.88806
D0,CASO SEM LOCALIZAÇÃO DEFINIDA/RO,-8.681174926655274,-63.9216949899276,5,0.28134
0,CASO SEM LOCALIZAÇÃO DEFINIDA/RR,2.813328208465927,-60.663338675861986,1104,182.25010
D0,CASO SEM LOCALIZAÇÃO DEFINIDA/RR,2.813328208465927,-60.663338675861986,13,2.14606
0,CASO SEM LOCALIZAÇÃO DEFINIDA/SC,-27.675643660562308,-48.18313219398259,2632,36.73521
D0,CASO SEM LOCALIZAÇÃO DEFINIDA/SC,-27.675643660562308,-48.18313219398259,35,0.48850
0,CASO SEM LOCALIZAÇÃO DEFINIDA/SP,-24.30968974555485,-46.21366504207253,6634,14.44716
D0,CASO SEM LOCALIZAÇÃO DEFINIDA/SP,-24.30968974555485,-46.21366504207253,316,0.68817
1,Caapiranga/AM,-3.3188884,-61.2096404,175,1337.81821
D1,Caapiranga/AM,-3.3188884,-61.2096404,4,30.57870
1,Caaporã/PB,-7.510234,-34.9154114,833,3816.19938
D1,Caaporã/PB,-7.510234,-34.9154114,9,41.23145
1,Caarapó/MS,-22.6349267,-54.8240903,66,218.73136
1,Caatiba/BA,-14.9782759,-40.4092325,75,1109.79580
1,Cabaceiras do Paraguaçu/BA,-12.5377868,-39.1901339,24,127.61206
D1,Cabaceiras do Paraguaçu/BA,-12.5377868,-39.1901339,1,5.31717
1,Cabaceiras/PB,-7.4899156,-36.2860501,25,445.55338
1,Cabeceira Grande/MG,-16.0297,-47.0906,5,71.95280
1,Cabeceiras do Piauí/PI,-4.4733665,-42.3098716,95,897.41168
D1,Cabeceiras do Piauí/PI,-4.4733665,-42.3098716,1,9.44644
1,Cabeceiras/GO,-15.7995459,-46.9264991,4,50.04379
D1,Cabeceiras/GO,-15.7995459,-46.9264991,1,12.51095
1,Cabedelo/PB,-6.97324,-34.8351609,2059,3039.74253
D1,Cabedelo/PB,-6.97324,-34.8351609,25,36.90800
1,Cabixi/RO,-13.4956065,-60.5424442,22,414.15663
D1,Cabixi/RO,-13.4956065,-60.5424442,2,37.65060
1,Cabo Frio/RJ,-22.8804369,-42.0189227,1085,478.97583
D1,Cabo Frio/RJ,-22.8804369,-42.0189227,58,25.60424
1,Cabo Verde/MG,-21.4743338,-46.3964995,4,28.41918
1,Cabo de Santo Agostinho/PE,-8.2838945,-35.0320984,1172,566.05232
D1,Cabo de Santo Agostinho/PE,-8.2838945,-35.0320984,187,90.31722
1,Cabreúva/SP,-23.3075813,-47.1324417,441,887.19899
D1,Cabreúva/SP,-23.3075813,-47.1324417,25,50.29473
1,Cabrobó/PE,-8.5083701,-39.3106961,172,502.61535
D1,Cabrobó/PE,-8.5083701,-39.3106961,2,5.84436
1,Cabrália Paulista/SP,-22.4562909,-49.3385645,27,633.20826
1,Cacaulândia/RO,-10.3380043,-62.9007231,16,256.82183
1,Cacequi/RS,-29.8838059,-54.8273443,2,15.92230
1,Cachoeira Alta/GO,-18.7618269,-50.9432431,67,536.68696
D1,Cachoeira Alta/GO,-18.7618269,-50.9432431,2,16.02051
1,Cachoeira Dourada/GO,-18.4934204,-49.481062,14,173.54655
1,Cachoeira Dourada/MG,-18.517136,-49.5002062,2,74.29421
1,Cachoeira Grande/MA,-2.9290492,-44.0573223,124,1314.81285
D1,Cachoeira Grande/MA,-2.9290492,-44.0573223,3,31.80999
1,Cachoeira Paulista/SP,-22.666498,-45.015384,61,183.03478
D1,Cachoeira Paulista/SP,-22.666498,-45.015384,1,3.00057
1,Cachoeira da Prata/MG,-19.524723,-44.453056,1,27.75465
1,Cachoeira de Goiás/GO,-16.6688414,-50.6435997,1,74.01925
1,Cachoeira de Minas/MG,-22.3554043,-45.7796324,15,129.90387
1,Cachoeira de Pajeú/MG,-15.965833,-41.496666,5,53.12367
1,Cachoeira do Arari/PA,-1.0143572,-48.9621089,200,841.50292
D1,Cachoeira do Arari/PA,-1.0143572,-48.9621089,10,42.07515
1,Cachoeira do Piriá/PA,-1.7599443,-46.5446954,322,949.85251
D1,Cachoeira do Piriá/PA,-1.7599443,-46.5446954,1,2.94985
1,Cachoeira do Sul/RS,-30.0474778,-52.8905413,124,150.84975
1,Cachoeira dos Índios/PB,-6.9259193,-38.6742159,53,517.37602
D1,Cachoeira dos Índios/PB,-6.9259193,-38.6742159,3,29.28544
1,Cachoeira/BA,-12.5998256,-38.9665918,166,495.96654
D1,Cachoeira/BA,-12.5998256,-38.9665918,4,11.95100
1,Cachoeiras de Macacu/RJ,-22.4626861,-42.6534414,401,680.38753
D1,Cachoeiras de Macacu/RJ,-22.4626861,-42.6534414,20,33.93454
1,Cachoeirinha/PE,-8.4906364,-36.2338963,186,912.65947
D1,Cachoeirinha/PE,-8.4906364,-36.2338963,11,53.97448
1,Cachoeirinha/RS,-29.9493353,-51.0898927,677,519.59814
D1,Cachoeirinha/RS,-29.9493353,-51.0898927,9,6.90751
1,Cachoeirinha/TO,-6.118647,-47.9208885,9,395.60440
1,Cachoeiro de Itapemirim/ES,-20.848084,-41.11129,2515,1203.51052
D1,Cachoeiro de Itapemirim/ES,-20.848084,-41.11129,86,41.15384
1,Cacimba de Areia/PB,-7.1288513,-37.1575194,7,190.11407
1,Cacimba de Dentro/PB,-6.6425101,-35.7929304,83,482.92314
D1,Cacimba de Dentro/PB,-6.6425101,-35.7929304,1,5.81835
1,Cacimbas/PB,-7.2125451,-37.0593398,41,571.58790
D1,Cacimbas/PB,-7.2125451,-37.0593398,1,13.94117
1,Cacimbinhas/AL,-9.401212,-36.991082,76,699.94474
D1,Cacimbinhas/AL,-9.401212,-36.991082,2,18.41960
1,Cacique Doble/RS,-27.7700117,-51.6616409,21,414.61007
1,Cacoal/RO,-11.4333,-61.4420502,420,492.03950
D1,Cacoal/RO,-11.4333,-61.4420502,5,5.85761
1,Caconde/SP,-21.527995,-46.643659,16,84.27706
1,Caculé/BA,-14.4990734,-42.2233006,5,21.57963
D1,Caculé/BA,-14.4990734,-42.2233006,1,4.31593
1,Caetanos/BA,-14.3387456,-40.9085971,7,48.13643
1,Caetanópolis/MG,-19.2947496,-44.4138386,17,146.24914
1,Caetité/BA,-14.0691776,-42.4852428,51,100.04904
D1,Caetité/BA,-14.0691776,-42.4852428,1,1.96175
1,Caeté/MG,-19.897777,-43.670278,97,216.91489
1,Caetés/PE,-8.7728788,-36.6255835,156,542.81638
D1,Caetés/PE,-8.7728788,-36.6255835,4,13.91837
1,Cafarnaum/BA,-11.691399,-41.468823,5,27.11938
1,Cafeara/PR,-22.78905,-51.714195,15,511.24744
1,Cafelândia/PR,-24.6176963,-53.3218057,58,320.08830
D1,Cafelândia/PR,-24.6176963,-53.3218057,1,5.51876
1,Cafelândia/SP,-21.8054355,-49.6030627,52,292.67744
D1,Cafelândia/SP,-21.8054355,-49.6030627,2,11.25682
1,Cafezal do Sul/PR,-23.900508,-53.512418,3,74.18398
1,Caiabu/SP,-22.0143038,-51.2356597,16,381.77046
D1,Caiabu/SP,-22.0143038,-51.2356597,1,23.86065
1,Caiana/MG,-20.695555,-41.924723,12,218.34061
D1,Caiana/MG,-20.695555,-41.924723,1,18.19505
1,Caiapônia/GO,-16.9538779,-51.8090761,8,42.29895
1,Caibaté/RS,-28.290475,-54.645407,1,20.63558
1,Caibi/SC,-27.0751925,-53.2502133,22,357.83995
D1,Caibi/SC,-27.0751925,-53.2502133,1,16.26545
1,Caicó/RN,-6.4594544,-37.0971911,535,787.32046
D1,Caicó/RN,-6.4594544,-37.0971911,11,16.18790
1,Caieiras/SP,-23.3644621,-46.7484765,791,779.54075
D1,Caieiras/SP,-23.3644621,-46.7484765,56,55.18873
1,Cairu/BA,-13.4860505,-39.0455744,75,412.63204
D1,Cairu/BA,-13.4860505,-39.0455744,3,16.50528
1,Caiuá/SP,-21.8319357,-51.9887179,4,68.09670
1,Caiçara do Norte/RN,-5.0645017,-36.0561226,60,916.17041
D1,Caiçara do Norte/RN,-5.0645017,-36.0561226,2,30.53901
1,Caiçara do Rio do Vento/RN,-5.757968,-36.00089,57,1547.23127
D1,Caiçara do Rio do Vento/RN,-5.757968,-36.00089,1,27.14441
1,Caiçara/PB,-6.6146866,-35.4681434,313,4346.61853
D1,Caiçara/PB,-6.6146866,-35.4681434,3,41.66088
1,Caiçara/RS,-27.2750478,-53.4310053,8,168.66962
1,Cajamar/SP,-23.3561111,-46.8769444,786,1023.42417
D1,Cajamar/SP,-23.3561111,-46.8769444,48,62.49919
1,Cajapió/MA,-2.8778715,-44.6746871,5,44.73472
D1,Cajapió/MA,-2.8778715,-44.6746871,2,17.89389
1,Cajari/MA,-3.3213076,-45.0118757,120,619.22700
D1,Cajari/MA,-3.3213076,-45.0118757,1,5.16022
1,Cajati/SP,-24.7272376,-48.1077914,211,739.08018
D1,Cajati/SP,-24.7272376,-48.1077914,2,7.00550
1,Cajazeiras do Piauí/PI,-6.794271,-42.3935024,4,112.39112
1,Cajazeiras/PB,-6.8897849,-38.5570389,894,1442.09830
D1,Cajazeiras/PB,-6.8897849,-38.5570389,23,37.10096
1,Cajazeirinhas/PB,-6.961442,-37.7993733,4,125.27404
1,Cajobi/SP,-20.8776238,-48.8106972,33,313.03358
D1,Cajobi/SP,-20.8776238,-48.8106972,1,9.48587
1,Cajueiro da Praia/PI,-2.931114,-41.340801,144,1884.32348
D1,Cajueiro da Praia/PI,-2.931114,-41.340801,3,39.25674
1,Cajueiro/AL,-9.399589,-36.1524309,151,710.12039
D1,Cajueiro/AL,-9.399589,-36.1524309,9,42.32506
1,Cajuri/MG,-20.7901414,-42.7954489,29,727.36393
1,Cajuru/SP,-21.2759978,-47.3046035,60,229.29644
D1,Cajuru/SP,-21.2759978,-47.3046035,2,7.64321
1,Caldas Brandão/PB,-7.1027959,-35.3254676,121,2011.97207
D1,Caldas Brandão/PB,-7.1027959,-35.3254676,2,33.25574
1,Caldas Novas/GO,-17.745,-48.625,183,200.74154
D1,Caldas Novas/GO,-17.745,-48.625,5,5.48474
1,Caldas/MG,-21.923611,-46.386111,22,151.93370
1,Caldazinha/GO,-16.7116649,-49.0012601,6,157.72871
1,Caldeirão Grande do Piauí/PI,-7.3310393,-40.6374433,26,450.13850
1,Caldeirão Grande/BA,-11.0208483,-40.3041387,56,420.19959
D1,Caldeirão Grande/BA,-11.0208483,-40.3041387,1,7.50356
1,Califórnia/PR,-23.6672543,-51.3554556,24,280.04667
D1,Califórnia/PR,-23.6672543,-51.3554556,2,23.33722
1,Calmon/SC,-26.6023644,-51.0992893,3,89.65929
1,Calumbi/PE,-7.9389746,-38.1516871,39,678.26087
D1,Calumbi/PE,-7.9389746,-38.1516871,1,17.39130
1,Calçado/PE,-8.7413446,-36.3351787,29,262.37221
D1,Calçado/PE,-8.7413446,-36.3351787,1,9.04732
1,Calçoene/AP,2.4981757,-50.9539503,733,6593.50544
D1,Calçoene/AP,2.4981757,-50.9539503,4,35.98093
1,Camacan/BA,-15.4166631,-39.4930088,527,1647.49281
D1,Camacan/BA,-15.4166631,-39.4930088,11,34.38790
1,Camalaú/PB,-7.885031,-36.824191,1,16.63063
1,Camamu/BA,-13.9438142,-39.1060917,389,1101.48375
D1,Camamu/BA,-13.9438142,-39.1060917,5,14.15789
1,Camanducaia/MG,-22.755278,-46.144444,125,574.18466
D1,Camanducaia/MG,-22.755278,-46.144444,2,9.18695
1,Camapuã/MS,-19.5291747,-54.0434641,13,94.81438
D1,Camapuã/MS,-19.5291747,-54.0434641,1,7.29341
1,Camaquã/RS,-30.8524752,-51.8075619,140,211.28567
D1,Camaquã/RS,-30.8524752,-51.8075619,7,10.56428
1,Camaragibe/PE,-8.0213832,-34.9810768,1410,893.37760
D1,Camaragibe/PE,-8.0213832,-34.9810768,125,79.20014
1,Camargo/RS,-28.5865661,-52.2031474,21,768.38639
1,Camaçari/BA,-12.6998188,-38.3260762,2612,873.19311
D1,Camaçari/BA,-12.6998188,-38.3260762,46,15.37783
1,Cambará do Sul/RS,-29.0489517,-50.145412,16,248.79490
1,Cambará/PR,-23.042273,-50.075281,56,220.82019
D1,Cambará/PR,-23.042273,-50.075281,1,3.94322
1,Cambira/PR,-23.600265,-51.581045,4,50.85823
1,Camboriú/SC,-27.0273601,-48.6535657,891,1073.63627
D1,Camboriú/SC,-27.0273601,-48.6535657,11,13.25477
1,Cambuci/RJ,-21.5749919,-41.9107833,72,464.36633
D1,Cambuci/RJ,-21.5749919,-41.9107833,1,6.44953
1,Cambuquira/MG,-21.853056,-45.2953619,4,31.21586
1,Cambuí/MG,-22.6122501,-46.0572137,70,236.87862
D1,Cambuí/MG,-22.6122501,-46.0572137,2,6.76796
1,Cambé/PR,-23.2782035,-51.2779583,258,242.17848
D1,Cambé/PR,-23.2782035,-51.2779583,11,10.32544
1,Cametá/PA,-2.242949,-49.497885,4061,2945.10117
D1,Cametá/PA,-2.242949,-49.497885,81,58.74248
1,Camocim de São Félix/PE,-8.3616757,-35.7638903,92,490.27445
D1,Camocim de São Félix/PE,-8.3616757,-35.7638903,3,15.98721
1,Camocim/CE,-2.9009918,-40.8427389,2001,3143.21170
D1,Camocim/CE,-2.9009918,-40.8427389,68,106.81579
1,Campanha/MG,-21.8361108,-45.401986,10,60.00600
D1,Campanha/MG,-21.8361108,-45.401986,1,6.00060
1,Campanário/MG,-18.2398144,-41.7271768,2,53.74899
1,Campestre da Serra/RS,-28.7966535,-51.0958149,16,472.25502
1,Campestre de Goiás/GO,-16.7624179,-49.69497,9,247.93388
1,Campestre do Maranhão/MA,-6.1729113,-47.3640512,196,1363.57312
D1,Campestre do Maranhão/MA,-6.1729113,-47.3640512,1,6.95701
1,Campestre/AL,-8.8481634,-35.5660033,49,706.45905
D1,Campestre/AL,-8.8481634,-35.5660033,3,43.25260
1,Campestre/MG,-19.6142116,-43.219378,17,80.74092
1,Campina Grande do Sul/PR,-25.3046032,-49.0545355,245,565.97671
D1,Campina Grande do Sul/PR,-25.3046032,-49.0545355,8,18.48087
1,Campina Grande/PB,-7.2246743,-35.8771292,8511,2077.21652
D1,Campina Grande/PB,-7.2246743,-35.8771292,184,44.90751
1,Campina Verde/MG,-19.535277,-49.486389,43,217.77665
D1,Campina Verde/MG,-19.535277,-49.486389,1,5.06457
1,Campina da Lagoa/PR,-24.5937926,-52.8038965,9,63.37136
D1,Campina da Lagoa/PR,-24.5937926,-52.8038965,1,7.04126
1,Campina das Missões/RS,-27.9883295,-54.8411665,1,18.26818
1,Campina do Monte Alegre/SP,-23.5935653,-48.4801876,47,780.21248
1,Campinas do Piauí/PI,-7.6593687,-41.8814875,10,178.15785
1,Campinas do Sul/RS,-27.7167968,-52.6257885,9,165.01650
1,Campinas/SP,-22.90556,-47.06083,11965,993.71051
D1,Campinas/SP,-22.90556,-47.06083,481,39.94774
1,Campinorte/GO,-14.3136699,-49.1510931,37,293.04610
1,Campinápolis/MT,-14.5403731,-52.7970626,68,425.53191
D1,Campinápolis/MT,-14.5403731,-52.7970626,6,37.54693
1,Campo Alegre de Goiás/GO,-17.6337896,-47.779291,2,26.35393
1,Campo Alegre de Lourdes/BA,-9.5160326,-43.0101338,49,170.15070
D1,Campo Alegre de Lourdes/BA,-9.5160326,-43.0101338,2,6.94493
1,Campo Alegre do Fidalgo/PI,-8.3753852,-41.8364191,3,59.46482
D1,Campo Alegre do Fidalgo/PI,-8.3753852,-41.8364191,1,19.82161
1,Campo Alegre/AL,-9.7798607,-36.3575793,814,1426.49352
D1,Campo Alegre/AL,-9.7798607,-36.3575793,10,17.52449
1,Campo Alegre/SC,-26.1941684,-49.2657484,7,58.44047
1,Campo Belo do Sul/SC,-27.8987563,-50.7586887,2,28.50627
1,Campo Belo/MG,-20.8975,-45.277223,234,433.10074
D1,Campo Belo/MG,-20.8975,-45.277223,4,7.40343
1,Campo Bom/RS,-29.674694,-51.060601,409,613.08310
D1,Campo Bom/RS,-29.674694,-51.060601,18,26.98165
1,Campo Bonito/PR,-25.0328004,-52.992976,30,782.67675
1,Campo Erê/SC,-26.3947432,-53.0790495,36,422.23786
1,Campo Florido/MG,-19.760833,-48.572223,23,282.17397
1,Campo Formoso/BA,-10.51055,-40.320031,309,433.95220
D1,Campo Formoso/BA,-10.51055,-40.320031,2,2.80875
1,Campo Grande do Piauí/PI,-7.1327559,-41.0381164,47,790.84637
D1,Campo Grande do Piauí/PI,-7.1327559,-41.0381164,1,16.82652
1,Campo Grande/AL,-9.9725,-36.74791447368421,123,1286.88010
D1,Campo Grande/AL,-9.9725,-36.74791447368421,1,10.46244
1,Campo Grande/MS,-20.4640173,-54.6162947,5181,578.24822
D1,Campo Grande/MS,-20.4640173,-54.6162947,45,5.02242
1,Campo Largo do Piauí/PI,-3.8104731,-42.6288333,52,714.38384
D1,Campo Largo do Piauí/PI,-3.8104731,-42.6288333,2,27.47630
1,Campo Largo/PR,-25.4597726,-49.5270851,884,669.68682
D1,Campo Largo/PR,-25.4597726,-49.5270851,15,11.36346
1,Campo Limpo Paulista/SP,-23.207791,-46.788919,339,400.47253
D1,Campo Limpo Paulista/SP,-23.207791,-46.788919,36,42.52806
1,Campo Limpo de Goiás/GO,-16.297101,-49.0894994,11,141.22480
1,Campo Magro/PR,-25.3691533,-49.4496921,92,313.80040
D1,Campo Magro/PR,-25.3691533,-49.4496921,2,6.82175
1,Campo Maior/PI,-4.8339574,-42.1739786,1208,2579.37779
D1,Campo Maior/PI,-4.8339574,-42.1739786,26,55.51641
1,Campo Mourão/PR,-24.046329,-52.37802,335,353.15574
D1,Campo Mourão/PR,-24.046329,-52.37802,8,8.43357
1,Campo Novo de Rondônia/RO,-10.5704235,-63.6199511,69,488.01188
D1,Campo Novo de Rondônia/RO,-10.5704235,-63.6199511,3,21.21791
1,Campo Novo do Parecis/MT,-13.658735,-57.890723,365,1032.23982
D1,Campo Novo do Parecis/MT,-13.658735,-57.890723,8,22.62443
1,Campo Novo/RS,-28.91500235,-52.331375687737626,9,200.71365
1,Campo Redondo/RN,-6.2420373,-36.1830606,81,722.11821
D1,Campo Redondo/RN,-6.2420373,-36.1830606,2,17.83008
1,Campo Verde/MT,-15.5430787,-55.1590511,521,1182.98858
D1,Campo Verde/MT,-15.5430787,-55.1590511,8,18.16489
1,Campo do Brito/SE,-10.7496246,-37.4942276,153,844.88376
D1,Campo do Brito/SE,-10.7496246,-37.4942276,3,16.56635
1,Campo do Meio/MG,-21.1072006,-45.8301735,5,42.90004
1,Campo do Tenente/PR,-25.9814143,-49.684518,27,338.72789
D1,Campo do Tenente/PR,-25.9814143,-49.684518,2,25.09095
1,Campos Altos/MG,-19.696389,-46.171389,39,252.24759
D1,Campos Altos/MG,-19.696389,-46.171389,1,6.46789
1,Campos Belos/GO,-13.0349839,-46.768112,45,226.27847
D1,Campos Belos/GO,-13.0349839,-46.768112,1,5.02841
1,Campos Borges/RS,-28.8852198,-52.999098,1,30.12048
1,Campos Gerais/MG,-21.2333342,-45.7584127,53,184.19406
D1,Campos Gerais/MG,-21.2333342,-45.7584127,2,6.95072
1,Campos Lindos/TO,-7.9740597,-46.8023881,3,29.65599
1,Campos Novos Paulista/SP,-22.601952,-49.998726,3,60.42296
1,Campos Novos/SC,-27.3962904,-51.2224397,187,515.94747
D1,Campos Novos/SC,-27.3962904,-51.2224397,2,5.51815
1,Campos Sales/CE,-7.0742675,-40.3740367,198,721.94268
D1,Campos Sales/CE,-7.0742675,-40.3740367,3,10.93853
1,Campos Verdes/GO,-14.2709062,-49.65746,6,280.24288
1,Campos de Júlio/MT,-13.7223646,-59.2645296,127,1842.98360
D1,Campos de Júlio/MT,-13.7223646,-59.2645296,2,29.02336
1,Campos do Jordão/SP,-22.7395263,-45.5912829,203,389.72508
D1,Campos do Jordão/SP,-22.7395263,-45.5912829,1,1.91983
1,Campos dos Goytacazes/RJ,-21.7558619,-41.3326895,2236,440.54947
D1,Campos dos Goytacazes/RJ,-21.7558619,-41.3326895,147,28.96278
1,Camutanga/PE,-7.4092965,-35.2738166,111,1298.09379
D1,Camutanga/PE,-7.4092965,-35.2738166,3,35.08362
1,Cana Verde/MG,-21.021308,-45.1817881,41,731.75085
D1,Cana Verde/MG,-21.021308,-45.1817881,1,17.84758
1,Canabrava do Norte/MT,-11.0516481,-51.8301897,28,590.34366
D1,Canabrava do Norte/MT,-11.0516481,-51.8301897,1,21.08370
1,Cananéia/SP,-25.0104609,-47.9315628,54,430.62201
D1,Cananéia/SP,-25.0104609,-47.9315628,3,23.92344
1,Canapi/AL,-9.1173572,-37.6011704,14,78.99786
D1,Canapi/AL,-9.1173572,-37.6011704,3,16.92811
1,Canarana/BA,-11.6870151,-41.7683675,46,175.73350
1,Canarana/MT,-13.5564602,-52.2691167,142,658.04718
D1,Canarana/MT,-13.5564602,-52.2691167,3,13.90241
1,Canas/SP,-22.7029347,-45.0526508,3,58.38848
1,Canavieiras/BA,-15.61621745,-39.08485321304444,63,202.57886
D1,Canavieiras/BA,-15.61621745,-39.08485321304444,3,9.64661
1,Canaã dos Carajás/PA,-6.5296837,-49.8516592,2420,6525.54941
D1,Canaã dos Carajás/PA,-6.5296837,-49.8516592,30,80.89524
1,Candeal/BA,-11.8053441,-39.1206515,23,278.51780
1,Candeias do Jamari/RO,-8.7949939,-63.7018851,752,2817.21800
D1,Candeias do Jamari/RO,-8.7949939,-63.7018851,13,48.70191
1,Candeias/BA,-12.6693806,-38.5406462,1074,1233.40530
D1,Candeias/BA,-12.6693806,-38.5406462,27,31.00740
1,Candeias/MG,-20.7676161,-45.2763777,37,248.55569
D1,Candeias/MG,-20.7676161,-45.2763777,1,6.71772
1,Candelária/RS,-29.668391,-52.789495,27,86.08321
1,Candiba/BA,-14.4125032,-42.8714102,15,104.75592
1,Candiota/RS,-31.5451894,-53.719538,8,83.47245
1,Candói/PR,-25.5711951,-52.051107,17,106.38964
1,Canela/RS,-29.3624657,-50.8134204,52,115.56069
D1,Canela/RS,-29.3624657,-50.8134204,1,2.22232
1,Canelinha/SC,-27.2660341,-48.7666708,166,1356.20915
D1,Canelinha/SC,-27.2660341,-48.7666708,1,8.16993
1,Canguaretama/RN,-6.3751942,-35.137463,167,487.22138
D1,Canguaretama/RN,-6.3751942,-35.137463,13,37.92741
1,Canguçu/RS,-31.398276,-52.6773522,51,90.99830
D1,Canguçu/RS,-31.398276,-52.6773522,2,3.56856
1,Canhoba/SE,-10.1373681,-36.9710796,21,523.95210
1,Canhotinho/PE,-8.876519,-36.197935,127,512.01419
D1,Canhotinho/PE,-8.876519,-36.197935,7,28.22125
1,Canindé de São Francisco/SE,-9.6597475,-37.7904456,120,401.33779
D1,Canindé de São Francisco/SE,-9.6597475,-37.7904456,4,13.37793
1,Canindé/CE,-4.3547946,-39.3108516,1469,1907.86654
D1,Canindé/CE,-4.3547946,-39.3108516,54,70.13260
1,Canitar/SP,-23.0066616,-49.7840632,5,95.85890
1,Canoas/RS,-29.9216045,-51.1799525,993,286.48418
D1,Canoas/RS,-29.9216045,-51.1799525,40,11.54015
1,Canoinhas/SC,-26.176591,-50.395001,168,308.81785
D1,Canoinhas/SC,-26.176591,-50.395001,2,3.67640
1,Cansanção/BA,-10.6671448,-39.498199,82,235.40219
D1,Cansanção/BA,-10.6671448,-39.498199,2,5.74152
1,Cantagalo/PR,-25.3735238,-52.1238114,27,202.74837
D1,Cantagalo/PR,-25.3735238,-52.1238114,1,7.50920
1,Cantagalo/RJ,-21.9811325,-42.3682522,25,123.93417
D1,Cantagalo/RJ,-21.9811325,-42.3682522,1,4.95737
1,Cantanhede/MA,-3.6355005,-44.3778738,380,1727.66538
D1,Cantanhede/MA,-3.6355005,-44.3778738,2,9.09298
1,Canto do Buriti/PI,-8.1112473,-42.944844,175,825.97819
D1,Canto do Buriti/PI,-8.1112473,-42.944844,2,9.43975
1,Cantá/RR,2.60994,-60.605827,548,2988.81920
D1,Cantá/RR,2.60994,-60.605827,7,38.17835
1,Canudos do Vale/RS,-29.3240418,-52.2348494,4,233.10023
1,Canudos/BA,-9.8948692,-39.0266244,21,125.98992
D1,Canudos/BA,-9.8948692,-39.0266244,2,11.99904
1,Canutama/AM,-6.5330019,-64.3834966,143,914.96577
1,Canápolis/MG,-18.7228793,-49.2016329,31,255.14403
1,Capanema/PA,-1.1933054,-47.1828679,955,1383.51659
D1,Capanema/PA,-1.1933054,-47.1828679,59,85.47380
1,Capanema/PR,-25.6704878,-53.8083036,72,376.49027
1,Caparaó/MG,-20.5232726,-41.9049984,14,257.44759
D1,Caparaó/MG,-20.5232726,-41.9049984,2,36.77823
1,Capela Nova/MG,-20.9236773,-43.6179487,2,42.98302
1,Capela de Santana/RS,-29.6926603,-51.3206659,8,67.00168
1,Capela do Alto Alegre/BA,-11.6703944,-39.8362745,57,489.81696
1,Capela do Alto/SP,-23.4704798,-47.7352309,119,574.71264
1,Capela/AL,-9.415041,-36.082583,441,2586.05524
D1,Capela/AL,-9.415041,-36.082583,3,17.59221
1,Capela/SE,-10.50494,-37.0552566,403,1177.91483
D1,Capela/SE,-10.50494,-37.0552566,13,37.99725
1,Capelinha/MG,-17.693889,-42.518611,9,23.81961
1,Capetinga/MG,-20.6193382,-47.0577418,3,43.35260
1,Capim Branco/MG,-19.548333,-44.133056,17,174.28747
1,Capim Grosso/BA,-11.3793228,-40.0112095,241,785.98917
D1,Capim Grosso/BA,-11.3793228,-40.0112095,4,13.04546
1,Capim/PB,-6.9174091,-35.1720326,130,1992.94803
D1,Capim/PB,-6.9174091,-35.1720326,4,61.32148
1,Capinzal do Norte/MA,-4.7304006,-44.3249063,274,2505.94476
1,Capinzal/SC,-27.3440651,-51.6110403,110,481.44258
1,Capinópolis/MG,-18.682778,-49.569723,97,599.76504
1,Capistrano/CE,-4.4644692,-38.8956734,410,2311.42181
D1,Capistrano/CE,-4.4644692,-38.8956734,9,50.73853
1,Capitão Andrade/MG,-19.0675,-41.859722,4,73.15289
1,Capitão Enéas/MG,-16.3236018,-43.7154584,22,144.41381
D1,Capitão Enéas/MG,-16.3236018,-43.7154584,3,19.69279
1,Capitão Gervásio Oliveira/PI,-8.4954657,-41.8169342,7,170.73171
1,Capitão Leônidas Marques/PR,-25.481645,-53.611238,51,323.19392
1,Capitão Poço/PA,-1.7447162,-47.0638495,543,999.94475
D1,Capitão Poço/PA,-1.7447162,-47.0638495,27,49.72101
1,Capitão de Campos/PI,-4.4584198,-41.9415301,69,604.36192
1,Capitão/RS,-29.2718294,-51.9869716,17,616.61226
1,Capitólio/MG,-20.6142437,-46.0487652,5,57.92400
D1,Capitólio/MG,-20.6142437,-46.0487652,2,23.16960
1,Capivari de Baixo/SC,-28.449773,-48.963144,203,816.21165
1,Capivari do Sul/RS,-30.1437605,-50.5129169,1,21.45923
1,Capivari/SP,-22.995144,-47.50715,320,573.80577
D1,Capivari/SP,-22.995144,-47.50715,1,1.79314
1,Capixaba/AC,-10.5741345,-67.6759719,181,1542.65746
D1,Capixaba/AC,-10.5741345,-67.6759719,7,59.66079
1,Capoeiras/PE,-8.7386788,-36.6268109,73,364.12610
D1,Capoeiras/PE,-8.7386788,-36.6268109,3,14.96409
1,Capão Alto/SC,-27.9382827,-50.511491,1,39.60396
1,Capão Bonito/SP,-24.0048759,-48.3489848,183,388.22182
D1,Capão Bonito/SP,-24.0048759,-48.3489848,13,27.57860
1,Capão da Canoa/RS,-29.7542937,-50.0215684,129,243.17141
D1,Capão da Canoa/RS,-29.7542937,-50.0215684,4,7.54020
1,Capão do Cipó/RS,-28.9317296,-54.5555783,3,82.16927
1,Capão do Leão/RS,-31.766133,-52.5013148,17,67.05056
1,Caracaraí/RR,1.827598,-61.125389,299,1363.67783
D1,Caracaraí/RR,1.827598,-61.125389,4,18.24318
1,Caracol/MS,-22.0169949,-57.0298349,18,294.31001
1,Caracol/PI,-9.2804898,-43.3284924,53,485.52583
1,Caraguatatuba/SP,-23.62028,-45.41306,565,464.89813
D1,Caraguatatuba/SP,-23.62028,-45.41306,42,34.55880
1,Carambeí/PR,-24.9513298,-50.1171293,94,401.45206
D1,Carambeí/PR,-24.9513298,-50.1171293,4,17.08307
1,Caranaíba/MG,-20.8736914,-43.7379458,6,188.50141
D1,Caranaíba/MG,-20.8736914,-43.7379458,1,31.41690
1,Carandaí/MG,-20.9523934,-43.8043903,51,199.99216
D1,Carandaí/MG,-20.9523934,-43.8043903,3,11.76424
1,Carangola/MG,-20.733056,-42.029445,195,590.90909
D1,Carangola/MG,-20.733056,-42.029445,3,9.09091
1,Carapebus/RJ,-22.1869969,-41.6633764,168,1030.61162
D1,Carapebus/RJ,-22.1869969,-41.6633764,4,24.53837
1,Carapicuíba/SP,-23.5234673,-46.8406808,3074,766.72312
D1,Carapicuíba/SP,-23.5234673,-46.8406808,190,47.39017
1,Caratinga/MG,-19.7900887,-42.140533,496,538.76735
D1,Caratinga/MG,-19.7900887,-42.140533,13,14.12092
1,Carauari/AM,-4.8766426,-66.8961433,650,2297.30685
D1,Carauari/AM,-4.8766426,-66.8961433,7,24.74023
1,Caravelas/BA,-17.7296514,-39.2660082,109,495.09448
1,Carazinho/RS,-28.2981634,-52.7942363,179,288.19836
D1,Carazinho/RS,-28.2981634,-52.7942363,6,9.66028
1,Caraá/RS,-29.7900698,-50.4302307,45,544.13543
D1,Caraá/RS,-29.7900698,-50.4302307,1,12.09190
1,Caraí/MG,-17.1884104,-41.6976554,41,173.10534
D1,Caraí/MG,-17.1884104,-41.6976554,1,4.22208
1,Caraíbas/BA,-14.72496,-41.2566163,7,78.20355
1,Caraúbas do Piauí/PI,-3.4757229,-41.8431178,63,1073.61963
D1,Caraúbas do Piauí/PI,-3.4757229,-41.8431178,1,17.04158
1,Caraúbas/PB,-7.7273231,-36.4923357,30,720.80730
1,Caraúbas/RN,-5.7889323,-37.5548751,185,902.74728
D1,Caraúbas/RN,-5.7889323,-37.5548751,3,14.63915
1,Carbonita/MG,-17.5308667,-43.0136207,4,42.53057
1,Cardeal da Silva/BA,-11.9428154,-37.9494462,8,86.06778
D1,Cardeal da Silva/BA,-11.9428154,-37.9494462,1,10.75847
1,Cardoso Moreira/RJ,-21.4894916,-41.6152776,159,1239.95945
1,Cardoso/SP,-20.080447,-49.9139767,34,275.83969
D1,Cardoso/SP,-20.080447,-49.9139767,2,16.22586
1,Careaçu/MG,-22.0440585,-45.6949091,7,103.59627
1,Careiro da Várzea/AM,-3.197024,-59.8259104,116,383.78825
D1,Careiro da Várzea/AM,-3.197024,-59.8259104,4,13.23408
1,Careiro/AM,-3.8185277,-60.3616505,1003,2648.60440
D1,Careiro/AM,-3.8185277,-60.3616505,14,36.96955
1,Cariacica/ES,-20.263202,-40.416549,7458,1956.01715
D1,Cariacica/ES,-20.263202,-40.416549,278,72.91134
1,Caridade do Piauí/PI,-7.7331063,-40.9883665,9,177.61989
1,Caridade/CE,-4.2316487,-39.1946515,283,1255.15590
D1,Caridade/CE,-4.2316487,-39.1946515,13,57.65734
1,Carinhanha/BA,-14.298524,-43.772349,8,27.56910
1,Carira/SE,-10.358303,-37.701473,308,1394.80120
D1,Carira/SE,-10.358303,-37.701473,9,40.75718
1,Cariri do Tocantins/TO,-11.8882727,-49.1604216,66,1506.16157
D1,Cariri do Tocantins/TO,-11.8882727,-49.1604216,1,22.82063
1,Caririaçu/CE,-7.0417053,-39.2835527,224,830.70647
D1,Caririaçu/CE,-7.0417053,-39.2835527,4,14.83404
1,Cariré/CE,-3.948584,-40.476028,506,2742.84475
D1,Cariré/CE,-3.948584,-40.476028,10,54.20642
1,Cariús/CE,-6.5348688,-39.4966658,160,855.66073
D1,Cariús/CE,-6.5348688,-39.4966658,2,10.69576
1,Carlos Barbosa/RS,-29.2978372,-51.5005613,311,1042.46975
D1,Carlos Barbosa/RS,-29.2978372,-51.5005613,7,23.46395
1,Carlos Chagas/MG,-21.744351,-43.3908675,106,562.72230
D1,Carlos Chagas/MG,-21.744351,-43.3908675,2,10.61740
1,Carlópolis/PR,-23.4224762,-49.7194008,57,398.04469
1,Carmo da Cachoeira/MG,-21.460556,-45.223334,5,41.08463
1,Carmo da Mata/MG,-20.558334,-44.8703774,9,78.42454
1,Carmo de Minas/MG,-22.1216655,-45.1323836,6,40.37957
1,Carmo do Cajuru/MG,-20.184444,-44.770834,82,364.80114
D1,Carmo do Cajuru/MG,-20.184444,-44.770834,3,13.34638
1,Carmo do Paranaíba/MG,-18.9992327,-46.306916,99,326.42026
D1,Carmo do Paranaíba/MG,-18.9992327,-46.306916,2,6.59435
1,Carmo do Rio Claro/MG,-20.973315,-46.1186754,24,113.07420
D1,Carmo do Rio Claro/MG,-20.973315,-46.1186754,1,4.71143
1,Carmo do Rio Verde/GO,-15.3549139,-49.707975,12,119.02400
1,Carmo/RJ,-21.9341749,-42.6091737,78,412.80762
D1,Carmo/RJ,-21.9341749,-42.6091737,2,10.58481
1,Carmolândia/TO,-7.033804,-48.3951295,16,620.15504
D1,Carmolândia/TO,-7.033804,-48.3951295,1,38.75969
1,Carmésia/MG,-19.0854535,-43.1392003,5,189.96960
1,Carmópolis de Minas/MG,-20.541224,-44.6350611,130,671.66107
D1,Carmópolis de Minas/MG,-20.541224,-44.6350611,3,15.49987
1,Carmópolis/SE,-10.64835,-36.98493,171,1028.01491
D1,Carmópolis/SE,-10.64835,-36.98493,6,36.07070
1,Carnaubais/RN,-5.3383681,-36.8335566,79,734.26898
D1,Carnaubais/RN,-5.3383681,-36.8335566,4,37.17818
1,Carnaubal/CE,-4.1611842,-40.9412317,217,1232.53436
D1,Carnaubal/CE,-4.1611842,-40.9412317,3,17.03965
1,Carnaubeira da Penha/PE,-8.3192809,-38.7435891,17,131.45685
D1,Carnaubeira da Penha/PE,-8.3192809,-38.7435891,1,7.73276
1,Carnaíba/PE,-7.805964,-37.7947314,60,306.88967
D1,Carnaíba/PE,-7.805964,-37.7947314,6,30.68897
1,Carnaúba dos Dantas/RN,-6.5560588,-36.5930811,27,330.07335
D1,Carnaúba dos Dantas/RN,-6.5560588,-36.5930811,3,36.67482
1,Carneirinho/MG,-19.6975,-50.688055,16,159.56916
1,Carneiros/AL,-9.4832948,-37.3757121,35,385.42011
1,Caroebe/RR,0.8812315,-59.6932274,493,4848.06766
D1,Caroebe/RR,0.8812315,-59.6932274,2,19.66762
1,Carolina/MA,-7.3313437,-47.4738762,165,678.39816
1,Carpina/PE,-7.8459151,-35.2538861,281,335.95964
D1,Carpina/PE,-7.8459151,-35.2538861,42,50.21461
1,Carrapateira/PB,-7.0395225,-38.3432281,28,1053.02745
1,Carrasco Bonito/TO,-5.3205734,-48.0376667,25,610.50061
1,Caruaru/PE,-8.2829702,-35.9722852,2746,760.41626
D1,Caruaru/PE,-8.2829702,-35.9722852,180,49.84520
1,Carutapera/MA,-1.2016638,-46.0205618,254,1066.91309
D1,Carutapera/MA,-1.2016638,-46.0205618,15,63.00668
1,Carvalhópolis/MG,-21.7773461,-45.8412117,1,27.94077
1,Casa Branca/SP,-21.7743137,-47.0852175,49,161.29032
D1,Casa Branca/SP,-21.7743137,-47.0852175,1,3.29164
1,Casa Nova/BA,-9.1736775,-40.9734475,167,232.04435
D1,Casa Nova/BA,-9.1736775,-40.9734475,5,6.94744
1,Casca/RS,-28.5634054,-51.9741902,23,254.67833
D1,Casca/RS,-28.5634054,-51.9741902,1,11.07297
1,Cascalho Rico/MG,-18.579344,-47.875774,25,813.00813
D1,Cascalho Rico/MG,-18.579344,-47.875774,1,32.52033
1,Cascavel/CE,-4.129666,-38.241178,1100,1533.25063
D1,Cascavel/CE,-4.129666,-38.241178,81,112.90300
1,Cascavel/PR,-24.9554996,-53.4560544,3697,1125.57618
D1,Cascavel/PR,-24.9554996,-53.4560544,74,22.52979
1,Caseara/TO,-9.273159,-49.9576837,6,111.75265
D1,Caseara/TO,-9.273159,-49.9576837,1,18.62544
1,Caseiros/RS,-28.2721149,-51.6873536,12,374.76577
1,Casimiro de Abreu/RJ,-22.4809932,-42.2039976,446,1009.41517
D1,Casimiro de Abreu/RJ,-22.4809932,-42.2039976,11,24.89589
1,Casinhas/PE,-7.744698,-35.7250923,29,202.21742
D1,Casinhas/PE,-7.744698,-35.7250923,3,20.91904
1,Casserengue/PB,-6.779538,-35.817875,161,2155.86502
D1,Casserengue/PB,-6.779538,-35.817875,3,40.17140
1,Cassilândia/MS,-19.1128242,-51.7345354,30,136.74279
D1,Cassilândia/MS,-19.1128242,-51.7345354,2,9.11619
1,Castanhal/PA,-1.2927031,-47.9223903,1739,866.06605
D1,Castanhal/PA,-1.2927031,-47.9223903,174,86.65641
1,Castanheira/MT,-11.1391946,-58.6088547,13,148.92886
1,Castanheiras/RO,-11.4277212,-61.9486802,25,819.13499
1,Castelo do Piauí/PI,-5.3230426,-41.5546185,36,182.59282
D1,Castelo do Piauí/PI,-5.3230426,-41.5546185,3,15.21607
1,Castelo/ES,-20.6034476,-41.2033505,476,1268.18351
D1,Castelo/ES,-20.6034476,-41.2033505,12,31.97101
1,Castelândia/GO,-18.089062,-50.220798,5,145.56041
1,Castilho/SP,-20.8695636,-51.4877792,33,157.09797
D1,Castilho/SP,-20.8695636,-51.4877792,1,4.76054
1,Castro Alves/BA,-12.7616941,-39.4281088,128,487.35912
D1,Castro Alves/BA,-12.7616941,-39.4281088,3,11.42248
1,Castro/PR,-24.794072,-49.9972914,152,212.63500
1,Cataguases/MG,-21.387426,-42.6957219,153,203.66599
D1,Cataguases/MG,-21.387426,-42.6957219,7,9.31805
1,Catalão/GO,-18.1702546,-47.9447082,370,340.00165
D1,Catalão/GO,-18.1702546,-47.9447082,9,8.27031
1,Catanduva/SP,-21.1331035,-48.9712817,696,571.13784
D1,Catanduva/SP,-21.1331035,-48.9712817,33,27.07981
1,Catanduvas/PR,-25.2043528,-53.154826,50,490.72529
1,Catanduvas/SC,-27.0689719,-51.660158,37,340.66845
1,Catarina/CE,-6.1341578,-39.8795321,61,294.71447
D1,Catarina/CE,-6.1341578,-39.8795321,2,9.66277
1,Catas Altas da Noruega/MG,-20.690277,-43.4975,13,357.04477
1,Catas Altas/MG,-20.0744,-43.4075,22,409.22619
1,Catende/PE,-8.6900588,-35.748470825,440,1025.83232
D1,Catende/PE,-8.6900588,-35.748470825,27,62.94880
1,Catiguá/SP,-21.0491485,-49.0578923,56,717.58073
D1,Catiguá/SP,-21.0491485,-49.0578923,1,12.81394
1,Catingueira/PB,-7.120081,-37.60638,15,304.13625
D1,Catingueira/PB,-7.120081,-37.60638,2,40.55150
1,Catolândia/BA,-12.315088,-44.8616434,1,27.95639
1,Catolé do Rocha/PB,-6.340625,-37.746967,194,635.10771
D1,Catolé do Rocha/PB,-6.340625,-37.746967,8,26.19001
1,Catu/BA,-12.351274,-38.379108,496,906.69786
D1,Catu/BA,-12.351274,-38.379108,5,9.14010
1,Catuji/MG,-17.3024568,-41.5168387,10,158.45349
1,Catunda/CE,-4.6494224,-40.2002603,136,1315.02611
D1,Catunda/CE,-4.6494224,-40.2002603,2,19.33862
1,Caturama/BA,-13.3309299,-42.2927623,2,21.43853
1,Caturaí/GO,-16.4473559,-49.4919149,12,236.68639
1,Caturité/PB,-7.4199652,-36.0207132,64,1319.04369
D1,Caturité/PB,-7.4199652,-36.0207132,1,20.61006
1,Catuípe/RS,-28.255356,-54.013215,10,113.97310
1,Caucaia/CE,-3.7300563,-38.6593082,4485,1241.00719
D1,Caucaia/CE,-3.7300563,-38.6593082,304,84.11732
1,Cavalcante/GO,-13.7928414,-47.4568521,7,72.09805
1,Caxambu do Sul/SC,-27.1615046,-52.8796675,35,961.01043
D1,Caxambu do Sul/SC,-27.1615046,-52.8796675,1,27.45744
1,Caxambu/MG,-21.9770359,-44.9318289,18,83.11784
D1,Caxambu/MG,-21.9770359,-44.9318289,1,4.61766
1,Caxias do Sul/RS,-29.1684796,-51.1793861,1733,339.20134
D1,Caxias do Sul/RS,-29.1684796,-51.1793861,31,6.06765
1,Caxias/MA,-4.8654201,-43.353664,2224,1348.85978
D1,Caxias/MA,-4.8654201,-43.353664,45,27.29258
1,Caxingó/PI,-3.4208396,-41.8925637,63,1161.50442
1,Caçador/SC,-26.77567,-51.0120041,99,125.96221
D1,Caçador/SC,-26.77567,-51.0120041,4,5.08938
1,Caçapava do Sul/RS,-30.5113286,-53.4916761,234,695.93148
D1,Caçapava do Sul/RS,-30.5113286,-53.4916761,4,11.89626
1,Caçapava/SP,-23.099204,-45.707645,317,336.29314
D1,Caçapava/SP,-23.099204,-45.707645,9,9.54775
1,Caçu/GO,-18.5637222,-51.1369685,194,1211.81835
D1,Caçu/GO,-18.5637222,-51.1369685,4,24.98595
1,Caém/BA,-11.0909658,-40.4322187,34,369.04374
1,Ceará-Mirim/RN,-5.633588,-35.4248407,577,785.06606
D1,Ceará-Mirim/RN,-5.633588,-35.4248407,29,39.45739
1,Cedral/MA,-2.000269,-44.528114,104,974.23888
1,Cedral/SP,-20.9028433,-49.2699665,38,411.38898
D1,Cedral/SP,-20.9028433,-49.2699665,1,10.82603
1,Cedro de São João/SE,-10.2506778,-36.8816067,138,2340.17297
D1,Cedro de São João/SE,-10.2506778,-36.8816067,3,50.87333
1,Cedro/CE,-6.6065382,-39.0599487,101,395.19505
D1,Cedro/CE,-6.6065382,-39.0599487,5,19.56411
1,Cedro/PE,-7.7186318,-39.2363385,63,533.58177
D1,Cedro/PE,-7.7186318,-39.2363385,1,8.46955
1,Celso Ramos/SC,-27.6335797,-51.3368111,13,476.53959
1,Centenário do Sul/PR,-22.821497,-51.5951456,19,175.48721
1,Centenário/RS,-27.7633568,-51.989010104551,2,69.18021
1,Centenário/TO,-8.9586893,-47.3355181,1,34.42341
1,Central de Minas/MG,-18.7612885,-41.3071204,1,14.22071
D1,Central de Minas/MG,-18.7612885,-41.3071204,1,14.22071
1,Central do Maranhão/MA,-2.1967253,-44.8290757,17,196.01061
D1,Central do Maranhão/MA,-2.1967253,-44.8290757,1,11.53004
1,Central/BA,-11.135426,-42.1110123,3,17.37519
1,Centralina/MG,-18.5843349,-49.1954739,29,280.19324
D1,Centralina/MG,-18.5843349,-49.1954739,1,9.66184
1,Centro Novo do Maranhão/MA,-2.1361032,-46.1248528,348,1609.47183
D1,Centro Novo do Maranhão/MA,-2.1361032,-46.1248528,5,23.12460
1,Centro do Guilherme/MA,-2.4511749,-46.039127,51,378.95675
D1,Centro do Guilherme/MA,-2.4511749,-46.039127,1,7.43052
1,Cerejeiras/RO,-13.186987,-60.816836,46,281.81094
D1,Cerejeiras/RO,-13.186987,-60.816836,3,18.37897
1,Ceres/GO,-15.3103568,-49.6032054,174,784.10166
D1,Ceres/GO,-15.3103568,-49.6032054,2,9.01266
1,Cerqueira César/SP,-23.0353135,-49.1650519,26,130.09757
D1,Cerqueira César/SP,-23.0353135,-49.1650519,1,5.00375
1,Cerquilho/SP,-23.1626556,-47.7433878,97,198.16544
D1,Cerquilho/SP,-23.1626556,-47.7433878,7,14.30060
1,Cerro Azul/PR,-24.8245108,-49.2615181,45,253.10760
D1,Cerro Azul/PR,-24.8245108,-49.2615181,4,22.49845
1,Cerro Corá/RN,-6.0412685,-36.3464694,18,161.01619
D1,Cerro Corá/RN,-6.0412685,-36.3464694,1,8.94534
1,Cerro Grande do Sul/RS,-30.5962963,-51.7517196,3,24.51181
D1,Cerro Grande do Sul/RS,-30.5962963,-51.7517196,2,16.34120
1,Cerro Grande/RS,-27.6088939,-53.1663055,3,129.81393
1,Cerro Largo/RS,-28.147498,-54.7383681,5,35.37819
1,Cesário Lange/SP,-23.226035,-47.954453,33,181.83822
D1,Cesário Lange/SP,-23.226035,-47.954453,2,11.02050
1,Cezarina/GO,-16.9718289,-49.775814,28,325.35440
D1,Cezarina/GO,-16.9718289,-49.775814,2,23.23960
1,Chalé/MG,-20.0419748,-41.6914563,11,192.84712
