type,name,lat,lon,total,total_per_100k_inhabitants
1,Abadia de Goiás/GO,-16.7572644,-49.4412205,3727,40696.65866
D1,Abadia de Goiás/GO,-16.7572644,-49.4412205,48,524.13191
1,Abadia dos Dourados/MG,-18.4911191,-47.4063589,1875,26701.79436
D1,Abadia dos Dourados/MG,-18.4911191,-47.4063589,20,284.81914
1,Abadiânia/GO,-16.1940946,-48.7067767,1957,9375.74857
D1,Abadiânia/GO,-16.1940946,-48.7067767,55,263.49830
1,Abaetetuba/PA,-1.721828,-48.878843,10880,6781.39355
D1,Abaetetuba/PA,-1.721828,-48.878843,240,149.58956
1,Abaeté/MG,-19.1566833,-45.4481213,3875,16657.35288
D1,Abaeté/MG,-19.1566833,-45.4481213,48,206.33624
1,Abaiara/CE,-7.3607808,-39.0487878,1197,10004.17885
D1,Abaiara/CE,-7.3607808,-39.0487878,20,167.15420
1,Abaré/BA,-8.7239913,-39.1139689,2737,13290.27872
D1,Abaré/BA,-8.7239913,-39.1139689,18,87.40410
1,Abatiá/PR,-23.3052967,-50.3102532,1742,23668.47826
D1,Abatiá/PR,-23.3052967,-50.3102532,23,312.50000
1,Abaíra/BA,-13.2503296,-41.6640342,351,4043.31298
D1,Abaíra/BA,-13.2503296,-41.6640342,17,195.82997
1,Abdon Batista/SC,-27.612419,-51.022992,511,20165.74586
D1,Abdon Batista/SC,-27.612419,-51.022992,4,157.85320
1,Abel Figueiredo/PA,-4.953001,-48.3958485,1452,19267.51592
D1,Abel Figueiredo/PA,-4.953001,-48.3958485,12,159.23567
1,Abelardo Luz/SC,-26.5705893,-52.3280339,2492,13832.91701
D1,Abelardo Luz/SC,-26.5705893,-52.3280339,69,383.01415
1,Abre Campo/MG,-20.2976097,-42.4764741,2022,15051.36222
D1,Abre Campo/MG,-20.2976097,-42.4764741,19,141.43219
1,Abreu e Lima/PE,-7.900719,-34.898389,4984,4949.45282
D1,Abreu e Lima/PE,-7.900719,-34.898389,260,258.19778
1,Abreulândia/TO,-9.6221526,-49.1558343,515,19739.36374
D1,Abreulândia/TO,-9.6221526,-49.1558343,8,306.63089
1,Acaiaca/MG,-20.3621646,-43.1444162,270,6758.44806
D1,Acaiaca/MG,-20.3621646,-43.1444162,12,300.37547
1,Acajutiba/BA,-11.6609659,-38.0186381,641,4213.22466
D1,Acajutiba/BA,-11.6609659,-38.0186381,27,177.46812
1,Acarape/CE,-4.2237866,-38.7071663,3382,22338.17701
D1,Acarape/CE,-4.2237866,-38.7071663,36,237.78071
1,Acaraú/CE,-2.8869514,-40.1194713,7485,11777.01555
D1,Acaraú/CE,-2.8869514,-40.1194713,121,190.38328
1,Acari/RN,-6.4364689,-36.6394777,1463,13173.05961
D1,Acari/RN,-6.4364689,-36.6394777,26,234.10769
1,Acará/PA,-1.961388,-48.1987043,2526,4531.42939
D1,Acará/PA,-1.961388,-48.1987043,45,80.72618
1,Acauã/PI,-8.219542,-41.083059,255,3581.96376
D1,Acauã/PI,-8.219542,-41.083059,2,28.09383
1,Aceguá/RS,-31.8695131,-54.1615593,1077,21622.16422
D1,Aceguá/RS,-31.8695131,-54.1615593,8,160.61032
1,Acopiara/CE,-6.0936464,-39.4543204,6202,11340.90369
D1,Acopiara/CE,-6.0936464,-39.4543204,179,327.31728
1,Acorizal/MT,-15.2001544,-56.3668953,1511,28461.10379
D1,Acorizal/MT,-15.2001544,-56.3668953,24,452.06254
1,Acrelândia/AC,-10.0759167,-67.0526898,3235,20577.57140
D1,Acrelândia/AC,-10.0759167,-67.0526898,40,254.43674
1,Acreúna/GO,-17.3959899,-50.3749031,5630,24790.84104
D1,Acreúna/GO,-17.3959899,-50.3749031,83,365.47776
1,Adamantina/SP,-21.6866517,-51.0762975,10587,30116.91748
D1,Adamantina/SP,-21.6866517,-51.0762975,181,514.89204
1,Adelândia/GO,-16.4155077,-50.1665834,693,27554.67197
D1,Adelândia/GO,-16.4155077,-50.1665834,6,238.56859
1,Adolfo/SP,-21.2356597,-49.6441918,965,27221.43865
D1,Adolfo/SP,-21.2356597,-49.6441918,25,705.21862
1,Adrianópolis/PR,-24.6557863,-48.9912769,1958,33776.09108
D1,Adrianópolis/PR,-24.6557863,-48.9912769,30,517.50906
1,Adustina/BA,-10.5358875,-38.114479,1612,9367.19159
D1,Adustina/BA,-10.5358875,-38.114479,29,168.51647
1,Afogados da Ingazeira/PE,-7.750429,-37.6356375,9441,25145.15528
D1,Afogados da Ingazeira/PE,-7.750429,-37.6356375,81,215.73536
1,Afonso Bezerra/RN,-5.4745,-36.57625071327935,1300,11792.45283
D1,Afonso Bezerra/RN,-5.4745,-36.57625071327935,19,172.35123
1,Afonso Cláudio/ES,-20.077841,-41.12606,8207,27062.58656
D1,Afonso Cláudio/ES,-20.077841,-41.12606,86,283.58504
1,Afonso Cunha/MA,-4.1326105,-43.3230026,430,6484.69311
D1,Afonso Cunha/MA,-4.1326105,-43.3230026,2,30.16136
1,Afrânio/PE,-8.5198919,-41.0070197,1558,7797.40754
D1,Afrânio/PE,-8.5198919,-41.0070197,16,80.07607
1,Afuá/PA,-0.1535664,-50.3879223,3513,8802.30519
D1,Afuá/PA,-0.1535664,-50.3879223,20,50.11275
1,Agrestina/PE,-8.4558021,-35.9442663,2939,11644.21553
D1,Agrestina/PE,-8.4558021,-35.9442663,73,289.22345
1,Agricolândia/PI,-5.7967843,-42.6605131,976,19051.33711
D1,Agricolândia/PI,-5.7967843,-42.6605131,11,214.71794
1,Agrolândia/SC,-27.4122212,-49.8295774,2286,20483.87097
D1,Agrolândia/SC,-27.4122212,-49.8295774,35,313.62007
1,Agronômica/SC,-27.2660744,-49.7104753,1251,22459.60503
D1,Agronômica/SC,-27.2660744,-49.7104753,15,269.29982
1,Aguanil/MG,-20.9424533,-45.3927152,1297,28461.70726
D1,Aguanil/MG,-20.9424533,-45.3927152,8,175.55409
1,Aguaí/SP,-22.0592036,-46.979384,6857,18541.95398
D1,Aguaí/SP,-22.0592036,-46.979384,136,367.75642
1,Agudo/RS,-29.6423259,-53.2494005,3441,21053.59765
D1,Agudo/RS,-29.6423259,-53.2494005,39,238.61968
1,Agudos do Sul/PR,-25.9890808,-49.3328175,1658,17330.40661
D1,Agudos do Sul/PR,-25.9890808,-49.3328175,38,397.19870
1,Agudos/SP,-22.471162,-48.987822,7362,19589.16503
D1,Agudos/SP,-22.471162,-48.987822,121,321.96264
1,Aguiar/PB,-7.0928404,-38.1727215,902,16044.11242
D1,Aguiar/PB,-7.0928404,-38.1727215,7,124.51085
1,Aguiarnópolis/TO,-6.5600452,-47.4721189,1074,15236.20372
D1,Aguiarnópolis/TO,-6.5600452,-47.4721189,15,212.79614
1,Aimorés/MG,-19.4917754,-41.0615603,3806,15153.68689
D1,Aimorés/MG,-19.4917754,-41.0615603,91,362.31884
1,Aiquara/BA,-14.126918,-39.8887574,656,14953.27103
D1,Aiquara/BA,-14.126918,-39.8887574,12,273.53545
1,Aiuaba/CE,-6.5710836,-40.1212278,1226,6972.24750
D1,Aiuaba/CE,-6.5710836,-40.1212278,16,90.99181
1,Aiuruoca/MG,-21.9759554,-44.6036637,1060,17818.12069
D1,Aiuruoca/MG,-21.9759554,-44.6036637,15,252.14322
1,Ajuricaba/RS,-28.239654,-53.7693013,2619,37678.03194
D1,Ajuricaba/RS,-28.239654,-53.7693013,39,561.07035
1,Alagoa Grande/PB,-7.0415212,-35.6285322,5647,19895.01127
D1,Alagoa Grande/PB,-7.0415212,-35.6285322,79,278.32582
1,Alagoa Nova/PB,-7.0653703,-35.76695977336711,2963,14114.90091
D1,Alagoa Nova/PB,-7.0653703,-35.76695977336711,38,181.02134
1,Alagoa/MG,-22.1697202,-44.6400042,691,26006.77456
D1,Alagoa/MG,-22.1697202,-44.6400042,9,338.72789
1,Alagoinha do Piauí/PI,-7.0090952,-40.939675,407,5300.85960
D1,Alagoinha do Piauí/PI,-7.0090952,-40.939675,13,169.31493
1,Alagoinha/PB,-6.97063215,-35.51490901897793,2491,17027.82145
D1,Alagoinha/PB,-6.97063215,-35.51490901897793,26,177.72917
1,Alagoinha/PE,-8.50355635,-36.77701174370496,3296,22273.28017
D1,Alagoinha/PE,-8.50355635,-36.77701174370496,31,209.48777
1,Alagoinhas/BA,-12.133526,-38.420772,18838,12310.56769
D1,Alagoinhas/BA,-12.133526,-38.420772,360,235.25875
1,Alambari/SP,-23.550338,-47.897971,1478,23720.10913
D1,Alambari/SP,-23.550338,-47.897971,13,208.63425
1,Albertina/MG,-20.66164,-43.784039,773,25638.47430
D1,Albertina/MG,-20.66164,-43.784039,12,398.00995
1,Alcantil/PB,-7.7425491,-36.0609604,1240,22435.31753
D1,Alcantil/PB,-7.7425491,-36.0609604,9,162.83698
1,Alcinópolis/MS,-18.3264121,-53.7094463,973,17726.36181
D1,Alcinópolis/MS,-18.3264121,-53.7094463,15,273.27382
1,Alcobaça/BA,-17.5215875,-39.1965474,2606,11577.59119
D1,Alcobaça/BA,-17.5215875,-39.1965474,32,142.16536
1,Alcântara/MA,-2.4038956,-44.4154241,337,1523.09500
D1,Alcântara/MA,-2.4038956,-44.4154241,21,94.91096
1,Alcântaras/CE,-3.586247,-40.5457641,2470,20850.92014
D1,Alcântaras/CE,-3.586247,-40.5457641,23,194.15837
1,Aldeias Altas/MA,-4.6291957,-43.4708622,1175,4355.23926
D1,Aldeias Altas/MA,-4.6291957,-43.4708622,14,51.89221
1,Alecrim/RS,-27.6566142,-54.7653195,662,11593.69527
D1,Alecrim/RS,-27.6566142,-54.7653195,13,227.67075
1,Alegre/ES,-20.7625787,-41.5318886,8389,28085.97543
D1,Alegre/ES,-20.7625787,-41.5318886,92,308.01165
1,Alegrete do Piauí/PI,-7.2440138,-40.8602296,651,13229.01849
D1,Alegrete do Piauí/PI,-7.2440138,-40.8602296,9,182.88966
1,Alegrete/RS,-29.790166,-55.794862,19644,27097.78875
D1,Alegrete/RS,-29.790166,-55.794862,330,455.21637
1,Alegria/RS,-27.8332103,-54.0574959,610,18557.95558
D1,Alegria/RS,-27.8332103,-54.0574959,5,152.11439
1,Alenquer/PA,-1.946229,-54.738355,5914,10304.93117
D1,Alenquer/PA,-1.946229,-54.738355,175,304.93117
1,Alexandria/RN,-6.414779,-38.0135516,2568,18981.44726
D1,Alexandria/RN,-6.414779,-38.0135516,33,243.92047
1,Alexânia/GO,-16.0834049,-48.5077803,7644,26953.45557
D1,Alexânia/GO,-16.0834049,-48.5077803,117,412.55289
1,Alfenas/MG,-21.4297405,-45.9479419,23244,28705.86492
D1,Alfenas/MG,-21.4297405,-45.9479419,255,314.91979
1,Alfredo Chaves/ES,-20.624970400000002,-40.75006690147988,5136,35010.22495
D1,Alfredo Chaves/ES,-20.624970400000002,-40.75006690147988,47,320.38173
1,Alfredo Marcondes/SP,-21.9527,-51.413956,308,7331.58772
D1,Alfredo Marcondes/SP,-21.9527,-51.413956,20,476.07712
1,Alfredo Vasconcelos/MG,-21.145833,-43.776389,1480,20986.95406
D1,Alfredo Vasconcelos/MG,-21.145833,-43.776389,17,241.06636
1,Alfredo Wagner/SC,-27.6961513,-49.3326734,1451,14315.31176
D1,Alfredo Wagner/SC,-27.6961513,-49.3326734,12,118.38990
1,Algodão de Jandaíra/PB,-6.9040175,-36.0089879,525,20285.93509
D1,Algodão de Jandaíra/PB,-6.9040175,-36.0089879,1,38.63988
1,Alhandra/PB,-7.4304246,-34.9106103,3148,15846.96703
D1,Alhandra/PB,-7.4304246,-34.9106103,47,236.59703
1,Aliança do Tocantins/TO,-11.3055927,-48.9409096,1283,24193.85254
D1,Aliança do Tocantins/TO,-11.3055927,-48.9409096,26,490.28852
1,Aliança/PE,-7.60398,-35.222696,2292,5967.50677
D1,Aliança/PE,-7.60398,-35.222696,84,218.70444
1,Almadina/BA,-14.70466,-39.6381994,849,16100.89133
D1,Almadina/BA,-14.70466,-39.6381994,13,246.53897
1,Almas/TO,-11.5681309,-47.1702803,327,4735.69877
D1,Almas/TO,-11.5681309,-47.1702803,5,72.41130
1,Almeirim/PA,-1.5290377,-52.5788111,4718,13858.53601
D1,Almeirim/PA,-1.5290377,-52.5788111,57,167.43038
1,Almenara/MG,-16.1740678,-40.6904907,7377,17406.79566
D1,Almenara/MG,-16.1740678,-40.6904907,71,167.53185
1,Almino Afonso/RN,-6.1544208,-37.7649018,768,16392.74280
D1,Almino Afonso/RN,-6.1544208,-37.7649018,16,341.51547
1,Almirante Tamandaré do Sul/RS,-28.1141129,-52.9134874,616,31834.62532
D1,Almirante Tamandaré do Sul/RS,-28.1141129,-52.9134874,7,361.75711
1,Almirante Tamandaré/PR,-25.3133048,-49.2997838,17481,14397.13392
D1,Almirante Tamandaré/PR,-25.3133048,-49.2997838,491,404.38149
1,Aloândia/GO,-17.7277983,-49.4809338,679,34362.34818
D1,Aloândia/GO,-17.7277983,-49.4809338,12,607.28745
1,Alpercata/MG,-18.9803616,-41.9827637,589,7908.16327
D1,Alpercata/MG,-18.9803616,-41.9827637,23,308.80773
1,Alpestre/RS,-27.2512339,-53.0349646,1412,23993.20306
D1,Alpestre/RS,-27.2512339,-53.0349646,17,288.87001
1,Alpinópolis/MG,-20.863611,-46.387777,4676,23311.23187
D1,Alpinópolis/MG,-20.863611,-46.387777,52,259.23526
1,Alta Floresta D'Oeste/RO,-11.9296917,-61.9961284,8996,39953.81062
D1,Alta Floresta D'Oeste/RO,-11.9296917,-61.9961284,81,359.74418
1,Alta Floresta/MT,-9.8715018,-56.0839881,18431,35372.80491
D1,Alta Floresta/MT,-9.8715018,-56.0839881,187,358.89070
1,Altair/SP,-20.5238955,-49.0606135,321,7622.89242
D1,Altair/SP,-20.5238955,-49.0606135,18,427.45191
1,Altamira do Maranhão/MA,-4.1643006,-45.4674574,538,6521.21212
D1,Altamira do Maranhão/MA,-4.1643006,-45.4674574,14,169.69697
1,Altamira do Paraná/PR,-24.799114,-52.7128633,585,40937.71868
D1,Altamira do Paraná/PR,-24.799114,-52.7128633,15,1049.68509
1,Altamira/PA,-3.204065,-52.209961,24337,20744.11865
D1,Altamira/PA,-3.204065,-52.209961,360,306.85305
1,Altaneira/CE,-6.9980933,-39.7385742,1101,14276.45228
D1,Altaneira/CE,-6.9980933,-39.7385742,19,246.36929
1,Alterosa/MG,-21.249166,-46.143055,2112,14499.51943
D1,Alterosa/MG,-21.249166,-46.143055,42,288.34272
1,Altinho/PE,-8.4904095,-36.0607494,1877,8162.28909
D1,Altinho/PE,-8.4904095,-36.0607494,30,130.45747
1,Altinópolis/SP,-21.021364,-47.3712,1239,7638.24672
D1,Altinópolis/SP,-21.021364,-47.3712,67,413.04482
1,Alto Alegre do Maranhão/MA,-4.2055693,-44.4525287,2191,7806.59873
D1,Alto Alegre do Maranhão/MA,-4.2055693,-44.4525287,28,99.76484
1,Alto Alegre do Pindaré/MA,-3.6698186,-45.8462153,2825,8837.23840
D1,Alto Alegre do Pindaré/MA,-3.6698186,-45.8462153,54,168.92420
1,Alto Alegre dos Parecis/RO,-12.1314515,-61.856265,2380,17937.89569
D1,Alto Alegre dos Parecis/RO,-12.1314515,-61.856265,51,384.38348
1,Alto Alegre/RR,2.98858,-61.307167,2625,17214.24356
D1,Alto Alegre/RR,2.98858,-61.307167,39,255.75448
1,Alto Alegre/RS,-31.780844700000003,-52.81311114489171,421,26477.98742
D1,Alto Alegre/RS,-31.780844700000003,-52.81311114489171,3,188.67925
1,Alto Alegre/SP,-21.5820592,-50.1661976,418,10250.12261
D1,Alto Alegre/SP,-21.5820592,-50.1661976,25,613.04561
1,Alto Araguaia/MT,-17.3156528,-53.2169365,3378,17135.03094
D1,Alto Araguaia/MT,-17.3156528,-53.2169365,35,177.53880
1,Alto Bela Vista/SC,-27.4320737,-51.905771,508,26527.41514
D1,Alto Bela Vista/SC,-27.4320737,-51.905771,3,156.65796
1,Alto Boa Vista/MT,-11.6723985,-51.3744431,1598,22532.43091
D1,Alto Boa Vista/MT,-11.6723985,-51.3744431,20,282.00790
1,Alto Caparaó/MG,-20.4405661,-41.8683799,630,10609.63287
D1,Alto Caparaó/MG,-20.4405661,-41.8683799,10,168.40687
1,Alto Feliz/RS,-29.3785943,-51.3123751,742,24383.83174
D1,Alto Feliz/RS,-29.3785943,-51.3123751,4,131.44923
1,Alto Garças/MT,-16.9469683,-53.529427,1454,11799.07490
D1,Alto Garças/MT,-16.9469683,-53.529427,46,373.28573
1,Alto Horizonte/GO,-14.1954948,-49.3366993,2859,42068.86404
D1,Alto Horizonte/GO,-14.1954948,-49.3366993,16,235.43261
1,Alto Jequitibá/MG,-20.423611,-41.966111,1489,17970.07000
D1,Alto Jequitibá/MG,-20.423611,-41.966111,15,181.02824
1,Alto Longá/PI,-5.2549051,-42.2072388,913,6353.07216
D1,Alto Longá/PI,-5.2549051,-42.2072388,17,118.29379
1,Alto Paraguai/MT,-14.513712,-56.4936374,969,8362.82040
D1,Alto Paraguai/MT,-14.513712,-56.4936374,32,276.17157
1,Alto Paraná/PR,-23.131247,-52.318893,3125,20910.00335
D1,Alto Paraná/PR,-23.131247,-52.318893,28,187.35363
1,Alto Paraíso de Goiás/GO,-14.1304779,-47.5100161,1744,22500.32254
D1,Alto Paraíso de Goiás/GO,-14.1304779,-47.5100161,10,129.01561
1,Alto Paraíso/PR,-23.508137,-53.728537,1291,49087.45247
D1,Alto Paraíso/PR,-23.508137,-53.728537,11,418.25095
1,Alto Paraíso/RO,-9.7240103,-63.3188123,4336,19480.63618
D1,Alto Paraíso/RO,-9.7240103,-63.3188123,65,292.02983
1,Alto Parnaíba/MA,-9.112506,-45.9310154,1021,9089.29048
D1,Alto Parnaíba/MA,-9.112506,-45.9310154,11,97.92575
1,Alto Piquiri/PR,-24.0239021,-53.4417448,2534,26064.59576
D1,Alto Piquiri/PR,-24.0239021,-53.4417448,32,329.15038
1,Alto Rio Doce/MG,-21.0239537,-43.4133507,1254,11694.48848
D1,Alto Rio Doce/MG,-21.0239537,-43.4133507,33,307.74970
1,Alto Rio Novo/ES,-19.0577208,-41.0171518,1561,19732.01871
D1,Alto Rio Novo/ES,-19.0577208,-41.0171518,29,366.57818
1,Alto Santo/CE,-5.5190371,-38.2719351,3009,18716.17839
D1,Alto Santo/CE,-5.5190371,-38.2719351,43,267.46284
1,Alto Taquari/MT,-17.8269099,-53.2831736,1681,14728.81801
D1,Alto Taquari/MT,-17.8269099,-53.2831736,30,262.85814
1,Alto do Rodrigues/RN,-5.290868,-36.7616726,3983,26690.34376
D1,Alto do Rodrigues/RN,-5.290868,-36.7616726,48,321.65114
1,Altos/PI,-5.0393915,-42.4611694,6262,15392.93528
D1,Altos/PI,-5.0393915,-42.4611694,116,285.14540
1,Altônia/PR,-23.8722004,-53.894037,4656,20885.47975
D1,Altônia/PR,-23.8722004,-53.894037,55,246.71422
1,Alumínio/SP,-23.5203479,-47.2575256,1707,9030.31265
D1,Alumínio/SP,-23.5203479,-47.2575256,56,296.24927
1,Alvarenga/MG,-19.4175,-41.728334,715,18900.34364
D1,Alvarenga/MG,-19.4175,-41.728334,6,158.60428
1,Alvarães/AM,-3.214786,-64.8143124,3885,23694.80361
D1,Alvarães/AM,-3.214786,-64.8143124,46,280.55623
1,Alvinlândia/SP,-22.4431852,-49.7643596,155,4767.76376
D1,Alvinlândia/SP,-22.4431852,-49.7643596,10,307.59766
1,Alvinópolis/MG,-20.1105199,-43.0601805,2397,15837.46283
D1,Alvinópolis/MG,-20.1105199,-43.0601805,25,165.18005
1,Alvorada D'Oeste/RO,-11.346271,-62.284697,3698,26783.51561
D1,Alvorada D'Oeste/RO,-11.346271,-62.284697,44,318.67893
1,Alvorada de Minas/MG,-18.7318587,-43.3641479,508,14091.53953
D1,Alvorada de Minas/MG,-18.7318587,-43.3641479,4,110.95700
1,Alvorada do Gurguéia/PI,-8.4465288,-43.8655915,942,17224.35546
D1,Alvorada do Gurguéia/PI,-8.4465288,-43.8655915,14,255.98830
1,Alvorada do Norte/GO,-14.483911,-46.4959897,1595,18230.65493
D1,Alvorada do Norte/GO,-14.483911,-46.4959897,22,251.45731
1,Alvorada do Sul/PR,-22.7807269,-51.2307721,1650,14226.59079
D1,Alvorada do Sul/PR,-22.7807269,-51.2307721,41,353.50923
1,Alvorada/RS,-29.9981184,-51.0772509,37201,17518.55410
D1,Alvorada/RS,-29.9981184,-51.0772509,913,429.94650
1,Alvorada/TO,-12.478465,-49.124926,3401,40579.88307
D1,Alvorada/TO,-12.478465,-49.124926,32,381.81601
1,Além Paraíba/MG,-21.8760576,-42.6810473,7309,20624.75309
D1,Além Paraíba/MG,-21.8760576,-42.6810473,172,485.35470
1,Amajari/RR,3.6523869,-61.4194315,1456,10736.67134
D1,Amajari/RR,3.6523869,-61.4194315,26,191.72627
1,Amambai/MS,-23.1082701,-55.2284854,6138,15250.82615
D1,Amambai/MS,-23.1082701,-55.2284854,102,253.43504
1,Amaporã/PR,-23.094272,-52.786597,962,15019.51600
D1,Amaporã/PR,-23.094272,-52.786597,8,124.90242
1,Amapá do Maranhão/MA,-1.6762114,-46.0109669,172,2440.75493
D1,Amapá do Maranhão/MA,-1.6762114,-46.0109669,4,56.76174
1,Amapá/AP,2.0529997,-50.7930003,2065,22288.18133
D1,Amapá/AP,2.0529997,-50.7930003,13,140.31301
1,Amaraji/PE,-8.373925,-35.4536527,1339,5844.60934
D1,Amaraji/PE,-8.373925,-35.4536527,50,218.24531
1,Amaral Ferrador/RS,-30.8750633,-52.2542051,582,8155.82960
D1,Amaral Ferrador/RS,-30.8750633,-52.2542051,15,210.20179
1,Amaralina/GO,-13.9236199,-49.2962411,421,10864.51613
D1,Amaralina/GO,-13.9236199,-49.2962411,2,51.61290
1,Amarante do Maranhão/MA,-5.56913,-46.747284,2453,5838.11314
D1,Amarante do Maranhão/MA,-5.56913,-46.747284,64,152.31930
1,Amarante/PI,-6.2459374,-42.8476238,1844,10471.91777
D1,Amarante/PI,-6.2459374,-42.8476238,37,210.11983
1,Amargosa/BA,-13.03793715,-39.60796443875596,5137,13650.97925
D1,Amargosa/BA,-13.03793715,-39.60796443875596,64,170.07255
1,Amaturá/AM,-3.3640509,-68.1994689,2638,22104.91034
D1,Amaturá/AM,-3.3640509,-68.1994689,19,159.20898
1,Americana/SP,-22.7392463,-47.3306032,28184,11533.33061
D1,Americana/SP,-22.7392463,-47.3306032,989,404.71416
1,Americano do Brasil/GO,-16.2515808,-49.9806104,2281,36672.02572
D1,Americano do Brasil/GO,-16.2515808,-49.9806104,28,450.16077
1,Ametista do Sul/RS,-27.3617341,-53.1826575,1882,25446.18713
D1,Ametista do Sul/RS,-27.3617341,-53.1826575,30,405.62466
1,Amontada/CE,-3.3634586,-39.8284791,3733,8446.65686
D1,Amontada/CE,-3.3634586,-39.8284791,64,144.81276
1,Amorinópolis/GO,-16.6211308,-51.0949921,721,23945.53305
D1,Amorinópolis/GO,-16.6211308,-51.0949921,14,464.96181
1,Amparo de São Francisco/SE,-10.1299754,-36.9269099,263,11022.63202
D1,Amparo de São Francisco/SE,-10.1299754,-36.9269099,5,209.55574
1,Amparo do Serra/MG,-20.5070255,-42.8028462,371,7990.52337
D1,Amparo do Serra/MG,-20.5070255,-42.8028462,12,258.45359
1,Amparo/PB,-7.56394725,-37.04652873235175,303,13383.39223
D1,Amparo/PB,-7.56394725,-37.04652873235175,4,176.67845
1,Amparo/SP,-22.70111,-46.76444,10615,14512.27015
D1,Amparo/SP,-22.70111,-46.76444,261,356.82548
1,Ampére/PR,-25.9168712,-53.4742414,5864,30124.31933
D1,Ampére/PR,-25.9168712,-53.4742414,70,359.60136
1,Amélia Rodrigues/BA,-12.4015388,-38.7516971,2854,11417.37008
D1,Amélia Rodrigues/BA,-12.4015388,-38.7516971,56,224.02688
1,América Dourada/BA,-11.4515262,-41.4357517,1250,7770.73231
D1,América Dourada/BA,-11.4515262,-41.4357517,14,87.03220
1,Américo Brasiliense/SP,-21.7297099,-48.1052092,6882,16565.17030
D1,Américo Brasiliense/SP,-21.7297099,-48.1052092,109,262.36611
1,Américo de Campos/SP,-20.298476,-49.735904,1291,21541.79877
D1,Américo de Campos/SP,-20.298476,-49.735904,37,617.38695
1,Anadia/AL,-9.6830208,-36.3052699,1850,10567.20169
D1,Anadia/AL,-9.6830208,-36.3052699,38,217.05603
1,Anagé/BA,-14.6134669,-41.1376308,1274,6001.22474
D1,Anagé/BA,-14.6134669,-41.1376308,32,150.73720
1,Anahy/PR,-24.6450861,-53.1337957,803,28947.36842
D1,Anahy/PR,-24.6450861,-53.1337957,16,576.78443
1,Anajatuba/MA,-3.26441,-44.6179916,1615,5944.05594
D1,Anajatuba/MA,-3.26441,-44.6179916,29,106.73537
1,Anajás/PA,-0.9878802,-49.9390114,1391,4622.64464
D1,Anajás/PA,-0.9878802,-49.9390114,24,79.75807
1,Analândia/SP,-22.128917,-47.661939,594,11612.90323
D1,Analândia/SP,-22.128917,-47.661939,6,117.30205
1,Anamã/AM,-3.5797356,-61.4049996,2529,17695.21411
D1,Anamã/AM,-3.5797356,-61.4049996,11,76.96613
1,Ananindeua/PA,-1.374035,-48.4016623,32792,6067.98542
D1,Ananindeua/PA,-1.374035,-48.4016623,866,160.24870
1,Ananás/TO,-6.3663053,-48.080238,2427,25723.37043
D1,Ananás/TO,-6.3663053,-48.080238,28,296.76736
1,Anapu/PA,-3.4668292,-51.2057035,2697,9201.00983
D1,Anapu/PA,-3.4668292,-51.2057035,71,242.22162
1,Anapurus/MA,-3.6751298,-43.1046001,832,5182.50903
D1,Anapurus/MA,-3.6751298,-43.1046001,15,93.43466
1,Anastácio/MS,-20.4832458,-55.8048448,3431,13541.99558
D1,Anastácio/MS,-20.4832458,-55.8048448,94,371.01358
1,Anaurilândia/MS,-22.185169,-52.719056,1325,14534.88372
D1,Anaurilândia/MS,-22.185169,-52.719056,17,186.48530
1,Anchieta/ES,-20.8057672,-40.6454564,11051,36490.01156
D1,Anchieta/ES,-20.8057672,-40.6454564,116,383.02790
1,Anchieta/SC,-26.5350527,-53.3293938,1264,23078.32755
D1,Anchieta/SC,-26.5350527,-53.3293938,12,219.09805
1,Andaraí/BA,-12.8059674,-41.3322919,1408,10730.07164
D1,Andaraí/BA,-12.8059674,-41.3322919,15,114.31184
1,Andirá/PR,-23.0494761,-50.2310027,5769,29102.55764
D1,Andirá/PR,-23.0494761,-50.2310027,102,514.55380
1,Andorinha/BA,-10.3445708,-39.8334411,1505,10439.78912
D1,Andorinha/BA,-10.3445708,-39.8334411,21,145.67148
1,Andradas/MG,-22.0680484,-46.5688976,7560,18127.75753
D1,Andradas/MG,-22.0680484,-46.5688976,141,338.09707
1,Andradina/SP,-20.896505,-51.3742765,14189,24786.44423
D1,Andradina/SP,-20.896505,-51.3742765,316,552.01328
1,Andrelândia/MG,-21.739722,-44.308889,206,1690.04840
D1,Andrelândia/MG,-21.739722,-44.308889,19,155.87825
1,André da Rocha/RS,-28.6309124,-51.5733328,270,19985.19615
D1,André da Rocha/RS,-28.6309124,-51.5733328,1,74.01925
1,Angatuba/SP,-23.4938938,-48.4110675,5109,19860.83035
D1,Angatuba/SP,-23.4938938,-48.4110675,92,357.64267
1,Angelim/PE,-8.8902038,-36.2872987,316,2796.21272
D1,Angelim/PE,-8.8902038,-36.2872987,16,141.58039
1,Angelina/SC,-27.5805287,-48.9838759,979,20892.01878
D1,Angelina/SC,-27.5805287,-48.9838759,6,128.04097
1,Angelândia/MG,-17.7253,-42.2728,578,6725.62253
D1,Angelândia/MG,-17.7253,-42.2728,4,46.54410
1,Angical do Piauí/PI,-6.0872666,-42.7366138,904,13335.30019
D1,Angical do Piauí/PI,-6.0872666,-42.7366138,12,177.01726
1,Angical/BA,-12.005623,-44.7000236,1278,9192.92188
D1,Angical/BA,-12.005623,-44.7000236,21,151.05740
1,Angico/TO,-6.3893733,-47.8656722,253,7280.57554
D1,Angico/TO,-6.3893733,-47.8656722,5,143.88489
1,Angicos/RN,-5.6666344,-36.6009064,1356,11594.69859
D1,Angicos/RN,-5.6666344,-36.6009064,30,256.51988
1,Angra dos Reis/RJ,-23.0063966,-44.316326,25104,11944.55943
D1,Angra dos Reis/RJ,-23.0063966,-44.316326,614,292.14306
1,Anguera/BA,-12.1509425,-39.2452469,746,6561.70288
D1,Anguera/BA,-12.1509425,-39.2452469,2,17.59170
1,Angélica/MS,-22.1588196,-53.7728504,2318,20918.68965
D1,Angélica/MS,-22.1588196,-53.7728504,24,216.58695
1,Anhanguera/GO,-18.3338749,-48.220363,242,20666.09735
D1,Anhanguera/GO,-18.3338749,-48.220363,7,597.77968
1,Anhembi/SP,-22.7891096,-48.1316776,450,6511.35870
D1,Anhembi/SP,-22.7891096,-48.1316776,14,202.57560
1,Anhumas/SP,-22.2956478,-51.3873401,411,9851.39022
D1,Anhumas/SP,-22.2956478,-51.3873401,10,239.69319
1,Anicuns/GO,-16.4606451,-49.9572265,7825,35386.42428
D1,Anicuns/GO,-16.4606451,-49.9572265,84,379.86705
1,Anita Garibaldi/SC,-27.6855032,-51.1293873,2063,30414.27097
D1,Anita Garibaldi/SC,-27.6855032,-51.1293873,12,176.91287
1,Anitápolis/SC,-27.9041185,-49.1287395,713,22122.24635
D1,Anitápolis/SC,-27.9041185,-49.1287395,6,186.16196
1,Anori/AM,-3.7435254,-61.6605203,2670,12171.21758
D1,Anori/AM,-3.7435254,-61.6605203,33,150.43078
1,Anta Gorda/RS,-28.9718745,-52.0069187,1035,17421.30954
D1,Anta Gorda/RS,-28.9718745,-52.0069187,8,134.65747
1,Antas/BA,-10.4114649,-38.3308815,1488,7569.05234
D1,Antas/BA,-10.4114649,-38.3308815,15,76.30093
1,Antonina do Norte/CE,-6.7754187,-39.9879345,1080,14590.65118
D1,Antonina do Norte/CE,-6.7754187,-39.9879345,27,364.76628
1,Antonina/PR,-25.4298854,-48.7125431,4873,25757.17533
D1,Antonina/PR,-25.4298854,-48.7125431,76,401.71256
1,Antônio Almeida/PI,-7.2186016,-44.1950248,410,12913.38583
D1,Antônio Almeida/PI,-7.2186016,-44.1950248,11,346.45669
1,Antônio Cardoso/BA,-12.4363122,-39.1200307,1185,10154.24165
D1,Antônio Cardoso/BA,-12.4363122,-39.1200307,12,102.82776
1,Antônio Carlos/MG,-21.318334,-43.746666,2084,18167.55296
D1,Antônio Carlos/MG,-21.318334,-43.746666,22,191.78799
1,Antônio Carlos/SC,-27.5168462,-48.7684715,3055,35066.57484
D1,Antônio Carlos/SC,-27.5168462,-48.7684715,29,332.87420
1,Antônio Dias/MG,-19.6525,-42.872778,860,9314.41568
D1,Antônio Dias/MG,-19.6525,-42.872778,29,314.09076
1,Antônio Gonçalves/BA,-10.5715409,-40.2748824,1173,9811.79423
D1,Antônio Gonçalves/BA,-10.5715409,-40.2748824,11,92.01171
1,Antônio João/MS,-22.1892837,-55.9508227,1276,14049.76877
D1,Antônio João/MS,-22.1892837,-55.9508227,21,231.22660
1,Antônio Martins/RN,-6.2155812,-37.8890129,1011,14116.16867
D1,Antônio Martins/RN,-6.2155812,-37.8890129,7,97.73806
1,Antônio Olinto/PR,-25.9849006,-50.1974516,1279,17234.87401
D1,Antônio Olinto/PR,-25.9849006,-50.1974516,18,242.55491
1,Antônio Prado de Minas/MG,-21.0171988,-42.1101106,166,10526.31579
D1,Antônio Prado de Minas/MG,-21.0171988,-42.1101106,6,380.46925
1,Antônio Prado/RS,-28.8567806,-51.2801355,5065,38839.04609
D1,Antônio Prado/RS,-28.8567806,-51.2801355,35,268.38433
1,Anápolis/GO,-16.3332828,-48.9525756,79006,19924.54467
D1,Anápolis/GO,-16.3332828,-48.9525756,1992,502.36302
1,Anísio de Abreu/PI,-9.185643,-43.04941,299,2991.79508
D1,Anísio de Abreu/PI,-9.185643,-43.04941,16,160.09606
1,Aparecida d'Oeste/SP,-20.4498109,-50.8808706,1650,40029.11208
D1,Aparecida d'Oeste/SP,-20.4498109,-50.8808706,27,655.02183
1,Aparecida de Goiânia/GO,-16.8226769,-49.2452546,157526,26173.89224
D1,Aparecida de Goiânia/GO,-16.8226769,-49.2452546,2003,332.81050
1,Aparecida do Rio Doce/GO,-18.2980167,-51.1491312,815,32942.60307
D1,Aparecida do Rio Doce/GO,-18.2980167,-51.1491312,6,242.52223
1,Aparecida do Rio Negro/TO,-9.9513491,-47.9773786,414,8447.25566
D1,Aparecida do Rio Negro/TO,-9.9513491,-47.9773786,13,265.25199
1,Aparecida do Taboado/MS,-20.0840304,-51.1013943,6377,24168.11946
D1,Aparecida do Taboado/MS,-20.0840304,-51.1013943,73,276.66187
1,Aparecida/PB,-6.7859598, -38.0831353,1712,20183.91889
D1,Aparecida/PB,-6.7859598, -38.0831353,16,188.63476
1,Aparecida/SP,-22.851552,-45.2340924,2978,8224.02033
D1,Aparecida/SP,-22.851552,-45.2340924,125,345.19897
1,Aperibé/RJ,-21.6211928,-42.1028167,2001,16625.12463
D1,Aperibé/RJ,-21.6211928,-42.1028167,35,290.79428
1,Apiacá/ES,-21.152272,-41.569297,2556,33890.21480
D1,Apiacá/ES,-21.152272,-41.569297,42,556.88146
1,Apiacás/MT,-9.5678422,-57.394852,3367,32278.78439
D1,Apiacás/MT,-9.5678422,-57.394852,20,191.73617
1,Apiaí/SP,-24.5076527,-48.8461582,1801,7478.92529
D1,Apiaí/SP,-24.5076527,-48.8461582,108,448.48636
1,Apicum-Açu/MA,-1.5279295,-45.082278,750,4265.72631
D1,Apicum-Açu/MA,-1.5279295,-45.082278,11,62.56399
1,Apiúna/SC,-27.0374658,-49.3885037,1665,15204.09095
D1,Apiúna/SC,-27.0374658,-49.3885037,20,182.63172
1,Apodi/RN,-5.6631109,-37.796927,10191,28384.02406
D1,Apodi/RN,-5.6631109,-37.796927,106,295.23173
1,Aporá/BA,-11.6599747,-38.0794757,717,4019.05830
D1,Aporá/BA,-11.6599747,-38.0794757,24,134.52915
1,Aporé/GO,-18.9642193,-51.92804,995,23323.95687
D1,Aporé/GO,-18.9642193,-51.92804,11,257.85279
1,Apuarema/BA,-13.8517897,-39.7457126,920,12647.78664
D1,Apuarema/BA,-13.8517897,-39.7457126,12,164.97113
1,Apucarana/PR,-23.5525327,-51.4610764,21598,15714.72227
D1,Apucarana/PR,-23.5525327,-51.4610764,570,414.73246
1,Apuiarés/CE,-3.9460303,-39.4313298,1761,11945.46195
D1,Apuiarés/CE,-3.9460303,-39.4313298,27,183.15018
1,Apuí/AM,-7.1940195,-59.8830192,2399,10550.15612
D1,Apuí/AM,-7.1940195,-59.8830192,36,158.31831
1,Aquidabã/SE,-10.2837579,-37.0188687,2629,12061.84621
D1,Aquidabã/SE,-10.2837579,-37.0188687,46,211.04790
1,Aquidauana/MS,-20.473969,-55.7821375,7987,16576.04184
D1,Aquidauana/MS,-20.473969,-55.7821375,177,367.34186
1,Aquiraz/CE,-3.9063117,-38.387504,11358,13922.35937
D1,Aquiraz/CE,-3.9063117,-38.387504,105,128.70644
1,Arabutã/SC,-27.1587028,-52.1438142,699,16377.69447
D1,Arabutã/SC,-27.1587028,-52.1438142,10,234.30178
1,Aracaju/SE,-10.9162061,-37.0774655,159449,23705.86993
D1,Aracaju/SE,-10.9162061,-37.0774655,2591,385.21351
1,Aracati/CE,-4.558259,-37.767894,13976,18537.77589
D1,Aracati/CE,-4.558259,-37.767894,181,240.07852
1,Aracatu/BA,-14.4274236,-41.4604105,1424,10987.65432
D1,Aracatu/BA,-14.4274236,-41.4604105,23,177.46914
1,Araci/BA,-11.3356065,-38.9573261,4522,8236.34410
D1,Araci/BA,-11.3356065,-38.9573261,61,111.10504
1,Aracitaba/MG,-21.3425,-43.378611,109,5301.55642
D1,Aracitaba/MG,-21.3425,-43.378611,11,535.01946
1,Aracoiaba/CE,-4.3702577,-38.8084313,5529,20785.71429
D1,Aracoiaba/CE,-4.3702577,-38.8084313,39,146.61654
1,Aracruz/ES,-19.8245218,-40.2735025,38351,36544.94864
D1,Aracruz/ES,-19.8245218,-40.2735025,283,269.67277
1,Aragarças/GO,-15.8957166,-52.2514538,4939,24198.92210
D1,Aragarças/GO,-15.8957166,-52.2514538,85,416.46252
1,Aragoiânia/GO,-16.9146388,-49.4499148,3076,28801.49813
D1,Aragoiânia/GO,-16.9146388,-49.4499148,33,308.98876
1,Aragominas/TO,-7.1654101,-48.525488,1100,19281.33216
D1,Aragominas/TO,-7.1654101,-48.525488,11,192.81332
1,Araguacema/TO,-8.8067391,-49.5560969,1423,19700.95528
D1,Araguacema/TO,-8.8067391,-49.5560969,20,276.89326
1,Araguaiana/MT,-15.729144,-51.834112,621,20267.62402
D1,Araguaiana/MT,-15.729144,-51.834112,8,261.09661
1,Araguainha/MT,-16.857016,-53.031778,66,7260.72607
D1,Araguainha/MT,-16.857016,-53.031778,2,220.02200
1,Araguanã/MA,-2.9508403,-45.6651986,878,5601.27592
D1,Araguanã/MA,-2.9508403,-45.6651986,5,31.89793
1,Araguanã/TO,-6.5799107,-48.6428482,629,10741.12022
D1,Araguanã/TO,-6.5799107,-48.6428482,16,273.22404
1,Araguapaz/GO,-15.0937927,-50.626417,1217,15612.57216
D1,Araguapaz/GO,-15.0937927,-50.626417,32,410.51956
1,Araguari/MG,-18.6511256,-48.1933764,32109,27128.02359
D1,Araguari/MG,-18.6511256,-48.1933764,524,442.71339
1,Araguatins/TO,-5.6522925,-48.1158973,3536,9668.33456
D1,Araguatins/TO,-5.6522925,-48.1158973,76,207.80357
1,Araguaçu/TO,-12.928934,-49.823134,2034,24162.50891
D1,Araguaçu/TO,-12.928934,-49.823134,25,296.98266
1,Araguaína/TO,-7.193241,-48.2018597,50641,27190.52860
D1,Araguaína/TO,-7.193241,-48.2018597,611,328.06250
1,Araioses/MA,-2.890914,-41.904993,687,1458.75358
D1,Araioses/MA,-2.890914,-41.904993,15,31.85051
1,Aral Moreira/MS,-22.951141,-55.6268421,584,4667.89225
D1,Aral Moreira/MS,-22.951141,-55.6268421,21,167.85229
1,Aramari/BA,-12.0907897,-38.4985065,1059,9193.50638
D1,Aramari/BA,-12.0907897,-38.4985065,14,121.53833
1,Arambaré/RS,-30.9132252,-51.4994625,384,10835.21445
D1,Arambaré/RS,-30.9132252,-51.4994625,10,282.16704
1,Arame/MA,-4.8858769,-46.0102484,1708,5203.35110
D1,Arame/MA,-4.8858769,-46.0102484,42,127.95126
1,Aramina/SP,-20.0876144,-47.789201,392,6890.49042
D1,Aramina/SP,-20.0876144,-47.789201,20,351.55563
1,Arandu/SP,-23.1345103,-49.0545651,666,10450.33736
D1,Arandu/SP,-23.1345103,-49.0545651,22,345.20634
1,Arantina/MG,-21.911667,-44.255833,687,24721.12271
D1,Arantina/MG,-21.911667,-44.255833,7,251.88917
1,Arapeí/SP,-22.6738889,-44.4477778,276,11256.11746
D1,Arapeí/SP,-22.6738889,-44.4477778,7,285.48124
1,Arapiraca/AL,-9.754866,-36.661471,39121,16696.32835
D1,Arapiraca/AL,-9.754866,-36.661471,580,247.53637
1,Arapoema/TO,-7.6575001,-49.0641484,668,10136.57056
D1,Arapoema/TO,-7.6575001,-49.0641484,12,182.09408
1,Araponga/MG,-20.666667,-42.520556,989,11680.64249
D1,Araponga/MG,-20.666667,-42.520556,15,177.15838
1,Arapongas/PR,-23.415296,-51.42592,29462,23281.83650
D1,Arapongas/PR,-23.415296,-51.42592,658,519.97313
1,Araporã/MG,-18.4318188,-49.188313,2844,40675.05721
D1,Araporã/MG,-18.4318188,-49.188313,43,614.98856
1,Arapoti/PR,-24.1457957,-49.8224605,5720,20084.26966
D1,Arapoti/PR,-24.1457957,-49.8224605,74,259.83146
1,Araputanga/MT,-15.4710868,-58.346796,4409,25816.84038
D1,Araputanga/MT,-15.4710868,-58.346796,58,339.61822
1,Arapuá/MG,-19.034444,-46.155556,463,16325.81100
D1,Arapuá/MG,-19.034444,-46.155556,3,105.78279
1,Arapuã/PR,-24.3079525,-51.7901941,875,29650.96577
D1,Arapuã/PR,-24.3079525,-51.7901941,9,304.98136
1,Araquari/SC,-26.3703324,-48.7210994,7108,17383.22328
D1,Araquari/SC,-26.3703324,-48.7210994,95,232.33064
1,Arara/PB,-6.8271895,-35.7605703,1189,8734.29810
D1,Arara/PB,-6.8271895,-35.7605703,31,227.72350
1,Araranguá/SC,-28.9348832,-49.4858389,18424,26512.02279
D1,Araranguá/SC,-28.9348832,-49.4858389,281,404.35727
1,Araraquara/SP,-21.7886713,-48.1773096,61565,25594.28291
D1,Araraquara/SP,-21.7886713,-48.1773096,645,268.14444
1,Araras/SP,-22.3569477,-47.3838889,20233,14796.80267
D1,Araras/SP,-22.3569477,-47.3838889,457,334.21336
1,Ararendá/CE,-4.7504395,-40.8303611,2154,19612.12783
D1,Ararendá/CE,-4.7504395,-40.8303611,22,200.30957
1,Arari/MA,-3.4547602,-44.7772723,1345,4481.24209
D1,Arari/MA,-3.4547602,-44.7772723,35,116.61225
1,Araricá/RS,-29.6168543,-50.929121,1738,29760.27397
D1,Araricá/RS,-29.6168543,-50.929121,30,513.69863
1,Araripe/CE,-7.212861,-40.1359222,2097,9660.47819
D1,Araripe/CE,-7.212861,-40.1359222,28,128.99065
1,Araripina/PE,-7.5768582,-40.5038509,11083,12992.81368
D1,Araripina/PE,-7.5768582,-40.5038509,182,213.36209
1,Araruama/RJ,-22.8733203,-42.3428897,10943,8039.87980
D1,Araruama/RJ,-22.8733203,-42.3428897,513,376.90381
1,Araruna/PB,-6.5321155,-35.7397595,1049,5089.76225
D1,Araruna/PB,-6.5321155,-35.7397595,18,87.33624
1,Araruna/PR,-23.9320308,-52.4976047,3434,24477.86727
D1,Araruna/PR,-23.9320308,-52.4976047,44,313.63604
1,Arataca/BA,-15.2617424,-39.4122943,960,8804.10858
D1,Arataca/BA,-15.2617424,-39.4122943,16,146.73514
1,Aratiba/RS,-27.3955734,-52.3024325,1025,16680.22783
D1,Aratiba/RS,-27.3955734,-52.3024325,8,130.18714
1,Aratuba/CE,-4.4195958,-39.0463737,2209,18785.61102
D1,Aratuba/CE,-4.4195958,-39.0463737,14,119.05774
1,Aratuípe/BA,-13.077137,-39.0010786,1170,13223.32731
D1,Aratuípe/BA,-13.077137,-39.0010786,12,135.62387
1,Araucária/PR,-25.5861107,-49.4051209,45024,30314.70085
D1,Araucária/PR,-25.5861107,-49.4051209,585,393.88104
1,Arauá/SE,-11.2644014,-37.6181058,1420,14430.89431
D1,Arauá/SE,-11.2644014,-37.6181058,23,233.73984
1,Araxá/MG,-19.5928536,-46.940241,38377,35402.15677
D1,Araxá/MG,-19.5928536,-46.940241,307,283.20249
1,Araçagi/PB,-6.8519969,-35.3835602,2766,16408.61363
D1,Araçagi/PB,-6.8519969,-35.3835602,29,172.03536
1,Araçariguama/SP,-23.438611,-47.061389,2928,12543.37489
D1,Araçariguama/SP,-23.438611,-47.061389,76,325.57940
1,Araçatuba/SP,-21.207992,-50.4390225,46457,23320.61643
D1,Araçatuba/SP,-21.207992,-50.4390225,999,501.48085
1,Araçaí/MG,-19.200833,-44.2475,309,13093.22034
D1,Araçaí/MG,-19.200833,-44.2475,2,84.74576
1,Araçoiaba da Serra/SP,-23.5045367,-47.6168158,3297,9316.45427
D1,Araçoiaba da Serra/SP,-23.5045367,-47.6168158,103,291.05089
1,Araçoiaba/PE,-7.7856903,-35.0898881,1137,5430.83684
D1,Araçoiaba/PE,-7.7856903,-35.0898881,33,157.62323
1,Araçu/GO,-16.3561579,-49.6815269,1728,50086.95652
D1,Araçu/GO,-16.3561579,-49.6815269,23,666.66667
1,Araçuaí/MG,-16.8484451,-42.0661868,3961,10788.50606
D1,Araçuaí/MG,-16.8484451,-42.0661868,62,168.86831
1,Araçás/BA,-12.2139176,-38.2026159,982,8024.84269
D1,Araçás/BA,-12.2139176,-38.2026159,16,130.75100
1,Araújos/MG,-19.948055,-45.165556,947,9944.34527
D1,Araújos/MG,-19.948055,-45.165556,15,157.51339
1,Arceburgo/MG,-21.364444,-46.939722,2448,22274.79527
D1,Arceburgo/MG,-21.364444,-46.939722,37,336.66970
1,Arco-Íris/SP,-21.7741308,-50.4668814,586,33390.31339
D1,Arco-Íris/SP,-21.7741308,-50.4668814,9,512.82051
1,Arcos/MG,-20.282223,-45.539444,10137,24932.36263
D1,Arcos/MG,-20.282223,-45.539444,157,386.14787
1,Arcoverde/PE,-8.415192,-37.057748,11666,15493.72468
D1,Arcoverde/PE,-8.415192,-37.057748,143,189.91965
1,Areado/MG,-21.3582771,-46.1476688,3337,21827.57718
D1,Areado/MG,-21.3582771,-46.1476688,35,228.93773
1,Areal/RJ,-22.2314922,-43.1056264,2222,17409.69991
D1,Areal/RJ,-22.2314922,-43.1056264,55,430.93317
1,Arealva/SP,-22.0301906,-48.9111936,2051,23669.93653
D1,Arealva/SP,-22.0301906,-48.9111936,30,346.22043
1,Areia Branca/RN,-4.9506652,-37.1263312,4497,15971.72894
D1,Areia Branca/RN,-4.9506652,-37.1263312,120,426.19690
1,Areia Branca/SE,-10.7591455,-37.3148072,2432,12918.99070
D1,Areia Branca/SE,-10.7591455,-37.3148072,50,265.60425
1,Areia de Baraúnas/PB,-7.1233949,-36.9446216,379,18004.75059
D1,Areia de Baraúnas/PB,-7.1233949,-36.9446216,7,332.54157
1,Areia/PB,-6.9680243,-35.6994783,2931,13030.72067
D1,Areia/PB,-6.9680243,-35.6994783,36,160.04979
1,Areial/PB,-7.0501306,-35.9245244,564,7995.46357
D1,Areial/PB,-7.0501306,-35.9245244,13,184.29260
1,Areias/SP,-22.5800929,-44.6975127,365,9344.59805
D1,Areias/SP,-22.5800929,-44.6975127,6,153.60983
1,Areiópolis/SP,-22.6758064,-48.6673653,2205,19712.14018
D1,Areiópolis/SP,-22.6758064,-48.6673653,32,286.07188
1,Arenápolis/MT,-14.4610369,-56.8432806,3147,33482.28535
D1,Arenápolis/MT,-14.4610369,-56.8432806,43,457.49548
1,Arenópolis/GO,-16.3859286,-51.55937,861,34971.56783
D1,Arenópolis/GO,-16.3859286,-51.55937,10,406.17384
1,Argirita/MG,-21.612761,-42.8371922,741,27638.94069
D1,Argirita/MG,-21.612761,-42.8371922,14,522.19321
1,Aricanduva/MG,-17.8678,-42.5569,442,8331.76249
1,Arinos/MG,-15.917223,-46.106111,2932,16425.77031
D1,Arinos/MG,-15.917223,-46.106111,32,179.27171
1,Aripuanã/MT,-10.175806,-59.4439663,6369,27610.87268
D1,Aripuanã/MT,-10.175806,-59.4439663,58,251.44145
1,Ariquemes/RO,-9.9076522,-63.033069,34662,31185.44643
D1,Ariquemes/RO,-9.9076522,-63.033069,564,507.43153
1,Ariranha do Ivaí/PR,-24.3834527,-51.5876772,681,33613.03060
D1,Ariranha do Ivaí/PR,-24.3834527,-51.5876772,5,246.79171
1,Ariranha/SP,-21.18716,-48.790418,1038,10537.00132
D1,Ariranha/SP,-21.18716,-48.790418,37,375.59639
1,Armazém/SC,-28.2624996,-49.0190126,1757,19868.82280
D1,Armazém/SC,-28.2624996,-49.0190126,36,407.10166
1,Armação dos Búzios/RJ,-22.7597805,-41.8875267,8988,25636.05248
D1,Armação dos Búzios/RJ,-22.7597805,-41.8875267,83,236.73702
1,Arneiroz/CE,-6.3235099,-40.1603859,906,11544.34251
D1,Arneiroz/CE,-6.3235099,-40.1603859,21,267.58410
1,Aroazes/PI,-6.1108814,-41.7886137,765,13146.58876
D1,Aroazes/PI,-6.1108814,-41.7886137,15,257.77625
1,Aroeiras do Itaim/PI,-7.2797031,-41.5629681,190,7448.05958
D1,Aroeiras do Itaim/PI,-7.2797031,-41.5629681,2,78.40063
1,Aroeiras/PB,-7.5462904,-35.7080002,2811,14731.93229
D1,Aroeiras/PB,-7.5462904,-35.7080002,20,104.81631
1,Arraial do Cabo/RJ,-22.9662839,-42.024427,3386,10983.87777
D1,Arraial do Cabo/RJ,-22.9662839,-42.024427,53,171.92721
1,Arraial/PI,-6.6541632,-42.5335332,172,3649.48016
D1,Arraial/PI,-6.6541632,-42.5335332,3,63.65372
1,Arraias/TO,-12.9287788,-46.9437231,1758,16739.66863
D1,Arraias/TO,-12.9287788,-46.9437231,13,123.78595
1,Arroio Grande/RS,-32.2384246,-53.0866661,3358,18465.76849
D1,Arroio Grande/RS,-32.2384246,-53.0866661,62,340.94034
1,Arroio Trinta/SC,-26.9301976,-51.334928,1282,36143.21962
D1,Arroio Trinta/SC,-26.9301976,-51.334928,15,422.89259
1,Arroio do Meio/RS,-29.4020392,-51.9444993,5507,26073.57606
D1,Arroio do Meio/RS,-29.4020392,-51.9444993,58,274.60821
1,Arroio do Padre/RS,-31.4428773,-52.4228985,519,17498.31423
D1,Arroio do Padre/RS,-31.4428773,-52.4228985,4,134.86177
1,Arroio do Sal/RS,-29.549852,-49.8874395,3855,36773.82429
D1,Arroio do Sal/RS,-29.549852,-49.8874395,44,419.72718
1,Arroio do Tigre/RS,-29.334158,-53.0888935,2667,19826.04817
D1,Arroio do Tigre/RS,-29.334158,-53.0888935,25,185.84597
1,Arroio dos Ratos/RS,-30.0894524,-51.7265541,2815,19822.54771
D1,Arroio dos Ratos/RS,-30.0894524,-51.7265541,50,352.08788
1,Artur Nogueira/SP,-22.572737,-47.172679,9065,16116.41510
D1,Artur Nogueira/SP,-22.572737,-47.172679,155,275.57025
1,Aruanã/GO,-14.9162439,-51.0715692,2103,20338.49130
D1,Aruanã/GO,-14.9162439,-51.0715692,23,222.43714
1,Arujá/SP,-23.396266,-46.3175449,12354,13362.46525
D1,Arujá/SP,-23.396266,-46.3175449,360,389.38704
1,Arvoredo/SC,-27.0752908,-52.4571847,473,21229.80251
D1,Arvoredo/SC,-27.0752908,-52.4571847,5,224.41652
1,Arvorezinha/RS,-28.87369,-52.17808,1617,15515.25619
D1,Arvorezinha/RS,-28.87369,-52.17808,33,316.63788
1,Arês/RN,-6.1969216,-35.1642968,1589,10939.00592
D1,Arês/RN,-6.1969216,-35.1642968,27,185.87361
1,Ascurra/SC,-26.9569975,-49.3767752,2279,28412.91610
D1,Ascurra/SC,-26.9569975,-49.3767752,14,174.54183
1,Aspásia/SP,-20.160028,-50.728046,583,32121.21212
D1,Aspásia/SP,-20.160028,-50.728046,9,495.86777
1,Assaré/CE,-6.8746791,-39.8741385,3142,13349.19488
D1,Assaré/CE,-6.8746791,-39.8741385,57,242.17190
1,Assaí/PR,-23.3736041,-50.8454929,3353,22667.65819
D1,Assaí/PR,-23.3736041,-50.8454929,72,486.74959
1,Assis Brasil/AC,-10.9409203,-69.5672108,2156,28186.69107
D1,Assis Brasil/AC,-10.9409203,-69.5672108,25,326.84011
1,Assis Chateaubriand/PR,-24.4054826,-53.5120468,9547,28664.50489
D1,Assis Chateaubriand/PR,-24.4054826,-53.5120468,146,438.35945
1,Assis/SP,-22.6620892,-50.420623,23572,22286.51388
D1,Assis/SP,-22.6620892,-50.420623,467,441.53241
1,Assunção do Piauí/PI,-5.8610212,-41.0485091,411,5216.39802
D1,Assunção do Piauí/PI,-5.8610212,-41.0485091,10,126.91966
1,Assunção/PB,-7.073396,-36.7274003,743,18268.99434
D1,Assunção/PB,-7.073396,-36.7274003,6,147.52889
1,Astolfo Dutra/MG,-21.3132636,-42.8624102,2356,16408.97061
D1,Astolfo Dutra/MG,-21.3132636,-42.8624102,32,222.87227
1,Astorga/PR,-23.2350184,-51.6647074,9122,34679.13625
D1,Astorga/PR,-23.2350184,-51.6647074,107,406.78224
1,Atalaia do Norte/AM,-4.3658547,-70.1908742,4105,19671.26701
D1,Atalaia do Norte/AM,-4.3658547,-70.1908742,11,52.71229
1,Atalaia/AL,-9.5029595,-36.0219316,2080,4375.26294
D1,Atalaia/AL,-9.5029595,-36.0219316,58,122.00252
1,Atalaia/PR,-23.1513833,-52.0529697,1252,32343.06381
D1,Atalaia/PR,-23.1513833,-52.0529697,28,723.32731
1,Atalanta/SC,-27.421916,-49.778863,916,28814.09248
D1,Atalanta/SC,-27.421916,-49.778863,12,377.47719
1,Ataléia/MG,-18.04432,-41.1110524,1530,12243.91805
D1,Ataléia/MG,-18.04432,-41.1110524,12,96.03073
1,Atibaia/SP,-23.1177393,-46.5547861,13123,9026.81286
D1,Atibaia/SP,-23.1177393,-46.5547861,387,266.20259
1,Atilio Vivacqua/ES,-20.9139369,-41.1947519,3176,25884.27058
D1,Atilio Vivacqua/ES,-20.9139369,-41.1947519,38,309.69845
1,Augustinópolis/TO,-5.4662267,-47.8897519,2402,12729.19979
D1,Augustinópolis/TO,-5.4662267,-47.8897519,32,169.58135
1,Augusto Corrêa/PA,-1.0229335,-46.6404029,3168,6749.47270
D1,Augusto Corrêa/PA,-1.0229335,-46.6404029,57,121.43938
1,Augusto Pestana/RS,-28.5148413,-53.9906433,1941,29656.22613
D1,Augusto Pestana/RS,-28.5148413,-53.9906433,17,259.74026
1,Augusto de Lima/MG,-18.1092963,-44.2651945,327,6765.98386
D1,Augusto de Lima/MG,-18.1092963,-44.2651945,12,248.29299
1,Aurelino Leal/BA,-14.3167137,-39.3256107,1354,12221.31961
D1,Aurelino Leal/BA,-14.3167137,-39.3256107,41,370.06950
1,Auriflama/SP,-20.6840418,-50.5554616,2266,14794.98564
D1,Auriflama/SP,-20.6840418,-50.5554616,87,568.03343
1,Aurilândia/GO,-16.6772599,-50.4641231,1404,46800.00000
D1,Aurilândia/GO,-16.6772599,-50.4641231,16,533.33333
1,Aurora do Pará/PA,-2.1323199,-47.558436,2140,6645.96273
D1,Aurora do Pará/PA,-2.1323199,-47.558436,20,62.11180
1,Aurora do Tocantins/TO,-12.71045,-46.407604,616,16172.22368
D1,Aurora do Tocantins/TO,-12.71045,-46.407604,8,210.02888
1,Aurora/CE,-6.9426019,-38.9693765,2768,11267.14699
D1,Aurora/CE,-6.9426019,-38.9693765,45,183.17255
1,Aurora/SC,-27.3166417,-49.6368502,1521,26745.20837
D1,Aurora/SC,-27.3166417,-49.6368502,23,404.43116
1,Autazes/AM,-3.5833283,-59.1301518,4163,10152.42044
D1,Autazes/AM,-3.5833283,-59.1301518,102,248.75015
1,Avanhandava/SP,-21.4603331,-49.9465156,1826,12984.42722
D1,Avanhandava/SP,-21.4603331,-49.9465156,48,341.32120
1,Avaré/SP,-23.1045215,-48.9259103,15583,16976.42496
D1,Avaré/SP,-23.1045215,-48.9259103,321,349.70368
1,Avaí/SP,-22.1564662,-49.3316395,830,15182.00110
D1,Avaí/SP,-22.1564662,-49.3316395,14,256.08195
1,Aveiro/PA,-3.6049239,-55.3310742,1233,7508.67791
D1,Aveiro/PA,-3.6049239,-55.3310742,15,91.34645
1,Avelino Lopes/PI,-10.1346855,-43.9489525,813,7156.06021
D1,Avelino Lopes/PI,-10.1346855,-43.9489525,24,211.24901
1,Avelinópolis/GO,-16.4672409,-49.7578661,425,17700.95793
D1,Avelinópolis/GO,-16.4672409,-49.7578661,18,749.68763
1,Axixá do Tocantins/TO,-5.612747,-47.77007,1341,13659.97759
D1,Axixá do Tocantins/TO,-5.612747,-47.77007,24,244.47387
1,Axixá/MA,-2.8379465,-44.0561053,192,1569.39676
D1,Axixá/MA,-2.8379465,-44.0561053,7,57.21759
1,Açailândia/MA,-4.9514278,-47.4844564,6829,6001.77531
D1,Açailândia/MA,-4.9514278,-47.4844564,297,261.02318
1,Açu/RN,-5.5836157,-36.9139541,10534,17932.34939
D1,Açu/RN,-5.5836157,-36.9139541,174,296.20551
1,Açucena/MG,-19.073056,-42.546666,896,9665.58792
D1,Açucena/MG,-19.073056,-42.546666,39,420.71197
1,Babaçulândia/TO,-7.2034355,-47.761613,910,8530.18373
D1,Babaçulândia/TO,-7.2034355,-47.761613,8,74.99063
1,Bacabal/MA,-4.2318132,-44.781167,5791,5510.30506
D1,Bacabal/MA,-4.2318132,-44.781167,236,224.56087
1,Bacabeira/MA,-2.9775747,-44.3155943,608,3485.03955
D1,Bacabeira/MA,-2.9775747,-44.3155943,10,57.31973
1,Bacuri/MA,-1.728894,-45.1417148,990,5286.76706
D1,Bacuri/MA,-1.728894,-45.1417148,4,21.36067
1,Bacurituba/MA,-2.7082587,-44.7381309,117,2054.07303
D1,Bacurituba/MA,-2.7082587,-44.7381309,1,17.55618
1,Bady Bassitt/SP,-20.9178969,-49.4517911,4520,25092.98840
D1,Bady Bassitt/SP,-20.9178969,-49.4517911,101,560.70616
1,Baependi/MG,-21.959162,-44.8899249,3552,18452.90664
D1,Baependi/MG,-21.959162,-44.8899249,38,197.41285
1,Bagre/PA,-1.8994498,-50.2103844,1345,4207.46395
D1,Bagre/PA,-1.8994498,-50.2103844,13,40.66694
1,Bagé/RS,-31.3314264,-54.1062808,27426,22569.49588
D1,Bagé/RS,-31.3314264,-54.1062808,354,291.31487
1,Baianópolis/BA,-12.3067564,-44.5383591,1379,9864.79720
D1,Baianópolis/BA,-12.3067564,-44.5383591,26,185.99328
1,Baixa Grande do Ribeiro/PI,-7.862861,-45.2113289,2673,22747.00026
D1,Baixa Grande do Ribeiro/PI,-7.862861,-45.2113289,36,306.35691
1,Baixa Grande/BA,-11.9630941,-40.1657537,1411,6906.17199
D1,Baixa Grande/BA,-11.9630941,-40.1657537,26,127.25760
1,Baixio/CE,-6.7303544,-38.7170095,922,14593.22570
D1,Baixio/CE,-6.7303544,-38.7170095,18,284.90028
1,Baixo Guandu/ES,-19.5138322,-41.0182089,10348,33099.83047
D1,Baixo Guandu/ES,-19.5138322,-41.0182089,106,339.05895
1,Baião/PA,-2.7903479,-49.6702845,990,2001.86031
D1,Baião/PA,-2.7903479,-49.6702845,39,78.86116
1,Balbinos/SP,-21.9006253,-49.3583966,724,11816.54970
D1,Balbinos/SP,-21.9006253,-49.3583966,4,65.28480
1,Baldim/MG,-19.2913568,-43.9558262,875,11246.78663
D1,Baldim/MG,-19.2913568,-43.9558262,25,321.33676
1,Baliza/GO,-16.1978119,-52.542789,879,16223.69878
D1,Baliza/GO,-16.1978119,-52.542789,13,239.94094
1,Balneário Arroio do Silva/SC,-28.9815269,-49.4189932,3835,27826.15005
D1,Balneário Arroio do Silva/SC,-28.9815269,-49.4189932,65,471.62966
1,Balneário Barra do Sul/SC,-26.459842,-48.6061471,2365,20983.05386
D1,Balneário Barra do Sul/SC,-26.459842,-48.6061471,56,496.85032
1,Balneário Camboriú/SC,-26.9924395,-48.6339782,37223,24943.87745
D1,Balneário Camboriú/SC,-26.9924395,-48.6339782,502,336.40025
1,Balneário Gaivota/SC,-29.1553098,-49.5808712,3491,30259.16616
D1,Balneário Gaivota/SC,-29.1553098,-49.5808712,41,355.37835
1,Balneário Pinhal/RS,-30.2482978,-50.234585,3849,26282.00751
D1,Balneário Pinhal/RS,-30.2482978,-50.234585,63,430.18095
1,Balneário Piçarras/SC,-26.7638889,-48.6716667,7487,30703.30121
D1,Balneário Piçarras/SC,-26.7638889,-48.6716667,74,303.46525
1,Balneário Rincão/SC,-28.8235718,-49.2241642,2483,18912.33148
D1,Balneário Rincão/SC,-28.8235718,-49.2241642,55,418.91995
1,Balsa Nova/PR,-25.5842234,-49.6312741,3130,23644.05499
D1,Balsa Nova/PR,-25.5842234,-49.6312741,36,271.94440
1,Balsas/MA,-7.53214,-46.037163,16585,17106.57961
D1,Balsas/MA,-7.53214,-46.037163,241,248.57918
1,Bambuí/MG,-20.0131996,-45.9777034,6155,25684.35987
D1,Bambuí/MG,-20.0131996,-45.9777034,42,175.26289
1,Banabuiú/CE,-5.3046404,-38.919766,3141,17151.75012
D1,Banabuiú/CE,-5.3046404,-38.919766,22,120.13324
1,Bananal/SP,-22.6828195,-44.3221095,1164,10544.43337
D1,Bananal/SP,-22.6828195,-44.3221095,9,81.52912
1,Bananeiras/PB,-6.7537682,-35.6338343,2060,9707.82281
D1,Bananeiras/PB,-6.7537682,-35.6338343,29,136.66352
1,Bandeira do Sul/MG,-21.728056,-46.385555,1344,23140.49587
D1,Bandeira do Sul/MG,-21.728056,-46.385555,17,292.69972
1,Bandeira/MG,-15.884444,-40.559167,748,15787.25201
D1,Bandeira/MG,-15.884444,-40.559167,12,253.27142
1,Bandeirante/SC,-26.7677402,-53.6397596,754,28800.61115
D1,Bandeirante/SC,-26.7677402,-53.6397596,7,267.37968
1,Bandeirantes do Tocantins/TO,-7.7635698,-48.579148,830,22858.71661
D1,Bandeirantes do Tocantins/TO,-7.7635698,-48.579148,8,220.32498
1,Bandeirantes/MS,-19.9179623,-54.3646768,824,11317.12677
D1,Bandeirantes/MS,-19.9179623,-54.3646768,12,164.81253
1,Bandeirantes/PR,-23.107788,-50.370407,9688,31190.23856
D1,Bandeirantes/PR,-23.107788,-50.370407,165,531.21277
1,Bannach/PA,-7.3508505,-50.4064531,703,21704.22970
D1,Bannach/PA,-7.3508505,-50.4064531,3,92.62118
1,Banzaê/BA,-10.5827616,-38.6122305,1427,10768.99857
D1,Banzaê/BA,-10.5827616,-38.6122305,13,98.10580
1,Baraúna/PB,-6.643394,-36.2531932,794,15775.87920
D1,Baraúna/PB,-6.643394,-36.2531932,9,178.81979
1,Baraúna/RN,-5.0775002,-37.61752,1833,6296.37263
D1,Baraúna/RN,-5.0775002,-37.61752,33,113.35532
1,Barbacena/MG,-21.2254524,-43.7735087,18493,13298.48052
D1,Barbacena/MG,-21.2254524,-43.7735087,361,259.59831
1,Barbalha/CE,-7.3121067,-39.3036427,11588,18792.77351
D1,Barbalha/CE,-7.3121067,-39.3036427,214,347.05329
1,Barbosa Ferraz/PR,-24.0287182,-52.00811,3600,31895.10056
D1,Barbosa Ferraz/PR,-24.0287182,-52.00811,59,522.72526
1,Barbosa/SP,-21.265661,-49.951816,935,12413.70154
D1,Barbosa/SP,-21.265661,-49.951816,25,331.91715
1,Barcarena/PA,-1.5107945,-48.6190679,14652,11328.89518
D1,Barcarena/PA,-1.5107945,-48.6190679,260,201.03145
1,Barcelona/RN,-5.9514918,-35.9260284,517,12960.64176
D1,Barcelona/RN,-5.9514918,-35.9260284,11,275.75834
1,Barcelos/AM,-0.9729214,-62.925635,5359,19296.41365
D1,Barcelos/AM,-0.9729214,-62.925635,60,216.04494
1,Bariri/SP,-22.0746355,-48.7394852,6838,19077.11193
D1,Bariri/SP,-22.0746355,-48.7394852,151,421.26995
1,Barra Bonita/SC,-26.6526364,-53.4419581,480,29538.46154
D1,Barra Bonita/SC,-26.6526364,-53.4419581,2,123.07692
1,Barra Bonita/SP,-22.490859,-48.558349,5622,15562.62976
D1,Barra Bonita/SP,-22.490859,-48.558349,130,359.86159
1,Barra D'Alcântara/PI,-6.5209258,-42.1071089,164,4148.74779
D1,Barra D'Alcântara/PI,-6.5209258,-42.1071089,5,126.48621
1,Barra Funda/RS,-27.9230048,-53.0401045,1127,43971.90792
D1,Barra Funda/RS,-27.9230048,-53.0401045,15,585.25166
1,Barra Longa/MG,-20.2833541,-43.0423516,674,13741.08053
D1,Barra Longa/MG,-20.2833541,-43.0423516,14,285.42304
1,Barra Mansa/RJ,-22.5394843,-44.1735129,47667,25732.97991
D1,Barra Mansa/RJ,-22.5394843,-44.1735129,755,407.58596
1,Barra Velha/SC,-26.6338203,-48.6835001,7078,23176.92131
D1,Barra Velha/SC,-26.6338203,-48.6835001,147,481.35171
1,Barra da Estiva/BA,-13.6269662,-41.3278287,3877,19194.96980
D1,Barra da Estiva/BA,-13.6269662,-41.3278287,38,188.13744
1,Barra de Guabiraba/PE,-8.4173522,-35.6626669,997,6813.83270
D1,Barra de Guabiraba/PE,-8.4173522,-35.6626669,21,143.52105
1,Barra de Santa Rosa/PB,-6.7218007,-36.0564638,1750,11212.91728
D1,Barra de Santa Rosa/PB,-6.7218007,-36.0564638,16,102.51810
1,Barra de Santana/PB,-7.5230865,-35.9988518,1170,14032.14200
D1,Barra de Santana/PB,-7.5230865,-35.9988518,8,95.94627
1,Barra de Santo Antônio/AL,-9.4038098,-35.5117693,642,3962.71835
D1,Barra de Santo Antônio/AL,-9.4038098,-35.5117693,33,203.69113
1,Barra de São Francisco/ES,-18.7570902,-40.8916119,11781,26006.04843
D1,Barra de São Francisco/ES,-18.7570902,-40.8916119,263,580.56114
1,Barra de São Miguel/AL,-9.8261357,-35.8837777,1018,12070.19208
D1,Barra de São Miguel/AL,-9.8261357,-35.8837777,10,118.56770
1,Barra de São Miguel/PB,-7.7528088,-36.3170996,1356,22247.74405
D1,Barra de São Miguel/PB,-7.7528088,-36.3170996,10,164.06891
1,Barra do Bugres/MT,-15.0683712,-57.1853688,7997,22437.01251
D1,Barra do Bugres/MT,-15.0683712,-57.1853688,106,297.40194
1,Barra do Chapéu/SP,-24.472203,-49.023784,465,8025.54367
D1,Barra do Chapéu/SP,-24.472203,-49.023784,14,241.62927
1,Barra do Choça/BA,-14.8638173,-40.5761637,2968,9626.67445
D1,Barra do Choça/BA,-14.8638173,-40.5761637,43,139.47001
1,Barra do Corda/MA,-5.496823,-45.248496,5876,6610.04556
D1,Barra do Corda/MA,-5.496823,-45.248496,78,87.74397
1,Barra do Garças/MT,-15.8916033,-52.2615413,16640,26968.33166
D1,Barra do Garças/MT,-15.8916033,-52.2615413,409,662.86344
1,Barra do Guarita/RS,-27.1888016,-53.7147086,137,4194.73362
D1,Barra do Guarita/RS,-27.1888016,-53.7147086,8,244.94795
1,Barra do Jacaré/PR,-23.1151788,-50.1813945,680,24451.63610
D1,Barra do Jacaré/PR,-23.1151788,-50.1813945,7,251.70802
1,Barra do Mendes/BA,-11.8053298,-42.057037,1513,11524.98477
D1,Barra do Mendes/BA,-11.8053298,-42.057037,22,167.58074
1,Barra do Ouro/TO,-7.7113784,-47.6743925,211,4515.30066
D1,Barra do Ouro/TO,-7.7113784,-47.6743925,8,171.19623
1,Barra do Piraí/RJ,-22.4703403,-43.8263256,12521,12379.99189
D1,Barra do Piraí/RJ,-22.4703403,-43.8263256,447,441.96601
1,Barra do Quaraí/RS,-30.208947,-57.5505128,1111,26215.19585
D1,Barra do Quaraí/RS,-30.208947,-57.5505128,9,212.36432
1,Barra do Ribeiro/RS,-30.2930206,-51.301437,2614,19195.18285
D1,Barra do Ribeiro/RS,-30.2930206,-51.301437,62,455.27978
1,Barra do Rio Azul/RS,-27.4101581,-52.4117471,209,12893.27576
D1,Barra do Rio Azul/RS,-27.4101581,-52.4117471,1,61.69031
1,Barra do Rocha/BA,-14.2090974,-39.6004395,787,14270.17226
D1,Barra do Rocha/BA,-14.2090974,-39.6004395,8,145.05893
1,Barra do Turvo/SP,-24.756421,-48.5056942,893,11740.73100
D1,Barra do Turvo/SP,-24.756421,-48.5056942,27,354.98291
1,Barra dos Coqueiros/SE,-10.9075694,-37.0386249,8751,27834.85480
D1,Barra dos Coqueiros/SE,-10.9075694,-37.0386249,108,343.52238
1,Barra/BA,-11.0892702,-43.1420453,3502,6458.27570
D1,Barra/BA,-11.0892702,-43.1420453,72,132.78008
1,Barracão/PR,-26.252395,-53.6349576,2801,27070.64850
D1,Barracão/PR,-26.252395,-53.6349576,39,376.92085
1,Barracão/RS,-27.6728964,-51.4582928,896,17109.03189
D1,Barracão/RS,-27.6728964,-51.4582928,18,343.70823
1,Barras/PI,-4.2446153,-42.2920241,6672,14106.30471
D1,Barras/PI,-4.2446153,-42.2920241,107,226.22521
1,Barreira/CE,-4.2883361,-38.641094,2343,10314.76998
D1,Barreira/CE,-4.2883361,-38.641094,53,233.32600
1,Barreiras do Piauí/PI,-9.9224524,-45.4763776,114,3396.90107
D1,Barreiras do Piauí/PI,-9.9224524,-45.4763776,4,119.18951
1,Barreiras/BA,-12.1440031,-44.9967406,25878,16333.82145
D1,Barreiras/BA,-12.1440031,-44.9967406,355,224.07089
1,Barreirinha/AM,-2.798863,-57.067897,4065,12348.49175
D1,Barreirinha/AM,-2.798863,-57.067897,69,209.60540
1,Barreirinhas/MA,-2.7541271,-42.8259693,2935,4593.76125
D1,Barreirinhas/MA,-2.7541271,-42.8259693,46,71.99762
1,Barreiros/PE,-8.8159644,-35.1831905,1479,3450.28694
D1,Barreiros/PE,-8.8159644,-35.1831905,68,158.63388
1,Barretos/SP,-20.5531437,-48.5697509,29022,23490.84552
D1,Barretos/SP,-20.5531437,-48.5697509,637,515.59743
1,Barrinha/SP,-21.1898849,-48.1550642,1759,5244.95334
D1,Barrinha/SP,-21.1898849,-48.1550642,92,274.32388
1,Barro Alto/BA,-11.7618025,-41.9094904,1331,8773.31751
D1,Barro Alto/BA,-11.7618025,-41.9094904,17,112.05590
1,Barro Alto/GO,-14.9696025,-48.9190985,2884,24770.24822
D1,Barro Alto/GO,-14.9696025,-48.9190985,24,206.13244
1,Barro Duro/PI,-5.8180139,-42.5106589,853,12147.53631
D1,Barro Duro/PI,-5.8180139,-42.5106589,12,170.89148
1,Barro Preto/BA,-14.8068289,-39.4727588,757,14250.75301
D1,Barro Preto/BA,-14.8068289,-39.4727588,14,263.55422
1,Barro/CE,-7.1713587,-38.7742136,2889,12652.18534
D1,Barro/CE,-7.1713587,-38.7742136,51,223.35114
1,Barrocas/BA,-11.5165,-39.099282894736845,1162,7161.78737
D1,Barrocas/BA,-11.5165,-39.099282894736845,29,178.73652
1,Barrolândia/TO,-9.837246,-48.7264346,893,15752.33727
D1,Barrolândia/TO,-9.837246,-48.7264346,21,370.43570
1,Barroquinha/CE,-3.0200371,-41.1339229,1759,11672.97100
D1,Barroquinha/CE,-3.0200371,-41.1339229,28,185.81193
1,Barros Cassal/RS,-29.094938,-52.5832366,1592,14256.29086
D1,Barros Cassal/RS,-29.094938,-52.5832366,16,143.27931
1,Barroso/MG,-21.187222,-43.976111,5943,28325.62795
D1,Barroso/MG,-21.187222,-43.976111,73,347.93384
1,Barueri/SP,-23.5112184,-46.8764612,46419,16595.75837
D1,Barueri/SP,-23.5112184,-46.8764612,1256,449.04613
1,Barão de Antonina/SP,-23.6295651,-49.5632104,970,27517.73050
D1,Barão de Antonina/SP,-23.6295651,-49.5632104,11,312.05674
1,Barão de Cocais/MG,-19.9452437,-43.4870298,7730,23260.71257
D1,Barão de Cocais/MG,-19.9452437,-43.4870298,85,255.77756
1,Barão de Cotegipe/RS,-27.6214694,-52.3765316,1080,16324.06288
D1,Barão de Cotegipe/RS,-27.6214694,-52.3765316,11,166.26360
1,Barão de Grajaú/MA,-6.7542591,-43.0263477,486,2554.39924
D1,Barão de Grajaú/MA,-6.7542591,-43.0263477,6,31.53579
1,Barão de Melgaço/MT,-16.195776,-55.9668049,1206,14770.36130
D1,Barão de Melgaço/MT,-16.195776,-55.9668049,19,232.70055
1,Barão de Monte Alto/MG,-21.244722,-42.2375,387,7286.76332
D1,Barão de Monte Alto/MG,-21.244722,-42.2375,16,301.26153
1,Barão do Triunfo/RS,-30.3909877,-51.7375349,786,10410.59603
D1,Barão do Triunfo/RS,-30.3909877,-51.7375349,10,132.45033
1,Barão/RS,-29.372474,-51.494908,1395,22384.46727
D1,Barão/RS,-29.372474,-51.494908,15,240.69320
1,Bastos/SP,-21.9222474,-50.7317727,2494,11903.39824
D1,Bastos/SP,-21.9222474,-50.7317727,77,367.50668
1,Bataguassu/MS,-21.715899,-52.422058,4425,18734.12362
D1,Bataguassu/MS,-21.715899,-52.422058,55,232.85351
1,Batalha/AL,-9.6733809,-37.1265481,1291,7001.08460
D1,Batalha/AL,-9.6733809,-37.1265481,24,130.15184
1,Batalha/PI,-4.022391,-42.0780926,1584,5877.33294
D1,Batalha/PI,-4.022391,-42.0780926,40,148.41750
1,Batatais/SP,-20.892867,-47.592149,6858,10810.55519
D1,Batatais/SP,-20.892867,-47.592149,211,332.60822
1,Batayporã/MS,-22.2976466,-53.2685608,1823,16036.24208
D1,Batayporã/MS,-22.2976466,-53.2685608,32,281.49191
1,Baturité/CE,-4.3290203,-38.8821055,5773,15979.73815
D1,Baturité/CE,-4.3290203,-38.8821055,91,251.88917
1,Bauru/SP,-22.3218102,-49.0705863,81726,21410.71924
D1,Bauru/SP,-22.3218102,-49.0705863,1457,381.70739
1,Bayeux/PB,-7.1301631,-34.936532,11797,12097.12979
D1,Bayeux/PB,-7.1301631,-34.936532,270,276.86912
1,Baía Formosa/RN,-6.3691885,-35.0063741,778,8300.43743
D1,Baía Formosa/RN,-6.3691885,-35.0063741,11,117.35837
1,Baía da Traição/PB,-6.691258,-34.9371244,1685,18321.19169
D1,Baía da Traição/PB,-6.691258,-34.9371244,13,141.35044
1,Bebedouro/SP,-20.949077,-48.479083,5497,7082.66763
D1,Bebedouro/SP,-20.949077,-48.479083,343,441.94197
1,Beberibe/CE,-4.1810469,-38.1298101,10600,19515.78754
D1,Beberibe/CE,-4.1810469,-38.1298101,145,266.96124
1,Bela Cruz/CE,-3.0529129,-40.167582,4333,13189.85723
D1,Bela Cruz/CE,-3.0529129,-40.167582,78,237.43569
1,Bela Vista da Caroba/PR,-25.8792818,-53.6672545,773,22708.57814
D1,Bela Vista da Caroba/PR,-25.8792818,-53.6672545,9,264.39483
1,Bela Vista de Goiás/GO,-16.9692949,-48.9513071,5766,18597.60031
D1,Bela Vista de Goiás/GO,-16.9692949,-48.9513071,95,306.41208
1,Bela Vista de Minas/MG,-19.8289721,-43.0973688,1308,12737.36488
D1,Bela Vista de Minas/MG,-19.8289721,-43.0973688,26,253.18921
1,Bela Vista do Maranhão/MA,-3.7416367,-45.2514192,356,3137.39314
D1,Bela Vista do Maranhão/MA,-3.7416367,-45.2514192,19,167.44514
1,Bela Vista do Paraíso/PR,-22.9948493,-51.1907996,3949,25642.85714
D1,Bela Vista do Paraíso/PR,-22.9948493,-51.1907996,89,577.92208
1,Bela Vista do Piauí/PI,-7.9716353,-41.8715061,327,8086.05341
D1,Bela Vista do Piauí/PI,-7.9716353,-41.8715061,7,173.09594
1,Bela Vista do Toldo/SC,-26.274625,-50.466354,108,1691.19950
D1,Bela Vista do Toldo/SC,-26.274625,-50.466354,5,78.29627
1,Bela Vista/MS,-22.107327,-56.5317344,2821,11355.76846
D1,Bela Vista/MS,-22.107327,-56.5317344,44,177.11939
1,Belford Roxo/RJ,-22.7667284,-43.4033603,51503,9995.94363
D1,Belford Roxo/RJ,-22.7667284,-43.4033603,1023,198.54863
1,Belmiro Braga/MG,-21.9486291,-43.413564,903,26388.07715
D1,Belmiro Braga/MG,-21.9486291,-43.413564,6,175.33606
1,Belmonte/BA,-15.8630837,-38.8792845,1787,7591.33390
D1,Belmonte/BA,-15.8630837,-38.8792845,33,140.18692
1,Belmonte/SC,-26.8448262,-53.578916,662,24410.02950
D1,Belmonte/SC,-26.8448262,-53.578916,5,184.36578
1,Belo Campo/BA,-15.0338286,-41.2585109,1175,6906.48328
D1,Belo Campo/BA,-15.0338286,-41.2585109,22,129.31288
1,Belo Horizonte/MG,-19.9227318,-43.9450948,447678,17689.88118
D1,Belo Horizonte/MG,-19.9227318,-43.9450948,8181,323.27011
1,Belo Jardim/PE,-8.3338293,-36.4176419,10077,13098.92110
D1,Belo Jardim/PE,-8.3338293,-36.4176419,140,181.98362
1,Belo Monte/AL,-9.8269944,-37.2787165,655,9751.37710
D1,Belo Monte/AL,-9.8269944,-37.2787165,10,148.87599
1,Belo Oriente/MG,-19.2232523,-42.4807033,3528,12933.97368
D1,Belo Oriente/MG,-19.2232523,-42.4807033,83,304.28566
1,Belo Vale/MG,-20.407778,-44.024167,1723,22309.98317
D1,Belo Vale/MG,-20.407778,-44.024167,17,220.12171
1,Belterra/PA,-2.636091,-54.937392,3306,18423.98573
D1,Belterra/PA,-2.636091,-54.937392,50,278.64467
1,Belágua/MA,-3.1604031,-43.5085052,446,5879.25125
D1,Belágua/MA,-3.1604031,-43.5085052,4,52.72871
1,Belém de Maria/PE,-8.6242497,-35.8388934,548,4503.24595
D1,Belém de Maria/PE,-8.6242497,-35.8388934,10,82.17602
1,Belém do Brejo do Cruz/PB,-6.1880727,-37.5332267,947,12873.84448
D1,Belém do Brejo do Cruz/PB,-6.1880727,-37.5332267,9,122.34910
1,Belém do Piauí/PI,-7.3767305,-40.9712156,627,17382.86665
D1,Belém do Piauí/PI,-7.3767305,-40.9712156,8,221.79096
1,Belém do São Francisco/PE,-8.7517707,-38.9625715,1897,9150.98890
D1,Belém do São Francisco/PE,-8.7517707,-38.9625715,21,101.30246
1,Belém/AL,-9.5715351,-36.492841,244,5773.78135
D1,Belém/AL,-9.5715351,-36.492841,8,189.30431
1,Belém/PA,-1.45056,-48.4682453,152494,10122.94048
D1,Belém/PA,-1.45056,-48.4682453,5404,358.73130
1,Belém/PB,-6.6967586,-35.5369626,3093,17442.05718
D1,Belém/PB,-6.6967586,-35.5369626,48,270.68178
1,Beneditinos/PI,-5.4565671,-42.3605061,1533,14629.25852
D1,Beneditinos/PI,-5.4565671,-42.3605061,43,410.34450
1,Benedito Leite/MA,-7.2173453,-44.5523331,369,6539.07496
D1,Benedito Leite/MA,-7.2173453,-44.5523331,2,35.44214
1,Benedito Novo/SC,-26.7840657,-49.3629511,1565,13155.68258
D1,Benedito Novo/SC,-26.7840657,-49.3629511,24,201.74849
1,Benevides/PA,-1.3555577,-48.252235,7031,10853.65854
D1,Benevides/PA,-1.3555577,-48.252235,117,180.61130
1,Benjamin Constant do Sul/RS,-27.5105555,-52.6007689,208,10810.81081
D1,Benjamin Constant do Sul/RS,-27.5105555,-52.6007689,3,155.92516
1,Benjamin Constant/AM,-4.3782748,-70.0290603,4124,9190.38174
D1,Benjamin Constant/AM,-4.3782748,-70.0290603,89,198.33753
1,Bento Fernandes/RN,-5.6926846,-35.8207423,311,5601.58501
D1,Bento Fernandes/RN,-5.6926846,-35.8207423,4,72.04611
1,Bento Gonçalves/RS,-29.1654014,-51.5197627,39087,31754.81355
D1,Bento Gonçalves/RS,-29.1654014,-51.5197627,483,392.39581
1,Bento de Abreu/SP,-21.2707225,-50.8120444,665,21961.69089
D1,Bento de Abreu/SP,-21.2707225,-50.8120444,6,198.15059
1,Bequimão/MA,-2.4495376,-44.7884889,1016,4766.14908
D1,Bequimão/MA,-2.4495376,-44.7884889,28,131.35057
1,Berilo/MG,-16.9515764,-42.4643732,539,4562.76983
D1,Berilo/MG,-16.9515764,-42.4643732,3,25.39575
1,Berizal/MG,-15.6118785,-41.7417382,419,8743.73957
D1,Berizal/MG,-15.6118785,-41.7417382,3,62.60434
1,Bernardino Batista/PB,-6.4532173,-38.5495418,470,13161.57939
D1,Bernardino Batista/PB,-6.4532173,-38.5495418,3,84.01008
1,Bernardino de Campos/SP,-23.0140216,-49.4760724,2056,18409.74212
D1,Bernardino de Campos/SP,-23.0140216,-49.4760724,41,367.12034
1,Bernardo Sayão/TO,-7.8794244,-48.8968905,1189,26785.31201
D1,Bernardo Sayão/TO,-7.8794244,-48.8968905,13,292.85875
1,Bernardo do Mearim/MA,-4.6315929,-44.7617508,601,9849.22976
D1,Bernardo do Mearim/MA,-4.6315929,-44.7617508,7,114.71649
1,Bertioga/SP,-23.848568,-46.139586,10645,16091.24165
D1,Bertioga/SP,-23.848568,-46.139586,197,297.79001
1,Bertolínia/PI,-7.6372159,-43.9540611,1281,23240.20319
D1,Bertolínia/PI,-7.6372159,-43.9540611,12,217.70682
1,Bertópolis/MG,-17.063333,-40.573889,813,17639.40117
D1,Bertópolis/MG,-17.063333,-40.573889,6,130.18008
1,Beruri/AM,-3.9007135,-61.3717319,2982,14544.21304
D1,Beruri/AM,-3.9007135,-61.3717319,35,170.70673
1,Betim/MG,-19.968056,-44.198333,52394,11642.49018
D1,Betim/MG,-19.968056,-44.198333,1464,325.31598
1,Betânia do Piauí/PI,-8.1460635,-40.7961387,184,2961.05568
D1,Betânia do Piauí/PI,-8.1460635,-40.7961387,4,64.37078
1,Betânia/PE,-8.2742779,-38.0351767,987,7704.31660
D1,Betânia/PE,-8.2742779,-38.0351767,19,148.31005
1,Bezerros/PE,-8.2372132,-35.7558262,9352,15341.20735
D1,Bezerros/PE,-8.2372132,-35.7558262,131,214.89501
1,Bias Fortes/MG,-21.605833,-43.756944,562,17123.70506
D1,Bias Fortes/MG,-21.605833,-43.756944,4,121.87690
1,Bicas/MG,-21.7213723,-43.0604327,4044,27675.88284
D1,Bicas/MG,-21.7213723,-43.0604327,55,376.40296
1,Biguaçu/SC,-27.4961277,-48.6542432,17372,24651.27499
D1,Biguaçu/SC,-27.4961277,-48.6542432,189,268.19543
1,Bilac/SP,-21.403962,-50.47464,969,11821.39807
D1,Bilac/SP,-21.403962,-50.47464,25,304.98963
1,Biquinhas/MG,-18.783611,-45.502222,425,17123.28767
D1,Biquinhas/MG,-18.783611,-45.502222,4,161.16035
1,Birigui/SP,-21.2908491,-50.34144,30065,23843.32324
D1,Birigui/SP,-21.2908491,-50.34144,648,513.90233
1,Biritiba Mirim/SP,-23.5697765,-46.0407456,1586,4767.77394
D1,Biritiba Mirim/SP,-23.5697765,-46.0407456,120,360.73952
1,Biritinga/BA,-11.6227908,-38.8066738,1130,7067.35881
D1,Biritinga/BA,-11.6227908,-38.8066738,13,81.30590
1,Bituruna/PR,-26.161281,-51.5533319,2643,16105.05149
D1,Bituruna/PR,-26.161281,-51.5533319,38,231.55201
1,Blumenau/SC,-26.9195567,-49.0658025,103546,28258.98291
D1,Blumenau/SC,-26.9195567,-49.0658025,811,221.33192
1,Boa Esperança do Iguaçu/PR,-25.6362851,-53.2139114,512,21009.43783
D1,Boa Esperança do Iguaçu/PR,-25.6362851,-53.2139114,2,82.06812
1,Boa Esperança do Sul/SP,-21.9930206,-48.3917372,2698,17854.54305
D1,Boa Esperança do Sul/SP,-21.9930206,-48.3917372,26,172.06009
1,Boa Esperança/ES,-18.5395472,-40.2904088,4964,32774.32986
D1,Boa Esperança/ES,-18.5395472,-40.2904088,56,369.73458
1,Boa Esperança/MG,-21.0901253,-45.5660195,8705,21596.20919
D1,Boa Esperança/MG,-21.0901253,-45.5660195,153,379.57726
1,Boa Esperança/PR,-24.2411024,-52.7860277,1448,36281.63368
D1,Boa Esperança/PR,-24.2411024,-52.7860277,20,501.12754
1,Boa Hora/PI,-4.4094627,-42.1255341,608,8878.50467
D1,Boa Hora/PI,-4.4094627,-42.1255341,7,102.21963
1,Boa Nova/BA,-14.365907,-40.2063056,1338,11113.87989
D1,Boa Nova/BA,-14.365907,-40.2063056,23,191.04577
1,Boa Ventura de São Roque/PR,-24.88177,-51.5441292,1141,17988.33360
D1,Boa Ventura de São Roque/PR,-24.88177,-51.5441292,11,173.41952
1,Boa Ventura/PB,-7.4202462,-38.2156782,1038,19778.96341
D1,Boa Ventura/PB,-7.4202462,-38.2156782,12,228.65854
1,Boa Viagem/CE,-5.1261877,-39.7300055,6148,11243.59912
D1,Boa Viagem/CE,-5.1261877,-39.7300055,124,226.77396
1,Boa Vista da Aparecida/PR,-25.4357216,-53.4067721,1827,24282.29665
D1,Boa Vista da Aparecida/PR,-25.4357216,-53.4067721,39,518.34131
1,Boa Vista das Missões/RS,-27.6677983,-53.3127622,658,31528.50982
D1,Boa Vista das Missões/RS,-27.6677983,-53.3127622,7,335.40968
1,Boa Vista do Buricá/RS,-27.6687782,-54.1111913,1710,25476.75805
D1,Boa Vista do Buricá/RS,-27.6687782,-54.1111913,13,193.68296
1,Boa Vista do Cadeado/RS,-28.5783827,-53.8123759,467,18937.55069
D1,Boa Vista do Cadeado/RS,-28.5783827,-53.8123759,5,202.75750
1,Boa Vista do Gurupi/MA,-1.7981168,-46.3071882,16,188.36826
D1,Boa Vista do Gurupi/MA,-1.7981168,-46.3071882,5,58.86508
1,Boa Vista do Incra/RS,-28.8195551,-53.3866624,854,32496.19482
D1,Boa Vista do Incra/RS,-28.8195551,-53.3866624,5,190.25875
1,Boa Vista do Ramos/AM,-2.9716927,-57.5869819,1834,9151.69661
D1,Boa Vista do Ramos/AM,-2.9716927,-57.5869819,14,69.86028
1,Boa Vista do Sul/RS,-29.3510488,-51.6779679,652,23512.44140
D1,Boa Vista do Sul/RS,-29.3510488,-51.6779679,5,180.31013
1,Boa Vista do Tupim/BA,-12.6605988,-40.6083594,314,1698.12341
D1,Boa Vista do Tupim/BA,-12.6605988,-40.6083594,14,75.71251
1,Boa Vista/PB,-7.2620711,-36.2415161,1546,21418.67553
D1,Boa Vista/PB,-7.2620711,-36.2415161,17,235.52231
1,Boa Vista/RR,2.8208478,-60.6719582,133104,30487.11494
D1,Boa Vista/RR,2.8208478,-60.6719582,1633,374.03428
1,Boca da Mata/AL,-9.6452054,-36.2116658,2793,10182.65340
D1,Boca da Mata/AL,-9.6452054,-36.2116658,51,185.93459
1,Boca do Acre/AM,-8.7553487,-67.3930873,4793,13710.73860
D1,Boca do Acre/AM,-8.7553487,-67.3930873,32,91.53842
1,Bocaina de Minas/MG,-22.167778,-44.394722,807,15860.84906
D1,Bocaina de Minas/MG,-22.167778,-44.394722,7,137.57862
1,Bocaina do Sul/SC,-27.745494,-49.942279,865,24707.22651
D1,Bocaina do Sul/SC,-27.745494,-49.942279,5,142.81634
1,Bocaina/PI,-6.9445939,-41.3224599,452,10024.39565
D1,Bocaina/PI,-6.9445939,-41.3224599,11,243.95653
1,Bocaina/SP,-22.1421831,-48.522276,2463,19592.71339
D1,Bocaina/SP,-22.1421831,-48.522276,39,310.23785
1,Bocaiúva do Sul/PR,-25.206591,-49.114131,3336,25067.62849
D1,Bocaiúva do Sul/PR,-25.206591,-49.114131,31,232.94259
1,Bocaiúva/MG,-17.1160208,-43.8122678,4913,9724.66895
D1,Bocaiúva/MG,-17.1160208,-43.8122678,80,158.34999
1,Bodocó/PE,-7.777592,-39.933797,3114,8066.31265
D1,Bodocó/PE,-7.777592,-39.933797,45,116.56521
1,Bodoquena/MS,-20.5508775,-56.6769653,705,9036.14458
D1,Bodoquena/MS,-20.5508775,-56.6769653,24,307.61343
1,Bodó/RN,-5.9866104,-36.4134824,561,25840.62644
D1,Bodó/RN,-5.9866104,-36.4134824,2,92.12345
1,Bofete/SP,-23.1019554,-48.2610535,2263,18691.66598
D1,Bofete/SP,-23.1019554,-48.2610535,29,239.53085
1,Boituva/SP,-23.2838893,-47.6738231,7034,11110.40910
D1,Boituva/SP,-23.2838893,-47.6738231,212,334.86021
1,Bom Conselho/PE,-9.169191,-36.685683,3854,7869.32108
D1,Bom Conselho/PE,-9.169191,-36.685683,92,187.85094
1,Bom Despacho/MG,-19.7375242,-45.2517288,12353,24016.25321
D1,Bom Despacho/MG,-19.7375242,-45.2517288,135,262.46209
1,Bom Jardim da Serra/SC,-28.3380324,-49.625588,1100,22911.89336
D1,Bom Jardim da Serra/SC,-28.3380324,-49.625588,8,166.63195
1,Bom Jardim de Goiás/GO,-16.2062659,-52.172793,2476,27782.76481
D1,Bom Jardim de Goiás/GO,-16.2062659,-52.172793,32,359.06643
1,Bom Jardim de Minas/MG,-21.9476466,-44.1906033,1499,23261.94910
D1,Bom Jardim de Minas/MG,-21.9476466,-44.1906033,8,124.14649
1,Bom Jardim/MA,-3.54129,-45.606004,2155,5129.73102
D1,Bom Jardim/MA,-3.54129,-45.606004,58,138.06237
1,Bom Jardim/PE,-7.7961572,-35.5871696,2855,7130.72581
D1,Bom Jardim/PE,-7.7961572,-35.5871696,74,184.82442
1,Bom Jardim/RJ,-22.1515328,-42.4186683,4805,17297.23892
D1,Bom Jardim/RJ,-22.1515328,-42.4186683,61,219.59034
1,Bom Jesus da Lapa/BA,-13.250571,-43.410754,8516,12139.52759
D1,Bom Jesus da Lapa/BA,-13.250571,-43.410754,110,156.80461
1,Bom Jesus da Penha/MG,-21.0165299,-46.5226644,1296,30351.28806
D1,Bom Jesus da Penha/MG,-21.0165299,-46.5226644,21,491.80328
1,Bom Jesus da Serra/BA,-14.3724084,-40.5047119,661,6766.99427
D1,Bom Jesus da Serra/BA,-14.3724084,-40.5047119,13,133.08763
1,Bom Jesus das Selvas/MA,-4.4878075,-46.8526639,4500,12822.33936
D1,Bom Jesus das Selvas/MA,-4.4878075,-46.8526639,44,125.37398
1,Bom Jesus de Goiás/GO,-18.2174587,-49.739721,5946,22808.69999
D1,Bom Jesus de Goiás/GO,-18.2174587,-49.739721,125,479.49672
1,Bom Jesus do Amparo/MG,-19.7045132,-43.4752911,640,10352.63669
D1,Bom Jesus do Amparo/MG,-19.7045132,-43.4752911,9,145.58395
1,Bom Jesus do Araguaia/MT,-12.1725897,-51.5074425,1139,16676.42753
D1,Bom Jesus do Araguaia/MT,-12.1725897,-51.5074425,17,248.90190
1,Bom Jesus do Galho/MG,-19.8283191,-42.3162256,1026,6936.18172
D1,Bom Jesus do Galho/MG,-19.8283191,-42.3162256,42,283.93726
1,Bom Jesus do Itabapoana/RJ,-21.1341025,-41.680095,8339,22352.97271
D1,Bom Jesus do Itabapoana/RJ,-21.1341025,-41.680095,126,337.74728
1,Bom Jesus do Norte/ES,-21.1254776,-41.6711646,2682,26852.22267
D1,Bom Jesus do Norte/ES,-21.1254776,-41.6711646,33,330.39648
1,Bom Jesus do Oeste/SC,-26.6929713,-53.0967453,385,18024.34457
D1,Bom Jesus do Oeste/SC,-26.6929713,-53.0967453,6,280.89888
1,Bom Jesus do Sul/PR,-26.1922507,-53.6002033,1347,38796.08295
D1,Bom Jesus do Sul/PR,-26.1922507,-53.6002033,11,316.82028
1,Bom Jesus do Tocantins/PA,-5.0471796,-48.5978362,1373,7957.57506
D1,Bom Jesus do Tocantins/PA,-5.0471796,-48.5978362,29,168.07697
1,Bom Jesus do Tocantins/TO,-8.96306,-48.165043,201,3925.78125
D1,Bom Jesus do Tocantins/TO,-8.96306,-48.165043,3,58.59375
1,Bom Jesus dos Perdões/SP,-23.1353864,-46.4648052,2533,9556.32687
D1,Bom Jesus dos Perdões/SP,-23.1353864,-46.4648052,36,135.81831
1,Bom Jesus/PB,-6.8156725,-38.6551841,473,18276.66151
D1,Bom Jesus/PB,-6.8156725,-38.6551841,4,154.55951
1,Bom Jesus/PI,-9.0711644,-44.3583926,3880,15165.72858
D1,Bom Jesus/PI,-9.0711644,-44.3583926,55,214.97811
1,Bom Jesus/RN,-5.9887544,-35.5821149,1477,14307.85624
D1,Bom Jesus/RN,-5.9887544,-35.5821149,20,193.74213
1,Bom Jesus/RS,-28.6692723,-50.4346894,1947,17275.95386
D1,Bom Jesus/RS,-28.6692723,-50.4346894,28,248.44720
1,Bom Jesus/SC,-26.7350604,-52.3916519,783,25225.51546
D1,Bom Jesus/SC,-26.7350604,-52.3916519,12,386.59794
1,Bom Lugar/MA,-4.3728019,-45.0366054,656,3957.05151
D1,Bom Lugar/MA,-4.3728019,-45.0366054,7,42.22464
1,Bom Princípio do Piauí/PI,-3.1912777,-41.6430185,300,5291.00529
D1,Bom Princípio do Piauí/PI,-3.1912777,-41.6430185,13,229.27690
1,Bom Princípio/RS,-29.489788,-51.3566782,3715,25716.46130
D1,Bom Princípio/RS,-29.489788,-51.3566782,36,249.20393
1,Bom Progresso/RS,-27.5490948,-53.8655601,311,16738.42842
D1,Bom Progresso/RS,-27.5490948,-53.8655601,3,161.46394
1,Bom Repouso/MG,-22.4657069,-46.1485376,2614,24831.38596
D1,Bom Repouso/MG,-22.4657069,-46.1485376,35,332.47839
1,Bom Retiro do Sul/RS,-29.6000007,-51.9359243,2230,17914.52442
D1,Bom Retiro do Sul/RS,-29.6000007,-51.9359243,42,337.40360
1,Bom Retiro/SC,-27.798993,-49.486994,1309,12892.74106
D1,Bom Retiro/SC,-27.798993,-49.486994,23,226.53403
1,Bom Sucesso de Itararé/SP,-24.3190016,-49.1446207,635,15823.57339
D1,Bom Sucesso de Itararé/SP,-24.3190016,-49.1446207,7,174.43309
1,Bom Sucesso do Sul/PR,-26.0749256,-52.8348629,1099,33877.92848
D1,Bom Sucesso do Sul/PR,-26.0749256,-52.8348629,10,308.26141
1,Bom Sucesso/MG,-21.0323516,-44.7598082,2307,13099.02339
D1,Bom Sucesso/MG,-21.0323516,-44.7598082,35,198.72814
1,Bom Sucesso/PB,-6.4458948,-37.9297662,823,16670.04254
D1,Bom Sucesso/PB,-6.4458948,-37.9297662,5,101.27608
1,Bom Sucesso/PR,-23.7088019,-51.7651297,2573,36224.13065
D1,Bom Sucesso/PR,-23.7088019,-51.7651297,22,309.72828
1,Bombinhas/SC,-27.1519159,-48.4875691,4840,23170.08952
D1,Bombinhas/SC,-27.1519159,-48.4875691,76,363.82785
1,Bonfim do Piauí/PI,-9.1648678,-42.8734415,519,9105.26316
D1,Bonfim do Piauí/PI,-9.1648678,-42.8734415,9,157.89474
1,Bonfim/MG,-20.3266626, -44.2386157,1004,14652.65616
D1,Bonfim/MG,-20.3266626, -44.2386157,21,306.47986
1,Bonfim/RR,3.3613818,-59.8427241,3167,24935.04448
D1,Bonfim/RR,3.3613818,-59.8427241,37,291.31564
1,Bonfinópolis de Minas/MG,-16.5660011,-45.98645,960,17787.65981
D1,Bonfinópolis de Minas/MG,-16.5660011,-45.98645,14,259.40337
1,Bonfinópolis/GO,-16.6172709,-48.9615701,663,6551.38340
D1,Bonfinópolis/GO,-16.6172709,-48.9615701,37,365.61265
1,Boninal/BA,-12.7095183,-41.8299984,1210,8334.48133
D1,Boninal/BA,-12.7095183,-41.8299984,11,75.76801
1,Bonito de Minas/MG,-15.3191266,-44.7544,379,3295.07912
D1,Bonito de Minas/MG,-15.3191266,-44.7544,5,43.47070
1,Bonito de Santa Fé/PB,-7.3143332,-38.5146677,887,7314.86063
D1,Bonito de Santa Fé/PB,-7.3143332,-38.5146677,14,115.45440
1,Bonito/BA,-11.9665473,-41.2649896,1578,9282.89899
D1,Bonito/BA,-11.9665473,-41.2649896,16,94.12318
1,Bonito/MS,-21.1264766,-56.4902208,5391,24065.88992
D1,Bonito/MS,-21.1264766,-56.4902208,83,370.51917
1,Bonito/PA,-1.3605722,-47.3049907,536,3196.37426
D1,Bonito/PA,-1.3605722,-47.3049907,18,107.34093
1,Bonito/PE,-8.4721161,-35.7314591,2864,7516.86307
D1,Bonito/PE,-8.4721161,-35.7314591,48,125.98095
1,Bonópolis/GO,-13.649331,-49.8329113,882,19261.84756
D1,Bonópolis/GO,-13.649331,-49.8329113,5,109.19415
1,Boqueirão do Leão/RS,-29.30332,-52.4296817,767,9972.69536
D1,Boqueirão do Leão/RS,-29.30332,-52.4296817,35,455.07736
1,Boqueirão do Piauí/PI,-4.4850148,-42.1095161,892,13844.48238
D1,Boqueirão do Piauí/PI,-4.4850148,-42.1095161,14,217.29008
1,Boqueirão/PB,-7.487004,-36.130887,2477,13811.75421
D1,Boqueirão/PB,-7.487004,-36.130887,51,284.37605
1,Boquim/SE,-11.1450175,-37.6204228,3871,14347.66494
D1,Boquim/SE,-11.1450175,-37.6204228,78,289.10304
1,Boquira/BA,-12.8184859,-42.7270883,1097,5105.65019
D1,Boquira/BA,-12.8184859,-42.7270883,27,125.66322
1,Boracéia/SP,-22.195355,-48.7801925,1058,21534.70385
D1,Boracéia/SP,-22.195355,-48.7801925,26,529.20822
1,Borba/AM,-4.3934778,-59.5947721,3811,9003.49650
D1,Borba/AM,-4.3934778,-59.5947721,71,167.73767
1,Borborema/PB,-6.8066718,-35.5990191,478,9000.18829
D1,Borborema/PB,-6.8066718,-35.5990191,14,263.60384
1,Borborema/SP,-21.6212706,-49.074135,4186,25715.68989
D1,Borborema/SP,-21.6212706,-49.074135,58,356.30913
1,Borda da Mata/MG,-22.274167,-46.165278,5672,28633.44944
D1,Borda da Mata/MG,-22.274167,-46.165278,66,333.18189
1,Borebi/SP,-22.5700178,-48.9714871,305,11242.16734
D1,Borebi/SP,-22.5700178,-48.9714871,4,147.43826
1,Borrazópolis/PR,-23.9393362,-51.5850786,1969,31303.65660
D1,Borrazópolis/PR,-23.9393362,-51.5850786,38,604.13355
1,Borá/SP,-22.2701088,-50.544407,203,24195.47080
D1,Borá/SP,-22.2701088,-50.544407,1,119.18951
1,Bossoroca/RS,-28.7278885,-54.9120278,890,14506.92747
D1,Bossoroca/RS,-28.7278885,-54.9120278,22,358.59821
1,Botelhos/MG,-21.65,-46.394722,3685,24686.80914
D1,Botelhos/MG,-21.65,-46.394722,37,247.87298
1,Botucatu/SP,-22.8879628,-48.4410712,49594,33124.94156
D1,Botucatu/SP,-22.8879628,-48.4410712,390,260.48972
1,Botumirim/MG,-16.862778,-43.011111,1015,16216.64803
D1,Botumirim/MG,-16.862778,-43.011111,5,79.88497
1,Botuporã/BA,-13.3744752,-42.5198469,1057,10517.41294
D1,Botuporã/BA,-13.3744752,-42.5198469,8,79.60199
1,Botuverá/SC,-27.200749,-49.068892,1763,32672.34989
D1,Botuverá/SC,-27.200749,-49.068892,12,222.38695
1,Bozano/RS,-28.3669953,-53.7705165,647,30824.20200
D1,Bozano/RS,-28.3669953,-53.7705165,9,428.77561
1,Braga/RS,-27.617348,-53.740514,710,21705.90034
D1,Braga/RS,-27.617348,-53.740514,12,366.86029
1,Braganey/PR,-24.8179919,-53.118506,1358,25440.23979
D1,Braganey/PR,-24.8179919,-53.118506,15,281.00412
1,Bragança Paulista/SP,-22.9520235,-46.5418586,42959,24926.02091
D1,Bragança Paulista/SP,-22.9520235,-46.5418586,639,370.76579
1,Bragança/PA,-1.0573967,-46.7635406,7796,5991.30047
D1,Bragança/PA,-1.0573967,-46.7635406,201,154.47042
1,Branquinha/AL,-9.2478057,-36.0152009,1152,11049.29983
D1,Branquinha/AL,-9.2478057,-36.0152009,17,163.05390
1,Brasil Novo/PA,-3.3055853,-52.539198,4896,32896.59343
D1,Brasil Novo/PA,-3.3055853,-52.539198,49,329.23470
1,Brasileira/PI,-4.131182,-41.7824969,1038,12410.32999
D1,Brasileira/PI,-4.131182,-41.7824969,21,251.07604
1,Brasilândia de Minas/MG,-17.0096469,-46.0087183,3443,20312.68437
D1,Brasilândia de Minas/MG,-17.0096469,-46.0087183,31,182.89086
1,Brasilândia do Sul/PR,-24.1975793,-53.527551,930,36890.12297
D1,Brasilândia do Sul/PR,-24.1975793,-53.527551,14,555.33518
1,Brasilândia do Tocantins/TO,-8.3886619,-48.4842729,308,13867.62719
D1,Brasilândia do Tocantins/TO,-8.3886619,-48.4842729,6,270.14858
1,Brasilândia/MS,-21.255575,-52.0365617,2269,19171.94761
D1,Brasilândia/MS,-21.255575,-52.0365617,27,228.13688
1,Brasiléia/AC,-11.0010413,-68.7487894,3956,14585.40722
D1,Brasiléia/AC,-11.0010413,-68.7487894,51,188.03230
1,Brasnorte/MT,-12.1227151,-58.0050109,3802,18482.32949
D1,Brasnorte/MT,-12.1227151,-58.0050109,45,218.75456
1,Brasília de Minas/MG,-16.2075114,-44.430559,2182,6722.11953
D1,Brasília de Minas/MG,-16.2075114,-44.430559,18,55.45287
1,Brasília/DF,-15.7934036,-47.8823172,838501,27098.02623
D1,Brasília/DF,-15.7934036,-47.8823172,11825,382.15120
1,Brazabrantes/GO,-16.4291635,-49.3858216,931,24422.87513
D1,Brazabrantes/GO,-16.4291635,-49.3858216,8,209.86359
1,Brazópolis/MG,-22.4742842,-45.6165577,1971,13721.80451
D1,Brazópolis/MG,-22.4742842,-45.6165577,40,278.47396
1,Braço do Norte/SC,-28.2728633,-49.1622712,12892,37592.58179
D1,Braço do Norte/SC,-28.2728633,-49.1622712,119,346.99948
1,Braço do Trombudo/SC,-27.358578,-49.882145,1249,32920.40063
D1,Braço do Trombudo/SC,-27.358578,-49.882145,8,210.85925
1,Braúna/SP,-21.5015319,-50.3175246,635,10957.72217
D1,Braúna/SP,-21.5015319,-50.3175246,26,448.66264
1,Braúnas/MG,-19.055556,-42.716111,488,10301.87883
D1,Braúnas/MG,-19.055556,-42.716111,12,253.32489
1,Brejetuba/ES,-20.1465817,-41.2902303,3141,25228.91566
D1,Brejetuba/ES,-20.1465817,-41.2902303,21,168.67470
1,Brejinho de Nazaré/TO,-11.0205883,-48.5722906,1403,25324.90975
D1,Brejinho de Nazaré/TO,-11.0205883,-48.5722906,20,361.01083
1,Brejinho/PE,-7.3482153,-37.28538,1143,15262.38483
D1,Brejinho/PE,-7.3482153,-37.28538,22,293.76419
1,Brejinho/RN,-6.1957907,-35.3583019,1927,14969.31562
D1,Brejinho/RN,-6.1957907,-35.3583019,20,155.36394
1,Brejo Alegre/SP,-21.1671191,-50.1850393,838,28787.35830
D1,Brejo Alegre/SP,-21.1671191,-50.1850393,14,480.93439
1,Brejo Grande do Araguaia/PA,-5.7011449,-48.4037308,1277,17357.61859
D1,Brejo Grande do Araguaia/PA,-5.7011449,-48.4037308,6,81.55498
1,Brejo Grande/SE,-10.4287358,-36.4667918,621,7396.37923
D1,Brejo Grande/SE,-10.4287358,-36.4667918,13,154.83564
1,Brejo Santo/CE,-7.4909841,-38.9859152,11624,23157.68503
D1,Brejo Santo/CE,-7.4909841,-38.9859152,159,316.76462
1,Brejo da Madre de Deus/PE,-8.1409718,-36.3712527,4232,8186.32002
D1,Brejo da Madre de Deus/PE,-8.1409718,-36.3712527,63,121.86630
1,Brejo de Areia/MA,-4.3316785,-45.5833334,475,5372.69540
D1,Brejo de Areia/MA,-4.3316785,-45.5833334,11,124.42031
1,Brejo do Cruz/PB,-6.32926065,-37.48746163303929,2092,14642.68216
D1,Brejo do Cruz/PB,-6.32926065,-37.48746163303929,25,174.98425
1,Brejo do Piauí/PI,-8.207583,-42.8359849,162,4236.40167
D1,Brejo do Piauí/PI,-8.207583,-42.8359849,5,130.75314
1,Brejo dos Santos/PB,-6.3769367,-37.8243125,1561,24093.22426
D1,Brejo dos Santos/PB,-6.3769367,-37.8243125,8,123.47585
1,Brejo/MA,-3.6804397,-42.7529313,1087,2945.79946
D1,Brejo/MA,-3.6804397,-42.7529313,20,54.20054
1,Brejolândia/BA,-12.4843845,-43.9611861,405,3793.91101
D1,Brejolândia/BA,-12.4843845,-43.9611861,13,121.77986
1,Brejão/PE,-9.029146,-36.566034,670,7460.19374
D1,Brejão/PE,-9.029146,-36.566034,9,100.21156
1,Brejões/BA,-13.1033754,-39.7909837,1421,10038.85553
D1,Brejões/BA,-13.1033754,-39.7909837,19,134.22819
1,Breu Branco/PA,-3.7785073,-49.5684795,1665,2427.21985
D1,Breu Branco/PA,-3.7785073,-49.5684795,74,107.87644
1,Breves/PA,-1.68036,-50.479085,6206,5951.28500
D1,Breves/PA,-1.68036,-50.479085,127,121.78750
1,Britânia/GO,-15.2427599,-51.1602061,1363,23439.38091
D1,Britânia/GO,-15.2427599,-51.1602061,10,171.96905
1,Brochier/RS,-29.556766,-51.5963047,1232,24006.23539
D1,Brochier/RS,-29.556766,-51.5963047,8,155.88465
1,Brodowski/SP,-20.984532,-47.657217,4506,17598.12537
D1,Brodowski/SP,-20.984532,-47.657217,86,335.87190
1,Brotas de Macaúbas/BA,-12.0019007,-42.6257506,681,6361.51331
D1,Brotas de Macaúbas/BA,-12.0019007,-42.6257506,9,84.07286
1,Brotas/SP,-22.2840884,-48.1267265,7256,29185.10176
D1,Brotas/SP,-22.2840884,-48.1267265,76,305.68739
1,Brumadinho/MG,-20.143611,-44.2,8020,19462.24034
D1,Brumadinho/MG,-20.143611,-44.2,111,269.36517
1,Brumado/BA,-14.29507325,-41.659307508575985,11710,17356.37636
D1,Brumado/BA,-14.29507325,-41.659307508575985,211,312.74085
1,Brunópolis/SC,-27.310953,-50.837585,721,31104.40035
D1,Brunópolis/SC,-27.310953,-50.837585,9,388.26575
1,Brusque/SC,-27.0964628,-48.9136323,44341,31537.65728
D1,Brusque/SC,-27.0964628,-48.9136323,362,257.47349
1,Brás Pires/MG,-20.8483109,-43.2430524,727,17085.78143
D1,Brás Pires/MG,-20.8483109,-43.2430524,11,258.51939
1,Bueno Brandão/MG,-22.441976,-46.3517971,2286,20815.88053
D1,Bueno Brandão/MG,-22.441976,-46.3517971,40,364.23238
1,Buenos Aires/PE,-7.7218931,-35.326587,736,5565.63823
D1,Buenos Aires/PE,-7.7218931,-35.326587,28,211.73624
1,Buenópolis/MG,-17.8756607,-44.1749365,1112,10752.27229
D1,Buenópolis/MG,-17.8756607,-44.1749365,20,193.38619
1,Buerarema/BA,-14.9571177,-39.3008035,1600,8758.00536
D1,Buerarema/BA,-14.9571177,-39.3008035,52,284.63517
1,Bugre/MG,-19.4257687,-42.2556,380,9538.15261
D1,Bugre/MG,-19.4257687,-42.2556,14,351.40562
1,Bujari/AC,-9.8309656,-67.9520886,1636,15474.83920
D1,Bujari/AC,-9.8309656,-67.9520886,18,170.26107
1,Bujaru/PA,-1.5169239,-48.0410699,2037,6854.66231
D1,Bujaru/PA,-1.5169239,-48.0410699,43,144.69832
1,Buri/SP,-23.79849,-48.598924,4136,20628.42893
D1,Buri/SP,-23.79849,-48.598924,106,528.67830
1,Buritama/SP,-21.0664017,-50.1448077,5633,32347.53646
D1,Buritama/SP,-21.0664017,-50.1448077,89,511.08304
1,Buriti Alegre/GO,-18.1377879,-49.0404411,1837,19306.35838
D1,Buriti Alegre/GO,-18.1377879,-49.0404411,40,420.38886
1,Buriti Bravo/MA,-5.8391884,-43.8367876,2359,9832.03434
D1,Buriti Bravo/MA,-5.8391884,-43.8367876,21,87.52553
1,Buriti de Goiás/GO,-16.180644,-50.4287479,771,31290.58442
D1,Buriti de Goiás/GO,-16.180644,-50.4287479,9,365.25974
1,Buriti do Tocantins/TO,-5.3187439,-48.2256609,1758,15097.90450
D1,Buriti do Tocantins/TO,-5.3187439,-48.2256609,27,231.87908
1,Buriti dos Lopes/PI,-3.1776723,-41.8707444,1743,8788.82614
D1,Buriti dos Lopes/PI,-3.1776723,-41.8707444,38,191.60952
1,Buriti dos Montes/PI,-5.3136171,-41.0971256,724,8741.84979
D1,Buriti dos Montes/PI,-5.3136171,-41.0971256,10,120.74378
1,Buriti/MA,-3.9430944,-42.9244281,1169,4042.74450
D1,Buriti/MA,-3.9430944,-42.9244281,9,31.12464
1,Buriticupu/MA,-4.3227472,-46.4516989,4732,6429.78463
D1,Buriticupu/MA,-4.3227472,-46.4516989,83,112.77940
1,Buritinópolis/GO,-14.4589282,-46.4293104,651,19896.08802
D1,Buritinópolis/GO,-14.4589282,-46.4293104,4,122.24939
1,Buritirama/BA,-10.7148421,-43.6362327,1453,6797.97885
D1,Buritirama/BA,-10.7148421,-43.6362327,25,116.96454
1,Buritirana/MA,-5.5897455,-47.0148915,451,2909.11436
D1,Buritirana/MA,-5.5897455,-47.0148915,27,174.15984
1,Buritis/MG,-15.621389,-46.423889,5687,22586.28222
D1,Buritis/MG,-15.621389,-46.423889,58,230.35069
1,Buritis/RO,-10.2054937,-63.8281954,13146,32029.82238
D1,Buritis/RO,-10.2054937,-63.8281954,105,255.82925
1,Buritizal/SP,-20.1933264,-47.7097165,361,7939.30064
D1,Buritizal/SP,-20.1933264,-47.7097165,10,219.92523
1,Buritizeiro/MG,-17.3667765,-44.9647781,3351,11889.72467
D1,Buritizeiro/MG,-17.3667765,-44.9647781,43,152.56883
1,Butiá/RS,-30.1256795,-51.9692224,4234,20197.49082
D1,Butiá/RS,-30.1256795,-51.9692224,70,333.92167
1,Buíque/PE,-8.6239732,-37.157296,3055,5138.94496
D1,Buíque/PE,-8.6239732,-37.157296,56,94.19997
1,Bálsamo/SP,-20.7343722,-49.5807484,2921,31718.97057
D1,Bálsamo/SP,-20.7343722,-49.5807484,76,825.27962
0,CASO SEM LOCALIZAÇÃO DEFINIDA/BA,-13.415069300066518,-38.14174656569957,20682,139.05675
D0,CASO SEM LOCALIZAÇÃO DEFINIDA/BA,-13.415069300066518,-38.14174656569957,356,2.39359
0,CASO SEM LOCALIZAÇÃO DEFINIDA/CE,-3.3445126297392798,-38.624961942434304,18154,198.79375
0,CASO SEM LOCALIZAÇÃO DEFINIDA/ES,-20.30989267097039,-39.81745156645774,9271,230.69936
D0,CASO SEM LOCALIZAÇÃO DEFINIDA/ES,-20.30989267097039,-39.81745156645774,279,6.94263
0,CASO SEM LOCALIZAÇÃO DEFINIDA/MG,-19.97049116501593,-43.8852149072783,4266,20.15231
D0,CASO SEM LOCALIZAÇÃO DEFINIDA/MG,-19.97049116501593,-43.8852149072783,424,2.00295
0,CASO SEM LOCALIZAÇÃO DEFINIDA/PR,-25.69415946385943,-48.10141676336737,11768,102.92150
D0,CASO SEM LOCALIZAÇÃO DEFINIDA/PR,-25.69415946385943,-48.10141676336737,245,2.14274
0,CASO SEM LOCALIZAÇÃO DEFINIDA/RR,2.813328208465927,-60.663338675861986,3935,649.59613
D0,CASO SEM LOCALIZAÇÃO DEFINIDA/RR,2.813328208465927,-60.663338675861986,23,3.79688
0,CASO SEM LOCALIZAÇÃO DEFINIDA/SP,-24.30968974555485,-46.21366504207253,199,0.43337
1,Caapiranga/AM,-3.3188884,-61.2096404,1038,7699.15443
D1,Caapiranga/AM,-3.3188884,-61.2096404,24,178.01513
1,Caaporã/PB,-7.510234,-34.9154114,2791,12640.97106
D1,Caaporã/PB,-7.510234,-34.9154114,40,181.16763
1,Caarapó/MS,-22.6349267,-54.8240903,6565,21174.00419
D1,Caarapó/MS,-22.6349267,-54.8240903,65,209.64361
1,Caatiba/BA,-14.9782759,-40.4092325,1015,16286.90629
D1,Caatiba/BA,-14.9782759,-40.4092325,17,272.78562
1,Cabaceiras do Paraguaçu/BA,-12.5377868,-39.1901339,1593,8379.80011
D1,Cabaceiras do Paraguaçu/BA,-12.5377868,-39.1901339,8,42.08311
1,Cabaceiras/PB,-7.4899156,-36.2860501,663,11611.20841
D1,Cabaceiras/PB,-7.4899156,-36.2860501,6,105.07881
1,Cabeceira Grande/MG,-16.0297,-47.0906,975,13879.00356
D1,Cabeceira Grande/MG,-16.0297,-47.0906,9,128.11388
1,Cabeceiras do Piauí/PI,-4.4733665,-42.3098716,876,8209.16503
D1,Cabeceiras do Piauí/PI,-4.4733665,-42.3098716,18,168.68147
1,Cabeceiras/GO,-15.7995459,-46.9264991,1388,17140.03458
D1,Cabeceiras/GO,-15.7995459,-46.9264991,19,234.62583
1,Cabedelo/PB,-6.97324,-34.8351609,13862,19867.28391
D1,Cabedelo/PB,-6.97324,-34.8351609,222,318.17465
1,Cabixi/RO,-13.4956065,-60.5424442,1834,36194.98717
D1,Cabixi/RO,-13.4956065,-60.5424442,23,453.91751
1,Cabo Frio/RJ,-22.8804369,-42.0189227,29684,12681.29718
D1,Cabo Frio/RJ,-22.8804369,-42.0189227,1031,440.45336
1,Cabo Verde/MG,-21.4743338,-46.3964995,2432,17280.09095
D1,Cabo Verde/MG,-21.4743338,-46.3964995,21,149.21131
1,Cabo de Santo Agostinho/PE,-8.2838945,-35.0320984,16090,7632.97216
D1,Cabo de Santo Agostinho/PE,-8.2838945,-35.0320984,558,264.71091
1,Cabreúva/SP,-23.3075813,-47.1324417,7584,14832.77919
D1,Cabreúva/SP,-23.3075813,-47.1324417,149,291.41404
1,Cabrobó/PE,-8.5083701,-39.3106961,5259,15121.62862
D1,Cabrobó/PE,-8.5083701,-39.3106961,36,103.51372
1,Cabrália Paulista/SP,-22.4562909,-49.3385645,1060,25106.58456
D1,Cabrália Paulista/SP,-22.4562909,-49.3385645,9,213.16911
1,Cacaulândia/RO,-10.3380043,-62.9007231,2215,35119.70826
D1,Cacaulândia/RO,-10.3380043,-62.9007231,17,269.54178
1,Cacequi/RS,-29.8838059,-54.8273443,1565,12732.89399
D1,Cacequi/RS,-29.8838059,-54.8273443,18,146.44862
1,Cachoeira Alta/GO,-18.7618269,-50.9432431,3838,29883.98349
D1,Cachoeira Alta/GO,-18.7618269,-50.9432431,33,256.94931
1,Cachoeira Dourada/GO,-18.4934204,-49.481062,2149,26872.57722
D1,Cachoeira Dourada/GO,-18.4934204,-49.481062,33,412.65475
1,Cachoeira Dourada/MG,-18.517136,-49.5002062,631,23198.52941
D1,Cachoeira Dourada/MG,-18.517136,-49.5002062,2,73.52941
1,Cachoeira Grande/MA,-2.9290492,-44.0573223,490,5144.89710
D1,Cachoeira Grande/MA,-2.9290492,-44.0573223,8,83.99832
1,Cachoeira Paulista/SP,-22.666498,-45.015384,5333,15765.51276
D1,Cachoeira Paulista/SP,-22.666498,-45.015384,69,203.97907
1,Cachoeira da Prata/MG,-19.524723,-44.453056,226,6312.84916
D1,Cachoeira da Prata/MG,-19.524723,-44.453056,16,446.92737
1,Cachoeira de Goiás/GO,-16.6688414,-50.6435997,532,39820.35928
D1,Cachoeira de Goiás/GO,-16.6688414,-50.6435997,6,449.10180
1,Cachoeira de Minas/MG,-22.3554043,-45.7796324,2503,21560.85796
D1,Cachoeira de Minas/MG,-22.3554043,-45.7796324,21,180.89413
1,Cachoeira de Pajeú/MG,-15.965833,-41.496666,691,7296.72650
D1,Cachoeira de Pajeú/MG,-15.965833,-41.496666,11,116.15628
1,Cachoeira do Arari/PA,-1.0143572,-48.9621089,628,2578.52597
D1,Cachoeira do Arari/PA,-1.0143572,-48.9621089,27,110.86019
1,Cachoeira do Piriá/PA,-1.7599443,-46.5446954,1694,4797.91543
D1,Cachoeira do Piriá/PA,-1.7599443,-46.5446954,12,33.98759
1,Cachoeira do Sul/RS,-30.0474778,-52.8905413,23034,28244.55562
D1,Cachoeira do Sul/RS,-30.0474778,-52.8905413,243,297.96939
1,Cachoeira dos Índios/PB,-6.9259193,-38.6742159,1584,15283.67426
D1,Cachoeira dos Índios/PB,-6.9259193,-38.6742159,24,231.57082
1,Cachoeira/BA,-12.5998256,-38.9665918,2679,7959.23824
D1,Cachoeira/BA,-12.5998256,-38.9665918,33,98.04213
1,Cachoeiras de Macacu/RJ,-22.4626861,-42.6534414,5185,8692.08073
D1,Cachoeiras de Macacu/RJ,-22.4626861,-42.6534414,121,202.84316
1,Cachoeirinha/PE,-8.4906364,-36.2338963,1096,5315.74353
D1,Cachoeirinha/PE,-8.4906364,-36.2338963,37,179.45485
1,Cachoeirinha/RS,-29.9493353,-51.0898927,26229,19848.80131
D1,Cachoeirinha/RS,-29.9493353,-51.0898927,547,413.94237
1,Cachoeirinha/TO,-6.118647,-47.9208885,135,5887.48365
D1,Cachoeirinha/TO,-6.118647,-47.9208885,2,87.22198
1,Cachoeiro de Itapemirim/ES,-20.848084,-41.11129,55385,26103.82143
D1,Cachoeiro de Itapemirim/ES,-20.848084,-41.11129,744,350.65890
1,Cacimba de Areia/PB,-7.1288513,-37.1575194,382,10302.04962
D1,Cacimba de Areia/PB,-7.1288513,-37.1575194,5,134.84358
1,Cacimba de Dentro/PB,-6.6425101,-35.7929304,1530,8911.41010
D1,Cacimba de Dentro/PB,-6.6425101,-35.7929304,39,227.15359
1,Cacimbas/PB,-7.2125451,-37.0593398,490,6782.00692
D1,Cacimbas/PB,-7.2125451,-37.0593398,11,152.24913
1,Cacimbinhas/AL,-9.401212,-36.991082,1119,10247.25275
D1,Cacimbinhas/AL,-9.401212,-36.991082,13,119.04762
1,Cacique Doble/RS,-27.7700117,-51.6616409,1357,26696.83258
D1,Cacique Doble/RS,-27.7700117,-51.6616409,15,295.10132
1,Cacoal/RO,-11.4333,-61.4420502,30027,34747.03759
D1,Cacoal/RO,-11.4333,-61.4420502,357,413.11794
1,Caconde/SP,-21.527995,-46.643659,3318,17434.71179
D1,Caconde/SP,-21.527995,-46.643659,46,241.71089
1,Caculé/BA,-14.4990734,-42.2233006,3411,14572.56376
D1,Caculé/BA,-14.4990734,-42.2233006,32,136.71124
1,Caetanos/BA,-14.3387456,-40.9085971,823,5609.70622
D1,Caetanos/BA,-14.3387456,-40.9085971,13,88.61018
1,Caetanópolis/MG,-19.2947496,-44.4138386,1889,15915.40989
D1,Caetanópolis/MG,-19.2947496,-44.4138386,22,185.35681
1,Caetité/BA,-14.0691776,-42.4852428,5789,11310.17505
D1,Caetité/BA,-14.0691776,-42.4852428,56,109.40919
1,Caeté/MG,-19.897777,-43.670278,3406,7508.15625
D1,Caeté/MG,-19.897777,-43.670278,84,185.16886
1,Caetés/PE,-8.7728788,-36.6255835,3012,10362.97953
D1,Caetés/PE,-8.7728788,-36.6255835,29,99.77636
1,Cafarnaum/BA,-11.691399,-41.468823,1301,7000.26903
D1,Cafarnaum/BA,-11.691399,-41.468823,24,129.13640
1,Cafeara/PR,-22.78905,-51.714195,879,29566.09485
D1,Cafeara/PR,-22.78905,-51.714195,15,504.54087
1,Cafelândia/PR,-24.6176963,-53.3218057,5293,28179.73700
D1,Cafelândia/PR,-24.6176963,-53.3218057,49,260.87419
1,Cafelândia/SP,-21.8054355,-49.6030627,882,4922.69911
D1,Cafelândia/SP,-21.8054355,-49.6030627,60,334.87749
1,Cafezal do Sul/PR,-23.900508,-53.512418,1101,27698.11321
D1,Cafezal do Sul/PR,-23.900508,-53.512418,13,327.04403
1,Caiabu/SP,-22.0143038,-51.2356597,331,7890.34565
D1,Caiabu/SP,-22.0143038,-51.2356597,8,190.70322
1,Caiana/MG,-20.695555,-41.924723,296,5300.85960
D1,Caiana/MG,-20.695555,-41.924723,7,125.35817
1,Caiapônia/GO,-16.9538779,-51.8090761,4251,22021.34273
D1,Caiapônia/GO,-16.9538779,-51.8090761,47,243.47286
1,Caibaté/RS,-28.290475,-54.645407,540,11245.31445
D1,Caibaté/RS,-28.290475,-54.645407,8,166.59725
1,Caibi/SC,-27.0751925,-53.2502133,1312,21465.96859
D1,Caibi/SC,-27.0751925,-53.2502133,20,327.22513
1,Caicó/RN,-6.4594544,-37.0971911,20009,29114.16349
D1,Caicó/RN,-6.4594544,-37.0971911,189,275.00509
1,Caieiras/SP,-23.3644621,-46.7484765,12950,12446.65718
D1,Caieiras/SP,-23.3644621,-46.7484765,358,344.08519
1,Cairu/BA,-13.4860505,-39.0455744,1916,10264.65231
D1,Cairu/BA,-13.4860505,-39.0455744,19,101.78935
1,Caiuá/SP,-21.8319357,-51.9887179,513,8525.84344
D1,Caiuá/SP,-21.8319357,-51.9887179,12,199.43493
1,Caiçara do Norte/RN,-5.0645017,-36.0561226,723,11001.21729
D1,Caiçara do Norte/RN,-5.0645017,-36.0561226,14,213.02495
1,Caiçara do Rio do Vento/RN,-5.757968,-36.00089,863,23044.05874
D1,Caiçara do Rio do Vento/RN,-5.757968,-36.00089,8,213.61816
1,Caiçara/PB,-6.6146866,-35.4681434,1127,15692.00780
D1,Caiçara/PB,-6.6146866,-35.4681434,15,208.85547
1,Caiçara/RS,-27.2750478,-53.4310053,1262,27087.35780
D1,Caiçara/RS,-27.2750478,-53.4310053,12,257.56600
1,Cajamar/SP,-23.3561111,-46.8769444,5649,7147.55675
D1,Cajamar/SP,-23.3561111,-46.8769444,266,336.56401
1,Cajapió/MA,-2.8778715,-44.6746871,481,4273.65615
D1,Cajapió/MA,-2.8778715,-44.6746871,7,62.19458
1,Cajari/MA,-3.3213076,-45.0118757,511,2617.69377
D1,Cajari/MA,-3.3213076,-45.0118757,8,40.98151
1,Cajati/SP,-24.7272376,-48.1077914,6506,22875.42632
D1,Cajati/SP,-24.7272376,-48.1077914,113,397.31374
1,Cajazeiras do Piauí/PI,-6.794271,-42.3935024,88,2453.98773
D1,Cajazeiras do Piauí/PI,-6.794271,-42.3935024,2,55.77245
1,Cajazeiras/PB,-6.8897849,-38.5570389,17909,28619.59857
D1,Cajazeiras/PB,-6.8897849,-38.5570389,191,305.22884
1,Cajazeirinhas/PB,-6.961442,-37.7993733,342,10631.02269
D1,Cajazeirinhas/PB,-6.961442,-37.7993733,1,31.08486
1,Cajobi/SP,-20.8776238,-48.8106972,2315,21739.13043
D1,Cajobi/SP,-20.8776238,-48.8106972,38,356.84102
1,Cajueiro da Praia/PI,-2.931114,-41.340801,501,6503.11526
D1,Cajueiro da Praia/PI,-2.931114,-41.340801,21,272.58567
1,Cajueiro/AL,-9.399589,-36.1524309,893,4173.48226
D1,Cajueiro/AL,-9.399589,-36.1524309,34,158.90078
1,Cajuri/MG,-20.7901414,-42.7954489,734,18530.67407
D1,Cajuri/MG,-20.7901414,-42.7954489,11,277.70765
1,Cajuru/SP,-21.2759978,-47.3046035,2093,7864.57746
D1,Cajuru/SP,-21.2759978,-47.3046035,78,293.08984
1,Caldas Brandão/PB,-7.1027959,-35.3254676,1005,16537.76534
D1,Caldas Brandão/PB,-7.1027959,-35.3254676,13,213.92134
1,Caldas Novas/GO,-17.745,-48.625,22518,23657.58591
D1,Caldas Novas/GO,-17.745,-48.625,357,375.06698
1,Caldas/MG,-21.923611,-46.386111,2166,14835.61644
D1,Caldas/MG,-21.923611,-46.386111,43,294.52055
1,Caldazinha/GO,-16.7116649,-49.0012601,1343,34435.89744
D1,Caldazinha/GO,-16.7116649,-49.0012601,12,307.69231
1,Caldeirão Grande do Piauí/PI,-7.3310393,-40.6374433,551,9522.98652
D1,Caldeirão Grande do Piauí/PI,-7.3310393,-40.6374433,2,34.56619
1,Caldeirão Grande/BA,-11.0208483,-40.3041387,733,5449.00387
D1,Caldeirão Grande/BA,-11.0208483,-40.3041387,7,52.03687
1,Califórnia/PR,-23.6672543,-51.3554556,2255,26096.51661
D1,Califórnia/PR,-23.6672543,-51.3554556,42,486.05485
1,Calmon/SC,-26.6023644,-51.0992893,77,2315.78947
D1,Calmon/SC,-26.6023644,-51.0992893,7,210.52632
1,Calumbi/PE,-7.9389746,-38.1516871,1289,22440.80780
D1,Calumbi/PE,-7.9389746,-38.1516871,6,104.45682
1,Calçado/PE,-8.7413446,-36.3351787,893,8130.74752
D1,Calçado/PE,-8.7413446,-36.3351787,9,81.94482
1,Calçoene/AP,2.4981757,-50.9539503,3011,26198.55564
D1,Calçoene/AP,2.4981757,-50.9539503,15,130.51423
1,Camacan/BA,-15.4166631,-39.4930088,3722,11622.89604
D1,Camacan/BA,-15.4166631,-39.4930088,99,309.15280
1,Camacho/MG,-20.625556,-45.156667,356,12539.62663
D1,Camacho/MG,-20.625556,-45.156667,2,70.44734
1,Camalaú/PB,-7.885031,-36.824191,957,15823.41270
D1,Camalaú/PB,-7.885031,-36.824191,8,132.27513
1,Camamu/BA,-13.9438142,-39.1060917,3149,8884.43742
D1,Camamu/BA,-13.9438142,-39.1060917,64,180.56653
1,Camanducaia/MG,-22.755278,-46.144444,5349,24501.85516
D1,Camanducaia/MG,-22.755278,-46.144444,89,407.67716
1,Camapuã/MS,-19.5291747,-54.0434641,1914,13996.34369
D1,Camapuã/MS,-19.5291747,-54.0434641,38,277.87934
1,Camaquã/RS,-30.8524752,-51.8075619,13832,20741.98482
D1,Camaquã/RS,-30.8524752,-51.8075619,190,284.91737
1,Camaragibe/PE,-8.0213832,-34.9810768,12677,7925.84951
D1,Camaragibe/PE,-8.0213832,-34.9810768,474,296.35187
1,Camargo/RS,-28.5865661,-52.2031474,698,25381.81818
D1,Camargo/RS,-28.5865661,-52.2031474,8,290.90909
1,Camaçari/BA,-12.6998188,-38.3260762,33619,10872.61649
D1,Camaçari/BA,-12.6998188,-38.3260762,685,221.53372
1,Cambará do Sul/RS,-29.0489517,-50.145412,425,6658.31114
D1,Cambará do Sul/RS,-29.0489517,-50.145412,12,187.99937
1,Cambará/PR,-23.042273,-50.075281,6472,25311.90113
D1,Cambará/PR,-23.042273,-50.075281,79,308.96789
1,Cambira/PR,-23.600265,-51.581045,2665,33450.48324
D1,Cambira/PR,-23.600265,-51.581045,33,414.20861
1,Camboriú/SC,-27.0273601,-48.6535657,19673,22566.21434
D1,Camboriú/SC,-27.0273601,-48.6535657,215,246.61903
1,Cambuci/RJ,-21.5749919,-41.9107833,3353,21602.98950
D1,Cambuci/RJ,-21.5749919,-41.9107833,51,328.58708
1,Cambuquira/MG,-21.853056,-45.2953619,2039,15917.25215
D1,Cambuquira/MG,-21.853056,-45.2953619,39,304.44965
1,Cambuí/MG,-22.6122501,-46.0572137,9304,30943.19542
D1,Cambuí/MG,-22.6122501,-46.0572137,67,222.82826
1,Cambé/PR,-23.2782035,-51.2779583,23419,21658.99044
D1,Cambé/PR,-23.2782035,-51.2779583,430,397.68418
1,Cametá/PA,-2.242949,-49.497885,12171,8643.31672
D1,Cametá/PA,-2.242949,-49.497885,316,224.40950
1,Camocim de São Félix/PE,-8.3616757,-35.7638903,1126,5916.35141
D1,Camocim de São Félix/PE,-8.3616757,-35.7638903,23,120.84910
1,Camocim/CE,-2.9009918,-40.8427389,8292,12926.55931
D1,Camocim/CE,-2.9009918,-40.8427389,166,258.78061
1,Campanha/MG,-21.8361108,-45.401986,4156,24657.37170
