type,name,lat,lon,total,total_per_100k_inhabitants
1,Abadia de Goiás/GO,-16.7572644,-49.4412205,752,8394.73097
D1,Abadia de Goiás/GO,-16.7572644,-49.4412205,8,89.30565
1,Abadia dos Dourados/MG,-18.4911191,-47.4063589,109,1555.80931
D1,Abadia dos Dourados/MG,-18.4911191,-47.4063589,1,14.27348
1,Abadiânia/GO,-16.1940946,-48.7067767,190,928.59587
D1,Abadiânia/GO,-16.1940946,-48.7067767,13,63.53551
1,Abaetetuba/PA,-1.721828,-48.878843,4722,2968.31783
D1,Abaetetuba/PA,-1.721828,-48.878843,120,75.43374
1,Abaeté/MG,-19.1566833,-45.4481213,207,890.32258
D1,Abaeté/MG,-19.1566833,-45.4481213,4,17.20430
1,Abaiara/CE,-7.3607808,-39.0487878,147,1240.19236
D1,Abaiara/CE,-7.3607808,-39.0487878,4,33.74673
1,Abaré/BA,-8.7239913,-39.1139689,154,756.86833
1,Abatiá/PR,-23.3052967,-50.3102532,96,1295.89633
D1,Abatiá/PR,-23.3052967,-50.3102532,1,13.49892
1,Abaíra/BA,-13.2503296,-41.6640342,136,1561.42365
D1,Abaíra/BA,-13.2503296,-41.6640342,1,11.48106
1,Abdon Batista/SC,-27.612419,-51.022992,153,6004.70958
D1,Abdon Batista/SC,-27.612419,-51.022992,1,39.24647
1,Abel Figueiredo/PA,-4.953001,-48.3958485,435,5810.84691
D1,Abel Figueiredo/PA,-4.953001,-48.3958485,2,26.71654
1,Abelardo Luz/SC,-26.5705893,-52.3280339,604,3363.02895
D1,Abelardo Luz/SC,-26.5705893,-52.3280339,12,66.81514
1,Abre Campo/MG,-20.2976097,-42.4764741,174,1294.25766
D1,Abre Campo/MG,-20.2976097,-42.4764741,1,7.43826
1,Abreu e Lima/PE,-7.900719,-34.898389,1091,1087.23816
D1,Abreu e Lima/PE,-7.900719,-34.898389,137,136.52761
1,Abreulândia/TO,-9.6221526,-49.1558343,100,3855.05012
D1,Abreulândia/TO,-9.6221526,-49.1558343,4,154.20200
1,Acaiaca/MG,-20.3621646,-43.1444162,83,2078.11718
D1,Acaiaca/MG,-20.3621646,-43.1444162,3,75.11267
1,Acajutiba/BA,-11.6609659,-38.0186381,229,1507.86857
D1,Acajutiba/BA,-11.6609659,-38.0186381,6,39.50747
1,Acarape/CE,-4.2237866,-38.7071663,1944,12928.97047
D1,Acarape/CE,-4.2237866,-38.7071663,15,99.76057
1,Acaraú/CE,-2.8869514,-40.1194713,2758,4370.56288
D1,Acaraú/CE,-2.8869514,-40.1194713,58,91.91176
1,Acari/RN,-6.4364689,-36.6394777,244,2194.04730
D1,Acari/RN,-6.4364689,-36.6394777,7,62.94398
1,Acará/PA,-1.961388,-48.1987043,871,1564.60508
D1,Acará/PA,-1.961388,-48.1987043,16,28.74131
1,Acauã/PI,-8.219542,-41.083059,81,1140.52380
1,Aceguá/RS,-31.8695131,-54.1615593,35,708.21530
1,Acopiara/CE,-6.0936464,-39.4543204,1361,2498.11861
D1,Acopiara/CE,-6.0936464,-39.4543204,56,102.78813
1,Acorizal/MT,-15.2001544,-56.3668953,201,3768.27897
D1,Acorizal/MT,-15.2001544,-56.3668953,7,131.23360
1,Acrelândia/AC,-10.0759167,-67.0526898,547,3531.31052
D1,Acrelândia/AC,-10.0759167,-67.0526898,12,77.46934
1,Acreúna/GO,-17.3959899,-50.3749031,1046,4639.40389
D1,Acreúna/GO,-17.3959899,-50.3749031,26,115.31979
1,Adamantina/SP,-21.6866517,-51.0762975,578,1646.20774
D1,Adamantina/SP,-21.6866517,-51.0762975,15,42.72165
1,Adelândia/GO,-16.4155077,-50.1665834,89,3537.36089
D1,Adelândia/GO,-16.4155077,-50.1665834,2,79.49126
1,Adolfo/SP,-21.2356597,-49.6441918,139,3911.08610
D1,Adolfo/SP,-21.2356597,-49.6441918,5,140.68655
1,Adrianópolis/PR,-24.6557863,-48.9912769,340,5805.01963
D1,Adrianópolis/PR,-24.6557863,-48.9912769,4,68.29435
1,Adustina/BA,-10.5358875,-38.114479,136,794.11421
D1,Adustina/BA,-10.5358875,-38.114479,4,23.35630
1,Afogados da Ingazeira/PE,-7.750429,-37.6356375,1607,4296.33194
D1,Afogados da Ingazeira/PE,-7.750429,-37.6356375,24,64.16426
1,Afonso Bezerra/RN,-5.4745,-36.57625071327935,201,1822.46804
D1,Afonso Bezerra/RN,-5.4745,-36.57625071327935,11,99.73706
1,Afonso Cláudio/ES,-20.077841,-41.12606,1468,4820.22656
D1,Afonso Cláudio/ES,-20.077841,-41.12606,28,91.93893
1,Afonso Cunha/MA,-4.1326105,-43.3230026,152,2310.73275
D1,Afonso Cunha/MA,-4.1326105,-43.3230026,2,30.40438
1,Afrânio/PE,-8.5198919,-41.0070197,369,1862.69561
D1,Afrânio/PE,-8.5198919,-41.0070197,4,20.19182
1,Afuá/PA,-0.1535664,-50.3879223,2470,6242.57588
D1,Afuá/PA,-0.1535664,-50.3879223,11,27.80095
1,Agrestina/PE,-8.4558021,-35.9442663,644,2569.31977
D1,Agrestina/PE,-8.4558021,-35.9442663,33,131.65769
1,Agricolândia/PI,-5.7967843,-42.6605131,67,1305.78835
1,Agrolândia/SC,-27.4122212,-49.8295774,337,3060.01998
D1,Agrolândia/SC,-27.4122212,-49.8295774,6,54.48107
1,Agronômica/SC,-27.2660744,-49.7104753,195,3539.66237
D1,Agronômica/SC,-27.2660744,-49.7104753,6,108.91269
1,Aguanil/MG,-20.9424533,-45.3927152,118,2609.46484
D1,Aguanil/MG,-20.9424533,-45.3927152,3,66.34233
1,Aguaí/SP,-22.0592036,-46.979384,478,1304.30037
D1,Aguaí/SP,-22.0592036,-46.979384,10,27.28662
1,Agudo/RS,-29.6423259,-53.2494005,176,1073.10530
D1,Agudo/RS,-29.6423259,-53.2494005,1,6.09719
1,Agudos do Sul/PR,-25.9890808,-49.3328175,187,1974.65681
D1,Agudos do Sul/PR,-25.9890808,-49.3328175,1,10.55966
1,Agudos/SP,-22.471162,-48.987822,974,2604.20844
D1,Agudos/SP,-22.471162,-48.987822,18,48.12706
1,Aguiar/PB,-7.0928404,-38.1727215,49,870.33748
1,Aguiarnópolis/TO,-6.5600452,-47.4721189,460,6674.40511
D1,Aguiarnópolis/TO,-6.5600452,-47.4721189,9,130.58619
1,Aimorés/MG,-19.4917754,-41.0615603,661,2629.17147
D1,Aimorés/MG,-19.4917754,-41.0615603,10,39.77567
1,Aiquara/BA,-14.126918,-39.8887574,335,7586.05072
D1,Aiquara/BA,-14.126918,-39.8887574,6,135.86957
1,Aiuaba/CE,-6.5710836,-40.1212278,77,440.17607
D1,Aiuaba/CE,-6.5710836,-40.1212278,1,5.71657
1,Aiuruoca/MG,-21.9759554,-44.6036637,27,451.80723
D1,Aiuruoca/MG,-21.9759554,-44.6036637,4,66.93440
1,Ajuricaba/RS,-28.239654,-53.7693013,367,5252.61199
D1,Ajuricaba/RS,-28.239654,-53.7693013,2,28.62459
1,Alagoa Grande/PB,-7.0415212,-35.6285322,1727,6072.64672
D1,Alagoa Grande/PB,-7.0415212,-35.6285322,29,101.97264
1,Alagoa Nova/PB,-7.0653703,-35.76695977336711,446,2131.82926
D1,Alagoa Nova/PB,-7.0653703,-35.76695977336711,10,47.79886
1,Alagoa/MG,-22.1697202,-44.6400042,78,2926.82927
1,Alagoinha do Piauí/PI,-7.0090952,-40.939675,155,2022.17873
D1,Alagoinha do Piauí/PI,-7.0090952,-40.939675,5,65.23157
1,Alagoinha/PB,-6.97063215,-35.51490901897793,1111,7630.49451
D1,Alagoinha/PB,-6.97063215,-35.51490901897793,14,96.15385
1,Alagoinha/PE,-8.50355635,-36.77701174370496,271,1841.28278
D1,Alagoinha/PE,-8.50355635,-36.77701174370496,10,67.94401
1,Alagoinhas/BA,-12.133526,-38.420772,6480,4254.00618
D1,Alagoinhas/BA,-12.133526,-38.420772,97,63.67880
1,Alambari/SP,-23.550338,-47.897971,119,1941.58917
D1,Alambari/SP,-23.550338,-47.897971,4,65.26350
1,Albertina/MG,-20.66164,-43.784039,52,1727.00100
D1,Albertina/MG,-20.66164,-43.784039,5,166.05779
1,Alcantil/PB,-7.7425491,-36.0609604,90,1633.69032
1,Alcinópolis/MS,-18.3264121,-53.7094463,35,646.11409
D1,Alcinópolis/MS,-18.3264121,-53.7094463,2,36.92080
1,Alcobaça/BA,-17.5215875,-39.1965474,864,3841.70743
D1,Alcobaça/BA,-17.5215875,-39.1965474,14,62.24989
1,Alcântara/MA,-2.4038956,-44.4154241,202,913.53111
D1,Alcântara/MA,-2.4038956,-44.4154241,8,36.17945
1,Alcântaras/CE,-3.586247,-40.5457641,572,4855.27544
D1,Alcântaras/CE,-3.586247,-40.5457641,4,33.95298
1,Aldeias Altas/MA,-4.6291957,-43.4708622,947,3539.26075
D1,Aldeias Altas/MA,-4.6291957,-43.4708622,11,41.11074
1,Alecrim/RS,-27.6566142,-54.7653195,46,789.42852
D1,Alecrim/RS,-27.6566142,-54.7653195,2,34.32298
1,Alegre/ES,-20.7625787,-41.5318886,773,2578.81568
D1,Alegre/ES,-20.7625787,-41.5318886,22,73.39450
1,Alegrete do Piauí/PI,-7.2440138,-40.8602296,348,7076.04717
D1,Alegrete do Piauí/PI,-7.2440138,-40.8602296,3,61.00041
1,Alegrete/RS,-29.790166,-55.794862,1930,2642.82193
D1,Alegrete/RS,-29.790166,-55.794862,33,45.18815
1,Alegria/RS,-27.8332103,-54.0574959,141,4179.01600
1,Alenquer/PA,-1.946229,-54.738355,1590,2784.97863
D1,Alenquer/PA,-1.946229,-54.738355,30,52.54677
1,Alexandria/RN,-6.414779,-38.0135516,296,2184.01830
D1,Alexandria/RN,-6.414779,-38.0135516,6,44.27064
1,Alexânia/GO,-16.0834049,-48.5077803,1399,4994.64477
D1,Alexânia/GO,-16.0834049,-48.5077803,23,82.11353
1,Alfenas/MG,-21.4297405,-45.9479419,2392,2971.65006
D1,Alfenas/MG,-21.4297405,-45.9479419,63,78.26670
1,Alfredo Chaves/ES,-20.624970400000002,-40.75006690147988,1192,8144.30172
D1,Alfredo Chaves/ES,-20.624970400000002,-40.75006690147988,12,81.98961
1,Alfredo Marcondes/SP,-21.9527,-51.413956,100,2390.05736
D1,Alfredo Marcondes/SP,-21.9527,-51.413956,3,71.70172
1,Alfredo Vasconcelos/MG,-21.145833,-43.776389,56,802.17734
D1,Alfredo Vasconcelos/MG,-21.145833,-43.776389,1,14.32460
1,Alfredo Wagner/SC,-27.6961513,-49.3326734,397,3936.14912
D1,Alfredo Wagner/SC,-27.6961513,-49.3326734,1,9.91473
1,Algodão de Jandaíra/PB,-6.9040175,-36.0089879,31,1202.94917
1,Alhandra/PB,-7.4304246,-34.9106103,773,3918.48735
D1,Alhandra/PB,-7.4304246,-34.9106103,19,96.31470
1,Aliança do Tocantins/TO,-11.3055927,-48.9409096,195,3647.58698
D1,Aliança do Tocantins/TO,-11.3055927,-48.9409096,3,56.11672
1,Aliança/PE,-7.60398,-35.222696,404,1052.16553
D1,Aliança/PE,-7.60398,-35.222696,30,78.13110
1,Almadina/BA,-14.70466,-39.6381994,381,7100.26090
D1,Almadina/BA,-14.70466,-39.6381994,7,130.45099
1,Almas/TO,-11.5681309,-47.1702803,124,1776.75885
D1,Almas/TO,-11.5681309,-47.1702803,2,28.65740
1,Almeirim/PA,-1.5290377,-52.5788111,271,795.28114
D1,Almeirim/PA,-1.5290377,-52.5788111,18,52.82310
1,Almenara/MG,-16.1740678,-40.6904907,1327,3148.80289
D1,Almenara/MG,-16.1740678,-40.6904907,14,33.22023
1,Almino Afonso/RN,-6.1544208,-37.7649018,85,1804.67091
D1,Almino Afonso/RN,-6.1544208,-37.7649018,1,21.23142
1,Almirante Tamandaré do Sul/RS,-28.1141129,-52.9134874,54,2770.65162
1,Almirante Tamandaré/PR,-25.3133048,-49.2997838,3512,2925.66706
D1,Almirante Tamandaré/PR,-25.3133048,-49.2997838,76,63.31170
1,Aloândia/GO,-17.7277983,-49.4809338,142,7150.05035
D1,Aloândia/GO,-17.7277983,-49.4809338,5,251.76234
1,Alpercata/MG,-18.9803616,-41.9827637,275,3698.22485
D1,Alpercata/MG,-18.9803616,-41.9827637,9,121.03281
1,Alpestre/RS,-27.2512339,-53.0349646,92,1516.40020
D1,Alpestre/RS,-27.2512339,-53.0349646,2,32.96522
1,Alpinópolis/MG,-20.863611,-46.387777,149,746.56779
D1,Alpinópolis/MG,-20.863611,-46.387777,5,25.05261
1,Alta Floresta D'Oeste/RO,-11.9296917,-61.9961284,1117,4914.64273
D1,Alta Floresta D'Oeste/RO,-11.9296917,-61.9961284,14,61.59803
1,Alta Floresta/MT,-9.8715018,-56.0839881,1763,3393.05991
D1,Alta Floresta/MT,-9.8715018,-56.0839881,27,51.96405
1,Altair/SP,-20.5238955,-49.0606135,52,1242.23602
D1,Altair/SP,-20.5238955,-49.0606135,4,95.55662
1,Altamira do Maranhão/MA,-4.1643006,-45.4674574,274,3345.95189
D1,Altamira do Maranhão/MA,-4.1643006,-45.4674574,6,73.26902
1,Altamira do Paraná/PR,-24.799114,-52.7128633,25,1486.32580
D1,Altamira do Paraná/PR,-24.799114,-52.7128633,2,118.90606
1,Altamira/PA,-3.204065,-52.209961,5521,4760.75503
D1,Altamira/PA,-3.204065,-52.209961,129,111.23662
1,Altaneira/CE,-6.9980933,-39.7385742,235,3071.89542
D1,Altaneira/CE,-6.9980933,-39.7385742,6,78.43137
1,Alterosa/MG,-21.249166,-46.143055,34,234.20817
D1,Alterosa/MG,-21.249166,-46.143055,3,20.66543
1,Altinho/PE,-8.4904095,-36.0607494,591,2571.35399
D1,Altinho/PE,-8.4904095,-36.0607494,11,47.85938
1,Altinópolis/SP,-21.021364,-47.3712,253,1561.43924
D1,Altinópolis/SP,-21.021364,-47.3712,8,49.37357
1,Alto Alegre do Maranhão/MA,-4.2055693,-44.4525287,396,1421.49472
D1,Alto Alegre do Maranhão/MA,-4.2055693,-44.4525287,18,64.61340
1,Alto Alegre do Pindaré/MA,-3.6698186,-45.8462153,1575,4930.65773
D1,Alto Alegre do Pindaré/MA,-3.6698186,-45.8462153,24,75.13383
1,Alto Alegre dos Parecis/RO,-12.1314515,-61.856265,234,1765.37156
D1,Alto Alegre dos Parecis/RO,-12.1314515,-61.856265,9,67.89891
1,Alto Alegre/RR,2.98858,-61.307167,828,5383.61508
D1,Alto Alegre/RR,2.98858,-61.307167,18,117.03511
1,Alto Alegre/RS,-31.780844700000003,-52.81311114489171,18,1115.93304
1,Alto Alegre/SP,-21.5820592,-50.1661976,116,2837.57339
D1,Alto Alegre/SP,-21.5820592,-50.1661976,3,73.38552
1,Alto Araguaia/MT,-17.3156528,-53.2169365,449,2316.22388
D1,Alto Araguaia/MT,-17.3156528,-53.2169365,8,41.26902
1,Alto Bela Vista/SC,-27.4320737,-51.905771,36,1869.15888
D1,Alto Bela Vista/SC,-27.4320737,-51.905771,1,51.92108
1,Alto Boa Vista/MT,-11.6723985,-51.3744431,96,1384.08304
D1,Alto Boa Vista/MT,-11.6723985,-51.3744431,3,43.25260
1,Alto Caparaó/MG,-20.4405661,-41.8683799,176,2986.08755
D1,Alto Caparaó/MG,-20.4405661,-41.8683799,4,67.86563
1,Alto Feliz/RS,-29.3785943,-51.3123751,67,2206.85112
1,Alto Garças/MT,-16.9469683,-53.529427,304,2501.85170
D1,Alto Garças/MT,-16.9469683,-53.529427,14,115.21685
1,Alto Horizonte/GO,-14.1954948,-49.3366993,210,3179.40954
D1,Alto Horizonte/GO,-14.1954948,-49.3366993,2,30.28009
1,Alto Jequitibá/MG,-20.423611,-41.966111,254,3059.87230
D1,Alto Jequitibá/MG,-20.423611,-41.966111,5,60.23371
1,Alto Longá/PI,-5.2549051,-42.2072388,275,1917.84643
D1,Alto Longá/PI,-5.2549051,-42.2072388,6,41.84392
1,Alto Paraguai/MT,-14.513712,-56.4936374,333,2902.46666
D1,Alto Paraguai/MT,-14.513712,-56.4936374,9,78.44504
1,Alto Paraná/PR,-23.131247,-52.318893,227,1527.69365
D1,Alto Paraná/PR,-23.131247,-52.318893,1,6.72993
1,Alto Paraíso de Goiás/GO,-14.1304779,-47.5100161,363,4721.64412
1,Alto Paraíso/PR,-23.508137,-53.728537,20,744.87896
1,Alto Paraíso/RO,-9.7240103,-63.3188123,476,2178.78885
D1,Alto Paraíso/RO,-9.7240103,-63.3188123,8,36.61830
1,Alto Parnaíba/MA,-9.112506,-45.9310154,517,4611.13093
D1,Alto Parnaíba/MA,-9.112506,-45.9310154,4,35.67606
1,Alto Piquiri/PR,-24.0239021,-53.4417448,174,1779.50501
D1,Alto Piquiri/PR,-24.0239021,-53.4417448,5,51.13520
1,Alto Rio Doce/MG,-21.0239537,-43.4133507,131,1206.37259
D1,Alto Rio Doce/MG,-21.0239537,-43.4133507,4,36.83580
1,Alto Rio Novo/ES,-19.0577208,-41.0171518,387,4914.90983
D1,Alto Rio Novo/ES,-19.0577208,-41.0171518,14,177.80036
1,Alto Santo/CE,-5.5190371,-38.2719351,515,2994.88253
D1,Alto Santo/CE,-5.5190371,-38.2719351,13,75.59898
1,Alto Taquari/MT,-17.8269099,-53.2831736,518,4652.83392
D1,Alto Taquari/MT,-17.8269099,-53.2831736,6,53.89383
1,Alto do Rodrigues/RN,-5.290868,-36.7616726,627,4257.19718
D1,Alto do Rodrigues/RN,-5.290868,-36.7616726,19,129.00598
1,Altos/PI,-5.0393915,-42.4611694,2151,5297.37717
D1,Altos/PI,-5.0393915,-42.4611694,29,71.41978
1,Altônia/PR,-23.8722004,-53.894037,304,1370.85137
D1,Altônia/PR,-23.8722004,-53.894037,4,18.03752
1,Alumínio/SP,-23.5203479,-47.2575256,378,2014.17382
D1,Alumínio/SP,-23.5203479,-47.2575256,11,58.61352
1,Alvarenga/MG,-19.4175,-41.728334,166,4318.41831
D1,Alvarenga/MG,-19.4175,-41.728334,1,26.01457
1,Alvarães/AM,-3.214786,-64.8143124,1429,8810.11097
D1,Alvarães/AM,-3.214786,-64.8143124,23,141.80025
1,Alvinlândia/SP,-22.4431852,-49.7643596,31,957.67686
1,Alvinópolis/MG,-20.1105199,-43.0601805,129,850.41862
D1,Alvinópolis/MG,-20.1105199,-43.0601805,1,6.59239
1,Alvorada D'Oeste/RO,-11.346271,-62.284697,204,1446.19311
D1,Alvorada D'Oeste/RO,-11.346271,-62.284697,7,49.62427
1,Alvorada de Minas/MG,-18.7318587,-43.3641479,60,1664.35506
D1,Alvorada de Minas/MG,-18.7318587,-43.3641479,1,27.73925
1,Alvorada do Gurguéia/PI,-8.4465288,-43.8655915,101,1854.91276
D1,Alvorada do Gurguéia/PI,-8.4465288,-43.8655915,4,73.46189
1,Alvorada do Norte/GO,-14.483911,-46.4959897,340,3905.80126
D1,Alvorada do Norte/GO,-14.483911,-46.4959897,1,11.48765
1,Alvorada do Sul/PR,-22.7807269,-51.2307721,168,1460.48857
D1,Alvorada do Sul/PR,-22.7807269,-51.2307721,6,52.16031
1,Alvorada/RS,-29.9981184,-51.0772509,7659,3623.81241
D1,Alvorada/RS,-29.9981184,-51.0772509,214,101.25289
1,Alvorada/TO,-12.478465,-49.124926,565,6729.39495
D1,Alvorada/TO,-12.478465,-49.124926,10,119.10434
1,Além Paraíba/MG,-21.8760576,-42.6810473,885,2499.92938
D1,Além Paraíba/MG,-21.8760576,-42.6810473,22,62.14514
1,Amajari/RR,3.6523869,-61.4194315,561,4254.83504
D1,Amajari/RR,3.6523869,-61.4194315,16,121.35002
1,Amambai/MS,-23.1082701,-55.2284854,892,2239.74288
D1,Amambai/MS,-23.1082701,-55.2284854,14,35.15292
1,Amaporã/PR,-23.094272,-52.786597,40,631.71194
1,Amapá do Maranhão/MA,-1.6762114,-46.0109669,5,71.37759
1,Amapá/AP,2.0529997,-50.7930003,902,9818.22140
D1,Amapá/AP,2.0529997,-50.7930003,6,65.30968
1,Amaraji/PE,-8.373925,-35.4536527,364,1591.60472
D1,Amaraji/PE,-8.373925,-35.4536527,24,104.94097
1,Amaral Ferrador/RS,-30.8750633,-52.2542051,106,1496.11856
D1,Amaral Ferrador/RS,-30.8750633,-52.2542051,1,14.11433
1,Amaralina/GO,-13.9236199,-49.2962411,15,390.11704
1,Amarante do Maranhão/MA,-5.56913,-46.747284,1156,2770.25570
D1,Amarante do Maranhão/MA,-5.56913,-46.747284,28,67.09962
1,Amarante/PI,-6.2459374,-42.8476238,648,3680.98160
D1,Amarante/PI,-6.2459374,-42.8476238,11,62.48580
1,Amargosa/BA,-13.03793715,-39.60796443875596,731,1952.40512
D1,Amargosa/BA,-13.03793715,-39.60796443875596,15,40.06303
1,Amaturá/AM,-3.3640509,-68.1994689,1034,8810.49761
D1,Amaturá/AM,-3.3640509,-68.1994689,10,85.20791
1,Americana/SP,-22.7392463,-47.3306032,7206,2977.46449
D1,Americana/SP,-22.7392463,-47.3306032,199,82.22529
1,Americano do Brasil/GO,-16.2515808,-49.9806104,156,2530.82414
D1,Americano do Brasil/GO,-16.2515808,-49.9806104,4,64.89293
1,Ametista do Sul/RS,-27.3617341,-53.1826575,117,1580.44036
1,Amontada/CE,-3.3634586,-39.8284791,980,2235.96249
D1,Amontada/CE,-3.3634586,-39.8284791,20,45.63189
1,Amorinópolis/GO,-16.6211308,-51.0949921,94,3062.88693
D1,Amorinópolis/GO,-16.6211308,-51.0949921,1,32.58390
1,Amparo de São Francisco/SE,-10.1299754,-36.9269099,76,3193.27731
D1,Amparo de São Francisco/SE,-10.1299754,-36.9269099,2,84.03361
1,Amparo do Serra/MG,-20.5070255,-42.8028462,54,1154.33946
D1,Amparo do Serra/MG,-20.5070255,-42.8028462,2,42.75331
1,Amparo/PB,-7.56394725,-37.04652873235175,26,1155.04220
1,Amparo/SP,-22.70111,-46.76444,1521,2092.82166
D1,Amparo/SP,-22.70111,-46.76444,35,48.15829
1,Ampére/PR,-25.9168712,-53.4742414,306,1584.58909
D1,Ampére/PR,-25.9168712,-53.4742414,6,31.07037
1,Amélia Rodrigues/BA,-12.4015388,-38.7516971,739,2950.33536
D1,Amélia Rodrigues/BA,-12.4015388,-38.7516971,14,55.89269
1,América Dourada/BA,-11.4515262,-41.4357517,330,2050.96333
D1,América Dourada/BA,-11.4515262,-41.4357517,1,6.21504
1,Américo Brasiliense/SP,-21.7297099,-48.1052092,991,2415.18815
D1,Américo Brasiliense/SP,-21.7297099,-48.1052092,16,38.99396
1,Américo de Campos/SP,-20.298476,-49.735904,375,6269.85454
D1,Américo de Campos/SP,-20.298476,-49.735904,12,200.63535
1,Anadia/AL,-9.6830208,-36.3052699,523,2984.13785
D1,Anadia/AL,-9.6830208,-36.3052699,9,51.35228
1,Anagé/BA,-14.6134669,-41.1376308,238,1101.49489
D1,Anagé/BA,-14.6134669,-41.1376308,5,23.14065
1,Anahy/PR,-24.6450861,-53.1337957,60,2152.08034
D1,Anahy/PR,-24.6450861,-53.1337957,1,35.86801
1,Anajatuba/MA,-3.26441,-44.6179916,363,1345.04224
D1,Anajatuba/MA,-3.26441,-44.6179916,10,37.05351
1,Anajás/PA,-0.9878802,-49.9390114,879,2960.79224
D1,Anajás/PA,-0.9878802,-49.9390114,11,37.05201
1,Analândia/SP,-22.128917,-47.661939,43,850.47468
D1,Analândia/SP,-22.128917,-47.661939,2,39.55696
1,Anamã/AM,-3.5797356,-61.4049996,1134,8125.53740
D1,Anamã/AM,-3.5797356,-61.4049996,1,7.16538
1,Ananindeua/PA,-1.374035,-48.4016623,10661,1990.67495
D1,Ananindeua/PA,-1.374035,-48.4016623,384,71.70239
1,Ananás/TO,-6.3663053,-48.080238,634,6679.30889
D1,Ananás/TO,-6.3663053,-48.080238,14,147.49263
1,Anapu/PA,-3.4668292,-51.2057035,1082,3782.29105
D1,Anapu/PA,-3.4668292,-51.2057035,23,80.39990
1,Anapurus/MA,-3.6751298,-43.1046001,790,4970.42909
D1,Anapurus/MA,-3.6751298,-43.1046001,6,37.75009
1,Anastácio/MS,-20.4832458,-55.8048448,1009,3998.09803
D1,Anastácio/MS,-20.4832458,-55.8048448,26,103.02334
1,Anaurilândia/MS,-22.185169,-52.719056,70,771.26487
D1,Anaurilândia/MS,-22.185169,-52.719056,2,22.03614
1,Anchieta/ES,-20.8057672,-40.6454564,1803,6054.60224
D1,Anchieta/ES,-20.8057672,-40.6454564,31,104.10020
1,Anchieta/SC,-26.5350527,-53.3293938,115,2069.46194
D1,Anchieta/SC,-26.5350527,-53.3293938,1,17.99532
1,Andaraí/BA,-12.8059674,-41.3322919,210,1599.14712
1,Andirá/PR,-23.0494761,-50.2310027,479,2403.89441
D1,Andirá/PR,-23.0494761,-50.2310027,4,20.07427
1,Andorinha/BA,-10.3445708,-39.8334411,330,2275.39130
D1,Andorinha/BA,-10.3445708,-39.8334411,6,41.37075
1,Andradas/MG,-22.0680484,-46.5688976,651,1572.61571
D1,Andradas/MG,-22.0680484,-46.5688976,19,45.89815
1,Andradina/SP,-20.896505,-51.3742765,2063,3606.51725
D1,Andradina/SP,-20.896505,-51.3742765,69,120.62515
1,Andrelândia/MG,-21.739722,-44.308889,110,901.19613
D1,Andrelândia/MG,-21.739722,-44.308889,1,8.19269
1,André da Rocha/RS,-28.6309124,-51.5733328,45,3350.70737
1,Angatuba/SP,-23.4938938,-48.4110675,399,1565.99553
D1,Angatuba/SP,-23.4938938,-48.4110675,11,43.17281
1,Angelim/PE,-8.8902038,-36.2872987,86,766.07875
D1,Angelim/PE,-8.8902038,-36.2872987,3,26.72368
1,Angelina/SC,-27.5805287,-48.9838759,208,4385.41008
1,Angelândia/MG,-17.7253,-42.2728,19,222.04043
1,Angical do Piauí/PI,-6.0872666,-42.7366138,200,2948.54784
D1,Angical do Piauí/PI,-6.0872666,-42.7366138,5,73.71370
1,Angical/BA,-12.005623,-44.7000236,274,1965.84876
D1,Angical/BA,-12.005623,-44.7000236,4,28.69852
1,Angico/TO,-6.3893733,-47.8656722,159,4603.35843
D1,Angico/TO,-6.3893733,-47.8656722,1,28.95194
1,Angicos/RN,-5.6666344,-36.6009064,186,1589.06450
D1,Angicos/RN,-5.6666344,-36.6009064,6,51.26015
1,Angra dos Reis/RJ,-23.0063966,-44.316326,7778,3756.68940
D1,Angra dos Reis/RJ,-23.0063966,-44.316326,241,116.40038
1,Anguera/BA,-12.1509425,-39.2452469,128,1133.04417
1,Angélica/MS,-22.1588196,-53.7728504,185,1692.27955
D1,Angélica/MS,-22.1588196,-53.7728504,5,45.73729
1,Anhanguera/GO,-18.3338749,-48.220363,18,1551.72414
D1,Anhanguera/GO,-18.3338749,-48.220363,2,172.41379
1,Anhembi/SP,-22.7891096,-48.1316776,33,483.94193
D1,Anhembi/SP,-22.7891096,-48.1316776,1,14.66491
1,Anhumas/SP,-22.2956478,-51.3873401,124,2992.27799
1,Anicuns/GO,-16.4606451,-49.9572265,998,4540.28479
D1,Anicuns/GO,-16.4606451,-49.9572265,17,77.33952
1,Anita Garibaldi/SC,-27.6855032,-51.1293873,490,7043.26578
D1,Anita Garibaldi/SC,-27.6855032,-51.1293873,2,28.74802
1,Anitápolis/SC,-27.9041185,-49.1287395,126,3903.34572
1,Anori/AM,-3.7435254,-61.6605203,1296,6034.36234
D1,Anori/AM,-3.7435254,-61.6605203,17,79.15444
1,Anta Gorda/RS,-28.9718745,-52.0069187,238,3992.61869
1,Antas/BA,-10.4114649,-38.3308815,540,2772.21623
1,Antonina do Norte/CE,-6.7754187,-39.9879345,75,1016.53565
D1,Antonina do Norte/CE,-6.7754187,-39.9879345,2,27.10762
1,Antonina/PR,-25.4298854,-48.7125431,1098,5794.50103
D1,Antonina/PR,-25.4298854,-48.7125431,29,153.04238
1,Antônio Almeida/PI,-7.2186016,-44.1950248,244,7697.16088
D1,Antônio Almeida/PI,-7.2186016,-44.1950248,3,94.63722
1,Antônio Cardoso/BA,-12.4363122,-39.1200307,127,1087.60812
D1,Antônio Cardoso/BA,-12.4363122,-39.1200307,4,34.25537
1,Antônio Carlos/MG,-21.318334,-43.746666,102,890.13003
D1,Antônio Carlos/MG,-21.318334,-43.746666,2,17.45353
1,Antônio Carlos/SC,-27.5168462,-48.7684715,739,8580.05341
D1,Antônio Carlos/SC,-27.5168462,-48.7684715,13,150.93463
1,Antônio Dias/MG,-19.6525,-42.872778,132,1423.18059
D1,Antônio Dias/MG,-19.6525,-42.872778,3,32.34501
1,Antônio Gonçalves/BA,-10.5715409,-40.2748824,315,2651.96161
D1,Antônio Gonçalves/BA,-10.5715409,-40.2748824,1,8.41893
1,Antônio João/MS,-22.1892837,-55.9508227,113,1252.77162
D1,Antônio João/MS,-22.1892837,-55.9508227,2,22.17295
1,Antônio Martins/RN,-6.2155812,-37.8890129,70,978.47358
D1,Antônio Martins/RN,-6.2155812,-37.8890129,1,13.97819
1,Antônio Olinto/PR,-25.9849006,-50.1974516,128,1723.44150
D1,Antônio Olinto/PR,-25.9849006,-50.1974516,1,13.46439
1,Antônio Prado de Minas/MG,-21.0171988,-42.1101106,103,6490.23314
D1,Antônio Prado de Minas/MG,-21.0171988,-42.1101106,2,126.02394
1,Antônio Prado/RS,-28.8567806,-51.2801355,942,7221.15753
D1,Antônio Prado/RS,-28.8567806,-51.2801355,11,84.32350
1,Anápolis/GO,-16.3332828,-48.9525756,16261,4150.62843
D1,Anápolis/GO,-16.3332828,-48.9525756,402,102.61070
1,Anísio de Abreu/PI,-9.185643,-43.04941,184,1851.47917
D1,Anísio de Abreu/PI,-9.185643,-43.04941,1,10.06239
1,Aparecida d'Oeste/SP,-20.4498109,-50.8808706,325,7816.25782
D1,Aparecida d'Oeste/SP,-20.4498109,-50.8808706,9,216.45022
1,Aparecida de Goiânia/GO,-16.8226769,-49.2452546,39648,6718.33750
D1,Aparecida de Goiânia/GO,-16.8226769,-49.2452546,583,98.78911
1,Aparecida do Rio Doce/GO,-18.2980167,-51.1491312,107,4324.97979
D1,Aparecida do Rio Doce/GO,-18.2980167,-51.1491312,3,121.26112
1,Aparecida do Rio Negro/TO,-9.9513491,-47.9773786,99,2042.07921
D1,Aparecida do Rio Negro/TO,-9.9513491,-47.9773786,2,41.25413
1,Aparecida do Taboado/MS,-20.0840304,-51.1013943,1104,4234.91503
D1,Aparecida do Taboado/MS,-20.0840304,-51.1013943,20,76.71948
1,Aparecida/PB,-6.7859598, -38.0831353,530,6297.52852
D1,Aparecida/PB,-6.7859598, -38.0831353,7,83.17490
1,Aparecida/SP,-22.851552,-45.2340924,674,1862.65027
D1,Aparecida/SP,-22.851552,-45.2340924,19,52.50795
1,Aperibé/RJ,-21.6211928,-42.1028167,238,1999.83195
D1,Aperibé/RJ,-21.6211928,-42.1028167,7,58.81859
1,Apiacá/ES,-21.152272,-41.569297,276,3653.69341
D1,Apiacá/ES,-21.152272,-41.569297,5,66.19010
1,Apiacás/MT,-9.5678422,-57.394852,77,748.80871
D1,Apiacás/MT,-9.5678422,-57.394852,1,9.72479
1,Apiaí/SP,-24.5076527,-48.8461582,231,953.52101
D1,Apiaí/SP,-24.5076527,-48.8461582,8,33.02237
1,Apicum-Açu/MA,-1.5279295,-45.082278,199,1142.82433
D1,Apicum-Açu/MA,-1.5279295,-45.082278,3,17.22851
1,Apiúna/SC,-27.0374658,-49.3885037,326,3005.16224
D1,Apiúna/SC,-27.0374658,-49.3885037,7,64.52802
1,Apodi/RN,-5.6631109,-37.796927,3012,8396.05285
D1,Apodi/RN,-5.6631109,-37.796927,44,122.65150
1,Aporá/BA,-11.6599747,-38.0794757,287,1613.44727
D1,Aporá/BA,-11.6599747,-38.0794757,6,33.73060
1,Aporé/GO,-18.9642193,-51.92804,150,3544.42344
D1,Aporé/GO,-18.9642193,-51.92804,3,70.88847
1,Apuarema/BA,-13.8517897,-39.7457126,476,6518.76198
D1,Apuarema/BA,-13.8517897,-39.7457126,7,95.86415
1,Apucarana/PR,-23.5525327,-51.4610764,1479,1085.63207
D1,Apucarana/PR,-23.5525327,-51.4610764,76,55.78637
1,Apuiarés/CE,-3.9460303,-39.4313298,263,1792.52999
D1,Apuiarés/CE,-3.9460303,-39.4313298,11,74.97274
1,Apuí/AM,-7.1940195,-59.8830192,428,1914.21799
D1,Apuí/AM,-7.1940195,-59.8830192,5,22.36236
1,Aquidabã/SE,-10.2837579,-37.0188687,782,3606.84470
D1,Aquidabã/SE,-10.2837579,-37.0188687,18,83.02200
1,Aquidauana/MS,-20.473969,-55.7821375,2507,5219.76306
D1,Aquidauana/MS,-20.473969,-55.7821375,72,149.90943
1,Aquiraz/CE,-3.9063117,-38.387504,1357,1676.65411
D1,Aquiraz/CE,-3.9063117,-38.387504,40,49.42238
1,Arabutã/SC,-27.1587028,-52.1438142,105,2460.74525
D1,Arabutã/SC,-27.1587028,-52.1438142,2,46.87134
1,Aracaju/SE,-10.9162061,-37.0774655,50678,7621.80633
D1,Aracaju/SE,-10.9162061,-37.0774655,875,131.59715
1,Aracati/CE,-4.558259,-37.767894,2208,2944.98166
D1,Aracati/CE,-4.558259,-37.767894,58,77.35912
1,Aracatu/BA,-14.4274236,-41.4604105,377,2889.99617
D1,Aracatu/BA,-14.4274236,-41.4604105,6,45.99463
1,Araci/BA,-11.3356065,-38.9573261,1360,2488.65466
D1,Araci/BA,-11.3356065,-38.9573261,18,32.93808
1,Aracitaba/MG,-21.3425,-43.378611,61,2962.60321
D1,Aracitaba/MG,-21.3425,-43.378611,4,194.26906
1,Aracoiaba/CE,-4.3702577,-38.8084313,882,3323.91181
D1,Aracoiaba/CE,-4.3702577,-38.8084313,16,60.29772
1,Aracruz/ES,-19.8245218,-40.2735025,6668,6467.44454
D1,Aracruz/ES,-19.8245218,-40.2735025,98,95.05242
1,Aragarças/GO,-15.8957166,-52.2514538,899,4434.46949
D1,Aragarças/GO,-15.8957166,-52.2514538,19,93.72071
1,Aragoiânia/GO,-16.9146388,-49.4499148,440,4192.07317
D1,Aragoiânia/GO,-16.9146388,-49.4499148,4,38.10976
1,Aragominas/TO,-7.1654101,-48.525488,307,5356.83127
D1,Aragominas/TO,-7.1654101,-48.525488,5,87.24481
1,Araguacema/TO,-8.8067391,-49.5560969,71,992.31307
D1,Araguacema/TO,-8.8067391,-49.5560969,1,13.97624
1,Araguaiana/MT,-15.729144,-51.834112,60,1929.88099
D1,Araguaiana/MT,-15.729144,-51.834112,2,64.32937
1,Araguainha/MT,-16.857016,-53.031778,5,528.54123
1,Araguanã/MA,-2.9508403,-45.6651986,569,3658.92869
D1,Araguanã/MA,-2.9508403,-45.6651986,4,25.72182
1,Araguanã/TO,-6.5799107,-48.6428482,179,3089.93613
D1,Araguanã/TO,-6.5799107,-48.6428482,9,155.35992
1,Araguapaz/GO,-15.0937927,-50.626417,200,2569.70320
D1,Araguapaz/GO,-15.0937927,-50.626417,6,77.09110
1,Araguari/MG,-18.6511256,-48.1933764,5088,4318.26862
D1,Araguari/MG,-18.6511256,-48.1933764,110,93.35879
1,Araguatins/TO,-5.6522925,-48.1158973,1095,3027.37075
D1,Araguatins/TO,-5.6522925,-48.1158973,30,82.94166
1,Araguaçu/TO,-12.928934,-49.823134,552,6519.42837
D1,Araguaçu/TO,-12.928934,-49.823134,9,106.29503
1,Araguaína/TO,-7.193241,-48.2018597,17442,9511.34523
D1,Araguaína/TO,-7.193241,-48.2018597,237,129.23913
1,Araioses/MA,-2.890914,-41.904993,589,1259.32736
D1,Araioses/MA,-2.890914,-41.904993,10,21.38077
1,Aral Moreira/MS,-22.951141,-55.6268421,184,1492.05319
D1,Aral Moreira/MS,-22.951141,-55.6268421,4,32.43594
1,Aramari/BA,-12.0907897,-38.4985065,203,1771.22415
D1,Aramari/BA,-12.0907897,-38.4985065,5,43.62621
1,Arambaré/RS,-30.9132252,-51.4994625,52,1459.85401
D1,Arambaré/RS,-30.9132252,-51.4994625,1,28.07412
1,Arame/MA,-4.8858769,-46.0102484,955,2914.78452
D1,Arame/MA,-4.8858769,-46.0102484,18,54.93835
1,Aramina/SP,-20.0876144,-47.789201,136,2404.95137
D1,Aramina/SP,-20.0876144,-47.789201,5,88.41733
1,Arandu/SP,-23.1345103,-49.0545651,61,958.36606
D1,Arandu/SP,-23.1345103,-49.0545651,4,62.84368
1,Arantina/MG,-21.911667,-44.255833,28,1004.66451
D1,Arantina/MG,-21.911667,-44.255833,2,71.76175
1,Arapeí/SP,-22.6738889,-44.4477778,14,569.10569
D1,Arapeí/SP,-22.6738889,-44.4477778,1,40.65041
1,Arapiraca/AL,-9.754866,-36.661471,13616,5842.59827
D1,Arapiraca/AL,-9.754866,-36.661471,179,76.80854
1,Arapoema/TO,-7.6575001,-49.0641484,152,2297.46070
D1,Arapoema/TO,-7.6575001,-49.0641484,4,60.45949
1,Araponga/MG,-20.666667,-42.520556,44,520.52526
1,Arapongas/PR,-23.415296,-51.42592,4526,3626.31199
D1,Arapongas/PR,-23.415296,-51.42592,131,104.95954
1,Araporã/MG,-18.4318188,-49.188313,1011,14586.63973
D1,Araporã/MG,-18.4318188,-49.188313,10,144.27932
1,Arapoti/PR,-24.1457957,-49.8224605,680,2402.82686
D1,Arapoti/PR,-24.1457957,-49.8224605,5,17.66784
1,Araputanga/MT,-15.4710868,-58.346796,604,3563.21161
D1,Araputanga/MT,-15.4710868,-58.346796,8,47.19486
1,Arapuá/MG,-19.034444,-46.155556,46,1622.57496
1,Arapuã/PR,-24.3079525,-51.7901941,50,1661.68162
D1,Arapuã/PR,-24.3079525,-51.7901941,1,33.23363
1,Araquari/SC,-26.3703324,-48.7210994,1499,3792.63232
D1,Araquari/SC,-26.3703324,-48.7210994,20,50.60217
1,Arara/PB,-6.8271895,-35.7605703,267,1971.64377
D1,Arara/PB,-6.8271895,-35.7605703,7,51.69104
1,Araranguá/SC,-28.9348832,-49.4858389,5214,7571.11534
D1,Araranguá/SC,-28.9348832,-49.4858389,74,107.45350
1,Araraquara/SP,-21.7886713,-48.1773096,7422,3114.05183
D1,Araraquara/SP,-21.7886713,-48.1773096,84,35.24392
1,Araras/SP,-22.3569477,-47.3838889,5869,4331.17353
D1,Araras/SP,-22.3569477,-47.3838889,88,64.94177
1,Ararendá/CE,-4.7504395,-40.8303611,335,3056.84825
D1,Ararendá/CE,-4.7504395,-40.8303611,9,82.12428
1,Arari/MA,-3.4547602,-44.7772723,358,1196.04437
D1,Arari/MA,-3.4547602,-44.7772723,10,33.40906
1,Araricá/RS,-29.6168543,-50.929121,265,4591.92514
D1,Araricá/RS,-29.6168543,-50.929121,8,138.62416
1,Araripe/CE,-7.212861,-40.1359222,304,1403.89766
D1,Araripe/CE,-7.212861,-40.1359222,5,23.09042
1,Araripina/PE,-7.5768582,-40.5038509,2840,3346.53092
D1,Araripina/PE,-7.5768582,-40.5038509,48,56.56109
1,Araruama/RJ,-22.8733203,-42.3428897,2154,1603.95553
D1,Araruama/RJ,-22.8733203,-42.3428897,88,65.52836
1,Araruna/PB,-6.5321155,-35.7397595,475,2321.26277
D1,Araruna/PB,-6.5321155,-35.7397595,12,58.64243
1,Araruna/PR,-23.9320308,-52.4976047,373,2664.28571
D1,Araruna/PR,-23.9320308,-52.4976047,10,71.42857
1,Arataca/BA,-15.2617424,-39.4122943,281,2563.63470
D1,Arataca/BA,-15.2617424,-39.4122943,9,82.10930
1,Aratiba/RS,-27.3955734,-52.3024325,186,3005.33204
D1,Aratiba/RS,-27.3955734,-52.3024325,4,64.63080
1,Aratuba/CE,-4.4195958,-39.0463737,264,2236.90900
D1,Aratuba/CE,-4.4195958,-39.0463737,2,16.94628
1,Aratuípe/BA,-13.077137,-39.0010786,189,2138.73486
D1,Aratuípe/BA,-13.077137,-39.0010786,6,67.89634
1,Araucária/PR,-25.5861107,-49.4051209,9256,6330.44715
D1,Araucária/PR,-25.5861107,-49.4051209,110,75.23219
1,Arauá/SE,-11.2644014,-37.6181058,400,4021.31296
D1,Arauá/SE,-11.2644014,-37.6181058,9,90.47954
1,Araxá/MG,-19.5928536,-46.940241,3176,2958.90513
D1,Araxá/MG,-19.5928536,-46.940241,42,39.12910
1,Araçagi/PB,-6.8519969,-35.3835602,605,3575.43880
D1,Araçagi/PB,-6.8519969,-35.3835602,6,35.45890
1,Araçariguama/SP,-23.438611,-47.061389,506,2213.47332
D1,Araçariguama/SP,-23.438611,-47.061389,10,43.74453
1,Araçatuba/SP,-21.207992,-50.4390225,9394,4741.35538
D1,Araçatuba/SP,-21.207992,-50.4390225,198,99.93489
1,Araçaí/MG,-19.200833,-44.2475,5,212.40442
1,Araçoiaba da Serra/SP,-23.5045367,-47.6168158,816,2346.44582
D1,Araçoiaba da Serra/SP,-23.5045367,-47.6168158,17,48.88429
1,Araçoiaba/PE,-7.7856903,-35.0898881,190,916.41345
D1,Araçoiaba/PE,-7.7856903,-35.0898881,20,96.46457
1,Araçu/GO,-16.3561579,-49.6815269,135,3872.63339
D1,Araçu/GO,-16.3561579,-49.6815269,4,114.74469
1,Araçuaí/MG,-16.8484451,-42.0661868,181,493.02680
D1,Araçuaí/MG,-16.8484451,-42.0661868,5,13.61952
1,Araçás/BA,-12.2139176,-38.2026159,425,3481.32372
D1,Araçás/BA,-12.2139176,-38.2026159,5,40.95675
1,Araújos/MG,-19.948055,-45.165556,118,1255.18562
D1,Araújos/MG,-19.948055,-45.165556,1,10.63717
1,Arceburgo/MG,-21.364444,-46.939722,172,1580.44657
D1,Arceburgo/MG,-21.364444,-46.939722,3,27.56593
1,Arco-Íris/SP,-21.7741308,-50.4668814,17,958.82685
1,Arcos/MG,-20.282223,-45.539444,815,2018.32590
D1,Arcos/MG,-20.282223,-45.539444,16,39.62358
1,Arcoverde/PE,-8.415192,-37.057748,2755,3682.07212
D1,Arcoverde/PE,-8.415192,-37.057748,66,88.20935
1,Areado/MG,-21.3582771,-46.1476688,28,184.44108
D1,Areado/MG,-21.3582771,-46.1476688,3,19.76154
1,Areal/RJ,-22.2314922,-43.1056264,312,2462.70424
D1,Areal/RJ,-22.2314922,-43.1056264,10,78.93283
1,Arealva/SP,-22.0301906,-48.9111936,200,2322.07129
D1,Arealva/SP,-22.0301906,-48.9111936,2,23.22071
1,Areia Branca/RN,-4.9506652,-37.1263312,936,3346.80159
D1,Areia Branca/RN,-4.9506652,-37.1263312,56,200.23599
1,Areia Branca/SE,-10.7591455,-37.3148072,854,4570.26651
D1,Areia Branca/SE,-10.7591455,-37.3148072,20,107.03200
1,Areia de Baraúnas/PB,-7.1233949,-36.9446216,13,614.36673
1,Areia/PB,-6.9680243,-35.6994783,581,2564.44209
D1,Areia/PB,-6.9680243,-35.6994783,6,26.48305
1,Areial/PB,-7.0501306,-35.9245244,102,1451.54404
D1,Areial/PB,-7.0501306,-35.9245244,2,28.46165
1,Areias/SP,-22.5800929,-44.6975127,57,1463.03901
1,Areiópolis/SP,-22.6758064,-48.6673653,176,1577.34361
D1,Areiópolis/SP,-22.6758064,-48.6673653,4,35.84872
1,Arenápolis/MT,-14.4610369,-56.8432806,491,5167.33319
D1,Arenápolis/MT,-14.4610369,-56.8432806,7,73.66870
1,Arenópolis/GO,-16.3859286,-51.55937,32,1261.82965
1,Argirita/MG,-21.612761,-42.8371922,104,3846.15385
D1,Argirita/MG,-21.612761,-42.8371922,4,147.92899
1,Aricanduva/MG,-17.8678,-42.5569,12,227.74720
1,Arinos/MG,-15.917223,-46.106111,157,878.96092
D1,Arinos/MG,-15.917223,-46.106111,3,16.79543
1,Aripuanã/MT,-10.175806,-59.4439663,893,3931.49599
D1,Aripuanã/MT,-10.175806,-59.4439663,15,66.03857
1,Ariquemes/RO,-9.9076522,-63.033069,7207,6580.35299
D1,Ariquemes/RO,-9.9076522,-63.033069,122,111.39213
1,Ariranha do Ivaí/PR,-24.3834527,-51.5876772,31,1500.48403
D1,Ariranha do Ivaí/PR,-24.3834527,-51.5876772,1,48.40271
1,Ariranha/SP,-21.18716,-48.790418,194,1987.50128
D1,Ariranha/SP,-21.18716,-48.790418,8,81.95882
1,Armazém/SC,-28.2624996,-49.0190126,576,6576.09316
D1,Armazém/SC,-28.2624996,-49.0190126,6,68.50097
1,Armação dos Búzios/RJ,-22.7597805,-41.8875267,1144,3318.15413
D1,Armação dos Búzios/RJ,-22.7597805,-41.8875267,21,60.91017
1,Arneiroz/CE,-6.3235099,-40.1603859,66,841.40745
D1,Arneiroz/CE,-6.3235099,-40.1603859,6,76.49159
1,Aroazes/PI,-6.1108814,-41.7886137,152,2608.54642
D1,Aroazes/PI,-6.1108814,-41.7886137,5,85.80745
1,Aroeiras do Itaim/PI,-7.2797031,-41.5629681,91,3567.22854
D1,Aroeiras do Itaim/PI,-7.2797031,-41.5629681,1,39.20031
1,Aroeiras/PB,-7.5462904,-35.7080002,270,1412.42938
D1,Aroeiras/PB,-7.5462904,-35.7080002,2,10.46244
1,Arraial do Cabo/RJ,-22.9662839,-42.024427,333,1088.48429
D1,Arraial do Cabo/RJ,-22.9662839,-42.024427,9,29.41849
1,Arraial/PI,-6.6541632,-42.5335332,74,1567.79661
D1,Arraial/PI,-6.6541632,-42.5335332,1,21.18644
1,Arraias/TO,-12.9287788,-46.9437231,161,1528.38428
1,Arroio Grande/RS,-32.2384246,-53.0866661,294,1612.01886
D1,Arroio Grande/RS,-32.2384246,-53.0866661,3,16.44917
1,Arroio Trinta/SC,-26.9301976,-51.334928,180,5071.85123
1,Arroio do Meio/RS,-29.4020392,-51.9444993,958,4569.08475
D1,Arroio do Meio/RS,-29.4020392,-51.9444993,7,33.38580
1,Arroio do Padre/RS,-31.4428773,-52.4228985,68,2304.30363
1,Arroio do Sal/RS,-29.549852,-49.8874395,347,3375.81477
D1,Arroio do Sal/RS,-29.549852,-49.8874395,8,77.82858
1,Arroio do Tigre/RS,-29.334158,-53.0888935,174,1297.24894
D1,Arroio do Tigre/RS,-29.334158,-53.0888935,1,7.45545
1,Arroio dos Ratos/RS,-30.0894524,-51.7265541,287,2024.40573
D1,Arroio dos Ratos/RS,-30.0894524,-51.7265541,15,105.80518
1,Artur Nogueira/SP,-22.572737,-47.172679,1398,2526.20166
D1,Artur Nogueira/SP,-22.572737,-47.172679,39,70.47344
1,Aruanã/GO,-14.9162439,-51.0715692,172,1701.28586
D1,Aruanã/GO,-14.9162439,-51.0715692,1,9.89120
1,Arujá/SP,-23.396266,-46.3175449,2757,3024.45232
D1,Arujá/SP,-23.396266,-46.3175449,110,120.67093
1,Arvoredo/SC,-27.0752908,-52.4571847,78,3491.49508
D1,Arvoredo/SC,-27.0752908,-52.4571847,1,44.76276
1,Arvorezinha/RS,-28.87369,-52.17808,281,2695.96086
D1,Arvorezinha/RS,-28.87369,-52.17808,6,57.56500
1,Arês/RN,-6.1969216,-35.1642968,356,2469.30707
D1,Arês/RN,-6.1969216,-35.1642968,10,69.36256
1,Ascurra/SC,-26.9569975,-49.3767752,484,6066.68338
D1,Ascurra/SC,-26.9569975,-49.3767752,2,25.06894
1,Aspásia/SP,-20.160028,-50.728046,51,2805.28053
D1,Aspásia/SP,-20.160028,-50.728046,2,110.01100
1,Assaré/CE,-6.8746791,-39.8741385,833,3548.00239
D1,Assaré/CE,-6.8746791,-39.8741385,13,55.37099
1,Assaí/PR,-23.3736041,-50.8454929,392,2621.37221
D1,Assaí/PR,-23.3736041,-50.8454929,15,100.30761
1,Assis Brasil/AC,-10.9409203,-69.5672108,755,10021.23706
D1,Assis Brasil/AC,-10.9409203,-69.5672108,9,119.45846
1,Assis Chateaubriand/PR,-24.4054826,-53.5120468,919,2756.44871
D1,Assis Chateaubriand/PR,-24.4054826,-53.5120468,10,29.99400
1,Assis/SP,-22.6620892,-50.420623,2069,1968.84486
D1,Assis/SP,-22.6620892,-50.420623,35,33.30574
1,Assunção do Piauí/PI,-5.8610212,-41.0485091,149,1894.95104
D1,Assunção do Piauí/PI,-5.8610212,-41.0485091,2,25.43558
1,Assunção/PB,-7.073396,-36.7274003,48,1191.36262
1,Astolfo Dutra/MG,-21.3132636,-42.8624102,570,3994.39383
D1,Astolfo Dutra/MG,-21.3132636,-42.8624102,9,63.06938
1,Astorga/PR,-23.2350184,-51.6647074,840,3205.00591
D1,Astorga/PR,-23.2350184,-51.6647074,13,49.60128
1,Atalaia do Norte/AM,-4.3658547,-70.1908742,1549,7593.88175
D1,Atalaia do Norte/AM,-4.3658547,-70.1908742,4,19.60977
1,Atalaia/AL,-9.5029595,-36.0219316,653,1378.65513
D1,Atalaia/AL,-9.5029595,-36.0219316,24,50.67033
1,Atalaia/PR,-23.1513833,-52.0529697,118,3040.45349
D1,Atalaia/PR,-23.1513833,-52.0529697,3,77.29967
1,Atalanta/SC,-27.421916,-49.778863,74,2316.11894
1,Ataléia/MG,-18.04432,-41.1110524,238,1877.26771
D1,Ataléia/MG,-18.04432,-41.1110524,4,31.55072
1,Atibaia/SP,-23.1177393,-46.5547861,2964,2057.07623
D1,Atibaia/SP,-23.1177393,-46.5547861,69,47.88740
1,Atilio Vivacqua/ES,-20.9139369,-41.1947519,669,5526.64188
D1,Atilio Vivacqua/ES,-20.9139369,-41.1947519,14,115.65469
1,Augustinópolis/TO,-5.4662267,-47.8897519,762,4087.32500
D1,Augustinópolis/TO,-5.4662267,-47.8897519,10,53.63944
1,Augusto Corrêa/PA,-1.0229335,-46.6404029,1446,3111.61800
D1,Augusto Corrêa/PA,-1.0229335,-46.6404029,21,45.18947
1,Augusto Pestana/RS,-28.5148413,-53.9906433,76,1151.16631
D1,Augusto Pestana/RS,-28.5148413,-53.9906433,2,30.29385
1,Augusto de Lima/MG,-18.1092963,-44.2651945,83,1710.98743
D1,Augusto de Lima/MG,-18.1092963,-44.2651945,1,20.61431
1,Aurelino Leal/BA,-14.3167137,-39.3256107,562,4973.89149
D1,Aurelino Leal/BA,-14.3167137,-39.3256107,13,115.05443
1,Auriflama/SP,-20.6840418,-50.5554616,652,4274.56894
D1,Auriflama/SP,-20.6840418,-50.5554616,14,91.78522
1,Aurilândia/GO,-16.6772599,-50.4641231,65,2125.57227
D1,Aurilândia/GO,-16.6772599,-50.4641231,1,32.70111
1,Aurora do Pará/PA,-2.1323199,-47.558436,693,2181.09716
D1,Aurora do Pará/PA,-2.1323199,-47.558436,8,25.17861
1,Aurora do Tocantins/TO,-12.71045,-46.407604,58,1533.17473
1,Aurora/CE,-6.9426019,-38.9693765,845,3433.56359
D1,Aurora/CE,-6.9426019,-38.9693765,23,93.45794
1,Aurora/SC,-27.3166417,-49.6368502,201,3536.86433
D1,Aurora/SC,-27.3166417,-49.6368502,4,70.38536
1,Autazes/AM,-3.5833283,-59.1301518,1616,4010.92082
D1,Autazes/AM,-3.5833283,-59.1301518,38,94.31621
1,Avanhandava/SP,-21.4603331,-49.9465156,261,1883.25276
D1,Avanhandava/SP,-21.4603331,-49.9465156,8,57.72422
1,Avaré/SP,-23.1045215,-48.9259103,1220,1337.25009
D1,Avaré/SP,-23.1045215,-48.9259103,21,23.01824
1,Avaí/SP,-22.1564662,-49.3316395,132,2428.25607
D1,Avaí/SP,-22.1564662,-49.3316395,3,55.18764
1,Aveiro/PA,-3.6049239,-55.3310742,452,2755.42551
D1,Aveiro/PA,-3.6049239,-55.3310742,5,30.48037
1,Avelino Lopes/PI,-10.1346855,-43.9489525,147,1297.89864
D1,Avelino Lopes/PI,-10.1346855,-43.9489525,13,114.78015
1,Avelinópolis/GO,-16.4672409,-49.7578661,140,5811.54006
D1,Avelinópolis/GO,-16.4672409,-49.7578661,2,83.02200
1,Axixá do Tocantins/TO,-5.612747,-47.77007,581,5936.44631
D1,Axixá do Tocantins/TO,-5.612747,-47.77007,5,51.08818
1,Axixá/MA,-2.8379465,-44.0561053,142,1165.55857
D1,Axixá/MA,-2.8379465,-44.0561053,3,24.62448
1,Açailândia/MA,-4.9514278,-47.4844564,3730,3297.35416
D1,Açailândia/MA,-4.9514278,-47.4844564,100,88.40092
1,Açu/RN,-5.5836157,-36.9139541,2191,3752.74048
D1,Açu/RN,-5.5836157,-36.9139541,79,135.31104
1,Açucena/MG,-19.073056,-42.546666,150,1601.19556
D1,Açucena/MG,-19.073056,-42.546666,5,53.37319
1,Babaçulândia/TO,-7.2034355,-47.761613,429,4022.12638
D1,Babaçulândia/TO,-7.2034355,-47.761613,4,37.50234
1,Bacabal/MA,-4.2318132,-44.781167,3653,3486.01966
D1,Bacabal/MA,-4.2318132,-44.781167,70,66.80027
1,Bacabeira/MA,-2.9775747,-44.3155943,157,910.03942
D1,Bacabeira/MA,-2.9775747,-44.3155943,3,17.38929
1,Bacuri/MA,-1.728894,-45.1417148,426,2283.69251
D1,Bacuri/MA,-1.728894,-45.1417148,4,21.44312
1,Bacurituba/MA,-2.7082587,-44.7381309,93,1640.21164
1,Bady Bassitt/SP,-20.9178969,-49.4517911,1120,6305.95124
D1,Bady Bassitt/SP,-20.9178969,-49.4517911,23,129.49721
1,Baependi/MG,-21.959162,-44.8899249,201,1046.92953
D1,Baependi/MG,-21.959162,-44.8899249,7,36.46023
1,Bagre/PA,-1.8994498,-50.2103844,478,1525.93775
D1,Bagre/PA,-1.8994498,-50.2103844,10,31.92338
1,Bagé/RS,-31.3314264,-54.1062808,2481,2044.75213
D1,Bagé/RS,-31.3314264,-54.1062808,46,37.91157
1,Baianópolis/BA,-12.3067564,-44.5383591,184,1320.98500
D1,Baianópolis/BA,-12.3067564,-44.5383591,2,14.35853
1,Baixa Grande do Ribeiro/PI,-7.862861,-45.2113289,1534,13143.68949
D1,Baixa Grande do Ribeiro/PI,-7.862861,-45.2113289,14,119.95545
1,Baixa Grande/BA,-11.9630941,-40.1657537,336,1643.11213
D1,Baixa Grande/BA,-11.9630941,-40.1657537,2,9.78043
1,Baixio/CE,-6.7303544,-38.7170095,123,1951.45169
D1,Baixio/CE,-6.7303544,-38.7170095,3,47.59638
1,Baixo Guandu/ES,-19.5138322,-41.0182089,1557,5001.28485
D1,Baixo Guandu/ES,-19.5138322,-41.0182089,29,93.15174
1,Baião/PA,-2.7903479,-49.6702845,426,879.09367
D1,Baião/PA,-2.7903479,-49.6702845,15,30.95400
1,Balbinos/SP,-21.9006253,-49.3583966,252,4246.71385
D1,Balbinos/SP,-21.9006253,-49.3583966,3,50.55612
1,Baldim/MG,-19.2913568,-43.9558262,178,2281.17391
D1,Baldim/MG,-19.2913568,-43.9558262,5,64.07792
1,Baliza/GO,-16.1978119,-52.542789,58,1098.48485
1,Balneário Arroio do Silva/SC,-28.9815269,-49.4189932,904,6731.19881
D1,Balneário Arroio do Silva/SC,-28.9815269,-49.4189932,14,104.24423
1,Balneário Barra do Sul/SC,-26.459842,-48.6061471,727,6588.12868
D1,Balneário Barra do Sul/SC,-26.459842,-48.6061471,9,81.55868
1,Balneário Camboriú/SC,-26.9924395,-48.6339782,13934,9557.18950
D1,Balneário Camboriú/SC,-26.9924395,-48.6339782,134,91.90924
1,Balneário Gaivota/SC,-29.1553098,-49.5808712,650,5772.64654
D1,Balneário Gaivota/SC,-29.1553098,-49.5808712,11,97.69094
1,Balneário Pinhal/RS,-30.2482978,-50.234585,349,2429.85449
D1,Balneário Pinhal/RS,-30.2482978,-50.234585,5,34.81167
1,Balneário Piçarras/SC,-26.7638889,-48.6716667,1824,7672.89248
D1,Balneário Piçarras/SC,-26.7638889,-48.6716667,13,54.68619
1,Balneário Rincão/SC,-28.8235718,-49.2241642,703,5430.24873
D1,Balneário Rincão/SC,-28.8235718,-49.2241642,13,100.41712
1,Balsa Nova/PR,-25.5842234,-49.6312741,381,2910.17415
D1,Balsa Nova/PR,-25.5842234,-49.6312741,9,68.74427
1,Balsas/MA,-7.53214,-46.037163,6928,7222.00794
D1,Balsas/MA,-7.53214,-46.037163,83,86.52232
1,Bambuí/MG,-20.0131996,-45.9777034,103,430.99841
D1,Bambuí/MG,-20.0131996,-45.9777034,1,4.18445
1,Banabuiú/CE,-5.3046404,-38.919766,638,3494.74145
D1,Banabuiú/CE,-5.3046404,-38.919766,4,21.91060
1,Bananal/SP,-22.6828195,-44.3221095,186,1691.98581
D1,Bananal/SP,-22.6828195,-44.3221095,1,9.09670
1,Bananeiras/PB,-6.7537682,-35.6338343,515,2421.36443
D1,Bananeiras/PB,-6.7537682,-35.6338343,2,9.40336
1,Bandeira do Sul/MG,-21.728056,-46.385555,68,1176.87781
D1,Bandeira do Sul/MG,-21.728056,-46.385555,2,34.61405
1,Bandeira/MG,-15.884444,-40.559167,331,6945.02728
D1,Bandeira/MG,-15.884444,-40.559167,4,83.92782
1,Bandeirante/SC,-26.7677402,-53.6397596,28,1057.40181
1,Bandeirantes do Tocantins/TO,-7.7635698,-48.579148,100,2783.96437
D1,Bandeirantes do Tocantins/TO,-7.7635698,-48.579148,2,55.67929
1,Bandeirantes/MS,-19.9179623,-54.3646768,185,2546.10515
D1,Bandeirantes/MS,-19.9179623,-54.3646768,3,41.28819
1,Bandeirantes/PR,-23.107788,-50.370407,1304,4178.01416
D1,Bandeirantes/PR,-23.107788,-50.370407,40,128.15994
1,Bannach/PA,-7.3508505,-50.4064531,121,3709.38075
D1,Bannach/PA,-7.3508505,-50.4064531,2,61.31208
1,Banzaê/BA,-10.5827616,-38.6122305,654,4939.57704
D1,Banzaê/BA,-10.5827616,-38.6122305,4,30.21148
1,Baraúna/PB,-6.643394,-36.2531932,145,2921.03143
1,Baraúna/RN,-5.0775002,-37.61752,622,2163.70404
D1,Baraúna/RN,-5.0775002,-37.61752,15,52.17936
1,Barbacena/MG,-21.2254524,-43.7735087,1605,1161.32673
D1,Barbacena/MG,-21.2254524,-43.7735087,28,20.25991
1,Barbalha/CE,-7.3121067,-39.3036427,2384,3893.64343
D1,Barbalha/CE,-7.3121067,-39.3036427,58,94.72790
1,Barbosa Ferraz/PR,-24.0287182,-52.00811,248,2170.48836
D1,Barbosa Ferraz/PR,-24.0287182,-52.00811,4,35.00788
1,Barbosa/SP,-21.265661,-49.951816,150,2008.56990
D1,Barbosa/SP,-21.265661,-49.951816,2,26.78093
1,Barcarena/PA,-1.5107945,-48.6190679,4613,3631.51141
D1,Barcarena/PA,-1.5107945,-48.6190679,119,93.68087
1,Barcelona/RN,-5.9514918,-35.9260284,39,976.46470
D1,Barcelona/RN,-5.9514918,-35.9260284,4,100.15023
1,Barcelos/AM,-0.9729214,-62.925635,2953,10684.56473
D1,Barcelos/AM,-0.9729214,-62.925635,28,101.30979
1,Bariri/SP,-22.0746355,-48.7394852,1281,3602.56482
D1,Bariri/SP,-22.0746355,-48.7394852,29,81.55689
1,Barra Bonita/SC,-26.6526364,-53.4419581,38,2301.63537
1,Barra Bonita/SP,-22.490859,-48.558349,1175,3252.50512
D1,Barra Bonita/SP,-22.490859,-48.558349,25,69.20224
1,Barra D'Alcântara/PI,-6.5209258,-42.1071089,49,1239.87854
D1,Barra D'Alcântara/PI,-6.5209258,-42.1071089,1,25.30364
1,Barra Funda/RS,-27.9230048,-53.0401045,184,7212.85770
D1,Barra Funda/RS,-27.9230048,-53.0401045,3,117.60094
1,Barra Longa/MG,-20.2833541,-43.0423516,102,2033.89831
1,Barra Mansa/RJ,-22.5394843,-44.1735129,5291,2862.58406
D1,Barra Mansa/RJ,-22.5394843,-44.1735129,199,107.66476
1,Barra Velha/SC,-26.6338203,-48.6835001,1566,5244.47421
D1,Barra Velha/SC,-26.6338203,-48.6835001,26,87.07301
1,Barra da Estiva/BA,-13.6269662,-41.3278287,658,3226.75559
D1,Barra da Estiva/BA,-13.6269662,-41.3278287,2,9.80777
1,Barra de Guabiraba/PE,-8.4173522,-35.6626669,205,1412.81875
D1,Barra de Guabiraba/PE,-8.4173522,-35.6626669,11,75.80979
1,Barra de Santa Rosa/PB,-6.7218007,-36.0564638,240,1548.68684
D1,Barra de Santa Rosa/PB,-6.7218007,-36.0564638,2,12.90572
1,Barra de Santana/PB,-7.5230865,-35.9988518,173,2072.10444
D1,Barra de Santana/PB,-7.5230865,-35.9988518,3,35.93245
1,Barra de Santo Antônio/AL,-9.4038098,-35.5117693,144,896.19119
D1,Barra de Santo Antônio/AL,-9.4038098,-35.5117693,15,93.35325
1,Barra de São Francisco/ES,-18.7570902,-40.8916119,1636,3637.25294
D1,Barra de São Francisco/ES,-18.7570902,-40.8916119,49,108.93973
1,Barra de São Miguel/AL,-9.8261357,-35.8837777,180,2148.48413
D1,Barra de São Miguel/AL,-9.8261357,-35.8837777,5,59.68011
1,Barra de São Miguel/PB,-7.7528088,-36.3170996,124,2044.51772
D1,Barra de São Miguel/PB,-7.7528088,-36.3170996,1,16.48805
1,Barra do Bugres/MT,-15.0683712,-57.1853688,1154,3268.47367
D1,Barra do Bugres/MT,-15.0683712,-57.1853688,25,70.80749
1,Barra do Chapéu/SP,-24.472203,-49.023784,63,1093.75000
1,Barra do Choça/BA,-14.8638173,-40.5761637,788,2524.91269
D1,Barra do Choça/BA,-14.8638173,-40.5761637,7,22.42943
1,Barra do Corda/MA,-5.496823,-45.248496,4084,4615.10645
D1,Barra do Corda/MA,-5.496823,-45.248496,46,51.98210
1,Barra do Garças/MT,-15.8916033,-52.2615413,3060,5005.31610
D1,Barra do Garças/MT,-15.8916033,-52.2615413,123,201.19408
1,Barra do Guarita/RS,-27.1888016,-53.7147086,63,1934.29536
1,Barra do Jacaré/PR,-23.1151788,-50.1813945,37,1330.45667
1,Barra do Mendes/BA,-11.8053298,-42.057037,443,3202.48681
D1,Barra do Mendes/BA,-11.8053298,-42.057037,6,43.37454
1,Barra do Ouro/TO,-7.7113784,-47.6743925,79,1705.52677
D1,Barra do Ouro/TO,-7.7113784,-47.6743925,5,107.94473
1,Barra do Piraí/RJ,-22.4703403,-43.8263256,1795,1781.39018
D1,Barra do Piraí/RJ,-22.4703403,-43.8263256,85,84.35552
1,Barra do Quaraí/RS,-30.208947,-57.5505128,144,3406.67140
D1,Barra do Quaraí/RS,-30.208947,-57.5505128,1,23.65744
1,Barra do Ribeiro/RS,-30.2930206,-51.301437,268,1976.98436
D1,Barra do Ribeiro/RS,-30.2930206,-51.301437,22,162.28976
1,Barra do Rio Azul/RS,-27.4101581,-52.4117471,20,1208.45921
D1,Barra do Rio Azul/RS,-27.4101581,-52.4117471,1,60.42296
1,Barra do Rocha/BA,-14.2090974,-39.6004395,171,3047.04205
D1,Barra do Rocha/BA,-14.2090974,-39.6004395,1,17.81896
1,Barra do Turvo/SP,-24.756421,-48.5056942,201,2633.64780
D1,Barra do Turvo/SP,-24.756421,-48.5056942,6,78.61635
1,Barra dos Coqueiros/SE,-10.9075694,-37.0386249,1904,6155.83576
D1,Barra dos Coqueiros/SE,-10.9075694,-37.0386249,30,96.99321
1,Barra/BA,-11.0892702,-43.1420453,617,1144.50009
D1,Barra/BA,-11.0892702,-43.1420453,9,16.69449
1,Barracão/PR,-26.252395,-53.6349576,226,2191.62141
D1,Barracão/PR,-26.252395,-53.6349576,4,38.78976
1,Barracão/RS,-27.6728964,-51.4582928,129,2454.33790
D1,Barracão/RS,-27.6728964,-51.4582928,3,57.07763
1,Barras/PI,-4.2446153,-42.2920241,3155,6686.44696
D1,Barras/PI,-4.2446153,-42.2920241,61,129.27837
1,Barreira/CE,-4.2883361,-38.641094,371,1643.55646
D1,Barreira/CE,-4.2883361,-38.641094,21,93.03150
1,Barreiras do Piauí/PI,-9.9224524,-45.4763776,40,1193.31742
D1,Barreiras do Piauí/PI,-9.9224524,-45.4763776,1,29.83294
1,Barreiras/BA,-12.1440031,-44.9967406,6928,4413.44163
D1,Barreiras/BA,-12.1440031,-44.9967406,105,66.88963
1,Barreirinha/AM,-2.798863,-57.067897,1452,4470.03048
D1,Barreirinha/AM,-2.798863,-57.067897,27,83.12040
1,Barreirinhas/MA,-2.7541271,-42.8259693,1353,2140.24709
D1,Barreirinhas/MA,-2.7541271,-42.8259693,26,41.12818
1,Barreiros/PE,-8.8159644,-35.1831905,359,839.49116
D1,Barreiros/PE,-8.8159644,-35.1831905,41,95.87504
1,Barretos/SP,-20.5531437,-48.5697509,5839,4753.60856
D1,Barretos/SP,-20.5531437,-48.5697509,151,122.93113
1,Barrinha/SP,-21.1898849,-48.1550642,823,2480.40989
D1,Barrinha/SP,-21.1898849,-48.1550642,34,102.47137
1,Barro Alto/BA,-11.7618025,-41.9094904,454,3015.80975
D1,Barro Alto/BA,-11.7618025,-41.9094904,2,13.28551
1,Barro Alto/GO,-14.9696025,-48.9190985,620,5434.78261
D1,Barro Alto/GO,-14.9696025,-48.9190985,7,61.36045
1,Barro Duro/PI,-5.8180139,-42.5106589,460,6546.17902
D1,Barro Duro/PI,-5.8180139,-42.5106589,7,99.61577
1,Barro Preto/BA,-14.8068289,-39.4727588,292,5359.76505
D1,Barro Preto/BA,-14.8068289,-39.4727588,6,110.13216
1,Barro/CE,-7.1713587,-38.7742136,475,2087.17814
D1,Barro/CE,-7.1713587,-38.7742136,10,43.94059
1,Barrocas/BA,-11.5165,-39.099282894736845,224,1390.87240
D1,Barrocas/BA,-11.5165,-39.099282894736845,1,6.20925
1,Barrolândia/TO,-9.837246,-48.7264346,239,4229.33994
D1,Barrolândia/TO,-9.837246,-48.7264346,4,70.78393
1,Barroquinha/CE,-3.0200371,-41.1339229,816,5424.08934
D1,Barroquinha/CE,-3.0200371,-41.1339229,20,132.94337
1,Barros Cassal/RS,-29.094938,-52.5832366,213,1904.84708
D1,Barros Cassal/RS,-29.094938,-52.5832366,2,17.88589
1,Barroso/MG,-21.187222,-43.976111,257,1229.84160
D1,Barroso/MG,-21.187222,-43.976111,2,9.57075
1,Barueri/SP,-23.5112184,-46.8764612,10945,3951.52032
D1,Barueri/SP,-23.5112184,-46.8764612,435,157.04992
1,Barão de Antonina/SP,-23.6295651,-49.5632104,25,714.69411
D1,Barão de Antonina/SP,-23.6295651,-49.5632104,1,28.58776
1,Barão de Cocais/MG,-19.9452437,-43.4870298,1014,3085.25528
D1,Barão de Cocais/MG,-19.9452437,-43.4870298,7,21.29861
1,Barão de Cotegipe/RS,-27.6214694,-52.3765316,295,4456.19335
D1,Barão de Cotegipe/RS,-27.6214694,-52.3765316,4,60.42296
1,Barão de Grajaú/MA,-6.7542591,-43.0263477,27,142.67597
D1,Barão de Grajaú/MA,-6.7542591,-43.0263477,1,5.28430
1,Barão de Melgaço/MT,-16.195776,-55.9668049,140,1714.84566
D1,Barão de Melgaço/MT,-16.195776,-55.9668049,6,73.49339
1,Barão de Monte Alto/MG,-21.244722,-42.2375,88,1643.63093
D1,Barão de Monte Alto/MG,-21.244722,-42.2375,3,56.03287
1,Barão do Triunfo/RS,-30.3909877,-51.7375349,149,1981.64650
D1,Barão do Triunfo/RS,-30.3909877,-51.7375349,1,13.29964
1,Barão/RS,-29.372474,-51.494908,171,2757.17510
D1,Barão/RS,-29.372474,-51.494908,3,48.37149
1,Bastos/SP,-21.9222474,-50.7317727,231,1102.46743
D1,Bastos/SP,-21.9222474,-50.7317727,7,33.40810
1,Bataguassu/MS,-21.715899,-52.422058,1235,5294.74812
D1,Bataguassu/MS,-21.715899,-52.422058,8,34.29796
1,Batalha/AL,-9.6733809,-37.1265481,627,3419.12968
D1,Batalha/AL,-9.6733809,-37.1265481,11,59.98473
1,Batalha/PI,-4.022391,-42.0780926,462,1717.15295
D1,Batalha/PI,-4.022391,-42.0780926,11,40.88459
1,Batatais/SP,-20.892867,-47.592149,941,1494.12512
D1,Batatais/SP,-20.892867,-47.592149,34,53.98539
1,Batayporã/MS,-22.2976466,-53.2685608,310,2731.51820
D1,Batayporã/MS,-22.2976466,-53.2685608,6,52.86809
1,Baturité/CE,-4.3290203,-38.8821055,689,1917.03069
D1,Baturité/CE,-4.3290203,-38.8821055,33,91.81714
1,Bauru/SP,-22.3218102,-49.0705863,17500,4613.79869
D1,Bauru/SP,-22.3218102,-49.0705863,284,74.87536
1,Bayeux/PB,-7.1301631,-34.936532,2620,2695.39006
D1,Bayeux/PB,-7.1301631,-34.936532,124,127.56808
1,Baía Formosa/RN,-6.3691885,-35.0063741,195,2091.82579
D1,Baía Formosa/RN,-6.3691885,-35.0063741,6,64.36387
1,Baía da Traição/PB,-6.691258,-34.9371244,895,9839.48989
D1,Baía da Traição/PB,-6.691258,-34.9371244,7,76.95690
1,Bebedouro/SP,-20.949077,-48.479083,1714,2210.04448
D1,Bebedouro/SP,-20.949077,-48.479083,39,50.28689
1,Beberibe/CE,-4.1810469,-38.1298101,1126,2087.15639
D1,Beberibe/CE,-4.1810469,-38.1298101,31,57.46168
1,Bela Cruz/CE,-3.0529129,-40.167582,1330,4064.54373
D1,Bela Cruz/CE,-3.0529129,-40.167582,24,73.34515
1,Bela Vista da Caroba/PR,-25.8792818,-53.6672545,51,1475.26757
D1,Bela Vista da Caroba/PR,-25.8792818,-53.6672545,1,28.92682
1,Bela Vista de Goiás/GO,-16.9692949,-48.9513071,1072,3515.67624
D1,Bela Vista de Goiás/GO,-16.9692949,-48.9513071,19,62.31143
1,Bela Vista de Minas/MG,-19.8289721,-43.0973688,181,1763.78874
D1,Bela Vista de Minas/MG,-19.8289721,-43.0973688,2,19.48938
1,Bela Vista do Maranhão/MA,-3.7416367,-45.2514192,154,1365.36927
D1,Bela Vista do Maranhão/MA,-3.7416367,-45.2514192,8,70.92827
1,Bela Vista do Paraíso/PR,-22.9948493,-51.1907996,322,2091.04487
D1,Bela Vista do Paraíso/PR,-22.9948493,-51.1907996,7,45.45750
1,Bela Vista do Piauí/PI,-7.9716353,-41.8715061,78,1935.48387
D1,Bela Vista do Piauí/PI,-7.9716353,-41.8715061,2,49.62779
1,Bela Vista do Toldo/SC,-26.274625,-50.466354,18,282.92990
D1,Bela Vista do Toldo/SC,-26.274625,-50.466354,1,15.71833
1,Bela Vista/MS,-22.107327,-56.5317344,130,525.57105
D1,Bela Vista/MS,-22.107327,-56.5317344,4,16.17142
1,Belford Roxo/RJ,-22.7667284,-43.4033603,12266,2390.48328
D1,Belford Roxo/RJ,-22.7667284,-43.4033603,367,71.52351
1,Belmiro Braga/MG,-21.9486291,-43.413564,46,1343.06569
D1,Belmiro Braga/MG,-21.9486291,-43.413564,3,87.59124
1,Belmonte/BA,-15.8630837,-38.8792845,615,2624.05598
D1,Belmonte/BA,-15.8630837,-38.8792845,5,21.33379
1,Belmonte/SC,-26.8448262,-53.578916,35,1291.98966
1,Belo Campo/BA,-15.0338286,-41.2585109,179,1046.23298
D1,Belo Campo/BA,-15.0338286,-41.2585109,2,11.68975
1,Belo Horizonte/MG,-19.9227318,-43.9450948,59589,2363.17619
D1,Belo Horizonte/MG,-19.9227318,-43.9450948,1787,70.86871
1,Belo Jardim/PE,-8.3338293,-36.4176419,1368,1783.87471
D1,Belo Jardim/PE,-8.3338293,-36.4176419,41,53.46408
1,Belo Monte/AL,-9.8269944,-37.2787165,186,2771.98212
D1,Belo Monte/AL,-9.8269944,-37.2787165,5,74.51565
1,Belo Oriente/MG,-19.2232523,-42.4807033,1022,3786.02652
D1,Belo Oriente/MG,-19.2232523,-42.4807033,18,66.68148
1,Belo Vale/MG,-20.407778,-44.024167,149,1930.30185
D1,Belo Vale/MG,-20.407778,-44.024167,5,64.77523
1,Belterra/PA,-2.636091,-54.937392,562,3150.40081
D1,Belterra/PA,-2.636091,-54.937392,14,78.47974
1,Belágua/MA,-3.1604031,-43.5085052,279,3706.16366
D1,Belágua/MA,-3.1604031,-43.5085052,1,13.28374
1,Belém de Maria/PE,-8.6242497,-35.8388934,106,874.44316
D1,Belém de Maria/PE,-8.6242497,-35.8388934,3,24.74839
1,Belém do Brejo do Cruz/PB,-6.1880727,-37.5332267,262,3565.11090
D1,Belém do Brejo do Cruz/PB,-6.1880727,-37.5332267,4,54.42917
1,Belém do Piauí/PI,-7.3767305,-40.9712156,171,4767.21494
D1,Belém do Piauí/PI,-7.3767305,-40.9712156,3,83.63535
1,Belém do São Francisco/PE,-8.7517707,-38.9625715,165,795.94790
1,Belém/AL,-9.5715351,-36.492841,68,1587.30159
D1,Belém/AL,-9.5715351,-36.492841,2,46.68534
1,Belém/PA,-1.45056,-48.4682453,54217,3615.33194
D1,Belém/PA,-1.45056,-48.4682453,2389,159.30479
1,Belém/PB,-6.6967586,-35.5369626,1178,6653.48772
D1,Belém/PB,-6.6967586,-35.5369626,18,101.66620
1,Beneditinos/PI,-5.4565671,-42.3605061,363,3466.05557
D1,Beneditinos/PI,-5.4565671,-42.3605061,10,95.48362
1,Benedito Leite/MA,-7.2173453,-44.5523331,203,3600.56758
D1,Benedito Leite/MA,-7.2173453,-44.5523331,2,35.47357
1,Benedito Novo/SC,-26.7840657,-49.3629511,410,3481.95329
D1,Benedito Novo/SC,-26.7840657,-49.3629511,4,33.97028
1,Benevides/PA,-1.3555577,-48.252235,2220,3481.36997
D1,Benevides/PA,-1.3555577,-48.252235,51,79.97742
1,Benjamin Constant do Sul/RS,-27.5105555,-52.6007689,118,6026.55771
1,Benjamin Constant/AM,-4.3782748,-70.0290603,1784,4060.54399
D1,Benjamin Constant/AM,-4.3782748,-70.0290603,46,104.70013
1,Bento Fernandes/RN,-5.6926846,-35.8207423,37,669.68326
D1,Bento Fernandes/RN,-5.6926846,-35.8207423,2,36.19910
1,Bento Gonçalves/RS,-29.1654014,-51.5197627,6463,5306.10904
D1,Bento Gonçalves/RS,-29.1654014,-51.5197627,132,108.37171
1,Bento de Abreu/SP,-21.2707225,-50.8120444,60,1996.67221
1,Bequimão/MA,-2.4495376,-44.7884889,246,1154.98380
D1,Bequimão/MA,-2.4495376,-44.7884889,12,56.34067
1,Berilo/MG,-16.9515764,-42.4643732,9,75.80863
1,Berizal/MG,-15.6118785,-41.7417382,20,419.81528
1,Bernardino Batista/PB,-6.4532173,-38.5495418,149,4213.80090
1,Bernardino de Campos/SP,-23.0140216,-49.4760724,130,1165.08335
D1,Bernardino de Campos/SP,-23.0140216,-49.4760724,4,35.84872
1,Bernardo Sayão/TO,-7.8794244,-48.8968905,101,2270.68345
D1,Bernardo Sayão/TO,-7.8794244,-48.8968905,4,89.92806
1,Bernardo do Mearim/MA,-4.6315929,-44.7617508,140,2305.28569
D1,Bernardo do Mearim/MA,-4.6315929,-44.7617508,3,49.39898
1,Bertioga/SP,-23.848568,-46.139586,2399,3706.56490
D1,Bertioga/SP,-23.848568,-46.139586,52,80.34238
1,Bertolínia/PI,-7.6372159,-43.9540611,542,9842.01925
D1,Bertolínia/PI,-7.6372159,-43.9540611,6,108.95224
1,Bertópolis/MG,-17.063333,-40.573889,170,3690.03690
1,Beruri/AM,-3.9007135,-61.3717319,1078,5365.05251
D1,Beruri/AM,-3.9007135,-61.3717319,12,59.72229
1,Betim/MG,-19.968056,-44.198333,9588,2155.65308
D1,Betim/MG,-19.968056,-44.198333,286,64.30087
1,Betânia do Piauí/PI,-8.1460635,-40.7961387,79,1272.14171
D1,Betânia do Piauí/PI,-8.1460635,-40.7961387,1,16.10306
1,Betânia/PE,-8.2742779,-38.0351767,136,1065.41324
D1,Betânia/PE,-8.2742779,-38.0351767,2,15.66784
1,Bezerros/PE,-8.2372132,-35.7558262,1672,2746.38633
D1,Bezerros/PE,-8.2372132,-35.7558262,72,118.26544
1,Bias Fortes/MG,-21.605833,-43.756944,46,1381.79634
D1,Bias Fortes/MG,-21.605833,-43.756944,2,60.07810
1,Bicas/MG,-21.7213723,-43.0604327,192,1319.22496
D1,Bicas/MG,-21.7213723,-43.0604327,4,27.48385
1,Biguaçu/SC,-27.4961277,-48.6542432,5732,8249.14371
D1,Biguaçu/SC,-27.4961277,-48.6542432,52,74.83522
1,Bilac/SP,-21.403962,-50.47464,157,1934.21215
D1,Bilac/SP,-21.403962,-50.47464,3,36.95947
1,Biquinhas/MG,-18.783611,-45.502222,28,1120.89672
1,Birigui/SP,-21.2908491,-50.34144,3917,3136.53580
D1,Birigui/SP,-21.2908491,-50.34144,113,90.48469
1,Biritiba Mirim/SP,-23.5697765,-46.0407456,549,1666.86908
D1,Biritiba Mirim/SP,-23.5697765,-46.0407456,33,100.19432
1,Biritinga/BA,-11.6227908,-38.8066738,118,738.23824
D1,Biritinga/BA,-11.6227908,-38.8066738,2,12.51251
1,Bituruna/PR,-26.161281,-51.5533319,97,591.46341
D1,Bituruna/PR,-26.161281,-51.5533319,1,6.09756
1,Blumenau/SC,-26.9195567,-49.0658025,24926,6888.39452
D1,Blumenau/SC,-26.9195567,-49.0658025,240,66.32491
1,Boa Esperança do Iguaçu/PR,-25.6362851,-53.2139114,75,3036.43725
1,Boa Esperança do Sul/SP,-21.9930206,-48.3917372,264,1757.89053
D1,Boa Esperança do Sul/SP,-21.9930206,-48.3917372,7,46.61073
1,Boa Esperança/ES,-18.5395472,-40.2904088,495,3279.88338
D1,Boa Esperança/ES,-18.5395472,-40.2904088,17,112.64246
1,Boa Esperança/MG,-21.0901253,-45.5660195,479,1190.97939
D1,Boa Esperança/MG,-21.0901253,-45.5660195,20,49.72774
1,Boa Esperança/PR,-24.2411024,-52.7860277,73,1803.80529
D1,Boa Esperança/PR,-24.2411024,-52.7860277,1,24.70966
1,Boa Hora/PI,-4.4094627,-42.1255341,172,2523.84446
1,Boa Nova/BA,-14.365907,-40.2063056,241,1954.74085
D1,Boa Nova/BA,-14.365907,-40.2063056,4,32.44383
1,Boa Ventura de São Roque/PR,-24.88177,-51.5441292,38,597.01493
1,Boa Ventura/PB,-7.4202462,-38.2156782,140,2638.02525
D1,Boa Ventura/PB,-7.4202462,-38.2156782,3,56.52911
1,Boa Viagem/CE,-5.1261877,-39.7300055,1561,2860.17920
D1,Boa Viagem/CE,-5.1261877,-39.7300055,39,71.45867
1,Boa Vista da Aparecida/PR,-25.4357216,-53.4067721,209,2771.88329
D1,Boa Vista da Aparecida/PR,-25.4357216,-53.4067721,6,79.57560
1,Boa Vista das Missões/RS,-27.6677983,-53.3127622,11,525.81262
1,Boa Vista do Buricá/RS,-27.6687782,-54.1111913,251,3739.57092
D1,Boa Vista do Buricá/RS,-27.6687782,-54.1111913,3,44.69607
1,Boa Vista do Cadeado/RS,-28.5783827,-53.8123759,20,810.37277
1,Boa Vista do Gurupi/MA,-1.7981168,-46.3071882,14,167.02458
D1,Boa Vista do Gurupi/MA,-1.7981168,-46.3071882,3,35.79098
1,Boa Vista do Incra/RS,-28.8195551,-53.3866624,41,1567.27829
1,Boa Vista do Ramos/AM,-2.9716927,-57.5869819,583,2970.54927
D1,Boa Vista do Ramos/AM,-2.9716927,-57.5869819,7,35.66697
1,Boa Vista do Sul/RS,-29.3510488,-51.6779679,101,3635.70914
D1,Boa Vista do Sul/RS,-29.3510488,-51.6779679,1,35.99712
1,Boa Vista do Tupim/BA,-12.6605988,-40.6083594,120,647.56354
D1,Boa Vista do Tupim/BA,-12.6605988,-40.6083594,2,10.79273
1,Boa Vista/PB,-7.2620711,-36.2415161,159,2228.13901
D1,Boa Vista/PB,-7.2620711,-36.2415161,2,28.02691
1,Boa Vista/RR,2.8208478,-60.6719582,50654,12070.47744
D1,Boa Vista/RR,2.8208478,-60.6719582,569,135.58854
1,Boca da Mata/AL,-9.6452054,-36.2116658,1265,4624.21407
D1,Boca da Mata/AL,-9.6452054,-36.2116658,25,91.38763
1,Boca do Acre/AM,-8.7553487,-67.3930873,1977,5708.09874
D1,Boca do Acre/AM,-8.7553487,-67.3930873,18,51.97055
1,Bocaina de Minas/MG,-22.167778,-44.394722,42,825.30949
D1,Bocaina de Minas/MG,-22.167778,-44.394722,2,39.30045
1,Bocaina do Sul/SC,-27.745494,-49.942279,271,7769.49541
D1,Bocaina do Sul/SC,-27.745494,-49.942279,3,86.00917
1,Bocaina/PI,-6.9445939,-41.3224599,163,3618.20200
D1,Bocaina/PI,-6.9445939,-41.3224599,2,44.39512
1,Bocaina/SP,-22.1421831,-48.522276,237,1903.30871
D1,Bocaina/SP,-22.1421831,-48.522276,4,32.12335
1,Bocaiúva do Sul/PR,-25.206591,-49.114131,462,3518.92756
D1,Bocaiúva do Sul/PR,-25.206591,-49.114131,3,22.85018
1,Bocaiúva/MG,-17.1160208,-43.8122678,562,1118.27443
D1,Bocaiúva/MG,-17.1160208,-43.8122678,8,15.91850
1,Bodocó/PE,-7.777592,-39.933797,599,1560.79004
D1,Bodocó/PE,-7.777592,-39.933797,10,26.05659
1,Bodoquena/MS,-20.5508775,-56.6769653,82,1046.18525
D1,Bodoquena/MS,-20.5508775,-56.6769653,1,12.75836
1,Bodó/RN,-5.9866104,-36.4134824,48,2184.79745
1,Bofete/SP,-23.1019554,-48.2610535,179,1501.55188
D1,Bofete/SP,-23.1019554,-48.2610535,4,33.55423
1,Boituva/SP,-23.2838893,-47.6738231,1571,2526.94226
D1,Boituva/SP,-23.2838893,-47.6738231,25,40.21232
1,Bom Conselho/PE,-9.169191,-36.685683,929,1904.97673
D1,Bom Conselho/PE,-9.169191,-36.685683,26,53.31474
1,Bom Despacho/MG,-19.7375242,-45.2517288,1039,2036.13702
D1,Bom Despacho/MG,-19.7375242,-45.2517288,21,41.15388
1,Bom Jardim da Serra/SC,-28.3380324,-49.625588,454,9513.83068
D1,Bom Jardim da Serra/SC,-28.3380324,-49.625588,2,41.91115
1,Bom Jardim de Goiás/GO,-16.2062659,-52.172793,179,2018.26587
D1,Bom Jardim de Goiás/GO,-16.2062659,-52.172793,3,33.82568
1,Bom Jardim de Minas/MG,-21.9476466,-44.1906033,40,619.29091
1,Bom Jardim/MA,-3.54129,-45.606004,998,2386.30386
D1,Bom Jardim/MA,-3.54129,-45.606004,29,69.34149
1,Bom Jardim/PE,-7.7961572,-35.5871696,786,1965.83548
D1,Bom Jardim/PE,-7.7961572,-35.5871696,34,85.03614
1,Bom Jardim/RJ,-22.1515328,-42.4186683,318,1151.50637
D1,Bom Jardim/RJ,-22.1515328,-42.4186683,5,18.10545
1,Bom Jesus da Lapa/BA,-13.250571,-43.410754,1288,1848.92768
D1,Bom Jesus da Lapa/BA,-13.250571,-43.410754,18,25.83905
1,Bom Jesus da Penha/MG,-21.0165299,-46.5226644,115,2709.70782
D1,Bom Jesus da Penha/MG,-21.0165299,-46.5226644,1,23.56268
1,Bom Jesus da Serra/BA,-14.3724084,-40.5047119,126,1282.70386
1,Bom Jesus das Selvas/MA,-4.4878075,-46.8526639,1910,5525.50120
D1,Bom Jesus das Selvas/MA,-4.4878075,-46.8526639,17,49.17985
1,Bom Jesus de Goiás/GO,-18.2174587,-49.739721,1072,4179.66313
D1,Bom Jesus de Goiás/GO,-18.2174587,-49.739721,31,120.86712
1,Bom Jesus do Amparo/MG,-19.7045132,-43.4752911,72,1173.97685
D1,Bom Jesus do Amparo/MG,-19.7045132,-43.4752911,2,32.61047
1,Bom Jesus do Araguaia/MT,-12.1725897,-51.5074425,219,3265.73218
D1,Bom Jesus do Araguaia/MT,-12.1725897,-51.5074425,1,14.91202
1,Bom Jesus do Galho/MG,-19.8283191,-42.3162256,216,1453.37101
D1,Bom Jesus do Galho/MG,-19.8283191,-42.3162256,8,53.82856
1,Bom Jesus do Itabapoana/RJ,-21.1341025,-41.680095,1009,2712.14687
D1,Bom Jesus do Itabapoana/RJ,-21.1341025,-41.680095,23,61.82297
1,Bom Jesus do Norte/ES,-21.1254776,-41.6711646,483,4848.42401
D1,Bom Jesus do Norte/ES,-21.1254776,-41.6711646,10,100.38145
1,Bom Jesus do Oeste/SC,-26.6929713,-53.0967453,43,2010.28518
D1,Bom Jesus do Oeste/SC,-26.6929713,-53.0967453,1,46.75082
1,Bom Jesus do Sul/PR,-26.1922507,-53.6002033,61,1739.87450
D1,Bom Jesus do Sul/PR,-26.1922507,-53.6002033,1,28.52253
1,Bom Jesus do Tocantins/PA,-5.0471796,-48.5978362,418,2441.87405
D1,Bom Jesus do Tocantins/PA,-5.0471796,-48.5978362,4,23.36722
1,Bom Jesus do Tocantins/TO,-8.96306,-48.165043,101,2016.77316
1,Bom Jesus dos Perdões/SP,-23.1353864,-46.4648052,468,1801.03906
D1,Bom Jesus dos Perdões/SP,-23.1353864,-46.4648052,3,11.54512
1,Bom Jesus/PB,-6.8156725,-38.6551841,71,2757.28155
D1,Bom Jesus/PB,-6.8156725,-38.6551841,3,116.50485
1,Bom Jesus/PI,-9.0711644,-44.3583926,1901,7488.08445
D1,Bom Jesus/PI,-9.0711644,-44.3583926,24,94.53657
1,Bom Jesus/RN,-5.9887544,-35.5821149,255,2483.68559
D1,Bom Jesus/RN,-5.9887544,-35.5821149,6,58.43966
1,Bom Jesus/RS,-28.6692723,-50.4346894,336,2971.08498
D1,Bom Jesus/RS,-28.6692723,-50.4346894,7,61.89760
1,Bom Jesus/SC,-26.7350604,-52.3916519,131,4285.24697
D1,Bom Jesus/SC,-26.7350604,-52.3916519,2,65.42362
1,Bom Lugar/MA,-4.3728019,-45.0366054,305,1855.45687
D1,Bom Lugar/MA,-4.3728019,-45.0366054,4,24.33386
1,Bom Princípio do Piauí/PI,-3.1912777,-41.6430185,44,778.62325
D1,Bom Princípio do Piauí/PI,-3.1912777,-41.6430185,3,53.08795
1,Bom Princípio/RS,-29.489788,-51.3566782,573,4019.64223
D1,Bom Princípio/RS,-29.489788,-51.3566782,5,35.07541
1,Bom Progresso/RS,-27.5490948,-53.8655601,21,1105.84518
1,Bom Repouso/MG,-22.4657069,-46.1485376,190,1803.16978
D1,Bom Repouso/MG,-22.4657069,-46.1485376,7,66.43257
1,Bom Retiro do Sul/RS,-29.6000007,-51.9359243,379,3058.91848
D1,Bom Retiro do Sul/RS,-29.6000007,-51.9359243,6,48.42615
1,Bom Retiro/SC,-27.798993,-49.486994,197,1958.25050
D1,Bom Retiro/SC,-27.798993,-49.486994,5,49.70179
1,Bom Sucesso de Itararé/SP,-24.3190016,-49.1446207,11,276.10442
D1,Bom Sucesso de Itararé/SP,-24.3190016,-49.1446207,1,25.10040
1,Bom Sucesso do Sul/PR,-26.0749256,-52.8348629,102,3134.60356
1,Bom Sucesso/MG,-21.0323516,-44.7598082,74,420.28739
D1,Bom Sucesso/MG,-21.0323516,-44.7598082,1,5.67956
1,Bom Sucesso/PB,-6.4458948,-37.9297662,54,1089.58838
1,Bom Sucesso/PR,-23.7088019,-51.7651297,167,2362.76174
D1,Bom Sucesso/PR,-23.7088019,-51.7651297,2,28.29655
1,Bombinhas/SC,-27.1519159,-48.4875691,2212,10877.79690
D1,Bombinhas/SC,-27.1519159,-48.4875691,15,73.76445
1,Bonfim do Piauí/PI,-9.1648678,-42.8734415,138,2427.44063
D1,Bonfim do Piauí/PI,-9.1648678,-42.8734415,2,35.18030
1,Bonfim/MG,-20.3266626, -44.2386157,104,1516.03499
D1,Bonfim/MG,-20.3266626, -44.2386157,2,29.15452
1,Bonfim/RR,3.3613818,-59.8427241,1335,10631.52027
D1,Bonfim/RR,3.3613818,-59.8427241,14,111.49160
1,Bonfinópolis de Minas/MG,-16.5660011,-45.98645,176,3232.91697
D1,Bonfinópolis de Minas/MG,-16.5660011,-45.98645,9,165.31962
1,Bonfinópolis/GO,-16.6172709,-48.9615701,381,3841.11302
D1,Bonfinópolis/GO,-16.6172709,-48.9615701,10,100.81661
1,Boninal/BA,-12.7095183,-41.8299984,225,1557.52457
D1,Boninal/BA,-12.7095183,-41.8299984,2,13.84466
1,Bonito de Minas/MG,-15.3191266,-44.7544,6,52.77509
1,Bonito de Santa Fé/PB,-7.3143332,-38.5146677,310,2578.60589
D1,Bonito de Santa Fé/PB,-7.3143332,-38.5146677,10,83.18084
1,Bonito/BA,-11.9665473,-41.2649896,387,2292.11087
D1,Bonito/BA,-11.9665473,-41.2649896,2,11.84553
1,Bonito/MS,-21.1264766,-56.4902208,977,4402.88418
D1,Bonito/MS,-21.1264766,-56.4902208,11,49.57188
1,Bonito/PA,-1.3605722,-47.3049907,293,1772.53479
D1,Bonito/PA,-1.3605722,-47.3049907,9,54.44646
1,Bonito/PE,-8.4721161,-35.7314591,405,1062.51804
D1,Bonito/PE,-8.4721161,-35.7314591,28,73.45804
1,Bonópolis/GO,-13.649331,-49.8329113,87,1936.34543
D1,Bonópolis/GO,-13.649331,-49.8329113,1,22.25684
1,Boqueirão do Leão/RS,-29.30332,-52.4296817,140,1817.70969
D1,Boqueirão do Leão/RS,-29.30332,-52.4296817,3,38.95092
1,Boqueirão do Piauí/PI,-4.4850148,-42.1095161,208,3236.85030
D1,Boqueirão do Piauí/PI,-4.4850148,-42.1095161,1,15.56178
1,Boqueirão/PB,-7.487004,-36.130887,835,4672.63570
D1,Boqueirão/PB,-7.487004,-36.130887,11,61.55568
1,Boquim/SE,-11.1450175,-37.6204228,741,2754.74925
D1,Boquim/SE,-11.1450175,-37.6204228,21,78.06982
1,Boquira/BA,-12.8184859,-42.7270883,248,1153.64935
D1,Boquira/BA,-12.8184859,-42.7270883,2,9.30362
1,Boracéia/SP,-22.195355,-48.7801925,168,3451.10929
D1,Boracéia/SP,-22.195355,-48.7801925,2,41.08463
1,Borba/AM,-4.3934778,-59.5947721,901,2158.18722
D1,Borba/AM,-4.3934778,-59.5947721,23,55.09246
1,Borborema/PB,-6.8066718,-35.5990191,96,1815.77454
D1,Borborema/PB,-6.8066718,-35.5990191,1,18.91432
1,Borborema/SP,-21.6212706,-49.074135,335,2072.50681
D1,Borborema/SP,-21.6212706,-49.074135,10,61.86587
1,Borda da Mata/MG,-22.274167,-46.165278,435,2217.80361
D1,Borda da Mata/MG,-22.274167,-46.165278,18,91.77118
1,Borebi/SP,-22.5700178,-48.9714871,54,2012.67238
D1,Borebi/SP,-22.5700178,-48.9714871,2,74.54342
1,Borrazópolis/PR,-23.9393362,-51.5850786,293,4550.39602
D1,Borrazópolis/PR,-23.9393362,-51.5850786,5,77.65181
1,Borá/SP,-22.2701088,-50.544407,8,954.65394
1,Bossoroca/RS,-28.7278885,-54.9120278,105,1692.18372
D1,Bossoroca/RS,-28.7278885,-54.9120278,1,16.11604
1,Botelhos/MG,-21.65,-46.394722,178,1190.71510
D1,Botelhos/MG,-21.65,-46.394722,2,13.37882
1,Botucatu/SP,-22.8879628,-48.4410712,3705,2501.18139
D1,Botucatu/SP,-22.8879628,-48.4410712,56,37.80463
1,Botumirim/MG,-16.862778,-43.011111,7,111.32316
1,Botuporã/BA,-13.3744752,-42.5198469,31,306.05193
D1,Botuporã/BA,-13.3744752,-42.5198469,1,9.87264
1,Botuverá/SC,-27.200749,-49.068892,304,5712.13829
1,Bozano/RS,-28.3669953,-53.7705165,43,2036.94931
1,Braga/RS,-27.617348,-53.740514,26,785.26125
1,Braganey/PR,-24.8179919,-53.118506,63,1170.56856
D1,Braganey/PR,-24.8179919,-53.118506,3,55.74136
1,Bragança Paulista/SP,-22.9520235,-46.5418586,4882,2862.78902
D1,Bragança Paulista/SP,-22.9520235,-46.5418586,94,55.12130
1,Bragança/PA,-1.0573967,-46.7635406,2916,2261.97310
D1,Bragança/PA,-1.0573967,-46.7635406,96,74.46825
1,Branquinha/AL,-9.2478057,-36.0152009,275,2629.06310
D1,Branquinha/AL,-9.2478057,-36.0152009,6,57.36138
1,Brasil Novo/PA,-3.3055853,-52.539198,792,5285.99079
D1,Brasil Novo/PA,-3.3055853,-52.539198,16,106.78769
1,Brasileira/PI,-4.131182,-41.7824969,242,2899.24524
D1,Brasileira/PI,-4.131182,-41.7824969,5,59.90176
1,Brasilândia de Minas/MG,-17.0096469,-46.0087183,450,2686.88799
D1,Brasilândia de Minas/MG,-17.0096469,-46.0087183,1,5.97086
1,Brasilândia do Sul/PR,-24.1975793,-53.527551,68,2630.56093
D1,Brasilândia do Sul/PR,-24.1975793,-53.527551,1,38.68472
1,Brasilândia do Tocantins/TO,-8.3886619,-48.4842729,67,3030.30303
D1,Brasilândia do Tocantins/TO,-8.3886619,-48.4842729,1,45.22840
1,Brasilândia/MS,-21.255575,-52.0365617,150,1265.50240
D1,Brasilândia/MS,-21.255575,-52.0365617,4,33.74673
1,Brasiléia/AC,-11.0010413,-68.7487894,1247,4670.06217
D1,Brasiléia/AC,-11.0010413,-68.7487894,20,74.90076
1,Brasnorte/MT,-12.1227151,-58.0050109,352,1747.76564
D1,Brasnorte/MT,-12.1227151,-58.0050109,2,9.93049
1,Brasília de Minas/MG,-16.2075114,-44.430559,307,947.38466
D1,Brasília de Minas/MG,-16.2075114,-44.430559,5,15.42972
1,Brasília/DF,-15.7934036,-47.8823172,245243,8027.20260
D1,Brasília/DF,-15.7934036,-47.8823172,4156,136.03265
1,Brazabrantes/GO,-16.4291635,-49.3858216,180,4805.12547
D1,Brazabrantes/GO,-16.4291635,-49.3858216,2,53.39028
1,Brazópolis/MG,-22.4742842,-45.6165577,289,2005.55170
D1,Brazópolis/MG,-22.4742842,-45.6165577,4,27.75850
1,Braço do Norte/SC,-28.2728633,-49.1622712,4140,12221.04145
D1,Braço do Norte/SC,-28.2728633,-49.1622712,33,97.41410
1,Braço do Trombudo/SC,-27.358578,-49.882145,235,6235.07562
D1,Braço do Trombudo/SC,-27.358578,-49.882145,3,79.59671
1,Braúna/SP,-21.5015319,-50.3175246,120,2090.22818
D1,Braúna/SP,-21.5015319,-50.3175246,7,121.92998
1,Braúnas/MG,-19.055556,-42.716111,24,503.25016
D1,Braúnas/MG,-19.055556,-42.716111,2,41.93751
1,Brejetuba/ES,-20.1465817,-41.2902303,662,5327.11032
D1,Brejetuba/ES,-20.1465817,-41.2902303,2,16.09399
1,Brejinho de Nazaré/TO,-11.0205883,-48.5722906,115,2083.71082
D1,Brejinho de Nazaré/TO,-11.0205883,-48.5722906,5,90.59612
1,Brejinho/PE,-7.3482153,-37.28538,267,3565.70513
D1,Brejinho/PE,-7.3482153,-37.28538,3,40.06410
1,Brejinho/RN,-6.1957907,-35.3583019,354,2768.43669
D1,Brejinho/RN,-6.1957907,-35.3583019,4,31.28177
1,Brejo Alegre/SP,-21.1671191,-50.1850393,105,3634.47560
D1,Brejo Alegre/SP,-21.1671191,-50.1850393,6,207.68432
1,Brejo Grande do Araguaia/PA,-5.7011449,-48.4037308,558,7573.28990
D1,Brejo Grande do Araguaia/PA,-5.7011449,-48.4037308,2,27.14441
1,Brejo Grande/SE,-10.4287358,-36.4667918,184,2202.80139
D1,Brejo Grande/SE,-10.4287358,-36.4667918,8,95.77397
1,Brejo Santo/CE,-7.4909841,-38.9859152,2773,5563.58092
D1,Brejo Santo/CE,-7.4909841,-38.9859152,26,52.16484
1,Brejo da Madre de Deus/PE,-8.1409718,-36.3712527,1092,2131.77160
D1,Brejo da Madre de Deus/PE,-8.1409718,-36.3712527,31,60.51733
1,Brejo de Areia/MA,-4.3316785,-45.5833334,228,2529.39871
D1,Brejo de Areia/MA,-4.3316785,-45.5833334,2,22.18771
1,Brejo do Cruz/PB,-6.32926065,-37.48746163303929,886,6236.80135
D1,Brejo do Cruz/PB,-6.32926065,-37.48746163303929,10,70.39279
1,Brejo do Piauí/PI,-8.207583,-42.8359849,26,675.67568
D1,Brejo do Piauí/PI,-8.207583,-42.8359849,1,25.98753
1,Brejo dos Santos/PB,-6.3769367,-37.8243125,92,1423.26733
D1,Brejo dos Santos/PB,-6.3769367,-37.8243125,1,15.47030
1,Brejo/MA,-3.6804397,-42.7529313,701,1912.63540
D1,Brejo/MA,-3.6804397,-42.7529313,18,49.11189
1,Brejolândia/BA,-12.4843845,-43.9611861,69,649.83989
D1,Brejolândia/BA,-12.4843845,-43.9611861,4,37.67188
1,Brejão/PE,-9.029146,-36.566034,47,522.97763
D1,Brejão/PE,-9.029146,-36.566034,2,22.25437
1,Brejões/BA,-13.1033754,-39.7909837,217,1525.80509
D1,Brejões/BA,-13.1033754,-39.7909837,1,7.03136
1,Breu Branco/PA,-3.7785073,-49.5684795,374,555.45654
D1,Breu Branco/PA,-3.7785073,-49.5684795,22,32.67391
1,Breves/PA,-1.68036,-50.479085,3422,3306.37603
D1,Breves/PA,-1.68036,-50.479085,94,90.82389
1,Britânia/GO,-15.2427599,-51.1602061,205,3536.31189
D1,Britânia/GO,-15.2427599,-51.1602061,1,17.25030
1,Brochier/RS,-29.556766,-51.5963047,81,1586.99060
1,Brodowski/SP,-20.984532,-47.657217,714,2824.70230
D1,Brodowski/SP,-20.984532,-47.657217,23,90.99181
1,Brotas de Macaúbas/BA,-12.0019007,-42.6257506,42,414.61007
1,Brotas/SP,-22.2840884,-48.1267265,218,884.88391
D1,Brotas/SP,-22.2840884,-48.1267265,5,20.29550
1,Brumadinho/MG,-20.143611,-44.2,1569,3858.25997
D1,Brumadinho/MG,-20.143611,-44.2,18,44.26302
1,Brumado/BA,-14.29507325,-41.659307508575985,3579,5315.21497
D1,Brumado/BA,-14.29507325,-41.659307508575985,37,54.94913
1,Brunópolis/SC,-27.310953,-50.837585,51,2153.71622
1,Brusque/SC,-27.0964628,-48.9136323,12240,8889.59902
D1,Brusque/SC,-27.0964628,-48.9136323,89,64.63842
1,Brás Pires/MG,-20.8483109,-43.2430524,54,1257.86164
D1,Brás Pires/MG,-20.8483109,-43.2430524,2,46.58747
1,Bueno Brandão/MG,-22.441976,-46.3517971,109,991.72050
D1,Bueno Brandão/MG,-22.441976,-46.3517971,6,54.59012
1,Buenos Aires/PE,-7.7218931,-35.326587,63,477.63457
D1,Buenos Aires/PE,-7.7218931,-35.326587,9,68.23351
1,Buenópolis/MG,-17.8756607,-44.1749365,96,927.26746
D1,Buenópolis/MG,-17.8756607,-44.1749365,2,19.31807
1,Buerarema/BA,-14.9571177,-39.3008035,688,3758.33060
D1,Buerarema/BA,-14.9571177,-39.3008035,23,125.64187
1,Bugre/MG,-19.4257687,-42.2556,213,5347.72784
D1,Bugre/MG,-19.4257687,-42.2556,3,75.32011
1,Bujari/AC,-9.8309656,-67.9520886,490,4702.49520
D1,Bujari/AC,-9.8309656,-67.9520886,8,76.77543
1,Bujaru/PA,-1.5169239,-48.0410699,724,2460.32555
D1,Bujaru/PA,-1.5169239,-48.0410699,23,78.15951
1,Buri/SP,-23.79849,-48.598924,388,1943.40095
D1,Buri/SP,-23.79849,-48.598924,11,55.09642
1,Buritama/SP,-21.0664017,-50.1448077,764,4421.04045
D1,Buritama/SP,-21.0664017,-50.1448077,17,98.37394
1,Buriti Alegre/GO,-18.1377879,-49.0404411,326,3437.36820
D1,Buriti Alegre/GO,-18.1377879,-49.0404411,8,84.35259
1,Buriti Bravo/MA,-5.8391884,-43.8367876,993,4148.04294
D1,Buriti Bravo/MA,-5.8391884,-43.8367876,5,20.88642
1,Buriti de Goiás/GO,-16.180644,-50.4287479,107,4321.48627
D1,Buriti de Goiás/GO,-16.180644,-50.4287479,1,40.38772
1,Buriti do Tocantins/TO,-5.3187439,-48.2256609,299,2600.67844
D1,Buriti do Tocantins/TO,-5.3187439,-48.2256609,1,8.69792
1,Buriti dos Lopes/PI,-3.1776723,-41.8707444,814,4109.65820
D1,Buriti dos Lopes/PI,-3.1776723,-41.8707444,12,60.58464
1,Buriti dos Montes/PI,-5.3136171,-41.0971256,302,3654.40465
D1,Buriti dos Montes/PI,-5.3136171,-41.0971256,2,24.20136
1,Buriti/MA,-3.9430944,-42.9244281,700,2430.72436
D1,Buriti/MA,-3.9430944,-42.9244281,3,10.41739
1,Buriticupu/MA,-4.3227472,-46.4516989,2592,3551.51200
D1,Buriticupu/MA,-4.3227472,-46.4516989,12,16.44219
1,Buritinópolis/GO,-14.4589282,-46.4293104,58,1766.67682
1,Buritirama/BA,-10.7148421,-43.6362327,518,2434.66817
D1,Buritirama/BA,-10.7148421,-43.6362327,8,37.60105
1,Buritirana/MA,-5.5897455,-47.0148915,242,1564.62145
D1,Buritirana/MA,-5.5897455,-47.0148915,7,45.25765
1,Buritis/MG,-15.621389,-46.423889,491,1962.97925
D1,Buritis/MG,-15.621389,-46.423889,4,15.99168
1,Buritis/RO,-10.2054937,-63.8281954,949,2351.57102
D1,Buritis/RO,-10.2054937,-63.8281954,12,29.73536
1,Buritizal/SP,-20.1933264,-47.7097165,72,1595.03766
D1,Buritizal/SP,-20.1933264,-47.7097165,3,66.45990
1,Buritizeiro/MG,-17.3667765,-44.9647781,384,1365.52754
D1,Buritizeiro/MG,-17.3667765,-44.9647781,8,28.44849
1,Butiá/RS,-30.1256795,-51.9692224,580,2768.23215
D1,Butiá/RS,-30.1256795,-51.9692224,24,114.54754
1,Buíque/PE,-8.6239732,-37.157296,783,1328.94313
D1,Buíque/PE,-8.6239732,-37.157296,10,16.97245
1,Bálsamo/SP,-20.7343722,-49.5807484,596,6521.50126
D1,Bálsamo/SP,-20.7343722,-49.5807484,27,295.43714
0,CASO SEM LOCALIZAÇÃO DEFINIDA/AL,-9.931093434363673,-35.609611600637464,310,9.28879
D0,CASO SEM LOCALIZAÇÃO DEFINIDA/AL,-9.931093434363673,-35.609611600637464,16,0.47942
0,CASO SEM LOCALIZAÇÃO DEFINIDA/BA,-13.415069300066518,-38.14174656569957,9989,67.16168
D0,CASO SEM LOCALIZAÇÃO DEFINIDA/BA,-13.415069300066518,-38.14174656569957,93,0.62529
0,CASO SEM LOCALIZAÇÃO DEFINIDA/CE,-3.3445126297392798,-38.624961942434304,5591,61.22374
0,CASO SEM LOCALIZAÇÃO DEFINIDA/ES,-20.30989267097039,-39.81745156645774,1761,43.82069
D0,CASO SEM LOCALIZAÇÃO DEFINIDA/ES,-20.30989267097039,-39.81745156645774,52,1.29397
0,CASO SEM LOCALIZAÇÃO DEFINIDA/MG,-19.97049116501593,-43.8852149072783,7231,34.15878
D0,CASO SEM LOCALIZAÇÃO DEFINIDA/MG,-19.97049116501593,-43.8852149072783,116,0.54798
0,CASO SEM LOCALIZAÇÃO DEFINIDA/MS,-20.391549234908513,-54.645156949758444,1342,48.29100
D0,CASO SEM LOCALIZAÇÃO DEFINIDA/MS,-20.391549234908513,-54.645156949758444,31,1.11551
0,CASO SEM LOCALIZAÇÃO DEFINIDA/MT,-15.54791153961863,-56.17143998972475,906,26.00111
D0,CASO SEM LOCALIZAÇÃO DEFINIDA/MT,-15.54791153961863,-56.17143998972475,60,1.72193
0,CASO SEM LOCALIZAÇÃO DEFINIDA/PE,-8.121628543819208,-34.57313921302556,1946,20.36189
D0,CASO SEM LOCALIZAÇÃO DEFINIDA/PE,-8.121628543819208,-34.57313921302556,16,0.16742
0,CASO SEM LOCALIZAÇÃO DEFINIDA/PI,-2.683810218391744,-41.470898009352254,436,13.32019
D0,CASO SEM LOCALIZAÇÃO DEFINIDA/PI,-2.683810218391744,-41.470898009352254,10,0.30551
0,CASO SEM LOCALIZAÇÃO DEFINIDA/PR,-25.69415946385943,-48.10141676336737,2956,25.85282
D0,CASO SEM LOCALIZAÇÃO DEFINIDA/PR,-25.69415946385943,-48.10141676336737,60,0.52475
0,CASO SEM LOCALIZAÇÃO DEFINIDA/RN,-5.749310788669161,-34.95302586257457,585,16.68162
D0,CASO SEM LOCALIZAÇÃO DEFINIDA/RN,-5.749310788669161,-34.95302586257457,15,0.42773
0,CASO SEM LOCALIZAÇÃO DEFINIDA/RO,-8.681174926655274,-63.9216949899276,50,2.81337
D0,CASO SEM LOCALIZAÇÃO DEFINIDA/RO,-8.681174926655274,-63.9216949899276,3,0.16880
0,CASO SEM LOCALIZAÇÃO DEFINIDA/RR,2.813328208465927,-60.663338675861986,1959,323.39487
D0,CASO SEM LOCALIZAÇÃO DEFINIDA/RR,2.813328208465927,-60.663338675861986,6,0.99049
0,CASO SEM LOCALIZAÇÃO DEFINIDA/RS,-30.50647488532064,-49.906261466443524,6206,54.54750
D0,CASO SEM LOCALIZAÇÃO DEFINIDA/RS,-30.50647488532064,-49.906261466443524,101,0.88774
0,CASO SEM LOCALIZAÇÃO DEFINIDA/SC,-27.675643660562308,-48.18313219398259,9651,134.70043
0,CASO SEM LOCALIZAÇÃO DEFINIDA/SP,-24.30968974555485,-46.21366504207253,10923,23.78751
D0,CASO SEM LOCALIZAÇÃO DEFINIDA/SP,-24.30968974555485,-46.21366504207253,259,0.56404
1,Caapiranga/AM,-3.3188884,-61.2096404,387,2913.49846
D1,Caapiranga/AM,-3.3188884,-61.2096404,9,67.75578
1,Caaporã/PB,-7.510234,-34.9154114,1086,4946.48144
D1,Caaporã/PB,-7.510234,-34.9154114,18,81.98588
1,Caarapó/MS,-22.6349267,-54.8240903,1079,3526.95061
D1,Caarapó/MS,-22.6349267,-54.8240903,8,26.14977
1,Caatiba/BA,-14.9782759,-40.4092325,440,6781.75092
D1,Caatiba/BA,-14.9782759,-40.4092325,3,46.23921
1,Cabaceiras do Paraguaçu/BA,-12.5377868,-39.1901339,148,782.61329
D1,Cabaceiras do Paraguaçu/BA,-12.5377868,-39.1901339,1,5.28793
1,Cabaceiras/PB,-7.4899156,-36.2860501,178,3144.32079
1,Cabeceira Grande/MG,-16.0297,-47.0906,69,987.40698
D1,Cabeceira Grande/MG,-16.0297,-47.0906,2,28.62049
1,Cabeceiras do Piauí/PI,-4.4733665,-42.3098716,244,2295.39040
D1,Cabeceiras do Piauí/PI,-4.4733665,-42.3098716,7,65.85136
1,Cabeceiras/GO,-15.7995459,-46.9264991,90,1118.56823
D1,Cabeceiras/GO,-15.7995459,-46.9264991,3,37.28561
1,Cabedelo/PB,-6.97324,-34.8351609,3947,5739.67164
D1,Cabedelo/PB,-6.97324,-34.8351609,85,123.60580
1,Cabixi/RO,-13.4956065,-60.5424442,162,3122.59059
D1,Cabixi/RO,-13.4956065,-60.5424442,5,96.37625
1,Cabo Frio/RJ,-22.8804369,-42.0189227,4351,1888.63520
D1,Cabo Frio/RJ,-22.8804369,-42.0189227,208,90.28640
1,Cabo Verde/MG,-21.4743338,-46.3964995,93,660.74600
D1,Cabo Verde/MG,-21.4743338,-46.3964995,1,7.10480
1,Cabo de Santo Agostinho/PE,-8.2838945,-35.0320984,2494,1193.62126
D1,Cabo de Santo Agostinho/PE,-8.2838945,-35.0320984,292,139.75036
1,Cabreúva/SP,-23.3075813,-47.1324417,1690,3351.24631
D1,Cabreúva/SP,-23.3075813,-47.1324417,43,85.26840
1,Cabrobó/PE,-8.5083701,-39.3106961,551,1596.96258
D1,Cabrobó/PE,-8.5083701,-39.3106961,6,17.38979
1,Cabrália Paulista/SP,-22.4562909,-49.3385645,106,2498.23238
1,Cacaulândia/RO,-10.3380043,-62.9007231,110,1754.66582
1,Cacequi/RS,-29.8838059,-54.8273443,78,627.86766
D1,Cacequi/RS,-29.8838059,-54.8273443,2,16.09917
1,Cachoeira Alta/GO,-18.7618269,-50.9432431,790,6237.17038
D1,Cachoeira Alta/GO,-18.7618269,-50.9432431,11,86.84668
1,Cachoeira Dourada/GO,-18.4934204,-49.481062,171,2129.24916
D1,Cachoeira Dourada/GO,-18.4934204,-49.481062,2,24.90350
1,Cachoeira Dourada/MG,-18.517136,-49.5002062,19,702.14339
1,Cachoeira Grande/MA,-2.9290492,-44.0573223,187,1972.99008
D1,Cachoeira Grande/MA,-2.9290492,-44.0573223,4,42.20300
1,Cachoeira Paulista/SP,-22.666498,-45.015384,512,1524.67169
D1,Cachoeira Paulista/SP,-22.666498,-45.015384,18,53.60174
1,Cachoeira da Prata/MG,-19.524723,-44.453056,120,3341.68755
D1,Cachoeira da Prata/MG,-19.524723,-44.453056,2,55.69479
1,Cachoeira de Goiás/GO,-16.6688414,-50.6435997,25,1862.89121
1,Cachoeira de Minas/MG,-22.3554043,-45.7796324,236,2038.17255
D1,Cachoeira de Minas/MG,-22.3554043,-45.7796324,3,25.90897
1,Cachoeira de Pajeú/MG,-15.965833,-41.496666,265,2806.60877
D1,Cachoeira de Pajeú/MG,-15.965833,-41.496666,3,31.77293
1,Cachoeira do Arari/PA,-1.0143572,-48.9621089,328,1363.03191
D1,Cachoeira do Arari/PA,-1.0143572,-48.9621089,13,54.02261
1,Cachoeira do Piriá/PA,-1.7599443,-46.5446954,541,1563.17721
D1,Cachoeira do Piriá/PA,-1.7599443,-46.5446954,3,8.66827
1,Cachoeira do Sul/RS,-30.0474778,-52.8905413,1455,1777.22948
D1,Cachoeira do Sul/RS,-30.0474778,-52.8905413,14,17.10049
1,Cachoeira dos Índios/PB,-6.9259193,-38.6742159,296,2872.39204
D1,Cachoeira dos Índios/PB,-6.9259193,-38.6742159,10,97.04027
1,Cachoeira/BA,-12.5998256,-38.9665918,526,1567.01522
D1,Cachoeira/BA,-12.5998256,-38.9665918,12,35.74940
1,Cachoeiras de Macacu/RJ,-22.4626861,-42.6534414,949,1600.25631
D1,Cachoeiras de Macacu/RJ,-22.4626861,-42.6534414,42,70.82272
1,Cachoeirinha/PE,-8.4906364,-36.2338963,298,1453.58763
D1,Cachoeirinha/PE,-8.4906364,-36.2338963,22,107.31184
1,Cachoeirinha/RS,-29.9493353,-51.0898927,5309,4045.26059
D1,Cachoeirinha/RS,-29.9493353,-51.0898927,129,98.29320
1,Cachoeirinha/TO,-6.118647,-47.9208885,41,1795.09632
1,Cachoeiro de Itapemirim/ES,-20.848084,-41.11129,11312,5371.60061
D1,Cachoeiro de Itapemirim/ES,-20.848084,-41.11129,239,113.49121
1,Cacimba de Areia/PB,-7.1288513,-37.1575194,17,460.08119
1,Cacimba de Dentro/PB,-6.6425101,-35.7929304,609,3545.23227
D1,Cacimba de Dentro/PB,-6.6425101,-35.7929304,15,87.32099
1,Cacimbas/PB,-7.2125451,-37.0593398,83,1152.93791
D1,Cacimbas/PB,-7.2125451,-37.0593398,3,41.67245
1,Cacimbinhas/AL,-9.401212,-36.991082,326,2993.84700
D1,Cacimbinhas/AL,-9.401212,-36.991082,3,27.55074
1,Cacique Doble/RS,-27.7700117,-51.6616409,159,3133.62239
1,Cacoal/RO,-11.4333,-61.4420502,3588,4177.29035
D1,Cacoal/RO,-11.4333,-61.4420502,52,60.54044
1,Caconde/SP,-21.527995,-46.643659,279,1467.72581
D1,Caconde/SP,-21.527995,-46.643659,1,5.26067
1,Caculé/BA,-14.4990734,-42.2233006,197,845.82027
D1,Caculé/BA,-14.4990734,-42.2233006,2,8.58701
1,Caetanos/BA,-14.3387456,-40.9085971,245,1677.16320
D1,Caetanos/BA,-14.3387456,-40.9085971,1,6.84556
1,Caetanópolis/MG,-19.2947496,-44.4138386,171,1455.44302
D1,Caetanópolis/MG,-19.2947496,-44.4138386,3,25.53409
1,Caetité/BA,-14.0691776,-42.4852428,574,1123.70549
D1,Caetité/BA,-14.0691776,-42.4852428,5,9.78838
1,Caeté/MG,-19.897777,-43.670278,659,1462.91651
D1,Caeté/MG,-19.897777,-43.670278,23,51.05778
1,Caetés/PE,-8.7728788,-36.6255835,826,2857.73595
D1,Caetés/PE,-8.7728788,-36.6255835,8,27.67783
1,Cafarnaum/BA,-11.691399,-41.468823,425,2295.68411
D1,Cafarnaum/BA,-11.691399,-41.468823,6,32.40966
1,Cafeara/PR,-22.78905,-51.714195,93,3148.27353
D1,Cafeara/PR,-22.78905,-51.714195,2,67.70481
1,Cafelândia/PR,-24.6176963,-53.3218057,607,3288.90334
D1,Cafelândia/PR,-24.6176963,-53.3218057,6,32.50975
1,Cafelândia/SP,-21.8054355,-49.6030627,450,2521.99742
D1,Cafelândia/SP,-21.8054355,-49.6030627,12,67.25326
1,Cafezal do Sul/PR,-23.900508,-53.512418,51,1272.13769
D1,Cafezal do Sul/PR,-23.900508,-53.512418,1,24.94388
1,Caiabu/SP,-22.0143038,-51.2356597,40,953.97090
D1,Caiabu/SP,-22.0143038,-51.2356597,2,47.69855
1,Caiana/MG,-20.695555,-41.924723,49,884.31691
D1,Caiana/MG,-20.695555,-41.924723,2,36.09457
1,Caiapônia/GO,-16.9538779,-51.8090761,273,1428.79573
D1,Caiapônia/GO,-16.9538779,-51.8090761,4,20.93474
1,Caibaté/RS,-28.290475,-54.645407,19,393.94568
D1,Caibaté/RS,-28.290475,-54.645407,3,62.20195
1,Caibi/SC,-27.0751925,-53.2502133,136,2218.59706
D1,Caibi/SC,-27.0751925,-53.2502133,2,32.62643
1,Caicó/RN,-6.4594544,-37.0971911,4618,6757.09290
D1,Caicó/RN,-6.4594544,-37.0971911,47,68.77076
1,Caieiras/SP,-23.3644621,-46.7484765,3221,3134.03065
D1,Caieiras/SP,-23.3644621,-46.7484765,108,105.08392
1,Cairu/BA,-13.4860505,-39.0455744,639,3467.73756
D1,Cairu/BA,-13.4860505,-39.0455744,7,37.98774
1,Caiuá/SP,-21.8319357,-51.9887179,67,1126.80794
D1,Caiuá/SP,-21.8319357,-51.9887179,2,33.63606
1,Caiçara do Norte/RN,-5.0645017,-36.0561226,125,1905.19738
D1,Caiçara do Norte/RN,-5.0645017,-36.0561226,3,45.72474
1,Caiçara do Rio do Vento/RN,-5.757968,-36.00089,106,2853.29744
D1,Caiçara do Rio do Vento/RN,-5.757968,-36.00089,1,26.91790
1,Caiçara/PB,-6.6146866,-35.4681434,462,6424.69754
D1,Caiçara/PB,-6.6146866,-35.4681434,10,139.06272
1,Caiçara/RS,-27.2750478,-53.4310053,141,3000.00000
D1,Caiçara/RS,-27.2750478,-53.4310053,3,63.82979
1,Cajamar/SP,-23.3561111,-46.8769444,1823,2339.15878
D1,Cajamar/SP,-23.3561111,-46.8769444,83,106.50037
1,Cajapió/MA,-2.8778715,-44.6746871,51,454.70756
D1,Cajapió/MA,-2.8778715,-44.6746871,2,17.83167
1,Cajari/MA,-3.3213076,-45.0118757,132,678.62835
D1,Cajari/MA,-3.3213076,-45.0118757,4,20.56450
1,Cajati/SP,-24.7272376,-48.1077914,2058,7222.57317
D1,Cajati/SP,-24.7272376,-48.1077914,46,161.43750
1,Cajazeiras do Piauí/PI,-6.794271,-42.3935024,22,615.72908
D1,Cajazeiras do Piauí/PI,-6.794271,-42.3935024,1,27.98769
1,Cajazeiras/PB,-6.8897849,-38.5570389,3298,5294.67482
D1,Cajazeiras/PB,-6.8897849,-38.5570389,68,109.16855
1,Cajazeirinhas/PB,-6.961442,-37.7993733,57,1778.47114
1,Cajobi/SP,-20.8776238,-48.8106972,264,2491.50623
D1,Cajobi/SP,-20.8776238,-48.8106972,7,66.06267
1,Cajueiro da Praia/PI,-2.931114,-41.340801,421,5486.05682
D1,Cajueiro da Praia/PI,-2.931114,-41.340801,10,130.31014
1,Cajueiro/AL,-9.399589,-36.1524309,383,1795.50888
D1,Cajueiro/AL,-9.399589,-36.1524309,15,70.32019
1,Cajuri/MG,-20.7901414,-42.7954489,74,1862.10367
1,Cajuru/SP,-21.2759978,-47.3046035,498,1886.86394
D1,Cajuru/SP,-21.2759978,-47.3046035,14,53.04437
1,Caldas Brandão/PB,-7.1027959,-35.3254676,348,5755.87165
D1,Caldas Brandão/PB,-7.1027959,-35.3254676,2,33.07972
1,Caldas Novas/GO,-17.745,-48.625,2907,3119.23259
D1,Caldas Novas/GO,-17.745,-48.625,62,66.52646
1,Caldas/MG,-21.923611,-46.386111,236,1622.99704
D1,Caldas/MG,-21.923611,-46.386111,7,48.13974
1,Caldazinha/GO,-16.7116649,-49.0012601,114,2962.57796
D1,Caldazinha/GO,-16.7116649,-49.0012601,2,51.97505
1,Caldeirão Grande do Piauí/PI,-7.3310393,-40.6374433,159,2750.38921
1,Caldeirão Grande/BA,-11.0208483,-40.3041387,429,3203.64424
D1,Caldeirão Grande/BA,-11.0208483,-40.3041387,3,22.40311
1,Califórnia/PR,-23.6672543,-51.3554556,276,3207.06484
D1,Califórnia/PR,-23.6672543,-51.3554556,6,69.71880
1,Calmon/SC,-26.6023644,-51.0992893,14,419.79010
D1,Calmon/SC,-26.6023644,-51.0992893,2,59.97001
1,Calumbi/PE,-7.9389746,-38.1516871,266,4628.50183
D1,Calumbi/PE,-7.9389746,-38.1516871,2,34.80077
1,Calçado/PE,-8.7413446,-36.3351787,166,1506.62552
D1,Calçado/PE,-8.7413446,-36.3351787,2,18.15211
1,Calçoene/AP,2.4981757,-50.9539503,1405,12427.02990
D1,Calçoene/AP,2.4981757,-50.9539503,6,53.06917
1,Camacan/BA,-15.4166631,-39.4930088,1693,5289.63319
D1,Camacan/BA,-15.4166631,-39.4930088,34,106.23008
1,Camacho/MG,-20.625556,-45.156667,20,697.10701
1,Camalaú/PB,-7.885031,-36.824191,60,994.85989
D1,Camalaú/PB,-7.885031,-36.824191,1,16.58100
1,Camamu/BA,-13.9438142,-39.1060917,949,2682.15477
D1,Camamu/BA,-13.9438142,-39.1060917,26,73.48369
1,Camanducaia/MG,-22.755278,-46.144444,865,3967.70790
D1,Camanducaia/MG,-22.755278,-46.144444,12,55.04335
1,Camapuã/MS,-19.5291747,-54.0434641,177,1292.63127
D1,Camapuã/MS,-19.5291747,-54.0434641,5,36.51501
1,Camaquã/RS,-30.8524752,-51.8075619,2406,3619.24246
D1,Camaquã/RS,-30.8524752,-51.8075619,31,46.63197
1,Camaragibe/PE,-8.0213832,-34.9810768,2592,1631.22487
D1,Camaragibe/PE,-8.0213832,-34.9810768,213,134.04741
1,Camargo/RS,-28.5865661,-52.2031474,117,4266.95842
D1,Camargo/RS,-28.5865661,-52.2031474,1,36.46973
1,Camaçari/BA,-12.6998188,-38.3260762,7297,2397.94678
D1,Camaçari/BA,-12.6998188,-38.3260762,138,45.34969
1,Cambará do Sul/RS,-29.0489517,-50.145412,224,3496.72182
D1,Cambará do Sul/RS,-29.0489517,-50.145412,1,15.61037
1,Cambará/PR,-23.042273,-50.075281,445,1747.42794
D1,Cambará/PR,-23.042273,-50.075281,8,31.41443
1,Cambira/PR,-23.600265,-51.581045,181,2286.21953
D1,Cambira/PR,-23.600265,-51.581045,4,50.52419
1,Camboriú/SC,-27.0273601,-48.6535657,6254,7348.56941
D1,Camboriú/SC,-27.0273601,-48.6535657,69,81.07632
1,Cambuci/RJ,-21.5749919,-41.9107833,333,2146.44837
D1,Cambuci/RJ,-21.5749919,-41.9107833,7,45.12054
1,Cambuquira/MG,-21.853056,-45.2953619,88,686.85607
D1,Cambuquira/MG,-21.853056,-45.2953619,4,31.22073
1,Cambuí/MG,-22.6122501,-46.0572137,589,1975.58194
D1,Cambuí/MG,-22.6122501,-46.0572137,9,30.18716
1,Cambé/PR,-23.2782035,-51.2779583,3534,3292.31142
D1,Cambé/PR,-23.2782035,-51.2779583,49,45.64891
1,Cametá/PA,-2.242949,-49.497885,5536,3972.33145
D1,Cametá/PA,-2.242949,-49.497885,102,73.18963
1,Camocim de São Félix/PE,-8.3616757,-35.7638903,295,1560.84656
D1,Camocim de São Félix/PE,-8.3616757,-35.7638903,10,52.91005
1,Camocim/CE,-2.9009918,-40.8427389,2512,3930.71182
D1,Camocim/CE,-2.9009918,-40.8427389,81,126.74668
1,Campanha/MG,-21.8361108,-45.401986,333,1986.63644
D1,Campanha/MG,-21.8361108,-45.401986,7,41.76113
1,Campanário/MG,-18.2398144,-41.7271768,29,777.47989
1,Campestre da Serra/RS,-28.7966535,-51.0958149,73,2150.22091
1,Campestre de Goiás/GO,-16.7624179,-49.69497,191,5234.31077
D1,Campestre de Goiás/GO,-16.7624179,-49.69497,2,54.80954
1,Campestre do Maranhão/MA,-6.1729113,-47.3640512,549,3798.51934
D1,Campestre do Maranhão/MA,-6.1729113,-47.3640512,16,110.70366
1,Campestre/AL,-8.8481634,-35.5660033,98,1409.26086
D1,Campestre/AL,-8.8481634,-35.5660033,3,43.14064
1,Campestre/MG,-19.6142116,-43.219378,389,1847.62990
D1,Campestre/MG,-19.6142116,-43.219378,6,28.49815
1,Campina Grande do Sul/PR,-25.3046032,-49.0545355,2335,5345.08412
D1,Campina Grande do Sul/PR,-25.3046032,-49.0545355,38,86.98638
1,Campina Grande/PB,-7.2246743,-35.8771292,15022,3647.82532
D1,Campina Grande/PB,-7.2246743,-35.8771292,434,105.38918
1,Campina Verde/MG,-19.535277,-49.486389,174,880.92345
D1,Campina Verde/MG,-19.535277,-49.486389,8,40.50223
1,Campina da Lagoa/PR,-24.5937926,-52.8038965,187,1331.62430
D1,Campina da Lagoa/PR,-24.5937926,-52.8038965,5,35.60493
1,Campina das Missões/RS,-27.9883295,-54.8411665,102,1889.58874
D1,Campina das Missões/RS,-27.9883295,-54.8411665,4,74.10152
1,Campina do Monte Alegre/SP,-23.5935653,-48.4801876,95,1568.43322
1,Campina do Simão/PR,-25.1086375,-51.8076658,14,362.78829
D1,Campina do Simão/PR,-25.1086375,-51.8076658,1,25.91345
1,Campinas do Piauí/PI,-7.6593687,-41.8814875,79,1405.69395
D1,Campinas do Piauí/PI,-7.6593687,-41.8814875,1,17.79359
1,Campinas do Sul/RS,-27.7167968,-52.6257885,213,3916.88121
D1,Campinas do Sul/RS,-27.7167968,-52.6257885,2,36.77823
1,Campinas/SP,-22.90556,-47.06083,41042,3381.30421
D1,Campinas/SP,-22.90556,-47.06083,1429,117.73022
1,Campinaçu/GO,-13.7869969,-48.5703841,127,3496.69604
1,Campinorte/GO,-14.3136699,-49.1510931,478,3744.90755
D1,Campinorte/GO,-14.3136699,-49.1510931,7,54.84174
1,Campinápolis/MT,-14.5403731,-52.7970626,486,2872.51020
D1,Campinápolis/MT,-14.5403731,-52.7970626,16,94.56824
1,Campo Alegre de Goiás/GO,-17.6337896,-47.779291,44,568.62238
D1,Campo Alegre de Goiás/GO,-17.6337896,-47.779291,1,12.92324
1,Campo Alegre de Lourdes/BA,-9.5160326,-43.0101338,194,673.14365
D1,Campo Alegre de Lourdes/BA,-9.5160326,-43.0101338,5,17.34906
1,Campo Alegre do Fidalgo/PI,-8.3753852,-41.8364191,44,868.02131
D1,Campo Alegre do Fidalgo/PI,-8.3753852,-41.8364191,1,19.72776
1,Campo Alegre/AL,-9.7798607,-36.3575793,1585,2754.74912
D1,Campo Alegre/AL,-9.7798607,-36.3575793,28,48.66434
1,Campo Alegre/SC,-26.1941684,-49.2657484,387,3230.11435
D1,Campo Alegre/SC,-26.1941684,-49.2657484,12,100.15858
1,Campo Azul/MG,-16.5078525,-44.8133524,52,1359.83264
1,Campo Belo do Sul/SC,-27.8987563,-50.7586887,312,4487.91715
D1,Campo Belo do Sul/SC,-27.8987563,-50.7586887,4,57.53740
1,Campo Belo/MG,-20.8975,-45.277223,1353,2496.95493
D1,Campo Belo/MG,-20.8975,-45.277223,31,57.21035
1,Campo Bom/RS,-29.674694,-51.060601,4826,6948.08373
D1,Campo Bom/RS,-29.674694,-51.060601,71,102.22005
1,Campo Bonito/PR,-25.0328004,-52.992976,58,1541.32341
1,Campo Erê/SC,-26.3947432,-53.0790495,418,4965.55001
D1,Campo Erê/SC,-26.3947432,-53.0790495,1,11.87931
1,Campo Florido/MG,-19.760833,-48.572223,236,2854.03314
1,Campo Formoso/BA,-10.51055,-40.320031,1701,2379.45361
D1,Campo Formoso/BA,-10.51055,-40.320031,14,19.58398
1,Campo Grande do Piauí/PI,-7.1327559,-41.0381164,338,5666.38726
D1,Campo Grande do Piauí/PI,-7.1327559,-41.0381164,4,67.05784
1,Campo Grande/AL,-9.9725,-36.74791447368421,235,2456.36041
D1,Campo Grande/AL,-9.9725,-36.74791447368421,7,73.16818
1,Campo Grande/MS,-20.4640173,-54.6162947,56307,6214.26963
D1,Campo Grande/MS,-20.4640173,-54.6162947,938,103.52150
1,Campo Grande/RN,-5.862063,-37.3134908,171,1768.35574
D1,Campo Grande/RN,-5.862063,-37.3134908,3,31.02378
1,Campo Largo do Piauí/PI,-3.8104731,-42.6288333,228,3118.58843
D1,Campo Largo do Piauí/PI,-3.8104731,-42.6288333,5,68.39010
1,Campo Largo/PR,-25.4597726,-49.5270851,6119,4571.02305
D1,Campo Largo/PR,-25.4597726,-49.5270851,121,90.38957
1,Campo Limpo Paulista/SP,-23.207791,-46.788919,1520,1776.92568
D1,Campo Limpo Paulista/SP,-23.207791,-46.788919,77,90.01531
1,Campo Limpo de Goiás/GO,-16.297101,-49.0894994,120,1511.33501
D1,Campo Limpo de Goiás/GO,-16.297101,-49.0894994,2,25.18892
1,Campo Magro/PR,-25.3691533,-49.4496921,818,2750.50437
D1,Campo Magro/PR,-25.3691533,-49.4496921,25,84.06187
1,Campo Maior/PI,-4.8339574,-42.1739786,2734,5830.29450
D1,Campo Maior/PI,-4.8339574,-42.1739786,56,119.42081
1,Campo Mourão/PR,-24.046329,-52.37802,2894,3030.74732
D1,Campo Mourão/PR,-24.046329,-52.37802,51,53.40985
1,Campo Novo de Rondônia/RO,-10.5704235,-63.6199511,259,1815.50540
D1,Campo Novo de Rondônia/RO,-10.5704235,-63.6199511,6,42.05804
1,Campo Novo do Parecis/MT,-13.658735,-57.890723,3109,8601.94228
D1,Campo Novo do Parecis/MT,-13.658735,-57.890723,30,83.00362
1,Campo Novo/RS,-28.91500235,-52.331375687737626,54,1234.00366
D1,Campo Novo/RS,-28.91500235,-52.331375687737626,1,22.85192
1,Campo Redondo/RN,-6.2420373,-36.1830606,252,2231.86609
D1,Campo Redondo/RN,-6.2420373,-36.1830606,4,35.42645
1,Campo Verde/MT,-15.5430787,-55.1590511,2797,6114.99781
D1,Campo Verde/MT,-15.5430787,-55.1590511,56,122.43113
1,Campo do Brito/SE,-10.7496246,-37.4942276,1022,5609.83643
D1,Campo do Brito/SE,-10.7496246,-37.4942276,13,71.35800
1,Campo do Meio/MG,-21.1072006,-45.8301735,170,1459.10222
D1,Campo do Meio/MG,-21.1072006,-45.8301735,2,17.16591
1,Campo do Tenente/PR,-25.9814143,-49.684518,193,2399.00559
D1,Campo do Tenente/PR,-25.9814143,-49.684518,6,74.58048
1,Campos Altos/MG,-19.696389,-46.171389,200,1285.09927
D1,Campos Altos/MG,-19.696389,-46.171389,6,38.55298
1,Campos Belos/GO,-13.0349839,-46.768112,397,1984.30549
D1,Campos Belos/GO,-13.0349839,-46.768112,8,39.98600
1,Campos Borges/RS,-28.8852198,-52.999098,84,2549.31715
1,Campos Gerais/MG,-21.2333342,-45.7584127,288,998.54379
D1,Campos Gerais/MG,-21.2333342,-45.7584127,7,24.27016
1,Campos Lindos/TO,-7.9740597,-46.8023881,292,2831.65244
D1,Campos Lindos/TO,-7.9740597,-46.8023881,2,19.39488
1,Campos Novos Paulista/SP,-22.601952,-49.998726,151,3021.81309
D1,Campos Novos Paulista/SP,-22.601952,-49.998726,2,40.02401
1,Campos Novos/SC,-27.3962904,-51.2224397,1900,5197.50520
