type,name,lat,lon,total,total_per_100k_inhabitants
1,Abadia de Goiás/GO,-16.7572644,-49.4412205,1517,16934.58361
D1,Abadia de Goiás/GO,-16.7572644,-49.4412205,34,379.54901
1,Abadia dos Dourados/MG,-18.4911191,-47.4063589,451,6437.33942
D1,Abadia dos Dourados/MG,-18.4911191,-47.4063589,14,199.82872
1,Abadiânia/GO,-16.1940946,-48.7067767,446,2179.75661
D1,Abadiânia/GO,-16.1940946,-48.7067767,37,180.83183
1,Abaetetuba/PA,-1.721828,-48.878843,8895,5591.52628
D1,Abaetetuba/PA,-1.721828,-48.878843,219,137.66658
1,Abaeté/MG,-19.1566833,-45.4481213,1346,5789.24731
D1,Abaeté/MG,-19.1566833,-45.4481213,30,129.03226
1,Abaiara/CE,-7.3607808,-39.0487878,585,4935.45938
D1,Abaiara/CE,-7.3607808,-39.0487878,15,126.55024
1,Abaré/BA,-8.7239913,-39.1139689,976,4796.77594
D1,Abaré/BA,-8.7239913,-39.1139689,11,54.06202
1,Abatiá/PR,-23.3052967,-50.3102532,1054,14227.86177
D1,Abatiá/PR,-23.3052967,-50.3102532,18,242.98056
1,Abaíra/BA,-13.2503296,-41.6640342,289,3318.02526
D1,Abaíra/BA,-13.2503296,-41.6640342,12,137.77268
1,Abdon Batista/SC,-27.612419,-51.022992,420,16483.51648
D1,Abdon Batista/SC,-27.612419,-51.022992,4,156.98587
1,Abel Figueiredo/PA,-4.953001,-48.3958485,994,13278.11916
D1,Abel Figueiredo/PA,-4.953001,-48.3958485,10,133.58269
1,Abelardo Luz/SC,-26.5705893,-52.3280339,1569,8736.08018
D1,Abelardo Luz/SC,-26.5705893,-52.3280339,57,317.37194
1,Abre Campo/MG,-20.2976097,-42.4764741,1192,8866.40881
D1,Abre Campo/MG,-20.2976097,-42.4764741,15,111.57394
1,Abreu e Lima/PE,-7.900719,-34.898389,3194,3182.98687
D1,Abreu e Lima/PE,-7.900719,-34.898389,230,229.20694
1,Abreulândia/TO,-9.6221526,-49.1558343,277,10678.48882
D1,Abreulândia/TO,-9.6221526,-49.1558343,6,231.30301
1,Acaiaca/MG,-20.3621646,-43.1444162,227,5683.52529
D1,Acaiaca/MG,-20.3621646,-43.1444162,11,275.41312
1,Acajutiba/BA,-11.6609659,-38.0186381,535,3522.74972
D1,Acajutiba/BA,-11.6609659,-38.0186381,17,111.93784
1,Acarape/CE,-4.2237866,-38.7071663,2785,18522.21335
D1,Acarape/CE,-4.2237866,-38.7071663,27,179.56903
1,Acaraú/CE,-2.8869514,-40.1194713,5001,7925.01268
D1,Acaraú/CE,-2.8869514,-40.1194713,108,171.14604
1,Acari/RN,-6.4364689,-36.6394777,1100,9891.19683
D1,Acari/RN,-6.4364689,-36.6394777,18,161.85595
1,Acará/PA,-1.961388,-48.1987043,1320,2371.15810
D1,Acará/PA,-1.961388,-48.1987043,31,55.68629
1,Acauã/PI,-8.219542,-41.083059,200,2816.10814
D1,Acauã/PI,-8.219542,-41.083059,1,14.08054
1,Aceguá/RS,-31.8695131,-54.1615593,358,7244.03076
D1,Aceguá/RS,-31.8695131,-54.1615593,7,141.64306
1,Acopiara/CE,-6.0936464,-39.4543204,3772,6923.51462
D1,Acopiara/CE,-6.0936464,-39.4543204,140,256.97032
1,Acorizal/MT,-15.2001544,-56.3668953,497,9317.58530
D1,Acorizal/MT,-15.2001544,-56.3668953,19,356.20547
1,Acrelândia/AC,-10.0759167,-67.0526898,1715,11071.65913
D1,Acrelândia/AC,-10.0759167,-67.0526898,37,238.86378
1,Acreúna/GO,-17.3959899,-50.3749031,2185,9691.29779
D1,Acreúna/GO,-17.3959899,-50.3749031,50,221.76883
1,Adamantina/SP,-21.6866517,-51.0762975,3507,9988.32275
D1,Adamantina/SP,-21.6866517,-51.0762975,113,321.83646
1,Adelândia/GO,-16.4155077,-50.1665834,213,8465.81876
D1,Adelândia/GO,-16.4155077,-50.1665834,4,158.98251
1,Adolfo/SP,-21.2356597,-49.6441918,542,15250.42206
D1,Adolfo/SP,-21.2356597,-49.6441918,14,393.92234
1,Adrianópolis/PR,-24.6557863,-48.9912769,1381,23578.62387
D1,Adrianópolis/PR,-24.6557863,-48.9912769,28,478.06044
1,Adustina/BA,-10.5358875,-38.114479,1019,5950.01752
D1,Adustina/BA,-10.5358875,-38.114479,24,140.13780
1,Afogados da Ingazeira/PE,-7.750429,-37.6356375,5087,13600.14972
D1,Afogados da Ingazeira/PE,-7.750429,-37.6356375,71,189.81927
1,Afonso Bezerra/RN,-5.4745,-36.57625071327935,780,7072.26403
D1,Afonso Bezerra/RN,-5.4745,-36.57625071327935,18,163.20609
1,Afonso Cláudio/ES,-20.077841,-41.12606,3432,11269.08554
D1,Afonso Cláudio/ES,-20.077841,-41.12606,59,193.72845
1,Afonso Cunha/MA,-4.1326105,-43.3230026,244,3709.33414
D1,Afonso Cunha/MA,-4.1326105,-43.3230026,3,45.60657
1,Afrânio/PE,-8.5198919,-41.0070197,931,4699.64664
D1,Afrânio/PE,-8.5198919,-41.0070197,15,75.71933
1,Afuá/PA,-0.1535664,-50.3879223,3026,7647.78730
D1,Afuá/PA,-0.1535664,-50.3879223,16,40.43774
1,Agrestina/PE,-8.4558021,-35.9442663,1710,6822.26212
D1,Agrestina/PE,-8.4558021,-35.9442663,63,251.34650
1,Agricolândia/PI,-5.7967843,-42.6605131,489,9530.30598
D1,Agricolândia/PI,-5.7967843,-42.6605131,6,116.93627
1,Agrolândia/SC,-27.4122212,-49.8295774,1607,14591.84600
D1,Agrolândia/SC,-27.4122212,-49.8295774,26,236.08463
1,Agronômica/SC,-27.2660744,-49.7104753,646,11726.26611
D1,Agronômica/SC,-27.2660744,-49.7104753,13,235.97749
1,Aguanil/MG,-20.9424533,-45.3927152,631,13954.00265
D1,Aguanil/MG,-20.9424533,-45.3927152,8,176.91287
1,Aguaí/SP,-22.0592036,-46.979384,3227,8805.39184
D1,Aguaí/SP,-22.0592036,-46.979384,95,259.22288
1,Agudo/RS,-29.6423259,-53.2494005,1731,10554.23450
D1,Agudo/RS,-29.6423259,-53.2494005,29,176.81849
1,Agudos do Sul/PR,-25.9890808,-49.3328175,700,7391.76346
D1,Agudos do Sul/PR,-25.9890808,-49.3328175,25,263.99155
1,Agudos/SP,-22.471162,-48.987822,4031,10777.78669
D1,Agudos/SP,-22.471162,-48.987822,98,262.02508
1,Aguiar/PB,-7.0928404,-38.1727215,523,9289.52043
D1,Aguiar/PB,-7.0928404,-38.1727215,5,88.80995
1,Aguiarnópolis/TO,-6.5600452,-47.4721189,649,9416.71503
D1,Aguiarnópolis/TO,-6.5600452,-47.4721189,13,188.62449
1,Aimorés/MG,-19.4917754,-41.0615603,1983,7887.51442
D1,Aimorés/MG,-19.4917754,-41.0615603,67,266.49696
1,Aiquara/BA,-14.126918,-39.8887574,484,10960.14493
D1,Aiquara/BA,-14.126918,-39.8887574,12,271.73913
1,Aiuaba/CE,-6.5710836,-40.1212278,789,4510.37558
D1,Aiuaba/CE,-6.5710836,-40.1212278,11,62.88230
1,Aiuruoca/MG,-21.9759554,-44.6036637,308,5153.94913
D1,Aiuruoca/MG,-21.9759554,-44.6036637,9,150.60241
1,Ajuricaba/RS,-28.239654,-53.7693013,1030,14741.66309
D1,Ajuricaba/RS,-28.239654,-53.7693013,29,415.05653
1,Alagoa Grande/PB,-7.0415212,-35.6285322,4062,14283.20264
D1,Alagoa Grande/PB,-7.0415212,-35.6285322,70,246.14086
1,Alagoa Nova/PB,-7.0653703,-35.76695977336711,1171,5597.24679
D1,Alagoa Nova/PB,-7.0653703,-35.76695977336711,19,90.81784
1,Alagoa/MG,-22.1697202,-44.6400042,444,16660.41276
D1,Alagoa/MG,-22.1697202,-44.6400042,6,225.14071
1,Alagoinha do Piauí/PI,-7.0090952,-40.939675,356,4644.48793
D1,Alagoinha do Piauí/PI,-7.0090952,-40.939675,10,130.46314
1,Alagoinha/PB,-6.97063215,-35.51490901897793,2028,13928.57143
D1,Alagoinha/PB,-6.97063215,-35.51490901897793,24,164.83516
1,Alagoinha/PE,-8.50355635,-36.77701174370496,1277,8676.45060
D1,Alagoinha/PE,-8.50355635,-36.77701174370496,25,169.86004
1,Alagoinhas/BA,-12.133526,-38.420772,13894,9121.16696
D1,Alagoinhas/BA,-12.133526,-38.420772,289,189.72342
1,Alambari/SP,-23.550338,-47.897971,594,9691.62996
D1,Alambari/SP,-23.550338,-47.897971,10,163.15875
1,Albertina/MG,-20.66164,-43.784039,242,8037.19694
D1,Albertina/MG,-20.66164,-43.784039,9,298.90402
1,Alcantil/PB,-7.7425491,-36.0609604,526,9548.01234
D1,Alcantil/PB,-7.7425491,-36.0609604,6,108.91269
1,Alcinópolis/MS,-18.3264121,-53.7094463,352,6498.06166
D1,Alcinópolis/MS,-18.3264121,-53.7094463,9,166.14362
1,Alcobaça/BA,-17.5215875,-39.1965474,1511,6718.54157
D1,Alcobaça/BA,-17.5215875,-39.1965474,29,128.94620
1,Alcântara/MA,-2.4038956,-44.4154241,315,1424.56585
D1,Alcântara/MA,-2.4038956,-44.4154241,17,76.88133
1,Alcântaras/CE,-3.586247,-40.5457641,1725,14642.22052
D1,Alcântaras/CE,-3.586247,-40.5457641,22,186.74136
1,Aldeias Altas/MA,-4.6291957,-43.4708622,976,3647.64361
D1,Aldeias Altas/MA,-4.6291957,-43.4708622,14,52.32276
1,Alecrim/RS,-27.6566142,-54.7653195,311,5337.22327
D1,Alecrim/RS,-27.6566142,-54.7653195,11,188.77639
1,Alegre/ES,-20.7625787,-41.5318886,2519,8403.66972
D1,Alegre/ES,-20.7625787,-41.5318886,54,180.15013
1,Alegrete do Piauí/PI,-7.2440138,-40.8602296,511,10390.40260
D1,Alegrete do Piauí/PI,-7.2440138,-40.8602296,6,122.00081
1,Alegrete/RS,-29.790166,-55.794862,9917,13579.72285
D1,Alegrete/RS,-29.790166,-55.794862,278,380.67591
1,Alegria/RS,-27.8332103,-54.0574959,392,11618.25726
D1,Alegria/RS,-27.8332103,-54.0574959,3,88.91523
1,Alenquer/PA,-1.946229,-54.738355,3509,6146.22014
D1,Alenquer/PA,-1.946229,-54.738355,138,241.71513
1,Alexandria/RN,-6.414779,-38.0135516,1675,12358.88733
D1,Alexandria/RN,-6.414779,-38.0135516,27,199.21789
1,Alexânia/GO,-16.0834049,-48.5077803,3150,11245.98358
D1,Alexânia/GO,-16.0834049,-48.5077803,79,282.04213
1,Alfenas/MG,-21.4297405,-45.9479419,9566,11884.11559
D1,Alfenas/MG,-21.4297405,-45.9479419,178,221.13449
1,Alfredo Chaves/ES,-20.624970400000002,-40.75006690147988,2432,16616.56190
D1,Alfredo Chaves/ES,-20.624970400000002,-40.75006690147988,35,239.13638
1,Alfredo Marcondes/SP,-21.9527,-51.413956,250,5975.14340
D1,Alfredo Marcondes/SP,-21.9527,-51.413956,11,262.90631
1,Alfredo Vasconcelos/MG,-21.145833,-43.776389,551,7892.85203
D1,Alfredo Vasconcelos/MG,-21.145833,-43.776389,13,186.21974
1,Alfredo Wagner/SC,-27.6961513,-49.3326734,1005,9964.30696
D1,Alfredo Wagner/SC,-27.6961513,-49.3326734,7,69.40313
1,Algodão de Jandaíra/PB,-6.9040175,-36.0089879,219,8498.25378
D1,Algodão de Jandaíra/PB,-6.9040175,-36.0089879,1,38.80481
1,Alhandra/PB,-7.4304246,-34.9106103,2336,11841.63836
D1,Alhandra/PB,-7.4304246,-34.9106103,36,182.49100
1,Aliança do Tocantins/TO,-11.3055927,-48.9409096,622,11634.86719
D1,Aliança do Tocantins/TO,-11.3055927,-48.9409096,20,374.11149
1,Aliança/PE,-7.60398,-35.222696,651,1695.44496
D1,Aliança/PE,-7.60398,-35.222696,60,156.26221
1,Almadina/BA,-14.70466,-39.6381994,621,11572.86619
D1,Almadina/BA,-14.70466,-39.6381994,9,167.72270
1,Almas/TO,-11.5681309,-47.1702803,236,3381.57329
D1,Almas/TO,-11.5681309,-47.1702803,5,71.64350
1,Almeirim/PA,-1.5290377,-52.5788111,3677,10790.58575
D1,Almeirim/PA,-1.5290377,-52.5788111,44,129.12314
1,Almenara/MG,-16.1740678,-40.6904907,4099,9726.40771
D1,Almenara/MG,-16.1740678,-40.6904907,46,109.15217
1,Almino Afonso/RN,-6.1544208,-37.7649018,506,10743.09979
D1,Almino Afonso/RN,-6.1544208,-37.7649018,13,276.00849
1,Almirante Tamandaré do Sul/RS,-28.1141129,-52.9134874,326,16726.52642
D1,Almirante Tamandaré do Sul/RS,-28.1141129,-52.9134874,5,256.54182
1,Almirante Tamandaré/PR,-25.3133048,-49.2997838,10015,8342.98281
D1,Almirante Tamandaré/PR,-25.3133048,-49.2997838,364,303.22973
1,Aloândia/GO,-17.7277983,-49.4809338,282,14199.39577
D1,Aloândia/GO,-17.7277983,-49.4809338,10,503.52467
1,Alpercata/MG,-18.9803616,-41.9827637,482,6481.97956
D1,Alpercata/MG,-18.9803616,-41.9827637,19,255.51372
1,Alpestre/RS,-27.2512339,-53.0349646,397,6543.59651
D1,Alpestre/RS,-27.2512339,-53.0349646,10,164.82611
1,Alpinópolis/MG,-20.863611,-46.387777,1360,6814.31005
D1,Alpinópolis/MG,-20.863611,-46.387777,37,185.38932
1,Alta Floresta D'Oeste/RO,-11.9296917,-61.9961284,3920,17247.44808
D1,Alta Floresta D'Oeste/RO,-11.9296917,-61.9961284,65,285.99085
1,Alta Floresta/MT,-9.8715018,-56.0839881,8905,17138.51306
D1,Alta Floresta/MT,-9.8715018,-56.0839881,127,244.42349
1,Altair/SP,-20.5238955,-49.0606135,261,6235.06928
D1,Altair/SP,-20.5238955,-49.0606135,12,286.66985
1,Altamira do Maranhão/MA,-4.1643006,-45.4674574,319,3895.46953
D1,Altamira do Maranhão/MA,-4.1643006,-45.4674574,12,146.53804
1,Altamira do Paraná/PR,-24.799114,-52.7128633,222,13198.57313
D1,Altamira do Paraná/PR,-24.799114,-52.7128633,10,594.53032
1,Altamira/PA,-3.204065,-52.209961,13734,11842.82006
D1,Altamira/PA,-3.204065,-52.209961,289,249.20453
1,Altaneira/CE,-6.9980933,-39.7385742,642,8392.15686
D1,Altaneira/CE,-6.9980933,-39.7385742,15,196.07843
1,Alterosa/MG,-21.249166,-46.143055,701,4828.82138
D1,Alterosa/MG,-21.249166,-46.143055,32,220.43122
1,Altinho/PE,-8.4904095,-36.0607494,1274,5542.98643
D1,Altinho/PE,-8.4904095,-36.0607494,25,108.77132
1,Altinópolis/SP,-21.021364,-47.3712,818,5048.44782
D1,Altinópolis/SP,-21.021364,-47.3712,42,259.21126
1,Alto Alegre do Maranhão/MA,-4.2055693,-44.4525287,1214,4357.81463
D1,Alto Alegre do Maranhão/MA,-4.2055693,-44.4525287,27,96.92009
1,Alto Alegre do Pindaré/MA,-3.6698186,-45.8462153,2101,6577.34089
D1,Alto Alegre do Pindaré/MA,-3.6698186,-45.8462153,45,140.87594
1,Alto Alegre dos Parecis/RO,-12.1314515,-61.856265,1457,10992.07846
D1,Alto Alegre dos Parecis/RO,-12.1314515,-61.856265,44,331.95021
1,Alto Alegre/RR,2.98858,-61.307167,1439,9356.30689
D1,Alto Alegre/RR,2.98858,-61.307167,34,221.06632
1,Alto Alegre/RS,-31.780844700000003,-52.81311114489171,199,12337.25976
D1,Alto Alegre/RS,-31.780844700000003,-52.81311114489171,1,61.99628
1,Alto Alegre/SP,-21.5820592,-50.1661976,364,8904.10959
D1,Alto Alegre/SP,-21.5820592,-50.1661976,20,489.23679
1,Alto Araguaia/MT,-17.3156528,-53.2169365,1394,7191.12716
D1,Alto Araguaia/MT,-17.3156528,-53.2169365,25,128.96570
1,Alto Bela Vista/SC,-27.4320737,-51.905771,198,10280.37383
D1,Alto Bela Vista/SC,-27.4320737,-51.905771,3,155.76324
1,Alto Boa Vista/MT,-11.6723985,-51.3744431,783,11288.92734
D1,Alto Boa Vista/MT,-11.6723985,-51.3744431,15,216.26298
1,Alto Caparaó/MG,-20.4405661,-41.8683799,399,6769.59620
D1,Alto Caparaó/MG,-20.4405661,-41.8683799,9,152.69766
1,Alto Feliz/RS,-29.3785943,-51.3123751,271,8926.21871
D1,Alto Feliz/RS,-29.3785943,-51.3123751,2,65.87615
1,Alto Garças/MT,-16.9469683,-53.529427,879,7233.97251
D1,Alto Garças/MT,-16.9469683,-53.529427,39,320.96124
1,Alto Horizonte/GO,-14.1954948,-49.3366993,892,13504.92051
D1,Alto Horizonte/GO,-14.1954948,-49.3366993,11,166.54050
1,Alto Jequitibá/MG,-20.423611,-41.966111,792,9541.01915
D1,Alto Jequitibá/MG,-20.423611,-41.966111,11,132.51415
1,Alto Longá/PI,-5.2549051,-42.2072388,644,4491.24765
D1,Alto Longá/PI,-5.2549051,-42.2072388,14,97.63582
1,Alto Paraguai/MT,-14.513712,-56.4936374,893,7783.49168
D1,Alto Paraguai/MT,-14.513712,-56.4936374,28,244.05125
1,Alto Paraná/PR,-23.131247,-52.318893,1190,8008.61431
D1,Alto Paraná/PR,-23.131247,-52.318893,25,168.24820
1,Alto Paraíso de Goiás/GO,-14.1304779,-47.5100161,654,8506.76379
D1,Alto Paraíso de Goiás/GO,-14.1304779,-47.5100161,8,104.05827
1,Alto Paraíso/PR,-23.508137,-53.728537,287,10689.01304
D1,Alto Paraíso/PR,-23.508137,-53.728537,5,186.21974
1,Alto Paraíso/RO,-9.7240103,-63.3188123,1817,8316.93139
D1,Alto Paraíso/RO,-9.7240103,-63.3188123,48,219.70980
1,Alto Parnaíba/MA,-9.112506,-45.9310154,895,7982.51873
D1,Alto Parnaíba/MA,-9.112506,-45.9310154,10,89.19015
1,Alto Piquiri/PR,-24.0239021,-53.4417448,994,10165.67805
D1,Alto Piquiri/PR,-24.0239021,-53.4417448,23,235.22193
1,Alto Rio Doce/MG,-21.0239537,-43.4133507,475,4374.25177
D1,Alto Rio Doce/MG,-21.0239537,-43.4133507,27,248.64168
1,Alto Rio Novo/ES,-19.0577208,-41.0171518,712,9042.41808
D1,Alto Rio Novo/ES,-19.0577208,-41.0171518,22,279.40056
1,Alto Santo/CE,-5.5190371,-38.2719351,1869,10868.80670
D1,Alto Santo/CE,-5.5190371,-38.2719351,31,180.27448
1,Alto Taquari/MT,-17.8269099,-53.2831736,1478,13275.84658
D1,Alto Taquari/MT,-17.8269099,-53.2831736,27,242.52223
1,Alto do Rodrigues/RN,-5.290868,-36.7616726,2487,16886.20315
D1,Alto do Rodrigues/RN,-5.290868,-36.7616726,40,271.59153
1,Altos/PI,-5.0393915,-42.4611694,4410,10860.73144
D1,Altos/PI,-5.0393915,-42.4611694,89,219.18483
1,Altônia/PR,-23.8722004,-53.894037,1228,5537.51804
D1,Altônia/PR,-23.8722004,-53.894037,24,108.22511
1,Alumínio/SP,-23.5203479,-47.2575256,1496,7971.43923
D1,Alumínio/SP,-23.5203479,-47.2575256,43,229.12559
1,Alvarenga/MG,-19.4175,-41.728334,494,12851.19667
D1,Alvarenga/MG,-19.4175,-41.728334,4,104.05827
1,Alvarães/AM,-3.214786,-64.8143124,2886,17792.84834
D1,Alvarães/AM,-3.214786,-64.8143124,46,283.60049
1,Alvinlândia/SP,-22.4431852,-49.7643596,139,4294.09947
D1,Alvinlândia/SP,-22.4431852,-49.7643596,9,278.03522
1,Alvinópolis/MG,-20.1105199,-43.0601805,688,4535.56596
D1,Alvinópolis/MG,-20.1105199,-43.0601805,22,145.03263
1,Alvorada D'Oeste/RO,-11.346271,-62.284697,1113,7890.25946
D1,Alvorada D'Oeste/RO,-11.346271,-62.284697,29,205.58628
1,Alvorada de Minas/MG,-18.7318587,-43.3641479,272,7545.07628
D1,Alvorada de Minas/MG,-18.7318587,-43.3641479,3,83.21775
1,Alvorada do Gurguéia/PI,-8.4465288,-43.8655915,421,7731.86410
D1,Alvorada do Gurguéia/PI,-8.4465288,-43.8655915,10,183.65473
1,Alvorada do Norte/GO,-14.483911,-46.4959897,761,8742.10224
D1,Alvorada do Norte/GO,-14.483911,-46.4959897,8,91.90121
1,Alvorada do Sul/PR,-22.7807269,-51.2307721,843,7328.52299
D1,Alvorada do Sul/PR,-22.7807269,-51.2307721,24,208.64122
1,Alvorada/RS,-29.9981184,-51.0772509,20467,9683.84496
D1,Alvorada/RS,-29.9981184,-51.0772509,740,350.12680
1,Alvorada/TO,-12.478465,-49.124926,1183,14090.04288
D1,Alvorada/TO,-12.478465,-49.124926,20,238.20867
1,Além Paraíba/MG,-21.8760576,-42.6810473,3194,9022.34400
D1,Além Paraíba/MG,-21.8760576,-42.6810473,145,409.59295
1,Amajari/RR,3.6523869,-61.4194315,1036,7857.41373
D1,Amajari/RR,3.6523869,-61.4194315,20,151.68752
1,Amambai/MS,-23.1082701,-55.2284854,3103,7791.39256
D1,Amambai/MS,-23.1082701,-55.2284854,79,198.36288
1,Amaporã/PR,-23.094272,-52.786597,402,6348.70499
D1,Amaporã/PR,-23.094272,-52.786597,7,110.54959
1,Amapá do Maranhão/MA,-1.6762114,-46.0109669,172,2455.38901
D1,Amapá do Maranhão/MA,-1.6762114,-46.0109669,6,85.65310
1,Amapá/AP,2.0529997,-50.7930003,1356,14759.98694
D1,Amapá/AP,2.0529997,-50.7930003,10,108.84946
1,Amaraji/PE,-8.373925,-35.4536527,609,2662.87713
D1,Amaraji/PE,-8.373925,-35.4536527,39,170.52908
1,Amaral Ferrador/RS,-30.8750633,-52.2542051,296,4177.84051
D1,Amaral Ferrador/RS,-30.8750633,-52.2542051,7,98.80028
1,Amaralina/GO,-13.9236199,-49.2962411,108,2808.84265
D1,Amaralina/GO,-13.9236199,-49.2962411,2,52.01560
1,Amarante do Maranhão/MA,-5.56913,-46.747284,1585,3798.31772
D1,Amarante do Maranhão/MA,-5.56913,-46.747284,53,127.00999
1,Amarante/PI,-6.2459374,-42.8476238,1530,8691.20654
D1,Amarante/PI,-6.2459374,-42.8476238,34,193.13792
1,Amargosa/BA,-13.03793715,-39.60796443875596,2905,7758.87396
D1,Amargosa/BA,-13.03793715,-39.60796443875596,53,141.55605
1,Amaturá/AM,-3.3640509,-68.1994689,2357,20083.50375
D1,Amaturá/AM,-3.3640509,-68.1994689,17,144.85344
1,Americana/SP,-22.7392463,-47.3306032,23262,9611.68178
D1,Americana/SP,-22.7392463,-47.3306032,719,297.08534
1,Americano do Brasil/GO,-16.2515808,-49.9806104,784,12719.01363
D1,Americano do Brasil/GO,-16.2515808,-49.9806104,22,356.91110
1,Ametista do Sul/RS,-27.3617341,-53.1826575,790,10671.34945
D1,Ametista do Sul/RS,-27.3617341,-53.1826575,20,270.16075
1,Amontada/CE,-3.3634586,-39.8284791,2901,6618.90529
D1,Amontada/CE,-3.3634586,-39.8284791,55,125.48769
1,Amorinópolis/GO,-16.6211308,-51.0949921,279,9090.90909
D1,Amorinópolis/GO,-16.6211308,-51.0949921,5,162.91952
1,Amparo de São Francisco/SE,-10.1299754,-36.9269099,254,10672.26891
D1,Amparo de São Francisco/SE,-10.1299754,-36.9269099,5,210.08403
1,Amparo do Serra/MG,-20.5070255,-42.8028462,155,3313.38179
D1,Amparo do Serra/MG,-20.5070255,-42.8028462,9,192.38991
1,Amparo/PB,-7.56394725,-37.04652873235175,167,7418.92492
D1,Amparo/PB,-7.56394725,-37.04652873235175,4,177.69880
1,Amparo/SP,-22.70111,-46.76444,6629,9121.18002
D1,Amparo/SP,-22.70111,-46.76444,134,184.37745
1,Ampére/PR,-25.9168712,-53.4742414,2202,11402.82740
D1,Ampére/PR,-25.9168712,-53.4742414,49,253.74139
1,Amélia Rodrigues/BA,-12.4015388,-38.7516971,2296,9166.40051
D1,Amélia Rodrigues/BA,-12.4015388,-38.7516971,45,179.65506
1,América Dourada/BA,-11.4515262,-41.4357517,928,5767.55749
D1,América Dourada/BA,-11.4515262,-41.4357517,13,80.79553
1,Américo Brasiliense/SP,-21.7297099,-48.1052092,3906,9519.39949
D1,Américo Brasiliense/SP,-21.7297099,-48.1052092,89,216.90388
1,Américo de Campos/SP,-20.298476,-49.735904,1042,17421.83581
D1,Américo de Campos/SP,-20.298476,-49.735904,30,501.58836
1,Anadia/AL,-9.6830208,-36.3052699,1428,8147.89456
D1,Anadia/AL,-9.6830208,-36.3052699,29,165.46845
1,Anagé/BA,-14.6134669,-41.1376308,902,4174.57306
D1,Anagé/BA,-14.6134669,-41.1376308,22,101.81886
1,Anahy/PR,-24.6450861,-53.1337957,357,12804.87805
D1,Anahy/PR,-24.6450861,-53.1337957,9,322.81205
1,Anajatuba/MA,-3.26441,-44.6179916,964,3571.95791
D1,Anajatuba/MA,-3.26441,-44.6179916,23,85.22306
1,Anajás/PA,-0.9878802,-49.9390114,1359,4577.60711
D1,Anajás/PA,-0.9878802,-49.9390114,22,74.10402
1,Analândia/SP,-22.128917,-47.661939,324,6408.22785
D1,Analândia/SP,-22.128917,-47.661939,4,79.11392
1,Anamã/AM,-3.5797356,-61.4049996,1807,12947.83606
D1,Anamã/AM,-3.5797356,-61.4049996,9,64.48839
1,Ananindeua/PA,-1.374035,-48.4016623,24612,4595.67508
D1,Ananindeua/PA,-1.374035,-48.4016623,808,150.87378
1,Ananás/TO,-6.3663053,-48.080238,1574,16582.38517
D1,Ananás/TO,-6.3663053,-48.080238,24,252.84450
1,Anapu/PA,-3.4668292,-51.2057035,1644,5746.84518
D1,Anapu/PA,-3.4668292,-51.2057035,38,132.83462
1,Anapurus/MA,-3.6751298,-43.1046001,830,5222.09639
D1,Anapurus/MA,-3.6751298,-43.1046001,13,81.79187
1,Anastácio/MS,-20.4832458,-55.8048448,2458,9739.66795
D1,Anastácio/MS,-20.4832458,-55.8048448,72,285.29540
1,Anaurilândia/MS,-22.185169,-52.719056,548,6037.90216
D1,Anaurilândia/MS,-22.185169,-52.719056,15,165.27104
1,Anchieta/ES,-20.8057672,-40.6454564,4821,16189.26089
D1,Anchieta/ES,-20.8057672,-40.6454564,87,292.15219
1,Anchieta/SC,-26.5350527,-53.3293938,657,11822.92604
D1,Anchieta/SC,-26.5350527,-53.3293938,9,161.95789
1,Andaraí/BA,-12.8059674,-41.3322919,912,6944.86750
D1,Andaraí/BA,-12.8059674,-41.3322919,10,76.14986
1,Andirá/PR,-23.0494761,-50.2310027,2362,11853.85928
D1,Andirá/PR,-23.0494761,-50.2310027,75,376.39265
1,Andorinha/BA,-10.3445708,-39.8334411,923,6364.20051
D1,Andorinha/BA,-10.3445708,-39.8334411,17,117.21713
1,Andradas/MG,-22.0680484,-46.5688976,3787,9148.22688
D1,Andradas/MG,-22.0680484,-46.5688976,112,270.55754
1,Andradina/SP,-20.896505,-51.3742765,6213,10861.50834
D1,Andradina/SP,-20.896505,-51.3742765,255,445.78861
1,Andrelândia/MG,-21.739722,-44.308889,206,1687.69458
D1,Andrelândia/MG,-21.739722,-44.308889,13,106.50500
1,André da Rocha/RS,-28.6309124,-51.5733328,114,8488.45867
D1,André da Rocha/RS,-28.6309124,-51.5733328,1,74.46016
1,Angatuba/SP,-23.4938938,-48.4110675,2768,10863.84866
D1,Angatuba/SP,-23.4938938,-48.4110675,68,266.88646
1,Angelim/PE,-8.8902038,-36.2872987,222,1977.55211
D1,Angelim/PE,-8.8902038,-36.2872987,10,89.07892
1,Angelina/SC,-27.5805287,-48.9838759,522,11005.69260
D1,Angelina/SC,-27.5805287,-48.9838759,2,42.16740
1,Angelândia/MG,-17.7253,-42.2728,189,2208.71801
D1,Angelândia/MG,-17.7253,-42.2728,1,11.68634
1,Angical do Piauí/PI,-6.0872666,-42.7366138,833,12280.70175
D1,Angical do Piauí/PI,-6.0872666,-42.7366138,12,176.91287
1,Angical/BA,-12.005623,-44.7000236,682,4893.09801
D1,Angical/BA,-12.005623,-44.7000236,15,107.61946
1,Angico/TO,-6.3893733,-47.8656722,235,6803.70585
D1,Angico/TO,-6.3893733,-47.8656722,3,86.85582
1,Angicos/RN,-5.6666344,-36.6009064,1073,9167.02264
D1,Angicos/RN,-5.6666344,-36.6009064,22,187.95387
1,Angra dos Reis/RJ,-23.0063966,-44.316326,14097,6808.69767
D1,Angra dos Reis/RJ,-23.0063966,-44.316326,486,234.73271
1,Anguera/BA,-12.1509425,-39.2452469,474,4195.80420
D1,Anguera/BA,-12.1509425,-39.2452469,2,17.70382
1,Angélica/MS,-22.1588196,-53.7728504,1295,11845.95682
D1,Angélica/MS,-22.1588196,-53.7728504,19,173.80168
1,Anhanguera/GO,-18.3338749,-48.220363,90,7758.62069
D1,Anhanguera/GO,-18.3338749,-48.220363,6,517.24138
1,Anhembi/SP,-22.7891096,-48.1316776,285,4179.49846
D1,Anhembi/SP,-22.7891096,-48.1316776,6,87.98944
1,Anhumas/SP,-22.2956478,-51.3873401,221,5333.01158
D1,Anhumas/SP,-22.2956478,-51.3873401,7,168.91892
1,Anicuns/GO,-16.4606451,-49.9572265,2941,13379.73705
D1,Anicuns/GO,-16.4606451,-49.9572265,64,291.16055
1,Anita Garibaldi/SC,-27.6855032,-51.1293873,1180,16961.33391
D1,Anita Garibaldi/SC,-27.6855032,-51.1293873,10,143.74012
1,Anitápolis/SC,-27.9041185,-49.1287395,335,10377.94300
D1,Anitápolis/SC,-27.9041185,-49.1287395,4,123.91574
1,Anori/AM,-3.7435254,-61.6605203,1888,8790.79946
D1,Anori/AM,-3.7435254,-61.6605203,31,144.34046
1,Anta Gorda/RS,-28.9718745,-52.0069187,616,10333.83660
D1,Anta Gorda/RS,-28.9718745,-52.0069187,4,67.10284
1,Antas/BA,-10.4114649,-38.3308815,1312,6735.45870
D1,Antas/BA,-10.4114649,-38.3308815,12,61.60481
1,Antonina do Norte/CE,-6.7754187,-39.9879345,766,10382.21740
D1,Antonina do Norte/CE,-6.7754187,-39.9879345,26,352.39902
1,Antonina/PR,-25.4298854,-48.7125431,2524,13319.96411
D1,Antonina/PR,-25.4298854,-48.7125431,66,348.30334
1,Antônio Almeida/PI,-7.2186016,-44.1950248,406,12807.57098
D1,Antônio Almeida/PI,-7.2186016,-44.1950248,10,315.45741
1,Antônio Cardoso/BA,-12.4363122,-39.1200307,542,4641.60315
D1,Antônio Cardoso/BA,-12.4363122,-39.1200307,11,94.20228
1,Antônio Carlos/MG,-21.318334,-43.746666,719,6274.54403
D1,Antônio Carlos/MG,-21.318334,-43.746666,16,139.62824
1,Antônio Carlos/SC,-27.5168462,-48.7684715,1611,18704.28422
D1,Antônio Carlos/SC,-27.5168462,-48.7684715,25,290.25891
1,Antônio Dias/MG,-19.6525,-42.872778,572,6167.11590
D1,Antônio Dias/MG,-19.6525,-42.872778,24,258.76011
1,Antônio Gonçalves/BA,-10.5715409,-40.2748824,877,7383.39788
D1,Antônio Gonçalves/BA,-10.5715409,-40.2748824,9,75.77033
1,Antônio João/MS,-22.1892837,-55.9508227,529,5864.74501
D1,Antônio João/MS,-22.1892837,-55.9508227,15,166.29712
1,Antônio Martins/RN,-6.2155812,-37.8890129,663,9267.54263
D1,Antônio Martins/RN,-6.2155812,-37.8890129,6,83.86916
1,Antônio Olinto/PR,-25.9849006,-50.1974516,514,6920.69476
D1,Antônio Olinto/PR,-25.9849006,-50.1974516,12,161.57264
1,Antônio Prado de Minas/MG,-21.0171988,-42.1101106,161,10144.92754
D1,Antônio Prado de Minas/MG,-21.0171988,-42.1101106,5,315.05986
1,Antônio Prado/RS,-28.8567806,-51.2801355,2662,20406.28593
D1,Antônio Prado/RS,-28.8567806,-51.2801355,30,229.97317
1,Anápolis/GO,-16.3332828,-48.9525756,39822,10164.58552
D1,Anápolis/GO,-16.3332828,-48.9525756,1464,373.68674
1,Anísio de Abreu/PI,-9.185643,-43.04941,290,2918.09217
D1,Anísio de Abreu/PI,-9.185643,-43.04941,12,120.74864
1,Aparecida d'Oeste/SP,-20.4498109,-50.8808706,739,17772.96777
D1,Aparecida d'Oeste/SP,-20.4498109,-50.8808706,15,360.75036
1,Aparecida de Goiânia/GO,-16.8226769,-49.2452546,69432,11765.22420
D1,Aparecida de Goiânia/GO,-16.8226769,-49.2452546,1472,249.42980
1,Aparecida do Rio Doce/GO,-18.2980167,-51.1491312,242,9781.72999
D1,Aparecida do Rio Doce/GO,-18.2980167,-51.1491312,4,161.68149
1,Aparecida do Rio Negro/TO,-9.9513491,-47.9773786,360,7425.74257
D1,Aparecida do Rio Negro/TO,-9.9513491,-47.9773786,10,206.27063
1,Aparecida do Taboado/MS,-20.0840304,-51.1013943,3574,13709.77023
D1,Aparecida do Taboado/MS,-20.0840304,-51.1013943,56,214.81453
1,Aparecida/PB,-6.7859598, -38.0831353,939,11157.31939
D1,Aparecida/PB,-6.7859598, -38.0831353,13,154.46768
1,Aparecida/SP,-22.851552,-45.2340924,2288,6323.06204
D1,Aparecida/SP,-22.851552,-45.2340924,96,265.30330
1,Aperibé/RJ,-21.6211928,-42.1028167,607,5100.41173
D1,Aperibé/RJ,-21.6211928,-42.1028167,27,226.87169
1,Apiacá/ES,-21.152272,-41.569297,839,11106.69844
D1,Apiacá/ES,-21.152272,-41.569297,33,436.85465
1,Apiacás/MT,-9.5678422,-57.394852,1789,17397.64660
D1,Apiacás/MT,-9.5678422,-57.394852,16,155.59662
1,Apiaí/SP,-24.5076527,-48.8461582,1473,6080.24437
D1,Apiaí/SP,-24.5076527,-48.8461582,74,305.45695
1,Apicum-Açu/MA,-1.5279295,-45.082278,517,2969.04611
D1,Apicum-Açu/MA,-1.5279295,-45.082278,5,28.71418
1,Apiúna/SC,-27.0374658,-49.3885037,833,7678.83481
D1,Apiúna/SC,-27.0374658,-49.3885037,16,147.49263
1,Apodi/RN,-5.6631109,-37.796927,6414,17879.24402
D1,Apodi/RN,-5.6631109,-37.796927,95,264.81574
1,Aporá/BA,-11.6599747,-38.0794757,579,3255.00337
D1,Aporá/BA,-11.6599747,-38.0794757,19,106.81358
1,Aporé/GO,-18.9642193,-51.92804,362,8553.87524
D1,Aporé/GO,-18.9642193,-51.92804,10,236.29490
1,Apuarema/BA,-13.8517897,-39.7457126,703,9627.49932
D1,Apuarema/BA,-13.8517897,-39.7457126,9,123.25390
1,Apucarana/PR,-23.5525327,-51.4610764,10234,7512.07481
D1,Apucarana/PR,-23.5525327,-51.4610764,412,302.42083
1,Apuiarés/CE,-3.9460303,-39.4313298,1249,8512.81352
D1,Apuiarés/CE,-3.9460303,-39.4313298,25,170.39258
1,Apuí/AM,-7.1940195,-59.8830192,1426,6377.74498
D1,Apuí/AM,-7.1940195,-59.8830192,31,138.64663
1,Aquidabã/SE,-10.2837579,-37.0188687,2315,10677.55177
D1,Aquidabã/SE,-10.2837579,-37.0188687,39,179.88100
1,Aquidauana/MS,-20.473969,-55.7821375,5337,11112.03648
D1,Aquidauana/MS,-20.473969,-55.7821375,148,308.14716
1,Aquiraz/CE,-3.9063117,-38.387504,6513,8047.19837
D1,Aquiraz/CE,-3.9063117,-38.387504,88,108.72923
1,Arabutã/SC,-27.1587028,-52.1438142,420,9842.98102
D1,Arabutã/SC,-27.1587028,-52.1438142,8,187.48535
1,Aracaju/SE,-10.9162061,-37.0774655,122419,18411.41932
D1,Aracaju/SE,-10.9162061,-37.0774655,2351,353.58275
1,Aracati/CE,-4.558259,-37.767894,7852,10472.82427
D1,Aracati/CE,-4.558259,-37.767894,158,210.73691
1,Aracatu/BA,-14.4274236,-41.4604105,803,6155.61518
D1,Aracatu/BA,-14.4274236,-41.4604105,15,114.98658
1,Araci/BA,-11.3356065,-38.9573261,3526,6452.20319
D1,Araci/BA,-11.3356065,-38.9573261,47,86.00498
1,Aracitaba/MG,-21.3425,-43.378611,87,4225.35211
D1,Aracitaba/MG,-21.3425,-43.378611,8,388.53813
1,Aracoiaba/CE,-4.3702577,-38.8084313,4150,15639.72112
D1,Aracoiaba/CE,-4.3702577,-38.8084313,33,124.36405
1,Aracruz/ES,-19.8245218,-40.2735025,16078,15594.41712
D1,Aracruz/ES,-19.8245218,-40.2735025,224,217.26268
1,Aragarças/GO,-15.8957166,-52.2514538,2691,13273.81246
D1,Aragarças/GO,-15.8957166,-52.2514538,61,300.89281
1,Aragoiânia/GO,-16.9146388,-49.4499148,1047,9975.22866
D1,Aragoiânia/GO,-16.9146388,-49.4499148,21,200.07622
1,Aragominas/TO,-7.1654101,-48.525488,543,9474.78625
D1,Aragominas/TO,-7.1654101,-48.525488,9,157.04066
1,Araguacema/TO,-8.8067391,-49.5560969,666,9308.17610
D1,Araguacema/TO,-8.8067391,-49.5560969,13,181.69113
1,Araguaiana/MT,-15.729144,-51.834112,344,11064.65101
D1,Araguaiana/MT,-15.729144,-51.834112,6,192.98810
1,Araguainha/MT,-16.857016,-53.031778,29,3065.53911
D1,Araguainha/MT,-16.857016,-53.031778,1,105.70825
1,Araguanã/MA,-2.9508403,-45.6651986,807,5189.37689
D1,Araguanã/MA,-2.9508403,-45.6651986,5,32.15227
1,Araguanã/TO,-6.5799107,-48.6428482,564,9735.88814
D1,Araguanã/TO,-6.5799107,-48.6428482,14,241.67098
1,Araguapaz/GO,-15.0937927,-50.626417,607,7799.04921
D1,Araguapaz/GO,-15.0937927,-50.626417,22,282.66735
1,Araguari/MG,-18.6511256,-48.1933764,15915,13507.32018
D1,Araguari/MG,-18.6511256,-48.1933764,401,340.33524
1,Araguatins/TO,-5.6522925,-48.1158973,2417,6682.33343
D1,Araguatins/TO,-5.6522925,-48.1158973,62,171.41277
1,Araguaçu/TO,-12.928934,-49.823134,854,10086.21708
D1,Araguaçu/TO,-12.928934,-49.823134,20,236.21117
1,Araguaína/TO,-7.193241,-48.2018597,34412,18765.30284
D1,Araguaína/TO,-7.193241,-48.2018597,475,259.02356
1,Araioses/MA,-2.890914,-41.904993,665,1421.82121
D1,Araioses/MA,-2.890914,-41.904993,14,29.93308
1,Aral Moreira/MS,-22.951141,-55.6268421,531,4305.87090
D1,Aral Moreira/MS,-22.951141,-55.6268421,12,97.30782
1,Aramari/BA,-12.0907897,-38.4985065,618,5392.19963
D1,Aramari/BA,-12.0907897,-38.4985065,12,104.70291
1,Arambaré/RS,-30.9132252,-51.4994625,188,5277.93375
D1,Arambaré/RS,-30.9132252,-51.4994625,8,224.59293
1,Arame/MA,-4.8858769,-46.0102484,1558,4755.21914
D1,Arame/MA,-4.8858769,-46.0102484,40,122.08522
1,Aramina/SP,-20.0876144,-47.789201,321,5676.39257
D1,Aramina/SP,-20.0876144,-47.789201,17,300.61892
1,Arandu/SP,-23.1345103,-49.0545651,553,8688.13826
D1,Arandu/SP,-23.1345103,-49.0545651,13,204.24195
1,Arantina/MG,-21.911667,-44.255833,156,5597.41658
D1,Arantina/MG,-21.911667,-44.255833,4,143.52350
1,Arapeí/SP,-22.6738889,-44.4477778,224,9105.69106
D1,Arapeí/SP,-22.6738889,-44.4477778,3,121.95122
1,Arapiraca/AL,-9.754866,-36.661471,29641,12718.89361
D1,Arapiraca/AL,-9.754866,-36.661471,473,202.96335
1,Arapoema/TO,-7.6575001,-49.0641484,493,7451.63241
D1,Arapoema/TO,-7.6575001,-49.0641484,11,166.26360
1,Araponga/MG,-20.666667,-42.520556,554,6553.88619
D1,Araponga/MG,-20.666667,-42.520556,9,106.47108
1,Arapongas/PR,-23.415296,-51.42592,13785,11044.78808
D1,Arapongas/PR,-23.415296,-51.42592,498,399.00649
1,Araporã/MG,-18.4318188,-49.188313,1917,27658.34656
D1,Araporã/MG,-18.4318188,-49.188313,28,403.98211
1,Arapoti/PR,-24.1457957,-49.8224605,3038,10734.98233
D1,Arapoti/PR,-24.1457957,-49.8224605,54,190.81272
1,Araputanga/MT,-15.4710868,-58.346796,1969,11615.83387
D1,Araputanga/MT,-15.4710868,-58.346796,54,318.56528
1,Arapuá/MG,-19.034444,-46.155556,276,9735.44974
D1,Arapuá/MG,-19.034444,-46.155556,2,70.54674
1,Arapuã/PR,-24.3079525,-51.7901941,219,7278.16550
D1,Arapuã/PR,-24.3079525,-51.7901941,6,199.40179
1,Araquari/SC,-26.3703324,-48.7210994,3599,9105.85973
D1,Araquari/SC,-26.3703324,-48.7210994,76,192.28823
1,Arara/PB,-6.8271895,-35.7605703,999,7377.04918
D1,Arara/PB,-6.8271895,-35.7605703,28,206.76414
1,Araranguá/SC,-28.9348832,-49.4858389,10571,15349.87730
D1,Araranguá/SC,-28.9348832,-49.4858389,238,345.59368
1,Araraquara/SP,-21.7886713,-48.1773096,22287,9350.96648
D1,Araraquara/SP,-21.7886713,-48.1773096,451,189.22627
1,Araras/SP,-22.3569477,-47.3838889,16275,12010.53828
D1,Araras/SP,-22.3569477,-47.3838889,359,264.93292
1,Ararendá/CE,-4.7504395,-40.8303611,1320,12044.89461
D1,Ararendá/CE,-4.7504395,-40.8303611,20,182.49840
1,Arari/MA,-3.4547602,-44.7772723,793,2649.33850
D1,Arari/MA,-3.4547602,-44.7772723,32,106.90899
1,Araricá/RS,-29.6168543,-50.929121,996,17258.70733
D1,Araricá/RS,-29.6168543,-50.929121,24,415.87247
1,Araripe/CE,-7.212861,-40.1359222,1335,6165.14270
D1,Araripe/CE,-7.212861,-40.1359222,20,92.36169
1,Araripina/PE,-7.5768582,-40.5038509,6919,8153.04487
D1,Araripina/PE,-7.5768582,-40.5038509,148,174.39668
1,Araruama/RJ,-22.8733203,-42.3428897,6239,4645.81177
D1,Araruama/RJ,-22.8733203,-42.3428897,424,315.72755
1,Araruna/PB,-6.5321155,-35.7397595,670,3274.20222
D1,Araruna/PB,-6.5321155,-35.7397595,16,78.18990
1,Araruna/PR,-23.9320308,-52.4976047,2034,14528.57143
D1,Araruna/PR,-23.9320308,-52.4976047,34,242.85714
1,Arataca/BA,-15.2617424,-39.4122943,779,7107.01578
D1,Arataca/BA,-15.2617424,-39.4122943,15,136.84883
1,Aratiba/RS,-27.3955734,-52.3024325,368,5946.03328
D1,Aratiba/RS,-27.3955734,-52.3024325,6,96.94619
1,Aratuba/CE,-4.4195958,-39.0463737,1536,13014.74326
D1,Aratuba/CE,-4.4195958,-39.0463737,8,67.78512
1,Aratuípe/BA,-13.077137,-39.0010786,459,5194.07039
D1,Aratuípe/BA,-13.077137,-39.0010786,10,113.16057
1,Araucária/PR,-25.5861107,-49.4051209,25863,17688.45665
D1,Araucária/PR,-25.5861107,-49.4051209,406,277.67519
1,Arauá/SE,-11.2644014,-37.6181058,1243,12496.23002
D1,Arauá/SE,-11.2644014,-37.6181058,20,201.06565
1,Araxá/MG,-19.5928536,-46.940241,13212,12308.89628
D1,Araxá/MG,-19.5928536,-46.940241,214,199.37207
1,Araçagi/PB,-6.8519969,-35.3835602,1542,9112.93659
D1,Araçagi/PB,-6.8519969,-35.3835602,22,130.01596
1,Araçariguama/SP,-23.438611,-47.061389,1854,8110.23622
D1,Araçariguama/SP,-23.438611,-47.061389,61,266.84164
1,Araçatuba/SP,-21.207992,-50.4390225,26544,13397.33204
D1,Araçatuba/SP,-21.207992,-50.4390225,792,399.73956
1,Araçaí/MG,-19.200833,-44.2475,72,3058.62362
D1,Araçaí/MG,-19.200833,-44.2475,1,42.48088
1,Araçoiaba da Serra/SP,-23.5045367,-47.6168158,2809,8077.40971
D1,Araçoiaba da Serra/SP,-23.5045367,-47.6168158,74,212.79043
1,Araçoiaba/PE,-7.7856903,-35.0898881,664,3202.62384
D1,Araçoiaba/PE,-7.7856903,-35.0898881,31,149.52009
1,Araçu/GO,-16.3561579,-49.6815269,440,12621.91624
D1,Araçu/GO,-16.3561579,-49.6815269,17,487.66495
1,Araçuaí/MG,-16.8484451,-42.0661868,1762,4799.52059
D1,Araçuaí/MG,-16.8484451,-42.0661868,47,128.02353
1,Araçás/BA,-12.2139176,-38.2026159,667,5463.63041
D1,Araçás/BA,-12.2139176,-38.2026159,13,106.48755
1,Araújos/MG,-19.948055,-45.165556,808,8594.83034
D1,Araújos/MG,-19.948055,-45.165556,13,138.28316
1,Arceburgo/MG,-21.364444,-46.939722,1196,10989.61683
D1,Arceburgo/MG,-21.364444,-46.939722,32,294.03657
1,Arco-Íris/SP,-21.7741308,-50.4668814,142,8009.02425
D1,Arco-Íris/SP,-21.7741308,-50.4668814,8,451.21263
1,Arcos/MG,-20.282223,-45.539444,5157,12771.17385
D1,Arcos/MG,-20.282223,-45.539444,110,272.41209
1,Arcoverde/PE,-8.415192,-37.057748,6097,8148.67285
D1,Arcoverde/PE,-8.415192,-37.057748,129,172.40918
1,Areado/MG,-21.3582771,-46.1476688,1085,7147.09176
D1,Areado/MG,-21.3582771,-46.1476688,22,144.91799
1,Areal/RJ,-22.2314922,-43.1056264,1346,10624.35867
D1,Areal/RJ,-22.2314922,-43.1056264,47,370.98429
1,Arealva/SP,-22.0301906,-48.9111936,963,11180.77325
D1,Arealva/SP,-22.0301906,-48.9111936,16,185.76570
1,Areia Branca/RN,-4.9506652,-37.1263312,2823,10094.03940
D1,Areia Branca/RN,-4.9506652,-37.1263312,95,339.68606
1,Areia Branca/SE,-10.7591455,-37.3148072,2076,11109.92187
D1,Areia Branca/SE,-10.7591455,-37.3148072,47,251.52521
1,Areia de Baraúnas/PB,-7.1233949,-36.9446216,200,9451.79584
D1,Areia de Baraúnas/PB,-7.1233949,-36.9446216,4,189.03592
1,Areia/PB,-6.9680243,-35.6994783,1750,7724.22316
D1,Areia/PB,-6.9680243,-35.6994783,28,123.58757
1,Areial/PB,-7.0501306,-35.9245244,360,5123.09663
D1,Areial/PB,-7.0501306,-35.9245244,12,170.76989
1,Areias/SP,-22.5800929,-44.6975127,333,8547.22793
D1,Areias/SP,-22.5800929,-44.6975127,1,25.66735
1,Areiópolis/SP,-22.6758064,-48.6673653,1325,11874.88797
D1,Areiópolis/SP,-22.6758064,-48.6673653,19,170.28141
1,Arenápolis/MT,-14.4610369,-56.8432806,1806,19006.52494
D1,Arenápolis/MT,-14.4610369,-56.8432806,33,347.29531
1,Arenópolis/GO,-16.3859286,-51.55937,225,8872.23975
D1,Arenópolis/GO,-16.3859286,-51.55937,8,315.45741
1,Argirita/MG,-21.612761,-42.8371922,259,9578.40237
D1,Argirita/MG,-21.612761,-42.8371922,7,258.87574
1,Aricanduva/MG,-17.8678,-42.5569,128,2429.30347
1,Arinos/MG,-15.917223,-46.106111,737,4126.07771
D1,Arinos/MG,-15.917223,-46.106111,23,128.76498
1,Aripuanã/MT,-10.175806,-59.4439663,2925,12877.52047
D1,Aripuanã/MT,-10.175806,-59.4439663,43,189.31056
1,Ariquemes/RO,-9.9076522,-63.033069,21921,20014.97402
D1,Ariquemes/RO,-9.9076522,-63.033069,471,430.04666
1,Ariranha do Ivaí/PR,-24.3834527,-51.5876772,184,8906.09874
D1,Ariranha do Ivaí/PR,-24.3834527,-51.5876772,3,145.20813
1,Ariranha/SP,-21.18716,-48.790418,920,9425.26380
D1,Ariranha/SP,-21.18716,-48.790418,23,235.63160
1,Armazém/SC,-28.2624996,-49.0190126,1403,16017.81025
D1,Armazém/SC,-28.2624996,-49.0190126,30,342.50485
1,Armação dos Búzios/RJ,-22.7597805,-41.8875267,4512,13086.98553
D1,Armação dos Búzios/RJ,-22.7597805,-41.8875267,57,165.32761
1,Arneiroz/CE,-6.3235099,-40.1603859,654,8337.58287
D1,Arneiroz/CE,-6.3235099,-40.1603859,16,203.97756
1,Aroazes/PI,-6.1108814,-41.7886137,589,10108.11738
D1,Aroazes/PI,-6.1108814,-41.7886137,12,205.93788
1,Aroeiras do Itaim/PI,-7.2797031,-41.5629681,127,4978.43983
D1,Aroeiras do Itaim/PI,-7.2797031,-41.5629681,2,78.40063
1,Aroeiras/PB,-7.5462904,-35.7080002,1761,9212.17828
D1,Aroeiras/PB,-7.5462904,-35.7080002,12,62.77464
1,Arraial do Cabo/RJ,-22.9662839,-42.024427,729,2382.89805
D1,Arraial do Cabo/RJ,-22.9662839,-42.024427,39,127.48014
1,Arraial/PI,-6.6541632,-42.5335332,159,3368.64407
D1,Arraial/PI,-6.6541632,-42.5335332,3,63.55932
1,Arraias/TO,-12.9287788,-46.9437231,1005,9540.53541
D1,Arraias/TO,-12.9287788,-46.9437231,7,66.45149
1,Arroio Grande/RS,-32.2384246,-53.0866661,1957,10730.34324
D1,Arroio Grande/RS,-32.2384246,-53.0866661,53,290.60204
1,Arroio Trinta/SC,-26.9301976,-51.334928,606,17075.23246
D1,Arroio Trinta/SC,-26.9301976,-51.334928,13,366.30037
1,Arroio do Meio/RS,-29.4020392,-51.9444993,3080,14689.75056
D1,Arroio do Meio/RS,-29.4020392,-51.9444993,44,209.85358
1,Arroio do Padre/RS,-31.4428773,-52.4228985,229,7760.08133
D1,Arroio do Padre/RS,-31.4428773,-52.4228985,3,101.66045
1,Arroio do Sal/RS,-29.549852,-49.8874395,1122,10915.45870
D1,Arroio do Sal/RS,-29.549852,-49.8874395,37,359.95719
1,Arroio do Tigre/RS,-29.334158,-53.0888935,1224,9125.47529
D1,Arroio do Tigre/RS,-29.334158,-53.0888935,20,149.10907
1,Arroio dos Ratos/RS,-30.0894524,-51.7265541,1017,7173.59103
D1,Arroio dos Ratos/RS,-30.0894524,-51.7265541,35,246.87875
1,Artur Nogueira/SP,-22.572737,-47.172679,4818,8706.17998
D1,Artur Nogueira/SP,-22.572737,-47.172679,125,225.87640
1,Aruanã/GO,-14.9162439,-51.0715692,558,5519.28783
D1,Aruanã/GO,-14.9162439,-51.0715692,13,128.58556
1,Arujá/SP,-23.396266,-46.3175449,7492,8218.78737
D1,Arujá/SP,-23.396266,-46.3175449,301,330.19955
1,Arvoredo/SC,-27.0752908,-52.4571847,309,13831.69203
D1,Arvoredo/SC,-27.0752908,-52.4571847,4,179.05103
1,Arvorezinha/RS,-28.87369,-52.17808,846,8116.66507
D1,Arvorezinha/RS,-28.87369,-52.17808,27,259.04250
1,Arês/RN,-6.1969216,-35.1642968,1122,7782.47902
D1,Arês/RN,-6.1969216,-35.1642968,25,173.40640
1,Ascurra/SC,-26.9569975,-49.3767752,1171,14677.86413
D1,Ascurra/SC,-26.9569975,-49.3767752,10,125.34470
1,Aspásia/SP,-20.160028,-50.728046,190,10451.04510
D1,Aspásia/SP,-20.160028,-50.728046,6,330.03300
1,Assaré/CE,-6.8746791,-39.8741385,2207,9400.28963
D1,Assaré/CE,-6.8746791,-39.8741385,42,178.89088
1,Assaí/PR,-23.3736041,-50.8454929,1350,9027.68490
D1,Assaí/PR,-23.3736041,-50.8454929,43,287.54848
1,Assis Brasil/AC,-10.9409203,-69.5672108,1763,23400.58402
D1,Assis Brasil/AC,-10.9409203,-69.5672108,24,318.55588
1,Assis Chateaubriand/PR,-24.4054826,-53.5120468,4482,13443.31134
D1,Assis Chateaubriand/PR,-24.4054826,-53.5120468,99,296.94061
1,Assis/SP,-22.6620892,-50.420623,10848,10322.87533
D1,Assis/SP,-22.6620892,-50.420623,378,359.70196
1,Assunção do Piauí/PI,-5.8610212,-41.0485091,334,4247.74259
D1,Assunção do Piauí/PI,-5.8610212,-41.0485091,8,101.74234
1,Assunção/PB,-7.073396,-36.7274003,403,10002.48201
D1,Assunção/PB,-7.073396,-36.7274003,5,124.10027
1,Astolfo Dutra/MG,-21.3132636,-42.8624102,1321,9257.18290
D1,Astolfo Dutra/MG,-21.3132636,-42.8624102,23,161.17730
1,Astorga/PR,-23.2350184,-51.6647074,3271,12480.44565
D1,Astorga/PR,-23.2350184,-51.6647074,76,289.97673
1,Atalaia do Norte/AM,-4.3658547,-70.1908742,2805,13751.34817
D1,Atalaia do Norte/AM,-4.3658547,-70.1908742,10,49.02441
1,Atalaia/AL,-9.5029595,-36.0219316,1186,2503.95862
D1,Atalaia/AL,-9.5029595,-36.0219316,48,101.34065
1,Atalaia/PR,-23.1513833,-52.0529697,439,11311.51765
D1,Atalaia/PR,-23.1513833,-52.0529697,19,489.56455
1,Atalanta/SC,-27.421916,-49.778863,460,14397.49609
D1,Atalanta/SC,-27.421916,-49.778863,11,344.28795
1,Ataléia/MG,-18.04432,-41.1110524,1137,8968.29153
D1,Ataléia/MG,-18.04432,-41.1110524,8,63.10144
1,Atibaia/SP,-23.1177393,-46.5547861,11134,7727.22225
D1,Atibaia/SP,-23.1177393,-46.5547861,252,174.89312
1,Atilio Vivacqua/ES,-20.9139369,-41.1947519,1507,12449.40107
D1,Atilio Vivacqua/ES,-20.9139369,-41.1947519,28,231.30938
1,Augustinópolis/TO,-5.4662267,-47.8897519,1522,8163.92212
D1,Augustinópolis/TO,-5.4662267,-47.8897519,27,144.82648
1,Augusto Corrêa/PA,-1.0229335,-46.6404029,2000,4303.75933
D1,Augusto Corrêa/PA,-1.0229335,-46.6404029,46,98.98646
1,Augusto Pestana/RS,-28.5148413,-53.9906433,740,11208.72463
D1,Augusto Pestana/RS,-28.5148413,-53.9906433,13,196.91003
1,Augusto de Lima/MG,-18.1092963,-44.2651945,274,5648.31993
D1,Augusto de Lima/MG,-18.1092963,-44.2651945,10,206.14306
1,Aurelino Leal/BA,-14.3167137,-39.3256107,1000,8850.34074
D1,Aurelino Leal/BA,-14.3167137,-39.3256107,29,256.65988
1,Auriflama/SP,-20.6840418,-50.5554616,1933,12672.91680
D1,Auriflama/SP,-20.6840418,-50.5554616,68,445.81394
1,Aurilândia/GO,-16.6772599,-50.4641231,212,6932.63571
D1,Aurilândia/GO,-16.6772599,-50.4641231,7,228.90778
1,Aurora do Pará/PA,-2.1323199,-47.558436,1692,5325.27618
D1,Aurora do Pará/PA,-2.1323199,-47.558436,15,47.20990
1,Aurora do Tocantins/TO,-12.71045,-46.407604,194,5128.20513
D1,Aurora do Tocantins/TO,-12.71045,-46.407604,5,132.17024
1,Aurora/CE,-6.9426019,-38.9693765,1729,7025.59935
D1,Aurora/CE,-6.9426019,-38.9693765,37,150.34539
1,Aurora/SC,-27.3166417,-49.6368502,830,14604.96217
D1,Aurora/SC,-27.3166417,-49.6368502,15,263.94510
1,Autazes/AM,-3.5833283,-59.1301518,2871,7125.83768
D1,Autazes/AM,-3.5833283,-59.1301518,95,235.79052
1,Avanhandava/SP,-21.4603331,-49.9465156,1026,7403.13154
D1,Avanhandava/SP,-21.4603331,-49.9465156,38,274.19006
1,Avaré/SP,-23.1045215,-48.9259103,10443,11446.64153
D1,Avaré/SP,-23.1045215,-48.9259103,239,261.96948
1,Avaí/SP,-22.1564662,-49.3316395,462,8498.89625
D1,Avaí/SP,-22.1564662,-49.3316395,12,220.75055
1,Aveiro/PA,-3.6049239,-55.3310742,813,4956.10827
D1,Aveiro/PA,-3.6049239,-55.3310742,13,79.24896
1,Avelino Lopes/PI,-10.1346855,-43.9489525,429,3787.74501
D1,Avelino Lopes/PI,-10.1346855,-43.9489525,19,167.75561
1,Avelinópolis/GO,-16.4672409,-49.7578661,304,12619.34413
D1,Avelinópolis/GO,-16.4672409,-49.7578661,14,581.15401
1,Axixá do Tocantins/TO,-5.612747,-47.77007,1029,10513.94707
D1,Axixá do Tocantins/TO,-5.612747,-47.77007,19,194.13508
1,Axixá/MA,-2.8379465,-44.0561053,192,1575.96651
D1,Axixá/MA,-2.8379465,-44.0561053,7,57.45711
1,Açailândia/MA,-4.9514278,-47.4844564,5428,4798.40171
D1,Açailândia/MA,-4.9514278,-47.4844564,216,190.94598
1,Açu/RN,-5.5836157,-36.9139541,7847,13440.32612
D1,Açu/RN,-5.5836157,-36.9139541,145,248.35571
1,Açucena/MG,-19.073056,-42.546666,790,8432.96328
D1,Açucena/MG,-19.073056,-42.546666,33,352.26302
1,Babaçulândia/TO,-7.2034355,-47.761613,827,7753.60960
D1,Babaçulândia/TO,-7.2034355,-47.761613,5,46.87793
1,Bacabal/MA,-4.2318132,-44.781167,5290,5048.19162
D1,Bacabal/MA,-4.2318132,-44.781167,187,178.45214
1,Bacabeira/MA,-2.9775747,-44.3155943,380,2202.64317
D1,Bacabeira/MA,-2.9775747,-44.3155943,9,52.16786
1,Bacuri/MA,-1.728894,-45.1417148,598,3205.74676
D1,Bacuri/MA,-1.728894,-45.1417148,4,21.44312
1,Bacurituba/MA,-2.7082587,-44.7381309,117,2063.49206
D1,Bacurituba/MA,-2.7082587,-44.7381309,2,35.27337
1,Bady Bassitt/SP,-20.9178969,-49.4517911,3736,21034.85164
D1,Bady Bassitt/SP,-20.9178969,-49.4517911,72,405.38258
1,Baependi/MG,-21.959162,-44.8899249,1482,7719.15204
D1,Baependi/MG,-21.959162,-44.8899249,12,62.50326
1,Bagre/PA,-1.8994498,-50.2103844,916,2924.18196
D1,Bagre/PA,-1.8994498,-50.2103844,12,38.30806
1,Bagé/RS,-31.3314264,-54.1062808,10753,8862.24090
D1,Bagé/RS,-31.3314264,-54.1062808,279,229.94190
1,Baianópolis/BA,-12.3067564,-44.5383591,850,6102.37634
D1,Baianópolis/BA,-12.3067564,-44.5383591,13,93.33046
1,Baixa Grande do Ribeiro/PI,-7.862861,-45.2113289,2572,22037.52892
D1,Baixa Grande do Ribeiro/PI,-7.862861,-45.2113289,31,265.61563
1,Baixa Grande/BA,-11.9630941,-40.1657537,804,3931.73260
D1,Baixa Grande/BA,-11.9630941,-40.1657537,13,63.57279
1,Baixio/CE,-6.7303544,-38.7170095,616,9773.12391
D1,Baixio/CE,-6.7303544,-38.7170095,12,190.38553
1,Baixo Guandu/ES,-19.5138322,-41.0182089,3572,11473.72478
D1,Baixo Guandu/ES,-19.5138322,-41.0182089,71,228.06116
1,Baião/PA,-2.7903479,-49.6702845,752,1551.82732
D1,Baião/PA,-2.7903479,-49.6702845,34,70.16241
1,Balbinos/SP,-21.9006253,-49.3583966,351,5915.06572
D1,Balbinos/SP,-21.9006253,-49.3583966,4,67.40816
1,Baldim/MG,-19.2913568,-43.9558262,636,8150.71126
D1,Baldim/MG,-19.2913568,-43.9558262,19,243.49609
1,Baliza/GO,-16.1978119,-52.542789,345,6534.09091
D1,Baliza/GO,-16.1978119,-52.542789,9,170.45455
1,Balneário Arroio do Silva/SC,-28.9815269,-49.4189932,2060,15338.79375
D1,Balneário Arroio do Silva/SC,-28.9815269,-49.4189932,55,409.53090
1,Balneário Barra do Sul/SC,-26.459842,-48.6061471,1424,12904.39511
D1,Balneário Barra do Sul/SC,-26.459842,-48.6061471,41,371.54508
1,Balneário Camboriú/SC,-26.9924395,-48.6339782,24525,16821.44915
D1,Balneário Camboriú/SC,-26.9924395,-48.6339782,370,253.77925
1,Balneário Gaivota/SC,-29.1553098,-49.5808712,1288,11438.72114
D1,Balneário Gaivota/SC,-29.1553098,-49.5808712,34,301.95382
1,Balneário Pinhal/RS,-30.2482978,-50.234585,716,4985.03098
D1,Balneário Pinhal/RS,-30.2482978,-50.234585,46,320.26735
1,Balneário Piçarras/SC,-26.7638889,-48.6716667,4829,20313.81457
D1,Balneário Piçarras/SC,-26.7638889,-48.6716667,54,227.15800
1,Balneário Rincão/SC,-28.8235718,-49.2241642,1419,10960.91457
D1,Balneário Rincão/SC,-28.8235718,-49.2241642,43,332.14893
1,Balsa Nova/PR,-25.5842234,-49.6312741,1623,12396.88359
D1,Balsa Nova/PR,-25.5842234,-49.6312741,28,213.87107
1,Balsas/MA,-7.53214,-46.037163,10119,10548.42644
D1,Balsas/MA,-7.53214,-46.037163,194,202.23290
1,Bambuí/MG,-20.0131996,-45.9777034,1703,7126.11934
D1,Bambuí/MG,-20.0131996,-45.9777034,25,104.61126
1,Banabuiú/CE,-5.3046404,-38.919766,2270,12434.26819
D1,Banabuiú/CE,-5.3046404,-38.919766,20,109.55302
1,Bananal/SP,-22.6828195,-44.3221095,962,8751.02338
D1,Bananal/SP,-22.6828195,-44.3221095,3,27.29009
1,Bananeiras/PB,-6.7537682,-35.6338343,1465,6887.95900
D1,Bananeiras/PB,-6.7537682,-35.6338343,25,117.54196
1,Bandeira do Sul/MG,-21.728056,-46.385555,589,10193.83870
D1,Bandeira do Sul/MG,-21.728056,-46.385555,14,242.29837
1,Bandeira/MG,-15.884444,-40.559167,454,9525.80781
D1,Bandeira/MG,-15.884444,-40.559167,9,188.83760
1,Bandeirante/SC,-26.7677402,-53.6397596,389,14690.33233
D1,Bandeirante/SC,-26.7677402,-53.6397596,4,151.05740
1,Bandeirantes do Tocantins/TO,-7.7635698,-48.579148,474,13195.99109
D1,Bandeirantes do Tocantins/TO,-7.7635698,-48.579148,8,222.71715
1,Bandeirantes/MS,-19.9179623,-54.3646768,594,8175.06193
D1,Bandeirantes/MS,-19.9179623,-54.3646768,10,137.62731
1,Bandeirantes/PR,-23.107788,-50.370407,5017,16074.46093
D1,Bandeirantes/PR,-23.107788,-50.370407,128,410.11182
1,Bannach/PA,-7.3508505,-50.4064531,648,19865.11343
D1,Bannach/PA,-7.3508505,-50.4064531,3,91.96812
1,Banzaê/BA,-10.5827616,-38.6122305,1134,8564.95468
D1,Banzaê/BA,-10.5827616,-38.6122305,8,60.42296
1,Baraúna/PB,-6.643394,-36.2531932,683,13759.06527
D1,Baraúna/PB,-6.643394,-36.2531932,9,181.30540
1,Baraúna/RN,-5.0775002,-37.61752,1556,5412.73872
D1,Baraúna/RN,-5.0775002,-37.61752,26,90.44422
1,Barbacena/MG,-21.2254524,-43.7735087,8278,5989.69639
D1,Barbacena/MG,-21.2254524,-43.7735087,262,189.57483
1,Barbalha/CE,-7.3121067,-39.3036427,6708,10955.77187
D1,Barbalha/CE,-7.3121067,-39.3036427,150,244.98595
1,Barbosa Ferraz/PR,-24.0287182,-52.00811,1207,10563.62682
D1,Barbosa Ferraz/PR,-24.0287182,-52.00811,31,271.31104
1,Barbosa/SP,-21.265661,-49.951816,625,8369.04124
D1,Barbosa/SP,-21.265661,-49.951816,13,174.07606
1,Barcarena/PA,-1.5107945,-48.6190679,11415,8986.27851
D1,Barcarena/PA,-1.5107945,-48.6190679,222,174.76599
1,Barcelona/RN,-5.9514918,-35.9260284,142,3555.33300
D1,Barcelona/RN,-5.9514918,-35.9260284,5,125.18778
1,Barcelos/AM,-0.9729214,-62.925635,4379,15844.12765
D1,Barcelos/AM,-0.9729214,-62.925635,60,217.09241
1,Bariri/SP,-22.0746355,-48.7394852,2964,8335.67692
D1,Bariri/SP,-22.0746355,-48.7394852,119,334.66449
1,Barra Bonita/SC,-26.6526364,-53.4419581,186,11265.89945
D1,Barra Bonita/SC,-26.6526364,-53.4419581,1,60.56935
1,Barra Bonita/SP,-22.490859,-48.558349,3335,9231.57836
D1,Barra Bonita/SP,-22.490859,-48.558349,95,262.96850
1,Barra D'Alcântara/PI,-6.5209258,-42.1071089,151,3820.85020
D1,Barra D'Alcântara/PI,-6.5209258,-42.1071089,4,101.21457
1,Barra Funda/RS,-27.9230048,-53.0401045,583,22853.78283
D1,Barra Funda/RS,-27.9230048,-53.0401045,14,548.80439
1,Barra Longa/MG,-20.2833541,-43.0423516,398,7936.19143
D1,Barra Longa/MG,-20.2833541,-43.0423516,9,179.46162
1,Barra Mansa/RJ,-22.5394843,-44.1735129,15575,8426.52557
D1,Barra Mansa/RJ,-22.5394843,-44.1735129,588,318.12501
1,Barra Velha/SC,-26.6338203,-48.6835001,4263,14276.62425
D1,Barra Velha/SC,-26.6338203,-48.6835001,105,351.64099
1,Barra da Estiva/BA,-13.6269662,-41.3278287,2474,12132.20871
D1,Barra da Estiva/BA,-13.6269662,-41.3278287,25,122.59710
1,Barra de Guabiraba/PE,-8.4173522,-35.6626669,438,3018.60786
D1,Barra de Guabiraba/PE,-8.4173522,-35.6626669,15,103.37698
1,Barra de Santa Rosa/PB,-6.7218007,-36.0564638,1687,10885.97793
D1,Barra de Santa Rosa/PB,-6.7218007,-36.0564638,12,77.43434
1,Barra de Santana/PB,-7.5230865,-35.9988518,583,6982.87220
D1,Barra de Santana/PB,-7.5230865,-35.9988518,6,71.86489
1,Barra de Santo Antônio/AL,-9.4038098,-35.5117693,451,2806.82101
D1,Barra de Santo Antônio/AL,-9.4038098,-35.5117693,30,186.70650
1,Barra de São Francisco/ES,-18.7570902,-40.8916119,4808,10689.43285
D1,Barra de São Francisco/ES,-18.7570902,-40.8916119,193,429.08913
1,Barra de São Miguel/AL,-9.8261357,-35.8837777,586,6994.50943
D1,Barra de São Miguel/AL,-9.8261357,-35.8837777,7,83.55216
1,Barra de São Miguel/PB,-7.7528088,-36.3170996,582,9596.04287
D1,Barra de São Miguel/PB,-7.7528088,-36.3170996,6,98.92828
1,Barra do Bugres/MT,-15.0683712,-57.1853688,3139,8890.58827
D1,Barra do Bugres/MT,-15.0683712,-57.1853688,75,212.42247
1,Barra do Chapéu/SP,-24.472203,-49.023784,359,6232.63889
D1,Barra do Chapéu/SP,-24.472203,-49.023784,3,52.08333
1,Barra do Choça/BA,-14.8638173,-40.5761637,2126,6812.13752
D1,Barra do Choça/BA,-14.8638173,-40.5761637,31,99.33032
1,Barra do Corda/MA,-5.496823,-45.248496,5774,6524.88361
D1,Barra do Corda/MA,-5.496823,-45.248496,59,66.67269
1,Barra do Garças/MT,-15.8916033,-52.2615413,8875,14517.05242
D1,Barra do Garças/MT,-15.8916033,-52.2615413,306,500.53161
1,Barra do Guarita/RS,-27.1888016,-53.7147086,113,3469.45041
D1,Barra do Guarita/RS,-27.1888016,-53.7147086,7,214.92171
1,Barra do Jacaré/PR,-23.1151788,-50.1813945,254,9133.40525
D1,Barra do Jacaré/PR,-23.1151788,-50.1813945,4,143.83315
1,Barra do Mendes/BA,-11.8053298,-42.057037,742,5363.98467
D1,Barra do Mendes/BA,-11.8053298,-42.057037,12,86.74908
1,Barra do Ouro/TO,-7.7113784,-47.6743925,159,3432.64249
D1,Barra do Ouro/TO,-7.7113784,-47.6743925,6,129.53368
1,Barra do Piraí/RJ,-22.4703403,-43.8263256,6239,6191.69545
D1,Barra do Piraí/RJ,-22.4703403,-43.8263256,357,354.29320
1,Barra do Quaraí/RS,-30.208947,-57.5505128,422,9983.43979
D1,Barra do Quaraí/RS,-30.208947,-57.5505128,6,141.94464
1,Barra do Ribeiro/RS,-30.2930206,-51.301437,1072,7907.93744
D1,Barra do Ribeiro/RS,-30.2930206,-51.301437,49,361.46356
1,Barra do Rio Azul/RS,-27.4101581,-52.4117471,104,6283.98792
D1,Barra do Rio Azul/RS,-27.4101581,-52.4117471,1,60.42296
1,Barra do Rocha/BA,-14.2090974,-39.6004395,390,6949.39416
D1,Barra do Rocha/BA,-14.2090974,-39.6004395,7,124.73272
1,Barra do Turvo/SP,-24.756421,-48.5056942,599,7848.53249
D1,Barra do Turvo/SP,-24.756421,-48.5056942,18,235.84906
1,Barra dos Coqueiros/SE,-10.9075694,-37.0386249,6916,22360.16812
D1,Barra dos Coqueiros/SE,-10.9075694,-37.0386249,93,300.67895
1,Barra/BA,-11.0892702,-43.1420453,2127,3945.46466
D1,Barra/BA,-11.0892702,-43.1420453,45,83.47245
1,Barracão/PR,-26.252395,-53.6349576,1328,12878.20016
D1,Barracão/PR,-26.252395,-53.6349576,35,339.41040
1,Barracão/RS,-27.6728964,-51.4582928,440,8371.38508
D1,Barracão/RS,-27.6728964,-51.4582928,16,304.41400
1,Barras/PI,-4.2446153,-42.2920241,4936,10460.95157
D1,Barras/PI,-4.2446153,-42.2920241,93,197.09653
1,Barreira/CE,-4.2883361,-38.641094,1527,6764.71891
D1,Barreira/CE,-4.2883361,-38.641094,45,199.35321
1,Barreiras do Piauí/PI,-9.9224524,-45.4763776,78,2326.96897
D1,Barreiras do Piauí/PI,-9.9224524,-45.4763776,2,59.66587
1,Barreiras/BA,-12.1440031,-44.9967406,18729,11931.19924
D1,Barreiras/BA,-12.1440031,-44.9967406,301,191.75028
1,Barreirinha/AM,-2.798863,-57.067897,2432,7486.99320
D1,Barreirinha/AM,-2.798863,-57.067897,62,190.86907
1,Barreirinhas/MA,-2.7541271,-42.8259693,2231,3529.11400
D1,Barreirinhas/MA,-2.7541271,-42.8259693,41,64.85597
1,Barreiros/PE,-8.8159644,-35.1831905,775,1812.27200
D1,Barreiros/PE,-8.8159644,-35.1831905,61,142.64334
1,Barretos/SP,-20.5531437,-48.5697509,15650,12740.87582
D1,Barretos/SP,-20.5531437,-48.5697509,494,402.17205
1,Barrinha/SP,-21.1898849,-48.1550642,1633,4921.63954
D1,Barrinha/SP,-21.1898849,-48.1550642,65,195.90115
1,Barro Alto/BA,-11.7618025,-41.9094904,904,6005.04849
D1,Barro Alto/BA,-11.7618025,-41.9094904,13,86.35579
1,Barro Alto/GO,-14.9696025,-48.9190985,1311,11491.93548
D1,Barro Alto/GO,-14.9696025,-48.9190985,18,157.78401
1,Barro Duro/PI,-5.8180139,-42.5106589,695,9890.42266
D1,Barro Duro/PI,-5.8180139,-42.5106589,11,156.53906
1,Barro Preto/BA,-14.8068289,-39.4727588,591,10848.01762
D1,Barro Preto/BA,-14.8068289,-39.4727588,10,183.55360
1,Barro/CE,-7.1713587,-38.7742136,1749,7685.20960
D1,Barro/CE,-7.1713587,-38.7742136,44,193.33861
1,Barrocas/BA,-11.5165,-39.099282894736845,775,4812.17013
D1,Barrocas/BA,-11.5165,-39.099282894736845,23,142.81279
1,Barrolândia/TO,-9.837246,-48.7264346,752,13307.37922
D1,Barrolândia/TO,-9.837246,-48.7264346,20,353.91966
1,Barroquinha/CE,-3.0200371,-41.1339229,1259,8368.78490
D1,Barroquinha/CE,-3.0200371,-41.1339229,25,166.17921
1,Barros Cassal/RS,-29.094938,-52.5832366,737,6590.94974
D1,Barros Cassal/RS,-29.094938,-52.5832366,12,107.31533
1,Barroso/MG,-21.187222,-43.976111,1987,9508.54190
D1,Barroso/MG,-21.187222,-43.976111,52,248.83955
1,Barueri/SP,-23.5112184,-46.8764612,29959,10816.22633
D1,Barueri/SP,-23.5112184,-46.8764612,1041,375.83670
1,Barão de Antonina/SP,-23.6295651,-49.5632104,446,12750.14294
D1,Barão de Antonina/SP,-23.6295651,-49.5632104,8,228.70212
1,Barão de Cocais/MG,-19.9452437,-43.4870298,3766,11458.65028
D1,Barão de Cocais/MG,-19.9452437,-43.4870298,65,197.77277
1,Barão de Cotegipe/RS,-27.6214694,-52.3765316,744,11238.67069
D1,Barão de Cotegipe/RS,-27.6214694,-52.3765316,9,135.95166
1,Barão de Grajaú/MA,-6.7542591,-43.0263477,477,2520.60875
D1,Barão de Grajaú/MA,-6.7542591,-43.0263477,2,10.56859
1,Barão de Melgaço/MT,-16.195776,-55.9668049,365,4470.84762
D1,Barão de Melgaço/MT,-16.195776,-55.9668049,15,183.73346
1,Barão de Monte Alto/MG,-21.244722,-42.2375,330,6163.61599
D1,Barão de Monte Alto/MG,-21.244722,-42.2375,12,224.13149
1,Barão do Triunfo/RS,-30.3909877,-51.7375349,461,6131.13446
D1,Barão do Triunfo/RS,-30.3909877,-51.7375349,6,79.79785
1,Barão/RS,-29.372474,-51.494908,652,10512.73783
D1,Barão/RS,-29.372474,-51.494908,9,145.11448
1,Bastos/SP,-21.9222474,-50.7317727,1521,7259.10371
D1,Bastos/SP,-21.9222474,-50.7317727,36,171.81311
1,Bataguassu/MS,-21.715899,-52.422058,3391,14538.04930
D1,Bataguassu/MS,-21.715899,-52.422058,43,184.35155
1,Batalha/AL,-9.6733809,-37.1265481,1116,6085.72363
D1,Batalha/AL,-9.6733809,-37.1265481,19,103.60999
1,Batalha/PI,-4.022391,-42.0780926,1144,4251.99777
D1,Batalha/PI,-4.022391,-42.0780926,32,118.93700
1,Batatais/SP,-20.892867,-47.592149,3824,6071.76882
D1,Batatais/SP,-20.892867,-47.592149,158,250.87329
1,Batayporã/MS,-22.2976466,-53.2685608,1060,9340.02996
D1,Batayporã/MS,-22.2976466,-53.2685608,23,202.66103
1,Baturité/CE,-4.3290203,-38.8821055,4144,11530.00751
D1,Baturité/CE,-4.3290203,-38.8821055,81,225.36936
1,Bauru/SP,-22.3218102,-49.0705863,47824,12608.58905
D1,Bauru/SP,-22.3218102,-49.0705863,1103,290.80114
1,Bayeux/PB,-7.1301631,-34.936532,7578,7796.05568
D1,Bayeux/PB,-7.1301631,-34.936532,238,244.84841
1,Baía Formosa/RN,-6.3691885,-35.0063741,494,5299.29200
D1,Baía Formosa/RN,-6.3691885,-35.0063741,8,85.81849
1,Baía da Traição/PB,-6.691258,-34.9371244,1290,14182.05805
D1,Baía da Traição/PB,-6.691258,-34.9371244,12,131.92612
1,Bebedouro/SP,-20.949077,-48.479083,3942,5082.84443
D1,Bebedouro/SP,-20.949077,-48.479083,156,201.14757
1,Beberibe/CE,-4.1810469,-38.1298101,5076,9408.88617
D1,Beberibe/CE,-4.1810469,-38.1298101,107,198.33546
1,Bela Cruz/CE,-3.0529129,-40.167582,3458,10567.81370
D1,Bela Cruz/CE,-3.0529129,-40.167582,70,213.92335
1,Bela Vista da Caroba/PR,-25.8792818,-53.6672545,189,5467.16806
D1,Bela Vista da Caroba/PR,-25.8792818,-53.6672545,6,173.56089
1,Bela Vista de Goiás/GO,-16.9692949,-48.9513071,2633,8635.05182
D1,Bela Vista de Goiás/GO,-16.9692949,-48.9513071,67,219.72977
1,Bela Vista de Minas/MG,-19.8289721,-43.0973688,830,8088.09199
D1,Bela Vista de Minas/MG,-19.8289721,-43.0973688,22,214.38316
1,Bela Vista do Maranhão/MA,-3.7416367,-45.2514192,221,1959.39356
D1,Bela Vista do Maranhão/MA,-3.7416367,-45.2514192,19,168.45465
1,Bela Vista do Paraíso/PR,-22.9948493,-51.1907996,1960,12728.09923
D1,Bela Vista do Paraíso/PR,-22.9948493,-51.1907996,63,409.11748
1,Bela Vista do Piauí/PI,-7.9716353,-41.8715061,262,6501.24069
D1,Bela Vista do Piauí/PI,-7.9716353,-41.8715061,6,148.88337
1,Bela Vista do Toldo/SC,-26.274625,-50.466354,79,1241.74788
D1,Bela Vista do Toldo/SC,-26.274625,-50.466354,3,47.15498
1,Bela Vista/MS,-22.107327,-56.5317344,1020,4123.71134
D1,Bela Vista/MS,-22.107327,-56.5317344,29,117.24277
1,Belford Roxo/RJ,-22.7667284,-43.4033603,20666,4027.53363
D1,Belford Roxo/RJ,-22.7667284,-43.4033603,722,140.70838
1,Belmiro Braga/MG,-21.9486291,-43.413564,198,5781.02190
D1,Belmiro Braga/MG,-21.9486291,-43.413564,3,87.59124
1,Belmonte/BA,-15.8630837,-38.8792845,1152,4915.30486
D1,Belmonte/BA,-15.8630837,-38.8792845,23,98.13543
1,Belmonte/SC,-26.8448262,-53.578916,318,11738.64895
D1,Belmonte/SC,-26.8448262,-53.578916,5,184.56995
1,Belo Campo/BA,-15.0338286,-41.2585109,914,5342.21755
D1,Belo Campo/BA,-15.0338286,-41.2585109,14,81.82828
1,Belo Horizonte/MG,-19.9227318,-43.9450948,243151,9642.86451
D1,Belo Horizonte/MG,-19.9227318,-43.9450948,5879,233.14895
1,Belo Jardim/PE,-8.3338293,-36.4176419,3977,5186.01588
D1,Belo Jardim/PE,-8.3338293,-36.4176419,120,156.48024
1,Belo Monte/AL,-9.8269944,-37.2787165,503,7496.27422
D1,Belo Monte/AL,-9.8269944,-37.2787165,9,134.12817
1,Belo Oriente/MG,-19.2232523,-42.4807033,2611,9672.51982
D1,Belo Oriente/MG,-19.2232523,-42.4807033,66,244.49878
1,Belo Vale/MG,-20.407778,-44.024167,940,12177.74323
D1,Belo Vale/MG,-20.407778,-44.024167,10,129.55046
1,Belterra/PA,-2.636091,-54.937392,1456,8161.89248
D1,Belterra/PA,-2.636091,-54.937392,27,151.35378
1,Belágua/MA,-3.1604031,-43.5085052,411,5459.61743
D1,Belágua/MA,-3.1604031,-43.5085052,4,53.13496
1,Belém de Maria/PE,-8.6242497,-35.8388934,271,2235.60469
D1,Belém de Maria/PE,-8.6242497,-35.8388934,6,49.49678
1,Belém do Brejo do Cruz/PB,-6.1880727,-37.5332267,530,7211.86556
D1,Belém do Brejo do Cruz/PB,-6.1880727,-37.5332267,5,68.03647
1,Belém do Piauí/PI,-7.3767305,-40.9712156,470,13102.87148
D1,Belém do Piauí/PI,-7.3767305,-40.9712156,7,195.14915
1,Belém do São Francisco/PE,-8.7517707,-38.9625715,943,4548.96286
D1,Belém do São Francisco/PE,-8.7517707,-38.9625715,11,53.06319
1,Belém/AL,-9.5715351,-36.492841,123,2871.14846
D1,Belém/AL,-9.5715351,-36.492841,7,163.39869
1,Belém/PA,-1.45056,-48.4682453,103998,6934.85974
D1,Belém/PA,-1.45056,-48.4682453,4976,331.81275
1,Belém/PB,-6.6967586,-35.5369626,2214,12504.94211
D1,Belém/PB,-6.6967586,-35.5369626,45,254.16549
1,Beneditinos/PI,-5.4565671,-42.3605061,1259,12021.38833
D1,Beneditinos/PI,-5.4565671,-42.3605061,38,362.83777
1,Benedito Leite/MA,-7.2173453,-44.5523331,314,5569.35083
D1,Benedito Leite/MA,-7.2173453,-44.5523331,2,35.47357
1,Benedito Novo/SC,-26.7840657,-49.3629511,1030,8747.34607
D1,Benedito Novo/SC,-26.7840657,-49.3629511,19,161.35881
1,Benevides/PA,-1.3555577,-48.252235,3974,6231.96588
D1,Benevides/PA,-1.3555577,-48.252235,102,159.95484
1,Benjamin Constant do Sul/RS,-27.5105555,-52.6007689,173,8835.54648
1,Benjamin Constant/AM,-4.3782748,-70.0290603,2698,6140.88995
D1,Benjamin Constant/AM,-4.3782748,-70.0290603,87,198.01980
1,Bento Fernandes/RN,-5.6926846,-35.8207423,163,2950.22624
D1,Bento Fernandes/RN,-5.6926846,-35.8207423,3,54.29864
1,Bento Gonçalves/RS,-29.1654014,-51.5197627,18862,15485.66127
D1,Bento Gonçalves/RS,-29.1654014,-51.5197627,335,275.03428
1,Bento de Abreu/SP,-21.2707225,-50.8120444,336,11181.36439
D1,Bento de Abreu/SP,-21.2707225,-50.8120444,2,66.55574
1,Bequimão/MA,-2.4495376,-44.7884889,280,1314.61571
D1,Bequimão/MA,-2.4495376,-44.7884889,22,103.29123
1,Berilo/MG,-16.9515764,-42.4643732,153,1288.74663
D1,Berilo/MG,-16.9515764,-42.4643732,1,8.42318
1,Berizal/MG,-15.6118785,-41.7417382,216,4534.00504
D1,Berizal/MG,-15.6118785,-41.7417382,1,20.99076
1,Bernardino Batista/PB,-6.4532173,-38.5495418,281,7946.83258
D1,Bernardino Batista/PB,-6.4532173,-38.5495418,1,28.28054
1,Bernardino de Campos/SP,-23.0140216,-49.4760724,797,7142.85714
D1,Bernardino de Campos/SP,-23.0140216,-49.4760724,25,224.05449
1,Bernardo Sayão/TO,-7.8794244,-48.8968905,622,13983.81295
D1,Bernardo Sayão/TO,-7.8794244,-48.8968905,12,269.78417
1,Bernardo do Mearim/MA,-4.6315929,-44.7617508,294,4841.09995
D1,Bernardo do Mearim/MA,-4.6315929,-44.7617508,6,98.79796
1,Bertioga/SP,-23.848568,-46.139586,5672,8763.49984
D1,Bertioga/SP,-23.848568,-46.139586,156,241.02715
1,Bertolínia/PI,-7.6372159,-43.9540611,865,15707.28164
D1,Bertolínia/PI,-7.6372159,-43.9540611,11,199.74578
1,Bertópolis/MG,-17.063333,-40.573889,460,9984.80573
D1,Bertópolis/MG,-17.063333,-40.573889,2,43.41220
1,Beruri/AM,-3.9007135,-61.3717319,2256,11227.79077
D1,Beruri/AM,-3.9007135,-61.3717319,34,169.21316
1,Betim/MG,-19.968056,-44.198333,30003,6745.52142
D1,Betim/MG,-19.968056,-44.198333,1227,275.86424
1,Betânia do Piauí/PI,-8.1460635,-40.7961387,173,2785.82931
D1,Betânia do Piauí/PI,-8.1460635,-40.7961387,2,32.20612
1,Betânia/PE,-8.2742779,-38.0351767,492,3854.28907
D1,Betânia/PE,-8.2742779,-38.0351767,16,125.34273
1,Bezerros/PE,-8.2372132,-35.7558262,3814,6264.78318
D1,Bezerros/PE,-8.2372132,-35.7558262,120,197.10907
1,Bias Fortes/MG,-21.605833,-43.756944,112,3364.37369
D1,Bias Fortes/MG,-21.605833,-43.756944,3,90.11715
1,Bicas/MG,-21.7213723,-43.0604327,1416,9729.28405
D1,Bicas/MG,-21.7213723,-43.0604327,43,295.45142
1,Biguaçu/SC,-27.4961277,-48.6542432,11059,15915.43620
D1,Biguaçu/SC,-27.4961277,-48.6542432,164,236.01877
1,Bilac/SP,-21.403962,-50.47464,856,10545.76814
D1,Bilac/SP,-21.403962,-50.47464,17,209.43698
1,Biquinhas/MG,-18.783611,-45.502222,119,4763.81105
D1,Biquinhas/MG,-18.783611,-45.502222,1,40.03203
1,Birigui/SP,-21.2908491,-50.34144,15635,12519.71846
D1,Birigui/SP,-21.2908491,-50.34144,527,421.99499
1,Biritiba Mirim/SP,-23.5697765,-46.0407456,1426,4329.60894
D1,Biritiba Mirim/SP,-23.5697765,-46.0407456,99,300.58295
1,Biritinga/BA,-11.6227908,-38.8066738,538,3365.86587
D1,Biritinga/BA,-11.6227908,-38.8066738,7,43.79379
1,Bituruna/PR,-26.161281,-51.5533319,1251,7628.04878
D1,Bituruna/PR,-26.161281,-51.5533319,16,97.56098
1,Blumenau/SC,-26.9195567,-49.0658025,52570,14527.91864
D1,Blumenau/SC,-26.9195567,-49.0658025,570,157.52166
1,Boa Esperança do Iguaçu/PR,-25.6362851,-53.2139114,172,6963.56275
1,Boa Esperança do Sul/SP,-21.9930206,-48.3917372,1486,9894.79292
D1,Boa Esperança do Sul/SP,-21.9930206,-48.3917372,17,113.19750
1,Boa Esperança/ES,-18.5395472,-40.2904088,1611,10674.52955
D1,Boa Esperança/ES,-18.5395472,-40.2904088,42,278.29314
1,Boa Esperança/MG,-21.0901253,-45.5660195,4550,11313.06099
D1,Boa Esperança/MG,-21.0901253,-45.5660195,123,305.82560
1,Boa Esperança/PR,-24.2411024,-52.7860277,414,10229.79985
D1,Boa Esperança/PR,-24.2411024,-52.7860277,15,370.64492
1,Boa Hora/PI,-4.4094627,-42.1255341,551,8085.10638
D1,Boa Hora/PI,-4.4094627,-42.1255341,6,88.04109
1,Boa Nova/BA,-14.365907,-40.2063056,932,7559.41277
D1,Boa Nova/BA,-14.365907,-40.2063056,17,137.88628
1,Boa Ventura de São Roque/PR,-24.88177,-51.5441292,487,7651.21760
D1,Boa Ventura de São Roque/PR,-24.88177,-51.5441292,5,78.55460
1,Boa Ventura/PB,-7.4202462,-38.2156782,621,11701.52629
D1,Boa Ventura/PB,-7.4202462,-38.2156782,8,150.74430
1,Boa Viagem/CE,-5.1261877,-39.7300055,4115,7539.80615
D1,Boa Viagem/CE,-5.1261877,-39.7300055,103,188.72419
1,Boa Vista da Aparecida/PR,-25.4357216,-53.4067721,962,12758.62069
D1,Boa Vista da Aparecida/PR,-25.4357216,-53.4067721,28,371.35279
1,Boa Vista das Missões/RS,-27.6677983,-53.3127622,234,11185.46845
D1,Boa Vista das Missões/RS,-27.6677983,-53.3127622,7,334.60803
1,Boa Vista do Buricá/RS,-27.6687782,-54.1111913,836,12455.30393
D1,Boa Vista do Buricá/RS,-27.6687782,-54.1111913,10,148.98689
1,Boa Vista do Cadeado/RS,-28.5783827,-53.8123759,196,7941.65316
D1,Boa Vista do Cadeado/RS,-28.5783827,-53.8123759,3,121.55592
1,Boa Vista do Gurupi/MA,-1.7981168,-46.3071882,15,178.95490
D1,Boa Vista do Gurupi/MA,-1.7981168,-46.3071882,4,47.72131
1,Boa Vista do Incra/RS,-28.8195551,-53.3866624,293,11200.30581
D1,Boa Vista do Incra/RS,-28.8195551,-53.3866624,4,152.90520
1,Boa Vista do Ramos/AM,-2.9716927,-57.5869819,967,4927.13747
D1,Boa Vista do Ramos/AM,-2.9716927,-57.5869819,12,61.14338
1,Boa Vista do Sul/RS,-29.3510488,-51.6779679,311,11195.10439
D1,Boa Vista do Sul/RS,-29.3510488,-51.6779679,4,143.98848
1,Boa Vista do Tupim/BA,-12.6605988,-40.6083594,267,1440.82888
D1,Boa Vista do Tupim/BA,-12.6605988,-40.6083594,8,43.17090
1,Boa Vista/PB,-7.2620711,-36.2415161,793,11112.66816
D1,Boa Vista/PB,-7.2620711,-36.2415161,14,196.18834
1,Boa Vista/RR,2.8208478,-60.6719582,88359,21055.30297
D1,Boa Vista/RR,2.8208478,-60.6719582,1377,328.12902
1,Boca da Mata/AL,-9.6452054,-36.2116658,1847,6751.71809
D1,Boca da Mata/AL,-9.6452054,-36.2116658,44,160.84223
1,Boca do Acre/AM,-8.7553487,-67.3930873,2660,7680.09239
D1,Boca do Acre/AM,-8.7553487,-67.3930873,26,75.06857
1,Bocaina de Minas/MG,-22.167778,-44.394722,185,3635.29181
D1,Bocaina de Minas/MG,-22.167778,-44.394722,7,137.55158
1,Bocaina do Sul/SC,-27.745494,-49.942279,385,11037.84404
D1,Bocaina do Sul/SC,-27.745494,-49.942279,3,86.00917
1,Bocaina/PI,-6.9445939,-41.3224599,289,6415.09434
D1,Bocaina/PI,-6.9445939,-41.3224599,6,133.18535
1,Bocaina/SP,-22.1421831,-48.522276,1269,10191.13395
D1,Bocaina/SP,-22.1421831,-48.522276,33,265.01767
1,Bocaiúva do Sul/PR,-25.206591,-49.114131,1998,15218.21921
D1,Bocaiúva do Sul/PR,-25.206591,-49.114131,17,129.48435
1,Bocaiúva/MG,-17.1160208,-43.8122678,2394,4763.61032
D1,Bocaiúva/MG,-17.1160208,-43.8122678,61,121.37854
1,Bodocó/PE,-7.777592,-39.933797,1965,5120.12090
D1,Bodocó/PE,-7.777592,-39.933797,33,85.98676
1,Bodoquena/MS,-20.5508775,-56.6769653,545,6953.30441
D1,Bodoquena/MS,-20.5508775,-56.6769653,16,204.13371
1,Bodó/RN,-5.9866104,-36.4134824,185,8420.57351
1,Bofete/SP,-23.1019554,-48.2610535,837,7021.22305
D1,Bofete/SP,-23.1019554,-48.2610535,15,125.82837
1,Boituva/SP,-23.2838893,-47.6738231,6182,9943.70275
D1,Boituva/SP,-23.2838893,-47.6738231,175,281.48625
1,Bom Conselho/PE,-9.169191,-36.685683,2153,4414.87071
D1,Bom Conselho/PE,-9.169191,-36.685683,64,131.23629
1,Bom Despacho/MG,-19.7375242,-45.2517288,4687,9185.15325
D1,Bom Despacho/MG,-19.7375242,-45.2517288,82,160.69609
1,Bom Jardim da Serra/SC,-28.3380324,-49.625588,627,13139.14501
D1,Bom Jardim da Serra/SC,-28.3380324,-49.625588,4,83.82230
1,Bom Jardim de Goiás/GO,-16.2062659,-52.172793,872,9831.99910
D1,Bom Jardim de Goiás/GO,-16.2062659,-52.172793,15,169.12842
1,Bom Jardim de Minas/MG,-21.9476466,-44.1906033,475,7354.07958
D1,Bom Jardim de Minas/MG,-21.9476466,-44.1906033,3,46.44682
1,Bom Jardim/MA,-3.54129,-45.606004,1417,3388.16891
D1,Bom Jardim/MA,-3.54129,-45.606004,50,119.55430
1,Bom Jardim/PE,-7.7961572,-35.5871696,1762,4406.87292
D1,Bom Jardim/PE,-7.7961572,-35.5871696,69,172.57334
1,Bom Jardim/RJ,-22.1515328,-42.4186683,1672,6054.46118
D1,Bom Jardim/RJ,-22.1515328,-42.4186683,44,159.32793
1,Bom Jesus da Lapa/BA,-13.250571,-43.410754,5825,8361.80414
D1,Bom Jesus da Lapa/BA,-13.250571,-43.410754,82,117.71123
1,Bom Jesus da Penha/MG,-21.0165299,-46.5226644,651,15339.30254
D1,Bom Jesus da Penha/MG,-21.0165299,-46.5226644,16,377.00283
1,Bom Jesus da Serra/BA,-14.3724084,-40.5047119,443,4509.82388
D1,Bom Jesus da Serra/BA,-14.3724084,-40.5047119,9,91.62170
1,Bom Jesus das Selvas/MA,-4.4878075,-46.8526639,3313,9584.28559
D1,Bom Jesus das Selvas/MA,-4.4878075,-46.8526639,24,69.43038
1,Bom Jesus de Goiás/GO,-18.2174587,-49.739721,2833,11045.69557
D1,Bom Jesus de Goiás/GO,-18.2174587,-49.739721,108,421.08546
1,Bom Jesus do Amparo/MG,-19.7045132,-43.4752911,246,4011.08756
D1,Bom Jesus do Amparo/MG,-19.7045132,-43.4752911,7,114.13664
1,Bom Jesus do Araguaia/MT,-12.1725897,-51.5074425,1043,15553.23591
D1,Bom Jesus do Araguaia/MT,-12.1725897,-51.5074425,16,238.59231
1,Bom Jesus do Galho/MG,-19.8283191,-42.3162256,722,4858.02718
D1,Bom Jesus do Galho/MG,-19.8283191,-42.3162256,31,208.58565
1,Bom Jesus do Itabapoana/RJ,-21.1341025,-41.680095,3480,9354.08435
D1,Bom Jesus do Itabapoana/RJ,-21.1341025,-41.680095,88,236.54006
1,Bom Jesus do Norte/ES,-21.1254776,-41.6711646,1104,11082.11203
D1,Bom Jesus do Norte/ES,-21.1254776,-41.6711646,28,281.06806
1,Bom Jesus do Oeste/SC,-26.6929713,-53.0967453,182,8508.64890
D1,Bom Jesus do Oeste/SC,-26.6929713,-53.0967453,6,280.50491
1,Bom Jesus do Sul/PR,-26.1922507,-53.6002033,491,14004.56361
D1,Bom Jesus do Sul/PR,-26.1922507,-53.6002033,5,142.61266
1,Bom Jesus do Tocantins/PA,-5.0471796,-48.5978362,763,4457.29641
D1,Bom Jesus do Tocantins/PA,-5.0471796,-48.5978362,25,146.04510
1,Bom Jesus do Tocantins/TO,-8.96306,-48.165043,135,2695.68690
D1,Bom Jesus do Tocantins/TO,-8.96306,-48.165043,3,59.90415
1,Bom Jesus dos Perdões/SP,-23.1353864,-46.4648052,2075,7985.37618
D1,Bom Jesus dos Perdões/SP,-23.1353864,-46.4648052,23,88.51260
1,Bom Jesus/PB,-6.8156725,-38.6551841,171,6640.77670
D1,Bom Jesus/PB,-6.8156725,-38.6551841,3,116.50485
1,Bom Jesus/PI,-9.0711644,-44.3583926,3605,14200.18120
D1,Bom Jesus/PI,-9.0711644,-44.3583926,42,165.43900
1,Bom Jesus/RN,-5.9887544,-35.5821149,910,8863.34859
D1,Bom Jesus/RN,-5.9887544,-35.5821149,15,146.09915
1,Bom Jesus/RS,-28.6692723,-50.4346894,960,8488.81422
D1,Bom Jesus/RS,-28.6692723,-50.4346894,21,185.69281
1,Bom Jesus/SC,-26.7350604,-52.3916519,451,14753.02584
D1,Bom Jesus/SC,-26.7350604,-52.3916519,9,294.40628
1,Bom Lugar/MA,-4.3728019,-45.0366054,498,3029.56564
D1,Bom Lugar/MA,-4.3728019,-45.0366054,7,42.58426
1,Bom Princípio do Piauí/PI,-3.1912777,-41.6430185,137,2424.34967
D1,Bom Princípio do Piauí/PI,-3.1912777,-41.6430185,13,230.04778
1,Bom Princípio/RS,-29.489788,-51.3566782,1986,13931.95370
D1,Bom Princípio/RS,-29.489788,-51.3566782,28,196.42231
1,Bom Progresso/RS,-27.5490948,-53.8655601,181,9531.33228
D1,Bom Progresso/RS,-27.5490948,-53.8655601,3,157.97788
1,Bom Repouso/MG,-22.4657069,-46.1485376,1043,9898.45307
D1,Bom Repouso/MG,-22.4657069,-46.1485376,22,208.78808
1,Bom Retiro do Sul/RS,-29.6000007,-51.9359243,1043,8418.07910
D1,Bom Retiro do Sul/RS,-29.6000007,-51.9359243,28,225.98870
1,Bom Retiro/SC,-27.798993,-49.486994,846,8409.54274
D1,Bom Retiro/SC,-27.798993,-49.486994,18,178.92644
1,Bom Sucesso de Itararé/SP,-24.3190016,-49.1446207,216,5421.68675
D1,Bom Sucesso de Itararé/SP,-24.3190016,-49.1446207,6,150.60241
1,Bom Sucesso do Sul/PR,-26.0749256,-52.8348629,525,16133.98894
D1,Bom Sucesso do Sul/PR,-26.0749256,-52.8348629,7,215.11985
1,Bom Sucesso/MG,-21.0323516,-44.7598082,1113,6321.34946
D1,Bom Sucesso/MG,-21.0323516,-44.7598082,19,107.91163
1,Bom Sucesso/PB,-6.4458948,-37.9297662,493,9947.53834
D1,Bom Sucesso/PB,-6.4458948,-37.9297662,4,80.71025
1,Bom Sucesso/PR,-23.7088019,-51.7651297,1220,17260.89417
D1,Bom Sucesso/PR,-23.7088019,-51.7651297,19,268.81720
1,Bombinhas/SC,-27.1519159,-48.4875691,3463,17029.75166
D1,Bombinhas/SC,-27.1519159,-48.4875691,60,295.05778
1,Bonfim do Piauí/PI,-9.1648678,-42.8734415,440,7739.66579
D1,Bonfim do Piauí/PI,-9.1648678,-42.8734415,7,123.13105
1,Bonfim/MG,-20.3266626, -44.2386157,439,6399.41691
D1,Bonfim/MG,-20.3266626, -44.2386157,14,204.08163
1,Bonfim/RR,3.3613818,-59.8427241,2308,18380.18635
D1,Bonfim/RR,3.3613818,-59.8427241,26,207.05583
1,Bonfinópolis de Minas/MG,-16.5660011,-45.98645,516,9478.32476
D1,Bonfinópolis de Minas/MG,-16.5660011,-45.98645,14,257.16385
1,Bonfinópolis/GO,-16.6172709,-48.9615701,462,4657.72759
D1,Bonfinópolis/GO,-16.6172709,-48.9615701,21,211.71489
1,Boninal/BA,-12.7095183,-41.8299984,629,4354.14648
D1,Boninal/BA,-12.7095183,-41.8299984,7,48.45632
1,Bonito de Minas/MG,-15.3191266,-44.7544,85,747.64711
1,Bonito de Santa Fé/PB,-7.3143332,-38.5146677,470,3909.49925
D1,Bonito de Santa Fé/PB,-7.3143332,-38.5146677,11,91.49892
1,Bonito/BA,-11.9665473,-41.2649896,874,5176.49846
D1,Bonito/BA,-11.9665473,-41.2649896,13,76.99597
1,Bonito/MS,-21.1264766,-56.4902208,3007,13551.14917
D1,Bonito/MS,-21.1264766,-56.4902208,66,297.43128
1,Bonito/PA,-1.3605722,-47.3049907,396,2395.64428
D1,Bonito/PA,-1.3605722,-47.3049907,14,84.69449
1,Bonito/PE,-8.4721161,-35.7314591,991,2599.88981
D1,Bonito/PE,-8.4721161,-35.7314591,41,107.56355
1,Bonópolis/GO,-13.649331,-49.8329113,201,4473.62564
D1,Bonópolis/GO,-13.649331,-49.8329113,2,44.51369
1,Boqueirão do Leão/RS,-29.30332,-52.4296817,604,7842.11893
D1,Boqueirão do Leão/RS,-29.30332,-52.4296817,31,402.49286
1,Boqueirão do Piauí/PI,-4.4850148,-42.1095161,713,11095.54933
D1,Boqueirão do Piauí/PI,-4.4850148,-42.1095161,10,155.61780
1,Boqueirão/PB,-7.487004,-36.130887,1960,10968.10297
D1,Boqueirão/PB,-7.487004,-36.130887,37,207.05092
1,Boquim/SE,-11.1450175,-37.6204228,2627,9766.16231
D1,Boquim/SE,-11.1450175,-37.6204228,65,241.64467
1,Boquira/BA,-12.8184859,-42.7270883,666,3098.10671
D1,Boquira/BA,-12.8184859,-42.7270883,12,55.82174
1,Boracéia/SP,-22.195355,-48.7801925,939,19289.23583
D1,Boracéia/SP,-22.195355,-48.7801925,22,451.93098
1,Borba/AM,-4.3934778,-59.5947721,2297,5502.05998
D1,Borba/AM,-4.3934778,-59.5947721,67,160.48673
1,Borborema/PB,-6.8066718,-35.5990191,384,7263.09817
D1,Borborema/PB,-6.8066718,-35.5990191,13,245.88614
1,Borborema/SP,-21.6212706,-49.074135,1625,10053.20465
D1,Borborema/SP,-21.6212706,-49.074135,52,321.70255
1,Borda da Mata/MG,-22.274167,-46.165278,1739,8866.11604
D1,Borda da Mata/MG,-22.274167,-46.165278,46,234.52636
1,Borebi/SP,-22.5700178,-48.9714871,262,9765.18822
D1,Borebi/SP,-22.5700178,-48.9714871,3,111.81513
1,Borrazópolis/PR,-23.9393362,-51.5850786,830,12890.20034
D1,Borrazópolis/PR,-23.9393362,-51.5850786,27,419.31977
1,Borá/SP,-22.2701088,-50.544407,124,14797.13604
D1,Borá/SP,-22.2701088,-50.544407,1,119.33174
1,Bossoroca/RS,-28.7278885,-54.9120278,408,6575.34247
D1,Bossoroca/RS,-28.7278885,-54.9120278,22,354.55278
1,Botelhos/MG,-21.65,-46.394722,1751,11713.15807
D1,Botelhos/MG,-21.65,-46.394722,26,173.92468
1,Botucatu/SP,-22.8879628,-48.4410712,17148,11576.31810
D1,Botucatu/SP,-22.8879628,-48.4410712,280,189.02316
1,Botumirim/MG,-16.862778,-43.011111,236,3753.18066
D1,Botumirim/MG,-16.862778,-43.011111,4,63.61323
1,Botuporã/BA,-13.3744752,-42.5198469,235,2320.07108
D1,Botuporã/BA,-13.3744752,-42.5198469,3,29.61793
1,Botuverá/SC,-27.200749,-49.068892,917,17230.36452
D1,Botuverá/SC,-27.200749,-49.068892,8,150.31943
1,Bozano/RS,-28.3669953,-53.7705165,251,11890.09948
D1,Bozano/RS,-28.3669953,-53.7705165,7,331.59640
1,Braga/RS,-27.617348,-53.740514,360,10872.84808
D1,Braga/RS,-27.617348,-53.740514,9,271.82120
1,Braganey/PR,-24.8179919,-53.118506,511,9494.61167
D1,Braganey/PR,-24.8179919,-53.118506,7,130.06317
1,Bragança Paulista/SP,-22.9520235,-46.5418586,17905,10499.43413
D1,Bragança Paulista/SP,-22.9520235,-46.5418586,486,284.98883
1,Bragança/PA,-1.0573967,-46.7635406,4152,3220.75182
D1,Bragança/PA,-1.0573967,-46.7635406,144,111.70238
1,Branquinha/AL,-9.2478057,-36.0152009,575,5497.13193
D1,Branquinha/AL,-9.2478057,-36.0152009,11,105.16252
1,Brasil Novo/PA,-3.3055853,-52.539198,1916,12787.82620
D1,Brasil Novo/PA,-3.3055853,-52.539198,42,280.31769
1,Brasileira/PI,-4.131182,-41.7824969,614,7355.93626
D1,Brasileira/PI,-4.131182,-41.7824969,15,179.70528
1,Brasilândia de Minas/MG,-17.0096469,-46.0087183,1300,7762.12085
D1,Brasilândia de Minas/MG,-17.0096469,-46.0087183,22,131.35897
1,Brasilândia do Sul/PR,-24.1975793,-53.527551,403,15589.94197
D1,Brasilândia do Sul/PR,-24.1975793,-53.527551,9,348.16248
1,Brasilândia do Tocantins/TO,-8.3886619,-48.4842729,245,11080.95884
D1,Brasilândia do Tocantins/TO,-8.3886619,-48.4842729,6,271.37042
1,Brasilândia/MS,-21.255575,-52.0365617,1234,10410.86645
D1,Brasilândia/MS,-21.255575,-52.0365617,23,194.04370
1,Brasiléia/AC,-11.0010413,-68.7487894,2932,10980.45090
D1,Brasiléia/AC,-11.0010413,-68.7487894,42,157.29159
1,Brasnorte/MT,-12.1227151,-58.0050109,2002,9940.41708
D1,Brasnorte/MT,-12.1227151,-58.0050109,38,188.67925
1,Brasília de Minas/MG,-16.2075114,-44.430559,1212,3740.16356
D1,Brasília de Minas/MG,-16.2075114,-44.430559,8,24.68755
1,Brasília/DF,-15.7934036,-47.8823172,436649,14292.23256
D1,Brasília/DF,-15.7934036,-47.8823172,9357,306.26984
1,Brazabrantes/GO,-16.4291635,-49.3858216,484,12920.44848
D1,Brazabrantes/GO,-16.4291635,-49.3858216,3,80.08542
1,Brazópolis/MG,-22.4742842,-45.6165577,822,5704.37196
D1,Brazópolis/MG,-22.4742842,-45.6165577,31,215.12838
1,Braço do Norte/SC,-28.2728633,-49.1622712,8425,24870.11454
D1,Braço do Norte/SC,-28.2728633,-49.1622712,104,307.00201
1,Braço do Trombudo/SC,-27.358578,-49.882145,676,17935.79199
D1,Braço do Trombudo/SC,-27.358578,-49.882145,6,159.19342
1,Braúna/SP,-21.5015319,-50.3175246,595,10364.04808
D1,Braúna/SP,-21.5015319,-50.3175246,23,400.62707
1,Braúnas/MG,-19.055556,-42.716111,240,5032.50157
D1,Braúnas/MG,-19.055556,-42.716111,9,188.71881
1,Brejetuba/ES,-20.1465817,-41.2902303,1664,13390.19876
D1,Brejetuba/ES,-20.1465817,-41.2902303,14,112.65792
1,Brejinho de Nazaré/TO,-11.0205883,-48.5722906,622,11270.15764
D1,Brejinho de Nazaré/TO,-11.0205883,-48.5722906,15,271.78837
1,Brejinho/PE,-7.3482153,-37.28538,665,8880.87607
D1,Brejinho/PE,-7.3482153,-37.28538,21,280.44872
1,Brejinho/RN,-6.1957907,-35.3583019,1487,11628.99820
D1,Brejinho/RN,-6.1957907,-35.3583019,15,117.30664
1,Brejo Alegre/SP,-21.1671191,-50.1850393,368,12737.97162
D1,Brejo Alegre/SP,-21.1671191,-50.1850393,13,449.98269
1,Brejo Grande do Araguaia/PA,-5.7011449,-48.4037308,823,11169.92400
D1,Brejo Grande do Araguaia/PA,-5.7011449,-48.4037308,4,54.28882
1,Brejo Grande/SE,-10.4287358,-36.4667918,454,5435.17299
D1,Brejo Grande/SE,-10.4287358,-36.4667918,14,167.60445
1,Brejo Santo/CE,-7.4909841,-38.9859152,8280,16612.49549
D1,Brejo Santo/CE,-7.4909841,-38.9859152,154,308.97637
1,Brejo da Madre de Deus/PE,-8.1409718,-36.3712527,2203,4300.63446
D1,Brejo da Madre de Deus/PE,-8.1409718,-36.3712527,50,97.60859
1,Brejo de Areia/MA,-4.3316785,-45.5833334,315,3494.56401
D1,Brejo de Areia/MA,-4.3316785,-45.5833334,10,110.93854
1,Brejo do Cruz/PB,-6.32926065,-37.48746163303929,1800,12670.70252
D1,Brejo do Cruz/PB,-6.32926065,-37.48746163303929,22,154.86414
1,Brejo do Piauí/PI,-8.207583,-42.8359849,148,3846.15385
D1,Brejo do Piauí/PI,-8.207583,-42.8359849,4,103.95010
1,Brejo dos Santos/PB,-6.3769367,-37.8243125,737,11401.60891
D1,Brejo dos Santos/PB,-6.3769367,-37.8243125,7,108.29208
1,Brejo/MA,-3.6804397,-42.7529313,913,2491.06436
D1,Brejo/MA,-3.6804397,-42.7529313,19,51.84033
1,Brejolândia/BA,-12.4843845,-43.9611861,144,1356.18761
D1,Brejolândia/BA,-12.4843845,-43.9611861,11,103.59766
1,Brejão/PE,-9.029146,-36.566034,475,5285.41226
D1,Brejão/PE,-9.029146,-36.566034,9,100.14465
1,Brejões/BA,-13.1033754,-39.7909837,800,5625.08789
D1,Brejões/BA,-13.1033754,-39.7909837,11,77.34496
1,Breu Branco/PA,-3.7785073,-49.5684795,847,1257.94570
D1,Breu Branco/PA,-3.7785073,-49.5684795,45,66.83301
1,Breves/PA,-1.68036,-50.479085,4052,3915.08933
D1,Breves/PA,-1.68036,-50.479085,118,114.01297
1,Britânia/GO,-15.2427599,-51.1602061,596,10281.17992
D1,Britânia/GO,-15.2427599,-51.1602061,6,103.50181
1,Brochier/RS,-29.556766,-51.5963047,463,9071.31661
D1,Brochier/RS,-29.556766,-51.5963047,5,97.96238
1,Brodowski/SP,-20.984532,-47.657217,2645,10464.05823
D1,Brodowski/SP,-20.984532,-47.657217,71,280.88776
1,Brotas de Macaúbas/BA,-12.0019007,-42.6257506,142,1401.77690
D1,Brotas de Macaúbas/BA,-12.0019007,-42.6257506,5,49.35834
1,Brotas/SP,-22.2840884,-48.1267265,1503,6100.82806
D1,Brotas/SP,-22.2840884,-48.1267265,49,198.89592
1,Brumadinho/MG,-20.143611,-44.2,3666,9014.90188
D1,Brumadinho/MG,-20.143611,-44.2,77,189.34737
1,Brumado/BA,-14.29507325,-41.659307508575985,9214,13683.81971
D1,Brumado/BA,-14.29507325,-41.659307508575985,187,277.71590
1,Brunópolis/SC,-27.310953,-50.837585,269,11359.79730
D1,Brunópolis/SC,-27.310953,-50.837585,8,337.83784
1,Brusque/SC,-27.0964628,-48.9136323,27496,19969.64173
D1,Brusque/SC,-27.0964628,-48.9136323,287,208.44076
1,Brás Pires/MG,-20.8483109,-43.2430524,233,5427.44002
D1,Brás Pires/MG,-20.8483109,-43.2430524,7,163.05614
1,Bueno Brandão/MG,-22.441976,-46.3517971,873,7942.86234
D1,Bueno Brandão/MG,-22.441976,-46.3517971,28,254.75389
1,Buenos Aires/PE,-7.7218931,-35.326587,359,2721.75891
D1,Buenos Aires/PE,-7.7218931,-35.326587,23,174.37453
1,Buenópolis/MG,-17.8756607,-44.1749365,305,2946.00599
D1,Buenópolis/MG,-17.8756607,-44.1749365,11,106.24940
1,Buerarema/BA,-14.9571177,-39.3008035,1333,7281.76554
D1,Buerarema/BA,-14.9571177,-39.3008035,43,234.89566
1,Bugre/MG,-19.4257687,-42.2556,369,9264.37359
D1,Bugre/MG,-19.4257687,-42.2556,13,326.38715
1,Bujari/AC,-9.8309656,-67.9520886,1137,10911.70825
D1,Bujari/AC,-9.8309656,-67.9520886,17,163.14779
1,Bujaru/PA,-1.5169239,-48.0410699,1428,4852.68631
D1,Bujaru/PA,-1.5169239,-48.0410699,38,129.13311
1,Buri/SP,-23.79849,-48.598924,2501,12526.92211
D1,Buri/SP,-23.79849,-48.598924,80,400.70123
1,Buritama/SP,-21.0664017,-50.1448077,2356,13633.47029
D1,Buritama/SP,-21.0664017,-50.1448077,64,370.34894
1,Buriti Alegre/GO,-18.1377879,-49.0404411,991,10449.17756
D1,Buriti Alegre/GO,-18.1377879,-49.0404411,31,326.86630
1,Buriti Bravo/MA,-5.8391884,-43.8367876,1647,6879.98663
D1,Buriti Bravo/MA,-5.8391884,-43.8367876,16,66.83654
1,Buriti de Goiás/GO,-16.180644,-50.4287479,231,9329.56381
D1,Buriti de Goiás/GO,-16.180644,-50.4287479,8,323.10178
1,Buriti do Tocantins/TO,-5.3187439,-48.2256609,1043,9071.93181
D1,Buriti do Tocantins/TO,-5.3187439,-48.2256609,17,147.86466
1,Buriti dos Lopes/PI,-3.1776723,-41.8707444,1285,6487.60539
D1,Buriti dos Lopes/PI,-3.1776723,-41.8707444,34,171.65649
1,Buriti dos Montes/PI,-5.3136171,-41.0971256,671,8119.55470
D1,Buriti dos Montes/PI,-5.3136171,-41.0971256,8,96.80542
1,Buriti/MA,-3.9430944,-42.9244281,845,2934.23154
D1,Buriti/MA,-3.9430944,-42.9244281,8,27.77971
1,Buriticupu/MA,-4.3227472,-46.4516989,3529,4835.37262
D1,Buriticupu/MA,-4.3227472,-46.4516989,60,82.21093
1,Buritinópolis/GO,-14.4589282,-46.4293104,186,5665.54980
D1,Buritinópolis/GO,-14.4589282,-46.4293104,3,91.37984
1,Buritirama/BA,-10.7148421,-43.6362327,846,3976.31134
D1,Buritirama/BA,-10.7148421,-43.6362327,23,108.10303
1,Buritirana/MA,-5.5897455,-47.0148915,446,2883.55854
D1,Buritirana/MA,-5.5897455,-47.0148915,24,155.16907
1,Buritis/MG,-15.621389,-46.423889,1801,7200.25587
D1,Buritis/MG,-15.621389,-46.423889,36,143.92516
1,Buritis/RO,-10.2054937,-63.8281954,4709,11668.64902
D1,Buritis/RO,-10.2054937,-63.8281954,74,183.36802
1,Buritizal/SP,-20.1933264,-47.7097165,309,6845.36996
D1,Buritizal/SP,-20.1933264,-47.7097165,10,221.53301
1,Buritizeiro/MG,-17.3667765,-44.9647781,1379,4903.80854
D1,Buritizeiro/MG,-17.3667765,-44.9647781,32,113.79396
1,Butiá/RS,-30.1256795,-51.9692224,2158,10299.73272
D1,Butiá/RS,-30.1256795,-51.9692224,55,262.50477
1,Buíque/PE,-8.6239732,-37.157296,2446,4151.46218
D1,Buíque/PE,-8.6239732,-37.157296,44,74.67880
1,Bálsamo/SP,-20.7343722,-49.5807484,1685,18437.46581
D1,Bálsamo/SP,-20.7343722,-49.5807484,63,689.35332
0,CASO SEM LOCALIZAÇÃO DEFINIDA/BA,-13.415069300066518,-38.14174656569957,10893,73.23978
D0,CASO SEM LOCALIZAÇÃO DEFINIDA/BA,-13.415069300066518,-38.14174656569957,266,1.78847
0,CASO SEM LOCALIZAÇÃO DEFINIDA/CE,-3.3445126297392798,-38.624961942434304,10710,117.27889
0,CASO SEM LOCALIZAÇÃO DEFINIDA/ES,-20.30989267097039,-39.81745156645774,4305,107.12553
D0,CASO SEM LOCALIZAÇÃO DEFINIDA/ES,-20.30989267097039,-39.81745156645774,214,5.32517
0,CASO SEM LOCALIZAÇÃO DEFINIDA/GO,-16.701590966270153,-49.164524059025034,1811,25.80377
D0,CASO SEM LOCALIZAÇÃO DEFINIDA/GO,-16.701590966270153,-49.164524059025034,36,0.51294
0,CASO SEM LOCALIZAÇÃO DEFINIDA/MG,-19.97049116501593,-43.8852149072783,4266,20.15231
D0,CASO SEM LOCALIZAÇÃO DEFINIDA/MG,-19.97049116501593,-43.8852149072783,329,1.55417
0,CASO SEM LOCALIZAÇÃO DEFINIDA/MT,-15.54791153961863,-56.17143998972475,2807,80.55754
D0,CASO SEM LOCALIZAÇÃO DEFINIDA/MT,-15.54791153961863,-56.17143998972475,211,6.05545
0,CASO SEM LOCALIZAÇÃO DEFINIDA/PA,-0.09317078214359542,-48.0050231510481,736,8.55529
D0,CASO SEM LOCALIZAÇÃO DEFINIDA/PA,-0.09317078214359542,-48.0050231510481,9,0.10462
0,CASO SEM LOCALIZAÇÃO DEFINIDA/PI,-2.683810218391744,-41.470898009352254,577,17.62786
D0,CASO SEM LOCALIZAÇÃO DEFINIDA/PI,-2.683810218391744,-41.470898009352254,5,0.15275
0,CASO SEM LOCALIZAÇÃO DEFINIDA/PR,-25.69415946385943,-48.10141676336737,10790,94.36803
D0,CASO SEM LOCALIZAÇÃO DEFINIDA/PR,-25.69415946385943,-48.10141676336737,355,3.10479
0,CASO SEM LOCALIZAÇÃO DEFINIDA/RR,2.813328208465927,-60.663338675861986,2619,432.34873
D0,CASO SEM LOCALIZAÇÃO DEFINIDA/RR,2.813328208465927,-60.663338675861986,15,2.47622
0,CASO SEM LOCALIZAÇÃO DEFINIDA/SP,-24.30968974555485,-46.21366504207253,946,2.06015
1,Caapiranga/AM,-3.3188884,-61.2096404,677,5096.74019
D1,Caapiranga/AM,-3.3188884,-61.2096404,22,165.62524
1,Caaporã/PB,-7.510234,-34.9154114,2002,9118.65179
D1,Caaporã/PB,-7.510234,-34.9154114,32,145.75268
1,Caarapó/MS,-22.6349267,-54.8240903,4031,13176.21678
D1,Caarapó/MS,-22.6349267,-54.8240903,54,176.51097
1,Caatiba/BA,-14.9782759,-40.4092325,912,14056.72010
D1,Caatiba/BA,-14.9782759,-40.4092325,12,184.95684
1,Cabaceiras do Paraguaçu/BA,-12.5377868,-39.1901339,631,3336.68235
D1,Cabaceiras do Paraguaçu/BA,-12.5377868,-39.1901339,5,26.43964
1,Cabaceiras/PB,-7.4899156,-36.2860501,408,7207.20721
D1,Cabaceiras/PB,-7.4899156,-36.2860501,4,70.65889
1,Cabeceira Grande/MG,-16.0297,-47.0906,427,6110.47510
D1,Cabeceira Grande/MG,-16.0297,-47.0906,5,71.55123
1,Cabeceiras do Piauí/PI,-4.4733665,-42.3098716,638,6001.88147
D1,Cabeceiras do Piauí/PI,-4.4733665,-42.3098716,14,131.70273
1,Cabeceiras/GO,-15.7995459,-46.9264991,352,4374.84464
D1,Cabeceiras/GO,-15.7995459,-46.9264991,16,198.85657
1,Cabedelo/PB,-6.97324,-34.8351609,9201,13379.96423
D1,Cabedelo/PB,-6.97324,-34.8351609,196,285.02043
1,Cabixi/RO,-13.4956065,-60.5424442,830,15998.45798
D1,Cabixi/RO,-13.4956065,-60.5424442,20,385.50501
1,Cabo Frio/RJ,-22.8804369,-42.0189227,13411,5821.30238
D1,Cabo Frio/RJ,-22.8804369,-42.0189227,703,305.15067
1,Cabo Verde/MG,-21.4743338,-46.3964995,672,4774.42274
D1,Cabo Verde/MG,-21.4743338,-46.3964995,9,63.94316
1,Cabo de Santo Agostinho/PE,-8.2838945,-35.0320984,8539,4086.74094
D1,Cabo de Santo Agostinho/PE,-8.2838945,-35.0320984,488,233.55540
1,Cabreúva/SP,-23.3075813,-47.1324417,3728,7392.57173
D1,Cabreúva/SP,-23.3075813,-47.1324417,95,188.38367
1,Cabrobó/PE,-8.5083701,-39.3106961,2292,6642.90062
D1,Cabrobó/PE,-8.5083701,-39.3106961,27,78.25406
1,Cabrália Paulista/SP,-22.4562909,-49.3385645,409,9639.40608
D1,Cabrália Paulista/SP,-22.4562909,-49.3385645,7,164.97761
1,Cacaulândia/RO,-10.3380043,-62.9007231,829,13223.79965
D1,Cacaulândia/RO,-10.3380043,-62.9007231,10,159.51507
1,Cacequi/RS,-29.8838059,-54.8273443,720,5795.70152
D1,Cacequi/RS,-29.8838059,-54.8273443,9,72.44627
1,Cachoeira Alta/GO,-18.7618269,-50.9432431,1552,12253.27649
D1,Cachoeira Alta/GO,-18.7618269,-50.9432431,24,189.48366
1,Cachoeira Dourada/GO,-18.4934204,-49.481062,589,7334.08044
D1,Cachoeira Dourada/GO,-18.4934204,-49.481062,26,323.74549
1,Cachoeira Dourada/MG,-18.517136,-49.5002062,162,5986.69623
D1,Cachoeira Dourada/MG,-18.517136,-49.5002062,2,73.90983
1,Cachoeira Grande/MA,-2.9290492,-44.0573223,319,3365.68896
D1,Cachoeira Grande/MA,-2.9290492,-44.0573223,8,84.40599
1,Cachoeira Paulista/SP,-22.666498,-45.015384,2450,7295.79226
D1,Cachoeira Paulista/SP,-22.666498,-45.015384,40,119.11498
1,Cachoeira da Prata/MG,-19.524723,-44.453056,226,6293.51156
D1,Cachoeira da Prata/MG,-19.524723,-44.453056,11,306.32136
1,Cachoeira de Goiás/GO,-16.6688414,-50.6435997,79,5886.73621
D1,Cachoeira de Goiás/GO,-16.6688414,-50.6435997,2,149.03130
1,Cachoeira de Minas/MG,-22.3554043,-45.7796324,818,7064.51334
D1,Cachoeira de Minas/MG,-22.3554043,-45.7796324,14,120.90854
1,Cachoeira de Pajeú/MG,-15.965833,-41.496666,506,5359.03410
D1,Cachoeira de Pajeú/MG,-15.965833,-41.496666,11,116.50074
1,Cachoeira do Arari/PA,-1.0143572,-48.9621089,495,2057.01463
D1,Cachoeira do Arari/PA,-1.0143572,-48.9621089,23,95.57846
1,Cachoeira do Piriá/PA,-1.7599443,-46.5446954,912,2635.15271
D1,Cachoeira do Piriá/PA,-1.7599443,-46.5446954,6,17.33653
1,Cachoeira do Sul/RS,-30.0474778,-52.8905413,10356,12649.47660
D1,Cachoeira do Sul/RS,-30.0474778,-52.8905413,182,222.30637
1,Cachoeira dos Índios/PB,-6.9259193,-38.6742159,851,8258.12712
D1,Cachoeira dos Índios/PB,-6.9259193,-38.6742159,14,135.85638
1,Cachoeira/BA,-12.5998256,-38.9665918,1628,4850.00149
D1,Cachoeira/BA,-12.5998256,-38.9665918,27,80.43614
1,Cachoeiras de Macacu/RJ,-22.4626861,-42.6534414,3026,5102.60864
D1,Cachoeiras de Macacu/RJ,-22.4626861,-42.6534414,93,156.82175
1,Cachoeirinha/PE,-8.4906364,-36.2338963,619,3019.36491
D1,Cachoeirinha/PE,-8.4906364,-36.2338963,31,151.21214
1,Cachoeirinha/RS,-29.9493353,-51.0898927,14533,11073.60561
D1,Cachoeirinha/RS,-29.9493353,-51.0898927,429,326.88205
1,Cachoeirinha/TO,-6.118647,-47.9208885,119,5210.15762
D1,Cachoeirinha/TO,-6.118647,-47.9208885,2,87.56567
1,Cachoeiro de Itapemirim/ES,-20.848084,-41.11129,26710,12683.47350
D1,Cachoeiro de Itapemirim/ES,-20.848084,-41.11129,568,269.71969
1,Cacimba de Areia/PB,-7.1288513,-37.1575194,54,1461.43437
D1,Cacimba de Areia/PB,-7.1288513,-37.1575194,4,108.25440
1,Cacimba de Dentro/PB,-6.6425101,-35.7929304,1160,6752.82338
D1,Cacimba de Dentro/PB,-6.6425101,-35.7929304,34,197.92758
1,Cacimbas/PB,-7.2125451,-37.0593398,242,3361.57800
D1,Cacimbas/PB,-7.2125451,-37.0593398,8,111.12655
1,Cacimbinhas/AL,-9.401212,-36.991082,768,7052.98926
D1,Cacimbinhas/AL,-9.401212,-36.991082,10,91.83580
1,Cacique Doble/RS,-27.7700117,-51.6616409,530,10445.40796
D1,Cacique Doble/RS,-27.7700117,-51.6616409,11,216.79149
1,Cacoal/RO,-11.4333,-61.4420502,13821,16090.95037
D1,Cacoal/RO,-11.4333,-61.4420502,289,336.46514
1,Caconde/SP,-21.527995,-46.643659,1342,7059.81377
D1,Caconde/SP,-21.527995,-46.643659,36,189.38398
1,Caculé/BA,-14.4990734,-42.2233006,1987,8531.19231
D1,Caculé/BA,-14.4990734,-42.2233006,14,60.10905
1,Caetanos/BA,-14.3387456,-40.9085971,673,4607.06462
D1,Caetanos/BA,-14.3387456,-40.9085971,10,68.45564
1,Caetanópolis/MG,-19.2947496,-44.4138386,997,8485.82858
D1,Caetanópolis/MG,-19.2947496,-44.4138386,15,127.67044
1,Caetité/BA,-14.0691776,-42.4852428,2850,5579.37394
D1,Caetité/BA,-14.0691776,-42.4852428,29,56.77258
1,Caeté/MG,-19.897777,-43.670278,1971,4375.43011
D1,Caeté/MG,-19.897777,-43.670278,66,146.51364
1,Caetés/PE,-8.7728788,-36.6255835,1584,5480.21035
D1,Caetés/PE,-8.7728788,-36.6255835,21,72.65430
1,Cafarnaum/BA,-11.691399,-41.468823,903,4877.65354
D1,Cafarnaum/BA,-11.691399,-41.468823,21,113.43380
1,Cafeara/PR,-22.78905,-51.714195,388,13134.73257
D1,Cafeara/PR,-22.78905,-51.714195,11,372.37644
1,Cafelândia/PR,-24.6176963,-53.3218057,2406,13036.41092
D1,Cafelândia/PR,-24.6176963,-53.3218057,22,119.20243
1,Cafelândia/SP,-21.8054355,-49.6030627,755,4231.35123
D1,Cafelândia/SP,-21.8054355,-49.6030627,36,201.75979
1,Cafezal do Sul/PR,-23.900508,-53.512418,426,10626.09129
D1,Cafezal do Sul/PR,-23.900508,-53.512418,4,99.77551
1,Caiabu/SP,-22.0143038,-51.2356597,284,6773.19342
D1,Caiabu/SP,-22.0143038,-51.2356597,7,166.94491
1,Caiana/MG,-20.695555,-41.924723,147,2652.95073
D1,Caiana/MG,-20.695555,-41.924723,7,126.33099
1,Caiapônia/GO,-16.9538779,-51.8090761,1234,6458.36604
D1,Caiapônia/GO,-16.9538779,-51.8090761,36,188.41262
1,Caibaté/RS,-28.290475,-54.645407,354,7339.82998
D1,Caibaté/RS,-28.290475,-54.645407,7,145.13788
1,Caibi/SC,-27.0751925,-53.2502133,630,10277.32463
D1,Caibi/SC,-27.0751925,-53.2502133,12,195.75856
1,Caicó/RN,-6.4594544,-37.0971911,11610,16987.84074
D1,Caicó/RN,-6.4594544,-37.0971911,139,203.38586
1,Caieiras/SP,-23.3644621,-46.7484765,8412,8184.86986
D1,Caieiras/SP,-23.3644621,-46.7484765,297,288.98078
1,Cairu/BA,-13.4860505,-39.0455744,1429,7754.92484
D1,Cairu/BA,-13.4860505,-39.0455744,16,86.82911
1,Caiuá/SP,-21.8319357,-51.9887179,363,6104.94450
D1,Caiuá/SP,-21.8319357,-51.9887179,8,134.54423
1,Caiçara do Norte/RN,-5.0645017,-36.0561226,521,7940.86267
D1,Caiçara do Norte/RN,-5.0645017,-36.0561226,10,152.41579
1,Caiçara do Rio do Vento/RN,-5.757968,-36.00089,359,9663.52624
D1,Caiçara do Rio do Vento/RN,-5.757968,-36.00089,8,215.34320
1,Caiçara/PB,-6.6146866,-35.4681434,790,10985.95467
D1,Caiçara/PB,-6.6146866,-35.4681434,14,194.68780
1,Caiçara/RS,-27.2750478,-53.4310053,599,12744.68085
D1,Caiçara/RS,-27.2750478,-53.4310053,9,191.48936
1,Cajamar/SP,-23.3561111,-46.8769444,4694,6023.04514
D1,Cajamar/SP,-23.3561111,-46.8769444,222,284.85642
1,Cajapió/MA,-2.8778715,-44.6746871,163,1453.28103
D1,Cajapió/MA,-2.8778715,-44.6746871,7,62.41084
1,Cajari/MA,-3.3213076,-45.0118757,253,1300.70433
D1,Cajari/MA,-3.3213076,-45.0118757,9,46.27011
1,Cajati/SP,-24.7272376,-48.1077914,3317,11641.04724
D1,Cajati/SP,-24.7272376,-48.1077914,99,347.44157
1,Cajazeiras do Piauí/PI,-6.794271,-42.3935024,74,2071.08872
D1,Cajazeiras do Piauí/PI,-6.794271,-42.3935024,1,27.98769
1,Cajazeiras/PB,-6.8897849,-38.5570389,9320,14962.51345
D1,Cajazeiras/PB,-6.8897849,-38.5570389,144,231.18047
1,Cajazeirinhas/PB,-6.961442,-37.7993733,188,5865.83463
D1,Cajazeirinhas/PB,-6.961442,-37.7993733,1,31.20125
1,Cajobi/SP,-20.8776238,-48.8106972,1006,9494.14874
D1,Cajobi/SP,-20.8776238,-48.8106972,31,292.56323
1,Cajueiro da Praia/PI,-2.931114,-41.340801,477,6215.79359
D1,Cajueiro da Praia/PI,-2.931114,-41.340801,20,260.62028
1,Cajueiro/AL,-9.399589,-36.1524309,610,2859.68778
D1,Cajueiro/AL,-9.399589,-36.1524309,28,131.26436
1,Cajuri/MG,-20.7901414,-42.7954489,409,10291.89733
D1,Cajuri/MG,-20.7901414,-42.7954489,3,75.49069
1,Cajuru/SP,-21.2759978,-47.3046035,1680,6365.32414
D1,Cajuru/SP,-21.2759978,-47.3046035,36,136.39980
1,Caldas Brandão/PB,-7.1027959,-35.3254676,584,9659.27886
D1,Caldas Brandão/PB,-7.1027959,-35.3254676,10,165.39861
1,Caldas Novas/GO,-17.745,-48.625,9071,9733.25035
D1,Caldas Novas/GO,-17.745,-48.625,219,234.98863
1,Caldas/MG,-21.923611,-46.386111,942,6478.23396
D1,Caldas/MG,-21.923611,-46.386111,33,226.94450
1,Caldazinha/GO,-16.7116649,-49.0012601,317,8238.04574
D1,Caldazinha/GO,-16.7116649,-49.0012601,7,181.91268
1,Caldeirão Grande do Piauí/PI,-7.3310393,-40.6374433,405,7005.70835
D1,Caldeirão Grande do Piauí/PI,-7.3310393,-40.6374433,2,34.59609
1,Caldeirão Grande/BA,-11.0208483,-40.3041387,568,4241.65484
D1,Caldeirão Grande/BA,-11.0208483,-40.3041387,6,44.80621
1,Califórnia/PR,-23.6672543,-51.3554556,1258,14617.70858
D1,Califórnia/PR,-23.6672543,-51.3554556,31,360.21380
1,Calmon/SC,-26.6023644,-51.0992893,38,1139.43028
D1,Calmon/SC,-26.6023644,-51.0992893,5,149.92504
1,Calumbi/PE,-7.9389746,-38.1516871,732,12737.08022
D1,Calumbi/PE,-7.9389746,-38.1516871,5,87.00191
1,Calçado/PE,-8.7413446,-36.3351787,503,4565.25685
D1,Calçado/PE,-8.7413446,-36.3351787,6,54.45634
1,Calçoene/AP,2.4981757,-50.9539503,1653,14620.55546
D1,Calçoene/AP,2.4981757,-50.9539503,10,88.44861
1,Camacan/BA,-15.4166631,-39.4930088,2950,9217.02181
D1,Camacan/BA,-15.4166631,-39.4930088,81,253.07755
1,Camacho/MG,-20.625556,-45.156667,113,3938.65458
D1,Camacho/MG,-20.625556,-45.156667,2,69.71070
1,Camalaú/PB,-7.885031,-36.824191,442,7328.80119
D1,Camalaú/PB,-7.885031,-36.824191,7,116.06699
1,Camamu/BA,-13.9438142,-39.1060917,2373,6706.80007
D1,Camamu/BA,-13.9438142,-39.1060917,54,152.61998
1,Camanducaia/MG,-22.755278,-46.144444,3234,14834.18192
D1,Camanducaia/MG,-22.755278,-46.144444,62,284.39062
1,Camapuã/MS,-19.5291747,-54.0434641,861,6287.88432
D1,Camapuã/MS,-19.5291747,-54.0434641,30,219.09005
1,Camaquã/RS,-30.8524752,-51.8075619,6836,10283.10118
D1,Camaquã/RS,-30.8524752,-51.8075619,141,212.10024
1,Camaragibe/PE,-8.0213832,-34.9810768,6925,4358.11427
D1,Camaragibe/PE,-8.0213832,-34.9810768,407,256.13755
1,Camargo/RS,-28.5865661,-52.2031474,435,15864.33260
D1,Camargo/RS,-28.5865661,-52.2031474,6,218.81838
1,Camaçari/BA,-12.6998188,-38.3260762,23934,7865.21285
D1,Camaçari/BA,-12.6998188,-38.3260762,606,199.14427
1,Cambará do Sul/RS,-29.0489517,-50.145412,294,4589.44739
D1,Cambará do Sul/RS,-29.0489517,-50.145412,10,156.10365
1,Cambará/PR,-23.042273,-50.075281,2836,11136.41718
D1,Cambará/PR,-23.042273,-50.075281,51,200.26702
1,Cambira/PR,-23.600265,-51.581045,1023,12921.56120
D1,Cambira/PR,-23.600265,-51.581045,25,315.77618
1,Camboriú/SC,-27.0273601,-48.6535657,12564,14762.93990
D1,Camboriú/SC,-27.0273601,-48.6535657,157,184.47800
1,Cambuci/RJ,-21.5749919,-41.9107833,967,6233.07980
D1,Cambuci/RJ,-21.5749919,-41.9107833,33,212.71110
1,Cambuquira/MG,-21.853056,-45.2953619,777,6064.62691
D1,Cambuquira/MG,-21.853056,-45.2953619,23,179.51920
1,Cambuí/MG,-22.6122501,-46.0572137,3745,12561.21285
D1,Cambuí/MG,-22.6122501,-46.0572137,58,194.53948
1,Cambé/PR,-23.2782035,-51.2779583,11483,10697.68308
D1,Cambé/PR,-23.2782035,-51.2779583,246,229.17618
1,Cametá/PA,-2.242949,-49.497885,8976,6440.68770
D1,Cametá/PA,-2.242949,-49.497885,245,175.79863
1,Camocim de São Félix/PE,-8.3616757,-35.7638903,538,2846.56085
D1,Camocim de São Félix/PE,-8.3616757,-35.7638903,18,95.23810
1,Camocim/CE,-2.9009918,-40.8427389,6181,9671.86693
D1,Camocim/CE,-2.9009918,-40.8427389,162,253.49336
1,Campanha/MG,-21.8361108,-45.401986,1848,11024.93736
D1,Campanha/MG,-21.8361108,-45.401986,34,202.83976
1,Campanário/MG,-18.2398144,-41.7271768,233,6246.64879
D1,Campanário/MG,-18.2398144,-41.7271768,5,134.04826
1,Campestre da Serra/RS,-28.7966535,-51.0958149,261,7687.77614
D1,Campestre da Serra/RS,-28.7966535,-51.0958149,2,58.91016
1,Campestre de Goiás/GO,-16.7624179,-49.69497,510,13976.43190
