type,name,lat,lon,total,total_per_100k_inhabitants
1,Abadia de Goiás/GO,-16.7572644,-49.4412205,1997,21806.07119
D1,Abadia de Goiás/GO,-16.7572644,-49.4412205,44,480.45425
1,Abadia dos Dourados/MG,-18.4911191,-47.4063589,593,8444.88750
D1,Abadia dos Dourados/MG,-18.4911191,-47.4063589,17,242.09627
1,Abadiânia/GO,-16.1940946,-48.7067767,590,2826.61812
D1,Abadiânia/GO,-16.1940946,-48.7067767,46,220.38040
1,Abaetetuba/PA,-1.721828,-48.878843,9783,6097.64459
D1,Abaetetuba/PA,-1.721828,-48.878843,226,140.86351
1,Abaeté/MG,-19.1566833,-45.4481213,1679,7217.46980
D1,Abaeté/MG,-19.1566833,-45.4481213,44,189.14156
1,Abaiara/CE,-7.3607808,-39.0487878,633,5290.43042
D1,Abaiara/CE,-7.3607808,-39.0487878,17,142.08107
1,Abaré/BA,-8.7239913,-39.1139689,1148,5574.43916
D1,Abaré/BA,-8.7239913,-39.1139689,11,53.41362
1,Abatiá/PR,-23.3052967,-50.3102532,1132,15380.43478
D1,Abatiá/PR,-23.3052967,-50.3102532,21,285.32609
1,Abaíra/BA,-13.2503296,-41.6640342,299,3444.30365
D1,Abaíra/BA,-13.2503296,-41.6640342,12,138.23292
1,Abdon Batista/SC,-27.612419,-51.022992,408,16101.02605
D1,Abdon Batista/SC,-27.612419,-51.022992,4,157.85320
1,Abel Figueiredo/PA,-4.953001,-48.3958485,1075,14264.86200
D1,Abel Figueiredo/PA,-4.953001,-48.3958485,11,145.96603
1,Abelardo Luz/SC,-26.5705893,-52.3280339,1961,10885.37330
D1,Abelardo Luz/SC,-26.5705893,-52.3280339,60,333.05579
1,Abre Campo/MG,-20.2976097,-42.4764741,1291,9609.94492
D1,Abre Campo/MG,-20.2976097,-42.4764741,17,126.54459
1,Abreu e Lima/PE,-7.900719,-34.898389,3551,3526.38583
D1,Abreu e Lima/PE,-7.900719,-34.898389,250,248.26710
1,Abreulândia/TO,-9.6221526,-49.1558343,329,12610.19548
D1,Abreulândia/TO,-9.6221526,-49.1558343,8,306.63089
1,Acaiaca/MG,-20.3621646,-43.1444162,236,5907.38423
D1,Acaiaca/MG,-20.3621646,-43.1444162,12,300.37547
1,Acajutiba/BA,-11.6609659,-38.0186381,575,3779.41370
D1,Acajutiba/BA,-11.6609659,-38.0186381,21,138.03076
1,Acarape/CE,-4.2237866,-38.7071663,2831,18698.81110
D1,Acarape/CE,-4.2237866,-38.7071663,31,204.75561
1,Acaraú/CE,-2.8869514,-40.1194713,5324,8376.86450
D1,Acaraú/CE,-2.8869514,-40.1194713,115,180.94279
1,Acari/RN,-6.4364689,-36.6394777,1130,10174.68035
D1,Acari/RN,-6.4364689,-36.6394777,21,189.08698
1,Acará/PA,-1.961388,-48.1987043,1788,3207.52009
D1,Acará/PA,-1.961388,-48.1987043,39,69.96269
1,Acauã/PI,-8.219542,-41.083059,218,3062.22784
D1,Acauã/PI,-8.219542,-41.083059,2,28.09383
1,Aceguá/RS,-31.8695131,-54.1615593,397,7970.28709
D1,Aceguá/RS,-31.8695131,-54.1615593,8,160.61032
1,Acopiara/CE,-6.0936464,-39.4543204,4110,7515.49728
D1,Acopiara/CE,-6.0936464,-39.4543204,151,276.11681
1,Acorizal/MT,-15.2001544,-56.3668953,807,15200.60275
D1,Acorizal/MT,-15.2001544,-56.3668953,22,414.39066
1,Acrelândia/AC,-10.0759167,-67.0526898,1797,11430.57057
D1,Acrelândia/AC,-10.0759167,-67.0526898,37,235.35399
1,Acreúna/GO,-17.3959899,-50.3749031,3214,14152.35579
D1,Acreúna/GO,-17.3959899,-50.3749031,68,299.42756
1,Adamantina/SP,-21.6866517,-51.0762975,4098,11657.61101
D1,Adamantina/SP,-21.6866517,-51.0762975,146,415.32728
1,Adelândia/GO,-16.4155077,-50.1665834,241,9582.50497
D1,Adelândia/GO,-16.4155077,-50.1665834,4,159.04573
1,Adolfo/SP,-21.2356597,-49.6441918,623,17574.04795
D1,Adolfo/SP,-21.2356597,-49.6441918,19,535.96615
1,Adrianópolis/PR,-24.6557863,-48.9912769,1418,24460.92807
D1,Adrianópolis/PR,-24.6557863,-48.9912769,29,500.25875
1,Adustina/BA,-10.5358875,-38.114479,1097,6374.57145
D1,Adustina/BA,-10.5358875,-38.114479,27,156.89465
1,Afogados da Ingazeira/PE,-7.750429,-37.6356375,5263,14017.47190
D1,Afogados da Ingazeira/PE,-7.750429,-37.6356375,75,199.75497
1,Afonso Bezerra/RN,-5.4745,-36.57625071327935,802,7275.03628
D1,Afonso Bezerra/RN,-5.4745,-36.57625071327935,18,163.28012
1,Afonso Cláudio/ES,-20.077841,-41.12606,4119,13582.40454
D1,Afonso Cláudio/ES,-20.077841,-41.12606,69,227.52753
1,Afonso Cunha/MA,-4.1326105,-43.3230026,267,4026.54200
D1,Afonso Cunha/MA,-4.1326105,-43.3230026,2,30.16136
1,Afrânio/PE,-8.5198919,-41.0070197,1007,5039.78780
D1,Afrânio/PE,-8.5198919,-41.0070197,16,80.07607
1,Afuá/PA,-0.1535664,-50.3879223,3098,7762.46555
D1,Afuá/PA,-0.1535664,-50.3879223,16,40.09020
1,Agrestina/PE,-8.4558021,-35.9442663,1769,7008.71632
D1,Agrestina/PE,-8.4558021,-35.9442663,68,269.41363
1,Agricolândia/PI,-5.7967843,-42.6605131,721,14073.78489
D1,Agricolândia/PI,-5.7967843,-42.6605131,8,156.15850
1,Agrolândia/SC,-27.4122212,-49.8295774,1734,15537.63441
D1,Agrolândia/SC,-27.4122212,-49.8295774,29,259.85663
1,Agronômica/SC,-27.2660744,-49.7104753,686,12315.97846
D1,Agronômica/SC,-27.2660744,-49.7104753,14,251.34650
1,Aguanil/MG,-20.9424533,-45.3927152,702,15404.87163
D1,Aguanil/MG,-20.9424533,-45.3927152,8,175.55409
1,Aguaí/SP,-22.0592036,-46.979384,3620,9788.81047
D1,Aguaí/SP,-22.0592036,-46.979384,112,302.85822
1,Agudo/RS,-29.6423259,-53.2494005,1990,12175.72198
D1,Agudo/RS,-29.6423259,-53.2494005,32,195.79050
1,Agudos do Sul/PR,-25.9890808,-49.3328175,833,8707.01369
D1,Agudos do Sul/PR,-25.9890808,-49.3328175,33,344.93572
1,Agudos/SP,-22.471162,-48.987822,4772,12697.56798
D1,Agudos/SP,-22.471162,-48.987822,110,292.69331
1,Aguiar/PB,-7.0928404,-38.1727215,544,9676.27179
D1,Aguiar/PB,-7.0928404,-38.1727215,5,88.93632
1,Aguiarnópolis/TO,-6.5600452,-47.4721189,708,10043.97787
D1,Aguiarnópolis/TO,-6.5600452,-47.4721189,14,198.60973
1,Aimorés/MG,-19.4917754,-41.0615603,2177,8667.78149
D1,Aimorés/MG,-19.4917754,-41.0615603,78,310.55901
1,Aiquara/BA,-14.126918,-39.8887574,505,11511.28334
D1,Aiquara/BA,-14.126918,-39.8887574,12,273.53545
1,Aiuaba/CE,-6.5710836,-40.1212278,825,4691.76524
D1,Aiuaba/CE,-6.5710836,-40.1212278,11,62.55687
1,Aiuruoca/MG,-21.9759554,-44.6036637,359,6034.62767
D1,Aiuruoca/MG,-21.9759554,-44.6036637,10,168.09548
1,Ajuricaba/RS,-28.239654,-53.7693013,1505,21651.56093
D1,Ajuricaba/RS,-28.239654,-53.7693013,32,460.36542
1,Alagoa Grande/PB,-7.0415212,-35.6285322,4222,14874.57723
D1,Alagoa Grande/PB,-7.0415212,-35.6285322,72,253.66404
1,Alagoa Nova/PB,-7.0653703,-35.76695977336711,1919,9141.57774
D1,Alagoa Nova/PB,-7.0653703,-35.76695977336711,34,161.96646
1,Alagoa/MG,-22.1697202,-44.6400042,447,16823.48513
D1,Alagoa/MG,-22.1697202,-44.6400042,8,301.09146
1,Alagoinha do Piauí/PI,-7.0090952,-40.939675,394,5131.54467
D1,Alagoinha do Piauí/PI,-7.0090952,-40.939675,12,156.29070
1,Alagoinha/PB,-6.97063215,-35.51490901897793,2116,14464.41999
D1,Alagoinha/PB,-6.97063215,-35.51490901897793,25,170.89343
1,Alagoinha/PE,-8.50355635,-36.77701174370496,1457,9845.92513
D1,Alagoinha/PE,-8.50355635,-36.77701174370496,29,195.97243
1,Alagoinhas/BA,-12.133526,-38.420772,14601,9541.70288
D1,Alagoinhas/BA,-12.133526,-38.420772,325,212.38637
1,Alambari/SP,-23.550338,-47.897971,686,11009.46879
D1,Alambari/SP,-23.550338,-47.897971,12,192.58546
1,Albertina/MG,-20.66164,-43.784039,269,8922.05638
D1,Albertina/MG,-20.66164,-43.784039,10,331.67496
1,Alcantil/PB,-7.7425491,-36.0609604,705,12755.56360
D1,Alcantil/PB,-7.7425491,-36.0609604,8,144.74398
1,Alcinópolis/MS,-18.3264121,-53.7094463,422,7688.10348
D1,Alcinópolis/MS,-18.3264121,-53.7094463,11,200.40080
1,Alcobaça/BA,-17.5215875,-39.1965474,1782,7916.83327
D1,Alcobaça/BA,-17.5215875,-39.1965474,30,133.28002
1,Alcântara/MA,-2.4038956,-44.4154241,336,1518.57543
D1,Alcântara/MA,-2.4038956,-44.4154241,20,90.39139
1,Alcântaras/CE,-3.586247,-40.5457641,1824,15397.60257
D1,Alcântaras/CE,-3.586247,-40.5457641,22,185.71670
1,Aldeias Altas/MA,-4.6291957,-43.4708622,977,3621.33511
D1,Aldeias Altas/MA,-4.6291957,-43.4708622,14,51.89221
1,Alecrim/RS,-27.6566142,-54.7653195,315,5516.63748
D1,Alecrim/RS,-27.6566142,-54.7653195,12,210.15762
1,Alegre/ES,-20.7625787,-41.5318886,3464,11597.30825
D1,Alegre/ES,-20.7625787,-41.5318886,77,257.79236
1,Alegrete do Piauí/PI,-7.2440138,-40.8602296,529,10749.84759
D1,Alegrete do Piauí/PI,-7.2440138,-40.8602296,7,142.24751
1,Alegrete/RS,-29.790166,-55.794862,11180,15422.17869
D1,Alegrete/RS,-29.790166,-55.794862,296,408.31529
1,Alegria/RS,-27.8332103,-54.0574959,398,12108.30545
D1,Alegria/RS,-27.8332103,-54.0574959,4,121.69151
1,Alenquer/PA,-1.946229,-54.738355,3858,6722.42551
D1,Alenquer/PA,-1.946229,-54.738355,145,252.65726
1,Alexandria/RN,-6.414779,-38.0135516,1908,14103.03792
D1,Alexandria/RN,-6.414779,-38.0135516,32,236.52894
1,Alexânia/GO,-16.0834049,-48.5077803,3910,13787.02398
D1,Alexânia/GO,-16.0834049,-48.5077803,101,356.13540
1,Alfenas/MG,-21.4297405,-45.9479419,11092,13698.39329
D1,Alfenas/MG,-21.4297405,-45.9479419,207,255.64077
1,Alfredo Chaves/ES,-20.624970400000002,-40.75006690147988,2822,19236.53715
D1,Alfredo Chaves/ES,-20.624970400000002,-40.75006690147988,43,293.11520
1,Alfredo Marcondes/SP,-21.9527,-51.413956,281,6688.88360
D1,Alfredo Marcondes/SP,-21.9527,-51.413956,15,357.05784
1,Alfredo Vasconcelos/MG,-21.145833,-43.776389,639,9061.25922
D1,Alfredo Vasconcelos/MG,-21.145833,-43.776389,15,212.70562
1,Alfredo Wagner/SC,-27.6961513,-49.3326734,1104,10891.87056
D1,Alfredo Wagner/SC,-27.6961513,-49.3326734,8,78.92660
1,Algodão de Jandaíra/PB,-6.9040175,-36.0089879,322,12442.04019
D1,Algodão de Jandaíra/PB,-6.9040175,-36.0089879,1,38.63988
1,Alhandra/PB,-7.4304246,-34.9106103,2513,12650.39013
D1,Alhandra/PB,-7.4304246,-34.9106103,39,196.32520
1,Aliança do Tocantins/TO,-11.3055927,-48.9409096,787,14840.65623
D1,Aliança do Tocantins/TO,-11.3055927,-48.9409096,23,433.71676
1,Aliança/PE,-7.60398,-35.222696,910,2369.29806
D1,Aliança/PE,-7.60398,-35.222696,66,171.83920
1,Almadina/BA,-14.70466,-39.6381994,646,12251.09046
D1,Almadina/BA,-14.70466,-39.6381994,11,208.60990
1,Almas/TO,-11.5681309,-47.1702803,239,3461.25996
D1,Almas/TO,-11.5681309,-47.1702803,5,72.41130
1,Almeirim/PA,-1.5290377,-52.5788111,3810,11191.39937
D1,Almeirim/PA,-1.5290377,-52.5788111,50,146.86876
1,Almenara/MG,-16.1740678,-40.6904907,4556,10750.35394
D1,Almenara/MG,-16.1740678,-40.6904907,53,125.05899
1,Almino Afonso/RN,-6.1544208,-37.7649018,510,10885.80576
D1,Almino Afonso/RN,-6.1544208,-37.7649018,13,277.48132
1,Almirante Tamandaré do Sul/RS,-28.1141129,-52.9134874,335,17312.66150
D1,Almirante Tamandaré do Sul/RS,-28.1141129,-52.9134874,7,361.75711
1,Almirante Tamandaré/PR,-25.3133048,-49.2997838,11306,9311.48081
D1,Almirante Tamandaré/PR,-25.3133048,-49.2997838,434,357.43700
1,Aloândia/GO,-17.7277983,-49.4809338,332,16801.61943
D1,Aloândia/GO,-17.7277983,-49.4809338,11,556.68016
1,Alpercata/MG,-18.9803616,-41.9827637,524,7035.44576
D1,Alpercata/MG,-18.9803616,-41.9827637,20,268.52846
1,Alpestre/RS,-27.2512339,-53.0349646,651,11062.02209
D1,Alpestre/RS,-27.2512339,-53.0349646,15,254.88530
1,Alpinópolis/MG,-20.863611,-46.387777,1907,9506.95448
D1,Alpinópolis/MG,-20.863611,-46.387777,47,234.30879
1,Alta Floresta D'Oeste/RO,-11.9296917,-61.9961284,4398,19532.77669
D1,Alta Floresta D'Oeste/RO,-11.9296917,-61.9961284,68,302.00746
1,Alta Floresta/MT,-9.8715018,-56.0839881,11293,21673.54381
D1,Alta Floresta/MT,-9.8715018,-56.0839881,151,289.79944
1,Altair/SP,-20.5238955,-49.0606135,312,7409.16647
D1,Altair/SP,-20.5238955,-49.0606135,17,403.70458
1,Altamira do Maranhão/MA,-4.1643006,-45.4674574,406,4921.21212
D1,Altamira do Maranhão/MA,-4.1643006,-45.4674574,13,157.57576
1,Altamira do Paraná/PR,-24.799114,-52.7128633,294,20573.82785
D1,Altamira do Paraná/PR,-24.799114,-52.7128633,12,839.74808
1,Altamira/PA,-3.204065,-52.209961,15512,13221.95704
D1,Altamira/PA,-3.204065,-52.209961,330,281.28196
1,Altaneira/CE,-6.9980933,-39.7385742,744,9647.30290
D1,Altaneira/CE,-6.9980933,-39.7385742,17,220.43568
1,Alterosa/MG,-21.249166,-46.143055,811,5567.76054
D1,Alterosa/MG,-21.249166,-46.143055,36,247.15090
1,Altinho/PE,-8.4904095,-36.0607494,1378,5992.34650
D1,Altinho/PE,-8.4904095,-36.0607494,30,130.45747
1,Altinópolis/SP,-21.021364,-47.3712,1035,6380.61772
D1,Altinópolis/SP,-21.021364,-47.3712,55,339.06664
1,Alto Alegre do Maranhão/MA,-4.2055693,-44.4525287,1481,5276.84743
D1,Alto Alegre do Maranhão/MA,-4.2055693,-44.4525287,28,99.76484
1,Alto Alegre do Pindaré/MA,-3.6698186,-45.8462153,2317,7248.09960
D1,Alto Alegre do Pindaré/MA,-3.6698186,-45.8462153,46,143.89840
1,Alto Alegre dos Parecis/RO,-12.1314515,-61.856265,1518,11441.06120
D1,Alto Alegre dos Parecis/RO,-12.1314515,-61.856265,46,346.69882
1,Alto Alegre/RR,2.98858,-61.307167,1669,10944.98000
D1,Alto Alegre/RR,2.98858,-61.307167,38,249.19667
1,Alto Alegre/RS,-31.780844700000003,-52.81311114489171,213,13396.22642
D1,Alto Alegre/RS,-31.780844700000003,-52.81311114489171,2,125.78616
1,Alto Alegre/SP,-21.5820592,-50.1661976,401,9833.25159
D1,Alto Alegre/SP,-21.5820592,-50.1661976,21,514.95831
1,Alto Araguaia/MT,-17.3156528,-53.2169365,1615,8192.14771
D1,Alto Araguaia/MT,-17.3156528,-53.2169365,30,152.17612
1,Alto Bela Vista/SC,-27.4320737,-51.905771,199,10391.64491
D1,Alto Bela Vista/SC,-27.4320737,-51.905771,3,156.65796
1,Alto Boa Vista/MT,-11.6723985,-51.3744431,946,13338.97349
D1,Alto Boa Vista/MT,-11.6723985,-51.3744431,19,267.90750
1,Alto Caparaó/MG,-20.4405661,-41.8683799,439,7393.06164
D1,Alto Caparaó/MG,-20.4405661,-41.8683799,9,151.56618
1,Alto Feliz/RS,-29.3785943,-51.3123751,328,10778.83667
D1,Alto Feliz/RS,-29.3785943,-51.3123751,2,65.72461
1,Alto Garças/MT,-16.9469683,-53.529427,1158,9397.06240
D1,Alto Garças/MT,-16.9469683,-53.529427,42,340.82610
1,Alto Horizonte/GO,-14.1954948,-49.3366993,1258,18510.88876
D1,Alto Horizonte/GO,-14.1954948,-49.3366993,14,206.00353
1,Alto Jequitibá/MG,-20.423611,-41.966111,1002,12092.68646
D1,Alto Jequitibá/MG,-20.423611,-41.966111,12,144.82259
1,Alto Longá/PI,-5.2549051,-42.2072388,721,5017.04822
D1,Alto Longá/PI,-5.2549051,-42.2072388,15,104.37687
1,Alto Paraguai/MT,-14.513712,-56.4936374,929,8017.60594
D1,Alto Paraguai/MT,-14.513712,-56.4936374,29,250.28049
1,Alto Paraná/PR,-23.131247,-52.318893,1310,8765.47340
D1,Alto Paraná/PR,-23.131247,-52.318893,26,173.97123
1,Alto Paraíso de Goiás/GO,-14.1304779,-47.5100161,975,12579.02206
D1,Alto Paraíso de Goiás/GO,-14.1304779,-47.5100161,9,116.11405
1,Alto Paraíso/PR,-23.508137,-53.728537,378,14372.62357
D1,Alto Paraíso/PR,-23.508137,-53.728537,9,342.20532
1,Alto Paraíso/RO,-9.7240103,-63.3188123,2244,10081.76835
D1,Alto Paraíso/RO,-9.7240103,-63.3188123,52,233.62387
1,Alto Parnaíba/MA,-9.112506,-45.9310154,1021,9089.29048
D1,Alto Parnaíba/MA,-9.112506,-45.9310154,11,97.92575
1,Alto Piquiri/PR,-24.0239021,-53.4417448,1136,11684.83851
D1,Alto Piquiri/PR,-24.0239021,-53.4417448,28,288.00658
1,Alto Rio Doce/MG,-21.0239537,-43.4133507,587,5474.21431
D1,Alto Rio Doce/MG,-21.0239537,-43.4133507,29,270.44670
1,Alto Rio Novo/ES,-19.0577208,-41.0171518,790,9986.09531
D1,Alto Rio Novo/ES,-19.0577208,-41.0171518,25,316.01567
1,Alto Santo/CE,-5.5190371,-38.2719351,1952,12141.56870
D1,Alto Santo/CE,-5.5190371,-38.2719351,36,223.92237
1,Alto Taquari/MT,-17.8269099,-53.2831736,1648,14439.67406
D1,Alto Taquari/MT,-17.8269099,-53.2831736,29,254.09621
1,Alto do Rodrigues/RN,-5.290868,-36.7616726,2661,17831.53521
D1,Alto do Rodrigues/RN,-5.290868,-36.7616726,40,268.04262
1,Altos/PI,-5.0393915,-42.4611694,4954,12177.67508
D1,Altos/PI,-5.0393915,-42.4611694,99,243.35685
1,Altônia/PR,-23.8722004,-53.894037,1624,7284.79792
D1,Altônia/PR,-23.8722004,-53.894037,44,197.37137
1,Alumínio/SP,-23.5203479,-47.2575256,1635,8649.42073
D1,Alumínio/SP,-23.5203479,-47.2575256,53,280.37878
1,Alvarenga/MG,-19.4175,-41.728334,514,13587.10019
D1,Alvarenga/MG,-19.4175,-41.728334,4,105.73619
1,Alvarães/AM,-3.214786,-64.8143124,2908,17736.03318
D1,Alvarães/AM,-3.214786,-64.8143124,46,280.55623
1,Alvinlândia/SP,-22.4431852,-49.7643596,145,4460.16610
D1,Alvinlândia/SP,-22.4431852,-49.7643596,9,276.83790
1,Alvinópolis/MG,-20.1105199,-43.0601805,865,5715.22960
D1,Alvinópolis/MG,-20.1105199,-43.0601805,23,151.96564
1,Alvorada D'Oeste/RO,-11.346271,-62.284697,1197,8669.51546
D1,Alvorada D'Oeste/RO,-11.346271,-62.284697,29,210.03839
1,Alvorada de Minas/MG,-18.7318587,-43.3641479,294,8155.33981
D1,Alvorada de Minas/MG,-18.7318587,-43.3641479,3,83.21775
1,Alvorada do Gurguéia/PI,-8.4465288,-43.8655915,453,8283.04992
D1,Alvorada do Gurguéia/PI,-8.4465288,-43.8655915,11,201.13366
1,Alvorada do Norte/GO,-14.483911,-46.4959897,911,10412.61858
D1,Alvorada do Norte/GO,-14.483911,-46.4959897,16,182.87804
1,Alvorada do Sul/PR,-22.7807269,-51.2307721,877,7561.64856
D1,Alvorada do Sul/PR,-22.7807269,-51.2307721,31,267.28746
1,Alvorada/RS,-29.9981184,-51.0772509,23187,10919.13427
D1,Alvorada/RS,-29.9981184,-51.0772509,821,386.62221
1,Alvorada/TO,-12.478465,-49.124926,1537,18339.10035
D1,Alvorada/TO,-12.478465,-49.124926,30,357.95251
1,Além Paraíba/MG,-21.8760576,-42.6810473,3786,10683.44715
D1,Além Paraíba/MG,-21.8760576,-42.6810473,163,459.95824
1,Amajari/RR,3.6523869,-61.4194315,1185,8738.29364
D1,Amajari/RR,3.6523869,-61.4194315,24,176.97810
1,Amambai/MS,-23.1082701,-55.2284854,3485,8659.03049
D1,Amambai/MS,-23.1082701,-55.2284854,86,213.68052
1,Amaporã/PR,-23.094272,-52.786597,470,7338.01717
D1,Amaporã/PR,-23.094272,-52.786597,8,124.90242
1,Amapá do Maranhão/MA,-1.6762114,-46.0109669,172,2440.75493
D1,Amapá do Maranhão/MA,-1.6762114,-46.0109669,4,56.76174
1,Amapá/AP,2.0529997,-50.7930003,1423,15358.87750
D1,Amapá/AP,2.0529997,-50.7930003,13,140.31301
1,Amaraji/PE,-8.373925,-35.4536527,689,3007.42034
D1,Amaraji/PE,-8.373925,-35.4536527,48,209.51550
1,Amaral Ferrador/RS,-30.8750633,-52.2542051,312,4372.19731
D1,Amaral Ferrador/RS,-30.8750633,-52.2542051,11,154.14798
1,Amaralina/GO,-13.9236199,-49.2962411,142,3664.51613
D1,Amaralina/GO,-13.9236199,-49.2962411,2,51.61290
1,Amarante do Maranhão/MA,-5.56913,-46.747284,1670,3974.58172
D1,Amarante do Maranhão/MA,-5.56913,-46.747284,56,133.27939
1,Amarante/PI,-6.2459374,-42.8476238,1591,9035.15248
D1,Amarante/PI,-6.2459374,-42.8476238,35,198.76200
1,Amargosa/BA,-13.03793715,-39.60796443875596,3240,8609.92267
D1,Amargosa/BA,-13.03793715,-39.60796443875596,57,151.47086
1,Amaturá/AM,-3.3640509,-68.1994689,2400,20110.60835
D1,Amaturá/AM,-3.3640509,-68.1994689,18,150.82956
1,Americana/SP,-22.7392463,-47.3306032,27237,11145.80349
D1,Americana/SP,-22.7392463,-47.3306032,848,347.01477
1,Americano do Brasil/GO,-16.2515808,-49.9806104,877,14099.67846
D1,Americano do Brasil/GO,-16.2515808,-49.9806104,25,401.92926
1,Ametista do Sul/RS,-27.3617341,-53.1826575,996,13466.73878
D1,Ametista do Sul/RS,-27.3617341,-53.1826575,24,324.49973
1,Amontada/CE,-3.3634586,-39.8284791,2954,6684.01403
D1,Amontada/CE,-3.3634586,-39.8284791,57,128.97387
1,Amorinópolis/GO,-16.6211308,-51.0949921,401,13317.83461
D1,Amorinópolis/GO,-16.6211308,-51.0949921,8,265.69246
1,Amparo de São Francisco/SE,-10.1299754,-36.9269099,256,10729.25398
D1,Amparo de São Francisco/SE,-10.1299754,-36.9269099,5,209.55574
1,Amparo do Serra/MG,-20.5070255,-42.8028462,172,3704.50140
D1,Amparo do Serra/MG,-20.5070255,-42.8028462,8,172.30239
1,Amparo/PB,-7.56394725,-37.04652873235175,187,8259.71731
D1,Amparo/PB,-7.56394725,-37.04652873235175,4,176.67845
1,Amparo/SP,-22.70111,-46.76444,7796,10658.28150
D1,Amparo/SP,-22.70111,-46.76444,173,236.51651
1,Ampére/PR,-25.9168712,-53.4742414,2591,13310.38734
D1,Ampére/PR,-25.9168712,-53.4742414,58,297.95541
1,Amélia Rodrigues/BA,-12.4015388,-38.7516971,2440,9761.17134
D1,Amélia Rodrigues/BA,-12.4015388,-38.7516971,51,204.02448
1,América Dourada/BA,-11.4515262,-41.4357517,963,5986.57217
D1,América Dourada/BA,-11.4515262,-41.4357517,14,87.03220
1,Américo Brasiliense/SP,-21.7297099,-48.1052092,4338,10441.68973
D1,Américo Brasiliense/SP,-21.7297099,-48.1052092,99,238.29582
1,Américo de Campos/SP,-20.298476,-49.735904,1172,19556.14884
D1,Américo de Campos/SP,-20.298476,-49.735904,35,584.01468
1,Anadia/AL,-9.6830208,-36.3052699,1525,8710.80139
D1,Anadia/AL,-9.6830208,-36.3052699,33,188.49603
1,Anagé/BA,-14.6134669,-41.1376308,1152,5426.53917
D1,Anagé/BA,-14.6134669,-41.1376308,30,141.31612
1,Anahy/PR,-24.6450861,-53.1337957,450,16222.06200
D1,Anahy/PR,-24.6450861,-53.1337957,12,432.58832
1,Anajatuba/MA,-3.26441,-44.6179916,1210,4453.44130
D1,Anajatuba/MA,-3.26441,-44.6179916,27,99.37431
1,Anajás/PA,-0.9878802,-49.9390114,1364,4532.91682
D1,Anajás/PA,-0.9878802,-49.9390114,22,73.11156
1,Analândia/SP,-22.128917,-47.661939,387,7565.98240
D1,Analândia/SP,-22.128917,-47.661939,5,97.75171
1,Anamã/AM,-3.5797356,-61.4049996,2031,14210.74727
D1,Anamã/AM,-3.5797356,-61.4049996,10,69.96921
1,Ananindeua/PA,-1.374035,-48.4016623,26453,4894.98714
D1,Ananindeua/PA,-1.374035,-48.4016623,830,153.58709
1,Ananás/TO,-6.3663053,-48.080238,1726,18293.58771
D1,Ananás/TO,-6.3663053,-48.080238,28,296.76736
1,Anapu/PA,-3.4668292,-51.2057035,1865,6362.58188
D1,Anapu/PA,-3.4668292,-51.2057035,53,180.81332
1,Anapurus/MA,-3.6751298,-43.1046001,832,5182.50903
D1,Anapurus/MA,-3.6751298,-43.1046001,15,93.43466
1,Anastácio/MS,-20.4832458,-55.8048448,2664,10514.68266
D1,Anastácio/MS,-20.4832458,-55.8048448,88,347.33186
1,Anaurilândia/MS,-22.185169,-52.719056,565,6197.89381
D1,Anaurilândia/MS,-22.185169,-52.719056,15,164.54585
1,Anchieta/ES,-20.8057672,-40.6454564,5588,18451.37857
D1,Anchieta/ES,-20.8057672,-40.6454564,95,313.68664
1,Anchieta/SC,-26.5350527,-53.3293938,716,13072.85010
D1,Anchieta/SC,-26.5350527,-53.3293938,11,200.83988
1,Andaraí/BA,-12.8059674,-41.3322919,949,7232.12925
D1,Andaraí/BA,-12.8059674,-41.3322919,10,76.20790
1,Andirá/PR,-23.0494761,-50.2310027,2697,13605.40786
D1,Andirá/PR,-23.0494761,-50.2310027,93,469.15200
1,Andorinha/BA,-10.3445708,-39.8334411,976,6770.25527
D1,Andorinha/BA,-10.3445708,-39.8334411,17,117.92453
1,Andradas/MG,-22.0680484,-46.5688976,4152,9955.87953
D1,Andradas/MG,-22.0680484,-46.5688976,125,299.73144
1,Andradina/SP,-20.896505,-51.3742765,6910,12070.92322
D1,Andradina/SP,-20.896505,-51.3742765,281,490.87257
1,Andrelândia/MG,-21.739722,-44.308889,206,1690.04840
D1,Andrelândia/MG,-21.739722,-44.308889,16,131.26590
1,André da Rocha/RS,-28.6309124,-51.5733328,120,8882.30940
D1,André da Rocha/RS,-28.6309124,-51.5733328,1,74.01925
1,Angatuba/SP,-23.4938938,-48.4110675,3173,12334.78464
D1,Angatuba/SP,-23.4938938,-48.4110675,78,303.21878
1,Angelim/PE,-8.8902038,-36.2872987,233,2061.76445
D1,Angelim/PE,-8.8902038,-36.2872987,12,106.18529
1,Angelina/SC,-27.5805287,-48.9838759,580,12377.29407
D1,Angelina/SC,-27.5805287,-48.9838759,3,64.02049
1,Angelândia/MG,-17.7253,-42.2728,275,3199.90691
D1,Angelândia/MG,-17.7253,-42.2728,4,46.54410
1,Angical do Piauí/PI,-6.0872666,-42.7366138,893,13173.03437
D1,Angical do Piauí/PI,-6.0872666,-42.7366138,12,177.01726
1,Angical/BA,-12.005623,-44.7000236,857,6164.58064
D1,Angical/BA,-12.005623,-44.7000236,20,143.86419
1,Angico/TO,-6.3893733,-47.8656722,239,6877.69784
D1,Angico/TO,-6.3893733,-47.8656722,5,143.88489
1,Angicos/RN,-5.6666344,-36.6009064,1127,9636.59684
D1,Angicos/RN,-5.6666344,-36.6009064,24,205.21590
1,Angra dos Reis/RJ,-23.0063966,-44.316326,18148,8634.87351
D1,Angra dos Reis/RJ,-23.0063966,-44.316326,562,267.40131
1,Anguera/BA,-12.1509425,-39.2452469,530,4661.79963
D1,Anguera/BA,-12.1509425,-39.2452469,2,17.59170
1,Angélica/MS,-22.1588196,-53.7728504,1401,12643.26324
D1,Angélica/MS,-22.1588196,-53.7728504,21,189.51358
1,Anhanguera/GO,-18.3338749,-48.220363,108,9222.88642
D1,Anhanguera/GO,-18.3338749,-48.220363,7,597.77968
1,Anhembi/SP,-22.7891096,-48.1316776,333,4818.40544
D1,Anhembi/SP,-22.7891096,-48.1316776,11,159.16655
1,Anhumas/SP,-22.2956478,-51.3873401,384,9204.21860
D1,Anhumas/SP,-22.2956478,-51.3873401,7,167.78523
1,Anicuns/GO,-16.4606451,-49.9572265,3508,15863.97142
D1,Anicuns/GO,-16.4606451,-49.9572265,72,325.60033
1,Anita Garibaldi/SC,-27.6855032,-51.1293873,1230,18133.56922
D1,Anita Garibaldi/SC,-27.6855032,-51.1293873,10,147.42739
1,Anitápolis/SC,-27.9041185,-49.1287395,392,12162.58145
D1,Anitápolis/SC,-27.9041185,-49.1287395,5,155.13497
1,Anori/AM,-3.7435254,-61.6605203,1928,8788.80430
D1,Anori/AM,-3.7435254,-61.6605203,33,150.43078
1,Anta Gorda/RS,-28.9718745,-52.0069187,678,11412.22016
D1,Anta Gorda/RS,-28.9718745,-52.0069187,8,134.65747
1,Antas/BA,-10.4114649,-38.3308815,1319,6709.39519
D1,Antas/BA,-10.4114649,-38.3308815,13,66.12747
1,Antonina do Norte/CE,-6.7754187,-39.9879345,834,11267.22507
D1,Antonina do Norte/CE,-6.7754187,-39.9879345,26,351.25642
1,Antonina/PR,-25.4298854,-48.7125431,2643,13970.08299
D1,Antonina/PR,-25.4298854,-48.7125431,73,385.85549
1,Antônio Almeida/PI,-7.2186016,-44.1950248,407,12818.89764
D1,Antônio Almeida/PI,-7.2186016,-44.1950248,10,314.96063
1,Antônio Cardoso/BA,-12.4363122,-39.1200307,636,5449.87147
D1,Antônio Cardoso/BA,-12.4363122,-39.1200307,11,94.25878
1,Antônio Carlos/MG,-21.318334,-43.746666,863,7523.31968
D1,Antônio Carlos/MG,-21.318334,-43.746666,17,148.19981
1,Antônio Carlos/SC,-27.5168462,-48.7684715,1700,19513.31497
D1,Antônio Carlos/SC,-27.5168462,-48.7684715,27,309.91736
1,Antônio Dias/MG,-19.6525,-42.872778,607,6574.24456
D1,Antônio Dias/MG,-19.6525,-42.872778,27,292.42933
1,Antônio Gonçalves/BA,-10.5715409,-40.2748824,918,7678.79548
D1,Antônio Gonçalves/BA,-10.5715409,-40.2748824,10,83.64701
1,Antônio João/MS,-22.1892837,-55.9508227,551,6066.94561
D1,Antônio João/MS,-22.1892837,-55.9508227,18,198.19423
1,Antônio Martins/RN,-6.2155812,-37.8890129,696,9717.95588
D1,Antônio Martins/RN,-6.2155812,-37.8890129,7,97.73806
1,Antônio Olinto/PR,-25.9849006,-50.1974516,582,7842.60881
D1,Antônio Olinto/PR,-25.9849006,-50.1974516,15,202.12909
1,Antônio Prado de Minas/MG,-21.0171988,-42.1101106,166,10526.31579
D1,Antônio Prado de Minas/MG,-21.0171988,-42.1101106,5,317.05770
1,Antônio Prado/RS,-28.8567806,-51.2801355,2818,21608.77233
D1,Antônio Prado/RS,-28.8567806,-51.2801355,33,253.04808
1,Anápolis/GO,-16.3332828,-48.9525756,52718,13294.96679
D1,Anápolis/GO,-16.3332828,-48.9525756,1784,449.90745
1,Anísio de Abreu/PI,-9.185643,-43.04941,291,2911.74705
D1,Anísio de Abreu/PI,-9.185643,-43.04941,14,140.08405
1,Aparecida d'Oeste/SP,-20.4498109,-50.8808706,848,20572.53760
D1,Aparecida d'Oeste/SP,-20.4498109,-50.8808706,20,485.20136
1,Aparecida de Goiânia/GO,-16.8226769,-49.2452546,97465,16194.39589
D1,Aparecida de Goiânia/GO,-16.8226769,-49.2452546,1779,295.59155
1,Aparecida do Rio Doce/GO,-18.2980167,-51.1491312,270,10913.50040
D1,Aparecida do Rio Doce/GO,-18.2980167,-51.1491312,4,161.68149
1,Aparecida do Rio Negro/TO,-9.9513491,-47.9773786,398,8120.79168
D1,Aparecida do Rio Negro/TO,-9.9513491,-47.9773786,13,265.25199
1,Aparecida do Taboado/MS,-20.0840304,-51.1013943,3660,13870.99219
D1,Aparecida do Taboado/MS,-20.0840304,-51.1013943,62,234.97309
1,Aparecida/PB,-6.7859598, -38.0831353,1075,12673.89767
D1,Aparecida/PB,-6.7859598, -38.0831353,14,165.05541
1,Aparecida/SP,-22.851552,-45.2340924,2893,7989.28502
D1,Aparecida/SP,-22.851552,-45.2340924,116,320.34465
1,Aperibé/RJ,-21.6211928,-42.1028167,1261,10476.90263
D1,Aperibé/RJ,-21.6211928,-42.1028167,32,265.86906
1,Apiacá/ES,-21.152272,-41.569297,1025,13590.55953
D1,Apiacá/ES,-21.152272,-41.569297,38,503.84513
1,Apiacás/MT,-9.5678422,-57.394852,2092,20055.60349
D1,Apiacás/MT,-9.5678422,-57.394852,18,172.56255
1,Apiaí/SP,-24.5076527,-48.8461582,1776,7375.10901
D1,Apiaí/SP,-24.5076527,-48.8461582,85,352.97537
1,Apicum-Açu/MA,-1.5279295,-45.082278,551,3133.88693
D1,Apicum-Açu/MA,-1.5279295,-45.082278,11,62.56399
1,Apiúna/SC,-27.0374658,-49.3885037,925,8446.71719
D1,Apiúna/SC,-27.0374658,-49.3885037,18,164.36855
1,Apodi/RN,-5.6631109,-37.796927,6677,18596.81373
D1,Apodi/RN,-5.6631109,-37.796927,97,270.16488
1,Aporá/BA,-11.6599747,-38.0794757,675,3783.63229
D1,Aporá/BA,-11.6599747,-38.0794757,19,106.50224
1,Aporé/GO,-18.9642193,-51.92804,481,11275.19925
D1,Aporé/GO,-18.9642193,-51.92804,11,257.85279
1,Apuarema/BA,-13.8517897,-39.7457126,777,10681.88067
D1,Apuarema/BA,-13.8517897,-39.7457126,11,151.22354
1,Apucarana/PR,-23.5525327,-51.4610764,11394,8290.28362
D1,Apucarana/PR,-23.5525327,-51.4610764,491,357.25200
1,Apuiarés/CE,-3.9460303,-39.4313298,1387,9408.49274
D1,Apuiarés/CE,-3.9460303,-39.4313298,25,169.58350
1,Apuí/AM,-7.1940195,-59.8830192,1495,6574.60750
D1,Apuí/AM,-7.1940195,-59.8830192,32,140.72738
1,Aquidabã/SE,-10.2837579,-37.0188687,2409,11052.48669
D1,Aquidabã/SE,-10.2837579,-37.0188687,40,183.51991
1,Aquidauana/MS,-20.473969,-55.7821375,5693,11815.12535
D1,Aquidauana/MS,-20.473969,-55.7821375,167,346.58808
1,Aquiraz/CE,-3.9063117,-38.387504,7103,8706.68415
D1,Aquiraz/CE,-3.9063117,-38.387504,94,115.22291
1,Arabutã/SC,-27.1587028,-52.1438142,426,9981.25586
D1,Arabutã/SC,-27.1587028,-52.1438142,10,234.30178
1,Aracaju/SE,-10.9162061,-37.0774655,128132,19049.85623
D1,Aracaju/SE,-10.9162061,-37.0774655,2431,361.42572
1,Aracati/CE,-4.558259,-37.767894,8071,10705.37988
D1,Aracati/CE,-4.558259,-37.767894,165,218.85611
1,Aracatu/BA,-14.4274236,-41.4604105,914,7052.46914
D1,Aracatu/BA,-14.4274236,-41.4604105,18,138.88889
1,Araci/BA,-11.3356065,-38.9573261,3846,7005.08169
D1,Araci/BA,-11.3356065,-38.9573261,54,98.35528
1,Aracitaba/MG,-21.3425,-43.378611,94,4571.98444
D1,Aracitaba/MG,-21.3425,-43.378611,11,535.01946
1,Aracoiaba/CE,-4.3702577,-38.8084313,4299,16161.65414
D1,Aracoiaba/CE,-4.3702577,-38.8084313,35,131.57895
1,Aracruz/ES,-19.8245218,-40.2735025,18394,17527.77725
D1,Aracruz/ES,-19.8245218,-40.2735025,245,233.46229
1,Aragarças/GO,-15.8957166,-52.2514538,3259,15967.66291
D1,Aragarças/GO,-15.8957166,-52.2514538,80,391.96472
1,Aragoiânia/GO,-16.9146388,-49.4499148,1656,15505.61798
D1,Aragoiânia/GO,-16.9146388,-49.4499148,30,280.89888
1,Aragominas/TO,-7.1654101,-48.525488,576,10096.40666
D1,Aragominas/TO,-7.1654101,-48.525488,11,192.81332
1,Araguacema/TO,-8.8067391,-49.5560969,797,11034.19632
D1,Araguacema/TO,-8.8067391,-49.5560969,18,249.20393
1,Araguaiana/MT,-15.729144,-51.834112,420,13707.57180
D1,Araguaiana/MT,-15.729144,-51.834112,8,261.09661
1,Araguainha/MT,-16.857016,-53.031778,29,3190.31903
D1,Araguainha/MT,-16.857016,-53.031778,1,110.01100
1,Araguanã/MA,-2.9508403,-45.6651986,810,5167.46411
D1,Araguanã/MA,-2.9508403,-45.6651986,5,31.89793
1,Araguanã/TO,-6.5799107,-48.6428482,591,10092.21311
D1,Araguanã/TO,-6.5799107,-48.6428482,16,273.22404
1,Araguapaz/GO,-15.0937927,-50.626417,757,9711.35343
D1,Araguapaz/GO,-15.0937927,-50.626417,30,384.86209
1,Araguari/MG,-18.6511256,-48.1933764,19941,16847.61028
D1,Araguari/MG,-18.6511256,-48.1933764,471,397.93513
1,Araguatins/TO,-5.6522925,-48.1158973,2706,7398.90083
D1,Araguatins/TO,-5.6522925,-48.1158973,74,202.33506
1,Araguaçu/TO,-12.928934,-49.823134,967,11487.28914
D1,Araguaçu/TO,-12.928934,-49.823134,22,261.34474
1,Araguaína/TO,-7.193241,-48.2018597,37812,20302.28999
D1,Araguaína/TO,-7.193241,-48.2018597,546,293.16223
1,Araioses/MA,-2.890914,-41.904993,687,1458.75358
D1,Araioses/MA,-2.890914,-41.904993,15,31.85051
1,Aral Moreira/MS,-22.951141,-55.6268421,564,4508.03293
D1,Aral Moreira/MS,-22.951141,-55.6268421,16,127.88746
1,Aramari/BA,-12.0907897,-38.4985065,694,6024.82854
D1,Aramari/BA,-12.0907897,-38.4985065,14,121.53833
1,Arambaré/RS,-30.9132252,-51.4994625,239,6743.79233
D1,Arambaré/RS,-30.9132252,-51.4994625,9,253.95034
1,Arame/MA,-4.8858769,-46.0102484,1563,4761.61462
D1,Arame/MA,-4.8858769,-46.0102484,42,127.95126
1,Aramina/SP,-20.0876144,-47.789201,368,6468.62366
D1,Aramina/SP,-20.0876144,-47.789201,18,316.40007
1,Arandu/SP,-23.1345103,-49.0545651,657,10309.11659
D1,Arandu/SP,-23.1345103,-49.0545651,21,329.51514
1,Arantina/MG,-21.911667,-44.255833,250,8996.04174
D1,Arantina/MG,-21.911667,-44.255833,6,215.90500
1,Arapeí/SP,-22.6738889,-44.4477778,271,11052.20228
D1,Arapeí/SP,-22.6738889,-44.4477778,4,163.13214
1,Arapiraca/AL,-9.754866,-36.661471,31198,13314.89614
D1,Arapiraca/AL,-9.754866,-36.661471,538,229.61133
1,Arapoema/TO,-7.6575001,-49.0641484,547,8300.45524
D1,Arapoema/TO,-7.6575001,-49.0641484,12,182.09408
1,Araponga/MG,-20.666667,-42.520556,695,8208.33825
D1,Araponga/MG,-20.666667,-42.520556,12,141.72670
1,Arapongas/PR,-23.415296,-51.42592,15011,11862.18341
D1,Arapongas/PR,-23.415296,-51.42592,582,459.91545
1,Araporã/MG,-18.4318188,-49.188313,2070,29605.26316
D1,Araporã/MG,-18.4318188,-49.188313,41,586.38444
1,Arapoti/PR,-24.1457957,-49.8224605,3291,11555.47753
D1,Arapoti/PR,-24.1457957,-49.8224605,67,235.25281
1,Araputanga/MT,-15.4710868,-58.346796,2207,12923.05891
D1,Araputanga/MT,-15.4710868,-58.346796,56,327.90725
1,Arapuá/MG,-19.034444,-46.155556,289,10190.40903
D1,Arapuá/MG,-19.034444,-46.155556,3,105.78279
1,Arapuã/PR,-24.3079525,-51.7901941,364,12334.80176
D1,Arapuã/PR,-24.3079525,-51.7901941,7,237.20773
1,Araquari/SC,-26.3703324,-48.7210994,4532,11083.39447
D1,Araquari/SC,-26.3703324,-48.7210994,89,217.65713
1,Arara/PB,-6.8271895,-35.7605703,1060,7786.67450
D1,Arara/PB,-6.8271895,-35.7605703,29,213.03166
1,Araranguá/SC,-28.9348832,-49.4858389,11371,16362.79913
D1,Araranguá/SC,-28.9348832,-49.4858389,254,365.50444
1,Araraquara/SP,-21.7886713,-48.1773096,24323,10111.74764
D1,Araraquara/SP,-21.7886713,-48.1773096,538,223.66156
1,Araras/SP,-22.3569477,-47.3838889,18513,13538.93183
D1,Araras/SP,-22.3569477,-47.3838889,401,293.25942
1,Ararendá/CE,-4.7504395,-40.8303611,1469,13375.21624
D1,Ararendá/CE,-4.7504395,-40.8303611,22,200.30957
1,Arari/MA,-3.4547602,-44.7772723,1077,3588.32545
D1,Arari/MA,-3.4547602,-44.7772723,33,109.94869
1,Araricá/RS,-29.6168543,-50.929121,1083,18544.52055
D1,Araricá/RS,-29.6168543,-50.929121,27,462.32877
1,Araripe/CE,-7.212861,-40.1359222,1386,6385.03708
D1,Araripe/CE,-7.212861,-40.1359222,23,105.95660
1,Araripina/PE,-7.5768582,-40.5038509,7990,9366.83040
D1,Araripina/PE,-7.5768582,-40.5038509,167,195.77731
1,Araruama/RJ,-22.8733203,-42.3428897,7755,5697.63939
D1,Araruama/RJ,-22.8733203,-42.3428897,492,361.47499
1,Araruna/PB,-6.5321155,-35.7397595,726,3522.56186
D1,Araruna/PB,-6.5321155,-35.7397595,17,82.48423
1,Araruna/PR,-23.9320308,-52.4976047,2194,15639.03343
D1,Araruna/PR,-23.9320308,-52.4976047,37,263.73940
1,Arataca/BA,-15.2617424,-39.4122943,791,7254.21864
D1,Arataca/BA,-15.2617424,-39.4122943,15,137.56420
1,Aratiba/RS,-27.3955734,-52.3024325,466,7583.40114
D1,Aratiba/RS,-27.3955734,-52.3024325,7,113.91375
1,Aratuba/CE,-4.4195958,-39.0463737,1690,14371.97041
D1,Aratuba/CE,-4.4195958,-39.0463737,13,110.55362
1,Aratuípe/BA,-13.077137,-39.0010786,498,5628.39060
D1,Aratuípe/BA,-13.077137,-39.0010786,12,135.62387
1,Araucária/PR,-25.5861107,-49.4051209,29539,19888.63603
D1,Araucária/PR,-25.5861107,-49.4051209,537,361.56260
1,Arauá/SE,-11.2644014,-37.6181058,1292,13130.08130
D1,Arauá/SE,-11.2644014,-37.6181058,22,223.57724
1,Araxá/MG,-19.5928536,-46.940241,15504,14302.18721
D1,Araxá/MG,-19.5928536,-46.940241,242,223.24105
1,Araçagi/PB,-6.8519969,-35.3835602,1792,10630.59856
D1,Araçagi/PB,-6.8519969,-35.3835602,25,148.30634
1,Araçariguama/SP,-23.438611,-47.061389,2215,9488.92602
D1,Araçariguama/SP,-23.438611,-47.061389,71,304.15971
1,Araçatuba/SP,-21.207992,-50.4390225,30531,15326.03785
D1,Araçatuba/SP,-21.207992,-50.4390225,933,468.34998
1,Araçaí/MG,-19.200833,-44.2475,104,4406.77966
D1,Araçaí/MG,-19.200833,-44.2475,1,42.37288
1,Araçoiaba da Serra/SP,-23.5045367,-47.6168158,3097,8751.30690
D1,Araçoiaba da Serra/SP,-23.5045367,-47.6168158,86,243.01337
1,Araçoiaba/PE,-7.7856903,-35.0898881,706,3372.18189
D1,Araçoiaba/PE,-7.7856903,-35.0898881,33,157.62323
1,Araçu/GO,-16.3561579,-49.6815269,547,15855.07246
D1,Araçu/GO,-16.3561579,-49.6815269,20,579.71014
1,Araçuaí/MG,-16.8484451,-42.0661868,2205,6005.71973
D1,Araçuaí/MG,-16.8484451,-42.0661868,54,147.07885
1,Araçás/BA,-12.2139176,-38.2026159,718,5867.45117
D1,Araçás/BA,-12.2139176,-38.2026159,17,138.92294
1,Araújos/MG,-19.948055,-45.165556,947,9944.34527
D1,Araújos/MG,-19.948055,-45.165556,14,147.01250
1,Arceburgo/MG,-21.364444,-46.939722,1289,11728.84440
D1,Arceburgo/MG,-21.364444,-46.939722,34,309.37216
1,Arco-Íris/SP,-21.7741308,-50.4668814,177,10085.47009
D1,Arco-Íris/SP,-21.7741308,-50.4668814,8,455.84046
1,Arcos/MG,-20.282223,-45.539444,6350,15618.08254
D1,Arcos/MG,-20.282223,-45.539444,140,344.33568
1,Arcoverde/PE,-8.415192,-37.057748,7304,9700.51132
D1,Arcoverde/PE,-8.415192,-37.057748,136,180.62288
1,Areado/MG,-21.3582771,-46.1476688,1265,8274.46363
D1,Areado/MG,-21.3582771,-46.1476688,33,215.85557
1,Areal/RJ,-22.2314922,-43.1056264,1659,12998.51132
D1,Areal/RJ,-22.2314922,-43.1056264,51,399.59257
1,Arealva/SP,-22.0301906,-48.9111936,1010,11656.08771
D1,Arealva/SP,-22.0301906,-48.9111936,20,230.81362
1,Areia Branca/RN,-4.9506652,-37.1263312,3120,11081.11948
D1,Areia Branca/RN,-4.9506652,-37.1263312,101,358.71573
1,Areia Branca/SE,-10.7591455,-37.3148072,2110,11208.49934
D1,Areia Branca/SE,-10.7591455,-37.3148072,49,260.29216
1,Areia de Baraúnas/PB,-7.1233949,-36.9446216,227,10783.84798
D1,Areia de Baraúnas/PB,-7.1233949,-36.9446216,7,332.54157
1,Areia/PB,-6.9680243,-35.6994783,2484,11043.43574
D1,Areia/PB,-6.9680243,-35.6994783,34,151.15814
1,Areial/PB,-7.0501306,-35.9245244,418,5925.71591
D1,Areial/PB,-7.0501306,-35.9245244,12,170.11625
1,Areias/SP,-22.5800929,-44.6975127,368,9421.40297
D1,Areias/SP,-22.5800929,-44.6975127,2,51.20328
1,Areiópolis/SP,-22.6758064,-48.6673653,1417,12667.62024
D1,Areiópolis/SP,-22.6758064,-48.6673653,23,205.61416
1,Arenápolis/MT,-14.4610369,-56.8432806,1929,20523.45994
D1,Arenápolis/MT,-14.4610369,-56.8432806,39,414.93776
1,Arenópolis/GO,-16.3859286,-51.55937,422,17140.53615
D1,Arenópolis/GO,-16.3859286,-51.55937,9,365.55646
1,Argirita/MG,-21.612761,-42.8371922,287,10704.96084
D1,Argirita/MG,-21.612761,-42.8371922,9,335.69564
1,Aricanduva/MG,-17.8678,-42.5569,162,3053.72290
1,Arinos/MG,-15.917223,-46.106111,1406,7876.75070
D1,Arinos/MG,-15.917223,-46.106111,31,173.66947
1,Aripuanã/MT,-10.175806,-59.4439663,3290,14262.79967
D1,Aripuanã/MT,-10.175806,-59.4439663,49,212.42468
1,Ariquemes/RO,-9.9076522,-63.033069,24739,22257.71044
D1,Ariquemes/RO,-9.9076522,-63.033069,510,458.84766
1,Ariranha do Ivaí/PR,-24.3834527,-51.5876772,182,8983.21816
D1,Ariranha do Ivaí/PR,-24.3834527,-51.5876772,4,197.43337
1,Ariranha/SP,-21.18716,-48.790418,1014,10293.37123
D1,Ariranha/SP,-21.18716,-48.790418,29,294.38636
1,Armazém/SC,-28.2624996,-49.0190126,1471,16634.62626
D1,Armazém/SC,-28.2624996,-49.0190126,35,395.79328
1,Armação dos Búzios/RJ,-22.7597805,-41.8875267,6098,17393.04050
D1,Armação dos Búzios/RJ,-22.7597805,-41.8875267,77,219.62350
1,Arneiroz/CE,-6.3235099,-40.1603859,669,8524.46483
D1,Arneiroz/CE,-6.3235099,-40.1603859,17,216.61570
1,Aroazes/PI,-6.1108814,-41.7886137,606,10414.16051
D1,Aroazes/PI,-6.1108814,-41.7886137,12,206.22100
1,Aroeiras do Itaim/PI,-7.2797031,-41.5629681,182,7134.45708
D1,Aroeiras do Itaim/PI,-7.2797031,-41.5629681,2,78.40063
1,Aroeiras/PB,-7.5462904,-35.7080002,2156,11299.19816
D1,Aroeiras/PB,-7.5462904,-35.7080002,18,94.33468
1,Arraial do Cabo/RJ,-22.9662839,-42.024427,943,3059.00671
D1,Arraial do Cabo/RJ,-22.9662839,-42.024427,47,152.46375
1,Arraial/PI,-6.6541632,-42.5335332,172,3649.48016
D1,Arraial/PI,-6.6541632,-42.5335332,3,63.65372
1,Arraias/TO,-12.9287788,-46.9437231,1163,11074.08113
D1,Arraias/TO,-12.9287788,-46.9437231,13,123.78595
1,Arroio Grande/RS,-32.2384246,-53.0866661,2215,12180.36844
D1,Arroio Grande/RS,-32.2384246,-53.0866661,56,307.94611
1,Arroio Trinta/SC,-26.9301976,-51.334928,636,17930.64562
D1,Arroio Trinta/SC,-26.9301976,-51.334928,14,394.69975
1,Arroio do Meio/RS,-29.4020392,-51.9444993,3218,15236.02102
D1,Arroio do Meio/RS,-29.4020392,-51.9444993,49,231.99659
1,Arroio do Padre/RS,-31.4428773,-52.4228985,269,9069.45381
D1,Arroio do Padre/RS,-31.4428773,-52.4228985,4,134.86177
1,Arroio do Sal/RS,-29.549852,-49.8874395,1310,12496.42278
D1,Arroio do Sal/RS,-29.549852,-49.8874395,40,381.57016
1,Arroio do Tigre/RS,-29.334158,-53.0888935,1292,9604.51977
D1,Arroio do Tigre/RS,-29.334158,-53.0888935,22,163.54445
1,Arroio dos Ratos/RS,-30.0894524,-51.7265541,1235,8696.57066
D1,Arroio dos Ratos/RS,-30.0894524,-51.7265541,40,281.67030
1,Artur Nogueira/SP,-22.572737,-47.172679,5594,9945.41931
D1,Artur Nogueira/SP,-22.572737,-47.172679,144,256.01365
1,Aruanã/GO,-14.9162439,-51.0715692,799,7727.27273
D1,Aruanã/GO,-14.9162439,-51.0715692,19,183.75242
1,Arujá/SP,-23.396266,-46.3175449,8673,9380.98277
D1,Arujá/SP,-23.396266,-46.3175449,339,366.67280
1,Arvoredo/SC,-27.0752908,-52.4571847,359,16113.10592
D1,Arvoredo/SC,-27.0752908,-52.4571847,5,224.41652
1,Arvorezinha/RS,-28.87369,-52.17808,923,8856.26559
D1,Arvorezinha/RS,-28.87369,-52.17808,28,268.66244
1,Arês/RN,-6.1969216,-35.1642968,1169,8047.63872
D1,Arês/RN,-6.1969216,-35.1642968,26,178.98940
1,Ascurra/SC,-26.9569975,-49.3767752,1388,17304.57549
D1,Ascurra/SC,-26.9569975,-49.3767752,13,162.07455
1,Aspásia/SP,-20.160028,-50.728046,212,11680.44077
D1,Aspásia/SP,-20.160028,-50.728046,8,440.77135
1,Assaré/CE,-6.8746791,-39.8741385,2440,10366.65675
D1,Assaré/CE,-6.8746791,-39.8741385,47,199.68560
1,Assaí/PR,-23.3736041,-50.8454929,1677,11337.20930
D1,Assaí/PR,-23.3736041,-50.8454929,58,392.10384
1,Assis Brasil/AC,-10.9409203,-69.5672108,1827,23885.47523
D1,Assis Brasil/AC,-10.9409203,-69.5672108,24,313.76651
1,Assis Chateaubriand/PR,-24.4054826,-53.5120468,5413,16252.32691
D1,Assis Chateaubriand/PR,-24.4054826,-53.5120468,131,393.32252
1,Assis/SP,-22.6620892,-50.420623,12744,12049.01293
D1,Assis/SP,-22.6620892,-50.420623,414,391.42274
1,Assunção do Piauí/PI,-5.8610212,-41.0485091,363,4607.18365
D1,Assunção do Piauí/PI,-5.8610212,-41.0485091,8,101.53573
1,Assunção/PB,-7.073396,-36.7274003,423,10400.78682
D1,Assunção/PB,-7.073396,-36.7274003,5,122.94074
1,Astolfo Dutra/MG,-21.3132636,-42.8624102,1485,10342.66611
D1,Astolfo Dutra/MG,-21.3132636,-42.8624102,28,195.01323
1,Astorga/PR,-23.2350184,-51.6647074,3768,14324.81752
D1,Astorga/PR,-23.2350184,-51.6647074,94,357.36010
1,Atalaia do Norte/AM,-4.3658547,-70.1908742,2850,13657.27430
D1,Atalaia do Norte/AM,-4.3658547,-70.1908742,10,47.92026
1,Atalaia/AL,-9.5029595,-36.0219316,1257,2644.08919
D1,Atalaia/AL,-9.5029595,-36.0219316,54,113.58856
1,Atalaia/PR,-23.1513833,-52.0529697,448,11573.23689
D1,Atalaia/PR,-23.1513833,-52.0529697,23,594.16172
1,Atalanta/SC,-27.421916,-49.778863,513,16137.15005
D1,Atalanta/SC,-27.421916,-49.778863,11,346.02076
1,Ataléia/MG,-18.04432,-41.1110524,1228,9827.14469
D1,Ataléia/MG,-18.04432,-41.1110524,10,80.02561
1,Atibaia/SP,-23.1177393,-46.5547861,12728,8755.10738
D1,Atibaia/SP,-23.1177393,-46.5547861,289,198.79211
1,Atilio Vivacqua/ES,-20.9139369,-41.1947519,1753,14286.87857
D1,Atilio Vivacqua/ES,-20.9139369,-41.1947519,31,252.64874
1,Augustinópolis/TO,-5.4662267,-47.8897519,1952,10344.46211
D1,Augustinópolis/TO,-5.4662267,-47.8897519,32,169.58135
1,Augusto Corrêa/PA,-1.0229335,-46.6404029,2046,4359.03445
D1,Augusto Corrêa/PA,-1.0229335,-46.6404029,52,110.78680
1,Augusto Pestana/RS,-28.5148413,-53.9906433,1002,15309.39649
D1,Augusto Pestana/RS,-28.5148413,-53.9906433,14,213.90374
1,Augusto de Lima/MG,-18.1092963,-44.2651945,316,6538.38196
D1,Augusto de Lima/MG,-18.1092963,-44.2651945,11,227.60190
1,Aurelino Leal/BA,-14.3167137,-39.3256107,1079,9739.14613
D1,Aurelino Leal/BA,-14.3167137,-39.3256107,34,306.88690
1,Auriflama/SP,-20.6840418,-50.5554616,2119,13835.20501
D1,Auriflama/SP,-20.6840418,-50.5554616,76,496.21311
1,Aurilândia/GO,-16.6772599,-50.4641231,382,12733.33333
D1,Aurilândia/GO,-16.6772599,-50.4641231,13,433.33333
1,Aurora do Pará/PA,-2.1323199,-47.558436,1824,5664.59627
D1,Aurora do Pará/PA,-2.1323199,-47.558436,15,46.58385
1,Aurora do Tocantins/TO,-12.71045,-46.407604,386,10133.89341
D1,Aurora do Tocantins/TO,-12.71045,-46.407604,7,183.77527
1,Aurora/CE,-6.9426019,-38.9693765,2007,8169.49566
D1,Aurora/CE,-6.9426019,-38.9693765,40,162.82004
1,Aurora/SC,-27.3166417,-49.6368502,934,16423.42184
D1,Aurora/SC,-27.3166417,-49.6368502,19,334.09531
1,Autazes/AM,-3.5833283,-59.1301518,2955,7206.43824
D1,Autazes/AM,-3.5833283,-59.1301518,95,231.67906
1,Avanhandava/SP,-21.4603331,-49.9465156,1230,8746.35569
D1,Avanhandava/SP,-21.4603331,-49.9465156,43,305.76691
1,Avaré/SP,-23.1045215,-48.9259103,11845,12904.17466
D1,Avaré/SP,-23.1045215,-48.9259103,280,305.03748
1,Avaí/SP,-22.1564662,-49.3316395,493,9017.74282
D1,Avaí/SP,-22.1564662,-49.3316395,12,219.49881
1,Aveiro/PA,-3.6049239,-55.3310742,862,5249.37580
D1,Aveiro/PA,-3.6049239,-55.3310742,14,85.25668
1,Avelino Lopes/PI,-10.1346855,-43.9489525,511,4497.84350
D1,Avelino Lopes/PI,-10.1346855,-43.9489525,19,167.23880
1,Avelinópolis/GO,-16.4672409,-49.7578661,351,14618.90879
D1,Avelinópolis/GO,-16.4672409,-49.7578661,17,708.03832
1,Axixá do Tocantins/TO,-5.612747,-47.77007,1115,11357.84863
D1,Axixá do Tocantins/TO,-5.612747,-47.77007,21,213.91464
1,Axixá/MA,-2.8379465,-44.0561053,192,1569.39676
D1,Axixá/MA,-2.8379465,-44.0561053,7,57.21759
1,Açailândia/MA,-4.9514278,-47.4844564,5857,5147.51764
D1,Açailândia/MA,-4.9514278,-47.4844564,243,213.56442
1,Açu/RN,-5.5836157,-36.9139541,8564,14578.75832
D1,Açu/RN,-5.5836157,-36.9139541,154,262.15890
1,Açucena/MG,-19.073056,-42.546666,809,8727.07659
D1,Açucena/MG,-19.073056,-42.546666,38,409.92449
1,Babaçulândia/TO,-7.2034355,-47.761613,886,8305.21185
D1,Babaçulândia/TO,-7.2034355,-47.761613,8,74.99063
1,Bacabal/MA,-4.2318132,-44.781167,5650,5376.13946
D1,Bacabal/MA,-4.2318132,-44.781167,203,193.16041
1,Bacabeira/MA,-2.9775747,-44.3155943,398,2281.32523
D1,Bacabeira/MA,-2.9775747,-44.3155943,9,51.58776
1,Bacuri/MA,-1.728894,-45.1417148,630,3364.30631
D1,Bacuri/MA,-1.728894,-45.1417148,4,21.36067
1,Bacurituba/MA,-2.7082587,-44.7381309,117,2054.07303
D1,Bacurituba/MA,-2.7082587,-44.7381309,1,17.55618
1,Bady Bassitt/SP,-20.9178969,-49.4517911,4174,23172.15344
D1,Bady Bassitt/SP,-20.9178969,-49.4517911,85,471.88142
1,Baependi/MG,-21.959162,-44.8899249,1760,9143.33212
D1,Baependi/MG,-21.959162,-44.8899249,33,171.43748
1,Bagre/PA,-1.8994498,-50.2103844,951,2974.94291
D1,Bagre/PA,-1.8994498,-50.2103844,12,37.53871
1,Bagé/RS,-31.3314264,-54.1062808,11946,9830.64237
D1,Bagé/RS,-31.3314264,-54.1062808,295,242.76239
1,Baianópolis/BA,-12.3067564,-44.5383591,983,7031.97654
D1,Baianópolis/BA,-12.3067564,-44.5383591,20,143.07175
1,Baixa Grande do Ribeiro/PI,-7.862861,-45.2113289,2669,22712.96060
D1,Baixa Grande do Ribeiro/PI,-7.862861,-45.2113289,35,297.84699
1,Baixa Grande/BA,-11.9630941,-40.1657537,1043,5104.98752
D1,Baixa Grande/BA,-11.9630941,-40.1657537,19,92.99594
1,Baixio/CE,-6.7303544,-38.7170095,719,11380.18360
D1,Baixio/CE,-6.7303544,-38.7170095,14,221.58911
1,Baixo Guandu/ES,-19.5138322,-41.0182089,4069,13015.38560
D1,Baixo Guandu/ES,-19.5138322,-41.0182089,89,284.68157
1,Baião/PA,-2.7903479,-49.6702845,819,1656.08444
D1,Baião/PA,-2.7903479,-49.6702845,38,76.83908
1,Balbinos/SP,-21.9006253,-49.3583966,371,6055.16566
D1,Balbinos/SP,-21.9006253,-49.3583966,4,65.28480
1,Baldim/MG,-19.2913568,-43.9558262,690,8868.89460
D1,Baldim/MG,-19.2913568,-43.9558262,22,282.77635
1,Baliza/GO,-16.1978119,-52.542789,538,9929.86342
D1,Baliza/GO,-16.1978119,-52.542789,11,203.02695
1,Balneário Arroio do Silva/SC,-28.9815269,-49.4189932,2228,16166.01364
D1,Balneário Arroio do Silva/SC,-28.9815269,-49.4189932,60,435.35046
1,Balneário Barra do Sul/SC,-26.459842,-48.6061471,1608,14266.70216
D1,Balneário Barra do Sul/SC,-26.459842,-48.6061471,47,416.99938
1,Balneário Camboriú/SC,-26.9924395,-48.6339782,28555,19135.27713
D1,Balneário Camboriú/SC,-26.9924395,-48.6339782,438,293.51257
1,Balneário Gaivota/SC,-29.1553098,-49.5808712,1423,12334.22900
D1,Balneário Gaivota/SC,-29.1553098,-49.5808712,39,338.04282
1,Balneário Pinhal/RS,-30.2482978,-50.234585,1195,8159.78150
D1,Balneário Pinhal/RS,-30.2482978,-50.234585,55,375.55480
1,Balneário Piçarras/SC,-26.7638889,-48.6716667,5584,22899.32335
D1,Balneário Piçarras/SC,-26.7638889,-48.6716667,64,262.45643
1,Balneário Rincão/SC,-28.8235718,-49.2241642,1560,11882.09308
D1,Balneário Rincão/SC,-28.8235718,-49.2241642,53,403.68650
1,Balsa Nova/PR,-25.5842234,-49.6312741,1775,13408.36984
D1,Balsa Nova/PR,-25.5842234,-49.6312741,36,271.94440
1,Balsas/MA,-7.53214,-46.037163,14550,15007.58115
D1,Balsas/MA,-7.53214,-46.037163,213,219.69861
1,Bambuí/MG,-20.0131996,-45.9777034,2141,8934.23469
D1,Bambuí/MG,-20.0131996,-45.9777034,33,137.70656
1,Banabuiú/CE,-5.3046404,-38.919766,2364,12908.86256
D1,Banabuiú/CE,-5.3046404,-38.919766,22,120.13324
1,Bananal/SP,-22.6828195,-44.3221095,1134,10272.66963
D1,Bananal/SP,-22.6828195,-44.3221095,4,36.23517
1,Bananeiras/PB,-6.7537682,-35.6338343,1587,7478.79359
D1,Bananeiras/PB,-6.7537682,-35.6338343,27,127.23845
1,Bandeira do Sul/MG,-21.728056,-46.385555,693,11931.81818
D1,Bandeira do Sul/MG,-21.728056,-46.385555,15,258.26446
1,Bandeira/MG,-15.884444,-40.559167,482,10173.06881
D1,Bandeira/MG,-15.884444,-40.559167,10,211.05952
1,Bandeirante/SC,-26.7677402,-53.6397596,447,17074.10237
D1,Bandeirante/SC,-26.7677402,-53.6397596,6,229.18258
1,Bandeirantes do Tocantins/TO,-7.7635698,-48.579148,543,14954.55797
D1,Bandeirantes do Tocantins/TO,-7.7635698,-48.579148,8,220.32498
1,Bandeirantes/MS,-19.9179623,-54.3646768,645,8858.67326
D1,Bandeirantes/MS,-19.9179623,-54.3646768,11,151.07815
1,Bandeirantes/PR,-23.107788,-50.370407,5379,17317.53646
D1,Bandeirantes/PR,-23.107788,-50.370407,146,470.04282
1,Bannach/PA,-7.3508505,-50.4064531,655,20222.29083
D1,Bannach/PA,-7.3508505,-50.4064531,3,92.62118
1,Banzaê/BA,-10.5827616,-38.6122305,1195,9018.18731
D1,Banzaê/BA,-10.5827616,-38.6122305,9,67.91940
1,Baraúna/PB,-6.643394,-36.2531932,723,14365.18975
D1,Baraúna/PB,-6.643394,-36.2531932,9,178.81979
1,Baraúna/RN,-5.0775002,-37.61752,1710,5873.86645
D1,Baraúna/RN,-5.0775002,-37.61752,29,99.61528
1,Barbacena/MG,-21.2254524,-43.7735087,9740,7004.12049
D1,Barbacena/MG,-21.2254524,-43.7735087,309,222.20464
1,Barbalha/CE,-7.3121067,-39.3036427,7106,11524.11534
D1,Barbalha/CE,-7.3121067,-39.3036427,177,287.04875
1,Barbosa Ferraz/PR,-24.0287182,-52.00811,1361,12058.11996
D1,Barbosa Ferraz/PR,-24.0287182,-52.00811,43,380.96926
1,Barbosa/SP,-21.265661,-49.951816,777,10315.98513
D1,Barbosa/SP,-21.265661,-49.951816,21,278.81041
1,Barcarena/PA,-1.5107945,-48.6190679,12053,9319.35392
D1,Barcarena/PA,-1.5107945,-48.6190679,241,186.34069
1,Barcelona/RN,-5.9514918,-35.9260284,266,6668.33793
D1,Barcelona/RN,-5.9514918,-35.9260284,7,175.48258
1,Barcelos/AM,-0.9729214,-62.925635,4498,16196.16880
D1,Barcelos/AM,-0.9729214,-62.925635,60,216.04494
1,Bariri/SP,-22.0746355,-48.7394852,3215,8969.42306
D1,Bariri/SP,-22.0746355,-48.7394852,133,371.05234
1,Barra Bonita/SC,-26.6526364,-53.4419581,250,15384.61538
D1,Barra Bonita/SC,-26.6526364,-53.4419581,2,123.07692
1,Barra Bonita/SP,-22.490859,-48.558349,4845,13411.76471
D1,Barra Bonita/SP,-22.490859,-48.558349,117,323.87543
1,Barra D'Alcântara/PI,-6.5209258,-42.1071089,155,3921.07260
D1,Barra D'Alcântara/PI,-6.5209258,-42.1071089,4,101.18897
1,Barra Funda/RS,-27.9230048,-53.0401045,622,24268.43543
D1,Barra Funda/RS,-27.9230048,-53.0401045,14,546.23488
1,Barra Longa/MG,-20.2833541,-43.0423516,432,8807.33945
D1,Barra Longa/MG,-20.2833541,-43.0423516,12,244.64832
1,Barra Mansa/RJ,-22.5394843,-44.1735129,36398,19649.42209
D1,Barra Mansa/RJ,-22.5394843,-44.1735129,690,372.49578
1,Barra Velha/SC,-26.6338203,-48.6835001,5083,16644.29091
D1,Barra Velha/SC,-26.6338203,-48.6835001,136,445.33220
1,Barra da Estiva/BA,-13.6269662,-41.3278287,2865,14184.57273
D1,Barra da Estiva/BA,-13.6269662,-41.3278287,33,163.38251
1,Barra de Guabiraba/PE,-8.4173522,-35.6626669,453,3095.95407
D1,Barra de Guabiraba/PE,-8.4173522,-35.6626669,17,116.18371
1,Barra de Santa Rosa/PB,-6.7218007,-36.0564638,1720,11020.69584
D1,Barra de Santa Rosa/PB,-6.7218007,-36.0564638,13,83.29596
1,Barra de Santana/PB,-7.5230865,-35.9988518,752,9018.94939
D1,Barra de Santana/PB,-7.5230865,-35.9988518,8,95.94627
1,Barra de Santo Antônio/AL,-9.4038098,-35.5117693,468,2888.71057
D1,Barra de Santo Antônio/AL,-9.4038098,-35.5117693,33,203.69113
1,Barra de São Francisco/ES,-18.7570902,-40.8916119,5528,12202.82113
D1,Barra de São Francisco/ES,-18.7570902,-40.8916119,233,514.33743
1,Barra de São Miguel/AL,-9.8261357,-35.8837777,645,7647.61679
D1,Barra de São Miguel/AL,-9.8261357,-35.8837777,8,94.85416
1,Barra de São Miguel/PB,-7.7528088,-36.3170996,736,12075.47170
D1,Barra de São Miguel/PB,-7.7528088,-36.3170996,9,147.66202
1,Barra do Bugres/MT,-15.0683712,-57.1853688,3703,10389.42820
D1,Barra do Bugres/MT,-15.0683712,-57.1853688,88,246.89973
1,Barra do Chapéu/SP,-24.472203,-49.023784,451,7783.91439
D1,Barra do Chapéu/SP,-24.472203,-49.023784,6,103.55540
1,Barra do Choça/BA,-14.8638173,-40.5761637,2332,7563.81564
D1,Barra do Choça/BA,-14.8638173,-40.5761637,36,116.76559
1,Barra do Corda/MA,-5.496823,-45.248496,5830,6558.29912
D1,Barra do Corda/MA,-5.496823,-45.248496,73,82.11935
1,Barra do Garças/MT,-15.8916033,-52.2615413,10610,17195.55282
D1,Barra do Garças/MT,-15.8916033,-52.2615413,383,620.72542
1,Barra do Guarita/RS,-27.1888016,-53.7147086,117,3582.36375
D1,Barra do Guarita/RS,-27.1888016,-53.7147086,8,244.94795
1,Barra do Jacaré/PR,-23.1151788,-50.1813945,272,9780.65444
D1,Barra do Jacaré/PR,-23.1151788,-50.1813945,7,251.70802
1,Barra do Mendes/BA,-11.8053298,-42.057037,856,6520.41438
D1,Barra do Mendes/BA,-11.8053298,-42.057037,17,129.49421
1,Barra do Ouro/TO,-7.7113784,-47.6743925,167,3573.72138
D1,Barra do Ouro/TO,-7.7113784,-47.6743925,7,149.79670
1,Barra do Piraí/RJ,-22.4703403,-43.8263256,7711,7624.16081
D1,Barra do Piraí/RJ,-22.4703403,-43.8263256,399,394.50657
1,Barra do Quaraí/RS,-30.208947,-57.5505128,608,14346.38981
D1,Barra do Quaraí/RS,-30.208947,-57.5505128,9,212.36432
1,Barra do Ribeiro/RS,-30.2930206,-51.301437,1192,8753.12087
D1,Barra do Ribeiro/RS,-30.2930206,-51.301437,53,389.19078
1,Barra do Rio Azul/RS,-27.4101581,-52.4117471,119,7341.14744
D1,Barra do Rio Azul/RS,-27.4101581,-52.4117471,1,61.69031
1,Barra do Rocha/BA,-14.2090974,-39.6004395,416,7543.06437
D1,Barra do Rocha/BA,-14.2090974,-39.6004395,7,126.92656
1,Barra do Turvo/SP,-24.756421,-48.5056942,737,9689.71864
D1,Barra do Turvo/SP,-24.756421,-48.5056942,23,302.39285
1,Barra dos Coqueiros/SE,-10.9075694,-37.0386249,7068,22481.63110
D1,Barra dos Coqueiros/SE,-10.9075694,-37.0386249,100,318.07627
1,Barra/BA,-11.0892702,-43.1420453,2278,4201.01429
D1,Barra/BA,-11.0892702,-43.1420453,66,121.71508
1,Barracão/PR,-26.252395,-53.6349576,1370,13240.55282
D1,Barracão/PR,-26.252395,-53.6349576,37,357.59157
1,Barracão/RS,-27.6728964,-51.4582928,579,11055.94806
D1,Barracão/RS,-27.6728964,-51.4582928,16,305.51843
1,Barras/PI,-4.2446153,-42.2920241,5558,11751.02541
D1,Barras/PI,-4.2446153,-42.2920241,94,198.73990
1,Barreira/CE,-4.2883361,-38.641094,1603,7057.01079
D1,Barreira/CE,-4.2883361,-38.641094,51,224.52124
1,Barreiras do Piauí/PI,-9.9224524,-45.4763776,114,3396.90107
D1,Barreiras do Piauí/PI,-9.9224524,-45.4763776,4,119.18951
1,Barreiras/BA,-12.1440031,-44.9967406,20186,12741.11291
D1,Barreiras/BA,-12.1440031,-44.9967406,331,208.92244
1,Barreirinha/AM,-2.798863,-57.067897,2511,7627.81372
D1,Barreirinha/AM,-2.798863,-57.067897,64,194.41660
1,Barreirinhas/MA,-2.7541271,-42.8259693,2664,4169.60135
D1,Barreirinhas/MA,-2.7541271,-42.8259693,46,71.99762
1,Barreiros/PE,-8.8159644,-35.1831905,816,1903.60659
D1,Barreiros/PE,-8.8159644,-35.1831905,67,156.30103
1,Barretos/SP,-20.5531437,-48.5697509,17811,14416.49264
D1,Barretos/SP,-20.5531437,-48.5697509,588,475.93609
1,Barrinha/SP,-21.1898849,-48.1550642,1710,5098.84605
D1,Barrinha/SP,-21.1898849,-48.1550642,71,211.70647
1,Barro Alto/BA,-11.7618025,-41.9094904,936,6169.66581
D1,Barro Alto/BA,-11.7618025,-41.9094904,14,92.28133
1,Barro Alto/GO,-14.9696025,-48.9190985,1763,15142.14550
D1,Barro Alto/GO,-14.9696025,-48.9190985,24,206.13244
1,Barro Duro/PI,-5.8180139,-42.5106589,733,10438.62148
D1,Barro Duro/PI,-5.8180139,-42.5106589,12,170.89148
1,Barro Preto/BA,-14.8068289,-39.4727588,657,12368.22289
D1,Barro Preto/BA,-14.8068289,-39.4727588,12,225.90361
1,Barro/CE,-7.1713587,-38.7742136,1930,8452.30796
D1,Barro/CE,-7.1713587,-38.7742136,47,205.83341
1,Barrocas/BA,-11.5165,-39.099282894736845,949,5848.99846
D1,Barrocas/BA,-11.5165,-39.099282894736845,27,166.40986
1,Barrolândia/TO,-9.837246,-48.7264346,803,14164.75569
D1,Barrolândia/TO,-9.837246,-48.7264346,20,352.79591
1,Barroquinha/CE,-3.0200371,-41.1339229,1345,8925.60887
D1,Barroquinha/CE,-3.0200371,-41.1339229,25,165.90351
1,Barros Cassal/RS,-29.094938,-52.5832366,880,7880.36178
D1,Barros Cassal/RS,-29.094938,-52.5832366,14,125.36939
1,Barroso/MG,-21.187222,-43.976111,2146,10228.30180
D1,Barroso/MG,-21.187222,-43.976111,59,281.20681
1,Barueri/SP,-23.5112184,-46.8764612,35480,12684.83826
D1,Barueri/SP,-23.5112184,-46.8764612,1163,415.79670
1,Barão de Antonina/SP,-23.6295651,-49.5632104,519,14723.40426
D1,Barão de Antonina/SP,-23.6295651,-49.5632104,11,312.05674
1,Barão de Cocais/MG,-19.9452437,-43.4870298,5005,15060.78479
D1,Barão de Cocais/MG,-19.9452437,-43.4870298,74,222.67694
1,Barão de Cotegipe/RS,-27.6214694,-52.3765316,830,12545.34462
D1,Barão de Cotegipe/RS,-27.6214694,-52.3765316,10,151.14873
1,Barão de Grajaú/MA,-6.7542591,-43.0263477,481,2528.11942
D1,Barão de Grajaú/MA,-6.7542591,-43.0263477,6,31.53579
1,Barão de Melgaço/MT,-16.195776,-55.9668049,511,6258.42009
D1,Barão de Melgaço/MT,-16.195776,-55.9668049,17,208.20576
1,Barão de Monte Alto/MG,-21.244722,-42.2375,355,6684.24026
D1,Barão de Monte Alto/MG,-21.244722,-42.2375,13,244.77500
1,Barão do Triunfo/RS,-30.3909877,-51.7375349,506,6701.98675
D1,Barão do Triunfo/RS,-30.3909877,-51.7375349,8,105.96026
1,Barão/RS,-29.372474,-51.494908,775,12435.81515
D1,Barão/RS,-29.372474,-51.494908,13,208.60077
1,Bastos/SP,-21.9222474,-50.7317727,2155,10285.41428
D1,Bastos/SP,-21.9222474,-50.7317727,50,238.64070
1,Bataguassu/MS,-21.715899,-52.422058,3498,14809.48349
D1,Bataguassu/MS,-21.715899,-52.422058,51,215.91871
1,Batalha/AL,-9.6733809,-37.1265481,1134,6149.67462
D1,Batalha/AL,-9.6733809,-37.1265481,20,108.45987
1,Batalha/PI,-4.022391,-42.0780926,1338,4964.56532
D1,Batalha/PI,-4.022391,-42.0780926,35,129.86531
1,Batatais/SP,-20.892867,-47.592149,6439,10150.06778
D1,Batatais/SP,-20.892867,-47.592149,177,279.01258
1,Batayporã/MS,-22.2976466,-53.2685608,1106,9729.06404
D1,Batayporã/MS,-22.2976466,-53.2685608,26,228.71217
1,Baturité/CE,-4.3290203,-38.8821055,4231,11711.46234
D1,Baturité/CE,-4.3290203,-38.8821055,88,243.58513
1,Bauru/SP,-22.3218102,-49.0705863,53705,14069.72906
D1,Bauru/SP,-22.3218102,-49.0705863,1241,325.11933
1,Bayeux/PB,-7.1301631,-34.936532,8900,9126.42665
D1,Bayeux/PB,-7.1301631,-34.936532,255,261.48750
1,Baía Formosa/RN,-6.3691885,-35.0063741,531,5665.20858
D1,Baía Formosa/RN,-6.3691885,-35.0063741,9,96.02048
1,Baía da Traição/PB,-6.691258,-34.9371244,1343,14602.58780
D1,Baía da Traição/PB,-6.691258,-34.9371244,12,130.47733
1,Bebedouro/SP,-20.949077,-48.479083,4907,6322.47591
D1,Bebedouro/SP,-20.949077,-48.479083,316,407.15353
1,Beberibe/CE,-4.1810469,-38.1298101,5760,10604.80530
D1,Beberibe/CE,-4.1810469,-38.1298101,131,241.18568
1,Bela Cruz/CE,-3.0529129,-40.167582,3529,10742.44315
D1,Bela Cruz/CE,-3.0529129,-40.167582,73,222.21546
1,Bela Vista da Caroba/PR,-25.8792818,-53.6672545,209,6139.83549
D1,Bela Vista da Caroba/PR,-25.8792818,-53.6672545,7,205.64042
1,Bela Vista de Goiás/GO,-16.9692949,-48.9513071,3812,12295.18772
D1,Bela Vista de Goiás/GO,-16.9692949,-48.9513071,86,277.38356
1,Bela Vista de Minas/MG,-19.8289721,-43.0973688,1026,9991.23576
D1,Bela Vista de Minas/MG,-19.8289721,-43.0973688,25,243.45116
1,Bela Vista do Maranhão/MA,-3.7416367,-45.2514192,226,1991.71587
D1,Bela Vista do Maranhão/MA,-3.7416367,-45.2514192,19,167.44514
1,Bela Vista do Paraíso/PR,-22.9948493,-51.1907996,2338,15181.81818
D1,Bela Vista do Paraíso/PR,-22.9948493,-51.1907996,77,500.00000
1,Bela Vista do Piauí/PI,-7.9716353,-41.8715061,317,7838.77349
D1,Bela Vista do Piauí/PI,-7.9716353,-41.8715061,7,173.09594
1,Bela Vista do Toldo/SC,-26.274625,-50.466354,92,1440.65142
D1,Bela Vista do Toldo/SC,-26.274625,-50.466354,5,78.29627
1,Bela Vista/MS,-22.107327,-56.5317344,1146,4613.15514
D1,Bela Vista/MS,-22.107327,-56.5317344,33,132.83955
1,Belford Roxo/RJ,-22.7667284,-43.4033603,24468,4748.86412
D1,Belford Roxo/RJ,-22.7667284,-43.4033603,956,185.54496
1,Belmiro Braga/MG,-21.9486291,-43.413564,244,7130.33314
D1,Belmiro Braga/MG,-21.9486291,-43.413564,4,116.89071
1,Belmonte/BA,-15.8630837,-38.8792845,1259,5348.34325
D1,Belmonte/BA,-15.8630837,-38.8792845,26,110.45030
1,Belmonte/SC,-26.8448262,-53.578916,359,13237.46313
D1,Belmonte/SC,-26.8448262,-53.578916,5,184.36578
1,Belo Campo/BA,-15.0338286,-41.2585109,991,5824.95739
D1,Belo Campo/BA,-15.0338286,-41.2585109,18,105.80145
1,Belo Horizonte/MG,-19.9227318,-43.9450948,291635,11523.88212
D1,Belo Horizonte/MG,-19.9227318,-43.9450948,6976,275.65485
1,Belo Jardim/PE,-8.3338293,-36.4176419,4642,6034.05693
D1,Belo Jardim/PE,-8.3338293,-36.4176419,131,170.28467
1,Belo Monte/AL,-9.8269944,-37.2787165,555,8262.61724
D1,Belo Monte/AL,-9.8269944,-37.2787165,9,133.98839
1,Belo Oriente/MG,-19.2232523,-42.4807033,2808,10294.38721
D1,Belo Oriente/MG,-19.2232523,-42.4807033,73,267.62474
1,Belo Vale/MG,-20.407778,-44.024167,1063,13764.08132
D1,Belo Vale/MG,-20.407778,-44.024167,12,155.38003
1,Belterra/PA,-2.636091,-54.937392,1738,9685.68881
D1,Belterra/PA,-2.636091,-54.937392,38,211.76995
1,Belágua/MA,-3.1604031,-43.5085052,413,5444.23939
D1,Belágua/MA,-3.1604031,-43.5085052,4,52.72871
1,Belém de Maria/PE,-8.6242497,-35.8388934,312,2563.89186
D1,Belém de Maria/PE,-8.6242497,-35.8388934,8,65.74082
1,Belém do Brejo do Cruz/PB,-6.1880727,-37.5332267,578,7857.53127
D1,Belém do Brejo do Cruz/PB,-6.1880727,-37.5332267,6,81.56607
1,Belém do Piauí/PI,-7.3767305,-40.9712156,492,13640.14416
D1,Belém do Piauí/PI,-7.3767305,-40.9712156,8,221.79096
1,Belém do São Francisco/PE,-8.7517707,-38.9625715,1054,5084.41872
D1,Belém do São Francisco/PE,-8.7517707,-38.9625715,13,62.71105
1,Belém/AL,-9.5715351,-36.492841,129,3052.53195
D1,Belém/AL,-9.5715351,-36.492841,8,189.30431
1,Belém/PA,-1.45056,-48.4682453,107032,7105.05702
D1,Belém/PA,-1.45056,-48.4682453,5151,341.93651
1,Belém/PB,-6.6967586,-35.5369626,2450,13816.04917
D1,Belém/PB,-6.6967586,-35.5369626,45,253.76417
1,Beneditinos/PI,-5.4565671,-42.3605061,1329,12682.50787
D1,Beneditinos/PI,-5.4565671,-42.3605061,40,381.71581
1,Benedito Leite/MA,-7.2173453,-44.5523331,317,5617.57930
D1,Benedito Leite/MA,-7.2173453,-44.5523331,2,35.44214
1,Benedito Novo/SC,-26.7840657,-49.3629511,1100,9246.80565
D1,Benedito Novo/SC,-26.7840657,-49.3629511,20,168.12374
1,Benevides/PA,-1.3555577,-48.252235,4194,6474.22044
D1,Benevides/PA,-1.3555577,-48.252235,106,163.63075
1,Benjamin Constant do Sul/RS,-27.5105555,-52.6007689,192,9979.20998
D1,Benjamin Constant do Sul/RS,-27.5105555,-52.6007689,2,103.95010
1,Benjamin Constant/AM,-4.3782748,-70.0290603,2813,6268.80307
D1,Benjamin Constant/AM,-4.3782748,-70.0290603,88,196.10902
1,Bento Fernandes/RN,-5.6926846,-35.8207423,182,3278.09798
D1,Bento Fernandes/RN,-5.6926846,-35.8207423,3,54.03458
1,Bento Gonçalves/RS,-29.1654014,-51.5197627,22773,18501.09676
D1,Bento Gonçalves/RS,-29.1654014,-51.5197627,402,326.59030
1,Bento de Abreu/SP,-21.2707225,-50.8120444,363,11988.11096
D1,Bento de Abreu/SP,-21.2707225,-50.8120444,5,165.12550
1,Bequimão/MA,-2.4495376,-44.7884889,283,1327.57893
D1,Bequimão/MA,-2.4495376,-44.7884889,24,112.58620
1,Berilo/MG,-16.9515764,-42.4643732,153,1295.18327
D1,Berilo/MG,-16.9515764,-42.4643732,1,8.46525
1,Berizal/MG,-15.6118785,-41.7417382,253,5279.63272
D1,Berizal/MG,-15.6118785,-41.7417382,1,20.86811
1,Bernardino Batista/PB,-6.4532173,-38.5495418,338,9465.13582
D1,Bernardino Batista/PB,-6.4532173,-38.5495418,2,56.00672
1,Bernardino de Campos/SP,-23.0140216,-49.4760724,915,8193.05158
D1,Bernardino de Campos/SP,-23.0140216,-49.4760724,32,286.53295
1,Bernardo Sayão/TO,-7.8794244,-48.8968905,651,14665.46519
D1,Bernardo Sayão/TO,-7.8794244,-48.8968905,13,292.85875
1,Bernardo do Mearim/MA,-4.6315929,-44.7617508,325,5326.12258
D1,Bernardo do Mearim/MA,-4.6315929,-44.7617508,6,98.32842
1,Bertioga/SP,-23.848568,-46.139586,6662,10070.44170
D1,Bertioga/SP,-23.848568,-46.139586,171,258.48777
1,Bertolínia/PI,-7.6372159,-43.9540611,934,16944.84761
D1,Bertolínia/PI,-7.6372159,-43.9540611,12,217.70682
1,Bertópolis/MG,-17.063333,-40.573889,497,10783.25016
D1,Bertópolis/MG,-17.063333,-40.573889,5,108.48340
1,Beruri/AM,-3.9007135,-61.3717319,2294,11188.60655
D1,Beruri/AM,-3.9007135,-61.3717319,34,165.82939
1,Betim/MG,-19.968056,-44.198333,32605,7245.16915
D1,Betim/MG,-19.968056,-44.198333,1373,305.09484
1,Betânia do Piauí/PI,-8.1460635,-40.7961387,182,2928.87029
D1,Betânia do Piauí/PI,-8.1460635,-40.7961387,3,48.27808
1,Betânia/PE,-8.2742779,-38.0351767,533,4160.48708
D1,Betânia/PE,-8.2742779,-38.0351767,17,132.69846
1,Bezerros/PE,-8.2372132,-35.7558262,4495,7373.68766
D1,Bezerros/PE,-8.2372132,-35.7558262,128,209.97375
1,Bias Fortes/MG,-21.605833,-43.756944,119,3625.83790
D1,Bias Fortes/MG,-21.605833,-43.756944,4,121.87690
1,Bicas/MG,-21.7213723,-43.0604327,1594,10908.84205
D1,Bicas/MG,-21.7213723,-43.0604327,48,328.49713
1,Biguaçu/SC,-27.4961277,-48.6542432,11956,16965.84411
D1,Biguaçu/SC,-27.4961277,-48.6542432,172,244.07203
1,Bilac/SP,-21.403962,-50.47464,957,11675.00305
D1,Bilac/SP,-21.403962,-50.47464,23,280.59046
1,Biquinhas/MG,-18.783611,-45.502222,177,7131.34569
D1,Biquinhas/MG,-18.783611,-45.502222,4,161.16035
1,Birigui/SP,-21.2908491,-50.34144,18314,14524.08521
D1,Birigui/SP,-21.2908491,-50.34144,611,484.55914
1,Biritiba Mirim/SP,-23.5697765,-46.0407456,1556,4677.58906
D1,Biritiba Mirim/SP,-23.5697765,-46.0407456,106,318.65324
1,Biritinga/BA,-11.6227908,-38.8066738,619,3871.41160
D1,Biritinga/BA,-11.6227908,-38.8066738,7,43.78010
1,Bituruna/PR,-26.161281,-51.5533319,1452,8847.72409
D1,Bituruna/PR,-26.161281,-51.5533319,22,134.05643
1,Blumenau/SC,-26.9195567,-49.0658025,64307,17550.17494
D1,Blumenau/SC,-26.9195567,-49.0658025,680,185.58040
1,Boa Esperança do Iguaçu/PR,-25.6362851,-53.2139114,194,7960.60730
1,Boa Esperança do Sul/SP,-21.9930206,-48.3917372,1746,11554.49672
D1,Boa Esperança do Sul/SP,-21.9930206,-48.3917372,21,138.97161
1,Boa Esperança/ES,-18.5395472,-40.2904088,1883,12432.32537
D1,Boa Esperança/ES,-18.5395472,-40.2904088,48,316.91536
1,Boa Esperança/MG,-21.0901253,-45.5660195,5039,12501.24045
D1,Boa Esperança/MG,-21.0901253,-45.5660195,145,359.73008
1,Boa Esperança/PR,-24.2411024,-52.7860277,498,12478.07567
D1,Boa Esperança/PR,-24.2411024,-52.7860277,17,425.95841
1,Boa Hora/PI,-4.4094627,-42.1255341,600,8761.68224
D1,Boa Hora/PI,-4.4094627,-42.1255341,7,102.21963
1,Boa Nova/BA,-14.365907,-40.2063056,1038,8621.97857
D1,Boa Nova/BA,-14.365907,-40.2063056,22,182.73943
1,Boa Ventura de São Roque/PR,-24.88177,-51.5441292,573,9033.58032
D1,Boa Ventura de São Roque/PR,-24.88177,-51.5441292,8,126.12329
1,Boa Ventura/PB,-7.4202462,-38.2156782,772,14710.36585
D1,Boa Ventura/PB,-7.4202462,-38.2156782,12,228.65854
1,Boa Viagem/CE,-5.1261877,-39.7300055,4307,7876.73738
D1,Boa Viagem/CE,-5.1261877,-39.7300055,118,215.80102
1,Boa Vista da Aparecida/PR,-25.4357216,-53.4067721,1145,15217.96917
D1,Boa Vista da Aparecida/PR,-25.4357216,-53.4067721,35,465.17810
1,Boa Vista das Missões/RS,-27.6677983,-53.3127622,260,12458.07379
D1,Boa Vista das Missões/RS,-27.6677983,-53.3127622,7,335.40968
1,Boa Vista do Buricá/RS,-27.6687782,-54.1111913,939,13989.86889
D1,Boa Vista do Buricá/RS,-27.6687782,-54.1111913,11,163.88558
1,Boa Vista do Cadeado/RS,-28.5783827,-53.8123759,227,9205.19059
D1,Boa Vista do Cadeado/RS,-28.5783827,-53.8123759,4,162.20600
1,Boa Vista do Gurupi/MA,-1.7981168,-46.3071882,15,176.59524
D1,Boa Vista do Gurupi/MA,-1.7981168,-46.3071882,4,47.09206
1,Boa Vista do Incra/RS,-28.8195551,-53.3866624,314,11948.24962
D1,Boa Vista do Incra/RS,-28.8195551,-53.3866624,4,152.20700
1,Boa Vista do Ramos/AM,-2.9716927,-57.5869819,1104,5508.98204
D1,Boa Vista do Ramos/AM,-2.9716927,-57.5869819,13,64.87026
1,Boa Vista do Sul/RS,-29.3510488,-51.6779679,336,12116.84097
D1,Boa Vista do Sul/RS,-29.3510488,-51.6779679,4,144.24811
1,Boa Vista do Tupim/BA,-12.6605988,-40.6083594,291,1573.73858
D1,Boa Vista do Tupim/BA,-12.6605988,-40.6083594,11,59.48840
1,Boa Vista/PB,-7.2620711,-36.2415161,877,12150.18011
D1,Boa Vista/PB,-7.2620711,-36.2415161,16,221.66805
1,Boa Vista/RR,2.8208478,-60.6719582,98407,22539.85996
D1,Boa Vista/RR,2.8208478,-60.6719582,1549,354.79430
1,Boca da Mata/AL,-9.6452054,-36.2116658,1989,7251.44920
D1,Boca da Mata/AL,-9.6452054,-36.2116658,46,167.70571
1,Boca do Acre/AM,-8.7553487,-67.3930873,2675,7652.03959
D1,Boca do Acre/AM,-8.7553487,-67.3930873,27,77.23554
1,Bocaina de Minas/MG,-22.167778,-44.394722,202,3970.12579
D1,Bocaina de Minas/MG,-22.167778,-44.394722,7,137.57862
1,Bocaina do Sul/SC,-27.745494,-49.942279,406,11596.68666
D1,Bocaina do Sul/SC,-27.745494,-49.942279,3,85.68980
1,Bocaina/PI,-6.9445939,-41.3224599,425,9425.59326
D1,Bocaina/PI,-6.9445939,-41.3224599,10,221.77866
1,Bocaina/SP,-22.1421831,-48.522276,1364,10850.36990
D1,Bocaina/SP,-22.1421831,-48.522276,35,278.41858
1,Bocaiúva do Sul/PR,-25.206591,-49.114131,2226,16726.78088
D1,Bocaiúva do Sul/PR,-25.206591,-49.114131,28,210.39976
1,Bocaiúva/MG,-17.1160208,-43.8122678,2916,5771.85725
D1,Bocaiúva/MG,-17.1160208,-43.8122678,70,138.55624
1,Bodocó/PE,-7.777592,-39.933797,2196,5688.38233
D1,Bodocó/PE,-7.777592,-39.933797,41,106.20386
1,Bodoquena/MS,-20.5508775,-56.6769653,610,7818.50807
D1,Bodoquena/MS,-20.5508775,-56.6769653,18,230.71007
1,Bodó/RN,-5.9866104,-36.4134824,203,9350.52971
D1,Bodó/RN,-5.9866104,-36.4134824,1,46.06172
1,Bofete/SP,-23.1019554,-48.2610535,983,8119.26984
D1,Bofete/SP,-23.1019554,-48.2610535,23,189.97274
1,Boituva/SP,-23.2838893,-47.6738231,6686,10560.73290
D1,Boituva/SP,-23.2838893,-47.6738231,192,303.26963
1,Bom Conselho/PE,-9.169191,-36.685683,2342,4782.03165
D1,Bom Conselho/PE,-9.169191,-36.685683,74,151.09750
1,Bom Despacho/MG,-19.7375242,-45.2517288,6154,11964.38292
D1,Bom Despacho/MG,-19.7375242,-45.2517288,110,213.85800
1,Bom Jardim da Serra/SC,-28.3380324,-49.625588,728,15163.50760
D1,Bom Jardim da Serra/SC,-28.3380324,-49.625588,8,166.63195
1,Bom Jardim de Goiás/GO,-16.2062659,-52.172793,1360,15260.32316
D1,Bom Jardim de Goiás/GO,-16.2062659,-52.172793,17,190.75404
1,Bom Jardim de Minas/MG,-21.9476466,-44.1906033,581,9016.13904
D1,Bom Jardim de Minas/MG,-21.9476466,-44.1906033,5,77.59156
1,Bom Jardim/MA,-3.54129,-45.606004,1496,3561.05689
D1,Bom Jardim/MA,-3.54129,-45.606004,55,130.92121
1,Bom Jardim/PE,-7.7961572,-35.5871696,1820,4545.68160
D1,Bom Jardim/PE,-7.7961572,-35.5871696,72,179.82916
1,Bom Jardim/RJ,-22.1515328,-42.4186683,2023,7282.47957
D1,Bom Jardim/RJ,-22.1515328,-42.4186683,51,183.59192
1,Bom Jesus da Lapa/BA,-13.250571,-43.410754,6238,8892.24672
D1,Bom Jesus da Lapa/BA,-13.250571,-43.410754,98,139.69865
1,Bom Jesus da Penha/MG,-21.0165299,-46.5226644,747,17494.14520
D1,Bom Jesus da Penha/MG,-21.0165299,-46.5226644,19,444.96487
1,Bom Jesus da Serra/BA,-14.3724084,-40.5047119,489,5006.14251
D1,Bom Jesus da Serra/BA,-14.3724084,-40.5047119,9,92.13759
1,Bom Jesus das Selvas/MA,-4.4878075,-46.8526639,3870,11027.21185
D1,Bom Jesus das Selvas/MA,-4.4878075,-46.8526639,38,108.27753
1,Bom Jesus de Goiás/GO,-18.2174587,-49.739721,3364,12904.21574
D1,Bom Jesus de Goiás/GO,-18.2174587,-49.739721,115,441.13698
1,Bom Jesus do Amparo/MG,-19.7045132,-43.4752911,309,4998.38240
D1,Bom Jesus do Amparo/MG,-19.7045132,-43.4752911,8,129.40796
1,Bom Jesus do Araguaia/MT,-12.1725897,-51.5074425,1098,16076.13470
D1,Bom Jesus do Araguaia/MT,-12.1725897,-51.5074425,17,248.90190
1,Bom Jesus do Galho/MG,-19.8283191,-42.3162256,810,5475.93294
D1,Bom Jesus do Galho/MG,-19.8283191,-42.3162256,35,236.61439
1,Bom Jesus do Itabapoana/RJ,-21.1341025,-41.680095,4454,11939.09827
D1,Bom Jesus do Itabapoana/RJ,-21.1341025,-41.680095,112,300.21980
1,Bom Jesus do Norte/ES,-21.1254776,-41.6711646,1278,12795.35443
D1,Bom Jesus do Norte/ES,-21.1254776,-41.6711646,30,300.36043
1,Bom Jesus do Oeste/SC,-26.6929713,-53.0967453,185,8661.04869
D1,Bom Jesus do Oeste/SC,-26.6929713,-53.0967453,6,280.89888
1,Bom Jesus do Sul/PR,-26.1922507,-53.6002033,509,14660.13825
D1,Bom Jesus do Sul/PR,-26.1922507,-53.6002033,7,201.61290
1,Bom Jesus do Tocantins/PA,-5.0471796,-48.5978362,796,4613.42297
D1,Bom Jesus do Tocantins/PA,-5.0471796,-48.5978362,26,150.68970
1,Bom Jesus do Tocantins/TO,-8.96306,-48.165043,185,3613.28125
D1,Bom Jesus do Tocantins/TO,-8.96306,-48.165043,3,58.59375
1,Bom Jesus dos Perdões/SP,-23.1353864,-46.4648052,2487,9382.78126
D1,Bom Jesus dos Perdões/SP,-23.1353864,-46.4648052,32,120.72738
1,Bom Jesus/PB,-6.8156725,-38.6551841,250,9659.96909
D1,Bom Jesus/PB,-6.8156725,-38.6551841,3,115.91963
1,Bom Jesus/PI,-9.0711644,-44.3583926,3819,14927.29831
D1,Bom Jesus/PI,-9.0711644,-44.3583926,49,191.52595
1,Bom Jesus/RN,-5.9887544,-35.5821149,998,9667.73225
D1,Bom Jesus/RN,-5.9887544,-35.5821149,19,184.05502
1,Bom Jesus/RS,-28.6692723,-50.4346894,1035,9183.67347
D1,Bom Jesus/RS,-28.6692723,-50.4346894,24,212.95475
1,Bom Jesus/SC,-26.7350604,-52.3916519,530,17074.74227
D1,Bom Jesus/SC,-26.7350604,-52.3916519,10,322.16495
1,Bom Lugar/MA,-4.3728019,-45.0366054,535,3227.16854
D1,Bom Lugar/MA,-4.3728019,-45.0366054,7,42.22464
1,Bom Princípio do Piauí/PI,-3.1912777,-41.6430185,143,2522.04586
D1,Bom Princípio do Piauí/PI,-3.1912777,-41.6430185,13,229.27690
1,Bom Princípio/RS,-29.489788,-51.3566782,2239,15499.10010
D1,Bom Princípio/RS,-29.489788,-51.3566782,34,235.35927
1,Bom Progresso/RS,-27.5490948,-53.8655601,189,10172.22820
D1,Bom Progresso/RS,-27.5490948,-53.8655601,3,161.46394
1,Bom Repouso/MG,-22.4657069,-46.1485376,1254,11912.22571
D1,Bom Repouso/MG,-22.4657069,-46.1485376,28,265.98271
1,Bom Retiro do Sul/RS,-29.6000007,-51.9359243,1137,9133.99743
D1,Bom Retiro do Sul/RS,-29.6000007,-51.9359243,38,305.26992
1,Bom Retiro/SC,-27.798993,-49.486994,915,9012.11465
D1,Bom Retiro/SC,-27.798993,-49.486994,21,206.83542
1,Bom Sucesso de Itararé/SP,-24.3190016,-49.1446207,259,6454.02442
D1,Bom Sucesso de Itararé/SP,-24.3190016,-49.1446207,6,149.51408
1,Bom Sucesso do Sul/PR,-26.0749256,-52.8348629,528,16276.20222
D1,Bom Sucesso do Sul/PR,-26.0749256,-52.8348629,9,277.43527
1,Bom Sucesso/MG,-21.0323516,-44.7598082,1290,7324.55144
D1,Bom Sucesso/MG,-21.0323516,-44.7598082,28,158.98251
1,Bom Sucesso/PB,-6.4458948,-37.9297662,526,10654.24347
D1,Bom Sucesso/PB,-6.4458948,-37.9297662,4,81.02086
1,Bom Sucesso/PR,-23.7088019,-51.7651297,1325,18654.08982
D1,Bom Sucesso/PR,-23.7088019,-51.7651297,20,281.57117
1,Bombinhas/SC,-27.1519159,-48.4875691,3786,18124.37168
D1,Bombinhas/SC,-27.1519159,-48.4875691,70,335.10460
1,Bonfim do Piauí/PI,-9.1648678,-42.8734415,508,8912.28070
D1,Bonfim do Piauí/PI,-9.1648678,-42.8734415,8,140.35088
1,Bonfim/MG,-20.3266626, -44.2386157,522,7618.21366
D1,Bonfim/MG,-20.3266626, -44.2386157,18,262.69702
1,Bonfim/RR,3.3613818,-59.8427241,2547,20053.53909
D1,Bonfim/RR,3.3613818,-59.8427241,35,275.56885
1,Bonfinópolis de Minas/MG,-16.5660011,-45.98645,634,11747.26700
D1,Bonfinópolis de Minas/MG,-16.5660011,-45.98645,14,259.40337
1,Bonfinópolis/GO,-16.6172709,-48.9615701,531,5247.03557
D1,Bonfinópolis/GO,-16.6172709,-48.9615701,34,335.96838
1,Boninal/BA,-12.7095183,-41.8299984,674,4642.51274
D1,Boninal/BA,-12.7095183,-41.8299984,9,61.99201
1,Bonito de Minas/MG,-15.3191266,-44.7544,123,1069.37924
D1,Bonito de Minas/MG,-15.3191266,-44.7544,1,8.69414
1,Bonito de Santa Fé/PB,-7.3143332,-38.5146677,574,4733.63022
D1,Bonito de Santa Fé/PB,-7.3143332,-38.5146677,14,115.45440
1,Bonito/BA,-11.9665473,-41.2649896,1092,6423.90729
D1,Bonito/BA,-11.9665473,-41.2649896,14,82.35779
1,Bonito/MS,-21.1264766,-56.4902208,3235,14441.31958
D1,Bonito/MS,-21.1264766,-56.4902208,77,343.73465
1,Bonito/PA,-1.3605722,-47.3049907,407,2427.09762
D1,Bonito/PA,-1.3605722,-47.3049907,15,89.45077
1,Bonito/PE,-8.4721161,-35.7314591,1184,3107.52999
D1,Bonito/PE,-8.4721161,-35.7314591,47,123.35634
1,Bonópolis/GO,-13.649331,-49.8329113,352,7687.26796
D1,Bonópolis/GO,-13.649331,-49.8329113,3,65.51649
1,Boqueirão do Leão/RS,-29.30332,-52.4296817,630,8191.39254
D1,Boqueirão do Leão/RS,-29.30332,-52.4296817,32,416.07073
1,Boqueirão do Piauí/PI,-4.4850148,-42.1095161,837,12990.84278
D1,Boqueirão do Piauí/PI,-4.4850148,-42.1095161,10,155.20720
1,Boqueirão/PB,-7.487004,-36.130887,2367,13198.39411
D1,Boqueirão/PB,-7.487004,-36.130887,45,250.92004
1,Boquim/SE,-11.1450175,-37.6204228,2693,9981.46775
D1,Boquim/SE,-11.1450175,-37.6204228,68,252.03855
1,Boquira/BA,-12.8184859,-42.7270883,892,4151.54054
D1,Boquira/BA,-12.8184859,-42.7270883,21,97.73806
1,Boracéia/SP,-22.195355,-48.7801925,997,20293.09994
D1,Boracéia/SP,-22.195355,-48.7801925,24,488.49990
1,Borba/AM,-4.3934778,-59.5947721,2518,5948.78095
D1,Borba/AM,-4.3934778,-59.5947721,70,165.37517
1,Borborema/PB,-6.8066718,-35.5990191,391,7362.07870
D1,Borborema/PB,-6.8066718,-35.5990191,14,263.60384
1,Borborema/SP,-21.6212706,-49.074135,1716,10541.83561
D1,Borborema/SP,-21.6212706,-49.074135,53,325.59282
1,Borda da Mata/MG,-22.274167,-46.165278,2091,10555.80797
D1,Borda da Mata/MG,-22.274167,-46.165278,57,287.74799
1,Borebi/SP,-22.5700178,-48.9714871,281,10357.53778
D1,Borebi/SP,-22.5700178,-48.9714871,4,147.43826
1,Borrazópolis/PR,-23.9393362,-51.5850786,1065,16931.63752
D1,Borrazópolis/PR,-23.9393362,-51.5850786,33,524.64229
1,Borá/SP,-22.2701088,-50.544407,127,15137.06794
D1,Borá/SP,-22.2701088,-50.544407,1,119.18951
1,Bossoroca/RS,-28.7278885,-54.9120278,501,8166.25917
D1,Bossoroca/RS,-28.7278885,-54.9120278,22,358.59821
1,Botelhos/MG,-21.65,-46.394722,1891,12668.31915
D1,Botelhos/MG,-21.65,-46.394722,34,227.77517
1,Botucatu/SP,-22.8879628,-48.4410712,18929,12643.10237
D1,Botucatu/SP,-22.8879628,-48.4410712,332,221.75022
1,Botumirim/MG,-16.862778,-43.011111,301,4809.07493
D1,Botumirim/MG,-16.862778,-43.011111,4,63.90797
1,Botuporã/BA,-13.3744752,-42.5198469,459,4567.16418
D1,Botuporã/BA,-13.3744752,-42.5198469,5,49.75124
1,Botuverá/SC,-27.200749,-49.068892,1027,19032.61675
D1,Botuverá/SC,-27.200749,-49.068892,10,185.32246
1,Bozano/RS,-28.3669953,-53.7705165,288,13720.81944
D1,Bozano/RS,-28.3669953,-53.7705165,8,381.13387
1,Braga/RS,-27.617348,-53.740514,440,13451.54387
D1,Braga/RS,-27.617348,-53.740514,10,305.71691
1,Braganey/PR,-24.8179919,-53.118506,657,12307.98052
D1,Braganey/PR,-24.8179919,-53.118506,9,168.60247
1,Bragança Paulista/SP,-22.9520235,-46.5418586,23423,13590.68386
D1,Bragança Paulista/SP,-22.9520235,-46.5418586,594,344.65552
1,Bragança/PA,-1.0573967,-46.7635406,4537,3486.72784
D1,Bragança/PA,-1.0573967,-46.7635406,177,136.02619
1,Branquinha/AL,-9.2478057,-36.0152009,731,7011.31786
D1,Branquinha/AL,-9.2478057,-36.0152009,14,134.27969
1,Brasil Novo/PA,-3.3055853,-52.539198,2799,18806.69220
D1,Brasil Novo/PA,-3.3055853,-52.539198,43,288.92024
1,Brasileira/PI,-4.131182,-41.7824969,646,7723.57724
D1,Brasileira/PI,-4.131182,-41.7824969,16,191.29603
1,Brasilândia de Minas/MG,-17.0096469,-46.0087183,1890,11150.44248
D1,Brasilândia de Minas/MG,-17.0096469,-46.0087183,28,165.19174
1,Brasilândia do Sul/PR,-24.1975793,-53.527551,431,17096.39032
D1,Brasilândia do Sul/PR,-24.1975793,-53.527551,12,476.00159
1,Brasilândia do Tocantins/TO,-8.3886619,-48.4842729,256,11526.33949
D1,Brasilândia do Tocantins/TO,-8.3886619,-48.4842729,6,270.14858
1,Brasilândia/MS,-21.255575,-52.0365617,1286,10866.07520
D1,Brasilândia/MS,-21.255575,-52.0365617,26,219.68737
1,Brasiléia/AC,-11.0010413,-68.7487894,3005,11079.15791
D1,Brasiléia/AC,-11.0010413,-68.7487894,44,162.22394
1,Brasnorte/MT,-12.1227151,-58.0050109,2278,11073.84182
D1,Brasnorte/MT,-12.1227151,-58.0050109,41,199.30971
1,Brasília de Minas/MG,-16.2075114,-44.430559,1537,4735.05853
D1,Brasília de Minas/MG,-16.2075114,-44.430559,10,30.80715
1,Brasília/DF,-15.7934036,-47.8823172,517448,16722.48390
D1,Brasília/DF,-15.7934036,-47.8823172,11013,355.90961
1,Brazabrantes/GO,-16.4291635,-49.3858216,644,16894.01889
D1,Brazabrantes/GO,-16.4291635,-49.3858216,4,104.93179
1,Brazópolis/MG,-22.4742842,-45.6165577,929,6467.55778
D1,Brazópolis/MG,-22.4742842,-45.6165577,32,222.77917
1,Braço do Norte/SC,-28.2728633,-49.1622712,9117,26584.82533
D1,Braço do Norte/SC,-28.2728633,-49.1622712,112,326.58774
1,Braço do Trombudo/SC,-27.358578,-49.882145,762,20084.34370
D1,Braço do Trombudo/SC,-27.358578,-49.882145,7,184.50185
1,Braúna/SP,-21.5015319,-50.3175246,623,10750.64711
D1,Braúna/SP,-21.5015319,-50.3175246,24,414.15013
1,Braúnas/MG,-19.055556,-42.716111,264,5573.14756
D1,Braúnas/MG,-19.055556,-42.716111,11,232.21448
1,Brejetuba/ES,-20.1465817,-41.2902303,1829,14690.76305
D1,Brejetuba/ES,-20.1465817,-41.2902303,16,128.51406
1,Brejinho de Nazaré/TO,-11.0205883,-48.5722906,693,12509.02527
D1,Brejinho de Nazaré/TO,-11.0205883,-48.5722906,17,306.85921
1,Brejinho/PE,-7.3482153,-37.28538,881,11763.92042
D1,Brejinho/PE,-7.3482153,-37.28538,21,280.41127
1,Brejinho/RN,-6.1957907,-35.3583019,1545,12001.86437
D1,Brejinho/RN,-6.1957907,-35.3583019,17,132.05935
1,Brejo Alegre/SP,-21.1671191,-50.1850393,404,13878.39231
D1,Brejo Alegre/SP,-21.1671191,-50.1850393,13,446.58193
1,Brejo Grande do Araguaia/PA,-5.7011449,-48.4037308,923,12545.87468
D1,Brejo Grande do Araguaia/PA,-5.7011449,-48.4037308,4,54.36999
1,Brejo Grande/SE,-10.4287358,-36.4667918,462,5502.62030
D1,Brejo Grande/SE,-10.4287358,-36.4667918,13,154.83564
1,Brejo Santo/CE,-7.4909841,-38.9859152,8451,16836.33828
D1,Brejo Santo/CE,-7.4909841,-38.9859152,155,308.79570
1,Brejo da Madre de Deus/PE,-8.1409718,-36.3712527,2577,4984.91179
D1,Brejo da Madre de Deus/PE,-8.1409718,-36.3712527,55,106.39121
1,Brejo de Areia/MA,-4.3316785,-45.5833334,320,3619.50006
D1,Brejo de Areia/MA,-4.3316785,-45.5833334,11,124.42031
1,Brejo do Cruz/PB,-6.32926065,-37.48746163303929,1975,13823.75586
D1,Brejo do Cruz/PB,-6.32926065,-37.48746163303929,24,167.98488
1,Brejo do Piauí/PI,-8.207583,-42.8359849,159,4157.94979
D1,Brejo do Piauí/PI,-8.207583,-42.8359849,4,104.60251
1,Brejo dos Santos/PB,-6.3769367,-37.8243125,764,11791.94320
D1,Brejo dos Santos/PB,-6.3769367,-37.8243125,8,123.47585
1,Brejo/MA,-3.6804397,-42.7529313,961,2604.33604
D1,Brejo/MA,-3.6804397,-42.7529313,20,54.20054
1,Brejolândia/BA,-12.4843845,-43.9611861,158,1480.09368
D1,Brejolândia/BA,-12.4843845,-43.9611861,11,103.04450
1,Brejão/PE,-9.029146,-36.566034,492,5478.23182
D1,Brejão/PE,-9.029146,-36.566034,9,100.21156
1,Brejões/BA,-13.1033754,-39.7909837,871,6153.30272
D1,Brejões/BA,-13.1033754,-39.7909837,12,84.77570
1,Breu Branco/PA,-3.7785073,-49.5684795,956,1393.64695
D1,Breu Branco/PA,-3.7785073,-49.5684795,54,78.72064
1,Breves/PA,-1.68036,-50.479085,4129,3959.53203
D1,Breves/PA,-1.68036,-50.479085,121,116.03376
1,Britânia/GO,-15.2427599,-51.1602061,720,12381.77128
D1,Britânia/GO,-15.2427599,-51.1602061,8,137.57524
1,Brochier/RS,-29.556766,-51.5963047,639,12451.28605
D1,Brochier/RS,-29.556766,-51.5963047,6,116.91348
1,Brodowski/SP,-20.984532,-47.657217,2865,11189.22086
D1,Brodowski/SP,-20.984532,-47.657217,78,304.62800
1,Brotas de Macaúbas/BA,-12.0019007,-42.6257506,330,3082.67165
D1,Brotas de Macaúbas/BA,-12.0019007,-42.6257506,8,74.73143
1,Brotas/SP,-22.2840884,-48.1267265,2364,9508.48685
D1,Brotas/SP,-22.2840884,-48.1267265,69,277.53198
1,Brumadinho/MG,-20.143611,-44.2,4281,10388.75946
D1,Brumadinho/MG,-20.143611,-44.2,91,220.83091
1,Brumado/BA,-14.29507325,-41.659307508575985,9769,14479.45693
D1,Brumado/BA,-14.29507325,-41.659307508575985,199,294.95465
1,Brunópolis/SC,-27.310953,-50.837585,335,14452.11389
D1,Brunópolis/SC,-27.310953,-50.837585,9,388.26575
1,Brusque/SC,-27.0964628,-48.9136323,31225,22208.86648
D1,Brusque/SC,-27.0964628,-48.9136323,326,231.86839
1,Brás Pires/MG,-20.8483109,-43.2430524,328,7708.57814
D1,Brás Pires/MG,-20.8483109,-43.2430524,8,188.01410
1,Bueno Brandão/MG,-22.441976,-46.3517971,1007,9169.55017
D1,Bueno Brandão/MG,-22.441976,-46.3517971,30,273.17429
1,Buenos Aires/PE,-7.7218931,-35.326587,398,3009.67937
D1,Buenos Aires/PE,-7.7218931,-35.326587,25,189.05021
1,Buenópolis/MG,-17.8756607,-44.1749365,305,2949.13943
D1,Buenópolis/MG,-17.8756607,-44.1749365,13,125.70102
1,Buerarema/BA,-14.9571177,-39.3008035,1433,7843.88855
D1,Buerarema/BA,-14.9571177,-39.3008035,46,251.79265
1,Bugre/MG,-19.4257687,-42.2556,373,9362.44980
D1,Bugre/MG,-19.4257687,-42.2556,13,326.30522
1,Bujari/AC,-9.8309656,-67.9520886,1147,10849.41355
D1,Bujari/AC,-9.8309656,-67.9520886,17,160.80212
1,Bujaru/PA,-1.5169239,-48.0410699,1484,4993.77461
D1,Bujaru/PA,-1.5169239,-48.0410699,40,134.60309
1,Buri/SP,-23.79849,-48.598924,2657,13251.87032
D1,Buri/SP,-23.79849,-48.598924,93,463.84040
1,Buritama/SP,-21.0664017,-50.1448077,2802,16090.50190
D1,Buritama/SP,-21.0664017,-50.1448077,77,442.17296
1,Buriti Alegre/GO,-18.1377879,-49.0404411,1208,12695.74356
D1,Buriti Alegre/GO,-18.1377879,-49.0404411,36,378.34997
1,Buriti Bravo/MA,-5.8391884,-43.8367876,1799,7498.02026
D1,Buriti Bravo/MA,-5.8391884,-43.8367876,20,83.35765
1,Buriti de Goiás/GO,-16.180644,-50.4287479,326,13230.51948
D1,Buriti de Goiás/GO,-16.180644,-50.4287479,9,365.25974
1,Buriti do Tocantins/TO,-5.3187439,-48.2256609,1275,10949.84541
D1,Buriti do Tocantins/TO,-5.3187439,-48.2256609,22,188.93851
1,Buriti dos Lopes/PI,-3.1776723,-41.8707444,1364,6877.77330
D1,Buriti dos Lopes/PI,-3.1776723,-41.8707444,35,176.48245
1,Buriti dos Montes/PI,-5.3136171,-41.0971256,718,8669.40353
D1,Buriti dos Montes/PI,-5.3136171,-41.0971256,10,120.74378
1,Buriti/MA,-3.9430944,-42.9244281,948,3278.46175
D1,Buriti/MA,-3.9430944,-42.9244281,8,27.66634
1,Buriticupu/MA,-4.3227472,-46.4516989,3856,5239.48638
D1,Buriticupu/MA,-4.3227472,-46.4516989,75,101.90910
1,Buritinópolis/GO,-14.4589282,-46.4293104,250,7640.58680
D1,Buritinópolis/GO,-14.4589282,-46.4293104,3,91.68704
1,Buritirama/BA,-10.7148421,-43.6362327,874,4089.08019
D1,Buritirama/BA,-10.7148421,-43.6362327,24,112.28595
1,Buritirana/MA,-5.5897455,-47.0148915,448,2889.76327
D1,Buritirana/MA,-5.5897455,-47.0148915,24,154.80875
1,Buritis/MG,-15.621389,-46.423889,3139,12466.73815
D1,Buritis/MG,-15.621389,-46.423889,55,218.43600
1,Buritis/RO,-10.2054937,-63.8281954,5611,13671.02795
D1,Buritis/RO,-10.2054937,-63.8281954,83,202.22693
1,Buritizal/SP,-20.1933264,-47.7097165,355,7807.34550
D1,Buritizal/SP,-20.1933264,-47.7097165,10,219.92523
1,Buritizeiro/MG,-17.3667765,-44.9647781,1769,6276.61084
D1,Buritizeiro/MG,-17.3667765,-44.9647781,40,141.92450
1,Butiá/RS,-30.1256795,-51.9692224,2540,12116.58637
D1,Butiá/RS,-30.1256795,-51.9692224,59,281.44827
1,Buíque/PE,-8.6239732,-37.157296,2627,4418.98802
D1,Buíque/PE,-8.6239732,-37.157296,48,80.74283
1,Bálsamo/SP,-20.7343722,-49.5807484,1813,19687.26246
D1,Bálsamo/SP,-20.7343722,-49.5807484,67,727.54914
0,CASO SEM LOCALIZAÇÃO DEFINIDA/BA,-13.415069300066518,-38.14174656569957,12009,80.74328
D0,CASO SEM LOCALIZAÇÃO DEFINIDA/BA,-13.415069300066518,-38.14174656569957,302,2.03052
0,CASO SEM LOCALIZAÇÃO DEFINIDA/CE,-3.3445126297392798,-38.624961942434304,10513,115.12166
0,CASO SEM LOCALIZAÇÃO DEFINIDA/ES,-20.30989267097039,-39.81745156645774,5545,137.98166
D0,CASO SEM LOCALIZAÇÃO DEFINIDA/ES,-20.30989267097039,-39.81745156645774,262,6.51960
0,CASO SEM LOCALIZAÇÃO DEFINIDA/MG,-19.97049116501593,-43.8852149072783,4266,20.15231
D0,CASO SEM LOCALIZAÇÃO DEFINIDA/MG,-19.97049116501593,-43.8852149072783,388,1.83289
0,CASO SEM LOCALIZAÇÃO DEFINIDA/MT,-15.54791153961863,-56.17143998972475,3142,90.17164
D0,CASO SEM LOCALIZAÇÃO DEFINIDA/MT,-15.54791153961863,-56.17143998972475,250,7.17470
0,CASO SEM LOCALIZAÇÃO DEFINIDA/PA,-0.09317078214359542,-48.0050231510481,681,7.91597
D0,CASO SEM LOCALIZAÇÃO DEFINIDA/PA,-0.09317078214359542,-48.0050231510481,11,0.12786
0,CASO SEM LOCALIZAÇÃO DEFINIDA/PI,-2.683810218391744,-41.470898009352254,297,9.07361
D0,CASO SEM LOCALIZAÇÃO DEFINIDA/PI,-2.683810218391744,-41.470898009352254,7,0.21386
0,CASO SEM LOCALIZAÇÃO DEFINIDA/PR,-25.69415946385943,-48.10141676336737,46127,403.42114
D0,CASO SEM LOCALIZAÇÃO DEFINIDA/PR,-25.69415946385943,-48.10141676336737,1165,10.18895
0,CASO SEM LOCALIZAÇÃO DEFINIDA/RR,2.813328208465927,-60.663338675861986,3208,529.58180
D0,CASO SEM LOCALIZAÇÃO DEFINIDA/RR,2.813328208465927,-60.663338675861986,19,3.13655
0,CASO SEM LOCALIZAÇÃO DEFINIDA/SE,-11.03002091978736,-36.89283180376513,524,22.79553
0,CASO SEM LOCALIZAÇÃO DEFINIDA/SP,-24.30968974555485,-46.21366504207253,128,0.27875
1,Caapiranga/AM,-3.3188884,-61.2096404,698,5177.27340
D1,Caapiranga/AM,-3.3188884,-61.2096404,22,163.18054
1,Caaporã/PB,-7.510234,-34.9154114,2226,10081.97835
D1,Caaporã/PB,-7.510234,-34.9154114,37,167.58005
1,Caarapó/MS,-22.6349267,-54.8240903,4166,13436.54249
D1,Caarapó/MS,-22.6349267,-54.8240903,57,183.84132
1,Caatiba/BA,-14.9782759,-40.4092325,957,15356.22593
D1,Caatiba/BA,-14.9782759,-40.4092325,15,240.69320
1,Cabaceiras do Paraguaçu/BA,-12.5377868,-39.1901339,796,4187.26986
D1,Cabaceiras do Paraguaçu/BA,-12.5377868,-39.1901339,5,26.30195
1,Cabaceiras/PB,-7.4899156,-36.2860501,469,8213.66025
D1,Cabaceiras/PB,-7.4899156,-36.2860501,4,70.05254
1,Cabeceira Grande/MG,-16.0297,-47.0906,548,7800.71174
D1,Cabeceira Grande/MG,-16.0297,-47.0906,7,99.64413
1,Cabeceiras do Piauí/PI,-4.4733665,-42.3098716,710,6653.54700
D1,Cabeceiras do Piauí/PI,-4.4733665,-42.3098716,16,149.93909
1,Cabeceiras/GO,-15.7995459,-46.9264991,562,6939.98518
D1,Cabeceiras/GO,-15.7995459,-46.9264991,18,222.27711
1,Cabedelo/PB,-6.97324,-34.8351609,9943,14250.49804
D1,Cabedelo/PB,-6.97324,-34.8351609,203,290.94349
1,Cabixi/RO,-13.4956065,-60.5424442,931,18373.79120
D1,Cabixi/RO,-13.4956065,-60.5424442,22,434.18196
1,Cabo Frio/RJ,-22.8804369,-42.0189227,18230,7788.03556
D1,Cabo Frio/RJ,-22.8804369,-42.0189227,902,385.34328
1,Cabo Verde/MG,-21.4743338,-46.3964995,831,5904.50476
D1,Cabo Verde/MG,-21.4743338,-46.3964995,10,71.05301
1,Cabo de Santo Agostinho/PE,-8.2838945,-35.0320984,10107,4794.68301
D1,Cabo de Santo Agostinho/PE,-8.2838945,-35.0320984,530,251.42792
1,Cabreúva/SP,-23.3075813,-47.1324417,5034,9845.49188
D1,Cabreúva/SP,-23.3075813,-47.1324417,142,277.72345
1,Cabrobó/PE,-8.5083701,-39.3106961,2457,7064.81109
D1,Cabrobó/PE,-8.5083701,-39.3106961,29,83.38605
1,Cabrália Paulista/SP,-22.4562909,-49.3385645,460,10895.31028
D1,Cabrália Paulista/SP,-22.4562909,-49.3385645,9,213.16911
1,Cacaulândia/RO,-10.3380043,-62.9007231,989,15680.98938
D1,Cacaulândia/RO,-10.3380043,-62.9007231,15,237.83098
1,Cacequi/RS,-29.8838059,-54.8273443,833,6777.31674
D1,Cacequi/RS,-29.8838059,-54.8273443,13,105.76845
1,Cachoeira Alta/GO,-18.7618269,-50.9432431,1957,15237.87277
D1,Cachoeira Alta/GO,-18.7618269,-50.9432431,29,225.80394
1,Cachoeira Dourada/GO,-18.4934204,-49.481062,1000,12504.68926
D1,Cachoeira Dourada/GO,-18.4934204,-49.481062,33,412.65475
1,Cachoeira Dourada/MG,-18.517136,-49.5002062,181,6654.41176
D1,Cachoeira Dourada/MG,-18.517136,-49.5002062,2,73.52941
1,Cachoeira Grande/MA,-2.9290492,-44.0573223,327,3433.43133
D1,Cachoeira Grande/MA,-2.9290492,-44.0573223,8,83.99832
1,Cachoeira Paulista/SP,-22.666498,-45.015384,2771,8191.68120
D1,Cachoeira Paulista/SP,-22.666498,-45.015384,46,135.98605
1,Cachoeira da Prata/MG,-19.524723,-44.453056,226,6312.84916
D1,Cachoeira da Prata/MG,-19.524723,-44.453056,13,363.12849
1,Cachoeira de Goiás/GO,-16.6688414,-50.6435997,136,10179.64072
D1,Cachoeira de Goiás/GO,-16.6688414,-50.6435997,5,374.25150
1,Cachoeira de Minas/MG,-22.3554043,-45.7796324,1127,9707.98518
D1,Cachoeira de Minas/MG,-22.3554043,-45.7796324,20,172.28013
1,Cachoeira de Pajeú/MG,-15.965833,-41.496666,538,5681.09820
D1,Cachoeira de Pajeú/MG,-15.965833,-41.496666,11,116.15628
1,Cachoeira do Arari/PA,-1.0143572,-48.9621089,610,2504.61917
D1,Cachoeira do Arari/PA,-1.0143572,-48.9621089,25,102.64833
1,Cachoeira do Piriá/PA,-1.7599443,-46.5446954,979,2772.82125
D1,Cachoeira do Piriá/PA,-1.7599443,-46.5446954,7,19.82610
1,Cachoeira do Sul/RS,-30.0474778,-52.8905413,11615,14242.44654
D1,Cachoeira do Sul/RS,-30.0474778,-52.8905413,209,256.27820
1,Cachoeira dos Índios/PB,-6.9259193,-38.6742159,1082,10439.98456
D1,Cachoeira dos Índios/PB,-6.9259193,-38.6742159,20,192.97569
1,Cachoeira/BA,-12.5998256,-38.9665918,1767,5249.71033
D1,Cachoeira/BA,-12.5998256,-38.9665918,32,95.07115
1,Cachoeiras de Macacu/RJ,-22.4626861,-42.6534414,3478,5830.48347
D1,Cachoeiras de Macacu/RJ,-22.4626861,-42.6534414,112,187.75565
1,Cachoeirinha/PE,-8.4906364,-36.2338963,653,3167.13551
D1,Cachoeirinha/PE,-8.4906364,-36.2338963,34,164.90445
1,Cachoeirinha/RS,-29.9493353,-51.0898927,16428,12431.89248
D1,Cachoeirinha/RS,-29.9493353,-51.0898927,483,365.51035
1,Cachoeirinha/TO,-6.118647,-47.9208885,128,5582.20672
D1,Cachoeirinha/TO,-6.118647,-47.9208885,2,87.22198
1,Cachoeiro de Itapemirim/ES,-20.848084,-41.11129,30956,14590.04958
D1,Cachoeiro de Itapemirim/ES,-20.848084,-41.11129,646,304.46996
1,Cacimba de Areia/PB,-7.1288513,-37.1575194,147,3964.40129
D1,Cacimba de Areia/PB,-7.1288513,-37.1575194,4,107.87487
1,Cacimba de Dentro/PB,-6.6425101,-35.7929304,1247,7263.09045
D1,Cacimba de Dentro/PB,-6.6425101,-35.7929304,35,203.85579
1,Cacimbas/PB,-7.2125451,-37.0593398,274,3792.38754
D1,Cacimbas/PB,-7.2125451,-37.0593398,8,110.72664
1,Cacimbinhas/AL,-9.401212,-36.991082,908,8315.01832
D1,Cacimbinhas/AL,-9.401212,-36.991082,12,109.89011
1,Cacique Doble/RS,-27.7700117,-51.6616409,636,12512.29589
D1,Cacique Doble/RS,-27.7700117,-51.6616409,12,236.08105
1,Cacoal/RO,-11.4333,-61.4420502,15767,18245.46380
D1,Cacoal/RO,-11.4333,-61.4420502,313,362.20144
1,Caconde/SP,-21.527995,-46.643659,1459,7666.43897
D1,Caconde/SP,-21.527995,-46.643659,39,204.92880
1,Caculé/BA,-14.4990734,-42.2233006,2782,11885.33345
D1,Caculé/BA,-14.4990734,-42.2233006,21,89.71675
1,Caetanos/BA,-14.3387456,-40.9085971,785,5350.69184
D1,Caetanos/BA,-14.3387456,-40.9085971,11,74.97785
1,Caetanópolis/MG,-19.2947496,-44.4138386,1179,9933.44005
D1,Caetanópolis/MG,-19.2947496,-44.4138386,21,176.93150
1,Caetité/BA,-14.0691776,-42.4852428,4061,7934.12004
D1,Caetité/BA,-14.0691776,-42.4852428,42,82.05689
1,Caeté/MG,-19.897777,-43.670278,2202,4854.06931
D1,Caeté/MG,-19.897777,-43.670278,75,165.32934
1,Caetés/PE,-8.7728788,-36.6255835,1834,6309.99484
D1,Caetés/PE,-8.7728788,-36.6255835,23,79.13298
1,Cafarnaum/BA,-11.691399,-41.468823,997,5364.54130
D1,Cafarnaum/BA,-11.691399,-41.468823,24,129.13640
1,Cafeara/PR,-22.78905,-51.714195,452,15203.49815
D1,Cafeara/PR,-22.78905,-51.714195,12,403.63269
1,Cafelândia/PR,-24.6176963,-53.3218057,2931,15604.53602
D1,Cafelândia/PR,-24.6176963,-53.3218057,38,202.31060
1,Cafelândia/SP,-21.8054355,-49.6030627,834,4654.79712
D1,Cafelândia/SP,-21.8054355,-49.6030627,50,279.06458
1,Cafezal do Sul/PR,-23.900508,-53.512418,471,11849.05660
D1,Cafezal do Sul/PR,-23.900508,-53.512418,8,201.25786
1,Caiabu/SP,-22.0143038,-51.2356597,322,7675.80453
D1,Caiabu/SP,-22.0143038,-51.2356597,8,190.70322
1,Caiana/MG,-20.695555,-41.924723,198,3545.84527
D1,Caiana/MG,-20.695555,-41.924723,7,125.35817
1,Caiapônia/GO,-16.9538779,-51.8090761,1647,8531.91048
D1,Caiapônia/GO,-16.9538779,-51.8090761,43,222.75176
1,Caibaté/RS,-28.290475,-54.645407,425,8850.47897
D1,Caibaté/RS,-28.290475,-54.645407,7,145.77259
1,Caibi/SC,-27.0751925,-53.2502133,723,11829.18848
D1,Caibi/SC,-27.0751925,-53.2502133,16,261.78010
1,Caicó/RN,-6.4594544,-37.0971911,13062,19005.90752
D1,Caicó/RN,-6.4594544,-37.0971911,165,240.08381
1,Caieiras/SP,-23.3644621,-46.7484765,9754,9374.87986
D1,Caieiras/SP,-23.3644621,-46.7484765,335,321.97916
1,Cairu/BA,-13.4860505,-39.0455744,1585,8491.37469
D1,Cairu/BA,-13.4860505,-39.0455744,17,91.07468
1,Caiuá/SP,-21.8319357,-51.9887179,420,6980.22270
D1,Caiuá/SP,-21.8319357,-51.9887179,11,182.81536
1,Caiçara do Norte/RN,-5.0645017,-36.0561226,562,8551.43031
D1,Caiçara do Norte/RN,-5.0645017,-36.0561226,12,182.59282
1,Caiçara do Rio do Vento/RN,-5.757968,-36.00089,376,10040.05340
D1,Caiçara do Rio do Vento/RN,-5.757968,-36.00089,8,213.61816
1,Caiçara/PB,-6.6146866,-35.4681434,833,11598.44055
D1,Caiçara/PB,-6.6146866,-35.4681434,14,194.93177
1,Caiçara/RS,-27.2750478,-53.4310053,740,15883.23675
D1,Caiçara/RS,-27.2750478,-53.4310053,11,236.10217
1,Cajamar/SP,-23.3561111,-46.8769444,5453,6899.56221
D1,Cajamar/SP,-23.3561111,-46.8769444,239,302.40150
1,Cajapió/MA,-2.8778715,-44.6746871,180,1599.28920
D1,Cajapió/MA,-2.8778715,-44.6746871,6,53.30964
1,Cajari/MA,-3.3213076,-45.0118757,282,1444.59813
D1,Cajari/MA,-3.3213076,-45.0118757,8,40.98151
1,Cajati/SP,-24.7272376,-48.1077914,4710,16560.59914
D1,Cajati/SP,-24.7272376,-48.1077914,105,369.18533
1,Cajazeiras do Piauí/PI,-6.794271,-42.3935024,81,2258.78416
D1,Cajazeiras do Piauí/PI,-6.794271,-42.3935024,2,55.77245
1,Cajazeiras/PB,-6.8897849,-38.5570389,11747,18772.37279
D1,Cajazeiras/PB,-6.8897849,-38.5570389,174,278.06188
1,Cajazeirinhas/PB,-6.961442,-37.7993733,212,6589.99067
D1,Cajazeirinhas/PB,-6.961442,-37.7993733,1,31.08486
1,Cajobi/SP,-20.8776238,-48.8106972,1102,10348.38952
D1,Cajobi/SP,-20.8776238,-48.8106972,32,300.49770
1,Cajueiro da Praia/PI,-2.931114,-41.340801,489,6347.35202
D1,Cajueiro da Praia/PI,-2.931114,-41.340801,20,259.60540
1,Cajueiro/AL,-9.399589,-36.1524309,644,3009.76772
D1,Cajueiro/AL,-9.399589,-36.1524309,31,144.88012
1,Cajuri/MG,-20.7901414,-42.7954489,436,11007.32138
D1,Cajuri/MG,-20.7901414,-42.7954489,7,176.72305
1,Cajuru/SP,-21.2759978,-47.3046035,1994,7492.57881
D1,Cajuru/SP,-21.2759978,-47.3046035,57,214.18104
1,Caldas Brandão/PB,-7.1027959,-35.3254676,621,10218.85799
D1,Caldas Brandão/PB,-7.1027959,-35.3254676,10,164.55488
1,Caldas Novas/GO,-17.745,-48.625,12937,13591.71281
D1,Caldas Novas/GO,-17.745,-48.625,311,326.73902
1,Caldas/MG,-21.923611,-46.386111,1041,7130.13699
D1,Caldas/MG,-21.923611,-46.386111,39,267.12329
1,Caldazinha/GO,-16.7116649,-49.0012601,445,11410.25641
D1,Caldazinha/GO,-16.7116649,-49.0012601,12,307.69231
1,Caldeirão Grande do Piauí/PI,-7.3310393,-40.6374433,551,9522.98652
D1,Caldeirão Grande do Piauí/PI,-7.3310393,-40.6374433,2,34.56619
1,Caldeirão Grande/BA,-11.0208483,-40.3041387,574,4267.02349
D1,Caldeirão Grande/BA,-11.0208483,-40.3041387,6,44.60303
1,Califórnia/PR,-23.6672543,-51.3554556,1349,15611.61903
D1,Califórnia/PR,-23.6672543,-51.3554556,39,451.33665
1,Calmon/SC,-26.6023644,-51.0992893,50,1503.75940
D1,Calmon/SC,-26.6023644,-51.0992893,7,210.52632
1,Calumbi/PE,-7.9389746,-38.1516871,836,14554.31755
D1,Calumbi/PE,-7.9389746,-38.1516871,5,87.04735
1,Calçado/PE,-8.7413446,-36.3351787,538,4898.47947
D1,Calçado/PE,-8.7413446,-36.3351787,7,63.73486
1,Calçoene/AP,2.4981757,-50.9539503,1725,15009.13600
D1,Calçoene/AP,2.4981757,-50.9539503,12,104.41138
1,Camacan/BA,-15.4166631,-39.4930088,3072,9593.10496
D1,Camacan/BA,-15.4166631,-39.4930088,88,274.80249
1,Camacho/MG,-20.625556,-45.156667,206,7256.07608
D1,Camacho/MG,-20.625556,-45.156667,2,70.44734
1,Camalaú/PB,-7.885031,-36.824191,486,8035.71429
D1,Camalaú/PB,-7.885031,-36.824191,7,115.74074
1,Camamu/BA,-13.9438142,-39.1060917,2508,7075.95080
D1,Camamu/BA,-13.9438142,-39.1060917,58,163.63842
1,Camanducaia/MG,-22.755278,-46.144444,3550,16261.27983
D1,Camanducaia/MG,-22.755278,-46.144444,72,329.80624
1,Camapuã/MS,-19.5291747,-54.0434641,933,6822.66910
D1,Camapuã/MS,-19.5291747,-54.0434641,32,234.00366
1,Camaquã/RS,-30.8524752,-51.8075619,7663,11491.16756
D1,Camaquã/RS,-30.8524752,-51.8075619,155,232.43259
1,Camaragibe/PE,-8.0213832,-34.9810768,7991,4996.09241
D1,Camaragibe/PE,-8.0213832,-34.9810768,447,279.47107
1,Camargo/RS,-28.5865661,-52.2031474,443,16109.09091
D1,Camargo/RS,-28.5865661,-52.2031474,8,290.90909
1,Camaçari/BA,-12.6998188,-38.3260762,25420,8221.00334
D1,Camaçari/BA,-12.6998188,-38.3260762,631,204.06975
1,Cambará do Sul/RS,-29.0489517,-50.145412,362,5671.31443
D1,Cambará do Sul/RS,-29.0489517,-50.145412,11,172.33276
1,Cambará/PR,-23.042273,-50.075281,3096,12108.41253
D1,Cambará/PR,-23.042273,-50.075281,65,254.21409
1,Cambira/PR,-23.600265,-51.581045,1190,14936.61353
D1,Cambira/PR,-23.600265,-51.581045,28,351.44973
1,Camboriú/SC,-27.0273601,-48.6535657,14985,17188.77253
D1,Camboriú/SC,-27.0273601,-48.6535657,185,212.20707
1,Cambuci/RJ,-21.5749919,-41.9107833,1710,11017.33136
D1,Cambuci/RJ,-21.5749919,-41.9107833,40,257.71535
1,Cambuquira/MG,-21.853056,-45.2953619,875,6830.60109
D1,Cambuquira/MG,-21.853056,-45.2953619,28,218.57923
1,Cambuí/MG,-22.6122501,-46.0572137,4238,14094.71864
D1,Cambuí/MG,-22.6122501,-46.0572137,62,206.19928
1,Cambé/PR,-23.2782035,-51.2779583,14159,13094.90779
D1,Cambé/PR,-23.2782035,-51.2779583,347,320.92189
1,Cametá/PA,-2.242949,-49.497885,10007,7106.53770
D1,Cametá/PA,-2.242949,-49.497885,278,197.42355
1,Camocim de São Félix/PE,-8.3616757,-35.7638903,650,3415.30055
D1,Camocim de São Félix/PE,-8.3616757,-35.7638903,20,105.08617
1,Camocim/CE,-2.9009918,-40.8427389,6310,9836.78114
D1,Camocim/CE,-2.9009918,-40.8427389,163,254.10386
