type,name,lat,lon,total,total_per_100k_inhabitants
1,Abadia de Goiás/GO,-16.7572644,-49.4412205,482,5494.12972
D1,Abadia de Goiás/GO,-16.7572644,-49.4412205,6,68.39166
1,Abadia dos Dourados/MG,-18.4911191,-47.4063589,63,901.41651
D1,Abadia dos Dourados/MG,-18.4911191,-47.4063589,1,14.30820
1,Abadiânia/GO,-16.1940946,-48.7067767,107,533.87885
D1,Abadiânia/GO,-16.1940946,-48.7067767,8,39.91618
1,Abaetetuba/PA,-1.721828,-48.878843,3101,1966.41682
D1,Abaetetuba/PA,-1.721828,-48.878843,114,72.29007
1,Abaeté/MG,-19.1566833,-45.4481213,47,202.26363
D1,Abaeté/MG,-19.1566833,-45.4481213,1,4.30348
1,Abaiara/CE,-7.3607808,-39.0487878,72,613.44466
D1,Abaiara/CE,-7.3607808,-39.0487878,2,17.04013
1,Abaré/BA,-8.7239913,-39.1139689,82,408.24455
1,Abatiá/PR,-23.3052967,-50.3102532,65,871.66421
1,Abaíra/BA,-13.2503296,-41.6640342,12,137.31548
1,Abdon Batista/SC,-27.612419,-51.022992,121,4721.03004
1,Abel Figueiredo/PA,-4.953001,-48.3958485,347,4667.74280
D1,Abel Figueiredo/PA,-4.953001,-48.3958485,1,13.45171
1,Abelardo Luz/SC,-26.5705893,-52.3280339,314,1753.79803
D1,Abelardo Luz/SC,-26.5705893,-52.3280339,5,27.92672
1,Abre Campo/MG,-20.2976097,-42.4764741,54,401.36762
1,Abreu e Lima/PE,-7.900719,-34.898389,812,812.08121
D1,Abreu e Lima/PE,-7.900719,-34.898389,95,95.00950
1,Abreulândia/TO,-9.6221526,-49.1558343,62,2404.03257
D1,Abreulândia/TO,-9.6221526,-49.1558343,3,116.32416
1,Acaiaca/MG,-20.3621646,-43.1444162,25,625.93891
D1,Acaiaca/MG,-20.3621646,-43.1444162,1,25.03756
1,Acajutiba/BA,-11.6609659,-38.0186381,116,765.22198
D1,Acajutiba/BA,-11.6609659,-38.0186381,3,19.79022
1,Acarape/CE,-4.2237866,-38.7071663,1617,10831.26800
D1,Acarape/CE,-4.2237866,-38.7071663,14,93.77721
1,Acaraú/CE,-2.8869514,-40.1194713,2652,4233.64889
D1,Acaraú/CE,-2.8869514,-40.1194713,57,90.99472
1,Acari/RN,-6.4364689,-36.6394777,80,718.39080
D1,Acari/RN,-6.4364689,-36.6394777,5,44.89943
1,Acará/PA,-1.961388,-48.1987043,751,1350.93810
D1,Acará/PA,-1.961388,-48.1987043,14,25.18393
1,Acauã/PI,-8.219542,-41.083059,38,536.42010
1,Acopiara/CE,-6.0936464,-39.4543204,746,1374.60844
D1,Acopiara/CE,-6.0936464,-39.4543204,32,58.96444
1,Acorizal/MT,-15.2001544,-56.3668953,168,3111.68735
D1,Acorizal/MT,-15.2001544,-56.3668953,5,92.60974
1,Acrelândia/AC,-10.0759167,-67.0526898,440,2884.11117
D1,Acrelândia/AC,-10.0759167,-67.0526898,9,58.99318
1,Acreúna/GO,-17.3959899,-50.3749031,443,1980.68497
D1,Acreúna/GO,-17.3959899,-50.3749031,11,49.18179
1,Adamantina/SP,-21.6866517,-51.0762975,304,866.88719
D1,Adamantina/SP,-21.6866517,-51.0762975,9,25.66442
1,Adelândia/GO,-16.4155077,-50.1665834,64,2543.72019
1,Adolfo/SP,-21.2356597,-49.6441918,102,2863.55980
D1,Adolfo/SP,-21.2356597,-49.6441918,3,84.22235
1,Adrianópolis/PR,-24.6557863,-48.9912769,173,2922.79101
D1,Adrianópolis/PR,-24.6557863,-48.9912769,4,67.57898
1,Adustina/BA,-10.5358875,-38.114479,85,498.82629
D1,Adustina/BA,-10.5358875,-38.114479,1,5.86854
1,Afogados da Ingazeira/PE,-7.750429,-37.6356375,545,1462.73384
D1,Afogados da Ingazeira/PE,-7.750429,-37.6356375,8,21.47132
1,Afonso Bezerra/RN,-5.4745,-36.57625071327935,132,1196.19393
D1,Afonso Bezerra/RN,-5.4745,-36.57625071327935,8,72.49660
1,Afonso Cláudio/ES,-20.077841,-41.12606,809,2645.00098
D1,Afonso Cláudio/ES,-20.077841,-41.12606,18,58.85045
1,Afonso Cunha/MA,-4.1326105,-43.3230026,151,2314.53096
D1,Afonso Cunha/MA,-4.1326105,-43.3230026,2,30.65604
1,Afrânio/PE,-8.5198919,-41.0070197,179,911.63738
D1,Afrânio/PE,-8.5198919,-41.0070197,2,10.18589
1,Afuá/PA,-0.1535664,-50.3879223,2131,5433.72941
D1,Afuá/PA,-0.1535664,-50.3879223,11,28.04835
1,Agrestina/PE,-8.4558021,-35.9442663,552,2218.20374
D1,Agrestina/PE,-8.4558021,-35.9442663,31,124.57304
1,Agricolândia/PI,-5.7967843,-42.6605131,56,1089.70617
1,Agrolândia/SC,-27.4122212,-49.8295774,167,1537.18704
D1,Agrolândia/SC,-27.4122212,-49.8295774,5,46.02356
1,Agronômica/SC,-27.2660744,-49.7104753,83,1523.49486
D1,Agronômica/SC,-27.2660744,-49.7104753,3,55.06608
1,Aguanil/MG,-20.9424533,-45.3927152,33,735.62193
D1,Aguanil/MG,-20.9424533,-45.3927152,3,66.87472
1,Aguaí/SP,-22.0592036,-46.979384,271,746.45366
D1,Aguaí/SP,-22.0592036,-46.979384,5,13.77221
1,Agudo/RS,-29.6423259,-53.2494005,16,97.19944
1,Agudos do Sul/PR,-25.9890808,-49.3328175,74,789.67026
1,Agudos/SP,-22.471162,-48.987822,538,1445.69248
D1,Agudos/SP,-22.471162,-48.987822,11,29.55877
1,Aguiar/PB,-7.0928404,-38.1727215,23,407.80142
1,Aguiarnópolis/TO,-6.5600452,-47.4721189,405,6015.14926
D1,Aguiarnópolis/TO,-6.5600452,-47.4721189,8,118.81776
1,Aimorés/MG,-19.4917754,-41.0615603,291,1156.27608
D1,Aimorés/MG,-19.4917754,-41.0615603,7,27.81420
1,Aiquara/BA,-14.126918,-39.8887574,155,3486.27980
D1,Aiquara/BA,-14.126918,-39.8887574,3,67.47638
1,Aiuaba/CE,-6.5710836,-40.1212278,28,160.92879
D1,Aiuaba/CE,-6.5710836,-40.1212278,1,5.74746
1,Aiuruoca/MG,-21.9759554,-44.6036637,3,49.97501
D1,Aiuruoca/MG,-21.9759554,-44.6036637,1,16.65834
1,Ajuricaba/RS,-28.239654,-53.7693013,43,612.18679
1,Alagoa Grande/PB,-7.0415212,-35.6285322,1176,4126.89500
D1,Alagoa Grande/PB,-7.0415212,-35.6285322,26,91.24088
1,Alagoa Nova/PB,-7.0653703,-35.76695977336711,336,1611.58809
D1,Alagoa Nova/PB,-7.0653703,-35.76695977336711,9,43.16754
1,Alagoa/MG,-22.1697202,-44.6400042,19,710.54600
1,Alagoinha do Piauí/PI,-7.0090952,-40.939675,94,1228.59757
D1,Alagoinha do Piauí/PI,-7.0090952,-40.939675,1,13.07019
1,Alagoinha/PB,-6.97063215,-35.51490901897793,981,6770.65360
D1,Alagoinha/PB,-6.97063215,-35.51490901897793,12,82.82145
1,Alagoinha/PE,-8.50355635,-36.77701174370496,188,1284.50396
D1,Alagoinha/PE,-8.50355635,-36.77701174370496,6,40.99481
1,Alagoinhas/BA,-12.133526,-38.420772,4935,3255.36294
D1,Alagoinhas/BA,-12.133526,-38.420772,61,40.23853
1,Alambari/SP,-23.550338,-47.897971,64,1062.24066
D1,Alambari/SP,-23.550338,-47.897971,1,16.59751
1,Albertina/MG,-20.66164,-43.784039,19,631.85900
D1,Albertina/MG,-20.66164,-43.784039,1,33.25574
1,Alcantil/PB,-7.7425491,-36.0609604,67,1219.95630
1,Alcinópolis/MS,-18.3264121,-53.7094463,12,224.59293
D1,Alcinópolis/MS,-18.3264121,-53.7094463,2,37.43215
1,Alcobaça/BA,-17.5215875,-39.1965474,458,2038.27325
D1,Alcobaça/BA,-17.5215875,-39.1965474,5,22.25189
1,Alcântara/MA,-2.4038956,-44.4154241,137,619.99366
D1,Alcântara/MA,-2.4038956,-44.4154241,7,31.67851
1,Alcântaras/CE,-3.586247,-40.5457641,457,3901.31467
D1,Alcântaras/CE,-3.586247,-40.5457641,4,34.14717
1,Aldeias Altas/MA,-4.6291957,-43.4708622,874,3294.13538
D1,Aldeias Altas/MA,-4.6291957,-43.4708622,4,15.07613
1,Alecrim/RS,-27.6566142,-54.7653195,16,268.90756
1,Alegre/ES,-20.7625787,-41.5318886,327,1086.95652
D1,Alegre/ES,-20.7625787,-41.5318886,17,56.50844
1,Alegrete do Piauí/PI,-7.2440138,-40.8602296,123,2502.54323
1,Alegrete/RS,-29.790166,-55.794862,533,724.29303
D1,Alegrete/RS,-29.790166,-55.794862,15,20.38348
1,Alegria/RS,-27.8332103,-54.0574959,46,1327.94457
1,Alenquer/PA,-1.946229,-54.738355,1312,2310.30657
D1,Alenquer/PA,-1.946229,-54.738355,30,52.82713
1,Alexandria/RN,-6.414779,-38.0135516,139,1023.79023
D1,Alexandria/RN,-6.414779,-38.0135516,4,29.46159
1,Alexânia/GO,-16.0834049,-48.5077803,904,3269.08473
D1,Alexânia/GO,-16.0834049,-48.5077803,12,43.39493
1,Alfenas/MG,-21.4297405,-45.9479419,683,853.79269
D1,Alfenas/MG,-21.4297405,-45.9479419,27,33.75169
1,Alfredo Chaves/ES,-20.624970400000002,-40.75006690147988,450,3081.98069
D1,Alfredo Chaves/ES,-20.624970400000002,-40.75006690147988,7,47.94192
1,Alfredo Marcondes/SP,-21.9527,-51.413956,47,1128.18051
D1,Alfredo Marcondes/SP,-21.9527,-51.413956,2,48.00768
1,Alfredo Vasconcelos/MG,-21.145833,-43.776389,17,246.12712
D1,Alfredo Vasconcelos/MG,-21.145833,-43.776389,1,14.47807
1,Alfredo Wagner/SC,-27.6961513,-49.3326734,184,1833.39976
D1,Alfredo Wagner/SC,-27.6961513,-49.3326734,1,9.96413
1,Algodão de Jandaíra/PB,-6.9040175,-36.0089879,21,818.07557
1,Alhandra/PB,-7.4304246,-34.9106103,650,3318.35818
D1,Alhandra/PB,-7.4304246,-34.9106103,17,86.78783
1,Aliança do Tocantins/TO,-11.3055927,-48.9409096,99,1836.73469
D1,Aliança do Tocantins/TO,-11.3055927,-48.9409096,1,18.55288
1,Aliança/PE,-7.60398,-35.222696,361,940.44704
D1,Aliança/PE,-7.60398,-35.222696,26,67.73303
1,Almadina/BA,-14.70466,-39.6381994,325,5948.02343
D1,Almadina/BA,-14.70466,-39.6381994,6,109.80966
1,Almas/TO,-11.5681309,-47.1702803,78,1105.59887
D1,Almas/TO,-11.5681309,-47.1702803,2,28.34869
1,Almeirim/PA,-1.5290377,-52.5788111,256,750.53505
D1,Almeirim/PA,-1.5290377,-52.5788111,18,52.77200
1,Almenara/MG,-16.1740678,-40.6904907,706,1685.12507
D1,Almenara/MG,-16.1740678,-40.6904907,10,23.86863
1,Almino Afonso/RN,-6.1544208,-37.7649018,36,760.29567
1,Almirante Tamandaré do Sul/RS,-28.1141129,-52.9134874,10,509.16497
1,Almirante Tamandaré/PR,-25.3133048,-49.2997838,1459,1229.94697
D1,Almirante Tamandaré/PR,-25.3133048,-49.2997838,43,36.24929
1,Aloândia/GO,-17.7277983,-49.4809338,51,2556.39098
D1,Aloândia/GO,-17.7277983,-49.4809338,3,150.37594
1,Alpercata/MG,-18.9803616,-41.9827637,172,2316.81034
D1,Alpercata/MG,-18.9803616,-41.9827637,5,67.34914
1,Alpestre/RS,-27.2512339,-53.0349646,37,591.24321
1,Alpinópolis/MG,-20.863611,-46.387777,75,377.77666
D1,Alpinópolis/MG,-20.863611,-46.387777,4,20.14809
1,Alta Floresta D'Oeste/RO,-11.9296917,-61.9961284,641,2793.63696
D1,Alta Floresta D'Oeste/RO,-11.9296917,-61.9961284,10,43.58248
1,Alta Floresta/MT,-9.8715018,-56.0839881,1109,2141.67085
D1,Alta Floresta/MT,-9.8715018,-56.0839881,21,40.55463
1,Altair/SP,-20.5238955,-49.0606135,35,841.34615
D1,Altair/SP,-20.5238955,-49.0606135,2,48.07692
1,Altamira do Maranhão/MA,-4.1643006,-45.4674574,270,3321.85039
D1,Altamira do Maranhão/MA,-4.1643006,-45.4674574,5,61.51575
1,Altamira do Paraná/PR,-24.799114,-52.7128633,11,566.42636
1,Altamira/PA,-3.204065,-52.209961,4042,3527.23528
D1,Altamira/PA,-3.204065,-52.209961,115,100.35429
1,Altaneira/CE,-6.9980933,-39.7385742,20,263.64355
D1,Altaneira/CE,-6.9980933,-39.7385742,1,13.18218
1,Alterosa/MG,-21.249166,-46.143055,13,89.86589
D1,Alterosa/MG,-21.249166,-46.143055,1,6.91276
1,Altinho/PE,-8.4904095,-36.0607494,470,2045.96901
D1,Altinho/PE,-8.4904095,-36.0607494,8,34.82500
1,Altinópolis/SP,-21.021364,-47.3712,204,1260.50420
D1,Altinópolis/SP,-21.021364,-47.3712,7,43.25260
1,Alto Alegre do Maranhão/MA,-4.2055693,-44.4525287,348,1286.36380
D1,Alto Alegre do Maranhão/MA,-4.2055693,-44.4525287,11,40.66092
1,Alto Alegre do Pindaré/MA,-3.6698186,-45.8462153,1383,4332.84251
D1,Alto Alegre do Pindaré/MA,-3.6698186,-45.8462153,19,59.52567
1,Alto Alegre dos Parecis/RO,-12.1314515,-61.856265,178,1344.30934
D1,Alto Alegre dos Parecis/RO,-12.1314515,-61.856265,7,52.86610
1,Alto Alegre/RR,2.98858,-61.307167,590,3803.99742
D1,Alto Alegre/RR,2.98858,-61.307167,14,90.26435
1,Alto Alegre/RS,-31.780844700000003,-52.81311114489171,11,671.55067
1,Alto Alegre/SP,-21.5820592,-50.1661976,60,1463.77165
D1,Alto Alegre/SP,-21.5820592,-50.1661976,2,48.79239
1,Alto Araguaia/MT,-17.3156528,-53.2169365,296,1554.29532
D1,Alto Araguaia/MT,-17.3156528,-53.2169365,3,15.75299
1,Alto Bela Vista/SC,-27.4320737,-51.905771,20,1032.52452
1,Alto Boa Vista/MT,-11.6723985,-51.3744431,81,1187.33509
D1,Alto Boa Vista/MT,-11.6723985,-51.3744431,3,43.97537
1,Alto Caparaó/MG,-20.4405661,-41.8683799,13,222.33624
1,Alto Feliz/RS,-29.3785943,-51.3123751,29,957.72787
1,Alto Garças/MT,-16.9469683,-53.529427,236,1961.76226
D1,Alto Garças/MT,-16.9469683,-53.529427,9,74.81297
1,Alto Horizonte/GO,-14.1954948,-49.3366993,141,2198.31618
D1,Alto Horizonte/GO,-14.1954948,-49.3366993,1,15.59089
1,Alto Jequitibá/MG,-20.423611,-41.966111,62,745.46110
D1,Alto Jequitibá/MG,-20.423611,-41.966111,3,36.07070
1,Alto Longá/PI,-5.2549051,-42.2072388,144,1006.71141
D1,Alto Longá/PI,-5.2549051,-42.2072388,5,34.95526
1,Alto Paraguai/MT,-14.513712,-56.4936374,188,1655.51250
D1,Alto Paraguai/MT,-14.513712,-56.4936374,5,44.02959
1,Alto Paraná/PR,-23.131247,-52.318893,70,473.93365
1,Alto Paraíso de Goiás/GO,-14.1304779,-47.5100161,140,1836.30640
1,Alto Paraíso/PR,-23.508137,-53.728537,5,182.41518
1,Alto Paraíso/RO,-9.7240103,-63.3188123,331,1544.70786
D1,Alto Paraíso/RO,-9.7240103,-63.3188123,7,32.66754
1,Alto Parnaíba/MA,-9.112506,-45.9310154,270,2412.86863
D1,Alto Parnaíba/MA,-9.112506,-45.9310154,2,17.87310
1,Alto Piquiri/PR,-24.0239021,-53.4417448,110,1118.34079
D1,Alto Piquiri/PR,-24.0239021,-53.4417448,4,40.66694
1,Alto Rio Doce/MG,-21.0239537,-43.4133507,61,554.54545
D1,Alto Rio Doce/MG,-21.0239537,-43.4133507,1,9.09091
1,Alto Rio Novo/ES,-19.0577208,-41.0171518,170,2169.47422
D1,Alto Rio Novo/ES,-19.0577208,-41.0171518,9,114.85452
1,Alto Santo/CE,-5.5190371,-38.2719351,387,2257.08620
D1,Alto Santo/CE,-5.5190371,-38.2719351,7,40.82585
1,Alto Taquari/MT,-17.8269099,-53.2831736,221,2037.42970
D1,Alto Taquari/MT,-17.8269099,-53.2831736,5,46.09569
1,Alto do Rodrigues/RN,-5.290868,-36.7616726,357,2457.15466
D1,Alto do Rodrigues/RN,-5.290868,-36.7616726,16,110.12458
1,Altos/PI,-5.0393915,-42.4611694,1313,3240.05528
D1,Altos/PI,-5.0393915,-42.4611694,19,46.88580
1,Altônia/PR,-23.8722004,-53.894037,174,788.90098
D1,Altônia/PR,-23.8722004,-53.894037,2,9.06783
1,Alumínio/SP,-23.5203479,-47.2575256,183,982.39210
D1,Alumínio/SP,-23.5203479,-47.2575256,6,32.20958
1,Alvarenga/MG,-19.4175,-41.728334,129,3301.76606
D1,Alvarenga/MG,-19.4175,-41.728334,1,25.59509
1,Alvarães/AM,-3.214786,-64.8143124,1209,7536.93660
D1,Alvarães/AM,-3.214786,-64.8143124,13,81.04233
1,Alvinlândia/SP,-22.4431852,-49.7643596,24,744.87896
1,Alvinópolis/MG,-20.1105199,-43.0601805,62,407.81425
D1,Alvinópolis/MG,-20.1105199,-43.0601805,1,6.57765
1,Alvorada D'Oeste/RO,-11.346271,-62.284697,117,811.87981
D1,Alvorada D'Oeste/RO,-11.346271,-62.284697,5,34.69572
1,Alvorada de Minas/MG,-18.7318587,-43.3641479,51,1414.30948
D1,Alvorada de Minas/MG,-18.7318587,-43.3641479,1,27.73156
1,Alvorada do Gurguéia/PI,-8.4465288,-43.8655915,42,775.05075
D1,Alvorada do Gurguéia/PI,-8.4465288,-43.8655915,2,36.90718
1,Alvorada do Norte/GO,-14.483911,-46.4959897,165,1905.31178
D1,Alvorada do Norte/GO,-14.483911,-46.4959897,1,11.54734
1,Alvorada do Sul/PR,-22.7807269,-51.2307721,54,473.43503
D1,Alvorada do Sul/PR,-22.7807269,-51.2307721,4,35.06926
1,Alvorada/RS,-29.9981184,-51.0772509,3051,1450.75010
D1,Alvorada/RS,-29.9981184,-51.0772509,112,53.25599
1,Alvorada/TO,-12.478465,-49.124926,483,5741.79743
D1,Alvorada/TO,-12.478465,-49.124926,6,71.32668
1,Além Paraíba/MG,-21.8760576,-42.6810473,385,1088.73932
D1,Além Paraíba/MG,-21.8760576,-42.6810473,12,33.93473
1,Amajari/RR,3.6523869,-61.4194315,334,2610.19068
D1,Amajari/RR,3.6523869,-61.4194315,8,62.51954
1,Amambai/MS,-23.1082701,-55.2284854,176,446.74586
D1,Amambai/MS,-23.1082701,-55.2284854,4,10.15332
1,Amaporã/PR,-23.094272,-52.786597,24,383.57040
1,Amapá do Maranhão/MA,-1.6762114,-46.0109669,3,43.09107
1,Amapá/AP,2.0529997,-50.7930003,532,5840.37765
D1,Amapá/AP,2.0529997,-50.7930003,4,43.91261
1,Amaraji/PE,-8.373925,-35.4536527,162,709.62372
D1,Amaraji/PE,-8.373925,-35.4536527,23,100.74905
1,Amaral Ferrador/RS,-30.8750633,-52.2542051,28,398.23638
D1,Amaral Ferrador/RS,-30.8750633,-52.2542051,1,14.22273
1,Amaralina/GO,-13.9236199,-49.2962411,5,131.16474
1,Amarante do Maranhão/MA,-5.56913,-46.747284,923,2227.58537
D1,Amarante do Maranhão/MA,-5.56913,-46.747284,18,43.44153
1,Amarante/PI,-6.2459374,-42.8476238,317,1801.34106
D1,Amarante/PI,-6.2459374,-42.8476238,6,34.09478
1,Amargosa/BA,-13.03793715,-39.60796443875596,329,883.43492
D1,Amargosa/BA,-13.03793715,-39.60796443875596,8,21.48170
1,Amaturá/AM,-3.3640509,-68.1994689,669,5799.23717
D1,Amaturá/AM,-3.3640509,-68.1994689,9,78.01664
1,Americana/SP,-22.7392463,-47.3306032,4442,1853.94642
D1,Americana/SP,-22.7392463,-47.3306032,136,56.76198
1,Americano do Brasil/GO,-16.2515808,-49.9806104,130,2127.31141
D1,Americano do Brasil/GO,-16.2515808,-49.9806104,3,49.09180
1,Ametista do Sul/RS,-27.3617341,-53.1826575,66,890.80848
1,Amontada/CE,-3.3634586,-39.8284791,804,1850.31759
D1,Amontada/CE,-3.3634586,-39.8284791,20,46.02780
1,Amorinópolis/GO,-16.6211308,-51.0949921,32,1023.67242
1,Amparo de São Francisco/SE,-10.1299754,-36.9269099,72,3032.85594
1,Amparo do Serra/MG,-20.5070255,-42.8028462,11,233.39699
1,Amparo/PB,-7.56394725,-37.04652873235175,18,804.28954
1,Amparo/SP,-22.70111,-46.76444,792,1097.02888
D1,Amparo/SP,-22.70111,-46.76444,23,31.85816
1,Ampére/PR,-25.9168712,-53.4742414,92,480.36759
D1,Ampére/PR,-25.9168712,-53.4742414,2,10.44277
1,Amélia Rodrigues/BA,-12.4015388,-38.7516971,344,1370.40873
D1,Amélia Rodrigues/BA,-12.4015388,-38.7516971,4,15.93499
1,América Dourada/BA,-11.4515262,-41.4357517,92,571.64161
1,Américo Brasiliense/SP,-21.7297099,-48.1052092,471,1162.84811
D1,Américo Brasiliense/SP,-21.7297099,-48.1052092,9,22.22003
1,Américo de Campos/SP,-20.298476,-49.735904,272,4556.87720
D1,Américo de Campos/SP,-20.298476,-49.735904,8,134.02580
1,Anadia/AL,-9.6830208,-36.3052699,461,2627.52921
D1,Anadia/AL,-9.6830208,-36.3052699,7,39.89741
1,Anagé/BA,-14.6134669,-41.1376308,93,422.63122
D1,Anagé/BA,-14.6134669,-41.1376308,3,13.63327
1,Anahy/PR,-24.6450861,-53.1337957,27,963.94145
1,Anajatuba/MA,-3.26441,-44.6179916,332,1238.66731
D1,Anajatuba/MA,-3.26441,-44.6179916,8,29.84741
1,Anajás/PA,-0.9878802,-49.9390114,556,1899.10168
D1,Anajás/PA,-0.9878802,-49.9390114,12,40.98781
1,Analândia/SP,-22.128917,-47.661939,34,680.68068
D1,Analândia/SP,-22.128917,-47.661939,1,20.02002
1,Anamã/AM,-3.5797356,-61.4049996,738,5420.89026
1,Ananindeua/PA,-1.374035,-48.4016623,7090,1336.22818
D1,Ananindeua/PA,-1.374035,-48.4016623,356,67.09411
1,Ananás/TO,-6.3663053,-48.080238,227,2377.21227
D1,Ananás/TO,-6.3663053,-48.080238,6,62.83380
1,Anapu/PA,-3.4668292,-51.2057035,923,3309.42990
D1,Anapu/PA,-3.4668292,-51.2057035,21,75.29580
1,Anapurus/MA,-3.6751298,-43.1046001,710,4513.09433
D1,Anapurus/MA,-3.6751298,-43.1046001,6,38.13883
1,Anastácio/MS,-20.4832458,-55.8048448,516,2052.91426
D1,Anastácio/MS,-20.4832458,-55.8048448,15,59.67774
1,Anaurilândia/MS,-22.185169,-52.719056,30,332.04206
1,Anchieta/ES,-20.8057672,-40.6454564,830,2836.34624
D1,Anchieta/ES,-20.8057672,-40.6454564,20,68.34569
1,Anchieta/SC,-26.5350527,-53.3293938,31,549.84037
D1,Anchieta/SC,-26.5350527,-53.3293938,1,17.73679
1,Andaraí/BA,-12.8059674,-41.3322919,35,266.30145
1,Andirá/PR,-23.0494761,-50.2310027,223,1113.27442
D1,Andirá/PR,-23.0494761,-50.2310027,3,14.97679
1,Andorinha/BA,-10.3445708,-39.8334411,63,431.65468
D1,Andorinha/BA,-10.3445708,-39.8334411,2,13.70332
1,Andradas/MG,-22.0680484,-46.5688976,255,620.78535
D1,Andradas/MG,-22.0680484,-46.5688976,8,19.47562
1,Andradina/SP,-20.896505,-51.3742765,630,1102.22720
D1,Andradina/SP,-20.896505,-51.3742765,11,19.24524
1,Andrelândia/MG,-21.739722,-44.308889,67,548.10209
1,André da Rocha/RS,-28.6309124,-51.5733328,19,1425.35634
1,Angatuba/SP,-23.4938938,-48.4110675,276,1094.02251
D1,Angatuba/SP,-23.4938938,-48.4110675,6,23.78310
1,Angelim/PE,-8.8902038,-36.2872987,68,609.86547
D1,Angelim/PE,-8.8902038,-36.2872987,2,17.93722
1,Angelina/SC,-27.5805287,-48.9838759,90,1874.60946
1,Angelândia/MG,-17.7253,-42.2728,14,164.31925
1,Angical do Piauí/PI,-6.0872666,-42.7366138,94,1384.79670
D1,Angical do Piauí/PI,-6.0872666,-42.7366138,3,44.19564
1,Angical/BA,-12.005623,-44.7000236,125,894.32639
D1,Angical/BA,-12.005623,-44.7000236,2,14.30922
1,Angico/TO,-6.3893733,-47.8656722,52,1514.71017
1,Angicos/RN,-5.6666344,-36.6009064,95,810.99539
D1,Angicos/RN,-5.6666344,-36.6009064,4,34.14717
1,Angra dos Reis/RJ,-23.0063966,-44.316326,5065,2485.46262
D1,Angra dos Reis/RJ,-23.0063966,-44.316326,168,82.43983
1,Anguera/BA,-12.1509425,-39.2452469,60,534.71170
1,Angélica/MS,-22.1588196,-53.7728504,73,677.17996
D1,Angélica/MS,-22.1588196,-53.7728504,3,27.82931
1,Anhanguera/GO,-18.3338749,-48.220363,14,1218.45083
D1,Anhanguera/GO,-18.3338749,-48.220363,3,261.09661
1,Anhembi/SP,-22.7891096,-48.1316776,15,223.08150
1,Anhumas/SP,-22.2956478,-51.3873401,46,1117.86148
1,Anicuns/GO,-16.4606451,-49.9572265,587,2686.49886
D1,Anicuns/GO,-16.4606451,-49.9572265,8,36.61327
1,Anita Garibaldi/SC,-27.6855032,-51.1293873,238,3336.60451
D1,Anita Garibaldi/SC,-27.6855032,-51.1293873,1,14.01935
1,Anitápolis/SC,-27.9041185,-49.1287395,55,1701.73267
1,Anori/AM,-3.7435254,-61.6605203,755,3593.52689
D1,Anori/AM,-3.7435254,-61.6605203,11,52.35602
1,Anta Gorda/RS,-28.9718745,-52.0069187,71,1187.09246
1,Antas/BA,-10.4114649,-38.3308815,221,1145.61194
1,Antonina do Norte/CE,-6.7754187,-39.9879345,38,516.79587
1,Antonina/PR,-25.4298854,-48.7125431,343,1807.16544
D1,Antonina/PR,-25.4298854,-48.7125431,6,31.61222
1,Antônio Almeida/PI,-7.2186016,-44.1950248,209,6605.56258
D1,Antônio Almeida/PI,-7.2186016,-44.1950248,1,31.60556
1,Antônio Cardoso/BA,-12.4363122,-39.1200307,46,393.73449
1,Antônio Carlos/MG,-21.318334,-43.746666,51,445.60944
1,Antônio Carlos/SC,-27.5168462,-48.7684715,269,3159.87314
D1,Antônio Carlos/SC,-27.5168462,-48.7684715,11,129.21414
1,Antônio Dias/MG,-19.6525,-42.872778,89,955.14059
D1,Antônio Dias/MG,-19.6525,-42.872778,2,21.46383
1,Antônio Gonçalves/BA,-10.5715409,-40.2748824,158,1339.21004
D1,Antônio Gonçalves/BA,-10.5715409,-40.2748824,1,8.47601
1,Antônio João/MS,-22.1892837,-55.9508227,53,591.78205
1,Antônio Martins/RN,-6.2155812,-37.8890129,5,69.97901
D1,Antônio Martins/RN,-6.2155812,-37.8890129,1,13.99580
1,Antônio Olinto/PR,-25.9849006,-50.1974516,67,901.26446
1,Antônio Prado de Minas/MG,-21.0171988,-42.1101106,9,563.20401
1,Antônio Prado/RS,-28.8567806,-51.2801355,418,3203.06513
D1,Antônio Prado/RS,-28.8567806,-51.2801355,6,45.97701
1,Anápolis/GO,-16.3332828,-48.9525756,7687,1986.70020
D1,Anápolis/GO,-16.3332828,-48.9525756,204,52.72367
1,Anísio de Abreu/PI,-9.185643,-43.04941,96,971.65992
1,Aparecida d'Oeste/SP,-20.4498109,-50.8808706,68,1620.59104
1,Aparecida de Goiânia/GO,-16.8226769,-49.2452546,23970,4145.77492
D1,Aparecida de Goiânia/GO,-16.8226769,-49.2452546,398,68.83681
1,Aparecida do Rio Doce/GO,-18.2980167,-51.1491312,59,2384.80194
D1,Aparecida do Rio Doce/GO,-18.2980167,-51.1491312,2,80.84074
1,Aparecida do Rio Negro/TO,-9.9513491,-47.9773786,36,750.78206
1,Aparecida do Taboado/MS,-20.0840304,-51.1013943,707,2746.16430
D1,Aparecida do Taboado/MS,-20.0840304,-51.1013943,16,62.14799
1,Aparecida/PB,-6.7859598, -38.0831353,114,1365.76015
D1,Aparecida/PB,-6.7859598, -38.0831353,3,35.94106
1,Aparecida/SP,-22.851552,-45.2340924,334,923.74920
D1,Aparecida/SP,-22.851552,-45.2340924,10,27.65716
1,Aperibé/RJ,-21.6211928,-42.1028167,183,1556.25478
D1,Aperibé/RJ,-21.6211928,-42.1028167,6,51.02475
1,Apiacá/ES,-21.152272,-41.569297,156,2061.58319
D1,Apiacá/ES,-21.152272,-41.569297,4,52.86111
1,Apiacás/MT,-9.5678422,-57.394852,41,404.61857
D1,Apiacás/MT,-9.5678422,-57.394852,1,9.86875
1,Apiaí/SP,-24.5076527,-48.8461582,129,529.25248
D1,Apiaí/SP,-24.5076527,-48.8461582,5,20.51366
1,Apicum-Açu/MA,-1.5279295,-45.082278,197,1142.75770
D1,Apicum-Açu/MA,-1.5279295,-45.082278,3,17.40240
1,Apiúna/SC,-27.0374658,-49.3885037,80,744.67095
D1,Apiúna/SC,-27.0374658,-49.3885037,3,27.92516
1,Apodi/RN,-5.6631109,-37.796927,1811,5052.30855
D1,Apodi/RN,-5.6631109,-37.796927,28,78.11410
1,Aporá/BA,-11.6599747,-38.0794757,180,1015.17117
D1,Aporá/BA,-11.6599747,-38.0794757,4,22.55936
1,Aporé/GO,-18.9642193,-51.92804,21,500.23821
D1,Aporé/GO,-18.9642193,-51.92804,2,47.64173
1,Apuarema/BA,-13.8517897,-39.7457126,285,3888.13097
D1,Apuarema/BA,-13.8517897,-39.7457126,5,68.21282
1,Apucarana/PR,-23.5525327,-51.4610764,721,534.08990
D1,Apucarana/PR,-23.5525327,-51.4610764,31,22.96364
1,Apuiarés/CE,-3.9460303,-39.4313298,210,1438.35616
D1,Apuiarés/CE,-3.9460303,-39.4313298,11,75.34247
1,Apuí/AM,-7.1940195,-59.8830192,198,901.10590
1,Aquidabã/SE,-10.2837579,-37.0188687,545,2527.47762
D1,Aquidabã/SE,-10.2837579,-37.0188687,13,60.28846
1,Aquidauana/MS,-20.473969,-55.7821375,1719,3590.90055
D1,Aquidauana/MS,-20.473969,-55.7821375,48,100.26947
1,Aquiraz/CE,-3.9063117,-38.387504,979,1219.61854
D1,Aquiraz/CE,-3.9063117,-38.387504,33,41.11074
1,Arabutã/SC,-27.1587028,-52.1438142,73,1710.80384
D1,Arabutã/SC,-27.1587028,-52.1438142,1,23.43567
1,Aracaju/SE,-10.9162061,-37.0774655,33963,5169.30411
D1,Aracaju/SE,-10.9162061,-37.0774655,705,107.30381
1,Aracati/CE,-4.558259,-37.767894,1606,2154.34558
D1,Aracati/CE,-4.558259,-37.767894,52,69.75465
1,Aracatu/BA,-14.4274236,-41.4604105,30,228.39741
1,Araci/BA,-11.3356065,-38.9573261,1062,1952.95978
D1,Araci/BA,-11.3356065,-38.9573261,11,20.22840
1,Aracoiaba/CE,-4.3702577,-38.8084313,761,2875.06139
D1,Aracoiaba/CE,-4.3702577,-38.8084313,14,52.89206
1,Aracruz/ES,-19.8245218,-40.2735025,3342,3301.71903
D1,Aracruz/ES,-19.8245218,-40.2735025,72,71.13219
1,Aragarças/GO,-15.8957166,-52.2514538,629,3126.55334
D1,Aragarças/GO,-15.8957166,-52.2514538,14,69.58942
1,Aragoiânia/GO,-16.9146388,-49.4499148,249,2415.59953
D1,Aragoiânia/GO,-16.9146388,-49.4499148,3,29.10361
1,Aragominas/TO,-7.1654101,-48.525488,168,2917.67975
D1,Aragominas/TO,-7.1654101,-48.525488,2,34.73428
1,Araguacema/TO,-8.8067391,-49.5560969,48,677.39204
1,Araguaiana/MT,-15.729144,-51.834112,38,1225.80645
1,Araguainha/MT,-16.857016,-53.031778,2,213.90374
1,Araguanã/MA,-2.9508403,-45.6651986,528,3422.79269
D1,Araguanã/MA,-2.9508403,-45.6651986,2,12.96512
1,Araguanã/TO,-6.5799107,-48.6428482,163,2845.17368
D1,Araguanã/TO,-6.5799107,-48.6428482,6,104.73032
1,Araguapaz/GO,-15.0937927,-50.626417,121,1557.27156
D1,Araguapaz/GO,-15.0937927,-50.626417,3,38.61004
1,Araguari/MG,-18.6511256,-48.1933764,2615,2229.95387
D1,Araguari/MG,-18.6511256,-48.1933764,66,56.28182
1,Araguatins/TO,-5.6522925,-48.1158973,789,2206.31414
D1,Araguatins/TO,-5.6522925,-48.1158973,23,64.31587
1,Araguaçu/TO,-12.928934,-49.823134,434,5095.69097
D1,Araguaçu/TO,-12.928934,-49.823134,7,82.18856
1,Araguaína/TO,-7.193241,-48.2018597,13755,7621.76539
D1,Araguaína/TO,-7.193241,-48.2018597,173,95.86081
1,Araioses/MA,-2.890914,-41.904993,574,1236.00345
D1,Araioses/MA,-2.890914,-41.904993,10,21.53316
1,Aral Moreira/MS,-22.951141,-55.6268421,53,436.24990
D1,Aral Moreira/MS,-22.951141,-55.6268421,1,8.23113
1,Aramari/BA,-12.0907897,-38.4985065,117,1026.58594
1,Arambaré/RS,-30.9132252,-51.4994625,17,474.72773
D1,Arambaré/RS,-30.9132252,-51.4994625,1,27.92516
1,Arame/MA,-4.8858769,-46.0102484,903,2761.38344
D1,Arame/MA,-4.8858769,-46.0102484,9,27.52209
1,Aramina/SP,-20.0876144,-47.789201,87,1548.04270
D1,Aramina/SP,-20.0876144,-47.789201,2,35.58719
1,Arandu/SP,-23.1345103,-49.0545651,30,471.92072
D1,Arandu/SP,-23.1345103,-49.0545651,2,31.46138
1,Arantina/MG,-21.911667,-44.255833,14,500.89445
D1,Arantina/MG,-21.911667,-44.255833,1,35.77818
1,Arapeí/SP,-22.6738889,-44.4477778,5,202.51114
D1,Arapeí/SP,-22.6738889,-44.4477778,1,40.50223
1,Arapiraca/AL,-9.754866,-36.661471,11025,4757.34314
D1,Arapiraca/AL,-9.754866,-36.661471,134,57.82168
1,Arapoema/TO,-7.6575001,-49.0641484,90,1354.80957
D1,Arapoema/TO,-7.6575001,-49.0641484,3,45.16032
1,Araponga/MG,-20.666667,-42.520556,1,11.84975
1,Arapongas/PR,-23.415296,-51.42592,2368,1924.78074
D1,Arapongas/PR,-23.415296,-51.42592,85,69.09052
1,Araporã/MG,-18.4318188,-49.188313,456,6638.52089
D1,Araporã/MG,-18.4318188,-49.188313,5,72.79080
1,Arapoti/PR,-24.1457957,-49.8224605,201,714.92086
D1,Arapoti/PR,-24.1457957,-49.8224605,1,3.55682
1,Araputanga/MT,-15.4710868,-58.346796,518,3079.30092
D1,Araputanga/MT,-15.4710868,-58.346796,7,41.61217
1,Arapuá/MG,-19.034444,-46.155556,26,917.43119
1,Arapuã/PR,-24.3079525,-51.7901941,33,1075.61930
D1,Arapuã/PR,-24.3079525,-51.7901941,1,32.59452
1,Araquari/SC,-26.3703324,-48.7210994,796,2087.64982
D1,Araquari/SC,-26.3703324,-48.7210994,11,28.84943
1,Arara/PB,-6.8271895,-35.7605703,225,1670.37862
D1,Arara/PB,-6.8271895,-35.7605703,6,44.54343
1,Araranguá/SC,-28.9348832,-49.4858389,1982,2904.96570
D1,Araranguá/SC,-28.9348832,-49.4858389,39,57.16128
1,Araraquara/SP,-21.7886713,-48.1773096,3794,1607.13681
D1,Araraquara/SP,-21.7886713,-48.1773096,35,14.82599
1,Araras/SP,-22.3569477,-47.3838889,2795,2082.15382
D1,Araras/SP,-22.3569477,-47.3838889,59,43.95244
1,Ararendá/CE,-4.7504395,-40.8303611,83,759.03064
D1,Ararendá/CE,-4.7504395,-40.8303611,2,18.28989
1,Arari/MA,-3.4547602,-44.7772723,197,660.01072
D1,Arari/MA,-3.4547602,-44.7772723,9,30.15277
1,Araricá/RS,-29.6168543,-50.929121,69,1210.95121
D1,Araricá/RS,-29.6168543,-50.929121,4,70.20007
1,Araripe/CE,-7.212861,-40.1359222,196,907.40741
D1,Araripe/CE,-7.212861,-40.1359222,2,9.25926
1,Araripina/PE,-7.5768582,-40.5038509,1701,2014.97311
D1,Araripina/PE,-7.5768582,-40.5038509,34,40.27577
1,Araruama/RJ,-22.8733203,-42.3428897,1216,918.42900
D1,Araruama/RJ,-22.8733203,-42.3428897,61,46.07251
1,Araruna/PB,-6.5321155,-35.7397595,250,1230.79953
D1,Araruna/PB,-6.5321155,-35.7397595,8,39.38558
1,Araruna/PR,-23.9320308,-52.4976047,168,1202.57695
D1,Araruna/PR,-23.9320308,-52.4976047,7,50.10737
1,Arataca/BA,-15.2617424,-39.4122943,175,1588.16590
D1,Arataca/BA,-15.2617424,-39.4122943,3,27.22570
1,Aratiba/RS,-27.3955734,-52.3024325,38,609.46271
D1,Aratiba/RS,-27.3955734,-52.3024325,2,32.07698
1,Aratuba/CE,-4.4195958,-39.0463737,237,2000.50646
D1,Aratuba/CE,-4.4195958,-39.0463737,2,16.88191
1,Aratuípe/BA,-13.077137,-39.0010786,110,1246.45892
D1,Aratuípe/BA,-13.077137,-39.0010786,5,56.65722
1,Araucária/PR,-25.5861107,-49.4051209,3390,2356.73616
D1,Araucária/PR,-25.5861107,-49.4051209,49,34.06492
1,Arauá/SE,-11.2644014,-37.6181058,311,3092.68099
D1,Arauá/SE,-11.2644014,-37.6181058,8,79.55449
1,Araxá/MG,-19.5928536,-46.940241,1079,1015.73017
D1,Araxá/MG,-19.5928536,-46.940241,21,19.76861
1,Araçagi/PB,-6.8519969,-35.3835602,504,2966.97475
D1,Araçagi/PB,-6.8519969,-35.3835602,5,29.43427
1,Araçariguama/SP,-23.438611,-47.061389,314,1404.04221
D1,Araçariguama/SP,-23.438611,-47.061389,8,35.77178
1,Araças/BA,-12.2139176,-38.2026159,144,1182.55728
D1,Araças/BA,-12.2139176,-38.2026159,1,8.21220
1,Araçatuba/SP,-21.207992,-50.4390225,5696,2891.13575
D1,Araçatuba/SP,-21.207992,-50.4390225,132,66.99963
1,Araçaí/MG,-19.200833,-44.2475,4,170.43034
1,Araçoiaba da Serra/SP,-23.5045367,-47.6168158,568,1663.44521
D1,Araçoiaba da Serra/SP,-23.5045367,-47.6168158,10,29.28601
1,Araçoiaba/PE,-7.7856903,-35.0898881,148,721.10700
D1,Araçoiaba/PE,-7.7856903,-35.0898881,15,73.08517
1,Araçu/GO,-16.3561579,-49.6815269,56,1590.00568
D1,Araçu/GO,-16.3561579,-49.6815269,2,56.78592
1,Araçuaí/MG,-16.8484451,-42.0661868,54,147.10690
1,Araújos/MG,-19.948055,-45.165556,45,485.27984
D1,Araújos/MG,-19.948055,-45.165556,1,10.78400
1,Arceburgo/MG,-21.364444,-46.939722,37,343.48310
1,Arco-Íris/SP,-21.7741308,-50.4668814,11,614.18202
1,Arcos/MG,-20.282223,-45.539444,309,770.72733
D1,Arcos/MG,-20.282223,-45.539444,6,14.96558
1,Arcoverde/PE,-8.415192,-37.057748,1352,1818.71990
D1,Arcoverde/PE,-8.415192,-37.057748,48,64.56994
1,Areado/MG,-21.3582771,-46.1476688,5,33.17850
1,Areal/RJ,-22.2314922,-43.1056264,177,1407.89055
D1,Areal/RJ,-22.2314922,-43.1056264,7,55.67929
1,Arealva/SP,-22.0301906,-48.9111936,97,1133.17757
D1,Arealva/SP,-22.0301906,-48.9111936,1,11.68224
1,Areia Branca/RN,-4.9506652,-37.1263312,776,2793.97998
D1,Areia Branca/RN,-4.9506652,-37.1263312,49,176.42399
1,Areia Branca/SE,-10.7591455,-37.3148072,690,3721.28142
D1,Areia Branca/SE,-10.7591455,-37.3148072,17,91.68375
1,Areia de Baraúnas/PB,-7.1233949,-36.9446216,11,516.91729
1,Areia/PB,-6.9680243,-35.6994783,485,2125.42180
D1,Areia/PB,-6.9680243,-35.6994783,5,21.91156
1,Areial/PB,-7.0501306,-35.9245244,56,800.22864
D1,Areial/PB,-7.0501306,-35.9245244,2,28.57959
1,Areias/SP,-22.5800929,-44.6975127,54,1389.60371
1,Areiópolis/SP,-22.6758064,-48.6673653,91,817.68353
D1,Areiópolis/SP,-22.6758064,-48.6673653,3,26.95660
1,Arenápolis/MT,-14.4610369,-56.8432806,329,3424.58624
D1,Arenápolis/MT,-14.4610369,-56.8432806,4,41.63631
1,Arenópolis/GO,-16.3859286,-51.55937,27,1033.69066
1,Argirita/MG,-21.612761,-42.8371922,12,440.04400
D1,Argirita/MG,-21.612761,-42.8371922,1,36.67033
1,Aricanduva/MG,-17.8678,-42.5569,1,19.11680
1,Arinos/MG,-15.917223,-46.106111,63,352.44755
D1,Arinos/MG,-15.917223,-46.106111,1,5.59441
1,Aripuanã/MT,-10.175806,-59.4439663,413,1847.54406
D1,Aripuanã/MT,-10.175806,-59.4439663,13,58.15514
1,Ariquemes/RO,-9.9076522,-63.033069,4916,4557.63329
D1,Ariquemes/RO,-9.9076522,-63.033069,81,75.09526
1,Ariranha do Ivaí/PR,-24.3834527,-51.5876772,17,806.45161
D1,Ariranha do Ivaí/PR,-24.3834527,-51.5876772,1,47.43833
1,Ariranha/SP,-21.18716,-48.790418,118,1220.52131
D1,Ariranha/SP,-21.18716,-48.790418,3,31.03020
1,Armazém/SC,-28.2624996,-49.0190126,248,2859.11921
D1,Armazém/SC,-28.2624996,-49.0190126,5,57.64353
1,Armação dos Búzios/RJ,-22.7597805,-41.8875267,421,1242.98789
D1,Armação dos Búzios/RJ,-22.7597805,-41.8875267,13,38.38205
1,Arneiroz/CE,-6.3235099,-40.1603859,43,548.46939
D1,Arneiroz/CE,-6.3235099,-40.1603859,3,38.26531
1,Aroazes/PI,-6.1108814,-41.7886137,52,891.17395
D1,Aroazes/PI,-6.1108814,-41.7886137,3,51.41388
1,Aroeiras do Itaim/PI,-7.2797031,-41.5629681,66,2587.22070
D1,Aroeiras do Itaim/PI,-7.2797031,-41.5629681,1,39.20031
1,Aroeiras/PB,-7.5462904,-35.7080002,217,1132.98178
D1,Aroeiras/PB,-7.5462904,-35.7080002,1,5.22111
1,Arraial do Cabo/RJ,-22.9662839,-42.024427,174,573.33026
D1,Arraial do Cabo/RJ,-22.9662839,-42.024427,6,19.77001
1,Arraial/PI,-6.6541632,-42.5335332,14,296.17093
1,Arraias/TO,-12.9287788,-46.9437231,95,899.02527
1,Arroio Grande/RS,-32.2384246,-53.0866661,53,289.72831
D1,Arroio Grande/RS,-32.2384246,-53.0866661,1,5.46657
1,Arroio Trinta/SC,-26.9301976,-51.334928,59,1661.97183
1,Arroio do Meio/RS,-29.4020392,-51.9444993,374,1797.64480
D1,Arroio do Meio/RS,-29.4020392,-51.9444993,1,4.80654
1,Arroio do Padre/RS,-31.4428773,-52.4228985,6,204.29009
1,Arroio do Sal/RS,-29.549852,-49.8874395,74,735.22106
D1,Arroio do Sal/RS,-29.549852,-49.8874395,3,29.80626
1,Arroio do Tigre/RS,-29.334158,-53.0888935,26,194.42160
1,Arroio dos Ratos/RS,-30.0894524,-51.7265541,111,784.39686
D1,Arroio dos Ratos/RS,-30.0894524,-51.7265541,8,56.53311
1,Artur Nogueira/SP,-22.572737,-47.172679,760,1396.85340
D1,Artur Nogueira/SP,-22.572737,-47.172679,15,27.56948
1,Aruanã/GO,-14.9162439,-51.0715692,96,972.15190
1,Arujá/SP,-23.396266,-46.3175449,1689,1880.34378
D1,Arujá/SP,-23.396266,-46.3175449,72,80.15675
1,Arvoredo/SC,-27.0752908,-52.4571847,44,1964.28571
D1,Arvoredo/SC,-27.0752908,-52.4571847,1,44.64286
1,Arvorezinha/RS,-28.87369,-52.17808,60,575.59478
D1,Arvorezinha/RS,-28.87369,-52.17808,3,28.77974
1,Arês/RN,-6.1969216,-35.1642968,212,1481.89571
D1,Arês/RN,-6.1969216,-35.1642968,9,62.91067
1,Ascurra/SC,-26.9569975,-49.3767752,136,1714.14167
D1,Ascurra/SC,-26.9569975,-49.3767752,2,25.20797
1,Aspásia/SP,-20.160028,-50.728046,35,1920.96597
1,Assaré/CE,-6.8746791,-39.8741385,302,1289.66136
D1,Assaré/CE,-6.8746791,-39.8741385,8,34.16321
1,Assaí/PR,-23.3736041,-50.8454929,252,1666.77690
D1,Assaí/PR,-23.3736041,-50.8454929,11,72.75613
1,Assis Brasil/AC,-10.9409203,-69.5672108,544,7334.50182
D1,Assis Brasil/AC,-10.9409203,-69.5672108,9,121.34286
1,Assis Chateaubriand/PR,-24.4054826,-53.5120468,439,1315.86835
D1,Assis Chateaubriand/PR,-24.4054826,-53.5120468,5,14.98711
1,Assis/SP,-22.6620892,-50.420623,1060,1015.46184
D1,Assis/SP,-22.6620892,-50.420623,22,21.07562
1,Assunção do Piauí/PI,-5.8610212,-41.0485091,127,1618.65919
D1,Assunção do Piauí/PI,-5.8610212,-41.0485091,1,12.74535
1,Assunção/PB,-7.073396,-36.7274003,46,1152.88221
1,Astolfo Dutra/MG,-21.3132636,-42.8624102,123,867.48008
D1,Astolfo Dutra/MG,-21.3132636,-42.8624102,3,21.15805
1,Astorga/PR,-23.2350184,-51.6647074,357,1367.23986
D1,Astorga/PR,-23.2350184,-51.6647074,6,22.97882
1,Atalaia do Norte/AM,-4.3658547,-70.1908742,934,4688.51965
D1,Atalaia do Norte/AM,-4.3658547,-70.1908742,4,20.07931
1,Atalaia/AL,-9.5029595,-36.0219316,574,1216.48829
D1,Atalaia/AL,-9.5029595,-36.0219316,17,36.02840
1,Atalaia/PR,-23.1513833,-52.0529697,80,2055.49846
D1,Atalaia/PR,-23.1513833,-52.0529697,1,25.69373
1,Atalanta/SC,-27.421916,-49.778863,31,965.73209
1,Ataléia/MG,-18.04432,-41.1110524,107,831.52005
D1,Ataléia/MG,-18.04432,-41.1110524,4,31.08486
1,Atibaia/SP,-23.1177393,-46.5547861,1555,1089.23305
D1,Atibaia/SP,-23.1177393,-46.5547861,50,35.02357
1,Atilio Vivacqua/ES,-20.9139369,-41.1947519,315,2639.07507
D1,Atilio Vivacqua/ES,-20.9139369,-41.1947519,5,41.89008
1,Augustinópolis/TO,-5.4662267,-47.8897519,587,3188.13817
D1,Augustinópolis/TO,-5.4662267,-47.8897519,8,43.44992
1,Augusto Corrêa/PA,-1.0229335,-46.6404029,1272,2765.33762
D1,Augusto Corrêa/PA,-1.0229335,-46.6404029,20,43.48015
1,Augusto Pestana/RS,-28.5148413,-53.9906433,7,105.08933
1,Augusto de Lima/MG,-18.1092963,-44.2651945,35,718.83344
1,Aurelino Leal/BA,-14.3167137,-39.3256107,383,3321.48122
D1,Aurelino Leal/BA,-14.3167137,-39.3256107,6,52.03365
1,Auriflama/SP,-20.6840418,-50.5554616,314,2067.28554
D1,Auriflama/SP,-20.6840418,-50.5554616,8,52.66970
1,Aurilândia/GO,-16.6772599,-50.4641231,53,1698.71795
1,Aurora do Pará/PA,-2.1323199,-47.558436,625,1994.38382
D1,Aurora do Pará/PA,-2.1323199,-47.558436,7,22.33710
1,Aurora do Tocantins/TO,-12.71045,-46.407604,30,798.50945
1,Aurora/CE,-6.9426019,-38.9693765,262,1062.70788
D1,Aurora/CE,-6.9426019,-38.9693765,15,60.84205
1,Aurora/SC,-27.3166417,-49.6368502,66,1162.17644
1,Autazes/AM,-3.5833283,-59.1301518,1278,3230.12764
D1,Autazes/AM,-3.5833283,-59.1301518,36,90.98951
1,Avanhandava/SP,-21.4603331,-49.9465156,132,967.10382
D1,Avanhandava/SP,-21.4603331,-49.9465156,3,21.97963
1,Avaré/SP,-23.1045215,-48.9259103,573,632.06663
D1,Avaré/SP,-23.1045215,-48.9259103,16,17.64933
1,Avaí/SP,-22.1564662,-49.3316395,73,1351.10124
D1,Avaí/SP,-22.1564662,-49.3316395,1,18.50824
1,Aveiro/PA,-3.6049239,-55.3310742,422,2575.05492
D1,Aveiro/PA,-3.6049239,-55.3310742,5,30.51013
1,Avelino Lopes/PI,-10.1346855,-43.9489525,29,256.88724
D1,Avelino Lopes/PI,-10.1346855,-43.9489525,3,26.57454
1,Avelinópolis/GO,-16.4672409,-49.7578661,92,3806.37153
D1,Avelinópolis/GO,-16.4672409,-49.7578661,1,41.37360
1,Axixá do Tocantins/TO,-5.612747,-47.77007,297,3044.28044
D1,Axixá do Tocantins/TO,-5.612747,-47.77007,3,30.75031
1,Axixá/MA,-2.8379465,-44.0561053,133,1096.45507
D1,Axixá/MA,-2.8379465,-44.0561053,3,24.73207
1,Açailândia/MA,-4.9514278,-47.4844564,3211,2855.61830
D1,Açailândia/MA,-4.9514278,-47.4844564,84,74.70319
1,Açu/RN,-5.5836157,-36.9139541,1426,2457.90027
D1,Açu/RN,-5.5836157,-36.9139541,53,91.35253
1,Açucena/MG,-19.073056,-42.546666,66,696.93770
D1,Açucena/MG,-19.073056,-42.546666,2,21.11932
1,Babaçulândia/TO,-7.2034355,-47.761613,193,1809.82746
D1,Babaçulândia/TO,-7.2034355,-47.761613,2,18.75469
1,Bacabal/MA,-4.2318132,-44.781167,3230,3077.68535
D1,Bacabal/MA,-4.2318132,-44.781167,50,47.64219
1,Bacabeira/MA,-2.9775747,-44.3155943,147,861.91733
D1,Bacabeira/MA,-2.9775747,-44.3155943,2,11.72677
1,Bacuri/MA,-1.728894,-45.1417148,412,2217.19944
D1,Bacuri/MA,-1.728894,-45.1417148,3,16.14466
1,Bacurituba/MA,-2.7082587,-44.7381309,44,779.58894
1,Bady Bassitt/SP,-20.9178969,-49.4517911,723,4130.95646
D1,Bady Bassitt/SP,-20.9178969,-49.4517911,16,91.41812
1,Baependi/MG,-21.959162,-44.8899249,65,339.46104
D1,Baependi/MG,-21.959162,-44.8899249,1,5.22248
1,Bagre/PA,-1.8994498,-50.2103844,373,1216.05321
D1,Bagre/PA,-1.8994498,-50.2103844,10,32.60196
1,Bagé/RS,-31.3314264,-54.1062808,794,655.42376
D1,Bagé/RS,-31.3314264,-54.1062808,10,8.25471
1,Baianópolis/BA,-12.3067564,-44.5383591,71,511.63796
1,Baixa Grande do Ribeiro/PI,-7.862861,-45.2113289,1098,9476.95495
D1,Baixa Grande do Ribeiro/PI,-7.862861,-45.2113289,9,77.67996
1,Baixa Grande/BA,-11.9630941,-40.1657537,32,156.34161
D1,Baixa Grande/BA,-11.9630941,-40.1657537,2,9.77135
1,Baixio/CE,-6.7303544,-38.7170095,91,1447.20102
D1,Baixio/CE,-6.7303544,-38.7170095,1,15.90331
1,Baixo Guandu/ES,-19.5138322,-41.0182089,711,2293.69637
D1,Baixo Guandu/ES,-19.5138322,-41.0182089,17,54.84225
1,Baião/PA,-2.7903479,-49.6702845,364,767.18796
D1,Baião/PA,-2.7903479,-49.6702845,14,29.50723
1,Balbinos/SP,-21.9006253,-49.3583966,84,1464.69050
D1,Balbinos/SP,-21.9006253,-49.3583966,2,34.87358
1,Baldim/MG,-19.2913568,-43.9558262,30,383.33759
D1,Baldim/MG,-19.2913568,-43.9558262,5,63.88960
1,Baliza/GO,-16.1978119,-52.542789,14,272.47956
1,Balneário Arroio do Silva/SC,-28.9815269,-49.4189932,382,2922.50019
D1,Balneário Arroio do Silva/SC,-28.9815269,-49.4189932,6,45.90314
1,Balneário Barra do Sul/SC,-26.459842,-48.6061471,463,4289.02270
D1,Balneário Barra do Sul/SC,-26.459842,-48.6061471,4,37.05419
1,Balneário Camboriú/SC,-26.9924395,-48.6339782,6891,4842.75625
D1,Balneário Camboriú/SC,-26.9924395,-48.6339782,83,58.32953
1,Balneário Gaivota/SC,-29.1553098,-49.5808712,149,1357.13635
D1,Balneário Gaivota/SC,-29.1553098,-49.5808712,6,54.64979
1,Balneário Pinhal/RS,-30.2482978,-50.234585,88,625.53312
D1,Balneário Pinhal/RS,-30.2482978,-50.234585,2,14.21666
1,Balneário Piçarras/SC,-26.7638889,-48.6716667,753,3253.12135
D1,Balneário Piçarras/SC,-26.7638889,-48.6716667,9,38.88193
1,Balneário Rincão/SC,-28.8235718,-49.2241642,355,2782.13166
D1,Balneário Rincão/SC,-28.8235718,-49.2241642,9,70.53292
1,Balsa Nova/PR,-25.5842234,-49.6312741,207,1599.56727
D1,Balsa Nova/PR,-25.5842234,-49.6312741,5,38.63689
1,Balsas/MA,-7.53214,-46.037163,6039,6364.41241
D1,Balsas/MA,-7.53214,-46.037163,45,47.42483
1,Bambuí/MG,-20.0131996,-45.9777034,35,146.87985
1,Banabuiú/CE,-5.3046404,-38.919766,535,2940.04506
D1,Banabuiú/CE,-5.3046404,-38.919766,4,21.98165
1,Bananal/SP,-22.6828195,-44.3221095,131,1196.89356
D1,Bananal/SP,-22.6828195,-44.3221095,1,9.13659
1,Bananeiras/PB,-6.7537682,-35.6338343,406,1904.49385
D1,Bananeiras/PB,-6.7537682,-35.6338343,2,9.38174
1,Bandeira do Sul/MG,-21.728056,-46.385555,25,435.08528
1,Bandeira/MG,-15.884444,-40.559167,198,4129.30136
D1,Bandeira/MG,-15.884444,-40.559167,1,20.85506
1,Bandeirante/SC,-26.7677402,-53.6397596,10,373.41299
1,Bandeirantes do Tocantins/TO,-7.7635698,-48.579148,35,985.08303
D1,Bandeirantes do Tocantins/TO,-7.7635698,-48.579148,1,28.14523
1,Bandeirantes/MS,-19.9179623,-54.3646768,63,928.10843
1,Bandeirantes/PR,-23.107788,-50.370407,606,1931.96672
D1,Bandeirantes/PR,-23.107788,-50.370407,16,51.00902
1,Bannach/PA,-7.3508505,-50.4064531,111,3377.96713
D1,Bannach/PA,-7.3508505,-50.4064531,2,60.86427
1,Banzaê/BA,-10.5827616,-38.6122305,188,1421.12027
1,Baraúna/PB,-6.643394,-36.2531932,140,2861.81521
1,Baraúna/RN,-5.0775002,-37.61752,490,1726.93311
D1,Baraúna/RN,-5.0775002,-37.61752,12,42.29224
1,Barbacena/MG,-21.2254524,-43.7735087,740,538.91474
D1,Barbacena/MG,-21.2254524,-43.7735087,14,10.19568
1,Barbalha/CE,-7.3121067,-39.3036427,1910,3142.42938
D1,Barbalha/CE,-7.3121067,-39.3036427,52,85.55305
1,Barbosa Ferraz/PR,-24.0287182,-52.00811,149,1288.03596
D1,Barbosa Ferraz/PR,-24.0287182,-52.00811,4,34.57815
1,Barbosa/SP,-21.265661,-49.951816,104,1405.02567
D1,Barbosa/SP,-21.265661,-49.951816,1,13.50986
1,Barcarena/PA,-1.5107945,-48.6190679,4375,3508.98300
D1,Barcarena/PA,-1.5107945,-48.6190679,108,86.62175
1,Barcelona/RN,-5.9514918,-35.9260284,33,825.41271
D1,Barcelona/RN,-5.9514918,-35.9260284,2,50.02501
1,Barcelos/AM,-0.9729214,-62.925635,2560,9308.41393
D1,Barcelos/AM,-0.9729214,-62.925635,25,90.90248
1,Bariri/SP,-22.0746355,-48.7394852,575,1630.55808
D1,Bariri/SP,-22.0746355,-48.7394852,14,39.70054
1,Barra Bonita/SC,-26.6526364,-53.4419581,3,178.89088
1,Barra Bonita/SP,-22.490859,-48.558349,657,1818.63478
D1,Barra Bonita/SP,-22.490859,-48.558349,18,49.82561
1,Barra D'Alcântara/PI,-6.5209258,-42.1071089,10,253.10048
D1,Barra D'Alcântara/PI,-6.5209258,-42.1071089,1,25.31005
1,Barra Funda/RS,-27.9230048,-53.0401045,86,3387.16030
D1,Barra Funda/RS,-27.9230048,-53.0401045,3,118.15675
1,Barra Longa/MG,-20.2833541,-43.0423516,60,1169.36270
1,Barra Mansa/RJ,-22.5394843,-44.1735129,2158,1170.20584
D1,Barra Mansa/RJ,-22.5394843,-44.1735129,141,76.45923
1,Barra Velha/SC,-26.6338203,-48.6835001,704,2413.60395
D1,Barra Velha/SC,-26.6338203,-48.6835001,13,44.56939
1,Barra da Estiva/BA,-13.6269662,-41.3278287,8,38.83872
1,Barra de Guabiraba/PE,-8.4173522,-35.6626669,183,1272.15850
D1,Barra de Guabiraba/PE,-8.4173522,-35.6626669,11,76.46854
1,Barra de Santa Rosa/PB,-6.7218007,-36.0564638,95,617.52470
D1,Barra de Santa Rosa/PB,-6.7218007,-36.0564638,1,6.50026
1,Barra de Santana/PB,-7.5230865,-35.9988518,104,1244.16796
D1,Barra de Santana/PB,-7.5230865,-35.9988518,3,35.88946
1,Barra de Santo Antônio/AL,-9.4038098,-35.5117693,129,809.69119
D1,Barra de Santo Antônio/AL,-9.4038098,-35.5117693,10,62.76676
1,Barra de São Francisco/ES,-18.7570902,-40.8916119,736,1648.37626
D1,Barra de São Francisco/ES,-18.7570902,-40.8916119,25,55.99104
1,Barra de São Miguel/AL,-9.8261357,-35.8837777,143,1718.33694
D1,Barra de São Miguel/AL,-9.8261357,-35.8837777,5,60.08171
1,Barra de São Miguel/PB,-7.7528088,-36.3170996,64,1060.30484
D1,Barra de São Miguel/PB,-7.7528088,-36.3170996,1,16.56726
1,Barra do Bugres/MT,-15.0683712,-57.1853688,846,2419.49322
D1,Barra do Bugres/MT,-15.0683712,-57.1853688,20,57.19842
1,Barra do Chapéu/SP,-24.472203,-49.023784,47,821.10412
1,Barra do Choça/BA,-14.8638173,-40.5761637,375,1186.59621
D1,Barra do Choça/BA,-14.8638173,-40.5761637,5,15.82128
1,Barra do Corda/MA,-5.496823,-45.248496,3630,4115.08638
D1,Barra do Corda/MA,-5.496823,-45.248496,29,32.87535
1,Barra do Garças/MT,-15.8916033,-52.2615413,1997,3273.12660
D1,Barra do Garças/MT,-15.8916033,-52.2615413,91,149.15099
1,Barra do Guarita/RS,-27.1888016,-53.7147086,57,1754.92611
1,Barra do Jacaré/PR,-23.1151788,-50.1813945,15,539.37433
1,Barra do Mendes/BA,-11.8053298,-42.057037,18,129.82330
1,Barra do Ouro/TO,-7.7113784,-47.6743925,39,849.48813
D1,Barra do Ouro/TO,-7.7113784,-47.6743925,4,87.12699
1,Barra do Piraí/RJ,-22.4703403,-43.8263256,1000,996.27394
D1,Barra do Piraí/RJ,-22.4703403,-43.8263256,50,49.81370
1,Barra do Quaraí/RS,-30.208947,-57.5505128,64,1518.38671
D1,Barra do Quaraí/RS,-30.208947,-57.5505128,1,23.72479
1,Barra do Ribeiro/RS,-30.2930206,-51.301437,104,770.88429
D1,Barra do Ribeiro/RS,-30.2930206,-51.301437,11,81.53584
1,Barra do Rio Azul/RS,-27.4101581,-52.4117471,7,414.20118
1,Barra do Rocha/BA,-14.2090974,-39.6004395,88,1540.07700
1,Barra do Turvo/SP,-24.756421,-48.5056942,98,1279.54041
D1,Barra do Turvo/SP,-24.756421,-48.5056942,3,39.16960
1,Barra dos Coqueiros/SE,-10.9075694,-37.0386249,1127,3706.38340
D1,Barra dos Coqueiros/SE,-10.9075694,-37.0386249,21,69.06304
1,Barra/BA,-11.0892702,-43.1420453,183,341.55810
D1,Barra/BA,-11.0892702,-43.1420453,4,7.46575
1,Barracão/PR,-26.252395,-53.6349576,76,739.65937
D1,Barracão/PR,-26.252395,-53.6349576,2,19.46472
1,Barracão/RS,-27.6728964,-51.4582928,57,1080.56872
D1,Barracão/RS,-27.6728964,-51.4582928,2,37.91469
1,Barras/PI,-4.2446153,-42.2920241,2512,5337.18608
D1,Barras/PI,-4.2446153,-42.2920241,52,110.48315
1,Barreira/CE,-4.2883361,-38.641094,324,1444.81605
D1,Barreira/CE,-4.2883361,-38.641094,19,84.72687
1,Barreiras do Piauí/PI,-9.9224524,-45.4763776,26,776.58303
1,Barreiras/BA,-12.1440031,-44.9967406,4096,2635.11731
D1,Barreiras/BA,-12.1440031,-44.9967406,67,43.10373
1,Barreirinha/AM,-2.798863,-57.067897,925,2886.92613
D1,Barreirinha/AM,-2.798863,-57.067897,12,37.45201
1,Barreirinhas/MA,-2.7541271,-42.8259693,863,1380.18168
D1,Barreirinhas/MA,-2.7541271,-42.8259693,23,36.78352
1,Barreiros/PE,-8.8159644,-35.1831905,323,757.16730
D1,Barreiros/PE,-8.8159644,-35.1831905,40,93.76685
1,Barretos/SP,-20.5531437,-48.5697509,3743,3065.57028
D1,Barretos/SP,-20.5531437,-48.5697509,95,77.80635
1,Barrinha/SP,-21.1898849,-48.1550642,555,1691.45435
D1,Barrinha/SP,-21.1898849,-48.1550642,22,67.04864
1,Barro Alto/BA,-11.7618025,-41.9094904,47,314.78133
D1,Barro Alto/BA,-11.7618025,-41.9094904,1,6.69748
1,Barro Alto/GO,-14.9696025,-48.9190985,263,2355.15358
D1,Barro Alto/GO,-14.9696025,-48.9190985,2,17.90991
1,Barro Duro/PI,-5.8180139,-42.5106589,399,5674.06143
D1,Barro Duro/PI,-5.8180139,-42.5106589,6,85.32423
1,Barro Preto/BA,-14.8068289,-39.4727588,228,4077.98247
D1,Barro Preto/BA,-14.8068289,-39.4727588,4,71.54355
1,Barro/CE,-7.1713587,-38.7742136,198,873.01587
D1,Barro/CE,-7.1713587,-38.7742136,9,39.68254
1,Barrocas/BA,-11.5165,-39.099282894736845,120,751.03267
1,Barrolândia/TO,-9.837246,-48.7264346,77,1367.18750
D1,Barrolândia/TO,-9.837246,-48.7264346,1,17.75568
1,Barroquinha/CE,-3.0200371,-41.1339229,755,5027.63535
D1,Barroquinha/CE,-3.0200371,-41.1339229,17,113.20503
1,Barros Cassal/RS,-29.094938,-52.5832366,17,151.79927
D1,Barros Cassal/RS,-29.094938,-52.5832366,1,8.92937
1,Barroso/MG,-21.187222,-43.976111,134,643.92119
D1,Barroso/MG,-21.187222,-43.976111,1,4.80538
1,Barueri/SP,-23.5112184,-46.8764612,5836,2128.51318
D1,Barueri/SP,-23.5112184,-46.8764612,341,124.36994
1,Barão de Antonina/SP,-23.6295651,-49.5632104,15,432.40127
1,Barão de Cocais/MG,-19.9452437,-43.4870298,417,1283.66939
D1,Barão de Cocais/MG,-19.9452437,-43.4870298,3,9.23503
1,Barão de Cotegipe/RS,-27.6214694,-52.3765316,108,1630.68096
D1,Barão de Cotegipe/RS,-27.6214694,-52.3765316,3,45.29669
1,Barão de Grajaú/MA,-6.7542591,-43.0263477,16,85.01594
D1,Barão de Grajaú/MA,-6.7542591,-43.0263477,1,5.31350
1,Barão de Melgaço/MT,-16.195776,-55.9668049,99,1156.00187
D1,Barão de Melgaço/MT,-16.195776,-55.9668049,4,46.70715
1,Barão de Monte Alto/MG,-21.244722,-42.2375,54,1000.55586
D1,Barão de Monte Alto/MG,-21.244722,-42.2375,1,18.52881
1,Barão do Triunfo/RS,-30.3909877,-51.7375349,83,1108.58822
D1,Barão do Triunfo/RS,-30.3909877,-51.7375349,1,13.35648
1,Barão/RS,-29.372474,-51.494908,59,956.08491
D1,Barão/RS,-29.372474,-51.494908,2,32.40966
1,Bastos/SP,-21.9222474,-50.7317727,60,286.35518
D1,Bastos/SP,-21.9222474,-50.7317727,2,9.54517
1,Bataguassu/MS,-21.715899,-52.422058,758,3292.21682
D1,Bataguassu/MS,-21.715899,-52.422058,6,26.05976
1,Batalha/AL,-9.6733809,-37.1265481,545,2989.24967
D1,Batalha/AL,-9.6733809,-37.1265481,7,38.39403
1,Batalha/PI,-4.022391,-42.0780926,400,1489.36962
D1,Batalha/PI,-4.022391,-42.0780926,8,29.78739
1,Batatais/SP,-20.892867,-47.592149,558,892.68574
D1,Batatais/SP,-20.892867,-47.592149,20,31.99590
1,Batayporã/MS,-22.2976466,-53.2685608,126,1112.18995
D1,Batayporã/MS,-22.2976466,-53.2685608,3,26.48071
1,Baturité/CE,-4.3290203,-38.8821055,564,1577.62238
D1,Baturité/CE,-4.3290203,-38.8821055,30,83.91608
1,Bauru/SP,-22.3218102,-49.0705863,7944,2108.17955
D1,Bauru/SP,-22.3218102,-49.0705863,157,41.66468
1,Bayeux/PB,-7.1301631,-34.936532,1813,1871.38728
D1,Bayeux/PB,-7.1301631,-34.936532,101,104.25268
1,Baía Formosa/RN,-6.3691885,-35.0063741,87,938.41010
D1,Baía Formosa/RN,-6.3691885,-35.0063741,5,53.93161
1,Baía da Traição/PB,-6.691258,-34.9371244,664,7383.52052
D1,Baía da Traição/PB,-6.691258,-34.9371244,6,66.71856
1,Bebedouro/SP,-20.949077,-48.479083,831,1072.31341
D1,Bebedouro/SP,-20.949077,-48.479083,22,28.38856
1,Beberibe/CE,-4.1810469,-38.1298101,763,1424.22489
D1,Beberibe/CE,-4.1810469,-38.1298101,29,54.13175
1,Bela Cruz/CE,-3.0529129,-40.167582,1172,3596.08481
D1,Bela Cruz/CE,-3.0529129,-40.167582,22,67.50330
1,Bela Vista da Caroba/PR,-25.8792818,-53.6672545,18,512.67445
1,Bela Vista de Goiás/GO,-16.9692949,-48.9513071,681,2271.89324
D1,Bela Vista de Goiás/GO,-16.9692949,-48.9513071,9,30.02502
1,Bela Vista de Minas/MG,-19.8289721,-43.0973688,47,458.31302
D1,Bela Vista de Minas/MG,-19.8289721,-43.0973688,1,9.75134
1,Bela Vista do Maranhão/MA,-3.7416367,-45.2514192,127,1133.01811
D1,Bela Vista do Maranhão/MA,-3.7416367,-45.2514192,3,26.76421
1,Bela Vista do Paraíso/PR,-22.9948493,-51.1907996,136,883.28895
D1,Bela Vista do Paraíso/PR,-22.9948493,-51.1907996,4,25.97909
1,Bela Vista do Piauí/PI,-7.9716353,-41.8715061,32,797.01121
1,Bela Vista do Toldo/SC,-26.274625,-50.466354,6,94.68203
1,Bela Vista/MS,-22.107327,-56.5317344,24,97.44610
D1,Bela Vista/MS,-22.107327,-56.5317344,2,8.12051
1,Belford Roxo/RJ,-22.7667284,-43.4033603,8427,1649.42279
D1,Belford Roxo/RJ,-22.7667284,-43.4033603,271,53.04303
1,Belmiro Braga/MG,-21.9486291,-43.413564,14,408.28230
D1,Belmiro Braga/MG,-21.9486291,-43.413564,2,58.32604
1,Belmonte/BA,-15.8630837,-38.8792845,438,1877.57202
D1,Belmonte/BA,-15.8630837,-38.8792845,3,12.86008
1,Belmonte/SC,-26.8448262,-53.578916,5,184.77458
1,Belo Campo/BA,-15.0338286,-41.2585109,43,249.84022
D1,Belo Campo/BA,-15.0338286,-41.2585109,1,5.81024
1,Belo Horizonte/MG,-19.9227318,-43.9450948,36351,1447.05363
D1,Belo Horizonte/MG,-19.9227318,-43.9450948,1080,42.99243
1,Belo Jardim/PE,-8.3338293,-36.4176419,1060,1386.72667
D1,Belo Jardim/PE,-8.3338293,-36.4176419,33,43.17168
1,Belo Monte/AL,-9.8269944,-37.2787165,126,1879.47494
D1,Belo Monte/AL,-9.8269944,-37.2787165,3,44.74940
1,Belo Oriente/MG,-19.2232523,-42.4807033,517,1936.32959
D1,Belo Oriente/MG,-19.2232523,-42.4807033,9,33.70787
1,Belo Vale/MG,-20.407778,-44.024167,72,933.24692
D1,Belo Vale/MG,-20.407778,-44.024167,2,25.92353
1,Belterra/PA,-2.636091,-54.937392,289,1629.82179
D1,Belterra/PA,-2.636091,-54.937392,8,45.11617
1,Belágua/MA,-3.1604031,-43.5085052,247,3307.00228
D1,Belágua/MA,-3.1604031,-43.5085052,1,13.38867
1,Belém de Maria/PE,-8.6242497,-35.8388934,93,770.31392
D1,Belém de Maria/PE,-8.6242497,-35.8388934,2,16.56589
1,Belém do Brejo do Cruz/PB,-6.1880727,-37.5332267,74,1007.89975
D1,Belém do Brejo do Cruz/PB,-6.1880727,-37.5332267,2,27.24053
1,Belém do Piauí/PI,-7.3767305,-40.9712156,91,2551.87886
D1,Belém do Piauí/PI,-7.3767305,-40.9712156,2,56.08525
1,Belém do São Francisco/PE,-8.7517707,-38.9625715,117,564.42665
1,Belém/AL,-9.5715351,-36.492841,52,1197.05341
D1,Belém/AL,-9.5715351,-36.492841,1,23.02026
1,Belém/PA,-1.45056,-48.4682453,34474,2309.43664
D1,Belém/PA,-1.45056,-48.4682453,2127,142.48917
1,Belém/PB,-6.6967586,-35.5369626,1078,6098.66486
D1,Belém/PB,-6.6967586,-35.5369626,15,84.86083
1,Beneditinos/PI,-5.4565671,-42.3605061,244,2331.13595
D1,Beneditinos/PI,-5.4565671,-42.3605061,8,76.43069
1,Benedito Leite/MA,-7.2173453,-44.5523331,176,3125.00000
1,Benedito Novo/SC,-26.7840657,-49.3629511,145,1244.42156
D1,Benedito Novo/SC,-26.7840657,-49.3629511,2,17.16444
1,Benevides/PA,-1.3555577,-48.252235,1439,2293.70228
D1,Benevides/PA,-1.3555577,-48.252235,50,79.69779
1,Benjamin Constant do Sul/RS,-27.5105555,-52.6007689,87,4363.08927
1,Benjamin Constant/AM,-4.3782748,-70.0290603,1545,3594.36069
D1,Benjamin Constant/AM,-4.3782748,-70.0290603,38,88.40499
1,Bento Fernandes/RN,-5.6926846,-35.8207423,27,491.17701
D1,Bento Fernandes/RN,-5.6926846,-35.8207423,2,36.38348
1,Bento Gonçalves/RS,-29.1654014,-51.5197627,3213,2667.40831
D1,Bento Gonçalves/RS,-29.1654014,-51.5197627,108,89.66078
1,Bento de Abreu/SP,-21.2707225,-50.8120444,36,1208.05369
1,Bequimão/MA,-2.4495376,-44.7884889,212,996.24060
D1,Bequimão/MA,-2.4495376,-44.7884889,11,51.69173
1,Berilo/MG,-16.9515764,-42.4643732,5,41.90412
1,Berizal/MG,-15.6118785,-41.7417382,5,105.59662
1,Bernardino Batista/PB,-6.4532173,-38.5495418,31,885.46130
1,Bernardino de Campos/SP,-23.0140216,-49.4760724,95,852.17079
D1,Bernardino de Campos/SP,-23.0140216,-49.4760724,3,26.91066
1,Bernardo Sayão/TO,-7.8794244,-48.8968905,35,784.92936
D1,Bernardo Sayão/TO,-7.8794244,-48.8968905,2,44.85311
1,Bernardo do Mearim/MA,-4.6315929,-44.7617508,49,810.85554
D1,Bernardo do Mearim/MA,-4.6315929,-44.7617508,3,49.64422
1,Bertioga/SP,-23.848568,-46.139586,1708,2700.43795
D1,Bertioga/SP,-23.848568,-46.139586,39,61.66105
1,Bertolínia/PI,-7.6372159,-43.9540611,312,5671.69606
D1,Bertolínia/PI,-7.6372159,-43.9540611,4,72.71405
1,Bertópolis/MG,-17.063333,-40.573889,16,347.52389
1,Beruri/AM,-3.9007135,-61.3717319,731,3714.61965
D1,Beruri/AM,-3.9007135,-61.3717319,10,50.81559
1,Betim/MG,-19.968056,-44.198333,5213,1186.55256
D1,Betim/MG,-19.968056,-44.198333,177,40.28770
1,Betânia do Piauí/PI,-8.1460635,-40.7961387,28,451.24899
D1,Betânia do Piauí/PI,-8.1460635,-40.7961387,1,16.11604
1,Betânia/PE,-8.2742779,-38.0351767,60,471.73520
D1,Betânia/PE,-8.2742779,-38.0351767,2,15.72451
1,Bezerros/PE,-8.2372132,-35.7558262,983,1616.82950
D1,Bezerros/PE,-8.2372132,-35.7558262,45,74.01559
1,Bias Fortes/MG,-21.605833,-43.756944,13,384.72921
1,Bicas/MG,-21.7213723,-43.0604327,57,393.26618
D1,Bicas/MG,-21.7213723,-43.0604327,1,6.89941
1,Biguaçu/SC,-27.4961277,-48.6542432,1933,2822.68074
D1,Biguaçu/SC,-27.4961277,-48.6542432,33,48.18855
1,Bilac/SP,-21.403962,-50.47464,81,1008.21509
D1,Bilac/SP,-21.403962,-50.47464,2,24.89420
1,Biquinhas/MG,-18.783611,-45.502222,28,1113.32008
1,Birigui/SP,-21.2908491,-50.34144,1830,1480.12747
D1,Birigui/SP,-21.2908491,-50.34144,65,52.57283
1,Biritiba-Mirim/SP,-23.5697765,-46.0407456,360,1104.36223
D1,Biritiba-Mirim/SP,-23.5697765,-46.0407456,19,58.28578
1,Biritinga/BA,-11.6227908,-38.8066738,73,456.84962
1,Bituruna/PR,-26.161281,-51.5533319,41,250.16780
D1,Bituruna/PR,-26.161281,-51.5533319,1,6.10165
1,Blumenau/SC,-26.9195567,-49.0658025,11031,3088.19454
D1,Blumenau/SC,-26.9195567,-49.0658025,142,39.75375
1,Boa Esperança do Iguaçu/PR,-25.6362851,-53.2139114,37,1478.22613
1,Boa Esperança do Sul/SP,-21.9930206,-48.3917372,147,985.05662
D1,Boa Esperança do Sul/SP,-21.9930206,-48.3917372,5,33.50533
1,Boa Esperança/ES,-18.5395472,-40.2904088,340,2261.08931
D1,Boa Esperança/ES,-18.5395472,-40.2904088,14,93.10368
1,Boa Esperança/MG,-21.0901253,-45.5660195,109,271.63755
D1,Boa Esperança/MG,-21.0901253,-45.5660195,8,19.93670
1,Boa Esperança/PR,-24.2411024,-52.7860277,32,779.53715
1,Boa Hora/PI,-4.4094627,-42.1255341,93,1371.47913
1,Boa Nova/BA,-14.365907,-40.2063056,107,846.98805
D1,Boa Nova/BA,-14.365907,-40.2063056,2,15.83155
1,Boa Ventura de São Roque/PR,-24.88177,-51.5441292,3,46.97041
1,Boa Ventura/PB,-7.4202462,-38.2156782,21,391.35296
1,Boa Viagem/CE,-5.1261877,-39.7300055,855,1569.67138
D1,Boa Viagem/CE,-5.1261877,-39.7300055,24,44.06095
1,Boa Vista da Aparecida/PR,-25.4357216,-53.4067721,123,1620.33988
D1,Boa Vista da Aparecida/PR,-25.4357216,-53.4067721,3,39.52048
1,Boa Vista das Missões/RS,-27.6677983,-53.3127622,3,142.99333
1,Boa Vista do Buricá/RS,-27.6687782,-54.1111913,79,1176.99642
1,Boa Vista do Cadeado/RS,-28.5783827,-53.8123759,5,202.42915
1,Boa Vista do Gurupi/MA,-1.7981168,-46.3071882,13,139.98062
D1,Boa Vista do Gurupi/MA,-1.7981168,-46.3071882,3,32.30322
1,Boa Vista do Incra/RS,-28.8195551,-53.3866624,10,384.17211
1,Boa Vista do Ramos/AM,-2.9716927,-57.5869819,331,1723.33004
D1,Boa Vista do Ramos/AM,-2.9716927,-57.5869819,2,10.41287
1,Boa Vista do Sul/RS,-29.3510488,-51.6779679,54,1940.35214
D1,Boa Vista do Sul/RS,-29.3510488,-51.6779679,1,35.93245
1,Boa Vista do Tupim/BA,-12.6605988,-40.6083594,98,527.56245
D1,Boa Vista do Tupim/BA,-12.6605988,-40.6083594,1,5.38329
1,Boa Vista/PB,-7.2620711,-36.2415161,125,1772.79818
D1,Boa Vista/PB,-7.2620711,-36.2415161,1,14.18239
1,Boa Vista/RR,2.8208478,-60.6719582,34074,8535.29319
D1,Boa Vista/RR,2.8208478,-60.6719582,472,118.23262
1,Boca da Mata/AL,-9.6452054,-36.2116658,1230,4508.63238
D1,Boca da Mata/AL,-9.6452054,-36.2116658,21,76.97665
1,Boca do Acre/AM,-8.7553487,-67.3930873,1231,3588.08441
D1,Boca do Acre/AM,-8.7553487,-67.3930873,12,34.97726
1,Bocaina de Minas/MG,-22.167778,-44.394722,12,235.75639
1,Bocaina do Sul/SC,-27.745494,-49.942279,27,777.20207
D1,Bocaina do Sul/SC,-27.745494,-49.942279,2,57.57052
1,Bocaina/PI,-6.9445939,-41.3224599,102,2266.66667
1,Bocaina/SP,-22.1421831,-48.522276,106,859.76154
D1,Bocaina/SP,-22.1421831,-48.522276,3,24.33287
1,Bocaiúva do Sul/PR,-25.206591,-49.114131,195,1506.48949
D1,Bocaiúva do Sul/PR,-25.206591,-49.114131,2,15.45117
1,Bocaiúva/MG,-17.1160208,-43.8122678,254,508.21345
D1,Bocaiúva/MG,-17.1160208,-43.8122678,2,4.00168
1,Bodocó/PE,-7.777592,-39.933797,225,589.83904
D1,Bodocó/PE,-7.777592,-39.933797,8,20.97205
1,Bodoquena/MS,-20.5508775,-56.6769653,17,215.87302
D1,Bodoquena/MS,-20.5508775,-56.6769653,1,12.69841
1,Bodó/RN,-5.9866104,-36.4134824,9,404.85830
1,Bofete/SP,-23.1019554,-48.2610535,121,1031.54305
D1,Bofete/SP,-23.1019554,-48.2610535,3,25.57545
1,Boituva/SP,-23.2838893,-47.6738231,792,1298.42451
D1,Boituva/SP,-23.2838893,-47.6738231,16,26.23080
1,Bom Conselho/PE,-9.169191,-36.685683,639,1316.06047
D1,Bom Conselho/PE,-9.169191,-36.685683,19,39.13169
1,Bom Despacho/MG,-19.7375242,-45.2517288,461,910.97718
D1,Bom Despacho/MG,-19.7375242,-45.2517288,10,19.76089
1,Bom Jardim da Serra/SC,-28.3380324,-49.625588,102,2150.53763
D1,Bom Jardim da Serra/SC,-28.3380324,-49.625588,1,21.08370
1,Bom Jardim de Goiás/GO,-16.2062659,-52.172793,128,1447.80002
D1,Bom Jardim de Goiás/GO,-16.2062659,-52.172793,2,22.62188
1,Bom Jardim de Minas/MG,-21.9476466,-44.1906033,6,92.67841
1,Bom Jardim/MA,-3.54129,-45.606004,869,2087.43694
D1,Bom Jardim/MA,-3.54129,-45.606004,22,52.84650
1,Bom Jardim/PE,-7.7961572,-35.5871696,676,1725.19396
D1,Bom Jardim/PE,-7.7961572,-35.5871696,31,79.11392
1,Bom Jardim/RJ,-22.1515328,-42.4186683,150,546.52773
D1,Bom Jardim/RJ,-22.1515328,-42.4186683,4,14.57407
1,Bom Jesus da Lapa/BA,-13.250571,-43.410754,313,452.65228
D1,Bom Jesus da Lapa/BA,-13.250571,-43.410754,2,2.89235
1,Bom Jesus da Penha/MG,-21.0165299,-46.5226644,64,1517.66659
1,Bom Jesus da Serra/BA,-14.3724084,-40.5047119,97,981.78138
1,Bom Jesus das Selvas/MA,-4.4878075,-46.8526639,1576,4631.47996
D1,Bom Jesus das Selvas/MA,-4.4878075,-46.8526639,10,29.38756
1,Bom Jesus de Goiás/GO,-18.2174587,-49.739721,204,809.01015
D1,Bom Jesus de Goiás/GO,-18.2174587,-49.739721,10,39.65736
1,Bom Jesus do Amparo/MG,-19.7045132,-43.4752911,21,345.22440
1,Bom Jesus do Araguaia/MT,-12.1725897,-51.5074425,84,1276.59574
1,Bom Jesus do Galho/MG,-19.8283191,-42.3162256,111,743.22062
D1,Bom Jesus do Galho/MG,-19.8283191,-42.3162256,6,40.17409
1,Bom Jesus do Itabapoana/RJ,-21.1341025,-41.680095,740,1994.82424
D1,Bom Jesus do Itabapoana/RJ,-21.1341025,-41.680095,21,56.60988
1,Bom Jesus do Norte/ES,-21.1254776,-41.6711646,291,2928.74396
D1,Bom Jesus do Norte/ES,-21.1254776,-41.6711646,6,60.38647
1,Bom Jesus do Oeste/SC,-26.6929713,-53.0967453,23,1073.76284
D1,Bom Jesus do Oeste/SC,-26.6929713,-53.0967453,1,46.68534
1,Bom Jesus do Sul/PR,-26.1922507,-53.6002033,14,395.36854
D1,Bom Jesus do Sul/PR,-26.1922507,-53.6002033,1,28.24061
1,Bom Jesus do Tocantins/PA,-5.0471796,-48.5978362,356,2096.46075
D1,Bom Jesus do Tocantins/PA,-5.0471796,-48.5978362,2,11.77787
1,Bom Jesus do Tocantins/TO,-8.96306,-48.165043,78,1593.78831
1,Bom Jesus dos Perdões/SP,-23.1353864,-46.4648052,263,1033.48004
D1,Bom Jesus dos Perdões/SP,-23.1353864,-46.4648052,1,3.92958
1,Bom Jesus/PB,-6.8156725,-38.6551841,34,1327.60640
D1,Bom Jesus/PB,-6.8156725,-38.6551841,1,39.04725
1,Bom Jesus/PI,-9.0711644,-44.3583926,1137,4515.66782
D1,Bom Jesus/PI,-9.0711644,-44.3583926,12,47.65876
1,Bom Jesus/RN,-5.9887544,-35.5821149,117,1145.93536
D1,Bom Jesus/RN,-5.9887544,-35.5821149,4,39.17728
1,Bom Jesus/RS,-28.6692723,-50.4346894,115,1013.30514
1,Bom Jesus/SC,-26.7350604,-52.3916519,89,2956.81063
1,Bom Lugar/MA,-4.3728019,-45.0366054,257,1577.26771
D1,Bom Lugar/MA,-4.3728019,-45.0366054,1,6.13723
1,Bom Princípio do Piauí/PI,-3.1912777,-41.6430185,41,728.24156
D1,Bom Princípio do Piauí/PI,-3.1912777,-41.6430185,3,53.28597
1,Bom Princípio/RS,-29.489788,-51.3566782,316,2248.31021
D1,Bom Princípio/RS,-29.489788,-51.3566782,1,7.11491
1,Bom Progresso/RS,-27.5490948,-53.8655601,14,720.90628
1,Bom Repouso/MG,-22.4657069,-46.1485376,57,540.43804
D1,Bom Repouso/MG,-22.4657069,-46.1485376,4,37.92548
1,Bom Retiro do Sul/RS,-29.6000007,-51.9359243,193,1565.54186
D1,Bom Retiro do Sul/RS,-29.6000007,-51.9359243,3,24.33485
1,Bom Retiro/SC,-27.798993,-49.486994,91,913.10456
D1,Bom Retiro/SC,-27.798993,-49.486994,4,40.13646
1,Bom Sucesso de Itararé/SP,-24.3190016,-49.1446207,3,75.87253
1,Bom Sucesso do Sul/PR,-26.0749256,-52.8348629,6,183.82353
1,Bom Sucesso/MG,-21.0323516,-44.7598082,34,193.14890
D1,Bom Sucesso/MG,-21.0323516,-44.7598082,1,5.68085
1,Bom Sucesso/PB,-6.4458948,-37.9297662,24,482.41206
1,Bom Sucesso/PR,-23.7088019,-51.7651297,100,1422.07053
D1,Bom Sucesso/PR,-23.7088019,-51.7651297,1,14.22071
1,Bombinhas/SC,-27.1519159,-48.4875691,1144,5786.83798
D1,Bombinhas/SC,-27.1519159,-48.4875691,8,40.46740
1,Bonfim do Piauí/PI,-9.1648678,-42.8734415,68,1199.29453
D1,Bonfim do Piauí/PI,-9.1648678,-42.8734415,1,17.63668
1,Bonfim/MG,-20.3266626, -44.2386157,56,815.37566
D1,Bonfim/MG,-20.3266626, -44.2386157,2,29.12056
1,Bonfim/RR,3.3613818,-59.8427241,752,6060.11766
D1,Bonfim/RR,3.3613818,-59.8427241,12,96.70401
1,Bonfinópolis de Minas/MG,-16.5660011,-45.98645,81,1474.60404
D1,Bonfinópolis de Minas/MG,-16.5660011,-45.98645,3,54.61496
1,Bonfinópolis/GO,-16.6172709,-48.9615701,197,2029.67237
D1,Bonfinópolis/GO,-16.6172709,-48.9615701,5,51.51453
1,Boninal/BA,-12.7095183,-41.8299984,9,62.63920
D1,Boninal/BA,-12.7095183,-41.8299984,1,6.95991
1,Bonito de Minas/MG,-15.3191266,-44.7544,5,44.52360
1,Bonito de Santa Fé/PB,-7.3143332,-38.5146677,80,671.30989
D1,Bonito de Santa Fé/PB,-7.3143332,-38.5146677,1,8.39137
1,Bonito/BA,-11.9665473,-41.2649896,43,256.50203
D1,Bonito/BA,-11.9665473,-41.2649896,2,11.93033
1,Bonito/MS,-21.1264766,-56.4902208,437,1988.53295
D1,Bonito/MS,-21.1264766,-56.4902208,6,27.30251
1,Bonito/PA,-1.3605722,-47.3049907,252,1547.34127
D1,Bonito/PA,-1.3605722,-47.3049907,7,42.98170
1,Bonito/PE,-8.4721161,-35.7314591,320,839.14617
D1,Bonito/PE,-8.4721161,-35.7314591,25,65.55829
1,Bonópolis/GO,-13.649331,-49.8329113,21,476.73099
D1,Bonópolis/GO,-13.649331,-49.8329113,1,22.70148
1,Boqueirão do Leão/RS,-29.30332,-52.4296817,63,816.69691
1,Boqueirão do Piauí/PI,-4.4850148,-42.1095161,137,2138.28625
D1,Boqueirão do Piauí/PI,-4.4850148,-42.1095161,1,15.60793
1,Boqueirão/PB,-7.487004,-36.130887,398,2235.45271
D1,Boqueirão/PB,-7.487004,-36.130887,7,39.31701
1,Boquim/SE,-11.1450175,-37.6204228,568,2118.13842
D1,Boquim/SE,-11.1450175,-37.6204228,15,55.93675
1,Boquira/BA,-12.8184859,-42.7270883,35,162.73015
1,Boracéia/SP,-22.195355,-48.7801925,75,1555.04872
D1,Boracéia/SP,-22.195355,-48.7801925,1,20.73398
1,Borba/AM,-4.3934778,-59.5947721,708,1720.07483
D1,Borba/AM,-4.3934778,-59.5947721,22,53.44865
1,Borborema/PB,-6.8066718,-35.5990191,45,855.02565
1,Borborema/SP,-21.6212706,-49.074135,175,1090.61448
D1,Borborema/SP,-21.6212706,-49.074135,2,12.46417
1,Borda da Mata/MG,-22.274167,-46.165278,242,1246.65156
D1,Borda da Mata/MG,-22.274167,-46.165278,13,66.96889
1,Borebi/SP,-22.5700178,-48.9714871,38,1432.34075
D1,Borebi/SP,-22.5700178,-48.9714871,1,37.69318
1,Borrazópolis/PR,-23.9393362,-51.5850786,52,788.83495
1,Borá/SP,-22.2701088,-50.544407,3,358.42294
1,Bossoroca/RS,-28.7278885,-54.9120278,65,1035.19669
D1,Bossoroca/RS,-28.7278885,-54.9120278,1,15.92610
1,Botelhos/MG,-21.65,-46.394722,49,327.29945
D1,Botelhos/MG,-21.65,-46.394722,1,6.67958
1,Botucatu/SP,-22.8879628,-48.4410712,2059,1405.48953
D1,Botucatu/SP,-22.8879628,-48.4410712,37,25.25649
1,Botuporã/BA,-13.3744752,-42.5198469,5,48.96680
D1,Botuporã/BA,-13.3744752,-42.5198469,1,9.79336
1,Botuverá/SC,-27.200749,-49.068892,153,2916.50782
1,Bozano/RS,-28.3669953,-53.7705165,7,329.72209
1,Braga/RS,-27.617348,-53.740514,15,447.36057
1,Braganey/PR,-24.8179919,-53.118506,52,958.17210
D1,Braganey/PR,-24.8179919,-53.118506,2,36.85277
1,Bragança Paulista/SP,-22.9520235,-46.5418586,2495,1479.23732
D1,Bragança Paulista/SP,-22.9520235,-46.5418586,61,36.16572
1,Bragança/PA,-1.0573967,-46.7635406,2294,1796.59477
D1,Bragança/PA,-1.0573967,-46.7635406,93,72.83492
1,Branquinha/AL,-9.2478057,-36.0152009,259,2468.07700
D1,Branquinha/AL,-9.2478057,-36.0152009,6,57.17553
1,Brasil Novo/PA,-3.3055853,-52.539198,712,4719.60758
D1,Brasil Novo/PA,-3.3055853,-52.539198,14,92.80127
1,Brasileira/PI,-4.131182,-41.7824969,107,1284.66803
D1,Brasileira/PI,-4.131182,-41.7824969,1,12.00624
1,Brasilândia de Minas/MG,-17.0096469,-46.0087183,228,1378.64312
D1,Brasilândia de Minas/MG,-17.0096469,-46.0087183,1,6.04668
1,Brasilândia do Sul/PR,-24.1975793,-53.527551,32,1207.09166
1,Brasilândia do Tocantins/TO,-8.3886619,-48.4842729,47,2135.39300
D1,Brasilândia do Tocantins/TO,-8.3886619,-48.4842729,1,45.43389
1,Brasilândia/MS,-21.255575,-52.0365617,98,825.47170
D1,Brasilândia/MS,-21.255575,-52.0365617,2,16.84636
1,Brasiléia/AC,-11.0010413,-68.7487894,1145,4357.25702
D1,Brasiléia/AC,-11.0010413,-68.7487894,19,72.30383
1,Brasnorte/MT,-12.1227151,-58.0050109,267,1355.67403
D1,Brasnorte/MT,-12.1227151,-58.0050109,1,5.07743
1,Brasília de Minas/MG,-16.2075114,-44.430559,65,200.94599
D1,Brasília de Minas/MG,-16.2075114,-44.430559,2,6.18295
1,Brasília/DF,-15.7934036,-47.8823172,175646,5825.22018
D1,Brasília/DF,-15.7934036,-47.8823172,2883,95.61339
1,Brazabrantes/GO,-16.4291635,-49.3858216,67,1809.34378
D1,Brazabrantes/GO,-16.4291635,-49.3858216,2,54.01026
1,Brazópolis/MG,-22.4742842,-45.6165577,248,1715.19469
D1,Brazópolis/MG,-22.4742842,-45.6165577,3,20.74832
1,Braço do Norte/SC,-28.2728633,-49.1622712,2145,6412.55605
D1,Braço do Norte/SC,-28.2728633,-49.1622712,16,47.83259
1,Braço do Trombudo/SC,-27.358578,-49.882145,42,1122.09458
D1,Braço do Trombudo/SC,-27.358578,-49.882145,1,26.71654
1,Braúna/SP,-21.5015319,-50.3175246,78,1371.79036
D1,Braúna/SP,-21.5015319,-50.3175246,6,105.52234
1,Braúnas/MG,-19.055556,-42.716111,16,333.26390
D1,Braúnas/MG,-19.055556,-42.716111,2,41.65799
1,Brejetuba/ES,-20.1465817,-41.2902303,445,3587.55240
1,Brejinho de Nazaré/TO,-11.0205883,-48.5722906,63,1146.07968
D1,Brejinho de Nazaré/TO,-11.0205883,-48.5722906,4,72.76696
1,Brejinho/PE,-7.3482153,-37.28538,67,894.88447
1,Brejinho/RN,-6.1957907,-35.3583019,151,1189.07001
D1,Brejinho/RN,-6.1957907,-35.3583019,3,23.62391
1,Brejo Alegre/SP,-21.1671191,-50.1850393,42,1465.96859
D1,Brejo Alegre/SP,-21.1671191,-50.1850393,1,34.90401
1,Brejo Grande do Araguaia/PA,-5.7011449,-48.4037308,390,5284.55285
D1,Brejo Grande do Araguaia/PA,-5.7011449,-48.4037308,2,27.10027
1,Brejo Grande/SE,-10.4287358,-36.4667918,169,2033.93910
D1,Brejo Grande/SE,-10.4287358,-36.4667918,7,84.24600
1,Brejo Santo/CE,-7.4909841,-38.9859152,1394,2817.47074
D1,Brejo Santo/CE,-7.4909841,-38.9859152,22,44.46510
1,Brejo da Madre de Deus/PE,-8.1409718,-36.3712527,915,1803.23992
D1,Brejo da Madre de Deus/PE,-8.1409718,-36.3712527,21,41.38583
1,Brejo de Areia/MA,-4.3316785,-45.5833334,201,2187.63605
D1,Brejo de Areia/MA,-4.3316785,-45.5833334,1,10.88376
1,Brejo do Cruz/PB,-6.32926065,-37.48746163303929,496,3512.25039
D1,Brejo do Cruz/PB,-6.32926065,-37.48746163303929,8,56.64920
1,Brejo do Piauí/PI,-8.207583,-42.8359849,11,283.87097
1,Brejo dos Santos/PB,-6.3769367,-37.8243125,59,914.87052
1,Brejo/MA,-3.6804397,-42.7529313,671,1843.55854
D1,Brejo/MA,-3.6804397,-42.7529313,18,49.45463
1,Brejolândia/BA,-12.4843845,-43.9611861,5,47.36194
D1,Brejolândia/BA,-12.4843845,-43.9611861,1,9.47239
1,Brejão/PE,-9.029146,-36.566034,29,322.47303
1,Brejões/BA,-13.1033754,-39.7909837,52,363.76355
D1,Brejões/BA,-13.1033754,-39.7909837,1,6.99545
1,Breu Branco/PA,-3.7785073,-49.5684795,300,454.22887
D1,Breu Branco/PA,-3.7785073,-49.5684795,20,30.28192
1,Breves/PA,-1.68036,-50.479085,2357,2295.01173
D1,Breves/PA,-1.68036,-50.479085,87,84.71193
1,Britânia/GO,-15.2427599,-51.1602061,122,2111.09188
D1,Britânia/GO,-15.2427599,-51.1602061,1,17.30403
1,Brochier/RS,-29.556766,-51.5963047,30,591.24951
1,Brodowski/SP,-20.984532,-47.657217,437,1752.27555
D1,Brodowski/SP,-20.984532,-47.657217,17,68.16633
1,Brotas de Macaúbas/BA,-12.0019007,-42.6257506,1,9.77422
1,Brotas/SP,-22.2840884,-48.1267265,114,467.15568
D1,Brotas/SP,-22.2840884,-48.1267265,2,8.19571
1,Brumadinho/MG,-20.143611,-44.2,884,2204.32387
D1,Brumadinho/MG,-20.143611,-44.2,10,24.93579
1,Brumado/BA,-14.29507325,-41.659307508575985,1048,1559.63985
D1,Brumado/BA,-14.29507325,-41.659307508575985,13,19.34668
1,Brunópolis/SC,-27.310953,-50.837585,28,1157.02479
D1,Brunópolis/SC,-27.310953,-50.837585,1,41.32231
1,Brusque/SC,-27.0964628,-48.9136323,5209,3866.45191
D1,Brusque/SC,-27.0964628,-48.9136323,52,38.59772
1,Brás Pires/MG,-20.8483109,-43.2430524,8,184.62959
1,Bueno Brandão/MG,-22.441976,-46.3517971,52,472.68430
D1,Bueno Brandão/MG,-22.441976,-46.3517971,4,36.36033
1,Buenos Aires/PE,-7.7218931,-35.326587,50,380.08362
D1,Buenos Aires/PE,-7.7218931,-35.326587,8,60.81338
1,Buenópolis/MG,-17.8756607,-44.1749365,87,839.36324
D1,Buenópolis/MG,-17.8756607,-44.1749365,1,9.64785
1,Buerarema/BA,-14.9571177,-39.3008035,460,2506.94861
D1,Buerarema/BA,-14.9571177,-39.3008035,15,81.74832
1,Bugre/MG,-19.4257687,-42.2556,41,1029.63335
D1,Bugre/MG,-19.4257687,-42.2556,2,50.22602
1,Bujari/AC,-9.8309656,-67.9520886,370,3604.13014
D1,Bujari/AC,-9.8309656,-67.9520886,7,68.18625
1,Bujaru/PA,-1.5169239,-48.0410699,614,2107.64795
D1,Bujaru/PA,-1.5169239,-48.0410699,22,75.51833
1,Buri/SP,-23.79849,-48.598924,251,1262.70249
D1,Buri/SP,-23.79849,-48.598924,5,25.15344
1,Buritama/SP,-21.0664017,-50.1448077,267,1557.39617
D1,Buritama/SP,-21.0664017,-50.1448077,10,58.32944
1,Buriti Alegre/GO,-18.1377879,-49.0404411,212,2241.25172
D1,Buriti Alegre/GO,-18.1377879,-49.0404411,5,52.85971
1,Buriti Bravo/MA,-5.8391884,-43.8367876,399,1670.57444
D1,Buriti Bravo/MA,-5.8391884,-43.8367876,1,4.18690
1,Buriti de Goiás/GO,-16.180644,-50.4287479,78,3135.04823
D1,Buriti de Goiás/GO,-16.180644,-50.4287479,1,40.19293
1,Buriti do Tocantins/TO,-5.3187439,-48.2256609,201,1771.23722
1,Buriti dos Lopes/PI,-3.1776723,-41.8707444,718,3629.74572
D1,Buriti dos Lopes/PI,-3.1776723,-41.8707444,12,60.66427
1,Buriti dos Montes/PI,-5.3136171,-41.0971256,27,327.51092
D1,Buriti dos Montes/PI,-5.3136171,-41.0971256,1,12.13003
1,Buriti/MA,-3.9430944,-42.9244281,589,2053.83918
D1,Buriti/MA,-3.9430944,-42.9244281,1,3.48699
1,Buriticupu/MA,-4.3227472,-46.4516989,2195,3033.52774
D1,Buriticupu/MA,-4.3227472,-46.4516989,4,5.52807
1,Buritinópolis/GO,-14.4589282,-46.4293104,38,1154.31349
1,Buritirama/BA,-10.7148421,-43.6362327,215,1015.39624
D1,Buritirama/BA,-10.7148421,-43.6362327,4,18.89109
1,Buritirana/MA,-5.5897455,-47.0148915,236,1529.48801
D1,Buritirana/MA,-5.5897455,-47.0148915,6,38.88529
1,Buritis/MG,-15.621389,-46.423889,296,1191.57844
D1,Buritis/MG,-15.621389,-46.423889,2,8.05121
1,Buritis/RO,-10.2054937,-63.8281954,627,1581.17718
D1,Buritis/RO,-10.2054937,-63.8281954,8,20.17451
1,Buritizal/SP,-20.1933264,-47.7097165,53,1182.77170
1,Buritizeiro/MG,-17.3667765,-44.9647781,209,744.93869
D1,Buritizeiro/MG,-17.3667765,-44.9647781,5,17.82150
1,Butiá/RS,-30.1256795,-51.9692224,183,873.88377
D1,Butiá/RS,-30.1256795,-51.9692224,10,47.75321
1,Buíque/PE,-8.6239732,-37.157296,373,638.93933
D1,Buíque/PE,-8.6239732,-37.157296,6,10.27784
1,Bálsamo/SP,-20.7343722,-49.5807484,394,4344.94927
D1,Bálsamo/SP,-20.7343722,-49.5807484,14,154.38906
0,CASO SEM LOCALIZAÇÃO DEFINIDA/AC,-9.884083190922777,-67.85119819780795,271,30.72789
D0,CASO SEM LOCALIZAÇÃO DEFINIDA/AC,-9.884083190922777,-67.85119819780795,2,0.22677
0,CASO SEM LOCALIZAÇÃO DEFINIDA/AL,-9.931093434363673,-35.609611600637464,8,0.23971
D0,CASO SEM LOCALIZAÇÃO DEFINIDA/AL,-9.931093434363673,-35.609611600637464,8,0.23971
0,CASO SEM LOCALIZAÇÃO DEFINIDA/AM,-3.07518492149711,-60.16169212873594,1279,30.85945
D0,CASO SEM LOCALIZAÇÃO DEFINIDA/AM,-3.07518492149711,-60.16169212873594,14,0.33779
0,CASO SEM LOCALIZAÇÃO DEFINIDA/AP,2.677150600275196,-50.477785111870624,124,14.66187
D0,CASO SEM LOCALIZAÇÃO DEFINIDA/AP,2.677150600275196,-50.477785111870624,1,0.11824
0,CASO SEM LOCALIZAÇÃO DEFINIDA/BA,-13.415069300066518,-38.14174656569957,7625,51.26718
D0,CASO SEM LOCALIZAÇÃO DEFINIDA/BA,-13.415069300066518,-38.14174656569957,84,0.56478
0,CASO SEM LOCALIZAÇÃO DEFINIDA/CE,-3.3445126297392798,-38.624961942434304,3121,34.17623
D0,CASO SEM LOCALIZAÇÃO DEFINIDA/CE,-3.3445126297392798,-38.624961942434304,2,0.02190
0,CASO SEM LOCALIZAÇÃO DEFINIDA/ES,-20.30989267097039,-39.81745156645774,1635,40.68530
D0,CASO SEM LOCALIZAÇÃO DEFINIDA/ES,-20.30989267097039,-39.81745156645774,26,0.64698
0,CASO SEM LOCALIZAÇÃO DEFINIDA/GO,-16.701590966270153,-49.164524059025034,732,10.42980
D0,CASO SEM LOCALIZAÇÃO DEFINIDA/GO,-16.701590966270153,-49.164524059025034,32,0.45595
0,CASO SEM LOCALIZAÇÃO DEFINIDA/MA,-2.171256551718846,-43.98946796681719,482,6.81255
D0,CASO SEM LOCALIZAÇÃO DEFINIDA/MA,-2.171256551718846,-43.98946796681719,9,0.12721
0,CASO SEM LOCALIZAÇÃO DEFINIDA/MG,-19.97049116501593,-43.8852149072783,8319,39.29842
D0,CASO SEM LOCALIZAÇÃO DEFINIDA/MG,-19.97049116501593,-43.8852149072783,245,1.15736
0,CASO SEM LOCALIZAÇÃO DEFINIDA/MS,-20.391549234908513,-54.645156949758444,2625,94.45891
D0,CASO SEM LOCALIZAÇÃO DEFINIDA/MS,-20.391549234908513,-54.645156949758444,31,1.11551
0,CASO SEM LOCALIZAÇÃO DEFINIDA/MT,-15.54791153961863,-56.17143998972475,531,15.23906
D0,CASO SEM LOCALIZAÇÃO DEFINIDA/MT,-15.54791153961863,-56.17143998972475,48,1.37754
0,CASO SEM LOCALIZAÇÃO DEFINIDA/PA,-0.09317078214359542,-48.0050231510481,721,8.38093
D0,CASO SEM LOCALIZAÇÃO DEFINIDA/PA,-0.09317078214359542,-48.0050231510481,37,0.43009
0,CASO SEM LOCALIZAÇÃO DEFINIDA/PB,-7.1049355696146606,-34.68696690234351,688,17.12241
D0,CASO SEM LOCALIZAÇÃO DEFINIDA/PB,-7.1049355696146606,-34.68696690234351,12,0.29865
0,CASO SEM LOCALIZAÇÃO DEFINIDA/PE,-8.121628543819208,-34.57313921302556,1794,18.77144
D0,CASO SEM LOCALIZAÇÃO DEFINIDA/PE,-8.121628543819208,-34.57313921302556,60,0.62781
0,CASO SEM LOCALIZAÇÃO DEFINIDA/PR,-25.69415946385943,-48.10141676336737,3841,33.59292
D0,CASO SEM LOCALIZAÇÃO DEFINIDA/PR,-25.69415946385943,-48.10141676336737,60,0.52475
0,CASO SEM LOCALIZAÇÃO DEFINIDA/RJ,-23.210238986465157,-43.12864305824042,323,1.87084
D0,CASO SEM LOCALIZAÇÃO DEFINIDA/RJ,-23.210238986465157,-43.12864305824042,102,0.59079
0,CASO SEM LOCALIZAÇÃO DEFINIDA/RN,-5.749310788669161,-34.95302586257457,1452,41.40464
D0,CASO SEM LOCALIZAÇÃO DEFINIDA/RN,-5.749310788669161,-34.95302586257457,28,0.79844
0,CASO SEM LOCALIZAÇÃO DEFINIDA/RO,-8.681174926655274,-63.9216949899276,742,41.75048
D0,CASO SEM LOCALIZAÇÃO DEFINIDA/RO,-8.681174926655274,-63.9216949899276,23,1.29415
0,CASO SEM LOCALIZAÇÃO DEFINIDA/RR,2.813328208465927,-60.663338675861986,1359,224.34591
D0,CASO SEM LOCALIZAÇÃO DEFINIDA/RR,2.813328208465927,-60.663338675861986,3,0.49524
0,CASO SEM LOCALIZAÇÃO DEFINIDA/RS,-30.50647488532064,-49.906261466443524,2789,24.51386
D0,CASO SEM LOCALIZAÇÃO DEFINIDA/RS,-30.50647488532064,-49.906261466443524,42,0.36916
0,CASO SEM LOCALIZAÇÃO DEFINIDA/SC,-27.675643660562308,-48.18313219398259,7869,109.82879
D0,CASO SEM LOCALIZAÇÃO DEFINIDA/SC,-27.675643660562308,-48.18313219398259,18,0.25123
0,CASO SEM LOCALIZAÇÃO DEFINIDA/SE,-11.03002091978736,-36.89283180376513,120,5.22035
D0,CASO SEM LOCALIZAÇÃO DEFINIDA/SE,-11.03002091978736,-36.89283180376513,6,0.26102
0,CASO SEM LOCALIZAÇÃO DEFINIDA/SP,-24.30968974555485,-46.21366504207253,8046,17.52214
D0,CASO SEM LOCALIZAÇÃO DEFINIDA/SP,-24.30968974555485,-46.21366504207253,229,0.49870
0,CASO SEM LOCALIZAÇÃO DEFINIDA/TO,-10.213012114749148,-48.40023803990334,1496,95.11300
D0,CASO SEM LOCALIZAÇÃO DEFINIDA/TO,-10.213012114749148,-48.40023803990334,26,1.65303
1,Caapiranga/AM,-3.3188884,-61.2096404,294,2247.53459
D1,Caapiranga/AM,-3.3188884,-61.2096404,7,53.51273
1,Caaporã/PB,-7.510234,-34.9154114,969,4439.25234
D1,Caaporã/PB,-7.510234,-34.9154114,15,68.71908
1,Caarapó/MS,-22.6349267,-54.8240903,394,1305.75993
D1,Caarapó/MS,-22.6349267,-54.8240903,2,6.62822
1,Caatiba/BA,-14.9782759,-40.4092325,236,3492.15744
1,Cabaceiras do Paraguaçu/BA,-12.5377868,-39.1901339,64,340.29882
D1,Cabaceiras do Paraguaçu/BA,-12.5377868,-39.1901339,1,5.31717
1,Cabaceiras/PB,-7.4899156,-36.2860501,102,1817.85778
1,Cabeceira Grande/MG,-16.0297,-47.0906,41,590.01295
1,Cabeceiras do Piauí/PI,-4.4733665,-42.3098716,207,1955.41281
D1,Cabeceiras do Piauí/PI,-4.4733665,-42.3098716,4,37.78575
1,Cabeceiras/GO,-15.7995459,-46.9264991,60,750.65682
D1,Cabeceiras/GO,-15.7995459,-46.9264991,3,37.53284
1,Cabedelo/PB,-6.97324,-34.8351609,2860,4222.27471
D1,Cabedelo/PB,-6.97324,-34.8351609,63,93.00815
1,Cabixi/RO,-13.4956065,-60.5424442,88,1656.62651
D1,Cabixi/RO,-13.4956065,-60.5424442,5,94.12651
1,Cabo Frio/RJ,-22.8804369,-42.0189227,2261,998.12383
D1,Cabo Frio/RJ,-22.8804369,-42.0189227,128,56.50590
1,Cabo Verde/MG,-21.4743338,-46.3964995,33,234.45826
1,Cabo de Santo Agostinho/PE,-8.2838945,-35.0320984,1780,859.70403
D1,Cabo de Santo Agostinho/PE,-8.2838945,-35.0320984,235,113.50025
1,Cabreúva/SP,-23.3075813,-47.1324417,1096,2204.92084
D1,Cabreúva/SP,-23.3075813,-47.1324417,38,76.44799
1,Cabrobó/PE,-8.5083701,-39.3106961,373,1089.97399
D1,Cabrobó/PE,-8.5083701,-39.3106961,4,11.68873
1,Cabrália Paulista/SP,-22.4562909,-49.3385645,86,2016.88555
1,Cacaulândia/RO,-10.3380043,-62.9007231,78,1252.00642
1,Cacequi/RS,-29.8838059,-54.8273443,29,230.87334
1,Cachoeira Alta/GO,-18.7618269,-50.9432431,548,4389.61871
D1,Cachoeira Alta/GO,-18.7618269,-50.9432431,8,64.08202
1,Cachoeira Dourada/GO,-18.4934204,-49.481062,60,743.77092
1,Cachoeira Dourada/MG,-18.517136,-49.5002062,9,334.32392
1,Cachoeira Grande/MA,-2.9290492,-44.0573223,171,1813.16934
D1,Cachoeira Grande/MA,-2.9290492,-44.0573223,4,42.41332
1,Cachoeira Paulista/SP,-22.666498,-45.015384,301,903.17160
D1,Cachoeira Paulista/SP,-22.666498,-45.015384,8,24.00456
1,Cachoeira da Prata/MG,-19.524723,-44.453056,37,1026.92201
D1,Cachoeira da Prata/MG,-19.524723,-44.453056,1,27.75465
1,Cachoeira de Goiás/GO,-16.6688414,-50.6435997,15,1110.28868
1,Cachoeira de Minas/MG,-22.3554043,-45.7796324,94,814.06426
1,Cachoeira de Pajeú/MG,-15.965833,-41.496666,193,2050.57374
D1,Cachoeira de Pajeú/MG,-15.965833,-41.496666,2,21.24947
1,Cachoeira do Arari/PA,-1.0143572,-48.9621089,280,1178.10409
D1,Cachoeira do Arari/PA,-1.0143572,-48.9621089,12,50.49018
1,Cachoeira do Piriá/PA,-1.7599443,-46.5446954,499,1471.97640
D1,Cachoeira do Piriá/PA,-1.7599443,-46.5446954,3,8.84956
1,Cachoeira do Sul/RS,-30.0474778,-52.8905413,494,600.96592
D1,Cachoeira do Sul/RS,-30.0474778,-52.8905413,5,6.08265
1,Cachoeira dos Índios/PB,-6.9259193,-38.6742159,103,1005.46661
D1,Cachoeira dos Índios/PB,-6.9259193,-38.6742159,6,58.57087
1,Cachoeira/BA,-12.5998256,-38.9665918,425,1269.79385
D1,Cachoeira/BA,-12.5998256,-38.9665918,9,26.88975
1,Cachoeiras de Macacu/RJ,-22.4626861,-42.6534414,566,960.34749
D1,Cachoeiras de Macacu/RJ,-22.4626861,-42.6534414,27,45.81163
1,Cachoeirinha/PE,-8.4906364,-36.2338963,266,1305.20118
D1,Cachoeirinha/PE,-8.4906364,-36.2338963,19,93.22866
1,Cachoeirinha/RS,-29.9493353,-51.0898927,2288,1756.04215
D1,Cachoeirinha/RS,-29.9493353,-51.0898927,50,38.37505
1,Cachoeirinha/TO,-6.118647,-47.9208885,24,1054.94505
1,Cachoeiro de Itapemirim/ES,-20.848084,-41.11129,5324,2547.70974
D1,Cachoeiro de Itapemirim/ES,-20.848084,-41.11129,163,78.00088
1,Cacimba de Areia/PB,-7.1288513,-37.1575194,10,271.59153
1,Cacimba de Dentro/PB,-6.6425101,-35.7929304,335,1949.14761
D1,Cacimba de Dentro/PB,-6.6425101,-35.7929304,6,34.91011
1,Cacimbas/PB,-7.2125451,-37.0593398,47,655.23491
D1,Cacimbas/PB,-7.2125451,-37.0593398,1,13.94117
1,Cacimbinhas/AL,-9.401212,-36.991082,254,2339.28900
D1,Cacimbinhas/AL,-9.401212,-36.991082,3,27.62940
1,Cacique Doble/RS,-27.7700117,-51.6616409,81,1599.21027
1,Cacoal/RO,-11.4333,-61.4420502,1981,2320.78633
D1,Cacoal/RO,-11.4333,-61.4420502,29,33.97416
1,Caconde/SP,-21.527995,-46.643659,84,442.45457
1,Caculé/BA,-14.4990734,-42.2233006,77,332.32628
D1,Caculé/BA,-14.4990734,-42.2233006,2,8.63185
1,Caetanos/BA,-14.3387456,-40.9085971,54,371.33819
1,Caetanópolis/MG,-19.2947496,-44.4138386,71,610.80523
D1,Caetanópolis/MG,-19.2947496,-44.4138386,1,8.60289
1,Caetité/BA,-14.0691776,-42.4852428,148,290.33840
D1,Caetité/BA,-14.0691776,-42.4852428,4,7.84698
1,Caeté/MG,-19.897777,-43.670278,338,755.84776
D1,Caeté/MG,-19.897777,-43.670278,8,17.88989
1,Caetés/PE,-8.7728788,-36.6255835,474,1649.32670
D1,Caetés/PE,-8.7728788,-36.6255835,5,17.39796
1,Cafarnaum/BA,-11.691399,-41.468823,179,970.87379
D1,Cafarnaum/BA,-11.691399,-41.468823,2,10.84775
1,Cafeara/PR,-22.78905,-51.714195,51,1738.24131
1,Cafelândia/PR,-24.6176963,-53.3218057,178,982.33996
D1,Cafelândia/PR,-24.6176963,-53.3218057,1,5.51876
1,Cafelândia/SP,-21.8054355,-49.6030627,248,1395.84623
D1,Cafelândia/SP,-21.8054355,-49.6030627,2,11.25682
1,Cafezal do Sul/PR,-23.900508,-53.512418,22,544.01583
1,Caiabu/SP,-22.0143038,-51.2356597,35,835.12288
D1,Caiabu/SP,-22.0143038,-51.2356597,2,47.72131
1,Caiana/MG,-20.695555,-41.924723,16,291.12082
D1,Caiana/MG,-20.695555,-41.924723,2,36.39010
1,Caiapônia/GO,-16.9538779,-51.8090761,125,660.92106
D1,Caiapônia/GO,-16.9538779,-51.8090761,1,5.28737
1,Caibaté/RS,-28.290475,-54.645407,2,41.27115
1,Caibi/SC,-27.0751925,-53.2502133,41,666.88354
D1,Caibi/SC,-27.0751925,-53.2502133,2,32.53090
1,Caicó/RN,-6.4594544,-37.0971911,2226,3275.84177
D1,Caicó/RN,-6.4594544,-37.0971911,24,35.31905
1,Caieiras/SP,-23.3644621,-46.7484765,1941,1912.88065
D1,Caieiras/SP,-23.3644621,-46.7484765,91,89.68168
1,Cairu/BA,-13.4860505,-39.0455744,191,1050.83627
D1,Cairu/BA,-13.4860505,-39.0455744,3,16.50528
1,Caiuá/SP,-21.8319357,-51.9887179,53,902.28124
1,Caiçara do Norte/RN,-5.0645017,-36.0561226,86,1313.17758
D1,Caiçara do Norte/RN,-5.0645017,-36.0561226,3,45.80852
1,Caiçara do Rio do Vento/RN,-5.757968,-36.00089,61,1655.80890
D1,Caiçara do Rio do Vento/RN,-5.757968,-36.00089,1,27.14441
1,Caiçara/PB,-6.6146866,-35.4681434,447,6207.47118
D1,Caiçara/PB,-6.6146866,-35.4681434,8,111.09568
1,Caiçara/RS,-27.2750478,-53.4310053,42,885.51550
D1,Caiçara/RS,-27.2750478,-53.4310053,2,42.16740
1,Cajamar/SP,-23.3561111,-46.8769444,1469,1912.73551
D1,Cajamar/SP,-23.3561111,-46.8769444,74,96.35291
1,Cajapió/MA,-2.8778715,-44.6746871,5,44.73472
D1,Cajapió/MA,-2.8778715,-44.6746871,2,17.89389
1,Cajari/MA,-3.3213076,-45.0118757,131,675.98947
D1,Cajari/MA,-3.3213076,-45.0118757,4,20.64090
1,Cajati/SP,-24.7272376,-48.1077914,1482,5191.07499
D1,Cajati/SP,-24.7272376,-48.1077914,23,80.56324
1,Cajazeiras do Piauí/PI,-6.794271,-42.3935024,7,196.68446
1,Cajazeiras/PB,-6.8897849,-38.5570389,1777,2866.45266
D1,Cajazeiras/PB,-6.8897849,-38.5570389,43,69.36267
1,Cajazeirinhas/PB,-6.961442,-37.7993733,34,1064.82931
1,Cajobi/SP,-20.8776238,-48.8106972,167,1584.13963
D1,Cajobi/SP,-20.8776238,-48.8106972,5,47.42933
1,Cajueiro da Praia/PI,-2.931114,-41.340801,291,3807.90369
D1,Cajueiro da Praia/PI,-2.931114,-41.340801,8,104.68464
1,Cajueiro/AL,-9.399589,-36.1524309,288,1354.40181
D1,Cajueiro/AL,-9.399589,-36.1524309,12,56.43341
1,Cajuri/MG,-20.7901414,-42.7954489,45,1128.66817
1,Cajuru/SP,-21.2759978,-47.3046035,422,1612.71831
D1,Cajuru/SP,-21.2759978,-47.3046035,9,34.39447
1,Caldas Brandão/PB,-7.1027959,-35.3254676,317,5271.03425
D1,Caldas Brandão/PB,-7.1027959,-35.3254676,2,33.25574
1,Caldas Novas/GO,-17.745,-48.625,1277,1400.80297
D1,Caldas Novas/GO,-17.745,-48.625,31,34.00540
1,Caldas/MG,-21.923611,-46.386111,82,566.29834
D1,Caldas/MG,-21.923611,-46.386111,2,13.81215
1,Caldazinha/GO,-16.7116649,-49.0012601,63,1656.15142
D1,Caldazinha/GO,-16.7116649,-49.0012601,1,26.28812
1,Caldeirão Grande do Piauí/PI,-7.3310393,-40.6374433,126,2181.44044
1,Caldeirão Grande/BA,-11.0208483,-40.3041387,122,915.43483
D1,Caldeirão Grande/BA,-11.0208483,-40.3041387,1,7.50356
1,Califórnia/PR,-23.6672543,-51.3554556,74,863.47725
D1,Califórnia/PR,-23.6672543,-51.3554556,2,23.33722
1,Calmon/SC,-26.6023644,-51.0992893,8,239.09145
1,Calumbi/PE,-7.9389746,-38.1516871,160,2782.60870
D1,Calumbi/PE,-7.9389746,-38.1516871,1,17.39130
1,Calçado/PE,-8.7413446,-36.3351787,56,506.64978
D1,Calçado/PE,-8.7413446,-36.3351787,1,9.04732
1,Calçoene/AP,2.4981757,-50.9539503,1154,10380.49834
D1,Calçoene/AP,2.4981757,-50.9539503,5,44.97616
1,Camacan/BA,-15.4166631,-39.4930088,1335,4173.44004
D1,Camacan/BA,-15.4166631,-39.4930088,24,75.02814
1,Camalaú/PB,-7.885031,-36.824191,29,482.28838
1,Camamu/BA,-13.9438142,-39.1060917,797,2256.76747
D1,Camamu/BA,-13.9438142,-39.1060917,14,39.64209
1,Camanducaia/MG,-22.755278,-46.144444,450,2067.06477
D1,Camanducaia/MG,-22.755278,-46.144444,9,41.34130
1,Camapuã/MS,-19.5291747,-54.0434641,41,299.02998
D1,Camapuã/MS,-19.5291747,-54.0434641,1,7.29341
1,Camaquã/RS,-30.8524752,-51.8075619,809,1220.92936
D1,Camaquã/RS,-30.8524752,-51.8075619,17,25.65612
1,Camaragibe/PE,-8.0213832,-34.9810768,1991,1261.49986
D1,Camaragibe/PE,-8.0213832,-34.9810768,171,108.34579
1,Camargo/RS,-28.5865661,-52.2031474,34,1244.05415
1,Camaçari/BA,-12.6998188,-38.3260762,5802,1939.61194
D1,Camaçari/BA,-12.6998188,-38.3260762,101,33.76436
1,Cambará do Sul/RS,-29.0489517,-50.145412,63,979.62992
1,Cambará/PR,-23.042273,-50.075281,142,559.93691
D1,Cambará/PR,-23.042273,-50.075281,4,15.77287
1,Cambira/PR,-23.600265,-51.581045,67,851.87540
D1,Cambira/PR,-23.600265,-51.581045,2,25.42912
1,Camboriú/SC,-27.0273601,-48.6535657,2555,3078.72128
D1,Camboriú/SC,-27.0273601,-48.6535657,42,50.60912
1,Cambuci/RJ,-21.5749919,-41.9107833,182,1173.81490
D1,Cambuci/RJ,-21.5749919,-41.9107833,5,32.24766
1,Cambuquira/MG,-21.853056,-45.2953619,20,156.07929
1,Cambuí/MG,-22.6122501,-46.0572137,320,1082.87368
D1,Cambuí/MG,-22.6122501,-46.0572137,6,20.30388
1,Cambé/PR,-23.2782035,-51.2779583,1437,1348.87781
D1,Cambé/PR,-23.2782035,-51.2779583,25,23.46691
1,Cametá/PA,-2.242949,-49.497885,4713,3417.94184
D1,Cametá/PA,-2.242949,-49.497885,96,69.62071
1,Camocim de São Félix/PE,-8.3616757,-35.7638903,197,1049.82681
D1,Camocim de São Félix/PE,-8.3616757,-35.7638903,7,37.30349
1,Camocim/CE,-2.9009918,-40.8427389,2319,3642.73260
D1,Camocim/CE,-2.9009918,-40.8427389,80,125.66564
1,Campanha/MG,-21.8361108,-45.401986,104,624.06241
D1,Campanha/MG,-21.8361108,-45.401986,4,24.00240
1,Campanário/MG,-18.2398144,-41.7271768,15,403.11744
1,Campestre da Serra/RS,-28.7966535,-51.0958149,33,974.02597
1,Campestre de Goiás/GO,-16.7624179,-49.69497,132,3636.36364
D1,Campestre de Goiás/GO,-16.7624179,-49.69497,1,27.54821
1,Campestre do Maranhão/MA,-6.1729113,-47.3640512,434,3019.34048
D1,Campestre do Maranhão/MA,-6.1729113,-47.3640512,5,34.78503
1,Campestre/AL,-8.8481634,-35.5660033,94,1355.24798
D1,Campestre/AL,-8.8481634,-35.5660033,3,43.25260
1,Campestre/MG,-19.6142116,-43.219378,115,546.18855
D1,Campestre/MG,-19.6142116,-43.219378,4,18.99786
1,Campina Grande do Sul/PR,-25.3046032,-49.0545355,863,1993.62410
D1,Campina Grande do Sul/PR,-25.3046032,-49.0545355,21,48.51229
1,Campina Grande/PB,-7.2246743,-35.8771292,12546,3062.00898
D1,Campina Grande/PB,-7.2246743,-35.8771292,348,84.93377
1,Campina Verde/MG,-19.535277,-49.486389,106,536.84477
D1,Campina Verde/MG,-19.535277,-49.486389,4,20.25829
1,Campina da Lagoa/PR,-24.5937926,-52.8038965,24,168.99028
D1,Campina da Lagoa/PR,-24.5937926,-52.8038965,2,14.08252
1,Campina das Missões/RS,-27.9883295,-54.8411665,24,438.43624
D1,Campina das Missões/RS,-27.9883295,-54.8411665,3,54.80453
1,Campina do Monte Alegre/SP,-23.5935653,-48.4801876,73,1211.81939
1,Campina do Simão/PR,-25.1086375,-51.8076658,5,128.63391
D1,Campina do Simão/PR,-25.1086375,-51.8076658,1,25.72678
1,Campinas do Piauí/PI,-7.6593687,-41.8814875,34,605.73668
D1,Campinas do Piauí/PI,-7.6593687,-41.8814875,1,17.81578
1,Campinas do Sul/RS,-27.7167968,-52.6257885,80,1466.81335
D1,Campinas do Sul/RS,-27.7167968,-52.6257885,2,36.67033
1,Campinas/SP,-22.90556,-47.06083,29177,2423.19195
D1,Campinas/SP,-22.90556,-47.06083,1112,92.35320
1,Campinaçu/GO,-13.7869969,-48.5703841,117,3214.28571
1,Campinorte/GO,-14.3136699,-49.1510931,290,2296.84777
D1,Campinorte/GO,-14.3136699,-49.1510931,7,55.44115
1,Campinápolis/MT,-14.5403731,-52.7970626,376,2352.94118
D1,Campinápolis/MT,-14.5403731,-52.7970626,14,87.60951
1,Campo Alegre de Goiás/GO,-17.6337896,-47.779291,8,105.41573
1,Campo Alegre de Lourdes/BA,-9.5160326,-43.0101338,110,381.97097
D1,Campo Alegre de Lourdes/BA,-9.5160326,-43.0101338,2,6.94493
1,Campo Alegre do Fidalgo/PI,-8.3753852,-41.8364191,13,257.68087
D1,Campo Alegre do Fidalgo/PI,-8.3753852,-41.8364191,1,19.82161
1,Campo Alegre/AL,-9.7798607,-36.3575793,1319,2311.48029
D1,Campo Alegre/AL,-9.7798607,-36.3575793,27,47.31612
1,Campo Alegre/SC,-26.1941684,-49.2657484,148,1235.59860
D1,Campo Alegre/SC,-26.1941684,-49.2657484,5,41.74320
1,Campo Azul/MG,-16.5078525,-44.8133524,3,78.59576
1,Campo Belo do Sul/SC,-27.8987563,-50.7586887,80,1140.25086
D1,Campo Belo do Sul/SC,-27.8987563,-50.7586887,1,14.25314
1,Campo Belo/MG,-20.8975,-45.277223,721,1334.46853
D1,Campo Belo/MG,-20.8975,-45.277223,14,25.91201
1,Campo Bom/RS,-29.674694,-51.060601,2001,2999.46037
D1,Campo Bom/RS,-29.674694,-51.060601,39,58.46025
1,Campo Bonito/PR,-25.0328004,-52.992976,44,1147.92591
1,Campo Erê/SC,-26.3947432,-53.0790495,79,926.57753
1,Campo Florido/MG,-19.760833,-48.572223,100,1226.84333
1,Campo Formoso/BA,-10.51055,-40.320031,1054,1480.21234
D1,Campo Formoso/BA,-10.51055,-40.320031,11,15.44814
1,Campo Grande do Piauí/PI,-7.1327559,-41.0381164,102,1716.30490
D1,Campo Grande do Piauí/PI,-7.1327559,-41.0381164,1,16.82652
1,Campo Grande/AL,-9.9725,-36.74791447368421,190,1987.86357
D1,Campo Grande/AL,-9.9725,-36.74791447368421,5,52.31220
1,Campo Grande/MS,-20.4640173,-54.6162947,24158,2696.25952
D1,Campo Grande/MS,-20.4640173,-54.6162947,432,48.21525
1,Campo Largo do Piauí/PI,-3.8104731,-42.6288333,193,2651.46311
D1,Campo Largo do Piauí/PI,-3.8104731,-42.6288333,4,54.95260
1,Campo Largo/PR,-25.4597726,-49.5270851,2677,2027.99958
D1,Campo Largo/PR,-25.4597726,-49.5270851,61,46.21142
1,Campo Limpo Paulista/SP,-23.207791,-46.788919,1044,1233.31364
D1,Campo Limpo Paulista/SP,-23.207791,-46.788919,63,74.42410
1,Campo Limpo de Goiás/GO,-16.297101,-49.0894994,21,269.61099
D1,Campo Limpo de Goiás/GO,-16.297101,-49.0894994,2,25.67724
1,Campo Magro/PR,-25.3691533,-49.4496921,463,1579.23460
D1,Campo Magro/PR,-25.3691533,-49.4496921,9,30.69786
1,Campo Maior/PI,-4.8339574,-42.1739786,2212,4723.16529
D1,Campo Maior/PI,-4.8339574,-42.1739786,42,89.68035
1,Campo Mourão/PR,-24.046329,-52.37802,931,981.45669
D1,Campo Mourão/PR,-24.046329,-52.37802,36,37.95106
1,Campo Novo de Rondônia/RO,-10.5704235,-63.6199511,148,1046.75012
D1,Campo Novo de Rondônia/RO,-10.5704235,-63.6199511,5,35.36318
1,Campo Novo do Parecis/MT,-13.658735,-57.890723,2374,6713.80090
D1,Campo Novo do Parecis/MT,-13.658735,-57.890723,24,67.87330
1,Campo Novo/RS,-28.91500235,-52.331375687737626,15,334.52275
1,Campo Redondo/RN,-6.2420373,-36.1830606,231,2059.37416
D1,Campo Redondo/RN,-6.2420373,-36.1830606,3,26.74512
1,Campo Verde/MT,-15.5430787,-55.1590511,1883,4275.56141
D1,Campo Verde/MT,-15.5430787,-55.1590511,33,74.93018
1,Campo do Brito/SE,-10.7496246,-37.4942276,642,3545.19852
D1,Campo do Brito/SE,-10.7496246,-37.4942276,12,66.26539
1,Campo do Meio/MG,-21.1072006,-45.8301735,45,386.10039
1,Campo do Tenente/PR,-25.9814143,-49.684518,66,828.00151
D1,Campo do Tenente/PR,-25.9814143,-49.684518,3,37.63643
1,Campos Altos/MG,-19.696389,-46.171389,130,840.82530
D1,Campos Altos/MG,-19.696389,-46.171389,6,38.80732
1,Campos Belos/GO,-13.0349839,-46.768112,216,1086.13667
D1,Campos Belos/GO,-13.0349839,-46.768112,4,20.11364
1,Campos Borges/RS,-28.8852198,-52.999098,10,301.20482
1,Campos Gerais/MG,-21.2333342,-45.7584127,90,312.78237
D1,Campos Gerais/MG,-21.2333342,-45.7584127,3,10.42608
1,Campos Lindos/TO,-7.9740597,-46.8023881,242,2392.24990
D1,Campos Lindos/TO,-7.9740597,-46.8023881,2,19.77066
1,Campos Novos Paulista/SP,-22.601952,-49.998726,57,1148.03625
1,Campos Novos/SC,-27.3962904,-51.2224397,1308,3608.87319
D1,Campos Novos/SC,-27.3962904,-51.2224397,15,41.38616
1,Campos Sales/CE,-7.0742675,-40.3740367,347,1265.22278
D1,Campos Sales/CE,-7.0742675,-40.3740367,7,25.52323
1,Campos Verdes/GO,-14.2709062,-49.65746,30,1401.21439
D1,Campos Verdes/GO,-14.2709062,-49.65746,1,46.70715
1,Campos de Júlio/MT,-13.7223646,-59.2645296,361,5238.71717
D1,Campos de Júlio/MT,-13.7223646,-59.2645296,5,72.55841
1,Campos do Jordão/SP,-22.7395263,-45.5912829,654,1255.56750
D1,Campos do Jordão/SP,-22.7395263,-45.5912829,12,23.03794
1,Campos dos Goytacazes/RJ,-21.7558619,-41.3326895,5085,1001.87568
D1,Campos dos Goytacazes/RJ,-21.7558619,-41.3326895,333,65.60956
1,Camutanga/PE,-7.4092965,-35.2738166,151,1765.87534
D1,Camutanga/PE,-7.4092965,-35.2738166,5,58.47269
1,Cana Verde/MG,-21.021308,-45.1817881,80,1427.80653
D1,Cana Verde/MG,-21.021308,-45.1817881,2,35.69516
1,Canabrava do Norte/MT,-11.0516481,-51.8301897,53,1117.43622
D1,Canabrava do Norte/MT,-11.0516481,-51.8301897,1,21.08370
1,Cananéia/SP,-25.0104609,-47.9315628,176,1403.50877
D1,Cananéia/SP,-25.0104609,-47.9315628,7,55.82137
1,Canapi/AL,-9.1173572,-37.6011704,64,361.13305
D1,Canapi/AL,-9.1173572,-37.6011704,3,16.92811
1,Canarana/BA,-11.6870151,-41.7683675,97,370.56846
D1,Canarana/BA,-11.6870151,-41.7683675,1,3.82029
1,Canarana/MT,-13.5564602,-52.2691167,600,2780.48102
D1,Canarana/MT,-13.5564602,-52.2691167,11,50.97549
1,Canas/SP,-22.7029347,-45.0526508,45,875.82717
D1,Canas/SP,-22.7029347,-45.0526508,2,38.92565
1,Canavieira/PI,-7.6924041,-43.7190063,4,101.26582
1,Canavieiras/BA,-15.61621745,-39.08485321304444,189,607.73658
D1,Canavieiras/BA,-15.61621745,-39.08485321304444,11,35.37091
1,Canaã dos Carajás/PA,-6.5296837,-49.8516592,3611,9737.09047
D1,Canaã dos Carajás/PA,-6.5296837,-49.8516592,43,115.94984
1,Canaã/MG,-20.685555,-42.62,1,21.91541
1,Candeal/BA,-11.8053441,-39.1206515,80,968.75757
1,Candeias do Jamari/RO,-8.7949939,-63.7018851,1340,5020.04271
D1,Candeias do Jamari/RO,-8.7949939,-63.7018851,25,93.65751
1,Candeias/BA,-12.6693806,-38.5406462,2127,2442.69374
D1,Candeias/BA,-12.6693806,-38.5406462,49,56.27268
1,Candeias/MG,-20.7676161,-45.2763777,78,523.98227
D1,Candeias/MG,-20.7676161,-45.2763777,3,20.15316
1,Candelária/RS,-29.668391,-52.789495,147,468.67527
D1,Candelária/RS,-29.668391,-52.789495,2,6.37653
1,Candiba/BA,-14.4125032,-42.8714102,27,188.56065
1,Candiota/RS,-31.5451894,-53.719538,79,824.29048
D1,Candiota/RS,-31.5451894,-53.719538,1,10.43406
1,Candói/PR,-25.5711951,-52.051107,72,450.59140
1,Canela/RS,-29.3624657,-50.8134204,554,1231.16583
D1,Canela/RS,-29.3624657,-50.8134204,20,44.44642
1,Canelinha/SC,-27.2660341,-48.7666708,489,3995.09804
D1,Canelinha/SC,-27.2660341,-48.7666708,6,49.01961
1,Canguaretama/RN,-6.3751942,-35.137463,298,869.41300
D1,Canguaretama/RN,-6.3751942,-35.137463,17,49.59739
1,Canguçu/RS,-31.398276,-52.6773522,152,271.21063
D1,Canguçu/RS,-31.398276,-52.6773522,5,8.92140
1,Canhoba/SE,-10.1373681,-36.9710796,89,2220.55888
1,Canhotinho/PE,-8.876519,-36.197935,393,1584.42187
D1,Canhotinho/PE,-8.876519,-36.197935,14,56.44251
1,Canindé de São Francisco/SE,-9.6597475,-37.7904456,337,1127.09030
D1,Canindé de São Francisco/SE,-9.6597475,-37.7904456,8,26.75585
1,Canindé/CE,-4.3547946,-39.3108516,1911,2481.91488
D1,Canindé/CE,-4.3547946,-39.3108516,72,93.51014
1,Canitar/SP,-23.0066616,-49.7840632,38,728.52761
D1,Canitar/SP,-23.0066616,-49.7840632,1,19.17178
1,Canoas/RS,-29.9216045,-51.1799525,5451,1572.63369
D1,Canoas/RS,-29.9216045,-51.1799525,221,63.75932
1,Canoinhas/SC,-26.176591,-50.395001,499,917.26255
D1,Canoinhas/SC,-26.176591,-50.395001,9,16.54381
1,Cansanção/BA,-10.6671448,-39.498199,147,422.00149
D1,Cansanção/BA,-10.6671448,-39.498199,3,8.61228
1,Cantagalo/PR,-25.3735238,-52.1238114,63,473.07952
D1,Cantagalo/PR,-25.3735238,-52.1238114,1,7.50920
1,Cantagalo/RJ,-21.9811325,-42.3682522,143,708.90343
D1,Cantagalo/RJ,-21.9811325,-42.3682522,2,9.91473
1,Cantanhede/MA,-3.6355005,-44.3778738,381,1732.21187
D1,Cantanhede/MA,-3.6355005,-44.3778738,3,13.63946
1,Canto do Buriti/PI,-8.1112473,-42.944844,288,1359.32411
D1,Canto do Buriti/PI,-8.1112473,-42.944844,6,28.31925
1,Cantá/RR,2.60994,-60.605827,930,5072.26616
D1,Cantá/RR,2.60994,-60.605827,9,49.08645
1,Canudos do Vale/RS,-29.3240418,-52.2348494,6,349.65035
1,Canudos/BA,-9.8948692,-39.0266244,121,725.94192
D1,Canudos/BA,-9.8948692,-39.0266244,4,23.99808
1,Canutama/AM,-6.5330019,-64.3834966,382,2444.17429
1,Canápolis/BA,-13.072454,-44.200949,28,288.33282
1,Canápolis/MG,-18.7228793,-49.2016329,317,2609.05350
D1,Canápolis/MG,-18.7228793,-49.2016329,8,65.84362
1,Capanema/PA,-1.1933054,-47.1828679,1233,1786.25755
D1,Capanema/PA,-1.1933054,-47.1828679,62,89.81993
1,Capanema/PR,-25.6704878,-53.8083036,501,2619.74482
D1,Capanema/PR,-25.6704878,-53.8083036,3,15.68709
1,Caparaó/MG,-20.5232726,-41.9049984,30,551.67341
D1,Caparaó/MG,-20.5232726,-41.9049984,3,55.16734
1,Capela Nova/MG,-20.9236773,-43.6179487,2,42.98302
1,Capela de Santana/RS,-29.6926603,-51.3206659,49,410.38526
D1,Capela de Santana/RS,-29.6926603,-51.3206659,1,8.37521
1,Capela do Alto Alegre/BA,-11.6703944,-39.8362745,165,1417.89121
D1,Capela do Alto Alegre/BA,-11.6703944,-39.8362745,1,8.59328
1,Capela do Alto/SP,-23.4704798,-47.7352309,236,1139.76625
D1,Capela do Alto/SP,-23.4704798,-47.7352309,2,9.65904
1,Capela/AL,-9.415041,-36.082583,512,3002.40427
D1,Capela/AL,-9.415041,-36.082583,6,35.18443
1,Capela/SE,-10.50494,-37.0552566,704,2057.69737
D1,Capela/SE,-10.50494,-37.0552566,19,55.53445
1,Capelinha/MG,-17.693889,-42.518611,52,137.62439
1,Capetinga/MG,-20.6193382,-47.0577418,26,375.72254
1,Capim Branco/MG,-19.548333,-44.133056,47,481.85360
