type,name,lat,lon,total,total_per_100k_inhabitants
1,Abadia de Goiás/GO,-16.7572644,-49.4412205,871,9723.15249
D1,Abadia de Goiás/GO,-16.7572644,-49.4412205,12,133.95847
1,Abadia dos Dourados/MG,-18.4911191,-47.4063589,225,3211.53297
D1,Abadia dos Dourados/MG,-18.4911191,-47.4063589,3,42.82044
1,Abadiânia/GO,-16.1940946,-48.7067767,227,1109.42769
D1,Abadiânia/GO,-16.1940946,-48.7067767,17,83.08489
1,Abaetetuba/PA,-1.721828,-48.878843,5743,3610.13327
D1,Abaetetuba/PA,-1.721828,-48.878843,126,79.20543
1,Abaeté/MG,-19.1566833,-45.4481213,471,2025.80645
D1,Abaeté/MG,-19.1566833,-45.4481213,8,34.40860
1,Abaiara/CE,-7.3607808,-39.0487878,217,1830.76015
D1,Abaiara/CE,-7.3607808,-39.0487878,4,33.74673
1,Abaré/BA,-8.7239913,-39.1139689,335,1646.43436
D1,Abaré/BA,-8.7239913,-39.1139689,1,4.91473
1,Abatiá/PR,-23.3052967,-50.3102532,263,3550.21598
D1,Abatiá/PR,-23.3052967,-50.3102532,3,40.49676
1,Abaíra/BA,-13.2503296,-41.6640342,201,2307.69231
D1,Abaíra/BA,-13.2503296,-41.6640342,6,68.88634
1,Abdon Batista/SC,-27.612419,-51.022992,189,7417.58242
D1,Abdon Batista/SC,-27.612419,-51.022992,1,39.24647
1,Abel Figueiredo/PA,-4.953001,-48.3958485,516,6892.86668
D1,Abel Figueiredo/PA,-4.953001,-48.3958485,5,66.79134
1,Abelardo Luz/SC,-26.5705893,-52.3280339,858,4777.28285
D1,Abelardo Luz/SC,-26.5705893,-52.3280339,21,116.92650
1,Abre Campo/MG,-20.2976097,-42.4764741,356,2648.02142
D1,Abre Campo/MG,-20.2976097,-42.4764741,4,29.75305
1,Abreu e Lima/PE,-7.900719,-34.898389,1545,1539.67273
D1,Abreu e Lima/PE,-7.900719,-34.898389,156,155.46210
1,Abreulândia/TO,-9.6221526,-49.1558343,141,5435.62066
D1,Abreulândia/TO,-9.6221526,-49.1558343,4,154.20200
1,Acaiaca/MG,-20.3621646,-43.1444162,112,2804.20631
D1,Acaiaca/MG,-20.3621646,-43.1444162,4,100.15023
1,Acajutiba/BA,-11.6609659,-38.0186381,326,2146.57273
D1,Acajutiba/BA,-11.6609659,-38.0186381,7,46.09205
1,Acarape/CE,-4.2237866,-38.7071663,2013,13387.86911
D1,Acarape/CE,-4.2237866,-38.7071663,14,93.10987
1,Acaraú/CE,-2.8869514,-40.1194713,3044,4823.78296
D1,Acaraú/CE,-2.8869514,-40.1194713,59,93.49645
1,Acari/RN,-6.4364689,-36.6394777,451,4055.39070
D1,Acari/RN,-6.4364689,-36.6394777,8,71.93598
1,Acará/PA,-1.961388,-48.1987043,915,1643.64368
D1,Acará/PA,-1.961388,-48.1987043,16,28.74131
1,Acauã/PI,-8.219542,-41.083059,143,2013.51732
D1,Acauã/PI,-8.219542,-41.083059,1,14.08054
1,Aceguá/RS,-31.8695131,-54.1615593,68,1375.96115
1,Acopiara/CE,-6.0936464,-39.4543204,1528,2804.64749
D1,Acopiara/CE,-6.0936464,-39.4543204,66,121.14315
1,Acorizal/MT,-15.2001544,-56.3668953,288,5399.32508
D1,Acorizal/MT,-15.2001544,-56.3668953,8,149.98125
1,Acrelândia/AC,-10.0759167,-67.0526898,822,5306.64945
D1,Acrelândia/AC,-10.0759167,-67.0526898,16,103.29245
1,Acreúna/GO,-17.3959899,-50.3749031,1250,5544.22070
D1,Acreúna/GO,-17.3959899,-50.3749031,30,133.06130
1,Adamantina/SP,-21.6866517,-51.0762975,1272,3622.79627
D1,Adamantina/SP,-21.6866517,-51.0762975,35,99.68386
1,Adelândia/GO,-16.4155077,-50.1665834,98,3895.07154
D1,Adelândia/GO,-16.4155077,-50.1665834,2,79.49126
1,Adolfo/SP,-21.2356597,-49.6441918,241,6781.09173
D1,Adolfo/SP,-21.2356597,-49.6441918,6,168.82386
1,Adrianópolis/PR,-24.6557863,-48.9912769,686,11712.48079
D1,Adrianópolis/PR,-24.6557863,-48.9912769,9,153.66228
1,Adustina/BA,-10.5358875,-38.114479,329,1921.05570
D1,Adustina/BA,-10.5358875,-38.114479,4,23.35630
1,Afogados da Ingazeira/PE,-7.750429,-37.6356375,2102,5619.71982
D1,Afogados da Ingazeira/PE,-7.750429,-37.6356375,28,74.85830
1,Afonso Bezerra/RN,-5.4745,-36.57625071327935,262,2375.55535
D1,Afonso Bezerra/RN,-5.4745,-36.57625071327935,11,99.73706
1,Afonso Cláudio/ES,-20.077841,-41.12606,2390,7847.64407
D1,Afonso Cláudio/ES,-20.077841,-41.12606,39,128.05779
1,Afonso Cunha/MA,-4.1326105,-43.3230026,152,2310.73275
D1,Afonso Cunha/MA,-4.1326105,-43.3230026,2,30.40438
1,Afrânio/PE,-8.5198919,-41.0070197,557,2811.71126
D1,Afrânio/PE,-8.5198919,-41.0070197,9,45.43160
1,Afuá/PA,-0.1535664,-50.3879223,2688,6793.54007
D1,Afuá/PA,-0.1535664,-50.3879223,11,27.80095
1,Agrestina/PE,-8.4558021,-35.9442663,772,3079.99202
D1,Agrestina/PE,-8.4558021,-35.9442663,34,135.64732
1,Agricolândia/PI,-5.7967843,-42.6605131,77,1500.68213
1,Agrolândia/SC,-27.4122212,-49.8295774,551,5003.17806
D1,Agrolândia/SC,-27.4122212,-49.8295774,6,54.48107
1,Agronômica/SC,-27.2660744,-49.7104753,276,5009.98366
D1,Agronômica/SC,-27.2660744,-49.7104753,7,127.06480
1,Aguanil/MG,-20.9424533,-45.3927152,245,5417.95666
D1,Aguanil/MG,-20.9424533,-45.3927152,7,154.79876
1,Aguaí/SP,-22.0592036,-46.979384,1023,2791.42109
D1,Aguaí/SP,-22.0592036,-46.979384,21,57.30190
1,Agudo/RS,-29.6423259,-53.2494005,502,3060.78898
D1,Agudo/RS,-29.6423259,-53.2494005,4,24.38876
1,Agudos do Sul/PR,-25.9890808,-49.3328175,274,2893.34741
D1,Agudos do Sul/PR,-25.9890808,-49.3328175,2,21.11932
1,Agudos/SP,-22.471162,-48.987822,1500,4010.58795
D1,Agudos/SP,-22.471162,-48.987822,24,64.16941
1,Aguiar/PB,-7.0928404,-38.1727215,106,1882.77087
D1,Aguiar/PB,-7.0928404,-38.1727215,1,17.76199
1,Aguiarnópolis/TO,-6.5600452,-47.4721189,483,7008.12536
D1,Aguiarnópolis/TO,-6.5600452,-47.4721189,10,145.09576
1,Aimorés/MG,-19.4917754,-41.0615603,1115,4434.98668
D1,Aimorés/MG,-19.4917754,-41.0615603,29,115.34943
1,Aiquara/BA,-14.126918,-39.8887574,366,8288.04348
D1,Aiquara/BA,-14.126918,-39.8887574,7,158.51449
1,Aiuaba/CE,-6.5710836,-40.1212278,150,857.48585
D1,Aiuaba/CE,-6.5710836,-40.1212278,2,11.43314
1,Aiuruoca/MG,-21.9759554,-44.6036637,74,1238.28648
D1,Aiuruoca/MG,-21.9759554,-44.6036637,5,83.66801
1,Ajuricaba/RS,-28.239654,-53.7693013,526,7528.26678
D1,Ajuricaba/RS,-28.239654,-53.7693013,4,57.24918
1,Alagoa Grande/PB,-7.0415212,-35.6285322,1922,6758.32484
D1,Alagoa Grande/PB,-7.0415212,-35.6285322,32,112.52154
1,Alagoa Nova/PB,-7.0653703,-35.76695977336711,574,2743.65470
D1,Alagoa Nova/PB,-7.0653703,-35.76695977336711,12,57.35863
1,Alagoa/MG,-22.1697202,-44.6400042,159,5966.22889
1,Alagoinha do Piauí/PI,-7.0090952,-40.939675,224,2922.37443
D1,Alagoinha do Piauí/PI,-7.0090952,-40.939675,9,117.41683
1,Alagoinha/PB,-6.97063215,-35.51490901897793,1222,8392.85714
D1,Alagoinha/PB,-6.97063215,-35.51490901897793,16,109.89011
1,Alagoinha/PE,-8.50355635,-36.77701174370496,422,2867.23740
D1,Alagoinha/PE,-8.50355635,-36.77701174370496,13,88.32722
1,Alagoinhas/BA,-12.133526,-38.420772,8470,5560.40623
D1,Alagoinhas/BA,-12.133526,-38.420772,125,82.06030
1,Alambari/SP,-23.550338,-47.897971,223,3638.44020
D1,Alambari/SP,-23.550338,-47.897971,6,97.89525
1,Albertina/MG,-20.66164,-43.784039,109,3620.05978
D1,Albertina/MG,-20.66164,-43.784039,5,166.05779
1,Alcantil/PB,-7.7425491,-36.0609604,148,2686.51298
D1,Alcantil/PB,-7.7425491,-36.0609604,2,36.30423
1,Alcinópolis/MS,-18.3264121,-53.7094463,77,1421.45099
D1,Alcinópolis/MS,-18.3264121,-53.7094463,2,36.92080
1,Alcobaça/BA,-17.5215875,-39.1965474,995,4424.18853
D1,Alcobaça/BA,-17.5215875,-39.1965474,16,71.14273
1,Alcântara/MA,-2.4038956,-44.4154241,202,913.53111
D1,Alcântara/MA,-2.4038956,-44.4154241,8,36.17945
1,Alcântaras/CE,-3.586247,-40.5457641,728,6179.44147
D1,Alcântaras/CE,-3.586247,-40.5457641,5,42.44122
1,Aldeias Altas/MA,-4.6291957,-43.4708622,973,3636.43159
D1,Aldeias Altas/MA,-4.6291957,-43.4708622,11,41.11074
1,Alecrim/RS,-27.6566142,-54.7653195,86,1475.88811
D1,Alecrim/RS,-27.6566142,-54.7653195,2,34.32298
1,Alegre/ES,-20.7625787,-41.5318886,1241,4140.11676
D1,Alegre/ES,-20.7625787,-41.5318886,28,93.41118
1,Alegrete do Piauí/PI,-7.2440138,-40.8602296,362,7360.71574
D1,Alegrete do Piauí/PI,-7.2440138,-40.8602296,4,81.33388
1,Alegrete/RS,-29.790166,-55.794862,2863,3920.41409
D1,Alegrete/RS,-29.790166,-55.794862,62,84.89894
1,Alegria/RS,-27.8332103,-54.0574959,220,6520.45050
D1,Alegria/RS,-27.8332103,-54.0574959,1,29.63841
1,Alenquer/PA,-1.946229,-54.738355,1812,3173.82470
D1,Alenquer/PA,-1.946229,-54.738355,37,64.80768
1,Alexandria/RN,-6.414779,-38.0135516,817,6028.18564
D1,Alexandria/RN,-6.414779,-38.0135516,9,66.40596
1,Alexânia/GO,-16.0834049,-48.5077803,1643,5865.76223
D1,Alexânia/GO,-16.0834049,-48.5077803,27,96.39414
1,Alfenas/MG,-21.4297405,-45.9479419,3893,4836.38532
D1,Alfenas/MG,-21.4297405,-45.9479419,94,116.77889
1,Alfredo Chaves/ES,-20.624970400000002,-40.75006690147988,1639,11198.41487
D1,Alfredo Chaves/ES,-20.624970400000002,-40.75006690147988,22,150.31429
1,Alfredo Marcondes/SP,-21.9527,-51.413956,127,3035.37285
D1,Alfredo Marcondes/SP,-21.9527,-51.413956,4,95.60229
1,Alfredo Vasconcelos/MG,-21.145833,-43.776389,142,2034.09254
D1,Alfredo Vasconcelos/MG,-21.145833,-43.776389,5,71.62298
1,Alfredo Wagner/SC,-27.6961513,-49.3326734,540,5353.95598
D1,Alfredo Wagner/SC,-27.6961513,-49.3326734,1,9.91473
1,Algodão de Jandaíra/PB,-6.9040175,-36.0089879,55,2134.26465
1,Alhandra/PB,-7.4304246,-34.9106103,925,4689.00492
D1,Alhandra/PB,-7.4304246,-34.9106103,20,101.38389
1,Aliança do Tocantins/TO,-11.3055927,-48.9409096,331,6191.54508
D1,Aliança do Tocantins/TO,-11.3055927,-48.9409096,8,149.64459
1,Aliança/PE,-7.60398,-35.222696,424,1104.25294
D1,Aliança/PE,-7.60398,-35.222696,30,78.13110
1,Almadina/BA,-14.70466,-39.6381994,479,8926.57473
D1,Almadina/BA,-14.70466,-39.6381994,8,149.08684
1,Almas/TO,-11.5681309,-47.1702803,145,2077.66156
D1,Almas/TO,-11.5681309,-47.1702803,3,42.98610
1,Almeirim/PA,-1.5290377,-52.5788111,2189,6423.87604
D1,Almeirim/PA,-1.5290377,-52.5788111,20,58.69233
1,Almenara/MG,-16.1740678,-40.6904907,2225,5279.64312
D1,Almenara/MG,-16.1740678,-40.6904907,25,59.32183
1,Almino Afonso/RN,-6.1544208,-37.7649018,231,4904.45860
D1,Almino Afonso/RN,-6.1544208,-37.7649018,3,63.69427
1,Almirante Tamandaré do Sul/RS,-28.1141129,-52.9134874,98,5028.21960
1,Almirante Tamandaré/PR,-25.3133048,-49.2997838,4899,4081.10562
D1,Almirante Tamandaré/PR,-25.3133048,-49.2997838,128,106.63023
1,Aloândia/GO,-17.7277983,-49.4809338,170,8559.91944
D1,Aloândia/GO,-17.7277983,-49.4809338,6,302.11480
1,Alpercata/MG,-18.9803616,-41.9827637,333,4478.21409
D1,Alpercata/MG,-18.9803616,-41.9827637,12,161.37708
1,Alpestre/RS,-27.2512339,-53.0349646,156,2571.28729
D1,Alpestre/RS,-27.2512339,-53.0349646,3,49.44783
1,Alpinópolis/MG,-20.863611,-46.387777,431,2159.53502
D1,Alpinópolis/MG,-20.863611,-46.387777,6,30.06313
1,Alta Floresta D'Oeste/RO,-11.9296917,-61.9961284,2365,10405.66702
D1,Alta Floresta D'Oeste/RO,-11.9296917,-61.9961284,30,131.99578
1,Alta Floresta/MT,-9.8715018,-56.0839881,4217,8116.01455
D1,Alta Floresta/MT,-9.8715018,-56.0839881,50,96.22972
1,Altair/SP,-20.5238955,-49.0606135,60,1433.34926
D1,Altair/SP,-20.5238955,-49.0606135,4,95.55662
1,Altamira do Maranhão/MA,-4.1643006,-45.4674574,275,3358.16339
D1,Altamira do Maranhão/MA,-4.1643006,-45.4674574,7,85.48052
1,Altamira do Paraná/PR,-24.799114,-52.7128633,49,2913.19857
D1,Altamira do Paraná/PR,-24.799114,-52.7128633,2,118.90606
1,Altamira/PA,-3.204065,-52.209961,7941,6847.51960
D1,Altamira/PA,-3.204065,-52.209961,164,141.41710
1,Altaneira/CE,-6.9980933,-39.7385742,259,3385.62092
D1,Altaneira/CE,-6.9980933,-39.7385742,7,91.50327
1,Alterosa/MG,-21.249166,-46.143055,457,3148.03334
D1,Alterosa/MG,-21.249166,-46.143055,22,151.54646
1,Altinho/PE,-8.4904095,-36.0607494,685,2980.33415
D1,Altinho/PE,-8.4904095,-36.0607494,12,52.21023
1,Altinópolis/SP,-21.021364,-47.3712,481,2968.58606
D1,Altinópolis/SP,-21.021364,-47.3712,14,86.40375
1,Alto Alegre do Maranhão/MA,-4.2055693,-44.4525287,491,1762.50987
D1,Alto Alegre do Maranhão/MA,-4.2055693,-44.4525287,18,64.61340
1,Alto Alegre do Pindaré/MA,-3.6698186,-45.8462153,1653,5174.84269
D1,Alto Alegre do Pindaré/MA,-3.6698186,-45.8462153,25,78.26441
1,Alto Alegre dos Parecis/RO,-12.1314515,-61.856265,600,4526.59374
D1,Alto Alegre dos Parecis/RO,-12.1314515,-61.856265,16,120.70917
1,Alto Alegre/RR,2.98858,-61.307167,996,6475.94278
D1,Alto Alegre/RR,2.98858,-61.307167,21,136.54096
1,Alto Alegre/RS,-31.780844700000003,-52.81311114489171,35,2169.86981
1,Alto Alegre/SP,-21.5820592,-50.1661976,149,3644.81409
D1,Alto Alegre/SP,-21.5820592,-50.1661976,4,97.84736
1,Alto Araguaia/MT,-17.3156528,-53.2169365,655,3378.90121
D1,Alto Araguaia/MT,-17.3156528,-53.2169365,11,56.74491
1,Alto Bela Vista/SC,-27.4320737,-51.905771,68,3530.63344
D1,Alto Bela Vista/SC,-27.4320737,-51.905771,2,103.84216
1,Alto Boa Vista/MT,-11.6723985,-51.3744431,241,3474.62514
D1,Alto Boa Vista/MT,-11.6723985,-51.3744431,6,86.50519
1,Alto Caparaó/MG,-20.4405661,-41.8683799,258,4377.33288
D1,Alto Caparaó/MG,-20.4405661,-41.8683799,6,101.79844
1,Alto Feliz/RS,-29.3785943,-51.3123751,110,3623.18841
1,Alto Garças/MT,-16.9469683,-53.529427,358,2946.25957
D1,Alto Garças/MT,-16.9469683,-53.529427,17,139.90618
1,Alto Horizonte/GO,-14.1954948,-49.3366993,285,4314.91294
D1,Alto Horizonte/GO,-14.1954948,-49.3366993,3,45.42014
1,Alto Jequitibá/MG,-20.423611,-41.966111,403,4854.83677
D1,Alto Jequitibá/MG,-20.423611,-41.966111,9,108.42067
1,Alto Longá/PI,-5.2549051,-42.2072388,342,2385.10356
D1,Alto Longá/PI,-5.2549051,-42.2072388,7,48.81791
1,Alto Paraguai/MT,-14.513712,-56.4936374,371,3233.67907
D1,Alto Paraguai/MT,-14.513712,-56.4936374,11,95.87728
1,Alto Paraná/PR,-23.131247,-52.318893,434,2920.78875
D1,Alto Paraná/PR,-23.131247,-52.318893,5,33.64964
1,Alto Paraíso de Goiás/GO,-14.1304779,-47.5100161,436,5671.17586
1,Alto Paraíso/PR,-23.508137,-53.728537,76,2830.54004
1,Alto Paraíso/RO,-9.7240103,-63.3188123,760,3478.73850
D1,Alto Paraíso/RO,-9.7240103,-63.3188123,12,54.92745
1,Alto Parnaíba/MA,-9.112506,-45.9310154,604,5387.08527
D1,Alto Parnaíba/MA,-9.112506,-45.9310154,5,44.59508
1,Alto Piquiri/PR,-24.0239021,-53.4417448,335,3426.05850
D1,Alto Piquiri/PR,-24.0239021,-53.4417448,7,71.58928
1,Alto Rio Doce/MG,-21.0239537,-43.4133507,191,1758.90966
D1,Alto Rio Doce/MG,-21.0239537,-43.4133507,15,138.13427
1,Alto Rio Novo/ES,-19.0577208,-41.0171518,479,6083.31217
D1,Alto Rio Novo/ES,-19.0577208,-41.0171518,16,203.20041
1,Alto Santo/CE,-5.5190371,-38.2719351,628,3652.01210
D1,Alto Santo/CE,-5.5190371,-38.2719351,14,81.41428
1,Alto Taquari/MT,-17.8269099,-53.2831736,713,6404.38336
D1,Alto Taquari/MT,-17.8269099,-53.2831736,11,98.80535
1,Alto do Rodrigues/RN,-5.290868,-36.7616726,906,6151.54807
D1,Alto do Rodrigues/RN,-5.290868,-36.7616726,20,135.79576
1,Altos/PI,-5.0393915,-42.4611694,2576,6344.04630
D1,Altos/PI,-5.0393915,-42.4611694,35,86.19628
1,Altônia/PR,-23.8722004,-53.894037,642,2895.02165
D1,Altônia/PR,-23.8722004,-53.894037,5,22.54690
1,Alumínio/SP,-23.5203479,-47.2575256,644,3431.55539
D1,Alumínio/SP,-23.5203479,-47.2575256,21,111.89855
1,Alvarenga/MG,-19.4175,-41.728334,327,8506.76379
D1,Alvarenga/MG,-19.4175,-41.728334,3,78.04370
1,Alvarães/AM,-3.214786,-64.8143124,2262,13945.74599
D1,Alvarães/AM,-3.214786,-64.8143124,31,191.12207
1,Alvinlândia/SP,-22.4431852,-49.7643596,56,1729.99691
1,Alvinópolis/MG,-20.1105199,-43.0601805,287,1892.01661
D1,Alvinópolis/MG,-20.1105199,-43.0601805,3,19.77718
1,Alvorada D'Oeste/RO,-11.346271,-62.284697,527,3735.99887
D1,Alvorada D'Oeste/RO,-11.346271,-62.284697,11,77.98100
1,Alvorada de Minas/MG,-18.7318587,-43.3641479,138,3828.01664
D1,Alvorada de Minas/MG,-18.7318587,-43.3641479,1,27.73925
1,Alvorada do Gurguéia/PI,-8.4465288,-43.8655915,183,3360.88154
D1,Alvorada do Gurguéia/PI,-8.4465288,-43.8655915,5,91.82736
1,Alvorada do Norte/GO,-14.483911,-46.4959897,415,4767.37507
D1,Alvorada do Norte/GO,-14.483911,-46.4959897,2,22.97530
1,Alvorada do Sul/PR,-22.7807269,-51.2307721,342,2973.13744
D1,Alvorada do Sul/PR,-22.7807269,-51.2307721,8,69.54707
1,Alvorada/RS,-29.9981184,-51.0772509,11061,5233.44941
D1,Alvorada/RS,-29.9981184,-51.0772509,291,137.68500
1,Alvorada/TO,-12.478465,-49.124926,694,8265.84088
D1,Alvorada/TO,-12.478465,-49.124926,11,131.01477
1,Além Paraíba/MG,-21.8760576,-42.6810473,1628,4598.74015
D1,Além Paraíba/MG,-21.8760576,-42.6810473,57,161.01240
1,Amajari/RR,3.6523869,-61.4194315,707,5362.15396
D1,Amajari/RR,3.6523869,-61.4194315,16,121.35002
1,Amambai/MS,-23.1082701,-55.2284854,1728,4338.87410
D1,Amambai/MS,-23.1082701,-55.2284854,33,82.86044
1,Amaporã/PR,-23.094272,-52.786597,95,1500.31586
1,Amapá do Maranhão/MA,-1.6762114,-46.0109669,39,556.74518
1,Amapá/AP,2.0529997,-50.7930003,1073,11679.54719
D1,Amapá/AP,2.0529997,-50.7930003,7,76.19462
1,Amaraji/PE,-8.373925,-35.4536527,391,1709.66331
D1,Amaraji/PE,-8.373925,-35.4536527,24,104.94097
1,Amaral Ferrador/RS,-30.8750633,-52.2542051,161,2272.40649
D1,Amaral Ferrador/RS,-30.8750633,-52.2542051,2,28.22865
1,Amaralina/GO,-13.9236199,-49.2962411,18,468.14044
1,Amarante do Maranhão/MA,-5.56913,-46.747284,1177,2820.58041
D1,Amarante do Maranhão/MA,-5.56913,-46.747284,31,74.28886
1,Amarante/PI,-6.2459374,-42.8476238,909,5163.59918
D1,Amarante/PI,-6.2459374,-42.8476238,17,96.56896
1,Amargosa/BA,-13.03793715,-39.60796443875596,1393,3720.52029
D1,Amargosa/BA,-13.03793715,-39.60796443875596,23,61.42998
1,Amaturá/AM,-3.3640509,-68.1994689,1559,13283.91275
D1,Amaturá/AM,-3.3640509,-68.1994689,15,127.81186
1,Americana/SP,-22.7392463,-47.3306032,10613,4385.21102
D1,Americana/SP,-22.7392463,-47.3306032,275,113.62791
1,Americano do Brasil/GO,-16.2515808,-49.9806104,187,3033.74432
D1,Americano do Brasil/GO,-16.2515808,-49.9806104,4,64.89293
1,Ametista do Sul/RS,-27.3617341,-53.1826575,228,3079.83250
D1,Ametista do Sul/RS,-27.3617341,-53.1826575,2,27.01607
1,Amontada/CE,-3.3634586,-39.8284791,1172,2674.02861
D1,Amontada/CE,-3.3634586,-39.8284791,22,50.19508
1,Amorinópolis/GO,-16.6211308,-51.0949921,116,3779.73281
D1,Amorinópolis/GO,-16.6211308,-51.0949921,1,32.58390
1,Amparo de São Francisco/SE,-10.1299754,-36.9269099,77,3235.29412
D1,Amparo de São Francisco/SE,-10.1299754,-36.9269099,2,84.03361
1,Amparo do Serra/MG,-20.5070255,-42.8028462,78,1667.37922
D1,Amparo do Serra/MG,-20.5070255,-42.8028462,3,64.12997
1,Amparo/PB,-7.56394725,-37.04652873235175,62,2754.33141
D1,Amparo/PB,-7.56394725,-37.04652873235175,2,88.84940
1,Amparo/SP,-22.70111,-46.76444,2733,3760.47443
D1,Amparo/SP,-22.70111,-46.76444,53,72.92541
1,Ampére/PR,-25.9168712,-53.4742414,592,3065.61027
D1,Ampére/PR,-25.9168712,-53.4742414,14,72.49754
1,Amélia Rodrigues/BA,-12.4015388,-38.7516971,1179,4706.96263
D1,Amélia Rodrigues/BA,-12.4015388,-38.7516971,20,79.84669
1,América Dourada/BA,-11.4515262,-41.4357517,443,2753.26290
D1,América Dourada/BA,-11.4515262,-41.4357517,2,12.43008
1,Américo Brasiliense/SP,-21.7297099,-48.1052092,2002,4879.11874
D1,Américo Brasiliense/SP,-21.7297099,-48.1052092,35,85.29928
1,Américo de Campos/SP,-20.298476,-49.735904,420,7022.23708
D1,Américo de Campos/SP,-20.298476,-49.735904,14,234.07457
1,Anadia/AL,-9.6830208,-36.3052699,726,4142.41698
D1,Anadia/AL,-9.6830208,-36.3052699,13,74.17551
1,Anagé/BA,-14.6134669,-41.1376308,431,1994.72393
D1,Anagé/BA,-14.6134669,-41.1376308,9,41.65317
1,Anahy/PR,-24.6450861,-53.1337957,93,3335.72453
D1,Anahy/PR,-24.6450861,-53.1337957,3,107.60402
1,Anajatuba/MA,-3.26441,-44.6179916,453,1678.52379
D1,Anajatuba/MA,-3.26441,-44.6179916,14,51.87491
1,Anajás/PA,-0.9878802,-49.9390114,1052,3543.51927
D1,Anajás/PA,-0.9878802,-49.9390114,11,37.05201
1,Analândia/SP,-22.128917,-47.661939,180,3560.12658
D1,Analândia/SP,-22.128917,-47.661939,3,59.33544
1,Anamã/AM,-3.5797356,-61.4049996,1479,10597.59243
D1,Anamã/AM,-3.5797356,-61.4049996,4,28.66151
1,Ananindeua/PA,-1.374035,-48.4016623,13724,2562.61355
D1,Ananindeua/PA,-1.374035,-48.4016623,427,79.73156
1,Ananás/TO,-6.3663053,-48.080238,974,10261.27265
D1,Ananás/TO,-6.3663053,-48.080238,18,189.63338
1,Anapu/PA,-3.4668292,-51.2057035,1139,3981.54298
D1,Anapu/PA,-3.4668292,-51.2057035,23,80.39990
1,Anapurus/MA,-3.6751298,-43.1046001,827,5203.22134
D1,Anapurus/MA,-3.6751298,-43.1046001,10,62.91682
1,Anastácio/MS,-20.4832458,-55.8048448,1447,5733.64504
D1,Anastácio/MS,-20.4832458,-55.8048448,43,170.38475
1,Anaurilândia/MS,-22.185169,-52.719056,154,1696.78272
D1,Anaurilândia/MS,-22.185169,-52.719056,5,55.09035
1,Anchieta/ES,-20.8057672,-40.6454564,2626,8818.29477
D1,Anchieta/ES,-20.8057672,-40.6454564,41,137.68092
1,Anchieta/SC,-26.5350527,-53.3293938,263,4732.76948
D1,Anchieta/SC,-26.5350527,-53.3293938,4,71.98128
1,Andaraí/BA,-12.8059674,-41.3322919,539,4104.47761
D1,Andaraí/BA,-12.8059674,-41.3322919,3,22.84496
1,Andirá/PR,-23.0494761,-50.2310027,1054,5289.57141
D1,Andirá/PR,-23.0494761,-50.2310027,17,85.31567
1,Andorinha/BA,-10.3445708,-39.8334411,521,3592.36020
D1,Andorinha/BA,-10.3445708,-39.8334411,7,48.26588
1,Andradas/MG,-22.0680484,-46.5688976,1340,3237.02773
D1,Andradas/MG,-22.0680484,-46.5688976,31,74.88646
1,Andradina/SP,-20.896505,-51.3742765,2898,5066.25642
D1,Andradina/SP,-20.896505,-51.3742765,104,181.81182
1,Andrelândia/MG,-21.739722,-44.308889,184,1507.45535
D1,Andrelândia/MG,-21.739722,-44.308889,3,24.57808
1,André da Rocha/RS,-28.6309124,-51.5733328,55,4095.30901
1,Angatuba/SP,-23.4938938,-48.4110675,717,2814.08219
D1,Angatuba/SP,-23.4938938,-48.4110675,21,82.42082
1,Angelim/PE,-8.8902038,-36.2872987,117,1042.22341
D1,Angelim/PE,-8.8902038,-36.2872987,4,35.63157
1,Angelina/SC,-27.5805287,-48.9838759,314,6620.28252
1,Angelândia/MG,-17.7253,-42.2728,53,619.37595
1,Angical do Piauí/PI,-6.0872666,-42.7366138,264,3892.08315
D1,Angical do Piauí/PI,-6.0872666,-42.7366138,6,88.45644
1,Angical/BA,-12.005623,-44.7000236,320,2295.88176
D1,Angical/BA,-12.005623,-44.7000236,5,35.87315
1,Angico/TO,-6.3893733,-47.8656722,180,5211.34916
D1,Angico/TO,-6.3893733,-47.8656722,3,86.85582
1,Angicos/RN,-5.6666344,-36.6009064,283,2417.77018
D1,Angicos/RN,-5.6666344,-36.6009064,6,51.26015
1,Angra dos Reis/RJ,-23.0063966,-44.316326,10799,5215.79954
D1,Angra dos Reis/RJ,-23.0063966,-44.316326,346,167.11424
1,Anguera/BA,-12.1509425,-39.2452469,225,1991.67921
1,Angélica/MS,-22.1588196,-53.7728504,408,3732.16246
D1,Angélica/MS,-22.1588196,-53.7728504,7,64.03220
1,Anhanguera/GO,-18.3338749,-48.220363,42,3620.68966
D1,Anhanguera/GO,-18.3338749,-48.220363,5,431.03448
1,Anhembi/SP,-22.7891096,-48.1316776,78,1143.86274
D1,Anhembi/SP,-22.7891096,-48.1316776,2,29.32981
1,Anhumas/SP,-22.2956478,-51.3873401,148,3571.42857
D1,Anhumas/SP,-22.2956478,-51.3873401,1,24.13127
1,Anicuns/GO,-16.4606451,-49.9572265,1296,5896.00109
D1,Anicuns/GO,-16.4606451,-49.9572265,24,109.18521
1,Anita Garibaldi/SC,-27.6855032,-51.1293873,634,9113.12347
D1,Anita Garibaldi/SC,-27.6855032,-51.1293873,3,43.12204
1,Anitápolis/SC,-27.9041185,-49.1287395,198,6133.82900
1,Anori/AM,-3.7435254,-61.6605203,1728,8045.81645
D1,Anori/AM,-3.7435254,-61.6605203,29,135.02817
1,Anta Gorda/RS,-28.9718745,-52.0069187,390,6542.52642
D1,Anta Gorda/RS,-28.9718745,-52.0069187,1,16.77571
1,Antas/BA,-10.4114649,-38.3308815,726,3727.09071
1,Antonina do Norte/CE,-6.7754187,-39.9879345,107,1450.25752
D1,Antonina do Norte/CE,-6.7754187,-39.9879345,7,94.87666
1,Antonina/PR,-25.4298854,-48.7125431,1499,7910.70769
D1,Antonina/PR,-25.4298854,-48.7125431,38,200.53829
1,Antônio Almeida/PI,-7.2186016,-44.1950248,307,9684.54259
D1,Antônio Almeida/PI,-7.2186016,-44.1950248,5,157.72871
1,Antônio Cardoso/BA,-12.4363122,-39.1200307,207,1772.71559
D1,Antônio Cardoso/BA,-12.4363122,-39.1200307,5,42.81922
1,Antônio Carlos/MG,-21.318334,-43.746666,317,2766.38450
D1,Antônio Carlos/MG,-21.318334,-43.746666,6,52.36059
1,Antônio Carlos/SC,-27.5168462,-48.7684715,968,11238.82503
D1,Antônio Carlos/SC,-27.5168462,-48.7684715,14,162.54499
1,Antônio Dias/MG,-19.6525,-42.872778,237,2555.25606
D1,Antônio Dias/MG,-19.6525,-42.872778,6,64.69003
1,Antônio Gonçalves/BA,-10.5715409,-40.2748824,474,3990.57080
D1,Antônio Gonçalves/BA,-10.5715409,-40.2748824,3,25.25678
1,Antônio João/MS,-22.1892837,-55.9508227,199,2206.20843
D1,Antônio João/MS,-22.1892837,-55.9508227,4,44.34590
1,Antônio Martins/RN,-6.2155812,-37.8890129,202,2823.59519
D1,Antônio Martins/RN,-6.2155812,-37.8890129,2,27.95639
1,Antônio Olinto/PR,-25.9849006,-50.1974516,152,2046.58678
D1,Antônio Olinto/PR,-25.9849006,-50.1974516,1,13.46439
1,Antônio Prado de Minas/MG,-21.0171988,-42.1101106,134,8443.60428
D1,Antônio Prado de Minas/MG,-21.0171988,-42.1101106,3,189.03592
1,Antônio Prado/RS,-28.8567806,-51.2801355,1156,8861.63281
D1,Antônio Prado/RS,-28.8567806,-51.2801355,12,91.98927
1,Anápolis/GO,-16.3332828,-48.9525756,20266,5172.90669
D1,Anápolis/GO,-16.3332828,-48.9525756,479,122.26499
1,Anísio de Abreu/PI,-9.185643,-43.04941,229,2304.28658
D1,Anísio de Abreu/PI,-9.185643,-43.04941,2,20.12477
1,Aparecida d'Oeste/SP,-20.4498109,-50.8808706,420,10101.01010
D1,Aparecida d'Oeste/SP,-20.4498109,-50.8808706,10,240.50024
1,Aparecida de Goiânia/GO,-16.8226769,-49.2452546,44394,7522.54527
D1,Aparecida de Goiânia/GO,-16.8226769,-49.2452546,672,113.87013
1,Aparecida do Rio Doce/GO,-18.2980167,-51.1491312,131,5295.06871
D1,Aparecida do Rio Doce/GO,-18.2980167,-51.1491312,3,121.26112
1,Aparecida do Rio Negro/TO,-9.9513491,-47.9773786,157,3238.44884
D1,Aparecida do Rio Negro/TO,-9.9513491,-47.9773786,3,61.88119
1,Aparecida do Taboado/MS,-20.0840304,-51.1013943,1444,5539.14611
D1,Aparecida do Taboado/MS,-20.0840304,-51.1013943,24,92.06337
1,Aparecida/PB,-6.7859598, -38.0831353,592,7034.22053
D1,Aparecida/PB,-6.7859598, -38.0831353,8,95.05703
1,Aparecida/SP,-22.851552,-45.2340924,1173,3241.67473
D1,Aparecida/SP,-22.851552,-45.2340924,33,91.19801
1,Aperibé/RJ,-21.6211928,-42.1028167,295,2478.78330
D1,Aperibé/RJ,-21.6211928,-42.1028167,10,84.02655
1,Apiacá/ES,-21.152272,-41.569297,439,5811.49060
D1,Apiacá/ES,-21.152272,-41.569297,11,145.61822
1,Apiacás/MT,-9.5678422,-57.394852,413,4016.33764
D1,Apiacás/MT,-9.5678422,-57.394852,1,9.72479
1,Apiaí/SP,-24.5076527,-48.8461582,567,2340.46066
D1,Apiaí/SP,-24.5076527,-48.8461582,20,82.55593
1,Apicum-Açu/MA,-1.5279295,-45.082278,216,1240.45254
D1,Apicum-Açu/MA,-1.5279295,-45.082278,3,17.22851
1,Apiúna/SC,-27.0374658,-49.3885037,513,4728.98230
D1,Apiúna/SC,-27.0374658,-49.3885037,11,101.40118
1,Apodi/RN,-5.6631109,-37.796927,4096,11417.73987
D1,Apodi/RN,-5.6631109,-37.796927,50,139.37671
1,Aporá/BA,-11.6599747,-38.0794757,340,1911.40094
D1,Aporá/BA,-11.6599747,-38.0794757,10,56.21767
1,Aporé/GO,-18.9642193,-51.92804,198,4678.63894
D1,Aporé/GO,-18.9642193,-51.92804,4,94.51796
1,Apuarema/BA,-13.8517897,-39.7457126,523,7162.42125
D1,Apuarema/BA,-13.8517897,-39.7457126,7,95.86415
1,Apucarana/PR,-23.5525327,-51.4610764,3896,2859.78537
D1,Apucarana/PR,-23.5525327,-51.4610764,131,96.15808
1,Apuiarés/CE,-3.9460303,-39.4313298,327,2228.73501
D1,Apuiarés/CE,-3.9460303,-39.4313298,12,81.78844
1,Apuí/AM,-7.1940195,-59.8830192,848,3792.65620
D1,Apuí/AM,-7.1940195,-59.8830192,17,76.03202
1,Aquidabã/SE,-10.2837579,-37.0188687,1340,6180.52673
D1,Aquidabã/SE,-10.2837579,-37.0188687,21,96.85900
1,Aquidauana/MS,-20.473969,-55.7821375,3286,6841.69981
D1,Aquidauana/MS,-20.473969,-55.7821375,86,179.05849
1,Aquiraz/CE,-3.9063117,-38.387504,2131,2632.97708
D1,Aquiraz/CE,-3.9063117,-38.387504,42,51.89349
1,Arabutã/SC,-27.1587028,-52.1438142,211,4944.92618
D1,Arabutã/SC,-27.1587028,-52.1438142,2,46.87134
1,Aracaju/SE,-10.9162061,-37.0774655,75039,11285.62147
D1,Aracaju/SE,-10.9162061,-37.0774655,1063,159.87174
1,Aracati/CE,-4.558259,-37.767894,3021,4029.34311
D1,Aracati/CE,-4.558259,-37.767894,69,92.03068
1,Aracatu/BA,-14.4274236,-41.4604105,489,3748.56267
D1,Aracatu/BA,-14.4274236,-41.4604105,8,61.32618
1,Araci/BA,-11.3356065,-38.9573261,2458,4497.87732
D1,Araci/BA,-11.3356065,-38.9573261,25,45.74733
1,Aracitaba/MG,-21.3425,-43.378611,68,3302.57407
D1,Aracitaba/MG,-21.3425,-43.378611,5,242.83633
1,Aracoiaba/CE,-4.3702577,-38.8084313,990,3730.92142
D1,Aracoiaba/CE,-4.3702577,-38.8084313,19,71.60354
1,Aracruz/ES,-19.8245218,-40.2735025,10564,10246.26337
D1,Aracruz/ES,-19.8245218,-40.2735025,135,130.93956
1,Aragarças/GO,-15.8957166,-52.2514538,1402,6915.60203
D1,Aragarças/GO,-15.8957166,-52.2514538,28,138.11473
1,Aragoiânia/GO,-16.9146388,-49.4499148,556,5297.25610
D1,Aragoiânia/GO,-16.9146388,-49.4499148,6,57.16463
1,Aragominas/TO,-7.1654101,-48.525488,397,6927.23783
D1,Aragominas/TO,-7.1654101,-48.525488,7,122.14273
1,Araguacema/TO,-8.8067391,-49.5560969,179,2501.74703
D1,Araguacema/TO,-8.8067391,-49.5560969,2,27.95248
1,Araguaiana/MT,-15.729144,-51.834112,83,2669.66870
D1,Araguaiana/MT,-15.729144,-51.834112,1,32.16468
1,Araguainha/MT,-16.857016,-53.031778,15,1585.62368
1,Araguanã/MA,-2.9508403,-45.6651986,587,3774.67687
D1,Araguanã/MA,-2.9508403,-45.6651986,4,25.72182
1,Araguanã/TO,-6.5799107,-48.6428482,190,3279.82047
D1,Araguanã/TO,-6.5799107,-48.6428482,11,189.88434
1,Araguapaz/GO,-15.0937927,-50.626417,208,2672.49133
D1,Araguapaz/GO,-15.0937927,-50.626417,7,89.93961
1,Araguari/MG,-18.6511256,-48.1933764,8050,6832.16635
D1,Araguari/MG,-18.6511256,-48.1933764,189,160.40738
1,Araguatins/TO,-5.6522925,-48.1158973,1316,3638.37434
D1,Araguatins/TO,-5.6522925,-48.1158973,35,96.76528
1,Araguaçu/TO,-12.928934,-49.823134,644,7605.99976
D1,Araguaçu/TO,-12.928934,-49.823134,12,141.72670
1,Araguaína/TO,-7.193241,-48.2018597,20733,11305.96954
D1,Araguaína/TO,-7.193241,-48.2018597,266,145.05320
1,Araioses/MA,-2.890914,-41.904993,589,1259.32736
D1,Araioses/MA,-2.890914,-41.904993,10,21.38077
1,Aral Moreira/MS,-22.951141,-55.6268421,287,2327.27862
D1,Aral Moreira/MS,-22.951141,-55.6268421,7,56.76289
1,Aramari/BA,-12.0907897,-38.4985065,356,3106.18620
D1,Aramari/BA,-12.0907897,-38.4985065,7,61.07669
1,Arambaré/RS,-30.9132252,-51.4994625,88,2470.52218
D1,Arambaré/RS,-30.9132252,-51.4994625,2,56.14823
1,Arame/MA,-4.8858769,-46.0102484,958,2923.94091
D1,Arame/MA,-4.8858769,-46.0102484,22,67.14687
1,Aramina/SP,-20.0876144,-47.789201,182,3218.39080
D1,Aramina/SP,-20.0876144,-47.789201,7,123.78426
1,Arandu/SP,-23.1345103,-49.0545651,124,1948.15397
D1,Arandu/SP,-23.1345103,-49.0545651,7,109.97643
1,Arantina/MG,-21.911667,-44.255833,49,1758.16290
D1,Arantina/MG,-21.911667,-44.255833,2,71.76175
1,Arapeí/SP,-22.6738889,-44.4477778,137,5569.10569
D1,Arapeí/SP,-22.6738889,-44.4477778,2,81.30081
1,Arapiraca/AL,-9.754866,-36.661471,16087,6902.89942
D1,Arapiraca/AL,-9.754866,-36.661471,220,94.40156
1,Arapoema/TO,-7.6575001,-49.0641484,269,4065.90085
D1,Arapoema/TO,-7.6575001,-49.0641484,4,60.45949
1,Araponga/MG,-20.666667,-42.520556,232,2744.58772
D1,Araponga/MG,-20.666667,-42.520556,1,11.83012
1,Arapongas/PR,-23.415296,-51.42592,6697,5365.75595
D1,Arapongas/PR,-23.415296,-51.42592,196,157.03870
1,Araporã/MG,-18.4318188,-49.188313,1151,16606.55028
D1,Araporã/MG,-18.4318188,-49.188313,10,144.27932
1,Arapoti/PR,-24.1457957,-49.8224605,1539,5438.16254
D1,Arapoti/PR,-24.1457957,-49.8224605,13,45.93640
1,Araputanga/MT,-15.4710868,-58.346796,1105,6518.78945
D1,Araputanga/MT,-15.4710868,-58.346796,19,112.08778
1,Arapuá/MG,-19.034444,-46.155556,77,2716.04938
D1,Arapuá/MG,-19.034444,-46.155556,1,35.27337
1,Arapuã/PR,-24.3079525,-51.7901941,109,3622.46594
D1,Arapuã/PR,-24.3079525,-51.7901941,3,99.70090
1,Araquari/SC,-26.3703324,-48.7210994,1948,4928.65095
D1,Araquari/SC,-26.3703324,-48.7210994,29,73.37314
1,Arara/PB,-6.8271895,-35.7605703,328,2422.09423
D1,Arara/PB,-6.8271895,-35.7605703,9,66.45990
1,Araranguá/SC,-28.9348832,-49.4858389,6395,9286.01507
D1,Araranguá/SC,-28.9348832,-49.4858389,101,146.65950
1,Araraquara/SP,-21.7886713,-48.1773096,10436,4378.63715
D1,Araraquara/SP,-21.7886713,-48.1773096,154,64.61385
1,Araras/SP,-22.3569477,-47.3838889,7840,5785.72167
D1,Araras/SP,-22.3569477,-47.3838889,142,104.79241
1,Ararendá/CE,-4.7504395,-40.8303611,474,4325.21215
D1,Ararendá/CE,-4.7504395,-40.8303611,9,82.12428
1,Arari/MA,-3.4547602,-44.7772723,375,1252.83977
D1,Arari/MA,-3.4547602,-44.7772723,12,40.09087
1,Araricá/RS,-29.6168543,-50.929121,462,8005.54497
D1,Araricá/RS,-29.6168543,-50.929121,11,190.60821
1,Araripe/CE,-7.212861,-40.1359222,516,2382.93156
D1,Araripe/CE,-7.212861,-40.1359222,6,27.70851
1,Araripina/PE,-7.5768582,-40.5038509,4076,4802.97888
D1,Araripina/PE,-7.5768582,-40.5038509,65,76.59314
1,Araruama/RJ,-22.8733203,-42.3428897,3280,2442.42068
D1,Araruama/RJ,-22.8733203,-42.3428897,108,80.42117
1,Araruna/PB,-6.5321155,-35.7397595,537,2624.24864
D1,Araruna/PB,-6.5321155,-35.7397595,15,73.30303
1,Araruna/PR,-23.9320308,-52.4976047,657,4692.85714
D1,Araruna/PR,-23.9320308,-52.4976047,13,92.85714
1,Arataca/BA,-15.2617424,-39.4122943,340,3101.90676
D1,Arataca/BA,-15.2617424,-39.4122943,10,91.23255
1,Aratiba/RS,-27.3955734,-52.3024325,238,3845.53240
D1,Aratiba/RS,-27.3955734,-52.3024325,4,64.63080
1,Aratuba/CE,-4.4195958,-39.0463737,308,2609.72716
D1,Aratuba/CE,-4.4195958,-39.0463737,2,16.94628
1,Aratuípe/BA,-13.077137,-39.0010786,221,2500.84870
D1,Aratuípe/BA,-13.077137,-39.0010786,6,67.89634
1,Araucária/PR,-25.5861107,-49.4051209,13083,8947.84357
D1,Araucária/PR,-25.5861107,-49.4051209,160,109.42865
1,Arauá/SE,-11.2644014,-37.6181058,580,5830.90379
D1,Arauá/SE,-11.2644014,-37.6181058,12,120.63939
1,Araxá/MG,-19.5928536,-46.940241,5317,4953.55749
D1,Araxá/MG,-19.5928536,-46.940241,58,54.03542
1,Araçagi/PB,-6.8519969,-35.3835602,713,4213.69895
D1,Araçagi/PB,-6.8519969,-35.3835602,8,47.27853
1,Araçariguama/SP,-23.438611,-47.061389,755,3302.71216
D1,Araçariguama/SP,-23.438611,-47.061389,19,83.11461
1,Araçatuba/SP,-21.207992,-50.4390225,13991,7061.56090
D1,Araçatuba/SP,-21.207992,-50.4390225,277,139.80790
1,Araçaí/MG,-19.200833,-44.2475,23,977.06032
1,Araçoiaba da Serra/SP,-23.5045367,-47.6168158,1306,3755.46354
D1,Araçoiaba da Serra/SP,-23.5045367,-47.6168158,26,74.76421
1,Araçoiaba/PE,-7.7856903,-35.0898881,254,1225.10008
D1,Araçoiaba/PE,-7.7856903,-35.0898881,20,96.46457
1,Araçu/GO,-16.3561579,-49.6815269,166,4761.90476
D1,Araçu/GO,-16.3561579,-49.6815269,4,114.74469
1,Araçuaí/MG,-16.8484451,-42.0661868,559,1522.66289
D1,Araçuaí/MG,-16.8484451,-42.0661868,15,40.85857
1,Araçás/BA,-12.2139176,-38.2026159,460,3768.02097
D1,Araçás/BA,-12.2139176,-38.2026159,7,57.33945
1,Araújos/MG,-19.948055,-45.165556,339,3605.99936
D1,Araújos/MG,-19.948055,-45.165556,2,21.27433
1,Arceburgo/MG,-21.364444,-46.939722,383,3519.25021
D1,Arceburgo/MG,-21.364444,-46.939722,6,55.13186
1,Arco-Íris/SP,-21.7741308,-50.4668814,54,3045.68528
D1,Arco-Íris/SP,-21.7741308,-50.4668814,4,225.60632
1,Arcos/MG,-20.282223,-45.539444,1903,4712.72907
D1,Arcos/MG,-20.282223,-45.539444,21,52.00594
1,Arcoverde/PE,-8.415192,-37.057748,3889,5197.66913
D1,Arcoverde/PE,-8.415192,-37.057748,85,113.60295
1,Areado/MG,-21.3582771,-46.1476688,381,2509.71609
D1,Areado/MG,-21.3582771,-46.1476688,8,52.69745
1,Areal/RJ,-22.2314922,-43.1056264,375,2959.98106
D1,Areal/RJ,-22.2314922,-43.1056264,14,110.50596
1,Arealva/SP,-22.0301906,-48.9111936,346,4017.18333
D1,Arealva/SP,-22.0301906,-48.9111936,2,23.22071
1,Areia Branca/RN,-4.9506652,-37.1263312,1307,4673.36504
D1,Areia Branca/RN,-4.9506652,-37.1263312,60,214.53856
1,Areia Branca/SE,-10.7591455,-37.3148072,1065,5699.45414
D1,Areia Branca/SE,-10.7591455,-37.3148072,23,123.08680
1,Areia de Baraúnas/PB,-7.1233949,-36.9446216,17,803.40265
1,Areia/PB,-6.9680243,-35.6994783,734,3239.75989
D1,Areia/PB,-6.9680243,-35.6994783,10,44.13842
1,Areial/PB,-7.0501306,-35.9245244,156,2220.00854
D1,Areial/PB,-7.0501306,-35.9245244,5,71.15412
1,Areias/SP,-22.5800929,-44.6975127,170,4363.44969
D1,Areias/SP,-22.5800929,-44.6975127,1,25.66735
1,Areiópolis/SP,-22.6758064,-48.6673653,344,3082.98978
D1,Areiópolis/SP,-22.6758064,-48.6673653,5,44.81090
1,Arenápolis/MT,-14.4610369,-56.8432806,828,8713.95496
D1,Arenápolis/MT,-14.4610369,-56.8432806,11,115.76510
1,Arenópolis/GO,-16.3859286,-51.55937,37,1458.99054
1,Argirita/MG,-21.612761,-42.8371922,201,7433.43195
D1,Argirita/MG,-21.612761,-42.8371922,5,184.91124
1,Aricanduva/MG,-17.8678,-42.5569,30,569.36800
1,Arinos/MG,-15.917223,-46.106111,179,1002.12742
D1,Arinos/MG,-15.917223,-46.106111,4,22.39391
1,Aripuanã/MT,-10.175806,-59.4439663,1376,6057.93784
D1,Aripuanã/MT,-10.175806,-59.4439663,20,88.05142
1,Ariquemes/RO,-9.9076522,-63.033069,11649,10636.12209
D1,Ariquemes/RO,-9.9076522,-63.033069,210,191.74055
1,Ariranha do Ivaí/PR,-24.3834527,-51.5876772,81,3920.61955
D1,Ariranha do Ivaí/PR,-24.3834527,-51.5876772,1,48.40271
1,Ariranha/SP,-21.18716,-48.790418,242,2479.25417
D1,Ariranha/SP,-21.18716,-48.790418,12,122.93822
1,Armazém/SC,-28.2624996,-49.0190126,849,9692.88732
D1,Armazém/SC,-28.2624996,-49.0190126,8,91.33463
1,Armação dos Búzios/RJ,-22.7597805,-41.8875267,2781,8066.24706
D1,Armação dos Búzios/RJ,-22.7597805,-41.8875267,23,66.71114
1,Arneiroz/CE,-6.3235099,-40.1603859,87,1109.12800
D1,Arneiroz/CE,-6.3235099,-40.1603859,6,76.49159
1,Aroazes/PI,-6.1108814,-41.7886137,260,4461.98730
D1,Aroazes/PI,-6.1108814,-41.7886137,6,102.96894
1,Aroeiras do Itaim/PI,-7.2797031,-41.5629681,94,3684.82948
D1,Aroeiras do Itaim/PI,-7.2797031,-41.5629681,1,39.20031
1,Aroeiras/PB,-7.5462904,-35.7080002,491,2568.52898
D1,Aroeiras/PB,-7.5462904,-35.7080002,3,15.69366
1,Arraial do Cabo/RJ,-22.9662839,-42.024427,484,1582.06126
D1,Arraial do Cabo/RJ,-22.9662839,-42.024427,9,29.41849
1,Arraial/PI,-6.6541632,-42.5335332,108,2288.13559
D1,Arraial/PI,-6.6541632,-42.5335332,1,21.18644
1,Arraias/TO,-12.9287788,-46.9437231,228,2164.41997
1,Arroio Grande/RS,-32.2384246,-53.0866661,781,4282.26779
D1,Arroio Grande/RS,-32.2384246,-53.0866661,11,60.31363
1,Arroio Trinta/SC,-26.9301976,-51.334928,300,8453.08538
D1,Arroio Trinta/SC,-26.9301976,-51.334928,3,84.53085
1,Arroio do Meio/RS,-29.4020392,-51.9444993,1200,5723.27944
D1,Arroio do Meio/RS,-29.4020392,-51.9444993,9,42.92460
1,Arroio do Padre/RS,-31.4428773,-52.4228985,82,2778.71908
D1,Arroio do Padre/RS,-31.4428773,-52.4228985,1,33.88682
1,Arroio do Sal/RS,-29.549852,-49.8874395,490,4767.00068
D1,Arroio do Sal/RS,-29.549852,-49.8874395,11,107.01430
1,Arroio do Tigre/RS,-29.334158,-53.0888935,549,4093.04406
D1,Arroio do Tigre/RS,-29.334158,-53.0888935,5,37.27727
1,Arroio dos Ratos/RS,-30.0894524,-51.7265541,407,2870.84715
D1,Arroio dos Ratos/RS,-30.0894524,-51.7265541,20,141.07357
1,Artur Nogueira/SP,-22.572737,-47.172679,1953,3529.09288
D1,Artur Nogueira/SP,-22.572737,-47.172679,48,86.73654
1,Aruanã/GO,-14.9162439,-51.0715692,240,2373.88724
D1,Aruanã/GO,-14.9162439,-51.0715692,5,49.45598
1,Arujá/SP,-23.396266,-46.3175449,3743,4106.10266
D1,Arujá/SP,-23.396266,-46.3175449,127,139.32007
1,Arvoredo/SC,-27.0752908,-52.4571847,158,7072.51567
D1,Arvoredo/SC,-27.0752908,-52.4571847,1,44.76276
1,Arvorezinha/RS,-28.87369,-52.17808,467,4480.47587
D1,Arvorezinha/RS,-28.87369,-52.17808,10,95.94167
1,Arês/RN,-6.1969216,-35.1642968,502,3482.00042
D1,Arês/RN,-6.1969216,-35.1642968,12,83.23507
1,Ascurra/SC,-26.9569975,-49.3767752,689,8636.24969
D1,Ascurra/SC,-26.9569975,-49.3767752,3,37.60341
1,Aspásia/SP,-20.160028,-50.728046,66,3630.36304
D1,Aspásia/SP,-20.160028,-50.728046,2,110.01100
1,Assaré/CE,-6.8746791,-39.8741385,1010,4301.89965
D1,Assaré/CE,-6.8746791,-39.8741385,21,89.44544
1,Assaí/PR,-23.3736041,-50.8454929,567,3791.62766
D1,Assaí/PR,-23.3736041,-50.8454929,18,120.36913
1,Assis Brasil/AC,-10.9409203,-69.5672108,1044,13857.18078
D1,Assis Brasil/AC,-10.9409203,-69.5672108,12,159.27794
1,Assis Chateaubriand/PR,-24.4054826,-53.5120468,1972,5914.81704
D1,Assis Chateaubriand/PR,-24.4054826,-53.5120468,29,86.98260
1,Assis/SP,-22.6620892,-50.420623,3490,3321.05779
D1,Assis/SP,-22.6620892,-50.420623,61,58.04714
1,Assunção do Piauí/PI,-5.8610212,-41.0485091,198,2518.12285
D1,Assunção do Piauí/PI,-5.8610212,-41.0485091,4,50.87117
1,Assunção/PB,-7.073396,-36.7274003,161,3996.02879
D1,Assunção/PB,-7.073396,-36.7274003,1,24.82005
1,Astolfo Dutra/MG,-21.3132636,-42.8624102,788,5522.07428
D1,Astolfo Dutra/MG,-21.3132636,-42.8624102,13,91.10021
1,Astorga/PR,-23.2350184,-51.6647074,1354,5166.16429
D1,Astorga/PR,-23.2350184,-51.6647074,20,76.30966
1,Atalaia do Norte/AM,-4.3658547,-70.1908742,2354,11540.34709
D1,Atalaia do Norte/AM,-4.3658547,-70.1908742,7,34.31709
1,Atalaia/AL,-9.5029595,-36.0219316,727,1534.88863
D1,Atalaia/AL,-9.5029595,-36.0219316,30,63.33791
1,Atalaia/PR,-23.1513833,-52.0529697,172,4431.84746
D1,Atalaia/PR,-23.1513833,-52.0529697,3,77.29967
1,Atalanta/SC,-27.421916,-49.778863,121,3787.16745
1,Ataléia/MG,-18.04432,-41.1110524,638,5032.33949
D1,Ataléia/MG,-18.04432,-41.1110524,5,39.43840
1,Atibaia/SP,-23.1177393,-46.5547861,5598,3885.12576
D1,Atibaia/SP,-23.1177393,-46.5547861,102,70.79007
1,Atilio Vivacqua/ES,-20.9139369,-41.1947519,944,7798.43040
D1,Atilio Vivacqua/ES,-20.9139369,-41.1947519,16,132.17679
1,Augustinópolis/TO,-5.4662267,-47.8897519,959,5144.02188
D1,Augustinópolis/TO,-5.4662267,-47.8897519,13,69.73127
1,Augusto Corrêa/PA,-1.0229335,-46.6404029,1554,3344.02100
D1,Augusto Corrêa/PA,-1.0229335,-46.6404029,25,53.79699
1,Augusto Pestana/RS,-28.5148413,-53.9906433,154,2332.62648
D1,Augusto Pestana/RS,-28.5148413,-53.9906433,2,30.29385
1,Augusto de Lima/MG,-18.1092963,-44.2651945,123,2535.55968
D1,Augusto de Lima/MG,-18.1092963,-44.2651945,4,82.45723
1,Aurelino Leal/BA,-14.3167137,-39.3256107,729,6451.89840
D1,Aurelino Leal/BA,-14.3167137,-39.3256107,18,159.30613
1,Auriflama/SP,-20.6840418,-50.5554616,878,5756.24467
D1,Auriflama/SP,-20.6840418,-50.5554616,19,124.56566
1,Aurilândia/GO,-16.6772599,-50.4641231,69,2256.37672
D1,Aurilândia/GO,-16.6772599,-50.4641231,3,98.10334
1,Aurora do Pará/PA,-2.1323199,-47.558436,790,2486.38781
D1,Aurora do Pará/PA,-2.1323199,-47.558436,9,28.32594
1,Aurora do Tocantins/TO,-12.71045,-46.407604,132,3489.29421
D1,Aurora do Tocantins/TO,-12.71045,-46.407604,2,52.86809
1,Aurora/CE,-6.9426019,-38.9693765,974,3957.74076
D1,Aurora/CE,-6.9426019,-38.9693765,25,101.58472
1,Aurora/SC,-27.3166417,-49.6368502,308,5419.67271
D1,Aurora/SC,-27.3166417,-49.6368502,7,123.17438
1,Autazes/AM,-3.5833283,-59.1301518,2393,5939.43907
D1,Autazes/AM,-3.5833283,-59.1301518,72,178.70439
1,Avanhandava/SP,-21.4603331,-49.9465156,343,2474.92604
D1,Avanhandava/SP,-21.4603331,-49.9465156,14,101.01739
1,Avaré/SP,-23.1045215,-48.9259103,2483,2721.63276
D1,Avaré/SP,-23.1045215,-48.9259103,34,37.26763
1,Avaí/SP,-22.1564662,-49.3316395,156,2869.75717
D1,Avaí/SP,-22.1564662,-49.3316395,3,55.18764
1,Aveiro/PA,-3.6049239,-55.3310742,458,2792.00195
D1,Aveiro/PA,-3.6049239,-55.3310742,5,30.48037
1,Avelino Lopes/PI,-10.1346855,-43.9489525,204,1801.16546
D1,Avelino Lopes/PI,-10.1346855,-43.9489525,17,150.09712
1,Avelinópolis/GO,-16.4672409,-49.7578661,158,6558.73807
D1,Avelinópolis/GO,-16.4672409,-49.7578661,4,166.04400
1,Axixá do Tocantins/TO,-5.612747,-47.77007,627,6406.45755
D1,Axixá do Tocantins/TO,-5.612747,-47.77007,5,51.08818
1,Axixá/MA,-2.8379465,-44.0561053,154,1264.05647
D1,Axixá/MA,-2.8379465,-44.0561053,3,24.62448
1,Açailândia/MA,-4.9514278,-47.4844564,3922,3467.08392
D1,Açailândia/MA,-4.9514278,-47.4844564,105,92.82096
1,Açu/RN,-5.5836157,-36.9139541,3016,5165.79885
D1,Açu/RN,-5.5836157,-36.9139541,87,149.01343
1,Açucena/MG,-19.073056,-42.546666,225,2401.79334
D1,Açucena/MG,-19.073056,-42.546666,9,96.07173
1,Babaçulândia/TO,-7.2034355,-47.761613,477,4472.15451
D1,Babaçulândia/TO,-7.2034355,-47.761613,4,37.50234
1,Bacabal/MA,-4.2318132,-44.781167,3775,3602.44298
D1,Bacabal/MA,-4.2318132,-44.781167,82,78.25174
1,Bacabeira/MA,-2.9775747,-44.3155943,186,1078.13587
D1,Bacabeira/MA,-2.9775747,-44.3155943,3,17.38929
1,Bacuri/MA,-1.728894,-45.1417148,429,2299.77485
D1,Bacuri/MA,-1.728894,-45.1417148,4,21.44312
1,Bacurituba/MA,-2.7082587,-44.7381309,97,1710.75838
1,Bady Bassitt/SP,-20.9178969,-49.4517911,1553,8743.87703
D1,Bady Bassitt/SP,-20.9178969,-49.4517911,25,140.75784
1,Baependi/MG,-21.959162,-44.8899249,770,4010.62555
D1,Baependi/MG,-21.959162,-44.8899249,10,52.08605
1,Bagre/PA,-1.8994498,-50.2103844,625,1995.21149
D1,Bagre/PA,-1.8994498,-50.2103844,11,35.11572
1,Bagé/RS,-31.3314264,-54.1062808,3550,2925.78399
D1,Bagé/RS,-31.3314264,-54.1062808,85,70.05398
1,Baianópolis/BA,-12.3067564,-44.5383591,207,1486.10812
D1,Baianópolis/BA,-12.3067564,-44.5383591,2,14.35853
1,Baixa Grande do Ribeiro/PI,-7.862861,-45.2113289,1687,14454.63114
D1,Baixa Grande do Ribeiro/PI,-7.862861,-45.2113289,15,128.52369
1,Baixa Grande/BA,-11.9630941,-40.1657537,420,2053.89017
D1,Baixa Grande/BA,-11.9630941,-40.1657537,3,14.67064
1,Baixio/CE,-6.7303544,-38.7170095,169,2681.26289
D1,Baixio/CE,-6.7303544,-38.7170095,4,63.46184
1,Baixo Guandu/ES,-19.5138322,-41.0182089,2346,7535.65463
D1,Baixo Guandu/ES,-19.5138322,-41.0182089,42,134.90942
1,Baião/PA,-2.7903479,-49.6702845,504,1040.05448
D1,Baião/PA,-2.7903479,-49.6702845,21,43.33560
1,Balbinos/SP,-21.9006253,-49.3583966,275,4634.31075
D1,Balbinos/SP,-21.9006253,-49.3583966,3,50.55612
1,Baldim/MG,-19.2913568,-43.9558262,267,3421.76086
D1,Baldim/MG,-19.2913568,-43.9558262,6,76.89350
1,Baliza/GO,-16.1978119,-52.542789,105,1988.63636
D1,Baliza/GO,-16.1978119,-52.542789,2,37.87879
1,Balneário Arroio do Silva/SC,-28.9815269,-49.4189932,1243,9255.39836
D1,Balneário Arroio do Silva/SC,-28.9815269,-49.4189932,20,148.92033
1,Balneário Barra do Sul/SC,-26.459842,-48.6061471,986,8935.20616
D1,Balneário Barra do Sul/SC,-26.459842,-48.6061471,18,163.11735
1,Balneário Camboriú/SC,-26.9924395,-48.6339782,18115,12424.89506
D1,Balneário Camboriú/SC,-26.9924395,-48.6339782,199,136.49208
1,Balneário Gaivota/SC,-29.1553098,-49.5808712,811,7202.48668
D1,Balneário Gaivota/SC,-29.1553098,-49.5808712,11,97.69094
1,Balneário Pinhal/RS,-30.2482978,-50.234585,590,4107.77693
D1,Balneário Pinhal/RS,-30.2482978,-50.234585,17,118.35967
1,Balneário Piçarras/SC,-26.7638889,-48.6716667,2816,11845.86909
D1,Balneário Piçarras/SC,-26.7638889,-48.6716667,22,92.54585
1,Balneário Rincão/SC,-28.8235718,-49.2241642,935,7222.30805
D1,Balneário Rincão/SC,-28.8235718,-49.2241642,22,169.93666
1,Balsa Nova/PR,-25.5842234,-49.6312741,658,5025.97006
D1,Balsa Nova/PR,-25.5842234,-49.6312741,11,84.02078
1,Balsas/MA,-7.53214,-46.037163,7430,7745.31164
D1,Balsas/MA,-7.53214,-46.037163,87,90.69207
1,Bambuí/MG,-20.0131996,-45.9777034,429,1795.12930
D1,Bambuí/MG,-20.0131996,-45.9777034,3,12.55335
1,Banabuiú/CE,-5.3046404,-38.919766,736,4031.55127
D1,Banabuiú/CE,-5.3046404,-38.919766,5,27.38826
1,Bananal/SP,-22.6828195,-44.3221095,509,4630.21923
D1,Bananal/SP,-22.6828195,-44.3221095,2,18.19340
1,Bananeiras/PB,-6.7537682,-35.6338343,678,3187.73802
D1,Bananeiras/PB,-6.7537682,-35.6338343,4,18.80671
1,Bandeira do Sul/MG,-21.728056,-46.385555,97,1678.78159
D1,Bandeira do Sul/MG,-21.728056,-46.385555,5,86.53513
1,Bandeira/MG,-15.884444,-40.559167,404,8476.71003
D1,Bandeira/MG,-15.884444,-40.559167,8,167.85564
1,Bandeirante/SC,-26.7677402,-53.6397596,92,3474.32024
D1,Bandeirante/SC,-26.7677402,-53.6397596,1,37.76435
1,Bandeirantes do Tocantins/TO,-7.7635698,-48.579148,226,6291.75947
D1,Bandeirantes do Tocantins/TO,-7.7635698,-48.579148,2,55.67929
1,Bandeirantes/MS,-19.9179623,-54.3646768,314,4321.49739
D1,Bandeirantes/MS,-19.9179623,-54.3646768,5,68.81365
1,Bandeirantes/PR,-23.107788,-50.370407,1846,5914.58140
D1,Bandeirantes/PR,-23.107788,-50.370407,48,153.79193
1,Bannach/PA,-7.3508505,-50.4064531,124,3801.34887
D1,Bannach/PA,-7.3508505,-50.4064531,2,61.31208
1,Banzaê/BA,-10.5827616,-38.6122305,716,5407.85498
D1,Banzaê/BA,-10.5827616,-38.6122305,4,30.21148
1,Baraúna/PB,-6.643394,-36.2531932,167,3364.22240
D1,Baraúna/PB,-6.643394,-36.2531932,2,40.29009
1,Baraúna/RN,-5.0775002,-37.61752,681,2368.94285
D1,Baraúna/RN,-5.0775002,-37.61752,17,59.13661
1,Barbacena/MG,-21.2254524,-43.7735087,3558,2574.45515
D1,Barbacena/MG,-21.2254524,-43.7735087,80,57.88544
1,Barbalha/CE,-7.3121067,-39.3036427,2790,4556.73875
D1,Barbalha/CE,-7.3121067,-39.3036427,58,94.72790
1,Barbosa Ferraz/PR,-24.0287182,-52.00811,497,4349.72869
D1,Barbosa Ferraz/PR,-24.0287182,-52.00811,6,52.51182
1,Barbosa/SP,-21.265661,-49.951816,247,3307.44510
D1,Barbosa/SP,-21.265661,-49.951816,4,53.56186
1,Barcarena/PA,-1.5107945,-48.6190679,6279,4943.04360
D1,Barcarena/PA,-1.5107945,-48.6190679,134,105.48938
1,Barcelona/RN,-5.9514918,-35.9260284,41,1026.53981
D1,Barcelona/RN,-5.9514918,-35.9260284,3,75.11267
1,Barcelos/AM,-0.9729214,-62.925635,3854,13944.56907
D1,Barcelos/AM,-0.9729214,-62.925635,50,180.91034
1,Bariri/SP,-22.0746355,-48.7394852,1711,4811.85668
D1,Bariri/SP,-22.0746355,-48.7394852,44,123.74149
1,Barra Bonita/SC,-26.6526364,-53.4419581,63,3815.86917
D1,Barra Bonita/SC,-26.6526364,-53.4419581,1,60.56935
1,Barra Bonita/SP,-22.490859,-48.558349,2055,5688.42385
D1,Barra Bonita/SP,-22.490859,-48.558349,38,105.18740
1,Barra D'Alcântara/PI,-6.5209258,-42.1071089,73,1847.16599
D1,Barra D'Alcântara/PI,-6.5209258,-42.1071089,1,25.30364
1,Barra Funda/RS,-27.9230048,-53.0401045,269,10544.88436
D1,Barra Funda/RS,-27.9230048,-53.0401045,5,196.00157
1,Barra Longa/MG,-20.2833541,-43.0423516,137,2731.80459
D1,Barra Longa/MG,-20.2833541,-43.0423516,1,19.94018
1,Barra Mansa/RJ,-22.5394843,-44.1735129,9588,5187.38537
D1,Barra Mansa/RJ,-22.5394843,-44.1735129,289,156.35736
1,Barra Velha/SC,-26.6338203,-48.6835001,2468,8265.23778
D1,Barra Velha/SC,-26.6338203,-48.6835001,44,147.35432
1,Barra da Estiva/BA,-13.6269662,-41.3278287,1092,5355.04119
D1,Barra da Estiva/BA,-13.6269662,-41.3278287,8,39.23107
1,Barra de Guabiraba/PE,-8.4173522,-35.6626669,299,2060.64783
D1,Barra de Guabiraba/PE,-8.4173522,-35.6626669,11,75.80979
1,Barra de Santa Rosa/PB,-6.7218007,-36.0564638,563,3632.96122
D1,Barra de Santa Rosa/PB,-6.7218007,-36.0564638,3,19.35859
1,Barra de Santana/PB,-7.5230865,-35.9988518,269,3221.94275
D1,Barra de Santana/PB,-7.5230865,-35.9988518,3,35.93245
1,Barra de Santo Antônio/AL,-9.4038098,-35.5117693,156,970.87379
D1,Barra de Santo Antônio/AL,-9.4038098,-35.5117693,15,93.35325
1,Barra de São Francisco/ES,-18.7570902,-40.8916119,2232,4962.31575
D1,Barra de São Francisco/ES,-18.7570902,-40.8916119,67,148.95840
1,Barra de São Miguel/AL,-9.8261357,-35.8837777,226,2697.54118
D1,Barra de São Miguel/AL,-9.8261357,-35.8837777,6,71.61614
1,Barra de São Miguel/PB,-7.7528088,-36.3170996,207,3413.02556
D1,Barra de São Miguel/PB,-7.7528088,-36.3170996,1,16.48805
1,Barra do Bugres/MT,-15.0683712,-57.1853688,1637,4636.47435
D1,Barra do Bugres/MT,-15.0683712,-57.1853688,36,101.96278
1,Barra do Chapéu/SP,-24.472203,-49.023784,165,2864.58333
1,Barra do Choça/BA,-14.8638173,-40.5761637,1159,3713.67234
D1,Barra do Choça/BA,-14.8638173,-40.5761637,13,41.65465
1,Barra do Corda/MA,-5.496823,-45.248496,4234,4784.61330
D1,Barra do Corda/MA,-5.496823,-45.248496,48,54.24219
1,Barra do Garças/MT,-15.8916033,-52.2615413,4724,7727.16120
D1,Barra do Garças/MT,-15.8916033,-52.2615413,158,258.44443
1,Barra do Guarita/RS,-27.1888016,-53.7147086,88,2701.87289
1,Barra do Jacaré/PR,-23.1151788,-50.1813945,118,4243.07803
1,Barra do Mendes/BA,-11.8053298,-42.057037,547,3954.31215
D1,Barra do Mendes/BA,-11.8053298,-42.057037,7,50.60363
1,Barra do Ouro/TO,-7.7113784,-47.6743925,92,1986.18307
D1,Barra do Ouro/TO,-7.7113784,-47.6743925,5,107.94473
1,Barra do Piraí/RJ,-22.4703403,-43.8263256,3426,3400.02382
D1,Barra do Piraí/RJ,-22.4703403,-43.8263256,133,131.99158
1,Barra do Quaraí/RS,-30.208947,-57.5505128,164,3879.82020
D1,Barra do Quaraí/RS,-30.208947,-57.5505128,2,47.31488
1,Barra do Ribeiro/RS,-30.2930206,-51.301437,478,3526.11390
D1,Barra do Ribeiro/RS,-30.2930206,-51.301437,32,236.05783
1,Barra do Rio Azul/RS,-27.4101581,-52.4117471,39,2356.49547
D1,Barra do Rio Azul/RS,-27.4101581,-52.4117471,1,60.42296
1,Barra do Rocha/BA,-14.2090974,-39.6004395,217,3866.71418
D1,Barra do Rocha/BA,-14.2090974,-39.6004395,3,53.45688
1,Barra do Turvo/SP,-24.756421,-48.5056942,288,3773.58491
D1,Barra do Turvo/SP,-24.756421,-48.5056942,8,104.82180
1,Barra dos Coqueiros/SE,-10.9075694,-37.0386249,3340,10798.57743
D1,Barra dos Coqueiros/SE,-10.9075694,-37.0386249,38,122.85807
1,Barra/BA,-11.0892702,-43.1420453,1069,1982.93452
D1,Barra/BA,-11.0892702,-43.1420453,17,31.53404
1,Barracão/PR,-26.252395,-53.6349576,558,5411.17145
D1,Barracão/PR,-26.252395,-53.6349576,7,67.88208
1,Barracão/RS,-27.6728964,-51.4582928,199,3786.14916
D1,Barracão/RS,-27.6728964,-51.4582928,4,76.10350
1,Barras/PI,-4.2446153,-42.2920241,3414,7235.35022
D1,Barras/PI,-4.2446153,-42.2920241,62,131.39769
1,Barreira/CE,-4.2883361,-38.641094,439,1944.80131
D1,Barreira/CE,-4.2883361,-38.641094,22,97.46157
1,Barreiras do Piauí/PI,-9.9224524,-45.4763776,42,1252.98329
D1,Barreiras do Piauí/PI,-9.9224524,-45.4763776,1,29.83294
1,Barreiras/BA,-12.1440031,-44.9967406,9244,5888.83580
D1,Barreiras/BA,-12.1440031,-44.9967406,109,69.43781
1,Barreirinha/AM,-2.798863,-57.067897,1927,5932.33384
D1,Barreirinha/AM,-2.798863,-57.067897,47,144.69107
1,Barreirinhas/MA,-2.7541271,-42.8259693,1411,2231.99456
D1,Barreirinhas/MA,-2.7541271,-42.8259693,28,44.29188
1,Barreiros/PE,-8.8159644,-35.1831905,394,921.33570
D1,Barreiros/PE,-8.8159644,-35.1831905,42,98.21345
1,Barretos/SP,-20.5531437,-48.5697509,7755,6313.44997
D1,Barretos/SP,-20.5531437,-48.5697509,189,153.86745
1,Barrinha/SP,-21.1898849,-48.1550642,907,2733.57444
D1,Barrinha/SP,-21.1898849,-48.1550642,36,108.49910
1,Barro Alto/BA,-11.7618025,-41.9094904,562,3733.22705
D1,Barro Alto/BA,-11.7618025,-41.9094904,4,26.57101
1,Barro Alto/GO,-14.9696025,-48.9190985,776,6802.24404
D1,Barro Alto/GO,-14.9696025,-48.9190985,8,70.12623
1,Barro Duro/PI,-5.8180139,-42.5106589,472,6716.94891
D1,Barro Duro/PI,-5.8180139,-42.5106589,7,99.61577
1,Barro Preto/BA,-14.8068289,-39.4727588,404,7415.56535
D1,Barro Preto/BA,-14.8068289,-39.4727588,7,128.48752
1,Barro/CE,-7.1713587,-38.7742136,541,2377.18604
D1,Barro/CE,-7.1713587,-38.7742136,13,57.12277
1,Barrocas/BA,-11.5165,-39.099282894736845,362,2247.74915
D1,Barrocas/BA,-11.5165,-39.099282894736845,4,24.83701
1,Barrolândia/TO,-9.837246,-48.7264346,298,5273.40294
D1,Barrolândia/TO,-9.837246,-48.7264346,4,70.78393
1,Barroquinha/CE,-3.0200371,-41.1339229,853,5670.03457
D1,Barroquinha/CE,-3.0200371,-41.1339229,20,132.94337
1,Barros Cassal/RS,-29.094938,-52.5832366,271,2423.53783
D1,Barros Cassal/RS,-29.094938,-52.5832366,2,17.88589
1,Barroso/MG,-21.187222,-43.976111,470,2249.12667
D1,Barroso/MG,-21.187222,-43.976111,8,38.28301
1,Barueri/SP,-23.5112184,-46.8764612,14746,5323.81166
D1,Barueri/SP,-23.5112184,-46.8764612,512,184.84956
1,Barão de Antonina/SP,-23.6295651,-49.5632104,42,1200.68611
D1,Barão de Antonina/SP,-23.6295651,-49.5632104,1,28.58776
1,Barão de Cocais/MG,-19.9452437,-43.4870298,1486,4521.38989
D1,Barão de Cocais/MG,-19.9452437,-43.4870298,14,42.59721
1,Barão de Cotegipe/RS,-27.6214694,-52.3765316,366,5528.70091
D1,Barão de Cotegipe/RS,-27.6214694,-52.3765316,4,60.42296
1,Barão de Grajaú/MA,-6.7542591,-43.0263477,144,760.93849
D1,Barão de Grajaú/MA,-6.7542591,-43.0263477,1,5.28430
1,Barão de Melgaço/MT,-16.195776,-55.9668049,174,2131.30818
D1,Barão de Melgaço/MT,-16.195776,-55.9668049,7,85.74228
1,Barão de Monte Alto/MG,-21.244722,-42.2375,139,2596.18976
D1,Barão de Monte Alto/MG,-21.244722,-42.2375,6,112.06575
1,Barão do Triunfo/RS,-30.3909877,-51.7375349,209,2779.62495
D1,Barão do Triunfo/RS,-30.3909877,-51.7375349,3,39.89892
1,Barão/RS,-29.372474,-51.494908,282,4546.92035
D1,Barão/RS,-29.372474,-51.494908,5,80.61916
1,Bastos/SP,-21.9222474,-50.7317727,331,1579.72605
D1,Bastos/SP,-21.9222474,-50.7317727,12,57.27104
1,Bataguassu/MS,-21.715899,-52.422058,1616,6928.18864
D1,Bataguassu/MS,-21.715899,-52.422058,17,72.88317
1,Batalha/AL,-9.6733809,-37.1265481,700,3817.21016
D1,Batalha/AL,-9.6733809,-37.1265481,13,70.89105
1,Batalha/PI,-4.022391,-42.0780926,566,2103.69820
D1,Batalha/PI,-4.022391,-42.0780926,16,59.46850
1,Batatais/SP,-20.892867,-47.592149,1432,2273.73769
D1,Batatais/SP,-20.892867,-47.592149,48,76.21467
1,Batayporã/MS,-22.2976466,-53.2685608,461,4062.03190
D1,Batayporã/MS,-22.2976466,-53.2685608,11,96.92484
1,Baturité/CE,-4.3290203,-38.8821055,1036,2882.50188
D1,Baturité/CE,-4.3290203,-38.8821055,37,102.94650
1,Bauru/SP,-22.3218102,-49.0705863,24937,6574.53130
D1,Bauru/SP,-22.3218102,-49.0705863,402,105.98555
1,Bayeux/PB,-7.1301631,-34.936532,4050,4166.53807
D1,Bayeux/PB,-7.1301631,-34.936532,142,146.08603
1,Baía Formosa/RN,-6.3691885,-35.0063741,223,2392.19052
D1,Baía Formosa/RN,-6.3691885,-35.0063741,7,75.09118
1,Baía da Traição/PB,-6.691258,-34.9371244,1002,11015.83113
D1,Baía da Traição/PB,-6.691258,-34.9371244,8,87.95075
1,Bebedouro/SP,-20.949077,-48.479083,2075,2675.52060
D1,Bebedouro/SP,-20.949077,-48.479083,55,70.91741
1,Beberibe/CE,-4.1810469,-38.1298101,1582,2932.39912
D1,Beberibe/CE,-4.1810469,-38.1298101,33,61.16888
1,Bela Cruz/CE,-3.0529129,-40.167582,1707,5216.67380
D1,Bela Cruz/CE,-3.0529129,-40.167582,25,76.40120
1,Bela Vista da Caroba/PR,-25.8792818,-53.6672545,97,2805.90107
D1,Bela Vista da Caroba/PR,-25.8792818,-53.6672545,1,28.92682
1,Bela Vista de Goiás/GO,-16.9692949,-48.9513071,1383,4535.61590
D1,Bela Vista de Goiás/GO,-16.9692949,-48.9513071,25,81.98872
1,Bela Vista de Minas/MG,-19.8289721,-43.0973688,356,3469.10934
D1,Bela Vista de Minas/MG,-19.8289721,-43.0973688,8,77.95751
1,Bela Vista do Maranhão/MA,-3.7416367,-45.2514192,161,1427.43151
D1,Bela Vista do Maranhão/MA,-3.7416367,-45.2514192,8,70.92827
1,Bela Vista do Paraíso/PR,-22.9948493,-51.1907996,795,5162.67290
D1,Bela Vista do Paraíso/PR,-22.9948493,-51.1907996,16,103.90285
1,Bela Vista do Piauí/PI,-7.9716353,-41.8715061,203,5037.22084
D1,Bela Vista do Piauí/PI,-7.9716353,-41.8715061,5,124.06948
1,Bela Vista do Toldo/SC,-26.274625,-50.466354,41,644.45143
D1,Bela Vista do Toldo/SC,-26.274625,-50.466354,1,15.71833
1,Bela Vista/MS,-22.107327,-56.5317344,342,1382.65616
D1,Bela Vista/MS,-22.107327,-56.5317344,9,36.38569
1,Belford Roxo/RJ,-22.7667284,-43.4033603,16962,3305.67238
D1,Belford Roxo/RJ,-22.7667284,-43.4033603,428,83.41161
1,Belmiro Braga/MG,-21.9486291,-43.413564,80,2335.76642
D1,Belmiro Braga/MG,-21.9486291,-43.413564,3,87.59124
1,Belmonte/BA,-15.8630837,-38.8792845,806,3439.00670
D1,Belmonte/BA,-15.8630837,-38.8792845,9,38.40082
1,Belmonte/SC,-26.8448262,-53.578916,103,3802.14101
D1,Belmonte/SC,-26.8448262,-53.578916,3,110.74197
1,Belo Campo/BA,-15.0338286,-41.2585109,332,1940.49915
D1,Belo Campo/BA,-15.0338286,-41.2585109,4,23.37951
1,Belo Horizonte/MG,-19.9227318,-43.9450948,103556,4106.81625
D1,Belo Horizonte/MG,-19.9227318,-43.9450948,2668,105.80735
1,Belo Jardim/PE,-8.3338293,-36.4176419,1696,2211.58736
D1,Belo Jardim/PE,-8.3338293,-36.4176419,44,57.37609
1,Belo Monte/AL,-9.8269944,-37.2787165,210,3129.65723
D1,Belo Monte/AL,-9.8269944,-37.2787165,6,89.41878
1,Belo Oriente/MG,-19.2232523,-42.4807033,1436,5319.70067
D1,Belo Oriente/MG,-19.2232523,-42.4807033,26,96.31770
1,Belo Vale/MG,-20.407778,-44.024167,281,3640.36792
D1,Belo Vale/MG,-20.407778,-44.024167,6,77.73028
1,Belterra/PA,-2.636091,-54.937392,566,3172.82359
D1,Belterra/PA,-2.636091,-54.937392,14,78.47974
1,Belágua/MA,-3.1604031,-43.5085052,279,3706.16366
D1,Belágua/MA,-3.1604031,-43.5085052,2,26.56748
1,Belém de Maria/PE,-8.6242497,-35.8388934,124,1022.93351
D1,Belém de Maria/PE,-8.6242497,-35.8388934,3,24.74839
1,Belém do Brejo do Cruz/PB,-6.1880727,-37.5332267,464,6313.78419
D1,Belém do Brejo do Cruz/PB,-6.1880727,-37.5332267,5,68.03647
1,Belém do Piauí/PI,-7.3767305,-40.9712156,358,9980.48509
D1,Belém do Piauí/PI,-7.3767305,-40.9712156,5,139.39225
1,Belém do São Francisco/PE,-8.7517707,-38.9625715,313,1509.88905
D1,Belém do São Francisco/PE,-8.7517707,-38.9625715,5,24.11963
1,Belém/AL,-9.5715351,-36.492841,75,1750.70028
D1,Belém/AL,-9.5715351,-36.492841,3,70.02801
1,Belém/PA,-1.45056,-48.4682453,71410,4761.80633
D1,Belém/PA,-1.45056,-48.4682453,2701,180.10977
1,Belém/PB,-6.6967586,-35.5369626,1323,7472.46541
D1,Belém/PB,-6.6967586,-35.5369626,19,107.31432
1,Beneditinos/PI,-5.4565671,-42.3605061,478,4564.11725
D1,Beneditinos/PI,-5.4565671,-42.3605061,16,152.77380
1,Benedito Leite/MA,-7.2173453,-44.5523331,253,4487.40688
D1,Benedito Leite/MA,-7.2173453,-44.5523331,2,35.47357
1,Benedito Novo/SC,-26.7840657,-49.3629511,597,5070.06369
D1,Benedito Novo/SC,-26.7840657,-49.3629511,7,59.44798
1,Benevides/PA,-1.3555577,-48.252235,2411,3780.89324
D1,Benevides/PA,-1.3555577,-48.252235,55,86.25016
1,Benjamin Constant do Sul/RS,-27.5105555,-52.6007689,131,6690.50051
1,Benjamin Constant/AM,-4.3782748,-70.0290603,2275,5178.10402
D1,Benjamin Constant/AM,-4.3782748,-70.0290603,62,141.11756
1,Bento Fernandes/RN,-5.6926846,-35.8207423,47,850.67873
D1,Bento Fernandes/RN,-5.6926846,-35.8207423,2,36.19910
1,Bento Gonçalves/RS,-29.1654014,-51.5197627,9244,7589.30404
D1,Bento Gonçalves/RS,-29.1654014,-51.5197627,163,133.82265
1,Bento de Abreu/SP,-21.2707225,-50.8120444,110,3660.56572
1,Bequimão/MA,-2.4495376,-44.7884889,264,1239.49481
D1,Bequimão/MA,-2.4495376,-44.7884889,13,61.03573
1,Berilo/MG,-16.9515764,-42.4643732,10,84.23181
1,Berizal/MG,-15.6118785,-41.7417382,67,1406.38119
1,Bernardino Batista/PB,-6.4532173,-38.5495418,192,5429.86425
1,Bernardino de Campos/SP,-23.0140216,-49.4760724,256,2294.31798
D1,Bernardino de Campos/SP,-23.0140216,-49.4760724,6,53.77308
1,Bernardo Sayão/TO,-7.8794244,-48.8968905,138,3102.51799
D1,Bernardo Sayão/TO,-7.8794244,-48.8968905,4,89.92806
1,Bernardo do Mearim/MA,-4.6315929,-44.7617508,173,2848.67446
D1,Bernardo do Mearim/MA,-4.6315929,-44.7617508,3,49.39898
1,Bertioga/SP,-23.848568,-46.139586,3135,4843.71862
D1,Bertioga/SP,-23.848568,-46.139586,59,91.15770
1,Bertolínia/PI,-7.6372159,-43.9540611,581,10550.20883
D1,Bertolínia/PI,-7.6372159,-43.9540611,6,108.95224
1,Bertópolis/MG,-17.063333,-40.573889,217,4710.22357
1,Beruri/AM,-3.9007135,-61.3717319,1867,9291.79316
D1,Beruri/AM,-3.9007135,-61.3717319,28,139.35201
1,Betim/MG,-19.968056,-44.198333,17506,3935.84302
D1,Betim/MG,-19.968056,-44.198333,444,99.82373
1,Betânia do Piauí/PI,-8.1460635,-40.7961387,133,2141.70692
D1,Betânia do Piauí/PI,-8.1460635,-40.7961387,2,32.20612
1,Betânia/PE,-8.2742779,-38.0351767,218,1707.79475
D1,Betânia/PE,-8.2742779,-38.0351767,3,23.50176
1,Bezerros/PE,-8.2372132,-35.7558262,2150,3531.53745
D1,Bezerros/PE,-8.2372132,-35.7558262,76,124.83574
1,Bias Fortes/MG,-21.605833,-43.756944,72,2162.81166
D1,Bias Fortes/MG,-21.605833,-43.756944,2,60.07810
1,Bicas/MG,-21.7213723,-43.0604327,526,3614.12670
D1,Bicas/MG,-21.7213723,-43.0604327,16,109.93541
1,Biguaçu/SC,-27.4961277,-48.6542432,7286,10485.56544
D1,Biguaçu/SC,-27.4961277,-48.6542432,77,110.81369
1,Bilac/SP,-21.403962,-50.47464,375,4619.93347
D1,Bilac/SP,-21.403962,-50.47464,7,86.23876
1,Biquinhas/MG,-18.783611,-45.502222,28,1120.89672
1,Birigui/SP,-21.2908491,-50.34144,6639,5316.17594
D1,Birigui/SP,-21.2908491,-50.34144,181,144.93566
1,Biritiba Mirim/SP,-23.5697765,-46.0407456,704,2137.47875
D1,Biritiba Mirim/SP,-23.5697765,-46.0407456,45,136.62861
1,Biritinga/BA,-11.6227908,-38.8066738,187,1169.91992
D1,Biritinga/BA,-11.6227908,-38.8066738,2,12.51251
1,Bituruna/PR,-26.161281,-51.5533319,210,1280.48780
D1,Bituruna/PR,-26.161281,-51.5533319,1,6.09756
1,Blumenau/SC,-26.9195567,-49.0658025,34239,9462.07735
D1,Blumenau/SC,-26.9195567,-49.0658025,320,88.43321
1,Boa Esperança do Iguaçu/PR,-25.6362851,-53.2139114,97,3927.12551
1,Boa Esperança do Sul/SP,-21.9930206,-48.3917372,495,3296.04475
D1,Boa Esperança do Sul/SP,-21.9930206,-48.3917372,9,59.92809
1,Boa Esperança/ES,-18.5395472,-40.2904088,702,4651.47098
D1,Boa Esperança/ES,-18.5395472,-40.2904088,24,159.02465
1,Boa Esperança/MG,-21.0901253,-45.5660195,1114,2769.83515
D1,Boa Esperança/MG,-21.0901253,-45.5660195,32,79.56438
1,Boa Esperança/PR,-24.2411024,-52.7860277,172,4250.06177
D1,Boa Esperança/PR,-24.2411024,-52.7860277,4,98.83865
1,Boa Hora/PI,-4.4094627,-42.1255341,324,4754.21864
D1,Boa Hora/PI,-4.4094627,-42.1255341,4,58.69406
1,Boa Nova/BA,-14.365907,-40.2063056,341,2765.83665
D1,Boa Nova/BA,-14.365907,-40.2063056,6,48.66575
1,Boa Ventura de São Roque/PR,-24.88177,-51.5441292,203,3189.31658
D1,Boa Ventura de São Roque/PR,-24.88177,-51.5441292,3,47.13276
1,Boa Ventura/PB,-7.4202462,-38.2156782,171,3222.15941
D1,Boa Ventura/PB,-7.4202462,-38.2156782,3,56.52911
1,Boa Viagem/CE,-5.1261877,-39.7300055,1785,3270.60850
D1,Boa Viagem/CE,-5.1261877,-39.7300055,45,82.45232
1,Boa Vista da Aparecida/PR,-25.4357216,-53.4067721,406,5384.61538
D1,Boa Vista da Aparecida/PR,-25.4357216,-53.4067721,13,172.41379
1,Boa Vista das Missões/RS,-27.6677983,-53.3127622,37,1768.64245
D1,Boa Vista das Missões/RS,-27.6677983,-53.3127622,1,47.80115
1,Boa Vista do Buricá/RS,-27.6687782,-54.1111913,324,4827.17521
D1,Boa Vista do Buricá/RS,-27.6687782,-54.1111913,4,59.59476
1,Boa Vista do Cadeado/RS,-28.5783827,-53.8123759,81,3282.00972
1,Boa Vista do Gurupi/MA,-1.7981168,-46.3071882,14,167.02458
D1,Boa Vista do Gurupi/MA,-1.7981168,-46.3071882,3,35.79098
1,Boa Vista do Incra/RS,-28.8195551,-53.3866624,102,3899.08257
D1,Boa Vista do Incra/RS,-28.8195551,-53.3866624,1,38.22630
1,Boa Vista do Ramos/AM,-2.9716927,-57.5869819,780,3974.31978
D1,Boa Vista do Ramos/AM,-2.9716927,-57.5869819,11,56.04810
1,Boa Vista do Sul/RS,-29.3510488,-51.6779679,133,4787.61699
D1,Boa Vista do Sul/RS,-29.3510488,-51.6779679,2,71.99424
1,Boa Vista do Tupim/BA,-12.6605988,-40.6083594,154,831.03988
D1,Boa Vista do Tupim/BA,-12.6605988,-40.6083594,3,16.18909
1,Boa Vista/PB,-7.2620711,-36.2415161,256,3587.44395
D1,Boa Vista/PB,-7.2620711,-36.2415161,2,28.02691
1,Boa Vista/RR,2.8208478,-60.6719582,60112,14324.24962
D1,Boa Vista/RR,2.8208478,-60.6719582,778,185.39171
1,Boca da Mata/AL,-9.6452054,-36.2116658,1355,4953.20953
D1,Boca da Mata/AL,-9.6452054,-36.2116658,27,98.69864
1,Boca do Acre/AM,-8.7553487,-67.3930873,2252,6502.09326
D1,Boca do Acre/AM,-8.7553487,-67.3930873,19,54.85780
1,Bocaina de Minas/MG,-22.167778,-44.394722,67,1316.56514
D1,Bocaina de Minas/MG,-22.167778,-44.394722,2,39.30045
1,Bocaina do Sul/SC,-27.745494,-49.942279,293,8400.22936
D1,Bocaina do Sul/SC,-27.745494,-49.942279,3,86.00917
1,Bocaina/PI,-6.9445939,-41.3224599,211,4683.68479
D1,Bocaina/PI,-6.9445939,-41.3224599,3,66.59267
1,Bocaina/SP,-22.1421831,-48.522276,849,6818.18182
D1,Bocaina/SP,-22.1421831,-48.522276,14,112.43174
1,Bocaiúva do Sul/PR,-25.206591,-49.114131,674,5133.67355
D1,Bocaiúva do Sul/PR,-25.206591,-49.114131,3,22.85018
1,Bocaiúva/MG,-17.1160208,-43.8122678,860,1711.23846
D1,Bocaiúva/MG,-17.1160208,-43.8122678,18,35.81662
1,Bodocó/PE,-7.777592,-39.933797,1281,3337.84981
D1,Bodocó/PE,-7.777592,-39.933797,16,41.69055
1,Bodoquena/MS,-20.5508775,-56.6769653,108,1377.90253
D1,Bodoquena/MS,-20.5508775,-56.6769653,2,25.51671
1,Bodó/RN,-5.9866104,-36.4134824,63,2867.54665
1,Bofete/SP,-23.1019554,-48.2610535,373,3128.93214
D1,Bofete/SP,-23.1019554,-48.2610535,4,33.55423
1,Boituva/SP,-23.2838893,-47.6738231,2778,4468.39312
D1,Boituva/SP,-23.2838893,-47.6738231,47,75.59916
1,Bom Conselho/PE,-9.169191,-36.685683,980,2009.55564
D1,Bom Conselho/PE,-9.169191,-36.685683,34,69.71928
1,Bom Despacho/MG,-19.7375242,-45.2517288,1977,3874.34350
D1,Bom Despacho/MG,-19.7375242,-45.2517288,37,72.50921
1,Bom Jardim da Serra/SC,-28.3380324,-49.625588,492,10310.14250
D1,Bom Jardim da Serra/SC,-28.3380324,-49.625588,3,62.86672
1,Bom Jardim de Goiás/GO,-16.2062659,-52.172793,286,3224.71530
D1,Bom Jardim de Goiás/GO,-16.2062659,-52.172793,4,45.10091
1,Bom Jardim de Minas/MG,-21.9476466,-44.1906033,120,1857.87274
D1,Bom Jardim de Minas/MG,-21.9476466,-44.1906033,1,15.48227
1,Bom Jardim/MA,-3.54129,-45.606004,1029,2460.42753
D1,Bom Jardim/MA,-3.54129,-45.606004,30,71.73258
1,Bom Jardim/PE,-7.7961572,-35.5871696,840,2100.89288
D1,Bom Jardim/PE,-7.7961572,-35.5871696,37,92.53933
1,Bom Jardim/RJ,-22.1515328,-42.4186683,666,2411.64542
D1,Bom Jardim/RJ,-22.1515328,-42.4186683,15,54.31634
1,Bom Jesus da Lapa/BA,-13.250571,-43.410754,1710,2454.70988
D1,Bom Jesus da Lapa/BA,-13.250571,-43.410754,19,27.27455
1,Bom Jesus da Penha/MG,-21.0165299,-46.5226644,172,4052.78040
D1,Bom Jesus da Penha/MG,-21.0165299,-46.5226644,2,47.12535
1,Bom Jesus da Serra/BA,-14.3724084,-40.5047119,303,3084.59737
D1,Bom Jesus da Serra/BA,-14.3724084,-40.5047119,2,20.36038
1,Bom Jesus das Selvas/MA,-4.4878075,-46.8526639,2071,5991.26334
D1,Bom Jesus das Selvas/MA,-4.4878075,-46.8526639,19,54.96572
1,Bom Jesus de Goiás/GO,-18.2174587,-49.739721,1222,4764.50405
D1,Bom Jesus de Goiás/GO,-18.2174587,-49.739721,34,132.56394
1,Bom Jesus do Amparo/MG,-19.7045132,-43.4752911,97,1581.60770
D1,Bom Jesus do Amparo/MG,-19.7045132,-43.4752911,3,48.91570
1,Bom Jesus do Araguaia/MT,-12.1725897,-51.5074425,340,5070.08649
D1,Bom Jesus do Araguaia/MT,-12.1725897,-51.5074425,1,14.91202
1,Bom Jesus do Galho/MG,-19.8283191,-42.3162256,290,1951.28516
D1,Bom Jesus do Galho/MG,-19.8283191,-42.3162256,9,60.55713
1,Bom Jesus do Itabapoana/RJ,-21.1341025,-41.680095,1957,5260.32847
D1,Bom Jesus do Itabapoana/RJ,-21.1341025,-41.680095,43,115.58208
1,Bom Jesus do Norte/ES,-21.1254776,-41.6711646,709,7117.04477
D1,Bom Jesus do Norte/ES,-21.1254776,-41.6711646,16,160.61032
1,Bom Jesus do Oeste/SC,-26.6929713,-53.0967453,92,4301.07527
D1,Bom Jesus do Oeste/SC,-26.6929713,-53.0967453,1,46.75082
1,Bom Jesus do Sul/PR,-26.1922507,-53.6002033,146,4164.28979
D1,Bom Jesus do Sul/PR,-26.1922507,-53.6002033,3,85.56760
1,Bom Jesus do Tocantins/PA,-5.0471796,-48.5978362,459,2681.38801
D1,Bom Jesus do Tocantins/PA,-5.0471796,-48.5978362,5,29.20902
1,Bom Jesus do Tocantins/TO,-8.96306,-48.165043,108,2156.54952
1,Bom Jesus dos Perdões/SP,-23.1353864,-46.4648052,872,3355.78218
D1,Bom Jesus dos Perdões/SP,-23.1353864,-46.4648052,6,23.09024
1,Bom Jesus/PB,-6.8156725,-38.6551841,81,3145.63107
D1,Bom Jesus/PB,-6.8156725,-38.6551841,3,116.50485
1,Bom Jesus/PI,-9.0711644,-44.3583926,2232,8791.90137
D1,Bom Jesus/PI,-9.0711644,-44.3583926,24,94.53657
1,Bom Jesus/RN,-5.9887544,-35.5821149,434,4227.13548
D1,Bom Jesus/RN,-5.9887544,-35.5821149,8,77.91955
1,Bom Jesus/RS,-28.6692723,-50.4346894,426,3766.91131
D1,Bom Jesus/RS,-28.6692723,-50.4346894,11,97.26766
1,Bom Jesus/SC,-26.7350604,-52.3916519,225,7360.15702
D1,Bom Jesus/SC,-26.7350604,-52.3916519,3,98.13543
1,Bom Lugar/MA,-4.3728019,-45.0366054,313,1904.12459
D1,Bom Lugar/MA,-4.3728019,-45.0366054,5,30.41733
1,Bom Princípio do Piauí/PI,-3.1912777,-41.6430185,47,831.71120
D1,Bom Princípio do Piauí/PI,-3.1912777,-41.6430185,3,53.08795
1,Bom Princípio/RS,-29.489788,-51.3566782,860,6032.97089
D1,Bom Princípio/RS,-29.489788,-51.3566782,12,84.18099
1,Bom Progresso/RS,-27.5490948,-53.8655601,34,1790.41601
1,Bom Repouso/MG,-22.4657069,-46.1485376,291,2761.69688
D1,Bom Repouso/MG,-22.4657069,-46.1485376,8,75.92294
1,Bom Retiro do Sul/RS,-29.6000007,-51.9359243,587,4737.69169
D1,Bom Retiro do Sul/RS,-29.6000007,-51.9359243,9,72.63923
1,Bom Retiro/SC,-27.798993,-49.486994,357,3548.70775
D1,Bom Retiro/SC,-27.798993,-49.486994,8,79.52286
1,Bom Sucesso de Itararé/SP,-24.3190016,-49.1446207,63,1581.32530
D1,Bom Sucesso de Itararé/SP,-24.3190016,-49.1446207,4,100.40161
1,Bom Sucesso do Sul/PR,-26.0749256,-52.8348629,185,5685.31039
D1,Bom Sucesso do Sul/PR,-26.0749256,-52.8348629,2,61.46281
1,Bom Sucesso/MG,-21.0323516,-44.7598082,213,1209.74612
D1,Bom Sucesso/MG,-21.0323516,-44.7598082,4,22.71824
1,Bom Sucesso/PB,-6.4458948,-37.9297662,92,1856.33575
1,Bom Sucesso/PR,-23.7088019,-51.7651297,365,5164.11998
D1,Bom Sucesso/PR,-23.7088019,-51.7651297,7,99.03792
1,Bombinhas/SC,-27.1519159,-48.4875691,2740,13474.30538
D1,Bombinhas/SC,-27.1519159,-48.4875691,29,142.61126
1,Bonfim do Piauí/PI,-9.1648678,-42.8734415,168,2955.14512
D1,Bonfim do Piauí/PI,-9.1648678,-42.8734415,2,35.18030
1,Bonfim/MG,-20.3266626, -44.2386157,185,2696.79300
D1,Bonfim/MG,-20.3266626, -44.2386157,3,43.73178
1,Bonfim/RR,3.3613818,-59.8427241,1471,11714.58151
D1,Bonfim/RR,3.3613818,-59.8427241,21,167.23740
1,Bonfinópolis de Minas/MG,-16.5660011,-45.98645,216,3967.67083
D1,Bonfinópolis de Minas/MG,-16.5660011,-45.98645,9,165.31962
1,Bonfinópolis/GO,-16.6172709,-48.9615701,401,4042.74624
D1,Bonfinópolis/GO,-16.6172709,-48.9615701,11,110.89828
1,Boninal/BA,-12.7095183,-41.8299984,386,2672.01994
D1,Boninal/BA,-12.7095183,-41.8299984,4,27.68933
1,Bonito de Minas/MG,-15.3191266,-44.7544,14,123.14188
1,Bonito de Santa Fé/PB,-7.3143332,-38.5146677,328,2728.33139
D1,Bonito de Santa Fé/PB,-7.3143332,-38.5146677,11,91.49892
1,Bonito/BA,-11.9665473,-41.2649896,480,2842.92822
D1,Bonito/BA,-11.9665473,-41.2649896,4,23.69107
1,Bonito/MS,-21.1264766,-56.4902208,1454,6552.50113
D1,Bonito/MS,-21.1264766,-56.4902208,23,103.65029
1,Bonito/PA,-1.3605722,-47.3049907,320,1935.87417
D1,Bonito/PA,-1.3605722,-47.3049907,10,60.49607
1,Bonito/PE,-8.4721161,-35.7314591,515,1351.10318
D1,Bonito/PE,-8.4721161,-35.7314591,28,73.45804
1,Bonópolis/GO,-13.649331,-49.8329113,95,2114.40018
D1,Bonópolis/GO,-13.649331,-49.8329113,1,22.25684
1,Boqueirão do Leão/RS,-29.30332,-52.4296817,291,3778.23942
D1,Boqueirão do Leão/RS,-29.30332,-52.4296817,7,90.88548
1,Boqueirão do Piauí/PI,-4.4850148,-42.1095161,335,5213.19639
D1,Boqueirão do Piauí/PI,-4.4850148,-42.1095161,5,77.80890
1,Boqueirão/PB,-7.487004,-36.130887,1007,5635.14270
D1,Boqueirão/PB,-7.487004,-36.130887,16,89.53553
1,Boquim/SE,-11.1450175,-37.6204228,1235,4591.24875
D1,Boquim/SE,-11.1450175,-37.6204228,27,100.37548
1,Boquira/BA,-12.8184859,-42.7270883,317,1474.62437
D1,Boquira/BA,-12.8184859,-42.7270883,5,23.25906
1,Boracéia/SP,-22.195355,-48.7801925,327,6717.33772
D1,Boracéia/SP,-22.195355,-48.7801925,3,61.62695
1,Borba/AM,-4.3934778,-59.5947721,1339,3207.33927
D1,Borba/AM,-4.3934778,-59.5947721,43,102.99895
1,Borborema/PB,-6.8066718,-35.5990191,106,2004.91772
D1,Borborema/PB,-6.8066718,-35.5990191,1,18.91432
1,Borborema/SP,-21.6212706,-49.074135,551,3408.80970
D1,Borborema/SP,-21.6212706,-49.074135,13,80.42564
1,Borda da Mata/MG,-22.274167,-46.165278,764,3895.17691
D1,Borda da Mata/MG,-22.274167,-46.165278,23,117.26318
1,Borebi/SP,-22.5700178,-48.9714871,86,3205.36713
D1,Borebi/SP,-22.5700178,-48.9714871,2,74.54342
1,Borrazópolis/PR,-23.9393362,-51.5850786,395,6134.49293
D1,Borrazópolis/PR,-23.9393362,-51.5850786,9,139.77326
1,Borá/SP,-22.2701088,-50.544407,16,1909.30788
1,Bossoroca/RS,-28.7278885,-54.9120278,120,1933.92425
D1,Bossoroca/RS,-28.7278885,-54.9120278,5,80.58018
1,Botelhos/MG,-21.65,-46.394722,369,2468.39253
D1,Botelhos/MG,-21.65,-46.394722,4,26.75764
1,Botucatu/SP,-22.8879628,-48.4410712,7376,4979.40998
D1,Botucatu/SP,-22.8879628,-48.4410712,96,64.80794
1,Botumirim/MG,-16.862778,-43.011111,102,1622.13740
D1,Botumirim/MG,-16.862778,-43.011111,1,15.90331
1,Botuporã/BA,-13.3744752,-42.5198469,118,1164.97186
D1,Botuporã/BA,-13.3744752,-42.5198469,2,19.74529
1,Botuverá/SC,-27.200749,-49.068892,625,11743.70537
D1,Botuverá/SC,-27.200749,-49.068892,3,56.36979
1,Bozano/RS,-28.3669953,-53.7705165,84,3979.15680
1,Braga/RS,-27.617348,-53.740514,81,2446.39082
D1,Braga/RS,-27.617348,-53.740514,2,60.40471
1,Braganey/PR,-24.8179919,-53.118506,181,3363.06206
D1,Braganey/PR,-24.8179919,-53.118506,2,37.16091
1,Bragança Paulista/SP,-22.9520235,-46.5418586,7487,4390.35260
D1,Bragança Paulista/SP,-22.9520235,-46.5418586,135,79.16356
1,Bragança/PA,-1.0573967,-46.7635406,3241,2514.07915
D1,Bragança/PA,-1.0573967,-46.7635406,105,81.44965
1,Branquinha/AL,-9.2478057,-36.0152009,314,3001.91205
D1,Branquinha/AL,-9.2478057,-36.0152009,8,76.48184
1,Brasil Novo/PA,-3.3055853,-52.539198,896,5980.11079
D1,Brasil Novo/PA,-3.3055853,-52.539198,19,126.81039
1,Brasileira/PI,-4.131182,-41.7824969,305,3654.00743
D1,Brasileira/PI,-4.131182,-41.7824969,5,59.90176
1,Brasilândia de Minas/MG,-17.0096469,-46.0087183,639,3815.38094
D1,Brasilândia de Minas/MG,-17.0096469,-46.0087183,7,41.79604
1,Brasilândia do Sul/PR,-24.1975793,-53.527551,138,5338.49130
D1,Brasilândia do Sul/PR,-24.1975793,-53.527551,1,38.68472
1,Brasilândia do Tocantins/TO,-8.3886619,-48.4842729,80,3618.27227
D1,Brasilândia do Tocantins/TO,-8.3886619,-48.4842729,1,45.22840
1,Brasilândia/MS,-21.255575,-52.0365617,273,2303.21438
D1,Brasilândia/MS,-21.255575,-52.0365617,5,42.18341
1,Brasiléia/AC,-11.0010413,-68.7487894,1825,6834.69403
D1,Brasiléia/AC,-11.0010413,-68.7487894,27,101.11602
1,Brasnorte/MT,-12.1227151,-58.0050109,846,4200.59583
D1,Brasnorte/MT,-12.1227151,-58.0050109,8,39.72195
1,Brasília de Minas/MG,-16.2075114,-44.430559,493,1521.37016
D1,Brasília de Minas/MG,-16.2075114,-44.430559,5,15.42972
1,Brasília/DF,-15.7934036,-47.8823172,290771,9517.40815
D1,Brasília/DF,-15.7934036,-47.8823172,4766,155.99894
1,Brazabrantes/GO,-16.4291635,-49.3858216,228,6086.49226
D1,Brazabrantes/GO,-16.4291635,-49.3858216,2,53.39028
1,Brazópolis/MG,-22.4742842,-45.6165577,466,3233.86537
D1,Brazópolis/MG,-22.4742842,-45.6165577,15,104.09438
1,Braço do Norte/SC,-28.2728633,-49.1622712,5046,14895.50124
D1,Braço do Norte/SC,-28.2728633,-49.1622712,44,129.88546
1,Braço do Trombudo/SC,-27.358578,-49.882145,327,8676.04139
D1,Braço do Trombudo/SC,-27.358578,-49.882145,3,79.59671
1,Braúna/SP,-21.5015319,-50.3175246,183,3187.59798
D1,Braúna/SP,-21.5015319,-50.3175246,7,121.92998
1,Braúnas/MG,-19.055556,-42.716111,89,1866.21933
D1,Braúnas/MG,-19.055556,-42.716111,3,62.90627
1,Brejetuba/ES,-20.1465817,-41.2902303,1034,8320.59226
D1,Brejetuba/ES,-20.1465817,-41.2902303,3,24.14098
1,Brejinho de Nazaré/TO,-11.0205883,-48.5722906,155,2808.47980
D1,Brejinho de Nazaré/TO,-11.0205883,-48.5722906,6,108.71535
1,Brejinho/PE,-7.3482153,-37.28538,328,4380.34188
D1,Brejinho/PE,-7.3482153,-37.28538,4,53.41880
1,Brejinho/RN,-6.1957907,-35.3583019,594,4645.34293
D1,Brejinho/RN,-6.1957907,-35.3583019,5,39.10221
1,Brejo Alegre/SP,-21.1671191,-50.1850393,176,6092.07338
D1,Brejo Alegre/SP,-21.1671191,-50.1850393,9,311.52648
1,Brejo Grande do Araguaia/PA,-5.7011449,-48.4037308,703,9541.25950
D1,Brejo Grande do Araguaia/PA,-5.7011449,-48.4037308,5,67.86102
1,Brejo Grande/SE,-10.4287358,-36.4667918,238,2849.27571
D1,Brejo Grande/SE,-10.4287358,-36.4667918,9,107.74572
1,Brejo Santo/CE,-7.4909841,-38.9859152,3359,6739.29618
D1,Brejo Santo/CE,-7.4909841,-38.9859152,31,62.19654
1,Brejo da Madre de Deus/PE,-8.1409718,-36.3712527,1291,2520.25378
D1,Brejo da Madre de Deus/PE,-8.1409718,-36.3712527,37,72.23036
1,Brejo de Areia/MA,-4.3316785,-45.5833334,267,2962.05902
D1,Brejo de Areia/MA,-4.3316785,-45.5833334,2,22.18771
1,Brejo do Cruz/PB,-6.32926065,-37.48746163303929,1141,8031.81754
D1,Brejo do Cruz/PB,-6.32926065,-37.48746163303929,13,91.51063
1,Brejo do Piauí/PI,-8.207583,-42.8359849,40,1039.50104
D1,Brejo do Piauí/PI,-8.207583,-42.8359849,3,77.96258
1,Brejo dos Santos/PB,-6.3769367,-37.8243125,214,3310.64356
D1,Brejo dos Santos/PB,-6.3769367,-37.8243125,4,61.88119
1,Brejo/MA,-3.6804397,-42.7529313,708,1931.73447
D1,Brejo/MA,-3.6804397,-42.7529313,18,49.11189
1,Brejolândia/BA,-12.4843845,-43.9611861,126,1186.66416
D1,Brejolândia/BA,-12.4843845,-43.9611861,7,65.92579
1,Brejão/PE,-9.029146,-36.566034,126,1402.02515
D1,Brejão/PE,-9.029146,-36.566034,3,33.38155
1,Brejões/BA,-13.1033754,-39.7909837,435,3058.64154
D1,Brejões/BA,-13.1033754,-39.7909837,7,49.21952
1,Breu Branco/PA,-3.7785073,-49.5684795,442,656.44864
D1,Breu Branco/PA,-3.7785073,-49.5684795,29,43.07016
1,Breves/PA,-1.68036,-50.479085,3577,3456.13883
D1,Breves/PA,-1.68036,-50.479085,102,98.55358
1,Britânia/GO,-15.2427599,-51.1602061,334,5761.60083
D1,Britânia/GO,-15.2427599,-51.1602061,1,17.25030
1,Brochier/RS,-29.556766,-51.5963047,166,3252.35110
1,Brodowski/SP,-20.984532,-47.657217,1183,4680.14400
D1,Brodowski/SP,-20.984532,-47.657217,28,110.77264
1,Brotas de Macaúbas/BA,-12.0019007,-42.6257506,52,513.32675
1,Brotas/SP,-22.2840884,-48.1267265,291,1181.19825
D1,Brotas/SP,-22.2840884,-48.1267265,11,44.65011
1,Brumadinho/MG,-20.143611,-44.2,2109,5186.15059
D1,Brumadinho/MG,-20.143611,-44.2,30,73.77170
1,Brumado/BA,-14.29507325,-41.659307508575985,4816,7152.29821
D1,Brumado/BA,-14.29507325,-41.659307508575985,48,71.28536
1,Brunópolis/SC,-27.310953,-50.837585,91,3842.90541
1,Brusque/SC,-27.0964628,-48.9136323,16619,12069.95475
D1,Brusque/SC,-27.0964628,-48.9136323,131,95.14195
1,Brás Pires/MG,-20.8483109,-43.2430524,99,2306.07966
D1,Brás Pires/MG,-20.8483109,-43.2430524,5,116.46867
1,Bueno Brandão/MG,-22.441976,-46.3517971,275,2502.04713
D1,Bueno Brandão/MG,-22.441976,-46.3517971,7,63.68847
1,Buenos Aires/PE,-7.7218931,-35.326587,87,659.59060
D1,Buenos Aires/PE,-7.7218931,-35.326587,12,90.97801
1,Buenópolis/MG,-17.8756607,-44.1749365,146,1410.21926
D1,Buenópolis/MG,-17.8756607,-44.1749365,5,48.29518
1,Buerarema/BA,-14.9571177,-39.3008035,982,5364.36141
D1,Buerarema/BA,-14.9571177,-39.3008035,30,163.88069
1,Bugre/MG,-19.4257687,-42.2556,286,7180.51720
D1,Bugre/MG,-19.4257687,-42.2556,9,225.96033
1,Bujari/AC,-9.8309656,-67.9520886,587,5633.39731
D1,Bujari/AC,-9.8309656,-67.9520886,8,76.77543
1,Bujaru/PA,-1.5169239,-48.0410699,895,3041.42454
D1,Bujaru/PA,-1.5169239,-48.0410699,26,88.35423
1,Buri/SP,-23.79849,-48.598924,801,4012.02104
D1,Buri/SP,-23.79849,-48.598924,18,90.15778
1,Buritama/SP,-21.0664017,-50.1448077,1229,7111.85695
D1,Buritama/SP,-21.0664017,-50.1448077,35,202.53458
1,Buriti Alegre/GO,-18.1377879,-49.0404411,519,5472.37453
D1,Buriti Alegre/GO,-18.1377879,-49.0404411,13,137.07296
1,Buriti Bravo/MA,-5.8391884,-43.8367876,1019,4256.65232
D1,Buriti Bravo/MA,-5.8391884,-43.8367876,10,41.77284
1,Buriti de Goiás/GO,-16.180644,-50.4287479,123,4967.68982
D1,Buriti de Goiás/GO,-16.180644,-50.4287479,1,40.38772
1,Buriti do Tocantins/TO,-5.3187439,-48.2256609,389,3383.49135
D1,Buriti do Tocantins/TO,-5.3187439,-48.2256609,2,17.39584
1,Buriti dos Lopes/PI,-3.1776723,-41.8707444,849,4286.36341
D1,Buriti dos Lopes/PI,-3.1776723,-41.8707444,12,60.58464
1,Buriti dos Montes/PI,-5.3136171,-41.0971256,330,3993.22362
D1,Buriti dos Montes/PI,-5.3136171,-41.0971256,2,24.20136
1,Buriti/MA,-3.9430944,-42.9244281,717,2489.75623
D1,Buriti/MA,-3.9430944,-42.9244281,5,17.36232
1,Buriticupu/MA,-4.3227472,-46.4516989,2668,3655.64584
D1,Buriticupu/MA,-4.3227472,-46.4516989,23,31.51419
1,Buritinópolis/GO,-14.4589282,-46.4293104,75,2284.49589
1,Buritirama/BA,-10.7148421,-43.6362327,596,2801.27844
D1,Buritirama/BA,-10.7148421,-43.6362327,15,70.50197
1,Buritirana/MA,-5.5897455,-47.0148915,244,1577.55221
D1,Buritirana/MA,-5.5897455,-47.0148915,10,64.65378
1,Buritis/MG,-15.621389,-46.423889,664,2654.61960
D1,Buritis/MG,-15.621389,-46.423889,8,31.98337
1,Buritis/RO,-10.2054937,-63.8281954,3202,7934.38398
D1,Buritis/RO,-10.2054937,-63.8281954,33,81.77223
1,Buritizal/SP,-20.1933264,-47.7097165,107,2370.40319
D1,Buritizal/SP,-20.1933264,-47.7097165,4,88.61320
1,Buritizeiro/MG,-17.3667765,-44.9647781,562,1998.50645
D1,Buritizeiro/MG,-17.3667765,-44.9647781,16,56.89698
1,Butiá/RS,-30.1256795,-51.9692224,770,3675.06682
D1,Butiá/RS,-30.1256795,-51.9692224,26,124.09317
1,Buíque/PE,-8.6239732,-37.157296,1205,2045.18067
D1,Buíque/PE,-8.6239732,-37.157296,17,28.85317
1,Bálsamo/SP,-20.7343722,-49.5807484,779,8523.90852
D1,Bálsamo/SP,-20.7343722,-49.5807484,31,339.20560
0,CASO SEM LOCALIZAÇÃO DEFINIDA/AL,-9.931093434363673,-35.609611600637464,8,0.23971
D0,CASO SEM LOCALIZAÇÃO DEFINIDA/AL,-9.931093434363673,-35.609611600637464,8,0.23971
0,CASO SEM LOCALIZAÇÃO DEFINIDA/BA,-13.415069300066518,-38.14174656569957,13998,94.11645
D0,CASO SEM LOCALIZAÇÃO DEFINIDA/BA,-13.415069300066518,-38.14174656569957,136,0.91440
0,CASO SEM LOCALIZAÇÃO DEFINIDA/CE,-3.3445126297392798,-38.624961942434304,9331,102.17828
D0,CASO SEM LOCALIZAÇÃO DEFINIDA/CE,-3.3445126297392798,-38.624961942434304,64,0.70083
0,CASO SEM LOCALIZAÇÃO DEFINIDA/ES,-20.30989267097039,-39.81745156645774,2489,61.93622
D0,CASO SEM LOCALIZAÇÃO DEFINIDA/ES,-20.30989267097039,-39.81745156645774,104,2.58793
0,CASO SEM LOCALIZAÇÃO DEFINIDA/GO,-16.701590966270153,-49.164524059025034,3168,45.13879
D0,CASO SEM LOCALIZAÇÃO DEFINIDA/GO,-16.701590966270153,-49.164524059025034,62,0.88340
0,CASO SEM LOCALIZAÇÃO DEFINIDA/MG,-19.97049116501593,-43.8852149072783,9391,44.36248
D0,CASO SEM LOCALIZAÇÃO DEFINIDA/MG,-19.97049116501593,-43.8852149072783,197,0.93062
0,CASO SEM LOCALIZAÇÃO DEFINIDA/MS,-20.391549234908513,-54.645156949758444,1185,42.64145
D0,CASO SEM LOCALIZAÇÃO DEFINIDA/MS,-20.391549234908513,-54.645156949758444,17,0.61173
0,CASO SEM LOCALIZAÇÃO DEFINIDA/MT,-15.54791153961863,-56.17143998972475,1417,40.66620
D0,CASO SEM LOCALIZAÇÃO DEFINIDA/MT,-15.54791153961863,-56.17143998972475,91,2.61159
0,CASO SEM LOCALIZAÇÃO DEFINIDA/PA,-0.09317078214359542,-48.0050231510481,1850,21.50446
D0,CASO SEM LOCALIZAÇÃO DEFINIDA/PA,-0.09317078214359542,-48.0050231510481,31,0.36035
0,CASO SEM LOCALIZAÇÃO DEFINIDA/PE,-8.121628543819208,-34.57313921302556,1724,18.03900
D0,CASO SEM LOCALIZAÇÃO DEFINIDA/PE,-8.121628543819208,-34.57313921302556,24,0.25112
0,CASO SEM LOCALIZAÇÃO DEFINIDA/PI,-2.683810218391744,-41.470898009352254,633,19.33871
D0,CASO SEM LOCALIZAÇÃO DEFINIDA/PI,-2.683810218391744,-41.470898009352254,11,0.33606
0,CASO SEM LOCALIZAÇÃO DEFINIDA/PR,-25.69415946385943,-48.10141676336737,4482,39.19903
D0,CASO SEM LOCALIZAÇÃO DEFINIDA/PR,-25.69415946385943,-48.10141676336737,86,0.75215
0,CASO SEM LOCALIZAÇÃO DEFINIDA/RN,-5.749310788669161,-34.95302586257457,1212,34.56090
D0,CASO SEM LOCALIZAÇÃO DEFINIDA/RN,-5.749310788669161,-34.95302586257457,22,0.62734
0,CASO SEM LOCALIZAÇÃO DEFINIDA/RR,2.813328208465927,-60.663338675861986,2572,424.58990
D0,CASO SEM LOCALIZAÇÃO DEFINIDA/RR,2.813328208465927,-60.663338675861986,34,5.61277
0,CASO SEM LOCALIZAÇÃO DEFINIDA/RS,-30.50647488532064,-49.906261466443524,5777,50.77682
D0,CASO SEM LOCALIZAÇÃO DEFINIDA/RS,-30.50647488532064,-49.906261466443524,113,0.99321
0,CASO SEM LOCALIZAÇÃO DEFINIDA/SC,-27.675643660562308,-48.18313219398259,13179,183.94124
0,CASO SEM LOCALIZAÇÃO DEFINIDA/SP,-24.30968974555485,-46.21366504207253,12416,27.03889
D0,CASO SEM LOCALIZAÇÃO DEFINIDA/SP,-24.30968974555485,-46.21366504207253,357,0.77746
0,CASO SEM LOCALIZAÇÃO DEFINIDA/TO,-10.213012114749148,-48.40023803990334,684,43.48749
D0,CASO SEM LOCALIZAÇÃO DEFINIDA/TO,-10.213012114749148,-48.40023803990334,5,0.31789
1,Caapiranga/AM,-3.3188884,-61.2096404,527,3967.47723
D1,Caapiranga/AM,-3.3188884,-61.2096404,18,135.51156
1,Caaporã/PB,-7.510234,-34.9154114,1284,5848.32612
D1,Caaporã/PB,-7.510234,-34.9154114,20,91.09542
1,Caarapó/MS,-22.6349267,-54.8240903,1971,6442.65028
D1,Caarapó/MS,-22.6349267,-54.8240903,17,55.56827
1,Caatiba/BA,-14.9782759,-40.4092325,521,8030.20962
D1,Caatiba/BA,-14.9782759,-40.4092325,6,92.47842
1,Cabaceiras do Paraguaçu/BA,-12.5377868,-39.1901339,281,1485.90767
D1,Cabaceiras do Paraguaçu/BA,-12.5377868,-39.1901339,1,5.28793
1,Cabaceiras/PB,-7.4899156,-36.2860501,259,4575.16340
D1,Cabaceiras/PB,-7.4899156,-36.2860501,1,17.66472
1,Cabeceira Grande/MG,-16.0297,-47.0906,125,1788.78077
D1,Cabeceira Grande/MG,-16.0297,-47.0906,3,42.93074
1,Cabeceiras do Piauí/PI,-4.4733665,-42.3098716,312,2935.08937
D1,Cabeceiras do Piauí/PI,-4.4733665,-42.3098716,7,65.85136
1,Cabeceiras/GO,-15.7995459,-46.9264991,122,1516.28138
D1,Cabeceiras/GO,-15.7995459,-46.9264991,3,37.28561
1,Cabedelo/PB,-6.97324,-34.8351609,5177,7528.32027
D1,Cabedelo/PB,-6.97324,-34.8351609,100,145.41859
1,Cabixi/RO,-13.4956065,-60.5424442,439,8461.83500
D1,Cabixi/RO,-13.4956065,-60.5424442,9,173.47726
1,Cabo Frio/RJ,-22.8804369,-42.0189227,7196,3123.56215
D1,Cabo Frio/RJ,-22.8804369,-42.0189227,317,137.59994
1,Cabo Verde/MG,-21.4743338,-46.3964995,241,1712.25577
D1,Cabo Verde/MG,-21.4743338,-46.3964995,3,21.31439
1,Cabo de Santo Agostinho/PE,-8.2838945,-35.0320984,2886,1381.23133
D1,Cabo de Santo Agostinho/PE,-8.2838945,-35.0320984,317,151.71529
1,Cabreúva/SP,-23.3075813,-47.1324417,2241,4443.87158
D1,Cabreúva/SP,-23.3075813,-47.1324417,53,105.09826
1,Cabrobó/PE,-8.5083701,-39.3106961,1085,3144.65409
D1,Cabrobó/PE,-8.5083701,-39.3106961,11,31.88129
1,Cabrália Paulista/SP,-22.4562909,-49.3385645,149,3511.66627
D1,Cabrália Paulista/SP,-22.4562909,-49.3385645,1,23.56823
1,Cacaulândia/RO,-10.3380043,-62.9007231,288,4594.03414
D1,Cacaulândia/RO,-10.3380043,-62.9007231,4,63.80603
1,Cacequi/RS,-29.8838059,-54.8273443,126,1014.24777
D1,Cacequi/RS,-29.8838059,-54.8273443,2,16.09917
1,Cachoeira Alta/GO,-18.7618269,-50.9432431,919,7255.64503
D1,Cachoeira Alta/GO,-18.7618269,-50.9432431,13,102.63698
1,Cachoeira Dourada/GO,-18.4934204,-49.481062,220,2739.38488
D1,Cachoeira Dourada/GO,-18.4934204,-49.481062,4,49.80700
1,Cachoeira Dourada/MG,-18.517136,-49.5002062,101,3732.44642
1,Cachoeira Grande/MA,-2.9290492,-44.0573223,191,2015.19308
D1,Cachoeira Grande/MA,-2.9290492,-44.0573223,4,42.20300
1,Cachoeira Paulista/SP,-22.666498,-45.015384,968,2882.58241
D1,Cachoeira Paulista/SP,-22.666498,-45.015384,23,68.49111
1,Cachoeira da Prata/MG,-19.524723,-44.453056,170,4734.05737
D1,Cachoeira da Prata/MG,-19.524723,-44.453056,2,55.69479
1,Cachoeira de Goiás/GO,-16.6688414,-50.6435997,33,2459.01639
1,Cachoeira de Minas/MG,-22.3554043,-45.7796324,365,3152.25840
D1,Cachoeira de Minas/MG,-22.3554043,-45.7796324,4,34.54530
1,Cachoeira de Pajeú/MG,-15.965833,-41.496666,293,3103.15611
D1,Cachoeira de Pajeú/MG,-15.965833,-41.496666,5,52.95488
1,Cachoeira do Arari/PA,-1.0143572,-48.9621089,340,1412.89894
D1,Cachoeira do Arari/PA,-1.0143572,-48.9621089,13,54.02261
1,Cachoeira do Piriá/PA,-1.7599443,-46.5446954,542,1566.06663
D1,Cachoeira do Piriá/PA,-1.7599443,-46.5446954,3,8.66827
1,Cachoeira do Sul/RS,-30.0474778,-52.8905413,2780,3395.66869
D1,Cachoeira do Sul/RS,-30.0474778,-52.8905413,35,42.75122
1,Cachoeira dos Índios/PB,-6.9259193,-38.6742159,388,3765.16254
D1,Cachoeira dos Índios/PB,-6.9259193,-38.6742159,11,106.74430
1,Cachoeira/BA,-12.5998256,-38.9665918,783,2332.64814
D1,Cachoeira/BA,-12.5998256,-38.9665918,15,44.68675
1,Cachoeiras de Macacu/RJ,-22.4626861,-42.6534414,1836,3095.96479
D1,Cachoeiras de Macacu/RJ,-22.4626861,-42.6534414,61,102.86158
1,Cachoeirinha/PE,-8.4906364,-36.2338963,334,1629.18882
D1,Cachoeirinha/PE,-8.4906364,-36.2338963,22,107.31184
1,Cachoeirinha/RS,-29.9493353,-51.0898927,6805,5185.15696
D1,Cachoeirinha/RS,-29.9493353,-51.0898927,171,130.29564
1,Cachoeirinha/TO,-6.118647,-47.9208885,113,4947.46060
D1,Cachoeirinha/TO,-6.118647,-47.9208885,2,87.56567
1,Cachoeiro de Itapemirim/ES,-20.848084,-41.11129,16875,8013.23906
D1,Cachoeiro de Itapemirim/ES,-20.848084,-41.11129,329,156.22848
1,Cacimba de Areia/PB,-7.1288513,-37.1575194,23,622.46279
D1,Cacimba de Areia/PB,-7.1288513,-37.1575194,1,27.06360
1,Cacimba de Dentro/PB,-6.6425101,-35.7929304,757,4406.79939
D1,Cacimba de Dentro/PB,-6.6425101,-35.7929304,18,104.78519
1,Cacimbas/PB,-7.2125451,-37.0593398,125,1736.35227
D1,Cacimbas/PB,-7.2125451,-37.0593398,6,83.34491
1,Cacimbinhas/AL,-9.401212,-36.991082,391,3590.77969
D1,Cacimbinhas/AL,-9.401212,-36.991082,3,27.55074
1,Cacique Doble/RS,-27.7700117,-51.6616409,194,3823.41348
D1,Cacique Doble/RS,-27.7700117,-51.6616409,1,19.70832
1,Cacoal/RO,-11.4333,-61.4420502,7701,8965.80629
D1,Cacoal/RO,-11.4333,-61.4420502,102,118.75240
1,Caconde/SP,-21.527995,-46.643659,676,3556.21022
D1,Caconde/SP,-21.527995,-46.643659,5,26.30333
1,Caculé/BA,-14.4990734,-42.2233006,577,2477.35177
D1,Caculé/BA,-14.4990734,-42.2233006,8,34.34803
1,Caetanos/BA,-14.3387456,-40.9085971,358,2450.71194
D1,Caetanos/BA,-14.3387456,-40.9085971,4,27.38226
1,Caetanópolis/MG,-19.2947496,-44.4138386,532,4528.04494
D1,Caetanópolis/MG,-19.2947496,-44.4138386,4,34.04545
1,Caetité/BA,-14.0691776,-42.4852428,1190,2329.63333
D1,Caetité/BA,-14.0691776,-42.4852428,8,15.66140
1,Caeté/MG,-19.897777,-43.670278,985,2186.60510
D1,Caeté/MG,-19.897777,-43.670278,30,66.59711
1,Caetés/PE,-8.7728788,-36.6255835,913,3158.73236
D1,Caetés/PE,-8.7728788,-36.6255835,10,34.59729
1,Cafarnaum/BA,-11.691399,-41.468823,671,3624.48010
D1,Cafarnaum/BA,-11.691399,-41.468823,10,54.01610
1,Cafeara/PR,-22.78905,-51.714195,145,4908.59851
D1,Cafeara/PR,-22.78905,-51.714195,2,67.70481
1,Cafelândia/PR,-24.6176963,-53.3218057,1032,5591.67750
D1,Cafelândia/PR,-24.6176963,-53.3218057,6,32.50975
1,Cafelândia/SP,-21.8054355,-49.6030627,539,3020.79247
D1,Cafelândia/SP,-21.8054355,-49.6030627,19,106.48434
1,Cafezal do Sul/PR,-23.900508,-53.512418,121,3018.20903
D1,Cafezal do Sul/PR,-23.900508,-53.512418,1,24.94388
1,Caiabu/SP,-22.0143038,-51.2356597,51,1216.31290
D1,Caiabu/SP,-22.0143038,-51.2356597,2,47.69855
1,Caiana/MG,-20.695555,-41.924723,83,1497.92456
D1,Caiana/MG,-20.695555,-41.924723,2,36.09457
1,Caiapônia/GO,-16.9538779,-51.8090761,546,2857.59146
D1,Caiapônia/GO,-16.9538779,-51.8090761,9,47.10316
1,Caibaté/RS,-28.290475,-54.645407,37,767.15737
D1,Caibaté/RS,-28.290475,-54.645407,3,62.20195
1,Caibi/SC,-27.0751925,-53.2502133,241,3931.48450
D1,Caibi/SC,-27.0751925,-53.2502133,2,32.62643
1,Caicó/RN,-6.4594544,-37.0971911,7329,10723.84882
D1,Caicó/RN,-6.4594544,-37.0971911,85,124.37265
1,Caieiras/SP,-23.3644621,-46.7484765,4534,4411.57869
D1,Caieiras/SP,-23.3644621,-46.7484765,135,131.35490
1,Cairu/BA,-13.4860505,-39.0455744,879,4770.17420
D1,Cairu/BA,-13.4860505,-39.0455744,8,43.41455
1,Caiuá/SP,-21.8319357,-51.9887179,165,2774.97477
D1,Caiuá/SP,-21.8319357,-51.9887179,2,33.63606
1,Caiçara do Norte/RN,-5.0645017,-36.0561226,169,2575.82686
D1,Caiçara do Norte/RN,-5.0645017,-36.0561226,4,60.96632
1,Caiçara do Rio do Vento/RN,-5.757968,-36.00089,123,3310.90175
D1,Caiçara do Rio do Vento/RN,-5.757968,-36.00089,3,80.75370
1,Caiçara/PB,-6.6146866,-35.4681434,512,7120.01113
D1,Caiçara/PB,-6.6146866,-35.4681434,10,139.06272
1,Caiçara/RS,-27.2750478,-53.4310053,276,5872.34043
D1,Caiçara/RS,-27.2750478,-53.4310053,3,63.82979
1,Cajamar/SP,-23.3561111,-46.8769444,2168,2781.84104
D1,Cajamar/SP,-23.3561111,-46.8769444,89,114.19919
1,Cajapió/MA,-2.8778715,-44.6746871,56,499.28673
D1,Cajapió/MA,-2.8778715,-44.6746871,2,17.83167
1,Cajari/MA,-3.3213076,-45.0118757,132,678.62835
D1,Cajari/MA,-3.3213076,-45.0118757,4,20.56450
1,Cajati/SP,-24.7272376,-48.1077914,2455,8615.84895
D1,Cajati/SP,-24.7272376,-48.1077914,49,171.96603
1,Cajazeiras do Piauí/PI,-6.794271,-42.3935024,25,699.69214
D1,Cajazeiras do Piauí/PI,-6.794271,-42.3935024,1,27.98769
1,Cajazeiras/PB,-6.8897849,-38.5570389,4470,7176.22694
D1,Cajazeiras/PB,-6.8897849,-38.5570389,79,126.82817
1,Cajazeirinhas/PB,-6.961442,-37.7993733,86,2683.30733
1,Cajobi/SP,-20.8776238,-48.8106972,424,4001.51000
D1,Cajobi/SP,-20.8776238,-48.8106972,12,113.25028
1,Cajueiro da Praia/PI,-2.931114,-41.340801,447,5824.86317
D1,Cajueiro da Praia/PI,-2.931114,-41.340801,13,169.40318
1,Cajueiro/AL,-9.399589,-36.1524309,411,1926.77324
D1,Cajueiro/AL,-9.399589,-36.1524309,18,84.38423
1,Cajuri/MG,-20.7901414,-42.7954489,180,4529.44137
D1,Cajuri/MG,-20.7901414,-42.7954489,1,25.16356
1,Cajuru/SP,-21.2759978,-47.3046035,543,2057.36369
D1,Cajuru/SP,-21.2759978,-47.3046035,18,68.19990
1,Caldas Brandão/PB,-7.1027959,-35.3254676,381,6301.68707
D1,Caldas Brandão/PB,-7.1027959,-35.3254676,5,82.69931
1,Caldas Novas/GO,-17.745,-48.625,4891,5248.07932
D1,Caldas Novas/GO,-17.745,-48.625,86,92.27864
1,Caldas/MG,-21.923611,-46.386111,382,2627.05454
D1,Caldas/MG,-21.923611,-46.386111,12,82.52527
1,Caldazinha/GO,-16.7116649,-49.0012601,136,3534.30353
D1,Caldazinha/GO,-16.7116649,-49.0012601,2,51.97505
1,Caldeirão Grande do Piauí/PI,-7.3310393,-40.6374433,198,3425.01297
D1,Caldeirão Grande do Piauí/PI,-7.3310393,-40.6374433,1,17.29805
1,Caldeirão Grande/BA,-11.0208483,-40.3041387,520,3883.20514
D1,Caldeirão Grande/BA,-11.0208483,-40.3041387,4,29.87081
1,Califórnia/PR,-23.6672543,-51.3554556,472,5484.54567
D1,Califórnia/PR,-23.6672543,-51.3554556,9,104.57820
1,Calmon/SC,-26.6023644,-51.0992893,18,539.73013
D1,Calmon/SC,-26.6023644,-51.0992893,2,59.97001
1,Calumbi/PE,-7.9389746,-38.1516871,339,5898.72977
D1,Calumbi/PE,-7.9389746,-38.1516871,2,34.80077
1,Calçado/PE,-8.7413446,-36.3351787,218,1978.58050
D1,Calçado/PE,-8.7413446,-36.3351787,2,18.15211
1,Calçoene/AP,2.4981757,-50.9539503,1533,13559.17212
D1,Calçoene/AP,2.4981757,-50.9539503,9,79.60375
1,Camacan/BA,-15.4166631,-39.4930088,1927,6020.74611
D1,Camacan/BA,-15.4166631,-39.4930088,45,140.59864
1,Camacho/MG,-20.625556,-45.156667,46,1603.34611
D1,Camacho/MG,-20.625556,-45.156667,1,34.85535
1,Camalaú/PB,-7.885031,-36.824191,227,3763.88659
D1,Camalaú/PB,-7.885031,-36.824191,5,82.90499
1,Camamu/BA,-13.9438142,-39.1060917,1440,4069.86603
D1,Camamu/BA,-13.9438142,-39.1060917,32,90.44147
1,Camanducaia/MG,-22.755278,-46.144444,1664,7632.67740
D1,Camanducaia/MG,-22.755278,-46.144444,20,91.73891
1,Camapuã/MS,-19.5291747,-54.0434641,337,2461.11152
D1,Camapuã/MS,-19.5291747,-54.0434641,8,58.42401
1,Camaquã/RS,-30.8524752,-51.8075619,3415,5137.03782
D1,Camaquã/RS,-30.8524752,-51.8075619,50,75.21285
1,Camaragibe/PE,-8.0213832,-34.9810768,3222,2027.70313
D1,Camaragibe/PE,-8.0213832,-34.9810768,238,149.78068
1,Camargo/RS,-28.5865661,-52.2031474,217,7913.93144
D1,Camargo/RS,-28.5865661,-52.2031474,2,72.93946
1,Camaçari/BA,-12.6998188,-38.3260762,11703,3845.85050
D1,Camaçari/BA,-12.6998188,-38.3260762,182,59.80901
1,Cambará do Sul/RS,-29.0489517,-50.145412,263,4105.52607
D1,Cambará do Sul/RS,-29.0489517,-50.145412,3,46.83110
1,Cambará/PR,-23.042273,-50.075281,866,3400.61258
D1,Cambará/PR,-23.042273,-50.075281,12,47.12165
1,Cambira/PR,-23.600265,-51.581045,346,4370.34230
D1,Cambira/PR,-23.600265,-51.581045,7,88.41733
1,Camboriú/SC,-27.0273601,-48.6535657,8535,10028.78797
D1,Camboriú/SC,-27.0273601,-48.6535657,95,111.62681
1,Cambuci/RJ,-21.5749919,-41.9107833,441,2842.59379
D1,Cambuci/RJ,-21.5749919,-41.9107833,8,51.56633
1,Cambuquira/MG,-21.853056,-45.2953619,187,1459.56915
D1,Cambuquira/MG,-21.853056,-45.2953619,7,54.63628
1,Cambuí/MG,-22.6122501,-46.0572137,1392,4668.94747
D1,Cambuí/MG,-22.6122501,-46.0572137,18,60.37432
1,Cambé/PR,-23.2782035,-51.2779583,6720,6260.42239
D1,Cambé/PR,-23.2782035,-51.2779583,85,79.18689
1,Cametá/PA,-2.242949,-49.497885,5908,4239.25835
D1,Cametá/PA,-2.242949,-49.497885,128,91.84581
1,Camocim de São Félix/PE,-8.3616757,-35.7638903,331,1751.32275
D1,Camocim de São Félix/PE,-8.3616757,-35.7638903,11,58.20106
1,Camocim/CE,-2.9009918,-40.8427389,2780,4350.07120
D1,Camocim/CE,-2.9009918,-40.8427389,85,133.00577
1,Campanha/MG,-21.8361108,-45.401986,768,4581.79215
D1,Campanha/MG,-21.8361108,-45.401986,12,71.59050
1,Campanário/MG,-18.2398144,-41.7271768,84,2252.01072
1,Campestre da Serra/RS,-28.7966535,-51.0958149,103,3033.87334
1,Campestre de Goiás/GO,-16.7624179,-49.69497,250,6851.19211
D1,Campestre de Goiás/GO,-16.7624179,-49.69497,4,109.61907
1,Campestre do Maranhão/MA,-6.1729113,-47.3640512,605,4185.98215
D1,Campestre do Maranhão/MA,-6.1729113,-47.3640512,19,131.46060
1,Campestre/AL,-8.8481634,-35.5660033,123,1768.76618
D1,Campestre/AL,-8.8481634,-35.5660033,4,57.52085
1,Campestre/MG,-19.6142116,-43.219378,556,2640.82835
D1,Campestre/MG,-19.6142116,-43.219378,7,33.24784
1,Campina Grande do Sul/PR,-25.3046032,-49.0545355,3316,7590.70619
D1,Campina Grande do Sul/PR,-25.3046032,-49.0545355,57,130.47957
1,Campina Grande/PB,-7.2246743,-35.8771292,19451,4723.32913
D1,Campina Grande/PB,-7.2246743,-35.8771292,562,136.47170
1,Campina Verde/MG,-19.535277,-49.486389,332,1680.84245
D1,Campina Verde/MG,-19.535277,-49.486389,14,70.87890
1,Campina da Lagoa/PR,-24.5937926,-52.8038965,388,2762.94239
D1,Campina da Lagoa/PR,-24.5937926,-52.8038965,10,71.20986
1,Campina das Missões/RS,-27.9883295,-54.8411665,220,4075.58355
D1,Campina das Missões/RS,-27.9883295,-54.8411665,6,111.15228
1,Campina do Monte Alegre/SP,-23.5935653,-48.4801876,198,3268.94502
1,Campina do Simão/PR,-25.1086375,-51.8076658,38,984.71107
D1,Campina do Simão/PR,-25.1086375,-51.8076658,1,25.91345
1,Campinas do Piauí/PI,-7.6593687,-41.8814875,118,2099.64413
D1,Campinas do Piauí/PI,-7.6593687,-41.8814875,1,17.79359
1,Campinas do Sul/RS,-27.7167968,-52.6257885,282,5185.73005
D1,Campinas do Sul/RS,-27.7167968,-52.6257885,3,55.16734
1,Campinas/SP,-22.90556,-47.06083,56741,4674.68891
D1,Campinas/SP,-22.90556,-47.06083,1811,149.20184
1,Campinaçu/GO,-13.7869969,-48.5703841,136,3744.49339
1,Campinorte/GO,-14.3136699,-49.1510931,722,5656.53400
D1,Campinorte/GO,-14.3136699,-49.1510931,9,70.51081
1,Campinápolis/MT,-14.5403731,-52.7970626,569,3363.08292
D1,Campinápolis/MT,-14.5403731,-52.7970626,17,100.47875
1,Campo Alegre de Goiás/GO,-17.6337896,-47.779291,83,1072.62859
D1,Campo Alegre de Goiás/GO,-17.6337896,-47.779291,3,38.76971
1,Campo Alegre de Lourdes/BA,-9.5160326,-43.0101338,279,968.07772
D1,Campo Alegre de Lourdes/BA,-9.5160326,-43.0101338,6,20.81888
1,Campo Alegre do Fidalgo/PI,-8.3753852,-41.8364191,57,1124.48215
D1,Campo Alegre do Fidalgo/PI,-8.3753852,-41.8364191,1,19.72776
1,Campo Alegre/AL,-9.7798607,-36.3575793,1914,3326.55509
D1,Campo Alegre/AL,-9.7798607,-36.3575793,45,78.21054
1,Campo Alegre/SC,-26.1941684,-49.2657484,672,5608.88073
D1,Campo Alegre/SC,-26.1941684,-49.2657484,21,175.27752
1,Campo Azul/MG,-16.5078525,-44.8133524,52,1359.83264
1,Campo Belo do Sul/SC,-27.8987563,-50.7586887,407,5854.43038
D1,Campo Belo do Sul/SC,-27.8987563,-50.7586887,8,115.07480
1,Campo Belo/MG,-20.8975,-45.277223,2275,4198.50146
D1,Campo Belo/MG,-20.8975,-45.277223,53,97.81124
1,Campo Bom/RS,-29.674694,-51.060601,6209,8939.21507
