type,name,lat,lon,total
1,São Paulo/SP,-23.5506507,-46.6333824,3202
D1,São Paulo/SP,-23.5506507,-46.6333824,186
1,Barra Mansa/RJ,-22.5394843,-44.1735129,3
1,Vila Velha/ES,-20.3297293,-40.2920284,44
1,Feira de Santana/BA,-12.2578934,-38.9598047,20
1,Rio de Janeiro/RJ,-22.9110137,-43.2093727,867
D1,Rio de Janeiro/RJ,-22.9110137,-43.2093727,31
1,Brasília/DF,-15.7934036,-47.8823172,425
D1,Brasília/DF,-15.7934036,-47.8823172,5
1,Maceió/AL,-9.6476843,-35.7339264,13
D1,Maceió/AL,-9.6476843,-35.7339264,1
1,Santana de Parnaíba/SP,-23.4446715,-46.9167722,22
1,Divinópolis/MG,-20.1434559,-44.89125,12
1,Niterói/RJ,-22.8832371,-43.1154552,65
D1,Niterói/RJ,-22.8832371,-43.1154552,1
1,Campo Bom/RS,-29.674694,-51.060601,3
1,Porto Alegre/RS,-30.0324999,-51.2303767,233
D1,Porto Alegre/RS,-30.0324999,-51.2303767,3
1,Recife/PE,-8.0641931,-34.8781517,92
D1,Recife/PE,-8.0641931,-34.8781517,6
1,Caxias do Sul/RS,-29.1684796,-51.1793861,13
1,Curitiba/PR,-25.4295963,-49.2712724,114
1,Cianorte/PR,-23.662036,-52.6103989,11
1,Ferraz de Vasconcelos/SP,-23.541056,-46.37097,14
1,Florianópolis/SC,-27.5973002,-48.5496098,78
D1,Florianópolis/SC,-27.5973002,-48.5496098,1
1,Ipatinga/MG,-19.4777807,-42.5270802,1
1,Rio Verde/GO,-17.7921255,-50.9191219,7
1,Goiânia/GO,-16.680882,-49.2532691,50
1,Natal/RN,-5.805398,-35.2080905,77
D1,Natal/RN,-5.805398,-35.2080905,1
1,Salvador/BA,-12.9822499,-38.4812772,183
D1,Salvador/BA,-12.9822499,-38.4812772,5
1,Manaus/AM,-3.1316333,-59.9825041,232
D1,Manaus/AM,-3.1316333,-59.9825041,2
1,Joinville/SC,-26.3044898,-48.8486726,17
D1,Joinville/SC,-26.3044898,-48.8486726,1
1,Rancho Queimado/SC,-27.6731108,-49.0126867,2
0,ESTRANGEIRO/PE,-8.4116316,-37.5919699,3
D0,ESTRANGEIRO/PE,-8.4116316,-37.5919699,1
1,Campo Grande/MS,-20.4640173,-54.6162947,43
1,Juiz de Fora/MG,-21.7609533,-43.3501129,30
1,Patrocínio/MG,-18.9408294,-46.9926624,3
1,Aracaju/SE,-10.9162061,-37.0774655,20
D1,Aracaju/SE,-10.9162061,-37.0774655,2
1,Linhares/ES,-19.3816944,-40.0612213,7
1,Vitória/ES,-20.3200917,-40.3376682,36
1,Carapicuíba/SP,-23.5234673,-46.8406808,11
D1,Carapicuíba/SP,-23.5234673,-46.8406808,1
1,Braço do Norte/SC,-28.2728633,-49.1622712,12
1,São Bernardo do Campo/SP,-23.7080345,-46.5506747,70
D1,São Bernardo do Campo/SP,-23.7080345,-46.5506747,4
1,São Caetano do Sul/SP,-23.6195923,-46.5688323,36
D1,São Caetano do Sul/SP,-23.6195923,-46.5688323,1
1,Fortaleza/CE,-3.7304512,-38.5217989,600
D1,Fortaleza/CE,-3.7304512,-38.5217989,17
1,Coronel Fabriciano/MG,-19.5200067,-42.6282686,1
1,Mauá/SP,-23.6669527,-46.4616922,10
1,Aquiraz/CE,-3.9063117,-38.387504,15
1,Belo Horizonte/MG,-19.9227318,-43.9450948,225
D1,Belo Horizonte/MG,-19.9227318,-43.9450948,3
1,Anápolis/GO,-16.3332828,-48.9525756,4
1,Porto Seguro/BA,-16.443473,-39.064251,10
1,Belo Jardim/PE,-8.3338293,-36.4176419,1
1,Jaboatão dos Guararapes/PE,-8.1752476,-34.9468716,8
1,Prado/BA,-17.336357,-39.222721,4
1,Rio Branco/AC,-9.9765362,-67.8220778,36
1,Santo André/SP,-23.6573395,-46.5322504,70
D1,Santo André/SP,-23.6573395,-46.5322504,2
1,Nova Lima/MG,-19.9854089,-43.8470691,30
1,Sete Lagoas/MG,-19.466111,-44.246944,2
1,Uberlândia/MG,-18.9188041,-48.2767837,24
1,Campo Largo/PR,-25.4597726,-49.5270851,5
1,Pinhais/PR,-25.4443488,-49.1900307,6
1,Londrina/PR,-23.3112878,-51.1595023,30
1,Palmas/TO,-10.1835604,-48.3337793,9
1,Jataí/GO,-17.8783829,-51.7204241,2
1,Aparecida de Goiânia/GO,-16.8226769,-49.2452546,4
1,Balneário Camboriú/SC,-26.9924395,-48.6339782,10
1,Maringá/PR,-23.425269,-51.9382078,15
D1,Maringá/PR,-23.425269,-51.9382078,2
1,Foz do Iguaçu/PR,-25.5401479,-54.5858139,22
1,Belém/PA,-1.45056,-48.4682453,42
1,Propriá/SE,-10.212427,-36.8372254,2
1,João Pessoa/PB,-7.1215981,-34.882028,23
1,Guapimirim/RJ,-22.5266308,-42.9790687,1
1,Jaguariúna/SP,-22.70374,-46.985062,1
1,São José do Rio Preto/SP,-20.8125851,-49.3804212,7
1,Campinas/SP,-22.90556,-47.06083,24
D1,Campinas/SP,-22.90556,-47.06083,1
1,Guarulhos/SP,-23.4430602,-46.524459,52
D1,Guarulhos/SP,-23.4430602,-46.524459,2
1,Barueri/SP,-23.5112184,-46.8764612,28
D1,Barueri/SP,-23.5112184,-46.8764612,1
1,Cotia/SP,-23.603889,-46.918889,27
D1,Cotia/SP,-23.603889,-46.918889,2
1,Uberaba/MG,-19.750833,-47.936666,4
1,Tubarão/SC,-28.471488,-49.014132,15
0,ESTRANGEIRO/SC,-27.0628367,-51.114965,3
1,Sobral/CE,-3.6879135,-40.3456372,5
1,Serafina Corrêa/RS,-28.7120266,-51.9343269,3
1,Torres/RS,-29.3373663,-49.7299648,8
1,Farroupilha/RS,-29.22647,-51.3468188,2
1,São José/SC,-27.6162335,-48.6270136,12
D1,São José/SC,-27.6162335,-48.6270136,1
1,Sidrolândia/MS,-20.9361042,-54.9640262,1
1,Lauro de Freitas/BA,-12.89242,-38.3127691,11
1,Itabuna/BA,-14.7869879,-39.2788778,5
1,Miguel Pereira/RJ,-22.4539417,-43.4691978,1
D1,Miguel Pereira/RJ,-22.4539417,-43.4691978,1
1,Bagé/RS,-31.3314264,-54.1062808,18
1,Alvorada/RS,-29.9981184,-51.0772509,3
1,Erechim/RS,-27.6350143,-52.2737288,3
1,Sant'Ana do Livramento/RS,-30.8894097,-55.5317694,5
1,Teresina/PI,-5.0896403,-42.809588,19
D1,Teresina/PI,-5.0896403,-42.809588,2
1,Taubaté/SP,-23.031448,-45.5612792,1
1,Suzano/SP,-23.5427842,-46.3108391,6
D1,Suzano/SP,-23.5427842,-46.3108391,1
1,Ji-Paraná/RO,-10.8778148,-61.9277854,1
1,Juazeiro do Norte/CE,-7.2153453,-39.3153336,1
0,NÃO ESPECIFICADA/CE,-5.3264703,-39.7156073,12
1,Macapá/AP,0.0401529,-51.0569588,19
1,Itajaí/SC,-26.9117879,-48.6669852,19
1,Navegantes/SC,-26.8898813,-48.6495828,4
1,Pomerode/SC,-26.7356218,-49.1770095,1
1,Jaraguá do Sul/SC,-26.4897432,-49.0778063,5
1,Imbituba/SC,-28.241827,-48.6643444,6
1,Criciúma/SC,-28.6789941,-49.3695627,23
D1,Criciúma/SC,-28.6789941,-49.3695627,1
1,Chapecó/SC,-27.0922364,-52.6166878,5
1,Guaíra/PR,-24.0851924,-54.2567519,2
1,Camaçari/BA,-12.6998188,-38.3260762,4
1,Petrópolis/RJ,-22.519963,-43.192613,13
D1,Petrópolis/RJ,-22.519963,-43.192613,1
1,Ivoti/RS,-29.5934057,-51.1599403,4
D1,Ivoti/RS,-29.5934057,-51.1599403,1
1,Charqueadas/RS,-29.955012,-51.6249195,1
1,São Leopoldo/RS,-29.7544405,-51.1516497,8
1,Taquara/RS,-29.6465318,-50.7805672,1
1,Dois Irmãos/RS,-29.58356,-51.089776,2
1,Eldorado do Sul/RS,-29.9984639,-51.3091977,1
1,Canoas/RS,-29.9216045,-51.1799525,8
1,Cariacica/ES,-20.263202,-40.416549,11
1,Cachoeiro de Itapemirim/ES,-20.848084,-41.11129,1
1,São Luís/MA,-2.5634605,-44.2448718,78
D1,São Luís/MA,-2.5634605,-44.2448718,1
1,Parnamirim/RN,-5.9153334,-35.2679913,17
1,Mariana/MG,-20.3781468,-43.4174862,3
D1,Mariana/MG,-20.3781468,-43.4174862,1
1,Poços de Caldas/MG,-21.7900318,-46.5647928,2
1,Osasco/SP,-23.5324859,-46.7916801,57
D1,Osasco/SP,-23.5324859,-46.7916801,3
1,São José dos Campos/SP,-23.1805011,-45.8872969,20
1,Hortolândia/SP,-22.85833,-47.22,1
1,Mogi das Cruzes/SP,-23.5234284,-46.1926671,16
D1,Mogi das Cruzes/SP,-23.5234284,-46.1926671,1
1,Bento Gonçalves/RS,-29.1654014,-51.5197627,9
1,Cuiabá/MT,-15.5986686,-56.0991301,25
1,Ponta Grossa/PR,-25.0891685,-50.1601812,4
1,Pato Branco/PR,-26.2295984,-52.6712474,2
1,Jaguaruna/SC,-28.6237365,-49.0288664,2
1,Gravatal/SC,-28.3300703,-49.0362296,3
1,Várzea Grande/MT,-15.645816,-56.132218,4
1,Valinhos/SP,-22.97056,-46.99583,3
1,Taboão da Serra/SP,-23.6121912,-46.7790539,34
D1,Taboão da Serra/SP,-23.6121912,-46.7790539,1
1,Poá/SP,-23.5249082,-46.3445663,3
1,Caieiras/SP,-23.3644621,-46.7484765,19
D1,Caieiras/SP,-23.3644621,-46.7484765,1
1,Ponta Porã/MS,-22.5286917,-55.723426,1
1,Nossa Senhora da Glória/SE,-10.2188811,-37.4199759,1
1,Porto Velho/RO,-8.7494525,-63.8735438,8
1,Boa Vista/RR,2.8208478,-60.6719582,24
1,Carlos Barbosa/RS,-29.2978372,-51.5005613,1
1,Estância Velha/RS,-29.6529666,-51.1719687,3
1,Estrela/RS,-29.5010545,-51.962226,1
1,Lajeado/RS,-29.4671522,-51.9624046,6
1,Santa Maria/RS,-29.6860512,-53.8069214,2
1,Viamão/RS,-30.0819338,-51.0261927,4
1,Mossoró/RN,-5.1904332,-37.3443872,43
D1,Mossoró/RN,-5.1904332,-37.3443872,1
1,Barreiras/BA,-12.1440031,-44.9967406,1
1,São Sebastião/SP,-23.8027866,-45.4070527,3
D1,São Sebastião/SP,-23.8027866,-45.4070527,1
1,Olinda/PE,-7.9986401,-34.8459552,6
D1,Olinda/PE,-7.9986401,-34.8459552,1
0,FORA DO ESTADO/PR,-24.4842187,-51.8148872,6
1,Parintins/AM,-2.6344567,-56.7319324,3
D1,Parintins/AM,-2.6344567,-56.7319324,1
1,Conceição do Jacuípe/BA,-12.326831,-38.768433,1
1,Santo Antônio da Patrulha/RS,-29.826768,-50.517489,1
1,Blumenau/SC,-26.9195567,-49.0658025,24
1,Lages/SC,-27.8165664,-50.325883,1
1,Osório/RS,-29.8890328,-50.2730224,1
0,FORA DO ESTADO/SP,-21.9549806,-49.0232348,28
1,Iracemápolis/SP,-22.583234,-47.522963,1
1,Jundiaí/SP,-23.1887866,-46.8845122,6
1,Embu/SP,-23.6495294,-46.8528497,18
D1,Embu/SP,-23.6495294,-46.8528497,1
1,São Gonçalo/RJ,-22.8219014,-43.0309252,10
D1,São Gonçalo/RJ,-22.8219014,-43.0309252,1
1,Juazeiro/BA,-9.4336959,-40.5068201,2
1,Jequié/BA,-13.8604033,-40.0719627,1
1,Brumado/BA,-14.29507325,-41.659307508575985,5
1,Betim/MG,-19.968056,-44.198333,5
1,Bom Despacho/MG,-19.7375242,-45.2517288,1
1,Campos Altos/MG,-19.696389,-46.171389,1
1,Contagem/MG,-19.9132749,-44.0840953,10
1,Lagoa da Prata/MG,-20.022778,-45.5440462,5
1,Timóteo/MG,-19.5771395,-42.6436108,1
0,FORA DO ESTADO/PE,-8.4116316,-37.5919699,2
1,Caruaru/PE,-8.2829702,-35.9722852,1
1,Petrolina/PE,-9.3817334,-40.4968875,2
1,Catalão/GO,-18.1702546,-47.9447082,1
1,Marabá/PA,-5.3462821,-49.1007401,2
1,Igaracy/PB,-7.1819802,-38.1487395,1
1,Rio Grande/RS,-32.0334252,-52.0991297,2
1,Santiago/RS,-29.189675,-54.866624,1
1,Sapiranga/RS,-29.6392382,-51.0068586,1
1,Cruzeiro do Sul/RS,-29.5139742,-51.9917068,1
1,Capão da Canoa/RS,-29.7542937,-50.0215684,2
1,Porto Belo/SC,-27.1542415,-48.5424395,4
1,Gaspar/SC,-26.9307306,-48.9566824,2
1,Içara/SC,-28.7116553,-49.2971441,1
1,Cascavel/PR,-24.9554996,-53.4560544,15
D1,Cascavel/PR,-24.9554996,-53.4560544,1
1,Serra/ES,-20.1252961,-40.3064477,23
D1,Serra/ES,-20.1252961,-40.3064477,1
1,Santa Teresa/ES,-19.936339,-40.597945,1
0,FORA DO ESTADO/AL,-9.6611661,-36.6502426,4
1,Conde/BA,-11.8129758,-37.6138705,1
1,Teixeira de Freitas/BA,-17.5376644,-39.7458096,3
1,Telêmaco Borba/PR,-24.3282939,-50.6318021,4
1,Paranavaí/PR,-23.08165,-52.461724,3
0,ESTRANGEIRO/SP,-21.9549806,-49.0232348,35
1,Volta Redonda/RJ,-22.5225497,-44.1040128,44
D1,Volta Redonda/RJ,-22.5225497,-44.1040128,2
1,Campos dos Goytacazes/RJ,-21.7558619,-41.3326895,1
1,Duque de Caxias/RJ,-22.7896225,-43.309929,9
1,Garibaldi/RS,-29.2562253,-51.5269167,1
0,FORA DO ESTADO/SC,-27.0628367,-51.114965,5
1,Camboriú/SC,-27.0273601,-48.6535657,7
1,Laguna/SC,-28.483118,-48.7811993,1
1,São Ludgero/SC,-28.3243832,-49.174819,3
1,Tijucas/SC,-27.239404,-48.6353696,1
1,Valparaíso de Goiás/GO,-16.0686394,-47.9764907,5
1,Mauriti/CE,-7.3870095,-38.7737751,1
1,Anta Gorda/RS,-28.9718745,-52.0069187,2
1,Paraí/RS,-28.5966772,-51.7851426,1
1,Nova Monte Verde/MT,-9.9796694,-57.467331,1
1,Ananindeua/PA,-1.374035,-48.4016623,9
1,São Domingos/BA,-11.4636112,-39.526527,1
0,NÃO ESPECIFICADA/SP,-21.9549806,-49.0232348,6
1,Ribeirão Pires/SP,-23.7129388,-46.4150871,4
1,Valença/RJ,-22.2461028,-43.6996917,1
1,Porto Real do Colégio/AL,-10.186833,-36.8357056,1
1,Pelotas/RS,-31.7699736,-52.3410161,3
1,Cerro Grande do Sul/RS,-30.5962963,-51.7517196,1
1,Dom Pedrito/RS,-30.983755,-54.6746483,1
1,Faxinal/PR,-24.001065,-51.3223237,1
1,Campo Mourão/PR,-24.046329,-52.37802,9
D1,Campo Mourão/PR,-24.046329,-52.37802,1
1,Balneário Arroio do Silva/SC,-28.9815269,-49.4189932,1
1,Canelinha/SC,-27.2660341,-48.7666708,1
1,São Pedro de Alcântara/SC,-27.5676985,-48.8047973,1
1,Ilhéus/BA,-14.792599,-39.0453843,8
1,Canarana/BA,-11.6870151,-41.7683675,1
1,Silvânia/GO,-16.6599718,-48.608326,1
1,Luziânia/GO,-16.2535456,-47.9500276,1
D1,Luziânia/GO,-16.2535456,-47.9500276,1
1,Governador Valadares/MG,-18.8539497,-41.9458753,2
1,Boa Esperança/MG,-21.0901253,-45.5660195,1
1,São João del Rei/MG,-21.1335755,-44.2588086,3
1,Imperatriz/MA,-5.5269279,-47.478115,2
1,Alagoinhas/BA,-12.133526,-38.420772,3
1,Rio Negro/PR,-26.1047668,-49.7982766,1
1,Tatuí/SP,-23.3514733,-47.8552438,1
1,Ribeirão Preto/SP,-21.178333,-47.8066671,15
D1,Ribeirão Preto/SP,-21.178333,-47.8066671,1
1,Arujá/SP,-23.396266,-46.3175449,4
D1,Arujá/SP,-23.396266,-46.3175449,1
1,Mairiporã/SP,-23.3186111,-46.5866667,3
1,Louveira/SP,-23.08639,-46.95056,1
1,Vargem Grande Paulista/SP,-23.599338,-47.022038,4
D1,Vargem Grande Paulista/SP,-23.599338,-47.022038,1
1,Belford Roxo/RJ,-22.7667284,-43.4033603,3
D1,Belford Roxo/RJ,-22.7667284,-43.4033603,1
1,Santo Antônio do Içá/AM,-3.095443,-67.946279,4
1,Boca do Acre/AM,-8.7553487,-67.3930873,1
1,Itaituba/PA,-4.2625218,-55.9878139,3
1,Castanhal/PA,-1.2927031,-47.9223903,2
1,Rolante/RS,-29.6527945,-50.5769391,1
1,Marau/RS,-28.4493053,-52.2002156,3
1,Piratini/RS,-31.448451,-53.1039931,1
1,Passo Fundo/RS,-28.2616138,-52.4089048,3
1,Nova Palma/RS,-29.4711081,-53.4693751,1
1,Itapema/SC,-27.09472,-48.6137778,2
1,Siderópolis/SC,-28.597588,-49.4250007,2
1,Timbé do Sul/SC,-28.8300122,-49.8466056,1
1,Castelo/ES,-20.6034476,-41.2033505,2
1,Bonfim/RR,3.3613818,-59.8427241,3
1,Sabará/MG,-19.8900372,-43.8107916,4
1,Carmo do Cajuru/MG,-20.184444,-44.770834,1
1,Campo Belo/MG,-20.8975,-45.277223,1
1,Guimarânia/MG,-18.8442251,-46.7925141,1
1,Santa Rosa/RS,-27.8643546,-54.4779287,2
1,Cachoeira do Sul/RS,-30.0474778,-52.8905413,1
1,Sousa/PB,-6.7662029,-38.2319607,1
1,Campina Grande/PB,-7.2246743,-35.8771292,2
1,Manacapuru/AM,-3.2996768,-60.6213528,10
1,Itaboraí/RJ,-22.7496231,-42.8557428,6
1,Guarapuava/PR,-25.3950986,-51.4622016,1
1,Iretama/PR,-24.4212538,-52.1023538,1
1,Umuarama/PR,-23.7617057,-53.3079895,2
1,União da Vitória/PR,-26.228596,-51.0869796,2
1,Maranguape/CE,-3.8922967,-38.6835427,2
0,NÃO ESPECIFICADA/GO,-15.9323662,-50.1392928,1
D0,NÃO ESPECIFICADA/GO,-15.9323662,-50.1392928,1
1,Batayporã/MS,-22.2976466,-53.2685608,4
D1,Batayporã/MS,-22.2976466,-53.2685608,1
1,Rio Verde de Mato Grosso/MS,-18.9169208,-54.8410727,1
1,Antônio Carlos/SC,-27.5168462,-48.7684715,8
D1,Antônio Carlos/SC,-27.5168462,-48.7684715,1
1,São Lourenço do Oeste/SC,-26.35566,-52.849837,1
1,São Roque do Canaã/ES,-19.7385942,-40.6598575,1
1,Fernando de Noronha/PE,-3.8561012,-32.4248189,5
1,Resende/RJ,-22.4683626,-44.4463494,2
1,Mangaratiba/RJ,-22.9600193,-44.04111,1
1,Nova Iguaçu/RJ,-22.7592175,-43.4508728,11
1,Goianésia/GO,-15.3118269,-49.1162001,1
1,Águas Lindas de Goiás/GO,-15.7392283,-48.2793357,1
1,Goiana/PE,-7.560603,-34.99591,1
D1,Goiana/PE,-7.560603,-34.99591,1
1,Camaragibe/PE,-8.0213832,-34.9810768,4
1,São Lourenço da Mata/PE,-7.9959607,-35.039335,3
1,São Francisco do Sul/SC,-26.2495087,-48.6308087,1
1,Urussanga/SC,-28.5191381,-49.3201776,1
1,Papanduva/SC,-26.4065885,-50.1457369,2
1,Brusque/SC,-27.0964628,-48.9136323,3
1,Macaíba/RN,-5.8561372,-35.3523774,1
1,Passa e Fica/RN,-6.4356697,-35.6434459,1
1,Monte Alegre/RN,-6.069901,-35.333635,1
1,Parauapebas/PA,-6.0696846,-49.8903283,2
1,Guarapari/ES,-20.6718755,-40.4984617,3
1,Itapemirim/ES,-21.0105534,-40.8351239,1
1,Canguçu/RS,-31.398276,-52.6773522,1
1,Itagibá/BA,-14.2891521,-39.8452592,1
1,Mariópolis/PR,-26.3517858,-52.5491536,1
1,Quatiguá/PR,-23.5669626,-49.9160315,2
1,Dourados/MS,-22.2206145,-54.812208,6
1,Araguaína/TO,-7.193241,-48.2018597,3
1,Quixadá/CE,-4.9706021,-39.0158403,2
1,Caucaia/CE,-3.7300563,-38.6593082,4
1,São José do Divino/PI,-3.8108544,-41.8297546,1
D1,São José do Divino/PI,-3.8108544,-41.8297546,1
1,Parnaíba/PI,-2.9147515,-41.7661953,1
D1,Parnaíba/PI,-2.9147515,-41.7661953,1
D0,NÃO ESPECIFICADA/MT,-12.2115009,-55.5716547,1
1,Sorocaba/SP,-23.501667,-47.458056,8
D1,Sorocaba/SP,-23.501667,-47.458056,2
1,Itamaraju/BA,-17.0363103,-39.527994,1
1,Itororó/BA,-15.1155552,-40.0638651,4
0,FORA DO ESTADO/BA,-12.285251,-41.9294776,3
1,Pojuca/BA,-12.4260268,-38.3266573,1
1,Extrema/MG,-22.8549109,-46.3190079,1
1,Muriaé/MG,-21.130556,-42.366389,3
1,Serra do Salitre/MG,-19.1101839,-46.6809858,1
1,Santa Luzia/MG,-19.7702097,-43.8505291,1
1,São José dos Pinhais/PR,-25.533816,-49.2072163,6
1,Contenda/PR,-25.678811,-49.535044,1
1,Marechal Cândido Rondon/PR,-24.5570477,-54.0571457,2
1,Medianeira/PR,-25.2954233,-54.0940666,3
1,Peabiru/PR,-23.9142123,-52.3455598,1
1,Terra Rica/PR,-22.7264874,-52.6202541,1
1,Castro/PR,-24.794072,-49.9972914,1
1,Acrelândia/AC,-10.0759167,-67.0526898,9
1,Porto Acre/AC,-9.5879722,-67.53307,1
1,Novo Hamburgo/RS,-29.6905705,-51.1429035,14
D1,Novo Hamburgo/RS,-29.6905705,-51.1429035,1
1,Rio das Ostras/RJ,-22.5269448,-41.944972,3
D1,Rio das Ostras/RJ,-22.5269448,-41.944972,1
1,Maricá/RJ,-22.9196772,-42.8184375,5
1,Seropédica/RJ,-22.7438887,-43.6991998,1
1,Tibau/RN,-4.8349636,-37.2542651,1
1,Açu/RN,-5.5836157,-36.9139541,6
1,Caicó/RN,-6.4594544,-37.0971911,1
1,São Gonçalo do Amarante/RN,-5.7932331,-35.3286312,9
1,São José de Mipibu/RN,-6.0746867,-35.2370184,1
1,Itacoatiara/AM,-3.1477898,-58.4461041,4
1,Anori/AM,-3.7435254,-61.6605203,1
1,Indaial/SC,-26.900011,-49.2370602,1
0,NÃO ESPECIFICADA/RN,-5.6781175,-36.4781776,1
D0,NÃO ESPECIFICADA/RN,-5.6781175,-36.4781776,2
1,Itaitinga/CE,-3.965768,-38.529763,1
1,Maracanaú/CE,-3.8779438,-38.6247697,2
1,São Mateus/ES,-18.7157663,-39.8492211,3
D0,NÃO ESPECIFICADA/MG,-18.5264844,-44.1588654,2
1,Manhuaçu/MG,-20.2574434,-42.0340769,1
1,Unaí/MG,-16.3628767,-46.892413,1
1,Itumbiara/GO,-18.4135862,-49.2172596,2
1,Palmares/PE,-8.684226,-35.589032,1
1,Rio Branco do Sul/PR,-25.1885374,-49.3119082,1
1,Matinhos/PR,-25.8187344,-48.5342813,1
1,Almirante Tamandaré/PR,-25.3133048,-49.2997838,3
1,Queimados/RJ,-22.7156978,-43.555754,2
1,São João de Meriti/RJ,-22.8043744,-43.3724125,3
1,Teresópolis/RJ,-22.4164578,-42.975194,1
1,Angra dos Reis/RJ,-23.0063966,-44.316326,1
1,Rio Bonito/RJ,-22.7108378,-42.6271864,2
D1,Rio Bonito/RJ,-22.7108378,-42.6271864,1
1,Brodowski/SP,-20.984532,-47.657217,1
1,Cajamar/SP,-23.3561111,-46.8769444,1
1,Itapevi/SP,-23.54888,-46.933889,6
1,Itupeva/SP,-23.1531055,-47.0580347,1
1,Jandira/SP,-23.5282044,-46.9019554,2
1,Penápolis/SP,-21.4192406,-50.0765588,1
1,Piracicaba/SP,-22.72528,-47.64917,5
1,Paulínia/SP,-22.7630391,-47.1532213,1
1,Santos/SP,-23.960833,-46.333889,55
1,Novo Airão/AM,-2.6260236,-60.9434406,1
1,Apodi/RN,-5.6631109,-37.796927,1
0,FORA DO ESTADO/RN,-5.6781175,-36.4781776,3
1,Luís Gomes/RN,-6.4141793,-38.3872939,1
1,Carnaubais/RN,-5.3383681,-36.8335566,1
1,Dias d'Ávila/BA,-12.6107233,-38.3028518,1
1,Rondonópolis/MT,-16.4603533,-54.6397099,6
1,Jaru/RO,-10.431826,-62.478769,1
D1,Jaru/RO,-10.431826,-62.478769,1
1,Taquari/RS,-29.79433,-51.865346,1
1,Gravataí/RS,-29.9440222,-50.9930938,9
1,Pescaria Brava/SC,-28.3845591,-48.8658054,1
1,Patos/PB,-7.0258285,-37.2766817,1
D1,Patos/PB,-7.0258285,-37.2766817,1
1,Beberibe/CE,-4.1810469,-38.1298101,1
1,Alfenas/MG,-21.4297405,-45.9479419,1
1,Abaetetuba/PA,-1.721828,-48.878843,1
1,Capão do Leão/RS,-31.766133,-52.5013148,1
1,Cachoeirinha/RS,-29.9493353,-51.0898927,2
1,Paranaiguara/GO,-18.9137048,-50.6536307,1
1,Ipubi/PE,-7.6535334,-40.1494078,1
D0,NÃO ESPECIFICADA/AM,-4.479925,-63.5185396,4
1,Lapa/PR,-25.76709,-49.716777,1
1,Quatro Barras/PR,-25.3708987,-49.0745672,1
1,Francisco Beltrão/PR,-26.0790979,-53.0533527,1
1,Verê/PR,-25.8812309,-52.9081757,1
1,Barra/BA,-11.0892702,-43.1420453,1
1,Candeias/BA,-12.6693806,-38.5406462,1
1,Itajuípe/BA,-14.6744381,-39.3759427,3
1,Coaraci/BA,-14.6407979,-39.5496765,1
1,Nova Soure/BA,-11.2409332,-38.4774123,1
1,Medeiros Neto/BA,-17.3714581,-40.2224736,1
1,Tucuruí/PA,-3.7738509,-49.6708204,1
1,Marituba/PA,-1.3595306,-48.3361504,1
1,São Domingos do Sul/RS,-28.5297239,-51.8905306,1
1,Viana/ES,-20.3914471,-40.4966587,1
1,Votuporanga/SP,-20.4252506,-49.97226,1
1,Votorantim/SP,-23.5466667,-47.4377778,2
1,São Vicente/SP,-23.9603686,-46.3847024,4
1,Vinhedo/SP,-23.0295183,-46.9756292,1
1,São José do Rio Pardo/SP,-21.595288,-46.887303,1
1,Santa Isabel/SP,-23.3194222,-46.2271903,1
1,Salto de Pirapora/SP,-23.6492626,-47.5729991,1
1,Pirajuí/SP,-21.9957877,-49.4549675,1
1,Lençóis Paulista/SP,-22.6029897,-48.8031367,1
1,Araçatuba/SP,-21.207992,-50.4390225,2
1,Americana/SP,-22.7392463,-47.3306032,2
1,Matão/SP,-21.6033611,-48.3660603,2
1,Cachoeira Paulista/SP,-22.666498,-45.015384,1
1,Guarujá/SP,-23.9927768,-46.2558332,3
1,Itapecerica da Serra/SP,-23.7176303,-46.8492435,6
D1,Itapecerica da Serra/SP,-23.7176303,-46.8492435,1
1,Itaquaquecetuba/SP,-23.4754492,-46.3514033,9
1,Franco da Rocha/SP,-23.3328038,-46.724446,6
D1,Franco da Rocha/SP,-23.3328038,-46.724446,1
1,Mogi Guaçu/SP,-22.372222,-46.9425,1
1,Alcinópolis/MS,-18.3264121,-53.7094463,1
1,Nova Andradina/MS,-22.2477565,-53.3480621,2
1,Santa Quitéria/CE,-4.3336553,-40.1544913,1
D1,Santa Quitéria/CE,-4.3336553,-40.1544913,1
1,São Pedro da Aldeia/RJ,-22.8384835,-42.1031604,1
1,Macaé/RJ,-22.3712958,-41.7866922,2
1,Assis Chateaubriand/PR,-24.4054826,-53.5120468,1
1,Ibaiti/PR,-23.8452962,-50.1905666,1
1,Fazenda Rio Grande/PR,-25.645841,-49.3126653,1
1,Araucária/PR,-25.5861107,-49.4051209,2
1,Arapongas/PR,-23.415296,-51.42592,2
1,Cambé/PR,-23.2782035,-51.2779583,2
1,Barra do Rocha/BA,-14.2090974,-39.6004395,1
1,Ipiaú/BA,-14.1318211,-39.7373177,1
1,Vitória da Conquista/BA,-14.8567487,-40.8414804,1
0,NÃO ESPECIFICADA/RJ,-22.2752762,-42.419415,1
D0,NÃO ESPECIFICADA/RJ,-22.2752762,-42.419415,6
1,Arraial do Cabo/RJ,-22.9662839,-42.024427,1
D1,Arraial do Cabo/RJ,-22.9662839,-42.024427,1
1,Alegrete/RS,-29.790166,-55.794862,1
1,São Sebastião do Caí/RS,-29.5911777,-51.3778772,2
1,Araguari/MG,-18.6511256,-48.1933764,1
1,Lavras/MG,-21.2425512,-44.9991978,1
1,Capitólio/MG,-20.6142437,-46.0487652,1
1,Pouso Alegre/MG,-22.2343858,-45.9327241,3
1,Careiro da Várzea/AM,-3.197024,-59.8259104,1
1,Aliança/PE,-7.60398,-35.222696,1
1,Indaiatuba/SP,-23.09028,-47.21806,2
1,Itanhaém/SP,-24.1848847,-46.7921572,2
1,Limeira/SP,-22.5615068,-47.401766,2
1,Porto Feliz/SP,-23.2137274,-47.5190176,1
1,Praia Grande/SP,-24.005833,-46.402778,2
1,Campestre de Goiás/GO,-16.7624179,-49.69497,1
1,Cidade Ocidental/GO,-16.1000758,-47.9445014,1
1,Trindade/GO,-16.6549924,-49.4876203,1
1,Três Lagoas/MS,-20.7866799,-51.7061247,1
1,Afonso Cláudio/ES,-20.077841,-41.12606,1
1,Aracruz/ES,-19.8245218,-40.2735025,1
1,Santarém/PA,-2.438489,-54.699611,5
D1,Santarém/PA,-2.438489,-54.699611,1
1,Barcarena/PA,-1.5107945,-48.6190679,1
1,Açailândia/MA,-4.9514278,-47.4844564,1
1,Eusébio/CE,-3.8889838,-38.4546585,1
D1,Eusébio/CE,-3.8889838,-38.4546585,1
1,Tianguá/CE,-3.7307332,-41.0004019,2
D1,Tianguá/CE,-3.7307332,-41.0004019,1
1,Cabedelo/PB,-6.97324,-34.8351609,1
1,Paranaguá/PR,-25.5121904,-48.5251854,2
1,Mandirituba/PR,-25.7768553,-49.3281769,1
1,Palmeira/PR,-25.4269718,-49.9987787,1
1,Goioerê/PR,-24.1851885,-53.0250623,1
1,Terra Boa/PR,-23.768329,-52.447002,1
1,São Manoel do Paraná/PR,-23.394137,-52.645376,1
1,Cornélio Procópio/PR,-23.1825218,-50.6499263,1
1,Leópolis/PR,-23.0789091,-50.7501808,1
1,Icó/CE,-6.4003992,-38.8575946,2
1,Itapipoca/CE,-3.499329,-39.583571,1
1,Jaguaribe/CE,-5.8854585,-38.6212957,1
D1,Jaguaribe/CE,-5.8854585,-38.6212957,1
1,Fundão/ES,-19.9332174,-40.4049674,1
1,Sooretama/ES,-19.1918129,-40.1037067,2
1,Biguaçu/SC,-27.4961277,-48.6542432,1
1,Joaçaba/SC,-27.1737204,-51.5065214,1
1,Paulo Lopes/SC,-27.964968,-48.6830299,1
1,Guaíba/RS,-30.1130731,-51.329442,1
1,Sapucaia do Sul/RS,-29.8197019,-51.1608722,1
1,São Gabriel/RS,-30.334214,-54.3227149,1
1,Tramandaí/RS,-29.9855339,-50.1316076,1
1,Uruguaiana/RS,-29.7564894,-57.0867197,1
1,Vila Maria/RS,-28.53429,-52.1548439,1
1,Lucas do Rio Verde/MT,-13.0655935,-55.9198356,1
1,Sinop/MT,-11.8508224,-55.5175957,3
1,Tangará da Serra/MT,-14.6213903,-57.4907268,4
1,Tonantins/AM,-2.86261,-67.7735482,3
1,Belmonte/BA,-15.8630837,-38.8792845,1
1,Santa Cruz Cabrália/BA,-16.2815556,-39.0239196,2
1,Arcos/MG,-20.282223,-45.539444,1
1,Barbacena/MG,-21.2254524,-43.7735087,1
1,Ribeirão das Neves/MG,-19.7672898,-44.0875436,1
1,Santana do Paraíso/MG,-19.3652914,-42.5494833,1
1,Santo Antônio do Monte/MG,-20.086944,-45.290555,2
1,Toledo/MG,-22.7433969,-46.3735044,1
1,Capela/SE,-10.50494,-37.0552566,1
1,Ceará-Mirim/RN,-5.633588,-35.4248407,3
1,Cantá/RR,2.60994,-60.605827,3
1,Itaguaí/RJ,-22.8629597,-43.775322,2
1,Magé/RJ,-22.6604221,-43.0426162,4
1,Agudos/SP,-22.471162,-48.987822,1
1,Araraquara/SP,-21.7886713,-48.1773096,2
1,Assis/SP,-22.6620892,-50.420623,1
1,Dracena/SP,-21.4835523,-51.5334408,1
1,Franca/SP,-20.5381768,-47.4009795,2
1,Francisco Morato/SP,-23.2817308,-46.7448996,7
1,Itararé/SP,-24.1145368,-49.3352464,1
1,Itu/SP,-23.2638828,-47.298892,1
1,Jaú/SP,-22.293585,-48.559193,1
1,Águas de Lindóia/SP,-22.4718855,-46.6291034,1
1,Cabo de Santo Agostinho/PE,-8.2838945,-35.0320984,2
1,Paulista/PE,-7.9340069,-34.868407,3
1,Baía Formosa/RN,-6.3691885,-35.0063741,1
1,Caraúbas/RN,-5.7889323,-37.5548751,1
1,Extremoz/RN,-5.7092903,-35.3058914,5
1,Santo Antônio/RN,-6.3124831,-35.4815907,1
1,Bom Jesus de Goiás/GO,-18.2174587,-49.739721,1
1,Nova Veneza/GO,-16.3709074,-49.3212061,1
1,Senador Canedo/GO,-16.7013233,-49.0914921,1
1,São Luís de Montes Belos/GO,-16.5210639,-50.3726281,1
1,Araruna/PR,-23.9320308,-52.4976047,1
1,Campina Grande do Sul/PR,-25.3046032,-49.0545355,1
1,Campo Magro/PR,-25.3691533,-49.4496921,1
1,Colombo/PR,-25.2925439,-49.2243472,1
1,Piraquara/PR,-25.4423273,-49.0604473,1
1,Sarandi/PR,-23.444117,-51.876016,1
0,NÃO ESPECIFICADA/MA,-5.2085503,-45.3930262,7
0,NÃO ESPECIFICADA/AL,-9.6611661,-36.6502426,4
D0,NÃO ESPECIFICADA/AL,-9.6611661,-36.6502426,1
0,NÃO ESPECIFICADA/SE,-10.6743911,-37.3773519,1
1,Araranguá/SC,-28.9348832,-49.4858389,1
1,Governador Celso Ramos/SC,-27.317161,-48.557608,1
1,Irati/SC,-26.6577742,-52.8929851,1
1,Mafra/SC,-26.1150943,-49.8035982,1
1,Morro da Fumaça/SC,-28.6522275,-49.2133979,1
1,Palhoça/SC,-27.6447774,-48.6646323,1
1,Altamira/PA,-3.204065,-52.209961,1
1,Benevides/PA,-1.3555577,-48.252235,1
1,Goianésia do Pará/PA,-3.8380998,-49.0977992,1
1,Novo Progresso/PA,-7.0374884,-55.4185904,1
1,Oeiras do Pará/PA,-2.0040813,-49.8596065,1
1,São Geraldo do Araguaia/PA,-6.394715,-48.559169,1
1,Araruama/RJ,-22.8733203,-42.3428897,1
1,Barra do Piraí/RJ,-22.4703403,-43.8263256,2
1,Iguaba Grande/RJ,-22.8388498,-42.2286746,1
1,Nilópolis/RJ,-22.8080114,-43.4138222,1
1,Porciúncula/RJ,-20.9627278,-42.0405703,1
1,Três Rios/RJ,-22.1167884,-43.2087226,1
1,Campo Maior/PI,-4.8339574,-42.1739786,1
1,Esmeraldas/MG,-19.7613111,-44.3145945,1
1,Itabira/MG,-19.6186264,-43.2267011,1
1,Utinga/BA,-12.0781018,-41.090787,1
1,Adamantina/SP,-21.6866517,-51.0762975,1
1,Atibaia/SP,-23.1177393,-46.5547861,2
1,Bauru/SP,-22.3218102,-49.0705863,2
1,Cravinhos/SP,-21.340278,-47.729444,1
D1,Cravinhos/SP,-21.340278,-47.729444,1
1,Diadema/SP,-23.681347,-46.62052,20
D1,Diadema/SP,-23.681347,-46.62052,1
1,Jaboticabal/SP,-21.252037,-48.325223,3
D1,Jaboticabal/SP,-21.252037,-48.325223,1
1,Marília/SP,-22.217108,-49.95006,1
1,Promissão/SP,-21.5404913,-49.8574709,1
1,Rio Claro/SP,-22.4100108,-47.5603933,1
1,Canindé/CE,-4.3547946,-39.3108516,1
1,Farias Brito/CE,-6.9272823,-39.5714222,1
D1,Farias Brito/CE,-6.9272823,-39.5714222,1
1,Fortim/CE,-4.451256,-37.798056,1
1,Ipaporanga/CE,-4.903227,-40.760079,1
