type,name,lat,lon,total,total_per_100k_inhabitants
1,Abadia de Goiás/GO,-16.7572644,-49.4412205,1737,19390.48895
D1,Abadia de Goiás/GO,-16.7572644,-49.4412205,37,413.03862
1,Abadia dos Dourados/MG,-18.4911191,-47.4063589,554,7907.50785
D1,Abadia dos Dourados/MG,-18.4911191,-47.4063589,17,242.64916
1,Abadiânia/GO,-16.1940946,-48.7067767,499,2438.78598
D1,Abadiânia/GO,-16.1940946,-48.7067767,42,205.26856
1,Abaetetuba/PA,-1.721828,-48.878843,9226,5799.59769
D1,Abaetetuba/PA,-1.721828,-48.878843,224,140.80966
1,Abaeté/MG,-19.1566833,-45.4481213,1584,6812.90323
D1,Abaeté/MG,-19.1566833,-45.4481213,38,163.44086
1,Abaiara/CE,-7.3607808,-39.0487878,623,5256.05332
D1,Abaiara/CE,-7.3607808,-39.0487878,15,126.55024
1,Abaré/BA,-8.7239913,-39.1139689,1023,5027.76822
D1,Abaré/BA,-8.7239913,-39.1139689,11,54.06202
1,Abatiá/PR,-23.3052967,-50.3102532,1118,15091.79266
D1,Abatiá/PR,-23.3052967,-50.3102532,20,269.97840
1,Abaíra/BA,-13.2503296,-41.6640342,297,3409.87371
D1,Abaíra/BA,-13.2503296,-41.6640342,12,137.77268
1,Abdon Batista/SC,-27.612419,-51.022992,441,17307.69231
D1,Abdon Batista/SC,-27.612419,-51.022992,4,156.98587
1,Abel Figueiredo/PA,-4.953001,-48.3958485,1069,14279.98931
D1,Abel Figueiredo/PA,-4.953001,-48.3958485,11,146.94096
1,Abelardo Luz/SC,-26.5705893,-52.3280339,1668,9287.30512
D1,Abelardo Luz/SC,-26.5705893,-52.3280339,60,334.07572
1,Abre Campo/MG,-20.2976097,-42.4764741,1263,9394.52544
D1,Abre Campo/MG,-20.2976097,-42.4764741,16,119.01220
1,Abreu e Lima/PE,-7.900719,-34.898389,3347,3335.45931
D1,Abreu e Lima/PE,-7.900719,-34.898389,240,239.17246
1,Abreulândia/TO,-9.6221526,-49.1558343,306,11796.45335
D1,Abreulândia/TO,-9.6221526,-49.1558343,6,231.30301
1,Acaiaca/MG,-20.3621646,-43.1444162,231,5783.67551
D1,Acaiaca/MG,-20.3621646,-43.1444162,11,275.41312
1,Acajutiba/BA,-11.6609659,-38.0186381,571,3759.79456
D1,Acajutiba/BA,-11.6609659,-38.0186381,20,131.69158
1,Acarape/CE,-4.2237866,-38.7071663,2832,18834.79649
D1,Acarape/CE,-4.2237866,-38.7071663,31,206.17185
1,Acaraú/CE,-2.8869514,-40.1194713,5119,8112.00558
D1,Acaraú/CE,-2.8869514,-40.1194713,112,177.48479
1,Acari/RN,-6.4364689,-36.6394777,1117,10044.06079
D1,Acari/RN,-6.4364689,-36.6394777,19,170.84795
1,Acará/PA,-1.961388,-48.1987043,1641,2947.78063
D1,Acará/PA,-1.961388,-48.1987043,36,64.66795
1,Acauã/PI,-8.219542,-41.083059,209,2942.83300
D1,Acauã/PI,-8.219542,-41.083059,1,14.08054
1,Aceguá/RS,-31.8695131,-54.1615593,374,7567.78632
D1,Aceguá/RS,-31.8695131,-54.1615593,7,141.64306
1,Acopiara/CE,-6.0936464,-39.4543204,4038,7411.75823
D1,Acopiara/CE,-6.0936464,-39.4543204,148,271.65434
1,Acorizal/MT,-15.2001544,-56.3668953,714,13385.82677
D1,Acorizal/MT,-15.2001544,-56.3668953,21,393.70079
1,Acrelândia/AC,-10.0759167,-67.0526898,1796,11594.57715
D1,Acrelândia/AC,-10.0759167,-67.0526898,37,238.86378
1,Acreúna/GO,-17.3959899,-50.3749031,2542,11274.72722
D1,Acreúna/GO,-17.3959899,-50.3749031,57,252.81646
1,Adamantina/SP,-21.6866517,-51.0762975,3747,10671.86921
D1,Adamantina/SP,-21.6866517,-51.0762975,130,370.25434
1,Adelândia/GO,-16.4155077,-50.1665834,227,9022.25755
D1,Adelândia/GO,-16.4155077,-50.1665834,4,158.98251
1,Adolfo/SP,-21.2356597,-49.6441918,622,17501.40687
D1,Adolfo/SP,-21.2356597,-49.6441918,19,534.60889
1,Adrianópolis/PR,-24.6557863,-48.9912769,1414,24142.05225
D1,Adrianópolis/PR,-24.6557863,-48.9912769,29,495.13403
1,Adustina/BA,-10.5358875,-38.114479,1069,6241.97127
D1,Adustina/BA,-10.5358875,-38.114479,26,151.81595
1,Afogados da Ingazeira/PE,-7.750429,-37.6356375,5221,13958.40017
D1,Afogados da Ingazeira/PE,-7.750429,-37.6356375,73,195.16629
1,Afonso Bezerra/RN,-5.4745,-36.57625071327935,791,7172.00109
D1,Afonso Bezerra/RN,-5.4745,-36.57625071327935,18,163.20609
1,Afonso Cláudio/ES,-20.077841,-41.12606,3544,11636.84124
D1,Afonso Cláudio/ES,-20.077841,-41.12606,62,203.57905
1,Afonso Cunha/MA,-4.1326105,-43.3230026,267,4058.98449
D1,Afonso Cunha/MA,-4.1326105,-43.3230026,3,45.60657
1,Afrânio/PE,-8.5198919,-41.0070197,970,4896.51691
D1,Afrânio/PE,-8.5198919,-41.0070197,15,75.71933
1,Afuá/PA,-0.1535664,-50.3879223,3087,7801.95618
D1,Afuá/PA,-0.1535664,-50.3879223,16,40.43774
1,Agrestina/PE,-8.4558021,-35.9442663,1749,6977.85757
D1,Agrestina/PE,-8.4558021,-35.9442663,67,267.30501
1,Agricolândia/PI,-5.7967843,-42.6605131,538,10485.28552
D1,Agricolândia/PI,-5.7967843,-42.6605131,8,155.91503
1,Agrolândia/SC,-27.4122212,-49.8295774,1684,15291.01970
D1,Agrolândia/SC,-27.4122212,-49.8295774,29,263.32516
1,Agronômica/SC,-27.2660744,-49.7104753,670,12161.91686
D1,Agronômica/SC,-27.2660744,-49.7104753,14,254.12961
1,Aguanil/MG,-20.9424533,-45.3927152,677,14971.25166
D1,Aguanil/MG,-20.9424533,-45.3927152,8,176.91287
1,Aguaí/SP,-22.0592036,-46.979384,3553,9694.93560
D1,Aguaí/SP,-22.0592036,-46.979384,109,297.42414
1,Agudo/RS,-29.6423259,-53.2494005,1804,10999.32931
D1,Agudo/RS,-29.6423259,-53.2494005,29,176.81849
1,Agudos do Sul/PR,-25.9890808,-49.3328175,752,7940.86589
D1,Agudos do Sul/PR,-25.9890808,-49.3328175,30,316.78986
1,Agudos/SP,-22.471162,-48.987822,4639,12403.41167
D1,Agudos/SP,-22.471162,-48.987822,108,288.76233
1,Aguiar/PB,-7.0928404,-38.1727215,529,9396.09236
D1,Aguiar/PB,-7.0928404,-38.1727215,5,88.80995
1,Aguiarnópolis/TO,-6.5600452,-47.4721189,672,9750.43529
D1,Aguiarnópolis/TO,-6.5600452,-47.4721189,13,188.62449
1,Aimorés/MG,-19.4917754,-41.0615603,2071,8237.54027
D1,Aimorés/MG,-19.4917754,-41.0615603,73,290.36236
1,Aiquara/BA,-14.126918,-39.8887574,498,11277.17391
D1,Aiquara/BA,-14.126918,-39.8887574,12,271.73913
1,Aiuaba/CE,-6.5710836,-40.1212278,836,4779.05448
D1,Aiuaba/CE,-6.5710836,-40.1212278,11,62.88230
1,Aiuruoca/MG,-21.9759554,-44.6036637,336,5622.48996
D1,Aiuruoca/MG,-21.9759554,-44.6036637,9,150.60241
1,Ajuricaba/RS,-28.239654,-53.7693013,1277,18276.79977
D1,Ajuricaba/RS,-28.239654,-53.7693013,30,429.36883
1,Alagoa Grande/PB,-7.0415212,-35.6285322,4124,14501.21312
D1,Alagoa Grande/PB,-7.0415212,-35.6285322,72,253.17346
1,Alagoa Nova/PB,-7.0653703,-35.76695977336711,1540,7361.02481
D1,Alagoa Nova/PB,-7.0653703,-35.76695977336711,26,124.27704
1,Alagoa/MG,-22.1697202,-44.6400042,444,16660.41276
D1,Alagoa/MG,-22.1697202,-44.6400042,7,262.66417
1,Alagoinha do Piauí/PI,-7.0090952,-40.939675,389,5075.01631
D1,Alagoinha do Piauí/PI,-7.0090952,-40.939675,10,130.46314
1,Alagoinha/PB,-6.97063215,-35.51490901897793,2077,14265.10989
D1,Alagoinha/PB,-6.97063215,-35.51490901897793,25,171.70330
1,Alagoinha/PE,-8.50355635,-36.77701174370496,1405,9546.13399
D1,Alagoinha/PE,-8.50355635,-36.77701174370496,28,190.24324
1,Alagoinhas/BA,-12.133526,-38.420772,14481,9506.52215
D1,Alagoinhas/BA,-12.133526,-38.420772,321,210.73086
1,Alambari/SP,-23.550338,-47.897971,650,10605.31898
D1,Alambari/SP,-23.550338,-47.897971,11,179.47463
1,Albertina/MG,-20.66164,-43.784039,260,8635.00498
D1,Albertina/MG,-20.66164,-43.784039,9,298.90402
1,Alcantil/PB,-7.7425491,-36.0609604,678,12307.13378
D1,Alcantil/PB,-7.7425491,-36.0609604,7,127.06480
1,Alcinópolis/MS,-18.3264121,-53.7094463,420,7753.36902
D1,Alcinópolis/MS,-18.3264121,-53.7094463,9,166.14362
1,Alcobaça/BA,-17.5215875,-39.1965474,1688,7505.55803
D1,Alcobaça/BA,-17.5215875,-39.1965474,30,133.39262
1,Alcântara/MA,-2.4038956,-44.4154241,336,1519.53690
D1,Alcântara/MA,-2.4038956,-44.4154241,19,85.92619
1,Alcântaras/CE,-3.586247,-40.5457641,1788,15176.97988
D1,Alcântaras/CE,-3.586247,-40.5457641,22,186.74136
1,Aldeias Altas/MA,-4.6291957,-43.4708622,977,3651.38095
D1,Aldeias Altas/MA,-4.6291957,-43.4708622,14,52.32276
1,Alecrim/RS,-27.6566142,-54.7653195,315,5405.86923
D1,Alecrim/RS,-27.6566142,-54.7653195,12,205.93788
1,Alegre/ES,-20.7625787,-41.5318886,2986,9961.63470
D1,Alegre/ES,-20.7625787,-41.5318886,68,226.85571
1,Alegrete do Piauí/PI,-7.2440138,-40.8602296,523,10634.40423
D1,Alegrete do Piauí/PI,-7.2440138,-40.8602296,6,122.00081
1,Alegrete/RS,-29.790166,-55.794862,11080,15172.26269
D1,Alegrete/RS,-29.790166,-55.794862,292,399.84663
1,Alegria/RS,-27.8332103,-54.0574959,396,11736.81091
D1,Alegria/RS,-27.8332103,-54.0574959,4,118.55365
1,Alenquer/PA,-1.946229,-54.738355,3615,6331.88538
D1,Alenquer/PA,-1.946229,-54.738355,141,246.96980
1,Alexandria/RN,-6.414779,-38.0135516,1890,13945.25197
D1,Alexandria/RN,-6.414779,-38.0135516,31,228.73165
1,Alexânia/GO,-16.0834049,-48.5077803,3436,12267.04748
D1,Alexânia/GO,-16.0834049,-48.5077803,84,299.89290
1,Alfenas/MG,-21.4297405,-45.9479419,10567,13127.68654
D1,Alfenas/MG,-21.4297405,-45.9479419,202,250.95038
1,Alfredo Chaves/ES,-20.624970400000002,-40.75006690147988,2585,17661.92949
D1,Alfredo Chaves/ES,-20.624970400000002,-40.75006690147988,36,245.96884
1,Alfredo Marcondes/SP,-21.9527,-51.413956,261,6238.04971
D1,Alfredo Marcondes/SP,-21.9527,-51.413956,13,310.70746
1,Alfredo Vasconcelos/MG,-21.145833,-43.776389,617,8838.27532
D1,Alfredo Vasconcelos/MG,-21.145833,-43.776389,13,186.21974
1,Alfredo Wagner/SC,-27.6961513,-49.3326734,1098,10886.37716
D1,Alfredo Wagner/SC,-27.6961513,-49.3326734,6,59.48840
1,Algodão de Jandaíra/PB,-6.9040175,-36.0089879,251,9740.00776
D1,Algodão de Jandaíra/PB,-6.9040175,-36.0089879,1,38.80481
1,Alhandra/PB,-7.4304246,-34.9106103,2433,12333.35023
D1,Alhandra/PB,-7.4304246,-34.9106103,37,187.56020
1,Aliança do Tocantins/TO,-11.3055927,-48.9409096,722,13505.42462
D1,Aliança do Tocantins/TO,-11.3055927,-48.9409096,22,411.52263
1,Aliança/PE,-7.60398,-35.222696,682,1776.18043
D1,Aliança/PE,-7.60398,-35.222696,63,164.07532
1,Almadina/BA,-14.70466,-39.6381994,636,11852.40403
D1,Almadina/BA,-14.70466,-39.6381994,10,186.35855
1,Almas/TO,-11.5681309,-47.1702803,239,3424.55939
D1,Almas/TO,-11.5681309,-47.1702803,5,71.64350
1,Almeirim/PA,-1.5290377,-52.5788111,3746,10993.07430
D1,Almeirim/PA,-1.5290377,-52.5788111,48,140.86160
1,Almenara/MG,-16.1740678,-40.6904907,4517,10718.26875
D1,Almenara/MG,-16.1740678,-40.6904907,51,121.01654
1,Almino Afonso/RN,-6.1544208,-37.7649018,509,10806.79406
D1,Almino Afonso/RN,-6.1544208,-37.7649018,13,276.00849
1,Almirante Tamandaré do Sul/RS,-28.1141129,-52.9134874,333,17085.68497
D1,Almirante Tamandaré do Sul/RS,-28.1141129,-52.9134874,7,359.15854
1,Almirante Tamandaré/PR,-25.3133048,-49.2997838,10788,8986.92947
D1,Almirante Tamandaré/PR,-25.3133048,-49.2997838,423,352.37960
1,Aloândia/GO,-17.7277983,-49.4809338,327,16465.25680
D1,Aloândia/GO,-17.7277983,-49.4809338,11,553.87714
1,Alpercata/MG,-18.9803616,-41.9827637,500,6724.04519
D1,Alpercata/MG,-18.9803616,-41.9827637,20,268.96181
1,Alpestre/RS,-27.2512339,-53.0349646,530,8735.78375
D1,Alpestre/RS,-27.2512339,-53.0349646,12,197.79133
1,Alpinópolis/MG,-20.863611,-46.387777,1682,8427.69817
D1,Alpinópolis/MG,-20.863611,-46.387777,38,190.39984
1,Alta Floresta D'Oeste/RO,-11.9296917,-61.9961284,4052,17828.22950
D1,Alta Floresta D'Oeste/RO,-11.9296917,-61.9961284,65,285.99085
1,Alta Floresta/MT,-9.8715018,-56.0839881,9975,19197.82906
D1,Alta Floresta/MT,-9.8715018,-56.0839881,143,275.21700
1,Altair/SP,-20.5238955,-49.0606135,333,7955.08839
D1,Altair/SP,-20.5238955,-49.0606135,16,382.22647
1,Altamira do Maranhão/MA,-4.1643006,-45.4674574,339,4139.69960
D1,Altamira do Maranhão/MA,-4.1643006,-45.4674574,14,170.96105
1,Altamira do Paraná/PR,-24.799114,-52.7128633,251,14922.71106
D1,Altamira do Paraná/PR,-24.799114,-52.7128633,12,713.43639
1,Altamira/PA,-3.204065,-52.209961,14048,12113.58208
D1,Altamira/PA,-3.204065,-52.209961,305,263.00132
1,Altaneira/CE,-6.9980933,-39.7385742,679,8875.81699
D1,Altaneira/CE,-6.9980933,-39.7385742,15,196.07843
1,Alterosa/MG,-21.249166,-46.143055,793,5462.56114
D1,Alterosa/MG,-21.249166,-46.143055,33,227.31969
1,Altinho/PE,-8.4904095,-36.0607494,1371,5965.01914
D1,Altinho/PE,-8.4904095,-36.0607494,29,126.17473
1,Altinópolis/SP,-21.021364,-47.3712,1012,6245.75696
D1,Altinópolis/SP,-21.021364,-47.3712,49,302.41313
1,Alto Alegre do Maranhão/MA,-4.2055693,-44.4525287,1337,4799.33951
D1,Alto Alegre do Maranhão/MA,-4.2055693,-44.4525287,28,100.50973
1,Alto Alegre do Pindaré/MA,-3.6698186,-45.8462153,2214,6931.09601
D1,Alto Alegre do Pindaré/MA,-3.6698186,-45.8462153,47,147.13709
1,Alto Alegre dos Parecis/RO,-12.1314515,-61.856265,1484,11195.77518
D1,Alto Alegre dos Parecis/RO,-12.1314515,-61.856265,45,339.49453
1,Alto Alegre/RR,2.98858,-61.307167,1579,10266.57997
D1,Alto Alegre/RR,2.98858,-61.307167,36,234.07022
1,Alto Alegre/RS,-31.780844700000003,-52.81311114489171,211,13081.21513
D1,Alto Alegre/RS,-31.780844700000003,-52.81311114489171,1,61.99628
1,Alto Alegre/SP,-21.5820592,-50.1661976,394,9637.96477
D1,Alto Alegre/SP,-21.5820592,-50.1661976,21,513.69863
1,Alto Araguaia/MT,-17.3156528,-53.2169365,1584,8171.26644
D1,Alto Araguaia/MT,-17.3156528,-53.2169365,29,149.60021
1,Alto Bela Vista/SC,-27.4320737,-51.905771,199,10332.29491
D1,Alto Bela Vista/SC,-27.4320737,-51.905771,3,155.76324
1,Alto Boa Vista/MT,-11.6723985,-51.3744431,847,12211.64937
D1,Alto Boa Vista/MT,-11.6723985,-51.3744431,17,245.09804
1,Alto Caparaó/MG,-20.4405661,-41.8683799,430,7295.55480
D1,Alto Caparaó/MG,-20.4405661,-41.8683799,9,152.69766
1,Alto Feliz/RS,-29.3785943,-51.3123751,308,10144.92754
D1,Alto Feliz/RS,-29.3785943,-51.3123751,2,65.87615
1,Alto Garças/MT,-16.9469683,-53.529427,1132,9316.10567
D1,Alto Garças/MT,-16.9469683,-53.529427,42,345.65056
1,Alto Horizonte/GO,-14.1954948,-49.3366993,1080,16351.24905
D1,Alto Horizonte/GO,-14.1954948,-49.3366993,14,211.96064
1,Alto Jequitibá/MG,-20.423611,-41.966111,930,11203.46946
D1,Alto Jequitibá/MG,-20.423611,-41.966111,11,132.51415
1,Alto Longá/PI,-5.2549051,-42.2072388,688,4798.10308
D1,Alto Longá/PI,-5.2549051,-42.2072388,15,104.60981
1,Alto Paraguai/MT,-14.513712,-56.4936374,917,7992.67846
D1,Alto Paraguai/MT,-14.513712,-56.4936374,28,244.05125
1,Alto Paraná/PR,-23.131247,-52.318893,1270,8547.00855
D1,Alto Paraná/PR,-23.131247,-52.318893,26,174.97813
1,Alto Paraíso de Goiás/GO,-14.1304779,-47.5100161,704,9157.12799
D1,Alto Paraíso de Goiás/GO,-14.1304779,-47.5100161,8,104.05827
1,Alto Paraíso/PR,-23.508137,-53.728537,347,12923.64991
D1,Alto Paraíso/PR,-23.508137,-53.728537,7,260.70764
1,Alto Paraíso/RO,-9.7240103,-63.3188123,1874,8577.83677
D1,Alto Paraíso/RO,-9.7240103,-63.3188123,49,224.28709
1,Alto Parnaíba/MA,-9.112506,-45.9310154,1017,9070.63860
D1,Alto Parnaíba/MA,-9.112506,-45.9310154,11,98.10917
1,Alto Piquiri/PR,-24.0239021,-53.4417448,1088,11127.01984
D1,Alto Piquiri/PR,-24.0239021,-53.4417448,27,276.13009
1,Alto Rio Doce/MG,-21.0239537,-43.4133507,550,5064.92311
D1,Alto Rio Doce/MG,-21.0239537,-43.4133507,30,276.26853
1,Alto Rio Novo/ES,-19.0577208,-41.0171518,784,9956.81991
D1,Alto Rio Novo/ES,-19.0577208,-41.0171518,23,292.10058
1,Alto Santo/CE,-5.5190371,-38.2719351,1932,11235.17097
D1,Alto Santo/CE,-5.5190371,-38.2719351,35,203.53571
1,Alto Taquari/MT,-17.8269099,-53.2831736,1632,14659.12153
D1,Alto Taquari/MT,-17.8269099,-53.2831736,29,260.48684
1,Alto do Rodrigues/RN,-5.290868,-36.7616726,2546,17286.80065
D1,Alto do Rodrigues/RN,-5.290868,-36.7616726,41,278.38131
1,Altos/PI,-5.0393915,-42.4611694,4578,11274.47359
D1,Altos/PI,-5.0393915,-42.4611694,90,221.64758
1,Altônia/PR,-23.8722004,-53.894037,1551,6994.04762
D1,Altônia/PR,-23.8722004,-53.894037,37,166.84704
1,Alumínio/SP,-23.5203479,-47.2575256,1599,8520.27495
D1,Alumínio/SP,-23.5203479,-47.2575256,52,277.08211
1,Alvarenga/MG,-19.4175,-41.728334,514,13371.48803
D1,Alvarenga/MG,-19.4175,-41.728334,4,104.05827
1,Alvarães/AM,-3.214786,-64.8143124,2908,17928.48335
D1,Alvarães/AM,-3.214786,-64.8143124,46,283.60049
1,Alvinlândia/SP,-22.4431852,-49.7643596,141,4355.88508
D1,Alvinlândia/SP,-22.4431852,-49.7643596,9,278.03522
1,Alvinópolis/MG,-20.1105199,-43.0601805,785,5175.02802
D1,Alvinópolis/MG,-20.1105199,-43.0601805,22,145.03263
1,Alvorada D'Oeste/RO,-11.346271,-62.284697,1161,8230.54020
D1,Alvorada D'Oeste/RO,-11.346271,-62.284697,29,205.58628
1,Alvorada de Minas/MG,-18.7318587,-43.3641479,282,7822.46879
D1,Alvorada de Minas/MG,-18.7318587,-43.3641479,3,83.21775
1,Alvorada do Gurguéia/PI,-8.4465288,-43.8655915,442,8117.53903
D1,Alvorada do Gurguéia/PI,-8.4465288,-43.8655915,11,202.02020
1,Alvorada do Norte/GO,-14.483911,-46.4959897,813,9339.46008
D1,Alvorada do Norte/GO,-14.483911,-46.4959897,10,114.87651
1,Alvorada do Sul/PR,-22.7807269,-51.2307721,847,7363.29653
D1,Alvorada do Sul/PR,-22.7807269,-51.2307721,29,252.10815
1,Alvorada/RS,-29.9981184,-51.0772509,22292,10547.33336
D1,Alvorada/RS,-29.9981184,-51.0772509,788,372.83773
1,Alvorada/TO,-12.478465,-49.124926,1457,17353.50167
D1,Alvorada/TO,-12.478465,-49.124926,25,297.76084
1,Além Paraíba/MG,-21.8760576,-42.6810473,3436,9705.94051
D1,Além Paraíba/MG,-21.8760576,-42.6810473,152,429.36640
1,Amajari/RR,3.6523869,-61.4194315,1158,8782.70762
D1,Amajari/RR,3.6523869,-61.4194315,21,159.27190
1,Amambai/MS,-23.1082701,-55.2284854,3275,8223.27123
D1,Amambai/MS,-23.1082701,-55.2284854,83,208.40657
1,Amaporã/PR,-23.094272,-52.786597,461,7280.48010
D1,Amaporã/PR,-23.094272,-52.786597,7,110.54959
1,Amapá do Maranhão/MA,-1.6762114,-46.0109669,172,2455.38901
D1,Amapá do Maranhão/MA,-1.6762114,-46.0109669,6,85.65310
1,Amapá/AP,2.0529997,-50.7930003,1400,15238.92457
D1,Amapá/AP,2.0529997,-50.7930003,10,108.84946
1,Amaraji/PE,-8.373925,-35.4536527,651,2846.52383
D1,Amaraji/PE,-8.373925,-35.4536527,48,209.88194
1,Amaral Ferrador/RS,-30.8750633,-52.2542051,310,4375.44107
D1,Amaral Ferrador/RS,-30.8750633,-52.2542051,10,141.14326
1,Amaralina/GO,-13.9236199,-49.2962411,116,3016.90507
D1,Amaralina/GO,-13.9236199,-49.2962411,2,52.01560
1,Amarante do Maranhão/MA,-5.56913,-46.747284,1595,3822.28187
D1,Amarante do Maranhão/MA,-5.56913,-46.747284,53,127.00999
1,Amarante/PI,-6.2459374,-42.8476238,1579,8969.55237
D1,Amarante/PI,-6.2459374,-42.8476238,35,198.81845
1,Amargosa/BA,-13.03793715,-39.60796443875596,3186,8509.38810
D1,Amargosa/BA,-13.03793715,-39.60796443875596,56,149.56865
1,Amaturá/AM,-3.3640509,-68.1994689,2387,20339.12747
D1,Amaturá/AM,-3.3640509,-68.1994689,18,153.37423
1,Americana/SP,-22.7392463,-47.3306032,26179,10816.96403
D1,Americana/SP,-22.7392463,-47.3306032,812,335.51223
1,Americano do Brasil/GO,-16.2515808,-49.9806104,838,13595.06814
D1,Americano do Brasil/GO,-16.2515808,-49.9806104,23,373.13433
1,Ametista do Sul/RS,-27.3617341,-53.1826575,909,12278.80589
D1,Ametista do Sul/RS,-27.3617341,-53.1826575,22,297.17682
1,Amontada/CE,-3.3634586,-39.8284791,2936,6698.76109
D1,Amontada/CE,-3.3634586,-39.8284791,57,130.05088
1,Amorinópolis/GO,-16.6211308,-51.0949921,359,11697.62138
D1,Amorinópolis/GO,-16.6211308,-51.0949921,6,195.50342
1,Amparo de São Francisco/SE,-10.1299754,-36.9269099,256,10756.30252
D1,Amparo de São Francisco/SE,-10.1299754,-36.9269099,5,210.08403
1,Amparo do Serra/MG,-20.5070255,-42.8028462,167,3569.90167
D1,Amparo do Serra/MG,-20.5070255,-42.8028462,8,171.01325
1,Amparo/PB,-7.56394725,-37.04652873235175,178,7907.59662
D1,Amparo/PB,-7.56394725,-37.04652873235175,4,177.69880
1,Amparo/SP,-22.70111,-46.76444,7388,10165.52692
D1,Amparo/SP,-22.70111,-46.76444,137,188.50530
1,Ampére/PR,-25.9168712,-53.4742414,2460,12738.85350
D1,Ampére/PR,-25.9168712,-53.4742414,57,295.16856
1,Amélia Rodrigues/BA,-12.4015388,-38.7516971,2342,9350.04791
D1,Amélia Rodrigues/BA,-12.4015388,-38.7516971,47,187.63973
1,América Dourada/BA,-11.4515262,-41.4357517,949,5898.07334
D1,América Dourada/BA,-11.4515262,-41.4357517,13,80.79553
1,Américo Brasiliense/SP,-21.7297099,-48.1052092,4212,10265.15890
D1,Américo Brasiliense/SP,-21.7297099,-48.1052092,95,231.52661
1,Américo de Campos/SP,-20.298476,-49.735904,1156,19327.87159
D1,Américo de Campos/SP,-20.298476,-49.735904,35,585.18642
1,Anadia/AL,-9.6830208,-36.3052699,1462,8341.89205
D1,Anadia/AL,-9.6830208,-36.3052699,30,171.17426
1,Anagé/BA,-14.6134669,-41.1376308,1085,5021.52080
D1,Anagé/BA,-14.6134669,-41.1376308,29,134.21576
1,Anahy/PR,-24.6450861,-53.1337957,375,13450.50215
D1,Anahy/PR,-24.6450861,-53.1337957,9,322.81205
1,Anajatuba/MA,-3.26441,-44.6179916,1112,4120.34979
D1,Anajatuba/MA,-3.26441,-44.6179916,26,96.33911
1,Anajás/PA,-0.9878802,-49.9390114,1364,4594.44894
D1,Anajás/PA,-0.9878802,-49.9390114,22,74.10402
1,Analândia/SP,-22.128917,-47.661939,376,7436.70886
D1,Analândia/SP,-22.128917,-47.661939,5,98.89241
1,Anamã/AM,-3.5797356,-61.4049996,1975,14151.61938
D1,Anamã/AM,-3.5797356,-61.4049996,10,71.65377
1,Ananindeua/PA,-1.374035,-48.4016623,25520,4765.22135
D1,Ananindeua/PA,-1.374035,-48.4016623,818,152.74103
1,Ananás/TO,-6.3663053,-48.080238,1652,17404.12979
D1,Ananás/TO,-6.3663053,-48.080238,27,284.45006
1,Anapu/PA,-3.4668292,-51.2057035,1731,6050.96655
D1,Anapu/PA,-3.4668292,-51.2057035,46,160.79980
1,Anapurus/MA,-3.6751298,-43.1046001,831,5228.38807
D1,Anapurus/MA,-3.6751298,-43.1046001,14,88.08355
1,Anastácio/MS,-20.4832458,-55.8048448,2605,10322.14606
D1,Anastácio/MS,-20.4832458,-55.8048448,79,313.03245
1,Anaurilândia/MS,-22.185169,-52.719056,561,6181.13706
D1,Anaurilândia/MS,-22.185169,-52.719056,15,165.27104
1,Anchieta/ES,-20.8057672,-40.6454564,5013,16834.01054
D1,Anchieta/ES,-20.8057672,-40.6454564,90,302.22640
1,Anchieta/SC,-26.5350527,-53.3293938,697,12542.73889
D1,Anchieta/SC,-26.5350527,-53.3293938,11,197.94853
1,Andaraí/BA,-12.8059674,-41.3322919,943,7180.93207
D1,Andaraí/BA,-12.8059674,-41.3322919,10,76.14986
1,Andirá/PR,-23.0494761,-50.2310027,2565,12872.62873
D1,Andirá/PR,-23.0494761,-50.2310027,84,421.55977
1,Andorinha/BA,-10.3445708,-39.8334411,966,6660.69089
D1,Andorinha/BA,-10.3445708,-39.8334411,17,117.21713
1,Andradas/MG,-22.0680484,-46.5688976,3998,9657.93797
D1,Andradas/MG,-22.0680484,-46.5688976,121,292.29877
1,Andradina/SP,-20.896505,-51.3742765,6740,11782.80480
D1,Andradina/SP,-20.896505,-51.3742765,271,473.75966
1,Andrelândia/MG,-21.739722,-44.308889,206,1687.69458
D1,Andrelândia/MG,-21.739722,-44.308889,14,114.69769
1,André da Rocha/RS,-28.6309124,-51.5733328,124,9233.06031
D1,André da Rocha/RS,-28.6309124,-51.5733328,1,74.46016
1,Angatuba/SP,-23.4938938,-48.4110675,3161,12406.29538
D1,Angatuba/SP,-23.4938938,-48.4110675,72,282.58566
1,Angelim/PE,-8.8902038,-36.2872987,230,2048.81525
D1,Angelim/PE,-8.8902038,-36.2872987,11,97.98682
1,Angelina/SC,-27.5805287,-48.9838759,553,11659.28737
D1,Angelina/SC,-27.5805287,-48.9838759,2,42.16740
1,Angelândia/MG,-17.7253,-42.2728,264,3085.19341
D1,Angelândia/MG,-17.7253,-42.2728,3,35.05902
1,Angical do Piauí/PI,-6.0872666,-42.7366138,881,12988.35324
D1,Angical do Piauí/PI,-6.0872666,-42.7366138,12,176.91287
1,Angical/BA,-12.005623,-44.7000236,725,5201.60712
D1,Angical/BA,-12.005623,-44.7000236,16,114.79409
1,Angico/TO,-6.3893733,-47.8656722,236,6832.65779
D1,Angico/TO,-6.3893733,-47.8656722,4,115.80776
1,Angicos/RN,-5.6666344,-36.6009064,1111,9491.67023
D1,Angicos/RN,-5.6666344,-36.6009064,24,205.04058
1,Angra dos Reis/RJ,-23.0063966,-44.316326,14975,7232.76212
D1,Angra dos Reis/RJ,-23.0063966,-44.316326,519,250.67135
1,Anguera/BA,-12.1509425,-39.2452469,498,4408.24998
D1,Anguera/BA,-12.1509425,-39.2452469,2,17.70382
1,Angélica/MS,-22.1588196,-53.7728504,1401,12815.58727
D1,Angélica/MS,-22.1588196,-53.7728504,20,182.94914
1,Anhanguera/GO,-18.3338749,-48.220363,96,8275.86207
D1,Anhanguera/GO,-18.3338749,-48.220363,7,603.44828
1,Anhembi/SP,-22.7891096,-48.1316776,327,4795.42455
D1,Anhembi/SP,-22.7891096,-48.1316776,9,131.98416
1,Anhumas/SP,-22.2956478,-51.3873401,343,8277.02703
D1,Anhumas/SP,-22.2956478,-51.3873401,7,168.91892
1,Anicuns/GO,-16.4606451,-49.9572265,3218,14639.91629
D1,Anicuns/GO,-16.4606451,-49.9572265,67,304.80870
1,Anita Garibaldi/SC,-27.6855032,-51.1293873,1204,17306.31019
D1,Anita Garibaldi/SC,-27.6855032,-51.1293873,10,143.74012
1,Anitápolis/SC,-27.9041185,-49.1287395,355,10997.52169
D1,Anitápolis/SC,-27.9041185,-49.1287395,5,154.89467
1,Anori/AM,-3.7435254,-61.6605203,1913,8907.20305
D1,Anori/AM,-3.7435254,-61.6605203,33,153.65274
1,Anta Gorda/RS,-28.9718745,-52.0069187,645,10820.33216
D1,Anta Gorda/RS,-28.9718745,-52.0069187,5,83.87854
1,Antas/BA,-10.4114649,-38.3308815,1318,6766.26110
D1,Antas/BA,-10.4114649,-38.3308815,13,66.73854
1,Antonina do Norte/CE,-6.7754187,-39.9879345,805,10910.81594
D1,Antonina do Norte/CE,-6.7754187,-39.9879345,26,352.39902
1,Antonina/PR,-25.4298854,-48.7125431,2555,13483.56114
D1,Antonina/PR,-25.4298854,-48.7125431,73,385.24460
1,Antônio Almeida/PI,-7.2186016,-44.1950248,406,12807.57098
D1,Antônio Almeida/PI,-7.2186016,-44.1950248,10,315.45741
1,Antônio Cardoso/BA,-12.4363122,-39.1200307,623,5335.27447
D1,Antônio Cardoso/BA,-12.4363122,-39.1200307,11,94.20228
1,Antônio Carlos/MG,-21.318334,-43.746666,787,6867.96405
D1,Antônio Carlos/MG,-21.318334,-43.746666,16,139.62824
1,Antônio Carlos/SC,-27.5168462,-48.7684715,1647,19122.25705
D1,Antônio Carlos/SC,-27.5168462,-48.7684715,27,313.47962
1,Antônio Dias/MG,-19.6525,-42.872778,595,6415.09434
D1,Antônio Dias/MG,-19.6525,-42.872778,26,280.32345
1,Antônio Gonçalves/BA,-10.5715409,-40.2748824,916,7711.73598
D1,Antônio Gonçalves/BA,-10.5715409,-40.2748824,9,75.77033
1,Antônio João/MS,-22.1892837,-55.9508227,546,6053.21508
D1,Antônio João/MS,-22.1892837,-55.9508227,16,177.38359
1,Antônio Martins/RN,-6.2155812,-37.8890129,684,9561.08471
D1,Antônio Martins/RN,-6.2155812,-37.8890129,7,97.84736
1,Antônio Olinto/PR,-25.9849006,-50.1974516,535,7203.44688
D1,Antônio Olinto/PR,-25.9849006,-50.1974516,14,188.50141
1,Antônio Prado de Minas/MG,-21.0171988,-42.1101106,166,10459.98740
D1,Antônio Prado de Minas/MG,-21.0171988,-42.1101106,5,315.05986
1,Antônio Prado/RS,-28.8567806,-51.2801355,2749,21073.20813
D1,Antônio Prado/RS,-28.8567806,-51.2801355,31,237.63894
1,Anápolis/GO,-16.3332828,-48.9525756,46694,11918.66698
D1,Anápolis/GO,-16.3332828,-48.9525756,1686,430.35235
1,Anísio de Abreu/PI,-9.185643,-43.04941,291,2928.15456
D1,Anísio de Abreu/PI,-9.185643,-43.04941,14,140.87342
1,Aparecida d'Oeste/SP,-20.4498109,-50.8808706,842,20250.12025
D1,Aparecida d'Oeste/SP,-20.4498109,-50.8808706,18,432.90043
1,Aparecida de Goiânia/GO,-16.8226769,-49.2452546,79237,13426.67747
D1,Aparecida de Goiânia/GO,-16.8226769,-49.2452546,1644,278.57513
1,Aparecida do Rio Doce/GO,-18.2980167,-51.1491312,264,10670.97817
D1,Aparecida do Rio Doce/GO,-18.2980167,-51.1491312,4,161.68149
1,Aparecida do Rio Negro/TO,-9.9513491,-47.9773786,392,8085.80858
D1,Aparecida do Rio Negro/TO,-9.9513491,-47.9773786,13,268.15182
1,Aparecida do Taboado/MS,-20.0840304,-51.1013943,3644,13978.28839
D1,Aparecida do Taboado/MS,-20.0840304,-51.1013943,61,233.99440
1,Aparecida/PB,-6.7859598, -38.0831353,1004,11929.65779
D1,Aparecida/PB,-6.7859598, -38.0831353,14,166.34981
1,Aparecida/SP,-22.851552,-45.2340924,2789,7707.61365
D1,Aparecida/SP,-22.851552,-45.2340924,112,309.52052
1,Aperibé/RJ,-21.6211928,-42.1028167,724,6083.52239
D1,Aperibé/RJ,-21.6211928,-42.1028167,30,252.07966
1,Apiacá/ES,-21.152272,-41.569297,926,12258.40614
D1,Apiacá/ES,-21.152272,-41.569297,34,450.09267
1,Apiacás/MT,-9.5678422,-57.394852,1909,18564.62122
D1,Apiacás/MT,-9.5678422,-57.394852,18,175.04619
1,Apiaí/SP,-24.5076527,-48.8461582,1721,7103.93792
D1,Apiaí/SP,-24.5076527,-48.8461582,80,330.22373
1,Apicum-Açu/MA,-1.5279295,-45.082278,542,3112.61701
D1,Apicum-Açu/MA,-1.5279295,-45.082278,11,63.17119
1,Apiúna/SC,-27.0374658,-49.3885037,869,8010.69322
D1,Apiúna/SC,-27.0374658,-49.3885037,18,165.92920
1,Apodi/RN,-5.6631109,-37.796927,6674,18604.00290
D1,Apodi/RN,-5.6631109,-37.796927,97,270.39081
1,Aporá/BA,-11.6599747,-38.0794757,645,3626.04003
D1,Aporá/BA,-11.6599747,-38.0794757,19,106.81358
1,Aporé/GO,-18.9642193,-51.92804,417,9853.49716
D1,Aporé/GO,-18.9642193,-51.92804,10,236.29490
1,Apuarema/BA,-13.8517897,-39.7457126,774,10599.83566
D1,Apuarema/BA,-13.8517897,-39.7457126,9,123.25390
1,Apucarana/PR,-23.5525327,-51.4610764,10645,7813.76162
D1,Apucarana/PR,-23.5525327,-51.4610764,451,331.04805
1,Apuiarés/CE,-3.9460303,-39.4313298,1377,9385.22356
D1,Apuiarés/CE,-3.9460303,-39.4313298,25,170.39258
1,Apuí/AM,-7.1940195,-59.8830192,1475,6596.89610
D1,Apuí/AM,-7.1940195,-59.8830192,31,138.64663
1,Aquidabã/SE,-10.2837579,-37.0188687,2408,11106.49878
D1,Aquidabã/SE,-10.2837579,-37.0188687,39,179.88100
1,Aquidauana/MS,-20.473969,-55.7821375,5635,11732.49495
D1,Aquidauana/MS,-20.473969,-55.7821375,159,331.04999
1,Aquiraz/CE,-3.9063117,-38.387504,6704,8283.19021
D1,Aquiraz/CE,-3.9063117,-38.387504,90,111.20035
1,Arabutã/SC,-27.1587028,-52.1438142,420,9842.98102
D1,Arabutã/SC,-27.1587028,-52.1438142,9,210.92102
1,Aracaju/SE,-10.9162061,-37.0774655,127458,19169.26853
D1,Aracaju/SE,-10.9162061,-37.0774655,2400,360.95219
1,Aracati/CE,-4.558259,-37.767894,8041,10724.90830
D1,Aracati/CE,-4.558259,-37.767894,165,220.07336
1,Aracatu/BA,-14.4274236,-41.4604105,906,6945.18973
D1,Aracatu/BA,-14.4274236,-41.4604105,18,137.98390
1,Araci/BA,-11.3356065,-38.9573261,3701,6772.43449
D1,Araci/BA,-11.3356065,-38.9573261,52,95.15444
1,Aracitaba/MG,-21.3425,-43.378611,91,4419.62118
D1,Aracitaba/MG,-21.3425,-43.378611,10,485.67266
1,Aracoiaba/CE,-4.3702577,-38.8084313,4298,16197.47503
D1,Aracoiaba/CE,-4.3702577,-38.8084313,35,131.90126
1,Aracruz/ES,-19.8245218,-40.2735025,16925,16415.94165
D1,Aracruz/ES,-19.8245218,-40.2735025,233,225.99199
1,Aragarças/GO,-15.8957166,-52.2514538,3211,15838.80037
D1,Aragarças/GO,-15.8957166,-52.2514538,73,360.08484
1,Aragoiânia/GO,-16.9146388,-49.4499148,1406,13395.57927
D1,Aragoiânia/GO,-16.9146388,-49.4499148,26,247.71341
1,Aragominas/TO,-7.1654101,-48.525488,565,9858.66341
D1,Aragominas/TO,-7.1654101,-48.525488,11,191.93858
1,Araguacema/TO,-8.8067391,-49.5560969,754,10538.08526
D1,Araguacema/TO,-8.8067391,-49.5560969,14,195.66737
1,Araguaiana/MT,-15.729144,-51.834112,395,12705.04986
D1,Araguaiana/MT,-15.729144,-51.834112,7,225.15278
1,Araguainha/MT,-16.857016,-53.031778,29,3065.53911
D1,Araguainha/MT,-16.857016,-53.031778,1,105.70825
1,Araguanã/MA,-2.9508403,-45.6651986,810,5208.66825
D1,Araguanã/MA,-2.9508403,-45.6651986,5,32.15227
1,Araguanã/TO,-6.5799107,-48.6428482,582,10046.60798
D1,Araguanã/TO,-6.5799107,-48.6428482,16,276.19541
1,Araguapaz/GO,-15.0937927,-50.626417,690,8865.47604
D1,Araguapaz/GO,-15.0937927,-50.626417,28,359.75845
1,Araguari/MG,-18.6511256,-48.1933764,17958,15241.24761
D1,Araguari/MG,-18.6511256,-48.1933764,441,374.28390
1,Araguatins/TO,-5.6522925,-48.1158973,2506,6928.39370
D1,Araguatins/TO,-5.6522925,-48.1158973,67,185.23638
1,Araguaçu/TO,-12.928934,-49.823134,922,10889.33507
D1,Araguaçu/TO,-12.928934,-49.823134,21,248.02173
1,Araguaína/TO,-7.193241,-48.2018597,36533,19921.91121
D1,Araguaína/TO,-7.193241,-48.2018597,513,279.74545
1,Araioses/MA,-2.890914,-41.904993,683,1460.30660
D1,Araioses/MA,-2.890914,-41.904993,15,32.07116
1,Aral Moreira/MS,-22.951141,-55.6268421,559,4532.92248
D1,Aral Moreira/MS,-22.951141,-55.6268421,15,121.63477
1,Aramari/BA,-12.0907897,-38.4985065,672,5863.36271
D1,Aramari/BA,-12.0907897,-38.4985065,12,104.70291
1,Arambaré/RS,-30.9132252,-51.4994625,227,6372.82426
D1,Arambaré/RS,-30.9132252,-51.4994625,8,224.59293
1,Arame/MA,-4.8858769,-46.0102484,1563,4770.47979
D1,Arame/MA,-4.8858769,-46.0102484,42,128.18948
1,Aramina/SP,-20.0876144,-47.789201,353,6242.26348
D1,Aramina/SP,-20.0876144,-47.789201,17,300.61892
1,Arandu/SP,-23.1345103,-49.0545651,621,9756.48075
D1,Arandu/SP,-23.1345103,-49.0545651,19,298.50746
1,Arantina/MG,-21.911667,-44.255833,212,7606.74560
D1,Arantina/MG,-21.911667,-44.255833,4,143.52350
1,Arapeí/SP,-22.6738889,-44.4477778,252,10243.90244
D1,Arapeí/SP,-22.6738889,-44.4477778,3,121.95122
1,Arapiraca/AL,-9.754866,-36.661471,30935,13274.14642
D1,Arapiraca/AL,-9.754866,-36.661471,517,221.84366
1,Arapoema/TO,-7.6575001,-49.0641484,504,7617.89601
D1,Arapoema/TO,-7.6575001,-49.0641484,12,181.37848
1,Araponga/MG,-20.666667,-42.520556,681,8056.31137
D1,Araponga/MG,-20.666667,-42.520556,12,141.96143
1,Arapongas/PR,-23.415296,-51.42592,13679,10959.85899
D1,Arapongas/PR,-23.415296,-51.42592,570,456.69418
1,Araporã/MG,-18.4318188,-49.188313,2041,29447.41019
D1,Araporã/MG,-18.4318188,-49.188313,38,548.26143
1,Arapoti/PR,-24.1457957,-49.8224605,3229,11409.89399
D1,Arapoti/PR,-24.1457957,-49.8224605,64,226.14841
1,Araputanga/MT,-15.4710868,-58.346796,2096,12365.05221
D1,Araputanga/MT,-15.4710868,-58.346796,55,324.46463
1,Arapuá/MG,-19.034444,-46.155556,288,10158.73016
D1,Arapuá/MG,-19.034444,-46.155556,2,70.54674
1,Arapuã/PR,-24.3079525,-51.7901941,260,8640.74443
D1,Arapuã/PR,-24.3079525,-51.7901941,7,232.63543
1,Araquari/SC,-26.3703324,-48.7210994,3979,10067.30088
D1,Araquari/SC,-26.3703324,-48.7210994,84,212.52910
1,Arara/PB,-6.8271895,-35.7605703,1042,7694.57983
D1,Arara/PB,-6.8271895,-35.7605703,29,214.14857
1,Araranguá/SC,-28.9348832,-49.4858389,10965,15921.99457
D1,Araranguá/SC,-28.9348832,-49.4858389,249,361.56650
1,Araraquara/SP,-21.7886713,-48.1773096,24903,10448.56276
D1,Araraquara/SP,-21.7886713,-48.1773096,502,210.62436
1,Araras/SP,-22.3569477,-47.3838889,18017,13296.09021
D1,Araras/SP,-22.3569477,-47.3838889,392,289.28608
1,Ararendá/CE,-4.7504395,-40.8303611,1410,12866.13742
D1,Ararendá/CE,-4.7504395,-40.8303611,22,200.74824
1,Arari/MA,-3.4547602,-44.7772723,996,3327.54243
D1,Arari/MA,-3.4547602,-44.7772723,34,113.59081
1,Araricá/RS,-29.6168543,-50.929121,1024,17743.89187
D1,Araricá/RS,-29.6168543,-50.929121,26,450.52850
1,Araripe/CE,-7.212861,-40.1359222,1350,6234.41397
D1,Araripe/CE,-7.212861,-40.1359222,23,106.21594
1,Araripina/PE,-7.5768582,-40.5038509,7476,8809.38914
D1,Araripina/PE,-7.5768582,-40.5038509,157,185.00189
1,Araruama/RJ,-22.8733203,-42.3428897,6806,5068.02291
D1,Araruama/RJ,-22.8733203,-42.3428897,458,341.04533
1,Araruna/PB,-6.5321155,-35.7397595,705,3445.24263
D1,Araruna/PB,-6.5321155,-35.7397595,17,83.07677
1,Araruna/PR,-23.9320308,-52.4976047,2158,15414.28571
D1,Araruna/PR,-23.9320308,-52.4976047,36,257.14286
1,Arataca/BA,-15.2617424,-39.4122943,790,7207.37159
D1,Arataca/BA,-15.2617424,-39.4122943,15,136.84883
1,Aratiba/RS,-27.3955734,-52.3024325,450,7270.96461
D1,Aratiba/RS,-27.3955734,-52.3024325,7,113.10389
1,Aratuba/CE,-4.4195958,-39.0463737,1643,13921.36926
D1,Aratuba/CE,-4.4195958,-39.0463737,11,93.20454
1,Aratuípe/BA,-13.077137,-39.0010786,486,5499.60394
D1,Aratuípe/BA,-13.077137,-39.0010786,11,124.47663
1,Araucária/PR,-25.5861107,-49.4051209,28033,19172.58265
D1,Araucária/PR,-25.5861107,-49.4051209,502,343.33238
1,Arauá/SE,-11.2644014,-37.6181058,1287,12938.57444
D1,Arauá/SE,-11.2644014,-37.6181058,22,221.17221
1,Araxá/MG,-19.5928536,-46.940241,14385,13401.71609
D1,Araxá/MG,-19.5928536,-46.940241,234,218.00497
1,Araçagi/PB,-6.8519969,-35.3835602,1692,9999.40902
D1,Araçagi/PB,-6.8519969,-35.3835602,24,141.83559
1,Araçariguama/SP,-23.438611,-47.061389,2053,8980.75241
D1,Araçariguama/SP,-23.438611,-47.061389,68,297.46282
1,Araçatuba/SP,-21.207992,-50.4390225,29841,15061.39939
D1,Araçatuba/SP,-21.207992,-50.4390225,894,451.22117
1,Araçaí/MG,-19.200833,-44.2475,100,4248.08836
D1,Araçaí/MG,-19.200833,-44.2475,1,42.48088
1,Araçoiaba da Serra/SP,-23.5045367,-47.6168158,3049,8767.54083
D1,Araçoiaba da Serra/SP,-23.5045367,-47.6168158,83,238.67035
1,Araçoiaba/PE,-7.7856903,-35.0898881,675,3255.67935
D1,Araçoiaba/PE,-7.7856903,-35.0898881,31,149.52009
1,Araçu/GO,-16.3561579,-49.6815269,492,14113.59725
D1,Araçu/GO,-16.3561579,-49.6815269,18,516.35112
1,Araçuaí/MG,-16.8484451,-42.0661868,1986,5409.67531
D1,Araçuaí/MG,-16.8484451,-42.0661868,52,141.64306
1,Araçás/BA,-12.2139176,-38.2026159,714,5848.62385
D1,Araçás/BA,-12.2139176,-38.2026159,16,131.06160
1,Araújos/MG,-19.948055,-45.165556,947,10073.39645
D1,Araújos/MG,-19.948055,-45.165556,14,148.92033
1,Arceburgo/MG,-21.364444,-46.939722,1274,11706.33097
D1,Arceburgo/MG,-21.364444,-46.939722,34,312.41386
1,Arco-Íris/SP,-21.7741308,-50.4668814,165,9306.26058
D1,Arco-Íris/SP,-21.7741308,-50.4668814,8,451.21263
1,Arcos/MG,-20.282223,-45.539444,5901,14613.67013
D1,Arcos/MG,-20.282223,-45.539444,112,277.36503
1,Arcoverde/PE,-8.415192,-37.057748,7135,9535.96536
D1,Arcoverde/PE,-8.415192,-37.057748,134,179.09171
1,Areado/MG,-21.3582771,-46.1476688,1216,8010.01252
D1,Areado/MG,-21.3582771,-46.1476688,30,197.61544
1,Areal/RJ,-22.2314922,-43.1056264,1619,12779.22488
D1,Areal/RJ,-22.2314922,-43.1056264,51,402.55742
1,Arealva/SP,-22.0301906,-48.9111936,1004,11656.79786
D1,Arealva/SP,-22.0301906,-48.9111936,20,232.20713
1,Areia Branca/RN,-4.9506652,-37.1263312,2976,10641.11274
D1,Areia Branca/RN,-4.9506652,-37.1263312,98,350.41299
1,Areia Branca/SE,-10.7591455,-37.3148072,2098,11227.65707
D1,Areia Branca/SE,-10.7591455,-37.3148072,48,256.87681
1,Areia de Baraúnas/PB,-7.1233949,-36.9446216,216,10207.93951
D1,Areia de Baraúnas/PB,-7.1233949,-36.9446216,4,189.03592
1,Areia/PB,-6.9680243,-35.6994783,1962,8659.95763
D1,Areia/PB,-6.9680243,-35.6994783,31,136.82910
1,Areial/PB,-7.0501306,-35.9245244,382,5436.17475
D1,Areial/PB,-7.0501306,-35.9245244,12,170.76989
1,Areias/SP,-22.5800929,-44.6975127,364,9342.91581
D1,Areias/SP,-22.5800929,-44.6975127,2,51.33470
1,Areiópolis/SP,-22.6758064,-48.6673653,1366,12242.33734
D1,Areiópolis/SP,-22.6758064,-48.6673653,21,188.20577
1,Arenápolis/MT,-14.4610369,-56.8432806,1900,19995.79036
D1,Arenápolis/MT,-14.4610369,-56.8432806,38,399.91581
1,Arenópolis/GO,-16.3859286,-51.55937,325,12815.45741
D1,Arenópolis/GO,-16.3859286,-51.55937,8,315.45741
1,Argirita/MG,-21.612761,-42.8371922,283,10465.97633
D1,Argirita/MG,-21.612761,-42.8371922,9,332.84024
1,Aricanduva/MG,-17.8678,-42.5569,146,2770.92427
1,Arinos/MG,-15.917223,-46.106111,947,5301.75792
D1,Arinos/MG,-15.917223,-46.106111,27,151.15888
1,Aripuanã/MT,-10.175806,-59.4439663,3173,13969.35811
D1,Aripuanã/MT,-10.175806,-59.4439663,48,211.32341
1,Ariquemes/RO,-9.9076522,-63.033069,22496,20539.97790
D1,Ariquemes/RO,-9.9076522,-63.033069,494,451.04681
1,Ariranha do Ivaí/PR,-24.3834527,-51.5876772,180,8712.48790
D1,Ariranha do Ivaí/PR,-24.3834527,-51.5876772,4,193.61084
1,Ariranha/SP,-21.18716,-48.790418,1012,10367.79019
D1,Ariranha/SP,-21.18716,-48.790418,25,256.12130
1,Armazém/SC,-28.2624996,-49.0190126,1443,16474.48339
D1,Armazém/SC,-28.2624996,-49.0190126,33,376.75534
1,Armação dos Búzios/RJ,-22.7597805,-41.8875267,5111,14824.37567
D1,Armação dos Búzios/RJ,-22.7597805,-41.8875267,64,185.63100
1,Arneiroz/CE,-6.3235099,-40.1603859,674,8592.55482
D1,Arneiroz/CE,-6.3235099,-40.1603859,17,216.72616
1,Aroazes/PI,-6.1108814,-41.7886137,602,10331.21675
D1,Aroazes/PI,-6.1108814,-41.7886137,12,205.93788
1,Aroeiras do Itaim/PI,-7.2797031,-41.5629681,170,6664.05331
D1,Aroeiras do Itaim/PI,-7.2797031,-41.5629681,2,78.40063
1,Aroeiras/PB,-7.5462904,-35.7080002,1917,10028.24859
D1,Aroeiras/PB,-7.5462904,-35.7080002,16,83.69952
1,Arraial do Cabo/RJ,-22.9662839,-42.024427,819,2677.08299
D1,Arraial do Cabo/RJ,-22.9662839,-42.024427,42,137.28631
1,Arraial/PI,-6.6541632,-42.5335332,170,3601.69492
D1,Arraial/PI,-6.6541632,-42.5335332,3,63.55932
1,Arraias/TO,-12.9287788,-46.9437231,1126,10689.19689
D1,Arraias/TO,-12.9287788,-46.9437231,13,123.40991
1,Arroio Grande/RS,-32.2384246,-53.0866661,2082,11415.72541
D1,Arroio Grande/RS,-32.2384246,-53.0866661,54,296.08510
1,Arroio Trinta/SC,-26.9301976,-51.334928,613,17272.47112
D1,Arroio Trinta/SC,-26.9301976,-51.334928,14,394.47732
1,Arroio do Meio/RS,-29.4020392,-51.9444993,3165,15095.14952
D1,Arroio do Meio/RS,-29.4020392,-51.9444993,46,219.39238
1,Arroio do Padre/RS,-31.4428773,-52.4228985,247,8370.04405
D1,Arroio do Padre/RS,-31.4428773,-52.4228985,4,135.54727
1,Arroio do Sal/RS,-29.549852,-49.8874395,1166,11343.51591
D1,Arroio do Sal/RS,-29.549852,-49.8874395,40,389.14291
1,Arroio do Tigre/RS,-29.334158,-53.0888935,1246,9289.49527
D1,Arroio do Tigre/RS,-29.334158,-53.0888935,22,164.01998
1,Arroio dos Ratos/RS,-30.0894524,-51.7265541,1118,7886.01256
D1,Arroio dos Ratos/RS,-30.0894524,-51.7265541,37,260.98610
1,Artur Nogueira/SP,-22.572737,-47.172679,5386,9732.56234
D1,Artur Nogueira/SP,-22.572737,-47.172679,142,256.59559
1,Aruanã/GO,-14.9162439,-51.0715692,759,7507.41840
D1,Aruanã/GO,-14.9162439,-51.0715692,18,178.04154
1,Arujá/SP,-23.396266,-46.3175449,8127,8915.38774
D1,Arujá/SP,-23.396266,-46.3175449,331,363.10980
1,Arvoredo/SC,-27.0752908,-52.4571847,332,14861.23545
D1,Arvoredo/SC,-27.0752908,-52.4571847,4,179.05103
1,Arvorezinha/RS,-28.87369,-52.17808,889,8529.21424
D1,Arvorezinha/RS,-28.87369,-52.17808,28,268.63667
1,Arês/RN,-6.1969216,-35.1642968,1137,7886.52285
D1,Arês/RN,-6.1969216,-35.1642968,25,173.40640
1,Ascurra/SC,-26.9569975,-49.3767752,1276,15993.98345
D1,Ascurra/SC,-26.9569975,-49.3767752,13,162.94811
1,Aspásia/SP,-20.160028,-50.728046,212,11661.16612
D1,Aspásia/SP,-20.160028,-50.728046,8,440.04400
1,Assaré/CE,-6.8746791,-39.8741385,2339,9962.51810
D1,Assaré/CE,-6.8746791,-39.8741385,45,191.66880
1,Assaí/PR,-23.3736041,-50.8454929,1431,9569.34599
D1,Assaí/PR,-23.3736041,-50.8454929,51,341.04587
1,Assis Brasil/AC,-10.9409203,-69.5672108,1814,24077.51526
D1,Assis Brasil/AC,-10.9409203,-69.5672108,24,318.55588
1,Assis Chateaubriand/PR,-24.4054826,-53.5120468,5062,15182.96341
D1,Assis Chateaubriand/PR,-24.4054826,-53.5120468,120,359.92801
1,Assis/SP,-22.6620892,-50.420623,11628,11065.11747
D1,Assis/SP,-22.6620892,-50.420623,401,381.58859
1,Assunção do Piauí/PI,-5.8610212,-41.0485091,345,4387.63831
D1,Assunção do Piauí/PI,-5.8610212,-41.0485091,8,101.74234
1,Assunção/PB,-7.073396,-36.7274003,415,10300.32266
D1,Assunção/PB,-7.073396,-36.7274003,5,124.10027
1,Astolfo Dutra/MG,-21.3132636,-42.8624102,1360,9530.48353
D1,Astolfo Dutra/MG,-21.3132636,-42.8624102,26,182.20042
1,Astorga/PR,-23.2350184,-51.6647074,3432,13094.73845
D1,Astorga/PR,-23.2350184,-51.6647074,88,335.76252
1,Atalaia do Norte/AM,-4.3658547,-70.1908742,2826,13854.29944
D1,Atalaia do Norte/AM,-4.3658547,-70.1908742,10,49.02441
1,Atalaia/AL,-9.5029595,-36.0219316,1237,2611.63306
D1,Atalaia/AL,-9.5029595,-36.0219316,51,107.67444
1,Atalaia/PR,-23.1513833,-52.0529697,453,11672.24942
D1,Atalaia/PR,-23.1513833,-52.0529697,22,566.86421
1,Atalanta/SC,-27.421916,-49.778863,502,15712.05008
D1,Atalanta/SC,-27.421916,-49.778863,11,344.28795
1,Ataléia/MG,-18.04432,-41.1110524,1182,9323.23710
D1,Ataléia/MG,-18.04432,-41.1110524,11,86.76447
1,Atibaia/SP,-23.1177393,-46.5547861,12347,8569.06890
D1,Atibaia/SP,-23.1177393,-46.5547861,276,191.54961
1,Atilio Vivacqua/ES,-20.9139369,-41.1947519,1601,13225.93969
D1,Atilio Vivacqua/ES,-20.9139369,-41.1947519,29,239.57043
1,Augustinópolis/TO,-5.4662267,-47.8897519,1756,9419.08491
D1,Augustinópolis/TO,-5.4662267,-47.8897519,32,171.64619
1,Augusto Corrêa/PA,-1.0229335,-46.6404029,2030,4368.31572
D1,Augusto Corrêa/PA,-1.0229335,-46.6404029,50,107.59398
1,Augusto Pestana/RS,-28.5148413,-53.9906433,853,12920.32717
D1,Augusto Pestana/RS,-28.5148413,-53.9906433,13,196.91003
1,Augusto de Lima/MG,-18.1092963,-44.2651945,286,5895.69161
D1,Augusto de Lima/MG,-18.1092963,-44.2651945,10,206.14306
1,Aurelino Leal/BA,-14.3167137,-39.3256107,1030,9115.85096
D1,Aurelino Leal/BA,-14.3167137,-39.3256107,33,292.06124
1,Auriflama/SP,-20.6840418,-50.5554616,2064,13531.76424
D1,Auriflama/SP,-20.6840418,-50.5554616,72,472.03829
1,Aurilândia/GO,-16.6772599,-50.4641231,347,11347.28581
D1,Aurilândia/GO,-16.6772599,-50.4641231,9,294.31001
1,Aurora do Pará/PA,-2.1323199,-47.558436,1693,5328.42350
D1,Aurora do Pará/PA,-2.1323199,-47.558436,15,47.20990
1,Aurora do Tocantins/TO,-12.71045,-46.407604,279,7375.09913
D1,Aurora do Tocantins/TO,-12.71045,-46.407604,6,158.60428
1,Aurora/CE,-6.9426019,-38.9693765,1811,7358.79724
D1,Aurora/CE,-6.9426019,-38.9693765,38,154.40878
1,Aurora/SC,-27.3166417,-49.6368502,886,15590.35721
D1,Aurora/SC,-27.3166417,-49.6368502,16,281.54144
1,Autazes/AM,-3.5833283,-59.1301518,2900,7197.81584
D1,Autazes/AM,-3.5833283,-59.1301518,95,235.79052
1,Avanhandava/SP,-21.4603331,-49.9465156,1182,8528.75388
D1,Avanhandava/SP,-21.4603331,-49.9465156,43,310.26770
1,Avaré/SP,-23.1045215,-48.9259103,11538,12646.87829
D1,Avaré/SP,-23.1045215,-48.9259103,272,298.14100
1,Avaí/SP,-22.1564662,-49.3316395,484,8903.60559
D1,Avaí/SP,-22.1564662,-49.3316395,12,220.75055
1,Aveiro/PA,-3.6049239,-55.3310742,849,5175.56693
D1,Aveiro/PA,-3.6049239,-55.3310742,14,85.34504
1,Avelino Lopes/PI,-10.1346855,-43.9489525,448,3955.50062
D1,Avelino Lopes/PI,-10.1346855,-43.9489525,19,167.75561
1,Avelinópolis/GO,-16.4672409,-49.7578661,342,14196.76214
D1,Avelinópolis/GO,-16.4672409,-49.7578661,15,622.66501
1,Axixá do Tocantins/TO,-5.612747,-47.77007,1040,10626.34106
D1,Axixá do Tocantins/TO,-5.612747,-47.77007,21,214.57035
1,Axixá/MA,-2.8379465,-44.0561053,192,1575.96651
D1,Axixá/MA,-2.8379465,-44.0561053,8,65.66527
1,Açailândia/MA,-4.9514278,-47.4844564,5651,4995.53575
D1,Açailândia/MA,-4.9514278,-47.4844564,240,212.16220
1,Açu/RN,-5.5836157,-36.9139541,8198,14041.51822
D1,Açu/RN,-5.5836157,-36.9139541,148,253.49411
1,Açucena/MG,-19.073056,-42.546666,805,8593.08284
D1,Açucena/MG,-19.073056,-42.546666,34,362.93766
1,Babaçulândia/TO,-7.2034355,-47.761613,881,8259.89124
D1,Babaçulândia/TO,-7.2034355,-47.761613,8,75.00469
1,Bacabal/MA,-4.2318132,-44.781167,5544,5290.58116
D1,Bacabal/MA,-4.2318132,-44.781167,199,189.90362
1,Bacabeira/MA,-2.9775747,-44.3155943,392,2272.20032
D1,Bacabeira/MA,-2.9775747,-44.3155943,10,57.96429
1,Bacuri/MA,-1.728894,-45.1417148,616,3302.24081
D1,Bacuri/MA,-1.728894,-45.1417148,4,21.44312
1,Bacurituba/MA,-2.7082587,-44.7381309,117,2063.49206
D1,Bacurituba/MA,-2.7082587,-44.7381309,2,35.27337
1,Bady Bassitt/SP,-20.9178969,-49.4517911,4099,23078.65548
D1,Bady Bassitt/SP,-20.9178969,-49.4517911,82,461.68572
1,Baependi/MG,-21.959162,-44.8899249,1559,8120.21459
D1,Baependi/MG,-21.959162,-44.8899249,32,166.67535
1,Bagre/PA,-1.8994498,-50.2103844,925,2952.91301
D1,Bagre/PA,-1.8994498,-50.2103844,12,38.30806
1,Bagé/RS,-31.3314264,-54.1062808,11510,9486.13343
D1,Bagé/RS,-31.3314264,-54.1062808,292,240.65603
1,Baianópolis/BA,-12.3067564,-44.5383591,928,6662.35911
D1,Baianópolis/BA,-12.3067564,-44.5383591,16,114.86826
1,Baixa Grande do Ribeiro/PI,-7.862861,-45.2113289,2665,22834.37580
D1,Baixa Grande do Ribeiro/PI,-7.862861,-45.2113289,33,282.75212
1,Baixa Grande/BA,-11.9630941,-40.1657537,885,4327.83999
D1,Baixa Grande/BA,-11.9630941,-40.1657537,16,78.24343
1,Baixio/CE,-6.7303544,-38.7170095,712,11296.20815
D1,Baixio/CE,-6.7303544,-38.7170095,13,206.25099
1,Baixo Guandu/ES,-19.5138322,-41.0182089,3828,12296.02981
D1,Baixo Guandu/ES,-19.5138322,-41.0182089,80,256.97032
1,Baião/PA,-2.7903479,-49.6702845,805,1661.19813
D1,Baião/PA,-2.7903479,-49.6702845,38,78.41681
1,Balbinos/SP,-21.9006253,-49.3583966,371,6252.10650
D1,Balbinos/SP,-21.9006253,-49.3583966,4,67.40816
1,Baldim/MG,-19.2913568,-43.9558262,672,8612.07228
D1,Baldim/MG,-19.2913568,-43.9558262,22,281.94284
1,Baliza/GO,-16.1978119,-52.542789,482,9128.78788
D1,Baliza/GO,-16.1978119,-52.542789,9,170.45455
1,Balneário Arroio do Silva/SC,-28.9815269,-49.4189932,2153,16031.27327
D1,Balneário Arroio do Silva/SC,-28.9815269,-49.4189932,58,431.86895
1,Balneário Barra do Sul/SC,-26.459842,-48.6061471,1499,13584.05075
D1,Balneário Barra do Sul/SC,-26.459842,-48.6061471,46,416.85546
1,Balneário Camboriú/SC,-26.9924395,-48.6339782,26212,17978.54536
D1,Balneário Camboriú/SC,-26.9924395,-48.6339782,395,270.92650
1,Balneário Gaivota/SC,-29.1553098,-49.5808712,1346,11953.81883
D1,Balneário Gaivota/SC,-29.1553098,-49.5808712,38,337.47780
1,Balneário Pinhal/RS,-30.2482978,-50.234585,1002,6976.25844
D1,Balneário Pinhal/RS,-30.2482978,-50.234585,50,348.11669
1,Balneário Piçarras/SC,-26.7638889,-48.6716667,5353,22518.08851
D1,Balneário Piçarras/SC,-26.7638889,-48.6716667,58,243.98452
1,Balneário Rincão/SC,-28.8235718,-49.2241642,1470,11354.85864
D1,Balneário Rincão/SC,-28.8235718,-49.2241642,52,401.66847
1,Balsa Nova/PR,-25.5842234,-49.6312741,1733,13237.09135
D1,Balsa Nova/PR,-25.5842234,-49.6312741,35,267.33883
1,Balsas/MA,-7.53214,-46.037163,12271,12791.75223
D1,Balsas/MA,-7.53214,-46.037163,202,210.57240
1,Bambuí/MG,-20.0131996,-45.9777034,1926,8059.25182
D1,Bambuí/MG,-20.0131996,-45.9777034,31,129.71797
1,Banabuiú/CE,-5.3046404,-38.919766,2325,12735.53900
D1,Banabuiú/CE,-5.3046404,-38.919766,22,120.50833
1,Bananal/SP,-22.6828195,-44.3221095,999,9087.60120
D1,Bananal/SP,-22.6828195,-44.3221095,4,36.38679
1,Bananeiras/PB,-6.7537682,-35.6338343,1535,7217.07650
D1,Bananeiras/PB,-6.7537682,-35.6338343,27,126.94532
1,Bandeira do Sul/MG,-21.728056,-46.385555,682,11803.39218
D1,Bandeira do Sul/MG,-21.728056,-46.385555,15,259.60540
1,Bandeira/MG,-15.884444,-40.559167,477,10008.39278
D1,Bandeira/MG,-15.884444,-40.559167,9,188.83760
1,Bandeirante/SC,-26.7677402,-53.6397596,423,15974.32024
D1,Bandeirante/SC,-26.7677402,-53.6397596,4,151.05740
1,Bandeirantes do Tocantins/TO,-7.7635698,-48.579148,514,14309.57684
D1,Bandeirantes do Tocantins/TO,-7.7635698,-48.579148,8,222.71715
1,Bandeirantes/MS,-19.9179623,-54.3646768,638,8780.62208
D1,Bandeirantes/MS,-19.9179623,-54.3646768,11,151.39004
1,Bandeirantes/PR,-23.107788,-50.370407,5331,17080.51648
D1,Bandeirantes/PR,-23.107788,-50.370407,144,461.37580
1,Bannach/PA,-7.3508505,-50.4064531,650,19926.42551
D1,Bannach/PA,-7.3508505,-50.4064531,3,91.96812
1,Banzaê/BA,-10.5827616,-38.6122305,1193,9010.57402
D1,Banzaê/BA,-10.5827616,-38.6122305,9,67.97583
1,Baraúna/PB,-6.643394,-36.2531932,698,14061.24093
D1,Baraúna/PB,-6.643394,-36.2531932,9,181.30540
1,Baraúna/RN,-5.0775002,-37.61752,1703,5924.09643
D1,Baraúna/RN,-5.0775002,-37.61752,29,100.88009
1,Barbacena/MG,-21.2254524,-43.7735087,8925,6457.84492
D1,Barbacena/MG,-21.2254524,-43.7735087,293,212.00544
1,Barbalha/CE,-7.3121067,-39.3036427,6967,11378.78095
D1,Barbalha/CE,-7.3121067,-39.3036427,163,266.21807
1,Barbosa Ferraz/PR,-24.0287182,-52.00811,1296,11342.55207
D1,Barbosa Ferraz/PR,-24.0287182,-52.00811,39,341.32680
1,Barbosa/SP,-21.265661,-49.951816,766,10257.09695
D1,Barbosa/SP,-21.265661,-49.951816,20,267.80932
1,Barcarena/PA,-1.5107945,-48.6190679,11781,9274.40623
D1,Barcarena/PA,-1.5107945,-48.6190679,235,185.00004
1,Barcelona/RN,-5.9514918,-35.9260284,173,4331.49725
D1,Barcelona/RN,-5.9514918,-35.9260284,6,150.22534
1,Barcelos/AM,-0.9729214,-62.925635,4487,16234.89399
D1,Barcelos/AM,-0.9729214,-62.925635,60,217.09241
1,Bariri/SP,-22.0746355,-48.7394852,3158,8881.26441
D1,Bariri/SP,-22.0746355,-48.7394852,131,368.41217
1,Barra Bonita/SC,-26.6526364,-53.4419581,194,11750.45427
D1,Barra Bonita/SC,-26.6526364,-53.4419581,2,121.13870
1,Barra Bonita/SP,-22.490859,-48.558349,3766,10424.62492
D1,Barra Bonita/SP,-22.490859,-48.558349,112,310.02602
1,Barra D'Alcântara/PI,-6.5209258,-42.1071089,153,3871.45749
D1,Barra D'Alcântara/PI,-6.5209258,-42.1071089,4,101.21457
1,Barra Funda/RS,-27.9230048,-53.0401045,623,24421.79537
D1,Barra Funda/RS,-27.9230048,-53.0401045,14,548.80439
1,Barra Longa/MG,-20.2833541,-43.0423516,421,8394.81555
D1,Barra Longa/MG,-20.2833541,-43.0423516,11,219.34197
1,Barra Mansa/RJ,-22.5394843,-44.1735129,16259,8796.58935
D1,Barra Mansa/RJ,-22.5394843,-44.1735129,646,349.50469
1,Barra Velha/SC,-26.6338203,-48.6835001,4837,16198.92833
D1,Barra Velha/SC,-26.6338203,-48.6835001,121,405.22438
1,Barra da Estiva/BA,-13.6269662,-41.3278287,2820,13828.95253
D1,Barra da Estiva/BA,-13.6269662,-41.3278287,32,156.92428
1,Barra de Guabiraba/PE,-8.4173522,-35.6626669,443,3053.06685
D1,Barra de Guabiraba/PE,-8.4173522,-35.6626669,16,110.26878
1,Barra de Santa Rosa/PB,-6.7218007,-36.0564638,1714,11060.20520
D1,Barra de Santa Rosa/PB,-6.7218007,-36.0564638,13,83.88720
1,Barra de Santana/PB,-7.5230865,-35.9988518,651,7797.34100
D1,Barra de Santana/PB,-7.5230865,-35.9988518,7,83.84238
1,Barra de Santo Antônio/AL,-9.4038098,-35.5117693,461,2869.05651
D1,Barra de Santo Antônio/AL,-9.4038098,-35.5117693,32,199.15360
1,Barra de São Francisco/ES,-18.7570902,-40.8916119,5106,11351.96425
D1,Barra de São Francisco/ES,-18.7570902,-40.8916119,211,469.10781
1,Barra de São Miguel/AL,-9.8261357,-35.8837777,637,7603.24660
D1,Barra de São Miguel/AL,-9.8261357,-35.8837777,8,95.48818
1,Barra de São Miguel/PB,-7.7528088,-36.3170996,646,10651.27782
D1,Barra de São Miguel/PB,-7.7528088,-36.3170996,7,115.41632
1,Barra do Bugres/MT,-15.0683712,-57.1853688,3627,10272.75045
D1,Barra do Bugres/MT,-15.0683712,-57.1853688,82,232.24856
1,Barra do Chapéu/SP,-24.472203,-49.023784,430,7465.27778
D1,Barra do Chapéu/SP,-24.472203,-49.023784,5,86.80556
1,Barra do Choça/BA,-14.8638173,-40.5761637,2283,7315.19754
D1,Barra do Choça/BA,-14.8638173,-40.5761637,35,112.14714
1,Barra do Corda/MA,-5.496823,-45.248496,5827,6584.77602
D1,Barra do Corda/MA,-5.496823,-45.248496,72,81.36329
1,Barra do Garças/MT,-15.8916033,-52.2615413,10480,17142.38979
D1,Barra do Garças/MT,-15.8916033,-52.2615413,365,597.03934
1,Barra do Guarita/RS,-27.1888016,-53.7147086,116,3561.55972
D1,Barra do Guarita/RS,-27.1888016,-53.7147086,8,245.62481
1,Barra do Jacaré/PR,-23.1151788,-50.1813945,267,9600.86300
D1,Barra do Jacaré/PR,-23.1151788,-50.1813945,7,251.70802
1,Barra do Mendes/BA,-11.8053298,-42.057037,821,5935.08277
D1,Barra do Mendes/BA,-11.8053298,-42.057037,15,108.43635
1,Barra do Ouro/TO,-7.7113784,-47.6743925,167,3605.35406
D1,Barra do Ouro/TO,-7.7113784,-47.6743925,7,151.12263
1,Barra do Piraí/RJ,-22.4703403,-43.8263256,6651,6600.57163
D1,Barra do Piraí/RJ,-22.4703403,-43.8263256,381,378.11123
1,Barra do Quaraí/RS,-30.208947,-57.5505128,591,13981.54720
D1,Barra do Quaraí/RS,-30.208947,-57.5505128,9,212.91696
1,Barra do Ribeiro/RS,-30.2930206,-51.301437,1125,8298.90823
D1,Barra do Ribeiro/RS,-30.2930206,-51.301437,51,376.21717
1,Barra do Rio Azul/RS,-27.4101581,-52.4117471,118,7129.90937
D1,Barra do Rio Azul/RS,-27.4101581,-52.4117471,1,60.42296
1,Barra do Rocha/BA,-14.2090974,-39.6004395,409,7287.95438
D1,Barra do Rocha/BA,-14.2090974,-39.6004395,7,124.73272
1,Barra do Turvo/SP,-24.756421,-48.5056942,654,8569.18239
D1,Barra do Turvo/SP,-24.756421,-48.5056942,18,235.84906
1,Barra dos Coqueiros/SE,-10.9075694,-37.0386249,7046,22780.47203
D1,Barra dos Coqueiros/SE,-10.9075694,-37.0386249,99,320.07759
1,Barra/BA,-11.0892702,-43.1420453,2257,4186.60731
D1,Barra/BA,-11.0892702,-43.1420453,62,115.00649
1,Barracão/PR,-26.252395,-53.6349576,1346,13052.75407
D1,Barracão/PR,-26.252395,-53.6349576,35,339.41040
1,Barracão/RS,-27.6728964,-51.4582928,514,9779.29985
D1,Barracão/RS,-27.6728964,-51.4582928,16,304.41400
1,Barras/PI,-4.2446153,-42.2920241,5199,11018.33210
D1,Barras/PI,-4.2446153,-42.2920241,94,199.21585
1,Barreira/CE,-4.2883361,-38.641094,1588,7034.95326
D1,Barreira/CE,-4.2883361,-38.641094,49,217.07349
1,Barreiras do Piauí/PI,-9.9224524,-45.4763776,109,3251.78998
D1,Barreiras do Piauí/PI,-9.9224524,-45.4763776,3,89.49881
1,Barreiras/BA,-12.1440031,-44.9967406,19733,12570.79153
D1,Barreiras/BA,-12.1440031,-44.9967406,324,206.40229
1,Barreirinha/AM,-2.798863,-57.067897,2437,7502.38586
D1,Barreirinha/AM,-2.798863,-57.067897,63,193.94760
1,Barreirinhas/MA,-2.7541271,-42.8259693,2562,4052.70734
D1,Barreirinhas/MA,-2.7541271,-42.8259693,46,72.76524
1,Barreiros/PE,-8.8159644,-35.1831905,801,1873.07081
D1,Barreiros/PE,-8.8159644,-35.1831905,63,147.32018
1,Barretos/SP,-20.5531437,-48.5697509,17437,14195.69660
D1,Barretos/SP,-20.5531437,-48.5697509,569,463.23057
1,Barrinha/SP,-21.1898849,-48.1550642,1686,5081.37432
D1,Barrinha/SP,-21.1898849,-48.1550642,71,213.98433
1,Barro Alto/BA,-11.7618025,-41.9094904,926,6151.18905
D1,Barro Alto/BA,-11.7618025,-41.9094904,13,86.35579
1,Barro Alto/GO,-14.9696025,-48.9190985,1478,12955.82048
D1,Barro Alto/GO,-14.9696025,-48.9190985,20,175.31557
1,Barro Duro/PI,-5.8180139,-42.5106589,704,10018.50007
D1,Barro Duro/PI,-5.8180139,-42.5106589,12,170.76989
1,Barro Preto/BA,-14.8068289,-39.4727588,632,11600.58737
D1,Barro Preto/BA,-14.8068289,-39.4727588,11,201.90896
1,Barro/CE,-7.1713587,-38.7742136,1817,7984.00562
D1,Barro/CE,-7.1713587,-38.7742136,45,197.73267
1,Barrocas/BA,-11.5165,-39.099282894736845,824,5116.42347
D1,Barrocas/BA,-11.5165,-39.099282894736845,24,149.02204
1,Barrolândia/TO,-9.837246,-48.7264346,788,13944.43461
D1,Barrolândia/TO,-9.837246,-48.7264346,20,353.91966
1,Barroquinha/CE,-3.0200371,-41.1339229,1313,8727.73199
D1,Barroquinha/CE,-3.0200371,-41.1339229,25,166.17921
1,Barros Cassal/RS,-29.094938,-52.5832366,813,7270.61349
D1,Barros Cassal/RS,-29.094938,-52.5832366,14,125.20122
1,Barroso/MG,-21.187222,-43.976111,2067,9891.37197
D1,Barroso/MG,-21.187222,-43.976111,57,272.76643
1,Barueri/SP,-23.5112184,-46.8764612,33184,11980.56191
D1,Barueri/SP,-23.5112184,-46.8764612,1129,407.60771
1,Barão de Antonina/SP,-23.6295651,-49.5632104,512,14636.93539
D1,Barão de Antonina/SP,-23.6295651,-49.5632104,10,285.87764
1,Barão de Cocais/MG,-19.9452437,-43.4870298,4457,13561.12700
D1,Barão de Cocais/MG,-19.9452437,-43.4870298,70,212.98606
1,Barão de Cotegipe/RS,-27.6214694,-52.3765316,805,12160.12085
D1,Barão de Cotegipe/RS,-27.6214694,-52.3765316,10,151.05740
1,Barão de Grajaú/MA,-6.7542591,-43.0263477,477,2520.60875
D1,Barão de Grajaú/MA,-6.7542591,-43.0263477,2,10.56859
1,Barão de Melgaço/MT,-16.195776,-55.9668049,458,5609.99510
D1,Barão de Melgaço/MT,-16.195776,-55.9668049,16,195.98236
1,Barão de Monte Alto/MG,-21.244722,-42.2375,344,6425.10273
D1,Barão de Monte Alto/MG,-21.244722,-42.2375,12,224.13149
1,Barão do Triunfo/RS,-30.3909877,-51.7375349,482,6410.42692
D1,Barão do Triunfo/RS,-30.3909877,-51.7375349,6,79.79785
1,Barão/RS,-29.372474,-51.494908,721,11625.28217
D1,Barão/RS,-29.372474,-51.494908,11,177.36214
1,Bastos/SP,-21.9222474,-50.7317727,2029,9683.57753
D1,Bastos/SP,-21.9222474,-50.7317727,45,214.76638
1,Bataguassu/MS,-21.715899,-52.422058,3509,15043.94427
D1,Bataguassu/MS,-21.715899,-52.422058,48,205.78778
1,Batalha/AL,-9.6733809,-37.1265481,1133,6178.42731
D1,Batalha/AL,-9.6733809,-37.1265481,19,103.60999
1,Batalha/PI,-4.022391,-42.0780926,1289,4790.93105
D1,Batalha/PI,-4.022391,-42.0780926,34,126.37056
1,Batatais/SP,-20.892867,-47.592149,6150,9765.00476
D1,Batatais/SP,-20.892867,-47.592149,169,268.33916
1,Batayporã/MS,-22.2976466,-53.2685608,1092,9621.99313
D1,Batayporã/MS,-22.2976466,-53.2685608,26,229.09507
1,Baturité/CE,-4.3290203,-38.8821055,4188,11652.43037
D1,Baturité/CE,-4.3290203,-38.8821055,85,236.49871
1,Bauru/SP,-22.3218102,-49.0705863,52308,13790.77609
D1,Bauru/SP,-22.3218102,-49.0705863,1221,321.91133
1,Bayeux/PB,-7.1301631,-34.936532,8156,8390.68753
D1,Bayeux/PB,-7.1301631,-34.936532,250,257.19371
1,Baía Formosa/RN,-6.3691885,-35.0063741,514,5513.83823
D1,Baía Formosa/RN,-6.3691885,-35.0063741,9,96.54581
1,Baía da Traição/PB,-6.691258,-34.9371244,1313,14434.91645
D1,Baía da Traição/PB,-6.691258,-34.9371244,12,131.92612
1,Bebedouro/SP,-20.949077,-48.479083,4310,5557.34640
D1,Bebedouro/SP,-20.949077,-48.479083,162,208.88402
1,Beberibe/CE,-4.1810469,-38.1298101,5668,10506.21884
D1,Beberibe/CE,-4.1810469,-38.1298101,124,229.84671
1,Bela Cruz/CE,-3.0529129,-40.167582,3502,10702.27981
D1,Bela Cruz/CE,-3.0529129,-40.167582,74,226.14755
1,Bela Vista da Caroba/PR,-25.8792818,-53.6672545,189,5467.16806
D1,Bela Vista da Caroba/PR,-25.8792818,-53.6672545,7,202.48771
1,Bela Vista de Goiás/GO,-16.9692949,-48.9513071,3128,10258.42844
D1,Bela Vista de Goiás/GO,-16.9692949,-48.9513071,79,259.08435
1,Bela Vista de Minas/MG,-19.8289721,-43.0973688,933,9091.79497
D1,Bela Vista de Minas/MG,-19.8289721,-43.0973688,24,233.87254
1,Bela Vista do Maranhão/MA,-3.7416367,-45.2514192,223,1977.12563
D1,Bela Vista do Maranhão/MA,-3.7416367,-45.2514192,19,168.45465
1,Bela Vista do Paraíso/PR,-22.9948493,-51.1907996,1987,12903.43529
D1,Bela Vista do Paraíso/PR,-22.9948493,-51.1907996,70,454.57497
1,Bela Vista do Piauí/PI,-7.9716353,-41.8715061,271,6724.56576
D1,Bela Vista do Piauí/PI,-7.9716353,-41.8715061,6,148.88337
1,Bela Vista do Toldo/SC,-26.274625,-50.466354,84,1320.33952
D1,Bela Vista do Toldo/SC,-26.274625,-50.466354,4,62.87331
1,Bela Vista/MS,-22.107327,-56.5317344,1075,4346.06832
D1,Bela Vista/MS,-22.107327,-56.5317344,31,125.32848
1,Belford Roxo/RJ,-22.7667284,-43.4033603,21800,4248.53542
D1,Belford Roxo/RJ,-22.7667284,-43.4033603,836,162.92549
1,Belmiro Braga/MG,-21.9486291,-43.413564,211,6160.58394
D1,Belmiro Braga/MG,-21.9486291,-43.413564,3,87.59124
1,Belmonte/BA,-15.8630837,-38.8792845,1193,5090.24193
D1,Belmonte/BA,-15.8630837,-38.8792845,25,106.66894
1,Belmonte/SC,-26.8448262,-53.578916,333,12292.35880
D1,Belmonte/SC,-26.8448262,-53.578916,5,184.56995
1,Belo Campo/BA,-15.0338286,-41.2585109,986,5763.04869
D1,Belo Campo/BA,-15.0338286,-41.2585109,18,105.20779
1,Belo Horizonte/MG,-19.9227318,-43.9450948,269740,10697.32912
D1,Belo Horizonte/MG,-19.9227318,-43.9450948,6458,256.11089
1,Belo Jardim/PE,-8.3338293,-36.4176419,4378,5708.92068
D1,Belo Jardim/PE,-8.3338293,-36.4176419,128,166.91225
1,Belo Monte/AL,-9.8269944,-37.2787165,553,8241.43070
D1,Belo Monte/AL,-9.8269944,-37.2787165,9,134.12817
1,Belo Oriente/MG,-19.2232523,-42.4807033,2724,10091.13136
D1,Belo Oriente/MG,-19.2232523,-42.4807033,70,259.31689
1,Belo Vale/MG,-20.407778,-44.024167,1044,13525.06801
D1,Belo Vale/MG,-20.407778,-44.024167,12,155.46055
1,Belterra/PA,-2.636091,-54.937392,1645,9221.36891
D1,Belterra/PA,-2.636091,-54.937392,29,162.56517
1,Belágua/MA,-3.1604031,-43.5085052,413,5486.18491
D1,Belágua/MA,-3.1604031,-43.5085052,4,53.13496
1,Belém de Maria/PE,-8.6242497,-35.8388934,301,2483.08860
D1,Belém de Maria/PE,-8.6242497,-35.8388934,6,49.49678
1,Belém do Brejo do Cruz/PB,-6.1880727,-37.5332267,533,7252.68744
D1,Belém do Brejo do Cruz/PB,-6.1880727,-37.5332267,5,68.03647
1,Belém do Piauí/PI,-7.3767305,-40.9712156,484,13493.16978
D1,Belém do Piauí/PI,-7.3767305,-40.9712156,7,195.14915
1,Belém do São Francisco/PE,-8.7517707,-38.9625715,1009,4867.34202
D1,Belém do São Francisco/PE,-8.7517707,-38.9625715,11,53.06319
1,Belém/AL,-9.5715351,-36.492841,126,2941.17647
D1,Belém/AL,-9.5715351,-36.492841,7,163.39869
1,Belém/PA,-1.45056,-48.4682453,105682,7047.15329
D1,Belém/PA,-1.45056,-48.4682453,5091,339.48125
1,Belém/PB,-6.6967586,-35.5369626,2408,13600.67777
D1,Belém/PB,-6.6967586,-35.5369626,45,254.16549
1,Beneditinos/PI,-5.4565671,-42.3605061,1299,12403.32283
D1,Beneditinos/PI,-5.4565671,-42.3605061,39,372.38614
1,Benedito Leite/MA,-7.2173453,-44.5523331,316,5604.82441
D1,Benedito Leite/MA,-7.2173453,-44.5523331,2,35.47357
1,Benedito Novo/SC,-26.7840657,-49.3629511,1091,9265.39278
D1,Benedito Novo/SC,-26.7840657,-49.3629511,19,161.35881
1,Benevides/PA,-1.3555577,-48.252235,4083,6402.89801
D1,Benevides/PA,-1.3555577,-48.252235,105,164.65939
1,Benjamin Constant do Sul/RS,-27.5105555,-52.6007689,174,8886.61900
1,Benjamin Constant/AM,-4.3782748,-70.0290603,2711,6170.47912
D1,Benjamin Constant/AM,-4.3782748,-70.0290603,87,198.01980
1,Bento Fernandes/RN,-5.6926846,-35.8207423,183,3312.21719
D1,Bento Fernandes/RN,-5.6926846,-35.8207423,3,54.29864
1,Bento Gonçalves/RS,-29.1654014,-51.5197627,21152,17365.74633
D1,Bento Gonçalves/RS,-29.1654014,-51.5197627,373,306.23219
1,Bento de Abreu/SP,-21.2707225,-50.8120444,363,12079.86689
D1,Bento de Abreu/SP,-21.2707225,-50.8120444,5,166.38935
1,Bequimão/MA,-2.4495376,-44.7884889,281,1319.31077
D1,Bequimão/MA,-2.4495376,-44.7884889,22,103.29123
1,Berilo/MG,-16.9515764,-42.4643732,153,1288.74663
D1,Berilo/MG,-16.9515764,-42.4643732,1,8.42318
1,Berizal/MG,-15.6118785,-41.7417382,249,5226.70025
D1,Berizal/MG,-15.6118785,-41.7417382,1,20.99076
1,Bernardino Batista/PB,-6.4532173,-38.5495418,307,8682.12670
D1,Bernardino Batista/PB,-6.4532173,-38.5495418,1,28.28054
1,Bernardino de Campos/SP,-23.0140216,-49.4760724,858,7689.55010
D1,Bernardino de Campos/SP,-23.0140216,-49.4760724,31,277.82757
1,Bernardo Sayão/TO,-7.8794244,-48.8968905,644,14478.41727
D1,Bernardo Sayão/TO,-7.8794244,-48.8968905,13,292.26619
1,Bernardo do Mearim/MA,-4.6315929,-44.7617508,300,4939.89791
D1,Bernardo do Mearim/MA,-4.6315929,-44.7617508,6,98.79796
1,Bertioga/SP,-23.848568,-46.139586,5978,9236.28386
D1,Bertioga/SP,-23.848568,-46.139586,160,247.20733
1,Bertolínia/PI,-7.6372159,-43.9540611,892,16197.56673
D1,Bertolínia/PI,-7.6372159,-43.9540611,11,199.74578
1,Bertópolis/MG,-17.063333,-40.573889,484,10505.75212
D1,Bertópolis/MG,-17.063333,-40.573889,4,86.82440
1,Beruri/AM,-3.9007135,-61.3717319,2294,11416.91136
D1,Beruri/AM,-3.9007135,-61.3717319,34,169.21316
1,Betim/MG,-19.968056,-44.198333,31456,7072.19684
D1,Betim/MG,-19.968056,-44.198333,1320,296.77327
1,Betânia do Piauí/PI,-8.1460635,-40.7961387,173,2785.82931
D1,Betânia do Piauí/PI,-8.1460635,-40.7961387,2,32.20612
1,Betânia/PE,-8.2742779,-38.0351767,512,4010.96749
D1,Betânia/PE,-8.2742779,-38.0351767,17,133.17665
1,Bezerros/PE,-8.2372132,-35.7558262,3890,6389.61892
D1,Bezerros/PE,-8.2372132,-35.7558262,127,208.60710
1,Bias Fortes/MG,-21.605833,-43.756944,116,3484.52989
D1,Bias Fortes/MG,-21.605833,-43.756944,3,90.11715
1,Bicas/MG,-21.7213723,-43.0604327,1468,10086.57414
D1,Bicas/MG,-21.7213723,-43.0604327,44,302.32239
1,Biguaçu/SC,-27.4961277,-48.6542432,11372,16365.88665
D1,Biguaçu/SC,-27.4961277,-48.6542432,167,240.33618
1,Bilac/SP,-21.403962,-50.47464,944,11629.91253
D1,Bilac/SP,-21.403962,-50.47464,18,221.75681
1,Biquinhas/MG,-18.783611,-45.502222,150,6004.80384
D1,Biquinhas/MG,-18.783611,-45.502222,3,120.09608
1,Birigui/SP,-21.2908491,-50.34144,17485,14001.10503
D1,Birigui/SP,-21.2908491,-50.34144,584,467.63771
1,Biritiba Mirim/SP,-23.5697765,-46.0407456,1498,4548.21472
D1,Biritiba Mirim/SP,-23.5697765,-46.0407456,101,306.65533
1,Biritinga/BA,-11.6227908,-38.8066738,601,3760.01001
D1,Biritinga/BA,-11.6227908,-38.8066738,7,43.79379
1,Bituruna/PR,-26.161281,-51.5533319,1398,8524.39024
D1,Bituruna/PR,-26.161281,-51.5533319,20,121.95122
1,Blumenau/SC,-26.9195567,-49.0658025,57328,15842.80997
D1,Blumenau/SC,-26.9195567,-49.0658025,640,176.86642
1,Boa Esperança do Iguaçu/PR,-25.6362851,-53.2139114,189,7651.82186
1,Boa Esperança do Sul/SP,-21.9930206,-48.3917372,1712,11399.65375
D1,Boa Esperança do Sul/SP,-21.9930206,-48.3917372,21,139.83220
1,Boa Esperança/ES,-18.5395472,-40.2904088,1677,11111.84734
D1,Boa Esperança/ES,-18.5395472,-40.2904088,46,304.79724
1,Boa Esperança/MG,-21.0901253,-45.5660195,4870,12108.70484
D1,Boa Esperança/MG,-21.0901253,-45.5660195,142,353.06696
1,Boa Esperança/PR,-24.2411024,-52.7860277,488,12058.31480
D1,Boa Esperança/PR,-24.2411024,-52.7860277,17,420.06425
1,Boa Hora/PI,-4.4094627,-42.1255341,590,8657.37344
D1,Boa Hora/PI,-4.4094627,-42.1255341,7,102.71460
1,Boa Nova/BA,-14.365907,-40.2063056,1034,8386.73047
D1,Boa Nova/BA,-14.365907,-40.2063056,19,154.10820
1,Boa Ventura de São Roque/PR,-24.88177,-51.5441292,561,8813.82561
D1,Boa Ventura de São Roque/PR,-24.88177,-51.5441292,8,125.68735
1,Boa Ventura/PB,-7.4202462,-38.2156782,765,14414.92369
D1,Boa Ventura/PB,-7.4202462,-38.2156782,12,226.11645
1,Boa Viagem/CE,-5.1261877,-39.7300055,4297,7873.27995
D1,Boa Viagem/CE,-5.1261877,-39.7300055,117,214.37602
1,Boa Vista da Aparecida/PR,-25.4357216,-53.4067721,1084,14376.65782
D1,Boa Vista da Aparecida/PR,-25.4357216,-53.4067721,34,450.92838
1,Boa Vista das Missões/RS,-27.6677983,-53.3127622,256,12237.09369
D1,Boa Vista das Missões/RS,-27.6677983,-53.3127622,7,334.60803
1,Boa Vista do Buricá/RS,-27.6687782,-54.1111913,908,13528.00954
D1,Boa Vista do Buricá/RS,-27.6687782,-54.1111913,11,163.88558
1,Boa Vista do Cadeado/RS,-28.5783827,-53.8123759,210,8508.91410
D1,Boa Vista do Cadeado/RS,-28.5783827,-53.8123759,4,162.07455
1,Boa Vista do Gurupi/MA,-1.7981168,-46.3071882,15,178.95490
D1,Boa Vista do Gurupi/MA,-1.7981168,-46.3071882,4,47.72131
1,Boa Vista do Incra/RS,-28.8195551,-53.3866624,310,11850.15291
D1,Boa Vista do Incra/RS,-28.8195551,-53.3866624,4,152.90520
1,Boa Vista do Ramos/AM,-2.9716927,-57.5869819,992,5054.51951
D1,Boa Vista do Ramos/AM,-2.9716927,-57.5869819,12,61.14338
1,Boa Vista do Sul/RS,-29.3510488,-51.6779679,321,11555.07559
D1,Boa Vista do Sul/RS,-29.3510488,-51.6779679,4,143.98848
1,Boa Vista do Tupim/BA,-12.6605988,-40.6083594,289,1559.54886
D1,Boa Vista do Tupim/BA,-12.6605988,-40.6083594,11,59.35999
1,Boa Vista/PB,-7.2620711,-36.2415161,853,11953.47534
D1,Boa Vista/PB,-7.2620711,-36.2415161,15,210.20179
1,Boa Vista/RR,2.8208478,-60.6719582,95221,22690.46734
D1,Boa Vista/RR,2.8208478,-60.6719582,1476,351.72000
1,Boca da Mata/AL,-9.6452054,-36.2116658,1867,6824.82819
D1,Boca da Mata/AL,-9.6452054,-36.2116658,45,164.49773
1,Boca do Acre/AM,-8.7553487,-67.3930873,2671,7711.85217
D1,Boca do Acre/AM,-8.7553487,-67.3930873,27,77.95583
1,Bocaina de Minas/MG,-22.167778,-44.394722,190,3733.54294
D1,Bocaina de Minas/MG,-22.167778,-44.394722,7,137.55158
1,Bocaina do Sul/SC,-27.745494,-49.942279,391,11209.86239
D1,Bocaina do Sul/SC,-27.745494,-49.942279,3,86.00917
1,Bocaina/PI,-6.9445939,-41.3224599,367,8146.50388
D1,Bocaina/PI,-6.9445939,-41.3224599,8,177.58047
1,Bocaina/SP,-22.1421831,-48.522276,1352,10857.69354
D1,Bocaina/SP,-22.1421831,-48.522276,35,281.07934
1,Bocaiúva do Sul/PR,-25.206591,-49.114131,2156,16421.66197
D1,Bocaiúva do Sul/PR,-25.206591,-49.114131,26,198.03488
1,Bocaiúva/MG,-17.1160208,-43.8122678,2652,5276.98185
D1,Bocaiúva/MG,-17.1160208,-43.8122678,68,135.30723
1,Bodocó/PE,-7.777592,-39.933797,2171,5656.88676
D1,Bodocó/PE,-7.777592,-39.933797,41,106.83204
1,Bodoquena/MS,-20.5508775,-56.6769653,585,7463.63868
D1,Bodoquena/MS,-20.5508775,-56.6769653,18,229.65042
1,Bodó/RN,-5.9866104,-36.4134824,194,8830.22303
D1,Bodó/RN,-5.9866104,-36.4134824,1,45.51661
1,Bofete/SP,-23.1019554,-48.2610535,953,7994.29578
D1,Bofete/SP,-23.1019554,-48.2610535,22,184.54828
1,Boituva/SP,-23.2838893,-47.6738231,6493,10443.94402
D1,Boituva/SP,-23.2838893,-47.6738231,184,295.96268
1,Bom Conselho/PE,-9.169191,-36.685683,2290,4695.79839
D1,Bom Conselho/PE,-9.169191,-36.685683,70,143.53969
1,Bom Despacho/MG,-19.7375242,-45.2517288,5939,11638.70816
D1,Bom Despacho/MG,-19.7375242,-45.2517288,95,186.17230
1,Bom Jardim da Serra/SC,-28.3380324,-49.625588,704,14752.72422
D1,Bom Jardim da Serra/SC,-28.3380324,-49.625588,7,146.68902
1,Bom Jardim de Goiás/GO,-16.2062659,-52.172793,1123,12662.08141
D1,Bom Jardim de Goiás/GO,-16.2062659,-52.172793,16,180.40365
1,Bom Jardim de Minas/MG,-21.9476466,-44.1906033,511,7911.44140
D1,Bom Jardim de Minas/MG,-21.9476466,-44.1906033,3,46.44682
1,Bom Jardim/MA,-3.54129,-45.606004,1457,3483.81235
D1,Bom Jardim/MA,-3.54129,-45.606004,54,129.11865
1,Bom Jardim/PE,-7.7961572,-35.5871696,1778,4446.88993
D1,Bom Jardim/PE,-7.7961572,-35.5871696,71,177.57547
1,Bom Jardim/RJ,-22.1515328,-42.4186683,1956,7082.85052
D1,Bom Jardim/RJ,-22.1515328,-42.4186683,47,170.19119
1,Bom Jesus da Lapa/BA,-13.250571,-43.410754,6127,8795.32600
D1,Bom Jesus da Lapa/BA,-13.250571,-43.410754,94,134.93727
1,Bom Jesus da Penha/MG,-21.0165299,-46.5226644,681,16046.18285
D1,Bom Jesus da Penha/MG,-21.0165299,-46.5226644,17,400.56550
1,Bom Jesus da Serra/BA,-14.3724084,-40.5047119,487,4957.75221
D1,Bom Jesus da Serra/BA,-14.3724084,-40.5047119,9,91.62170
1,Bom Jesus das Selvas/MA,-4.4878075,-46.8526639,3546,10258.33888
D1,Bom Jesus das Selvas/MA,-4.4878075,-46.8526639,27,78.10918
1,Bom Jesus de Goiás/GO,-18.2174587,-49.739721,3064,11946.35059
D1,Bom Jesus de Goiás/GO,-18.2174587,-49.739721,115,448.37804
1,Bom Jesus do Amparo/MG,-19.7045132,-43.4752911,273,4451.32888
D1,Bom Jesus do Amparo/MG,-19.7045132,-43.4752911,7,114.13664
1,Bom Jesus do Araguaia/MT,-12.1725897,-51.5074425,1097,16358.48494
D1,Bom Jesus do Araguaia/MT,-12.1725897,-51.5074425,17,253.50432
1,Bom Jesus do Galho/MG,-19.8283191,-42.3162256,797,5362.66990
D1,Bom Jesus do Galho/MG,-19.8283191,-42.3162256,34,228.77136
1,Bom Jesus do Itabapoana/RJ,-21.1341025,-41.680095,3952,10622.79924
D1,Bom Jesus do Itabapoana/RJ,-21.1341025,-41.680095,104,279.54735
1,Bom Jesus do Norte/ES,-21.1254776,-41.6711646,1208,12126.07910
D1,Bom Jesus do Norte/ES,-21.1254776,-41.6711646,28,281.06806
1,Bom Jesus do Oeste/SC,-26.6929713,-53.0967453,184,8602.15054
D1,Bom Jesus do Oeste/SC,-26.6929713,-53.0967453,6,280.50491
1,Bom Jesus do Sul/PR,-26.1922507,-53.6002033,507,14460.92413
D1,Bom Jesus do Sul/PR,-26.1922507,-53.6002033,6,171.13520
1,Bom Jesus do Tocantins/PA,-5.0471796,-48.5978362,775,4527.39806
D1,Bom Jesus do Tocantins/PA,-5.0471796,-48.5978362,26,151.88690
1,Bom Jesus do Tocantins/TO,-8.96306,-48.165043,174,3474.44089
D1,Bom Jesus do Tocantins/TO,-8.96306,-48.165043,3,59.90415
1,Bom Jesus dos Perdões/SP,-23.1353864,-46.4648052,2436,9374.63921
D1,Bom Jesus dos Perdões/SP,-23.1353864,-46.4648052,29,111.60285
1,Bom Jesus/PB,-6.8156725,-38.6551841,193,7495.14563
D1,Bom Jesus/PB,-6.8156725,-38.6551841,3,116.50485
1,Bom Jesus/PI,-9.0711644,-44.3583926,3797,14956.47379
D1,Bom Jesus/PI,-9.0711644,-44.3583926,47,185.13412
1,Bom Jesus/RN,-5.9887544,-35.5821149,983,9574.36447
D1,Bom Jesus/RN,-5.9887544,-35.5821149,18,175.31898
1,Bom Jesus/RS,-28.6692723,-50.4346894,1014,8966.31002
D1,Bom Jesus/RS,-28.6692723,-50.4346894,24,212.22036
1,Bom Jesus/SC,-26.7350604,-52.3916519,478,15636.24468
D1,Bom Jesus/SC,-26.7350604,-52.3916519,9,294.40628
1,Bom Lugar/MA,-4.3728019,-45.0366054,529,3218.15306
D1,Bom Lugar/MA,-4.3728019,-45.0366054,7,42.58426
1,Bom Princípio do Piauí/PI,-3.1912777,-41.6430185,139,2459.74164
D1,Bom Princípio do Piauí/PI,-3.1912777,-41.6430185,13,230.04778
1,Bom Princípio/RS,-29.489788,-51.3566782,2150,15082.42722
D1,Bom Princípio/RS,-29.489788,-51.3566782,30,210.45247
1,Bom Progresso/RS,-27.5490948,-53.8655601,189,9952.60664
D1,Bom Progresso/RS,-27.5490948,-53.8655601,3,157.97788
1,Bom Repouso/MG,-22.4657069,-46.1485376,1154,10951.88384
D1,Bom Repouso/MG,-22.4657069,-46.1485376,24,227.76881
1,Bom Retiro do Sul/RS,-29.6000007,-51.9359243,1066,8603.71267
D1,Bom Retiro do Sul/RS,-29.6000007,-51.9359243,35,282.48588
1,Bom Retiro/SC,-27.798993,-49.486994,899,8936.38171
D1,Bom Retiro/SC,-27.798993,-49.486994,21,208.74751
1,Bom Sucesso de Itararé/SP,-24.3190016,-49.1446207,257,6450.80321
D1,Bom Sucesso de Itararé/SP,-24.3190016,-49.1446207,6,150.60241
1,Bom Sucesso do Sul/PR,-26.0749256,-52.8348629,529,16256.91457
D1,Bom Sucesso do Sul/PR,-26.0749256,-52.8348629,9,276.58267
1,Bom Sucesso/MG,-21.0323516,-44.7598082,1193,6775.71420
D1,Bom Sucesso/MG,-21.0323516,-44.7598082,25,141.98898
1,Bom Sucesso/PB,-6.4458948,-37.9297662,502,10129.13640
D1,Bom Sucesso/PB,-6.4458948,-37.9297662,4,80.71025
1,Bom Sucesso/PR,-23.7088019,-51.7651297,1301,18406.90436
D1,Bom Sucesso/PR,-23.7088019,-51.7651297,20,282.96548
1,Bombinhas/SC,-27.1519159,-48.4875691,3588,17644.45537
D1,Bombinhas/SC,-27.1519159,-48.4875691,64,314.72830
1,Bonfim do Piauí/PI,-9.1648678,-42.8734415,483,8496.04222
D1,Bonfim do Piauí/PI,-9.1648678,-42.8734415,8,140.72120
1,Bonfim/MG,-20.3266626, -44.2386157,476,6938.77551
D1,Bonfim/MG,-20.3266626, -44.2386157,16,233.23615
1,Bonfim/RR,3.3613818,-59.8427241,2472,19686.23079
D1,Bonfim/RR,3.3613818,-59.8427241,33,262.80162
1,Bonfinópolis de Minas/MG,-16.5660011,-45.98645,555,10194.70977
D1,Bonfinópolis de Minas/MG,-16.5660011,-45.98645,14,257.16385
1,Bonfinópolis/GO,-16.6172709,-48.9615701,504,5081.15737
D1,Bonfinópolis/GO,-16.6172709,-48.9615701,30,302.44984
1,Boninal/BA,-12.7095183,-41.8299984,669,4631.03973
D1,Boninal/BA,-12.7095183,-41.8299984,8,55.37865
1,Bonito de Minas/MG,-15.3191266,-44.7544,110,967.54332
1,Bonito de Santa Fé/PB,-7.3143332,-38.5146677,557,4633.17252
D1,Bonito de Santa Fé/PB,-7.3143332,-38.5146677,14,116.45317
1,Bonito/BA,-11.9665473,-41.2649896,882,5223.88060
D1,Bonito/BA,-11.9665473,-41.2649896,14,82.91874
1,Bonito/MS,-21.1264766,-56.4902208,3193,14389.36458
D1,Bonito/MS,-21.1264766,-56.4902208,73,328.97702
1,Bonito/PA,-1.3605722,-47.3049907,405,2450.09074
D1,Bonito/PA,-1.3605722,-47.3049907,15,90.74410
1,Bonito/PE,-8.4721161,-35.7314591,1081,2836.00493
D1,Bonito/PE,-8.4721161,-35.7314591,44,115.43406
1,Bonópolis/GO,-13.649331,-49.8329113,279,6209.65947
D1,Bonópolis/GO,-13.649331,-49.8329113,3,66.77053
1,Boqueirão do Leão/RS,-29.30332,-52.4296817,615,7984.93898
D1,Boqueirão do Leão/RS,-29.30332,-52.4296817,32,415.47650
1,Boqueirão do Piauí/PI,-4.4850148,-42.1095161,782,12169.31217
D1,Boqueirão do Piauí/PI,-4.4850148,-42.1095161,10,155.61780
1,Boqueirão/PB,-7.487004,-36.130887,2303,12887.52098
D1,Boqueirão/PB,-7.487004,-36.130887,41,229.43481
1,Boquim/SE,-11.1450175,-37.6204228,2686,9985.50132
D1,Boquim/SE,-11.1450175,-37.6204228,67,249.07989
1,Boquira/BA,-12.8184859,-42.7270883,881,4098.24627
D1,Boquira/BA,-12.8184859,-42.7270883,20,93.03624
1,Boracéia/SP,-22.195355,-48.7801925,979,20110.92851
D1,Boracéia/SP,-22.195355,-48.7801925,24,493.01561
1,Borba/AM,-4.3934778,-59.5947721,2489,5961.96225
D1,Borba/AM,-4.3934778,-59.5947721,69,165.27738
1,Borborema/PB,-6.8066718,-35.5990191,387,7319.84112
D1,Borborema/PB,-6.8066718,-35.5990191,13,245.88614
1,Borborema/SP,-21.6212706,-49.074135,1708,10566.69141
D1,Borborema/SP,-21.6212706,-49.074135,52,321.70255
1,Borda da Mata/MG,-22.274167,-46.165278,1934,9860.30386
D1,Borda da Mata/MG,-22.274167,-46.165278,57,290.60875
1,Borebi/SP,-22.5700178,-48.9714871,286,10659.70928
D1,Borebi/SP,-22.5700178,-48.9714871,4,149.08684
1,Borrazópolis/PR,-23.9393362,-51.5850786,873,13558.00590
D1,Borrazópolis/PR,-23.9393362,-51.5850786,27,419.31977
1,Borá/SP,-22.2701088,-50.544407,127,15155.13126
D1,Borá/SP,-22.2701088,-50.544407,1,119.33174
1,Bossoroca/RS,-28.7278885,-54.9120278,473,7622.88477
D1,Bossoroca/RS,-28.7278885,-54.9120278,22,354.55278
1,Botelhos/MG,-21.65,-46.394722,1829,12234.93210
D1,Botelhos/MG,-21.65,-46.394722,31,207.37173
1,Botucatu/SP,-22.8879628,-48.4410712,18239,12312.83332
D1,Botucatu/SP,-22.8879628,-48.4410712,303,204.55006
1,Botumirim/MG,-16.862778,-43.011111,242,3848.60051
D1,Botumirim/MG,-16.862778,-43.011111,4,63.61323
1,Botuporã/BA,-13.3744752,-42.5198469,452,4462.43459
D1,Botuporã/BA,-13.3744752,-42.5198469,5,49.36321
1,Botuverá/SC,-27.200749,-49.068892,937,17606.16310
D1,Botuverá/SC,-27.200749,-49.068892,10,187.89929
1,Bozano/RS,-28.3669953,-53.7705165,269,12742.77594
D1,Bozano/RS,-28.3669953,-53.7705165,8,378.96731
1,Braga/RS,-27.617348,-53.740514,429,12956.81063
D1,Braga/RS,-27.617348,-53.740514,9,271.82120
1,Braganey/PR,-24.8179919,-53.118506,559,10386.47343
D1,Braganey/PR,-24.8179919,-53.118506,7,130.06317
1,Bragança Paulista/SP,-22.9520235,-46.5418586,21049,12343.06557
D1,Bragança Paulista/SP,-22.9520235,-46.5418586,557,326.62300
1,Bragança/PA,-1.0573967,-46.7635406,4210,3265.74305
D1,Bragança/PA,-1.0573967,-46.7635406,173,134.19799
1,Branquinha/AL,-9.2478057,-36.0152009,677,6472.27533
D1,Branquinha/AL,-9.2478057,-36.0152009,13,124.28298
1,Brasil Novo/PA,-3.3055853,-52.539198,2034,13575.38544
D1,Brasil Novo/PA,-3.3055853,-52.539198,43,286.99192
1,Brasileira/PI,-4.131182,-41.7824969,637,7631.48437
D1,Brasileira/PI,-4.131182,-41.7824969,16,191.68564
1,Brasilândia de Minas/MG,-17.0096469,-46.0087183,1579,9427.99140
D1,Brasilândia de Minas/MG,-17.0096469,-46.0087183,26,155.24242
1,Brasilândia do Sul/PR,-24.1975793,-53.527551,415,16054.15861
D1,Brasilândia do Sul/PR,-24.1975793,-53.527551,10,386.84720
1,Brasilândia do Tocantins/TO,-8.3886619,-48.4842729,249,11261.87246
D1,Brasilândia do Tocantins/TO,-8.3886619,-48.4842729,6,271.37042
1,Brasilândia/MS,-21.255575,-52.0365617,1271,10723.02371
D1,Brasilândia/MS,-21.255575,-52.0365617,25,210.91707
1,Brasiléia/AC,-11.0010413,-68.7487894,2983,11171.44783
D1,Brasiléia/AC,-11.0010413,-68.7487894,43,161.03663
1,Brasnorte/MT,-12.1227151,-58.0050109,2121,10531.28103
D1,Brasnorte/MT,-12.1227151,-58.0050109,39,193.64449
1,Brasília de Minas/MG,-16.2075114,-44.430559,1433,4422.15707
D1,Brasília de Minas/MG,-16.2075114,-44.430559,9,27.77349
1,Brasília/DF,-15.7934036,-47.8823172,466840,15280.43313
D1,Brasília/DF,-15.7934036,-47.8823172,9983,326.75984
1,Brazabrantes/GO,-16.4291635,-49.3858216,567,15136.14522
D1,Brazabrantes/GO,-16.4291635,-49.3858216,3,80.08542
1,Brazópolis/MG,-22.4742842,-45.6165577,911,6321.99861
D1,Brazópolis/MG,-22.4742842,-45.6165577,32,222.06801
1,Braço do Norte/SC,-28.2728633,-49.1622712,8552,25245.01122
D1,Braço do Norte/SC,-28.2728633,-49.1622712,108,318.80978
1,Braço do Trombudo/SC,-27.358578,-49.882145,735,19501.19395
D1,Braço do Trombudo/SC,-27.358578,-49.882145,7,185.72566
1,Braúna/SP,-21.5015319,-50.3175246,618,10764.67514
D1,Braúna/SP,-21.5015319,-50.3175246,24,418.04564
1,Braúnas/MG,-19.055556,-42.716111,254,5326.06416
D1,Braúnas/MG,-19.055556,-42.716111,11,230.65632
1,Brejetuba/ES,-20.1465817,-41.2902303,1724,13873.01843
D1,Brejetuba/ES,-20.1465817,-41.2902303,15,120.70492
1,Brejinho de Nazaré/TO,-11.0205883,-48.5722906,658,11922.44972
D1,Brejinho de Nazaré/TO,-11.0205883,-48.5722906,17,308.02682
1,Brejinho/PE,-7.3482153,-37.28538,810,10817.30769
D1,Brejinho/PE,-7.3482153,-37.28538,21,280.44872
1,Brejinho/RN,-6.1957907,-35.3583019,1501,11738.48440
D1,Brejinho/RN,-6.1957907,-35.3583019,17,132.94752
1,Brejo Alegre/SP,-21.1671191,-50.1850393,398,13776.39322
D1,Brejo Alegre/SP,-21.1671191,-50.1850393,13,449.98269
1,Brejo Grande do Araguaia/PA,-5.7011449,-48.4037308,891,12092.83388
D1,Brejo Grande do Araguaia/PA,-5.7011449,-48.4037308,4,54.28882
1,Brejo Grande/SE,-10.4287358,-36.4667918,461,5518.97522
D1,Brejo Grande/SE,-10.4287358,-36.4667918,14,167.60445
1,Brejo Santo/CE,-7.4909841,-38.9859152,8436,16925.48453
D1,Brejo Santo/CE,-7.4909841,-38.9859152,155,310.98271
1,Brejo da Madre de Deus/PE,-8.1409718,-36.3712527,2299,4488.04295
D1,Brejo da Madre de Deus/PE,-8.1409718,-36.3712527,52,101.51293
1,Brejo de Areia/MA,-4.3316785,-45.5833334,316,3505.65787
D1,Brejo de Areia/MA,-4.3316785,-45.5833334,11,122.03239
1,Brejo do Cruz/PB,-6.32926065,-37.48746163303929,1953,13747.71223
D1,Brejo do Cruz/PB,-6.32926065,-37.48746163303929,23,161.90342
1,Brejo do Piauí/PI,-8.207583,-42.8359849,158,4106.02911
D1,Brejo do Piauí/PI,-8.207583,-42.8359849,4,103.95010
1,Brejo dos Santos/PB,-6.3769367,-37.8243125,753,11649.13366
D1,Brejo dos Santos/PB,-6.3769367,-37.8243125,8,123.76238
1,Brejo/MA,-3.6804397,-42.7529313,934,2548.36157
D1,Brejo/MA,-3.6804397,-42.7529313,19,51.84033
1,Brejolândia/BA,-12.4843845,-43.9611861,146,1375.02354
D1,Brejolândia/BA,-12.4843845,-43.9611861,11,103.59766
1,Brejão/PE,-9.029146,-36.566034,490,5452.32002
D1,Brejão/PE,-9.029146,-36.566034,9,100.14465
1,Brejões/BA,-13.1033754,-39.7909837,862,6061.03220
D1,Brejões/BA,-13.1033754,-39.7909837,12,84.37632
1,Breu Branco/PA,-3.7785073,-49.5684795,911,1352.99709
D1,Breu Branco/PA,-3.7785073,-49.5684795,46,68.31818
1,Breves/PA,-1.68036,-50.479085,4078,3940.21083
D1,Breves/PA,-1.68036,-50.479085,120,115.94539
1,Britânia/GO,-15.2427599,-51.1602061,672,11592.20286
D1,Britânia/GO,-15.2427599,-51.1602061,8,138.00242
1,Brochier/RS,-29.556766,-51.5963047,611,11971.00313
D1,Brochier/RS,-29.556766,-51.5963047,5,97.96238
1,Brodowski/SP,-20.984532,-47.657217,2775,10978.35977
D1,Brodowski/SP,-20.984532,-47.657217,76,300.66859
1,Brotas de Macaúbas/BA,-12.0019007,-42.6257506,203,2003.94867
D1,Brotas de Macaúbas/BA,-12.0019007,-42.6257506,8,78.97335
1,Brotas/SP,-22.2840884,-48.1267265,1965,7976.13249
D1,Brotas/SP,-22.2840884,-48.1267265,69,280.07793
1,Brumadinho/MG,-20.143611,-44.2,4037,9927.21192
D1,Brumadinho/MG,-20.143611,-44.2,88,216.39699
1,Brumado/BA,-14.29507325,-41.659307508575985,9655,14338.75399
D1,Brumado/BA,-14.29507325,-41.659307508575985,198,294.05213
1,Brunópolis/SC,-27.310953,-50.837585,307,12964.52703
D1,Brunópolis/SC,-27.310953,-50.837585,8,337.83784
1,Brusque/SC,-27.0964628,-48.9136323,29421,21367.72001
D1,Brusque/SC,-27.0964628,-48.9136323,311,225.87135
1,Brás Pires/MG,-20.8483109,-43.2430524,282,6568.83298
D1,Brás Pires/MG,-20.8483109,-43.2430524,8,186.34987
1,Bueno Brandão/MG,-22.441976,-46.3517971,995,9052.86143
D1,Bueno Brandão/MG,-22.441976,-46.3517971,30,272.95060
1,Buenos Aires/PE,-7.7218931,-35.326587,387,2934.04094
D1,Buenos Aires/PE,-7.7218931,-35.326587,25,189.53753
1,Buenópolis/MG,-17.8756607,-44.1749365,305,2946.00599
D1,Buenópolis/MG,-17.8756607,-44.1749365,12,115.90843
1,Buerarema/BA,-14.9571177,-39.3008035,1367,7467.49700
D1,Buerarema/BA,-14.9571177,-39.3008035,45,245.82104
1,Bugre/MG,-19.4257687,-42.2556,372,9339.69370
D1,Bugre/MG,-19.4257687,-42.2556,13,326.38715
1,Bujari/AC,-9.8309656,-67.9520886,1139,10930.90211
D1,Bujari/AC,-9.8309656,-67.9520886,17,163.14779
1,Bujaru/PA,-1.5169239,-48.0410699,1459,4958.03174
D1,Bujaru/PA,-1.5169239,-48.0410699,39,132.53135
1,Buri/SP,-23.79849,-48.598924,2662,13333.33333
D1,Buri/SP,-23.79849,-48.598924,93,465.81518
1,Buritama/SP,-21.0664017,-50.1448077,2630,15219.02668
D1,Buritama/SP,-21.0664017,-50.1448077,74,428.21596
1,Buriti Alegre/GO,-18.1377879,-49.0404411,1069,11271.61535
D1,Buriti Alegre/GO,-18.1377879,-49.0404411,34,358.49852
1,Buriti Bravo/MA,-5.8391884,-43.8367876,1729,7222.52391
D1,Buriti Bravo/MA,-5.8391884,-43.8367876,20,83.54568
1,Buriti de Goiás/GO,-16.180644,-50.4287479,301,12156.70436
D1,Buriti de Goiás/GO,-16.180644,-50.4287479,9,363.48950
1,Buriti do Tocantins/TO,-5.3187439,-48.2256609,1142,9933.02601
D1,Buriti do Tocantins/TO,-5.3187439,-48.2256609,21,182.65635
1,Buriti dos Lopes/PI,-3.1776723,-41.8707444,1331,6719.84652
D1,Buriti dos Lopes/PI,-3.1776723,-41.8707444,34,171.65649
1,Buriti dos Montes/PI,-5.3136171,-41.0971256,717,8676.18587
D1,Buriti dos Montes/PI,-5.3136171,-41.0971256,9,108.90610
1,Buriti/MA,-3.9430944,-42.9244281,879,3052.29530
D1,Buriti/MA,-3.9430944,-42.9244281,8,27.77971
1,Buriticupu/MA,-4.3227472,-46.4516989,3706,5077.89485
D1,Buriticupu/MA,-4.3227472,-46.4516989,78,106.87420
1,Buritinópolis/GO,-14.4589282,-46.4293104,212,6457.50838
D1,Buritinópolis/GO,-14.4589282,-46.4293104,3,91.37984
1,Buritirama/BA,-10.7148421,-43.6362327,850,3995.11186
D1,Buritirama/BA,-10.7148421,-43.6362327,23,108.10303
1,Buritirana/MA,-5.5897455,-47.0148915,448,2896.48930
D1,Buritirana/MA,-5.5897455,-47.0148915,24,155.16907
1,Buritis/MG,-15.621389,-46.423889,2130,8515.57190
D1,Buritis/MG,-15.621389,-46.423889,42,167.91269
1,Buritis/RO,-10.2054937,-63.8281954,5014,12424.42264
D1,Buritis/RO,-10.2054937,-63.8281954,75,185.84597
1,Buritizal/SP,-20.1933264,-47.7097165,347,7687.19539
D1,Buritizal/SP,-20.1933264,-47.7097165,10,221.53301
1,Buritizeiro/MG,-17.3667765,-44.9647781,1526,5426.54955
D1,Buritizeiro/MG,-17.3667765,-44.9647781,34,120.90608
1,Butiá/RS,-30.1256795,-51.9692224,2489,11879.53417
D1,Butiá/RS,-30.1256795,-51.9692224,56,267.27759
1,Buíque/PE,-8.6239732,-37.157296,2580,4378.89306
D1,Buíque/PE,-8.6239732,-37.157296,45,76.37604
1,Bálsamo/SP,-20.7343722,-49.5807484,1763,19290.95087
D1,Bálsamo/SP,-20.7343722,-49.5807484,66,722.17967
0,CASO SEM LOCALIZAÇÃO DEFINIDA/BA,-13.415069300066518,-38.14174656569957,11134,74.86016
D0,CASO SEM LOCALIZAÇÃO DEFINIDA/BA,-13.415069300066518,-38.14174656569957,286,1.92294
0,CASO SEM LOCALIZAÇÃO DEFINIDA/CE,-3.3445126297392798,-38.624961942434304,10818,118.46154
0,CASO SEM LOCALIZAÇÃO DEFINIDA/ES,-20.30989267097039,-39.81745156645774,4625,115.08840
D0,CASO SEM LOCALIZAÇÃO DEFINIDA/ES,-20.30989267097039,-39.81745156645774,238,5.92239
0,CASO SEM LOCALIZAÇÃO DEFINIDA/GO,-16.701590966270153,-49.164524059025034,1478,21.05907
0,CASO SEM LOCALIZAÇÃO DEFINIDA/MG,-19.97049116501593,-43.8852149072783,5113,24.15348
D0,CASO SEM LOCALIZAÇÃO DEFINIDA/MG,-19.97049116501593,-43.8852149072783,352,1.66283
0,CASO SEM LOCALIZAÇÃO DEFINIDA/MT,-15.54791153961863,-56.17143998972475,3185,91.40568
D0,CASO SEM LOCALIZAÇÃO DEFINIDA/MT,-15.54791153961863,-56.17143998972475,235,6.74422
0,CASO SEM LOCALIZAÇÃO DEFINIDA/PA,-0.09317078214359542,-48.0050231510481,426,4.95184
D0,CASO SEM LOCALIZAÇÃO DEFINIDA/PA,-0.09317078214359542,-48.0050231510481,13,0.15111
0,CASO SEM LOCALIZAÇÃO DEFINIDA/PI,-2.683810218391744,-41.470898009352254,257,7.85158
D0,CASO SEM LOCALIZAÇÃO DEFINIDA/PI,-2.683810218391744,-41.470898009352254,2,0.06110
0,CASO SEM LOCALIZAÇÃO DEFINIDA/PR,-25.69415946385943,-48.10141676336737,6673,58.36125
D0,CASO SEM LOCALIZAÇÃO DEFINIDA/PR,-25.69415946385943,-48.10141676336737,219,1.91535
0,CASO SEM LOCALIZAÇÃO DEFINIDA/RR,2.813328208465927,-60.663338675861986,2660,439.11708
D0,CASO SEM LOCALIZAÇÃO DEFINIDA/RR,2.813328208465927,-60.663338675861986,18,2.97147
0,CASO SEM LOCALIZAÇÃO DEFINIDA/SP,-24.30968974555485,-46.21366504207253,987,2.14943
1,Caapiranga/AM,-3.3188884,-61.2096404,695,5232.25175
D1,Caapiranga/AM,-3.3188884,-61.2096404,22,165.62524
1,Caaporã/PB,-7.510234,-34.9154114,2142,9756.31974
D1,Caaporã/PB,-7.510234,-34.9154114,34,154.86222
1,Caarapó/MS,-22.6349267,-54.8240903,4073,13313.50309
D1,Caarapó/MS,-22.6349267,-54.8240903,56,183.04841
1,Caatiba/BA,-14.9782759,-40.4092325,953,14688.65598
D1,Caatiba/BA,-14.9782759,-40.4092325,15,231.19605
1,Cabaceiras do Paraguaçu/BA,-12.5377868,-39.1901339,763,4034.68881
D1,Cabaceiras do Paraguaçu/BA,-12.5377868,-39.1901339,5,26.43964
1,Cabaceiras/PB,-7.4899156,-36.2860501,450,7949.12560
D1,Cabaceiras/PB,-7.4899156,-36.2860501,4,70.65889
1,Cabeceira Grande/MG,-16.0297,-47.0906,478,6840.29765
D1,Cabeceira Grande/MG,-16.0297,-47.0906,6,85.86148
1,Cabeceiras do Piauí/PI,-4.4733665,-42.3098716,675,6349.95296
D1,Cabeceiras do Piauí/PI,-4.4733665,-42.3098716,15,141.11007
1,Cabeceiras/GO,-15.7995459,-46.9264991,400,4971.41437
D1,Cabeceiras/GO,-15.7995459,-46.9264991,17,211.28511
1,Cabedelo/PB,-6.97324,-34.8351609,9624,13995.08485
D1,Cabedelo/PB,-6.97324,-34.8351609,202,293.74555
1,Cabixi/RO,-13.4956065,-60.5424442,907,17482.65227
D1,Cabixi/RO,-13.4956065,-60.5424442,21,404.78026
1,Cabo Frio/RJ,-22.8804369,-42.0189227,14755,6404.69142
D1,Cabo Frio/RJ,-22.8804369,-42.0189227,794,344.65096
1,Cabo Verde/MG,-21.4743338,-46.3964995,759,5392.53996
D1,Cabo Verde/MG,-21.4743338,-46.3964995,9,63.94316
1,Cabo de Santo Agostinho/PE,-8.2838945,-35.0320984,9706,4645.26380
D1,Cabo de Santo Agostinho/PE,-8.2838945,-35.0320984,518,247.91332
1,Cabreúva/SP,-23.3075813,-47.1324417,4696,9312.10216
D1,Cabreúva/SP,-23.3075813,-47.1324417,121,239.94130
1,Cabrobó/PE,-8.5083701,-39.3106961,2443,7080.54372
D1,Cabrobó/PE,-8.5083701,-39.3106961,27,78.25406
1,Cabrália Paulista/SP,-22.4562909,-49.3385645,442,10417.15767
D1,Cabrália Paulista/SP,-22.4562909,-49.3385645,9,212.11407
1,Cacaulândia/RO,-10.3380043,-62.9007231,912,14547.77476
D1,Cacaulândia/RO,-10.3380043,-62.9007231,14,223.32110
1,Cacequi/RS,-29.8838059,-54.8273443,802,6455.76753
D1,Cacequi/RS,-29.8838059,-54.8273443,11,88.54544
1,Cachoeira Alta/GO,-18.7618269,-50.9432431,1713,13524.39602
D1,Cachoeira Alta/GO,-18.7618269,-50.9432431,23,181.58850
1,Cachoeira Dourada/GO,-18.4934204,-49.481062,843,10496.82480
D1,Cachoeira Dourada/GO,-18.4934204,-49.481062,31,386.00423
1,Cachoeira Dourada/MG,-18.517136,-49.5002062,170,6282.33555
D1,Cachoeira Dourada/MG,-18.517136,-49.5002062,2,73.90983
1,Cachoeira Grande/MA,-2.9290492,-44.0573223,327,3450.09496
D1,Cachoeira Grande/MA,-2.9290492,-44.0573223,8,84.40599
1,Cachoeira Paulista/SP,-22.666498,-45.015384,2626,7819.89816
D1,Cachoeira Paulista/SP,-22.666498,-45.015384,44,131.02647
1,Cachoeira da Prata/MG,-19.524723,-44.453056,226,6293.51156
D1,Cachoeira da Prata/MG,-19.524723,-44.453056,13,362.01615
1,Cachoeira de Goiás/GO,-16.6688414,-50.6435997,126,9388.97168
D1,Cachoeira de Goiás/GO,-16.6688414,-50.6435997,4,298.06259
1,Cachoeira de Minas/MG,-22.3554043,-45.7796324,1076,9292.68503
D1,Cachoeira de Minas/MG,-22.3554043,-45.7796324,18,155.45384
1,Cachoeira de Pajeú/MG,-15.965833,-41.496666,534,5655.58144
D1,Cachoeira de Pajeú/MG,-15.965833,-41.496666,11,116.50074
1,Cachoeira do Arari/PA,-1.0143572,-48.9621089,502,2086.10372
D1,Cachoeira do Arari/PA,-1.0143572,-48.9621089,25,103.88963
1,Cachoeira do Piriá/PA,-1.7599443,-46.5446954,955,2759.39784
D1,Cachoeira do Piriá/PA,-1.7599443,-46.5446954,7,20.22595
1,Cachoeira do Sul/RS,-30.0474778,-52.8905413,10833,13232.11472
D1,Cachoeira do Sul/RS,-30.0474778,-52.8905413,195,238.18539
1,Cachoeira dos Índios/PB,-6.9259193,-38.6742159,922,8947.11305
D1,Cachoeira dos Índios/PB,-6.9259193,-38.6742159,16,155.26443
1,Cachoeira/BA,-12.5998256,-38.9665918,1729,5150.89225
D1,Cachoeira/BA,-12.5998256,-38.9665918,30,89.37349
1,Cachoeiras de Macacu/RJ,-22.4626861,-42.6534414,3390,5716.40558
D1,Cachoeiras de Macacu/RJ,-22.4626861,-42.6534414,102,171.99804
1,Cachoeirinha/PE,-8.4906364,-36.2338963,644,3141.31018
D1,Cachoeirinha/PE,-8.4906364,-36.2338963,33,160.96776
1,Cachoeirinha/RS,-29.9493353,-51.0898927,15579,11870.61871
D1,Cachoeirinha/RS,-29.9493353,-51.0898927,447,340.59738
1,Cachoeirinha/TO,-6.118647,-47.9208885,128,5604.20315
D1,Cachoeirinha/TO,-6.118647,-47.9208885,2,87.56567
1,Cachoeiro de Itapemirim/ES,-20.848084,-41.11129,28281,13429.47637
D1,Cachoeiro de Itapemirim/ES,-20.848084,-41.11129,591,280.64144
1,Cacimba de Areia/PB,-7.1288513,-37.1575194,61,1650.87957
D1,Cacimba de Areia/PB,-7.1288513,-37.1575194,4,108.25440
1,Cacimba de Dentro/PB,-6.6425101,-35.7929304,1238,7206.89254
D1,Cacimba de Dentro/PB,-6.6425101,-35.7929304,34,197.92758
1,Cacimbas/PB,-7.2125451,-37.0593398,259,3597.72191
D1,Cacimbas/PB,-7.2125451,-37.0593398,8,111.12655
1,Cacimbinhas/AL,-9.401212,-36.991082,897,8237.67104
D1,Cacimbinhas/AL,-9.401212,-36.991082,11,101.01938
1,Cacique Doble/RS,-27.7700117,-51.6616409,605,11923.53173
D1,Cacique Doble/RS,-27.7700117,-51.6616409,12,236.49980
1,Cacoal/RO,-11.4333,-61.4420502,14493,16873.31913
D1,Cacoal/RO,-11.4333,-61.4420502,302,351.60025
1,Caconde/SP,-21.527995,-46.643659,1428,7512.23105
D1,Caconde/SP,-21.527995,-46.643659,39,205.16597
1,Caculé/BA,-14.4990734,-42.2233006,2560,10991.37006
D1,Caculé/BA,-14.4990734,-42.2233006,21,90.16358
1,Caetanos/BA,-14.3387456,-40.9085971,744,5093.09967
D1,Caetanos/BA,-14.3387456,-40.9085971,10,68.45564
1,Caetanópolis/MG,-19.2947496,-44.4138386,1161,9881.69206
D1,Caetanópolis/MG,-19.2947496,-44.4138386,20,170.22725
1,Caetité/BA,-14.0691776,-42.4852428,3812,7462.65735
D1,Caetité/BA,-14.0691776,-42.4852428,41,80.26468
1,Caeté/MG,-19.897777,-43.670278,2116,4697.31614
D1,Caeté/MG,-19.897777,-43.670278,71,157.61316
1,Caetés/PE,-8.7728788,-36.6255835,1685,5829.64296
D1,Caetés/PE,-8.7728788,-36.6255835,22,76.11403
1,Cafarnaum/BA,-11.691399,-41.468823,919,4964.07930
D1,Cafarnaum/BA,-11.691399,-41.468823,23,124.23702
1,Cafeara/PR,-22.78905,-51.714195,430,14556.53351
D1,Cafeara/PR,-22.78905,-51.714195,11,372.37644
1,Cafelândia/PR,-24.6176963,-53.3218057,2600,14087.55960
D1,Cafelândia/PR,-24.6176963,-53.3218057,30,162.54876
1,Cafelândia/SP,-21.8054355,-49.6030627,815,4567.61755
D1,Cafelândia/SP,-21.8054355,-49.6030627,46,257.80418
1,Cafezal do Sul/PR,-23.900508,-53.512418,453,11299.57595
D1,Cafezal do Sul/PR,-23.900508,-53.512418,7,174.60713
1,Caiabu/SP,-22.0143038,-51.2356597,315,7512.52087
D1,Caiabu/SP,-22.0143038,-51.2356597,7,166.94491
1,Caiana/MG,-20.695555,-41.924723,164,2959.75456
D1,Caiana/MG,-20.695555,-41.924723,7,126.33099
1,Caiapônia/GO,-16.9538779,-51.8090761,1522,7965.66703
D1,Caiapônia/GO,-16.9538779,-51.8090761,42,219.81473
1,Caibaté/RS,-28.290475,-54.645407,421,8729.00684
D1,Caibaté/RS,-28.290475,-54.645407,7,145.13788
1,Caibi/SC,-27.0751925,-53.2502133,685,11174.55139
D1,Caibi/SC,-27.0751925,-53.2502133,16,261.01142
1,Caicó/RN,-6.4594544,-37.0971911,12303,18001.84364
D1,Caicó/RN,-6.4594544,-37.0971911,148,216.55473
1,Caieiras/SP,-23.3644621,-46.7484765,9319,9067.38020
D1,Caieiras/SP,-23.3644621,-46.7484765,318,309.41377
1,Cairu/BA,-13.4860505,-39.0455744,1546,8389.86270
D1,Cairu/BA,-13.4860505,-39.0455744,16,86.82911
1,Caiuá/SP,-21.8319357,-51.9887179,397,6676.75748
D1,Caiuá/SP,-21.8319357,-51.9887179,9,151.36226
1,Caiçara do Norte/RN,-5.0645017,-36.0561226,528,8047.55373
D1,Caiçara do Norte/RN,-5.0645017,-36.0561226,12,182.89895
1,Caiçara do Rio do Vento/RN,-5.757968,-36.00089,368,9905.78735
D1,Caiçara do Rio do Vento/RN,-5.757968,-36.00089,8,215.34320
1,Caiçara/PB,-6.6146866,-35.4681434,826,11486.58045
D1,Caiçara/PB,-6.6146866,-35.4681434,14,194.68780
1,Caiçara/RS,-27.2750478,-53.4310053,649,13808.51064
D1,Caiçara/RS,-27.2750478,-53.4310053,10,212.76596
1,Cajamar/SP,-23.3561111,-46.8769444,5242,6726.20422
D1,Cajamar/SP,-23.3561111,-46.8769444,231,296.40465
1,Cajapió/MA,-2.8778715,-44.6746871,171,1524.60770
D1,Cajapió/MA,-2.8778715,-44.6746871,7,62.41084
1,Cajari/MA,-3.3213076,-45.0118757,278,1429.23243
D1,Cajari/MA,-3.3213076,-45.0118757,9,46.27011
1,Cajati/SP,-24.7272376,-48.1077914,4606,16164.80663
D1,Cajati/SP,-24.7272376,-48.1077914,102,357.97010
1,Cajazeiras do Piauí/PI,-6.794271,-42.3935024,80,2239.01483
D1,Cajazeiras do Piauí/PI,-6.794271,-42.3935024,1,27.98769
1,Cajazeiras/PB,-6.8897849,-38.5570389,9842,15800.54263
D1,Cajazeiras/PB,-6.8897849,-38.5570389,157,252.05092
1,Cajazeirinhas/PB,-6.961442,-37.7993733,212,6614.66459
D1,Cajazeirinhas/PB,-6.961442,-37.7993733,1,31.20125
1,Cajobi/SP,-20.8776238,-48.8106972,1080,10192.52548
D1,Cajobi/SP,-20.8776238,-48.8106972,31,292.56323
1,Cajueiro da Praia/PI,-2.931114,-41.340801,482,6280.94866
D1,Cajueiro da Praia/PI,-2.931114,-41.340801,20,260.62028
1,Cajueiro/AL,-9.399589,-36.1524309,636,2981.57611
D1,Cajueiro/AL,-9.399589,-36.1524309,30,140.64038
1,Cajuri/MG,-20.7901414,-42.7954489,425,10694.51434
D1,Cajuri/MG,-20.7901414,-42.7954489,6,150.98138
1,Cajuru/SP,-21.2759978,-47.3046035,1960,7426.21150
D1,Cajuru/SP,-21.2759978,-47.3046035,57,215.96635
1,Caldas Brandão/PB,-7.1027959,-35.3254676,601,9940.45650
D1,Caldas Brandão/PB,-7.1027959,-35.3254676,10,165.39861
1,Caldas Novas/GO,-17.745,-48.625,11756,12614.27529
D1,Caldas Novas/GO,-17.745,-48.625,270,289.71200
1,Caldas/MG,-21.923611,-46.386111,1017,6994.01692
D1,Caldas/MG,-21.923611,-46.386111,39,268.20714
1,Caldazinha/GO,-16.7116649,-49.0012601,379,9849.27235
D1,Caldazinha/GO,-16.7116649,-49.0012601,11,285.86279
1,Caldeirão Grande do Piauí/PI,-7.3310393,-40.6374433,449,7766.82235
D1,Caldeirão Grande do Piauí/PI,-7.3310393,-40.6374433,2,34.59609
1,Caldeirão Grande/BA,-11.0208483,-40.3041387,569,4249.12254
D1,Caldeirão Grande/BA,-11.0208483,-40.3041387,6,44.80621
1,Califórnia/PR,-23.6672543,-51.3554556,1294,15036.02138
D1,Califórnia/PR,-23.6672543,-51.3554556,37,429.93261
1,Calmon/SC,-26.6023644,-51.0992893,50,1499.25037
D1,Calmon/SC,-26.6023644,-51.0992893,7,209.89505
1,Calumbi/PE,-7.9389746,-38.1516871,772,13433.09553
D1,Calumbi/PE,-7.9389746,-38.1516871,5,87.00191
1,Calçado/PE,-8.7413446,-36.3351787,542,4919.22309
D1,Calçado/PE,-8.7413446,-36.3351787,7,63.53240
1,Calçoene/AP,2.4981757,-50.9539503,1681,14868.21157
D1,Calçoene/AP,2.4981757,-50.9539503,11,97.29347
1,Camacan/BA,-15.4166631,-39.4930088,2981,9313.87865
D1,Camacan/BA,-15.4166631,-39.4930088,86,268.69962
1,Camacho/MG,-20.625556,-45.156667,142,4949.45974
D1,Camacho/MG,-20.625556,-45.156667,2,69.71070
1,Camalaú/PB,-7.885031,-36.824191,454,7527.77317
D1,Camalaú/PB,-7.885031,-36.824191,7,116.06699
1,Camamu/BA,-13.9438142,-39.1060917,2487,7028.99780
D1,Camamu/BA,-13.9438142,-39.1060917,57,161.09886
1,Camanducaia/MG,-22.755278,-46.144444,3445,15802.02743
D1,Camanducaia/MG,-22.755278,-46.144444,69,316.49924
1,Camapuã/MS,-19.5291747,-54.0434641,929,6784.48842
D1,Camapuã/MS,-19.5291747,-54.0434641,32,233.69605
1,Camaquã/RS,-30.8524752,-51.8075619,7405,11139.02344
D1,Camaquã/RS,-30.8524752,-51.8075619,149,224.13430
1,Camaragibe/PE,-8.0213832,-34.9810768,7469,4700.47011
D1,Camaragibe/PE,-8.0213832,-34.9810768,437,275.01746
1,Camargo/RS,-28.5865661,-52.2031474,443,16156.09044
D1,Camargo/RS,-28.5865661,-52.2031474,7,255.28811
1,Camaçari/BA,-12.6998188,-38.3260762,24682,8111.02129
D1,Camaçari/BA,-12.6998188,-38.3260762,619,203.41634
1,Cambará do Sul/RS,-29.0489517,-50.145412,336,5245.08273
D1,Cambará do Sul/RS,-29.0489517,-50.145412,10,156.10365
1,Cambará/PR,-23.042273,-50.075281,3058,12008.16775
D1,Cambará/PR,-23.042273,-50.075281,64,251.31548
1,Cambira/PR,-23.600265,-51.581045,1096,13843.62764
D1,Cambira/PR,-23.600265,-51.581045,26,328.40722
1,Camboriú/SC,-27.0273601,-48.6535657,13817,16235.23882
D1,Camboriú/SC,-27.0273601,-48.6535657,169,198.57823
1,Cambuci/RJ,-21.5749919,-41.9107833,1091,7032.35787
D1,Cambuci/RJ,-21.5749919,-41.9107833,40,257.83164
1,Cambuquira/MG,-21.853056,-45.2953619,857,6689.04152
D1,Cambuquira/MG,-21.853056,-45.2953619,26,202.93475
1,Cambuí/MG,-22.6122501,-46.0572137,4064,13631.17998
D1,Cambuí/MG,-22.6122501,-46.0572137,60,201.24774
1,Cambé/PR,-23.2782035,-51.2779583,12473,11619.97746
D1,Cambé/PR,-23.2782035,-51.2779583,315,293.45730
1,Cametá/PA,-2.242949,-49.497885,9740,6988.89240
D1,Cametá/PA,-2.242949,-49.497885,263,188.71445
1,Camocim de São Félix/PE,-8.3616757,-35.7638903,583,3084.65608
D1,Camocim de São Félix/PE,-8.3616757,-35.7638903,19,100.52910
1,Camocim/CE,-2.9009918,-40.8427389,6268,9808.00225
D1,Camocim/CE,-2.9009918,-40.8427389,163,255.05813
1,Campanha/MG,-21.8361108,-45.401986,2186,13041.40317
D1,Campanha/MG,-21.8361108,-45.401986,44,262.49851
1,Campanário/MG,-18.2398144,-41.7271768,252,6756.03217
D1,Campanário/MG,-18.2398144,-41.7271768,6,160.85791
