type,name,lat,lon,total,total_per_100k_inhabitants
1,Abadia de Goiás/GO,-16.7572644,-49.4412205,217,2473.49823
D1,Abadia de Goiás/GO,-16.7572644,-49.4412205,1,11.39861
1,Abadia dos Dourados/MG,-18.4911191,-47.4063589,48,686.79353
D1,Abadia dos Dourados/MG,-18.4911191,-47.4063589,1,14.30820
1,Abadiânia/GO,-16.1940946,-48.7067767,80,399.16176
D1,Abadiânia/GO,-16.1940946,-48.7067767,8,39.91618
1,Abaetetuba/PA,-1.721828,-48.878843,2863,1815.49544
D1,Abaetetuba/PA,-1.721828,-48.878843,110,69.75358
1,Abaeté/MG,-19.1566833,-45.4481213,29,124.80096
D1,Abaeté/MG,-19.1566833,-45.4481213,2,8.60696
1,Abaiara/CE,-7.3607808,-39.0487878,63,536.76408
D1,Abaiara/CE,-7.3607808,-39.0487878,2,17.04013
1,Abaré/BA,-8.7239913,-39.1139689,43,214.07946
1,Abatiá/PR,-23.3052967,-50.3102532,56,750.97224
1,Abaíra/BA,-13.2503296,-41.6640342,11,125.87253
1,Abdon Batista/SC,-27.612419,-51.022992,83,3238.39251
1,Abel Figueiredo/PA,-4.953001,-48.3958485,172,2313.69384
D1,Abel Figueiredo/PA,-4.953001,-48.3958485,1,13.45171
1,Abelardo Luz/SC,-26.5705893,-52.3280339,154,860.14298
D1,Abelardo Luz/SC,-26.5705893,-52.3280339,3,16.75603
1,Abre Campo/MG,-20.2976097,-42.4764741,27,200.68381
1,Abreu e Lima/PE,-7.900719,-34.898389,692,692.06921
D1,Abreu e Lima/PE,-7.900719,-34.898389,87,87.00870
1,Abreulândia/TO,-9.6221526,-49.1558343,15,581.62078
D1,Abreulândia/TO,-9.6221526,-49.1558343,2,77.54944
1,Acaiaca/MG,-20.3621646,-43.1444162,13,325.48823
D1,Acaiaca/MG,-20.3621646,-43.1444162,1,25.03756
1,Acajutiba/BA,-11.6609659,-38.0186381,75,494.75559
D1,Acajutiba/BA,-11.6609659,-38.0186381,3,19.79022
1,Acarape/CE,-4.2237866,-38.7071663,1269,8500.23444
D1,Acarape/CE,-4.2237866,-38.7071663,14,93.77721
1,Acaraú/CE,-2.8869514,-40.1194713,2535,4046.87026
D1,Acaraú/CE,-2.8869514,-40.1194713,55,87.80192
1,Acari/RN,-6.4364689,-36.6394777,50,448.99425
D1,Acari/RN,-6.4364689,-36.6394777,3,26.93966
1,Acará/PA,-1.961388,-48.1987043,665,1196.23680
D1,Acará/PA,-1.961388,-48.1987043,12,21.58623
1,Acauã/PI,-8.219542,-41.083059,23,324.67532
1,Acopiara/CE,-6.0936464,-39.4543204,497,915.79141
D1,Acopiara/CE,-6.0936464,-39.4543204,26,47.90861
1,Acorizal/MT,-15.2001544,-56.3668953,111,2055.93628
D1,Acorizal/MT,-15.2001544,-56.3668953,3,55.56585
1,Acrelândia/AC,-10.0759167,-67.0526898,304,1992.65863
D1,Acrelândia/AC,-10.0759167,-67.0526898,7,45.88359
1,Acreúna/GO,-17.3959899,-50.3749031,188,840.56157
D1,Acreúna/GO,-17.3959899,-50.3749031,7,31.29751
1,Adamantina/SP,-21.6866517,-51.0762975,161,459.10802
D1,Adamantina/SP,-21.6866517,-51.0762975,6,17.10962
1,Adelândia/GO,-16.4155077,-50.1665834,43,1709.06200
1,Adolfo/SP,-21.2356597,-49.6441918,46,1291.40932
D1,Adolfo/SP,-21.2356597,-49.6441918,3,84.22235
1,Adrianópolis/PR,-24.6557863,-48.9912769,137,2314.58017
D1,Adrianópolis/PR,-24.6557863,-48.9912769,2,33.78949
1,Adustina/BA,-10.5358875,-38.114479,60,352.11268
D1,Adustina/BA,-10.5358875,-38.114479,1,5.86854
1,Afogados da Ingazeira/PE,-7.750429,-37.6356375,231,619.98443
D1,Afogados da Ingazeira/PE,-7.750429,-37.6356375,7,18.78741
1,Afonso Bezerra/RN,-5.4745,-36.57625071327935,84,761.21432
D1,Afonso Bezerra/RN,-5.4745,-36.57625071327935,6,54.37245
1,Afonso Cláudio/ES,-20.077841,-41.12606,577,1886.48401
D1,Afonso Cláudio/ES,-20.077841,-41.12606,14,45.77258
1,Afonso Cunha/MA,-4.1326105,-43.3230026,132,2023.29859
D1,Afonso Cunha/MA,-4.1326105,-43.3230026,2,30.65604
1,Afrânio/PE,-8.5198919,-41.0070197,104,529.66641
D1,Afrânio/PE,-8.5198919,-41.0070197,1,5.09295
1,Afuá/PA,-0.1535664,-50.3879223,1593,4061.91035
D1,Afuá/PA,-0.1535664,-50.3879223,9,22.94865
1,Agrestina/PE,-8.4558021,-35.9442663,499,2005.22403
D1,Agrestina/PE,-8.4558021,-35.9442663,28,112.51758
1,Agricolândia/PI,-5.7967843,-42.6605131,34,661.60732
1,Agrolândia/SC,-27.4122212,-49.8295774,83,763.99116
D1,Agrolândia/SC,-27.4122212,-49.8295774,2,18.40943
1,Agronômica/SC,-27.2660744,-49.7104753,56,1027.90015
D1,Agronômica/SC,-27.2660744,-49.7104753,3,55.06608
1,Aguanil/MG,-20.9424533,-45.3927152,24,534.99777
D1,Aguanil/MG,-20.9424533,-45.3927152,3,66.87472
1,Aguaí/SP,-22.0592036,-46.979384,154,424.18400
D1,Aguaí/SP,-22.0592036,-46.979384,4,11.01777
1,Agudo/RS,-29.6423259,-53.2494005,8,48.59972
1,Agudos do Sul/PR,-25.9890808,-49.3328175,64,682.95806
1,Agudos/SP,-22.471162,-48.987822,319,857.20428
D1,Agudos/SP,-22.471162,-48.987822,6,16.12296
1,Aguiar/PB,-7.0928404,-38.1727215,23,407.80142
1,Aguiarnópolis/TO,-6.5600452,-47.4721189,321,4767.56275
D1,Aguiarnópolis/TO,-6.5600452,-47.4721189,6,89.11332
1,Aimorés/MG,-19.4917754,-41.0615603,218,866.21369
D1,Aimorés/MG,-19.4917754,-41.0615603,1,3.97346
1,Aiquara/BA,-14.126918,-39.8887574,126,2834.00810
D1,Aiquara/BA,-14.126918,-39.8887574,3,67.47638
1,Aiuaba/CE,-6.5710836,-40.1212278,16,91.95931
D1,Aiuaba/CE,-6.5710836,-40.1212278,1,5.74746
1,Aiuruoca/MG,-21.9759554,-44.6036637,1,16.65834
1,Ajuricaba/RS,-28.239654,-53.7693013,6,85.42141
1,Alagoa Grande/PB,-7.0415212,-35.6285322,823,2888.12465
D1,Alagoa Grande/PB,-7.0415212,-35.6285322,18,63.16676
1,Alagoa Nova/PB,-7.0653703,-35.76695977336711,261,1251.85860
D1,Alagoa Nova/PB,-7.0653703,-35.76695977336711,7,33.57475
1,Alagoinha do Piauí/PI,-7.0090952,-40.939675,59,771.14103
D1,Alagoinha do Piauí/PI,-7.0090952,-40.939675,1,13.07019
1,Alagoinha/PB,-6.97063215,-35.51490901897793,821,5666.36759
D1,Alagoinha/PB,-6.97063215,-35.51490901897793,7,48.31251
1,Alagoinha/PE,-8.50355635,-36.77701174370496,135,922.38316
D1,Alagoinha/PE,-8.50355635,-36.77701174370496,3,20.49740
1,Alagoinhas/BA,-12.133526,-38.420772,2548,1680.78313
D1,Alagoinhas/BA,-12.133526,-38.420772,32,21.10874
1,Alambari/SP,-23.550338,-47.897971,37,614.10788
1,Albertina/MG,-20.66164,-43.784039,4,133.02295
1,Alcantil/PB,-7.7425491,-36.0609604,54,983.24836
1,Alcinópolis/MS,-18.3264121,-53.7094463,6,112.29646
D1,Alcinópolis/MS,-18.3264121,-53.7094463,2,37.43215
1,Alcobaça/BA,-17.5215875,-39.1965474,324,1441.92256
D1,Alcobaça/BA,-17.5215875,-39.1965474,3,13.35113
1,Alcântara/MA,-2.4038956,-44.4154241,40,181.02005
D1,Alcântara/MA,-2.4038956,-44.4154241,6,27.15301
1,Alcântaras/CE,-3.586247,-40.5457641,398,3397.64384
D1,Alcântaras/CE,-3.586247,-40.5457641,3,25.61038
1,Aldeias Altas/MA,-4.6291957,-43.4708622,642,2419.71958
1,Alecrim/RS,-27.6566142,-54.7653195,10,168.06723
1,Alegre/ES,-20.7625787,-41.5318886,256,850.95067
D1,Alegre/ES,-20.7625787,-41.5318886,14,46.53636
1,Alegrete do Piauí/PI,-7.2440138,-40.8602296,46,935.91048
1,Alegrete/RS,-29.790166,-55.794862,302,410.38742
D1,Alegrete/RS,-29.790166,-55.794862,11,14.94789
1,Alegria/RS,-27.8332103,-54.0574959,18,519.63048
1,Alenquer/PA,-1.946229,-54.738355,1110,1954.60388
D1,Alenquer/PA,-1.946229,-54.738355,25,44.02261
1,Alexandria/RN,-6.414779,-38.0135516,36,265.15431
D1,Alexandria/RN,-6.414779,-38.0135516,4,29.46159
1,Alexânia/GO,-16.0834049,-48.5077803,467,1688.78603
D1,Alexânia/GO,-16.0834049,-48.5077803,8,28.92995
1,Alfenas/MG,-21.4297405,-45.9479419,354,442.52213
D1,Alfenas/MG,-21.4297405,-45.9479419,21,26.25131
1,Alfredo Chaves/ES,-20.624970400000002,-40.75006690147988,296,2027.25841
D1,Alfredo Chaves/ES,-20.624970400000002,-40.75006690147988,5,34.24423
1,Alfredo Marcondes/SP,-21.9527,-51.413956,32,768.12290
D1,Alfredo Marcondes/SP,-21.9527,-51.413956,1,24.00384
1,Alfredo Vasconcelos/MG,-21.145833,-43.776389,12,173.73679
D1,Alfredo Vasconcelos/MG,-21.145833,-43.776389,1,14.47807
1,Alfredo Wagner/SC,-27.6961513,-49.3326734,93,926.66401
1,Algodão de Jandaíra/PB,-6.9040175,-36.0089879,6,233.73588
1,Alhandra/PB,-7.4304246,-34.9106103,596,3042.67919
D1,Alhandra/PB,-7.4304246,-34.9106103,16,81.68266
1,Aliança do Tocantins/TO,-11.3055927,-48.9409096,27,500.92764
1,Aliança/PE,-7.60398,-35.222696,329,857.08331
D1,Aliança/PE,-7.60398,-35.222696,25,65.12791
1,Almadina/BA,-14.70466,-39.6381994,232,4245.97365
D1,Almadina/BA,-14.70466,-39.6381994,2,36.60322
1,Almas/TO,-11.5681309,-47.1702803,28,396.88164
D1,Almas/TO,-11.5681309,-47.1702803,2,28.34869
1,Almeirim/PA,-1.5290377,-52.5788111,225,659.64995
D1,Almeirim/PA,-1.5290377,-52.5788111,18,52.77200
1,Almenara/MG,-16.1740678,-40.6904907,490,1169.56273
D1,Almenara/MG,-16.1740678,-40.6904907,8,19.09490
1,Almino Afonso/RN,-6.1544208,-37.7649018,19,401.26716
1,Almirante Tamandaré do Sul/RS,-28.1141129,-52.9134874,4,203.66599
1,Almirante Tamandaré/PR,-25.3133048,-49.2997838,937,789.89741
D1,Almirante Tamandaré/PR,-25.3133048,-49.2997838,18,15.17412
1,Aloândia/GO,-17.7277983,-49.4809338,13,651.62907
D1,Aloândia/GO,-17.7277983,-49.4809338,1,50.12531
1,Alpercata/MG,-18.9803616,-41.9827637,155,2087.82328
D1,Alpercata/MG,-18.9803616,-41.9827637,5,67.34914
1,Alpestre/RS,-27.2512339,-53.0349646,25,399.48865
1,Alpinópolis/MG,-20.863611,-46.387777,57,287.11026
D1,Alpinópolis/MG,-20.863611,-46.387777,4,20.14809
1,Alta Floresta D'Oeste/RO,-11.9296917,-61.9961284,371,1616.91000
D1,Alta Floresta D'Oeste/RO,-11.9296917,-61.9961284,3,13.07474
1,Alta Floresta/MT,-9.8715018,-56.0839881,472,911.51365
D1,Alta Floresta/MT,-9.8715018,-56.0839881,13,25.10525
1,Altair/SP,-20.5238955,-49.0606135,19,456.73077
D1,Altair/SP,-20.5238955,-49.0606135,1,24.03846
1,Altamira do Maranhão/MA,-4.1643006,-45.4674574,250,3075.78740
D1,Altamira do Maranhão/MA,-4.1643006,-45.4674574,5,61.51575
1,Altamira do Paraná/PR,-24.799114,-52.7128633,2,102.98661
1,Altamira/PA,-3.204065,-52.209961,3397,2964.37859
D1,Altamira/PA,-3.204065,-52.209961,97,84.64667
1,Altaneira/CE,-6.9980933,-39.7385742,9,118.63960
D1,Altaneira/CE,-6.9980933,-39.7385742,1,13.18218
1,Alterosa/MG,-21.249166,-46.143055,12,82.95313
1,Altinho/PE,-8.4904095,-36.0607494,377,1641.12833
D1,Altinho/PE,-8.4904095,-36.0607494,6,26.11875
1,Altinópolis/SP,-21.021364,-47.3712,130,803.26248
D1,Altinópolis/SP,-21.021364,-47.3712,5,30.89471
1,Alto Alegre do Maranhão/MA,-4.2055693,-44.4525287,322,1190.25616
D1,Alto Alegre do Maranhão/MA,-4.2055693,-44.4525287,11,40.66092
1,Alto Alegre do Pindaré/MA,-3.6698186,-45.8462153,1282,4016.41655
D1,Alto Alegre do Pindaré/MA,-3.6698186,-45.8462153,6,18.79758
1,Alto Alegre dos Parecis/RO,-12.1314515,-61.856265,124,936.48516
D1,Alto Alegre dos Parecis/RO,-12.1314515,-61.856265,4,30.20920
1,Alto Alegre/RR,2.98858,-61.307167,423,2727.27273
D1,Alto Alegre/RR,2.98858,-61.307167,11,70.92199
1,Alto Alegre/SP,-21.5820592,-50.1661976,29,707.48963
D1,Alto Alegre/SP,-21.5820592,-50.1661976,1,24.39619
1,Alto Araguaia/MT,-17.3156528,-53.2169365,133,698.38269
D1,Alto Araguaia/MT,-17.3156528,-53.2169365,3,15.75299
1,Alto Bela Vista/SC,-27.4320737,-51.905771,10,516.26226
1,Alto Boa Vista/MT,-11.6723985,-51.3744431,61,894.16593
D1,Alto Boa Vista/MT,-11.6723985,-51.3744431,2,29.31692
1,Alto Caparaó/MG,-20.4405661,-41.8683799,11,188.13067
1,Alto Feliz/RS,-29.3785943,-51.3123751,15,495.37649
1,Alto Garças/MT,-16.9469683,-53.529427,154,1280.13300
D1,Alto Garças/MT,-16.9469683,-53.529427,1,8.31255
1,Alto Horizonte/GO,-14.1954948,-49.3366993,74,1153.72622
1,Alto Jequitibá/MG,-20.423611,-41.966111,43,517.01335
D1,Alto Jequitibá/MG,-20.423611,-41.966111,2,24.04713
1,Alto Longá/PI,-5.2549051,-42.2072388,78,545.30201
D1,Alto Longá/PI,-5.2549051,-42.2072388,2,13.98210
1,Alto Paraguai/MT,-14.513712,-56.4936374,73,642.83198
1,Alto Paraná/PR,-23.131247,-52.318893,30,203.11442
1,Alto Paraíso de Goiás/GO,-14.1304779,-47.5100161,79,1036.20147
1,Alto Paraíso/PR,-23.508137,-53.728537,1,36.48304
1,Alto Paraíso/RO,-9.7240103,-63.3188123,202,942.69181
D1,Alto Paraíso/RO,-9.7240103,-63.3188123,4,18.66716
1,Alto Parnaíba/MA,-9.112506,-45.9310154,115,1027.70331
D1,Alto Parnaíba/MA,-9.112506,-45.9310154,1,8.93655
1,Alto Piquiri/PR,-24.0239021,-53.4417448,63,640.50427
D1,Alto Piquiri/PR,-24.0239021,-53.4417448,3,30.50020
1,Alto Rio Doce/MG,-21.0239537,-43.4133507,59,536.36364
D1,Alto Rio Doce/MG,-21.0239537,-43.4133507,1,9.09091
1,Alto Rio Novo/ES,-19.0577208,-41.0171518,121,1544.15518
D1,Alto Rio Novo/ES,-19.0577208,-41.0171518,7,89.33129
1,Alto Santo/CE,-5.5190371,-38.2719351,240,1399.74338
D1,Alto Santo/CE,-5.5190371,-38.2719351,5,29.16132
1,Alto Taquari/MT,-17.8269099,-53.2831736,81,746.75025
D1,Alto Taquari/MT,-17.8269099,-53.2831736,5,46.09569
1,Alto do Rodrigues/RN,-5.290868,-36.7616726,316,2174.96042
D1,Alto do Rodrigues/RN,-5.290868,-36.7616726,12,82.59343
1,Altos/PI,-5.0393915,-42.4611694,1037,2558.97740
D1,Altos/PI,-5.0393915,-42.4611694,12,29.61208
1,Altônia/PR,-23.8722004,-53.894037,61,276.56873
D1,Altônia/PR,-23.8722004,-53.894037,1,4.53391
1,Alumínio/SP,-23.5203479,-47.2575256,112,601.24544
D1,Alumínio/SP,-23.5203479,-47.2575256,5,26.84131
1,Alvarenga/MG,-19.4175,-41.728334,116,2969.02995
D1,Alvarenga/MG,-19.4175,-41.728334,1,25.59509
1,Alvarães/AM,-3.214786,-64.8143124,1181,7362.38389
D1,Alvarães/AM,-3.214786,-64.8143124,13,81.04233
1,Alvinlândia/SP,-22.4431852,-49.7643596,20,620.73246
1,Alvinópolis/MG,-20.1105199,-43.0601805,26,171.01888
1,Alvorada D'Oeste/RO,-11.346271,-62.284697,69,478.80092
D1,Alvorada D'Oeste/RO,-11.346271,-62.284697,3,20.81743
1,Alvorada de Minas/MG,-18.7318587,-43.3641479,46,1275.65169
D1,Alvorada de Minas/MG,-18.7318587,-43.3641479,1,27.73156
1,Alvorada do Gurguéia/PI,-8.4465288,-43.8655915,39,719.68998
D1,Alvorada do Gurguéia/PI,-8.4465288,-43.8655915,2,36.90718
1,Alvorada do Norte/GO,-14.483911,-46.4959897,118,1362.58661
1,Alvorada do Sul/PR,-22.7807269,-51.2307721,27,236.71752
D1,Alvorada do Sul/PR,-22.7807269,-51.2307721,2,17.53463
1,Alvorada/RS,-29.9981184,-51.0772509,1716,815.95778
D1,Alvorada/RS,-29.9981184,-51.0772509,66,31.38299
1,Alvorada/TO,-12.478465,-49.124926,300,3566.33381
D1,Alvorada/TO,-12.478465,-49.124926,2,23.77556
1,Além Paraíba/MG,-21.8760576,-42.6810473,293,828.57304
D1,Além Paraíba/MG,-21.8760576,-42.6810473,12,33.93473
1,Amajari/RR,3.6523869,-61.4194315,259,2024.07002
D1,Amajari/RR,3.6523869,-61.4194315,6,46.88965
1,Amambai/MS,-23.1082701,-55.2284854,99,251.29455
D1,Amambai/MS,-23.1082701,-55.2284854,3,7.61499
1,Amaporã/PR,-23.094272,-52.786597,24,383.57040
1,Amapá do Maranhão/MA,-1.6762114,-46.0109669,3,43.09107
1,Amapá/AP,2.0529997,-50.7930003,418,4588.86815
D1,Amapá/AP,2.0529997,-50.7930003,4,43.91261
1,Amaraji/PE,-8.373925,-35.4536527,138,604.49428
D1,Amaraji/PE,-8.373925,-35.4536527,22,96.36865
1,Amaralina/GO,-13.9236199,-49.2962411,2,52.46590
1,Amarante do Maranhão/MA,-5.56913,-46.747284,784,1892.12019
D1,Amarante do Maranhão/MA,-5.56913,-46.747284,15,36.20128
1,Amarante/PI,-6.2459374,-42.8476238,170,966.01887
D1,Amarante/PI,-6.2459374,-42.8476238,5,28.41232
1,Amargosa/BA,-13.03793715,-39.60796443875596,234,628.33973
D1,Amargosa/BA,-13.03793715,-39.60796443875596,7,18.79649
1,Amaturá/AM,-3.3640509,-68.1994689,519,4498.95978
D1,Amaturá/AM,-3.3640509,-68.1994689,8,69.34813
1,Americana/SP,-22.7392463,-47.3306032,2420,1010.02934
D1,Americana/SP,-22.7392463,-47.3306032,89,37.14571
1,Americano do Brasil/GO,-16.2515808,-49.9806104,99,1620.02946
D1,Americano do Brasil/GO,-16.2515808,-49.9806104,1,16.36393
1,Ametista do Sul/RS,-27.3617341,-53.1826575,45,607.36942
1,Amontada/CE,-3.3634586,-39.8284791,737,1696.12446
D1,Amontada/CE,-3.3634586,-39.8284791,16,36.82224
1,Amorinópolis/GO,-16.6211308,-51.0949921,14,447.85669
1,Amparo de São Francisco/SE,-10.1299754,-36.9269099,68,2864.36394
1,Amparo do Serra/MG,-20.5070255,-42.8028462,3,63.65372
1,Amparo/PB,-7.56394725,-37.04652873235175,17,759.60679
1,Amparo/SP,-22.70111,-46.76444,478,662.09571
D1,Amparo/SP,-22.70111,-46.76444,15,20.77706
1,Ampére/PR,-25.9168712,-53.4742414,51,266.29073
D1,Ampére/PR,-25.9168712,-53.4742414,1,5.22139
1,Amélia Rodrigues/BA,-12.4015388,-38.7516971,225,896.34292
D1,Amélia Rodrigues/BA,-12.4015388,-38.7516971,2,7.96749
1,América Dourada/BA,-11.4515262,-41.4357517,90,559.21461
1,Américo Brasiliense/SP,-21.7297099,-48.1052092,263,649.31859
D1,Américo Brasiliense/SP,-21.7297099,-48.1052092,3,7.40668
1,Américo de Campos/SP,-20.298476,-49.735904,131,2194.67247
D1,Américo de Campos/SP,-20.298476,-49.735904,1,16.75322
1,Anadia/AL,-9.6830208,-36.3052699,421,2399.54403
D1,Anadia/AL,-9.6830208,-36.3052699,6,34.19778
1,Anagé/BA,-14.6134669,-41.1376308,70,318.10952
D1,Anagé/BA,-14.6134669,-41.1376308,1,4.54442
1,Anahy/PR,-24.6450861,-53.1337957,22,785.43377
1,Anajatuba/MA,-3.26441,-44.6179916,318,1186.43435
D1,Anajatuba/MA,-3.26441,-44.6179916,8,29.84741
1,Anajás/PA,-0.9878802,-49.9390114,539,1841.03563
D1,Anajás/PA,-0.9878802,-49.9390114,12,40.98781
1,Analândia/SP,-22.128917,-47.661939,28,560.56056
1,Anamã/AM,-3.5797356,-61.4049996,552,4054.64963
1,Ananindeua/PA,-1.374035,-48.4016623,6068,1143.61532
D1,Ananindeua/PA,-1.374035,-48.4016623,347,65.39791
1,Ananás/TO,-6.3663053,-48.080238,115,1204.31459
D1,Ananás/TO,-6.3663053,-48.080238,3,31.41690
1,Anapu/PA,-3.4668292,-51.2057035,628,2251.70312
D1,Anapu/PA,-3.4668292,-51.2057035,16,57.36823
1,Anapurus/MA,-3.6751298,-43.1046001,689,4379.60844
D1,Anapurus/MA,-3.6751298,-43.1046001,6,38.13883
1,Anastácio/MS,-20.4832458,-55.8048448,179,712.15437
D1,Anastácio/MS,-20.4832458,-55.8048448,6,23.87110
1,Anaurilândia/MS,-22.185169,-52.719056,30,332.04206
1,Anchieta/ES,-20.8057672,-40.6454564,623,2128.96832
D1,Anchieta/ES,-20.8057672,-40.6454564,18,61.51112
1,Anchieta/SC,-26.5350527,-53.3293938,24,425.68287
1,Andaraí/BA,-12.8059674,-41.3322919,25,190.21532
1,Andirá/PR,-23.0494761,-50.2310027,112,559.13334
D1,Andirá/PR,-23.0494761,-50.2310027,1,4.99226
1,Andorinha/BA,-10.3445708,-39.8334411,44,301.47311
D1,Andorinha/BA,-10.3445708,-39.8334411,1,6.85166
1,Andradas/MG,-22.0680484,-46.5688976,125,304.30655
D1,Andradas/MG,-22.0680484,-46.5688976,5,12.17226
1,Andradina/SP,-20.896505,-51.3742765,168,293.92725
D1,Andradina/SP,-20.896505,-51.3742765,6,10.49740
1,Andrelândia/MG,-21.739722,-44.308889,39,319.04450
1,André da Rocha/RS,-28.6309124,-51.5733328,9,675.16879
1,Angatuba/SP,-23.4938938,-48.4110675,174,689.70985
D1,Angatuba/SP,-23.4938938,-48.4110675,2,7.92770
1,Angelim/PE,-8.8902038,-36.2872987,39,349.77578
D1,Angelim/PE,-8.8902038,-36.2872987,1,8.96861
1,Angelina/SC,-27.5805287,-48.9838759,52,1083.10769
1,Angelândia/MG,-17.7253,-42.2728,11,129.10798
1,Angical do Piauí/PI,-6.0872666,-42.7366138,69,1016.49971
D1,Angical do Piauí/PI,-6.0872666,-42.7366138,2,29.46376
1,Angical/BA,-12.005623,-44.7000236,37,264.72061
1,Angico/TO,-6.3893733,-47.8656722,31,903.00029
1,Angicos/RN,-5.6666344,-36.6009064,89,759.77463
D1,Angicos/RN,-5.6666344,-36.6009064,4,34.14717
1,Angra dos Reis/RJ,-23.0063966,-44.316326,4077,2000.63793
D1,Angra dos Reis/RJ,-23.0063966,-44.316326,124,60.84844
1,Anguera/BA,-12.1509425,-39.2452469,51,454.50495
1,Angélica/MS,-22.1588196,-53.7728504,45,417.43970
D1,Angélica/MS,-22.1588196,-53.7728504,3,27.82931
1,Anhanguera/GO,-18.3338749,-48.220363,12,1044.38642
D1,Anhanguera/GO,-18.3338749,-48.220363,2,174.06440
1,Anhembi/SP,-22.7891096,-48.1316776,11,163.59310
1,Anhumas/SP,-22.2956478,-51.3873401,18,437.42406
1,Anicuns/GO,-16.4606451,-49.9572265,323,1478.26087
D1,Anicuns/GO,-16.4606451,-49.9572265,2,9.15332
1,Anita Garibaldi/SC,-27.6855032,-51.1293873,125,1752.41834
D1,Anita Garibaldi/SC,-27.6855032,-51.1293873,1,14.01935
1,Anitápolis/SC,-27.9041185,-49.1287395,29,897.27723
1,Anori/AM,-3.7435254,-61.6605203,715,3403.14136
D1,Anori/AM,-3.7435254,-61.6605203,11,52.35602
1,Anta Gorda/RS,-28.9718745,-52.0069187,35,585.18642
1,Antas/BA,-10.4114649,-38.3308815,101,523.56021
1,Antonina do Norte/CE,-6.7754187,-39.9879345,13,176.79859
1,Antonina/PR,-25.4298854,-48.7125431,152,800.84299
D1,Antonina/PR,-25.4298854,-48.7125431,4,21.07482
1,Antônio Almeida/PI,-7.2186016,-44.1950248,156,4930.46776
D1,Antônio Almeida/PI,-7.2186016,-44.1950248,1,31.60556
1,Antônio Cardoso/BA,-12.4363122,-39.1200307,40,342.37781
1,Antônio Carlos/MG,-21.318334,-43.746666,21,183.48624
1,Antônio Carlos/SC,-27.5168462,-48.7684715,209,2455.06872
D1,Antônio Carlos/SC,-27.5168462,-48.7684715,10,117.46740
1,Antônio Dias/MG,-19.6525,-42.872778,56,600.98734
D1,Antônio Dias/MG,-19.6525,-42.872778,1,10.73192
1,Antônio Gonçalves/BA,-10.5715409,-40.2748824,125,1059.50161
D1,Antônio Gonçalves/BA,-10.5715409,-40.2748824,1,8.47601
1,Antônio João/MS,-22.1892837,-55.9508227,51,569.45065
1,Antônio Martins/RN,-6.2155812,-37.8890129,3,41.98740
D1,Antônio Martins/RN,-6.2155812,-37.8890129,1,13.99580
1,Antônio Olinto/PR,-25.9849006,-50.1974516,12,161.42050
1,Antônio Prado/RS,-28.8567806,-51.2801355,85,651.34100
D1,Antônio Prado/RS,-28.8567806,-51.2801355,2,15.32567
1,Anápolis/GO,-16.3332828,-48.9525756,3170,819.28446
D1,Anápolis/GO,-16.3332828,-48.9525756,112,28.94633
1,Anísio de Abreu/PI,-9.185643,-43.04941,92,931.17409
1,Aparecida d'Oeste/SP,-20.4498109,-50.8808706,18,428.97998
1,Aparecida de Goiânia/GO,-16.8226769,-49.2452546,13116,2268.50162
D1,Aparecida de Goiânia/GO,-16.8226769,-49.2452546,236,40.81781
1,Aparecida do Rio Doce/GO,-18.2980167,-51.1491312,34,1374.29264
D1,Aparecida do Rio Doce/GO,-18.2980167,-51.1491312,2,80.84074
1,Aparecida do Rio Negro/TO,-9.9513491,-47.9773786,17,354.53597
1,Aparecida do Taboado/MS,-20.0840304,-51.1013943,190,738.00738
D1,Aparecida do Taboado/MS,-20.0840304,-51.1013943,6,23.30550
1,Aparecida/PB,-6.7859598, -38.0831353,69,826.64430
D1,Aparecida/PB,-6.7859598, -38.0831353,1,11.98035
1,Aparecida/SP,-22.851552,-45.2340924,146,403.79456
D1,Aparecida/SP,-22.851552,-45.2340924,2,5.53143
1,Aperibé/RJ,-21.6211928,-42.1028167,151,1284.12280
D1,Aperibé/RJ,-21.6211928,-42.1028167,6,51.02475
1,Apiacá/ES,-21.152272,-41.569297,97,1281.88186
D1,Apiacá/ES,-21.152272,-41.569297,2,26.43055
1,Apiacás/MT,-9.5678422,-57.394852,11,108.55620
D1,Apiacás/MT,-9.5678422,-57.394852,1,9.86875
1,Apiaí/SP,-24.5076527,-48.8461582,76,311.80766
D1,Apiaí/SP,-24.5076527,-48.8461582,4,16.41093
1,Apicum-Açu/MA,-1.5279295,-45.082278,197,1142.75770
D1,Apicum-Açu/MA,-1.5279295,-45.082278,3,17.40240
1,Apiúna/SC,-27.0374658,-49.3885037,43,400.26063
D1,Apiúna/SC,-27.0374658,-49.3885037,1,9.30839
1,Apodi/RN,-5.6631109,-37.796927,1351,3769.00544
D1,Apodi/RN,-5.6631109,-37.796927,21,58.58558
1,Aporá/BA,-11.6599747,-38.0794757,92,518.86526
D1,Aporá/BA,-11.6599747,-38.0794757,2,11.27968
1,Apuarema/BA,-13.8517897,-39.7457126,204,2783.08322
D1,Apuarema/BA,-13.8517897,-39.7457126,1,13.64256
1,Apucarana/PR,-23.5525327,-51.4610764,395,292.60126
D1,Apucarana/PR,-23.5525327,-51.4610764,20,14.81525
1,Apuiarés/CE,-3.9460303,-39.4313298,187,1280.82192
D1,Apuiarés/CE,-3.9460303,-39.4313298,11,75.34247
1,Apuí/AM,-7.1940195,-59.8830192,115,523.36959
1,Aquidabã/SE,-10.2837579,-37.0188687,453,2100.82085
D1,Aquidabã/SE,-10.2837579,-37.0188687,10,46.37574
1,Aquidauana/MS,-20.473969,-55.7821375,731,1527.02053
D1,Aquidauana/MS,-20.473969,-55.7821375,20,41.77895
1,Aquiraz/CE,-3.9063117,-38.387504,860,1071.37073
D1,Aquiraz/CE,-3.9063117,-38.387504,30,37.37340
1,Arabutã/SC,-27.1587028,-52.1438142,50,1171.78345
1,Aracaju/SE,-10.9162061,-37.0774655,30553,4650.28850
D1,Aracaju/SE,-10.9162061,-37.0774655,601,91.47460
1,Aracati/CE,-4.558259,-37.767894,1405,1884.71702
D1,Aracati/CE,-4.558259,-37.767894,48,64.38891
1,Aracatu/BA,-14.4274236,-41.4604105,23,175.10468
1,Araci/BA,-11.3356065,-38.9573261,756,1390.24256
D1,Araci/BA,-11.3356065,-38.9573261,5,9.19473
1,Aracoiaba/CE,-4.3702577,-38.8084313,682,2576.59904
D1,Aracoiaba/CE,-4.3702577,-38.8084313,13,49.11406
1,Aracruz/ES,-19.8245218,-40.2735025,2600,2568.66232
D1,Aracruz/ES,-19.8245218,-40.2735025,58,57.30093
1,Aragarças/GO,-15.8957166,-52.2514538,397,1973.35719
D1,Aragarças/GO,-15.8957166,-52.2514538,9,44.73606
1,Aragoiânia/GO,-16.9146388,-49.4499148,131,1270.85759
D1,Aragoiânia/GO,-16.9146388,-49.4499148,1,9.70120
1,Aragominas/TO,-7.1654101,-48.525488,69,1198.33275
D1,Aragominas/TO,-7.1654101,-48.525488,2,34.73428
1,Araguacema/TO,-8.8067391,-49.5560969,4,56.44934
1,Araguaiana/MT,-15.729144,-51.834112,19,612.90323
1,Araguainha/MT,-16.857016,-53.031778,2,213.90374
1,Araguanã/MA,-2.9508403,-45.6651986,479,3105.14715
D1,Araguanã/MA,-2.9508403,-45.6651986,2,12.96512
1,Araguanã/TO,-6.5799107,-48.6428482,77,1344.03910
D1,Araguanã/TO,-6.5799107,-48.6428482,3,52.36516
1,Araguapaz/GO,-15.0937927,-50.626417,76,978.12098
D1,Araguapaz/GO,-15.0937927,-50.626417,2,25.74003
1,Araguari/MG,-18.6511256,-48.1933764,1670,1424.10056
D1,Araguari/MG,-18.6511256,-48.1933764,52,44.34325
1,Araguatins/TO,-5.6522925,-48.1158973,437,1222.00162
D1,Araguatins/TO,-5.6522925,-48.1158973,19,53.13051
1,Araguaçu/TO,-12.928934,-49.823134,245,2876.59974
D1,Araguaçu/TO,-12.928934,-49.823134,4,46.96489
1,Araguaína/TO,-7.193241,-48.2018597,8380,4643.43104
D1,Araguaína/TO,-7.193241,-48.2018597,107,59.28963
1,Araioses/MA,-2.890914,-41.904993,533,1147.71748
D1,Araioses/MA,-2.890914,-41.904993,10,21.53316
1,Aral Moreira/MS,-22.951141,-55.6268421,31,255.16503
D1,Aral Moreira/MS,-22.951141,-55.6268421,1,8.23113
1,Aramari/BA,-12.0907897,-38.4985065,87,763.35878
1,Arambaré/RS,-30.9132252,-51.4994625,10,279.25161
D1,Arambaré/RS,-30.9132252,-51.4994625,1,27.92516
1,Arame/MA,-4.8858769,-46.0102484,672,2054.98303
D1,Arame/MA,-4.8858769,-46.0102484,7,21.40607
1,Aramina/SP,-20.0876144,-47.789201,43,765.12456
D1,Aramina/SP,-20.0876144,-47.789201,1,17.79359
1,Arandu/SP,-23.1345103,-49.0545651,23,361.80588
D1,Arandu/SP,-23.1345103,-49.0545651,2,31.46138
1,Arantina/MG,-21.911667,-44.255833,5,178.89088
D1,Arantina/MG,-21.911667,-44.255833,1,35.77818
1,Arapeí/SP,-22.6738889,-44.4477778,3,121.50668
D1,Arapeí/SP,-22.6738889,-44.4477778,1,40.50223
1,Arapiraca/AL,-9.754866,-36.661471,8510,3672.10795
D1,Arapiraca/AL,-9.754866,-36.661471,117,50.48609
1,Arapoema/TO,-7.6575001,-49.0641484,33,496.76351
D1,Arapoema/TO,-7.6575001,-49.0641484,2,30.10688
1,Araponga/MG,-20.666667,-42.520556,1,11.84975
1,Arapongas/PR,-23.415296,-51.42592,1302,1058.30427
D1,Arapongas/PR,-23.415296,-51.42592,52,42.26714
1,Araporã/MG,-18.4318188,-49.188313,201,2926.19013
D1,Araporã/MG,-18.4318188,-49.188313,3,43.67448
1,Arapoti/PR,-24.1457957,-49.8224605,145,515.73893
D1,Arapoti/PR,-24.1457957,-49.8224605,1,3.55682
1,Araputanga/MT,-15.4710868,-58.346796,259,1539.65046
D1,Araputanga/MT,-15.4710868,-58.346796,4,23.77839
1,Arapuá/MG,-19.034444,-46.155556,17,599.85886
1,Arapuã/PR,-24.3079525,-51.7901941,25,814.86310
D1,Arapuã/PR,-24.3079525,-51.7901941,1,32.59452
1,Araquari/SC,-26.3703324,-48.7210994,521,1366.41402
D1,Araquari/SC,-26.3703324,-48.7210994,7,18.35873
1,Arara/PB,-6.8271895,-35.7605703,190,1410.54195
D1,Arara/PB,-6.8271895,-35.7605703,3,22.27171
1,Araranguá/SC,-28.9348832,-49.4858389,979,1434.89476
D1,Araranguá/SC,-28.9348832,-49.4858389,17,24.91646
1,Araraquara/SP,-21.7886713,-48.1773096,2174,920.90549
D1,Araraquara/SP,-21.7886713,-48.1773096,18,7.62479
1,Araras/SP,-22.3569477,-47.3838889,1702,1267.91621
D1,Araras/SP,-22.3569477,-47.3838889,41,30.54322
1,Ararendá/CE,-4.7504395,-40.8303611,40,365.79790
D1,Ararendá/CE,-4.7504395,-40.8303611,2,18.28989
1,Arari/MA,-3.4547602,-44.7772723,194,649.95980
D1,Arari/MA,-3.4547602,-44.7772723,7,23.45216
1,Araricá/RS,-29.6168543,-50.929121,37,649.35065
D1,Araricá/RS,-29.6168543,-50.929121,3,52.65005
1,Araripe/CE,-7.212861,-40.1359222,179,828.70370
D1,Araripe/CE,-7.212861,-40.1359222,2,9.25926
1,Araripina/PE,-7.5768582,-40.5038509,911,1079.15373
D1,Araripina/PE,-7.5768582,-40.5038509,21,24.87621
1,Araruama/RJ,-22.8733203,-42.3428897,780,589.12387
D1,Araruama/RJ,-22.8733203,-42.3428897,46,34.74320
1,Araruna/PB,-6.5321155,-35.7397595,222,1092.94998
D1,Araruna/PB,-6.5321155,-35.7397595,7,34.46239
1,Araruna/PR,-23.9320308,-52.4976047,95,680.02863
D1,Araruna/PR,-23.9320308,-52.4976047,4,28.63278
1,Arataca/BA,-15.2617424,-39.4122943,116,1052.72711
D1,Arataca/BA,-15.2617424,-39.4122943,1,9.07523
1,Aratiba/RS,-27.3955734,-52.3024325,28,449.07779
D1,Aratiba/RS,-27.3955734,-52.3024325,1,16.03849
1,Aratuba/CE,-4.4195958,-39.0463737,185,1561.57677
D1,Aratuba/CE,-4.4195958,-39.0463737,1,8.44096
1,Aratuípe/BA,-13.077137,-39.0010786,50,566.57224
D1,Aratuípe/BA,-13.077137,-39.0010786,4,45.32578
1,Araucária/PR,-25.5861107,-49.4051209,1930,1341.74065
D1,Araucária/PR,-25.5861107,-49.4051209,32,22.24648
1,Arauá/SE,-11.2644014,-37.6181058,278,2764.51870
D1,Arauá/SE,-11.2644014,-37.6181058,7,69.61018
1,Araxá/MG,-19.5928536,-46.940241,594,559.16934
D1,Araxá/MG,-19.5928536,-46.940241,12,11.29635
1,Araçagi/PB,-6.8519969,-35.3835602,478,2813.91652
D1,Araçagi/PB,-6.8519969,-35.3835602,4,23.54742
1,Araçariguama/SP,-23.438611,-47.061389,188,840.63674
D1,Araçariguama/SP,-23.438611,-47.061389,5,22.35736
1,Araças/BA,-12.2139176,-38.2026159,62,509.15661
1,Araçatuba/SP,-21.207992,-50.4390225,4161,2112.01121
D1,Araçatuba/SP,-21.207992,-50.4390225,94,47.71186
1,Araçaí/MG,-19.200833,-44.2475,4,170.43034
1,Araçoiaba da Serra/SP,-23.5045367,-47.6168158,394,1153.86868
D1,Araçoiaba da Serra/SP,-23.5045367,-47.6168158,9,26.35741
1,Araçoiaba/PE,-7.7856903,-35.0898881,92,448.25570
D1,Araçoiaba/PE,-7.7856903,-35.0898881,11,53.59579
1,Araçu/GO,-16.3561579,-49.6815269,16,454.28734
1,Araçuaí/MG,-16.8484451,-42.0661868,32,87.17446
1,Araújos/MG,-19.948055,-45.165556,20,215.67993
1,Arceburgo/MG,-21.364444,-46.939722,26,241.36651
1,Arcos/MG,-20.282223,-45.539444,174,434.00180
D1,Arcos/MG,-20.282223,-45.539444,4,9.97705
1,Arcoverde/PE,-8.415192,-37.057748,744,1000.83403
D1,Arcoverde/PE,-8.415192,-37.057748,30,40.35621
1,Areado/MG,-21.3582771,-46.1476688,2,13.27140
1,Areal/RJ,-22.2314922,-43.1056264,128,1018.13554
D1,Areal/RJ,-22.2314922,-43.1056264,3,23.86255
1,Arealva/SP,-22.0301906,-48.9111936,66,771.02804
1,Areia Branca/RN,-4.9506652,-37.1263312,708,2549.14668
D1,Areia Branca/RN,-4.9506652,-37.1263312,49,176.42399
1,Areia Branca/SE,-10.7591455,-37.3148072,587,3165.78578
D1,Areia Branca/SE,-10.7591455,-37.3148072,14,75.50426
1,Areia de Baraúnas/PB,-7.1233949,-36.9446216,10,469.92481
1,Areia/PB,-6.9680243,-35.6994783,366,1603.92655
D1,Areia/PB,-6.9680243,-35.6994783,3,13.14694
1,Areial/PB,-7.0501306,-35.9245244,43,614.46127
D1,Areial/PB,-7.0501306,-35.9245244,2,28.57959
1,Areias/SP,-22.5800929,-44.6975127,31,797.73546
1,Areiópolis/SP,-22.6758064,-48.6673653,40,359.42133
D1,Areiópolis/SP,-22.6758064,-48.6673653,3,26.95660
1,Arenápolis/MT,-14.4610369,-56.8432806,148,1540.54335
D1,Arenápolis/MT,-14.4610369,-56.8432806,3,31.22723
1,Arenópolis/GO,-16.3859286,-51.55937,14,535.98775
1,Argirita/MG,-21.612761,-42.8371922,5,183.35167
D1,Argirita/MG,-21.612761,-42.8371922,1,36.67033
1,Aricanduva/MG,-17.8678,-42.5569,1,19.11680
1,Arinos/MG,-15.917223,-46.106111,47,262.93706
1,Aripuanã/MT,-10.175806,-59.4439663,153,684.44126
D1,Aripuanã/MT,-10.175806,-59.4439663,7,31.31431
1,Ariquemes/RO,-9.9076522,-63.033069,3194,2961.16370
D1,Ariquemes/RO,-9.9076522,-63.033069,49,45.42800
1,Ariranha do Ivaí/PR,-24.3834527,-51.5876772,15,711.57495
D1,Ariranha do Ivaí/PR,-24.3834527,-51.5876772,1,47.43833
1,Ariranha/SP,-21.18716,-48.790418,82,848.15887
D1,Ariranha/SP,-21.18716,-48.790418,3,31.03020
1,Armazém/SC,-28.2624996,-49.0190126,149,1717.77727
D1,Armazém/SC,-28.2624996,-49.0190126,2,23.05741
1,Armação dos Búzios/RJ,-22.7597805,-41.8875267,313,924.12164
D1,Armação dos Búzios/RJ,-22.7597805,-41.8875267,10,29.52465
1,Arneiroz/CE,-6.3235099,-40.1603859,41,522.95918
D1,Arneiroz/CE,-6.3235099,-40.1603859,2,25.51020
1,Aroazes/PI,-6.1108814,-41.7886137,32,548.41474
D1,Aroazes/PI,-6.1108814,-41.7886137,1,17.13796
1,Aroeiras do Itaim/PI,-7.2797031,-41.5629681,16,627.20502
1,Aroeiras/PB,-7.5462904,-35.7080002,199,1039.00172
1,Arraial do Cabo/RJ,-22.9662839,-42.024427,132,434.94020
D1,Arraial do Cabo/RJ,-22.9662839,-42.024427,6,19.77001
1,Arraias/TO,-12.9287788,-46.9437231,16,151.41478
1,Arroio Grande/RS,-32.2384246,-53.0866661,19,103.86487
1,Arroio Trinta/SC,-26.9301976,-51.334928,41,1154.92958
1,Arroio do Meio/RS,-29.4020392,-51.9444993,280,1345.83033
1,Arroio do Sal/RS,-29.549852,-49.8874395,48,476.90015
D1,Arroio do Sal/RS,-29.549852,-49.8874395,2,19.87084
1,Arroio do Tigre/RS,-29.334158,-53.0888935,13,97.21080
1,Arroio dos Ratos/RS,-30.0894524,-51.7265541,69,487.59805
D1,Arroio dos Ratos/RS,-30.0894524,-51.7265541,7,49.46647
1,Artur Nogueira/SP,-22.572737,-47.172679,387,711.29246
D1,Artur Nogueira/SP,-22.572737,-47.172679,5,9.18983
1,Aruanã/GO,-14.9162439,-51.0715692,36,364.55696
1,Arujá/SP,-23.396266,-46.3175449,1194,1329.26612
D1,Arujá/SP,-23.396266,-46.3175449,62,69.02387
1,Arvoredo/SC,-27.0752908,-52.4571847,34,1517.85714
D1,Arvoredo/SC,-27.0752908,-52.4571847,1,44.64286
1,Arvorezinha/RS,-28.87369,-52.17808,24,230.23791
D1,Arvorezinha/RS,-28.87369,-52.17808,1,9.59325
1,Arês/RN,-6.1969216,-35.1642968,196,1370.05452
D1,Arês/RN,-6.1969216,-35.1642968,7,48.93052
1,Ascurra/SC,-26.9569975,-49.3767752,79,995.71465
D1,Ascurra/SC,-26.9569975,-49.3767752,1,12.60398
1,Aspásia/SP,-20.160028,-50.728046,27,1481.88804
1,Assaré/CE,-6.8746791,-39.8741385,258,1101.76368
D1,Assaré/CE,-6.8746791,-39.8741385,6,25.62241
1,Assaí/PR,-23.3736041,-50.8454929,105,694.49038
D1,Assaí/PR,-23.3736041,-50.8454929,7,46.29936
1,Assis Brasil/AC,-10.9409203,-69.5672108,386,5204.26048
D1,Assis Brasil/AC,-10.9409203,-69.5672108,8,107.86032
1,Assis Chateaubriand/PR,-24.4054826,-53.5120468,276,827.28853
D1,Assis Chateaubriand/PR,-24.4054826,-53.5120468,4,11.98969
1,Assis/SP,-22.6620892,-50.420623,694,664.84011
D1,Assis/SP,-22.6620892,-50.420623,18,17.24369
1,Assunção do Piauí/PI,-5.8610212,-41.0485091,105,1338.26153
D1,Assunção do Piauí/PI,-5.8610212,-41.0485091,1,12.74535
1,Assunção/PB,-7.073396,-36.7274003,44,1102.75689
1,Astolfo Dutra/MG,-21.3132636,-42.8624102,80,564.21468
D1,Astolfo Dutra/MG,-21.3132636,-42.8624102,2,14.10537
1,Astorga/PR,-23.2350184,-51.6647074,199,762.13090
D1,Astorga/PR,-23.2350184,-51.6647074,3,11.48941
1,Atalaia do Norte/AM,-4.3658547,-70.1908742,818,4106.21957
D1,Atalaia do Norte/AM,-4.3658547,-70.1908742,4,20.07931
1,Atalaia/AL,-9.5029595,-36.0219316,522,1106.28378
D1,Atalaia/AL,-9.5029595,-36.0219316,16,33.90908
1,Atalaia/PR,-23.1513833,-52.0529697,49,1258.99281
1,Atalanta/SC,-27.421916,-49.778863,13,404.98442
1,Ataléia/MG,-18.04432,-41.1110524,73,567.29873
D1,Ataléia/MG,-18.04432,-41.1110524,3,23.31365
1,Atibaia/SP,-23.1177393,-46.5547861,796,557.57525
D1,Atibaia/SP,-23.1177393,-46.5547861,35,24.51650
1,Atilio Vivacqua/ES,-20.9139369,-41.1947519,252,2111.26005
D1,Atilio Vivacqua/ES,-20.9139369,-41.1947519,4,33.51206
1,Augustinópolis/TO,-5.4662267,-47.8897519,471,2558.11427
D1,Augustinópolis/TO,-5.4662267,-47.8897519,5,27.15620
1,Augusto Corrêa/PA,-1.0229335,-46.6404029,1105,2402.27836
D1,Augusto Corrêa/PA,-1.0229335,-46.6404029,20,43.48015
1,Augusto Pestana/RS,-28.5148413,-53.9906433,1,15.01276
1,Augusto de Lima/MG,-18.1092963,-44.2651945,30,616.14295
1,Aurelino Leal/BA,-14.3167137,-39.3256107,329,2853.17839
D1,Aurelino Leal/BA,-14.3167137,-39.3256107,2,17.34455
1,Auriflama/SP,-20.6840418,-50.5554616,233,1534.00487
D1,Auriflama/SP,-20.6840418,-50.5554616,7,46.08598
1,Aurilândia/GO,-16.6772599,-50.4641231,30,961.53846
1,Aurora do Pará/PA,-2.1323199,-47.558436,589,1879.50731
D1,Aurora do Pará/PA,-2.1323199,-47.558436,7,22.33710
1,Aurora do Tocantins/TO,-12.71045,-46.407604,15,399.25472
1,Aurora/CE,-6.9426019,-38.9693765,175,709.82396
D1,Aurora/CE,-6.9426019,-38.9693765,9,36.50523
1,Aurora/SC,-27.3166417,-49.6368502,48,845.21923
1,Autazes/AM,-3.5833283,-59.1301518,1187,3000.12637
D1,Autazes/AM,-3.5833283,-59.1301518,36,90.98951
1,Avanhandava/SP,-21.4603331,-49.9465156,74,542.16426
D1,Avanhandava/SP,-21.4603331,-49.9465156,2,14.65309
1,Avaré/SP,-23.1045215,-48.9259103,310,341.95577
D1,Avaré/SP,-23.1045215,-48.9259103,12,13.23700
1,Avaí/SP,-22.1564662,-49.3316395,29,536.73885
1,Aveiro/PA,-3.6049239,-55.3310742,371,2263.85160
D1,Aveiro/PA,-3.6049239,-55.3310742,4,24.40810
1,Avelino Lopes/PI,-10.1346855,-43.9489525,13,115.15635
D1,Avelino Lopes/PI,-10.1346855,-43.9489525,1,8.85818
1,Avelinópolis/GO,-16.4672409,-49.7578661,31,1282.58171
D1,Avelinópolis/GO,-16.4672409,-49.7578661,1,41.37360
1,Axixá do Tocantins/TO,-5.612747,-47.77007,121,1240.26240
D1,Axixá do Tocantins/TO,-5.612747,-47.77007,3,30.75031
1,Axixá/MA,-2.8379465,-44.0561053,121,997.52679
D1,Axixá/MA,-2.8379465,-44.0561053,3,24.73207
1,Açailândia/MA,-4.9514278,-47.4844564,2893,2572.81338
D1,Açailândia/MA,-4.9514278,-47.4844564,76,67.58860
1,Açu/RN,-5.5836157,-36.9139541,1036,1785.68351
D1,Açu/RN,-5.5836157,-36.9139541,45,77.56347
1,Açucena/MG,-19.073056,-42.546666,42,443.50581
D1,Açucena/MG,-19.073056,-42.546666,2,21.11932
1,Babaçulândia/TO,-7.2034355,-47.761613,76,712.67817
1,Bacabal/MA,-4.2318132,-44.781167,3073,2928.08888
D1,Bacabal/MA,-4.2318132,-44.781167,47,44.78366
1,Bacabeira/MA,-2.9775747,-44.3155943,132,773.96658
D1,Bacabeira/MA,-2.9775747,-44.3155943,2,11.72677
1,Bacuri/MA,-1.728894,-45.1417148,403,2168.76547
D1,Bacuri/MA,-1.728894,-45.1417148,3,16.14466
1,Bacurituba/MA,-2.7082587,-44.7381309,33,584.69171
1,Bady Bassitt/SP,-20.9178969,-49.4517911,435,2485.43024
D1,Bady Bassitt/SP,-20.9178969,-49.4517911,14,79.99086
1,Baependi/MG,-21.959162,-44.8899249,53,276.79131
D1,Baependi/MG,-21.959162,-44.8899249,1,5.22248
1,Bagre/PA,-1.8994498,-50.2103844,297,968.27829
D1,Bagre/PA,-1.8994498,-50.2103844,9,29.34177
1,Bagé/RS,-31.3314264,-54.1062808,425,350.82506
D1,Bagé/RS,-31.3314264,-54.1062808,7,5.77830
1,Baianópolis/BA,-12.3067564,-44.5383591,52,374.72076
1,Baixa Grande do Ribeiro/PI,-7.862861,-45.2113289,450,3883.99793
D1,Baixa Grande do Ribeiro/PI,-7.862861,-45.2113289,5,43.15553
1,Baixa Grande/BA,-11.9630941,-40.1657537,12,58.62810
D1,Baixa Grande/BA,-11.9630941,-40.1657537,1,4.88568
1,Baixio/CE,-6.7303544,-38.7170095,52,826.97201
1,Baixo Guandu/ES,-19.5138322,-41.0182089,572,1845.28034
D1,Baixo Guandu/ES,-19.5138322,-41.0182089,14,45.16420
1,Baião/PA,-2.7903479,-49.6702845,298,628.08245
D1,Baião/PA,-2.7903479,-49.6702845,14,29.50723
1,Balbinos/SP,-21.9006253,-49.3583966,37,645.16129
1,Baldim/MG,-19.2913568,-43.9558262,15,191.66880
D1,Baldim/MG,-19.2913568,-43.9558262,1,12.77792
1,Baliza/GO,-16.1978119,-52.542789,11,214.09109
1,Balneário Arroio do Silva/SC,-28.9815269,-49.4189932,225,1721.36791
D1,Balneário Arroio do Silva/SC,-28.9815269,-49.4189932,5,38.25262
1,Balneário Barra do Sul/SC,-26.459842,-48.6061471,318,2945.80824
D1,Balneário Barra do Sul/SC,-26.459842,-48.6061471,1,9.26355
1,Balneário Camboriú/SC,-26.9924395,-48.6339782,4899,3442.84761
D1,Balneário Camboriú/SC,-26.9924395,-48.6339782,61,42.86869
1,Balneário Gaivota/SC,-29.1553098,-49.5808712,91,828.85509
D1,Balneário Gaivota/SC,-29.1553098,-49.5808712,3,27.32489
1,Balneário Pinhal/RS,-30.2482978,-50.234585,41,291.44157
D1,Balneário Pinhal/RS,-30.2482978,-50.234585,1,7.10833
1,Balneário Piçarras/SC,-26.7638889,-48.6716667,395,1706.48464
D1,Balneário Piçarras/SC,-26.7638889,-48.6716667,4,17.28086
1,Balneário Rincão/SC,-28.8235718,-49.2241642,143,1120.68966
D1,Balneário Rincão/SC,-28.8235718,-49.2241642,6,47.02194
1,Balsa Nova/PR,-25.5842234,-49.6312741,164,1267.29001
D1,Balsa Nova/PR,-25.5842234,-49.6312741,3,23.18213
1,Balsas/MA,-7.53214,-46.037163,3231,3405.10291
D1,Balsas/MA,-7.53214,-46.037163,17,17.91605
1,Bambuí/MG,-20.0131996,-45.9777034,25,104.91418
1,Banabuiú/CE,-5.3046404,-38.919766,454,2494.91674
D1,Banabuiú/CE,-5.3046404,-38.919766,2,10.99082
1,Bananal/SP,-22.6828195,-44.3221095,95,867.97624
1,Bananeiras/PB,-6.7537682,-35.6338343,177,830.28427
D1,Bananeiras/PB,-6.7537682,-35.6338343,2,9.38174
1,Bandeira do Sul/MG,-21.728056,-46.385555,11,191.43752
1,Bandeira/MG,-15.884444,-40.559167,198,4129.30136
D1,Bandeira/MG,-15.884444,-40.559167,1,20.85506
1,Bandeirante/SC,-26.7677402,-53.6397596,4,149.36520
1,Bandeirantes do Tocantins/TO,-7.7635698,-48.579148,23,647.34028
D1,Bandeirantes do Tocantins/TO,-7.7635698,-48.579148,1,28.14523
1,Bandeirantes/MS,-19.9179623,-54.3646768,54,795.52151
1,Bandeirantes/PR,-23.107788,-50.370407,258,822.52048
D1,Bandeirantes/PR,-23.107788,-50.370407,8,25.50451
1,Bannach/PA,-7.3508505,-50.4064531,94,2860.62082
D1,Bannach/PA,-7.3508505,-50.4064531,2,60.86427
1,Banzaê/BA,-10.5827616,-38.6122305,108,816.38824
1,Baraúna/PB,-6.643394,-36.2531932,130,2657.39984
1,Baraúna/RN,-5.0775002,-37.61752,367,1293.43765
D1,Baraúna/RN,-5.0775002,-37.61752,12,42.29224
1,Barbacena/MG,-21.2254524,-43.7735087,542,394.71864
D1,Barbacena/MG,-21.2254524,-43.7735087,8,5.82611
1,Barbalha/CE,-7.3121067,-39.3036427,963,1584.37670
D1,Barbalha/CE,-7.3121067,-39.3036427,37,60.87429
1,Barbosa Ferraz/PR,-24.0287182,-52.00811,101,873.09820
D1,Barbosa Ferraz/PR,-24.0287182,-52.00811,3,25.93361
1,Barbosa/SP,-21.265661,-49.951816,70,945.69035
1,Barcarena/PA,-1.5107945,-48.6190679,3340,2678.85788
D1,Barcarena/PA,-1.5107945,-48.6190679,104,83.41354
1,Barcelona/RN,-5.9514918,-35.9260284,31,775.38769
D1,Barcelona/RN,-5.9514918,-35.9260284,2,50.02501
1,Barcelos/AM,-0.9729214,-62.925635,2158,7846.70206
D1,Barcelos/AM,-0.9729214,-62.925635,24,87.26638
1,Bariri/SP,-22.0746355,-48.7394852,302,856.39746
D1,Bariri/SP,-22.0746355,-48.7394852,8,22.68603
1,Barra Bonita/SP,-22.490859,-48.558349,364,1007.58457
D1,Barra Bonita/SP,-22.490859,-48.558349,8,22.14472
1,Barra D'Alcântara/PI,-6.5209258,-42.1071089,9,227.79043
1,Barra Funda/RS,-27.9230048,-53.0401045,36,1417.88106
D1,Barra Funda/RS,-27.9230048,-53.0401045,1,39.38558
1,Barra Longa/MG,-20.2833541,-43.0423516,58,1130.38394
1,Barra Mansa/RJ,-22.5394843,-44.1735129,1054,571.54632
D1,Barra Mansa/RJ,-22.5394843,-44.1735129,75,40.66980
1,Barra Velha/SC,-26.6338203,-48.6835001,384,1316.51125
D1,Barra Velha/SC,-26.6338203,-48.6835001,4,13.71366
1,Barra da Estiva/BA,-13.6269662,-41.3278287,7,33.98388
1,Barra de Guabiraba/PE,-8.4173522,-35.6626669,159,1105.31804
D1,Barra de Guabiraba/PE,-8.4173522,-35.6626669,10,69.51686
1,Barra de Santa Rosa/PB,-6.7218007,-36.0564638,63,409.51638
D1,Barra de Santa Rosa/PB,-6.7218007,-36.0564638,1,6.50026
1,Barra de Santana/PB,-7.5230865,-35.9988518,89,1064.72066
D1,Barra de Santana/PB,-7.5230865,-35.9988518,2,23.92631
1,Barra de Santo Antônio/AL,-9.4038098,-35.5117693,118,740.64775
D1,Barra de Santo Antônio/AL,-9.4038098,-35.5117693,8,50.21341
1,Barra de São Francisco/ES,-18.7570902,-40.8916119,390,873.46025
D1,Barra de São Francisco/ES,-18.7570902,-40.8916119,16,35.83427
1,Barra de São Miguel/AL,-9.8261357,-35.8837777,123,1478.01009
D1,Barra de São Miguel/AL,-9.8261357,-35.8837777,5,60.08171
1,Barra de São Miguel/PB,-7.7528088,-36.3170996,44,728.95958
D1,Barra de São Miguel/PB,-7.7528088,-36.3170996,1,16.56726
1,Barra do Bugres/MT,-15.0683712,-57.1853688,312,892.29537
D1,Barra do Bugres/MT,-15.0683712,-57.1853688,8,22.87937
1,Barra do Chapéu/SP,-24.472203,-49.023784,38,663.87142
1,Barra do Choça/BA,-14.8638173,-40.5761637,294,930.29143
D1,Barra do Choça/BA,-14.8638173,-40.5761637,2,6.32851
1,Barra do Corda/MA,-5.496823,-45.248496,2800,3174.17131
D1,Barra do Corda/MA,-5.496823,-45.248496,23,26.07355
1,Barra do Garças/MT,-15.8916033,-52.2615413,1004,1645.57792
D1,Barra do Garças/MT,-15.8916033,-52.2615413,55,90.14620
1,Barra do Guarita/RS,-27.1888016,-53.7147086,38,1169.95074
1,Barra do Jacaré/PR,-23.1151788,-50.1813945,6,215.74973
1,Barra do Mendes/BA,-11.8053298,-42.057037,8,57.69924
1,Barra do Ouro/TO,-7.7113784,-47.6743925,23,500.98018
D1,Barra do Ouro/TO,-7.7113784,-47.6743925,4,87.12699
1,Barra do Piraí/RJ,-22.4703403,-43.8263256,757,754.17937
D1,Barra do Piraí/RJ,-22.4703403,-43.8263256,40,39.85096
1,Barra do Quaraí/RS,-30.208947,-57.5505128,4,94.89917
D1,Barra do Quaraí/RS,-30.208947,-57.5505128,1,23.72479
1,Barra do Ribeiro/RS,-30.2930206,-51.301437,61,452.15329
D1,Barra do Ribeiro/RS,-30.2930206,-51.301437,6,44.47409
1,Barra do Rio Azul/RS,-27.4101581,-52.4117471,2,118.34320
1,Barra do Rocha/BA,-14.2090974,-39.6004395,39,682.53413
1,Barra do Turvo/SP,-24.756421,-48.5056942,60,783.39209
D1,Barra do Turvo/SP,-24.756421,-48.5056942,2,26.11307
1,Barra dos Coqueiros/SE,-10.9075694,-37.0386249,1016,3341.33588
D1,Barra dos Coqueiros/SE,-10.9075694,-37.0386249,17,55.90818
1,Barra/BA,-11.0892702,-43.1420453,110,205.30815
D1,Barra/BA,-11.0892702,-43.1420453,3,5.59931
1,Barracão/PR,-26.252395,-53.6349576,41,399.02676
D1,Barracão/PR,-26.252395,-53.6349576,1,9.73236
1,Barracão/RS,-27.6728964,-51.4582928,27,511.84834
D1,Barracão/RS,-27.6728964,-51.4582928,1,18.95735
1,Barras/PI,-4.2446153,-42.2920241,1748,3713.93363
D1,Barras/PI,-4.2446153,-42.2920241,38,80.73769
1,Barreira/CE,-4.2883361,-38.641094,310,1382.38573
D1,Barreira/CE,-4.2883361,-38.641094,19,84.72687
1,Barreiras do Piauí/PI,-9.9224524,-45.4763776,6,179.21147
1,Barreiras/BA,-12.1440031,-44.9967406,2217,1426.28298
D1,Barreiras/BA,-12.1440031,-44.9967406,31,19.94351
1,Barreirinha/AM,-2.798863,-57.067897,784,2446.86495
D1,Barreirinha/AM,-2.798863,-57.067897,10,31.21001
1,Barreirinhas/MA,-2.7541271,-42.8259693,493,788.44678
D1,Barreirinhas/MA,-2.7541271,-42.8259693,22,35.18424
1,Barreiros/PE,-8.8159644,-35.1831905,286,670.43297
D1,Barreiros/PE,-8.8159644,-35.1831905,39,91.42268
1,Barretos/SP,-20.5531437,-48.5697509,2260,1850.97217
D1,Barretos/SP,-20.5531437,-48.5697509,80,65.52114
1,Barrinha/SP,-21.1898849,-48.1550642,376,1145.92222
D1,Barrinha/SP,-21.1898849,-48.1550642,15,45.71498
1,Barro Alto/BA,-11.7618025,-41.9094904,9,60.27728
1,Barro Alto/GO,-14.9696025,-48.9190985,105,940.27044
1,Barro Duro/PI,-5.8180139,-42.5106589,160,2275.31286
D1,Barro Duro/PI,-5.8180139,-42.5106589,4,56.88282
1,Barro Preto/BA,-14.8068289,-39.4727588,177,3165.80218
D1,Barro Preto/BA,-14.8068289,-39.4727588,3,53.65766
1,Barro/CE,-7.1713587,-38.7742136,95,418.87125
D1,Barro/CE,-7.1713587,-38.7742136,8,35.27337
1,Barrocas/BA,-11.5165,-39.099282894736845,80,500.68845
1,Barrolândia/TO,-9.837246,-48.7264346,54,958.80682
D1,Barrolândia/TO,-9.837246,-48.7264346,1,17.75568
1,Barroquinha/CE,-3.0200371,-41.1339229,726,4834.52088
D1,Barroquinha/CE,-3.0200371,-41.1339229,16,106.54591
1,Barros Cassal/RS,-29.094938,-52.5832366,6,53.57621
D1,Barros Cassal/RS,-29.094938,-52.5832366,1,8.92937
1,Barroso/MG,-21.187222,-43.976111,105,504.56511
1,Barueri/SP,-23.5112184,-46.8764612,4271,1557.72443
D1,Barueri/SP,-23.5112184,-46.8764612,282,102.85139
1,Barão de Antonina/SP,-23.6295651,-49.5632104,11,317.09426
1,Barão de Cocais/MG,-19.9452437,-43.4870298,266,818.83946
1,Barão de Cotegipe/RS,-27.6214694,-52.3765316,82,1238.10962
D1,Barão de Cotegipe/RS,-27.6214694,-52.3765316,3,45.29669
1,Barão de Grajaú/MA,-6.7542591,-43.0263477,15,79.70244
D1,Barão de Grajaú/MA,-6.7542591,-43.0263477,1,5.31350
1,Barão de Melgaço/MT,-16.195776,-55.9668049,80,934.14292
D1,Barão de Melgaço/MT,-16.195776,-55.9668049,4,46.70715
1,Barão de Monte Alto/MG,-21.244722,-42.2375,40,741.15249
1,Barão do Triunfo/RS,-30.3909877,-51.7375349,33,440.76399
D1,Barão do Triunfo/RS,-30.3909877,-51.7375349,1,13.35648
1,Barão/RS,-29.372474,-51.494908,36,583.37385
D1,Barão/RS,-29.372474,-51.494908,2,32.40966
1,Bastos/SP,-21.9222474,-50.7317727,34,162.26793
D1,Bastos/SP,-21.9222474,-50.7317727,1,4.77259
1,Bataguassu/MS,-21.715899,-52.422058,668,2901.32036
D1,Bataguassu/MS,-21.715899,-52.422058,4,17.37318
1,Batalha/AL,-9.6733809,-37.1265481,374,2051.33831
D1,Batalha/AL,-9.6733809,-37.1265481,6,32.90917
1,Batalha/PI,-4.022391,-42.0780926,286,1064.89928
D1,Batalha/PI,-4.022391,-42.0780926,7,26.06397
1,Batatais/SP,-20.892867,-47.592149,184,294.36232
D1,Batatais/SP,-20.892867,-47.592149,14,22.39713
1,Batayporã/MS,-22.2976466,-53.2685608,74,653.19093
D1,Batayporã/MS,-22.2976466,-53.2685608,3,26.48071
1,Baturité/CE,-4.3290203,-38.8821055,523,1462.93706
D1,Baturité/CE,-4.3290203,-38.8821055,27,75.52448
1,Bauru/SP,-22.3218102,-49.0705863,4459,1183.32988
D1,Bauru/SP,-22.3218102,-49.0705863,90,23.88421
1,Bayeux/PB,-7.1301631,-34.936532,1566,1616.43270
D1,Bayeux/PB,-7.1301631,-34.936532,87,89.80182
1,Baía Formosa/RN,-6.3691885,-35.0063741,85,916.83745
D1,Baía Formosa/RN,-6.3691885,-35.0063741,3,32.35897
1,Baía da Traição/PB,-6.691258,-34.9371244,517,5748.91582
D1,Baía da Traição/PB,-6.691258,-34.9371244,5,55.59880
1,Bebedouro/SP,-20.949077,-48.479083,316,407.76298
D1,Bebedouro/SP,-20.949077,-48.479083,18,23.22701
1,Beberibe/CE,-4.1810469,-38.1298101,690,1287.96222
D1,Beberibe/CE,-4.1810469,-38.1298101,28,52.26513
1,Bela Cruz/CE,-3.0529129,-40.167582,1136,3485.62487
D1,Bela Cruz/CE,-3.0529129,-40.167582,19,58.29830
1,Bela Vista da Caroba/PR,-25.8792818,-53.6672545,16,455.71062
1,Bela Vista de Goiás/GO,-16.9692949,-48.9513071,313,1044.20350
D1,Bela Vista de Goiás/GO,-16.9692949,-48.9513071,6,20.01668
1,Bela Vista de Minas/MG,-19.8289721,-43.0973688,24,234.03218
D1,Bela Vista de Minas/MG,-19.8289721,-43.0973688,1,9.75134
1,Bela Vista do Maranhão/MA,-3.7416367,-45.2514192,121,1079.48970
D1,Bela Vista do Maranhão/MA,-3.7416367,-45.2514192,3,26.76421
1,Bela Vista do Paraíso/PR,-22.9948493,-51.1907996,56,363.70722
D1,Bela Vista do Paraíso/PR,-22.9948493,-51.1907996,3,19.48432
1,Bela Vista do Piauí/PI,-7.9716353,-41.8715061,5,124.53300
1,Bela Vista do Toldo/SC,-26.274625,-50.466354,5,78.90169
1,Bela Vista/MS,-22.107327,-56.5317344,15,60.90381
1,Belford Roxo/RJ,-22.7667284,-43.4033603,3338,653.34915
D1,Belford Roxo/RJ,-22.7667284,-43.4033603,223,43.64795
1,Belmiro Braga/MG,-21.9486291,-43.413564,11,320.79323
D1,Belmiro Braga/MG,-21.9486291,-43.413564,2,58.32604
1,Belmonte/BA,-15.8630837,-38.8792845,302,1294.58162
D1,Belmonte/BA,-15.8630837,-38.8792845,1,4.28669
1,Belmonte/SC,-26.8448262,-53.578916,2,73.90983
1,Belo Campo/BA,-15.0338286,-41.2585109,5,29.05119
1,Belo Horizonte/MG,-19.9227318,-43.9450948,25096,999.01675
D1,Belo Horizonte/MG,-19.9227318,-43.9450948,670,26.67123
1,Belo Jardim/PE,-8.3338293,-36.4176419,773,1011.26388
D1,Belo Jardim/PE,-8.3338293,-36.4176419,27,35.32228
1,Belo Monte/AL,-9.8269944,-37.2787165,55,820.40573
D1,Belo Monte/AL,-9.8269944,-37.2787165,2,29.83294
1,Belo Oriente/MG,-19.2232523,-42.4807033,330,1235.95506
D1,Belo Oriente/MG,-19.2232523,-42.4807033,6,22.47191
1,Belo Vale/MG,-20.407778,-44.024167,59,764.74401
D1,Belo Vale/MG,-20.407778,-44.024167,1,12.96176
1,Belterra/PA,-2.636091,-54.937392,204,1150.46244
D1,Belterra/PA,-2.636091,-54.937392,7,39.47665
1,Belágua/MA,-3.1604031,-43.5085052,198,2650.95729
D1,Belágua/MA,-3.1604031,-43.5085052,1,13.38867
1,Belém de Maria/PE,-8.6242497,-35.8388934,78,646.06974
D1,Belém de Maria/PE,-8.6242497,-35.8388934,1,8.28295
1,Belém do Brejo do Cruz/PB,-6.1880727,-37.5332267,29,394.98774
D1,Belém do Brejo do Cruz/PB,-6.1880727,-37.5332267,1,13.62027
1,Belém do Piauí/PI,-7.3767305,-40.9712156,28,785.19349
D1,Belém do Piauí/PI,-7.3767305,-40.9712156,1,28.04262
1,Belém do São Francisco/PE,-8.7517707,-38.9625715,50,241.20797
1,Belém/AL,-9.5715351,-36.492841,49,1127.99263
D1,Belém/AL,-9.5715351,-36.492841,1,23.02026
1,Belém/PA,-1.45056,-48.4682453,28095,1882.10311
D1,Belém/PA,-1.45056,-48.4682453,2059,137.93381
1,Belém/PB,-6.6967586,-35.5369626,913,5165.19575
D1,Belém/PB,-6.6967586,-35.5369626,9,50.91650
1,Beneditinos/PI,-5.4565671,-42.3605061,160,1528.61374
D1,Beneditinos/PI,-5.4565671,-42.3605061,5,47.76918
1,Benedito Leite/MA,-7.2173453,-44.5523331,84,1491.47727
1,Benedito Novo/SC,-26.7840657,-49.3629511,79,677.99519
D1,Benedito Novo/SC,-26.7840657,-49.3629511,2,17.16444
1,Benevides/PA,-1.3555577,-48.252235,1323,2108.80342
D1,Benevides/PA,-1.3555577,-48.252235,49,78.10383
1,Benjamin Constant do Sul/RS,-27.5105555,-52.6007689,48,2407.22166
1,Benjamin Constant/AM,-4.3782748,-70.0290603,1528,3554.81109
D1,Benjamin Constant/AM,-4.3782748,-70.0290603,35,81.42565
1,Bento Fernandes/RN,-5.6926846,-35.8207423,22,400.21830
D1,Bento Fernandes/RN,-5.6926846,-35.8207423,1,18.19174
1,Bento Gonçalves/RS,-29.1654014,-51.5197627,2386,1980.83916
D1,Bento Gonçalves/RS,-29.1654014,-51.5197627,84,69.73616
1,Bento de Abreu/SP,-21.2707225,-50.8120444,28,939.59732
1,Bequimão/MA,-2.4495376,-44.7884889,206,968.04511
D1,Bequimão/MA,-2.4495376,-44.7884889,10,46.99248
1,Berilo/MG,-16.9515764,-42.4643732,5,41.90412
1,Bernardino Batista/PB,-6.4532173,-38.5495418,7,199.94287
1,Bernardino de Campos/SP,-23.0140216,-49.4760724,51,457.48116
D1,Bernardino de Campos/SP,-23.0140216,-49.4760724,2,17.94044
1,Bernardo Sayão/TO,-7.8794244,-48.8968905,21,470.95761
D1,Bernardo Sayão/TO,-7.8794244,-48.8968905,1,22.42655
1,Bernardo do Mearim/MA,-4.6315929,-44.7617508,48,794.30746
D1,Bernardo do Mearim/MA,-4.6315929,-44.7617508,2,33.09614
1,Bertioga/SP,-23.848568,-46.139586,1221,1930.46530
D1,Bertioga/SP,-23.848568,-46.139586,33,52.17474
1,Bertolínia/PI,-7.6372159,-43.9540611,70,1272.49591
1,Bertópolis/MG,-17.063333,-40.573889,5,108.60122
1,Beruri/AM,-3.9007135,-61.3717319,578,2937.14111
D1,Beruri/AM,-3.9007135,-61.3717319,7,35.57091
1,Betim/MG,-19.968056,-44.198333,3270,744.29827
D1,Betim/MG,-19.968056,-44.198333,101,22.98903
1,Betânia do Piauí/PI,-8.1460635,-40.7961387,8,128.92828
1,Betânia/PE,-8.2742779,-38.0351767,43,338.07689
D1,Betânia/PE,-8.2742779,-38.0351767,2,15.72451
1,Bezerros/PE,-8.2372132,-35.7558262,678,1115.16826
D1,Bezerros/PE,-8.2372132,-35.7558262,34,55.92289
1,Bias Fortes/MG,-21.605833,-43.756944,13,384.72921
1,Bicas/MG,-21.7213723,-43.0604327,35,241.47923
1,Biguaçu/SC,-27.4961277,-48.6542432,1232,1799.03915
D1,Biguaçu/SC,-27.4961277,-48.6542432,23,33.58596
1,Bilac/SP,-21.403962,-50.47464,52,647.24919
D1,Bilac/SP,-21.403962,-50.47464,2,24.89420
1,Biquinhas/MG,-18.783611,-45.502222,25,994.03579
1,Birigui/SP,-21.2908491,-50.34144,1142,923.66425
D1,Birigui/SP,-21.2908491,-50.34144,43,34.77895
1,Biritiba-Mirim/SP,-23.5697765,-46.0407456,207,635.00828
D1,Biritiba-Mirim/SP,-23.5697765,-46.0407456,15,46.01509
1,Biritinga/BA,-11.6227908,-38.8066738,35,219.03749
1,Bituruna/PR,-26.161281,-51.5533319,32,195.25291
1,Blumenau/SC,-26.9195567,-49.0658025,6260,1752.52450
D1,Blumenau/SC,-26.9195567,-49.0658025,75,20.99670
1,Boa Esperança do Iguaçu/PR,-25.6362851,-53.2139114,23,918.89732
1,Boa Esperança do Sul/SP,-21.9930206,-48.3917372,73,489.17778
D1,Boa Esperança do Sul/SP,-21.9930206,-48.3917372,2,13.40213
1,Boa Esperança/ES,-18.5395472,-40.2904088,298,1981.77828
D1,Boa Esperança/ES,-18.5395472,-40.2904088,12,79.80315
1,Boa Esperança/MG,-21.0901253,-45.5660195,76,189.39866
D1,Boa Esperança/MG,-21.0901253,-45.5660195,6,14.95253
1,Boa Esperança/PR,-24.2411024,-52.7860277,29,706.45554
1,Boa Hora/PI,-4.4094627,-42.1255341,77,1135.52573
1,Boa Nova/BA,-14.365907,-40.2063056,51,403.70458
D1,Boa Nova/BA,-14.365907,-40.2063056,2,15.83155
1,Boa Ventura/PB,-7.4202462,-38.2156782,4,74.54342
1,Boa Viagem/CE,-5.1261877,-39.7300055,311,570.95649
D1,Boa Viagem/CE,-5.1261877,-39.7300055,19,34.88159
1,Boa Vista da Aparecida/PR,-25.4357216,-53.4067721,79,1040.70610
D1,Boa Vista da Aparecida/PR,-25.4357216,-53.4067721,1,13.17349
1,Boa Vista das Missões/RS,-27.6677983,-53.3127622,4,190.65777
1,Boa Vista do Buricá/RS,-27.6687782,-54.1111913,30,446.96067
1,Boa Vista do Cadeado/RS,-28.5783827,-53.8123759,3,121.45749
1,Boa Vista do Gurupi/MA,-1.7981168,-46.3071882,13,139.98062
D1,Boa Vista do Gurupi/MA,-1.7981168,-46.3071882,3,32.30322
1,Boa Vista do Incra/RS,-28.8195551,-53.3866624,8,307.33769
1,Boa Vista do Ramos/AM,-2.9716927,-57.5869819,298,1551.51768
D1,Boa Vista do Ramos/AM,-2.9716927,-57.5869819,2,10.41287
1,Boa Vista do Sul/RS,-29.3510488,-51.6779679,31,1113.90586
D1,Boa Vista do Sul/RS,-29.3510488,-51.6779679,1,35.93245
1,Boa Vista do Tupim/BA,-12.6605988,-40.6083594,24,129.19897
1,Boa Vista/PB,-7.2620711,-36.2415161,79,1120.40845
D1,Boa Vista/PB,-7.2620711,-36.2415161,1,14.18239
1,Boa Vista/RR,2.8208478,-60.6719582,27334,6846.97142
D1,Boa Vista/RR,2.8208478,-60.6719582,431,107.96242
1,Boca da Mata/AL,-9.6452054,-36.2116658,1095,4013.78249
D1,Boca da Mata/AL,-9.6452054,-36.2116658,18,65.97999
1,Boca do Acre/AM,-8.7553487,-67.3930873,937,2731.14142
D1,Boca do Acre/AM,-8.7553487,-67.3930873,11,32.06249
1,Bocaina de Minas/MG,-22.167778,-44.394722,6,117.87819
1,Bocaina do Sul/SC,-27.745494,-49.942279,8,230.28210
1,Bocaina/PI,-6.9445939,-41.3224599,93,2066.66667
1,Bocaina/SP,-22.1421831,-48.522276,88,713.76430
D1,Bocaina/SP,-22.1421831,-48.522276,3,24.33287
1,Bocaiúva do Sul/PR,-25.206591,-49.114131,132,1019.77750
D1,Bocaiúva do Sul/PR,-25.206591,-49.114131,2,15.45117
1,Bocaiúva/MG,-17.1160208,-43.8122678,113,226.09496
D1,Bocaiúva/MG,-17.1160208,-43.8122678,1,2.00084
1,Bodocó/PE,-7.777592,-39.933797,155,406.33356
D1,Bodocó/PE,-7.777592,-39.933797,5,13.10753
1,Bodoquena/MS,-20.5508775,-56.6769653,6,76.19048
1,Bodó/RN,-5.9866104,-36.4134824,5,224.92128
1,Bofete/SP,-23.1019554,-48.2610535,76,647.91134
D1,Bofete/SP,-23.1019554,-48.2610535,3,25.57545
1,Boituva/SP,-23.2838893,-47.6738231,508,832.82784
D1,Boituva/SP,-23.2838893,-47.6738231,14,22.95195
1,Bom Conselho/PE,-9.169191,-36.685683,453,932.98183
D1,Bom Conselho/PE,-9.169191,-36.685683,15,30.89344
1,Bom Despacho/MG,-19.7375242,-45.2517288,257,507.85496
D1,Bom Despacho/MG,-19.7375242,-45.2517288,3,5.92827
1,Bom Jardim da Serra/SC,-28.3380324,-49.625588,14,295.17183
1,Bom Jardim de Goiás/GO,-16.2062659,-52.172793,87,984.05158
D1,Bom Jardim de Goiás/GO,-16.2062659,-52.172793,2,22.62188
1,Bom Jardim de Minas/MG,-21.9476466,-44.1906033,3,46.33920
1,Bom Jardim/MA,-3.54129,-45.606004,787,1890.46361
D1,Bom Jardim/MA,-3.54129,-45.606004,22,52.84650
1,Bom Jardim/PE,-7.7961572,-35.5871696,422,1076.97019
D1,Bom Jardim/PE,-7.7961572,-35.5871696,23,58.69743
1,Bom Jardim/RJ,-22.1515328,-42.4186683,101,367.99534
D1,Bom Jardim/RJ,-22.1515328,-42.4186683,3,10.93055
1,Bom Jesus da Lapa/BA,-13.250571,-43.410754,173,250.18800
1,Bom Jesus da Penha/MG,-21.0165299,-46.5226644,17,403.13019
1,Bom Jesus da Serra/BA,-14.3724084,-40.5047119,67,678.13765
1,Bom Jesus das Selvas/MA,-4.4878075,-46.8526639,1405,4128.95263
D1,Bom Jesus das Selvas/MA,-4.4878075,-46.8526639,9,26.44881
1,Bom Jesus de Goiás/GO,-18.2174587,-49.739721,158,626.58629
D1,Bom Jesus de Goiás/GO,-18.2174587,-49.739721,5,19.82868
1,Bom Jesus do Amparo/MG,-19.7045132,-43.4752911,20,328.78514
1,Bom Jesus do Araguaia/MT,-12.1725897,-51.5074425,50,759.87842
D1,Bom Jesus do Araguaia/MT,-12.1725897,-51.5074425,1,15.19757
1,Bom Jesus do Galho/MG,-19.8283191,-42.3162256,63,421.82792
D1,Bom Jesus do Galho/MG,-19.8283191,-42.3162256,4,26.78273
1,Bom Jesus do Itabapoana/RJ,-21.1341025,-41.680095,500,1347.85422
D1,Bom Jesus do Itabapoana/RJ,-21.1341025,-41.680095,14,37.73992
1,Bom Jesus do Norte/ES,-21.1254776,-41.6711646,225,2264.49275
D1,Bom Jesus do Norte/ES,-21.1254776,-41.6711646,5,50.32206
1,Bom Jesus do Oeste/SC,-26.6929713,-53.0967453,11,513.53875
1,Bom Jesus do Sul/PR,-26.1922507,-53.6002033,10,282.40610
D1,Bom Jesus do Sul/PR,-26.1922507,-53.6002033,1,28.24061
1,Bom Jesus do Tocantins/PA,-5.0471796,-48.5978362,246,1448.67793
D1,Bom Jesus do Tocantins/PA,-5.0471796,-48.5978362,1,5.88893
1,Bom Jesus do Tocantins/TO,-8.96306,-48.165043,37,756.02779
1,Bom Jesus dos Perdões/SP,-23.1353864,-46.4648052,97,381.16944
D1,Bom Jesus dos Perdões/SP,-23.1353864,-46.4648052,1,3.92958
1,Bom Jesus/PB,-6.8156725,-38.6551841,8,312.37798
1,Bom Jesus/PI,-9.0711644,-44.3583926,750,2978.67270
D1,Bom Jesus/PI,-9.0711644,-44.3583926,8,31.77251
1,Bom Jesus/RN,-5.9887544,-35.5821149,103,1008.81489
D1,Bom Jesus/RN,-5.9887544,-35.5821149,2,19.58864
1,Bom Jesus/RS,-28.6692723,-50.4346894,77,678.47387
1,Bom Jesus/SC,-26.7350604,-52.3916519,68,2259.13621
1,Bom Lugar/MA,-4.3728019,-45.0366054,184,1129.25003
1,Bom Princípio do Piauí/PI,-3.1912777,-41.6430185,36,639.43162
D1,Bom Princípio do Piauí/PI,-3.1912777,-41.6430185,3,53.28597
1,Bom Princípio/RS,-29.489788,-51.3566782,206,1465.67058
D1,Bom Princípio/RS,-29.489788,-51.3566782,1,7.11491
1,Bom Progresso/RS,-27.5490948,-53.8655601,12,617.91967
1,Bom Repouso/MG,-22.4657069,-46.1485376,23,218.07149
D1,Bom Repouso/MG,-22.4657069,-46.1485376,1,9.48137
1,Bom Retiro do Sul/RS,-29.6000007,-51.9359243,152,1232.96561
D1,Bom Retiro do Sul/RS,-29.6000007,-51.9359243,3,24.33485
1,Bom Retiro/SC,-27.798993,-49.486994,32,321.09171
1,Bom Sucesso de Itararé/SP,-24.3190016,-49.1446207,2,50.58169
1,Bom Sucesso do Sul/PR,-26.0749256,-52.8348629,2,61.27451
1,Bom Sucesso/MG,-21.0323516,-44.7598082,22,124.97870
D1,Bom Sucesso/MG,-21.0323516,-44.7598082,1,5.68085
1,Bom Sucesso/PB,-6.4458948,-37.9297662,18,361.80905
1,Bom Sucesso/PR,-23.7088019,-51.7651297,43,611.49033
D1,Bom Sucesso/PR,-23.7088019,-51.7651297,1,14.22071
1,Bombinhas/SC,-27.1519159,-48.4875691,867,4385.65431
D1,Bombinhas/SC,-27.1519159,-48.4875691,6,30.35055
1,Bonfim do Piauí/PI,-9.1648678,-42.8734415,30,529.10053
D1,Bonfim do Piauí/PI,-9.1648678,-42.8734415,1,17.63668
1,Bonfim/MG,-20.3266626, -44.2386157,23,334.88643
D1,Bonfim/MG,-20.3266626, -44.2386157,1,14.56028
1,Bonfim/RR,3.3613818,-59.8427241,531,4279.15223
D1,Bonfim/RR,3.3613818,-59.8427241,9,72.52800
1,Bonfinópolis de Minas/MG,-16.5660011,-45.98645,56,1019.47934
1,Bonfinópolis/GO,-16.6172709,-48.9615701,142,1463.01257
D1,Bonfinópolis/GO,-16.6172709,-48.9615701,3,30.90872
1,Boninal/BA,-12.7095183,-41.8299984,7,48.71938
D1,Boninal/BA,-12.7095183,-41.8299984,1,6.95991
1,Bonito de Minas/MG,-15.3191266,-44.7544,4,35.61888
1,Bonito de Santa Fé/PB,-7.3143332,-38.5146677,20,167.82747
D1,Bonito de Santa Fé/PB,-7.3143332,-38.5146677,1,8.39137
1,Bonito/BA,-11.9665473,-41.2649896,32,190.88523
D1,Bonito/BA,-11.9665473,-41.2649896,2,11.93033
1,Bonito/MS,-21.1264766,-56.4902208,148,673.46196
1,Bonito/PA,-1.3605722,-47.3049907,228,1399.97544
D1,Bonito/PA,-1.3605722,-47.3049907,7,42.98170
1,Bonito/PE,-8.4721161,-35.7314591,250,655.58294
D1,Bonito/PE,-8.4721161,-35.7314591,23,60.31363
1,Bonópolis/GO,-13.649331,-49.8329113,9,204.31328
1,Boqueirão do Leão/RS,-29.30332,-52.4296817,4,51.85377
1,Boqueirão do Piauí/PI,-4.4850148,-42.1095161,105,1638.83253
D1,Boqueirão do Piauí/PI,-4.4850148,-42.1095161,1,15.60793
1,Boqueirão/PB,-7.487004,-36.130887,326,1831.04920
D1,Boqueirão/PB,-7.487004,-36.130887,5,28.08358
1,Boquim/SE,-11.1450175,-37.6204228,355,1323.83652
D1,Boquim/SE,-11.1450175,-37.6204228,11,41.02029
1,Boquira/BA,-12.8184859,-42.7270883,20,92.98866
1,Boracéia/SP,-22.195355,-48.7801925,38,787.89135
D1,Boracéia/SP,-22.195355,-48.7801925,1,20.73398
1,Borba/AM,-4.3934778,-59.5947721,673,1635.04288
D1,Borba/AM,-4.3934778,-59.5947721,22,53.44865
1,Borborema/PB,-6.8066718,-35.5990191,27,513.01539
1,Borborema/SP,-21.6212706,-49.074135,59,367.69288
D1,Borborema/SP,-21.6212706,-49.074135,1,6.23208
1,Borda da Mata/MG,-22.274167,-46.165278,127,654.23449
D1,Borda da Mata/MG,-22.274167,-46.165278,10,51.51453
1,Borebi/SP,-22.5700178,-48.9714871,19,716.17037
D1,Borebi/SP,-22.5700178,-48.9714871,1,37.69318
1,Borrazópolis/PR,-23.9393362,-51.5850786,37,561.28641
1,Borá/SP,-22.2701088,-50.544407,1,119.47431
1,Bossoroca/RS,-28.7278885,-54.9120278,12,191.11323
D1,Bossoroca/RS,-28.7278885,-54.9120278,1,15.92610
1,Botelhos/MG,-21.65,-46.394722,40,267.18322
D1,Botelhos/MG,-21.65,-46.394722,1,6.67958
1,Botucatu/SP,-22.8879628,-48.4410712,1332,909.23364
D1,Botucatu/SP,-22.8879628,-48.4410712,27,18.43041
1,Botuporã/BA,-13.3744752,-42.5198469,3,29.38008
D1,Botuporã/BA,-13.3744752,-42.5198469,1,9.79336
1,Botuverá/SC,-27.200749,-49.068892,98,1868.08997
1,Bozano/RS,-28.3669953,-53.7705165,2,94.20631
1,Braga/RS,-27.617348,-53.740514,9,268.41634
1,Braganey/PR,-24.8179919,-53.118506,35,644.92353
D1,Braganey/PR,-24.8179919,-53.118506,1,18.42639
1,Bragança Paulista/SP,-22.9520235,-46.5418586,1332,789.71708
D1,Bragança Paulista/SP,-22.9520235,-46.5418586,31,18.37930
1,Bragança/PA,-1.0573967,-46.7635406,2117,1657.97347
D1,Bragança/PA,-1.0573967,-46.7635406,91,71.26858
1,Branquinha/AL,-9.2478057,-36.0152009,222,2115.49457
D1,Branquinha/AL,-9.2478057,-36.0152009,5,47.64627
1,Brasil Novo/PA,-3.3055853,-52.539198,546,3619.24964
D1,Brasil Novo/PA,-3.3055853,-52.539198,9,59.65796
1,Brasileira/PI,-4.131182,-41.7824969,66,792.41205
D1,Brasileira/PI,-4.131182,-41.7824969,1,12.00624
1,Brasilândia de Minas/MG,-17.0096469,-46.0087183,62,374.89418
D1,Brasilândia de Minas/MG,-17.0096469,-46.0087183,1,6.04668
1,Brasilândia do Sul/PR,-24.1975793,-53.527551,19,716.71068
1,Brasilândia do Tocantins/TO,-8.3886619,-48.4842729,3,136.30168
1,Brasilândia/MS,-21.255575,-52.0365617,64,539.08356
D1,Brasilândia/MS,-21.255575,-52.0365617,2,16.84636
1,Brasiléia/AC,-11.0010413,-68.7487894,897,3413.50179
D1,Brasiléia/AC,-11.0010413,-68.7487894,12,45.66558
1,Brasnorte/MT,-12.1227151,-58.0050109,66,335.11043
1,Brasília de Minas/MG,-16.2075114,-44.430559,28,86.56135
D1,Brasília de Minas/MG,-16.2075114,-44.430559,3,9.27443
1,Brasília/DF,-15.7934036,-47.8823172,126069,4181.02139
D1,Brasília/DF,-15.7934036,-47.8823172,1766,58.56859
1,Brazabrantes/GO,-16.4291635,-49.3858216,52,1404.26681
D1,Brazabrantes/GO,-16.4291635,-49.3858216,2,54.01026
1,Brazópolis/MG,-22.4742842,-45.6165577,155,1071.99668
D1,Brazópolis/MG,-22.4742842,-45.6165577,1,6.91611
1,Braço do Norte/SC,-28.2728633,-49.1622712,1211,3620.32885
D1,Braço do Norte/SC,-28.2728633,-49.1622712,10,29.89537
1,Braço do Trombudo/SC,-27.358578,-49.882145,24,641.19690
D1,Braço do Trombudo/SC,-27.358578,-49.882145,1,26.71654
1,Braúna/SP,-21.5015319,-50.3175246,59,1037.63630
D1,Braúna/SP,-21.5015319,-50.3175246,4,70.34822
1,Braúnas/MG,-19.055556,-42.716111,11,229.11893
D1,Braúnas/MG,-19.055556,-42.716111,1,20.82899
1,Brejetuba/ES,-20.1465817,-41.2902303,342,2757.17510
1,Brejinho de Nazaré/TO,-11.0205883,-48.5722906,47,855.01182
D1,Brejinho de Nazaré/TO,-11.0205883,-48.5722906,2,36.38348
1,Brejinho/PE,-7.3482153,-37.28538,49,654.46774
1,Brejinho/RN,-6.1957907,-35.3583019,141,1110.32365
D1,Brejinho/RN,-6.1957907,-35.3583019,3,23.62391
1,Brejo Alegre/SP,-21.1671191,-50.1850393,14,488.65620
1,Brejo Grande do Araguaia/PA,-5.7011449,-48.4037308,110,1490.51491
D1,Brejo Grande do Araguaia/PA,-5.7011449,-48.4037308,1,13.55014
1,Brejo Grande/SE,-10.4287358,-36.4667918,137,1648.81454
D1,Brejo Grande/SE,-10.4287358,-36.4667918,6,72.21086
1,Brejo Santo/CE,-7.4909841,-38.9859152,816,1649.25117
D1,Brejo Santo/CE,-7.4909841,-38.9859152,18,36.38054
1,Brejo da Madre de Deus/PE,-8.1409718,-36.3712527,741,1460.32872
D1,Brejo da Madre de Deus/PE,-8.1409718,-36.3712527,15,29.56131
1,Brejo de Areia/MA,-4.3316785,-45.5833334,164,1784.93687
D1,Brejo de Areia/MA,-4.3316785,-45.5833334,1,10.88376
1,Brejo do Cruz/PB,-6.32926065,-37.48746163303929,322,2280.13029
D1,Brejo do Cruz/PB,-6.32926065,-37.48746163303929,5,35.40575
1,Brejo do Piauí/PI,-8.207583,-42.8359849,5,129.03226
1,Brejo dos Santos/PB,-6.3769367,-37.8243125,23,356.64444
1,Brejo/MA,-3.6804397,-42.7529313,593,1629.25516
D1,Brejo/MA,-3.6804397,-42.7529313,18,49.45463
1,Brejolândia/BA,-12.4843845,-43.9611861,2,18.94478
D1,Brejolândia/BA,-12.4843845,-43.9611861,1,9.47239
1,Brejão/PE,-9.029146,-36.566034,19,211.27544
1,Brejões/BA,-13.1033754,-39.7909837,24,167.89087
1,Breu Branco/PA,-3.7785073,-49.5684795,265,401.23550
D1,Breu Branco/PA,-3.7785073,-49.5684795,19,28.76783
1,Breves/PA,-1.68036,-50.479085,1720,1674.76461
D1,Breves/PA,-1.68036,-50.479085,80,77.89603
1,Britânia/GO,-15.2427599,-51.1602061,13,224.95241
1,Brochier/RS,-29.556766,-51.5963047,20,394.16634
1,Brodowski/SP,-20.984532,-47.657217,267,1070.61229
D1,Brodowski/SP,-20.984532,-47.657217,11,44.10762
1,Brotas/SP,-22.2840884,-48.1267265,50,204.89284
D1,Brotas/SP,-22.2840884,-48.1267265,1,4.09786
1,Brumadinho/MG,-20.143611,-44.2,567,1413.85931
D1,Brumadinho/MG,-20.143611,-44.2,3,7.48074
1,Brumado/BA,-14.29507325,-41.659307508575985,584,869.11229
D1,Brumado/BA,-14.29507325,-41.659307508575985,5,7.44103
1,Brunópolis/SC,-27.310953,-50.837585,23,950.41322
1,Brusque/SC,-27.0964628,-48.9136323,3306,2453.92398
D1,Brusque/SC,-27.0964628,-48.9136323,41,30.43281
1,Brás Pires/MG,-20.8483109,-43.2430524,5,115.39349
1,Bueno Brandão/MG,-22.441976,-46.3517971,29,263.61240
D1,Bueno Brandão/MG,-22.441976,-46.3517971,3,27.27025
1,Buenos Aires/PE,-7.7218931,-35.326587,42,319.27024
D1,Buenos Aires/PE,-7.7218931,-35.326587,5,38.00836
1,Buenópolis/MG,-17.8756607,-44.1749365,85,820.06753
D1,Buenópolis/MG,-17.8756607,-44.1749365,1,9.64785
1,Buerarema/BA,-14.9571177,-39.3008035,314,1711.26492
D1,Buerarema/BA,-14.9571177,-39.3008035,9,49.04899
1,Bugre/MG,-19.4257687,-42.2556,13,326.46911
D1,Bugre/MG,-19.4257687,-42.2556,1,25.11301
1,Bujari/AC,-9.8309656,-67.9520886,341,3321.64426
D1,Bujari/AC,-9.8309656,-67.9520886,6,58.44535
1,Bujaru/PA,-1.5169239,-48.0410699,358,1228.88919
D1,Bujaru/PA,-1.5169239,-48.0410699,21,72.08568
1,Buri/SP,-23.79849,-48.598924,136,684.17346
D1,Buri/SP,-23.79849,-48.598924,4,20.12275
1,Buritama/SP,-21.0664017,-50.1448077,147,857.44284
D1,Buritama/SP,-21.0664017,-50.1448077,7,40.83061
1,Buriti Alegre/GO,-18.1377879,-49.0404411,165,1744.37044
1,Buriti Bravo/MA,-5.8391884,-43.8367876,159,665.71764
1,Buriti de Goiás/GO,-16.180644,-50.4287479,21,844.05145
1,Buriti do Tocantins/TO,-5.3187439,-48.2256609,156,1374.69158
1,Buriti dos Lopes/PI,-3.1776723,-41.8707444,622,3144.43153
D1,Buriti dos Lopes/PI,-3.1776723,-41.8707444,11,55.60892
1,Buriti dos Montes/PI,-5.3136171,-41.0971256,11,133.43037
D1,Buriti dos Montes/PI,-5.3136171,-41.0971256,1,12.13003
1,Buriti/MA,-3.9430944,-42.9244281,417,1454.07630
D1,Buriti/MA,-3.9430944,-42.9244281,1,3.48699
1,Buriticupu/MA,-4.3227472,-46.4516989,1993,2754.36026
D1,Buriticupu/MA,-4.3227472,-46.4516989,4,5.52807
1,Buritinópolis/GO,-14.4589282,-46.4293104,25,759.41677
1,Buritirama/BA,-10.7148421,-43.6362327,122,576.17833
D1,Buritirama/BA,-10.7148421,-43.6362327,1,4.72277
1,Buritirana/MA,-5.5897455,-47.0148915,235,1523.00713
D1,Buritirana/MA,-5.5897455,-47.0148915,6,38.88529
1,Buritis/MG,-15.621389,-46.423889,155,623.96844
D1,Buritis/MG,-15.621389,-46.423889,1,4.02560
1,Buritis/RO,-10.2054937,-63.8281954,326,822.11126
D1,Buritis/RO,-10.2054937,-63.8281954,5,12.60907
1,Buritizal/SP,-20.1933264,-47.7097165,43,959.60723
1,Buritizeiro/MG,-17.3667765,-44.9647781,106,377.81580
D1,Buritizeiro/MG,-17.3667765,-44.9647781,4,14.25720
1,Butiá/RS,-30.1256795,-51.9692224,124,592.13982
D1,Butiá/RS,-30.1256795,-51.9692224,5,23.87661
1,Buíque/PE,-8.6239732,-37.157296,216,370.00240
D1,Buíque/PE,-8.6239732,-37.157296,4,6.85190
1,Bálsamo/SP,-20.7343722,-49.5807484,187,2062.19674
D1,Bálsamo/SP,-20.7343722,-49.5807484,8,88.22232
0,CASO SEM LOCALIZAÇÃO DEFINIDA/AC,-9.884083190922777,-67.85119819780795,32,3.62839
D0,CASO SEM LOCALIZAÇÃO DEFINIDA/AC,-9.884083190922777,-67.85119819780795,1,0.11339
0,CASO SEM LOCALIZAÇÃO DEFINIDA/AL,-9.931093434363673,-35.609611600637464,809,24.24074
D0,CASO SEM LOCALIZAÇÃO DEFINIDA/AL,-9.931093434363673,-35.609611600637464,19,0.56931
0,CASO SEM LOCALIZAÇÃO DEFINIDA/AM,-3.07518492149711,-60.16169212873594,769,18.55428
D0,CASO SEM LOCALIZAÇÃO DEFINIDA/AM,-3.07518492149711,-60.16169212873594,29,0.69971
0,CASO SEM LOCALIZAÇÃO DEFINIDA/AP,2.677150600275196,-50.477785111870624,260,30.74264
D0,CASO SEM LOCALIZAÇÃO DEFINIDA/AP,2.677150600275196,-50.477785111870624,3,0.35472
0,CASO SEM LOCALIZAÇÃO DEFINIDA/BA,-13.415069300066518,-38.14174656569957,3469,23.32404
D0,CASO SEM LOCALIZAÇÃO DEFINIDA/BA,-13.415069300066518,-38.14174656569957,23,0.15464
0,CASO SEM LOCALIZAÇÃO DEFINIDA/CE,-3.3445126297392798,-38.624961942434304,1834,20.08305
0,CASO SEM LOCALIZAÇÃO DEFINIDA/ES,-20.30989267097039,-39.81745156645774,863,21.47487
D0,CASO SEM LOCALIZAÇÃO DEFINIDA/ES,-20.30989267097039,-39.81745156645774,15,0.37326
0,CASO SEM LOCALIZAÇÃO DEFINIDA/GO,-16.701590966270153,-49.164524059025034,3419,48.71513
D0,CASO SEM LOCALIZAÇÃO DEFINIDA/GO,-16.701590966270153,-49.164524059025034,52,0.74091
0,CASO SEM LOCALIZAÇÃO DEFINIDA/MG,-19.97049116501593,-43.8852149072783,513,2.42338
D0,CASO SEM LOCALIZAÇÃO DEFINIDA/MG,-19.97049116501593,-43.8852149072783,42,0.19841
0,CASO SEM LOCALIZAÇÃO DEFINIDA/MS,-20.391549234908513,-54.645156949758444,395,14.21382
D0,CASO SEM LOCALIZAÇÃO DEFINIDA/MS,-20.391549234908513,-54.645156949758444,14,0.50378
0,CASO SEM LOCALIZAÇÃO DEFINIDA/MT,-15.54791153961863,-56.17143998972475,7114,204.16328
D0,CASO SEM LOCALIZAÇÃO DEFINIDA/MT,-15.54791153961863,-56.17143998972475,223,6.39983
0,CASO SEM LOCALIZAÇÃO DEFINIDA/PA,-0.09317078214359542,-48.0050231510481,1462,16.99434
D0,CASO SEM LOCALIZAÇÃO DEFINIDA/PA,-0.09317078214359542,-48.0050231510481,8,0.09299
0,CASO SEM LOCALIZAÇÃO DEFINIDA/PE,-8.121628543819208,-34.57313921302556,484,5.06431
D0,CASO SEM LOCALIZAÇÃO DEFINIDA/PE,-8.121628543819208,-34.57313921302556,85,0.88939
0,CASO SEM LOCALIZAÇÃO DEFINIDA/PI,-2.683810218391744,-41.470898009352254,966,29.51216
D0,CASO SEM LOCALIZAÇÃO DEFINIDA/PI,-2.683810218391744,-41.470898009352254,23,0.70267
0,CASO SEM LOCALIZAÇÃO DEFINIDA/PR,-25.69415946385943,-48.10141676336737,6209,54.30316
D0,CASO SEM LOCALIZAÇÃO DEFINIDA/PR,-25.69415946385943,-48.10141676336737,154,1.34687
0,CASO SEM LOCALIZAÇÃO DEFINIDA/RJ,-23.210238986465157,-43.12864305824042,1166,6.75357
D0,CASO SEM LOCALIZAÇÃO DEFINIDA/RJ,-23.210238986465157,-43.12864305824042,28,0.16218
0,CASO SEM LOCALIZAÇÃO DEFINIDA/RN,-5.749310788669161,-34.95302586257457,954,27.20388
D0,CASO SEM LOCALIZAÇÃO DEFINIDA/RN,-5.749310788669161,-34.95302586257457,20,0.57031
0,CASO SEM LOCALIZAÇÃO DEFINIDA/RO,-8.681174926655274,-63.9216949899276,506,28.47135
D0,CASO SEM LOCALIZAÇÃO DEFINIDA/RO,-8.681174926655274,-63.9216949899276,4,0.22507
0,CASO SEM LOCALIZAÇÃO DEFINIDA/RR,2.813328208465927,-60.663338675861986,1227,202.55513
D0,CASO SEM LOCALIZAÇÃO DEFINIDA/RR,2.813328208465927,-60.663338675861986,4,0.66033
0,CASO SEM LOCALIZAÇÃO DEFINIDA/RS,-30.50647488532064,-49.906261466443524,43,0.37795
D0,CASO SEM LOCALIZAÇÃO DEFINIDA/RS,-30.50647488532064,-49.906261466443524,57,0.50100
0,CASO SEM LOCALIZAÇÃO DEFINIDA/SC,-27.675643660562308,-48.18313219398259,2710,37.82387
D0,CASO SEM LOCALIZAÇÃO DEFINIDA/SC,-27.675643660562308,-48.18313219398259,5,0.06979
0,CASO SEM LOCALIZAÇÃO DEFINIDA/SE,-11.03002091978736,-36.89283180376513,281,12.22432
D0,CASO SEM LOCALIZAÇÃO DEFINIDA/SE,-11.03002091978736,-36.89283180376513,25,1.08757
0,CASO SEM LOCALIZAÇÃO DEFINIDA/SP,-24.30968974555485,-46.21366504207253,29878,65.06668
D0,CASO SEM LOCALIZAÇÃO DEFINIDA/SP,-24.30968974555485,-46.21366504207253,703,1.53096
0,CASO SEM LOCALIZAÇÃO DEFINIDA/TO,-10.213012114749148,-48.40023803990334,626,39.79996
D0,CASO SEM LOCALIZAÇÃO DEFINIDA/TO,-10.213012114749148,-48.40023803990334,10,0.63578
1,Caapiranga/AM,-3.3188884,-61.2096404,265,2025.83900
D1,Caapiranga/AM,-3.3188884,-61.2096404,5,38.22338
1,Caaporã/PB,-7.510234,-34.9154114,913,4182.70112
D1,Caaporã/PB,-7.510234,-34.9154114,12,54.97526
1,Caarapó/MS,-22.6349267,-54.8240903,260,861.66899
D1,Caarapó/MS,-22.6349267,-54.8240903,1,3.31411
1,Caatiba/BA,-14.9782759,-40.4092325,140,2071.61882
1,Cabaceiras do Paraguaçu/BA,-12.5377868,-39.1901339,46,244.58978
D1,Cabaceiras do Paraguaçu/BA,-12.5377868,-39.1901339,1,5.31717
1,Cabaceiras/PB,-7.4899156,-36.2860501,60,1069.32811
1,Cabeceira Grande/MG,-16.0297,-47.0906,13,187.07728
1,Cabeceiras do Piauí/PI,-4.4733665,-42.3098716,167,1577.55526
D1,Cabeceiras do Piauí/PI,-4.4733665,-42.3098716,1,9.44644
1,Cabeceiras/GO,-15.7995459,-46.9264991,12,150.13136
D1,Cabeceiras/GO,-15.7995459,-46.9264991,1,12.51095
1,Cabedelo/PB,-6.97324,-34.8351609,2536,3743.94709
D1,Cabedelo/PB,-6.97324,-34.8351609,49,72.33967
1,Cabixi/RO,-13.4956065,-60.5424442,55,1035.39157
D1,Cabixi/RO,-13.4956065,-60.5424442,4,75.30120
1,Cabo Frio/RJ,-22.8804369,-42.0189227,1642,724.86481
D1,Cabo Frio/RJ,-22.8804369,-42.0189227,89,39.28926
1,Cabo Verde/MG,-21.4743338,-46.3964995,8,56.83837
1,Cabo de Santo Agostinho/PE,-8.2838945,-35.0320984,1532,739.92504
D1,Cabo de Santo Agostinho/PE,-8.2838945,-35.0320984,213,102.87470
1,Cabreúva/SP,-23.3075813,-47.1324417,698,1404.22878
D1,Cabreúva/SP,-23.3075813,-47.1324417,33,66.38904
1,Cabrobó/PE,-8.5083701,-39.3106961,358,1046.14126
D1,Cabrobó/PE,-8.5083701,-39.3106961,2,5.84436
1,Cabrália Paulista/SP,-22.4562909,-49.3385645,50,1172.60788
1,Cacaulândia/RO,-10.3380043,-62.9007231,50,802.56822
1,Cacequi/RS,-29.8838059,-54.8273443,10,79.61150
1,Cachoeira Alta/GO,-18.7618269,-50.9432431,222,1778.27619
D1,Cachoeira Alta/GO,-18.7618269,-50.9432431,1,8.01025
1,Cachoeira Dourada/GO,-18.4934204,-49.481062,22,272.71600
1,Cachoeira Dourada/MG,-18.517136,-49.5002062,4,148.58841
1,Cachoeira Grande/MA,-2.9290492,-44.0573223,170,1802.56601
D1,Cachoeira Grande/MA,-2.9290492,-44.0573223,3,31.80999
1,Cachoeira Paulista/SP,-22.666498,-45.015384,177,531.10091
D1,Cachoeira Paulista/SP,-22.666498,-45.015384,7,21.00399
1,Cachoeira da Prata/MG,-19.524723,-44.453056,20,555.09298
1,Cachoeira de Goiás/GO,-16.6688414,-50.6435997,11,814.21170
1,Cachoeira de Minas/MG,-22.3554043,-45.7796324,41,355.07058
1,Cachoeira de Pajeú/MG,-15.965833,-41.496666,62,658.73353
1,Cachoeira do Arari/PA,-1.0143572,-48.9621089,247,1039.25611
D1,Cachoeira do Arari/PA,-1.0143572,-48.9621089,11,46.28266
1,Cachoeira do Piriá/PA,-1.7599443,-46.5446954,440,1297.93510
D1,Cachoeira do Piriá/PA,-1.7599443,-46.5446954,2,5.89971
1,Cachoeira do Sul/RS,-30.0474778,-52.8905413,242,294.40031
D1,Cachoeira do Sul/RS,-30.0474778,-52.8905413,2,2.43306
1,Cachoeira dos Índios/PB,-6.9259193,-38.6742159,95,927.37212
D1,Cachoeira dos Índios/PB,-6.9259193,-38.6742159,6,58.57087
1,Cachoeira/BA,-12.5998256,-38.9665918,333,994.92082
D1,Cachoeira/BA,-12.5998256,-38.9665918,7,20.91425
1,Cachoeiras de Macacu/RJ,-22.4626861,-42.6534414,474,804.24860
D1,Cachoeiras de Macacu/RJ,-22.4626861,-42.6534414,25,42.41818
1,Cachoeirinha/PE,-8.4906364,-36.2338963,269,1319.92149
D1,Cachoeirinha/PE,-8.4906364,-36.2338963,18,88.32188
1,Cachoeirinha/RS,-29.9493353,-51.0898927,1422,1091.38634
D1,Cachoeirinha/RS,-29.9493353,-51.0898927,29,22.25753
1,Cachoeirinha/TO,-6.118647,-47.9208885,17,747.25275
1,Cachoeiro de Itapemirim/ES,-20.848084,-41.11129,3962,1895.94778
D1,Cachoeiro de Itapemirim/ES,-20.848084,-41.11129,118,56.46690
1,Cacimba de Areia/PB,-7.1288513,-37.1575194,8,217.27322
1,Cacimba de Dentro/PB,-6.6425101,-35.7929304,242,1408.04096
D1,Cacimba de Dentro/PB,-6.6425101,-35.7929304,4,23.27340
1,Cacimbas/PB,-7.2125451,-37.0593398,45,627.35257
D1,Cacimbas/PB,-7.2125451,-37.0593398,1,13.94117
1,Cacimbinhas/AL,-9.401212,-36.991082,131,1206.48370
D1,Cacimbinhas/AL,-9.401212,-36.991082,3,27.62940
1,Cacique Doble/RS,-27.7700117,-51.6616409,46,908.19348
1,Cacoal/RO,-11.4333,-61.4420502,1085,1271.10205
D1,Cacoal/RO,-11.4333,-61.4420502,19,22.25893
1,Caconde/SP,-21.527995,-46.643659,52,273.90045
1,Caculé/BA,-14.4990734,-42.2233006,52,224.42814
D1,Caculé/BA,-14.4990734,-42.2233006,1,4.31593
1,Caetanos/BA,-14.3387456,-40.9085971,15,103.14950
1,Caetanópolis/MG,-19.2947496,-44.4138386,40,344.11562
1,Caetité/BA,-14.0691776,-42.4852428,86,168.71015
D1,Caetité/BA,-14.0691776,-42.4852428,3,5.88524
1,Caeté/MG,-19.897777,-43.670278,181,404.75871
D1,Caeté/MG,-19.897777,-43.670278,2,4.47247
1,Caetés/PE,-8.7728788,-36.6255835,333,1158.70420
D1,Caetés/PE,-8.7728788,-36.6255835,5,17.39796
1,Cafarnaum/BA,-11.691399,-41.468823,124,672.56061
1,Cafeara/PR,-22.78905,-51.714195,42,1431.49284
1,Cafelândia/PR,-24.6176963,-53.3218057,70,386.31347
D1,Cafelândia/PR,-24.6176963,-53.3218057,1,5.51876
1,Cafelândia/SP,-21.8054355,-49.6030627,170,956.83008
D1,Cafelândia/SP,-21.8054355,-49.6030627,2,11.25682
1,Cafezal do Sul/PR,-23.900508,-53.512418,7,173.09594
1,Caiabu/SP,-22.0143038,-51.2356597,25,596.51634
D1,Caiabu/SP,-22.0143038,-51.2356597,2,47.72131
1,Caiana/MG,-20.695555,-41.924723,13,236.53566
D1,Caiana/MG,-20.695555,-41.924723,1,18.19505
1,Caiapônia/GO,-16.9538779,-51.8090761,48,253.79369
1,Caibaté/RS,-28.290475,-54.645407,2,41.27115
1,Caibi/SC,-27.0751925,-53.2502133,28,455.43266
D1,Caibi/SC,-27.0751925,-53.2502133,2,32.53090
1,Caicó/RN,-6.4594544,-37.0971911,1143,1682.06970
D1,Caicó/RN,-6.4594544,-37.0971911,17,25.01766
1,Caieiras/SP,-23.3644621,-46.7484765,1245,1226.96363
D1,Caieiras/SP,-23.3644621,-46.7484765,74,72.92796
1,Cairu/BA,-13.4860505,-39.0455744,141,775.74824
D1,Cairu/BA,-13.4860505,-39.0455744,3,16.50528
1,Caiuá/SP,-21.8319357,-51.9887179,43,732.03950
1,Caiçara do Norte/RN,-5.0645017,-36.0561226,82,1252.09956
D1,Caiçara do Norte/RN,-5.0645017,-36.0561226,3,45.80852
1,Caiçara do Rio do Vento/RN,-5.757968,-36.00089,60,1628.66450
D1,Caiçara do Rio do Vento/RN,-5.757968,-36.00089,1,27.14441
1,Caiçara/PB,-6.6146866,-35.4681434,396,5499.23622
D1,Caiçara/PB,-6.6146866,-35.4681434,5,69.43480
1,Caiçara/RS,-27.2750478,-53.4310053,19,400.59034
D1,Caiçara/RS,-27.2750478,-53.4310053,1,21.08370
1,Cajamar/SP,-23.3561111,-46.8769444,1067,1389.30483
D1,Cajamar/SP,-23.3561111,-46.8769444,61,79.42605
1,Cajapió/MA,-2.8778715,-44.6746871,5,44.73472
D1,Cajapió/MA,-2.8778715,-44.6746871,2,17.89389
1,Cajari/MA,-3.3213076,-45.0118757,121,624.38722
D1,Cajari/MA,-3.3213076,-45.0118757,4,20.64090
1,Cajati/SP,-24.7272376,-48.1077914,949,3324.10943
D1,Cajati/SP,-24.7272376,-48.1077914,9,31.52475
1,Cajazeiras do Piauí/PI,-6.794271,-42.3935024,5,140.48890
1,Cajazeiras/PB,-6.8897849,-38.5570389,1375,2217.99235
D1,Cajazeiras/PB,-6.8897849,-38.5570389,34,54.84490
1,Cajazeirinhas/PB,-6.961442,-37.7993733,22,689.00720
1,Cajobi/SP,-20.8776238,-48.8106972,79,749.38342
D1,Cajobi/SP,-20.8776238,-48.8106972,4,37.94346
1,Cajueiro da Praia/PI,-2.931114,-41.340801,215,2813.39963
D1,Cajueiro da Praia/PI,-2.931114,-41.340801,7,91.59906
1,Cajueiro/AL,-9.399589,-36.1524309,195,917.04289
D1,Cajueiro/AL,-9.399589,-36.1524309,12,56.43341
1,Cajuri/MG,-20.7901414,-42.7954489,38,953.09757
1,Cajuru/SP,-21.2759978,-47.3046035,234,894.25612
D1,Cajuru/SP,-21.2759978,-47.3046035,5,19.10804
1,Caldas Brandão/PB,-7.1027959,-35.3254676,213,3541.73595
D1,Caldas Brandão/PB,-7.1027959,-35.3254676,2,33.25574
1,Caldas Novas/GO,-17.745,-48.625,476,522.14739
D1,Caldas Novas/GO,-17.745,-48.625,10,10.96948
1,Caldas/MG,-21.923611,-46.386111,51,352.20994
1,Caldazinha/GO,-16.7116649,-49.0012601,32,841.21977
1,Caldeirão Grande do Piauí/PI,-7.3310393,-40.6374433,48,831.02493
1,Caldeirão Grande/BA,-11.0208483,-40.3041387,110,825.39206
D1,Caldeirão Grande/BA,-11.0208483,-40.3041387,1,7.50356
1,Califórnia/PR,-23.6672543,-51.3554556,29,338.38973
D1,Califórnia/PR,-23.6672543,-51.3554556,2,23.33722
1,Calmon/SC,-26.6023644,-51.0992893,5,149.43216
1,Calumbi/PE,-7.9389746,-38.1516871,98,1704.34783
D1,Calumbi/PE,-7.9389746,-38.1516871,1,17.39130
1,Calçado/PE,-8.7413446,-36.3351787,45,407.12929
D1,Calçado/PE,-8.7413446,-36.3351787,1,9.04732
1,Calçoene/AP,2.4981757,-50.9539503,1092,9822.79392
D1,Calçoene/AP,2.4981757,-50.9539503,5,44.97616
1,Camacan/BA,-15.4166631,-39.4930088,1030,3219.95748
D1,Camacan/BA,-15.4166631,-39.4930088,19,59.39727
1,Camalaú/PB,-7.885031,-36.824191,2,33.26127
1,Camamu/BA,-13.9438142,-39.1060917,711,2013.25178
D1,Camamu/BA,-13.9438142,-39.1060917,11,31.14736
1,Camanducaia/MG,-22.755278,-46.144444,244,1120.80845
D1,Camanducaia/MG,-22.755278,-46.144444,4,18.37391
1,Camapuã/MS,-19.5291747,-54.0434641,25,182.33535
D1,Camapuã/MS,-19.5291747,-54.0434641,1,7.29341
1,Camaquã/RS,-30.8524752,-51.8075619,407,614.23764
D1,Camaquã/RS,-30.8524752,-51.8075619,12,18.11020
1,Camaragibe/PE,-8.0213832,-34.9810768,1716,1087.25955
D1,Camaragibe/PE,-8.0213832,-34.9810768,155,98.20818
1,Camargo/RS,-28.5865661,-52.2031474,25,914.74570
1,Camaçari/BA,-12.6998188,-38.3260762,4574,1529.09084
D1,Camaçari/BA,-12.6998188,-38.3260762,60,20.05803
1,Cambará do Sul/RS,-29.0489517,-50.145412,50,777.48406
1,Cambará/PR,-23.042273,-50.075281,81,319.40063
D1,Cambará/PR,-23.042273,-50.075281,3,11.82965
1,Cambira/PR,-23.600265,-51.581045,14,178.00381
1,Camboriú/SC,-27.0273601,-48.6535657,1696,2043.64434
D1,Camboriú/SC,-27.0273601,-48.6535657,29,34.94439
1,Cambuci/RJ,-21.5749919,-41.9107833,123,793.29249
D1,Cambuci/RJ,-21.5749919,-41.9107833,1,6.44953
1,Cambuquira/MG,-21.853056,-45.2953619,8,62.43172
1,Cambuí/MG,-22.6122501,-46.0572137,156,527.90092
D1,Cambuí/MG,-22.6122501,-46.0572137,4,13.53592
1,Cambé/PR,-23.2782035,-51.2779583,544,510.63990
D1,Cambé/PR,-23.2782035,-51.2779583,12,11.26412
1,Cametá/PA,-2.242949,-49.497885,4436,3217.05707
D1,Cametá/PA,-2.242949,-49.497885,91,65.99463
1,Camocim de São Félix/PE,-8.3616757,-35.7638903,136,724.75353
D1,Camocim de São Félix/PE,-8.3616757,-35.7638903,5,26.64535
1,Camocim/CE,-2.9009918,-40.8427389,2236,3512.35450
D1,Camocim/CE,-2.9009918,-40.8427389,79,124.09481
1,Campanha/MG,-21.8361108,-45.401986,45,270.02700
D1,Campanha/MG,-21.8361108,-45.401986,2,12.00120
1,Campanário/MG,-18.2398144,-41.7271768,8,214.99597
1,Campestre da Serra/RS,-28.7966535,-51.0958149,20,590.31877
1,Campestre de Goiás/GO,-16.7624179,-49.69497,56,1542.69972
D1,Campestre de Goiás/GO,-16.7624179,-49.69497,1,27.54821
1,Campestre do Maranhão/MA,-6.1729113,-47.3640512,286,1989.70363
D1,Campestre do Maranhão/MA,-6.1729113,-47.3640512,1,6.95701
1,Campestre/AL,-8.8481634,-35.5660033,82,1182.23760
D1,Campestre/AL,-8.8481634,-35.5660033,3,43.25260
1,Campestre/MG,-19.6142116,-43.219378,85,403.70458
D1,Campestre/MG,-19.6142116,-43.219378,3,14.24840
1,Campina Grande do Sul/PR,-25.3046032,-49.0545355,514,1187.39605
D1,Campina Grande do Sul/PR,-25.3046032,-49.0545355,12,27.72131
1,Campina Grande/PB,-7.2246743,-35.8771292,11222,2738.87014
D1,Campina Grande/PB,-7.2246743,-35.8771292,244,59.55127
1,Campina Verde/MG,-19.535277,-49.486389,66,334.26184
D1,Campina Verde/MG,-19.535277,-49.486389,2,10.12915
1,Campina da Lagoa/PR,-24.5937926,-52.8038965,13,91.53640
D1,Campina da Lagoa/PR,-24.5937926,-52.8038965,2,14.08252
1,Campina das Missões/RS,-27.9883295,-54.8411665,3,54.80453
1,Campina do Monte Alegre/SP,-23.5935653,-48.4801876,70,1162.01859
1,Campina do Simão/PR,-25.1086375,-51.8076658,4,102.90713
1,Campinas do Piauí/PI,-7.6593687,-41.8814875,18,320.68413
1,Campinas do Sul/RS,-27.7167968,-52.6257885,34,623.39567
D1,Campinas do Sul/RS,-27.7167968,-52.6257885,1,18.33517
1,Campinas/SP,-22.90556,-47.06083,19792,1643.75416
D1,Campinas/SP,-22.90556,-47.06083,775,64.36487
1,Campinaçu/GO,-13.7869969,-48.5703841,71,1950.54945
1,Campinorte/GO,-14.3136699,-49.1510931,125,990.02059
D1,Campinorte/GO,-14.3136699,-49.1510931,1,7.92016
1,Campinápolis/MT,-14.5403731,-52.7970626,191,1195.24406
D1,Campinápolis/MT,-14.5403731,-52.7970626,8,50.06258
1,Campo Alegre de Goiás/GO,-17.6337896,-47.779291,3,39.53090
1,Campo Alegre de Lourdes/BA,-9.5160326,-43.0101338,83,288.21446
D1,Campo Alegre de Lourdes/BA,-9.5160326,-43.0101338,2,6.94493
1,Campo Alegre do Fidalgo/PI,-8.3753852,-41.8364191,10,198.21606
D1,Campo Alegre do Fidalgo/PI,-8.3753852,-41.8364191,1,19.82161
1,Campo Alegre/AL,-9.7798607,-36.3575793,1149,2013.56396
D1,Campo Alegre/AL,-9.7798607,-36.3575793,25,43.81123
1,Campo Alegre/SC,-26.1941684,-49.2657484,79,659.54249
D1,Campo Alegre/SC,-26.1941684,-49.2657484,2,16.69728
1,Campo Azul/MG,-16.5078525,-44.8133524,1,26.19859
1,Campo Belo do Sul/SC,-27.8987563,-50.7586887,16,228.05017
1,Campo Belo/MG,-20.8975,-45.277223,357,660.75626
D1,Campo Belo/MG,-20.8975,-45.277223,9,16.65772
1,Campo Bom/RS,-29.674694,-51.060601,1270,1903.70548
D1,Campo Bom/RS,-29.674694,-51.060601,30,44.96942
1,Campo Bonito/PR,-25.0328004,-52.992976,40,1043.56901
1,Campo Erê/SC,-26.3947432,-53.0790495,58,680.27211
1,Campo Florido/MG,-19.760833,-48.572223,50,613.42167
1,Campo Formoso/BA,-10.51055,-40.320031,762,1070.13454
D1,Campo Formoso/BA,-10.51055,-40.320031,6,8.42626
1,Campo Grande do Piauí/PI,-7.1327559,-41.0381164,79,1329.29497
D1,Campo Grande do Piauí/PI,-7.1327559,-41.0381164,1,16.82652
1,Campo Grande/AL,-9.9725,-36.74791447368421,165,1726.30257
D1,Campo Grande/AL,-9.9725,-36.74791447368421,3,31.38732
1,Campo Grande/MS,-20.4640173,-54.6162947,12934,1443.55579
D1,Campo Grande/MS,-20.4640173,-54.6162947,184,20.53613
1,Campo Largo do Piauí/PI,-3.8104731,-42.6288333,107,1469.98214
D1,Campo Largo do Piauí/PI,-3.8104731,-42.6288333,4,54.95260
1,Campo Largo/PR,-25.4597726,-49.5270851,1672,1266.64748
D1,Campo Largo/PR,-25.4597726,-49.5270851,37,28.02988
1,Campo Limpo Paulista/SP,-23.207791,-46.788919,794,937.97992
D1,Campo Limpo Paulista/SP,-23.207791,-46.788919,55,64.97342
1,Campo Limpo de Goiás/GO,-16.297101,-49.0894994,17,218.25652
1,Campo Magro/PR,-25.3691533,-49.4496921,269,917.52507
D1,Campo Magro/PR,-25.3691533,-49.4496921,5,17.05437
1,Campo Maior/PI,-4.8339574,-42.1739786,1876,4005.72246
D1,Campo Maior/PI,-4.8339574,-42.1739786,34,72.59838
1,Campo Mourão/PR,-24.046329,-52.37802,634,668.36041
D1,Campo Mourão/PR,-24.046329,-52.37802,18,18.97553
1,Campo Novo de Rondônia/RO,-10.5704235,-63.6199511,89,629.46460
D1,Campo Novo de Rondônia/RO,-10.5704235,-63.6199511,4,28.29054
1,Campo Novo do Parecis/MT,-13.658735,-57.890723,933,2638.57466
D1,Campo Novo do Parecis/MT,-13.658735,-57.890723,11,31.10860
1,Campo Novo/RS,-28.91500235,-52.331375687737626,13,289.91971
1,Campo Redondo/RN,-6.2420373,-36.1830606,170,1515.55674
D1,Campo Redondo/RN,-6.2420373,-36.1830606,2,17.83008
1,Campo Verde/MT,-15.5430787,-55.1590511,974,2211.57558
D1,Campo Verde/MT,-15.5430787,-55.1590511,15,34.05917
1,Campo do Brito/SE,-10.7496246,-37.4942276,415,2291.67817
D1,Campo do Brito/SE,-10.7496246,-37.4942276,4,22.08846
1,Campo do Meio/MG,-21.1072006,-45.8301735,14,120.12012
1,Campo do Tenente/PR,-25.9814143,-49.684518,56,702.54673
D1,Campo do Tenente/PR,-25.9814143,-49.684518,3,37.63643
1,Campos Altos/MG,-19.696389,-46.171389,75,485.09152
D1,Campos Altos/MG,-19.696389,-46.171389,2,12.93577
1,Campos Belos/GO,-13.0349839,-46.768112,93,467.64218
D1,Campos Belos/GO,-13.0349839,-46.768112,1,5.02841
1,Campos Borges/RS,-28.8852198,-52.999098,3,90.36145
1,Campos Gerais/MG,-21.2333342,-45.7584127,60,208.52158
D1,Campos Gerais/MG,-21.2333342,-45.7584127,2,6.95072
1,Campos Lindos/TO,-7.9740597,-46.8023881,67,662.31712
D1,Campos Lindos/TO,-7.9740597,-46.8023881,1,9.88533
1,Campos Novos Paulista/SP,-22.601952,-49.998726,26,523.66566
1,Campos Novos/SC,-27.3962904,-51.2224397,571,1575.43318
D1,Campos Novos/SC,-27.3962904,-51.2224397,11,30.34985
1,Campos Sales/CE,-7.0742675,-40.3740367,253,922.48232
D1,Campos Sales/CE,-7.0742675,-40.3740367,5,18.23088
1,Campos Verdes/GO,-14.2709062,-49.65746,12,560.48575
1,Campos de Júlio/MT,-13.7223646,-59.2645296,244,3540.85038
D1,Campos de Júlio/MT,-13.7223646,-59.2645296,4,58.04673
1,Campos do Jordão/SP,-22.7395263,-45.5912829,362,694.97773
D1,Campos do Jordão/SP,-22.7395263,-45.5912829,5,9.59914
1,Campos dos Goytacazes/RJ,-21.7558619,-41.3326895,3280,646.24430
D1,Campos dos Goytacazes/RJ,-21.7558619,-41.3326895,228,44.92186
1,Camutanga/PE,-7.4092965,-35.2738166,137,1602.15180
D1,Camutanga/PE,-7.4092965,-35.2738166,4,46.77815
1,Cana Verde/MG,-21.021308,-45.1817881,64,1142.24523
D1,Cana Verde/MG,-21.021308,-45.1817881,1,17.84758
1,Canabrava do Norte/MT,-11.0516481,-51.8301897,44,927.68290
D1,Canabrava do Norte/MT,-11.0516481,-51.8301897,1,21.08370
1,Cananéia/SP,-25.0104609,-47.9315628,101,805.42265
D1,Cananéia/SP,-25.0104609,-47.9315628,4,31.89793
1,Canapi/AL,-9.1173572,-37.6011704,52,293.42061
D1,Canapi/AL,-9.1173572,-37.6011704,3,16.92811
1,Canarana/BA,-11.6870151,-41.7683675,70,267.42054
D1,Canarana/BA,-11.6870151,-41.7683675,1,3.82029
1,Canarana/MT,-13.5564602,-52.2691167,346,1603.41072
D1,Canarana/MT,-13.5564602,-52.2691167,8,37.07308
1,Canas/SP,-22.7029347,-45.0526508,18,350.33087
D1,Canas/SP,-22.7029347,-45.0526508,1,19.46283
1,Canavieiras/BA,-15.61621745,-39.08485321304444,120,385.86450
D1,Canavieiras/BA,-15.61621745,-39.08485321304444,3,9.64661
1,Canaã dos Carajás/PA,-6.5296837,-49.8516592,2856,7701.22691
D1,Canaã dos Carajás/PA,-6.5296837,-49.8516592,38,102.46730
1,Candeal/BA,-11.8053441,-39.1206515,41,496.48825
1,Candeias do Jamari/RO,-8.7949939,-63.7018851,1010,3783.76353
D1,Candeias do Jamari/RO,-8.7949939,-63.7018851,20,74.92601
1,Candeias/BA,-12.6693806,-38.5406462,1702,1954.61436
D1,Candeias/BA,-12.6693806,-38.5406462,35,40.19477
1,Candeias/MG,-20.7676161,-45.2763777,59,396.34556
D1,Candeias/MG,-20.7676161,-45.2763777,2,13.43544
1,Candelária/RS,-29.668391,-52.789495,85,271.00271
1,Candiba/BA,-14.4125032,-42.8714102,20,139.67456
1,Candiota/RS,-31.5451894,-53.719538,55,573.87312
D1,Candiota/RS,-31.5451894,-53.719538,1,10.43406
1,Candói/PR,-25.5711951,-52.051107,44,275.36141
1,Canela/RS,-29.3624657,-50.8134204,315,700.03111
D1,Canela/RS,-29.3624657,-50.8134204,11,24.44553
1,Canelinha/SC,-27.2660341,-48.7666708,328,2679.73856
D1,Canelinha/SC,-27.2660341,-48.7666708,3,24.50980
1,Canguaretama/RN,-6.3751942,-35.137463,284,828.56809
D1,Canguaretama/RN,-6.3751942,-35.137463,16,46.67989
1,Canguçu/RS,-31.398276,-52.6773522,61,108.84111
D1,Canguçu/RS,-31.398276,-52.6773522,2,3.56856
1,Canhoba/SE,-10.1373681,-36.9710796,74,1846.30739
1,Canhotinho/PE,-8.876519,-36.197935,226,911.14336
D1,Canhotinho/PE,-8.876519,-36.197935,11,44.34769
1,Canindé de São Francisco/SE,-9.6597475,-37.7904456,237,792.64214
D1,Canindé de São Francisco/SE,-9.6597475,-37.7904456,6,20.06689
1,Canindé/CE,-4.3547946,-39.3108516,1797,2333.85716
D1,Canindé/CE,-4.3547946,-39.3108516,64,83.12012
1,Canitar/SP,-23.0066616,-49.7840632,21,402.60736
D1,Canitar/SP,-23.0066616,-49.7840632,1,19.17178
1,Canoas/RS,-29.9216045,-51.1799525,2321,669.61710
D1,Canoas/RS,-29.9216045,-51.1799525,128,36.92847
1,Canoinhas/SC,-26.176591,-50.395001,285,523.88743
D1,Canoinhas/SC,-26.176591,-50.395001,7,12.86741
1,Cansanção/BA,-10.6671448,-39.498199,114,327.26646
D1,Cansanção/BA,-10.6671448,-39.498199,2,5.74152
1,Cantagalo/PR,-25.3735238,-52.1238114,51,382.96914
D1,Cantagalo/PR,-25.3735238,-52.1238114,1,7.50920
1,Cantagalo/RJ,-21.9811325,-42.3682522,50,247.86833
D1,Cantagalo/RJ,-21.9811325,-42.3682522,1,4.95737
1,Cantanhede/MA,-3.6355005,-44.3778738,381,1732.21187
D1,Cantanhede/MA,-3.6355005,-44.3778738,3,13.63946
1,Canto do Buriti/PI,-8.1112473,-42.944844,223,1052.53221
D1,Canto do Buriti/PI,-8.1112473,-42.944844,2,9.43975
1,Cantá/RR,2.60994,-60.605827,788,4297.79111
D1,Cantá/RR,2.60994,-60.605827,8,43.63240
1,Canudos do Vale/RS,-29.3240418,-52.2348494,4,233.10023
1,Canudos/BA,-9.8948692,-39.0266244,86,515.95872
D1,Canudos/BA,-9.8948692,-39.0266244,2,11.99904
1,Canutama/AM,-6.5330019,-64.3834966,310,1983.49223
1,Canápolis/MG,-18.7228793,-49.2016329,132,1086.41975
D1,Canápolis/MG,-18.7228793,-49.2016329,1,8.23045
1,Capanema/PA,-1.1933054,-47.1828679,1062,1538.52840
D1,Capanema/PA,-1.1933054,-47.1828679,61,88.37122
1,Capanema/PR,-25.6704878,-53.8083036,311,1626.22882
D1,Capanema/PR,-25.6704878,-53.8083036,1,5.22903
1,Caparaó/MG,-20.5232726,-41.9049984,14,257.44759
D1,Caparaó/MG,-20.5232726,-41.9049984,2,36.77823
1,Capela Nova/MG,-20.9236773,-43.6179487,2,42.98302
1,Capela de Santana/RS,-29.6926603,-51.3206659,29,242.88107
1,Capela do Alto Alegre/BA,-11.6703944,-39.8362745,129,1108.53313
D1,Capela do Alto Alegre/BA,-11.6703944,-39.8362745,1,8.59328
1,Capela do Alto/SP,-23.4704798,-47.7352309,188,907.94939
D1,Capela do Alto/SP,-23.4704798,-47.7352309,1,4.82952
1,Capela/AL,-9.415041,-36.082583,493,2890.98692
D1,Capela/AL,-9.415041,-36.082583,4,23.45628
1,Capela/SE,-10.50494,-37.0552566,639,1867.71110
D1,Capela/SE,-10.50494,-37.0552566,15,43.84298
1,Capelinha/MG,-17.693889,-42.518611,24,63.51895
1,Capetinga/MG,-20.6193382,-47.0577418,15,216.76301
1,Capim Branco/MG,-19.548333,-44.133056,28,287.06172
D1,Capim Branco/MG,-19.548333,-44.133056,2,20.50441
1,Capim Grosso/BA,-11.3793228,-40.0112095,577,1881.80810
D1,Capim Grosso/BA,-11.3793228,-40.0112095,4,13.04546
1,Capim/PB,-6.9174091,-35.1720326,148,2268.89468
D1,Capim/PB,-6.9174091,-35.1720326,5,76.65185
1,Capinzal do Norte/MA,-4.7304006,-44.3249063,325,2972.37973
D1,Capinzal do Norte/MA,-4.7304006,-44.3249063,1,9.14578
1,Capinzal/SC,-27.3440651,-51.6110403,818,3580.18207
D1,Capinzal/SC,-27.3440651,-51.6110403,4,17.50700
1,Capinópolis/MG,-18.682778,-49.569723,147,908.92228
1,Capistrano/CE,-4.4644692,-38.8956734,598,3371.29327
D1,Capistrano/CE,-4.4644692,-38.8956734,12,67.65137
1,Capitão Andrade/MG,-19.0675,-41.859722,15,274.32334
D1,Capitão Andrade/MG,-19.0675,-41.859722,1,18.28822
1,Capitão Enéas/MG,-16.3236018,-43.7154584,70,459.49849
D1,Capitão Enéas/MG,-16.3236018,-43.7154584,2,13.12853
1,Capitão Gervásio Oliveira/PI,-8.4954657,-41.8169342,15,365.85366
1,Capitão Leônidas Marques/PR,-25.481645,-53.611238,80,506.97085
1,Capitão Poço/PA,-1.7447162,-47.0638495,743,1368.24853
D1,Capitão Poço/PA,-1.7447162,-47.0638495,33,60.77012
1,Capitão de Campos/PI,-4.4584198,-41.9415301,130,1138.65289
D1,Capitão de Campos/PI,-4.4584198,-41.9415301,1,8.75887
1,Capitão/RS,-29.2718294,-51.9869716,19,689.15488
1,Capitólio/MG,-20.6142437,-46.0487652,20,231.69601
D1,Capitólio/MG,-20.6142437,-46.0487652,1,11.58480
1,Capivari de Baixo/SC,-28.449773,-48.963144,562,2259.65984
D1,Capivari de Baixo/SC,-28.449773,-48.963144,3,12.06224
1,Capivari do Sul/RS,-30.1437605,-50.5129169,18,386.26609
1,Capivari/SP,-22.995144,-47.50715,401,719.05035
D1,Capivari/SP,-22.995144,-47.50715,3,5.37943
1,Capixaba/AC,-10.5741345,-67.6759719,232,1977.32890
D1,Capixaba/AC,-10.5741345,-67.6759719,7,59.66079
1,Capoeiras/PE,-8.7386788,-36.6268109,255,1271.94733
D1,Capoeiras/PE,-8.7386788,-36.6268109,3,14.96409
1,Caputira/MG,-20.171945,-42.270278,21,225.85502
1,Capão Alto/SC,-27.9382827,-50.511491,6,237.62376
D1,Capão Alto/SC,-27.9382827,-50.511491,1,39.60396
1,Capão Bonito do Sul/RS,-28.1287941,-51.393771,5,302.29746
D1,Capão Bonito do Sul/RS,-28.1287941,-51.393771,1,60.45949
1,Capão Bonito/SP,-24.0048759,-48.3489848,404,857.05800
D1,Capão Bonito/SP,-24.0048759,-48.3489848,16,33.94289
1,Capão da Canoa/RS,-29.7542937,-50.0215684,307,578.71025
D1,Capão da Canoa/RS,-29.7542937,-50.0215684,9,16.96545
1,Capão do Cipó/RS,-28.9317296,-54.5555783,3,82.16927
1,Capão do Leão/RS,-31.766133,-52.5013148,45,177.48679
D1,Capão do Leão/RS,-31.766133,-52.5013148,1,3.94415
1,Caracaraí/RR,1.827598,-61.125389,680,3101.34087
D1,Caracaraí/RR,1.827598,-61.125389,7,31.92557
1,Caracol/MS,-22.0169949,-57.0298349,18,294.31001
1,Caracol/PI,-9.2804898,-43.3284924,125,1145.10810
D1,Caracol/PI,-9.2804898,-43.3284924,1,9.16086
1,Caraguatatuba/SP,-23.62028,-45.41306,1068,878.78090
D1,Caraguatatuba/SP,-23.62028,-45.41306,55,45.25557
1,Carambeí/PR,-24.9513298,-50.1171293,145,619.26116
D1,Carambeí/PR,-24.9513298,-50.1171293,4,17.08307
1,Caranaíba/MG,-20.8736914,-43.7379458,6,188.50141
D1,Caranaíba/MG,-20.8736914,-43.7379458,1,31.41690
1,Carandaí/MG,-20.9523934,-43.8043903,99,388.22007
D1,Carandaí/MG,-20.9523934,-43.8043903,3,11.76424
1,Carangola/MG,-20.733056,-42.029445,310,939.39394
D1,Carangola/MG,-20.733056,-42.029445,8,24.24242
1,Carapebus/RJ,-22.1869969,-41.6633764,235,1441.62935
D1,Carapebus/RJ,-22.1869969,-41.6633764,4,24.53837
1,Carapicuíba/SP,-23.5234673,-46.8406808,4550,1134.86994
D1,Carapicuíba/SP,-23.5234673,-46.8406808,250,62.35549
1,Caratinga/MG,-19.7900887,-42.140533,924,1003.67144
D1,Caratinga/MG,-19.7900887,-42.140533,23,24.98316
1,Carauari/AM,-4.8766426,-66.8961433,861,3043.04800
D1,Carauari/AM,-4.8766426,-66.8961433,8,28.27455
1,Caravelas/BA,-17.7296514,-39.2660082,178,808.50291
1,Carazinho/RS,-28.2981634,-52.7942363,311,500.72452
D1,Carazinho/RS,-28.2981634,-52.7942363,9,14.49042
1,Caraá/RS,-29.7900698,-50.4302307,65,785.97340
D1,Caraá/RS,-29.7900698,-50.4302307,1,12.09190
1,Caraí/MG,-17.1884104,-41.6976554,81,341.98860
D1,Caraí/MG,-17.1884104,-41.6976554,3,12.66624
1,Caraíbas/BA,-14.72496,-41.2566163,9,100.54742
1,Caraúbas do Piauí/PI,-3.4757229,-41.8431178,126,2147.23926
D1,Caraúbas do Piauí/PI,-3.4757229,-41.8431178,2,34.08316
1,Caraúbas/PB,-7.7273231,-36.4923357,37,888.99568
1,Caraúbas/RN,-5.7889323,-37.5548751,293,1429.75650
D1,Caraúbas/RN,-5.7889323,-37.5548751,4,19.51886
1,Carbonita/MG,-17.5308667,-43.0136207,6,63.79585
D1,Carbonita/MG,-17.5308667,-43.0136207,2,21.26528
1,Cardeal da Silva/BA,-11.9428154,-37.9494462,25,268.96181
D1,Cardeal da Silva/BA,-11.9428154,-37.9494462,1,10.75847
1,Cardoso Moreira/RJ,-21.4894916,-41.6152776,219,1707.86867
D1,Cardoso Moreira/RJ,-21.4894916,-41.6152776,1,7.79849
1,Cardoso/SP,-20.080447,-49.9139767,74,600.35697
D1,Cardoso/SP,-20.080447,-49.9139767,3,24.33880
1,Careaçu/MG,-22.0440585,-45.6949091,83,1228.35578
D1,Careaçu/MG,-22.0440585,-45.6949091,2,29.59893
1,Careiro da Várzea/AM,-3.197024,-59.8259104,136,449.95864
D1,Careiro da Várzea/AM,-3.197024,-59.8259104,4,13.23408
1,Careiro/AM,-3.8185277,-60.3616505,1165,3076.39494
D1,Careiro/AM,-3.8185277,-60.3616505,16,42.25092
1,Cariacica/ES,-20.263202,-40.416549,9528,2498.91813
D1,Cariacica/ES,-20.263202,-40.416549,356,93.36848
1,Caridade do Piauí/PI,-7.7331063,-40.9883665,12,236.82652
1,Caridade/CE,-4.2316487,-39.1946515,300,1330.55395
D1,Caridade/CE,-4.2316487,-39.1946515,14,62.09252
1,Carinhanha/BA,-14.298524,-43.772349,68,234.33731
D1,Carinhanha/BA,-14.298524,-43.772349,3,10.33841
1,Carira/SE,-10.358303,-37.701473,660,2988.85970
D1,Carira/SE,-10.358303,-37.701473,12,54.34290
1,Cariri do Tocantins/TO,-11.8882727,-49.1604216,96,2190.78047
D1,Cariri do Tocantins/TO,-11.8882727,-49.1604216,2,45.64126
1,Caririaçu/CE,-7.0417053,-39.2835527,518,1921.00872
D1,Caririaçu/CE,-7.0417053,-39.2835527,9,33.37660
1,Cariré/CE,-3.948584,-40.476028,597,3236.12316
D1,Cariré/CE,-3.948584,-40.476028,14,75.88899
1,Cariús/CE,-6.5348688,-39.4966658,292,1561.58083
