type,name,lat,lon,total,total_per_100k_inhabitants
1,Abadia de Goiás/GO,-16.7572644,-49.4412205,1197,13362.35767
D1,Abadia de Goiás/GO,-16.7572644,-49.4412205,19,212.10092
1,Abadia dos Dourados/MG,-18.4911191,-47.4063589,340,4852.98316
D1,Abadia dos Dourados/MG,-18.4911191,-47.4063589,12,171.28176
1,Abadiânia/GO,-16.1940946,-48.7067767,307,1500.41542
D1,Abadiânia/GO,-16.1940946,-48.7067767,25,122.18367
1,Abaetetuba/PA,-1.721828,-48.878843,6371,4004.90319
D1,Abaetetuba/PA,-1.721828,-48.878843,164,103.09278
1,Abaeté/MG,-19.1566833,-45.4481213,855,3677.41935
D1,Abaeté/MG,-19.1566833,-45.4481213,18,77.41935
1,Abaiara/CE,-7.3607808,-39.0487878,347,2927.52890
D1,Abaiara/CE,-7.3607808,-39.0487878,7,59.05678
1,Abaré/BA,-8.7239913,-39.1139689,629,3091.36482
D1,Abaré/BA,-8.7239913,-39.1139689,3,14.74419
1,Abatiá/PR,-23.3052967,-50.3102532,462,6236.50108
D1,Abatiá/PR,-23.3052967,-50.3102532,7,94.49244
1,Abaíra/BA,-13.2503296,-41.6640342,245,2812.85878
D1,Abaíra/BA,-13.2503296,-41.6640342,9,103.32951
1,Abdon Batista/SC,-27.612419,-51.022992,264,10361.06750
D1,Abdon Batista/SC,-27.612419,-51.022992,2,78.49294
1,Abel Figueiredo/PA,-4.953001,-48.3958485,776,10366.01656
D1,Abel Figueiredo/PA,-4.953001,-48.3958485,6,80.14961
1,Abelardo Luz/SC,-26.5705893,-52.3280339,1174,6536.74833
D1,Abelardo Luz/SC,-26.5705893,-52.3280339,38,211.58129
1,Abre Campo/MG,-20.2976097,-42.4764741,810,6024.99256
D1,Abre Campo/MG,-20.2976097,-42.4764741,10,74.38262
1,Abreu e Lima/PE,-7.900719,-34.898389,2091,2083.79009
D1,Abreu e Lima/PE,-7.900719,-34.898389,176,175.39314
1,Abreulândia/TO,-9.6221526,-49.1558343,229,8828.06476
D1,Abreulândia/TO,-9.6221526,-49.1558343,5,192.75251
1,Acaiaca/MG,-20.3621646,-43.1444162,193,4832.24837
D1,Acaiaca/MG,-20.3621646,-43.1444162,6,150.22534
1,Acajutiba/BA,-11.6609659,-38.0186381,460,3028.90630
D1,Acajutiba/BA,-11.6609659,-38.0186381,13,85.59953
1,Acarape/CE,-4.2237866,-38.7071663,2304,15323.22426
D1,Acarape/CE,-4.2237866,-38.7071663,18,119.71269
1,Acaraú/CE,-2.8869514,-40.1194713,4134,6551.09026
D1,Acaraú/CE,-2.8869514,-40.1194713,88,139.45233
1,Acari/RN,-6.4364689,-36.6394777,749,6735.00584
D1,Acari/RN,-6.4364689,-36.6394777,10,89.91997
1,Acará/PA,-1.961388,-48.1987043,1074,1929.26045
D1,Acará/PA,-1.961388,-48.1987043,24,43.11197
1,Acauã/PI,-8.219542,-41.083059,175,2464.09462
D1,Acauã/PI,-8.219542,-41.083059,1,14.08054
1,Aceguá/RS,-31.8695131,-54.1615593,257,5200.32376
D1,Aceguá/RS,-31.8695131,-54.1615593,2,40.46945
1,Acopiara/CE,-6.0936464,-39.4543204,2302,4225.32626
D1,Acopiara/CE,-6.0936464,-39.4543204,96,176.20822
1,Acorizal/MT,-15.2001544,-56.3668953,418,7836.52043
D1,Acorizal/MT,-15.2001544,-56.3668953,15,281.21485
1,Acrelândia/AC,-10.0759167,-67.0526898,1401,9044.54487
D1,Acrelândia/AC,-10.0759167,-67.0526898,25,161.39445
1,Acreúna/GO,-17.3959899,-50.3749031,1386,6147.43192
D1,Acreúna/GO,-17.3959899,-50.3749031,38,168.54431
1,Adamantina/SP,-21.6866517,-51.0762975,2220,6322.80482
D1,Adamantina/SP,-21.6866517,-51.0762975,59,168.03851
1,Adelândia/GO,-16.4155077,-50.1665834,108,4292.52782
D1,Adelândia/GO,-16.4155077,-50.1665834,2,79.49126
1,Adolfo/SP,-21.2356597,-49.6441918,351,9876.19584
D1,Adolfo/SP,-21.2356597,-49.6441918,9,253.23579
1,Adrianópolis/PR,-24.6557863,-48.9912769,1038,17722.38347
D1,Adrianópolis/PR,-24.6557863,-48.9912769,21,358.54533
1,Adustina/BA,-10.5358875,-38.114479,528,3083.03165
D1,Adustina/BA,-10.5358875,-38.114479,9,52.55168
1,Afogados da Ingazeira/PE,-7.750429,-37.6356375,3252,8694.25730
D1,Afogados da Ingazeira/PE,-7.750429,-37.6356375,47,125.65501
1,Afonso Bezerra/RN,-5.4745,-36.57625071327935,394,3572.40004
D1,Afonso Bezerra/RN,-5.4745,-36.57625071327935,11,99.73706
1,Afonso Cláudio/ES,-20.077841,-41.12606,2992,9824.33098
D1,Afonso Cláudio/ES,-20.077841,-41.12606,48,157.60959
1,Afonso Cunha/MA,-4.1326105,-43.3230026,155,2356.33931
D1,Afonso Cunha/MA,-4.1326105,-43.3230026,2,30.40438
1,Afrânio/PE,-8.5198919,-41.0070197,651,3286.21908
D1,Afrânio/PE,-8.5198919,-41.0070197,11,55.52751
1,Afuá/PA,-0.1535664,-50.3879223,2810,7101.87783
D1,Afuá/PA,-0.1535664,-50.3879223,14,35.38302
1,Agrestina/PE,-8.4558021,-35.9442663,1078,4300.81787
D1,Agrestina/PE,-8.4558021,-35.9442663,40,159.58508
1,Agricolândia/PI,-5.7967843,-42.6605131,232,4521.53576
D1,Agricolândia/PI,-5.7967843,-42.6605131,3,58.46813
1,Agrolândia/SC,-27.4122212,-49.8295774,869,7890.67466
D1,Agrolândia/SC,-27.4122212,-49.8295774,11,99.88196
1,Agronômica/SC,-27.2660744,-49.7104753,428,7769.10510
D1,Agronômica/SC,-27.2660744,-49.7104753,9,163.36903
1,Aguanil/MG,-20.9424533,-45.3927152,350,7739.93808
D1,Aguanil/MG,-20.9424533,-45.3927152,7,154.79876
1,Aguaí/SP,-22.0592036,-46.979384,1733,4728.77101
D1,Aguaí/SP,-22.0592036,-46.979384,42,114.60380
1,Agudo/RS,-29.6423259,-53.2494005,940,5731.35784
D1,Agudo/RS,-29.6423259,-53.2494005,12,73.16627
1,Agudos do Sul/PR,-25.9890808,-49.3328175,427,4508.97571
D1,Agudos do Sul/PR,-25.9890808,-49.3328175,8,84.47730
1,Agudos/SP,-22.471162,-48.987822,2300,6149.56819
D1,Agudos/SP,-22.471162,-48.987822,52,139.03372
1,Aguiar/PB,-7.0928404,-38.1727215,256,4547.06927
D1,Aguiar/PB,-7.0928404,-38.1727215,3,53.28597
1,Aguiarnópolis/TO,-6.5600452,-47.4721189,507,7356.35519
D1,Aguiarnópolis/TO,-6.5600452,-47.4721189,11,159.60534
1,Aimorés/MG,-19.4917754,-41.0615603,1596,6348.19617
D1,Aimorés/MG,-19.4917754,-41.0615603,40,159.10266
1,Aiquara/BA,-14.126918,-39.8887574,435,9850.54348
D1,Aiquara/BA,-14.126918,-39.8887574,9,203.80435
1,Aiuaba/CE,-6.5710836,-40.1212278,320,1829.30315
D1,Aiuaba/CE,-6.5710836,-40.1212278,9,51.44915
1,Aiuruoca/MG,-21.9759554,-44.6036637,79,1321.95448
D1,Aiuruoca/MG,-21.9759554,-44.6036637,6,100.40161
1,Ajuricaba/RS,-28.239654,-53.7693013,627,8973.80850
D1,Ajuricaba/RS,-28.239654,-53.7693013,22,314.87047
1,Alagoa Grande/PB,-7.0415212,-35.6285322,2386,8389.88713
D1,Alagoa Grande/PB,-7.0415212,-35.6285322,46,161.74971
1,Alagoa Nova/PB,-7.0653703,-35.76695977336711,687,3283.78185
D1,Alagoa Nova/PB,-7.0653703,-35.76695977336711,13,62.13852
1,Alagoa/MG,-22.1697202,-44.6400042,277,10393.99625
D1,Alagoa/MG,-22.1697202,-44.6400042,4,150.09381
1,Alagoinha do Piauí/PI,-7.0090952,-40.939675,249,3248.53229
D1,Alagoinha do Piauí/PI,-7.0090952,-40.939675,9,117.41683
1,Alagoinha/PB,-6.97063215,-35.51490901897793,1326,9107.14286
D1,Alagoinha/PB,-6.97063215,-35.51490901897793,21,144.23077
1,Alagoinha/PE,-8.50355635,-36.77701174370496,477,3240.92947
D1,Alagoinha/PE,-8.50355635,-36.77701174370496,13,88.32722
1,Alagoinhas/BA,-12.133526,-38.420772,10449,6859.58497
D1,Alagoinhas/BA,-12.133526,-38.420772,196,128.67056
1,Alambari/SP,-23.550338,-47.897971,403,6575.29776
D1,Alambari/SP,-23.550338,-47.897971,9,146.84288
1,Albertina/MG,-20.66164,-43.784039,170,5645.96480
D1,Albertina/MG,-20.66164,-43.784039,6,199.26935
1,Alcantil/PB,-7.7425491,-36.0609604,249,4519.87657
D1,Alcantil/PB,-7.7425491,-36.0609604,6,108.91269
1,Alcinópolis/MS,-18.3264121,-53.7094463,148,2732.13956
D1,Alcinópolis/MS,-18.3264121,-53.7094463,6,110.76241
1,Alcobaça/BA,-17.5215875,-39.1965474,1173,5215.65140
D1,Alcobaça/BA,-17.5215875,-39.1965474,17,75.58915
1,Alcântara/MA,-2.4038956,-44.4154241,214,967.80029
D1,Alcântara/MA,-2.4038956,-44.4154241,11,49.74674
1,Alcântaras/CE,-3.586247,-40.5457641,1060,8997.53841
D1,Alcântaras/CE,-3.586247,-40.5457641,11,93.37068
1,Aldeias Altas/MA,-4.6291957,-43.4708622,975,3643.90627
D1,Aldeias Altas/MA,-4.6291957,-43.4708622,13,48.58542
1,Alecrim/RS,-27.6566142,-54.7653195,229,3929.98112
D1,Alecrim/RS,-27.6566142,-54.7653195,9,154.45341
1,Alegre/ES,-20.7625787,-41.5318886,1667,5561.30108
D1,Alegre/ES,-20.7625787,-41.5318886,39,130.10842
1,Alegrete do Piauí/PI,-7.2440138,-40.8602296,437,8885.72590
D1,Alegrete do Piauí/PI,-7.2440138,-40.8602296,5,101.66734
1,Alegrete/RS,-29.790166,-55.794862,6019,8242.04415
D1,Alegrete/RS,-29.790166,-55.794862,186,254.69683
1,Alegria/RS,-27.8332103,-54.0574959,294,8713.69295
D1,Alegria/RS,-27.8332103,-54.0574959,1,29.63841
1,Alenquer/PA,-1.946229,-54.738355,2288,4007.56673
D1,Alenquer/PA,-1.946229,-54.738355,71,124.36068
1,Alexandria/RN,-6.414779,-38.0135516,1016,7496.49524
D1,Alexandria/RN,-6.414779,-38.0135516,12,88.54128
1,Alexânia/GO,-16.0834049,-48.5077803,2444,8725.45519
D1,Alexânia/GO,-16.0834049,-48.5077803,56,199.92860
1,Alfenas/MG,-21.4297405,-45.9479419,5490,6820.38413
D1,Alfenas/MG,-21.4297405,-45.9479419,126,156.53341
1,Alfredo Chaves/ES,-20.624970400000002,-40.75006690147988,1983,13548.78382
D1,Alfredo Chaves/ES,-20.624970400000002,-40.75006690147988,24,163.97923
1,Alfredo Marcondes/SP,-21.9527,-51.413956,197,4708.41300
D1,Alfredo Marcondes/SP,-21.9527,-51.413956,8,191.20459
1,Alfredo Vasconcelos/MG,-21.145833,-43.776389,235,3366.27990
D1,Alfredo Vasconcelos/MG,-21.145833,-43.776389,6,85.94757
1,Alfredo Wagner/SC,-27.6961513,-49.3326734,603,5978.58418
D1,Alfredo Wagner/SC,-27.6961513,-49.3326734,5,49.57367
1,Algodão de Jandaíra/PB,-6.9040175,-36.0089879,90,3492.43306
1,Alhandra/PB,-7.4304246,-34.9106103,1299,6584.88366
D1,Alhandra/PB,-7.4304246,-34.9106103,24,121.66067
1,Aliança do Tocantins/TO,-11.3055927,-48.9409096,501,9371.49270
D1,Aliança do Tocantins/TO,-11.3055927,-48.9409096,16,299.28919
1,Aliança/PE,-7.60398,-35.222696,488,1270.93262
D1,Aliança/PE,-7.60398,-35.222696,38,98.96607
1,Almadina/BA,-14.70466,-39.6381994,577,10752.88856
D1,Almadina/BA,-14.70466,-39.6381994,9,167.72270
1,Almas/TO,-11.5681309,-47.1702803,177,2536.17997
D1,Almas/TO,-11.5681309,-47.1702803,4,57.31480
1,Almeirim/PA,-1.5290377,-52.5788111,3242,9514.02747
D1,Almeirim/PA,-1.5290377,-52.5788111,30,88.03850
1,Almenara/MG,-16.1740678,-40.6904907,3137,7443.70358
D1,Almenara/MG,-16.1740678,-40.6904907,30,71.18620
1,Almino Afonso/RN,-6.1544208,-37.7649018,342,7261.14650
D1,Almino Afonso/RN,-6.1544208,-37.7649018,10,212.31423
1,Almirante Tamandaré do Sul/RS,-28.1141129,-52.9134874,162,8311.95485
D1,Almirante Tamandaré do Sul/RS,-28.1141129,-52.9134874,1,51.30836
1,Almirante Tamandaré/PR,-25.3133048,-49.2997838,7409,6172.05788
D1,Almirante Tamandaré/PR,-25.3133048,-49.2997838,264,219.92486
1,Aloândia/GO,-17.7277983,-49.4809338,190,9566.96878
D1,Aloândia/GO,-17.7277983,-49.4809338,6,302.11480
1,Alpercata/MG,-18.9803616,-41.9827637,407,5473.37278
D1,Alpercata/MG,-18.9803616,-41.9827637,13,174.82517
1,Alpestre/RS,-27.2512339,-53.0349646,261,4301.96143
D1,Alpestre/RS,-27.2512339,-53.0349646,7,115.37828
1,Alpinópolis/MG,-20.863611,-46.387777,719,3602.56539
D1,Alpinópolis/MG,-20.863611,-46.387777,15,75.15783
1,Alta Floresta D'Oeste/RO,-11.9296917,-61.9961284,3173,13960.75326
D1,Alta Floresta D'Oeste/RO,-11.9296917,-61.9961284,48,211.19324
1,Alta Floresta/MT,-9.8715018,-56.0839881,6472,12455.97490
D1,Alta Floresta/MT,-9.8715018,-56.0839881,88,169.36431
1,Altair/SP,-20.5238955,-49.0606135,126,3010.03344
D1,Altair/SP,-20.5238955,-49.0606135,7,167.22408
1,Altamira do Maranhão/MA,-4.1643006,-45.4674574,279,3407.00940
D1,Altamira do Maranhão/MA,-4.1643006,-45.4674574,8,97.69203
1,Altamira do Paraná/PR,-24.799114,-52.7128633,100,5945.30321
D1,Altamira do Paraná/PR,-24.799114,-52.7128633,3,178.35910
1,Altamira/PA,-3.204065,-52.209961,11566,9973.35495
D1,Altamira/PA,-3.204065,-52.209961,236,203.50266
1,Altaneira/CE,-6.9980933,-39.7385742,314,4104.57516
D1,Altaneira/CE,-6.9980933,-39.7385742,10,130.71895
1,Alterosa/MG,-21.249166,-46.143055,511,3520.01102
D1,Alterosa/MG,-21.249166,-46.143055,26,179.10037
1,Altinho/PE,-8.4904095,-36.0607494,864,3759.13679
D1,Altinho/PE,-8.4904095,-36.0607494,17,73.96450
1,Altinópolis/SP,-21.021364,-47.3712,656,4048.63297
D1,Altinópolis/SP,-21.021364,-47.3712,21,129.60563
1,Alto Alegre do Maranhão/MA,-4.2055693,-44.4525287,757,2717.35229
D1,Alto Alegre do Maranhão/MA,-4.2055693,-44.4525287,22,78.97193
1,Alto Alegre do Pindaré/MA,-3.6698186,-45.8462153,1725,5400.24418
D1,Alto Alegre do Pindaré/MA,-3.6698186,-45.8462153,35,109.57017
1,Alto Alegre dos Parecis/RO,-12.1314515,-61.856265,1018,7680.12071
D1,Alto Alegre dos Parecis/RO,-12.1314515,-61.856265,21,158.43078
1,Alto Alegre/RR,2.98858,-61.307167,1175,7639.79194
D1,Alto Alegre/RR,2.98858,-61.307167,26,169.05072
1,Alto Alegre/RS,-31.780844700000003,-52.81311114489171,131,8121.51271
1,Alto Alegre/SP,-21.5820592,-50.1661976,198,4843.44423
D1,Alto Alegre/SP,-21.5820592,-50.1661976,8,195.69472
1,Alto Araguaia/MT,-17.3156528,-53.2169365,959,4947.12406
D1,Alto Araguaia/MT,-17.3156528,-53.2169365,19,98.01393
1,Alto Bela Vista/SC,-27.4320737,-51.905771,118,6126.68744
D1,Alto Bela Vista/SC,-27.4320737,-51.905771,2,103.84216
1,Alto Boa Vista/MT,-11.6723985,-51.3744431,490,7064.59054
D1,Alto Boa Vista/MT,-11.6723985,-51.3744431,9,129.75779
1,Alto Caparaó/MG,-20.4405661,-41.8683799,322,5463.18290
D1,Alto Caparaó/MG,-20.4405661,-41.8683799,7,118.76485
1,Alto Feliz/RS,-29.3785943,-51.3123751,168,5533.59684
D1,Alto Feliz/RS,-29.3785943,-51.3123751,1,32.93808
1,Alto Garças/MT,-16.9469683,-53.529427,517,4254.79384
D1,Alto Garças/MT,-16.9469683,-53.529427,21,172.82528
1,Alto Horizonte/GO,-14.1954948,-49.3366993,599,9068.88721
D1,Alto Horizonte/GO,-14.1954948,-49.3366993,6,90.84027
1,Alto Jequitibá/MG,-20.423611,-41.966111,512,6167.93157
D1,Alto Jequitibá/MG,-20.423611,-41.966111,9,108.42067
1,Alto Longá/PI,-5.2549051,-42.2072388,495,3452.12358
D1,Alto Longá/PI,-5.2549051,-42.2072388,13,90.66183
1,Alto Paraguai/MT,-14.513712,-56.4936374,621,5412.70810
D1,Alto Paraguai/MT,-14.513712,-56.4936374,19,165.60621
1,Alto Paraná/PR,-23.131247,-52.318893,642,4320.61377
D1,Alto Paraná/PR,-23.131247,-52.318893,14,94.21899
1,Alto Paraíso de Goiás/GO,-14.1304779,-47.5100161,497,6464.62019
D1,Alto Paraíso de Goiás/GO,-14.1304779,-47.5100161,5,65.03642
1,Alto Paraíso/PR,-23.508137,-53.728537,152,5661.08007
D1,Alto Paraíso/PR,-23.508137,-53.728537,2,74.48790
1,Alto Paraíso/RO,-9.7240103,-63.3188123,1515,6934.59056
D1,Alto Paraíso/RO,-9.7240103,-63.3188123,34,155.62777
1,Alto Parnaíba/MA,-9.112506,-45.9310154,661,5895.46914
D1,Alto Parnaíba/MA,-9.112506,-45.9310154,5,44.59508
1,Alto Piquiri/PR,-24.0239021,-53.4417448,458,4683.98445
D1,Alto Piquiri/PR,-24.0239021,-53.4417448,11,112.49744
1,Alto Rio Doce/MG,-21.0239537,-43.4133507,271,2495.62575
D1,Alto Rio Doce/MG,-21.0239537,-43.4133507,22,202.59692
1,Alto Rio Novo/ES,-19.0577208,-41.0171518,633,8039.11608
D1,Alto Rio Novo/ES,-19.0577208,-41.0171518,21,266.70053
1,Alto Santo/CE,-5.5190371,-38.2719351,756,4396.37125
D1,Alto Santo/CE,-5.5190371,-38.2719351,17,98.86020
1,Alto Taquari/MT,-17.8269099,-53.2831736,1258,11299.73951
D1,Alto Taquari/MT,-17.8269099,-53.2831736,22,197.61071
1,Alto do Rodrigues/RN,-5.290868,-36.7616726,1262,8568.71266
D1,Alto do Rodrigues/RN,-5.290868,-36.7616726,25,169.74470
1,Altos/PI,-5.0393915,-42.4611694,3510,8644.25563
D1,Altos/PI,-5.0393915,-42.4611694,66,162.54156
1,Altônia/PR,-23.8722004,-53.894037,826,3724.74747
D1,Altônia/PR,-23.8722004,-53.894037,14,63.13131
1,Alumínio/SP,-23.5203479,-47.2575256,1048,5584.27026
D1,Alumínio/SP,-23.5203479,-47.2575256,33,175.84057
1,Alvarenga/MG,-19.4175,-41.728334,349,9079.08429
D1,Alvarenga/MG,-19.4175,-41.728334,4,104.05827
1,Alvarães/AM,-3.214786,-64.8143124,2669,16454.99383
D1,Alvarães/AM,-3.214786,-64.8143124,38,234.27867
1,Alvinlândia/SP,-22.4431852,-49.7643596,109,3367.31542
D1,Alvinlândia/SP,-22.4431852,-49.7643596,3,92.67841
1,Alvinópolis/MG,-20.1105199,-43.0601805,470,3098.42442
D1,Alvinópolis/MG,-20.1105199,-43.0601805,13,85.70110
1,Alvorada D'Oeste/RO,-11.346271,-62.284697,798,5657.16716
D1,Alvorada D'Oeste/RO,-11.346271,-62.284697,20,141.78364
1,Alvorada de Minas/MG,-18.7318587,-43.3641479,228,6324.54924
D1,Alvorada de Minas/MG,-18.7318587,-43.3641479,1,27.73925
1,Alvorada do Gurguéia/PI,-8.4465288,-43.8655915,235,4315.88613
D1,Alvorada do Gurguéia/PI,-8.4465288,-43.8655915,6,110.19284
1,Alvorada do Norte/GO,-14.483911,-46.4959897,566,6502.01034
D1,Alvorada do Norte/GO,-14.483911,-46.4959897,2,22.97530
1,Alvorada do Sul/PR,-22.7807269,-51.2307721,624,5424.67182
D1,Alvorada do Sul/PR,-22.7807269,-51.2307721,16,139.09415
1,Alvorada/RS,-29.9981184,-51.0772509,15697,7426.94652
D1,Alvorada/RS,-29.9981184,-51.0772509,594,281.04773
1,Alvorada/TO,-12.478465,-49.124926,975,11612.67270
D1,Alvorada/TO,-12.478465,-49.124926,17,202.47737
1,Além Paraíba/MG,-21.8760576,-42.6810473,2500,7061.94740
D1,Além Paraíba/MG,-21.8760576,-42.6810473,112,316.37524
1,Amajari/RR,3.6523869,-61.4194315,823,6241.94160
D1,Amajari/RR,3.6523869,-61.4194315,18,136.51877
1,Amambai/MS,-23.1082701,-55.2284854,2024,5082.10717
D1,Amambai/MS,-23.1082701,-55.2284854,37,92.90413
1,Amaporã/PR,-23.094272,-52.786597,205,3237.52369
1,Amapá do Maranhão/MA,-1.6762114,-46.0109669,86,1227.69450
D1,Amapá do Maranhão/MA,-1.6762114,-46.0109669,1,14.27552
1,Amapá/AP,2.0529997,-50.7930003,1208,13149.01491
D1,Amapá/AP,2.0529997,-50.7930003,10,108.84946
1,Amaraji/PE,-8.373925,-35.4536527,418,1827.72191
D1,Amaraji/PE,-8.373925,-35.4536527,28,122.43113
1,Amaral Ferrador/RS,-30.8750633,-52.2542051,190,2681.72195
D1,Amaral Ferrador/RS,-30.8750633,-52.2542051,4,56.45730
1,Amaralina/GO,-13.9236199,-49.2962411,51,1326.39792
1,Amarante do Maranhão/MA,-5.56913,-46.747284,1363,3266.31359
D1,Amarante do Maranhão/MA,-5.56913,-46.747284,49,117.42433
1,Amarante/PI,-6.2459374,-42.8476238,1196,6793.91047
D1,Amarante/PI,-6.2459374,-42.8476238,27,153.37423
1,Amargosa/BA,-13.03793715,-39.60796443875596,2169,5793.11450
D1,Amargosa/BA,-13.03793715,-39.60796443875596,43,114.84736
1,Amaturá/AM,-3.3640509,-68.1994689,2200,18745.73960
D1,Amaturá/AM,-3.3640509,-68.1994689,17,144.85344
1,Americana/SP,-22.7392463,-47.3306032,14488,5986.33160
D1,Americana/SP,-22.7392463,-47.3306032,423,174.78039
1,Americano do Brasil/GO,-16.2515808,-49.9806104,372,6035.04218
D1,Americano do Brasil/GO,-16.2515808,-49.9806104,14,227.12524
1,Ametista do Sul/RS,-27.3617341,-53.1826575,497,6713.49453
D1,Ametista do Sul/RS,-27.3617341,-53.1826575,11,148.58841
1,Amontada/CE,-3.3634586,-39.8284791,1726,3938.03190
D1,Amontada/CE,-3.3634586,-39.8284791,32,73.01102
1,Amorinópolis/GO,-16.6211308,-51.0949921,144,4692.08211
D1,Amorinópolis/GO,-16.6211308,-51.0949921,1,32.58390
1,Amparo de São Francisco/SE,-10.1299754,-36.9269099,124,5210.08403
D1,Amparo de São Francisco/SE,-10.1299754,-36.9269099,3,126.05042
1,Amparo do Serra/MG,-20.5070255,-42.8028462,99,2116.28901
D1,Amparo do Serra/MG,-20.5070255,-42.8028462,3,64.12997
1,Amparo/PB,-7.56394725,-37.04652873235175,151,6708.12972
D1,Amparo/PB,-7.56394725,-37.04652873235175,4,177.69880
1,Amparo/SP,-22.70111,-46.76444,3708,5102.02678
D1,Amparo/SP,-22.70111,-46.76444,106,145.85082
1,Ampére/PR,-25.9168712,-53.4742414,898,4650.19937
D1,Ampére/PR,-25.9168712,-53.4742414,26,134.63829
1,Amélia Rodrigues/BA,-12.4015388,-38.7516971,1715,6846.85404
D1,Amélia Rodrigues/BA,-12.4015388,-38.7516971,35,139.73172
1,América Dourada/BA,-11.4515262,-41.4357517,562,3492.85270
D1,América Dourada/BA,-11.4515262,-41.4357517,2,12.43008
1,Américo Brasiliense/SP,-21.7297099,-48.1052092,2932,7145.64243
D1,Américo Brasiliense/SP,-21.7297099,-48.1052092,64,155.97582
1,Américo de Campos/SP,-20.298476,-49.735904,582,9730.81425
D1,Américo de Campos/SP,-20.298476,-49.735904,18,300.95302
1,Anadia/AL,-9.6830208,-36.3052699,1018,5808.51307
D1,Anadia/AL,-9.6830208,-36.3052699,20,114.11617
1,Anagé/BA,-14.6134669,-41.1376308,651,3012.91248
D1,Anagé/BA,-14.6134669,-41.1376308,15,69.42195
1,Anahy/PR,-24.6450861,-53.1337957,239,8572.45337
D1,Anahy/PR,-24.6450861,-53.1337957,4,143.47202
1,Anajatuba/MA,-3.26441,-44.6179916,697,2582.62932
D1,Anajatuba/MA,-3.26441,-44.6179916,17,62.99096
1,Anajás/PA,-0.9878802,-49.9390114,1264,4257.61250
D1,Anajás/PA,-0.9878802,-49.9390114,14,47.15710
1,Analândia/SP,-22.128917,-47.661939,239,4727.05696
D1,Analândia/SP,-22.128917,-47.661939,3,59.33544
1,Anamã/AM,-3.5797356,-61.4049996,1660,11894.52565
D1,Anamã/AM,-3.5797356,-61.4049996,8,57.32302
1,Ananindeua/PA,-1.374035,-48.4016623,17760,3316.23555
D1,Ananindeua/PA,-1.374035,-48.4016623,606,113.15533
1,Ananás/TO,-6.3663053,-48.080238,1346,14180.36241
D1,Ananás/TO,-6.3663053,-48.080238,20,210.70375
1,Anapu/PA,-3.4668292,-51.2057035,1268,4432.48156
D1,Anapu/PA,-3.4668292,-51.2057035,29,101.37379
1,Anapurus/MA,-3.6751298,-43.1046001,828,5209.51302
D1,Anapurus/MA,-3.6751298,-43.1046001,11,69.20851
1,Anastácio/MS,-20.4832458,-55.8048448,1615,6399.33431
D1,Anastácio/MS,-20.4832458,-55.8048448,50,198.12181
1,Anaurilândia/MS,-22.185169,-52.719056,265,2919.78845
D1,Anaurilândia/MS,-22.185169,-52.719056,8,88.14456
1,Anchieta/ES,-20.8057672,-40.6454564,3902,13103.19353
D1,Anchieta/ES,-20.8057672,-40.6454564,56,188.05198
1,Anchieta/SC,-26.5350527,-53.3293938,388,6982.18463
D1,Anchieta/SC,-26.5350527,-53.3293938,6,107.97193
1,Andaraí/BA,-12.8059674,-41.3322919,606,4614.68169
D1,Andaraí/BA,-12.8059674,-41.3322919,5,38.07493
1,Andirá/PR,-23.0494761,-50.2310027,1375,6900.53197
D1,Andirá/PR,-23.0494761,-50.2310027,49,245.90987
1,Andorinha/BA,-10.3445708,-39.8334411,654,4509.41185
D1,Andorinha/BA,-10.3445708,-39.8334411,9,62.05613
1,Andradas/MG,-22.0680484,-46.5688976,2346,5667.21422
D1,Andradas/MG,-22.0680484,-46.5688976,59,142.52585
1,Andradina/SP,-20.896505,-51.3742765,4251,7431.55834
D1,Andradina/SP,-20.896505,-51.3742765,163,284.95507
1,Andrelândia/MG,-21.739722,-44.308889,206,1687.69458
D1,Andrelândia/MG,-21.739722,-44.308889,7,57.34884
1,André da Rocha/RS,-28.6309124,-51.5733328,91,6775.87491
1,Angatuba/SP,-23.4938938,-48.4110675,2025,7947.72165
D1,Angatuba/SP,-23.4938938,-48.4110675,50,196.24004
1,Angelim/PE,-8.8902038,-36.2872987,123,1095.67076
D1,Angelim/PE,-8.8902038,-36.2872987,4,35.63157
1,Angelina/SC,-27.5805287,-48.9838759,429,9044.90829
D1,Angelina/SC,-27.5805287,-48.9838759,1,21.08370
1,Angelândia/MG,-17.7253,-42.2728,80,934.90709
1,Angical do Piauí/PI,-6.0872666,-42.7366138,368,5425.32803
D1,Angical do Piauí/PI,-6.0872666,-42.7366138,8,117.94191
1,Angical/BA,-12.005623,-44.7000236,390,2798.10590
D1,Angical/BA,-12.005623,-44.7000236,10,71.74631
1,Angico/TO,-6.3893733,-47.8656722,200,5790.38796
D1,Angico/TO,-6.3893733,-47.8656722,3,86.85582
1,Angicos/RN,-5.6666344,-36.6009064,490,4186.24519
D1,Angicos/RN,-5.6666344,-36.6009064,14,119.60701
1,Angra dos Reis/RJ,-23.0063966,-44.316326,11861,5728.73399
D1,Angra dos Reis/RJ,-23.0063966,-44.316326,374,180.63793
1,Anguera/BA,-12.1509425,-39.2452469,303,2682.12800
D1,Anguera/BA,-12.1509425,-39.2452469,1,8.85191
1,Angélica/MS,-22.1588196,-53.7728504,583,5332.96744
D1,Angélica/MS,-22.1588196,-53.7728504,11,100.62203
1,Anhanguera/GO,-18.3338749,-48.220363,85,7327.58621
D1,Anhanguera/GO,-18.3338749,-48.220363,6,517.24138
1,Anhembi/SP,-22.7891096,-48.1316776,119,1745.12392
D1,Anhembi/SP,-22.7891096,-48.1316776,2,29.32981
1,Anhumas/SP,-22.2956478,-51.3873401,177,4271.23552
D1,Anhumas/SP,-22.2956478,-51.3873401,4,96.52510
1,Anicuns/GO,-16.4606451,-49.9572265,2163,9840.31664
D1,Anicuns/GO,-16.4606451,-49.9572265,52,236.56795
1,Anita Garibaldi/SC,-27.6855032,-51.1293873,806,11585.45350
D1,Anita Garibaldi/SC,-27.6855032,-51.1293873,6,86.24407
1,Anitápolis/SC,-27.9041185,-49.1287395,296,9169.76456
D1,Anitápolis/SC,-27.9041185,-49.1287395,1,30.97893
1,Anori/AM,-3.7435254,-61.6605203,1821,8478.83783
D1,Anori/AM,-3.7435254,-61.6605203,31,144.34046
1,Anta Gorda/RS,-28.9718745,-52.0069187,520,8723.36856
D1,Anta Gorda/RS,-28.9718745,-52.0069187,4,67.10284
1,Antas/BA,-10.4114649,-38.3308815,1005,5159.40243
D1,Antas/BA,-10.4114649,-38.3308815,5,25.66867
1,Antonina do Norte/CE,-6.7754187,-39.9879345,222,3008.94551
D1,Antonina do Norte/CE,-6.7754187,-39.9879345,12,162.64570
1,Antonina/PR,-25.4298854,-48.7125431,1929,10179.95673
D1,Antonina/PR,-25.4298854,-48.7125431,49,258.58884
1,Antônio Almeida/PI,-7.2186016,-44.1950248,399,12586.75079
D1,Antônio Almeida/PI,-7.2186016,-44.1950248,10,315.45741
1,Antônio Cardoso/BA,-12.4363122,-39.1200307,305,2611.97225
D1,Antônio Cardoso/BA,-12.4363122,-39.1200307,8,68.51075
1,Antônio Carlos/MG,-21.318334,-43.746666,398,3473.25247
D1,Antônio Carlos/MG,-21.318334,-43.746666,7,61.08735
1,Antônio Carlos/SC,-27.5168462,-48.7684715,1430,16602.80971
D1,Antônio Carlos/SC,-27.5168462,-48.7684715,20,232.20713
1,Antônio Dias/MG,-19.6525,-42.872778,441,4754.71698
D1,Antônio Dias/MG,-19.6525,-42.872778,16,172.50674
1,Antônio Gonçalves/BA,-10.5715409,-40.2748824,577,4857.72015
D1,Antônio Gonçalves/BA,-10.5715409,-40.2748824,5,42.09463
1,Antônio João/MS,-22.1892837,-55.9508227,254,2815.96452
D1,Antônio João/MS,-22.1892837,-55.9508227,5,55.43237
1,Antônio Martins/RN,-6.2155812,-37.8890129,274,3830.02516
D1,Antônio Martins/RN,-6.2155812,-37.8890129,3,41.93458
1,Antônio Olinto/PR,-25.9849006,-50.1974516,270,3635.38441
D1,Antônio Olinto/PR,-25.9849006,-50.1974516,6,80.78632
1,Antônio Prado de Minas/MG,-21.0171988,-42.1101106,149,9388.78387
D1,Antônio Prado de Minas/MG,-21.0171988,-42.1101106,5,315.05986
1,Antônio Prado/RS,-28.8567806,-51.2801355,1605,12303.56458
D1,Antônio Prado/RS,-28.8567806,-51.2801355,16,122.65236
1,Anápolis/GO,-16.3332828,-48.9525756,28677,7319.81867
D1,Anápolis/GO,-16.3332828,-48.9525756,787,200.88215
1,Anísio de Abreu/PI,-9.185643,-43.04941,266,2676.59489
D1,Anísio de Abreu/PI,-9.185643,-43.04941,4,40.24955
1,Aparecida d'Oeste/SP,-20.4498109,-50.8808706,551,13251.56325
D1,Aparecida d'Oeste/SP,-20.4498109,-50.8808706,11,264.55026
1,Aparecida de Goiânia/GO,-16.8226769,-49.2452546,56929,9646.59593
D1,Aparecida de Goiânia/GO,-16.8226769,-49.2452546,1056,178.93877
1,Aparecida do Rio Doce/GO,-18.2980167,-51.1491312,182,7356.50768
D1,Aparecida do Rio Doce/GO,-18.2980167,-51.1491312,4,161.68149
1,Aparecida do Rio Negro/TO,-9.9513491,-47.9773786,276,5693.06931
D1,Aparecida do Rio Negro/TO,-9.9513491,-47.9773786,5,103.13531
1,Aparecida do Taboado/MS,-20.0840304,-51.1013943,2106,8078.56074
D1,Aparecida do Taboado/MS,-20.0840304,-51.1013943,33,126.58713
1,Aparecida/PB,-6.7859598, -38.0831353,646,7675.85551
D1,Aparecida/PB,-6.7859598, -38.0831353,10,118.82129
1,Aparecida/SP,-22.851552,-45.2340924,1974,5455.29916
D1,Aparecida/SP,-22.851552,-45.2340924,61,168.57814
1,Aperibé/RJ,-21.6211928,-42.1028167,387,3251.82758
D1,Aperibé/RJ,-21.6211928,-42.1028167,17,142.84514
1,Apiacá/ES,-21.152272,-41.569297,594,7863.38364
D1,Apiacá/ES,-21.152272,-41.569297,22,291.23643
1,Apiacás/MT,-9.5678422,-57.394852,915,8898.18146
D1,Apiacás/MT,-9.5678422,-57.394852,9,87.52310
1,Apiaí/SP,-24.5076527,-48.8461582,901,3719.14472
D1,Apiaí/SP,-24.5076527,-48.8461582,39,160.98407
1,Apicum-Açu/MA,-1.5279295,-45.082278,349,2004.24970
D1,Apicum-Açu/MA,-1.5279295,-45.082278,3,17.22851
1,Apiúna/SC,-27.0374658,-49.3885037,687,6332.96460
D1,Apiúna/SC,-27.0374658,-49.3885037,14,129.05605
1,Apodi/RN,-5.6631109,-37.796927,4452,12410.10202
D1,Apodi/RN,-5.6631109,-37.796927,58,161.67698
1,Aporá/BA,-11.6599747,-38.0794757,438,2462.33416
D1,Aporá/BA,-11.6599747,-38.0794757,14,78.70474
1,Aporé/GO,-18.9642193,-51.92804,288,6805.29301
D1,Aporé/GO,-18.9642193,-51.92804,6,141.77694
1,Apuarema/BA,-13.8517897,-39.7457126,612,8381.26541
D1,Apuarema/BA,-13.8517897,-39.7457126,9,123.25390
1,Apucarana/PR,-23.5525327,-51.4610764,5601,4111.30848
D1,Apucarana/PR,-23.5525327,-51.4610764,184,135.06173
1,Apuiarés/CE,-3.9460303,-39.4313298,725,4941.38495
D1,Apuiarés/CE,-3.9460303,-39.4313298,13,88.60414
1,Apuí/AM,-7.1940195,-59.8830192,1143,5112.03542
D1,Apuí/AM,-7.1940195,-59.8830192,24,107.33933
1,Aquidabã/SE,-10.2837579,-37.0188687,1575,7264.42507
D1,Aquidabã/SE,-10.2837579,-37.0188687,27,124.53300
1,Aquidauana/MS,-20.473969,-55.7821375,3837,7988.92336
D1,Aquidauana/MS,-20.473969,-55.7821375,106,220.69999
1,Aquiraz/CE,-3.9063117,-38.387504,4187,5173.28721
D1,Aquiraz/CE,-3.9063117,-38.387504,67,82.78248
1,Arabutã/SC,-27.1587028,-52.1438142,362,8483.71221
D1,Arabutã/SC,-27.1587028,-52.1438142,5,117.17835
1,Aracaju/SE,-10.9162061,-37.0774655,93181,14014.11925
D1,Aracaju/SE,-10.9162061,-37.0774655,1521,228.75345
1,Aracati/CE,-4.558259,-37.767894,4405,5875.29176
D1,Aracati/CE,-4.558259,-37.767894,90,120.04001
1,Aracatu/BA,-14.4274236,-41.4604105,669,5128.40169
D1,Aracatu/BA,-14.4274236,-41.4604105,12,91.98927
1,Araci/BA,-11.3356065,-38.9573261,3135,5736.71498
D1,Araci/BA,-11.3356065,-38.9573261,40,73.19573
1,Aracitaba/MG,-21.3425,-43.378611,73,3545.41039
D1,Aracitaba/MG,-21.3425,-43.378611,7,339.97086
1,Aracoiaba/CE,-4.3702577,-38.8084313,1927,7262.10665
D1,Aracoiaba/CE,-4.3702577,-38.8084313,23,86.67797
1,Aracruz/ES,-19.8245218,-40.2735025,12379,12006.67307
D1,Aracruz/ES,-19.8245218,-40.2735025,169,163.91694
1,Aragarças/GO,-15.8957166,-52.2514538,1731,8538.45016
D1,Aragarças/GO,-15.8957166,-52.2514538,39,192.37409
1,Aragoiânia/GO,-16.9146388,-49.4499148,821,7822.02744
D1,Aragoiânia/GO,-16.9146388,-49.4499148,10,95.27439
1,Aragominas/TO,-7.1654101,-48.525488,443,7729.89007
D1,Aragominas/TO,-7.1654101,-48.525488,8,139.59169
1,Araguacema/TO,-8.8067391,-49.5560969,372,5199.16143
D1,Araguacema/TO,-8.8067391,-49.5560969,11,153.73864
1,Araguaiana/MT,-15.729144,-51.834112,135,4342.23223
D1,Araguaiana/MT,-15.729144,-51.834112,2,64.32937
1,Araguainha/MT,-16.857016,-53.031778,21,2219.87315
1,Araguanã/MA,-2.9508403,-45.6651986,696,4475.59642
D1,Araguanã/MA,-2.9508403,-45.6651986,5,32.15227
1,Araguanã/TO,-6.5799107,-48.6428482,309,5334.02382
D1,Araguanã/TO,-6.5799107,-48.6428482,12,207.14656
1,Araguapaz/GO,-15.0937927,-50.626417,408,5242.19453
D1,Araguapaz/GO,-15.0937927,-50.626417,18,231.27329
1,Araguari/MG,-18.6511256,-48.1933764,10901,9251.85657
D1,Araguari/MG,-18.6511256,-48.1933764,308,261.40463
1,Araguatins/TO,-5.6522925,-48.1158973,1633,4514.79126
D1,Araguatins/TO,-5.6522925,-48.1158973,45,124.41250
1,Araguaçu/TO,-12.928934,-49.823134,726,8574.46557
D1,Araguaçu/TO,-12.928934,-49.823134,16,188.96894
1,Araguaína/TO,-7.193241,-48.2018597,25465,13886.38954
D1,Araguaína/TO,-7.193241,-48.2018597,334,182.13446
1,Araioses/MA,-2.890914,-41.904993,611,1306.36506
D1,Araioses/MA,-2.890914,-41.904993,12,25.65692
1,Aral Moreira/MS,-22.951141,-55.6268421,333,2700.29192
D1,Aral Moreira/MS,-22.951141,-55.6268421,8,64.87188
1,Aramari/BA,-12.0907897,-38.4985065,503,4388.79679
D1,Aramari/BA,-12.0907897,-38.4985065,11,95.97766
1,Arambaré/RS,-30.9132252,-51.4994625,140,3930.37619
D1,Arambaré/RS,-30.9132252,-51.4994625,4,112.29646
1,Arame/MA,-4.8858769,-46.0102484,999,3049.07826
D1,Arame/MA,-4.8858769,-46.0102484,30,91.56391
1,Aramina/SP,-20.0876144,-47.789201,227,4014.14677
D1,Aramina/SP,-20.0876144,-47.789201,8,141.46773
1,Arandu/SP,-23.1345103,-49.0545651,234,3676.35507
D1,Arandu/SP,-23.1345103,-49.0545651,7,109.97643
1,Arantina/MG,-21.911667,-44.255833,78,2798.70829
D1,Arantina/MG,-21.911667,-44.255833,3,107.64263
1,Arapeí/SP,-22.6738889,-44.4477778,176,7154.47154
D1,Arapeí/SP,-22.6738889,-44.4477778,2,81.30081
1,Arapiraca/AL,-9.754866,-36.661471,20241,8685.37248
D1,Arapiraca/AL,-9.754866,-36.661471,316,135.59497
1,Arapoema/TO,-7.6575001,-49.0641484,400,6045.94921
D1,Arapoema/TO,-7.6575001,-49.0641484,5,75.57437
1,Araponga/MG,-20.666667,-42.520556,319,3773.80812
D1,Araponga/MG,-20.666667,-42.520556,5,59.15060
1,Arapongas/PR,-23.415296,-51.42592,8945,7166.89368
D1,Arapongas/PR,-23.415296,-51.42592,342,274.01651
1,Araporã/MG,-18.4318188,-49.188313,1509,21771.75011
D1,Araporã/MG,-18.4318188,-49.188313,18,259.70278
1,Arapoti/PR,-24.1457957,-49.8224605,2066,7300.35336
D1,Arapoti/PR,-24.1457957,-49.8224605,31,109.54064
1,Araputanga/MT,-15.4710868,-58.346796,1411,8323.99268
D1,Araputanga/MT,-15.4710868,-58.346796,32,188.77942
1,Arapuá/MG,-19.034444,-46.155556,128,4514.99118
D1,Arapuá/MG,-19.034444,-46.155556,1,35.27337
1,Arapuã/PR,-24.3079525,-51.7901941,166,5516.78298
D1,Arapuã/PR,-24.3079525,-51.7901941,5,166.16816
1,Araquari/SC,-26.3703324,-48.7210994,2761,6985.62898
D1,Araquari/SC,-26.3703324,-48.7210994,52,131.56563
1,Arara/PB,-6.8271895,-35.7605703,523,3862.05878
D1,Arara/PB,-6.8271895,-35.7605703,16,118.15094
1,Araranguá/SC,-28.9348832,-49.4858389,8150,11834.40545
D1,Araranguá/SC,-28.9348832,-49.4858389,162,235.23603
1,Araraquara/SP,-21.7886713,-48.1773096,14976,6283.48697
D1,Araraquara/SP,-21.7886713,-48.1773096,325,136.36039
1,Araras/SP,-22.3569477,-47.3838889,12127,8949.41921
D1,Araras/SP,-22.3569477,-47.3838889,262,193.34937
1,Ararendá/CE,-4.7504395,-40.8303611,609,5557.07638
D1,Ararendá/CE,-4.7504395,-40.8303611,12,109.49904
1,Arari/MA,-3.4547602,-44.7772723,423,1413.20326
D1,Arari/MA,-3.4547602,-44.7772723,17,56.79540
1,Araricá/RS,-29.6168543,-50.929121,902,15629.87351
D1,Araricá/RS,-29.6168543,-50.929121,24,415.87247
1,Araripe/CE,-7.212861,-40.1359222,657,3034.08146
D1,Araripe/CE,-7.212861,-40.1359222,9,41.56276
1,Araripina/PE,-7.5768582,-40.5038509,5267,6206.40083
D1,Araripina/PE,-7.5768582,-40.5038509,106,124.90573
1,Araruama/RJ,-22.8733203,-42.3428897,4366,3251.10021
D1,Araruama/RJ,-22.8733203,-42.3428897,198,147.43881
1,Araruna/PB,-6.5321155,-35.7397595,588,2873.47896
D1,Araruna/PB,-6.5321155,-35.7397595,16,78.18990
1,Araruna/PR,-23.9320308,-52.4976047,924,6600.00000
D1,Araruna/PR,-23.9320308,-52.4976047,18,128.57143
1,Arataca/BA,-15.2617424,-39.4122943,449,4096.34157
D1,Arataca/BA,-15.2617424,-39.4122943,12,109.47906
1,Aratiba/RS,-27.3955734,-52.3024325,333,5380.51381
D1,Aratiba/RS,-27.3955734,-52.3024325,5,80.78850
1,Aratuba/CE,-4.4195958,-39.0463737,812,6880.18980
D1,Aratuba/CE,-4.4195958,-39.0463737,5,42.36570
1,Aratuípe/BA,-13.077137,-39.0010786,283,3202.44427
D1,Aratuípe/BA,-13.077137,-39.0010786,7,79.21240
1,Araucária/PR,-25.5861107,-49.4051209,18387,12575.40318
D1,Araucária/PR,-25.5861107,-49.4051209,272,186.02870
1,Arauá/SE,-11.2644014,-37.6181058,778,7821.45370
D1,Arauá/SE,-11.2644014,-37.6181058,13,130.69267
1,Araxá/MG,-19.5928536,-46.940241,8221,7659.05513
D1,Araxá/MG,-19.5928536,-46.940241,124,115.52400
1,Araçagi/PB,-6.8519969,-35.3835602,919,5431.12109
D1,Araçagi/PB,-6.8519969,-35.3835602,12,70.91779
1,Araçariguama/SP,-23.438611,-47.061389,1046,4575.67804
D1,Araçariguama/SP,-23.438611,-47.061389,31,135.60805
1,Araçatuba/SP,-21.207992,-50.4390225,20457,10325.09123
D1,Araçatuba/SP,-21.207992,-50.4390225,548,276.58748
1,Araçaí/MG,-19.200833,-44.2475,49,2081.56330
1,Araçoiaba da Serra/SP,-23.5045367,-47.6168158,1866,5365.76950
D1,Araçoiaba da Serra/SP,-23.5045367,-47.6168158,40,115.02185
1,Araçoiaba/PE,-7.7856903,-35.0898881,336,1620.60483
D1,Araçoiaba/PE,-7.7856903,-35.0898881,22,106.11103
1,Araçu/GO,-16.3561579,-49.6815269,360,10327.02238
D1,Araçu/GO,-16.3561579,-49.6815269,12,344.23408
1,Araçuaí/MG,-16.8484451,-42.0661868,1048,2854.65243
D1,Araçuaí/MG,-16.8484451,-42.0661868,19,51.75419
1,Araçás/BA,-12.2139176,-38.2026159,519,4251.31062
D1,Araçás/BA,-12.2139176,-38.2026159,7,57.33945
1,Araújos/MG,-19.948055,-45.165556,533,5669.60962
D1,Araújos/MG,-19.948055,-45.165556,5,53.18583
1,Arceburgo/MG,-21.364444,-46.939722,563,5173.20592
D1,Arceburgo/MG,-21.364444,-46.939722,14,128.64100
1,Arco-Íris/SP,-21.7741308,-50.4668814,75,4230.11844
D1,Arco-Íris/SP,-21.7741308,-50.4668814,5,282.00790
1,Arcos/MG,-20.282223,-45.539444,3985,9868.74690
D1,Arcos/MG,-20.282223,-45.539444,51,126.30015
1,Arcoverde/PE,-8.415192,-37.057748,4545,6074.41662
D1,Arcoverde/PE,-8.415192,-37.057748,91,121.62198
1,Areado/MG,-21.3582771,-46.1476688,465,3063.03933
D1,Areado/MG,-21.3582771,-46.1476688,13,85.63336
1,Areal/RJ,-22.2314922,-43.1056264,654,5162.20696
D1,Areal/RJ,-22.2314922,-43.1056264,34,268.37162
1,Arealva/SP,-22.0301906,-48.9111936,543,6304.42355
D1,Arealva/SP,-22.0301906,-48.9111936,8,92.88285
1,Areia Branca/RN,-4.9506652,-37.1263312,1825,6525.54797
D1,Areia Branca/RN,-4.9506652,-37.1263312,76,271.74885
1,Areia Branca/SE,-10.7591455,-37.3148072,1277,6833.99336
D1,Areia Branca/SE,-10.7591455,-37.3148072,29,155.19640
1,Areia de Baraúnas/PB,-7.1233949,-36.9446216,72,3402.64650
D1,Areia de Baraúnas/PB,-7.1233949,-36.9446216,3,141.77694
1,Areia/PB,-6.9680243,-35.6994783,1002,4422.66949
D1,Areia/PB,-6.9680243,-35.6994783,20,88.27684
1,Areial/PB,-7.0501306,-35.9245244,222,3159.24292
D1,Areial/PB,-7.0501306,-35.9245244,6,85.38494
1,Areias/SP,-22.5800929,-44.6975127,225,5775.15400
D1,Areias/SP,-22.5800929,-44.6975127,1,25.66735
1,Areiópolis/SP,-22.6758064,-48.6673653,764,6847.10522
D1,Areiópolis/SP,-22.6758064,-48.6673653,10,89.62180
1,Arenápolis/MT,-14.4610369,-56.8432806,1161,12218.48032
D1,Arenápolis/MT,-14.4610369,-56.8432806,19,199.95790
1,Arenópolis/GO,-16.3859286,-51.55937,158,6230.28391
D1,Arenópolis/GO,-16.3859286,-51.55937,6,236.59306
1,Argirita/MG,-21.612761,-42.8371922,241,8912.72189
D1,Argirita/MG,-21.612761,-42.8371922,5,184.91124
1,Aricanduva/MG,-17.8678,-42.5569,75,1423.42000
1,Arinos/MG,-15.917223,-46.106111,354,1981.86093
D1,Arinos/MG,-15.917223,-46.106111,10,55.98477
1,Aripuanã/MT,-10.175806,-59.4439663,1935,8518.97508
D1,Aripuanã/MT,-10.175806,-59.4439663,36,158.49256
1,Ariquemes/RO,-9.9076522,-63.033069,17511,15988.42252
D1,Ariquemes/RO,-9.9076522,-63.033069,370,337.82858
1,Ariranha do Ivaí/PR,-24.3834527,-51.5876772,128,6195.54695
D1,Ariranha do Ivaí/PR,-24.3834527,-51.5876772,2,96.80542
1,Ariranha/SP,-21.18716,-48.790418,370,3790.59523
D1,Ariranha/SP,-21.18716,-48.790418,13,133.18308
1,Armazém/SC,-28.2624996,-49.0190126,1275,14556.45622
D1,Armazém/SC,-28.2624996,-49.0190126,24,274.00388
1,Armação dos Búzios/RJ,-22.7597805,-41.8875267,3563,10334.42585
D1,Armação dos Búzios/RJ,-22.7597805,-41.8875267,35,101.51695
1,Arneiroz/CE,-6.3235099,-40.1603859,247,3148.90362
D1,Arneiroz/CE,-6.3235099,-40.1603859,10,127.48598
1,Aroazes/PI,-6.1108814,-41.7886137,496,8512.09885
D1,Aroazes/PI,-6.1108814,-41.7886137,12,205.93788
1,Aroeiras do Itaim/PI,-7.2797031,-41.5629681,97,3802.43042
D1,Aroeiras do Itaim/PI,-7.2797031,-41.5629681,1,39.20031
1,Aroeiras/PB,-7.5462904,-35.7080002,819,4284.36911
D1,Aroeiras/PB,-7.5462904,-35.7080002,5,26.15610
1,Arraial do Cabo/RJ,-22.9662839,-42.024427,555,1814.14049
D1,Arraial do Cabo/RJ,-22.9662839,-42.024427,15,49.03082
1,Arraial/PI,-6.6541632,-42.5335332,134,2838.98305
D1,Arraial/PI,-6.6541632,-42.5335332,2,42.37288
1,Arraias/TO,-12.9287788,-46.9437231,391,3711.79039
D1,Arraias/TO,-12.9287788,-46.9437231,3,28.47921
1,Arroio Grande/RS,-32.2384246,-53.0866661,1085,5949.11723
D1,Arroio Grande/RS,-32.2384246,-53.0866661,42,230.28841
1,Arroio Trinta/SC,-26.9301976,-51.334928,390,10989.01099
D1,Arroio Trinta/SC,-26.9301976,-51.334928,7,197.23866
1,Arroio do Meio/RS,-29.4020392,-51.9444993,2492,11885.34364
D1,Arroio do Meio/RS,-29.4020392,-51.9444993,27,128.77379
1,Arroio do Padre/RS,-31.4428773,-52.4228985,119,4032.53135
D1,Arroio do Padre/RS,-31.4428773,-52.4228985,1,33.88682
1,Arroio do Sal/RS,-29.549852,-49.8874395,870,8463.85835
D1,Arroio do Sal/RS,-29.549852,-49.8874395,27,262.67147
1,Arroio do Tigre/RS,-29.334158,-53.0888935,917,6836.65101
D1,Arroio do Tigre/RS,-29.334158,-53.0888935,17,126.74271
1,Arroio dos Ratos/RS,-30.0894524,-51.7265541,745,5254.99048
D1,Arroio dos Ratos/RS,-30.0894524,-51.7265541,28,197.50300
1,Artur Nogueira/SP,-22.572737,-47.172679,2959,5346.94615
D1,Artur Nogueira/SP,-22.572737,-47.172679,79,142.75389
1,Aruanã/GO,-14.9162439,-51.0715692,353,3491.59248
D1,Aruanã/GO,-14.9162439,-51.0715692,10,98.91197
1,Arujá/SP,-23.396266,-46.3175449,5341,5859.12217
D1,Arujá/SP,-23.396266,-46.3175449,203,222.69272
1,Arvoredo/SC,-27.0752908,-52.4571847,259,11593.55416
D1,Arvoredo/SC,-27.0752908,-52.4571847,3,134.28827
1,Arvorezinha/RS,-28.87369,-52.17808,656,6293.77339
D1,Arvorezinha/RS,-28.87369,-52.17808,21,201.47750
1,Arês/RN,-6.1969216,-35.1642968,675,4681.97267
D1,Arês/RN,-6.1969216,-35.1642968,19,131.78886
1,Ascurra/SC,-26.9569975,-49.3767752,971,12170.97017
D1,Ascurra/SC,-26.9569975,-49.3767752,7,87.74129
1,Aspásia/SP,-20.160028,-50.728046,82,4510.45105
D1,Aspásia/SP,-20.160028,-50.728046,3,165.01650
1,Assaré/CE,-6.8746791,-39.8741385,1147,4885.42465
D1,Assaré/CE,-6.8746791,-39.8741385,24,102.22336
1,Assaí/PR,-23.3736041,-50.8454929,1063,7108.46596
D1,Assaí/PR,-23.3736041,-50.8454929,32,213.98957
1,Assis Brasil/AC,-10.9409203,-69.5672108,1372,18210.77781
D1,Assis Brasil/AC,-10.9409203,-69.5672108,19,252.19007
1,Assis Chateaubriand/PR,-24.4054826,-53.5120468,2891,8671.26575
D1,Assis Chateaubriand/PR,-24.4054826,-53.5120468,62,185.96281
1,Assis/SP,-22.6620892,-50.420623,6404,6093.99831
D1,Assis/SP,-22.6620892,-50.420623,198,188.41531
1,Assunção do Piauí/PI,-5.8610212,-41.0485091,268,3408.36831
D1,Assunção do Piauí/PI,-5.8610212,-41.0485091,6,76.30675
1,Assunção/PB,-7.073396,-36.7274003,254,6304.29387
D1,Assunção/PB,-7.073396,-36.7274003,2,49.64011
1,Astolfo Dutra/MG,-21.3132636,-42.8624102,984,6895.58514
D1,Astolfo Dutra/MG,-21.3132636,-42.8624102,15,105.11563
1,Astorga/PR,-23.2350184,-51.6647074,2244,8561.94437
D1,Astorga/PR,-23.2350184,-51.6647074,47,179.32771
1,Atalaia do Norte/AM,-4.3658547,-70.1908742,2641,12947.34778
D1,Atalaia do Norte/AM,-4.3658547,-70.1908742,8,39.21953
1,Atalaia/AL,-9.5029595,-36.0219316,957,2020.47926
D1,Atalaia/AL,-9.5029595,-36.0219316,39,82.33928
1,Atalaia/PR,-23.1513833,-52.0529697,315,8116.46483
D1,Atalaia/PR,-23.1513833,-52.0529697,15,386.49833
1,Atalanta/SC,-27.421916,-49.778863,226,7073.55243
D1,Atalanta/SC,-27.421916,-49.778863,3,93.89671
1,Ataléia/MG,-18.04432,-41.1110524,972,7666.82442
D1,Ataléia/MG,-18.04432,-41.1110524,7,55.21376
1,Atibaia/SP,-23.1177393,-46.5547861,8076,5604.90811
D1,Atibaia/SP,-23.1177393,-46.5547861,197,136.72200
1,Atilio Vivacqua/ES,-20.9139369,-41.1947519,1221,10086.74102
D1,Atilio Vivacqua/ES,-20.9139369,-41.1947519,19,156.95993
1,Augustinópolis/TO,-5.4662267,-47.8897519,1278,6855.11988
D1,Augustinópolis/TO,-5.4662267,-47.8897519,19,101.91493
1,Augusto Corrêa/PA,-1.0229335,-46.6404029,1777,3823.89017
D1,Augusto Corrêa/PA,-1.0229335,-46.6404029,30,64.55639
1,Augusto Pestana/RS,-28.5148413,-53.9906433,297,4498.63678
D1,Augusto Pestana/RS,-28.5148413,-53.9906433,5,75.73463
1,Augusto de Lima/MG,-18.1092963,-44.2651945,183,3772.41806
D1,Augusto de Lima/MG,-18.1092963,-44.2651945,6,123.68584
1,Aurelino Leal/BA,-14.3167137,-39.3256107,795,7036.02089
D1,Aurelino Leal/BA,-14.3167137,-39.3256107,22,194.70750
1,Auriflama/SP,-20.6840418,-50.5554616,1497,9814.46273
D1,Auriflama/SP,-20.6840418,-50.5554616,47,308.13610
1,Aurilândia/GO,-16.6772599,-50.4641231,166,5428.38457
D1,Aurilândia/GO,-16.6772599,-50.4641231,4,130.80445
1,Aurora do Pará/PA,-2.1323199,-47.558436,1031,3244.89346
D1,Aurora do Pará/PA,-2.1323199,-47.558436,12,37.76792
1,Aurora do Tocantins/TO,-12.71045,-46.407604,149,3938.67301
D1,Aurora do Tocantins/TO,-12.71045,-46.407604,2,52.86809
1,Aurora/CE,-6.9426019,-38.9693765,1135,4611.94636
D1,Aurora/CE,-6.9426019,-38.9693765,28,113.77489
1,Aurora/SC,-27.3166417,-49.6368502,605,10645.78568
D1,Aurora/SC,-27.3166417,-49.6368502,12,211.15608
1,Autazes/AM,-3.5833283,-59.1301518,2692,6681.55870
D1,Autazes/AM,-3.5833283,-59.1301518,86,213.45247
1,Avanhandava/SP,-21.4603331,-49.9465156,514,3708.78130
D1,Avanhandava/SP,-21.4603331,-49.9465156,22,158.74161
1,Avaré/SP,-23.1045215,-48.9259103,5163,5659.19853
D1,Avaré/SP,-23.1045215,-48.9259103,109,119.47562
1,Avaí/SP,-22.1564662,-49.3316395,238,4378.21928
D1,Avaí/SP,-22.1564662,-49.3316395,4,73.58352
1,Aveiro/PA,-3.6049239,-55.3310742,566,3450.37796
D1,Aveiro/PA,-3.6049239,-55.3310742,8,48.76859
1,Avelino Lopes/PI,-10.1346855,-43.9489525,281,2481.01713
D1,Avelino Lopes/PI,-10.1346855,-43.9489525,17,150.09712
1,Avelinópolis/GO,-16.4672409,-49.7578661,239,9921.12910
D1,Avelinópolis/GO,-16.4672409,-49.7578661,11,456.62100
1,Axixá do Tocantins/TO,-5.612747,-47.77007,951,9716.97149
D1,Axixá do Tocantins/TO,-5.612747,-47.77007,15,153.26453
1,Axixá/MA,-2.8379465,-44.0561053,189,1551.34203
D1,Axixá/MA,-2.8379465,-44.0561053,4,32.83264
1,Açailândia/MA,-4.9514278,-47.4844564,4483,3963.01306
D1,Açailândia/MA,-4.9514278,-47.4844564,158,139.67345
1,Açu/RN,-5.5836157,-36.9139541,4169,7140.65497
D1,Açu/RN,-5.5836157,-36.9139541,115,196.97177
1,Açucena/MG,-19.073056,-42.546666,590,6298.03587
D1,Açucena/MG,-19.073056,-42.546666,17,181.46883
1,Babaçulândia/TO,-7.2034355,-47.761613,545,5109.69436
D1,Babaçulândia/TO,-7.2034355,-47.761613,4,37.50234
1,Bacabal/MA,-4.2318132,-44.781167,4184,3992.74740
D1,Bacabal/MA,-4.2318132,-44.781167,130,124.05764
1,Bacabeira/MA,-2.9775747,-44.3155943,296,1715.74310
D1,Bacabeira/MA,-2.9775747,-44.3155943,5,28.98215
1,Bacuri/MA,-1.728894,-45.1417148,429,2299.77485
D1,Bacuri/MA,-1.728894,-45.1417148,4,21.44312
1,Bacurituba/MA,-2.7082587,-44.7381309,111,1957.67196
D1,Bacurituba/MA,-2.7082587,-44.7381309,1,17.63668
1,Bady Bassitt/SP,-20.9178969,-49.4517911,2142,12060.13175
D1,Bady Bassitt/SP,-20.9178969,-49.4517911,41,230.84286
1,Baependi/MG,-21.959162,-44.8899249,981,5109.64113
D1,Baependi/MG,-21.959162,-44.8899249,10,52.08605
1,Bagre/PA,-1.8994498,-50.2103844,799,2550.67837
D1,Bagre/PA,-1.8994498,-50.2103844,11,35.11572
1,Bagé/RS,-31.3314264,-54.1062808,6360,5241.68624
D1,Bagé/RS,-31.3314264,-54.1062808,155,127.74550
1,Baianópolis/BA,-12.3067564,-44.5383591,318,2283.00668
D1,Baianópolis/BA,-12.3067564,-44.5383591,3,21.53780
1,Baixa Grande do Ribeiro/PI,-7.862861,-45.2113289,1861,15945.50595
D1,Baixa Grande do Ribeiro/PI,-7.862861,-45.2113289,19,162.79668
1,Baixa Grande/BA,-11.9630941,-40.1657537,575,2811.87344
D1,Baixa Grande/BA,-11.9630941,-40.1657537,6,29.34129
1,Baixio/CE,-6.7303544,-38.7170095,292,4632.71458
D1,Baixio/CE,-6.7303544,-38.7170095,8,126.92369
1,Baixo Guandu/ES,-19.5138322,-41.0182089,2997,9626.75061
D1,Baixo Guandu/ES,-19.5138322,-41.0182089,63,202.36413
1,Baião/PA,-2.7903479,-49.6702845,627,1293.87730
D1,Baião/PA,-2.7903479,-49.6702845,21,43.33560
1,Balbinos/SP,-21.9006253,-49.3583966,292,4920.79542
D1,Balbinos/SP,-21.9006253,-49.3583966,3,50.55612
1,Baldim/MG,-19.2913568,-43.9558262,395,5062.15558
D1,Baldim/MG,-19.2913568,-43.9558262,7,89.70909
1,Baliza/GO,-16.1978119,-52.542789,168,3181.81818
D1,Baliza/GO,-16.1978119,-52.542789,6,113.63636
1,Balneário Arroio do Silva/SC,-28.9815269,-49.4189932,1613,12010.42442
D1,Balneário Arroio do Silva/SC,-28.9815269,-49.4189932,34,253.16456
1,Balneário Barra do Sul/SC,-26.459842,-48.6061471,1201,10883.55233
D1,Balneário Barra do Sul/SC,-26.459842,-48.6061471,24,217.48981
1,Balneário Camboriú/SC,-26.9924395,-48.6339782,21516,14757.60652
D1,Balneário Camboriú/SC,-26.9924395,-48.6339782,308,211.25408
1,Balneário Gaivota/SC,-29.1553098,-49.5808712,1059,9404.97336
D1,Balneário Gaivota/SC,-29.1553098,-49.5808712,22,195.38188
1,Balneário Pinhal/RS,-30.2482978,-50.234585,647,4504.62995
D1,Balneário Pinhal/RS,-30.2482978,-50.234585,32,222.79468
1,Balneário Piçarras/SC,-26.7638889,-48.6716667,3768,15850.58051
D1,Balneário Piçarras/SC,-26.7638889,-48.6716667,38,159.85193
1,Balneário Rincão/SC,-28.8235718,-49.2241642,1190,9192.02843
D1,Balneário Rincão/SC,-28.8235718,-49.2241642,32,247.18060
1,Balsa Nova/PR,-25.5842234,-49.6312741,1083,8272.22731
D1,Balsa Nova/PR,-25.5842234,-49.6312741,20,152.76505
1,Balsas/MA,-7.53214,-46.037163,7955,8292.59140
D1,Balsas/MA,-7.53214,-46.037163,107,111.54083
1,Bambuí/MG,-20.0131996,-45.9777034,950,3975.22805
D1,Bambuí/MG,-20.0131996,-45.9777034,10,41.84451
1,Banabuiú/CE,-5.3046404,-38.919766,924,5061.34969
D1,Banabuiú/CE,-5.3046404,-38.919766,7,38.34356
1,Bananal/SP,-22.6828195,-44.3221095,689,6267.62485
D1,Bananal/SP,-22.6828195,-44.3221095,2,18.19340
1,Bananeiras/PB,-6.7537682,-35.6338343,882,4146.88044
D1,Bananeiras/PB,-6.7537682,-35.6338343,11,51.71846
1,Bandeira do Sul/MG,-21.728056,-46.385555,147,2544.13292
D1,Bandeira do Sul/MG,-21.728056,-46.385555,5,86.53513
1,Bandeira/MG,-15.884444,-40.559167,444,9315.98825
D1,Bandeira/MG,-15.884444,-40.559167,9,188.83760
1,Bandeirante/SC,-26.7677402,-53.6397596,191,7212.99094
D1,Bandeirante/SC,-26.7677402,-53.6397596,2,75.52870
1,Bandeirantes do Tocantins/TO,-7.7635698,-48.579148,268,7461.02450
D1,Bandeirantes do Tocantins/TO,-7.7635698,-48.579148,4,111.35857
1,Bandeirantes/MS,-19.9179623,-54.3646768,422,5807.87228
D1,Bandeirantes/MS,-19.9179623,-54.3646768,7,96.33911
1,Bandeirantes/PR,-23.107788,-50.370407,2471,7917.08052
D1,Bandeirantes/PR,-23.107788,-50.370407,68,217.87190
1,Bannach/PA,-7.3508505,-50.4064531,527,16155.73268
D1,Bannach/PA,-7.3508505,-50.4064531,2,61.31208
1,Banzaê/BA,-10.5827616,-38.6122305,803,6064.95468
D1,Banzaê/BA,-10.5827616,-38.6122305,7,52.87009
1,Baraúna/PB,-6.643394,-36.2531932,213,4290.89444
D1,Baraúna/PB,-6.643394,-36.2531932,3,60.43513
1,Baraúna/RN,-5.0775002,-37.61752,759,2640.27551
D1,Baraúna/RN,-5.0775002,-37.61752,18,62.61523
1,Barbacena/MG,-21.2254524,-43.7735087,4890,3538.24781
D1,Barbacena/MG,-21.2254524,-43.7735087,144,104.19380
1,Barbalha/CE,-7.3121067,-39.3036427,3448,5631.41047
D1,Barbalha/CE,-7.3121067,-39.3036427,64,104.52734
1,Barbosa Ferraz/PR,-24.0287182,-52.00811,604,5286.18939
D1,Barbosa Ferraz/PR,-24.0287182,-52.00811,14,122.52757
1,Barbosa/SP,-21.265661,-49.951816,325,4351.90145
D1,Barbosa/SP,-21.265661,-49.951816,8,107.12373
1,Barcarena/PA,-1.5107945,-48.6190679,8611,6778.87378
D1,Barcarena/PA,-1.5107945,-48.6190679,163,128.31918
1,Barcelona/RN,-5.9514918,-35.9260284,52,1301.95293
D1,Barcelona/RN,-5.9514918,-35.9260284,3,75.11267
1,Barcelos/AM,-0.9729214,-62.925635,4037,14606.70092
D1,Barcelos/AM,-0.9729214,-62.925635,56,202.61958
1,Bariri/SP,-22.0746355,-48.7394852,2167,6094.26852
D1,Bariri/SP,-22.0746355,-48.7394852,83,233.42145
1,Barra Bonita/SC,-26.6526364,-53.4419581,119,7207.75288
D1,Barra Bonita/SC,-26.6526364,-53.4419581,1,60.56935
1,Barra Bonita/SP,-22.490859,-48.558349,2463,6817.80435
D1,Barra Bonita/SP,-22.490859,-48.558349,62,171.62155
1,Barra D'Alcântara/PI,-6.5209258,-42.1071089,102,2580.97166
D1,Barra D'Alcântara/PI,-6.5209258,-42.1071089,3,75.91093
1,Barra Funda/RS,-27.9230048,-53.0401045,376,14739.31791
D1,Barra Funda/RS,-27.9230048,-53.0401045,7,274.40220
1,Barra Longa/MG,-20.2833541,-43.0423516,214,4267.19840
D1,Barra Longa/MG,-20.2833541,-43.0423516,6,119.64108
1,Barra Mansa/RJ,-22.5394843,-44.1735129,12300,6654.65582
D1,Barra Mansa/RJ,-22.5394843,-44.1735129,365,197.47556
1,Barra Velha/SC,-26.6338203,-48.6835001,3294,11031.48024
D1,Barra Velha/SC,-26.6338203,-48.6835001,67,224.38044
1,Barra da Estiva/BA,-13.6269662,-41.3278287,1296,6355.43350
D1,Barra da Estiva/BA,-13.6269662,-41.3278287,9,44.13495
1,Barra de Guabiraba/PE,-8.4173522,-35.6626669,339,2336.31978
D1,Barra de Guabiraba/PE,-8.4173522,-35.6626669,13,89.59338
1,Barra de Santa Rosa/PB,-6.7218007,-36.0564638,669,4316.96457
D1,Barra de Santa Rosa/PB,-6.7218007,-36.0564638,4,25.81145
1,Barra de Santana/PB,-7.5230865,-35.9988518,303,3629.17715
D1,Barra de Santana/PB,-7.5230865,-35.9988518,4,47.90993
1,Barra de Santo Antônio/AL,-9.4038098,-35.5117693,248,1543.44038
D1,Barra de Santo Antônio/AL,-9.4038098,-35.5117693,18,112.02390
1,Barra de São Francisco/ES,-18.7570902,-40.8916119,4070,9048.66716
D1,Barra de São Francisco/ES,-18.7570902,-40.8916119,153,340.15874
1,Barra de São Miguel/AL,-9.8261357,-35.8837777,306,3652.42301
D1,Barra de São Miguel/AL,-9.8261357,-35.8837777,6,71.61614
1,Barra de São Miguel/PB,-7.7528088,-36.3170996,303,4995.87799
D1,Barra de São Miguel/PB,-7.7528088,-36.3170996,5,82.44023
1,Barra do Bugres/MT,-15.0683712,-57.1853688,2099,5944.99674
D1,Barra do Bugres/MT,-15.0683712,-57.1853688,48,135.95038
1,Barra do Chapéu/SP,-24.472203,-49.023784,213,3697.91667
D1,Barra do Chapéu/SP,-24.472203,-49.023784,1,17.36111
1,Barra do Choça/BA,-14.8638173,-40.5761637,1678,5376.65417
D1,Barra do Choça/BA,-14.8638173,-40.5761637,26,83.30930
1,Barra do Corda/MA,-5.496823,-45.248496,4853,5484.11156
D1,Barra do Corda/MA,-5.496823,-45.248496,48,54.24219
1,Barra do Garças/MT,-15.8916033,-52.2615413,5898,9647.50143
D1,Barra do Garças/MT,-15.8916033,-52.2615413,206,336.95919
1,Barra do Guarita/RS,-27.1888016,-53.7147086,105,3223.82561
D1,Barra do Guarita/RS,-27.1888016,-53.7147086,3,92.10930
1,Barra do Jacaré/PR,-23.1151788,-50.1813945,146,5249.91010
D1,Barra do Jacaré/PR,-23.1151788,-50.1813945,1,35.95829
1,Barra do Mendes/BA,-11.8053298,-42.057037,600,4337.45391
D1,Barra do Mendes/BA,-11.8053298,-42.057037,9,65.06181
1,Barra do Ouro/TO,-7.7113784,-47.6743925,113,2439.55095
D1,Barra do Ouro/TO,-7.7113784,-47.6743925,5,107.94473
1,Barra do Piraí/RJ,-22.4703403,-43.8263256,4349,4316.02556
D1,Barra do Piraí/RJ,-22.4703403,-43.8263256,210,208.40776
1,Barra do Quaraí/RS,-30.208947,-57.5505128,198,4684.17317
D1,Barra do Quaraí/RS,-30.208947,-57.5505128,2,47.31488
1,Barra do Ribeiro/RS,-30.2930206,-51.301437,925,6823.54677
D1,Barra do Ribeiro/RS,-30.2930206,-51.301437,45,331.95633
1,Barra do Rio Azul/RS,-27.4101581,-52.4117471,63,3806.64653
D1,Barra do Rio Azul/RS,-27.4101581,-52.4117471,1,60.42296
1,Barra do Rocha/BA,-14.2090974,-39.6004395,332,5915.89451
D1,Barra do Rocha/BA,-14.2090974,-39.6004395,4,71.27584
1,Barra do Turvo/SP,-24.756421,-48.5056942,369,4834.90566
D1,Barra do Turvo/SP,-24.756421,-48.5056942,10,131.02725
1,Barra dos Coqueiros/SE,-10.9075694,-37.0386249,4995,16149.36954
D1,Barra dos Coqueiros/SE,-10.9075694,-37.0386249,60,193.98642
1,Barra/BA,-11.0892702,-43.1420453,1446,2682.24819
D1,Barra/BA,-11.0892702,-43.1420453,26,48.22853
1,Barracão/PR,-26.252395,-53.6349576,894,8669.51125
D1,Barracão/PR,-26.252395,-53.6349576,24,232.73856
1,Barracão/RS,-27.6728964,-51.4582928,283,5384.32268
D1,Barracão/RS,-27.6728964,-51.4582928,7,133.18113
1,Barras/PI,-4.2446153,-42.2920241,3921,8309.84423
D1,Barras/PI,-4.2446153,-42.2920241,77,163.18745
1,Barreira/CE,-4.2883361,-38.641094,906,4013.64462
D1,Barreira/CE,-4.2883361,-38.641094,28,124.04200
1,Barreiras do Piauí/PI,-9.9224524,-45.4763776,58,1730.31026
D1,Barreiras do Piauí/PI,-9.9224524,-45.4763776,1,29.83294
1,Barreiras/BA,-12.1440031,-44.9967406,11061,7046.34496
D1,Barreiras/BA,-12.1440031,-44.9967406,149,94.91957
1,Barreirinha/AM,-2.798863,-57.067897,2257,6948.24985
D1,Barreirinha/AM,-2.798863,-57.067897,60,184.71200
1,Barreirinhas/MA,-2.7541271,-42.8259693,1638,2591.07519
D1,Barreirinhas/MA,-2.7541271,-42.8259693,31,49.03744
1,Barreiros/PE,-8.8159644,-35.1831905,627,1466.18651
D1,Barreiros/PE,-8.8159644,-35.1831905,47,109.90553
1,Barretos/SP,-20.5531437,-48.5697509,9889,8050.76812
D1,Barretos/SP,-20.5531437,-48.5697509,272,221.43886
1,Barrinha/SP,-21.1898849,-48.1550642,1164,3508.13743
D1,Barrinha/SP,-21.1898849,-48.1550642,45,135.62387
1,Barro Alto/BA,-11.7618025,-41.9094904,623,4138.43497
D1,Barro Alto/BA,-11.7618025,-41.9094904,8,53.14202
1,Barro Alto/GO,-14.9696025,-48.9190985,1162,10185.83450
D1,Barro Alto/GO,-14.9696025,-48.9190985,13,113.95512
1,Barro Duro/PI,-5.8180139,-42.5106589,536,7627.72165
D1,Barro Duro/PI,-5.8180139,-42.5106589,7,99.61577
1,Barro Preto/BA,-14.8068289,-39.4727588,496,9104.25844
D1,Barro Preto/BA,-14.8068289,-39.4727588,7,128.48752
1,Barro/CE,-7.1713587,-38.7742136,640,2812.19791
D1,Barro/CE,-7.1713587,-38.7742136,16,70.30495
1,Barrocas/BA,-11.5165,-39.099282894736845,646,4011.17665
D1,Barrocas/BA,-11.5165,-39.099282894736845,16,99.34803
1,Barrolândia/TO,-9.837246,-48.7264346,634,11219.25323
D1,Barrolândia/TO,-9.837246,-48.7264346,15,265.43975
1,Barroquinha/CE,-3.0200371,-41.1339229,914,6075.51183
D1,Barroquinha/CE,-3.0200371,-41.1339229,23,152.88487
1,Barros Cassal/RS,-29.094938,-52.5832366,455,4069.03953
D1,Barros Cassal/RS,-29.094938,-52.5832366,6,53.65766
1,Barroso/MG,-21.187222,-43.976111,701,3354.54850
D1,Barroso/MG,-21.187222,-43.976111,14,66.99526
1,Barueri/SP,-23.5112184,-46.8764612,21127,7627.57147
D1,Barueri/SP,-23.5112184,-46.8764612,761,274.74710
1,Barão de Antonina/SP,-23.6295651,-49.5632104,137,3916.52373
D1,Barão de Antonina/SP,-23.6295651,-49.5632104,3,85.76329
1,Barão de Cocais/MG,-19.9452437,-43.4870298,2960,9006.26788
D1,Barão de Cocais/MG,-19.9452437,-43.4870298,46,139.96227
1,Barão de Cotegipe/RS,-27.6214694,-52.3765316,527,7960.72508
D1,Barão de Cotegipe/RS,-27.6214694,-52.3765316,6,90.63444
1,Barão de Grajaú/MA,-6.7542591,-43.0263477,276,1458.46544
D1,Barão de Grajaú/MA,-6.7542591,-43.0263477,2,10.56859
1,Barão de Melgaço/MT,-16.195776,-55.9668049,258,3160.21558
D1,Barão de Melgaço/MT,-16.195776,-55.9668049,11,134.73787
1,Barão de Monte Alto/MG,-21.244722,-42.2375,190,3548.74860
D1,Barão de Monte Alto/MG,-21.244722,-42.2375,7,130.74337
1,Barão do Triunfo/RS,-30.3909877,-51.7375349,355,4721.37252
D1,Barão do Triunfo/RS,-30.3909877,-51.7375349,4,53.19856
1,Barão/RS,-29.372474,-51.494908,459,7400.83844
D1,Barão/RS,-29.372474,-51.494908,7,112.86682
1,Bastos/SP,-21.9222474,-50.7317727,470,2243.11554
D1,Bastos/SP,-21.9222474,-50.7317727,18,85.90655
1,Bataguassu/MS,-21.715899,-52.422058,1945,8338.69239
D1,Bataguassu/MS,-21.715899,-52.422058,22,94.31940
1,Batalha/AL,-9.6733809,-37.1265481,849,4629.73061
D1,Batalha/AL,-9.6733809,-37.1265481,15,81.79736
1,Batalha/PI,-4.022391,-42.0780926,812,3018.02639
D1,Batalha/PI,-4.022391,-42.0780926,28,104.06988
1,Batatais/SP,-20.892867,-47.592149,1993,3164.49667
D1,Batatais/SP,-20.892867,-47.592149,74,117.49762
1,Batayporã/MS,-22.2976466,-53.2685608,590,5198.69592
D1,Batayporã/MS,-22.2976466,-53.2685608,11,96.92484
1,Baturité/CE,-4.3290203,-38.8821055,1890,5258.61829
D1,Baturité/CE,-4.3290203,-38.8821055,49,136.33455
1,Bauru/SP,-22.3218102,-49.0705863,31745,8369.43082
D1,Bauru/SP,-22.3218102,-49.0705863,683,180.06997
1,Bayeux/PB,-7.1301631,-34.936532,5687,5850.64247
D1,Bayeux/PB,-7.1301631,-34.936532,201,206.78374
1,Baía Formosa/RN,-6.3691885,-35.0063741,248,2660.37331
D1,Baía Formosa/RN,-6.3691885,-35.0063741,8,85.81849
1,Baía da Traição/PB,-6.691258,-34.9371244,1098,12071.24011
D1,Baía da Traição/PB,-6.691258,-34.9371244,10,109.93843
1,Bebedouro/SP,-20.949077,-48.479083,3192,4115.78880
D1,Bebedouro/SP,-20.949077,-48.479083,77,99.28438
1,Beberibe/CE,-4.1810469,-38.1298101,2784,5160.42929
D1,Beberibe/CE,-4.1810469,-38.1298101,70,129.75217
1,Bela Cruz/CE,-3.0529129,-40.167582,2417,7386.46782
D1,Bela Cruz/CE,-3.0529129,-40.167582,45,137.52216
1,Bela Vista da Caroba/PR,-25.8792818,-53.6672545,155,4483.65635
D1,Bela Vista da Caroba/PR,-25.8792818,-53.6672545,4,115.70726
1,Bela Vista de Goiás/GO,-16.9692949,-48.9513071,1970,6460.71101
D1,Bela Vista de Goiás/GO,-16.9692949,-48.9513071,45,147.57969
1,Bela Vista de Minas/MG,-19.8289721,-43.0973688,564,5496.00468
D1,Bela Vista de Minas/MG,-19.8289721,-43.0973688,9,87.70220
1,Bela Vista do Maranhão/MA,-3.7416367,-45.2514192,185,1640.21633
D1,Bela Vista do Maranhão/MA,-3.7416367,-45.2514192,13,115.25844
1,Bela Vista do Paraíso/PR,-22.9948493,-51.1907996,1522,9883.75869
D1,Bela Vista do Paraíso/PR,-22.9948493,-51.1907996,47,305.21462
1,Bela Vista do Piauí/PI,-7.9716353,-41.8715061,221,5483.87097
D1,Bela Vista do Piauí/PI,-7.9716353,-41.8715061,6,148.88337
1,Bela Vista do Toldo/SC,-26.274625,-50.466354,58,911.66300
D1,Bela Vista do Toldo/SC,-26.274625,-50.466354,1,15.71833
1,Bela Vista/MS,-22.107327,-56.5317344,634,2563.16960
D1,Bela Vista/MS,-22.107327,-56.5317344,17,68.72852
1,Belford Roxo/RJ,-22.7667284,-43.4033603,18436,3592.93574
D1,Belford Roxo/RJ,-22.7667284,-43.4033603,495,96.46904
1,Belmiro Braga/MG,-21.9486291,-43.413564,148,4321.16788
D1,Belmiro Braga/MG,-21.9486291,-43.413564,3,87.59124
1,Belmonte/BA,-15.8630837,-38.8792845,871,3716.34595
D1,Belmonte/BA,-15.8630837,-38.8792845,15,64.00137
1,Belmonte/SC,-26.8448262,-53.578916,203,7493.54005
D1,Belmonte/SC,-26.8448262,-53.578916,4,147.65596
1,Belo Campo/BA,-15.0338286,-41.2585109,580,3390.02864
D1,Belo Campo/BA,-15.0338286,-41.2585109,7,40.91414
1,Belo Horizonte/MG,-19.9227318,-43.9450948,160095,6349.03576
D1,Belo Horizonte/MG,-19.9227318,-43.9450948,3756,148.95517
1,Belo Jardim/PE,-8.3338293,-36.4176419,2401,3130.90876
D1,Belo Jardim/PE,-8.3338293,-36.4176419,71,92.58414
1,Belo Monte/AL,-9.8269944,-37.2787165,235,3502.23547
D1,Belo Monte/AL,-9.8269944,-37.2787165,6,89.41878
1,Belo Oriente/MG,-19.2232523,-42.4807033,2153,7975.84648
D1,Belo Oriente/MG,-19.2232523,-42.4807033,45,166.70371
1,Belo Vale/MG,-20.407778,-44.024167,467,6050.00648
D1,Belo Vale/MG,-20.407778,-44.024167,8,103.64037
1,Belterra/PA,-2.636091,-54.937392,1084,6076.57380
D1,Belterra/PA,-2.636091,-54.937392,21,117.71960
1,Belágua/MA,-3.1604031,-43.5085052,283,3759.29862
D1,Belágua/MA,-3.1604031,-43.5085052,3,39.85122
1,Belém de Maria/PE,-8.6242497,-35.8388934,169,1394.15938
D1,Belém de Maria/PE,-8.6242497,-35.8388934,5,41.24732
1,Belém do Brejo do Cruz/PB,-6.1880727,-37.5332267,485,6599.53735
D1,Belém do Brejo do Cruz/PB,-6.1880727,-37.5332267,5,68.03647
1,Belém do Piauí/PI,-7.3767305,-40.9712156,408,11374.40758
D1,Belém do Piauí/PI,-7.3767305,-40.9712156,7,195.14915
1,Belém do São Francisco/PE,-8.7517707,-38.9625715,486,2344.42836
D1,Belém do São Francisco/PE,-8.7517707,-38.9625715,7,33.76749
1,Belém/AL,-9.5715351,-36.492841,89,2077.49767
D1,Belém/AL,-9.5715351,-36.492841,3,70.02801
1,Belém/PA,-1.45056,-48.4682453,91483,6100.32668
D1,Belém/PA,-1.45056,-48.4682453,4030,268.73098
1,Belém/PB,-6.6967586,-35.5369626,1651,9325.04942
D1,Belém/PB,-6.6967586,-35.5369626,30,169.44366
1,Beneditinos/PI,-5.4565671,-42.3605061,753,7189.91693
D1,Beneditinos/PI,-5.4565671,-42.3605061,26,248.25742
1,Benedito Leite/MA,-7.2173453,-44.5523331,276,4895.35296
D1,Benedito Leite/MA,-7.2173453,-44.5523331,2,35.47357
1,Benedito Novo/SC,-26.7840657,-49.3629511,884,7507.43100
D1,Benedito Novo/SC,-26.7840657,-49.3629511,13,110.40340
1,Benevides/PA,-1.3555577,-48.252235,3250,5096.60018
D1,Benevides/PA,-1.3555577,-48.252235,74,116.04567
1,Benjamin Constant do Sul/RS,-27.5105555,-52.6007689,152,7763.02349
1,Benjamin Constant/AM,-4.3782748,-70.0290603,2645,6020.25720
D1,Benjamin Constant/AM,-4.3782748,-70.0290603,77,175.25891
1,Bento Fernandes/RN,-5.6926846,-35.8207423,81,1466.06335
D1,Bento Fernandes/RN,-5.6926846,-35.8207423,2,36.19910
1,Bento Gonçalves/RS,-29.1654014,-51.5197627,13413,11012.04404
D1,Bento Gonçalves/RS,-29.1654014,-51.5197627,244,200.32347
1,Bento de Abreu/SP,-21.2707225,-50.8120444,231,7687.18802
1,Bequimão/MA,-2.4495376,-44.7884889,270,1267.66515
D1,Bequimão/MA,-2.4495376,-44.7884889,16,75.12090
1,Berilo/MG,-16.9515764,-42.4643732,10,84.23181
D1,Berilo/MG,-16.9515764,-42.4643732,1,8.42318
1,Berizal/MG,-15.6118785,-41.7417382,101,2120.06717
D1,Berizal/MG,-15.6118785,-41.7417382,1,20.99076
1,Bernardino Batista/PB,-6.4532173,-38.5495418,222,6278.28054
1,Bernardino de Campos/SP,-23.0140216,-49.4760724,326,2921.67055
D1,Bernardino de Campos/SP,-23.0140216,-49.4760724,7,62.73526
1,Bernardo Sayão/TO,-7.8794244,-48.8968905,345,7756.29496
D1,Bernardo Sayão/TO,-7.8794244,-48.8968905,6,134.89209
1,Bernardo do Mearim/MA,-4.6315929,-44.7617508,207,3408.52956
D1,Bernardo do Mearim/MA,-4.6315929,-44.7617508,5,82.33163
1,Bertioga/SP,-23.848568,-46.139586,4061,6274.43104
D1,Bertioga/SP,-23.848568,-46.139586,100,154.50458
1,Bertolínia/PI,-7.6372159,-43.9540611,691,12547.66661
D1,Bertolínia/PI,-7.6372159,-43.9540611,7,127.11095
1,Bertópolis/MG,-17.063333,-40.573889,252,5469.93705
1,Beruri/AM,-3.9007135,-61.3717319,2033,10117.95153
D1,Beruri/AM,-3.9007135,-61.3717319,31,154.28259
1,Betim/MG,-19.968056,-44.198333,23596,5305.04694
D1,Betim/MG,-19.968056,-44.198333,726,163.22530
1,Betânia do Piauí/PI,-8.1460635,-40.7961387,152,2447.66506
D1,Betânia do Piauí/PI,-8.1460635,-40.7961387,2,32.20612
1,Betânia/PE,-8.2742779,-38.0351767,269,2107.32472
D1,Betânia/PE,-8.2742779,-38.0351767,6,47.00353
1,Bezerros/PE,-8.2372132,-35.7558262,2979,4893.23259
D1,Bezerros/PE,-8.2372132,-35.7558262,87,142.90407
1,Bias Fortes/MG,-21.605833,-43.756944,98,2943.82698
D1,Bias Fortes/MG,-21.605833,-43.756944,2,60.07810
1,Bicas/MG,-21.7213723,-43.0604327,864,5936.51230
D1,Bicas/MG,-21.7213723,-43.0604327,24,164.90312
1,Biguaçu/SC,-27.4961277,-48.6542432,9865,14197.10445
D1,Biguaçu/SC,-27.4961277,-48.6542432,144,207.23599
1,Bilac/SP,-21.403962,-50.47464,693,8537.63706
D1,Bilac/SP,-21.403962,-50.47464,12,147.83787
1,Biquinhas/MG,-18.783611,-45.502222,76,3042.43395
1,Birigui/SP,-21.2908491,-50.34144,10319,8262.93411
D1,Birigui/SP,-21.2908491,-50.34144,307,245.83010
1,Biritiba Mirim/SP,-23.5697765,-46.0407456,908,2756.86179
D1,Biritiba Mirim/SP,-23.5697765,-46.0407456,59,179.13529
1,Biritinga/BA,-11.6227908,-38.8066738,273,1707.95796
D1,Biritinga/BA,-11.6227908,-38.8066738,6,37.53754
1,Bituruna/PR,-26.161281,-51.5533319,512,3121.95122
D1,Bituruna/PR,-26.161281,-51.5533319,8,48.78049
1,Blumenau/SC,-26.9195567,-49.0658025,42836,11837.89087
D1,Blumenau/SC,-26.9195567,-49.0658025,456,126.01733
1,Boa Esperança do Iguaçu/PR,-25.6362851,-53.2139114,120,4858.29960
1,Boa Esperança do Sul/SP,-21.9930206,-48.3917372,669,4454.65441
D1,Boa Esperança do Sul/SP,-21.9930206,-48.3917372,11,73.24544
1,Boa Esperança/ES,-18.5395472,-40.2904088,1010,6692.28730
D1,Boa Esperança/ES,-18.5395472,-40.2904088,32,212.03287
1,Boa Esperança/MG,-21.0901253,-45.5660195,2433,6049.37965
D1,Boa Esperança/MG,-21.0901253,-45.5660195,60,149.18322
1,Boa Esperança/PR,-24.2411024,-52.7860277,239,5905.60909
D1,Boa Esperança/PR,-24.2411024,-52.7860277,6,148.25797
1,Boa Hora/PI,-4.4094627,-42.1255341,443,6500.36684
D1,Boa Hora/PI,-4.4094627,-42.1255341,5,73.36757
1,Boa Nova/BA,-14.365907,-40.2063056,667,5410.00892
D1,Boa Nova/BA,-14.365907,-40.2063056,11,89.22054
1,Boa Ventura de São Roque/PR,-24.88177,-51.5441292,290,4556.16654
D1,Boa Ventura de São Roque/PR,-24.88177,-51.5441292,5,78.55460
1,Boa Ventura/PB,-7.4202462,-38.2156782,247,4654.23026
D1,Boa Ventura/PB,-7.4202462,-38.2156782,4,75.37215
1,Boa Viagem/CE,-5.1261877,-39.7300055,2386,4371.80497
D1,Boa Viagem/CE,-5.1261877,-39.7300055,59,108.10415
1,Boa Vista da Aparecida/PR,-25.4357216,-53.4067721,558,7400.53050
D1,Boa Vista da Aparecida/PR,-25.4357216,-53.4067721,17,225.46419
1,Boa Vista das Missões/RS,-27.6677983,-53.3127622,93,4445.50669
D1,Boa Vista das Missões/RS,-27.6677983,-53.3127622,2,95.60229
1,Boa Vista do Buricá/RS,-27.6687782,-54.1111913,562,8373.06317
D1,Boa Vista do Buricá/RS,-27.6687782,-54.1111913,8,119.18951
1,Boa Vista do Cadeado/RS,-28.5783827,-53.8123759,136,5510.53485
D1,Boa Vista do Cadeado/RS,-28.5783827,-53.8123759,2,81.03728
1,Boa Vista do Gurupi/MA,-1.7981168,-46.3071882,14,167.02458
D1,Boa Vista do Gurupi/MA,-1.7981168,-46.3071882,3,35.79098
1,Boa Vista do Incra/RS,-28.8195551,-53.3866624,156,5963.30275
D1,Boa Vista do Incra/RS,-28.8195551,-53.3866624,2,76.45260
1,Boa Vista do Ramos/AM,-2.9716927,-57.5869819,822,4188.32161
D1,Boa Vista do Ramos/AM,-2.9716927,-57.5869819,11,56.04810
1,Boa Vista do Sul/RS,-29.3510488,-51.6779679,247,8891.28870
D1,Boa Vista do Sul/RS,-29.3510488,-51.6779679,2,71.99424
1,Boa Vista do Tupim/BA,-12.6605988,-40.6083594,165,890.39987
D1,Boa Vista do Tupim/BA,-12.6605988,-40.6083594,4,21.58545
1,Boa Vista/PB,-7.2620711,-36.2415161,495,6936.65919
D1,Boa Vista/PB,-7.2620711,-36.2415161,7,98.09417
1,Boa Vista/RR,2.8208478,-60.6719582,70445,16786.52789
D1,Boa Vista/RR,2.8208478,-60.6719582,1089,259.50073
1,Boca da Mata/AL,-9.6452054,-36.2116658,1522,5563.67890
D1,Boca da Mata/AL,-9.6452054,-36.2116658,37,135.25369
1,Boca do Acre/AM,-8.7553487,-67.3930873,2442,7050.67129
D1,Boca do Acre/AM,-8.7553487,-67.3930873,22,63.51956
1,Bocaina de Minas/MG,-22.167778,-44.394722,111,2181.17508
D1,Bocaina de Minas/MG,-22.167778,-44.394722,2,39.30045
1,Bocaina do Sul/SC,-27.745494,-49.942279,350,10034.40367
D1,Bocaina do Sul/SC,-27.745494,-49.942279,3,86.00917
1,Bocaina/PI,-6.9445939,-41.3224599,218,4839.06770
D1,Bocaina/PI,-6.9445939,-41.3224599,3,66.59267
1,Bocaina/SP,-22.1421831,-48.522276,1076,8641.18214
D1,Bocaina/SP,-22.1421831,-48.522276,24,192.74012
1,Bocaiúva do Sul/PR,-25.206591,-49.114131,978,7449.15835
D1,Bocaiúva do Sul/PR,-25.206591,-49.114131,8,60.93381
1,Bocaiúva/MG,-17.1160208,-43.8122678,1621,3225.48551
D1,Bocaiúva/MG,-17.1160208,-43.8122678,36,71.63324
1,Bodocó/PE,-7.777592,-39.933797,1492,3887.64396
D1,Bodocó/PE,-7.777592,-39.933797,22,57.32451
1,Bodoquena/MS,-20.5508775,-56.6769653,241,3074.76397
D1,Bodoquena/MS,-20.5508775,-56.6769653,4,51.03343
1,Bodó/RN,-5.9866104,-36.4134824,95,4324.07829
1,Bofete/SP,-23.1019554,-48.2610535,500,4194.27900
D1,Bofete/SP,-23.1019554,-48.2610535,10,83.88558
1,Boituva/SP,-23.2838893,-47.6738231,3892,6260.25414
D1,Boituva/SP,-23.2838893,-47.6738231,81,130.28792
1,Bom Conselho/PE,-9.169191,-36.685683,1215,2491.43888
D1,Bom Conselho/PE,-9.169191,-36.685683,41,84.07325
1,Bom Despacho/MG,-19.7375242,-45.2517288,2587,5069.76562
D1,Bom Despacho/MG,-19.7375242,-45.2517288,57,111.70338
1,Bom Jardim da Serra/SC,-28.3380324,-49.625588,536,11232.18776
D1,Bom Jardim da Serra/SC,-28.3380324,-49.625588,3,62.86672
1,Bom Jardim de Goiás/GO,-16.2062659,-52.172793,551,6212.65081
D1,Bom Jardim de Goiás/GO,-16.2062659,-52.172793,11,124.02751
1,Bom Jardim de Minas/MG,-21.9476466,-44.1906033,255,3947.97956
D1,Bom Jardim de Minas/MG,-21.9476466,-44.1906033,1,15.48227
1,Bom Jardim/MA,-3.54129,-45.606004,1116,2668.45201
D1,Bom Jardim/MA,-3.54129,-45.606004,39,93.25236
1,Bom Jardim/PE,-7.7961572,-35.5871696,983,2458.54488
D1,Bom Jardim/PE,-7.7961572,-35.5871696,45,112.54783
1,Bom Jardim/RJ,-22.1515328,-42.4186683,891,3226.39050
D1,Bom Jardim/RJ,-22.1515328,-42.4186683,22,79.66396
1,Bom Jesus da Lapa/BA,-13.250571,-43.410754,2719,3903.13227
D1,Bom Jesus da Lapa/BA,-13.250571,-43.410754,38,54.54911
1,Bom Jesus da Penha/MG,-21.0165299,-46.5226644,278,6550.42413
D1,Bom Jesus da Penha/MG,-21.0165299,-46.5226644,8,188.50141
1,Bom Jesus da Serra/BA,-14.3724084,-40.5047119,400,4072.07574
D1,Bom Jesus da Serra/BA,-14.3724084,-40.5047119,7,71.26133
1,Bom Jesus das Selvas/MA,-4.4878075,-46.8526639,2309,6679.78129
D1,Bom Jesus das Selvas/MA,-4.4878075,-46.8526639,21,60.75158
1,Bom Jesus de Goiás/GO,-18.2174587,-49.739721,2276,8873.98628
D1,Bom Jesus de Goiás/GO,-18.2174587,-49.739721,85,331.40986
1,Bom Jesus do Amparo/MG,-19.7045132,-43.4752911,157,2559.92173
D1,Bom Jesus do Amparo/MG,-19.7045132,-43.4752911,5,81.52617
1,Bom Jesus do Araguaia/MT,-12.1725897,-51.5074425,697,10393.67730
D1,Bom Jesus do Araguaia/MT,-12.1725897,-51.5074425,13,193.85625
1,Bom Jesus do Galho/MG,-19.8283191,-42.3162256,489,3290.27049
D1,Bom Jesus do Galho/MG,-19.8283191,-42.3162256,17,114.38568
1,Bom Jesus do Itabapoana/RJ,-21.1341025,-41.680095,2476,6655.37725
D1,Bom Jesus do Itabapoana/RJ,-21.1341025,-41.680095,66,177.40505
1,Bom Jesus do Norte/ES,-21.1254776,-41.6711646,816,8191.12628
D1,Bom Jesus do Norte/ES,-21.1254776,-41.6711646,20,200.76290
1,Bom Jesus do Oeste/SC,-26.6929713,-53.0967453,119,5563.34736
D1,Bom Jesus do Oeste/SC,-26.6929713,-53.0967453,3,140.25245
1,Bom Jesus do Sul/PR,-26.1922507,-53.6002033,221,6303.47975
D1,Bom Jesus do Sul/PR,-26.1922507,-53.6002033,3,85.56760
1,Bom Jesus do Tocantins/PA,-5.0471796,-48.5978362,657,3838.06519
D1,Bom Jesus do Tocantins/PA,-5.0471796,-48.5978362,19,110.99428
1,Bom Jesus do Tocantins/TO,-8.96306,-48.165043,116,2316.29393
D1,Bom Jesus do Tocantins/TO,-8.96306,-48.165043,1,19.96805
1,Bom Jesus dos Perdões/SP,-23.1353864,-46.4648052,1384,5326.14970
D1,Bom Jesus dos Perdões/SP,-23.1353864,-46.4648052,21,80.81586
1,Bom Jesus/PB,-6.8156725,-38.6551841,108,4194.17476
D1,Bom Jesus/PB,-6.8156725,-38.6551841,3,116.50485
1,Bom Jesus/PI,-9.0711644,-44.3583926,2563,10095.71828
D1,Bom Jesus/PI,-9.0711644,-44.3583926,28,110.29267
1,Bom Jesus/RN,-5.9887544,-35.5821149,591,5756.30661
D1,Bom Jesus/RN,-5.9887544,-35.5821149,11,107.13938
1,Bom Jesus/RS,-28.6692723,-50.4346894,533,4713.06039
D1,Bom Jesus/RS,-28.6692723,-50.4346894,13,114.95269
1,Bom Jesus/SC,-26.7350604,-52.3916519,317,10369.64344
D1,Bom Jesus/SC,-26.7350604,-52.3916519,6,196.27085
1,Bom Lugar/MA,-4.3728019,-45.0366054,384,2336.05061
D1,Bom Lugar/MA,-4.3728019,-45.0366054,7,42.58426
1,Bom Princípio do Piauí/PI,-3.1912777,-41.6430185,100,1769.59830
D1,Bom Princípio do Piauí/PI,-3.1912777,-41.6430185,9,159.26385
1,Bom Princípio/RS,-29.489788,-51.3566782,1281,8986.32059
D1,Bom Princípio/RS,-29.489788,-51.3566782,23,161.34690
1,Bom Progresso/RS,-27.5490948,-53.8655601,101,5318.58873
D1,Bom Progresso/RS,-27.5490948,-53.8655601,1,52.65929
1,Bom Repouso/MG,-22.4657069,-46.1485376,452,4289.64601
D1,Bom Repouso/MG,-22.4657069,-46.1485376,12,113.88441
1,Bom Retiro do Sul/RS,-29.6000007,-51.9359243,881,7110.57304
D1,Bom Retiro do Sul/RS,-29.6000007,-51.9359243,21,169.49153
1,Bom Retiro/SC,-27.798993,-49.486994,570,5666.00398
D1,Bom Retiro/SC,-27.798993,-49.486994,13,129.22465
1,Bom Sucesso de Itararé/SP,-24.3190016,-49.1446207,111,2786.14458
D1,Bom Sucesso de Itararé/SP,-24.3190016,-49.1446207,5,125.50201
1,Bom Sucesso do Sul/PR,-26.0749256,-52.8348629,268,8236.01721
D1,Bom Sucesso do Sul/PR,-26.0749256,-52.8348629,5,153.65704
1,Bom Sucesso/MG,-21.0323516,-44.7598082,380,2158.23252
D1,Bom Sucesso/MG,-21.0323516,-44.7598082,4,22.71824
1,Bom Sucesso/PB,-6.4458948,-37.9297662,165,3329.29782
D1,Bom Sucesso/PB,-6.4458948,-37.9297662,2,40.35513
1,Bom Sucesso/PR,-23.7088019,-51.7651297,559,7908.88512
D1,Bom Sucesso/PR,-23.7088019,-51.7651297,11,155.63101
1,Bombinhas/SC,-27.1519159,-48.4875691,3180,15638.06245
D1,Bombinhas/SC,-27.1519159,-48.4875691,45,221.29334
1,Bonfim do Piauí/PI,-9.1648678,-42.8734415,233,4098.50484
D1,Bonfim do Piauí/PI,-9.1648678,-42.8734415,5,87.95075
1,Bonfim/MG,-20.3266626, -44.2386157,312,4548.10496
D1,Bonfim/MG,-20.3266626, -44.2386157,10,145.77259
1,Bonfim/RR,3.3613818,-59.8427241,1985,15807.91590
D1,Bonfim/RR,3.3613818,-59.8427241,24,191.12845
1,Bonfinópolis de Minas/MG,-16.5660011,-45.98645,340,6245.40779
D1,Bonfinópolis de Minas/MG,-16.5660011,-45.98645,10,183.68846
1,Bonfinópolis/GO,-16.6172709,-48.9615701,427,4304.86944
D1,Bonfinópolis/GO,-16.6172709,-48.9615701,15,151.22492
1,Boninal/BA,-12.7095183,-41.8299984,559,3869.58328
D1,Boninal/BA,-12.7095183,-41.8299984,7,48.45632
1,Bonito de Minas/MG,-15.3191266,-44.7544,43,378.22148
1,Bonito de Santa Fé/PB,-7.3143332,-38.5146677,369,3069.37282
D1,Bonito de Santa Fé/PB,-7.3143332,-38.5146677,11,91.49892
1,Bonito/BA,-11.9665473,-41.2649896,602,3565.50580
D1,Bonito/BA,-11.9665473,-41.2649896,6,35.53660
1,Bonito/MS,-21.1264766,-56.4902208,2034,9166.29112
D1,Bonito/MS,-21.1264766,-56.4902208,39,175.75484
1,Bonito/PA,-1.3605722,-47.3049907,345,2087.11434
D1,Bonito/PA,-1.3605722,-47.3049907,12,72.59528
1,Bonito/PE,-8.4721161,-35.7314591,576,1511.13676
D1,Bonito/PE,-8.4721161,-35.7314591,31,81.32854
1,Bonópolis/GO,-13.649331,-49.8329113,116,2581.79390
D1,Bonópolis/GO,-13.649331,-49.8329113,1,22.25684
1,Boqueirão do Leão/RS,-29.30332,-52.4296817,543,7050.11685
D1,Boqueirão do Leão/RS,-29.30332,-52.4296817,28,363.54194
1,Boqueirão do Piauí/PI,-4.4850148,-42.1095161,433,6738.25086
D1,Boqueirão do Piauí/PI,-4.4850148,-42.1095161,7,108.93246
1,Boqueirão/PB,-7.487004,-36.130887,1201,6720.76105
D1,Boqueirão/PB,-7.487004,-36.130887,22,123.11136
1,Boquim/SE,-11.1450175,-37.6204228,1562,5806.90732
D1,Boquim/SE,-11.1450175,-37.6204228,34,126.39875
1,Boquira/BA,-12.8184859,-42.7270883,430,2000.27911
D1,Boquira/BA,-12.8184859,-42.7270883,7,32.56268
1,Boracéia/SP,-22.195355,-48.7801925,729,14975.34922
D1,Boracéia/SP,-22.195355,-48.7801925,16,328.67707
1,Borba/AM,-4.3934778,-59.5947721,1633,3911.56463
D1,Borba/AM,-4.3934778,-59.5947721,50,119.76622
1,Borborema/PB,-6.8066718,-35.5990191,188,3555.89181
D1,Borborema/PB,-6.8066718,-35.5990191,3,56.74295
1,Borborema/SP,-21.6212706,-49.074135,840,5196.73348
D1,Borborema/SP,-21.6212706,-49.074135,26,160.85127
1,Borda da Mata/MG,-22.274167,-46.165278,990,5047.41511
D1,Borda da Mata/MG,-22.274167,-46.165278,28,142.75517
1,Borebi/SP,-22.5700178,-48.9714871,123,4584.42042
D1,Borebi/SP,-22.5700178,-48.9714871,2,74.54342
1,Borrazópolis/PR,-23.9393362,-51.5850786,476,7392.45224
D1,Borrazópolis/PR,-23.9393362,-51.5850786,13,201.89470
1,Borá/SP,-22.2701088,-50.544407,43,5131.26492
1,Bossoroca/RS,-28.7278885,-54.9120278,321,5173.24738
D1,Bossoroca/RS,-28.7278885,-54.9120278,18,290.08864
1,Botelhos/MG,-21.65,-46.394722,1038,6943.60827
D1,Botelhos/MG,-21.65,-46.394722,7,46.82587
1,Botucatu/SP,-22.8879628,-48.4410712,10669,7202.45730
D1,Botucatu/SP,-22.8879628,-48.4410712,177,119.48964
1,Botumirim/MG,-16.862778,-43.011111,156,2480.91603
D1,Botumirim/MG,-16.862778,-43.011111,2,31.80662
1,Botuporã/BA,-13.3744752,-42.5198469,177,1747.45779
D1,Botuporã/BA,-13.3744752,-42.5198469,3,29.61793
1,Botuverá/SC,-27.200749,-49.068892,786,14768.88388
D1,Botuverá/SC,-27.200749,-49.068892,8,150.31943
1,Bozano/RS,-28.3669953,-53.7705165,195,9237.32828
D1,Bozano/RS,-28.3669953,-53.7705165,7,331.59640
1,Braga/RS,-27.617348,-53.740514,125,3775.29447
D1,Braga/RS,-27.617348,-53.740514,4,120.80942
1,Braganey/PR,-24.8179919,-53.118506,286,5314.00966
D1,Braganey/PR,-24.8179919,-53.118506,7,130.06317
1,Bragança Paulista/SP,-22.9520235,-46.5418586,10533,6176.51716
D1,Bragança Paulista/SP,-22.9520235,-46.5418586,256,150.11757
1,Bragança/PA,-1.0573967,-46.7635406,3334,2586.22027
D1,Bragança/PA,-1.0573967,-46.7635406,109,84.55249
1,Branquinha/AL,-9.2478057,-36.0152009,430,4110.89866
D1,Branquinha/AL,-9.2478057,-36.0152009,9,86.04207
1,Brasil Novo/PA,-3.3055853,-52.539198,1262,8422.87926
D1,Brasil Novo/PA,-3.3055853,-52.539198,24,160.18154
1,Brasileira/PI,-4.131182,-41.7824969,422,5055.70864
D1,Brasileira/PI,-4.131182,-41.7824969,8,95.84282
1,Brasilândia de Minas/MG,-17.0096469,-46.0087183,824,4919.99045
D1,Brasilândia de Minas/MG,-17.0096469,-46.0087183,9,53.73776
1,Brasilândia do Sul/PR,-24.1975793,-53.527551,299,11566.73114
D1,Brasilândia do Sul/PR,-24.1975793,-53.527551,7,270.79304
1,Brasilândia do Tocantins/TO,-8.3886619,-48.4842729,120,5427.40841
D1,Brasilândia do Tocantins/TO,-8.3886619,-48.4842729,2,90.45681
1,Brasilândia/MS,-21.255575,-52.0365617,611,5154.81313
D1,Brasilândia/MS,-21.255575,-52.0365617,11,92.80351
1,Brasiléia/AC,-11.0010413,-68.7487894,2274,8516.21601
D1,Brasiléia/AC,-11.0010413,-68.7487894,31,116.09617
1,Brasnorte/MT,-12.1227151,-58.0050109,1585,7869.91063
D1,Brasnorte/MT,-12.1227151,-58.0050109,22,109.23535
1,Brasília de Minas/MG,-16.2075114,-44.430559,754,2326.80142
D1,Brasília de Minas/MG,-16.2075114,-44.430559,5,15.42972
1,Brasília/DF,-15.7934036,-47.8823172,364452,11929.10722
D1,Brasília/DF,-15.7934036,-47.8823172,7125,233.21285
1,Brazabrantes/GO,-16.4291635,-49.3858216,335,8942.87240
D1,Brazabrantes/GO,-16.4291635,-49.3858216,3,80.08542
1,Brazópolis/MG,-22.4742842,-45.6165577,588,4080.49965
D1,Brazópolis/MG,-22.4742842,-45.6165577,23,159.61138
1,Braço do Norte/SC,-28.2728633,-49.1622712,6744,19907.89940
D1,Braço do Norte/SC,-28.2728633,-49.1622712,66,194.82820
1,Braço do Trombudo/SC,-27.358578,-49.882145,513,13611.03741
D1,Braço do Trombudo/SC,-27.358578,-49.882145,4,106.12895
1,Braúna/SP,-21.5015319,-50.3175246,338,5887.47605
D1,Braúna/SP,-21.5015319,-50.3175246,14,243.85995
1,Braúnas/MG,-19.055556,-42.716111,165,3459.84483
D1,Braúnas/MG,-19.055556,-42.716111,6,125.81254
1,Brejetuba/ES,-20.1465817,-41.2902303,1360,10943.91245
D1,Brejetuba/ES,-20.1465817,-41.2902303,12,96.56393
1,Brejinho de Nazaré/TO,-11.0205883,-48.5722906,337,6106.17866
D1,Brejinho de Nazaré/TO,-11.0205883,-48.5722906,7,126.83457
1,Brejinho/PE,-7.3482153,-37.28538,466,6223.29060
D1,Brejinho/PE,-7.3482153,-37.28538,9,120.19231
1,Brejinho/RN,-6.1957907,-35.3583019,767,5998.27950
D1,Brejinho/RN,-6.1957907,-35.3583019,8,62.56354
1,Brejo Alegre/SP,-21.1671191,-50.1850393,259,8965.03981
D1,Brejo Alegre/SP,-21.1671191,-50.1850393,10,346.14053
1,Brejo Grande do Araguaia/PA,-5.7011449,-48.4037308,726,9853.42020
D1,Brejo Grande do Araguaia/PA,-5.7011449,-48.4037308,4,54.28882
1,Brejo Grande/SE,-10.4287358,-36.4667918,287,3435.89130
D1,Brejo Grande/SE,-10.4287358,-36.4667918,11,131.68921
1,Brejo Santo/CE,-7.4909841,-38.9859152,6021,12080.17335
D1,Brejo Santo/CE,-7.4909841,-38.9859152,92,184.58328
1,Brejo da Madre de Deus/PE,-8.1409718,-36.3712527,1617,3156.66179
D1,Brejo da Madre de Deus/PE,-8.1409718,-36.3712527,43,83.94339
1,Brejo de Areia/MA,-4.3316785,-45.5833334,281,3117.37298
D1,Brejo de Areia/MA,-4.3316785,-45.5833334,8,88.75083
1,Brejo do Cruz/PB,-6.32926065,-37.48746163303929,1231,8665.35267
D1,Brejo do Cruz/PB,-6.32926065,-37.48746163303929,19,133.74630
1,Brejo do Piauí/PI,-8.207583,-42.8359849,59,1533.26403
D1,Brejo do Piauí/PI,-8.207583,-42.8359849,3,77.96258
1,Brejo dos Santos/PB,-6.3769367,-37.8243125,332,5136.13861
D1,Brejo dos Santos/PB,-6.3769367,-37.8243125,4,61.88119
1,Brejo/MA,-3.6804397,-42.7529313,767,2092.71234
D1,Brejo/MA,-3.6804397,-42.7529313,18,49.11189
1,Brejolândia/BA,-12.4843845,-43.9611861,129,1214.91806
D1,Brejolândia/BA,-12.4843845,-43.9611861,8,75.34376
1,Brejão/PE,-9.029146,-36.566034,160,1780.34939
D1,Brejão/PE,-9.029146,-36.566034,5,55.63592
1,Brejões/BA,-13.1033754,-39.7909837,517,3635.21305
D1,Brejões/BA,-13.1033754,-39.7909837,8,56.25088
1,Breu Branco/PA,-3.7785073,-49.5684795,549,815.36268
D1,Breu Branco/PA,-3.7785073,-49.5684795,31,46.04052
1,Breves/PA,-1.68036,-50.479085,3710,3584.64497
D1,Breves/PA,-1.68036,-50.479085,103,99.51979
1,Britânia/GO,-15.2427599,-51.1602061,419,7227.87649
D1,Britânia/GO,-15.2427599,-51.1602061,3,51.75091
1,Brochier/RS,-29.556766,-51.5963047,334,6543.88715
D1,Brochier/RS,-29.556766,-51.5963047,1,19.59248
1,Brodowski/SP,-20.984532,-47.657217,1636,6472.28706
D1,Brodowski/SP,-20.984532,-47.657217,43,170.11512
1,Brotas de Macaúbas/BA,-12.0019007,-42.6257506,57,562.68509
D1,Brotas de Macaúbas/BA,-12.0019007,-42.6257506,1,9.87167
1,Brotas/SP,-22.2840884,-48.1267265,381,1546.51729
D1,Brotas/SP,-22.2840884,-48.1267265,21,85.24111
1,Brumadinho/MG,-20.143611,-44.2,2646,6506.66404
D1,Brumadinho/MG,-20.143611,-44.2,49,120.49378
1,Brumado/BA,-14.29507325,-41.659307508575985,7662,11378.92626
D1,Brumado/BA,-14.29507325,-41.659307508575985,139,206.43053
1,Brunópolis/SC,-27.310953,-50.837585,160,6756.75676
D1,Brunópolis/SC,-27.310953,-50.837585,4,168.91892
1,Brusque/SC,-27.0964628,-48.9136323,21315,15480.53948
D1,Brusque/SC,-27.0964628,-48.9136323,212,153.97018
1,Brás Pires/MG,-20.8483109,-43.2430524,147,3424.17890
D1,Brás Pires/MG,-20.8483109,-43.2430524,5,116.46867
1,Bueno Brandão/MG,-22.441976,-46.3517971,510,4640.16013
D1,Bueno Brandão/MG,-22.441976,-46.3517971,16,145.57365
1,Buenos Aires/PE,-7.7218931,-35.326587,179,1357.08870
D1,Buenos Aires/PE,-7.7218931,-35.326587,17,128.88552
1,Buenópolis/MG,-17.8756607,-44.1749365,260,2511.34937
D1,Buenópolis/MG,-17.8756607,-44.1749365,7,67.61325
1,Buerarema/BA,-14.9571177,-39.3008035,1204,6577.07855
D1,Buerarema/BA,-14.9571177,-39.3008035,36,196.65683
1,Bugre/MG,-19.4257687,-42.2556,342,8586.49259
D1,Bugre/MG,-19.4257687,-42.2556,10,251.06703
1,Bujari/AC,-9.8309656,-67.9520886,1030,9884.83685
D1,Bujari/AC,-9.8309656,-67.9520886,12,115.16315
1,Bujaru/PA,-1.5169239,-48.0410699,1213,4122.06477
D1,Bujaru/PA,-1.5169239,-48.0410699,31,105.34543
1,Buri/SP,-23.79849,-48.598924,1885,9441.52266
D1,Buri/SP,-23.79849,-48.598924,39,195.34185
1,Buritama/SP,-21.0664017,-50.1448077,1679,9715.87292
D1,Buritama/SP,-21.0664017,-50.1448077,46,266.18830
1,Buriti Alegre/GO,-18.1377879,-49.0404411,735,7749.89456
D1,Buriti Alegre/GO,-18.1377879,-49.0404411,26,274.14593
1,Buriti Bravo/MA,-5.8391884,-43.8367876,1140,4762.10368
D1,Buriti Bravo/MA,-5.8391884,-43.8367876,11,45.95012
1,Buriti de Goiás/GO,-16.180644,-50.4287479,171,6906.30048
D1,Buriti de Goiás/GO,-16.180644,-50.4287479,5,201.93861
1,Buriti do Tocantins/TO,-5.3187439,-48.2256609,592,5149.16935
D1,Buriti do Tocantins/TO,-5.3187439,-48.2256609,5,43.48961
1,Buriti dos Lopes/PI,-3.1776723,-41.8707444,1102,5563.68960
D1,Buriti dos Lopes/PI,-3.1776723,-41.8707444,22,111.07184
1,Buriti dos Montes/PI,-5.3136171,-41.0971256,494,5977.73475
D1,Buriti dos Montes/PI,-5.3136171,-41.0971256,6,72.60407
1,Buriti/MA,-3.9430944,-42.9244281,743,2580.04028
D1,Buriti/MA,-3.9430944,-42.9244281,7,24.30724
1,Buriticupu/MA,-4.3227472,-46.4516989,2857,3914.61025
D1,Buriticupu/MA,-4.3227472,-46.4516989,35,47.95637
1,Buritinópolis/GO,-14.4589282,-46.4293104,138,4203.47243
D1,Buritinópolis/GO,-14.4589282,-46.4293104,1,30.45995
1,Buritirama/BA,-10.7148421,-43.6362327,706,3318.29291
D1,Buritirama/BA,-10.7148421,-43.6362327,15,70.50197
1,Buritirana/MA,-5.5897455,-47.0148915,281,1816.77119
D1,Buritirana/MA,-5.5897455,-47.0148915,22,142.23831
1,Buritis/MG,-15.621389,-46.423889,1167,4665.57390
D1,Buritis/MG,-15.621389,-46.423889,19,75.96050
1,Buritis/RO,-10.2054937,-63.8281954,4039,10008.42502
D1,Buritis/RO,-10.2054937,-63.8281954,55,136.28705
1,Buritizal/SP,-20.1933264,-47.7097165,188,4164.82056
D1,Buritizal/SP,-20.1933264,-47.7097165,5,110.76650
1,Buritizeiro/MG,-17.3667765,-44.9647781,828,2944.41876
D1,Buritizeiro/MG,-17.3667765,-44.9647781,22,78.23335
1,Butiá/RS,-30.1256795,-51.9692224,1431,6829.89691
D1,Butiá/RS,-30.1256795,-51.9692224,45,214.77663
1,Buíque/PE,-8.6239732,-37.157296,1671,2836.09701
D1,Buíque/PE,-8.6239732,-37.157296,32,54.31185
1,Bálsamo/SP,-20.7343722,-49.5807484,1189,13010.17617
D1,Bálsamo/SP,-20.7343722,-49.5807484,45,492.39523
0,CASO SEM LOCALIZAÇÃO DEFINIDA/AC,-9.884083190922777,-67.85119819780795,383,43.42724
D0,CASO SEM LOCALIZAÇÃO DEFINIDA/AC,-9.884083190922777,-67.85119819780795,12,1.36064
0,CASO SEM LOCALIZAÇÃO DEFINIDA/AL,-9.931093434363673,-35.609611600637464,599,17.94833
D0,CASO SEM LOCALIZAÇÃO DEFINIDA/AL,-9.931093434363673,-35.609611600637464,25,0.74910
0,CASO SEM LOCALIZAÇÃO DEFINIDA/AM,-3.07518492149711,-60.16169212873594,773,18.65079
D0,CASO SEM LOCALIZAÇÃO DEFINIDA/AM,-3.07518492149711,-60.16169212873594,15,0.36192
0,CASO SEM LOCALIZAÇÃO DEFINIDA/AP,2.677150600275196,-50.477785111870624,305,36.06348
D0,CASO SEM LOCALIZAÇÃO DEFINIDA/AP,2.677150600275196,-50.477785111870624,10,1.18241
0,CASO SEM LOCALIZAÇÃO DEFINIDA/BA,-13.415069300066518,-38.14174656569957,13297,89.40323
D0,CASO SEM LOCALIZAÇÃO DEFINIDA/BA,-13.415069300066518,-38.14174656569957,281,1.88932
0,CASO SEM LOCALIZAÇÃO DEFINIDA/CE,-3.3445126297392798,-38.624961942434304,20399,223.37742
D0,CASO SEM LOCALIZAÇÃO DEFINIDA/CE,-3.3445126297392798,-38.624961942434304,425,4.65392
0,CASO SEM LOCALIZAÇÃO DEFINIDA/ES,-20.30989267097039,-39.81745156645774,5649,140.56959
D0,CASO SEM LOCALIZAÇÃO DEFINIDA/ES,-20.30989267097039,-39.81745156645774,230,5.72332
0,CASO SEM LOCALIZAÇÃO DEFINIDA/GO,-16.701590966270153,-49.164524059025034,2580,36.76076
D0,CASO SEM LOCALIZAÇÃO DEFINIDA/GO,-16.701590966270153,-49.164524059025034,106,1.51033
0,CASO SEM LOCALIZAÇÃO DEFINIDA/MA,-2.171256551718846,-43.98946796681719,1341,18.95358
D0,CASO SEM LOCALIZAÇÃO DEFINIDA/MA,-2.171256551718846,-43.98946796681719,46,0.65016
0,CASO SEM LOCALIZAÇÃO DEFINIDA/MG,-19.97049116501593,-43.8852149072783,13473,63.64558
D0,CASO SEM LOCALIZAÇÃO DEFINIDA/MG,-19.97049116501593,-43.8852149072783,656,3.09890
0,CASO SEM LOCALIZAÇÃO DEFINIDA/MS,-20.391549234908513,-54.645156949758444,1062,38.21538
D0,CASO SEM LOCALIZAÇÃO DEFINIDA/MS,-20.391549234908513,-54.645156949758444,44,1.58331
0,CASO SEM LOCALIZAÇÃO DEFINIDA/MT,-15.54791153961863,-56.17143998972475,2154,61.81722
D0,CASO SEM LOCALIZAÇÃO DEFINIDA/MT,-15.54791153961863,-56.17143998972475,151,4.33352
0,CASO SEM LOCALIZAÇÃO DEFINIDA/PA,-0.09317078214359542,-48.0050231510481,2392,27.80469
D0,CASO SEM LOCALIZAÇÃO DEFINIDA/PA,-0.09317078214359542,-48.0050231510481,80,0.92992
0,CASO SEM LOCALIZAÇÃO DEFINIDA/PB,-7.1049355696146606,-34.68696690234351,1124,27.97323
D0,CASO SEM LOCALIZAÇÃO DEFINIDA/PB,-7.1049355696146606,-34.68696690234351,41,1.02038
0,CASO SEM LOCALIZAÇÃO DEFINIDA/PE,-8.121628543819208,-34.57313921302556,1869,19.55620
D0,CASO SEM LOCALIZAÇÃO DEFINIDA/PE,-8.121628543819208,-34.57313921302556,51,0.53364
0,CASO SEM LOCALIZAÇÃO DEFINIDA/PI,-2.683810218391744,-41.470898009352254,1539,47.01782
D0,CASO SEM LOCALIZAÇÃO DEFINIDA/PI,-2.683810218391744,-41.470898009352254,34,1.03873
0,CASO SEM LOCALIZAÇÃO DEFINIDA/PR,-25.69415946385943,-48.10141676336737,11219,98.12001
D0,CASO SEM LOCALIZAÇÃO DEFINIDA/PR,-25.69415946385943,-48.10141676336737,322,2.81617
0,CASO SEM LOCALIZAÇÃO DEFINIDA/RJ,-23.210238986465157,-43.12864305824042,4717,27.32126
D0,CASO SEM LOCALIZAÇÃO DEFINIDA/RJ,-23.210238986465157,-43.12864305824042,287,1.66233
0,CASO SEM LOCALIZAÇÃO DEFINIDA/RN,-5.749310788669161,-34.95302586257457,1743,49.70268
D0,CASO SEM LOCALIZAÇÃO DEFINIDA/RN,-5.749310788669161,-34.95302586257457,39,1.11211
0,CASO SEM LOCALIZAÇÃO DEFINIDA/RO,-8.681174926655274,-63.9216949899276,1452,81.70040
D0,CASO SEM LOCALIZAÇÃO DEFINIDA/RO,-8.681174926655274,-63.9216949899276,33,1.85683
0,CASO SEM LOCALIZAÇÃO DEFINIDA/RR,2.813328208465927,-60.663338675861986,2866,473.12389
D0,CASO SEM LOCALIZAÇÃO DEFINIDA/RR,2.813328208465927,-60.663338675861986,27,4.45720
0,CASO SEM LOCALIZAÇÃO DEFINIDA/RS,-30.50647488532064,-49.906261466443524,5036,44.26381
D0,CASO SEM LOCALIZAÇÃO DEFINIDA/RS,-30.50647488532064,-49.906261466443524,179,1.57332
0,CASO SEM LOCALIZAÇÃO DEFINIDA/SC,-27.675643660562308,-48.18313219398259,3678,51.33439
D0,CASO SEM LOCALIZAÇÃO DEFINIDA/SC,-27.675643660562308,-48.18313219398259,71,0.99096
0,CASO SEM LOCALIZAÇÃO DEFINIDA/SE,-11.03002091978736,-36.89283180376513,1003,43.63343
D0,CASO SEM LOCALIZAÇÃO DEFINIDA/SE,-11.03002091978736,-36.89283180376513,27,1.17458
0,CASO SEM LOCALIZAÇÃO DEFINIDA/SP,-24.30968974555485,-46.21366504207253,18458,40.19683
D0,CASO SEM LOCALIZAÇÃO DEFINIDA/SP,-24.30968974555485,-46.21366504207253,791,1.72260
0,CASO SEM LOCALIZAÇÃO DEFINIDA/TO,-10.213012114749148,-48.40023803990334,666,42.34309
D0,CASO SEM LOCALIZAÇÃO DEFINIDA/TO,-10.213012114749148,-48.40023803990334,21,1.33514
1,Caapiranga/AM,-3.3188884,-61.2096404,546,4110.51720
D1,Caapiranga/AM,-3.3188884,-61.2096404,20,150.56840
1,Caaporã/PB,-7.510234,-34.9154114,1458,6640.85630
D1,Caaporã/PB,-7.510234,-34.9154114,25,113.86928
1,Caarapó/MS,-22.6349267,-54.8240903,2522,8243.71588
D1,Caarapó/MS,-22.6349267,-54.8240903,23,75.18060
1,Caatiba/BA,-14.9782759,-40.4092325,638,9833.53884
D1,Caatiba/BA,-14.9782759,-40.4092325,6,92.47842
1,Cabaceiras do Paraguaçu/BA,-12.5377868,-39.1901339,399,2109.88314
D1,Cabaceiras do Paraguaçu/BA,-12.5377868,-39.1901339,4,21.15171
1,Cabaceiras/PB,-7.4899156,-36.2860501,298,5264.08762
D1,Cabaceiras/PB,-7.4899156,-36.2860501,1,17.66472
1,Cabeceira Grande/MG,-16.0297,-47.0906,240,3434.45907
D1,Cabeceira Grande/MG,-16.0297,-47.0906,4,57.24098
1,Cabeceiras do Piauí/PI,-4.4733665,-42.3098716,406,3819.37912
D1,Cabeceiras do Piauí/PI,-4.4733665,-42.3098716,9,84.66604
1,Cabeceiras/GO,-15.7995459,-46.9264991,243,3020.13423
D1,Cabeceiras/GO,-15.7995459,-46.9264991,9,111.85682
1,Cabedelo/PB,-6.97324,-34.8351609,7007,10189.48042
D1,Cabedelo/PB,-6.97324,-34.8351609,156,226.85300
1,Cabixi/RO,-13.4956065,-60.5424442,609,11738.62760
D1,Cabixi/RO,-13.4956065,-60.5424442,13,250.57826
1,Cabo Frio/RJ,-22.8804369,-42.0189227,9304,4038.58007
D1,Cabo Frio/RJ,-22.8804369,-42.0189227,432,187.51791
1,Cabo Verde/MG,-21.4743338,-46.3964995,317,2252.22025
D1,Cabo Verde/MG,-21.4743338,-46.3964995,5,35.52398
1,Cabo de Santo Agostinho/PE,-8.2838945,-35.0320984,4065,1945.49736
D1,Cabo de Santo Agostinho/PE,-8.2838945,-35.0320984,371,177.55954
1,Cabreúva/SP,-23.3075813,-47.1324417,2858,5667.37393
D1,Cabreúva/SP,-23.3075813,-47.1324417,63,124.92812
1,Cabrobó/PE,-8.5083701,-39.3106961,1341,3886.61855
D1,Cabrobó/PE,-8.5083701,-39.3106961,15,43.47448
1,Cabrália Paulista/SP,-22.4562909,-49.3385645,208,4902.19185
D1,Cabrália Paulista/SP,-22.4562909,-49.3385645,2,47.13646
1,Cacaulândia/RO,-10.3380043,-62.9007231,696,11102.24916
D1,Cacaulândia/RO,-10.3380043,-62.9007231,8,127.61206
1,Cacequi/RS,-29.8838059,-54.8273443,156,1255.73533
D1,Cacequi/RS,-29.8838059,-54.8273443,4,32.19834
1,Cachoeira Alta/GO,-18.7618269,-50.9432431,1072,8463.60335
D1,Cachoeira Alta/GO,-18.7618269,-50.9432431,14,110.53213
1,Cachoeira Dourada/GO,-18.4934204,-49.481062,370,4607.14730
D1,Cachoeira Dourada/GO,-18.4934204,-49.481062,11,136.96924
1,Cachoeira Dourada/MG,-18.517136,-49.5002062,123,4545.45455
D1,Cachoeira Dourada/MG,-18.517136,-49.5002062,2,73.90983
1,Cachoeira Grande/MA,-2.9290492,-44.0573223,210,2215.65731
D1,Cachoeira Grande/MA,-2.9290492,-44.0573223,5,52.75375
1,Cachoeira Paulista/SP,-22.666498,-45.015384,1717,5113.01033
D1,Cachoeira Paulista/SP,-22.666498,-45.015384,28,83.38048
1,Cachoeira da Prata/MG,-19.524723,-44.453056,204,5680.86884
D1,Cachoeira da Prata/MG,-19.524723,-44.453056,3,83.54219
1,Cachoeira de Goiás/GO,-16.6688414,-50.6435997,50,3725.78241
1,Cachoeira de Minas/MG,-22.3554043,-45.7796324,481,4154.07203
D1,Cachoeira de Minas/MG,-22.3554043,-45.7796324,6,51.81795
1,Cachoeira de Pajeú/MG,-15.965833,-41.496666,293,3103.15611
D1,Cachoeira de Pajeú/MG,-15.965833,-41.496666,7,74.13684
1,Cachoeira do Arari/PA,-1.0143572,-48.9621089,352,1462.76596
D1,Cachoeira do Arari/PA,-1.0143572,-48.9621089,15,62.33378
1,Cachoeira do Piriá/PA,-1.7599443,-46.5446954,676,1953.24915
D1,Cachoeira do Piriá/PA,-1.7599443,-46.5446954,3,8.66827
1,Cachoeira do Sul/RS,-30.0474778,-52.8905413,5720,6986.77155
D1,Cachoeira do Sul/RS,-30.0474778,-52.8905413,86,105.04587
1,Cachoeira dos Índios/PB,-6.9259193,-38.6742159,522,5065.50218
D1,Cachoeira dos Índios/PB,-6.9259193,-38.6742159,13,126.15235
1,Cachoeira/BA,-12.5998256,-38.9665918,1136,3384.27622
D1,Cachoeira/BA,-12.5998256,-38.9665918,17,50.64498
1,Cachoeiras de Macacu/RJ,-22.4626861,-42.6534414,2235,3768.78067
D1,Cachoeiras de Macacu/RJ,-22.4626861,-42.6534414,72,121.41038
1,Cachoeirinha/PE,-8.4906364,-36.2338963,369,1799.91220
D1,Cachoeirinha/PE,-8.4906364,-36.2338963,22,107.31184
1,Cachoeirinha/RS,-29.9493353,-51.0898927,10590,8069.18622
D1,Cachoeirinha/RS,-29.9493353,-51.0898927,324,246.87595
1,Cachoeirinha/TO,-6.118647,-47.9208885,116,5078.80911
D1,Cachoeirinha/TO,-6.118647,-47.9208885,2,87.56567
1,Cachoeiro de Itapemirim/ES,-20.848084,-41.11129,21080,10010.01952
D1,Cachoeiro de Itapemirim/ES,-20.848084,-41.11129,417,198.01604
1,Cacimba de Areia/PB,-7.1288513,-37.1575194,27,730.71719
D1,Cacimba de Areia/PB,-7.1288513,-37.1575194,1,27.06360
1,Cacimba de Dentro/PB,-6.6425101,-35.7929304,831,4837.58295
D1,Cacimba de Dentro/PB,-6.6425101,-35.7929304,22,128.07079
1,Cacimbas/PB,-7.2125451,-37.0593398,191,2653.14627
D1,Cacimbas/PB,-7.2125451,-37.0593398,6,83.34491
1,Cacimbinhas/AL,-9.401212,-36.991082,489,4490.77050
D1,Cacimbinhas/AL,-9.401212,-36.991082,6,55.10148
1,Cacique Doble/RS,-27.7700117,-51.6616409,314,6188.41151
D1,Cacique Doble/RS,-27.7700117,-51.6616409,5,98.54158
1,Cacoal/RO,-11.4333,-61.4420502,10411,12120.89460
D1,Cacoal/RO,-11.4333,-61.4420502,178,207.23458
1,Caconde/SP,-21.527995,-46.643659,885,4655.68941
D1,Caconde/SP,-21.527995,-46.643659,10,52.60666
1,Caculé/BA,-14.4990734,-42.2233006,1215,5216.60727
D1,Caculé/BA,-14.4990734,-42.2233006,11,47.22854
1,Caetanos/BA,-14.3387456,-40.9085971,508,3477.54655
D1,Caetanos/BA,-14.3387456,-40.9085971,7,47.91895
1,Caetanópolis/MG,-19.2947496,-44.4138386,703,5983.48796
D1,Caetanópolis/MG,-19.2947496,-44.4138386,7,59.57954
1,Caetité/BA,-14.0691776,-42.4852428,1807,3537.51884
D1,Caetité/BA,-14.0691776,-42.4852428,13,25.44978
1,Caeté/MG,-19.897777,-43.670278,1359,3016.84907
D1,Caeté/MG,-19.897777,-43.670278,37,82.13644
1,Caetés/PE,-8.7728788,-36.6255835,1033,3573.89981
D1,Caetés/PE,-8.7728788,-36.6255835,13,44.97647
1,Cafarnaum/BA,-11.691399,-41.468823,740,3997.19116
D1,Cafarnaum/BA,-11.691399,-41.468823,15,81.02415
1,Cafeara/PR,-22.78905,-51.714195,213,7210.56195
D1,Cafeara/PR,-22.78905,-51.714195,6,203.11442
1,Cafelândia/PR,-24.6176963,-53.3218057,1299,7038.36151
D1,Cafelândia/PR,-24.6176963,-53.3218057,9,48.76463
1,Cafelândia/SP,-21.8054355,-49.6030627,630,3530.79639
D1,Cafelândia/SP,-21.8054355,-49.6030627,29,162.52872
1,Cafezal do Sul/PR,-23.900508,-53.512418,196,4888.99975
D1,Cafezal do Sul/PR,-23.900508,-53.512418,2,49.88775
1,Caiabu/SP,-22.0143038,-51.2356597,67,1597.90126
D1,Caiabu/SP,-22.0143038,-51.2356597,4,95.39709
1,Caiana/MG,-20.695555,-41.924723,112,2021.29579
D1,Caiana/MG,-20.695555,-41.924723,2,36.09457
1,Caiapônia/GO,-16.9538779,-51.8090761,868,4542.83770
D1,Caiapônia/GO,-16.9538779,-51.8090761,27,141.30947
1,Caibaté/RS,-28.290475,-54.645407,198,4105.32863
D1,Caibaté/RS,-28.290475,-54.645407,7,145.13788
1,Caibi/SC,-27.0751925,-53.2502133,511,8336.05220
D1,Caibi/SC,-27.0751925,-53.2502133,9,146.81892
1,Caicó/RN,-6.4594544,-37.0971911,8608,12595.29140
D1,Caicó/RN,-6.4594544,-37.0971911,102,149.24718
1,Caieiras/SP,-23.3644621,-46.7484765,5907,5747.50669
D1,Caieiras/SP,-23.3644621,-46.7484765,200,194.59985
1,Cairu/BA,-13.4860505,-39.0455744,999,5421.39252
D1,Cairu/BA,-13.4860505,-39.0455744,9,48.84137
1,Caiuá/SP,-21.8319357,-51.9887179,221,3716.78439
D1,Caiuá/SP,-21.8319357,-51.9887179,4,67.27212
1,Caiçara do Norte/RN,-5.0645017,-36.0561226,271,4130.46792
D1,Caiçara do Norte/RN,-5.0645017,-36.0561226,9,137.17421
1,Caiçara do Rio do Vento/RN,-5.757968,-36.00089,192,5168.23688
D1,Caiçara do Rio do Vento/RN,-5.757968,-36.00089,7,188.42530
1,Caiçara/PB,-6.6146866,-35.4681434,584,8121.26269
D1,Caiçara/PB,-6.6146866,-35.4681434,13,180.78153
1,Caiçara/RS,-27.2750478,-53.4310053,398,8468.08511
D1,Caiçara/RS,-27.2750478,-53.4310053,7,148.93617
1,Cajamar/SP,-23.3561111,-46.8769444,3217,4127.85177
D1,Cajamar/SP,-23.3561111,-46.8769444,139,178.35604
1,Cajapió/MA,-2.8778715,-44.6746871,68,606.27675
D1,Cajapió/MA,-2.8778715,-44.6746871,3,26.74750
1,Cajari/MA,-3.3213076,-45.0118757,145,745.46296
D1,Cajari/MA,-3.3213076,-45.0118757,5,25.70562
1,Cajati/SP,-24.7272376,-48.1077914,2756,9672.21169
D1,Cajati/SP,-24.7272376,-48.1077914,64,224.60869
1,Cajazeiras do Piauí/PI,-6.794271,-42.3935024,34,951.58130
D1,Cajazeiras do Piauí/PI,-6.794271,-42.3935024,1,27.98769
1,Cajazeiras/PB,-6.8897849,-38.5570389,6164,9895.80825
D1,Cajazeiras/PB,-6.8897849,-38.5570389,110,176.59619
1,Cajazeirinhas/PB,-6.961442,-37.7993733,107,3338.53354
1,Cajobi/SP,-20.8776238,-48.8106972,622,5870.13968
D1,Cajobi/SP,-20.8776238,-48.8106972,21,198.18800
1,Cajueiro da Praia/PI,-2.931114,-41.340801,464,6046.39041
D1,Cajueiro da Praia/PI,-2.931114,-41.340801,13,169.40318
1,Cajueiro/AL,-9.399589,-36.1524309,478,2240.87010
D1,Cajueiro/AL,-9.399589,-36.1524309,18,84.38423
1,Cajuri/MG,-20.7901414,-42.7954489,252,6341.21792
D1,Cajuri/MG,-20.7901414,-42.7954489,1,25.16356
1,Cajuru/SP,-21.2759978,-47.3046035,601,2277.11893
D1,Cajuru/SP,-21.2759978,-47.3046035,20,75.77767
1,Caldas Brandão/PB,-7.1027959,-35.3254676,439,7260.99901
D1,Caldas Brandão/PB,-7.1027959,-35.3254676,6,99.23917
1,Caldas Novas/GO,-17.745,-48.625,6626,7109.74720
D1,Caldas Novas/GO,-17.745,-48.625,156,167.38916
1,Caldas/MG,-21.923611,-46.386111,550,3782.40836
D1,Caldas/MG,-21.923611,-46.386111,16,110.03370
1,Caldazinha/GO,-16.7116649,-49.0012601,197,5119.54262
D1,Caldazinha/GO,-16.7116649,-49.0012601,3,77.96258
1,Caldeirão Grande do Piauí/PI,-7.3310393,-40.6374433,261,4514.78983
D1,Caldeirão Grande do Piauí/PI,-7.3310393,-40.6374433,2,34.59609
1,Caldeirão Grande/BA,-11.0208483,-40.3041387,536,4002.68837
D1,Caldeirão Grande/BA,-11.0208483,-40.3041387,6,44.80621
1,Califórnia/PR,-23.6672543,-51.3554556,715,8308.15710
D1,Califórnia/PR,-23.6672543,-51.3554556,14,162.67720
1,Calmon/SC,-26.6023644,-51.0992893,25,749.62519
D1,Calmon/SC,-26.6023644,-51.0992893,3,89.95502
1,Calumbi/PE,-7.9389746,-38.1516871,402,6994.95389
D1,Calumbi/PE,-7.9389746,-38.1516871,2,34.80077
1,Calçado/PE,-8.7413446,-36.3351787,303,2750.04538
D1,Calçado/PE,-8.7413446,-36.3351787,2,18.15211
1,Calçoene/AP,2.4981757,-50.9539503,1585,14019.10490
D1,Calçoene/AP,2.4981757,-50.9539503,9,79.60375
1,Camacan/BA,-15.4166631,-39.4930088,2297,7176.77935
D1,Camacan/BA,-15.4166631,-39.4930088,51,159.34512
1,Camacho/MG,-20.625556,-45.156667,49,1707.91216
D1,Camacho/MG,-20.625556,-45.156667,1,34.85535
1,Camalaú/PB,-7.885031,-36.824191,328,5438.56740
D1,Camalaú/PB,-7.885031,-36.824191,5,82.90499
1,Camamu/BA,-13.9438142,-39.1060917,1876,5302.13103
D1,Camamu/BA,-13.9438142,-39.1060917,37,104.57295
1,Camanducaia/MG,-22.755278,-46.144444,2130,9770.19403
D1,Camanducaia/MG,-22.755278,-46.144444,41,188.06477
1,Camapuã/MS,-19.5291747,-54.0434641,535,3907.10582
D1,Camapuã/MS,-19.5291747,-54.0434641,18,131.45403
1,Camaquã/RS,-30.8524752,-51.8075619,5483,8247.84139
D1,Camaquã/RS,-30.8524752,-51.8075619,102,153.43422
1,Camaragibe/PE,-8.0213832,-34.9810768,4157,2616.12723
D1,Camaragibe/PE,-8.0213832,-34.9810768,277,174.32457
1,Camargo/RS,-28.5865661,-52.2031474,270,9846.82713
D1,Camargo/RS,-28.5865661,-52.2031474,5,182.34865
1,Camaçari/BA,-12.6998188,-38.3260762,19522,6415.33740
D1,Camaçari/BA,-12.6998188,-38.3260762,482,158.39528
1,Cambará do Sul/RS,-29.0489517,-50.145412,288,4495.78520
D1,Cambará do Sul/RS,-29.0489517,-50.145412,6,93.66219
1,Cambará/PR,-23.042273,-50.075281,1730,6793.37155
D1,Cambará/PR,-23.042273,-50.075281,28,109.95052
1,Cambira/PR,-23.600265,-51.581045,574,7250.22104
D1,Cambira/PR,-23.600265,-51.581045,13,164.20361
