type,name,lat,lon,total,total_per_100k_inhabitants
1,Abadia de Goiás/GO,-16.7572644,-49.4412205,1287,14367.04622
D1,Abadia de Goiás/GO,-16.7572644,-49.4412205,26,290.24336
1,Abadia dos Dourados/MG,-18.4911191,-47.4063589,361,5152.72623
D1,Abadia dos Dourados/MG,-18.4911191,-47.4063589,12,171.28176
1,Abadiânia/GO,-16.1940946,-48.7067767,320,1563.95093
D1,Abadiânia/GO,-16.1940946,-48.7067767,27,131.95836
1,Abaetetuba/PA,-1.721828,-48.878843,6926,4353.78426
D1,Abaetetuba/PA,-1.721828,-48.878843,186,116.92230
1,Abaeté/MG,-19.1566833,-45.4481213,955,4107.52688
D1,Abaeté/MG,-19.1566833,-45.4481213,22,94.62366
1,Abaiara/CE,-7.3607808,-39.0487878,406,3425.29317
D1,Abaiara/CE,-7.3607808,-39.0487878,9,75.93014
1,Abaré/BA,-8.7239913,-39.1139689,739,3631.98506
D1,Abaré/BA,-8.7239913,-39.1139689,6,29.48838
1,Abatiá/PR,-23.3052967,-50.3102532,622,8396.32829
D1,Abatiá/PR,-23.3052967,-50.3102532,10,134.98920
1,Abaíra/BA,-13.2503296,-41.6640342,251,2881.74512
D1,Abaíra/BA,-13.2503296,-41.6640342,10,114.81056
1,Abdon Batista/SC,-27.612419,-51.022992,312,12244.89796
D1,Abdon Batista/SC,-27.612419,-51.022992,2,78.49294
1,Abel Figueiredo/PA,-4.953001,-48.3958485,811,10833.55597
D1,Abel Figueiredo/PA,-4.953001,-48.3958485,9,120.22442
1,Abelardo Luz/SC,-26.5705893,-52.3280339,1274,7093.54120
D1,Abelardo Luz/SC,-26.5705893,-52.3280339,41,228.28508
1,Abre Campo/MG,-20.2976097,-42.4764741,862,6411.78221
D1,Abre Campo/MG,-20.2976097,-42.4764741,13,96.69741
1,Abreu e Lima/PE,-7.900719,-34.898389,2427,2418.63153
D1,Abreu e Lima/PE,-7.900719,-34.898389,185,184.36211
1,Abreulândia/TO,-9.6221526,-49.1558343,252,9714.72629
D1,Abreulândia/TO,-9.6221526,-49.1558343,6,231.30301
1,Acaiaca/MG,-20.3621646,-43.1444162,214,5358.03706
D1,Acaiaca/MG,-20.3621646,-43.1444162,8,200.30045
1,Acajutiba/BA,-11.6609659,-38.0186381,477,3140.84414
D1,Acajutiba/BA,-11.6609659,-38.0186381,13,85.59953
1,Acarape/CE,-4.2237866,-38.7071663,2570,17092.31179
D1,Acarape/CE,-4.2237866,-38.7071663,24,159.61692
1,Acaraú/CE,-2.8869514,-40.1194713,4341,6879.12018
D1,Acaraú/CE,-2.8869514,-40.1194713,93,147.37576
1,Acari/RN,-6.4364689,-36.6394777,803,7220.57369
D1,Acari/RN,-6.4364689,-36.6394777,12,107.90397
1,Acará/PA,-1.961388,-48.1987043,1132,2033.44770
D1,Acará/PA,-1.961388,-48.1987043,25,44.90830
1,Acauã/PI,-8.219542,-41.083059,175,2464.09462
D1,Acauã/PI,-8.219542,-41.083059,1,14.08054
1,Aceguá/RS,-31.8695131,-54.1615593,292,5908.53905
D1,Aceguá/RS,-31.8695131,-54.1615593,4,80.93889
1,Acopiara/CE,-6.0936464,-39.4543204,2702,4959.52717
D1,Acopiara/CE,-6.0936464,-39.4543204,107,196.39874
1,Acorizal/MT,-15.2001544,-56.3668953,456,8548.93138
D1,Acorizal/MT,-15.2001544,-56.3668953,18,337.45782
1,Acrelândia/AC,-10.0759167,-67.0526898,1507,9728.85733
D1,Acrelândia/AC,-10.0759167,-67.0526898,29,187.21756
1,Acreúna/GO,-17.3959899,-50.3749031,1680,7451.43263
D1,Acreúna/GO,-17.3959899,-50.3749031,40,177.41506
1,Adamantina/SP,-21.6866517,-51.0762975,2452,6983.56640
D1,Adamantina/SP,-21.6866517,-51.0762975,72,205.06394
1,Adelândia/GO,-16.4155077,-50.1665834,147,5842.60731
D1,Adelândia/GO,-16.4155077,-50.1665834,3,119.23688
1,Adolfo/SP,-21.2356597,-49.6441918,391,11001.68824
D1,Adolfo/SP,-21.2356597,-49.6441918,9,253.23579
1,Adrianópolis/PR,-24.6557863,-48.9912769,1072,18302.88544
D1,Adrianópolis/PR,-24.6557863,-48.9912769,21,358.54533
1,Adustina/BA,-10.5358875,-38.114479,635,3707.81268
D1,Adustina/BA,-10.5358875,-38.114479,11,64.22983
1,Afogados da Ingazeira/PE,-7.750429,-37.6356375,3689,9862.58154
D1,Afogados da Ingazeira/PE,-7.750429,-37.6356375,53,141.69608
1,Afonso Bezerra/RN,-5.4745,-36.57625071327935,500,4533.50258
D1,Afonso Bezerra/RN,-5.4745,-36.57625071327935,12,108.80406
1,Afonso Cláudio/ES,-20.077841,-41.12606,3113,10221.63848
D1,Afonso Cláudio/ES,-20.077841,-41.12606,54,177.31079
1,Afonso Cunha/MA,-4.1326105,-43.3230026,158,2401.94588
D1,Afonso Cunha/MA,-4.1326105,-43.3230026,2,30.40438
1,Afrânio/PE,-8.5198919,-41.0070197,722,3644.62393
D1,Afrânio/PE,-8.5198919,-41.0070197,13,65.62342
1,Afuá/PA,-0.1535664,-50.3879223,2863,7235.82784
D1,Afuá/PA,-0.1535664,-50.3879223,14,35.38302
1,Agrestina/PE,-8.4558021,-35.9442663,1252,4995.01297
D1,Agrestina/PE,-8.4558021,-35.9442663,46,183.52284
1,Agricolândia/PI,-5.7967843,-42.6605131,370,7211.06997
D1,Agricolândia/PI,-5.7967843,-42.6605131,3,58.46813
1,Agrolândia/SC,-27.4122212,-49.8295774,1039,9434.30491
D1,Agrolândia/SC,-27.4122212,-49.8295774,14,127.12249
1,Agronômica/SC,-27.2660744,-49.7104753,485,8803.77564
D1,Agronômica/SC,-27.2660744,-49.7104753,9,163.36903
1,Aguanil/MG,-20.9424533,-45.3927152,438,9685.97966
D1,Aguanil/MG,-20.9424533,-45.3927152,8,176.91287
1,Aguaí/SP,-22.0592036,-46.979384,2006,5473.69570
D1,Aguaí/SP,-22.0592036,-46.979384,54,147.34774
1,Agudo/RS,-29.6423259,-53.2494005,1102,6719.10249
D1,Agudo/RS,-29.6423259,-53.2494005,18,109.74941
1,Agudos do Sul/PR,-25.9890808,-49.3328175,474,5005.27983
D1,Agudos do Sul/PR,-25.9890808,-49.3328175,16,168.95459
1,Agudos/SP,-22.471162,-48.987822,2805,7499.79947
D1,Agudos/SP,-22.471162,-48.987822,61,163.09724
1,Aguiar/PB,-7.0928404,-38.1727215,289,5133.21492
D1,Aguiar/PB,-7.0928404,-38.1727215,3,53.28597
1,Aguiarnópolis/TO,-6.5600452,-47.4721189,524,7603.01799
D1,Aguiarnópolis/TO,-6.5600452,-47.4721189,12,174.11492
1,Aimorés/MG,-19.4917754,-41.0615603,1695,6741.97526
D1,Aimorés/MG,-19.4917754,-41.0615603,46,182.96806
1,Aiquara/BA,-14.126918,-39.8887574,439,9941.12319
D1,Aiquara/BA,-14.126918,-39.8887574,9,203.80435
1,Aiuaba/CE,-6.5710836,-40.1212278,399,2280.91236
D1,Aiuaba/CE,-6.5710836,-40.1212278,9,51.44915
1,Aiuruoca/MG,-21.9759554,-44.6036637,79,1321.95448
D1,Aiuruoca/MG,-21.9759554,-44.6036637,6,100.40161
1,Ajuricaba/RS,-28.239654,-53.7693013,736,10533.84858
D1,Ajuricaba/RS,-28.239654,-53.7693013,22,314.87047
1,Alagoa Grande/PB,-7.0415212,-35.6285322,2705,9511.58620
D1,Alagoa Grande/PB,-7.0415212,-35.6285322,49,172.29860
1,Alagoa Nova/PB,-7.0653703,-35.76695977336711,732,3498.87673
D1,Alagoa Nova/PB,-7.0653703,-35.76695977336711,14,66.91841
1,Alagoa/MG,-22.1697202,-44.6400042,352,13208.25516
D1,Alagoa/MG,-22.1697202,-44.6400042,4,150.09381
1,Alagoinha do Piauí/PI,-7.0090952,-40.939675,262,3418.13438
D1,Alagoinha do Piauí/PI,-7.0090952,-40.939675,9,117.41683
1,Alagoinha/PB,-6.97063215,-35.51490901897793,1493,10254.12088
D1,Alagoinha/PB,-6.97063215,-35.51490901897793,23,157.96703
1,Alagoinha/PE,-8.50355635,-36.77701174370496,556,3777.68719
D1,Alagoinha/PE,-8.50355635,-36.77701174370496,18,122.29923
1,Alagoinhas/BA,-12.133526,-38.420772,10899,7155.00207
D1,Alagoinhas/BA,-12.133526,-38.420772,210,137.86131
1,Alambari/SP,-23.550338,-47.897971,437,7130.03753
D1,Alambari/SP,-23.550338,-47.897971,9,146.84288
1,Albertina/MG,-20.66164,-43.784039,182,6044.50349
D1,Albertina/MG,-20.66164,-43.784039,6,199.26935
1,Alcantil/PB,-7.7425491,-36.0609604,301,5463.78653
D1,Alcantil/PB,-7.7425491,-36.0609604,6,108.91269
1,Alcinópolis/MS,-18.3264121,-53.7094463,175,3230.57043
D1,Alcinópolis/MS,-18.3264121,-53.7094463,6,110.76241
1,Alcobaça/BA,-17.5215875,-39.1965474,1244,5531.34727
D1,Alcobaça/BA,-17.5215875,-39.1965474,20,88.92841
1,Alcântara/MA,-2.4038956,-44.4154241,263,1189.39942
D1,Alcântara/MA,-2.4038956,-44.4154241,14,63.31404
1,Alcântaras/CE,-3.586247,-40.5457641,1247,10584.84000
D1,Alcântaras/CE,-3.586247,-40.5457641,16,135.81190
1,Aldeias Altas/MA,-4.6291957,-43.4708622,975,3643.90627
D1,Aldeias Altas/MA,-4.6291957,-43.4708622,13,48.58542
1,Alecrim/RS,-27.6566142,-54.7653195,239,4101.59602
D1,Alecrim/RS,-27.6566142,-54.7653195,9,154.45341
1,Alegre/ES,-20.7625787,-41.5318886,1901,6341.95163
D1,Alegre/ES,-20.7625787,-41.5318886,45,150.12510
1,Alegrete do Piauí/PI,-7.2440138,-40.8602296,465,9455.06303
D1,Alegrete do Piauí/PI,-7.2440138,-40.8602296,5,101.66734
1,Alegrete/RS,-29.790166,-55.794862,7384,10111.19023
D1,Alegrete/RS,-29.790166,-55.794862,212,290.29961
1,Alegria/RS,-27.8332103,-54.0574959,306,9069.35388
D1,Alegria/RS,-27.8332103,-54.0574959,2,59.27682
1,Alenquer/PA,-1.946229,-54.738355,2607,4566.31402
D1,Alenquer/PA,-1.946229,-54.738355,98,171.65277
1,Alexandria/RN,-6.414779,-38.0135516,1033,7621.92872
D1,Alexandria/RN,-6.414779,-38.0135516,15,110.67660
1,Alexânia/GO,-16.0834049,-48.5077803,2701,9642.98465
D1,Alexânia/GO,-16.0834049,-48.5077803,68,242.77044
1,Alfenas/MG,-21.4297405,-45.9479419,6282,7804.30840
D1,Alfenas/MG,-21.4297405,-45.9479419,144,178.89532
1,Alfredo Chaves/ES,-20.624970400000002,-40.75006690147988,2078,14197.86827
D1,Alfredo Chaves/ES,-20.624970400000002,-40.75006690147988,30,204.97404
1,Alfredo Marcondes/SP,-21.9527,-51.413956,206,4923.51816
D1,Alfredo Marcondes/SP,-21.9527,-51.413956,9,215.10516
1,Alfredo Vasconcelos/MG,-21.145833,-43.776389,291,4168.45724
D1,Alfredo Vasconcelos/MG,-21.145833,-43.776389,10,143.24595
1,Alfredo Wagner/SC,-27.6961513,-49.3326734,617,6117.39044
D1,Alfredo Wagner/SC,-27.6961513,-49.3326734,7,69.40313
1,Algodão de Jandaíra/PB,-6.9040175,-36.0089879,107,4152.11486
1,Alhandra/PB,-7.4304246,-34.9106103,1579,8004.25812
D1,Alhandra/PB,-7.4304246,-34.9106103,29,147.00664
1,Aliança do Tocantins/TO,-11.3055927,-48.9409096,552,10325.47699
D1,Aliança do Tocantins/TO,-11.3055927,-48.9409096,20,374.11149
1,Aliança/PE,-7.60398,-35.222696,542,1411.56861
D1,Aliança/PE,-7.60398,-35.222696,44,114.59229
1,Almadina/BA,-14.70466,-39.6381994,587,10939.24711
D1,Almadina/BA,-14.70466,-39.6381994,9,167.72270
1,Almas/TO,-11.5681309,-47.1702803,191,2736.78177
D1,Almas/TO,-11.5681309,-47.1702803,4,57.31480
1,Almeirim/PA,-1.5290377,-52.5788111,3288,9649.01984
D1,Almeirim/PA,-1.5290377,-52.5788111,32,93.90774
1,Almenara/MG,-16.1740678,-40.6904907,3413,8098.61661
D1,Almenara/MG,-16.1740678,-40.6904907,38,90.16919
1,Almino Afonso/RN,-6.1544208,-37.7649018,363,7707.00637
D1,Almino Afonso/RN,-6.1544208,-37.7649018,10,212.31423
1,Almirante Tamandaré do Sul/RS,-28.1141129,-52.9134874,181,9286.81375
D1,Almirante Tamandaré do Sul/RS,-28.1141129,-52.9134874,2,102.61673
1,Almirante Tamandaré/PR,-25.3133048,-49.2997838,7837,6528.60273
D1,Almirante Tamandaré/PR,-25.3133048,-49.2997838,298,248.24852
1,Aloândia/GO,-17.7277983,-49.4809338,216,10876.13293
D1,Aloândia/GO,-17.7277983,-49.4809338,6,302.11480
1,Alpercata/MG,-18.9803616,-41.9827637,440,5917.15976
D1,Alpercata/MG,-18.9803616,-41.9827637,15,201.72136
1,Alpestre/RS,-27.2512339,-53.0349646,278,4582.16582
D1,Alpestre/RS,-27.2512339,-53.0349646,7,115.37828
1,Alpinópolis/MG,-20.863611,-46.387777,808,4048.50185
D1,Alpinópolis/MG,-20.863611,-46.387777,19,95.19992
1,Alta Floresta D'Oeste/RO,-11.9296917,-61.9961284,3487,15342.30905
D1,Alta Floresta D'Oeste/RO,-11.9296917,-61.9961284,55,241.99226
1,Alta Floresta/MT,-9.8715018,-56.0839881,7091,13647.29883
D1,Alta Floresta/MT,-9.8715018,-56.0839881,105,202.08241
1,Altair/SP,-20.5238955,-49.0606135,139,3320.59245
D1,Altair/SP,-20.5238955,-49.0606135,9,215.00239
1,Altamira do Maranhão/MA,-4.1643006,-45.4674574,288,3516.91293
D1,Altamira do Maranhão/MA,-4.1643006,-45.4674574,8,97.69203
1,Altamira do Paraná/PR,-24.799114,-52.7128633,136,8085.61237
D1,Altamira do Paraná/PR,-24.799114,-52.7128633,4,237.81213
1,Altamira/PA,-3.204065,-52.209961,12185,10507.11828
D1,Altamira/PA,-3.204065,-52.209961,268,231.09624
1,Altaneira/CE,-6.9980933,-39.7385742,382,4993.46405
D1,Altaneira/CE,-6.9980933,-39.7385742,14,183.00654
1,Alterosa/MG,-21.249166,-46.143055,534,3678.44596
D1,Alterosa/MG,-21.249166,-46.143055,29,199.76579
1,Altinho/PE,-8.4904095,-36.0607494,888,3863.55726
D1,Altinho/PE,-8.4904095,-36.0607494,19,82.66620
1,Altinópolis/SP,-21.021364,-47.3712,698,4307.84423
D1,Altinópolis/SP,-21.021364,-47.3712,23,141.94902
1,Alto Alegre do Maranhão/MA,-4.2055693,-44.4525287,874,3137.33936
D1,Alto Alegre do Maranhão/MA,-4.2055693,-44.4525287,22,78.97193
1,Alto Alegre do Pindaré/MA,-3.6698186,-45.8462153,1770,5541.12012
D1,Alto Alegre do Pindaré/MA,-3.6698186,-45.8462153,40,125.22305
1,Alto Alegre dos Parecis/RO,-12.1314515,-61.856265,1298,9792.53112
D1,Alto Alegre dos Parecis/RO,-12.1314515,-61.856265,32,241.41833
1,Alto Alegre/RR,2.98858,-61.307167,1232,8010.40312
D1,Alto Alegre/RR,2.98858,-61.307167,28,182.05462
1,Alto Alegre/RS,-31.780844700000003,-52.81311114489171,157,9733.41600
D1,Alto Alegre/RS,-31.780844700000003,-52.81311114489171,1,61.99628
1,Alto Alegre/SP,-21.5820592,-50.1661976,259,6335.61644
D1,Alto Alegre/SP,-21.5820592,-50.1661976,12,293.54207
1,Alto Araguaia/MT,-17.3156528,-53.2169365,1018,5251.48311
D1,Alto Araguaia/MT,-17.3156528,-53.2169365,22,113.48981
1,Alto Bela Vista/SC,-27.4320737,-51.905771,147,7632.39875
D1,Alto Bela Vista/SC,-27.4320737,-51.905771,2,103.84216
1,Alto Boa Vista/MT,-11.6723985,-51.3744431,586,8448.67359
D1,Alto Boa Vista/MT,-11.6723985,-51.3744431,10,144.17532
1,Alto Caparaó/MG,-20.4405661,-41.8683799,346,5870.37665
D1,Alto Caparaó/MG,-20.4405661,-41.8683799,8,135.73125
1,Alto Feliz/RS,-29.3785943,-51.3123751,201,6620.55336
D1,Alto Feliz/RS,-29.3785943,-51.3123751,1,32.93808
1,Alto Garças/MT,-16.9469683,-53.529427,638,5250.59666
D1,Alto Garças/MT,-16.9469683,-53.529427,24,197.51461
1,Alto Horizonte/GO,-14.1954948,-49.3366993,659,9977.28993
D1,Alto Horizonte/GO,-14.1954948,-49.3366993,7,105.98032
1,Alto Jequitibá/MG,-20.423611,-41.966111,596,7179.85785
D1,Alto Jequitibá/MG,-20.423611,-41.966111,9,108.42067
1,Alto Longá/PI,-5.2549051,-42.2072388,553,3856.61483
D1,Alto Longá/PI,-5.2549051,-42.2072388,13,90.66183
1,Alto Paraguai/MT,-14.513712,-56.4936374,727,6336.61640
D1,Alto Paraguai/MT,-14.513712,-56.4936374,24,209.18679
1,Alto Paraná/PR,-23.131247,-52.318893,715,4811.89851
D1,Alto Paraná/PR,-23.131247,-52.318893,17,114.40878
1,Alto Paraíso de Goiás/GO,-14.1304779,-47.5100161,545,7088.96982
D1,Alto Paraíso de Goiás/GO,-14.1304779,-47.5100161,6,78.04370
1,Alto Paraíso/PR,-23.508137,-53.728537,156,5810.05587
D1,Alto Paraíso/PR,-23.508137,-53.728537,2,74.48790
1,Alto Paraíso/RO,-9.7240103,-63.3188123,1632,7470.13320
D1,Alto Paraíso/RO,-9.7240103,-63.3188123,37,169.35964
1,Alto Parnaíba/MA,-9.112506,-45.9310154,688,6136.28255
D1,Alto Parnaíba/MA,-9.112506,-45.9310154,5,44.59508
1,Alto Piquiri/PR,-24.0239021,-53.4417448,544,5563.50992
D1,Alto Piquiri/PR,-24.0239021,-53.4417448,13,132.95152
1,Alto Rio Doce/MG,-21.0239537,-43.4133507,305,2808.73009
D1,Alto Rio Doce/MG,-21.0239537,-43.4133507,23,211.80588
1,Alto Rio Novo/ES,-19.0577208,-41.0171518,657,8343.91669
D1,Alto Rio Novo/ES,-19.0577208,-41.0171518,21,266.70053
1,Alto Santo/CE,-5.5190371,-38.2719351,952,5536.17120
D1,Alto Santo/CE,-5.5190371,-38.2719351,19,110.49081
1,Alto Taquari/MT,-17.8269099,-53.2831736,1316,11820.71320
D1,Alto Taquari/MT,-17.8269099,-53.2831736,26,233.53993
1,Alto do Rodrigues/RN,-5.290868,-36.7616726,1472,9994.56817
D1,Alto do Rodrigues/RN,-5.290868,-36.7616726,27,183.32428
1,Altos/PI,-5.0393915,-42.4611694,3838,9452.03793
D1,Altos/PI,-5.0393915,-42.4611694,75,184.70632
1,Altônia/PR,-23.8722004,-53.894037,857,3864.53824
D1,Altônia/PR,-23.8722004,-53.894037,14,63.13131
1,Alumínio/SP,-23.5203479,-47.2575256,1135,6047.84995
D1,Alumínio/SP,-23.5203479,-47.2575256,37,197.15458
1,Alvarenga/MG,-19.4175,-41.728334,364,9469.30281
D1,Alvarenga/MG,-19.4175,-41.728334,4,104.05827
1,Alvarães/AM,-3.214786,-64.8143124,2722,16781.75092
D1,Alvarães/AM,-3.214786,-64.8143124,42,258.93958
1,Alvinlândia/SP,-22.4431852,-49.7643596,115,3552.67223
D1,Alvinlândia/SP,-22.4431852,-49.7643596,7,216.24961
1,Alvinópolis/MG,-20.1105199,-43.0601805,526,3467.59839
D1,Alvinópolis/MG,-20.1105199,-43.0601805,16,105.47828
1,Alvorada D'Oeste/RO,-11.346271,-62.284697,863,6117.96399
D1,Alvorada D'Oeste/RO,-11.346271,-62.284697,24,170.14037
1,Alvorada de Minas/MG,-18.7318587,-43.3641479,235,6518.72399
D1,Alvorada de Minas/MG,-18.7318587,-43.3641479,1,27.73925
1,Alvorada do Gurguéia/PI,-8.4465288,-43.8655915,278,5105.60147
D1,Alvorada do Gurguéia/PI,-8.4465288,-43.8655915,8,146.92378
1,Alvorada do Norte/GO,-14.483911,-46.4959897,606,6961.51637
D1,Alvorada do Norte/GO,-14.483911,-46.4959897,2,22.97530
1,Alvorada do Sul/PR,-22.7807269,-51.2307721,630,5476.83213
D1,Alvorada do Sul/PR,-22.7807269,-51.2307721,21,182.56107
1,Alvorada/RS,-29.9981184,-51.0772509,17826,8434.27079
D1,Alvorada/RS,-29.9981184,-51.0772509,647,306.12438
1,Alvorada/TO,-12.478465,-49.124926,1018,12124.82134
D1,Alvorada/TO,-12.478465,-49.124926,17,202.47737
1,Além Paraíba/MG,-21.8760576,-42.6810473,2654,7496.96336
D1,Além Paraíba/MG,-21.8760576,-42.6810473,123,347.44781
1,Amajari/RR,3.6523869,-61.4194315,869,6590.82290
D1,Amajari/RR,3.6523869,-61.4194315,19,144.10315
1,Amambai/MS,-23.1082701,-55.2284854,2159,5421.08171
D1,Amambai/MS,-23.1082701,-55.2284854,40,100.43690
1,Amaporã/PR,-23.094272,-52.786597,236,3727.10044
D1,Amaporã/PR,-23.094272,-52.786597,5,78.96399
1,Amapá do Maranhão/MA,-1.6762114,-46.0109669,138,1970.02141
D1,Amapá do Maranhão/MA,-1.6762114,-46.0109669,2,28.55103
1,Amapá/AP,2.0529997,-50.7930003,1238,13475.56330
D1,Amapá/AP,2.0529997,-50.7930003,10,108.84946
1,Amaraji/PE,-8.373925,-35.4536527,436,1906.42763
D1,Amaraji/PE,-8.373925,-35.4536527,28,122.43113
1,Amaral Ferrador/RS,-30.8750633,-52.2542051,199,2808.75088
D1,Amaral Ferrador/RS,-30.8750633,-52.2542051,4,56.45730
1,Amaralina/GO,-13.9236199,-49.2962411,51,1326.39792
1,Amarante do Maranhão/MA,-5.56913,-46.747284,1507,3611.39735
D1,Amarante do Maranhão/MA,-5.56913,-46.747284,54,129.40641
1,Amarante/PI,-6.2459374,-42.8476238,1321,7503.97637
D1,Amarante/PI,-6.2459374,-42.8476238,30,170.41581
1,Amargosa/BA,-13.03793715,-39.60796443875596,2282,6094.92268
D1,Amargosa/BA,-13.03793715,-39.60796443875596,46,122.85997
1,Amaturá/AM,-3.3640509,-68.1994689,2326,19819.35924
D1,Amaturá/AM,-3.3640509,-68.1994689,17,144.85344
1,Americana/SP,-22.7392463,-47.3306032,16109,6656.11649
D1,Americana/SP,-22.7392463,-47.3306032,503,207.83578
1,Americano do Brasil/GO,-16.2515808,-49.9806104,386,6262.16742
D1,Americano do Brasil/GO,-16.2515808,-49.9806104,15,243.34848
1,Ametista do Sul/RS,-27.3617341,-53.1826575,517,6983.65527
D1,Ametista do Sul/RS,-27.3617341,-53.1826575,12,162.09645
1,Amontada/CE,-3.3634586,-39.8284791,2279,5199.75359
D1,Amontada/CE,-3.3634586,-39.8284791,40,91.26378
1,Amorinópolis/GO,-16.6211308,-51.0949921,165,5376.34409
D1,Amorinópolis/GO,-16.6211308,-51.0949921,2,65.16781
1,Amparo de São Francisco/SE,-10.1299754,-36.9269099,157,6596.63866
D1,Amparo de São Francisco/SE,-10.1299754,-36.9269099,3,126.05042
1,Amparo do Serra/MG,-20.5070255,-42.8028462,114,2436.93886
D1,Amparo do Serra/MG,-20.5070255,-42.8028462,4,85.50663
1,Amparo/PB,-7.56394725,-37.04652873235175,158,7019.10262
D1,Amparo/PB,-7.56394725,-37.04652873235175,4,177.69880
1,Amparo/SP,-22.70111,-46.76444,4247,5843.66443
D1,Amparo/SP,-22.70111,-46.76444,107,147.22677
1,Ampére/PR,-25.9168712,-53.4742414,996,5157.68215
D1,Ampére/PR,-25.9168712,-53.4742414,28,144.99508
1,Amélia Rodrigues/BA,-12.4015388,-38.7516971,1807,7214.14883
D1,Amélia Rodrigues/BA,-12.4015388,-38.7516971,37,147.71638
1,América Dourada/BA,-11.4515262,-41.4357517,730,4536.97949
D1,América Dourada/BA,-11.4515262,-41.4357517,7,43.50528
1,Américo Brasiliense/SP,-21.7297099,-48.1052092,3128,7623.31839
D1,Américo Brasiliense/SP,-21.7297099,-48.1052092,72,175.47280
1,Américo de Campos/SP,-20.298476,-49.735904,624,10433.03795
D1,Américo de Campos/SP,-20.298476,-49.735904,22,367.83147
1,Anadia/AL,-9.6830208,-36.3052699,1096,6253.56613
D1,Anadia/AL,-9.6830208,-36.3052699,23,131.23360
1,Anagé/BA,-14.6134669,-41.1376308,764,3535.89115
D1,Anagé/BA,-14.6134669,-41.1376308,16,74.05008
1,Anahy/PR,-24.6450861,-53.1337957,315,11298.42181
D1,Anahy/PR,-24.6450861,-53.1337957,6,215.20803
1,Anajatuba/MA,-3.26441,-44.6179916,765,2834.59315
D1,Anajatuba/MA,-3.26441,-44.6179916,18,66.69631
1,Anajás/PA,-0.9878802,-49.9390114,1306,4399.08380
D1,Anajás/PA,-0.9878802,-49.9390114,19,63.99892
1,Analândia/SP,-22.128917,-47.661939,257,5083.06962
D1,Analândia/SP,-22.128917,-47.661939,3,59.33544
1,Anamã/AM,-3.5797356,-61.4049996,1717,12302.95214
D1,Anamã/AM,-3.5797356,-61.4049996,9,64.48839
1,Ananindeua/PA,-1.374035,-48.4016623,19939,3723.10927
D1,Ananindeua/PA,-1.374035,-48.4016623,707,132.01456
1,Ananás/TO,-6.3663053,-48.080238,1388,14622.84029
D1,Ananás/TO,-6.3663053,-48.080238,20,210.70375
1,Anapu/PA,-3.4668292,-51.2057035,1298,4537.35100
D1,Anapu/PA,-3.4668292,-51.2057035,33,115.35638
1,Anapurus/MA,-3.6751298,-43.1046001,828,5209.51302
D1,Anapurus/MA,-3.6751298,-43.1046001,11,69.20851
1,Anastácio/MS,-20.4832458,-55.8048448,1716,6799.54036
D1,Anastácio/MS,-20.4832458,-55.8048448,55,217.93399
1,Anaurilândia/MS,-22.185169,-52.719056,303,3338.47510
D1,Anaurilândia/MS,-22.185169,-52.719056,11,121.19877
1,Anchieta/ES,-20.8057672,-40.6454564,4179,14033.37923
D1,Anchieta/ES,-20.8057672,-40.6454564,70,235.06498
1,Anchieta/SC,-26.5350527,-53.3293938,409,7360.08638
D1,Anchieta/SC,-26.5350527,-53.3293938,6,107.97193
1,Andaraí/BA,-12.8059674,-41.3322919,647,4926.89613
D1,Andaraí/BA,-12.8059674,-41.3322919,6,45.68992
1,Andirá/PR,-23.0494761,-50.2310027,1537,7713.54010
D1,Andirá/PR,-23.0494761,-50.2310027,56,281.03985
1,Andorinha/BA,-10.3445708,-39.8334411,703,4847.27298
D1,Andorinha/BA,-10.3445708,-39.8334411,10,68.95125
1,Andradas/MG,-22.0680484,-46.5688976,2616,6319.45115
D1,Andradas/MG,-22.0680484,-46.5688976,75,181.17693
1,Andradina/SP,-20.896505,-51.3742765,4631,8095.87077
D1,Andradina/SP,-20.896505,-51.3742765,198,346.14174
1,Andrelândia/MG,-21.739722,-44.308889,206,1687.69458
D1,Andrelândia/MG,-21.739722,-44.308889,7,57.34884
1,André da Rocha/RS,-28.6309124,-51.5733328,95,7073.71556
1,Angatuba/SP,-23.4938938,-48.4110675,2201,8638.48660
D1,Angatuba/SP,-23.4938938,-48.4110675,58,227.63845
1,Angelim/PE,-8.8902038,-36.2872987,153,1362.90754
D1,Angelim/PE,-8.8902038,-36.2872987,5,44.53946
1,Angelina/SC,-27.5805287,-48.9838759,445,9382.24752
D1,Angelina/SC,-27.5805287,-48.9838759,1,21.08370
1,Angelândia/MG,-17.7253,-42.2728,88,1028.39780
D1,Angelândia/MG,-17.7253,-42.2728,1,11.68634
1,Angical do Piauí/PI,-6.0872666,-42.7366138,532,7843.13725
D1,Angical do Piauí/PI,-6.0872666,-42.7366138,8,117.94191
1,Angical/BA,-12.005623,-44.7000236,476,3415.12412
D1,Angical/BA,-12.005623,-44.7000236,10,71.74631
1,Angico/TO,-6.3893733,-47.8656722,207,5993.05153
D1,Angico/TO,-6.3893733,-47.8656722,3,86.85582
1,Angicos/RN,-5.6666344,-36.6009064,592,5057.66766
D1,Angicos/RN,-5.6666344,-36.6009064,14,119.60701
1,Angra dos Reis/RJ,-23.0063966,-44.316326,12375,5976.99040
D1,Angra dos Reis/RJ,-23.0063966,-44.316326,404,195.12761
1,Anguera/BA,-12.1509425,-39.2452469,330,2921.12950
D1,Anguera/BA,-12.1509425,-39.2452469,1,8.85191
1,Angélica/MS,-22.1588196,-53.7728504,652,5964.14197
D1,Angélica/MS,-22.1588196,-53.7728504,14,128.06440
1,Anhanguera/GO,-18.3338749,-48.220363,89,7672.41379
D1,Anhanguera/GO,-18.3338749,-48.220363,6,517.24138
1,Anhembi/SP,-22.7891096,-48.1316776,137,2009.09224
D1,Anhembi/SP,-22.7891096,-48.1316776,4,58.65963
1,Anhumas/SP,-22.2956478,-51.3873401,191,4609.07336
D1,Anhumas/SP,-22.2956478,-51.3873401,4,96.52510
1,Anicuns/GO,-16.4606451,-49.9572265,2234,10163.32287
D1,Anicuns/GO,-16.4606451,-49.9572265,55,250.21610
1,Anita Garibaldi/SC,-27.6855032,-51.1293873,983,14129.65359
D1,Anita Garibaldi/SC,-27.6855032,-51.1293873,8,114.99209
1,Anitápolis/SC,-27.9041185,-49.1287395,305,9448.57497
D1,Anitápolis/SC,-27.9041185,-49.1287395,1,30.97893
1,Anori/AM,-3.7435254,-61.6605203,1838,8557.99227
D1,Anori/AM,-3.7435254,-61.6605203,31,144.34046
1,Anta Gorda/RS,-28.9718745,-52.0069187,538,9025.33132
D1,Anta Gorda/RS,-28.9718745,-52.0069187,4,67.10284
1,Antas/BA,-10.4114649,-38.3308815,1053,5405.82165
D1,Antas/BA,-10.4114649,-38.3308815,6,30.80240
1,Antonina do Norte/CE,-6.7754187,-39.9879345,489,6627.81242
D1,Antonina do Norte/CE,-6.7754187,-39.9879345,17,230.41475
1,Antonina/PR,-25.4298854,-48.7125431,2118,11177.37084
D1,Antonina/PR,-25.4298854,-48.7125431,52,274.42081
1,Antônio Almeida/PI,-7.2186016,-44.1950248,401,12649.84227
D1,Antônio Almeida/PI,-7.2186016,-44.1950248,10,315.45741
1,Antônio Cardoso/BA,-12.4363122,-39.1200307,328,2808.94065
D1,Antônio Cardoso/BA,-12.4363122,-39.1200307,7,59.94690
1,Antônio Carlos/MG,-21.318334,-43.746666,452,3944.49777
D1,Antônio Carlos/MG,-21.318334,-43.746666,8,69.81412
1,Antônio Carlos/SC,-27.5168462,-48.7684715,1430,16602.80971
D1,Antônio Carlos/SC,-27.5168462,-48.7684715,20,232.20713
1,Antônio Dias/MG,-19.6525,-42.872778,480,5175.20216
D1,Antônio Dias/MG,-19.6525,-42.872778,20,215.63342
1,Antônio Gonçalves/BA,-10.5715409,-40.2748824,660,5556.49099
D1,Antônio Gonçalves/BA,-10.5715409,-40.2748824,7,58.93248
1,Antônio João/MS,-22.1892837,-55.9508227,313,3470.06652
D1,Antônio João/MS,-22.1892837,-55.9508227,6,66.51885
1,Antônio Martins/RN,-6.2155812,-37.8890129,394,5507.40844
D1,Antônio Martins/RN,-6.2155812,-37.8890129,4,55.91278
1,Antônio Olinto/PR,-25.9849006,-50.1974516,321,4322.06813
D1,Antônio Olinto/PR,-25.9849006,-50.1974516,8,107.71509
1,Antônio Prado de Minas/MG,-21.0171988,-42.1101106,153,9640.83176
D1,Antônio Prado de Minas/MG,-21.0171988,-42.1101106,5,315.05986
1,Antônio Prado/RS,-28.8567806,-51.2801355,1877,14388.65466
D1,Antônio Prado/RS,-28.8567806,-51.2801355,17,130.31813
1,Anápolis/GO,-16.3332828,-48.9525756,32073,8186.64938
D1,Anápolis/GO,-16.3332828,-48.9525756,1106,282.30706
1,Anísio de Abreu/PI,-9.185643,-43.04941,284,2857.71785
D1,Anísio de Abreu/PI,-9.185643,-43.04941,8,80.49909
1,Aparecida d'Oeste/SP,-20.4498109,-50.8808706,596,14333.81433
D1,Aparecida d'Oeste/SP,-20.4498109,-50.8808706,12,288.60029
1,Aparecida de Goiânia/GO,-16.8226769,-49.2452546,61876,10484.86307
D1,Aparecida de Goiânia/GO,-16.8226769,-49.2452546,1186,200.96722
1,Aparecida do Rio Doce/GO,-18.2980167,-51.1491312,183,7396.92805
D1,Aparecida do Rio Doce/GO,-18.2980167,-51.1491312,3,121.26112
1,Aparecida do Rio Negro/TO,-9.9513491,-47.9773786,298,6146.86469
D1,Aparecida do Rio Negro/TO,-9.9513491,-47.9773786,5,103.13531
1,Aparecida do Taboado/MS,-20.0840304,-51.1013943,2385,9148.79742
D1,Aparecida do Taboado/MS,-20.0840304,-51.1013943,36,138.09506
1,Aparecida/PB,-6.7859598, -38.0831353,677,8044.20152
D1,Aparecida/PB,-6.7859598, -38.0831353,11,130.70342
1,Aparecida/SP,-22.851552,-45.2340924,2074,5731.65676
D1,Aparecida/SP,-22.851552,-45.2340924,70,193.45032
1,Aperibé/RJ,-21.6211928,-42.1028167,477,4008.06655
D1,Aperibé/RJ,-21.6211928,-42.1028167,19,159.65045
1,Apiacá/ES,-21.152272,-41.569297,646,8551.76066
D1,Apiacá/ES,-21.152272,-41.569297,26,344.18851
1,Apiacás/MT,-9.5678422,-57.394852,1273,12379.65574
D1,Apiacás/MT,-9.5678422,-57.394852,13,126.42225
1,Apiaí/SP,-24.5076527,-48.8461582,948,3913.15116
D1,Apiaí/SP,-24.5076527,-48.8461582,44,181.62305
1,Apicum-Açu/MA,-1.5279295,-45.082278,424,2434.96238
D1,Apicum-Açu/MA,-1.5279295,-45.082278,3,17.22851
1,Apiúna/SC,-27.0374658,-49.3885037,734,6766.22419
D1,Apiúna/SC,-27.0374658,-49.3885037,15,138.27434
1,Apodi/RN,-5.6631109,-37.796927,4690,13073.53515
D1,Apodi/RN,-5.6631109,-37.796927,70,195.12739
1,Aporá/BA,-11.6599747,-38.0794757,451,2535.41714
D1,Aporá/BA,-11.6599747,-38.0794757,18,101.19181
1,Aporé/GO,-18.9642193,-51.92804,319,7537.80718
D1,Aporé/GO,-18.9642193,-51.92804,8,189.03592
1,Apuarema/BA,-13.8517897,-39.7457126,629,8614.07833
D1,Apuarema/BA,-13.8517897,-39.7457126,9,123.25390
1,Apucarana/PR,-23.5525327,-51.4610764,7087,5202.07878
D1,Apucarana/PR,-23.5525327,-51.4610764,236,173.23135
1,Apuiarés/CE,-3.9460303,-39.4313298,866,5902.39913
D1,Apuiarés/CE,-3.9460303,-39.4313298,16,109.05125
1,Apuí/AM,-7.1940195,-59.8830192,1221,5460.88823
D1,Apuí/AM,-7.1940195,-59.8830192,26,116.28427
1,Aquidabã/SE,-10.2837579,-37.0188687,1778,8200.72875
D1,Aquidabã/SE,-10.2837579,-37.0188687,30,138.37000
1,Aquidauana/MS,-20.473969,-55.7821375,4022,8374.10731
D1,Aquidauana/MS,-20.473969,-55.7821375,120,249.84905
1,Aquiraz/CE,-3.9063117,-38.387504,5071,6265.52171
D1,Aquiraz/CE,-3.9063117,-38.387504,73,90.19584
1,Arabutã/SC,-27.1587028,-52.1438142,382,8952.42559
D1,Arabutã/SC,-27.1587028,-52.1438142,6,140.61401
1,Aracaju/SE,-10.9162061,-37.0774655,100887,15173.07658
D1,Aracaju/SE,-10.9162061,-37.0774655,1792,269.51097
1,Aracati/CE,-4.558259,-37.767894,5321,7097.03234
D1,Aracati/CE,-4.558259,-37.767894,117,156.05202
1,Aracatu/BA,-14.4274236,-41.4604105,716,5488.69299
D1,Aracatu/BA,-14.4274236,-41.4604105,13,99.65504
1,Araci/BA,-11.3356065,-38.9573261,3195,5846.50856
D1,Araci/BA,-11.3356065,-38.9573261,41,75.02562
1,Aracitaba/MG,-21.3425,-43.378611,87,4225.35211
D1,Aracitaba/MG,-21.3425,-43.378611,8,388.53813
1,Aracoiaba/CE,-4.3702577,-38.8084313,2784,10491.80328
D1,Aracoiaba/CE,-4.3702577,-38.8084313,26,97.98379
1,Aracruz/ES,-19.8245218,-40.2735025,13457,13052.24974
D1,Aracruz/ES,-19.8245218,-40.2735025,192,186.22516
1,Aragarças/GO,-15.8957166,-52.2514538,1864,9194.49514
D1,Aragarças/GO,-15.8957166,-52.2514538,43,212.10477
1,Aragoiânia/GO,-16.9146388,-49.4499148,887,8450.83841
D1,Aragoiânia/GO,-16.9146388,-49.4499148,16,152.43902
1,Aragominas/TO,-7.1654101,-48.525488,457,7974.17554
D1,Aragominas/TO,-7.1654101,-48.525488,8,139.59169
1,Araguacema/TO,-8.8067391,-49.5560969,445,6219.42697
D1,Araguacema/TO,-8.8067391,-49.5560969,11,153.73864
1,Araguaiana/MT,-15.729144,-51.834112,175,5628.81956
D1,Araguaiana/MT,-15.729144,-51.834112,4,128.65873
1,Araguainha/MT,-16.857016,-53.031778,21,2219.87315
1,Araguanã/MA,-2.9508403,-45.6651986,750,4822.84097
D1,Araguanã/MA,-2.9508403,-45.6651986,5,32.15227
1,Araguanã/TO,-6.5799107,-48.6428482,384,6628.68980
D1,Araguanã/TO,-6.5799107,-48.6428482,12,207.14656
1,Araguapaz/GO,-15.0937927,-50.626417,451,5794.68071
D1,Araguapaz/GO,-15.0937927,-50.626417,19,244.12180
1,Araguari/MG,-18.6511256,-48.1933764,11992,10177.80607
D1,Araguari/MG,-18.6511256,-48.1933764,332,281.77382
1,Araguatins/TO,-5.6522925,-48.1158973,1837,5078.79458
D1,Araguatins/TO,-5.6522925,-48.1158973,49,135.47139
1,Araguaçu/TO,-12.928934,-49.823134,764,9023.26680
D1,Araguaçu/TO,-12.928934,-49.823134,17,200.77950
1,Araguaína/TO,-7.193241,-48.2018597,27635,15069.71824
D1,Araguaína/TO,-7.193241,-48.2018597,365,199.03916
1,Araioses/MA,-2.890914,-41.904993,631,1349.12660
D1,Araioses/MA,-2.890914,-41.904993,12,25.65692
1,Aral Moreira/MS,-22.951141,-55.6268421,363,2943.56147
D1,Aral Moreira/MS,-22.951141,-55.6268421,9,72.98086
1,Aramari/BA,-12.0907897,-38.4985065,510,4449.87348
D1,Aramari/BA,-12.0907897,-38.4985065,11,95.97766
1,Arambaré/RS,-30.9132252,-51.4994625,158,4435.71028
D1,Arambaré/RS,-30.9132252,-51.4994625,5,140.37058
1,Arame/MA,-4.8858769,-46.0102484,1063,3244.41460
D1,Arame/MA,-4.8858769,-46.0102484,30,91.56391
1,Aramina/SP,-20.0876144,-47.789201,251,4438.54996
D1,Aramina/SP,-20.0876144,-47.789201,10,176.83466
1,Arandu/SP,-23.1345103,-49.0545651,275,4320.50275
D1,Arandu/SP,-23.1345103,-49.0545651,7,109.97643
1,Arantina/MG,-21.911667,-44.255833,119,4269.82418
D1,Arantina/MG,-21.911667,-44.255833,3,107.64263
1,Arapeí/SP,-22.6738889,-44.4477778,180,7317.07317
D1,Arapeí/SP,-22.6738889,-44.4477778,2,81.30081
1,Arapiraca/AL,-9.754866,-36.661471,22169,9512.67341
D1,Arapiraca/AL,-9.754866,-36.661471,351,150.61340
1,Arapoema/TO,-7.6575001,-49.0641484,408,6166.86820
D1,Arapoema/TO,-7.6575001,-49.0641484,6,90.68924
1,Araponga/MG,-20.666667,-42.520556,343,4057.73098
D1,Araponga/MG,-20.666667,-42.520556,6,70.98072
1,Arapongas/PR,-23.415296,-51.42592,9861,7900.80923
D1,Arapongas/PR,-23.415296,-51.42592,385,308.46887
1,Araporã/MG,-18.4318188,-49.188313,1610,23228.97129
D1,Araporã/MG,-18.4318188,-49.188313,22,317.41451
1,Arapoti/PR,-24.1457957,-49.8224605,2260,7985.86572
D1,Arapoti/PR,-24.1457957,-49.8224605,39,137.80919
1,Araputanga/MT,-15.4710868,-58.346796,1608,9486.16601
D1,Araputanga/MT,-15.4710868,-58.346796,39,230.07492
1,Arapuá/MG,-19.034444,-46.155556,173,6102.29277
D1,Arapuá/MG,-19.034444,-46.155556,2,70.54674
1,Arapuã/PR,-24.3079525,-51.7901941,179,5948.82021
D1,Arapuã/PR,-24.3079525,-51.7901941,5,166.16816
1,Araquari/SC,-26.3703324,-48.7210994,3061,7744.66147
D1,Araquari/SC,-26.3703324,-48.7210994,63,159.39682
1,Arara/PB,-6.8271895,-35.7605703,665,4910.64835
D1,Arara/PB,-6.8271895,-35.7605703,19,140.30424
1,Araranguá/SC,-28.9348832,-49.4858389,8756,12714.36247
D1,Araranguá/SC,-28.9348832,-49.4858389,188,272.98997
1,Araraquara/SP,-21.7886713,-48.1773096,16479,6914.10134
D1,Araraquara/SP,-21.7886713,-48.1773096,376,157.75849
1,Araras/SP,-22.3569477,-47.3838889,13310,9822.44329
D1,Araras/SP,-22.3569477,-47.3838889,298,219.91646
1,Ararendá/CE,-4.7504395,-40.8303611,702,6405.69395
D1,Ararendá/CE,-4.7504395,-40.8303611,16,145.99872
1,Arari/MA,-3.4547602,-44.7772723,617,2061.33904
D1,Arari/MA,-3.4547602,-44.7772723,21,70.15903
1,Araricá/RS,-29.6168543,-50.929121,951,16478.94646
D1,Araricá/RS,-29.6168543,-50.929121,24,415.87247
1,Araripe/CE,-7.212861,-40.1359222,796,3675.99520
D1,Araripe/CE,-7.212861,-40.1359222,11,50.79893
1,Araripina/PE,-7.5768582,-40.5038509,5584,6579.93967
D1,Araripina/PE,-7.5768582,-40.5038509,116,136.68929
1,Araruama/RJ,-22.8733203,-42.3428897,4835,3600.33658
D1,Araruama/RJ,-22.8733203,-42.3428897,284,211.47789
1,Araruna/PB,-6.5321155,-35.7397595,593,2897.91331
D1,Araruna/PB,-6.5321155,-35.7397595,16,78.18990
1,Araruna/PR,-23.9320308,-52.4976047,1045,7464.28571
D1,Araruna/PR,-23.9320308,-52.4976047,19,135.71429
1,Arataca/BA,-15.2617424,-39.4122943,487,4443.02527
D1,Arataca/BA,-15.2617424,-39.4122943,13,118.60232
1,Aratiba/RS,-27.3955734,-52.3024325,346,5590.56390
D1,Aratiba/RS,-27.3955734,-52.3024325,6,96.94619
1,Aratuba/CE,-4.4195958,-39.0463737,1142,9676.32605
D1,Aratuba/CE,-4.4195958,-39.0463737,7,59.31198
1,Aratuípe/BA,-13.077137,-39.0010786,304,3440.08148
D1,Aratuípe/BA,-13.077137,-39.0010786,8,90.52846
1,Araucária/PR,-25.5861107,-49.4051209,19657,13443.99305
D1,Araucária/PR,-25.5861107,-49.4051209,313,214.06979
1,Arauá/SE,-11.2644014,-37.6181058,934,9389.76576
D1,Arauá/SE,-11.2644014,-37.6181058,17,170.90580
1,Araxá/MG,-19.5928536,-46.940241,8920,8310.27511
D1,Araxá/MG,-19.5928536,-46.940241,140,130.43033
1,Araçagi/PB,-6.8519969,-35.3835602,992,5862.53768
D1,Araçagi/PB,-6.8519969,-35.3835602,12,70.91779
1,Araçariguama/SP,-23.438611,-47.061389,1215,5314.96063
D1,Araçariguama/SP,-23.438611,-47.061389,41,179.35258
1,Araçatuba/SP,-21.207992,-50.4390225,21592,10897.95033
D1,Araçatuba/SP,-21.207992,-50.4390225,636,321.00298
1,Araçaí/MG,-19.200833,-44.2475,49,2081.56330
1,Araçoiaba da Serra/SP,-23.5045367,-47.6168158,2020,5808.60363
D1,Araçoiaba da Serra/SP,-23.5045367,-47.6168158,47,135.15068
1,Araçoiaba/PE,-7.7856903,-35.0898881,410,1977.52375
D1,Araçoiaba/PE,-7.7856903,-35.0898881,24,115.75749
1,Araçu/GO,-16.3561579,-49.6815269,376,10786.00115
D1,Araçu/GO,-16.3561579,-49.6815269,15,430.29260
1,Araçuaí/MG,-16.8484451,-42.0661868,1227,3342.23142
D1,Araçuaí/MG,-16.8484451,-42.0661868,25,68.09762
1,Araçás/BA,-12.2139176,-38.2026159,542,4439.71166
D1,Araçás/BA,-12.2139176,-38.2026159,7,57.33945
1,Araújos/MG,-19.948055,-45.165556,565,6009.99894
D1,Araújos/MG,-19.948055,-45.165556,6,63.82300
1,Arceburgo/MG,-21.364444,-46.939722,743,6827.16163
D1,Arceburgo/MG,-21.364444,-46.939722,18,165.39557
1,Arco-Íris/SP,-21.7741308,-50.4668814,92,5188.94529
D1,Arco-Íris/SP,-21.7741308,-50.4668814,6,338.40948
1,Arcos/MG,-20.282223,-45.539444,4279,10596.83011
D1,Arcos/MG,-20.282223,-45.539444,97,240.21793
1,Arcoverde/PE,-8.415192,-37.057748,4903,6552.88551
D1,Arcoverde/PE,-8.415192,-37.057748,100,133.65053
1,Areado/MG,-21.3582771,-46.1476688,532,3504.38048
D1,Areado/MG,-21.3582771,-46.1476688,15,98.80772
1,Areal/RJ,-22.2314922,-43.1056264,850,6709.29039
D1,Areal/RJ,-22.2314922,-43.1056264,36,284.15818
1,Arealva/SP,-22.0301906,-48.9111936,602,6989.43458
D1,Arealva/SP,-22.0301906,-48.9111936,8,92.88285
1,Areia Branca/RN,-4.9506652,-37.1263312,1911,6833.05324
D1,Areia Branca/RN,-4.9506652,-37.1263312,81,289.62706
1,Areia Branca/SE,-10.7591455,-37.3148072,1439,7700.95258
D1,Areia Branca/SE,-10.7591455,-37.3148072,35,187.30600
1,Areia de Baraúnas/PB,-7.1233949,-36.9446216,90,4253.30813
D1,Areia de Baraúnas/PB,-7.1233949,-36.9446216,3,141.77694
1,Areia/PB,-6.9680243,-35.6994783,1061,4683.08616
D1,Areia/PB,-6.9680243,-35.6994783,21,92.69068
1,Areial/PB,-7.0501306,-35.9245244,246,3500.78270
D1,Areial/PB,-7.0501306,-35.9245244,6,85.38494
1,Areias/SP,-22.5800929,-44.6975127,233,5980.49281
D1,Areias/SP,-22.5800929,-44.6975127,1,25.66735
1,Areiópolis/SP,-22.6758064,-48.6673653,909,8146.62126
D1,Areiópolis/SP,-22.6758064,-48.6673653,12,107.54616
1,Arenápolis/MT,-14.4610369,-56.8432806,1248,13134.07704
D1,Arenápolis/MT,-14.4610369,-56.8432806,19,199.95790
1,Arenópolis/GO,-16.3859286,-51.55937,165,6506.30915
D1,Arenópolis/GO,-16.3859286,-51.55937,8,315.45741
1,Argirita/MG,-21.612761,-42.8371922,246,9097.63314
D1,Argirita/MG,-21.612761,-42.8371922,5,184.91124
1,Aricanduva/MG,-17.8678,-42.5569,80,1518.31467
1,Arinos/MG,-15.917223,-46.106111,474,2653.67820
D1,Arinos/MG,-15.917223,-46.106111,11,61.58325
1,Aripuanã/MT,-10.175806,-59.4439663,2135,9399.48930
D1,Aripuanã/MT,-10.175806,-59.4439663,40,176.10284
1,Ariquemes/RO,-9.9076522,-63.033069,18587,16970.86457
D1,Ariquemes/RO,-9.9076522,-63.033069,402,367.04619
1,Ariranha do Ivaí/PR,-24.3834527,-51.5876772,129,6243.94966
D1,Ariranha do Ivaí/PR,-24.3834527,-51.5876772,2,96.80542
1,Ariranha/SP,-21.18716,-48.790418,404,4138.92019
D1,Ariranha/SP,-21.18716,-48.790418,14,143.42793
1,Armazém/SC,-28.2624996,-49.0190126,1322,15093.04715
D1,Armazém/SC,-28.2624996,-49.0190126,27,308.25437
1,Armação dos Búzios/RJ,-22.7597805,-41.8875267,3948,11451.11234
D1,Armação dos Búzios/RJ,-22.7597805,-41.8875267,41,118.91986
1,Arneiroz/CE,-6.3235099,-40.1603859,440,5609.38297
D1,Arneiroz/CE,-6.3235099,-40.1603859,11,140.23457
1,Aroazes/PI,-6.1108814,-41.7886137,523,8975.45907
D1,Aroazes/PI,-6.1108814,-41.7886137,12,205.93788
1,Aroeiras do Itaim/PI,-7.2797031,-41.5629681,98,3841.63073
D1,Aroeiras do Itaim/PI,-7.2797031,-41.5629681,2,78.40063
1,Aroeiras/PB,-7.5462904,-35.7080002,854,4467.46181
D1,Aroeiras/PB,-7.5462904,-35.7080002,6,31.38732
1,Arraial do Cabo/RJ,-22.9662839,-42.024427,602,1967.77040
D1,Arraial do Cabo/RJ,-22.9662839,-42.024427,23,75.18060
1,Arraial/PI,-6.6541632,-42.5335332,138,2923.72881
D1,Arraial/PI,-6.6541632,-42.5335332,2,42.37288
1,Arraias/TO,-12.9287788,-46.9437231,452,4290.86767
D1,Arraias/TO,-12.9287788,-46.9437231,4,37.97228
1,Arroio Grande/RS,-32.2384246,-53.0866661,1364,7478.89023
D1,Arroio Grande/RS,-32.2384246,-53.0866661,48,263.18675
1,Arroio Trinta/SC,-26.9301976,-51.334928,464,13074.10538
D1,Arroio Trinta/SC,-26.9301976,-51.334928,8,225.41561
1,Arroio do Meio/RS,-29.4020392,-51.9444993,2650,12638.90876
D1,Arroio do Meio/RS,-29.4020392,-51.9444993,34,162.15958
1,Arroio do Padre/RS,-31.4428773,-52.4228985,135,4574.72043
D1,Arroio do Padre/RS,-31.4428773,-52.4228985,2,67.77364
1,Arroio do Sal/RS,-29.549852,-49.8874395,899,8745.98696
D1,Arroio do Sal/RS,-29.549852,-49.8874395,31,301.58576
1,Arroio do Tigre/RS,-29.334158,-53.0888935,952,7097.59189
D1,Arroio do Tigre/RS,-29.334158,-53.0888935,18,134.19817
1,Arroio dos Ratos/RS,-30.0894524,-51.7265541,795,5607.67440
D1,Arroio dos Ratos/RS,-30.0894524,-51.7265541,29,204.55668
1,Artur Nogueira/SP,-22.572737,-47.172679,3268,5905.31261
D1,Artur Nogueira/SP,-22.572737,-47.172679,94,169.85905
1,Aruanã/GO,-14.9162439,-51.0715692,413,4085.06429
D1,Aruanã/GO,-14.9162439,-51.0715692,10,98.91197
1,Arujá/SP,-23.396266,-46.3175449,5985,6565.59562
D1,Arujá/SP,-23.396266,-46.3175449,229,251.21494
1,Arvoredo/SC,-27.0752908,-52.4571847,272,12175.47001
D1,Arvoredo/SC,-27.0752908,-52.4571847,4,179.05103
1,Arvorezinha/RS,-28.87369,-52.17808,702,6735.10506
D1,Arvorezinha/RS,-28.87369,-52.17808,24,230.26000
1,Arês/RN,-6.1969216,-35.1642968,724,5021.84921
D1,Arês/RN,-6.1969216,-35.1642968,20,138.72512
1,Ascurra/SC,-26.9569975,-49.3767752,1017,12747.55578
D1,Ascurra/SC,-26.9569975,-49.3767752,9,112.81023
1,Aspásia/SP,-20.160028,-50.728046,93,5115.51155
D1,Aspásia/SP,-20.160028,-50.728046,4,220.02200
1,Assaré/CE,-6.8746791,-39.8741385,1370,5835.25002
D1,Assaré/CE,-6.8746791,-39.8741385,27,115.00128
1,Assaí/PR,-23.3736041,-50.8454929,1136,7596.62966
D1,Assaí/PR,-23.3736041,-50.8454929,37,247.42544
1,Assis Brasil/AC,-10.9409203,-69.5672108,1526,20254.84470
D1,Assis Brasil/AC,-10.9409203,-69.5672108,21,278.73640
1,Assis Chateaubriand/PR,-24.4054826,-53.5120468,3027,9079.18416
D1,Assis Chateaubriand/PR,-24.4054826,-53.5120468,75,224.95501
1,Assis/SP,-22.6620892,-50.420623,7248,6897.14237
D1,Assis/SP,-22.6620892,-50.420623,239,227.43061
1,Assunção do Piauí/PI,-5.8610212,-41.0485091,295,3751.74870
D1,Assunção do Piauí/PI,-5.8610212,-41.0485091,6,76.30675
1,Assunção/PB,-7.073396,-36.7274003,280,6949.61529
D1,Assunção/PB,-7.073396,-36.7274003,2,49.64011
1,Astolfo Dutra/MG,-21.3132636,-42.8624102,1109,7771.54870
D1,Astolfo Dutra/MG,-21.3132636,-42.8624102,15,105.11563
1,Astorga/PR,-23.2350184,-51.6647074,2471,9428.05906
D1,Astorga/PR,-23.2350184,-51.6647074,57,217.48254
1,Atalaia do Norte/AM,-4.3658547,-70.1908742,2696,13216.98206
D1,Atalaia do Norte/AM,-4.3658547,-70.1908742,8,39.21953
1,Atalaia/AL,-9.5029595,-36.0219316,1042,2199.93666
D1,Atalaia/AL,-9.5029595,-36.0219316,41,86.56181
1,Atalaia/PR,-23.1513833,-52.0529697,330,8502.96315
D1,Atalaia/PR,-23.1513833,-52.0529697,15,386.49833
1,Atalanta/SC,-27.421916,-49.778863,282,8826.29108
D1,Atalanta/SC,-27.421916,-49.778863,5,156.49452
1,Ataléia/MG,-18.04432,-41.1110524,1031,8132.19751
D1,Ataléia/MG,-18.04432,-41.1110524,8,63.10144
1,Atibaia/SP,-23.1177393,-46.5547861,8712,6046.30504
D1,Atibaia/SP,-23.1177393,-46.5547861,208,144.35623
1,Atilio Vivacqua/ES,-20.9139369,-41.1947519,1322,10921.10698
D1,Atilio Vivacqua/ES,-20.9139369,-41.1947519,23,190.00413
1,Augustinópolis/TO,-5.4662267,-47.8897519,1336,7166.22861
D1,Augustinópolis/TO,-5.4662267,-47.8897519,24,128.73465
1,Augusto Corrêa/PA,-1.0229335,-46.6404029,1892,4071.35633
D1,Augusto Corrêa/PA,-1.0229335,-46.6404029,33,71.01203
1,Augusto Pestana/RS,-28.5148413,-53.9906433,421,6376.85550
D1,Augusto Pestana/RS,-28.5148413,-53.9906433,6,90.88155
1,Augusto de Lima/MG,-18.1092963,-44.2651945,215,4432.07586
D1,Augusto de Lima/MG,-18.1092963,-44.2651945,7,144.30014
1,Aurelino Leal/BA,-14.3167137,-39.3256107,823,7283.83043
D1,Aurelino Leal/BA,-14.3167137,-39.3256107,22,194.70750
1,Auriflama/SP,-20.6840418,-50.5554616,1632,10699.53452
D1,Auriflama/SP,-20.6840418,-50.5554616,56,367.14089
1,Aurilândia/GO,-16.6772599,-50.4641231,170,5559.18901
D1,Aurilândia/GO,-16.6772599,-50.4641231,5,163.50556
1,Aurora do Pará/PA,-2.1323199,-47.558436,1224,3852.32745
D1,Aurora do Pará/PA,-2.1323199,-47.558436,13,40.91524
1,Aurora do Tocantins/TO,-12.71045,-46.407604,167,4414.48586
D1,Aurora do Tocantins/TO,-12.71045,-46.407604,2,52.86809
1,Aurora/CE,-6.9426019,-38.9693765,1294,5258.02519
D1,Aurora/CE,-6.9426019,-38.9693765,29,117.83828
1,Aurora/SC,-27.3166417,-49.6368502,666,11719.16241
D1,Aurora/SC,-27.3166417,-49.6368502,14,246.34876
1,Autazes/AM,-3.5833283,-59.1301518,2766,6865.22710
D1,Autazes/AM,-3.5833283,-59.1301518,87,215.93448
1,Avanhandava/SP,-21.4603331,-49.9465156,559,4033.48005
D1,Avanhandava/SP,-21.4603331,-49.9465156,24,173.17267
1,Avaré/SP,-23.1045215,-48.9259103,6346,6955.89267
D1,Avaré/SP,-23.1045215,-48.9259103,141,154.55103
1,Avaí/SP,-22.1564662,-49.3316395,265,4874.90802
D1,Avaí/SP,-22.1564662,-49.3316395,6,110.37528
1,Aveiro/PA,-3.6049239,-55.3310742,581,3541.81907
D1,Aveiro/PA,-3.6049239,-55.3310742,9,54.86467
1,Avelino Lopes/PI,-10.1346855,-43.9489525,310,2737.06516
D1,Avelino Lopes/PI,-10.1346855,-43.9489525,19,167.75561
1,Avelinópolis/GO,-16.4672409,-49.7578661,264,10958.90411
D1,Avelinópolis/GO,-16.4672409,-49.7578661,11,456.62100
1,Axixá do Tocantins/TO,-5.612747,-47.77007,988,10095.02401
D1,Axixá do Tocantins/TO,-5.612747,-47.77007,16,163.48217
1,Axixá/MA,-2.8379465,-44.0561053,189,1551.34203
D1,Axixá/MA,-2.8379465,-44.0561053,4,32.83264
1,Açailândia/MA,-4.9514278,-47.4844564,4809,4251.20004
D1,Açailândia/MA,-4.9514278,-47.4844564,171,151.16557
1,Açu/RN,-5.5836157,-36.9139541,4563,7815.49740
D1,Açu/RN,-5.5836157,-36.9139541,124,212.38696
1,Açucena/MG,-19.073056,-42.546666,684,7301.45175
D1,Açucena/MG,-19.073056,-42.546666,22,234.84202
1,Babaçulândia/TO,-7.2034355,-47.761613,563,5278.45490
D1,Babaçulândia/TO,-7.2034355,-47.761613,4,37.50234
1,Bacabal/MA,-4.2318132,-44.781167,4395,4194.10249
D1,Bacabal/MA,-4.2318132,-44.781167,156,148.86917
1,Bacabeira/MA,-2.9775747,-44.3155943,317,1837.46812
D1,Bacabeira/MA,-2.9775747,-44.3155943,6,34.77858
1,Bacuri/MA,-1.728894,-45.1417148,429,2299.77485
D1,Bacuri/MA,-1.728894,-45.1417148,4,21.44312
1,Bacurituba/MA,-2.7082587,-44.7381309,112,1975.30864
D1,Bacurituba/MA,-2.7082587,-44.7381309,1,17.63668
1,Bady Bassitt/SP,-20.9178969,-49.4517911,2395,13484.60109
D1,Bady Bassitt/SP,-20.9178969,-49.4517911,51,287.14599
1,Baependi/MG,-21.959162,-44.8899249,1057,5505.49508
D1,Baependi/MG,-21.959162,-44.8899249,12,62.50326
1,Bagre/PA,-1.8994498,-50.2103844,839,2678.37191
D1,Bagre/PA,-1.8994498,-50.2103844,11,35.11572
1,Bagé/RS,-31.3314264,-54.1062808,7449,6139.20138
D1,Bagé/RS,-31.3314264,-54.1062808,204,168.12956
1,Baianópolis/BA,-12.3067564,-44.5383591,479,3438.86855
D1,Baianópolis/BA,-12.3067564,-44.5383591,4,28.71707
1,Baixa Grande do Ribeiro/PI,-7.862861,-45.2113289,1933,16562.41967
D1,Baixa Grande do Ribeiro/PI,-7.862861,-45.2113289,19,162.79668
1,Baixa Grande/BA,-11.9630941,-40.1657537,612,2992.81138
D1,Baixa Grande/BA,-11.9630941,-40.1657537,7,34.23150
1,Baixio/CE,-6.7303544,-38.7170095,357,5663.96954
D1,Baixio/CE,-6.7303544,-38.7170095,8,126.92369
1,Baixo Guandu/ES,-19.5138322,-41.0182089,3098,9951.17564
D1,Baixo Guandu/ES,-19.5138322,-41.0182089,69,221.63690
1,Baião/PA,-2.7903479,-49.6702845,688,1419.75691
D1,Baião/PA,-2.7903479,-49.6702845,22,45.39920
1,Balbinos/SP,-21.9006253,-49.3583966,309,5207.28008
D1,Balbinos/SP,-21.9006253,-49.3583966,4,67.40816
1,Baldim/MG,-19.2913568,-43.9558262,458,5869.53736
D1,Baldim/MG,-19.2913568,-43.9558262,9,115.34025
1,Baliza/GO,-16.1978119,-52.542789,206,3901.51515
D1,Baliza/GO,-16.1978119,-52.542789,6,113.63636
1,Balneário Arroio do Silva/SC,-28.9815269,-49.4189932,1749,13023.08265
D1,Balneário Arroio do Silva/SC,-28.9815269,-49.4189932,38,282.94862
1,Balneário Barra do Sul/SC,-26.459842,-48.6061471,1274,11545.08382
D1,Balneário Barra do Sul/SC,-26.459842,-48.6061471,29,262.80018
1,Balneário Camboriú/SC,-26.9924395,-48.6339782,22133,15180.80057
D1,Balneário Camboriú/SC,-26.9924395,-48.6339782,325,222.91421
1,Balneário Gaivota/SC,-29.1553098,-49.5808712,1103,9795.73712
D1,Balneário Gaivota/SC,-29.1553098,-49.5808712,29,257.54885
1,Balneário Pinhal/RS,-30.2482978,-50.234585,656,4567.29096
D1,Balneário Pinhal/RS,-30.2482978,-50.234585,37,257.60635
1,Balneário Piçarras/SC,-26.7638889,-48.6716667,3994,16801.27882
D1,Balneário Piçarras/SC,-26.7638889,-48.6716667,42,176.67845
1,Balneário Rincão/SC,-28.8235718,-49.2241642,1235,9539.62614
D1,Balneário Rincão/SC,-28.8235718,-49.2241642,35,270.35378
1,Balsa Nova/PR,-25.5842234,-49.6312741,1172,8952.03178
D1,Balsa Nova/PR,-25.5842234,-49.6312741,23,175.67980
1,Balsas/MA,-7.53214,-46.037163,8523,8884.69597
D1,Balsas/MA,-7.53214,-46.037163,135,140.72908
1,Bambuí/MG,-20.0131996,-45.9777034,1072,4485.73102
D1,Bambuí/MG,-20.0131996,-45.9777034,15,62.76676
1,Banabuiú/CE,-5.3046404,-38.919766,1161,6359.55302
D1,Banabuiú/CE,-5.3046404,-38.919766,9,49.29886
1,Bananal/SP,-22.6828195,-44.3221095,828,7532.06586
D1,Bananal/SP,-22.6828195,-44.3221095,2,18.19340
1,Bananeiras/PB,-6.7537682,-35.6338343,922,4334.94758
D1,Bananeiras/PB,-6.7537682,-35.6338343,17,79.92853
1,Bandeira do Sul/MG,-21.728056,-46.385555,220,3807.54586
D1,Bandeira do Sul/MG,-21.728056,-46.385555,7,121.14919
1,Bandeira/MG,-15.884444,-40.559167,448,9399.91607
D1,Bandeira/MG,-15.884444,-40.559167,9,188.83760
1,Bandeirante/SC,-26.7677402,-53.6397596,230,8685.80060
D1,Bandeirante/SC,-26.7677402,-53.6397596,2,75.52870
1,Bandeirantes do Tocantins/TO,-7.7635698,-48.579148,320,8908.68597
D1,Bandeirantes do Tocantins/TO,-7.7635698,-48.579148,4,111.35857
1,Bandeirantes/MS,-19.9179623,-54.3646768,446,6138.17781
D1,Bandeirantes/MS,-19.9179623,-54.3646768,8,110.10184
1,Bandeirantes/PR,-23.107788,-50.370407,2794,8951.97206
D1,Bandeirantes/PR,-23.107788,-50.370407,83,265.93188
1,Bannach/PA,-7.3508505,-50.4064531,531,16278.35684
D1,Bannach/PA,-7.3508505,-50.4064531,2,61.31208
1,Banzaê/BA,-10.5827616,-38.6122305,815,6155.58912
D1,Banzaê/BA,-10.5827616,-38.6122305,7,52.87009
1,Baraúna/PB,-6.643394,-36.2531932,248,4995.97099
D1,Baraúna/PB,-6.643394,-36.2531932,3,60.43513
1,Baraúna/RN,-5.0775002,-37.61752,813,2828.12120
D1,Baraúna/RN,-5.0775002,-37.61752,21,73.05110
1,Barbacena/MG,-21.2254524,-43.7735087,5722,4140.25643
D1,Barbacena/MG,-21.2254524,-43.7735087,180,130.24225
1,Barbalha/CE,-7.3121067,-39.3036427,4111,6714.24838
D1,Barbalha/CE,-7.3121067,-39.3036427,78,127.39270
1,Barbosa Ferraz/PR,-24.0287182,-52.00811,745,6520.21705
D1,Barbosa Ferraz/PR,-24.0287182,-52.00811,15,131.27954
1,Barbosa/SP,-21.265661,-49.951816,354,4740.22496
D1,Barbosa/SP,-21.265661,-49.951816,10,133.90466
1,Barcarena/PA,-1.5107945,-48.6190679,9909,7800.70379
D1,Barcarena/PA,-1.5107945,-48.6190679,195,153.51067
1,Barcelona/RN,-5.9514918,-35.9260284,60,1502.25338
D1,Barcelona/RN,-5.9514918,-35.9260284,3,75.11267
1,Barcelos/AM,-0.9729214,-62.925635,4089,14794.84767
D1,Barcelos/AM,-0.9729214,-62.925635,57,206.23779
1,Bariri/SP,-22.0746355,-48.7394852,2267,6375.49918
D1,Bariri/SP,-22.0746355,-48.7394852,90,253.10760
1,Barra Bonita/SC,-26.6526364,-53.4419581,137,8298.00121
D1,Barra Bonita/SC,-26.6526364,-53.4419581,1,60.56935
1,Barra Bonita/SP,-22.490859,-48.558349,2610,7224.71350
D1,Barra Bonita/SP,-22.490859,-48.558349,69,190.99817
1,Barra D'Alcântara/PI,-6.5209258,-42.1071089,105,2656.88259
D1,Barra D'Alcântara/PI,-6.5209258,-42.1071089,3,75.91093
1,Barra Funda/RS,-27.9230048,-53.0401045,397,15562.52450
D1,Barra Funda/RS,-27.9230048,-53.0401045,7,274.40220
1,Barra Longa/MG,-20.2833541,-43.0423516,238,4745.76271
D1,Barra Longa/MG,-20.2833541,-43.0423516,7,139.58126
1,Barra Mansa/RJ,-22.5394843,-44.1735129,13252,7169.71536
D1,Barra Mansa/RJ,-22.5394843,-44.1735129,454,245.62713
1,Barra Velha/SC,-26.6338203,-48.6835001,3577,11979.23644
D1,Barra Velha/SC,-26.6338203,-48.6835001,80,267.91695
1,Barra da Estiva/BA,-13.6269662,-41.3278287,1451,7115.53550
D1,Barra da Estiva/BA,-13.6269662,-41.3278287,13,63.75049
1,Barra de Guabiraba/PE,-8.4173522,-35.6626669,342,2356.99518
D1,Barra de Guabiraba/PE,-8.4173522,-35.6626669,14,96.48518
1,Barra de Santa Rosa/PB,-6.7218007,-36.0564638,755,4871.91069
D1,Barra de Santa Rosa/PB,-6.7218007,-36.0564638,4,25.81145
1,Barra de Santana/PB,-7.5230865,-35.9988518,315,3772.90693
D1,Barra de Santana/PB,-7.5230865,-35.9988518,4,47.90993
1,Barra de Santo Antônio/AL,-9.4038098,-35.5117693,291,1811.05302
D1,Barra de Santo Antônio/AL,-9.4038098,-35.5117693,19,118.24745
1,Barra de São Francisco/ES,-18.7570902,-40.8916119,4323,9611.15187
D1,Barra de São Francisco/ES,-18.7570902,-40.8916119,177,393.51697
1,Barra de São Miguel/AL,-9.8261357,-35.8837777,397,4738.60110
D1,Barra de São Miguel/AL,-9.8261357,-35.8837777,6,71.61614
1,Barra de São Miguel/PB,-7.7528088,-36.3170996,356,5869.74444
D1,Barra de São Miguel/PB,-7.7528088,-36.3170996,5,82.44023
1,Barra do Bugres/MT,-15.0683712,-57.1853688,2261,6403.82927
D1,Barra do Bugres/MT,-15.0683712,-57.1853688,54,152.94418
1,Barra do Chapéu/SP,-24.472203,-49.023784,223,3871.52778
D1,Barra do Chapéu/SP,-24.472203,-49.023784,1,17.36111
1,Barra do Choça/BA,-14.8638173,-40.5761637,1769,5668.23673
D1,Barra do Choça/BA,-14.8638173,-40.5761637,27,86.51351
1,Barra do Corda/MA,-5.496823,-45.248496,5096,5758.71265
D1,Barra do Corda/MA,-5.496823,-45.248496,50,56.50228
1,Barra do Garças/MT,-15.8916033,-52.2615413,6322,10341.04850
D1,Barra do Garças/MT,-15.8916033,-52.2615413,227,371.30940
1,Barra do Guarita/RS,-27.1888016,-53.7147086,107,3285.23181
D1,Barra do Guarita/RS,-27.1888016,-53.7147086,4,122.81240
1,Barra do Jacaré/PR,-23.1151788,-50.1813945,157,5645.45128
D1,Barra do Jacaré/PR,-23.1151788,-50.1813945,1,35.95829
1,Barra do Mendes/BA,-11.8053298,-42.057037,648,4684.45023
D1,Barra do Mendes/BA,-11.8053298,-42.057037,10,72.29090
1,Barra do Ouro/TO,-7.7113784,-47.6743925,114,2461.13990
D1,Barra do Ouro/TO,-7.7113784,-47.6743925,5,107.94473
1,Barra do Piraí/RJ,-22.4703403,-43.8263256,4986,4948.19578
D1,Barra do Piraí/RJ,-22.4703403,-43.8263256,267,264.97559
1,Barra do Quaraí/RS,-30.208947,-57.5505128,325,7688.66809
D1,Barra do Quaraí/RS,-30.208947,-57.5505128,2,47.31488
1,Barra do Ribeiro/RS,-30.2930206,-51.301437,956,7052.22780
D1,Barra do Ribeiro/RS,-30.2930206,-51.301437,46,339.33314
1,Barra do Rio Azul/RS,-27.4101581,-52.4117471,66,3987.91541
D1,Barra do Rio Azul/RS,-27.4101581,-52.4117471,1,60.42296
1,Barra do Rocha/BA,-14.2090974,-39.6004395,364,6486.10121
D1,Barra do Rocha/BA,-14.2090974,-39.6004395,4,71.27584
1,Barra do Turvo/SP,-24.756421,-48.5056942,464,6079.66457
D1,Barra do Turvo/SP,-24.756421,-48.5056942,11,144.12998
1,Barra dos Coqueiros/SE,-10.9075694,-37.0386249,5556,17963.14258
D1,Barra dos Coqueiros/SE,-10.9075694,-37.0386249,71,229.55060
1,Barra/BA,-11.0892702,-43.1420453,1639,3040.25227
D1,Barra/BA,-11.0892702,-43.1420453,31,57.50325
1,Barracão/PR,-26.252395,-53.6349576,983,9532.58340
D1,Barracão/PR,-26.252395,-53.6349576,26,252.13344
1,Barracão/RS,-27.6728964,-51.4582928,327,6221.46119
D1,Barracão/RS,-27.6728964,-51.4582928,11,209.28463
1,Barras/PI,-4.2446153,-42.2920241,4115,8720.99184
D1,Barras/PI,-4.2446153,-42.2920241,81,171.66472
1,Barreira/CE,-4.2883361,-38.641094,1093,4842.06796
D1,Barreira/CE,-4.2883361,-38.641094,31,137.33221
1,Barreiras do Piauí/PI,-9.9224524,-45.4763776,62,1849.64200
D1,Barreiras do Piauí/PI,-9.9224524,-45.4763776,1,29.83294
1,Barreiras/BA,-12.1440031,-44.9967406,13162,8384.77465
D1,Barreiras/BA,-12.1440031,-44.9967406,191,121.67543
1,Barreirinha/AM,-2.798863,-57.067897,2303,7089.86239
D1,Barreirinha/AM,-2.798863,-57.067897,61,187.79054
1,Barreirinhas/MA,-2.7541271,-42.8259693,1781,2817.28016
D1,Barreirinhas/MA,-2.7541271,-42.8259693,33,52.20115
1,Barreiros/PE,-8.8159644,-35.1831905,690,1613.50669
D1,Barreiros/PE,-8.8159644,-35.1831905,48,112.24394
1,Barretos/SP,-20.5531437,-48.5697509,10693,8705.31535
D1,Barretos/SP,-20.5531437,-48.5697509,327,266.21511
1,Barrinha/SP,-21.1898849,-48.1550642,1244,3749.24653
D1,Barrinha/SP,-21.1898849,-48.1550642,51,153.70705
1,Barro Alto/BA,-11.7618025,-41.9094904,723,4802.71024
D1,Barro Alto/BA,-11.7618025,-41.9094904,8,53.14202
1,Barro Alto/GO,-14.9696025,-48.9190985,1207,10580.29453
D1,Barro Alto/GO,-14.9696025,-48.9190985,13,113.95512
1,Barro Duro/PI,-5.8180139,-42.5106589,630,8965.41910
D1,Barro Duro/PI,-5.8180139,-42.5106589,9,128.07742
1,Barro Preto/BA,-14.8068289,-39.4727588,549,10077.09251
D1,Barro Preto/BA,-14.8068289,-39.4727588,10,183.55360
1,Barro/CE,-7.1713587,-38.7742136,815,3581.15827
D1,Barro/CE,-7.1713587,-38.7742136,18,79.09307
1,Barrocas/BA,-11.5165,-39.099282894736845,676,4197.45421
D1,Barrocas/BA,-11.5165,-39.099282894736845,18,111.76653
1,Barrolândia/TO,-9.837246,-48.7264346,678,11997.87648
D1,Barrolândia/TO,-9.837246,-48.7264346,19,336.22368
1,Barroquinha/CE,-3.0200371,-41.1339229,938,6235.04387
D1,Barroquinha/CE,-3.0200371,-41.1339229,23,152.88487
1,Barros Cassal/RS,-29.094938,-52.5832366,513,4587.73028
D1,Barros Cassal/RS,-29.094938,-52.5832366,6,53.65766
1,Barroso/MG,-21.187222,-43.976111,1088,5206.48897
D1,Barroso/MG,-21.187222,-43.976111,20,95.70752
1,Barueri/SP,-23.5112184,-46.8764612,23095,8338.08695
D1,Barueri/SP,-23.5112184,-46.8764612,875,315.90500
1,Barão de Antonina/SP,-23.6295651,-49.5632104,222,6346.48370
D1,Barão de Antonina/SP,-23.6295651,-49.5632104,3,85.76329
1,Barão de Cocais/MG,-19.9452437,-43.4870298,3137,9544.81835
D1,Barão de Cocais/MG,-19.9452437,-43.4870298,52,158.21822
1,Barão de Cotegipe/RS,-27.6214694,-52.3765316,551,8323.26284
D1,Barão de Cotegipe/RS,-27.6214694,-52.3765316,6,90.63444
1,Barão de Grajaú/MA,-6.7542591,-43.0263477,315,1664.55295
D1,Barão de Grajaú/MA,-6.7542591,-43.0263477,2,10.56859
1,Barão de Melgaço/MT,-16.195776,-55.9668049,294,3601.17589
D1,Barão de Melgaço/MT,-16.195776,-55.9668049,13,159.23567
1,Barão de Monte Alto/MG,-21.244722,-42.2375,190,3548.74860
D1,Barão de Monte Alto/MG,-21.244722,-42.2375,7,130.74337
1,Barão do Triunfo/RS,-30.3909877,-51.7375349,373,4960.76606
D1,Barão do Triunfo/RS,-30.3909877,-51.7375349,6,79.79785
1,Barão/RS,-29.372474,-51.494908,494,7965.17252
D1,Barão/RS,-29.372474,-51.494908,8,128.99065
1,Bastos/SP,-21.9222474,-50.7317727,696,3321.72004
D1,Bastos/SP,-21.9222474,-50.7317727,24,114.54207
1,Bataguassu/MS,-21.715899,-52.422058,2166,9286.17363
D1,Bataguassu/MS,-21.715899,-52.422058,24,102.89389
1,Batalha/AL,-9.6733809,-37.1265481,919,5011.45163
D1,Batalha/AL,-9.6733809,-37.1265481,15,81.79736
1,Batalha/PI,-4.022391,-42.0780926,883,3281.91786
D1,Batalha/PI,-4.022391,-42.0780926,30,111.50344
1,Batatais/SP,-20.892867,-47.592149,2164,3436.01143
D1,Batatais/SP,-20.892867,-47.592149,91,144.49031
1,Batayporã/MS,-22.2976466,-53.2685608,654,5762.62226
D1,Batayporã/MS,-22.2976466,-53.2685608,11,96.92484
1,Baturité/CE,-4.3290203,-38.8821055,2635,7331.45989
D1,Baturité/CE,-4.3290203,-38.8821055,66,183.63429
1,Bauru/SP,-22.3218102,-49.0705863,35745,9424.01337
D1,Bauru/SP,-22.3218102,-49.0705863,783,206.43454
1,Bayeux/PB,-7.1301631,-34.936532,6011,6183.96552
D1,Bayeux/PB,-7.1301631,-34.936532,213,219.12904
1,Baía Formosa/RN,-6.3691885,-35.0063741,308,3304.01201
D1,Baía Formosa/RN,-6.3691885,-35.0063741,8,85.81849
1,Baía da Traição/PB,-6.691258,-34.9371244,1199,13181.61829
D1,Baía da Traição/PB,-6.691258,-34.9371244,11,120.93228
1,Bebedouro/SP,-20.949077,-48.479083,3304,4260.20244
D1,Bebedouro/SP,-20.949077,-48.479083,90,116.04668
1,Beberibe/CE,-4.1810469,-38.1298101,3598,6669.26171
D1,Beberibe/CE,-4.1810469,-38.1298101,92,170.53143
1,Bela Cruz/CE,-3.0529129,-40.167582,2892,8838.09058
D1,Bela Cruz/CE,-3.0529129,-40.167582,49,149.74635
1,Bela Vista da Caroba/PR,-25.8792818,-53.6672545,159,4599.36361
D1,Bela Vista da Caroba/PR,-25.8792818,-53.6672545,5,144.63408
1,Bela Vista de Goiás/GO,-16.9692949,-48.9513071,2102,6893.61144
D1,Bela Vista de Goiás/GO,-16.9692949,-48.9513071,52,170.53653
1,Bela Vista de Minas/MG,-19.8289721,-43.0973688,675,6577.66517
D1,Bela Vista de Minas/MG,-19.8289721,-43.0973688,16,155.91503
1,Bela Vista do Maranhão/MA,-3.7416367,-45.2514192,292,2588.88199
D1,Bela Vista do Maranhão/MA,-3.7416367,-45.2514192,3,26.59810
1,Bela Vista do Paraíso/PR,-22.9948493,-51.1907996,1611,10461.71829
D1,Bela Vista do Paraíso/PR,-22.9948493,-51.1907996,57,370.15391
1,Bela Vista do Piauí/PI,-7.9716353,-41.8715061,229,5682.38213
D1,Bela Vista do Piauí/PI,-7.9716353,-41.8715061,6,148.88337
1,Bela Vista do Toldo/SC,-26.274625,-50.466354,61,958.81798
D1,Bela Vista do Toldo/SC,-26.274625,-50.466354,2,31.43666
1,Bela Vista/MS,-22.107327,-56.5317344,711,2874.46938
D1,Bela Vista/MS,-22.107327,-56.5317344,20,80.85709
1,Belford Roxo/RJ,-22.7667284,-43.4033603,19002,3703.24175
D1,Belford Roxo/RJ,-22.7667284,-43.4033603,556,108.35714
1,Belmiro Braga/MG,-21.9486291,-43.413564,151,4408.75912
D1,Belmiro Braga/MG,-21.9486291,-43.413564,3,87.59124
1,Belmonte/BA,-15.8630837,-38.8792845,891,3801.68110
D1,Belmonte/BA,-15.8630837,-38.8792845,17,72.53488
1,Belmonte/SC,-26.8448262,-53.578916,205,7567.36803
D1,Belmonte/SC,-26.8448262,-53.578916,4,147.65596
1,Belo Campo/BA,-15.0338286,-41.2585109,669,3910.22269
D1,Belo Campo/BA,-15.0338286,-41.2585109,9,52.60389
1,Belo Horizonte/MG,-19.9227318,-43.9450948,182436,7235.03350
D1,Belo Horizonte/MG,-19.9227318,-43.9450948,4419,175.24838
1,Belo Jardim/PE,-8.3338293,-36.4176419,2617,3412.57319
D1,Belo Jardim/PE,-8.3338293,-36.4176419,81,105.62416
1,Belo Monte/AL,-9.8269944,-37.2787165,253,3770.49180
D1,Belo Monte/AL,-9.8269944,-37.2787165,6,89.41878
1,Belo Oriente/MG,-19.2232523,-42.4807033,2348,8698.22924
D1,Belo Oriente/MG,-19.2232523,-42.4807033,55,203.74898
1,Belo Vale/MG,-20.407778,-44.024167,558,7228.91566
D1,Belo Vale/MG,-20.407778,-44.024167,10,129.55046
1,Belterra/PA,-2.636091,-54.937392,1217,6822.13129
D1,Belterra/PA,-2.636091,-54.937392,24,134.53669
1,Belágua/MA,-3.1604031,-43.5085052,197,2616.89692
D1,Belágua/MA,-3.1604031,-43.5085052,14,185.97237
1,Belém de Maria/PE,-8.6242497,-35.8388934,179,1476.65402
D1,Belém de Maria/PE,-8.6242497,-35.8388934,6,49.49678
1,Belém do Brejo do Cruz/PB,-6.1880727,-37.5332267,487,6626.75194
D1,Belém do Brejo do Cruz/PB,-6.1880727,-37.5332267,5,68.03647
1,Belém do Piauí/PI,-7.3767305,-40.9712156,422,11764.70588
D1,Belém do Piauí/PI,-7.3767305,-40.9712156,7,195.14915
1,Belém do São Francisco/PE,-8.7517707,-38.9625715,565,2725.51857
D1,Belém do São Francisco/PE,-8.7517707,-38.9625715,8,38.59141
1,Belém/AL,-9.5715351,-36.492841,101,2357.60971
D1,Belém/AL,-9.5715351,-36.492841,3,70.02801
1,Belém/PA,-1.45056,-48.4682453,96714,6449.14350
D1,Belém/PA,-1.45056,-48.4682453,4549,303.33927
1,Belém/PB,-6.6967586,-35.5369626,1852,10460.32194
D1,Belém/PB,-6.6967586,-35.5369626,31,175.09178
1,Beneditinos/PI,-5.4565671,-42.3605061,897,8564.88112
D1,Beneditinos/PI,-5.4565671,-42.3605061,30,286.45087
1,Benedito Leite/MA,-7.2173453,-44.5523331,295,5232.35190
D1,Benedito Leite/MA,-7.2173453,-44.5523331,2,35.47357
1,Benedito Novo/SC,-26.7840657,-49.3629511,915,7770.70064
D1,Benedito Novo/SC,-26.7840657,-49.3629511,16,135.88110
1,Benevides/PA,-1.3555577,-48.252235,3605,5653.30573
D1,Benevides/PA,-1.3555577,-48.252235,87,136.43207
1,Benjamin Constant do Sul/RS,-27.5105555,-52.6007689,152,7763.02349
1,Benjamin Constant/AM,-4.3782748,-70.0290603,2670,6077.15944
D1,Benjamin Constant/AM,-4.3782748,-70.0290603,83,188.91544
1,Bento Fernandes/RN,-5.6926846,-35.8207423,103,1864.25339
D1,Bento Fernandes/RN,-5.6926846,-35.8207423,3,54.29864
1,Bento Gonçalves/RS,-29.1654014,-51.5197627,14476,11884.76474
D1,Bento Gonçalves/RS,-29.1654014,-51.5197627,260,213.45944
1,Bento de Abreu/SP,-21.2707225,-50.8120444,246,8186.35607
1,Bequimão/MA,-2.4495376,-44.7884889,275,1291.14043
D1,Bequimão/MA,-2.4495376,-44.7884889,17,79.81595
1,Berilo/MG,-16.9515764,-42.4643732,126,1061.32075
D1,Berilo/MG,-16.9515764,-42.4643732,1,8.42318
1,Berizal/MG,-15.6118785,-41.7417382,103,2162.04870
D1,Berizal/MG,-15.6118785,-41.7417382,1,20.99076
1,Bernardino Batista/PB,-6.4532173,-38.5495418,232,6561.08597
1,Bernardino de Campos/SP,-23.0140216,-49.4760724,394,3531.09876
D1,Bernardino de Campos/SP,-23.0140216,-49.4760724,8,71.69744
1,Bernardo Sayão/TO,-7.8794244,-48.8968905,405,9105.21583
D1,Bernardo Sayão/TO,-7.8794244,-48.8968905,6,134.89209
1,Bernardo do Mearim/MA,-4.6315929,-44.7617508,268,4412.97547
D1,Bernardo do Mearim/MA,-4.6315929,-44.7617508,6,98.79796
1,Bertioga/SP,-23.848568,-46.139586,4632,7156.65219
D1,Bertioga/SP,-23.848568,-46.139586,120,185.40550
1,Bertolínia/PI,-7.6372159,-43.9540611,781,14181.95025
D1,Bertolínia/PI,-7.6372159,-43.9540611,10,181.58707
1,Bertópolis/MG,-17.063333,-40.573889,266,5773.82244
1,Beruri/AM,-3.9007135,-61.3717319,2085,10376.74812
D1,Beruri/AM,-3.9007135,-61.3717319,31,154.28259
1,Betim/MG,-19.968056,-44.198333,24937,5606.54160
D1,Betim/MG,-19.968056,-44.198333,892,200.54678
1,Betânia do Piauí/PI,-8.1460635,-40.7961387,157,2528.18035
D1,Betânia do Piauí/PI,-8.1460635,-40.7961387,2,32.20612
1,Betânia/PE,-8.2742779,-38.0351767,377,2953.38817
D1,Betânia/PE,-8.2742779,-38.0351767,10,78.33921
1,Bezerros/PE,-8.2372132,-35.7558262,3216,5282.52300
D1,Bezerros/PE,-8.2372132,-35.7558262,96,157.68725
1,Bias Fortes/MG,-21.605833,-43.756944,99,2973.86603
D1,Bias Fortes/MG,-21.605833,-43.756944,2,60.07810
1,Bicas/MG,-21.7213723,-43.0604327,1006,6912.18909
D1,Bicas/MG,-21.7213723,-43.0604327,32,219.87083
1,Biguaçu/SC,-27.4961277,-48.6542432,10147,14602.94160
D1,Biguaçu/SC,-27.4961277,-48.6542432,148,212.99255
1,Bilac/SP,-21.403962,-50.47464,721,8882.59209
D1,Bilac/SP,-21.403962,-50.47464,12,147.83787
1,Biquinhas/MG,-18.783611,-45.502222,100,4003.20256
D1,Biquinhas/MG,-18.783611,-45.502222,1,40.03203
1,Birigui/SP,-21.2908491,-50.34144,11221,8985.21016
D1,Birigui/SP,-21.2908491,-50.34144,394,315.49530
1,Biritiba Mirim/SP,-23.5697765,-46.0407456,1025,3112.09619
D1,Biritiba Mirim/SP,-23.5697765,-46.0407456,66,200.38863
1,Biritinga/BA,-11.6227908,-38.8066738,298,1864.36436
D1,Biritinga/BA,-11.6227908,-38.8066738,6,37.53754
1,Bituruna/PR,-26.161281,-51.5533319,576,3512.19512
D1,Bituruna/PR,-26.161281,-51.5533319,10,60.97561
1,Blumenau/SC,-26.9195567,-49.0658025,44506,12299.40169
D1,Blumenau/SC,-26.9195567,-49.0658025,504,139.28231
1,Boa Esperança do Iguaçu/PR,-25.6362851,-53.2139114,139,5627.53036
1,Boa Esperança do Sul/SP,-21.9930206,-48.3917372,689,4587.82794
D1,Boa Esperança do Sul/SP,-21.9930206,-48.3917372,11,73.24544
1,Boa Esperança/ES,-18.5395472,-40.2904088,1149,7613.30506
D1,Boa Esperança/ES,-18.5395472,-40.2904088,35,231.91095
1,Boa Esperança/MG,-21.0901253,-45.5660195,2862,7116.03968
D1,Boa Esperança/MG,-21.0901253,-45.5660195,77,191.45180
1,Boa Esperança/PR,-24.2411024,-52.7860277,244,6029.15740
D1,Boa Esperança/PR,-24.2411024,-52.7860277,7,172.96763
1,Boa Hora/PI,-4.4094627,-42.1255341,484,7101.98092
D1,Boa Hora/PI,-4.4094627,-42.1255341,5,73.36757
1,Boa Nova/BA,-14.365907,-40.2063056,732,5937.22119
D1,Boa Nova/BA,-14.365907,-40.2063056,11,89.22054
1,Boa Ventura de São Roque/PR,-24.88177,-51.5441292,354,5561.66536
D1,Boa Ventura de São Roque/PR,-24.88177,-51.5441292,5,78.55460
1,Boa Ventura/PB,-7.4202462,-38.2156782,279,5257.20746
D1,Boa Ventura/PB,-7.4202462,-38.2156782,4,75.37215
1,Boa Viagem/CE,-5.1261877,-39.7300055,2927,5363.06503
D1,Boa Viagem/CE,-5.1261877,-39.7300055,79,144.74962
1,Boa Vista da Aparecida/PR,-25.4357216,-53.4067721,683,9058.35544
D1,Boa Vista da Aparecida/PR,-25.4357216,-53.4067721,19,251.98939
1,Boa Vista das Missões/RS,-27.6677983,-53.3127622,115,5497.13193
D1,Boa Vista das Missões/RS,-27.6677983,-53.3127622,4,191.20459
1,Boa Vista do Buricá/RS,-27.6687782,-54.1111913,576,8581.64482
D1,Boa Vista do Buricá/RS,-27.6687782,-54.1111913,8,119.18951
1,Boa Vista do Cadeado/RS,-28.5783827,-53.8123759,145,5875.20259
D1,Boa Vista do Cadeado/RS,-28.5783827,-53.8123759,2,81.03728
1,Boa Vista do Gurupi/MA,-1.7981168,-46.3071882,15,178.95490
D1,Boa Vista do Gurupi/MA,-1.7981168,-46.3071882,4,47.72131
1,Boa Vista do Incra/RS,-28.8195551,-53.3866624,157,6001.52905
D1,Boa Vista do Incra/RS,-28.8195551,-53.3866624,2,76.45260
1,Boa Vista do Ramos/AM,-2.9716927,-57.5869819,860,4381.94232
D1,Boa Vista do Ramos/AM,-2.9716927,-57.5869819,11,56.04810
1,Boa Vista do Sul/RS,-29.3510488,-51.6779679,251,9035.27718
D1,Boa Vista do Sul/RS,-29.3510488,-51.6779679,3,107.99136
1,Boa Vista do Tupim/BA,-12.6605988,-40.6083594,183,987.53440
D1,Boa Vista do Tupim/BA,-12.6605988,-40.6083594,4,21.58545
1,Boa Vista/PB,-7.2620711,-36.2415161,546,7651.34529
D1,Boa Vista/PB,-7.2620711,-36.2415161,9,126.12108
1,Boa Vista/RR,2.8208478,-60.6719582,74197,17680.60202
D1,Boa Vista/RR,2.8208478,-60.6719582,1184,282.13853
1,Boca da Mata/AL,-9.6452054,-36.2116658,1608,5878.05235
D1,Boca da Mata/AL,-9.6452054,-36.2116658,40,146.22021
1,Boca do Acre/AM,-8.7553487,-67.3930873,2483,7169.04865
D1,Boca do Acre/AM,-8.7553487,-67.3930873,22,63.51956
1,Bocaina de Minas/MG,-22.167778,-44.394722,138,2711.73118
D1,Bocaina de Minas/MG,-22.167778,-44.394722,5,98.25113
1,Bocaina do Sul/SC,-27.745494,-49.942279,358,10263.76147
D1,Bocaina do Sul/SC,-27.745494,-49.942279,3,86.00917
1,Bocaina/PI,-6.9445939,-41.3224599,234,5194.22863
D1,Bocaina/PI,-6.9445939,-41.3224599,3,66.59267
1,Bocaina/SP,-22.1421831,-48.522276,1091,8761.64472
D1,Bocaina/SP,-22.1421831,-48.522276,25,200.77096
1,Bocaiúva do Sul/PR,-25.206591,-49.114131,1345,10244.49692
D1,Bocaiúva do Sul/PR,-25.206591,-49.114131,12,91.40072
1,Bocaiúva/MG,-17.1160208,-43.8122678,1781,3543.85546
D1,Bocaiúva/MG,-17.1160208,-43.8122678,43,85.56192
1,Bodocó/PE,-7.777592,-39.933797,1573,4098.70238
D1,Bodocó/PE,-7.777592,-39.933797,24,62.53583
1,Bodoquena/MS,-20.5508775,-56.6769653,269,3431.99796
D1,Bodoquena/MS,-20.5508775,-56.6769653,11,140.34192
1,Bodó/RN,-5.9866104,-36.4134824,99,4506.14474
1,Bofete/SP,-23.1019554,-48.2610535,561,4705.98104
D1,Bofete/SP,-23.1019554,-48.2610535,13,109.05125
1,Boituva/SP,-23.2838893,-47.6738231,4251,6837.70307
D1,Boituva/SP,-23.2838893,-47.6738231,104,167.28326
1,Bom Conselho/PE,-9.169191,-36.685683,1341,2749.81032
D1,Bom Conselho/PE,-9.169191,-36.685683,44,90.22495
1,Bom Despacho/MG,-19.7375242,-45.2517288,2833,5551.85388
D1,Bom Despacho/MG,-19.7375242,-45.2517288,59,115.62280
1,Bom Jardim da Serra/SC,-28.3380324,-49.625588,540,11316.01006
D1,Bom Jardim da Serra/SC,-28.3380324,-49.625588,4,83.82230
1,Bom Jardim de Goiás/GO,-16.2062659,-52.172793,595,6708.76085
D1,Bom Jardim de Goiás/GO,-16.2062659,-52.172793,12,135.30274
1,Bom Jardim de Minas/MG,-21.9476466,-44.1906033,358,5542.65366
D1,Bom Jardim de Minas/MG,-21.9476466,-44.1906033,1,15.48227
1,Bom Jardim/MA,-3.54129,-45.606004,1182,2826.26369
D1,Bom Jardim/MA,-3.54129,-45.606004,40,95.64344
1,Bom Jardim/PE,-7.7961572,-35.5871696,1074,2686.14161
D1,Bom Jardim/PE,-7.7961572,-35.5871696,46,115.04890
1,Bom Jardim/RJ,-22.1515328,-42.4186683,1214,4396.00232
D1,Bom Jardim/RJ,-22.1515328,-42.4186683,30,108.63268
1,Bom Jesus da Lapa/BA,-13.250571,-43.410754,3462,4969.71089
D1,Bom Jesus da Lapa/BA,-13.250571,-43.410754,52,74.64615
1,Bom Jesus da Penha/MG,-21.0165299,-46.5226644,292,6880.30160
D1,Bom Jesus da Penha/MG,-21.0165299,-46.5226644,8,188.50141
1,Bom Jesus da Serra/BA,-14.3724084,-40.5047119,411,4184.05782
D1,Bom Jesus da Serra/BA,-14.3724084,-40.5047119,8,81.44151
1,Bom Jesus das Selvas/MA,-4.4878075,-46.8526639,2723,7877.45538
D1,Bom Jesus das Selvas/MA,-4.4878075,-46.8526639,22,63.64452
1,Bom Jesus de Goiás/GO,-18.2174587,-49.739721,2417,9423.73674
D1,Bom Jesus de Goiás/GO,-18.2174587,-49.739721,94,366.50031
1,Bom Jesus do Amparo/MG,-19.7045132,-43.4752911,177,2886.02641
D1,Bom Jesus do Amparo/MG,-19.7045132,-43.4752911,5,81.52617
1,Bom Jesus do Araguaia/MT,-12.1725897,-51.5074425,851,12690.12824
D1,Bom Jesus do Araguaia/MT,-12.1725897,-51.5074425,14,208.76827
1,Bom Jesus do Galho/MG,-19.8283191,-42.3162256,533,3586.32755
D1,Bom Jesus do Galho/MG,-19.8283191,-42.3162256,24,161.48567
1,Bom Jesus do Itabapoana/RJ,-21.1341025,-41.680095,2670,7176.84058
D1,Bom Jesus do Itabapoana/RJ,-21.1341025,-41.680095,73,196.22073
1,Bom Jesus do Norte/ES,-21.1254776,-41.6711646,857,8602.69022
D1,Bom Jesus do Norte/ES,-21.1254776,-41.6711646,21,210.80104
1,Bom Jesus do Oeste/SC,-26.6929713,-53.0967453,148,6919.12108
D1,Bom Jesus do Oeste/SC,-26.6929713,-53.0967453,5,233.75409
1,Bom Jesus do Sul/PR,-26.1922507,-53.6002033,236,6731.31774
D1,Bom Jesus do Sul/PR,-26.1922507,-53.6002033,3,85.56760
1,Bom Jesus do Tocantins/PA,-5.0471796,-48.5978362,693,4048.37014
D1,Bom Jesus do Tocantins/PA,-5.0471796,-48.5978362,23,134.36149
1,Bom Jesus do Tocantins/TO,-8.96306,-48.165043,123,2456.07029
D1,Bom Jesus do Tocantins/TO,-8.96306,-48.165043,2,39.93610
1,Bom Jesus dos Perdões/SP,-23.1353864,-46.4648052,1706,6565.32615
D1,Bom Jesus dos Perdões/SP,-23.1353864,-46.4648052,22,84.66423
1,Bom Jesus/PB,-6.8156725,-38.6551841,119,4621.35922
D1,Bom Jesus/PB,-6.8156725,-38.6551841,3,116.50485
1,Bom Jesus/PI,-9.0711644,-44.3583926,2778,10942.60842
D1,Bom Jesus/PI,-9.0711644,-44.3583926,29,114.23169
1,Bom Jesus/RN,-5.9887544,-35.5821149,614,5980.32531
D1,Bom Jesus/RN,-5.9887544,-35.5821149,12,116.87932
1,Bom Jesus/RS,-28.6692723,-50.4346894,621,5491.20170
D1,Bom Jesus/RS,-28.6692723,-50.4346894,14,123.79521
1,Bom Jesus/SC,-26.7350604,-52.3916519,319,10435.06706
D1,Bom Jesus/SC,-26.7350604,-52.3916519,6,196.27085
1,Bom Lugar/MA,-4.3728019,-45.0366054,432,2628.05694
D1,Bom Lugar/MA,-4.3728019,-45.0366054,7,42.58426
1,Bom Princípio do Piauí/PI,-3.1912777,-41.6430185,117,2070.43001
D1,Bom Princípio do Piauí/PI,-3.1912777,-41.6430185,10,176.95983
1,Bom Princípio/RS,-29.489788,-51.3566782,1377,9659.76850
D1,Bom Princípio/RS,-29.489788,-51.3566782,25,175.37706
1,Bom Progresso/RS,-27.5490948,-53.8655601,117,6161.13744
D1,Bom Progresso/RS,-27.5490948,-53.8655601,3,157.97788
1,Bom Repouso/MG,-22.4657069,-46.1485376,642,6092.81579
D1,Bom Repouso/MG,-22.4657069,-46.1485376,14,132.86514
1,Bom Retiro do Sul/RS,-29.6000007,-51.9359243,904,7296.20662
D1,Bom Retiro do Sul/RS,-29.6000007,-51.9359243,23,185.63358
1,Bom Retiro/SC,-27.798993,-49.486994,600,5964.21471
D1,Bom Retiro/SC,-27.798993,-49.486994,14,139.16501
1,Bom Sucesso de Itararé/SP,-24.3190016,-49.1446207,119,2986.94779
D1,Bom Sucesso de Itararé/SP,-24.3190016,-49.1446207,5,125.50201
1,Bom Sucesso do Sul/PR,-26.0749256,-52.8348629,307,9434.54210
D1,Bom Sucesso do Sul/PR,-26.0749256,-52.8348629,6,184.38844
1,Bom Sucesso/MG,-21.0323516,-44.7598082,537,3049.92333
D1,Bom Sucesso/MG,-21.0323516,-44.7598082,5,28.39780
1,Bom Sucesso/PB,-6.4458948,-37.9297662,197,3974.97982
D1,Bom Sucesso/PB,-6.4458948,-37.9297662,2,40.35513
1,Bom Sucesso/PR,-23.7088019,-51.7651297,629,8899.26429
D1,Bom Sucesso/PR,-23.7088019,-51.7651297,12,169.77929
1,Bombinhas/SC,-27.1519159,-48.4875691,3251,15987.21416
D1,Bombinhas/SC,-27.1519159,-48.4875691,51,250.79911
1,Bonfim do Piauí/PI,-9.1648678,-42.8734415,283,4978.01231
D1,Bonfim do Piauí/PI,-9.1648678,-42.8734415,6,105.54090
1,Bonfim/MG,-20.3266626, -44.2386157,342,4985.42274
D1,Bonfim/MG,-20.3266626, -44.2386157,14,204.08163
1,Bonfim/RR,3.3613818,-59.8427241,2120,16883.01346
D1,Bonfim/RR,3.3613818,-59.8427241,24,191.12845
1,Bonfinópolis de Minas/MG,-16.5660011,-45.98645,373,6851.57972
D1,Bonfinópolis de Minas/MG,-16.5660011,-45.98645,10,183.68846
1,Bonfinópolis/GO,-16.6172709,-48.9615701,439,4425.84938
D1,Bonfinópolis/GO,-16.6172709,-48.9615701,16,161.30658
1,Boninal/BA,-12.7095183,-41.8299984,568,3931.88426
D1,Boninal/BA,-12.7095183,-41.8299984,7,48.45632
1,Bonito de Minas/MG,-15.3191266,-44.7544,43,378.22148
1,Bonito de Santa Fé/PB,-7.3143332,-38.5146677,406,3377.14191
D1,Bonito de Santa Fé/PB,-7.3143332,-38.5146677,11,91.49892
1,Bonito/BA,-11.9665473,-41.2649896,643,3808.33926
D1,Bonito/BA,-11.9665473,-41.2649896,9,53.30490
1,Bonito/MS,-21.1264766,-56.4902208,2175,9801.71248
D1,Bonito/MS,-21.1264766,-56.4902208,47,211.80712
1,Bonito/PA,-1.3605722,-47.3049907,350,2117.36237
D1,Bonito/PA,-1.3605722,-47.3049907,12,72.59528
1,Bonito/PE,-8.4721161,-35.7314591,606,1589.84180
D1,Bonito/PE,-8.4721161,-35.7314591,34,89.19905
1,Bonópolis/GO,-13.649331,-49.8329113,140,3115.95816
D1,Bonópolis/GO,-13.649331,-49.8329113,1,22.25684
1,Boqueirão do Leão/RS,-29.30332,-52.4296817,548,7115.03506
D1,Boqueirão do Leão/RS,-29.30332,-52.4296817,28,363.54194
1,Boqueirão do Piauí/PI,-4.4850148,-42.1095161,482,7500.77809
D1,Boqueirão do Piauí/PI,-4.4850148,-42.1095161,8,124.49424
1,Boqueirão/PB,-7.487004,-36.130887,1296,7252.37829
D1,Boqueirão/PB,-7.487004,-36.130887,22,123.11136
1,Boquim/SE,-11.1450175,-37.6204228,1822,6773.48600
D1,Boquim/SE,-11.1450175,-37.6204228,43,159.85724
1,Boquira/BA,-12.8184859,-42.7270883,459,2135.18165
D1,Boquira/BA,-12.8184859,-42.7270883,10,46.51812
1,Boracéia/SP,-22.195355,-48.7801925,770,15817.58422
D1,Boracéia/SP,-22.195355,-48.7801925,19,390.30403
1,Borba/AM,-4.3934778,-59.5947721,1843,4414.58273
D1,Borba/AM,-4.3934778,-59.5947721,53,126.95219
1,Borborema/PB,-6.8066718,-35.5990191,332,6279.55362
D1,Borborema/PB,-6.8066718,-35.5990191,8,151.31455
1,Borborema/SP,-21.6212706,-49.074135,978,6050.48255
D1,Borborema/SP,-21.6212706,-49.074135,34,210.34397
1,Borda da Mata/MG,-22.274167,-46.165278,1090,5557.25502
D1,Borda da Mata/MG,-22.274167,-46.165278,34,173.34557
1,Borebi/SP,-22.5700178,-48.9714871,130,4845.32240
D1,Borebi/SP,-22.5700178,-48.9714871,2,74.54342
1,Borrazópolis/PR,-23.9393362,-51.5850786,504,7827.30238
D1,Borrazópolis/PR,-23.9393362,-51.5850786,16,248.48579
1,Borá/SP,-22.2701088,-50.544407,60,7159.90453
1,Bossoroca/RS,-28.7278885,-54.9120278,353,5688.96052
D1,Bossoroca/RS,-28.7278885,-54.9120278,19,306.20467
1,Botelhos/MG,-21.65,-46.394722,1195,7993.84574
D1,Botelhos/MG,-21.65,-46.394722,15,100.34116
1,Botucatu/SP,-22.8879628,-48.4410712,11125,7510.29501
D1,Botucatu/SP,-22.8879628,-48.4410712,210,141.76737
1,Botumirim/MG,-16.862778,-43.011111,173,2751.27226
D1,Botumirim/MG,-16.862778,-43.011111,3,47.70992
1,Botuporã/BA,-13.3744752,-42.5198469,188,1856.05687
D1,Botuporã/BA,-13.3744752,-42.5198469,3,29.61793
1,Botuverá/SC,-27.200749,-49.068892,822,15445.32131
D1,Botuverá/SC,-27.200749,-49.068892,8,150.31943
1,Bozano/RS,-28.3669953,-53.7705165,207,9805.77925
D1,Bozano/RS,-28.3669953,-53.7705165,7,331.59640
1,Braga/RS,-27.617348,-53.740514,156,4711.56750
D1,Braga/RS,-27.617348,-53.740514,4,120.80942
1,Braganey/PR,-24.8179919,-53.118506,302,5611.29692
D1,Braganey/PR,-24.8179919,-53.118506,7,130.06317
1,Bragança Paulista/SP,-22.9520235,-46.5418586,12910,7570.38227
D1,Bragança Paulista/SP,-22.9520235,-46.5418586,342,200.54769
1,Bragança/PA,-1.0573967,-46.7635406,3523,2732.82964
D1,Bragança/PA,-1.0573967,-46.7635406,120,93.08531
1,Branquinha/AL,-9.2478057,-36.0152009,448,4282.98279
D1,Branquinha/AL,-9.2478057,-36.0152009,9,86.04207
1,Brasil Novo/PA,-3.3055853,-52.539198,1516,10118.13389
D1,Brasil Novo/PA,-3.3055853,-52.539198,33,220.24962
1,Brasileira/PI,-4.131182,-41.7824969,467,5594.82449
D1,Brasileira/PI,-4.131182,-41.7824969,9,107.82317
1,Brasilândia de Minas/MG,-17.0096469,-46.0087183,918,5481.25149
D1,Brasilândia de Minas/MG,-17.0096469,-46.0087183,11,65.67948
1,Brasilândia do Sul/PR,-24.1975793,-53.527551,323,12495.16441
D1,Brasilândia do Sul/PR,-24.1975793,-53.527551,8,309.47776
1,Brasilândia do Tocantins/TO,-8.3886619,-48.4842729,136,6151.06287
D1,Brasilândia do Tocantins/TO,-8.3886619,-48.4842729,4,180.91361
1,Brasilândia/MS,-21.255575,-52.0365617,746,6293.76529
D1,Brasilândia/MS,-21.255575,-52.0365617,13,109.67688
1,Brasiléia/AC,-11.0010413,-68.7487894,2515,9418.77013
D1,Brasiléia/AC,-11.0010413,-68.7487894,35,131.07632
1,Brasnorte/MT,-12.1227151,-58.0050109,1719,8535.25323
D1,Brasnorte/MT,-12.1227151,-58.0050109,28,139.02681
1,Brasília de Minas/MG,-16.2075114,-44.430559,821,2533.55964
D1,Brasília de Minas/MG,-16.2075114,-44.430559,6,18.51566
1,Brasília/DF,-15.7934036,-47.8823172,384031,12569.95976
D1,Brasília/DF,-15.7934036,-47.8823172,8026,262.70404
1,Brazabrantes/GO,-16.4291635,-49.3858216,367,9797.11692
D1,Brazabrantes/GO,-16.4291635,-49.3858216,3,80.08542
1,Brazópolis/MG,-22.4742842,-45.6165577,665,4614.85080
D1,Brazópolis/MG,-22.4742842,-45.6165577,27,187.36988
1,Braço do Norte/SC,-28.2728633,-49.1622712,7062,20846.61707
D1,Braço do Norte/SC,-28.2728633,-49.1622712,73,215.49179
1,Braço do Trombudo/SC,-27.358578,-49.882145,562,14911.11701
D1,Braço do Trombudo/SC,-27.358578,-49.882145,4,106.12895
1,Braúna/SP,-21.5015319,-50.3175246,362,6305.52169
D1,Braúna/SP,-21.5015319,-50.3175246,19,330.95280
1,Braúnas/MG,-19.055556,-42.716111,190,3984.06375
D1,Braúnas/MG,-19.055556,-42.716111,7,146.78130
1,Brejetuba/ES,-20.1465817,-41.2902303,1432,11523.29605
D1,Brejetuba/ES,-20.1465817,-41.2902303,13,104.61093
1,Brejinho de Nazaré/TO,-11.0205883,-48.5722906,392,7102.73600
D1,Brejinho de Nazaré/TO,-11.0205883,-48.5722906,9,163.07302
1,Brejinho/PE,-7.3482153,-37.28538,572,7638.88889
D1,Brejinho/PE,-7.3482153,-37.28538,11,146.90171
1,Brejinho/RN,-6.1957907,-35.3583019,938,7335.57519
D1,Brejinho/RN,-6.1957907,-35.3583019,8,62.56354
1,Brejo Alegre/SP,-21.1671191,-50.1850393,263,9103.49602
D1,Brejo Alegre/SP,-21.1671191,-50.1850393,11,380.75459
1,Brejo Grande do Araguaia/PA,-5.7011449,-48.4037308,751,10192.72530
D1,Brejo Grande do Araguaia/PA,-5.7011449,-48.4037308,4,54.28882
1,Brejo Grande/SE,-10.4287358,-36.4667918,320,3830.95894
D1,Brejo Grande/SE,-10.4287358,-36.4667918,12,143.66096
1,Brejo Santo/CE,-7.4909841,-38.9859152,7078,14200.87476
D1,Brejo Santo/CE,-7.4909841,-38.9859152,119,238.75446
1,Brejo da Madre de Deus/PE,-8.1409718,-36.3712527,1741,3398.73109
D1,Brejo da Madre de Deus/PE,-8.1409718,-36.3712527,46,89.79990
1,Brejo de Areia/MA,-4.3316785,-45.5833334,281,3117.37298
D1,Brejo de Areia/MA,-4.3316785,-45.5833334,8,88.75083
1,Brejo do Cruz/PB,-6.32926065,-37.48746163303929,1232,8672.39195
D1,Brejo do Cruz/PB,-6.32926065,-37.48746163303929,19,133.74630
1,Brejo do Piauí/PI,-8.207583,-42.8359849,60,1559.25156
D1,Brejo do Piauí/PI,-8.207583,-42.8359849,3,77.96258
1,Brejo dos Santos/PB,-6.3769367,-37.8243125,362,5600.24752
D1,Brejo dos Santos/PB,-6.3769367,-37.8243125,4,61.88119
1,Brejo/MA,-3.6804397,-42.7529313,826,2253.69021
D1,Brejo/MA,-3.6804397,-42.7529313,19,51.84033
1,Brejolândia/BA,-12.4843845,-43.9611861,129,1214.91806
D1,Brejolândia/BA,-12.4843845,-43.9611861,8,75.34376
1,Brejão/PE,-9.029146,-36.566034,177,1969.51152
D1,Brejão/PE,-9.029146,-36.566034,5,55.63592
1,Brejões/BA,-13.1033754,-39.7909837,547,3846.15385
D1,Brejões/BA,-13.1033754,-39.7909837,8,56.25088
1,Breu Branco/PA,-3.7785073,-49.5684795,580,861.40320
D1,Breu Branco/PA,-3.7785073,-49.5684795,42,62.37747
1,Breves/PA,-1.68036,-50.479085,3796,3667.73916
D1,Breves/PA,-1.68036,-50.479085,108,104.35085
1,Britânia/GO,-15.2427599,-51.1602061,451,7779.88615
D1,Britânia/GO,-15.2427599,-51.1602061,3,51.75091
1,Brochier/RS,-29.556766,-51.5963047,351,6876.95925
D1,Brochier/RS,-29.556766,-51.5963047,1,19.59248
1,Brodowski/SP,-20.984532,-47.657217,1797,7109.22973
D1,Brodowski/SP,-20.984532,-47.657217,47,185.93979
1,Brotas de Macaúbas/BA,-12.0019007,-42.6257506,65,641.65844
D1,Brotas de Macaúbas/BA,-12.0019007,-42.6257506,1,9.87167
1,Brotas/SP,-22.2840884,-48.1267265,438,1777.88602
D1,Brotas/SP,-22.2840884,-48.1267265,29,117.71391
1,Brumadinho/MG,-20.143611,-44.2,2905,7143.55973
D1,Brumadinho/MG,-20.143611,-44.2,70,172.13397
1,Brumado/BA,-14.29507325,-41.659307508575985,8208,12189.79728
D1,Brumado/BA,-14.29507325,-41.659307508575985,163,242.07322
1,Brunópolis/SC,-27.310953,-50.837585,221,9332.77027
D1,Brunópolis/SC,-27.310953,-50.837585,5,211.14865
1,Brusque/SC,-27.0964628,-48.9136323,22979,16689.06013
D1,Brusque/SC,-27.0964628,-48.9136323,233,169.22194
1,Brás Pires/MG,-20.8483109,-43.2430524,172,4006.52225
D1,Brás Pires/MG,-20.8483109,-43.2430524,6,139.76240
1,Bueno Brandão/MG,-22.441976,-46.3517971,545,4958.60249
D1,Bueno Brandão/MG,-22.441976,-46.3517971,18,163.77036
1,Buenos Aires/PE,-7.7218931,-35.326587,204,1546.62623
D1,Buenos Aires/PE,-7.7218931,-35.326587,19,144.04852
1,Buenópolis/MG,-17.8756607,-44.1749365,305,2946.00599
D1,Buenópolis/MG,-17.8756607,-44.1749365,8,77.27229
1,Buerarema/BA,-14.9571177,-39.3008035,1235,6746.42194
D1,Buerarema/BA,-14.9571177,-39.3008035,37,202.11952
1,Bugre/MG,-19.4257687,-42.2556,350,8787.34622
D1,Bugre/MG,-19.4257687,-42.2556,10,251.06703
1,Bujari/AC,-9.8309656,-67.9520886,1081,10374.28023
D1,Bujari/AC,-9.8309656,-67.9520886,13,124.76008
1,Bujaru/PA,-1.5169239,-48.0410699,1264,4295.37500
D1,Bujaru/PA,-1.5169239,-48.0410699,36,122.33663
1,Buri/SP,-23.79849,-48.598924,2126,10648.63511
D1,Buri/SP,-23.79849,-48.598924,56,280.49086
1,Buritama/SP,-21.0664017,-50.1448077,1828,10578.09155
D1,Buritama/SP,-21.0664017,-50.1448077,53,306.69521
1,Buriti Alegre/GO,-18.1377879,-49.0404411,798,8414.17124
D1,Buriti Alegre/GO,-18.1377879,-49.0404411,28,295.23408
1,Buriti Bravo/MA,-5.8391884,-43.8367876,1201,5016.91800
D1,Buriti Bravo/MA,-5.8391884,-43.8367876,12,50.12741
1,Buriti de Goiás/GO,-16.180644,-50.4287479,173,6987.07593
D1,Buriti de Goiás/GO,-16.180644,-50.4287479,7,282.71405
1,Buriti do Tocantins/TO,-5.3187439,-48.2256609,682,5931.98226
D1,Buriti do Tocantins/TO,-5.3187439,-48.2256609,8,69.58337
1,Buriti dos Lopes/PI,-3.1776723,-41.8707444,1162,5866.61281
D1,Buriti dos Lopes/PI,-3.1776723,-41.8707444,22,111.07184
1,Buriti dos Montes/PI,-5.3136171,-41.0971256,545,6594.86931
D1,Buriti dos Montes/PI,-5.3136171,-41.0971256,7,84.70474
1,Buriti/MA,-3.9430944,-42.9244281,751,2607.81999
D1,Buriti/MA,-3.9430944,-42.9244281,7,24.30724
1,Buriticupu/MA,-4.3227472,-46.4516989,2965,4062.58992
D1,Buriticupu/MA,-4.3227472,-46.4516989,38,52.06692
1,Buritinópolis/GO,-14.4589282,-46.4293104,157,4782.21139
D1,Buritinópolis/GO,-14.4589282,-46.4293104,1,30.45995
1,Buritirama/BA,-10.7148421,-43.6362327,776,3647.30212
D1,Buritirama/BA,-10.7148421,-43.6362327,18,84.60237
1,Buritirana/MA,-5.5897455,-47.0148915,329,2127.10933
D1,Buritirana/MA,-5.5897455,-47.0148915,23,148.70369
1,Buritis/MG,-15.621389,-46.423889,1353,5409.18722
D1,Buritis/MG,-15.621389,-46.423889,25,99.94803
1,Buritis/RO,-10.2054937,-63.8281954,4197,10399.94053
D1,Buritis/RO,-10.2054937,-63.8281954,60,148.67678
1,Buritizal/SP,-20.1933264,-47.7097165,228,5050.95259
D1,Buritizal/SP,-20.1933264,-47.7097165,9,199.37971
1,Buritizeiro/MG,-17.3667765,-44.9647781,940,3342.69763
D1,Buritizeiro/MG,-17.3667765,-44.9647781,28,99.56972
1,Butiá/RS,-30.1256795,-51.9692224,1699,8109.01107
D1,Butiá/RS,-30.1256795,-51.9692224,46,219.54945
1,Buíque/PE,-8.6239732,-37.157296,1756,2980.36287
D1,Buíque/PE,-8.6239732,-37.157296,37,62.79808
1,Bálsamo/SP,-20.7343722,-49.5807484,1277,13973.08239
D1,Bálsamo/SP,-20.7343722,-49.5807484,49,536.16369
0,CASO SEM LOCALIZAÇÃO DEFINIDA/BA,-13.415069300066518,-38.14174656569957,14684,98.72882
D0,CASO SEM LOCALIZAÇÃO DEFINIDA/BA,-13.415069300066518,-38.14174656569957,231,1.55314
0,CASO SEM LOCALIZAÇÃO DEFINIDA/CE,-3.3445126297392798,-38.624961942434304,12482,136.68302
D0,CASO SEM LOCALIZAÇÃO DEFINIDA/CE,-3.3445126297392798,-38.624961942434304,98,1.07314
0,CASO SEM LOCALIZAÇÃO DEFINIDA/ES,-20.30989267097039,-39.81745156645774,3631,90.35373
D0,CASO SEM LOCALIZAÇÃO DEFINIDA/ES,-20.30989267097039,-39.81745156645774,179,4.45423
0,CASO SEM LOCALIZAÇÃO DEFINIDA/GO,-16.701590966270153,-49.164524059025034,1288,18.35188
D0,CASO SEM LOCALIZAÇÃO DEFINIDA/GO,-16.701590966270153,-49.164524059025034,32,0.45595
0,CASO SEM LOCALIZAÇÃO DEFINIDA/MG,-19.97049116501593,-43.8852149072783,4266,20.15231
D0,CASO SEM LOCALIZAÇÃO DEFINIDA/MG,-19.97049116501593,-43.8852149072783,263,1.24239
0,CASO SEM LOCALIZAÇÃO DEFINIDA/MT,-15.54791153961863,-56.17143998972475,2195,62.99387
D0,CASO SEM LOCALIZAÇÃO DEFINIDA/MT,-15.54791153961863,-56.17143998972475,165,4.73530
0,CASO SEM LOCALIZAÇÃO DEFINIDA/PA,-0.09317078214359542,-48.0050231510481,1834,21.31848
D0,CASO SEM LOCALIZAÇÃO DEFINIDA/PA,-0.09317078214359542,-48.0050231510481,62,0.72069
0,CASO SEM LOCALIZAÇÃO DEFINIDA/PI,-2.683810218391744,-41.470898009352254,1368,41.79362
D0,CASO SEM LOCALIZAÇÃO DEFINIDA/PI,-2.683810218391744,-41.470898009352254,36,1.09983
0,CASO SEM LOCALIZAÇÃO DEFINIDA/PR,-25.69415946385943,-48.10141676336737,5749,50.28006
D0,CASO SEM LOCALIZAÇÃO DEFINIDA/PR,-25.69415946385943,-48.10141676336737,146,1.27690
0,CASO SEM LOCALIZAÇÃO DEFINIDA/RN,-5.749310788669161,-34.95302586257457,1963,55.97611
D0,CASO SEM LOCALIZAÇÃO DEFINIDA/RN,-5.749310788669161,-34.95302586257457,47,1.34023
0,CASO SEM LOCALIZAÇÃO DEFINIDA/RR,2.813328208465927,-60.663338675861986,2910,480.38748
D0,CASO SEM LOCALIZAÇÃO DEFINIDA/RR,2.813328208465927,-60.663338675861986,15,2.47622
0,CASO SEM LOCALIZAÇÃO DEFINIDA/SP,-24.30968974555485,-46.21366504207253,15179,33.05600
D0,CASO SEM LOCALIZAÇÃO DEFINIDA/SP,-24.30968974555485,-46.21366504207253,583,1.26963
1,Caapiranga/AM,-3.3188884,-61.2096404,557,4193.32982
D1,Caapiranga/AM,-3.3188884,-61.2096404,20,150.56840
1,Caaporã/PB,-7.510234,-34.9154114,1661,7565.47483
D1,Caaporã/PB,-7.510234,-34.9154114,28,127.53359
1,Caarapó/MS,-22.6349267,-54.8240903,2589,8462.72023
D1,Caarapó/MS,-22.6349267,-54.8240903,25,81.71804
1,Caatiba/BA,-14.9782759,-40.4092325,721,11112.82367
D1,Caatiba/BA,-14.9782759,-40.4092325,8,123.30456
1,Cabaceiras do Paraguaçu/BA,-12.5377868,-39.1901339,447,2363.70366
D1,Cabaceiras do Paraguaçu/BA,-12.5377868,-39.1901339,4,21.15171
1,Cabaceiras/PB,-7.4899156,-36.2860501,308,5440.73485
D1,Cabaceiras/PB,-7.4899156,-36.2860501,1,17.66472
1,Cabeceira Grande/MG,-16.0297,-47.0906,276,3949.62793
D1,Cabeceira Grande/MG,-16.0297,-47.0906,4,57.24098
1,Cabeceiras do Piauí/PI,-4.4733665,-42.3098716,455,4280.33866
D1,Cabeceiras do Piauí/PI,-4.4733665,-42.3098716,10,94.07338
1,Cabeceiras/GO,-15.7995459,-46.9264991,290,3604.27542
D1,Cabeceiras/GO,-15.7995459,-46.9264991,11,136.71390
1,Cabedelo/PB,-6.97324,-34.8351609,7487,10887.48964
D1,Cabedelo/PB,-6.97324,-34.8351609,168,244.30323
1,Cabixi/RO,-13.4956065,-60.5424442,644,12413.26137
D1,Cabixi/RO,-13.4956065,-60.5424442,14,269.85351
1,Cabo Frio/RJ,-22.8804369,-42.0189227,10422,4523.86947
D1,Cabo Frio/RJ,-22.8804369,-42.0189227,539,233.96331
1,Cabo Verde/MG,-21.4743338,-46.3964995,354,2515.09769
D1,Cabo Verde/MG,-21.4743338,-46.3964995,5,35.52398
1,Cabo de Santo Agostinho/PE,-8.2838945,-35.0320984,4734,2265.67884
D1,Cabo de Santo Agostinho/PE,-8.2838945,-35.0320984,399,190.96026
1,Cabreúva/SP,-23.3075813,-47.1324417,3036,6020.34544
D1,Cabreúva/SP,-23.3075813,-47.1324417,71,140.79200
1,Cabrobó/PE,-8.5083701,-39.3106961,1561,4524.24427
D1,Cabrobó/PE,-8.5083701,-39.3106961,19,55.06768
1,Cabrália Paulista/SP,-22.4562909,-49.3385645,246,5797.78459
D1,Cabrália Paulista/SP,-22.4562909,-49.3385645,2,47.13646
1,Cacaulândia/RO,-10.3380043,-62.9007231,754,12027.43659
D1,Cacaulândia/RO,-10.3380043,-62.9007231,9,143.56357
1,Cacequi/RS,-29.8838059,-54.8273443,389,3131.28874
D1,Cacequi/RS,-29.8838059,-54.8273443,6,48.29751
1,Cachoeira Alta/GO,-18.7618269,-50.9432431,1173,9261.01374
D1,Cachoeira Alta/GO,-18.7618269,-50.9432431,17,134.21759
1,Cachoeira Dourada/GO,-18.4934204,-49.481062,378,4706.76130
D1,Cachoeira Dourada/GO,-18.4934204,-49.481062,15,186.77624
1,Cachoeira Dourada/MG,-18.517136,-49.5002062,134,4951.95861
D1,Cachoeira Dourada/MG,-18.517136,-49.5002062,2,73.90983
1,Cachoeira Grande/MA,-2.9290492,-44.0573223,221,2331.71555
D1,Cachoeira Grande/MA,-2.9290492,-44.0573223,5,52.75375
1,Cachoeira Paulista/SP,-22.666498,-45.015384,1944,5788.98782
D1,Cachoeira Paulista/SP,-22.666498,-45.015384,30,89.33623
1,Cachoeira da Prata/MG,-19.524723,-44.453056,226,6293.51156
D1,Cachoeira da Prata/MG,-19.524723,-44.453056,4,111.38959
1,Cachoeira de Goiás/GO,-16.6688414,-50.6435997,55,4098.36066
D1,Cachoeira de Goiás/GO,-16.6688414,-50.6435997,2,149.03130
1,Cachoeira de Minas/MG,-22.3554043,-45.7796324,525,4534.07030
D1,Cachoeira de Minas/MG,-22.3554043,-45.7796324,7,60.45427
1,Cachoeira de Pajeú/MG,-15.965833,-41.496666,293,3103.15611
D1,Cachoeira de Pajeú/MG,-15.965833,-41.496666,8,84.72781
1,Cachoeira do Arari/PA,-1.0143572,-48.9621089,449,1865.85771
D1,Cachoeira do Arari/PA,-1.0143572,-48.9621089,19,78.95612
1,Cachoeira do Piriá/PA,-1.7599443,-46.5446954,708,2045.71065
D1,Cachoeira do Piriá/PA,-1.7599443,-46.5446954,4,11.55769
1,Cachoeira do Sul/RS,-30.0474778,-52.8905413,6480,7915.08385
D1,Cachoeira do Sul/RS,-30.0474778,-52.8905413,105,128.25367
1,Cachoeira dos Índios/PB,-6.9259193,-38.6742159,572,5550.70354
D1,Cachoeira dos Índios/PB,-6.9259193,-38.6742159,14,135.85638
1,Cachoeira/BA,-12.5998256,-38.9665918,1245,3708.99991
D1,Cachoeira/BA,-12.5998256,-38.9665918,18,53.62410
1,Cachoeiras de Macacu/RJ,-22.4626861,-42.6534414,2399,4045.32654
D1,Cachoeiras de Macacu/RJ,-22.4626861,-42.6534414,84,141.64545
1,Cachoeirinha/PE,-8.4906364,-36.2338963,406,1980.39120
D1,Cachoeirinha/PE,-8.4906364,-36.2338963,23,112.18965
1,Cachoeirinha/RS,-29.9493353,-51.0898927,12307,9377.47638
D1,Cachoeirinha/RS,-29.9493353,-51.0898927,358,272.78269
1,Cachoeirinha/TO,-6.118647,-47.9208885,117,5122.59194
D1,Cachoeirinha/TO,-6.118647,-47.9208885,2,87.56567
1,Cachoeiro de Itapemirim/ES,-20.848084,-41.11129,22479,10674.34671
D1,Cachoeiro de Itapemirim/ES,-20.848084,-41.11129,471,223.65841
1,Cacimba de Areia/PB,-7.1288513,-37.1575194,29,784.84438
D1,Cacimba de Areia/PB,-7.1288513,-37.1575194,2,54.12720
1,Cacimba de Dentro/PB,-6.6425101,-35.7929304,869,5058.79613
D1,Cacimba de Dentro/PB,-6.6425101,-35.7929304,24,139.71359
1,Cacimbas/PB,-7.2125451,-37.0593398,196,2722.60036
D1,Cacimbas/PB,-7.2125451,-37.0593398,6,83.34491
1,Cacimbinhas/AL,-9.401212,-36.991082,575,5280.55836
D1,Cacimbinhas/AL,-9.401212,-36.991082,7,64.28506
1,Cacique Doble/RS,-27.7700117,-51.6616409,360,7094.99409
D1,Cacique Doble/RS,-27.7700117,-51.6616409,6,118.24990
1,Cacoal/RO,-11.4333,-61.4420502,11305,13161.72447
D1,Cacoal/RO,-11.4333,-61.4420502,214,249.14719
1,Caconde/SP,-21.527995,-46.643659,990,5208.05934
D1,Caconde/SP,-21.527995,-46.643659,18,94.69199
1,Caculé/BA,-14.4990734,-42.2233006,1318,5658.83818
D1,Caculé/BA,-14.4990734,-42.2233006,11,47.22854
1,Caetanos/BA,-14.3387456,-40.9085971,577,3949.89047
D1,Caetanos/BA,-14.3387456,-40.9085971,9,61.61008
1,Caetanópolis/MG,-19.2947496,-44.4138386,755,6426.07882
D1,Caetanópolis/MG,-19.2947496,-44.4138386,7,59.57954
1,Caetité/BA,-14.0691776,-42.4852428,1941,3799.84730
D1,Caetité/BA,-14.0691776,-42.4852428,21,41.11118
1,Caeté/MG,-19.897777,-43.670278,1524,3383.13317
D1,Caeté/MG,-19.897777,-43.670278,41,91.01605
1,Caetés/PE,-8.7728788,-36.6255835,1140,3944.09078
D1,Caetés/PE,-8.7728788,-36.6255835,17,58.81539
1,Cafarnaum/BA,-11.691399,-41.468823,757,4089.01853
D1,Cafarnaum/BA,-11.691399,-41.468823,16,86.42575
1,Cafeara/PR,-22.78905,-51.714195,224,7582.93839
D1,Cafeara/PR,-22.78905,-51.714195,8,270.81923
1,Cafelândia/PR,-24.6176963,-53.3218057,1454,7878.19679
D1,Cafelândia/PR,-24.6176963,-53.3218057,11,59.60121
1,Cafelândia/SP,-21.8054355,-49.6030627,641,3592.44522
D1,Cafelândia/SP,-21.8054355,-49.6030627,30,168.13316
1,Cafezal do Sul/PR,-23.900508,-53.512418,241,6011.47418
D1,Cafezal do Sul/PR,-23.900508,-53.512418,4,99.77551
1,Caiabu/SP,-22.0143038,-51.2356597,70,1669.44908
D1,Caiabu/SP,-22.0143038,-51.2356597,5,119.24636
1,Caiana/MG,-20.695555,-41.924723,122,2201.76863
D1,Caiana/MG,-20.695555,-41.924723,7,126.33099
1,Caiapônia/GO,-16.9538779,-51.8090761,965,5050.50505
D1,Caiapônia/GO,-16.9538779,-51.8090761,32,167.47789
1,Caibaté/RS,-28.290475,-54.645407,209,4333.40245
D1,Caibaté/RS,-28.290475,-54.645407,7,145.13788
1,Caibi/SC,-27.0751925,-53.2502133,546,8907.01468
D1,Caibi/SC,-27.0751925,-53.2502133,10,163.13214
1,Caicó/RN,-6.4594544,-37.0971911,8911,13038.64331
D1,Caicó/RN,-6.4594544,-37.0971911,110,160.95284
1,Caieiras/SP,-23.3644621,-46.7484765,6454,6279.73729
D1,Caieiras/SP,-23.3644621,-46.7484765,231,224.76283
1,Cairu/BA,-13.4860505,-39.0455744,1036,5622.18484
D1,Cairu/BA,-13.4860505,-39.0455744,11,59.69501
1,Caiuá/SP,-21.8319357,-51.9887179,250,4204.50723
D1,Caiuá/SP,-21.8319357,-51.9887179,5,84.09014
1,Caiçara do Norte/RN,-5.0645017,-36.0561226,295,4496.26581
D1,Caiçara do Norte/RN,-5.0645017,-36.0561226,9,137.17421
1,Caiçara do Rio do Vento/RN,-5.757968,-36.00089,211,5679.67699
D1,Caiçara do Rio do Vento/RN,-5.757968,-36.00089,7,188.42530
1,Caiçara/PB,-6.6146866,-35.4681434,620,8621.88847
D1,Caiçara/PB,-6.6146866,-35.4681434,13,180.78153
1,Caiçara/RS,-27.2750478,-53.4310053,409,8702.12766
D1,Caiçara/RS,-27.2750478,-53.4310053,8,170.21277
1,Cajamar/SP,-23.3561111,-46.8769444,3469,4451.20230
D1,Cajamar/SP,-23.3561111,-46.8769444,169,216.85016
1,Cajapió/MA,-2.8778715,-44.6746871,72,641.94009
D1,Cajapió/MA,-2.8778715,-44.6746871,4,35.66334
1,Cajari/MA,-3.3213076,-45.0118757,172,884.27330
D1,Cajari/MA,-3.3213076,-45.0118757,6,30.84674
1,Cajati/SP,-24.7272376,-48.1077914,2829,9928.40598
D1,Cajati/SP,-24.7272376,-48.1077914,71,249.17526
1,Cajazeiras do Piauí/PI,-6.794271,-42.3935024,39,1091.51973
D1,Cajazeiras do Piauí/PI,-6.794271,-42.3935024,1,27.98769
1,Cajazeiras/PB,-6.8897849,-38.5570389,6633,10648.75018
D1,Cajazeiras/PB,-6.8897849,-38.5570389,117,187.83413
1,Cajazeirinhas/PB,-6.961442,-37.7993733,115,3588.14353
1,Cajobi/SP,-20.8776238,-48.8106972,710,6700.64175
D1,Cajobi/SP,-20.8776238,-48.8106972,24,226.50057
1,Cajueiro da Praia/PI,-2.931114,-41.340801,469,6111.54548
D1,Cajueiro da Praia/PI,-2.931114,-41.340801,15,195.46521
1,Cajueiro/AL,-9.399589,-36.1524309,502,2353.38240
D1,Cajueiro/AL,-9.399589,-36.1524309,20,93.76026
1,Cajuri/MG,-20.7901414,-42.7954489,300,7549.06895
D1,Cajuri/MG,-20.7901414,-42.7954489,1,25.16356
1,Cajuru/SP,-21.2759978,-47.3046035,777,2943.96241
D1,Cajuru/SP,-21.2759978,-47.3046035,33,125.03315
1,Caldas Brandão/PB,-7.1027959,-35.3254676,460,7608.33609
D1,Caldas Brandão/PB,-7.1027959,-35.3254676,7,115.77903
1,Caldas Novas/GO,-17.745,-48.625,7139,7660.20001
D1,Caldas Novas/GO,-17.745,-48.625,181,194.21434
1,Caldas/MG,-21.923611,-46.386111,593,4078.12393
D1,Caldas/MG,-21.923611,-46.386111,21,144.41923
1,Caldazinha/GO,-16.7116649,-49.0012601,218,5665.28067
D1,Caldazinha/GO,-16.7116649,-49.0012601,4,103.95010
1,Caldeirão Grande do Piauí/PI,-7.3310393,-40.6374433,275,4756.96246
D1,Caldeirão Grande do Piauí/PI,-7.3310393,-40.6374433,2,34.59609
1,Caldeirão Grande/BA,-11.0208483,-40.3041387,539,4025.09148
D1,Caldeirão Grande/BA,-11.0208483,-40.3041387,6,44.80621
1,Califórnia/PR,-23.6672543,-51.3554556,799,9284.22031
D1,Califórnia/PR,-23.6672543,-51.3554556,15,174.29700
1,Calmon/SC,-26.6023644,-51.0992893,27,809.59520
D1,Calmon/SC,-26.6023644,-51.0992893,3,89.95502
1,Calumbi/PE,-7.9389746,-38.1516871,436,7586.56690
D1,Calumbi/PE,-7.9389746,-38.1516871,3,52.20115
1,Calçado/PE,-8.7413446,-36.3351787,356,3231.07642
D1,Calçado/PE,-8.7413446,-36.3351787,2,18.15211
1,Calçoene/AP,2.4981757,-50.9539503,1593,14089.86379
D1,Calçoene/AP,2.4981757,-50.9539503,10,88.44861
1,Camacan/BA,-15.4166631,-39.4930088,2416,7548.58464
D1,Camacan/BA,-15.4166631,-39.4930088,62,193.71368
1,Camacho/MG,-20.625556,-45.156667,49,1707.91216
D1,Camacho/MG,-20.625556,-45.156667,1,34.85535
1,Camalaú/PB,-7.885031,-36.824191,367,6085.22633
D1,Camalaú/PB,-7.885031,-36.824191,5,82.90499
1,Camamu/BA,-13.9438142,-39.1060917,1947,5502.79803
D1,Camamu/BA,-13.9438142,-39.1060917,39,110.22554
1,Camanducaia/MG,-22.755278,-46.144444,2474,11348.10330
D1,Camanducaia/MG,-22.755278,-46.144444,49,224.76033
1,Camapuã/MS,-19.5291747,-54.0434641,607,4432.92193
D1,Camapuã/MS,-19.5291747,-54.0434641,21,153.36303
1,Camaquã/RS,-30.8524752,-51.8075619,5957,8960.85923
D1,Camaquã/RS,-30.8524752,-51.8075619,114,171.48530
1,Camaragibe/PE,-8.0213832,-34.9810768,4535,2854.01419
D1,Camaragibe/PE,-8.0213832,-34.9810768,319,200.75646
1,Camargo/RS,-28.5865661,-52.2031474,281,10247.99416
D1,Camargo/RS,-28.5865661,-52.2031474,5,182.34865
1,Camaçari/BA,-12.6998188,-38.3260762,20561,6756.77452
D1,Camaçari/BA,-12.6998188,-38.3260762,521,171.21149
1,Cambará do Sul/RS,-29.0489517,-50.145412,293,4573.83703
D1,Cambará do Sul/RS,-29.0489517,-50.145412,9,140.49329
1,Cambará/PR,-23.042273,-50.075281,1842,7233.17364
D1,Cambará/PR,-23.042273,-50.075281,37,145.29176
1,Cambira/PR,-23.600265,-51.581045,668,8437.53947
D1,Cambira/PR,-23.600265,-51.581045,14,176.83466
1,Camboriú/SC,-27.0273601,-48.6535657,10985,12907.58475
D1,Camboriú/SC,-27.0273601,-48.6535657,145,170.37777
1,Cambuci/RJ,-21.5749919,-41.9107833,716,4615.18628
D1,Cambuci/RJ,-21.5749919,-41.9107833,25,161.14477
1,Cambuquira/MG,-21.853056,-45.2953619,432,3371.83890
D1,Cambuquira/MG,-21.853056,-45.2953619,16,124.88292
1,Cambuí/MG,-22.6122501,-46.0572137,2517,8442.34252
D1,Cambuí/MG,-22.6122501,-46.0572137,36,120.74864
1,Cambé/PR,-23.2782035,-51.2779583,9095,8472.99727
D1,Cambé/PR,-23.2782035,-51.2779583,181,168.62150
1,Cametá/PA,-2.242949,-49.497885,6884,4939.58268
D1,Cametá/PA,-2.242949,-49.497885,200,143.50908
1,Camocim de São Félix/PE,-8.3616757,-35.7638903,428,2264.55026
D1,Camocim de São Félix/PE,-8.3616757,-35.7638903,12,63.49206
1,Camocim/CE,-2.9009918,-40.8427389,5055,7909.93162
D1,Camocim/CE,-2.9009918,-40.8427389,137,214.37401
1,Campanha/MG,-21.8361108,-45.401986,1117,6663.88259
D1,Campanha/MG,-21.8361108,-45.401986,22,131.24925
1,Campanário/MG,-18.2398144,-41.7271768,181,4852.54692
D1,Campanário/MG,-18.2398144,-41.7271768,3,80.42895
1,Campestre da Serra/RS,-28.7966535,-51.0958149,140,4123.71134
1,Campestre de Goiás/GO,-16.7624179,-49.69497,427,11701.83612
D1,Campestre de Goiás/GO,-16.7624179,-49.69497,10,274.04768
1,Campestre do Maranhão/MA,-6.1729113,-47.3640512,903,6247.83782
D1,Campestre do Maranhão/MA,-6.1729113,-47.3640512,40,276.75915
1,Campestre/AL,-8.8481634,-35.5660033,238,3422.49065
D1,Campestre/AL,-8.8481634,-35.5660033,6,86.28128
1,Campestre/MG,-19.6142116,-43.219378,854,4056.23634
D1,Campestre/MG,-19.6142116,-43.219378,20,94.99383
1,Campina Grande do Sul/PR,-25.3046032,-49.0545355,4305,9854.64118
D1,Campina Grande do Sul/PR,-25.3046032,-49.0545355,88,201.44214
1,Campina Grande/PB,-7.2246743,-35.8771292,27055,6569.82519
D1,Campina Grande/PB,-7.2246743,-35.8771292,779,189.16628
1,Campina Verde/MG,-19.535277,-49.486389,847,4288.17335
D1,Campina Verde/MG,-19.535277,-49.486389,24,121.50668
